{"last_updated":1739794701,"ttl":60,"version":"2.2","data":{"bikes":[{"bike_id":"1c5b6508-a6a7-4d42-83d3-0ad882d70033","system_id":"levelo_inurba_marseille","lat":43.27334,"lon":5.39112,"is_reserved":false,"is_disabled":false,"rental_uris":{"android":"levelo://app?vid=1c5b6508-a6a7-4d42-83d3-0ad882d70033","ios":"levelo://app?vid=1c5b6508-a6a7-4d42-83d3-0ad882d70033"},"vehicle_type_id":"4","last_reported":1739794701,"current_range_meters":2800,"station_id":"ce4bhgp2rcd13ifvqfe0","pricing_plan_id":"cebpf4jnsgd1na2vs0mg"},{"bike_id":"913ba755-27d1-4918-9fb1-0fe5c8019cc6","system_id":"levelo_inurba_marseille","lat":43.33095,"lon":5.38015,"is_reserved":false,"is_disabled":false,"rental_uris":{"android":"levelo://app?vid=913ba755-27d1-4918-9fb1-0fe5c8019cc6","ios":"levelo://app?vid=913ba755-27d1-4918-9fb1-0fe5c8019cc6"},"vehicle_type_id":"4","last_reported":1739794701,"current_range_meters":2800,"station_id":"","pricing_plan_id":"cebpf4jnsgd1na2vs0mg"},{"bike_id":"de0d5157-23c7-4265-8536-5ad0a75deceb","system_id":"levelo_inurba_marseille","lat":43.25093,"lon":5.39525,"is_reserved":false,"is_disabled":false,"rental_uris":{"android":"levelo://app?vid=de0d5157-23c7-4265-8536-5ad0a75deceb","ios":"levelo://app?vid=de0d5157-23c7-4265-8536-5ad0a75deceb"},"vehicle_type_id":"4","last_reported":1739794701,"current_range_meters":2800,"station_id":"ce4bhm12rcd13ifvqgkg","pricing_plan_id":"cebpf4jnsgd1na2vs0mg"},{"bike_id":"c12d1608-0af7-4a63-85f3-3134a40e29d6","system_id":"levelo_inurba_marseille","lat":43.3053,"lon":5.38432,"is_reserved":false,"is_disabled":false,"rental_uris":{"android":"levelo://app?vid=c12d1608-0af7-4a63-85f3-3134a40e29d6","ios":"levelo://app?vid=c12d1608-0af7-4a63-85f3-3134a40e29d6"},"vehicle_type_id":"4","last_reported":1739794701,"current_range_meters":2800,"station_id":"ce4bgg92rcd13ifvqb30","pricing_plan_id":"cebpf4jnsgd1na2vs0mg"},{"bike_id":"9e7a1b36-2e01-4a75-8def-35cec576c3c5","system_id":"levelo_inurba_marseille","lat":43.27119,"lon":5.39263,"is_reserved":false,"is_disabled":true,"rental_uris":{"android":"levelo://app?vid=9e7a1b36-2e01-4a75-8def-35cec576c3c5","ios":"levelo://app?vid=9e7a1b36-2e01-4a75-8def-35cec576c3c5"},"vehicle_type_id":"4","last_reported":1739794701,"current_range_meters":3200,"station_id":"","pricing_plan_id":"cebpf4jnsgd1na2vs0mg"},{"bike_id":"d1f4b90e-a0bf-44a0-8551-fdc016dfecea","system_id":"levelo_inurba_marseille","lat":43.23073,"lon":5.35485,"is_reserved":false,"is_disabled":false,"rental_uris":{"android":"levelo://app?vid=d1f4b90e-a0bf-44a0-8551-fdc016dfecea","ios":"levelo://app?vid=d1f4b90e-a0bf-44a0-8551-fdc016dfecea"},"vehicle_type_id":"4","last_reported":1739794701,"current_range_meters":3200,"station_id":"cpo3342slgdg3j2ifvpg","pricing_plan_id":"cebpf4jnsgd1na2vs0mg"},{"bike_id":"a08ddabe-4426-49d9-805a-1fd3469229b6","system_id":"levelo_inurba_marseille","lat":43.25122,"lon":5.4032,"is_reserved":false,"is_disabled":false,"rental_uris":{"android":"levelo://app?vid=a08ddabe-4426-49d9-805a-1fd3469229b6","ios":"levelo://app?vid=a08ddabe-4426-49d9-805a-1fd3469229b6"},"vehicle_type_id":"4","last_reported":1739794701,"current_range_meters":3200,"station_id":"ce4bhlh2rcd13ifvqgig","pricing_plan_id":"cebpf4jnsgd1na2vs0mg"},{"bike_id":"1d9534c0-5db5-48c2-a707-0528db252be3","system_id":"levelo_inurba_marseille","lat":43.24545,"lon":5.39527,"is_reserved":false,"is_disabled":false,"rental_uris":{"android":"levelo://app?vid=1d9534c0-5db5-48c2-a707-0528db252be3","ios":"levelo://app?vid=1d9534c0-5db5-48c2-a707-0528db252be3"},"vehicle_type_id":"4","last_reported":1739794701,"current_range_meters":3600,"station_id":"ce4bhlp2rcd13ifvqgjg","pricing_plan_id":"cebpf4jnsgd1na2vs0mg"},{"bike_id":"18332cc9-0f16-4941-9018-c3813354a900","system_id":"levelo_inurba_marseille","lat":43.27632,"lon":5.39359,"is_reserved":false,"is_disabled":true,"rental_uris":{"android":"levelo://app?vid=18332cc9-0f16-4941-9018-c3813354a900","ios":"levelo://app?vid=18332cc9-0f16-4941-9018-c3813354a900"},"vehicle_type_id":"4","last_reported":1739794701,"current_range_meters":3600,"station_id":"","pricing_plan_id":"cebpf4jnsgd1na2vs0mg"},{"bike_id":"a3be9f5f-1f5e-49ce-a13e-c1a09880747b","system_id":"levelo_inurba_marseille","lat":43.30911,"lon":5.36849,"is_reserved":false,"is_disabled":false,"rental_uris":{"android":"levelo://app?vid=a3be9f5f-1f5e-49ce-a13e-c1a09880747b","ios":"levelo://app?vid=a3be9f5f-1f5e-49ce-a13e-c1a09880747b"},"vehicle_type_id":"4","last_reported":1739794701,"current_range_meters":4000,"station_id":"ce4bgn92rcd13ifvqbvg","pricing_plan_id":"cebpf4jnsgd1na2vs0mg"},{"bike_id":"286291e6-9f1f-4799-ad91-4de70b9c3343","system_id":"levelo_inurba_marseille","lat":43.27311,"lon":5.39077,"is_reserved":false,"is_disabled":false,"rental_uris":{"android":"levelo://app?vid=286291e6-9f1f-4799-ad91-4de70b9c3343","ios":"levelo://app?vid=286291e6-9f1f-4799-ad91-4de70b9c3343"},"vehicle_type_id":"4","last_reported":1739794701,"current_range_meters":4000,"station_id":"ce4bhgp2rcd13ifvqfe0","pricing_plan_id":"cebpf4jnsgd1na2vs0mg"},{"bike_id":"cf805522-c938-4f56-bfe1-10e8ddd9c228","system_id":"levelo_inurba_marseille","lat":43.24181,"lon":5.39733,"is_reserved":false,"is_disabled":false,"rental_uris":{"android":"levelo://app?vid=cf805522-c938-4f56-bfe1-10e8ddd9c228","ios":"levelo://app?vid=cf805522-c938-4f56-bfe1-10e8ddd9c228"},"vehicle_type_id":"4","last_reported":1739794701,"current_range_meters":4400,"station_id":"ce4bhn12rcd13ifvqgpg","pricing_plan_id":"cebpf4jnsgd1na2vs0mg"},{"bike_id":"89c46339-d3a1-4bd5-a921-ee22096d5982","system_id":"levelo_inurba_marseille","lat":43.290299,"lon":5.375706,"is_reserved":false,"is_disabled":false,"rental_uris":{"android":"levelo://app?vid=89c46339-d3a1-4bd5-a921-ee22096d5982","ios":"levelo://app?vid=89c46339-d3a1-4bd5-a921-ee22096d5982"},"vehicle_type_id":"4","last_reported":1739794701,"current_range_meters":4400,"station_id":"ce4bh192rcd13ifvqdb0","pricing_plan_id":"cebpf4jnsgd1na2vs0mg"},{"bike_id":"bf6799d9-a181-4362-bf3c-f5f921f86150","system_id":"levelo_inurba_marseille","lat":43.30908,"lon":5.36842,"is_reserved":false,"is_disabled":false,"rental_uris":{"android":"levelo://app?vid=bf6799d9-a181-4362-bf3c-f5f921f86150","ios":"levelo://app?vid=bf6799d9-a181-4362-bf3c-f5f921f86150"},"vehicle_type_id":"4","last_reported":1739794701,"current_range_meters":4400,"station_id":"ce4bgn92rcd13ifvqbvg","pricing_plan_id":"cebpf4jnsgd1na2vs0mg"},{"bike_id":"1f54a3d6-03b1-4265-8e45-3df12fe2c9b2","system_id":"levelo_inurba_marseille","lat":43.25104,"lon":5.38887,"is_reserved":false,"is_disabled":false,"rental_uris":{"android":"levelo://app?vid=1f54a3d6-03b1-4265-8e45-3df12fe2c9b2","ios":"levelo://app?vid=1f54a3d6-03b1-4265-8e45-3df12fe2c9b2"},"vehicle_type_id":"4","last_reported":1739794701,"current_range_meters":4400,"station_id":"ce4bhgp2rcd13ifvqfd0","pricing_plan_id":"cebpf4jnsgd1na2vs0mg"},{"bike_id":"541e5230-d383-4a10-aae1-56671011baa5","system_id":"levelo_inurba_marseille","lat":43.2397,"lon":5.36627,"is_reserved":false,"is_disabled":false,"rental_uris":{"android":"levelo://app?vid=541e5230-d383-4a10-aae1-56671011baa5","ios":"levelo://app?vid=541e5230-d383-4a10-aae1-56671011baa5"},"vehicle_type_id":"4","last_reported":1739794701,"current_range_meters":4800,"station_id":"","pricing_plan_id":"cebpf4jnsgd1na2vs0mg"},{"bike_id":"5221f4c0-9f1c-498e-86bd-57456c79685e","system_id":"levelo_inurba_marseille","lat":43.32114,"lon":5.36697,"is_reserved":false,"is_disabled":false,"rental_uris":{"android":"levelo://app?vid=5221f4c0-9f1c-498e-86bd-57456c79685e","ios":"levelo://app?vid=5221f4c0-9f1c-498e-86bd-57456c79685e"},"vehicle_type_id":"4","last_reported":1739794701,"current_range_meters":4800,"station_id":"ce4bhrh2rcd13ifvqhug","pricing_plan_id":"cebpf4jnsgd1na2vs0mg"},{"bike_id":"195de0eb-7f44-4be2-b666-380d7bfc425c","system_id":"levelo_inurba_marseille","lat":43.2321,"lon":5.39988,"is_reserved":false,"is_disabled":false,"rental_uris":{"android":"levelo://app?vid=195de0eb-7f44-4be2-b666-380d7bfc425c","ios":"levelo://app?vid=195de0eb-7f44-4be2-b666-380d7bfc425c"},"vehicle_type_id":"4","last_reported":1739794701,"current_range_meters":4800,"station_id":"ce4bhn12rcd13ifvqgqg","pricing_plan_id":"cebpf4jnsgd1na2vs0mg"},{"bike_id":"60e48e3f-1097-44c1-9d09-4ac070f15538","system_id":"levelo_inurba_marseille","lat":43.27071,"lon":5.4228,"is_reserved":false,"is_disabled":true,"rental_uris":{"android":"levelo://app?vid=60e48e3f-1097-44c1-9d09-4ac070f15538","ios":"levelo://app?vid=60e48e3f-1097-44c1-9d09-4ac070f15538"},"vehicle_type_id":"4","last_reported":1739794701,"current_range_meters":5600,"station_id":"ce4bhk92rcd13ifvqgb0","pricing_plan_id":"cebpf4jnsgd1na2vs0mg"},{"bike_id":"15a509fa-42a4-40e3-a092-c04008102b2d","system_id":"levelo_inurba_marseille","lat":43.27313,"lon":5.39094,"is_reserved":false,"is_disabled":false,"rental_uris":{"android":"levelo://app?vid=15a509fa-42a4-40e3-a092-c04008102b2d","ios":"levelo://app?vid=15a509fa-42a4-40e3-a092-c04008102b2d"},"vehicle_type_id":"4","last_reported":1739794701,"current_range_meters":5600,"station_id":"ce4bhgp2rcd13ifvqfe0","pricing_plan_id":"cebpf4jnsgd1na2vs0mg"},{"bike_id":"79909bc6-cbf1-46b7-93eb-756214a1a9c6","system_id":"levelo_inurba_marseille","lat":43.29283,"lon":5.401085,"is_reserved":false,"is_disabled":true,"rental_uris":{"android":"levelo://app?vid=79909bc6-cbf1-46b7-93eb-756214a1a9c6","ios":"levelo://app?vid=79909bc6-cbf1-46b7-93eb-756214a1a9c6"},"vehicle_type_id":"4","last_reported":1739794701,"current_range_meters":5600,"station_id":"","pricing_plan_id":"cebpf4jnsgd1na2vs0mg"},{"bike_id":"df60d901-b3b1-42f8-a6b8-db98e79a5081","system_id":"levelo_inurba_marseille","lat":43.258193,"lon":5.394375,"is_reserved":false,"is_disabled":false,"rental_uris":{"android":"levelo://app?vid=df60d901-b3b1-42f8-a6b8-db98e79a5081","ios":"levelo://app?vid=df60d901-b3b1-42f8-a6b8-db98e79a5081"},"vehicle_type_id":"4","last_reported":1739794701,"current_range_meters":5600,"station_id":"ce4bhip2rcd13ifvqft0","pricing_plan_id":"cebpf4jnsgd1na2vs0mg"},{"bike_id":"4e7beed8-3f51-4c59-a37c-0ac46140a818","system_id":"levelo_inurba_marseille","lat":43.26942,"lon":5.38634,"is_reserved":false,"is_disabled":true,"rental_uris":{"android":"levelo://app?vid=4e7beed8-3f51-4c59-a37c-0ac46140a818","ios":"levelo://app?vid=4e7beed8-3f51-4c59-a37c-0ac46140a818"},"vehicle_type_id":"4","last_reported":1739794701,"current_range_meters":5600,"station_id":"ce4bhh92rcd13ifvqfh0","pricing_plan_id":"cebpf4jnsgd1na2vs0mg"},{"bike_id":"f55bc4cd-6ca8-4946-864a-c623159fa693","system_id":"levelo_inurba_marseille","lat":43.30948,"lon":5.39029,"is_reserved":false,"is_disabled":false,"rental_uris":{"android":"levelo://app?vid=f55bc4cd-6ca8-4946-864a-c623159fa693","ios":"levelo://app?vid=f55bc4cd-6ca8-4946-864a-c623159fa693"},"vehicle_type_id":"4","last_reported":1739794701,"current_range_meters":6000,"station_id":"ce4bgup2rcd13ifvqco0","pricing_plan_id":"cebpf4jnsgd1na2vs0mg"},{"bike_id":"10fc5c9b-c06d-48c3-8c80-f7ee8510bec7","system_id":"levelo_inurba_marseille","lat":43.29268,"lon":5.37633,"is_reserved":false,"is_disabled":false,"rental_uris":{"android":"levelo://app?vid=10fc5c9b-c06d-48c3-8c80-f7ee8510bec7","ios":"levelo://app?vid=10fc5c9b-c06d-48c3-8c80-f7ee8510bec7"},"vehicle_type_id":"4","last_reported":1739794701,"current_range_meters":6000,"station_id":"ce4bgi12rcd13ifvqb80","pricing_plan_id":"cebpf4jnsgd1na2vs0mg"},{"bike_id":"d91e5174-ec9b-4eac-ac1c-c13c307c2853","system_id":"levelo_inurba_marseille","lat":43.25018,"lon":5.3891,"is_reserved":false,"is_disabled":false,"rental_uris":{"android":"levelo://app?vid=d91e5174-ec9b-4eac-ac1c-c13c307c2853","ios":"levelo://app?vid=d91e5174-ec9b-4eac-ac1c-c13c307c2853"},"vehicle_type_id":"4","last_reported":1739794701,"current_range_meters":6400,"station_id":"","pricing_plan_id":"cebpf4jnsgd1na2vs0mg"},{"bike_id":"644397a2-c06b-4090-8b5b-1e046040c59b","system_id":"levelo_inurba_marseille","lat":43.29797,"lon":5.38101,"is_reserved":false,"is_disabled":false,"rental_uris":{"android":"levelo://app?vid=644397a2-c06b-4090-8b5b-1e046040c59b","ios":"levelo://app?vid=644397a2-c06b-4090-8b5b-1e046040c59b"},"vehicle_type_id":"4","last_reported":1739794701,"current_range_meters":6400,"station_id":"ce4bgip2rcd13ifvqbb0","pricing_plan_id":"cebpf4jnsgd1na2vs0mg"},{"bike_id":"6093cebd-6528-4123-aeaa-f90f90742c12","system_id":"levelo_inurba_marseille","lat":43.28698,"lon":5.39986,"is_reserved":false,"is_disabled":false,"rental_uris":{"android":"levelo://app?vid=6093cebd-6528-4123-aeaa-f90f90742c12","ios":"levelo://app?vid=6093cebd-6528-4123-aeaa-f90f90742c12"},"vehicle_type_id":"4","last_reported":1739794701,"current_range_meters":6800,"station_id":"ce4bho92rcd13ifvqh3g","pricing_plan_id":"cebpf4jnsgd1na2vs0mg"},{"bike_id":"f1925382-0000-45e0-97cc-46c87f149bf3","system_id":"levelo_inurba_marseille","lat":43.321017,"lon":5.367787,"is_reserved":false,"is_disabled":true,"rental_uris":{"android":"levelo://app?vid=f1925382-0000-45e0-97cc-46c87f149bf3","ios":"levelo://app?vid=f1925382-0000-45e0-97cc-46c87f149bf3"},"vehicle_type_id":"4","last_reported":1739794701,"current_range_meters":6800,"station_id":"","pricing_plan_id":"cebpf4jnsgd1na2vs0mg"},{"bike_id":"cc542e43-252f-480f-bf7c-fb91a6fa7489","system_id":"levelo_inurba_marseille","lat":43.32336,"lon":5.40627,"is_reserved":false,"is_disabled":false,"rental_uris":{"android":"levelo://app?vid=cc542e43-252f-480f-bf7c-fb91a6fa7489","ios":"levelo://app?vid=cc542e43-252f-480f-bf7c-fb91a6fa7489"},"vehicle_type_id":"4","last_reported":1739794701,"current_range_meters":6800,"station_id":"ce4bhq92rcd13ifvqhjg","pricing_plan_id":"cebpf4jnsgd1na2vs0mg"},{"bike_id":"d44236ba-71a5-47f7-b336-30d61a0779fa","system_id":"levelo_inurba_marseille","lat":43.24185,"lon":5.39734,"is_reserved":false,"is_disabled":false,"rental_uris":{"android":"levelo://app?vid=d44236ba-71a5-47f7-b336-30d61a0779fa","ios":"levelo://app?vid=d44236ba-71a5-47f7-b336-30d61a0779fa"},"vehicle_type_id":"4","last_reported":1739794701,"current_range_meters":6800,"station_id":"ce4bhn12rcd13ifvqgpg","pricing_plan_id":"cebpf4jnsgd1na2vs0mg"},{"bike_id":"1d6f5a5a-bf78-4d12-91e4-6dc8a2b7ed98","system_id":"levelo_inurba_marseille","lat":43.27496,"lon":5.42469,"is_reserved":false,"is_disabled":false,"rental_uris":{"android":"levelo://app?vid=1d6f5a5a-bf78-4d12-91e4-6dc8a2b7ed98","ios":"levelo://app?vid=1d6f5a5a-bf78-4d12-91e4-6dc8a2b7ed98"},"vehicle_type_id":"4","last_reported":1739794701,"current_range_meters":6800,"station_id":"ce4bhn92rcd13ifvqgrg","pricing_plan_id":"cebpf4jnsgd1na2vs0mg"},{"bike_id":"6b21d320-52d0-422d-a96b-25dc166ffb72","system_id":"levelo_inurba_marseille","lat":43.30416,"lon":5.41275,"is_reserved":false,"is_disabled":true,"rental_uris":{"android":"levelo://app?vid=6b21d320-52d0-422d-a96b-25dc166ffb72","ios":"levelo://app?vid=6b21d320-52d0-422d-a96b-25dc166ffb72"},"vehicle_type_id":"4","last_reported":1739794701,"current_range_meters":6800,"station_id":"ce4bhop2rcd13ifvqh8g","pricing_plan_id":"cebpf4jnsgd1na2vs0mg"},{"bike_id":"fbdfd1bd-0c40-4ccd-b1a7-75a16b43b6e5","system_id":"levelo_inurba_marseille","lat":43.29196,"lon":5.35807,"is_reserved":false,"is_disabled":false,"rental_uris":{"android":"levelo://app?vid=fbdfd1bd-0c40-4ccd-b1a7-75a16b43b6e5","ios":"levelo://app?vid=fbdfd1bd-0c40-4ccd-b1a7-75a16b43b6e5"},"vehicle_type_id":"4","last_reported":1739794701,"current_range_meters":6800,"station_id":"ce4bhb12rcd13ifvqel0","pricing_plan_id":"cebpf4jnsgd1na2vs0mg"},{"bike_id":"ce61429a-686f-445d-80d9-4b10876ed4ef","system_id":"levelo_inurba_marseille","lat":43.337444,"lon":5.374475,"is_reserved":false,"is_disabled":true,"rental_uris":{"android":"levelo://app?vid=ce61429a-686f-445d-80d9-4b10876ed4ef","ios":"levelo://app?vid=ce61429a-686f-445d-80d9-4b10876ed4ef"},"vehicle_type_id":"4","last_reported":1739794701,"current_range_meters":7200,"station_id":"","pricing_plan_id":"cebpf4jnsgd1na2vs0mg"},{"bike_id":"b259ec2f-3a85-43df-9379-f97beaa6b6db","system_id":"levelo_inurba_marseille","lat":43.29987,"lon":5.37171,"is_reserved":false,"is_disabled":false,"rental_uris":{"android":"levelo://app?vid=b259ec2f-3a85-43df-9379-f97beaa6b6db","ios":"levelo://app?vid=b259ec2f-3a85-43df-9379-f97beaa6b6db"},"vehicle_type_id":"4","last_reported":1739794701,"current_range_meters":8000,"station_id":"","pricing_plan_id":"cebpf4jnsgd1na2vs0mg"},{"bike_id":"68c9ec09-efa3-42b7-9d9b-298456b6ded4","system_id":"levelo_inurba_marseille","lat":43.304663,"lon":5.369608,"is_reserved":false,"is_disabled":false,"rental_uris":{"android":"levelo://app?vid=68c9ec09-efa3-42b7-9d9b-298456b6ded4","ios":"levelo://app?vid=68c9ec09-efa3-42b7-9d9b-298456b6ded4"},"vehicle_type_id":"4","last_reported":1739794701,"current_range_meters":8000,"station_id":"","pricing_plan_id":"cebpf4jnsgd1na2vs0mg"},{"bike_id":"c4916927-7d10-4eb6-bf80-df6fa900d439","system_id":"levelo_inurba_marseille","lat":43.29552,"lon":5.42303,"is_reserved":false,"is_disabled":true,"rental_uris":{"android":"levelo://app?vid=c4916927-7d10-4eb6-bf80-df6fa900d439","ios":"levelo://app?vid=c4916927-7d10-4eb6-bf80-df6fa900d439"},"vehicle_type_id":"4","last_reported":1739794701,"current_range_meters":8000,"station_id":"ce4bhph2rcd13ifvqhdg","pricing_plan_id":"cebpf4jnsgd1na2vs0mg"},{"bike_id":"ca02c9df-c997-4a9f-9587-f20148fe367c","system_id":"levelo_inurba_marseille","lat":43.30248,"lon":5.40067,"is_reserved":false,"is_disabled":false,"rental_uris":{"android":"levelo://app?vid=ca02c9df-c997-4a9f-9587-f20148fe367c","ios":"levelo://app?vid=ca02c9df-c997-4a9f-9587-f20148fe367c"},"vehicle_type_id":"4","last_reported":1739794701,"current_range_meters":8000,"station_id":"ce4bgvh2rcd13ifvqcs0","pricing_plan_id":"cebpf4jnsgd1na2vs0mg"},{"bike_id":"3a9a968d-dcc9-4ffb-90af-aadcb8469a1d","system_id":"levelo_inurba_marseille","lat":43.32239,"lon":5.39414,"is_reserved":false,"is_disabled":false,"rental_uris":{"android":"levelo://app?vid=3a9a968d-dcc9-4ffb-90af-aadcb8469a1d","ios":"levelo://app?vid=3a9a968d-dcc9-4ffb-90af-aadcb8469a1d"},"vehicle_type_id":"4","last_reported":1739794701,"current_range_meters":8000,"station_id":"","pricing_plan_id":"cebpf4jnsgd1na2vs0mg"},{"bike_id":"20ca092b-8539-4d99-8c4a-e78c179f2eff","system_id":"levelo_inurba_marseille","lat":43.29963,"lon":5.41322,"is_reserved":false,"is_disabled":false,"rental_uris":{"android":"levelo://app?vid=20ca092b-8539-4d99-8c4a-e78c179f2eff","ios":"levelo://app?vid=20ca092b-8539-4d99-8c4a-e78c179f2eff"},"vehicle_type_id":"4","last_reported":1739794701,"current_range_meters":8000,"station_id":"","pricing_plan_id":"cebpf4jnsgd1na2vs0mg"},{"bike_id":"2b51147d-1f92-480b-a06a-e9b8532cd66d","system_id":"levelo_inurba_marseille","lat":43.27991,"lon":5.41659,"is_reserved":false,"is_disabled":false,"rental_uris":{"android":"levelo://app?vid=2b51147d-1f92-480b-a06a-e9b8532cd66d","ios":"levelo://app?vid=2b51147d-1f92-480b-a06a-e9b8532cd66d"},"vehicle_type_id":"4","last_reported":1739794701,"current_range_meters":8000,"station_id":"ce4bho12rcd13ifvqh1g","pricing_plan_id":"cebpf4jnsgd1na2vs0mg"},{"bike_id":"b7962d4c-eed7-4d40-9024-48cf4af0320d","system_id":"levelo_inurba_marseille","lat":43.27696,"lon":5.389,"is_reserved":false,"is_disabled":false,"rental_uris":{"android":"levelo://app?vid=b7962d4c-eed7-4d40-9024-48cf4af0320d","ios":"levelo://app?vid=b7962d4c-eed7-4d40-9024-48cf4af0320d"},"vehicle_type_id":"4","last_reported":1739794701,"current_range_meters":8000,"station_id":"ce4bhi12rcd13ifvqfo0","pricing_plan_id":"cebpf4jnsgd1na2vs0mg"},{"bike_id":"33a2f713-59cf-4dee-bd5e-cf5438338de0","system_id":"levelo_inurba_marseille","lat":43.30468,"lon":5.36966,"is_reserved":false,"is_disabled":false,"rental_uris":{"android":"levelo://app?vid=33a2f713-59cf-4dee-bd5e-cf5438338de0","ios":"levelo://app?vid=33a2f713-59cf-4dee-bd5e-cf5438338de0"},"vehicle_type_id":"4","last_reported":1739794701,"current_range_meters":8000,"station_id":"","pricing_plan_id":"cebpf4jnsgd1na2vs0mg"},{"bike_id":"47ddb0a4-24c7-4f7e-9a6e-4c9378680212","system_id":"levelo_inurba_marseille","lat":43.316542,"lon":5.404528,"is_reserved":false,"is_disabled":false,"rental_uris":{"android":"levelo://app?vid=47ddb0a4-24c7-4f7e-9a6e-4c9378680212","ios":"levelo://app?vid=47ddb0a4-24c7-4f7e-9a6e-4c9378680212"},"vehicle_type_id":"4","last_reported":1739794701,"current_range_meters":8400,"station_id":"ce4bh012rcd13ifvqd00","pricing_plan_id":"cebpf4jnsgd1na2vs0mg"},{"bike_id":"875cacae-c7fa-4e86-ae0d-241f9d75c298","system_id":"levelo_inurba_marseille","lat":43.27563,"lon":5.3842,"is_reserved":false,"is_disabled":false,"rental_uris":{"android":"levelo://app?vid=875cacae-c7fa-4e86-ae0d-241f9d75c298","ios":"levelo://app?vid=875cacae-c7fa-4e86-ae0d-241f9d75c298"},"vehicle_type_id":"4","last_reported":1739794701,"current_range_meters":8400,"station_id":"ce4bhh92rcd13ifvqfi0","pricing_plan_id":"cebpf4jnsgd1na2vs0mg"},{"bike_id":"3cde2a6d-d5b9-49b6-8285-27fc39ef3f3a","system_id":"levelo_inurba_marseille","lat":43.24809,"lon":5.37459,"is_reserved":false,"is_disabled":false,"rental_uris":{"android":"levelo://app?vid=3cde2a6d-d5b9-49b6-8285-27fc39ef3f3a","ios":"levelo://app?vid=3cde2a6d-d5b9-49b6-8285-27fc39ef3f3a"},"vehicle_type_id":"4","last_reported":1739794701,"current_range_meters":8400,"station_id":"ce4bhgh2rcd13ifvqfb0","pricing_plan_id":"cebpf4jnsgd1na2vs0mg"},{"bike_id":"4089f1a0-cd12-42d3-a6c3-01d445970a86","system_id":"levelo_inurba_marseille","lat":43.31267,"lon":5.37418,"is_reserved":false,"is_disabled":false,"rental_uris":{"android":"levelo://app?vid=4089f1a0-cd12-42d3-a6c3-01d445970a86","ios":"levelo://app?vid=4089f1a0-cd12-42d3-a6c3-01d445970a86"},"vehicle_type_id":"4","last_reported":1739794701,"current_range_meters":8400,"station_id":"","pricing_plan_id":"cebpf4jnsgd1na2vs0mg"},{"bike_id":"315b1336-7ffe-4e51-ad8e-0787e8f633a5","system_id":"levelo_inurba_marseille","lat":43.32511,"lon":5.36574,"is_reserved":false,"is_disabled":false,"rental_uris":{"android":"levelo://app?vid=315b1336-7ffe-4e51-ad8e-0787e8f633a5","ios":"levelo://app?vid=315b1336-7ffe-4e51-ad8e-0787e8f633a5"},"vehicle_type_id":"4","last_reported":1739794701,"current_range_meters":8400,"station_id":"ce4bhs12rcd13ifvqhvg","pricing_plan_id":"cebpf4jnsgd1na2vs0mg"},{"bike_id":"aebbb8ad-57fc-4057-be43-69c83111f010","system_id":"levelo_inurba_marseille","lat":43.28365,"lon":5.38629,"is_reserved":false,"is_disabled":false,"rental_uris":{"android":"levelo://app?vid=aebbb8ad-57fc-4057-be43-69c83111f010","ios":"levelo://app?vid=aebbb8ad-57fc-4057-be43-69c83111f010"},"vehicle_type_id":"4","last_reported":1739794701,"current_range_meters":8400,"station_id":"ce4bh492rcd13ifvqdvg","pricing_plan_id":"cebpf4jnsgd1na2vs0mg"},{"bike_id":"1028d825-a809-400b-a433-b2f52b266986","system_id":"levelo_inurba_marseille","lat":43.30937,"lon":5.3793,"is_reserved":false,"is_disabled":false,"rental_uris":{"android":"levelo://app?vid=1028d825-a809-400b-a433-b2f52b266986","ios":"levelo://app?vid=1028d825-a809-400b-a433-b2f52b266986"},"vehicle_type_id":"4","last_reported":1739794701,"current_range_meters":8400,"station_id":"","pricing_plan_id":"cebpf4jnsgd1na2vs0mg"},{"bike_id":"2420c121-c082-41fe-9256-9209689167cc","system_id":"levelo_inurba_marseille","lat":43.25098,"lon":5.39514,"is_reserved":false,"is_disabled":false,"rental_uris":{"android":"levelo://app?vid=2420c121-c082-41fe-9256-9209689167cc","ios":"levelo://app?vid=2420c121-c082-41fe-9256-9209689167cc"},"vehicle_type_id":"4","last_reported":1739794701,"current_range_meters":8800,"station_id":"ce4bhm12rcd13ifvqgkg","pricing_plan_id":"cebpf4jnsgd1na2vs0mg"},{"bike_id":"66b5b6a2-b669-4429-9fe4-2c9c93ac786f","system_id":"levelo_inurba_marseille","lat":43.2944,"lon":5.38579,"is_reserved":false,"is_disabled":false,"rental_uris":{"android":"levelo://app?vid=66b5b6a2-b669-4429-9fe4-2c9c93ac786f","ios":"levelo://app?vid=66b5b6a2-b669-4429-9fe4-2c9c93ac786f"},"vehicle_type_id":"4","last_reported":1739794701,"current_range_meters":8800,"station_id":"ce4bh2h2rcd13ifvqdh0","pricing_plan_id":"cebpf4jnsgd1na2vs0mg"},{"bike_id":"287c86db-da7f-4326-a1e0-c6870ac51786","system_id":"levelo_inurba_marseille","lat":43.29009,"lon":5.35616,"is_reserved":false,"is_disabled":false,"rental_uris":{"android":"levelo://app?vid=287c86db-da7f-4326-a1e0-c6870ac51786","ios":"levelo://app?vid=287c86db-da7f-4326-a1e0-c6870ac51786"},"vehicle_type_id":"4","last_reported":1739794701,"current_range_meters":8800,"station_id":"ce4bhb92rcd13ifvqen0","pricing_plan_id":"cebpf4jnsgd1na2vs0mg"},{"bike_id":"9f72b035-42cd-4ed2-9def-93c83a040988","system_id":"levelo_inurba_marseille","lat":43.24084,"lon":5.3772,"is_reserved":false,"is_disabled":false,"rental_uris":{"android":"levelo://app?vid=9f72b035-42cd-4ed2-9def-93c83a040988","ios":"levelo://app?vid=9f72b035-42cd-4ed2-9def-93c83a040988"},"vehicle_type_id":"4","last_reported":1739794701,"current_range_meters":8800,"station_id":"ce4bhnp2rcd13ifvqgvg","pricing_plan_id":"cebpf4jnsgd1na2vs0mg"},{"bike_id":"2b278cf2-594f-4230-8154-882e1df047f2","system_id":"levelo_inurba_marseille","lat":43.24104,"lon":5.37718,"is_reserved":false,"is_disabled":false,"rental_uris":{"android":"levelo://app?vid=2b278cf2-594f-4230-8154-882e1df047f2","ios":"levelo://app?vid=2b278cf2-594f-4230-8154-882e1df047f2"},"vehicle_type_id":"4","last_reported":1739794701,"current_range_meters":8800,"station_id":"ce4bhnp2rcd13ifvqgvg","pricing_plan_id":"cebpf4jnsgd1na2vs0mg"},{"bike_id":"02a9bf57-ed16-47a0-a562-14d92d5d1b68","system_id":"levelo_inurba_marseille","lat":43.29976,"lon":5.37177,"is_reserved":false,"is_disabled":false,"rental_uris":{"android":"levelo://app?vid=02a9bf57-ed16-47a0-a562-14d92d5d1b68","ios":"levelo://app?vid=02a9bf57-ed16-47a0-a562-14d92d5d1b68"},"vehicle_type_id":"4","last_reported":1739794701,"current_range_meters":8800,"station_id":"ce4bgr92rcd13ifvqc7g","pricing_plan_id":"cebpf4jnsgd1na2vs0mg"},{"bike_id":"0217c938-d85d-45be-94b8-08b415250c20","system_id":"levelo_inurba_marseille","lat":43.26955,"lon":5.38916,"is_reserved":false,"is_disabled":true,"rental_uris":{"android":"levelo://app?vid=0217c938-d85d-45be-94b8-08b415250c20","ios":"levelo://app?vid=0217c938-d85d-45be-94b8-08b415250c20"},"vehicle_type_id":"4","last_reported":1739794701,"current_range_meters":8800,"station_id":"ce4bhhh2rcd13ifvqfl0","pricing_plan_id":"cebpf4jnsgd1na2vs0mg"},{"bike_id":"c1e02363-9911-4cf2-ba28-1ecb274a40e1","system_id":"levelo_inurba_marseille","lat":43.31884,"lon":5.40747,"is_reserved":false,"is_disabled":false,"rental_uris":{"android":"levelo://app?vid=c1e02363-9911-4cf2-ba28-1ecb274a40e1","ios":"levelo://app?vid=c1e02363-9911-4cf2-ba28-1ecb274a40e1"},"vehicle_type_id":"4","last_reported":1739794701,"current_range_meters":9200,"station_id":"ce4bhq12rcd13ifvqhig","pricing_plan_id":"cebpf4jnsgd1na2vs0mg"},{"bike_id":"bfbacc6f-ff9c-4bd2-a2e8-7cfd28c9cfde","system_id":"levelo_inurba_marseille","lat":43.27053,"lon":5.40265,"is_reserved":false,"is_disabled":false,"rental_uris":{"android":"levelo://app?vid=bfbacc6f-ff9c-4bd2-a2e8-7cfd28c9cfde","ios":"levelo://app?vid=bfbacc6f-ff9c-4bd2-a2e8-7cfd28c9cfde"},"vehicle_type_id":"4","last_reported":1739794701,"current_range_meters":9200,"station_id":"ce4bhk92rcd13ifvqgc0","pricing_plan_id":"cebpf4jnsgd1na2vs0mg"},{"bike_id":"ce7eb203-df1a-4323-a126-50fb5e9416e8","system_id":"levelo_inurba_marseille","lat":43.25004,"lon":5.38935,"is_reserved":false,"is_disabled":false,"rental_uris":{"android":"levelo://app?vid=ce7eb203-df1a-4323-a126-50fb5e9416e8","ios":"levelo://app?vid=ce7eb203-df1a-4323-a126-50fb5e9416e8"},"vehicle_type_id":"4","last_reported":1739794701,"current_range_meters":9200,"station_id":"ce4bhgp2rcd13ifvqfd0","pricing_plan_id":"cebpf4jnsgd1na2vs0mg"},{"bike_id":"bd649c50-3283-487d-b38b-c94f1cb6c08d","system_id":"levelo_inurba_marseille","lat":43.28159,"lon":5.42643,"is_reserved":false,"is_disabled":false,"rental_uris":{"android":"levelo://app?vid=bd649c50-3283-487d-b38b-c94f1cb6c08d","ios":"levelo://app?vid=bd649c50-3283-487d-b38b-c94f1cb6c08d"},"vehicle_type_id":"4","last_reported":1739794701,"current_range_meters":9600,"station_id":"ce4bhnh2rcd13ifvqgug","pricing_plan_id":"cebpf4jnsgd1na2vs0mg"},{"bike_id":"61d21a7f-e930-499d-84bd-f3a8dea6e79b","system_id":"levelo_inurba_marseille","lat":43.24667,"lon":5.38897,"is_reserved":false,"is_disabled":false,"rental_uris":{"android":"levelo://app?vid=61d21a7f-e930-499d-84bd-f3a8dea6e79b","ios":"levelo://app?vid=61d21a7f-e930-499d-84bd-f3a8dea6e79b"},"vehicle_type_id":"4","last_reported":1739794701,"current_range_meters":9200,"station_id":"ce4bhg12rcd13ifvqf60","pricing_plan_id":"cebpf4jnsgd1na2vs0mg"},{"bike_id":"33b2f53e-b70b-4755-a9bd-161272f15b89","system_id":"levelo_inurba_marseille","lat":43.29691,"lon":5.38039,"is_reserved":false,"is_disabled":false,"rental_uris":{"android":"levelo://app?vid=33b2f53e-b70b-4755-a9bd-161272f15b89","ios":"levelo://app?vid=33b2f53e-b70b-4755-a9bd-161272f15b89"},"vehicle_type_id":"4","last_reported":1739794701,"current_range_meters":9200,"station_id":"","pricing_plan_id":"cebpf4jnsgd1na2vs0mg"},{"bike_id":"5edce1ab-3c18-4354-84c4-27430df0fea6","system_id":"levelo_inurba_marseille","lat":43.25109,"lon":5.39521,"is_reserved":false,"is_disabled":false,"rental_uris":{"android":"levelo://app?vid=5edce1ab-3c18-4354-84c4-27430df0fea6","ios":"levelo://app?vid=5edce1ab-3c18-4354-84c4-27430df0fea6"},"vehicle_type_id":"4","last_reported":1739794701,"current_range_meters":9600,"station_id":"ce4bhm12rcd13ifvqgkg","pricing_plan_id":"cebpf4jnsgd1na2vs0mg"},{"bike_id":"04573cfb-ecb2-4b45-a20d-d06564e0e12d","system_id":"levelo_inurba_marseille","lat":43.29932,"lon":5.36536,"is_reserved":false,"is_disabled":false,"rental_uris":{"android":"levelo://app?vid=04573cfb-ecb2-4b45-a20d-d06564e0e12d","ios":"levelo://app?vid=04573cfb-ecb2-4b45-a20d-d06564e0e12d"},"vehicle_type_id":"4","last_reported":1739794701,"current_range_meters":9600,"station_id":"ce4bgm92rcd13ifvqbr0","pricing_plan_id":"cebpf4jnsgd1na2vs0mg"},{"bike_id":"88358649-a898-477d-9e52-958b0039a475","system_id":"levelo_inurba_marseille","lat":43.30908,"lon":5.36847,"is_reserved":false,"is_disabled":false,"rental_uris":{"android":"levelo://app?vid=88358649-a898-477d-9e52-958b0039a475","ios":"levelo://app?vid=88358649-a898-477d-9e52-958b0039a475"},"vehicle_type_id":"4","last_reported":1739794701,"current_range_meters":9600,"station_id":"ce4bgn92rcd13ifvqbvg","pricing_plan_id":"cebpf4jnsgd1na2vs0mg"},{"bike_id":"7e5a943c-33a3-4cb2-aa11-de5e06e611dc","system_id":"levelo_inurba_marseille","lat":43.29874,"lon":5.39752,"is_reserved":false,"is_disabled":false,"rental_uris":{"android":"levelo://app?vid=7e5a943c-33a3-4cb2-aa11-de5e06e611dc","ios":"levelo://app?vid=7e5a943c-33a3-4cb2-aa11-de5e06e611dc"},"vehicle_type_id":"4","last_reported":1739794701,"current_range_meters":9600,"station_id":"ce4bh0h2rcd13ifvqd50","pricing_plan_id":"cebpf4jnsgd1na2vs0mg"},{"bike_id":"436454b1-3898-46e1-b536-8b138c3a3613","system_id":"levelo_inurba_marseille","lat":43.28009,"lon":5.40014,"is_reserved":false,"is_disabled":false,"rental_uris":{"android":"levelo://app?vid=436454b1-3898-46e1-b536-8b138c3a3613","ios":"levelo://app?vid=436454b1-3898-46e1-b536-8b138c3a3613"},"vehicle_type_id":"4","last_reported":1739794701,"current_range_meters":9600,"station_id":"ce4bho92rcd13ifvqh4g","pricing_plan_id":"cebpf4jnsgd1na2vs0mg"},{"bike_id":"666a30ca-79f7-4379-9235-8b0f4b95a2fa","system_id":"levelo_inurba_marseille","lat":43.28461,"lon":5.3588,"is_reserved":false,"is_disabled":false,"rental_uris":{"android":"levelo://app?vid=666a30ca-79f7-4379-9235-8b0f4b95a2fa","ios":"levelo://app?vid=666a30ca-79f7-4379-9235-8b0f4b95a2fa"},"vehicle_type_id":"4","last_reported":1739794701,"current_range_meters":9600,"station_id":"ce4bhah2rcd13ifvqei0","pricing_plan_id":"cebpf4jnsgd1na2vs0mg"},{"bike_id":"4b313577-3405-489c-be9d-5466249d823a","system_id":"levelo_inurba_marseille","lat":43.25004,"lon":5.38921,"is_reserved":false,"is_disabled":false,"rental_uris":{"android":"levelo://app?vid=4b313577-3405-489c-be9d-5466249d823a","ios":"levelo://app?vid=4b313577-3405-489c-be9d-5466249d823a"},"vehicle_type_id":"4","last_reported":1739794701,"current_range_meters":10000,"station_id":"ce4bhgp2rcd13ifvqfd0","pricing_plan_id":"cebpf4jnsgd1na2vs0mg"},{"bike_id":"a5588483-3896-4f92-80fa-c421cfc3e745","system_id":"levelo_inurba_marseille","lat":43.29983,"lon":5.38493,"is_reserved":false,"is_disabled":false,"rental_uris":{"android":"levelo://app?vid=a5588483-3896-4f92-80fa-c421cfc3e745","ios":"levelo://app?vid=a5588483-3896-4f92-80fa-c421cfc3e745"},"vehicle_type_id":"4","last_reported":1739794701,"current_range_meters":10000,"station_id":"ce4bgj92rcd13ifvqbd0","pricing_plan_id":"cebpf4jnsgd1na2vs0mg"},{"bike_id":"2c9700ea-057b-4786-a86f-c93de6d53138","system_id":"levelo_inurba_marseille","lat":43.2744,"lon":5.4073,"is_reserved":false,"is_disabled":false,"rental_uris":{"android":"levelo://app?vid=2c9700ea-057b-4786-a86f-c93de6d53138","ios":"levelo://app?vid=2c9700ea-057b-4786-a86f-c93de6d53138"},"vehicle_type_id":"4","last_reported":1739794701,"current_range_meters":10000,"station_id":"","pricing_plan_id":"cebpf4jnsgd1na2vs0mg"},{"bike_id":"918959de-3f3d-42c6-97f5-79a44773d59b","system_id":"levelo_inurba_marseille","lat":43.27971,"lon":5.38737,"is_reserved":false,"is_disabled":false,"rental_uris":{"android":"levelo://app?vid=918959de-3f3d-42c6-97f5-79a44773d59b","ios":"levelo://app?vid=918959de-3f3d-42c6-97f5-79a44773d59b"},"vehicle_type_id":"4","last_reported":1739794701,"current_range_meters":9600,"station_id":"ce4bhg12rcd13ifvqf80","pricing_plan_id":"cebpf4jnsgd1na2vs0mg"},{"bike_id":"2b794d54-6f80-4da1-999a-c12a4bda2794","system_id":"levelo_inurba_marseille","lat":43.3059,"lon":5.39362,"is_reserved":false,"is_disabled":false,"rental_uris":{"android":"levelo://app?vid=2b794d54-6f80-4da1-999a-c12a4bda2794","ios":"levelo://app?vid=2b794d54-6f80-4da1-999a-c12a4bda2794"},"vehicle_type_id":"4","last_reported":1739794701,"current_range_meters":10000,"station_id":"ce4bh0p2rcd13ifvqd80","pricing_plan_id":"cebpf4jnsgd1na2vs0mg"},{"bike_id":"8a49e737-2dba-437e-b0e4-c61d64b4fa11","system_id":"levelo_inurba_marseille","lat":43.24559,"lon":5.39533,"is_reserved":false,"is_disabled":false,"rental_uris":{"android":"levelo://app?vid=8a49e737-2dba-437e-b0e4-c61d64b4fa11","ios":"levelo://app?vid=8a49e737-2dba-437e-b0e4-c61d64b4fa11"},"vehicle_type_id":"4","last_reported":1739794701,"current_range_meters":10000,"station_id":"ce4bhlp2rcd13ifvqgjg","pricing_plan_id":"cebpf4jnsgd1na2vs0mg"},{"bike_id":"daac048e-560f-4ac4-8253-f428b1e4a640","system_id":"levelo_inurba_marseille","lat":43.24186,"lon":5.3973,"is_reserved":false,"is_disabled":false,"rental_uris":{"android":"levelo://app?vid=daac048e-560f-4ac4-8253-f428b1e4a640","ios":"levelo://app?vid=daac048e-560f-4ac4-8253-f428b1e4a640"},"vehicle_type_id":"4","last_reported":1739794701,"current_range_meters":10000,"station_id":"ce4bhn12rcd13ifvqgpg","pricing_plan_id":"cebpf4jnsgd1na2vs0mg"},{"bike_id":"59ded7b0-a8b6-4def-9cfa-7f57bb4128d1","system_id":"levelo_inurba_marseille","lat":43.28723,"lon":5.36096,"is_reserved":false,"is_disabled":false,"rental_uris":{"android":"levelo://app?vid=59ded7b0-a8b6-4def-9cfa-7f57bb4128d1","ios":"levelo://app?vid=59ded7b0-a8b6-4def-9cfa-7f57bb4128d1"},"vehicle_type_id":"4","last_reported":1739794701,"current_range_meters":10000,"station_id":"cki0cbj6b192h4jlfktg","pricing_plan_id":"cebpf4jnsgd1na2vs0mg"},{"bike_id":"65a36bf8-d927-443e-bdd7-b23e6c691214","system_id":"levelo_inurba_marseille","lat":43.24188,"lon":5.39726,"is_reserved":false,"is_disabled":false,"rental_uris":{"android":"levelo://app?vid=65a36bf8-d927-443e-bdd7-b23e6c691214","ios":"levelo://app?vid=65a36bf8-d927-443e-bdd7-b23e6c691214"},"vehicle_type_id":"4","last_reported":1739794701,"current_range_meters":10000,"station_id":"ce4bhn12rcd13ifvqgpg","pricing_plan_id":"cebpf4jnsgd1na2vs0mg"},{"bike_id":"483449cd-31b3-4ec2-a842-2a81f5aafb0a","system_id":"levelo_inurba_marseille","lat":43.33728,"lon":5.39183,"is_reserved":false,"is_disabled":false,"rental_uris":{"android":"levelo://app?vid=483449cd-31b3-4ec2-a842-2a81f5aafb0a","ios":"levelo://app?vid=483449cd-31b3-4ec2-a842-2a81f5aafb0a"},"vehicle_type_id":"4","last_reported":1739794701,"current_range_meters":10000,"station_id":"ce4bhr92rcd13ifvqhsg","pricing_plan_id":"cebpf4jnsgd1na2vs0mg"},{"bike_id":"09d8e7e3-4c41-44b3-abcb-31b4b4a1dfae","system_id":"levelo_inurba_marseille","lat":43.24992,"lon":5.38915,"is_reserved":false,"is_disabled":false,"rental_uris":{"android":"levelo://app?vid=09d8e7e3-4c41-44b3-abcb-31b4b4a1dfae","ios":"levelo://app?vid=09d8e7e3-4c41-44b3-abcb-31b4b4a1dfae"},"vehicle_type_id":"4","last_reported":1739794701,"current_range_meters":10000,"station_id":"ce4bhgp2rcd13ifvqfd0","pricing_plan_id":"cebpf4jnsgd1na2vs0mg"},{"bike_id":"017423d6-180e-4935-b791-7ee369f06433","system_id":"levelo_inurba_marseille","lat":43.28076,"lon":5.39655,"is_reserved":false,"is_disabled":false,"rental_uris":{"android":"levelo://app?vid=017423d6-180e-4935-b791-7ee369f06433","ios":"levelo://app?vid=017423d6-180e-4935-b791-7ee369f06433"},"vehicle_type_id":"4","last_reported":1739794701,"current_range_meters":10000,"station_id":"ce4bho12rcd13ifvqh2g","pricing_plan_id":"cebpf4jnsgd1na2vs0mg"},{"bike_id":"ae372bbb-c8a7-486c-a681-342999357029","system_id":"levelo_inurba_marseille","lat":43.2793,"lon":5.38003,"is_reserved":false,"is_disabled":false,"rental_uris":{"android":"levelo://app?vid=ae372bbb-c8a7-486c-a681-342999357029","ios":"levelo://app?vid=ae372bbb-c8a7-486c-a681-342999357029"},"vehicle_type_id":"4","last_reported":1739794701,"current_range_meters":10800,"station_id":"ce4bhf92rcd13ifvqf50","pricing_plan_id":"cebpf4jnsgd1na2vs0mg"},{"bike_id":"b4fb51a5-3829-4287-b58a-fd128f54653f","system_id":"levelo_inurba_marseille","lat":43.32028,"lon":5.41564,"is_reserved":false,"is_disabled":true,"rental_uris":{"android":"levelo://app?vid=b4fb51a5-3829-4287-b58a-fd128f54653f","ios":"levelo://app?vid=b4fb51a5-3829-4287-b58a-fd128f54653f"},"vehicle_type_id":"4","last_reported":1739794701,"current_range_meters":10800,"station_id":"ce4bhq92rcd13ifvqhkg","pricing_plan_id":"cebpf4jnsgd1na2vs0mg"},{"bike_id":"d987532f-bafe-447e-92c6-1ad2da2cc856","system_id":"levelo_inurba_marseille","lat":43.23177,"lon":5.43696,"is_reserved":false,"is_disabled":false,"rental_uris":{"android":"levelo://app?vid=d987532f-bafe-447e-92c6-1ad2da2cc856","ios":"levelo://app?vid=d987532f-bafe-447e-92c6-1ad2da2cc856"},"vehicle_type_id":"4","last_reported":1739794701,"current_range_meters":10800,"station_id":"ce4bhmp2rcd13ifvqgog","pricing_plan_id":"cebpf4jnsgd1na2vs0mg"},{"bike_id":"79f62c9d-1f7b-4919-b99c-b3088be87c66","system_id":"levelo_inurba_marseille","lat":43.25008,"lon":5.3892,"is_reserved":false,"is_disabled":false,"rental_uris":{"android":"levelo://app?vid=79f62c9d-1f7b-4919-b99c-b3088be87c66","ios":"levelo://app?vid=79f62c9d-1f7b-4919-b99c-b3088be87c66"},"vehicle_type_id":"4","last_reported":1739794701,"current_range_meters":10800,"station_id":"ce4bhgp2rcd13ifvqfd0","pricing_plan_id":"cebpf4jnsgd1na2vs0mg"},{"bike_id":"98dafedc-f25b-409d-b3e2-803b47ffb900","system_id":"levelo_inurba_marseille","lat":43.2449,"lon":5.37266,"is_reserved":false,"is_disabled":false,"rental_uris":{"android":"levelo://app?vid=98dafedc-f25b-409d-b3e2-803b47ffb900","ios":"levelo://app?vid=98dafedc-f25b-409d-b3e2-803b47ffb900"},"vehicle_type_id":"4","last_reported":1739794701,"current_range_meters":10800,"station_id":"","pricing_plan_id":"cebpf4jnsgd1na2vs0mg"},{"bike_id":"5eb5dd2b-412a-4cbe-93a9-ac8f5ac45282","system_id":"levelo_inurba_marseille","lat":43.32481,"lon":5.36575,"is_reserved":false,"is_disabled":false,"rental_uris":{"android":"levelo://app?vid=5eb5dd2b-412a-4cbe-93a9-ac8f5ac45282","ios":"levelo://app?vid=5eb5dd2b-412a-4cbe-93a9-ac8f5ac45282"},"vehicle_type_id":"4","last_reported":1739794701,"current_range_meters":10800,"station_id":"ce4bhs12rcd13ifvqhvg","pricing_plan_id":"cebpf4jnsgd1na2vs0mg"},{"bike_id":"9a86aff9-d852-4512-b047-433feac4afd8","system_id":"levelo_inurba_marseille","lat":43.31306,"lon":5.36737,"is_reserved":false,"is_disabled":false,"rental_uris":{"android":"levelo://app?vid=9a86aff9-d852-4512-b047-433feac4afd8","ios":"levelo://app?vid=9a86aff9-d852-4512-b047-433feac4afd8"},"vehicle_type_id":"4","last_reported":1739794701,"current_range_meters":11200,"station_id":"","pricing_plan_id":"cebpf4jnsgd1na2vs0mg"},{"bike_id":"9316bc20-95e3-4222-bdb0-191f359bd5c5","system_id":"levelo_inurba_marseille","lat":43.32274,"lon":5.38262,"is_reserved":false,"is_disabled":false,"rental_uris":{"android":"levelo://app?vid=9316bc20-95e3-4222-bdb0-191f359bd5c5","ios":"levelo://app?vid=9316bc20-95e3-4222-bdb0-191f359bd5c5"},"vehicle_type_id":"4","last_reported":1739794701,"current_range_meters":10800,"station_id":"ce4bhr12rcd13ifvqhqg","pricing_plan_id":"cebpf4jnsgd1na2vs0mg"},{"bike_id":"f49d96af-5630-4761-a17e-ea2e12354d6b","system_id":"levelo_inurba_marseille","lat":43.31134,"lon":5.38313,"is_reserved":false,"is_disabled":true,"rental_uris":{"android":"levelo://app?vid=f49d96af-5630-4761-a17e-ea2e12354d6b","ios":"levelo://app?vid=f49d96af-5630-4761-a17e-ea2e12354d6b"},"vehicle_type_id":"4","last_reported":1739794701,"current_range_meters":11200,"station_id":"","pricing_plan_id":"cebpf4jnsgd1na2vs0mg"},{"bike_id":"eddc72a6-7dfd-4c61-8dfa-b8ca23d01af5","system_id":"levelo_inurba_marseille","lat":43.30138,"lon":5.38055,"is_reserved":false,"is_disabled":false,"rental_uris":{"android":"levelo://app?vid=eddc72a6-7dfd-4c61-8dfa-b8ca23d01af5","ios":"levelo://app?vid=eddc72a6-7dfd-4c61-8dfa-b8ca23d01af5"},"vehicle_type_id":"4","last_reported":1739794701,"current_range_meters":10800,"station_id":"ce4bgjp2rcd13ifvqbh0","pricing_plan_id":"cebpf4jnsgd1na2vs0mg"},{"bike_id":"34896f25-dbaa-44f1-9a17-feae627967d8","system_id":"levelo_inurba_marseille","lat":43.30436,"lon":5.38887,"is_reserved":false,"is_disabled":false,"rental_uris":{"android":"levelo://app?vid=34896f25-dbaa-44f1-9a17-feae627967d8","ios":"levelo://app?vid=34896f25-dbaa-44f1-9a17-feae627967d8"},"vehicle_type_id":"4","last_reported":1739794701,"current_range_meters":11200,"station_id":"ce4bgk12rcd13ifvqbi0","pricing_plan_id":"cebpf4jnsgd1na2vs0mg"},{"bike_id":"a662d250-9d12-49cf-972a-9aa337ac7c51","system_id":"levelo_inurba_marseille","lat":43.24813,"lon":5.37455,"is_reserved":false,"is_disabled":false,"rental_uris":{"android":"levelo://app?vid=a662d250-9d12-49cf-972a-9aa337ac7c51","ios":"levelo://app?vid=a662d250-9d12-49cf-972a-9aa337ac7c51"},"vehicle_type_id":"4","last_reported":1739794701,"current_range_meters":10800,"station_id":"ce4bhgh2rcd13ifvqfb0","pricing_plan_id":"cebpf4jnsgd1na2vs0mg"},{"bike_id":"4df2d6cc-5a3b-44b8-aa4a-4a64eaaa8cf7","system_id":"levelo_inurba_marseille","lat":43.27963,"lon":5.38731,"is_reserved":false,"is_disabled":false,"rental_uris":{"android":"levelo://app?vid=4df2d6cc-5a3b-44b8-aa4a-4a64eaaa8cf7","ios":"levelo://app?vid=4df2d6cc-5a3b-44b8-aa4a-4a64eaaa8cf7"},"vehicle_type_id":"4","last_reported":1739794701,"current_range_meters":11200,"station_id":"ce4bhg12rcd13ifvqf80","pricing_plan_id":"cebpf4jnsgd1na2vs0mg"},{"bike_id":"2b00a42f-9efa-4ced-a356-f0b26c47649f","system_id":"levelo_inurba_marseille","lat":43.28617,"lon":5.35103,"is_reserved":false,"is_disabled":true,"rental_uris":{"android":"levelo://app?vid=2b00a42f-9efa-4ced-a356-f0b26c47649f","ios":"levelo://app?vid=2b00a42f-9efa-4ced-a356-f0b26c47649f"},"vehicle_type_id":"4","last_reported":1739794701,"current_range_meters":11600,"station_id":"ce4bhch2rcd13ifvqeug","pricing_plan_id":"cebpf4jnsgd1na2vs0mg"},{"bike_id":"57c8356a-6bfd-497e-a3c6-03643d37dc18","system_id":"levelo_inurba_marseille","lat":43.26559,"lon":5.38988,"is_reserved":false,"is_disabled":false,"rental_uris":{"android":"levelo://app?vid=57c8356a-6bfd-497e-a3c6-03643d37dc18","ios":"levelo://app?vid=57c8356a-6bfd-497e-a3c6-03643d37dc18"},"vehicle_type_id":"4","last_reported":1739794701,"current_range_meters":11600,"station_id":"ce4bhe12rcd13ifvqf30","pricing_plan_id":"cebpf4jnsgd1na2vs0mg"},{"bike_id":"7c7c0f20-4ebe-4ae9-a466-5bcf5fc08c06","system_id":"levelo_inurba_marseille","lat":43.2919,"lon":5.35728,"is_reserved":false,"is_disabled":true,"rental_uris":{"android":"levelo://app?vid=7c7c0f20-4ebe-4ae9-a466-5bcf5fc08c06","ios":"levelo://app?vid=7c7c0f20-4ebe-4ae9-a466-5bcf5fc08c06"},"vehicle_type_id":"4","last_reported":1739794701,"current_range_meters":11600,"station_id":"","pricing_plan_id":"cebpf4jnsgd1na2vs0mg"},{"bike_id":"84ec75b2-ffa6-4a41-aa45-280c675dbabc","system_id":"levelo_inurba_marseille","lat":43.29282,"lon":5.40217,"is_reserved":false,"is_disabled":true,"rental_uris":{"android":"levelo://app?vid=84ec75b2-ffa6-4a41-aa45-280c675dbabc","ios":"levelo://app?vid=84ec75b2-ffa6-4a41-aa45-280c675dbabc"},"vehicle_type_id":"4","last_reported":1739794701,"current_range_meters":12000,"station_id":"ce4bh312rcd13ifvqdk0","pricing_plan_id":"cebpf4jnsgd1na2vs0mg"},{"bike_id":"63213ce8-ab3b-490e-8b8e-c1a55a68b2ca","system_id":"levelo_inurba_marseille","lat":43.2951,"lon":5.38198,"is_reserved":false,"is_disabled":true,"rental_uris":{"android":"levelo://app?vid=63213ce8-ab3b-490e-8b8e-c1a55a68b2ca","ios":"levelo://app?vid=63213ce8-ab3b-490e-8b8e-c1a55a68b2ca"},"vehicle_type_id":"4","last_reported":1739794701,"current_range_meters":12000,"station_id":"","pricing_plan_id":"cebpf4jnsgd1na2vs0mg"},{"bike_id":"e3416f3b-a009-4361-bec1-c5e0e6abce9b","system_id":"levelo_inurba_marseille","lat":43.29529,"lon":5.38548,"is_reserved":false,"is_disabled":false,"rental_uris":{"android":"levelo://app?vid=e3416f3b-a009-4361-bec1-c5e0e6abce9b","ios":"levelo://app?vid=e3416f3b-a009-4361-bec1-c5e0e6abce9b"},"vehicle_type_id":"4","last_reported":1739794701,"current_range_meters":12000,"station_id":"ce4bgih2rcd13ifvqba0","pricing_plan_id":"cebpf4jnsgd1na2vs0mg"},{"bike_id":"d479d7cc-f6ec-4842-98a4-55e7da70bebc","system_id":"levelo_inurba_marseille","lat":43.27937,"lon":5.38658,"is_reserved":false,"is_disabled":false,"rental_uris":{"android":"levelo://app?vid=d479d7cc-f6ec-4842-98a4-55e7da70bebc","ios":"levelo://app?vid=d479d7cc-f6ec-4842-98a4-55e7da70bebc"},"vehicle_type_id":"4","last_reported":1739794701,"current_range_meters":12400,"station_id":"ce4bhg12rcd13ifvqf80","pricing_plan_id":"cebpf4jnsgd1na2vs0mg"},{"bike_id":"cb8372d6-bad2-4555-89ad-5b495afb0b59","system_id":"levelo_inurba_marseille","lat":43.24791,"lon":5.37393,"is_reserved":false,"is_disabled":false,"rental_uris":{"android":"levelo://app?vid=cb8372d6-bad2-4555-89ad-5b495afb0b59","ios":"levelo://app?vid=cb8372d6-bad2-4555-89ad-5b495afb0b59"},"vehicle_type_id":"4","last_reported":1739794701,"current_range_meters":12400,"station_id":"ce4bhgh2rcd13ifvqfb0","pricing_plan_id":"cebpf4jnsgd1na2vs0mg"},{"bike_id":"4485b41d-8ad5-481d-8c6e-243d5823c9cc","system_id":"levelo_inurba_marseille","lat":43.2502,"lon":5.38928,"is_reserved":false,"is_disabled":false,"rental_uris":{"android":"levelo://app?vid=4485b41d-8ad5-481d-8c6e-243d5823c9cc","ios":"levelo://app?vid=4485b41d-8ad5-481d-8c6e-243d5823c9cc"},"vehicle_type_id":"4","last_reported":1739794701,"current_range_meters":12400,"station_id":"ce4bhgp2rcd13ifvqfd0","pricing_plan_id":"cebpf4jnsgd1na2vs0mg"},{"bike_id":"95dadcc8-bf96-4781-ab2a-5ad4c33bfa48","system_id":"levelo_inurba_marseille","lat":43.28864,"lon":5.35848,"is_reserved":false,"is_disabled":false,"rental_uris":{"android":"levelo://app?vid=95dadcc8-bf96-4781-ab2a-5ad4c33bfa48","ios":"levelo://app?vid=95dadcc8-bf96-4781-ab2a-5ad4c33bfa48"},"vehicle_type_id":"4","last_reported":1739794701,"current_range_meters":12800,"station_id":"ce4bhb12rcd13ifvqem0","pricing_plan_id":"cebpf4jnsgd1na2vs0mg"},{"bike_id":"f24826f6-3623-4502-8662-9b349cbb305a","system_id":"levelo_inurba_marseille","lat":43.26555,"lon":5.37287,"is_reserved":false,"is_disabled":false,"rental_uris":{"android":"levelo://app?vid=f24826f6-3623-4502-8662-9b349cbb305a","ios":"levelo://app?vid=f24826f6-3623-4502-8662-9b349cbb305a"},"vehicle_type_id":"4","last_reported":1739794701,"current_range_meters":12800,"station_id":"ce4bhg12rcd13ifvqf70","pricing_plan_id":"cebpf4jnsgd1na2vs0mg"},{"bike_id":"8f9e8329-57e0-4c28-8199-1caa70c47efc","system_id":"levelo_inurba_marseille","lat":43.28611,"lon":5.37077,"is_reserved":false,"is_disabled":false,"rental_uris":{"android":"levelo://app?vid=8f9e8329-57e0-4c28-8199-1caa70c47efc","ios":"levelo://app?vid=8f9e8329-57e0-4c28-8199-1caa70c47efc"},"vehicle_type_id":"4","last_reported":1739794701,"current_range_meters":12800,"station_id":"ce4bht12rcd13ifvqi60","pricing_plan_id":"cebpf4jnsgd1na2vs0mg"},{"bike_id":"552d736c-53d8-48fb-82e5-b4cdf388327f","system_id":"levelo_inurba_marseille","lat":43.27833,"lon":5.42208,"is_reserved":false,"is_disabled":false,"rental_uris":{"android":"levelo://app?vid=552d736c-53d8-48fb-82e5-b4cdf388327f","ios":"levelo://app?vid=552d736c-53d8-48fb-82e5-b4cdf388327f"},"vehicle_type_id":"4","last_reported":1739794701,"current_range_meters":12800,"station_id":"","pricing_plan_id":"cebpf4jnsgd1na2vs0mg"},{"bike_id":"cafdaaa9-f913-4ecf-bf54-af3a1bd50499","system_id":"levelo_inurba_marseille","lat":43.3014,"lon":5.38777,"is_reserved":false,"is_disabled":true,"rental_uris":{"android":"levelo://app?vid=cafdaaa9-f913-4ecf-bf54-af3a1bd50499","ios":"levelo://app?vid=cafdaaa9-f913-4ecf-bf54-af3a1bd50499"},"vehicle_type_id":"4","last_reported":1739794701,"current_range_meters":12800,"station_id":"ce4bghh2rcd13ifvqb60","pricing_plan_id":"cebpf4jnsgd1na2vs0mg"},{"bike_id":"511297f0-4659-4cc7-92fe-97cf7cb65fc4","system_id":"levelo_inurba_marseille","lat":43.33609,"lon":5.41015,"is_reserved":false,"is_disabled":false,"rental_uris":{"android":"levelo://app?vid=511297f0-4659-4cc7-92fe-97cf7cb65fc4","ios":"levelo://app?vid=511297f0-4659-4cc7-92fe-97cf7cb65fc4"},"vehicle_type_id":"4","last_reported":1739794701,"current_range_meters":12800,"station_id":"","pricing_plan_id":"cebpf4jnsgd1na2vs0mg"},{"bike_id":"6528e792-6c2b-41ab-b102-37d30001a0e7","system_id":"levelo_inurba_marseille","lat":43.2726,"lon":5.40068,"is_reserved":false,"is_disabled":false,"rental_uris":{"android":"levelo://app?vid=6528e792-6c2b-41ab-b102-37d30001a0e7","ios":"levelo://app?vid=6528e792-6c2b-41ab-b102-37d30001a0e7"},"vehicle_type_id":"4","last_reported":1739794701,"current_range_meters":13600,"station_id":"","pricing_plan_id":"cebpf4jnsgd1na2vs0mg"},{"bike_id":"226090ac-7766-42a2-a823-d88e5f537ad1","system_id":"levelo_inurba_marseille","lat":43.29007,"lon":5.381239,"is_reserved":false,"is_disabled":false,"rental_uris":{"android":"levelo://app?vid=226090ac-7766-42a2-a823-d88e5f537ad1","ios":"levelo://app?vid=226090ac-7766-42a2-a823-d88e5f537ad1"},"vehicle_type_id":"4","last_reported":1739794701,"current_range_meters":13600,"station_id":"ce4bh4p2rcd13ifvqe1g","pricing_plan_id":"cebpf4jnsgd1na2vs0mg"},{"bike_id":"4e2b468f-8f4a-4d73-8517-62fa28d3fb4c","system_id":"levelo_inurba_marseille","lat":43.24802,"lon":5.37464,"is_reserved":false,"is_disabled":false,"rental_uris":{"android":"levelo://app?vid=4e2b468f-8f4a-4d73-8517-62fa28d3fb4c","ios":"levelo://app?vid=4e2b468f-8f4a-4d73-8517-62fa28d3fb4c"},"vehicle_type_id":"4","last_reported":1739794701,"current_range_meters":14000,"station_id":"ce4bhgh2rcd13ifvqfb0","pricing_plan_id":"cebpf4jnsgd1na2vs0mg"},{"bike_id":"23e79ded-fa84-4ce9-87b6-f77661a88d71","system_id":"levelo_inurba_marseille","lat":43.323406,"lon":5.40624,"is_reserved":false,"is_disabled":false,"rental_uris":{"android":"levelo://app?vid=23e79ded-fa84-4ce9-87b6-f77661a88d71","ios":"levelo://app?vid=23e79ded-fa84-4ce9-87b6-f77661a88d71"},"vehicle_type_id":"4","last_reported":1739794701,"current_range_meters":14000,"station_id":"ce4bhq92rcd13ifvqhjg","pricing_plan_id":"cebpf4jnsgd1na2vs0mg"},{"bike_id":"d10a8f39-76f2-4e61-889e-c8e2fdb2a7c1","system_id":"levelo_inurba_marseille","lat":43.28835,"lon":5.39341,"is_reserved":false,"is_disabled":true,"rental_uris":{"android":"levelo://app?vid=d10a8f39-76f2-4e61-889e-c8e2fdb2a7c1","ios":"levelo://app?vid=d10a8f39-76f2-4e61-889e-c8e2fdb2a7c1"},"vehicle_type_id":"4","last_reported":1739794701,"current_range_meters":14000,"station_id":"ce4bh2p2rcd13ifvqdi0","pricing_plan_id":"cebpf4jnsgd1na2vs0mg"},{"bike_id":"64a8d433-afd9-45c2-aa2b-2e615ea74b8a","system_id":"levelo_inurba_marseille","lat":43.29257,"lon":5.38447,"is_reserved":false,"is_disabled":false,"rental_uris":{"android":"levelo://app?vid=64a8d433-afd9-45c2-aa2b-2e615ea74b8a","ios":"levelo://app?vid=64a8d433-afd9-45c2-aa2b-2e615ea74b8a"},"vehicle_type_id":"4","last_reported":1739794701,"current_range_meters":14000,"station_id":"ce4bh692rcd13ifvqea0","pricing_plan_id":"cebpf4jnsgd1na2vs0mg"},{"bike_id":"5c49ae1e-4abd-429d-8136-1a89fb6ab4e5","system_id":"levelo_inurba_marseille","lat":43.23189,"lon":5.35545,"is_reserved":false,"is_disabled":false,"rental_uris":{"android":"levelo://app?vid=5c49ae1e-4abd-429d-8136-1a89fb6ab4e5","ios":"levelo://app?vid=5c49ae1e-4abd-429d-8136-1a89fb6ab4e5"},"vehicle_type_id":"4","last_reported":1739794701,"current_range_meters":13600,"station_id":"ce4bhu92rcd13ifvqi70","pricing_plan_id":"cebpf4jnsgd1na2vs0mg"},{"bike_id":"98bec931-7694-4c55-a190-c58ce5dac73a","system_id":"levelo_inurba_marseille","lat":43.25122,"lon":5.40317,"is_reserved":false,"is_disabled":false,"rental_uris":{"android":"levelo://app?vid=98bec931-7694-4c55-a190-c58ce5dac73a","ios":"levelo://app?vid=98bec931-7694-4c55-a190-c58ce5dac73a"},"vehicle_type_id":"4","last_reported":1739794701,"current_range_meters":13600,"station_id":"ce4bhlh2rcd13ifvqgig","pricing_plan_id":"cebpf4jnsgd1na2vs0mg"},{"bike_id":"dfe07188-9d78-4e91-a30a-05c86d7df8f6","system_id":"levelo_inurba_marseille","lat":43.27053,"lon":5.40258,"is_reserved":false,"is_disabled":false,"rental_uris":{"android":"levelo://app?vid=dfe07188-9d78-4e91-a30a-05c86d7df8f6","ios":"levelo://app?vid=dfe07188-9d78-4e91-a30a-05c86d7df8f6"},"vehicle_type_id":"4","last_reported":1739794701,"current_range_meters":14000,"station_id":"ce4bhk92rcd13ifvqgc0","pricing_plan_id":"cebpf4jnsgd1na2vs0mg"},{"bike_id":"9beb99fa-247c-4be4-994c-ad481a4bc4b6","system_id":"levelo_inurba_marseille","lat":43.2314,"lon":5.43715,"is_reserved":false,"is_disabled":false,"rental_uris":{"android":"levelo://app?vid=9beb99fa-247c-4be4-994c-ad481a4bc4b6","ios":"levelo://app?vid=9beb99fa-247c-4be4-994c-ad481a4bc4b6"},"vehicle_type_id":"4","last_reported":1739794701,"current_range_meters":14000,"station_id":"ce4bhmp2rcd13ifvqgog","pricing_plan_id":"cebpf4jnsgd1na2vs0mg"},{"bike_id":"8a8a6b2e-87cd-498b-bc54-df425c7358d7","system_id":"levelo_inurba_marseille","lat":43.26947,"lon":5.38645,"is_reserved":false,"is_disabled":false,"rental_uris":{"android":"levelo://app?vid=8a8a6b2e-87cd-498b-bc54-df425c7358d7","ios":"levelo://app?vid=8a8a6b2e-87cd-498b-bc54-df425c7358d7"},"vehicle_type_id":"4","last_reported":1739794701,"current_range_meters":14400,"station_id":"ce4bhh92rcd13ifvqfh0","pricing_plan_id":"cebpf4jnsgd1na2vs0mg"},{"bike_id":"9fcdd754-b714-48d8-82e8-35fffabf6b85","system_id":"levelo_inurba_marseille","lat":43.30427,"lon":5.39742,"is_reserved":false,"is_disabled":true,"rental_uris":{"android":"levelo://app?vid=9fcdd754-b714-48d8-82e8-35fffabf6b85","ios":"levelo://app?vid=9fcdd754-b714-48d8-82e8-35fffabf6b85"},"vehicle_type_id":"4","last_reported":1739794701,"current_range_meters":14400,"station_id":"ce4bh092rcd13ifvqd20","pricing_plan_id":"cebpf4jnsgd1na2vs0mg"},{"bike_id":"11130826-961d-4121-b96a-08d36b484726","system_id":"levelo_inurba_marseille","lat":43.26925,"lon":5.38575,"is_reserved":false,"is_disabled":false,"rental_uris":{"android":"levelo://app?vid=11130826-961d-4121-b96a-08d36b484726","ios":"levelo://app?vid=11130826-961d-4121-b96a-08d36b484726"},"vehicle_type_id":"4","last_reported":1739794701,"current_range_meters":14400,"station_id":"ce4bhh92rcd13ifvqfh0","pricing_plan_id":"cebpf4jnsgd1na2vs0mg"},{"bike_id":"cd9b4085-c131-4f0b-9c5c-dcc681470367","system_id":"levelo_inurba_marseille","lat":43.32501,"lon":5.3656,"is_reserved":false,"is_disabled":false,"rental_uris":{"android":"levelo://app?vid=cd9b4085-c131-4f0b-9c5c-dcc681470367","ios":"levelo://app?vid=cd9b4085-c131-4f0b-9c5c-dcc681470367"},"vehicle_type_id":"4","last_reported":1739794701,"current_range_meters":14800,"station_id":"ce4bhs12rcd13ifvqhvg","pricing_plan_id":"cebpf4jnsgd1na2vs0mg"},{"bike_id":"7dece492-f00f-4baa-8bd9-6dd07f3e68a7","system_id":"levelo_inurba_marseille","lat":43.30887,"lon":5.39656,"is_reserved":false,"is_disabled":false,"rental_uris":{"android":"levelo://app?vid=7dece492-f00f-4baa-8bd9-6dd07f3e68a7","ios":"levelo://app?vid=7dece492-f00f-4baa-8bd9-6dd07f3e68a7"},"vehicle_type_id":"4","last_reported":1739794701,"current_range_meters":14400,"station_id":"ce4bh012rcd13ifvqcv0","pricing_plan_id":"cebpf4jnsgd1na2vs0mg"},{"bike_id":"c300d2f5-35bb-4d22-b445-3c56ab02df6a","system_id":"levelo_inurba_marseille","lat":43.29936,"lon":5.36549,"is_reserved":false,"is_disabled":false,"rental_uris":{"android":"levelo://app?vid=c300d2f5-35bb-4d22-b445-3c56ab02df6a","ios":"levelo://app?vid=c300d2f5-35bb-4d22-b445-3c56ab02df6a"},"vehicle_type_id":"4","last_reported":1739794701,"current_range_meters":14800,"station_id":"ce4bgm92rcd13ifvqbr0","pricing_plan_id":"cebpf4jnsgd1na2vs0mg"},{"bike_id":"22578521-0ea7-463a-8019-3c6269779208","system_id":"levelo_inurba_marseille","lat":43.23064,"lon":5.35492,"is_reserved":false,"is_disabled":false,"rental_uris":{"android":"levelo://app?vid=22578521-0ea7-463a-8019-3c6269779208","ios":"levelo://app?vid=22578521-0ea7-463a-8019-3c6269779208"},"vehicle_type_id":"4","last_reported":1739794701,"current_range_meters":15200,"station_id":"cpo3342slgdg3j2ifvpg","pricing_plan_id":"cebpf4jnsgd1na2vs0mg"},{"bike_id":"ea59682e-3627-4592-8ea0-4a29e940490e","system_id":"levelo_inurba_marseille","lat":43.30002,"lon":5.37162,"is_reserved":false,"is_disabled":false,"rental_uris":{"android":"levelo://app?vid=ea59682e-3627-4592-8ea0-4a29e940490e","ios":"levelo://app?vid=ea59682e-3627-4592-8ea0-4a29e940490e"},"vehicle_type_id":"4","last_reported":1739794701,"current_range_meters":15200,"station_id":"ce4bgr92rcd13ifvqc7g","pricing_plan_id":"cebpf4jnsgd1na2vs0mg"},{"bike_id":"020f9db3-6048-4a83-8c59-4acc533112c8","system_id":"levelo_inurba_marseille","lat":43.2815,"lon":5.42611,"is_reserved":false,"is_disabled":false,"rental_uris":{"android":"levelo://app?vid=020f9db3-6048-4a83-8c59-4acc533112c8","ios":"levelo://app?vid=020f9db3-6048-4a83-8c59-4acc533112c8"},"vehicle_type_id":"4","last_reported":1739794701,"current_range_meters":15200,"station_id":"ce4bhnh2rcd13ifvqgug","pricing_plan_id":"cebpf4jnsgd1na2vs0mg"},{"bike_id":"64af24a4-8e38-47da-9a24-c3fcf271b844","system_id":"levelo_inurba_marseille","lat":43.28436,"lon":5.39179,"is_reserved":false,"is_disabled":false,"rental_uris":{"android":"levelo://app?vid=64af24a4-8e38-47da-9a24-c3fcf271b844","ios":"levelo://app?vid=64af24a4-8e38-47da-9a24-c3fcf271b844"},"vehicle_type_id":"4","last_reported":1739794701,"current_range_meters":16000,"station_id":"ce4bhoh2rcd13ifvqh5g","pricing_plan_id":"cebpf4jnsgd1na2vs0mg"},{"bike_id":"c5c59f41-6de9-4286-8e47-0b749ef897bc","system_id":"levelo_inurba_marseille","lat":43.2862,"lon":5.35109,"is_reserved":false,"is_disabled":false,"rental_uris":{"android":"levelo://app?vid=c5c59f41-6de9-4286-8e47-0b749ef897bc","ios":"levelo://app?vid=c5c59f41-6de9-4286-8e47-0b749ef897bc"},"vehicle_type_id":"4","last_reported":1739794701,"current_range_meters":16000,"station_id":"ce4bhch2rcd13ifvqeug","pricing_plan_id":"cebpf4jnsgd1na2vs0mg"},{"bike_id":"5f6c3d54-427f-4c5e-9013-84144224f1c7","system_id":"levelo_inurba_marseille","lat":43.2657,"lon":5.37313,"is_reserved":false,"is_disabled":false,"rental_uris":{"android":"levelo://app?vid=5f6c3d54-427f-4c5e-9013-84144224f1c7","ios":"levelo://app?vid=5f6c3d54-427f-4c5e-9013-84144224f1c7"},"vehicle_type_id":"4","last_reported":1739794701,"current_range_meters":16000,"station_id":"ce4bhg12rcd13ifvqf70","pricing_plan_id":"cebpf4jnsgd1na2vs0mg"},{"bike_id":"d1b292e2-afaf-4d01-841f-1489ff1ec4d2","system_id":"levelo_inurba_marseille","lat":43.28121,"lon":5.42509,"is_reserved":false,"is_disabled":false,"rental_uris":{"android":"levelo://app?vid=d1b292e2-afaf-4d01-841f-1489ff1ec4d2","ios":"levelo://app?vid=d1b292e2-afaf-4d01-841f-1489ff1ec4d2"},"vehicle_type_id":"4","last_reported":1739794701,"current_range_meters":16000,"station_id":"ce4bhnh2rcd13ifvqgug","pricing_plan_id":"cebpf4jnsgd1na2vs0mg"},{"bike_id":"1e1faca5-0a8a-44ad-a8cf-20061f0e1d29","system_id":"levelo_inurba_marseille","lat":43.28398,"lon":5.37439,"is_reserved":false,"is_disabled":false,"rental_uris":{"android":"levelo://app?vid=1e1faca5-0a8a-44ad-a8cf-20061f0e1d29","ios":"levelo://app?vid=1e1faca5-0a8a-44ad-a8cf-20061f0e1d29"},"vehicle_type_id":"4","last_reported":1739794701,"current_range_meters":16400,"station_id":"ce4bh412rcd13ifvqds0","pricing_plan_id":"cebpf4jnsgd1na2vs0mg"},{"bike_id":"d9da9ec9-50c3-42fd-9f4d-8da50caac3d0","system_id":"levelo_inurba_marseille","lat":43.26951,"lon":5.3867,"is_reserved":false,"is_disabled":false,"rental_uris":{"android":"levelo://app?vid=d9da9ec9-50c3-42fd-9f4d-8da50caac3d0","ios":"levelo://app?vid=d9da9ec9-50c3-42fd-9f4d-8da50caac3d0"},"vehicle_type_id":"4","last_reported":1739794701,"current_range_meters":16400,"station_id":"ce4bhh92rcd13ifvqfh0","pricing_plan_id":"cebpf4jnsgd1na2vs0mg"},{"bike_id":"4a42b849-8dce-4679-be4e-fb42f1f7b062","system_id":"levelo_inurba_marseille","lat":43.24177,"lon":5.39728,"is_reserved":false,"is_disabled":false,"rental_uris":{"android":"levelo://app?vid=4a42b849-8dce-4679-be4e-fb42f1f7b062","ios":"levelo://app?vid=4a42b849-8dce-4679-be4e-fb42f1f7b062"},"vehicle_type_id":"4","last_reported":1739794701,"current_range_meters":16400,"station_id":"ce4bhn12rcd13ifvqgpg","pricing_plan_id":"cebpf4jnsgd1na2vs0mg"},{"bike_id":"f2ed1939-a611-4c0c-b834-6691e0118b72","system_id":"levelo_inurba_marseille","lat":43.2319,"lon":5.35558,"is_reserved":false,"is_disabled":false,"rental_uris":{"android":"levelo://app?vid=f2ed1939-a611-4c0c-b834-6691e0118b72","ios":"levelo://app?vid=f2ed1939-a611-4c0c-b834-6691e0118b72"},"vehicle_type_id":"4","last_reported":1739794701,"current_range_meters":16400,"station_id":"ce4bhu92rcd13ifvqi70","pricing_plan_id":"cebpf4jnsgd1na2vs0mg"},{"bike_id":"e57f9313-8443-49d5-820a-e3f0c205b6f2","system_id":"levelo_inurba_marseille","lat":43.24071,"lon":5.37744,"is_reserved":false,"is_disabled":false,"rental_uris":{"android":"levelo://app?vid=e57f9313-8443-49d5-820a-e3f0c205b6f2","ios":"levelo://app?vid=e57f9313-8443-49d5-820a-e3f0c205b6f2"},"vehicle_type_id":"4","last_reported":1739794701,"current_range_meters":16400,"station_id":"ce4bhnp2rcd13ifvqgvg","pricing_plan_id":"cebpf4jnsgd1na2vs0mg"},{"bike_id":"9084f880-c05c-41d9-962e-1ab7add2848e","system_id":"levelo_inurba_marseille","lat":43.24071,"lon":5.37673,"is_reserved":false,"is_disabled":false,"rental_uris":{"android":"levelo://app?vid=9084f880-c05c-41d9-962e-1ab7add2848e","ios":"levelo://app?vid=9084f880-c05c-41d9-962e-1ab7add2848e"},"vehicle_type_id":"4","last_reported":1739794701,"current_range_meters":16400,"station_id":"ce4bhnp2rcd13ifvqgvg","pricing_plan_id":"cebpf4jnsgd1na2vs0mg"},{"bike_id":"a3d19399-f165-4423-a6ad-9b298564f78d","system_id":"levelo_inurba_marseille","lat":43.276973,"lon":5.415374,"is_reserved":false,"is_disabled":false,"rental_uris":{"android":"levelo://app?vid=a3d19399-f165-4423-a6ad-9b298564f78d","ios":"levelo://app?vid=a3d19399-f165-4423-a6ad-9b298564f78d"},"vehicle_type_id":"4","last_reported":1739794701,"current_range_meters":16400,"station_id":"","pricing_plan_id":"cebpf4jnsgd1na2vs0mg"},{"bike_id":"3c9435a2-e20f-444c-8b52-ad84f4a507be","system_id":"levelo_inurba_marseille","lat":43.30417,"lon":5.41288,"is_reserved":false,"is_disabled":false,"rental_uris":{"android":"levelo://app?vid=3c9435a2-e20f-444c-8b52-ad84f4a507be","ios":"levelo://app?vid=3c9435a2-e20f-444c-8b52-ad84f4a507be"},"vehicle_type_id":"4","last_reported":1739794701,"current_range_meters":16400,"station_id":"ce4bhop2rcd13ifvqh8g","pricing_plan_id":"cebpf4jnsgd1na2vs0mg"},{"bike_id":"91bf3218-0a05-4226-acc9-b3131b7d5a8d","system_id":"levelo_inurba_marseille","lat":43.23956,"lon":5.36626,"is_reserved":false,"is_disabled":false,"rental_uris":{"android":"levelo://app?vid=91bf3218-0a05-4226-acc9-b3131b7d5a8d","ios":"levelo://app?vid=91bf3218-0a05-4226-acc9-b3131b7d5a8d"},"vehicle_type_id":"4","last_reported":1739794701,"current_range_meters":16800,"station_id":"ce4bhi12rcd13ifvqfp0","pricing_plan_id":"cebpf4jnsgd1na2vs0mg"},{"bike_id":"06145b80-f089-4b29-b905-ba3a352d7f11","system_id":"levelo_inurba_marseille","lat":43.29164,"lon":5.37164,"is_reserved":false,"is_disabled":false,"rental_uris":{"android":"levelo://app?vid=06145b80-f089-4b29-b905-ba3a352d7f11","ios":"levelo://app?vid=06145b80-f089-4b29-b905-ba3a352d7f11"},"vehicle_type_id":"4","last_reported":1739794701,"current_range_meters":16800,"station_id":"ce4bha92rcd13ifvqeh0","pricing_plan_id":"cebpf4jnsgd1na2vs0mg"},{"bike_id":"423a3fbc-0e17-4661-98fc-20cb1b63f503","system_id":"levelo_inurba_marseille","lat":43.300912,"lon":5.390779,"is_reserved":false,"is_disabled":false,"rental_uris":{"android":"levelo://app?vid=423a3fbc-0e17-4661-98fc-20cb1b63f503","ios":"levelo://app?vid=423a3fbc-0e17-4661-98fc-20cb1b63f503"},"vehicle_type_id":"4","last_reported":1739794701,"current_range_meters":16800,"station_id":"ce4bh192rcd13ifvqdb0","pricing_plan_id":"cebpf4jnsgd1na2vs0mg"},{"bike_id":"293287b4-0ab8-40e5-918f-31d459eb148c","system_id":"levelo_inurba_marseille","lat":43.23964,"lon":5.36637,"is_reserved":false,"is_disabled":false,"rental_uris":{"android":"levelo://app?vid=293287b4-0ab8-40e5-918f-31d459eb148c","ios":"levelo://app?vid=293287b4-0ab8-40e5-918f-31d459eb148c"},"vehicle_type_id":"4","last_reported":1739794701,"current_range_meters":16800,"station_id":"","pricing_plan_id":"cebpf4jnsgd1na2vs0mg"},{"bike_id":"0c4d800b-5126-4ebf-a420-722193d89483","system_id":"levelo_inurba_marseille","lat":43.33602,"lon":5.41034,"is_reserved":false,"is_disabled":false,"rental_uris":{"android":"levelo://app?vid=0c4d800b-5126-4ebf-a420-722193d89483","ios":"levelo://app?vid=0c4d800b-5126-4ebf-a420-722193d89483"},"vehicle_type_id":"4","last_reported":1739794701,"current_range_meters":16800,"station_id":"ce4bhqh2rcd13ifvqhmg","pricing_plan_id":"cebpf4jnsgd1na2vs0mg"},{"bike_id":"8ce31cf8-6349-4b65-884d-c1d6de78b370","system_id":"levelo_inurba_marseille","lat":43.31534,"lon":5.37329,"is_reserved":false,"is_disabled":false,"rental_uris":{"android":"levelo://app?vid=8ce31cf8-6349-4b65-884d-c1d6de78b370","ios":"levelo://app?vid=8ce31cf8-6349-4b65-884d-c1d6de78b370"},"vehicle_type_id":"4","last_reported":1739794701,"current_range_meters":16800,"station_id":"ce4bgt12rcd13ifvqcd0","pricing_plan_id":"cebpf4jnsgd1na2vs0mg"},{"bike_id":"00041a12-19a6-4fd8-9397-ac5df01a1d19","system_id":"levelo_inurba_marseille","lat":43.29973,"lon":5.3718,"is_reserved":false,"is_disabled":false,"rental_uris":{"android":"levelo://app?vid=00041a12-19a6-4fd8-9397-ac5df01a1d19","ios":"levelo://app?vid=00041a12-19a6-4fd8-9397-ac5df01a1d19"},"vehicle_type_id":"4","last_reported":1739794701,"current_range_meters":16800,"station_id":"ce4bgr92rcd13ifvqc7g","pricing_plan_id":"cebpf4jnsgd1na2vs0mg"},{"bike_id":"0670037e-6153-4469-a590-978963c2b27c","system_id":"levelo_inurba_marseille","lat":43.32491,"lon":5.36575,"is_reserved":false,"is_disabled":false,"rental_uris":{"android":"levelo://app?vid=0670037e-6153-4469-a590-978963c2b27c","ios":"levelo://app?vid=0670037e-6153-4469-a590-978963c2b27c"},"vehicle_type_id":"4","last_reported":1739794701,"current_range_meters":16800,"station_id":"ce4bhs12rcd13ifvqhvg","pricing_plan_id":"cebpf4jnsgd1na2vs0mg"},{"bike_id":"8400608f-9b0c-4949-8392-d9cd9cc2f7d1","system_id":"levelo_inurba_marseille","lat":43.32353,"lon":5.40632,"is_reserved":false,"is_disabled":false,"rental_uris":{"android":"levelo://app?vid=8400608f-9b0c-4949-8392-d9cd9cc2f7d1","ios":"levelo://app?vid=8400608f-9b0c-4949-8392-d9cd9cc2f7d1"},"vehicle_type_id":"4","last_reported":1739794701,"current_range_meters":17200,"station_id":"ce4bhq92rcd13ifvqhjg","pricing_plan_id":"cebpf4jnsgd1na2vs0mg"},{"bike_id":"0c95993f-f141-442f-9a15-478429bec3fc","system_id":"levelo_inurba_marseille","lat":43.29898,"lon":5.37566,"is_reserved":false,"is_disabled":true,"rental_uris":{"android":"levelo://app?vid=0c95993f-f141-442f-9a15-478429bec3fc","ios":"levelo://app?vid=0c95993f-f141-442f-9a15-478429bec3fc"},"vehicle_type_id":"4","last_reported":1739794701,"current_range_meters":17200,"station_id":"","pricing_plan_id":"cebpf4jnsgd1na2vs0mg"},{"bike_id":"51e5e272-1390-4266-8747-10ef46d95bd1","system_id":"levelo_inurba_marseille","lat":43.22934,"lon":5.35366,"is_reserved":false,"is_disabled":false,"rental_uris":{"android":"levelo://app?vid=51e5e272-1390-4266-8747-10ef46d95bd1","ios":"levelo://app?vid=51e5e272-1390-4266-8747-10ef46d95bd1"},"vehicle_type_id":"4","last_reported":1739794701,"current_range_meters":17200,"station_id":"cpo3532slgdg3j2ikp40","pricing_plan_id":"cebpf4jnsgd1na2vs0mg"},{"bike_id":"bb4a3648-09cb-4cc2-9947-bf380533d03f","system_id":"levelo_inurba_marseille","lat":43.31669,"lon":5.37227,"is_reserved":false,"is_disabled":false,"rental_uris":{"android":"levelo://app?vid=bb4a3648-09cb-4cc2-9947-bf380533d03f","ios":"levelo://app?vid=bb4a3648-09cb-4cc2-9947-bf380533d03f"},"vehicle_type_id":"4","last_reported":1739794701,"current_range_meters":17200,"station_id":"","pricing_plan_id":"cebpf4jnsgd1na2vs0mg"},{"bike_id":"e493d32f-c7df-48a8-8644-e6c67b333882","system_id":"levelo_inurba_marseille","lat":43.30147,"lon":5.37108,"is_reserved":false,"is_disabled":false,"rental_uris":{"android":"levelo://app?vid=e493d32f-c7df-48a8-8644-e6c67b333882","ios":"levelo://app?vid=e493d32f-c7df-48a8-8644-e6c67b333882"},"vehicle_type_id":"4","last_reported":1739794701,"current_range_meters":17200,"station_id":"","pricing_plan_id":"cebpf4jnsgd1na2vs0mg"},{"bike_id":"429045ef-965c-424d-86d2-d9d4953613dd","system_id":"levelo_inurba_marseille","lat":43.30087,"lon":5.39081,"is_reserved":false,"is_disabled":false,"rental_uris":{"android":"levelo://app?vid=429045ef-965c-424d-86d2-d9d4953613dd","ios":"levelo://app?vid=429045ef-965c-424d-86d2-d9d4953613dd"},"vehicle_type_id":"4","last_reported":1739794701,"current_range_meters":17600,"station_id":"ce4bh192rcd13ifvqdb0","pricing_plan_id":"cebpf4jnsgd1na2vs0mg"},{"bike_id":"9f5e2ed3-dbc9-412d-b781-75ed365a25cc","system_id":"levelo_inurba_marseille","lat":43.27063,"lon":5.4027,"is_reserved":false,"is_disabled":false,"rental_uris":{"android":"levelo://app?vid=9f5e2ed3-dbc9-412d-b781-75ed365a25cc","ios":"levelo://app?vid=9f5e2ed3-dbc9-412d-b781-75ed365a25cc"},"vehicle_type_id":"4","last_reported":1739794701,"current_range_meters":17600,"station_id":"ce4bhk92rcd13ifvqgc0","pricing_plan_id":"cebpf4jnsgd1na2vs0mg"},{"bike_id":"6ec200ed-f04d-4871-95f5-7350157ade2f","system_id":"levelo_inurba_marseille","lat":43.24187,"lon":5.39722,"is_reserved":false,"is_disabled":false,"rental_uris":{"android":"levelo://app?vid=6ec200ed-f04d-4871-95f5-7350157ade2f","ios":"levelo://app?vid=6ec200ed-f04d-4871-95f5-7350157ade2f"},"vehicle_type_id":"4","last_reported":1739794701,"current_range_meters":17600,"station_id":"ce4bhn12rcd13ifvqgpg","pricing_plan_id":"cebpf4jnsgd1na2vs0mg"},{"bike_id":"443fe3c8-a3d6-436f-8858-c733645ee223","system_id":"levelo_inurba_marseille","lat":43.28721,"lon":5.39975,"is_reserved":false,"is_disabled":false,"rental_uris":{"android":"levelo://app?vid=443fe3c8-a3d6-436f-8858-c733645ee223","ios":"levelo://app?vid=443fe3c8-a3d6-436f-8858-c733645ee223"},"vehicle_type_id":"4","last_reported":1739794701,"current_range_meters":17600,"station_id":"ce4bho92rcd13ifvqh3g","pricing_plan_id":"cebpf4jnsgd1na2vs0mg"},{"bike_id":"d45ae291-4115-48e5-af09-a543840b670e","system_id":"levelo_inurba_marseille","lat":43.264972,"lon":5.395361,"is_reserved":false,"is_disabled":false,"rental_uris":{"android":"levelo://app?vid=d45ae291-4115-48e5-af09-a543840b670e","ios":"levelo://app?vid=d45ae291-4115-48e5-af09-a543840b670e"},"vehicle_type_id":"4","last_reported":1739794701,"current_range_meters":17200,"station_id":"ce4bhi12rcd13ifvqfq0","pricing_plan_id":"cebpf4jnsgd1na2vs0mg"},{"bike_id":"ca00440e-2d67-48fa-aa76-51f88fb9398b","system_id":"levelo_inurba_marseille","lat":43.33002,"lon":5.38988,"is_reserved":false,"is_disabled":false,"rental_uris":{"android":"levelo://app?vid=ca00440e-2d67-48fa-aa76-51f88fb9398b","ios":"levelo://app?vid=ca00440e-2d67-48fa-aa76-51f88fb9398b"},"vehicle_type_id":"4","last_reported":1739794701,"current_range_meters":17600,"station_id":"ce4bhr92rcd13ifvqhrg","pricing_plan_id":"cebpf4jnsgd1na2vs0mg"},{"bike_id":"98c262ff-6ad4-46c3-98b5-69631a8e5097","system_id":"levelo_inurba_marseille","lat":43.26811,"lon":5.40271,"is_reserved":false,"is_disabled":false,"rental_uris":{"android":"levelo://app?vid=98c262ff-6ad4-46c3-98b5-69631a8e5097","ios":"levelo://app?vid=98c262ff-6ad4-46c3-98b5-69631a8e5097"},"vehicle_type_id":"4","last_reported":1739794701,"current_range_meters":18000,"station_id":"ce501612rcd8frsf0b60","pricing_plan_id":"cebpf4jnsgd1na2vs0mg"},{"bike_id":"d95ee1ac-6625-45f3-947e-4e9c29dc24d2","system_id":"levelo_inurba_marseille","lat":43.22934,"lon":5.35379,"is_reserved":false,"is_disabled":false,"rental_uris":{"android":"levelo://app?vid=d95ee1ac-6625-45f3-947e-4e9c29dc24d2","ios":"levelo://app?vid=d95ee1ac-6625-45f3-947e-4e9c29dc24d2"},"vehicle_type_id":"4","last_reported":1739794701,"current_range_meters":18000,"station_id":"cpo3532slgdg3j2ikp40","pricing_plan_id":"cebpf4jnsgd1na2vs0mg"},{"bike_id":"a9e8daf3-70cf-4ca0-a2bf-a2ff80ebc918","system_id":"levelo_inurba_marseille","lat":43.30443,"lon":5.36954,"is_reserved":false,"is_disabled":false,"rental_uris":{"android":"levelo://app?vid=a9e8daf3-70cf-4ca0-a2bf-a2ff80ebc918","ios":"levelo://app?vid=a9e8daf3-70cf-4ca0-a2bf-a2ff80ebc918"},"vehicle_type_id":"4","last_reported":1739794701,"current_range_meters":18000,"station_id":"","pricing_plan_id":"cebpf4jnsgd1na2vs0mg"},{"bike_id":"ff0ee0b5-f0bc-4b07-9dc7-baf56187f06d","system_id":"levelo_inurba_marseille","lat":43.23155,"lon":5.43714,"is_reserved":false,"is_disabled":false,"rental_uris":{"android":"levelo://app?vid=ff0ee0b5-f0bc-4b07-9dc7-baf56187f06d","ios":"levelo://app?vid=ff0ee0b5-f0bc-4b07-9dc7-baf56187f06d"},"vehicle_type_id":"4","last_reported":1739794701,"current_range_meters":18800,"station_id":"ce4bhmp2rcd13ifvqgog","pricing_plan_id":"cebpf4jnsgd1na2vs0mg"},{"bike_id":"7f4269dd-2ac5-4b5a-b384-c1682237db47","system_id":"levelo_inurba_marseille","lat":43.26815,"lon":5.40267,"is_reserved":false,"is_disabled":false,"rental_uris":{"android":"levelo://app?vid=7f4269dd-2ac5-4b5a-b384-c1682237db47","ios":"levelo://app?vid=7f4269dd-2ac5-4b5a-b384-c1682237db47"},"vehicle_type_id":"4","last_reported":1739794701,"current_range_meters":18000,"station_id":"ce501612rcd8frsf0b60","pricing_plan_id":"cebpf4jnsgd1na2vs0mg"},{"bike_id":"a81f047e-2602-4d29-8821-508c11538471","system_id":"levelo_inurba_marseille","lat":43.22936,"lon":5.35379,"is_reserved":false,"is_disabled":false,"rental_uris":{"android":"levelo://app?vid=a81f047e-2602-4d29-8821-508c11538471","ios":"levelo://app?vid=a81f047e-2602-4d29-8821-508c11538471"},"vehicle_type_id":"4","last_reported":1739794701,"current_range_meters":18800,"station_id":"cpo3532slgdg3j2ikp40","pricing_plan_id":"cebpf4jnsgd1na2vs0mg"},{"bike_id":"20bf0f99-c9d5-43d0-bede-cee701a2ad02","system_id":"levelo_inurba_marseille","lat":43.279841,"lon":5.416641,"is_reserved":false,"is_disabled":false,"rental_uris":{"android":"levelo://app?vid=20bf0f99-c9d5-43d0-bede-cee701a2ad02","ios":"levelo://app?vid=20bf0f99-c9d5-43d0-bede-cee701a2ad02"},"vehicle_type_id":"4","last_reported":1739794701,"current_range_meters":18800,"station_id":"ce4bho12rcd13ifvqh1g","pricing_plan_id":"cebpf4jnsgd1na2vs0mg"},{"bike_id":"dd4379ef-23e2-4ab1-8003-25db9f67ab1f","system_id":"levelo_inurba_marseille","lat":43.27204,"lon":5.39193,"is_reserved":false,"is_disabled":false,"rental_uris":{"android":"levelo://app?vid=dd4379ef-23e2-4ab1-8003-25db9f67ab1f","ios":"levelo://app?vid=dd4379ef-23e2-4ab1-8003-25db9f67ab1f"},"vehicle_type_id":"4","last_reported":1739794701,"current_range_meters":18800,"station_id":"ce4bhhp2rcd13ifvqfm0","pricing_plan_id":"cebpf4jnsgd1na2vs0mg"},{"bike_id":"81e141ff-10c0-4c83-8a2d-800fd3f2fe8b","system_id":"levelo_inurba_marseille","lat":43.24564,"lon":5.39551,"is_reserved":false,"is_disabled":false,"rental_uris":{"android":"levelo://app?vid=81e141ff-10c0-4c83-8a2d-800fd3f2fe8b","ios":"levelo://app?vid=81e141ff-10c0-4c83-8a2d-800fd3f2fe8b"},"vehicle_type_id":"4","last_reported":1739794701,"current_range_meters":18800,"station_id":"ce4bhlp2rcd13ifvqgjg","pricing_plan_id":"cebpf4jnsgd1na2vs0mg"},{"bike_id":"0be75d99-7ef6-4153-bfd9-0b107124ee42","system_id":"levelo_inurba_marseille","lat":43.27206,"lon":5.39179,"is_reserved":false,"is_disabled":false,"rental_uris":{"android":"levelo://app?vid=0be75d99-7ef6-4153-bfd9-0b107124ee42","ios":"levelo://app?vid=0be75d99-7ef6-4153-bfd9-0b107124ee42"},"vehicle_type_id":"4","last_reported":1739794701,"current_range_meters":18800,"station_id":"ce4bhhp2rcd13ifvqfm0","pricing_plan_id":"cebpf4jnsgd1na2vs0mg"},{"bike_id":"95ec9764-6b48-4547-87d5-3531f2b913a2","system_id":"levelo_inurba_marseille","lat":43.32366,"lon":5.38885,"is_reserved":false,"is_disabled":false,"rental_uris":{"android":"levelo://app?vid=95ec9764-6b48-4547-87d5-3531f2b913a2","ios":"levelo://app?vid=95ec9764-6b48-4547-87d5-3531f2b913a2"},"vehicle_type_id":"4","last_reported":1739794701,"current_range_meters":19200,"station_id":"ce4bhqp2rcd13ifvqhog","pricing_plan_id":"cebpf4jnsgd1na2vs0mg"},{"bike_id":"9dbb2a2a-6935-49c1-b722-29ab9960ce2e","system_id":"levelo_inurba_marseille","lat":43.32355,"lon":5.38887,"is_reserved":false,"is_disabled":false,"rental_uris":{"android":"levelo://app?vid=9dbb2a2a-6935-49c1-b722-29ab9960ce2e","ios":"levelo://app?vid=9dbb2a2a-6935-49c1-b722-29ab9960ce2e"},"vehicle_type_id":"4","last_reported":1739794701,"current_range_meters":19200,"station_id":"ce4bhqp2rcd13ifvqhog","pricing_plan_id":"cebpf4jnsgd1na2vs0mg"},{"bike_id":"4fa77937-4709-41f5-950c-f435e8237a1f","system_id":"levelo_inurba_marseille","lat":43.28853,"lon":5.35852,"is_reserved":false,"is_disabled":false,"rental_uris":{"android":"levelo://app?vid=4fa77937-4709-41f5-950c-f435e8237a1f","ios":"levelo://app?vid=4fa77937-4709-41f5-950c-f435e8237a1f"},"vehicle_type_id":"4","last_reported":1739794701,"current_range_meters":18800,"station_id":"ce4bhb12rcd13ifvqem0","pricing_plan_id":"cebpf4jnsgd1na2vs0mg"},{"bike_id":"87e4e3d9-887e-4f25-bf58-279367bc8327","system_id":"levelo_inurba_marseille","lat":43.30697,"lon":5.4009,"is_reserved":false,"is_disabled":true,"rental_uris":{"android":"levelo://app?vid=87e4e3d9-887e-4f25-bf58-279367bc8327","ios":"levelo://app?vid=87e4e3d9-887e-4f25-bf58-279367bc8327"},"vehicle_type_id":"4","last_reported":1739794701,"current_range_meters":19600,"station_id":"ce4bh112rcd13ifvqda0","pricing_plan_id":"cebpf4jnsgd1na2vs0mg"},{"bike_id":"ff7f4373-418d-47c4-92b8-8e40f7b617a4","system_id":"levelo_inurba_marseille","lat":43.22938,"lon":5.35379,"is_reserved":false,"is_disabled":false,"rental_uris":{"android":"levelo://app?vid=ff7f4373-418d-47c4-92b8-8e40f7b617a4","ios":"levelo://app?vid=ff7f4373-418d-47c4-92b8-8e40f7b617a4"},"vehicle_type_id":"4","last_reported":1739794701,"current_range_meters":19600,"station_id":"cpo3532slgdg3j2ikp40","pricing_plan_id":"cebpf4jnsgd1na2vs0mg"},{"bike_id":"9885c601-2cbe-4ea7-9b6c-479dc416387c","system_id":"levelo_inurba_marseille","lat":43.29881,"lon":5.4365,"is_reserved":false,"is_disabled":false,"rental_uris":{"android":"levelo://app?vid=9885c601-2cbe-4ea7-9b6c-479dc416387c","ios":"levelo://app?vid=9885c601-2cbe-4ea7-9b6c-479dc416387c"},"vehicle_type_id":"4","last_reported":1739794701,"current_range_meters":19600,"station_id":"ce4bhpp2rcd13ifvqhfg","pricing_plan_id":"cebpf4jnsgd1na2vs0mg"},{"bike_id":"f2f038bb-5d3a-415b-9164-ad30d51c80ee","system_id":"levelo_inurba_marseille","lat":43.24082,"lon":5.37734,"is_reserved":false,"is_disabled":false,"rental_uris":{"android":"levelo://app?vid=f2f038bb-5d3a-415b-9164-ad30d51c80ee","ios":"levelo://app?vid=f2f038bb-5d3a-415b-9164-ad30d51c80ee"},"vehicle_type_id":"4","last_reported":1739794701,"current_range_meters":19600,"station_id":"","pricing_plan_id":"cebpf4jnsgd1na2vs0mg"},{"bike_id":"954882ad-f997-48eb-8b49-af0b0b38bc7e","system_id":"levelo_inurba_marseille","lat":43.310743,"lon":5.36996,"is_reserved":false,"is_disabled":false,"rental_uris":{"android":"levelo://app?vid=954882ad-f997-48eb-8b49-af0b0b38bc7e","ios":"levelo://app?vid=954882ad-f997-48eb-8b49-af0b0b38bc7e"},"vehicle_type_id":"4","last_reported":1739794701,"current_range_meters":19600,"station_id":"","pricing_plan_id":"cebpf4jnsgd1na2vs0mg"},{"bike_id":"f74fdef4-f260-4d98-9073-76a0336ca5a7","system_id":"levelo_inurba_marseille","lat":43.2481,"lon":5.37464,"is_reserved":false,"is_disabled":false,"rental_uris":{"android":"levelo://app?vid=f74fdef4-f260-4d98-9073-76a0336ca5a7","ios":"levelo://app?vid=f74fdef4-f260-4d98-9073-76a0336ca5a7"},"vehicle_type_id":"4","last_reported":1739794701,"current_range_meters":19600,"station_id":"ce4bhgh2rcd13ifvqfb0","pricing_plan_id":"cebpf4jnsgd1na2vs0mg"},{"bike_id":"5bd3b795-1c94-4f69-923e-28d6296b76b4","system_id":"levelo_inurba_marseille","lat":43.279884,"lon":5.416632,"is_reserved":false,"is_disabled":false,"rental_uris":{"android":"levelo://app?vid=5bd3b795-1c94-4f69-923e-28d6296b76b4","ios":"levelo://app?vid=5bd3b795-1c94-4f69-923e-28d6296b76b4"},"vehicle_type_id":"4","last_reported":1739794701,"current_range_meters":19600,"station_id":"ce4bho12rcd13ifvqh1g","pricing_plan_id":"cebpf4jnsgd1na2vs0mg"},{"bike_id":"4d50de08-2cec-428e-9f44-63d60dd7ce1c","system_id":"levelo_inurba_marseille","lat":43.32369,"lon":5.38888,"is_reserved":false,"is_disabled":false,"rental_uris":{"android":"levelo://app?vid=4d50de08-2cec-428e-9f44-63d60dd7ce1c","ios":"levelo://app?vid=4d50de08-2cec-428e-9f44-63d60dd7ce1c"},"vehicle_type_id":"4","last_reported":1739794701,"current_range_meters":19600,"station_id":"ce4bhqp2rcd13ifvqhog","pricing_plan_id":"cebpf4jnsgd1na2vs0mg"},{"bike_id":"ed82cf53-3a7e-41f1-8150-e75c117bdda4","system_id":"levelo_inurba_marseille","lat":43.29889,"lon":5.3975,"is_reserved":false,"is_disabled":false,"rental_uris":{"android":"levelo://app?vid=ed82cf53-3a7e-41f1-8150-e75c117bdda4","ios":"levelo://app?vid=ed82cf53-3a7e-41f1-8150-e75c117bdda4"},"vehicle_type_id":"4","last_reported":1739794701,"current_range_meters":19600,"station_id":"ce4bh0h2rcd13ifvqd50","pricing_plan_id":"cebpf4jnsgd1na2vs0mg"},{"bike_id":"fe93f667-8c09-4429-bb67-402b2df92f4e","system_id":"levelo_inurba_marseille","lat":43.2993,"lon":5.36545,"is_reserved":false,"is_disabled":false,"rental_uris":{"android":"levelo://app?vid=fe93f667-8c09-4429-bb67-402b2df92f4e","ios":"levelo://app?vid=fe93f667-8c09-4429-bb67-402b2df92f4e"},"vehicle_type_id":"4","last_reported":1739794701,"current_range_meters":19600,"station_id":"ce4bgm92rcd13ifvqbr0","pricing_plan_id":"cebpf4jnsgd1na2vs0mg"},{"bike_id":"185d7c58-99d6-4993-974e-bb3fb0f6b92f","system_id":"levelo_inurba_marseille","lat":43.29801,"lon":5.40412,"is_reserved":false,"is_disabled":false,"rental_uris":{"android":"levelo://app?vid=185d7c58-99d6-4993-974e-bb3fb0f6b92f","ios":"levelo://app?vid=185d7c58-99d6-4993-974e-bb3fb0f6b92f"},"vehicle_type_id":"4","last_reported":1739794701,"current_range_meters":19600,"station_id":"ce4bh112rcd13ifvqd90","pricing_plan_id":"cebpf4jnsgd1na2vs0mg"},{"bike_id":"c2721de5-0937-419c-88dc-ae6a6ba44e86","system_id":"levelo_inurba_marseille","lat":43.28261,"lon":5.35082,"is_reserved":false,"is_disabled":false,"rental_uris":{"android":"levelo://app?vid=c2721de5-0937-419c-88dc-ae6a6ba44e86","ios":"levelo://app?vid=c2721de5-0937-419c-88dc-ae6a6ba44e86"},"vehicle_type_id":"4","last_reported":1739794701,"current_range_meters":19600,"station_id":"ce4bhbp2rcd13ifvqerg","pricing_plan_id":"cebpf4jnsgd1na2vs0mg"},{"bike_id":"f5421568-b607-4bd4-8920-5604ea43dde7","system_id":"levelo_inurba_marseille","lat":43.32492,"lon":5.36557,"is_reserved":false,"is_disabled":false,"rental_uris":{"android":"levelo://app?vid=f5421568-b607-4bd4-8920-5604ea43dde7","ios":"levelo://app?vid=f5421568-b607-4bd4-8920-5604ea43dde7"},"vehicle_type_id":"4","last_reported":1739794701,"current_range_meters":20000,"station_id":"ce4bhs12rcd13ifvqhvg","pricing_plan_id":"cebpf4jnsgd1na2vs0mg"},{"bike_id":"0e081e7f-df8c-4fd0-9f11-5148e11b63b6","system_id":"levelo_inurba_marseille","lat":43.31752,"lon":5.39025,"is_reserved":false,"is_disabled":true,"rental_uris":{"android":"levelo://app?vid=0e081e7f-df8c-4fd0-9f11-5148e11b63b6","ios":"levelo://app?vid=0e081e7f-df8c-4fd0-9f11-5148e11b63b6"},"vehicle_type_id":"4","last_reported":1739794701,"current_range_meters":20000,"station_id":"ce4bhqp2rcd13ifvqhng","pricing_plan_id":"cebpf4jnsgd1na2vs0mg"},{"bike_id":"7312cda3-bba1-47e6-b097-bd447e567723","system_id":"levelo_inurba_marseille","lat":43.24083,"lon":5.37729,"is_reserved":false,"is_disabled":false,"rental_uris":{"android":"levelo://app?vid=7312cda3-bba1-47e6-b097-bd447e567723","ios":"levelo://app?vid=7312cda3-bba1-47e6-b097-bd447e567723"},"vehicle_type_id":"4","last_reported":1739794701,"current_range_meters":20000,"station_id":"ce4bhnp2rcd13ifvqgvg","pricing_plan_id":"cebpf4jnsgd1na2vs0mg"},{"bike_id":"c335c84a-1b07-4a52-8f75-e61db5c31a4e","system_id":"levelo_inurba_marseille","lat":43.28039,"lon":5.36943,"is_reserved":false,"is_disabled":false,"rental_uris":{"android":"levelo://app?vid=c335c84a-1b07-4a52-8f75-e61db5c31a4e","ios":"levelo://app?vid=c335c84a-1b07-4a52-8f75-e61db5c31a4e"},"vehicle_type_id":"4","last_reported":1739794701,"current_range_meters":20000,"station_id":"","pricing_plan_id":"cebpf4jnsgd1na2vs0mg"},{"bike_id":"a1dbb86e-6160-403e-9055-518767ed62e4","system_id":"levelo_inurba_marseille","lat":43.27987,"lon":5.38719,"is_reserved":false,"is_disabled":false,"rental_uris":{"android":"levelo://app?vid=a1dbb86e-6160-403e-9055-518767ed62e4","ios":"levelo://app?vid=a1dbb86e-6160-403e-9055-518767ed62e4"},"vehicle_type_id":"4","last_reported":1739794701,"current_range_meters":19600,"station_id":"ce4bhg12rcd13ifvqf80","pricing_plan_id":"cebpf4jnsgd1na2vs0mg"},{"bike_id":"b2b6a5c3-dc30-4495-a339-80a741989999","system_id":"levelo_inurba_marseille","lat":43.3015,"lon":5.38093,"is_reserved":false,"is_disabled":false,"rental_uris":{"android":"levelo://app?vid=b2b6a5c3-dc30-4495-a339-80a741989999","ios":"levelo://app?vid=b2b6a5c3-dc30-4495-a339-80a741989999"},"vehicle_type_id":"4","last_reported":1739794701,"current_range_meters":19600,"station_id":"ce4bgjp2rcd13ifvqbh0","pricing_plan_id":"cebpf4jnsgd1na2vs0mg"},{"bike_id":"9d2dfefd-d0c5-461c-802b-941628d53608","system_id":"levelo_inurba_marseille","lat":43.24169,"lon":5.36384,"is_reserved":false,"is_disabled":false,"rental_uris":{"android":"levelo://app?vid=9d2dfefd-d0c5-461c-802b-941628d53608","ios":"levelo://app?vid=9d2dfefd-d0c5-461c-802b-941628d53608"},"vehicle_type_id":"4","last_reported":1739794701,"current_range_meters":20400,"station_id":"cpo36qri1sfpv3e86is0","pricing_plan_id":"cebpf4jnsgd1na2vs0mg"},{"bike_id":"03d4faad-c15a-48aa-9dae-b9ddb0491fbe","system_id":"levelo_inurba_marseille","lat":43.33716,"lon":5.39206,"is_reserved":false,"is_disabled":false,"rental_uris":{"android":"levelo://app?vid=03d4faad-c15a-48aa-9dae-b9ddb0491fbe","ios":"levelo://app?vid=03d4faad-c15a-48aa-9dae-b9ddb0491fbe"},"vehicle_type_id":"4","last_reported":1739794701,"current_range_meters":20400,"station_id":"ce4bhr92rcd13ifvqhsg","pricing_plan_id":"cebpf4jnsgd1na2vs0mg"},{"bike_id":"db90dd96-e348-4c68-ac8b-20428675b838","system_id":"levelo_inurba_marseille","lat":43.2721,"lon":5.3999,"is_reserved":false,"is_disabled":false,"rental_uris":{"android":"levelo://app?vid=db90dd96-e348-4c68-ac8b-20428675b838","ios":"levelo://app?vid=db90dd96-e348-4c68-ac8b-20428675b838"},"vehicle_type_id":"4","last_reported":1739794701,"current_range_meters":20400,"station_id":"","pricing_plan_id":"cebpf4jnsgd1na2vs0mg"},{"bike_id":"c22b076a-c085-4a58-81f5-c0fa44a6fd44","system_id":"levelo_inurba_marseille","lat":43.23982,"lon":5.36625,"is_reserved":false,"is_disabled":false,"rental_uris":{"android":"levelo://app?vid=c22b076a-c085-4a58-81f5-c0fa44a6fd44","ios":"levelo://app?vid=c22b076a-c085-4a58-81f5-c0fa44a6fd44"},"vehicle_type_id":"4","last_reported":1739794701,"current_range_meters":20400,"station_id":"ce4bhi12rcd13ifvqfp0","pricing_plan_id":"cebpf4jnsgd1na2vs0mg"},{"bike_id":"cdbf36e5-ecce-42f0-8445-70a3494d7d34","system_id":"levelo_inurba_marseille","lat":43.30222,"lon":5.39481,"is_reserved":false,"is_disabled":false,"rental_uris":{"android":"levelo://app?vid=cdbf36e5-ecce-42f0-8445-70a3494d7d34","ios":"levelo://app?vid=cdbf36e5-ecce-42f0-8445-70a3494d7d34"},"vehicle_type_id":"4","last_reported":1739794701,"current_range_meters":20400,"station_id":"","pricing_plan_id":"cebpf4jnsgd1na2vs0mg"},{"bike_id":"33d57c30-9f42-423a-b02f-6329665e30fd","system_id":"levelo_inurba_marseille","lat":43.29968,"lon":5.37174,"is_reserved":false,"is_disabled":false,"rental_uris":{"android":"levelo://app?vid=33d57c30-9f42-423a-b02f-6329665e30fd","ios":"levelo://app?vid=33d57c30-9f42-423a-b02f-6329665e30fd"},"vehicle_type_id":"4","last_reported":1739794701,"current_range_meters":20800,"station_id":"ce4bgr92rcd13ifvqc7g","pricing_plan_id":"cebpf4jnsgd1na2vs0mg"},{"bike_id":"6dda2f23-46bb-4bc4-9193-80a071d223c9","system_id":"levelo_inurba_marseille","lat":43.30663,"lon":5.36726,"is_reserved":false,"is_disabled":false,"rental_uris":{"android":"levelo://app?vid=6dda2f23-46bb-4bc4-9193-80a071d223c9","ios":"levelo://app?vid=6dda2f23-46bb-4bc4-9193-80a071d223c9"},"vehicle_type_id":"4","last_reported":1739794701,"current_range_meters":20800,"station_id":"","pricing_plan_id":"cebpf4jnsgd1na2vs0mg"},{"bike_id":"fc8a54de-632f-438c-8fa6-649a49391768","system_id":"levelo_inurba_marseille","lat":43.27966,"lon":5.38747,"is_reserved":false,"is_disabled":false,"rental_uris":{"android":"levelo://app?vid=fc8a54de-632f-438c-8fa6-649a49391768","ios":"levelo://app?vid=fc8a54de-632f-438c-8fa6-649a49391768"},"vehicle_type_id":"4","last_reported":1739794701,"current_range_meters":20800,"station_id":"ce4bhg12rcd13ifvqf80","pricing_plan_id":"cebpf4jnsgd1na2vs0mg"},{"bike_id":"057db5da-e962-47e3-8c9b-32a3793fecf2","system_id":"levelo_inurba_marseille","lat":43.2961,"lon":5.37725,"is_reserved":false,"is_disabled":false,"rental_uris":{"android":"levelo://app?vid=057db5da-e962-47e3-8c9b-32a3793fecf2","ios":"levelo://app?vid=057db5da-e962-47e3-8c9b-32a3793fecf2"},"vehicle_type_id":"4","last_reported":1739794701,"current_range_meters":20800,"station_id":"ce4bgi92rcd13ifvqb90","pricing_plan_id":"cebpf4jnsgd1na2vs0mg"},{"bike_id":"56526eaa-933b-4fff-8d21-ce3f5de87998","system_id":"levelo_inurba_marseille","lat":43.27987,"lon":5.41667,"is_reserved":false,"is_disabled":false,"rental_uris":{"android":"levelo://app?vid=56526eaa-933b-4fff-8d21-ce3f5de87998","ios":"levelo://app?vid=56526eaa-933b-4fff-8d21-ce3f5de87998"},"vehicle_type_id":"4","last_reported":1739794701,"current_range_meters":20800,"station_id":"ce4bho12rcd13ifvqh1g","pricing_plan_id":"cebpf4jnsgd1na2vs0mg"},{"bike_id":"92b97773-38da-44b4-badd-cd85f6b10b02","system_id":"levelo_inurba_marseille","lat":43.29277,"lon":5.40139,"is_reserved":false,"is_disabled":false,"rental_uris":{"android":"levelo://app?vid=92b97773-38da-44b4-badd-cd85f6b10b02","ios":"levelo://app?vid=92b97773-38da-44b4-badd-cd85f6b10b02"},"vehicle_type_id":"4","last_reported":1739794701,"current_range_meters":20800,"station_id":"ce4bh312rcd13ifvqdk0","pricing_plan_id":"cebpf4jnsgd1na2vs0mg"},{"bike_id":"d71af894-a21c-46dd-a56f-d4ff32e78c35","system_id":"levelo_inurba_marseille","lat":43.2649,"lon":5.39541,"is_reserved":false,"is_disabled":false,"rental_uris":{"android":"levelo://app?vid=d71af894-a21c-46dd-a56f-d4ff32e78c35","ios":"levelo://app?vid=d71af894-a21c-46dd-a56f-d4ff32e78c35"},"vehicle_type_id":"4","last_reported":1739794701,"current_range_meters":21600,"station_id":"","pricing_plan_id":"cebpf4jnsgd1na2vs0mg"},{"bike_id":"893de28b-5e29-4ce9-bd72-5e1fc28ae55c","system_id":"levelo_inurba_marseille","lat":43.23163,"lon":5.43694,"is_reserved":false,"is_disabled":false,"rental_uris":{"android":"levelo://app?vid=893de28b-5e29-4ce9-bd72-5e1fc28ae55c","ios":"levelo://app?vid=893de28b-5e29-4ce9-bd72-5e1fc28ae55c"},"vehicle_type_id":"4","last_reported":1739794701,"current_range_meters":21600,"station_id":"ce4bhmp2rcd13ifvqgog","pricing_plan_id":"cebpf4jnsgd1na2vs0mg"},{"bike_id":"1c24cbb3-82b1-4001-a711-c4051a5f284a","system_id":"levelo_inurba_marseille","lat":43.29983,"lon":5.37141,"is_reserved":false,"is_disabled":false,"rental_uris":{"android":"levelo://app?vid=1c24cbb3-82b1-4001-a711-c4051a5f284a","ios":"levelo://app?vid=1c24cbb3-82b1-4001-a711-c4051a5f284a"},"vehicle_type_id":"4","last_reported":1739794701,"current_range_meters":20800,"station_id":"ce4bgr92rcd13ifvqc7g","pricing_plan_id":"cebpf4jnsgd1na2vs0mg"},{"bike_id":"ad6d10e1-9d02-465f-963d-04db7f177e1b","system_id":"levelo_inurba_marseille","lat":43.26493,"lon":5.39551,"is_reserved":false,"is_disabled":false,"rental_uris":{"android":"levelo://app?vid=ad6d10e1-9d02-465f-963d-04db7f177e1b","ios":"levelo://app?vid=ad6d10e1-9d02-465f-963d-04db7f177e1b"},"vehicle_type_id":"4","last_reported":1739794701,"current_range_meters":21600,"station_id":"ce4bhi12rcd13ifvqfq0","pricing_plan_id":"cebpf4jnsgd1na2vs0mg"},{"bike_id":"c5664426-f222-499e-b39c-be5a771f2135","system_id":"levelo_inurba_marseille","lat":43.32481,"lon":5.36572,"is_reserved":false,"is_disabled":false,"rental_uris":{"android":"levelo://app?vid=c5664426-f222-499e-b39c-be5a771f2135","ios":"levelo://app?vid=c5664426-f222-499e-b39c-be5a771f2135"},"vehicle_type_id":"4","last_reported":1739794701,"current_range_meters":21600,"station_id":"ce4bhs12rcd13ifvqhvg","pricing_plan_id":"cebpf4jnsgd1na2vs0mg"},{"bike_id":"67f2dde4-29ce-4584-8826-202d0df0a2a7","system_id":"levelo_inurba_marseille","lat":43.29979,"lon":5.3849,"is_reserved":false,"is_disabled":false,"rental_uris":{"android":"levelo://app?vid=67f2dde4-29ce-4584-8826-202d0df0a2a7","ios":"levelo://app?vid=67f2dde4-29ce-4584-8826-202d0df0a2a7"},"vehicle_type_id":"4","last_reported":1739794701,"current_range_meters":22000,"station_id":"ce4bgj92rcd13ifvqbd0","pricing_plan_id":"cebpf4jnsgd1na2vs0mg"},{"bike_id":"ca361f68-c48e-4f46-8247-4d570a20947e","system_id":"levelo_inurba_marseille","lat":43.28847,"lon":5.3931,"is_reserved":false,"is_disabled":false,"rental_uris":{"android":"levelo://app?vid=ca361f68-c48e-4f46-8247-4d570a20947e","ios":"levelo://app?vid=ca361f68-c48e-4f46-8247-4d570a20947e"},"vehicle_type_id":"4","last_reported":1739794701,"current_range_meters":22000,"station_id":"ce4bh2p2rcd13ifvqdi0","pricing_plan_id":"cebpf4jnsgd1na2vs0mg"},{"bike_id":"1d63a175-89ef-49ff-9ead-dfe9ed6c22cf","system_id":"levelo_inurba_marseille","lat":43.24694,"lon":5.39433,"is_reserved":false,"is_disabled":false,"rental_uris":{"android":"levelo://app?vid=1d63a175-89ef-49ff-9ead-dfe9ed6c22cf","ios":"levelo://app?vid=1d63a175-89ef-49ff-9ead-dfe9ed6c22cf"},"vehicle_type_id":"4","last_reported":1739794701,"current_range_meters":22000,"station_id":"","pricing_plan_id":"cebpf4jnsgd1na2vs0mg"},{"bike_id":"813a3c15-b747-4359-b0f1-7e4d7744d82a","system_id":"levelo_inurba_marseille","lat":43.231307,"lon":5.355103,"is_reserved":false,"is_disabled":false,"rental_uris":{"android":"levelo://app?vid=813a3c15-b747-4359-b0f1-7e4d7744d82a","ios":"levelo://app?vid=813a3c15-b747-4359-b0f1-7e4d7744d82a"},"vehicle_type_id":"4","last_reported":1739794701,"current_range_meters":22000,"station_id":"ce4bgj92rcd13ifvqbe0","pricing_plan_id":"cebpf4jnsgd1na2vs0mg"},{"bike_id":"780e95bb-78ca-4b93-a9cd-f5942db743dd","system_id":"levelo_inurba_marseille","lat":43.26804,"lon":5.40277,"is_reserved":false,"is_disabled":false,"rental_uris":{"android":"levelo://app?vid=780e95bb-78ca-4b93-a9cd-f5942db743dd","ios":"levelo://app?vid=780e95bb-78ca-4b93-a9cd-f5942db743dd"},"vehicle_type_id":"4","last_reported":1739794701,"current_range_meters":22000,"station_id":"ce501612rcd8frsf0b60","pricing_plan_id":"cebpf4jnsgd1na2vs0mg"},{"bike_id":"14e6862f-996f-4fce-8b85-a5355ed463c8","system_id":"levelo_inurba_marseille","lat":43.27609,"lon":5.36134,"is_reserved":false,"is_disabled":false,"rental_uris":{"android":"levelo://app?vid=14e6862f-996f-4fce-8b85-a5355ed463c8","ios":"levelo://app?vid=14e6862f-996f-4fce-8b85-a5355ed463c8"},"vehicle_type_id":"4","last_reported":1739794701,"current_range_meters":22000,"station_id":"","pricing_plan_id":"cebpf4jnsgd1na2vs0mg"},{"bike_id":"ef4f6a2e-8025-4dde-a751-dced4ee9b2f1","system_id":"levelo_inurba_marseille","lat":43.28617,"lon":5.35106,"is_reserved":false,"is_disabled":false,"rental_uris":{"android":"levelo://app?vid=ef4f6a2e-8025-4dde-a751-dced4ee9b2f1","ios":"levelo://app?vid=ef4f6a2e-8025-4dde-a751-dced4ee9b2f1"},"vehicle_type_id":"4","last_reported":1739794701,"current_range_meters":22400,"station_id":"ce4bhch2rcd13ifvqeug","pricing_plan_id":"cebpf4jnsgd1na2vs0mg"},{"bike_id":"e143e45f-4b79-4243-a90e-3437fb713965","system_id":"levelo_inurba_marseille","lat":43.241792,"lon":5.397345,"is_reserved":false,"is_disabled":false,"rental_uris":{"android":"levelo://app?vid=e143e45f-4b79-4243-a90e-3437fb713965","ios":"levelo://app?vid=e143e45f-4b79-4243-a90e-3437fb713965"},"vehicle_type_id":"4","last_reported":1739794701,"current_range_meters":22400,"station_id":"ce4bhn12rcd13ifvqgpg","pricing_plan_id":"cebpf4jnsgd1na2vs0mg"},{"bike_id":"41968bcc-ef34-43af-acb8-22ac58896473","system_id":"levelo_inurba_marseille","lat":43.27445,"lon":5.39415,"is_reserved":false,"is_disabled":true,"rental_uris":{"android":"levelo://app?vid=41968bcc-ef34-43af-acb8-22ac58896473","ios":"levelo://app?vid=41968bcc-ef34-43af-acb8-22ac58896473"},"vehicle_type_id":"4","last_reported":1739794701,"current_range_meters":22400,"station_id":"ce4bhdp2rcd13ifvqf20","pricing_plan_id":"cebpf4jnsgd1na2vs0mg"},{"bike_id":"140d266e-cf55-41b4-9355-9b7de8b7e5ff","system_id":"levelo_inurba_marseille","lat":43.24189,"lon":5.39707,"is_reserved":false,"is_disabled":false,"rental_uris":{"android":"levelo://app?vid=140d266e-cf55-41b4-9355-9b7de8b7e5ff","ios":"levelo://app?vid=140d266e-cf55-41b4-9355-9b7de8b7e5ff"},"vehicle_type_id":"4","last_reported":1739794701,"current_range_meters":22400,"station_id":"ce4bhn12rcd13ifvqgpg","pricing_plan_id":"cebpf4jnsgd1na2vs0mg"},{"bike_id":"1ccfe71e-e1f5-48e6-bb36-6b28d9ca53c4","system_id":"levelo_inurba_marseille","lat":43.2879,"lon":5.36901,"is_reserved":false,"is_disabled":false,"rental_uris":{"android":"levelo://app?vid=1ccfe71e-e1f5-48e6-bb36-6b28d9ca53c4","ios":"levelo://app?vid=1ccfe71e-e1f5-48e6-bb36-6b28d9ca53c4"},"vehicle_type_id":"4","last_reported":1739794701,"current_range_meters":22400,"station_id":"","pricing_plan_id":"cebpf4jnsgd1na2vs0mg"},{"bike_id":"3ae87cd8-704c-4969-9a2f-40da1804b059","system_id":"levelo_inurba_marseille","lat":43.2841,"lon":5.34986,"is_reserved":false,"is_disabled":false,"rental_uris":{"android":"levelo://app?vid=3ae87cd8-704c-4969-9a2f-40da1804b059","ios":"levelo://app?vid=3ae87cd8-704c-4969-9a2f-40da1804b059"},"vehicle_type_id":"4","last_reported":1739794701,"current_range_meters":22400,"station_id":"","pricing_plan_id":"cebpf4jnsgd1na2vs0mg"},{"bike_id":"5d670972-2c3c-455e-8698-a32f79d6dbbe","system_id":"levelo_inurba_marseille","lat":43.281629,"lon":5.426595,"is_reserved":false,"is_disabled":false,"rental_uris":{"android":"levelo://app?vid=5d670972-2c3c-455e-8698-a32f79d6dbbe","ios":"levelo://app?vid=5d670972-2c3c-455e-8698-a32f79d6dbbe"},"vehicle_type_id":"4","last_reported":1739794701,"current_range_meters":22400,"station_id":"","pricing_plan_id":"cebpf4jnsgd1na2vs0mg"},{"bike_id":"63f6216e-0228-48d4-b7a0-b10323e202ec","system_id":"levelo_inurba_marseille","lat":43.30147,"lon":5.37397,"is_reserved":false,"is_disabled":false,"rental_uris":{"android":"levelo://app?vid=63f6216e-0228-48d4-b7a0-b10323e202ec","ios":"levelo://app?vid=63f6216e-0228-48d4-b7a0-b10323e202ec"},