{"last_updated":1756390196,"ttl":60,"version":"2.2","data":{"bikes":[{"bike_id":"68129612-9fd2-46b9-8280-1deae794ee8c","system_id":"levelo_inurba_marseille","lat":43.258238,"lon":5.394378,"is_reserved":false,"is_disabled":false,"rental_uris":{"android":"levelo://app?vid=68129612-9fd2-46b9-8280-1deae794ee8c","ios":"levelo://app?vid=68129612-9fd2-46b9-8280-1deae794ee8c"},"vehicle_type_id":"4","last_reported":1756390196,"current_range_meters":2800,"station_id":"ce4bhip2rcd13ifvqft0","pricing_plan_id":"cebpf4jnsgd1na2vs0mg"},{"bike_id":"0d502687-08ef-4491-8893-8a03d8688be8","system_id":"levelo_inurba_marseille","lat":43.296359,"lon":5.361186,"is_reserved":false,"is_disabled":false,"rental_uris":{"android":"levelo://app?vid=0d502687-08ef-4491-8893-8a03d8688be8","ios":"levelo://app?vid=0d502687-08ef-4491-8893-8a03d8688be8"},"vehicle_type_id":"4","last_reported":1756390196,"current_range_meters":2800,"station_id":"","pricing_plan_id":"cebpf4jnsgd1na2vs0mg"},{"bike_id":"a1e9622a-7c2e-4748-9440-b794731ec70a","system_id":"levelo_inurba_marseille","lat":43.30537,"lon":5.36525,"is_reserved":false,"is_disabled":false,"rental_uris":{"android":"levelo://app?vid=a1e9622a-7c2e-4748-9440-b794731ec70a","ios":"levelo://app?vid=a1e9622a-7c2e-4748-9440-b794731ec70a"},"vehicle_type_id":"4","last_reported":1756390196,"current_range_meters":3200,"station_id":"ce4bgs12rcd13ifvqcag","pricing_plan_id":"cebpf4jnsgd1na2vs0mg"},{"bike_id":"23038a23-8213-4d5b-a784-616373105311","system_id":"levelo_inurba_marseille","lat":43.298961,"lon":5.436655,"is_reserved":false,"is_disabled":false,"rental_uris":{"android":"levelo://app?vid=23038a23-8213-4d5b-a784-616373105311","ios":"levelo://app?vid=23038a23-8213-4d5b-a784-616373105311"},"vehicle_type_id":"4","last_reported":1756390196,"current_range_meters":3200,"station_id":"ce4bhpp2rcd13ifvqhfg","pricing_plan_id":"cebpf4jnsgd1na2vs0mg"},{"bike_id":"9ebbca0f-8b0f-49e0-bbc0-5934ebb0e846","system_id":"levelo_inurba_marseille","lat":43.211873,"lon":5.350763,"is_reserved":false,"is_disabled":false,"rental_uris":{"android":"levelo://app?vid=9ebbca0f-8b0f-49e0-bbc0-5934ebb0e846","ios":"levelo://app?vid=9ebbca0f-8b0f-49e0-bbc0-5934ebb0e846"},"vehicle_type_id":"4","last_reported":1756390196,"current_range_meters":4000,"station_id":"st_cvj6sg6p6f1abm77japg","pricing_plan_id":"cebpf4jnsgd1na2vs0mg"},{"bike_id":"51842e17-ef10-4624-a23e-c8a182427991","system_id":"levelo_inurba_marseille","lat":43.316325,"lon":5.381867,"is_reserved":false,"is_disabled":false,"rental_uris":{"android":"levelo://app?vid=51842e17-ef10-4624-a23e-c8a182427991","ios":"levelo://app?vid=51842e17-ef10-4624-a23e-c8a182427991"},"vehicle_type_id":"4","last_reported":1756390196,"current_range_meters":4000,"station_id":"","pricing_plan_id":"cebpf4jnsgd1na2vs0mg"},{"bike_id":"baf23113-7082-4065-a6eb-ae0f8cc08033","system_id":"levelo_inurba_marseille","lat":43.32364,"lon":5.3675,"is_reserved":false,"is_disabled":false,"rental_uris":{"android":"levelo://app?vid=baf23113-7082-4065-a6eb-ae0f8cc08033","ios":"levelo://app?vid=baf23113-7082-4065-a6eb-ae0f8cc08033"},"vehicle_type_id":"4","last_reported":1756390196,"current_range_meters":4000,"station_id":"ce4bhsh2rcd13ifvqi2g","pricing_plan_id":"cebpf4jnsgd1na2vs0mg"},{"bike_id":"78a3cb14-6728-4c4c-a490-1a5a5318e8bc","system_id":"levelo_inurba_marseille","lat":43.29611,"lon":5.39058,"is_reserved":false,"is_disabled":false,"rental_uris":{"android":"levelo://app?vid=78a3cb14-6728-4c4c-a490-1a5a5318e8bc","ios":"levelo://app?vid=78a3cb14-6728-4c4c-a490-1a5a5318e8bc"},"vehicle_type_id":"4","last_reported":1756390196,"current_range_meters":4400,"station_id":"","pricing_plan_id":"cebpf4jnsgd1na2vs0mg"},{"bike_id":"b7f5d4fc-8af5-442f-b471-e28f343fd67e","system_id":"levelo_inurba_marseille","lat":43.33766,"lon":5.37484,"is_reserved":false,"is_disabled":false,"rental_uris":{"android":"levelo://app?vid=b7f5d4fc-8af5-442f-b471-e28f343fd67e","ios":"levelo://app?vid=b7f5d4fc-8af5-442f-b471-e28f343fd67e"},"vehicle_type_id":"4","last_reported":1756390196,"current_range_meters":4400,"station_id":"","pricing_plan_id":"cebpf4jnsgd1na2vs0mg"},{"bike_id":"6a1648a8-fd13-489e-95d0-ce0e488cc9b2","system_id":"levelo_inurba_marseille","lat":43.292014,"lon":5.358006,"is_reserved":false,"is_disabled":false,"rental_uris":{"android":"levelo://app?vid=6a1648a8-fd13-489e-95d0-ce0e488cc9b2","ios":"levelo://app?vid=6a1648a8-fd13-489e-95d0-ce0e488cc9b2"},"vehicle_type_id":"4","last_reported":1756390196,"current_range_meters":4800,"station_id":"ce4bhb12rcd13ifvqel0","pricing_plan_id":"cebpf4jnsgd1na2vs0mg"},{"bike_id":"8ff3ebc3-b8cc-483f-9232-7e0c6220b0be","system_id":"levelo_inurba_marseille","lat":43.29959,"lon":5.41326,"is_reserved":false,"is_disabled":false,"rental_uris":{"android":"levelo://app?vid=8ff3ebc3-b8cc-483f-9232-7e0c6220b0be","ios":"levelo://app?vid=8ff3ebc3-b8cc-483f-9232-7e0c6220b0be"},"vehicle_type_id":"4","last_reported":1756390196,"current_range_meters":4800,"station_id":"ce4bhp12rcd13ifvqh9g","pricing_plan_id":"cebpf4jnsgd1na2vs0mg"},{"bike_id":"abb5a0ba-a137-46ab-8ae1-c6ad6d69ca0c","system_id":"levelo_inurba_marseille","lat":43.23196,"lon":5.35553,"is_reserved":false,"is_disabled":false,"rental_uris":{"android":"levelo://app?vid=abb5a0ba-a137-46ab-8ae1-c6ad6d69ca0c","ios":"levelo://app?vid=abb5a0ba-a137-46ab-8ae1-c6ad6d69ca0c"},"vehicle_type_id":"4","last_reported":1756390196,"current_range_meters":4800,"station_id":"ce4bhu92rcd13ifvqi70","pricing_plan_id":"cebpf4jnsgd1na2vs0mg"},{"bike_id":"ff36a4a4-de14-4294-91b4-01be5dd579e4","system_id":"levelo_inurba_marseille","lat":43.2465,"lon":5.38889,"is_reserved":false,"is_disabled":false,"rental_uris":{"android":"levelo://app?vid=ff36a4a4-de14-4294-91b4-01be5dd579e4","ios":"levelo://app?vid=ff36a4a4-de14-4294-91b4-01be5dd579e4"},"vehicle_type_id":"4","last_reported":1756390196,"current_range_meters":4800,"station_id":"ce4bhg12rcd13ifvqf60","pricing_plan_id":"cebpf4jnsgd1na2vs0mg"},{"bike_id":"69a01144-4cb0-4f43-b8a7-d8bba1210d75","system_id":"levelo_inurba_marseille","lat":43.315866,"lon":5.374255,"is_reserved":false,"is_disabled":false,"rental_uris":{"android":"levelo://app?vid=69a01144-4cb0-4f43-b8a7-d8bba1210d75","ios":"levelo://app?vid=69a01144-4cb0-4f43-b8a7-d8bba1210d75"},"vehicle_type_id":"4","last_reported":1756390196,"current_range_meters":4800,"station_id":"","pricing_plan_id":"cebpf4jnsgd1na2vs0mg"},{"bike_id":"4cbbccea-ee33-48f2-b989-2032659391f7","system_id":"levelo_inurba_marseille","lat":43.24808,"lon":5.37452,"is_reserved":false,"is_disabled":false,"rental_uris":{"android":"levelo://app?vid=4cbbccea-ee33-48f2-b989-2032659391f7","ios":"levelo://app?vid=4cbbccea-ee33-48f2-b989-2032659391f7"},"vehicle_type_id":"4","last_reported":1756390196,"current_range_meters":5600,"station_id":"ce4bhgh2rcd13ifvqfb0","pricing_plan_id":"cebpf4jnsgd1na2vs0mg"},{"bike_id":"935960c4-d548-4f33-b092-9c0a28f723f3","system_id":"levelo_inurba_marseille","lat":43.28,"lon":5.40005,"is_reserved":false,"is_disabled":false,"rental_uris":{"android":"levelo://app?vid=935960c4-d548-4f33-b092-9c0a28f723f3","ios":"levelo://app?vid=935960c4-d548-4f33-b092-9c0a28f723f3"},"vehicle_type_id":"4","last_reported":1756390196,"current_range_meters":6000,"station_id":"ce4bho92rcd13ifvqh4g","pricing_plan_id":"cebpf4jnsgd1na2vs0mg"},{"bike_id":"2dcdd814-2ba3-4e6a-9157-67facbfa9c86","system_id":"levelo_inurba_marseille","lat":43.29786,"lon":5.39341,"is_reserved":false,"is_disabled":false,"rental_uris":{"android":"levelo://app?vid=2dcdd814-2ba3-4e6a-9157-67facbfa9c86","ios":"levelo://app?vid=2dcdd814-2ba3-4e6a-9157-67facbfa9c86"},"vehicle_type_id":"4","last_reported":1756390196,"current_range_meters":6000,"station_id":"chh1huq6cuj3fo74tm60","pricing_plan_id":"cebpf4jnsgd1na2vs0mg"},{"bike_id":"1419129e-f0de-4052-abf1-7e5e3f2a2700","system_id":"levelo_inurba_marseille","lat":43.291785,"lon":5.380863,"is_reserved":false,"is_disabled":false,"rental_uris":{"android":"levelo://app?vid=1419129e-f0de-4052-abf1-7e5e3f2a2700","ios":"levelo://app?vid=1419129e-f0de-4052-abf1-7e5e3f2a2700"},"vehicle_type_id":"4","last_reported":1756390196,"current_range_meters":6400,"station_id":"","pricing_plan_id":"cebpf4jnsgd1na2vs0mg"},{"bike_id":"f5dd16a7-f679-49d6-9c1a-280eff2b9696","system_id":"levelo_inurba_marseille","lat":43.29522,"lon":5.39047,"is_reserved":false,"is_disabled":false,"rental_uris":{"android":"levelo://app?vid=f5dd16a7-f679-49d6-9c1a-280eff2b9696","ios":"levelo://app?vid=f5dd16a7-f679-49d6-9c1a-280eff2b9696"},"vehicle_type_id":"4","last_reported":1756390196,"current_range_meters":6000,"station_id":"ce4bh3p2rcd13ifvqdp0","pricing_plan_id":"cebpf4jnsgd1na2vs0mg"},{"bike_id":"5bce688b-fc81-4596-8277-b66f54be87c1","system_id":"levelo_inurba_marseille","lat":43.337645,"lon":5.374409,"is_reserved":false,"is_disabled":false,"rental_uris":{"android":"levelo://app?vid=5bce688b-fc81-4596-8277-b66f54be87c1","ios":"levelo://app?vid=5bce688b-fc81-4596-8277-b66f54be87c1"},"vehicle_type_id":"4","last_reported":1756390196,"current_range_meters":6800,"station_id":"","pricing_plan_id":"cebpf4jnsgd1na2vs0mg"},{"bike_id":"24f5aa1f-2f94-4f26-8f26-0f5d3cb057f4","system_id":"levelo_inurba_marseille","lat":43.28725,"lon":5.42643,"is_reserved":false,"is_disabled":false,"rental_uris":{"android":"levelo://app?vid=24f5aa1f-2f94-4f26-8f26-0f5d3cb057f4","ios":"levelo://app?vid=24f5aa1f-2f94-4f26-8f26-0f5d3cb057f4"},"vehicle_type_id":"4","last_reported":1756390196,"current_range_meters":6800,"station_id":"","pricing_plan_id":"cebpf4jnsgd1na2vs0mg"},{"bike_id":"72a501af-76c9-49eb-80be-0e6570ca2ac8","system_id":"levelo_inurba_marseille","lat":43.24655,"lon":5.38887,"is_reserved":false,"is_disabled":false,"rental_uris":{"android":"levelo://app?vid=72a501af-76c9-49eb-80be-0e6570ca2ac8","ios":"levelo://app?vid=72a501af-76c9-49eb-80be-0e6570ca2ac8"},"vehicle_type_id":"4","last_reported":1756390196,"current_range_meters":7200,"station_id":"ce4bhg12rcd13ifvqf60","pricing_plan_id":"cebpf4jnsgd1na2vs0mg"},{"bike_id":"e5eabf25-4e1c-476e-b130-9f83cdcfc80c","system_id":"levelo_inurba_marseille","lat":43.29816,"lon":5.41715,"is_reserved":false,"is_disabled":false,"rental_uris":{"android":"levelo://app?vid=e5eabf25-4e1c-476e-b130-9f83cdcfc80c","ios":"levelo://app?vid=e5eabf25-4e1c-476e-b130-9f83cdcfc80c"},"vehicle_type_id":"4","last_reported":1756390196,"current_range_meters":8000,"station_id":"","pricing_plan_id":"cebpf4jnsgd1na2vs0mg"},{"bike_id":"a6ef8657-5b8a-423b-993f-c3df43dec0a0","system_id":"levelo_inurba_marseille","lat":43.337595,"lon":5.374806,"is_reserved":false,"is_disabled":false,"rental_uris":{"android":"levelo://app?vid=a6ef8657-5b8a-423b-993f-c3df43dec0a0","ios":"levelo://app?vid=a6ef8657-5b8a-423b-993f-c3df43dec0a0"},"vehicle_type_id":"4","last_reported":1756390196,"current_range_meters":8000,"station_id":"","pricing_plan_id":"cebpf4jnsgd1na2vs0mg"},{"bike_id":"efe0bb0f-c92c-4efb-b29f-a81448ec5eb2","system_id":"levelo_inurba_marseille","lat":43.29033,"lon":5.37552,"is_reserved":false,"is_disabled":true,"rental_uris":{"android":"levelo://app?vid=efe0bb0f-c92c-4efb-b29f-a81448ec5eb2","ios":"levelo://app?vid=efe0bb0f-c92c-4efb-b29f-a81448ec5eb2"},"vehicle_type_id":"4","last_reported":1756390196,"current_range_meters":8400,"station_id":"ce4bh692rcd13ifvqe90","pricing_plan_id":"cebpf4jnsgd1na2vs0mg"},{"bike_id":"9687de43-2d75-41a0-9fa6-89ce72f1d6a0","system_id":"levelo_inurba_marseille","lat":43.30443,"lon":5.38877,"is_reserved":false,"is_disabled":false,"rental_uris":{"android":"levelo://app?vid=9687de43-2d75-41a0-9fa6-89ce72f1d6a0","ios":"levelo://app?vid=9687de43-2d75-41a0-9fa6-89ce72f1d6a0"},"vehicle_type_id":"4","last_reported":1756390196,"current_range_meters":8400,"station_id":"ce4bgk12rcd13ifvqbi0","pricing_plan_id":"cebpf4jnsgd1na2vs0mg"},{"bike_id":"8fcc29ec-d1d0-406a-8a95-c175a405aad2","system_id":"levelo_inurba_marseille","lat":43.29789,"lon":5.39346,"is_reserved":false,"is_disabled":false,"rental_uris":{"android":"levelo://app?vid=8fcc29ec-d1d0-406a-8a95-c175a405aad2","ios":"levelo://app?vid=8fcc29ec-d1d0-406a-8a95-c175a405aad2"},"vehicle_type_id":"4","last_reported":1756390196,"current_range_meters":8800,"station_id":"","pricing_plan_id":"cebpf4jnsgd1na2vs0mg"},{"bike_id":"ac631280-124e-4e54-bf31-e8c590daca4d","system_id":"levelo_inurba_marseille","lat":43.298089,"lon":5.381118,"is_reserved":false,"is_disabled":false,"rental_uris":{"android":"levelo://app?vid=ac631280-124e-4e54-bf31-e8c590daca4d","ios":"levelo://app?vid=ac631280-124e-4e54-bf31-e8c590daca4d"},"vehicle_type_id":"4","last_reported":1756390196,"current_range_meters":8800,"station_id":"ce4bgip2rcd13ifvqbb0","pricing_plan_id":"cebpf4jnsgd1na2vs0mg"},{"bike_id":"452c64c1-c18e-429f-ac02-5f3cc7af3941","system_id":"levelo_inurba_marseille","lat":43.2179,"lon":5.34594,"is_reserved":false,"is_disabled":false,"rental_uris":{"android":"levelo://app?vid=452c64c1-c18e-429f-ac02-5f3cc7af3941","ios":"levelo://app?vid=452c64c1-c18e-429f-ac02-5f3cc7af3941"},"vehicle_type_id":"4","last_reported":1756390196,"current_range_meters":8800,"station_id":"","pricing_plan_id":"cebpf4jnsgd1na2vs0mg"},{"bike_id":"e36ab571-6b83-4012-910d-c8ac275ef467","system_id":"levelo_inurba_marseille","lat":43.294562,"lon":5.374092,"is_reserved":false,"is_disabled":false,"rental_uris":{"android":"levelo://app?vid=e36ab571-6b83-4012-910d-c8ac275ef467","ios":"levelo://app?vid=e36ab571-6b83-4012-910d-c8ac275ef467"},"vehicle_type_id":"4","last_reported":1756390196,"current_range_meters":9200,"station_id":"","pricing_plan_id":"cebpf4jnsgd1na2vs0mg"},{"bike_id":"8637e1aa-9c9a-41e1-a5d5-f0342a65118e","system_id":"levelo_inurba_marseille","lat":43.31716,"lon":5.43703,"is_reserved":false,"is_disabled":false,"rental_uris":{"android":"levelo://app?vid=8637e1aa-9c9a-41e1-a5d5-f0342a65118e","ios":"levelo://app?vid=8637e1aa-9c9a-41e1-a5d5-f0342a65118e"},"vehicle_type_id":"4","last_reported":1756390196,"current_range_meters":9200,"station_id":"ce4bhp92rcd13ifvqhcg","pricing_plan_id":"cebpf4jnsgd1na2vs0mg"},{"bike_id":"9e190d69-25e5-45e4-9dd0-4ccc2be1156e","system_id":"levelo_inurba_marseille","lat":43.30313,"lon":5.36895,"is_reserved":false,"is_disabled":false,"rental_uris":{"android":"levelo://app?vid=9e190d69-25e5-45e4-9dd0-4ccc2be1156e","ios":"levelo://app?vid=9e190d69-25e5-45e4-9dd0-4ccc2be1156e"},"vehicle_type_id":"4","last_reported":1756390196,"current_range_meters":9600,"station_id":"ce4bgqh2rcd13ifvqc5g","pricing_plan_id":"cebpf4jnsgd1na2vs0mg"},{"bike_id":"5c26a54e-1e97-4ad3-a16d-614ad930b130","system_id":"levelo_inurba_marseille","lat":43.321037,"lon":5.36769,"is_reserved":false,"is_disabled":false,"rental_uris":{"android":"levelo://app?vid=5c26a54e-1e97-4ad3-a16d-614ad930b130","ios":"levelo://app?vid=5c26a54e-1e97-4ad3-a16d-614ad930b130"},"vehicle_type_id":"4","last_reported":1756390196,"current_range_meters":10800,"station_id":"ce4bhrh2rcd13ifvqhug","pricing_plan_id":"cebpf4jnsgd1na2vs0mg"},{"bike_id":"b9a2bbbb-69ac-40be-bf46-27119ee9c404","system_id":"levelo_inurba_marseille","lat":43.253363,"lon":5.421725,"is_reserved":false,"is_disabled":false,"rental_uris":{"android":"levelo://app?vid=b9a2bbbb-69ac-40be-bf46-27119ee9c404","ios":"levelo://app?vid=b9a2bbbb-69ac-40be-bf46-27119ee9c404"},"vehicle_type_id":"4","last_reported":1756390196,"current_range_meters":10800,"station_id":"st_d2m65c5bi1j21697t3ng","pricing_plan_id":"cebpf4jnsgd1na2vs0mg"},{"bike_id":"07322f43-b075-4348-ad13-c60d9dc8cfc0","system_id":"levelo_inurba_marseille","lat":43.27295,"lon":5.36287,"is_reserved":false,"is_disabled":false,"rental_uris":{"android":"levelo://app?vid=07322f43-b075-4348-ad13-c60d9dc8cfc0","ios":"levelo://app?vid=07322f43-b075-4348-ad13-c60d9dc8cfc0"},"vehicle_type_id":"4","last_reported":1756390196,"current_range_meters":10800,"station_id":"","pricing_plan_id":"cebpf4jnsgd1na2vs0mg"},{"bike_id":"ac0ea835-99bd-43af-8946-31e8413cf1fb","system_id":"levelo_inurba_marseille","lat":43.32492,"lon":5.36591,"is_reserved":false,"is_disabled":false,"rental_uris":{"android":"levelo://app?vid=ac0ea835-99bd-43af-8946-31e8413cf1fb","ios":"levelo://app?vid=ac0ea835-99bd-43af-8946-31e8413cf1fb"},"vehicle_type_id":"4","last_reported":1756390196,"current_range_meters":11200,"station_id":"ce4bhs12rcd13ifvqhvg","pricing_plan_id":"cebpf4jnsgd1na2vs0mg"},{"bike_id":"1251df8a-8c04-445c-a74d-ab5ce9fc3641","system_id":"levelo_inurba_marseille","lat":43.30121,"lon":5.39858,"is_reserved":false,"is_disabled":false,"rental_uris":{"android":"levelo://app?vid=1251df8a-8c04-445c-a74d-ab5ce9fc3641","ios":"levelo://app?vid=1251df8a-8c04-445c-a74d-ab5ce9fc3641"},"vehicle_type_id":"4","last_reported":1756390196,"current_range_meters":14000,"station_id":"ce4bh0h2rcd13ifvqd40","pricing_plan_id":"cebpf4jnsgd1na2vs0mg"},{"bike_id":"3664a0b5-d8e2-4e1e-bbcc-c0420aee10a3","system_id":"levelo_inurba_marseille","lat":43.29852,"lon":5.36286,"is_reserved":false,"is_disabled":false,"rental_uris":{"android":"levelo://app?vid=3664a0b5-d8e2-4e1e-bbcc-c0420aee10a3","ios":"levelo://app?vid=3664a0b5-d8e2-4e1e-bbcc-c0420aee10a3"},"vehicle_type_id":"4","last_reported":1756390196,"current_range_meters":11200,"station_id":"ce4bgpp2rcd13ifvqc3g","pricing_plan_id":"cebpf4jnsgd1na2vs0mg"},{"bike_id":"c258980b-8ad4-4751-9f2b-631a14b5f1d4","system_id":"levelo_inurba_marseille","lat":43.28671,"lon":5.36353,"is_reserved":false,"is_disabled":false,"rental_uris":{"android":"levelo://app?vid=c258980b-8ad4-4751-9f2b-631a14b5f1d4","ios":"levelo://app?vid=c258980b-8ad4-4751-9f2b-631a14b5f1d4"},"vehicle_type_id":"4","last_reported":1756390196,"current_range_meters":11200,"station_id":"ce4bhah2rcd13ifvqej0","pricing_plan_id":"cebpf4jnsgd1na2vs0mg"},{"bike_id":"a5018a55-dc8b-47fd-acfe-61588d7d837e","system_id":"levelo_inurba_marseille","lat":43.28237,"lon":5.39067,"is_reserved":false,"is_disabled":false,"rental_uris":{"android":"levelo://app?vid=a5018a55-dc8b-47fd-acfe-61588d7d837e","ios":"levelo://app?vid=a5018a55-dc8b-47fd-acfe-61588d7d837e"},"vehicle_type_id":"4","last_reported":1756390196,"current_range_meters":11200,"station_id":"","pricing_plan_id":"cebpf4jnsgd1na2vs0mg"},{"bike_id":"183e184d-fce7-49bd-9424-4b9a8be6c0b8","system_id":"levelo_inurba_marseille","lat":43.28459,"lon":5.35886,"is_reserved":false,"is_disabled":false,"rental_uris":{"android":"levelo://app?vid=183e184d-fce7-49bd-9424-4b9a8be6c0b8","ios":"levelo://app?vid=183e184d-fce7-49bd-9424-4b9a8be6c0b8"},"vehicle_type_id":"4","last_reported":1756390196,"current_range_meters":11200,"station_id":"ce4bhah2rcd13ifvqei0","pricing_plan_id":"cebpf4jnsgd1na2vs0mg"},{"bike_id":"82d8b399-fe80-435d-a31f-c959f3cfb96f","system_id":"levelo_inurba_marseille","lat":43.26047,"lon":5.37537,"is_reserved":false,"is_disabled":false,"rental_uris":{"android":"levelo://app?vid=82d8b399-fe80-435d-a31f-c959f3cfb96f","ios":"levelo://app?vid=82d8b399-fe80-435d-a31f-c959f3cfb96f"},"vehicle_type_id":"4","last_reported":1756390196,"current_range_meters":11200,"station_id":"ce4bhgh2rcd13ifvqfa0","pricing_plan_id":"cebpf4jnsgd1na2vs0mg"},{"bike_id":"c67682e4-ad86-4b65-b4ef-e774963b7e60","system_id":"levelo_inurba_marseille","lat":43.23198,"lon":5.3558,"is_reserved":false,"is_disabled":false,"rental_uris":{"android":"levelo://app?vid=c67682e4-ad86-4b65-b4ef-e774963b7e60","ios":"levelo://app?vid=c67682e4-ad86-4b65-b4ef-e774963b7e60"},"vehicle_type_id":"4","last_reported":1756390196,"current_range_meters":11600,"station_id":"ce4bhu92rcd13ifvqi70","pricing_plan_id":"cebpf4jnsgd1na2vs0mg"},{"bike_id":"31eeac54-6036-4051-a7ef-f3495342975f","system_id":"levelo_inurba_marseille","lat":43.26194,"lon":5.37927,"is_reserved":false,"is_disabled":false,"rental_uris":{"android":"levelo://app?vid=31eeac54-6036-4051-a7ef-f3495342975f","ios":"levelo://app?vid=31eeac54-6036-4051-a7ef-f3495342975f"},"vehicle_type_id":"4","last_reported":1756390196,"current_range_meters":11600,"station_id":"ce4bhjp2rcd13ifvqg90","pricing_plan_id":"cebpf4jnsgd1na2vs0mg"},{"bike_id":"0c724188-3041-45d4-ab63-be8573d38a44","system_id":"levelo_inurba_marseille","lat":43.30883,"lon":5.39651,"is_reserved":false,"is_disabled":false,"rental_uris":{"android":"levelo://app?vid=0c724188-3041-45d4-ab63-be8573d38a44","ios":"levelo://app?vid=0c724188-3041-45d4-ab63-be8573d38a44"},"vehicle_type_id":"4","last_reported":1756390196,"current_range_meters":13600,"station_id":"ce4bh012rcd13ifvqcv0","pricing_plan_id":"cebpf4jnsgd1na2vs0mg"},{"bike_id":"c53839b8-cf83-4f2b-a259-c080f1e44b11","system_id":"levelo_inurba_marseille","lat":43.26681,"lon":5.38267,"is_reserved":false,"is_disabled":false,"rental_uris":{"android":"levelo://app?vid=c53839b8-cf83-4f2b-a259-c080f1e44b11","ios":"levelo://app?vid=c53839b8-cf83-4f2b-a259-c080f1e44b11"},"vehicle_type_id":"4","last_reported":1756390196,"current_range_meters":12000,"station_id":"ce4bhg92rcd13ifvqf90","pricing_plan_id":"cebpf4jnsgd1na2vs0mg"},{"bike_id":"b0f83565-e5ba-4517-9f6b-428176582323","system_id":"levelo_inurba_marseille","lat":43.30424,"lon":5.41278,"is_reserved":false,"is_disabled":false,"rental_uris":{"android":"levelo://app?vid=b0f83565-e5ba-4517-9f6b-428176582323","ios":"levelo://app?vid=b0f83565-e5ba-4517-9f6b-428176582323"},"vehicle_type_id":"4","last_reported":1756390196,"current_range_meters":12000,"station_id":"ce4bhop2rcd13ifvqh8g","pricing_plan_id":"cebpf4jnsgd1na2vs0mg"},{"bike_id":"03006e70-f61c-494c-b1b4-09f6af1fca00","system_id":"levelo_inurba_marseille","lat":43.28482,"lon":5.38557,"is_reserved":false,"is_disabled":false,"rental_uris":{"android":"levelo://app?vid=03006e70-f61c-494c-b1b4-09f6af1fca00","ios":"levelo://app?vid=03006e70-f61c-494c-b1b4-09f6af1fca00"},"vehicle_type_id":"4","last_reported":1756390196,"current_range_meters":14800,"station_id":"ce4bh8p2rcd13ifvqeb0","pricing_plan_id":"cebpf4jnsgd1na2vs0mg"},{"bike_id":"086eae28-81ce-41d3-ac9f-9b7a0710789b","system_id":"levelo_inurba_marseille","lat":43.269835,"lon":5.402935,"is_reserved":false,"is_disabled":false,"rental_uris":{"android":"levelo://app?vid=086eae28-81ce-41d3-ac9f-9b7a0710789b","ios":"levelo://app?vid=086eae28-81ce-41d3-ac9f-9b7a0710789b"},"vehicle_type_id":"4","last_reported":1756390196,"current_range_meters":12000,"station_id":"","pricing_plan_id":"cebpf4jnsgd1na2vs0mg"},{"bike_id":"d810acf0-5bd2-4bf1-848d-31cd30d105e6","system_id":"levelo_inurba_marseille","lat":43.269831,"lon":5.392782,"is_reserved":false,"is_disabled":false,"rental_uris":{"android":"levelo://app?vid=d810acf0-5bd2-4bf1-848d-31cd30d105e6","ios":"levelo://app?vid=d810acf0-5bd2-4bf1-848d-31cd30d105e6"},"vehicle_type_id":"4","last_reported":1756390196,"current_range_meters":12000,"station_id":"","pricing_plan_id":"cebpf4jnsgd1na2vs0mg"},{"bike_id":"b8df9f83-db4c-4d07-ab72-0da748a1f42b","system_id":"levelo_inurba_marseille","lat":43.26199,"lon":5.37449,"is_reserved":false,"is_disabled":false,"rental_uris":{"android":"levelo://app?vid=b8df9f83-db4c-4d07-ab72-0da748a1f42b","ios":"levelo://app?vid=b8df9f83-db4c-4d07-ab72-0da748a1f42b"},"vehicle_type_id":"4","last_reported":1756390196,"current_range_meters":12000,"station_id":"ce4bhgp2rcd13ifvqfc0","pricing_plan_id":"cebpf4jnsgd1na2vs0mg"},{"bike_id":"825f99ee-02a3-46e4-8dd8-870f14d345a8","system_id":"levelo_inurba_marseille","lat":43.225043,"lon":5.347825,"is_reserved":false,"is_disabled":true,"rental_uris":{"android":"levelo://app?vid=825f99ee-02a3-46e4-8dd8-870f14d345a8","ios":"levelo://app?vid=825f99ee-02a3-46e4-8dd8-870f14d345a8"},"vehicle_type_id":"4","last_reported":1756390196,"current_range_meters":12400,"station_id":"","pricing_plan_id":"cebpf4jnsgd1na2vs0mg"},{"bike_id":"58b0f458-6d83-41ca-9901-eee7b5b8a27a","system_id":"levelo_inurba_marseille","lat":43.26215,"lon":5.37443,"is_reserved":false,"is_disabled":false,"rental_uris":{"android":"levelo://app?vid=58b0f458-6d83-41ca-9901-eee7b5b8a27a","ios":"levelo://app?vid=58b0f458-6d83-41ca-9901-eee7b5b8a27a"},"vehicle_type_id":"4","last_reported":1756390196,"current_range_meters":12400,"station_id":"ce4bhgp2rcd13ifvqfc0","pricing_plan_id":"cebpf4jnsgd1na2vs0mg"},{"bike_id":"23ae6fed-deff-411b-8b6e-f95e32ccd4d0","system_id":"levelo_inurba_marseille","lat":43.32135,"lon":5.36765,"is_reserved":false,"is_disabled":false,"rental_uris":{"android":"levelo://app?vid=23ae6fed-deff-411b-8b6e-f95e32ccd4d0","ios":"levelo://app?vid=23ae6fed-deff-411b-8b6e-f95e32ccd4d0"},"vehicle_type_id":"4","last_reported":1756390196,"current_range_meters":12400,"station_id":"","pricing_plan_id":"cebpf4jnsgd1na2vs0mg"},{"bike_id":"0d17ede8-4fcc-407a-a176-b8f80618313a","system_id":"levelo_inurba_marseille","lat":43.22932,"lon":5.35368,"is_reserved":false,"is_disabled":false,"rental_uris":{"android":"levelo://app?vid=0d17ede8-4fcc-407a-a176-b8f80618313a","ios":"levelo://app?vid=0d17ede8-4fcc-407a-a176-b8f80618313a"},"vehicle_type_id":"4","last_reported":1756390196,"current_range_meters":12400,"station_id":"cpo3532slgdg3j2ikp40","pricing_plan_id":"cebpf4jnsgd1na2vs0mg"},{"bike_id":"0c2ca1cd-44ce-4636-a7a2-f801ab28b498","system_id":"levelo_inurba_marseille","lat":43.29791,"lon":5.39347,"is_reserved":false,"is_disabled":false,"rental_uris":{"android":"levelo://app?vid=0c2ca1cd-44ce-4636-a7a2-f801ab28b498","ios":"levelo://app?vid=0c2ca1cd-44ce-4636-a7a2-f801ab28b498"},"vehicle_type_id":"4","last_reported":1756390196,"current_range_meters":12400,"station_id":"chh1huq6cuj3fo74tm60","pricing_plan_id":"cebpf4jnsgd1na2vs0mg"},{"bike_id":"9c401436-7aa7-494a-9cc1-967079e60b6f","system_id":"levelo_inurba_marseille","lat":43.259347,"lon":5.408971,"is_reserved":false,"is_disabled":false,"rental_uris":{"android":"levelo://app?vid=9c401436-7aa7-494a-9cc1-967079e60b6f","ios":"levelo://app?vid=9c401436-7aa7-494a-9cc1-967079e60b6f"},"vehicle_type_id":"4","last_reported":1756390196,"current_range_meters":12800,"station_id":"ce4bhm92rcd13ifvqglg","pricing_plan_id":"cebpf4jnsgd1na2vs0mg"},{"bike_id":"9f03e1e2-4e9a-43c4-963b-4baf28706312","system_id":"levelo_inurba_marseille","lat":43.30532,"lon":5.36679,"is_reserved":false,"is_disabled":false,"rental_uris":{"android":"levelo://app?vid=9f03e1e2-4e9a-43c4-963b-4baf28706312","ios":"levelo://app?vid=9f03e1e2-4e9a-43c4-963b-4baf28706312"},"vehicle_type_id":"4","last_reported":1756390196,"current_range_meters":12800,"station_id":"ce4bgrp2rcd13ifvqc9g","pricing_plan_id":"cebpf4jnsgd1na2vs0mg"},{"bike_id":"4c380211-0848-42f6-9858-79338c9c08a6","system_id":"levelo_inurba_marseille","lat":43.30955,"lon":5.39027,"is_reserved":false,"is_disabled":false,"rental_uris":{"android":"levelo://app?vid=4c380211-0848-42f6-9858-79338c9c08a6","ios":"levelo://app?vid=4c380211-0848-42f6-9858-79338c9c08a6"},"vehicle_type_id":"4","last_reported":1756390196,"current_range_meters":12800,"station_id":"ce4bgup2rcd13ifvqco0","pricing_plan_id":"cebpf4jnsgd1na2vs0mg"},{"bike_id":"84239937-6126-4402-8397-ac364b20f6e5","system_id":"levelo_inurba_marseille","lat":43.2603,"lon":5.37553,"is_reserved":false,"is_disabled":false,"rental_uris":{"android":"levelo://app?vid=84239937-6126-4402-8397-ac364b20f6e5","ios":"levelo://app?vid=84239937-6126-4402-8397-ac364b20f6e5"},"vehicle_type_id":"4","last_reported":1756390196,"current_range_meters":12800,"station_id":"ce4bhgh2rcd13ifvqfa0","pricing_plan_id":"cebpf4jnsgd1na2vs0mg"},{"bike_id":"8ed623f1-790d-4b1c-b790-68f04d35daa5","system_id":"levelo_inurba_marseille","lat":43.24804,"lon":5.37452,"is_reserved":false,"is_disabled":false,"rental_uris":{"android":"levelo://app?vid=8ed623f1-790d-4b1c-b790-68f04d35daa5","ios":"levelo://app?vid=8ed623f1-790d-4b1c-b790-68f04d35daa5"},"vehicle_type_id":"4","last_reported":1756390196,"current_range_meters":12800,"station_id":"ce4bhgh2rcd13ifvqfb0","pricing_plan_id":"cebpf4jnsgd1na2vs0mg"},{"bike_id":"d962c9bc-30a5-4f74-9ce3-6d555625a1e0","system_id":"levelo_inurba_marseille","lat":43.2398,"lon":5.36599,"is_reserved":false,"is_disabled":false,"rental_uris":{"android":"levelo://app?vid=d962c9bc-30a5-4f74-9ce3-6d555625a1e0","ios":"levelo://app?vid=d962c9bc-30a5-4f74-9ce3-6d555625a1e0"},"vehicle_type_id":"4","last_reported":1756390196,"current_range_meters":14000,"station_id":"ce4bhi12rcd13ifvqfp0","pricing_plan_id":"cebpf4jnsgd1na2vs0mg"},{"bike_id":"992e48af-8b74-4ef9-afdd-f0bf1a757cbd","system_id":"levelo_inurba_marseille","lat":43.31501,"lon":5.37261,"is_reserved":false,"is_disabled":false,"rental_uris":{"android":"levelo://app?vid=992e48af-8b74-4ef9-afdd-f0bf1a757cbd","ios":"levelo://app?vid=992e48af-8b74-4ef9-afdd-f0bf1a757cbd"},"vehicle_type_id":"4","last_reported":1756390196,"current_range_meters":13600,"station_id":"ce4bgt12rcd13ifvqcd0","pricing_plan_id":"cebpf4jnsgd1na2vs0mg"},{"bike_id":"1091f287-02ee-4a66-888b-59c35fd65791","system_id":"levelo_inurba_marseille","lat":43.23194,"lon":5.3555,"is_reserved":false,"is_disabled":false,"rental_uris":{"android":"levelo://app?vid=1091f287-02ee-4a66-888b-59c35fd65791","ios":"levelo://app?vid=1091f287-02ee-4a66-888b-59c35fd65791"},"vehicle_type_id":"4","last_reported":1756390196,"current_range_meters":13600,"station_id":"ce4bhu92rcd13ifvqi70","pricing_plan_id":"cebpf4jnsgd1na2vs0mg"},{"bike_id":"be8aa754-85f9-40a1-9e90-c9882863c890","system_id":"levelo_inurba_marseille","lat":43.2603,"lon":5.37547,"is_reserved":false,"is_disabled":false,"rental_uris":{"android":"levelo://app?vid=be8aa754-85f9-40a1-9e90-c9882863c890","ios":"levelo://app?vid=be8aa754-85f9-40a1-9e90-c9882863c890"},"vehicle_type_id":"4","last_reported":1756390196,"current_range_meters":13600,"station_id":"ce4bhgh2rcd13ifvqfa0","pricing_plan_id":"cebpf4jnsgd1na2vs0mg"},{"bike_id":"e2157c09-f51d-4d60-9654-c3b735f52046","system_id":"levelo_inurba_marseille","lat":43.26188,"lon":5.37452,"is_reserved":false,"is_disabled":false,"rental_uris":{"android":"levelo://app?vid=e2157c09-f51d-4d60-9654-c3b735f52046","ios":"levelo://app?vid=e2157c09-f51d-4d60-9654-c3b735f52046"},"vehicle_type_id":"4","last_reported":1756390196,"current_range_meters":13600,"station_id":"ce4bhgp2rcd13ifvqfc0","pricing_plan_id":"cebpf4jnsgd1na2vs0mg"},{"bike_id":"8df4d72a-2534-4225-b0d0-5b48bd4c7385","system_id":"levelo_inurba_marseille","lat":43.29435,"lon":5.39762,"is_reserved":false,"is_disabled":false,"rental_uris":{"android":"levelo://app?vid=8df4d72a-2534-4225-b0d0-5b48bd4c7385","ios":"levelo://app?vid=8df4d72a-2534-4225-b0d0-5b48bd4c7385"},"vehicle_type_id":"4","last_reported":1756390196,"current_range_meters":14000,"station_id":"ce4bh3h2rcd13ifvqdo0","pricing_plan_id":"cebpf4jnsgd1na2vs0mg"},{"bike_id":"a5c913a9-8444-4f45-9f9e-1bc06a802d9b","system_id":"levelo_inurba_marseille","lat":43.28005,"lon":5.41655,"is_reserved":false,"is_disabled":false,"rental_uris":{"android":"levelo://app?vid=a5c913a9-8444-4f45-9f9e-1bc06a802d9b","ios":"levelo://app?vid=a5c913a9-8444-4f45-9f9e-1bc06a802d9b"},"vehicle_type_id":"4","last_reported":1756390196,"current_range_meters":14000,"station_id":"ce4bho12rcd13ifvqh1g","pricing_plan_id":"cebpf4jnsgd1na2vs0mg"},{"bike_id":"6772850d-2dee-4ad5-893e-2335ed13d3ef","system_id":"levelo_inurba_marseille","lat":43.31418,"lon":5.36624,"is_reserved":false,"is_disabled":false,"rental_uris":{"android":"levelo://app?vid=6772850d-2dee-4ad5-893e-2335ed13d3ef","ios":"levelo://app?vid=6772850d-2dee-4ad5-893e-2335ed13d3ef"},"vehicle_type_id":"4","last_reported":1756390196,"current_range_meters":14000,"station_id":"ce4bgr92rcd13ifvqc6g","pricing_plan_id":"cebpf4jnsgd1na2vs0mg"},{"bike_id":"dbf722e7-e5a5-49af-9098-002f6592ef75","system_id":"levelo_inurba_marseille","lat":43.29258,"lon":5.40914,"is_reserved":false,"is_disabled":false,"rental_uris":{"android":"levelo://app?vid=dbf722e7-e5a5-49af-9098-002f6592ef75","ios":"levelo://app?vid=dbf722e7-e5a5-49af-9098-002f6592ef75"},"vehicle_type_id":"4","last_reported":1756390196,"current_range_meters":14000,"station_id":"ce4bh192rcd13ifvqdc0","pricing_plan_id":"cebpf4jnsgd1na2vs0mg"},{"bike_id":"381ee211-9cbc-4e3b-a668-6f098f82d140","system_id":"levelo_inurba_marseille","lat":43.25526,"lon":5.37634,"is_reserved":false,"is_disabled":false,"rental_uris":{"android":"levelo://app?vid=381ee211-9cbc-4e3b-a668-6f098f82d140","ios":"levelo://app?vid=381ee211-9cbc-4e3b-a668-6f098f82d140"},"vehicle_type_id":"4","last_reported":1756390196,"current_range_meters":14000,"station_id":"ce4bhh12rcd13ifvqff0","pricing_plan_id":"cebpf4jnsgd1na2vs0mg"},{"bike_id":"18e83f87-28c4-4555-88f0-8e96364a0ea3","system_id":"levelo_inurba_marseille","lat":43.295294,"lon":5.375061,"is_reserved":false,"is_disabled":false,"rental_uris":{"android":"levelo://app?vid=18e83f87-28c4-4555-88f0-8e96364a0ea3","ios":"levelo://app?vid=18e83f87-28c4-4555-88f0-8e96364a0ea3"},"vehicle_type_id":"4","last_reported":1756390196,"current_range_meters":14400,"station_id":"","pricing_plan_id":"cebpf4jnsgd1na2vs0mg"},{"bike_id":"615f9cb4-bc08-43f1-87ef-884359fe2e39","system_id":"levelo_inurba_marseille","lat":43.32355,"lon":5.36723,"is_reserved":false,"is_disabled":false,"rental_uris":{"android":"levelo://app?vid=615f9cb4-bc08-43f1-87ef-884359fe2e39","ios":"levelo://app?vid=615f9cb4-bc08-43f1-87ef-884359fe2e39"},"vehicle_type_id":"4","last_reported":1756390196,"current_range_meters":14400,"station_id":"ce4bhsh2rcd13ifvqi2g","pricing_plan_id":"cebpf4jnsgd1na2vs0mg"},{"bike_id":"d27b297f-b2cb-4f88-bbee-9698e56f05a7","system_id":"levelo_inurba_marseille","lat":43.23192,"lon":5.35562,"is_reserved":false,"is_disabled":false,"rental_uris":{"android":"levelo://app?vid=d27b297f-b2cb-4f88-bbee-9698e56f05a7","ios":"levelo://app?vid=d27b297f-b2cb-4f88-bbee-9698e56f05a7"},"vehicle_type_id":"4","last_reported":1756390196,"current_range_meters":14400,"station_id":"ce4bhu92rcd13ifvqi70","pricing_plan_id":"cebpf4jnsgd1na2vs0mg"},{"bike_id":"ec0f9f0d-0796-42ac-9cf5-bb8596cdf342","system_id":"levelo_inurba_marseille","lat":43.21219,"lon":5.35071,"is_reserved":false,"is_disabled":false,"rental_uris":{"android":"levelo://app?vid=ec0f9f0d-0796-42ac-9cf5-bb8596cdf342","ios":"levelo://app?vid=ec0f9f0d-0796-42ac-9cf5-bb8596cdf342"},"vehicle_type_id":"4","last_reported":1756390196,"current_range_meters":14400,"station_id":"","pricing_plan_id":"cebpf4jnsgd1na2vs0mg"},{"bike_id":"73e90243-1209-4395-8091-14986902f9a5","system_id":"levelo_inurba_marseille","lat":43.26028,"lon":5.37552,"is_reserved":false,"is_disabled":false,"rental_uris":{"android":"levelo://app?vid=73e90243-1209-4395-8091-14986902f9a5","ios":"levelo://app?vid=73e90243-1209-4395-8091-14986902f9a5"},"vehicle_type_id":"4","last_reported":1756390196,"current_range_meters":14400,"station_id":"ce4bhgh2rcd13ifvqfa0","pricing_plan_id":"cebpf4jnsgd1na2vs0mg"},{"bike_id":"5dde89c4-8ab2-4d7d-98c9-0d3b2a8d9fd6","system_id":"levelo_inurba_marseille","lat":43.26214,"lon":5.3744,"is_reserved":false,"is_disabled":false,"rental_uris":{"android":"levelo://app?vid=5dde89c4-8ab2-4d7d-98c9-0d3b2a8d9fd6","ios":"levelo://app?vid=5dde89c4-8ab2-4d7d-98c9-0d3b2a8d9fd6"},"vehicle_type_id":"4","last_reported":1756390196,"current_range_meters":14400,"station_id":"ce4bhgp2rcd13ifvqfc0","pricing_plan_id":"cebpf4jnsgd1na2vs0mg"},{"bike_id":"731ff345-1377-45e9-acf9-0825f15b172a","system_id":"levelo_inurba_marseille","lat":43.22925,"lon":5.35388,"is_reserved":false,"is_disabled":false,"rental_uris":{"android":"levelo://app?vid=731ff345-1377-45e9-acf9-0825f15b172a","ios":"levelo://app?vid=731ff345-1377-45e9-acf9-0825f15b172a"},"vehicle_type_id":"4","last_reported":1756390196,"current_range_meters":14800,"station_id":"cpo3532slgdg3j2ikp40","pricing_plan_id":"cebpf4jnsgd1na2vs0mg"},{"bike_id":"533686dc-e263-4240-984f-1fcd6cac7776","system_id":"levelo_inurba_marseille","lat":43.27942,"lon":5.410394,"is_reserved":false,"is_disabled":false,"rental_uris":{"android":"levelo://app?vid=533686dc-e263-4240-984f-1fcd6cac7776","ios":"levelo://app?vid=533686dc-e263-4240-984f-1fcd6cac7776"},"vehicle_type_id":"4","last_reported":1756390196,"current_range_meters":14800,"station_id":"ce4bhnp2rcd13ifvqh0g","pricing_plan_id":"cebpf4jnsgd1na2vs0mg"},{"bike_id":"6e51d5d9-9f08-4273-8911-21fb24c92111","system_id":"levelo_inurba_marseille","lat":43.31486,"lon":5.37305,"is_reserved":false,"is_disabled":false,"rental_uris":{"android":"levelo://app?vid=6e51d5d9-9f08-4273-8911-21fb24c92111","ios":"levelo://app?vid=6e51d5d9-9f08-4273-8911-21fb24c92111"},"vehicle_type_id":"4","last_reported":1756390196,"current_range_meters":14800,"station_id":"ce4bgt12rcd13ifvqcd0","pricing_plan_id":"cebpf4jnsgd1na2vs0mg"},{"bike_id":"86270777-a6a2-4ada-9e5d-5b83ae449c7e","system_id":"levelo_inurba_marseille","lat":43.2605,"lon":5.37547,"is_reserved":false,"is_disabled":false,"rental_uris":{"android":"levelo://app?vid=86270777-a6a2-4ada-9e5d-5b83ae449c7e","ios":"levelo://app?vid=86270777-a6a2-4ada-9e5d-5b83ae449c7e"},"vehicle_type_id":"4","last_reported":1756390196,"current_range_meters":14800,"station_id":"ce4bhgh2rcd13ifvqfa0","pricing_plan_id":"cebpf4jnsgd1na2vs0mg"},{"bike_id":"64d1f08d-2ebb-4185-9b10-07cf8bb1f749","system_id":"levelo_inurba_marseille","lat":43.30144,"lon":5.37419,"is_reserved":false,"is_disabled":false,"rental_uris":{"android":"levelo://app?vid=64d1f08d-2ebb-4185-9b10-07cf8bb1f749","ios":"levelo://app?vid=64d1f08d-2ebb-4185-9b10-07cf8bb1f749"},"vehicle_type_id":"4","last_reported":1756390196,"current_range_meters":14800,"station_id":"ce4bgs92rcd13ifvqcc0","pricing_plan_id":"cebpf4jnsgd1na2vs0mg"},{"bike_id":"8eece06c-1375-46ef-a493-ad81a979139e","system_id":"levelo_inurba_marseille","lat":43.26028,"lon":5.3755,"is_reserved":false,"is_disabled":false,"rental_uris":{"android":"levelo://app?vid=8eece06c-1375-46ef-a493-ad81a979139e","ios":"levelo://app?vid=8eece06c-1375-46ef-a493-ad81a979139e"},"vehicle_type_id":"4","last_reported":1756390196,"current_range_meters":14800,"station_id":"ce4bhgh2rcd13ifvqfa0","pricing_plan_id":"cebpf4jnsgd1na2vs0mg"},{"bike_id":"29c55d68-58c5-4ef2-b442-72bb9c55ddb0","system_id":"levelo_inurba_marseille","lat":43.323622,"lon":5.367595,"is_reserved":false,"is_disabled":false,"rental_uris":{"android":"levelo://app?vid=29c55d68-58c5-4ef2-b442-72bb9c55ddb0","ios":"levelo://app?vid=29c55d68-58c5-4ef2-b442-72bb9c55ddb0"},"vehicle_type_id":"4","last_reported":1756390196,"current_range_meters":14800,"station_id":"ce4bhsh2rcd13ifvqi2g","pricing_plan_id":"cebpf4jnsgd1na2vs0mg"},{"bike_id":"d4411ce1-1269-4134-adda-1eb61c16980f","system_id":"levelo_inurba_marseille","lat":43.280984,"lon":5.378434,"is_reserved":false,"is_disabled":false,"rental_uris":{"android":"levelo://app?vid=d4411ce1-1269-4134-adda-1eb61c16980f","ios":"levelo://app?vid=d4411ce1-1269-4134-adda-1eb61c16980f"},"vehicle_type_id":"4","last_reported":1756390196,"current_range_meters":15200,"station_id":"ce4bha12rcd13ifvqee0","pricing_plan_id":"cebpf4jnsgd1na2vs0mg"},{"bike_id":"b2cd78a8-4f58-436b-901a-72e072ff6f17","system_id":"levelo_inurba_marseille","lat":43.25503,"lon":5.3765,"is_reserved":false,"is_disabled":false,"rental_uris":{"android":"levelo://app?vid=b2cd78a8-4f58-436b-901a-72e072ff6f17","ios":"levelo://app?vid=b2cd78a8-4f58-436b-901a-72e072ff6f17"},"vehicle_type_id":"4","last_reported":1756390196,"current_range_meters":14800,"station_id":"ce4bhh12rcd13ifvqff0","pricing_plan_id":"cebpf4jnsgd1na2vs0mg"},{"bike_id":"d0dae688-2a3b-4c5e-8dd8-dab4a13662d5","system_id":"levelo_inurba_marseille","lat":43.30806,"lon":5.43521,"is_reserved":false,"is_disabled":false,"rental_uris":{"android":"levelo://app?vid=d0dae688-2a3b-4c5e-8dd8-dab4a13662d5","ios":"levelo://app?vid=d0dae688-2a3b-4c5e-8dd8-dab4a13662d5"},"vehicle_type_id":"4","last_reported":1756390196,"current_range_meters":15200,"station_id":"ce4bhph2rcd13ifvqheg","pricing_plan_id":"cebpf4jnsgd1na2vs0mg"},{"bike_id":"259905c0-0b2a-48d2-8997-dcb3931ef5bd","system_id":"levelo_inurba_marseille","lat":43.280976,"lon":5.37837,"is_reserved":false,"is_disabled":false,"rental_uris":{"android":"levelo://app?vid=259905c0-0b2a-48d2-8997-dcb3931ef5bd","ios":"levelo://app?vid=259905c0-0b2a-48d2-8997-dcb3931ef5bd"},"vehicle_type_id":"4","last_reported":1756390196,"current_range_meters":15200,"station_id":"ce4bha12rcd13ifvqee0","pricing_plan_id":"cebpf4jnsgd1na2vs0mg"},{"bike_id":"4ae1f9b1-2338-45c7-a59b-7b1d494be89b","system_id":"levelo_inurba_marseille","lat":43.23183,"lon":5.39991,"is_reserved":false,"is_disabled":false,"rental_uris":{"android":"levelo://app?vid=4ae1f9b1-2338-45c7-a59b-7b1d494be89b","ios":"levelo://app?vid=4ae1f9b1-2338-45c7-a59b-7b1d494be89b"},"vehicle_type_id":"4","last_reported":1756390196,"current_range_meters":14800,"station_id":"ce4bhn12rcd13ifvqgqg","pricing_plan_id":"cebpf4jnsgd1na2vs0mg"},{"bike_id":"d0a92e61-7122-4ad6-a0d1-9d37d94ce062","system_id":"levelo_inurba_marseille","lat":43.297055,"lon":5.390516,"is_reserved":false,"is_disabled":false,"rental_uris":{"android":"levelo://app?vid=d0a92e61-7122-4ad6-a0d1-9d37d94ce062","ios":"levelo://app?vid=d0a92e61-7122-4ad6-a0d1-9d37d94ce062"},"vehicle_type_id":"4","last_reported":1756390196,"current_range_meters":15200,"station_id":"","pricing_plan_id":"cebpf4jnsgd1na2vs0mg"},{"bike_id":"1f62479a-0856-46ae-b67f-852ed6ce6a56","system_id":"levelo_inurba_marseille","lat":43.26576,"lon":5.39019,"is_reserved":false,"is_disabled":true,"rental_uris":{"android":"levelo://app?vid=1f62479a-0856-46ae-b67f-852ed6ce6a56","ios":"levelo://app?vid=1f62479a-0856-46ae-b67f-852ed6ce6a56"},"vehicle_type_id":"4","last_reported":1756390196,"current_range_meters":16000,"station_id":"ce4bhe12rcd13ifvqf30","pricing_plan_id":"cebpf4jnsgd1na2vs0mg"},{"bike_id":"aa61a424-9591-4dec-87cf-11964724b053","system_id":"levelo_inurba_marseille","lat":43.2953,"lon":5.37501,"is_reserved":false,"is_disabled":false,"rental_uris":{"android":"levelo://app?vid=aa61a424-9591-4dec-87cf-11964724b053","ios":"levelo://app?vid=aa61a424-9591-4dec-87cf-11964724b053"},"vehicle_type_id":"4","last_reported":1756390196,"current_range_meters":16000,"station_id":"ce4bgkp2rcd13ifvqbmg","pricing_plan_id":"cebpf4jnsgd1na2vs0mg"},{"bike_id":"c44bedcb-df6e-4aac-bc5a-92deddea45d5","system_id":"levelo_inurba_marseille","lat":43.29784,"lon":5.3935,"is_reserved":false,"is_disabled":false,"rental_uris":{"android":"levelo://app?vid=c44bedcb-df6e-4aac-bc5a-92deddea45d5","ios":"levelo://app?vid=c44bedcb-df6e-4aac-bc5a-92deddea45d5"},"vehicle_type_id":"4","last_reported":1756390196,"current_range_meters":16000,"station_id":"","pricing_plan_id":"cebpf4jnsgd1na2vs0mg"},{"bike_id":"00865bff-72de-47be-acda-9cf6ec16a836","system_id":"levelo_inurba_marseille","lat":43.320988,"lon":5.367758,"is_reserved":false,"is_disabled":false,"rental_uris":{"android":"levelo://app?vid=00865bff-72de-47be-acda-9cf6ec16a836","ios":"levelo://app?vid=00865bff-72de-47be-acda-9cf6ec16a836"},"vehicle_type_id":"4","last_reported":1756390196,"current_range_meters":16000,"station_id":"ce4bhrh2rcd13ifvqhug","pricing_plan_id":"cebpf4jnsgd1na2vs0mg"},{"bike_id":"c5a3b805-46af-418d-ad99-95f71740a0c4","system_id":"levelo_inurba_marseille","lat":43.295195,"lon":5.390327,"is_reserved":false,"is_disabled":false,"rental_uris":{"android":"levelo://app?vid=c5a3b805-46af-418d-ad99-95f71740a0c4","ios":"levelo://app?vid=c5a3b805-46af-418d-ad99-95f71740a0c4"},"vehicle_type_id":"4","last_reported":1756390196,"current_range_meters":16000,"station_id":"ce4bh3p2rcd13ifvqdp0","pricing_plan_id":"cebpf4jnsgd1na2vs0mg"},{"bike_id":"071c92a0-4d4b-4370-8d86-7f0ac0e007f8","system_id":"levelo_inurba_marseille","lat":43.28234,"lon":5.39035,"is_reserved":false,"is_disabled":false,"rental_uris":{"android":"levelo://app?vid=071c92a0-4d4b-4370-8d86-7f0ac0e007f8","ios":"levelo://app?vid=071c92a0-4d4b-4370-8d86-7f0ac0e007f8"},"vehicle_type_id":"4","last_reported":1756390196,"current_range_meters":16000,"station_id":"ce4bhn92rcd13ifvqgsg","pricing_plan_id":"cebpf4jnsgd1na2vs0mg"},{"bike_id":"398d2fd6-f3b6-427d-9864-bcff143e881a","system_id":"levelo_inurba_marseille","lat":43.25498,"lon":5.37648,"is_reserved":false,"is_disabled":false,"rental_uris":{"android":"levelo://app?vid=398d2fd6-f3b6-427d-9864-bcff143e881a","ios":"levelo://app?vid=398d2fd6-f3b6-427d-9864-bcff143e881a"},"vehicle_type_id":"4","last_reported":1756390196,"current_range_meters":16000,"station_id":"ce4bhh12rcd13ifvqff0","pricing_plan_id":"cebpf4jnsgd1na2vs0mg"},{"bike_id":"76853953-4750-4c5e-a02d-c060c687f7f4","system_id":"levelo_inurba_marseille","lat":43.26465,"lon":5.37184,"is_reserved":false,"is_disabled":false,"rental_uris":{"android":"levelo://app?vid=76853953-4750-4c5e-a02d-c060c687f7f4","ios":"levelo://app?vid=76853953-4750-4c5e-a02d-c060c687f7f4"},"vehicle_type_id":"4","last_reported":1756390196,"current_range_meters":16400,"station_id":"ce4bhg12rcd13ifvqf70","pricing_plan_id":"cebpf4jnsgd1na2vs0mg"},{"bike_id":"1d6d2e3d-e6be-45f3-9550-08daca30c94e","system_id":"levelo_inurba_marseille","lat":43.23147,"lon":5.43713,"is_reserved":false,"is_disabled":false,"rental_uris":{"android":"levelo://app?vid=1d6d2e3d-e6be-45f3-9550-08daca30c94e","ios":"levelo://app?vid=1d6d2e3d-e6be-45f3-9550-08daca30c94e"},"vehicle_type_id":"4","last_reported":1756390196,"current_range_meters":16400,"station_id":"ce4bhmp2rcd13ifvqgog","pricing_plan_id":"cebpf4jnsgd1na2vs0mg"},{"bike_id":"8a3d08a4-6e22-43fc-a3af-efea32020201","system_id":"levelo_inurba_marseille","lat":43.32346,"lon":5.36724,"is_reserved":false,"is_disabled":false,"rental_uris":{"android":"levelo://app?vid=8a3d08a4-6e22-43fc-a3af-efea32020201","ios":"levelo://app?vid=8a3d08a4-6e22-43fc-a3af-efea32020201"},"vehicle_type_id":"4","last_reported":1756390196,"current_range_meters":16400,"station_id":"ce4bhsh2rcd13ifvqi2g","pricing_plan_id":"cebpf4jnsgd1na2vs0mg"},{"bike_id":"46eb6327-7515-47c8-ac48-8311782b1d74","system_id":"levelo_inurba_marseille","lat":43.23174,"lon":5.39996,"is_reserved":false,"is_disabled":false,"rental_uris":{"android":"levelo://app?vid=46eb6327-7515-47c8-ac48-8311782b1d74","ios":"levelo://app?vid=46eb6327-7515-47c8-ac48-8311782b1d74"},"vehicle_type_id":"4","last_reported":1756390196,"current_range_meters":16400,"station_id":"ce4bhn12rcd13ifvqgqg","pricing_plan_id":"cebpf4jnsgd1na2vs0mg"},{"bike_id":"6d56f301-302b-4688-b7b3-a905093f4a96","system_id":"levelo_inurba_marseille","lat":43.28859,"lon":5.3584,"is_reserved":false,"is_disabled":false,"rental_uris":{"android":"levelo://app?vid=6d56f301-302b-4688-b7b3-a905093f4a96","ios":"levelo://app?vid=6d56f301-302b-4688-b7b3-a905093f4a96"},"vehicle_type_id":"4","last_reported":1756390196,"current_range_meters":16400,"station_id":"ce4bhb12rcd13ifvqem0","pricing_plan_id":"cebpf4jnsgd1na2vs0mg"},{"bike_id":"4c46e9e7-04fa-4db5-8ffc-abaa3e008ed7","system_id":"levelo_inurba_marseille","lat":43.30539,"lon":5.36708,"is_reserved":false,"is_disabled":false,"rental_uris":{"android":"levelo://app?vid=4c46e9e7-04fa-4db5-8ffc-abaa3e008ed7","ios":"levelo://app?vid=4c46e9e7-04fa-4db5-8ffc-abaa3e008ed7"},"vehicle_type_id":"4","last_reported":1756390196,"current_range_meters":16400,"station_id":"ce4bgrp2rcd13ifvqc9g","pricing_plan_id":"cebpf4jnsgd1na2vs0mg"},{"bike_id":"120fbeb5-1216-434c-b0f5-2b05feecbb95","system_id":"levelo_inurba_marseille","lat":43.26227,"lon":5.40444,"is_reserved":false,"is_disabled":false,"rental_uris":{"android":"levelo://app?vid=120fbeb5-1216-434c-b0f5-2b05feecbb95","ios":"levelo://app?vid=120fbeb5-1216-434c-b0f5-2b05feecbb95"},"vehicle_type_id":"4","last_reported":1756390196,"current_range_meters":16800,"station_id":"ce4bhmh2rcd13ifvqgmg","pricing_plan_id":"cebpf4jnsgd1na2vs0mg"},{"bike_id":"d535bf59-462f-46ae-b9fb-52bfa64316d1","system_id":"levelo_inurba_marseille","lat":43.24195,"lon":5.39711,"is_reserved":false,"is_disabled":false,"rental_uris":{"android":"levelo://app?vid=d535bf59-462f-46ae-b9fb-52bfa64316d1","ios":"levelo://app?vid=d535bf59-462f-46ae-b9fb-52bfa64316d1"},"vehicle_type_id":"4","last_reported":1756390196,"current_range_meters":16800,"station_id":"ce4bhn12rcd13ifvqgpg","pricing_plan_id":"cebpf4jnsgd1na2vs0mg"},{"bike_id":"2592d48e-4f91-4661-a841-16b2ce57828c","system_id":"levelo_inurba_marseille","lat":43.24223,"lon":5.38736,"is_reserved":false,"is_disabled":false,"rental_uris":{"android":"levelo://app?vid=2592d48e-4f91-4661-a841-16b2ce57828c","ios":"levelo://app?vid=2592d48e-4f91-4661-a841-16b2ce57828c"},"vehicle_type_id":"4","last_reported":1756390196,"current_range_meters":16800,"station_id":"","pricing_plan_id":"cebpf4jnsgd1na2vs0mg"},{"bike_id":"e4bd5bb1-0bbc-4e7d-9b66-122f0d05fd4b","system_id":"levelo_inurba_marseille","lat":43.26742,"lon":5.39493,"is_reserved":false,"is_disabled":false,"rental_uris":{"android":"levelo://app?vid=e4bd5bb1-0bbc-4e7d-9b66-122f0d05fd4b","ios":"levelo://app?vid=e4bd5bb1-0bbc-4e7d-9b66-122f0d05fd4b"},"vehicle_type_id":"4","last_reported":1756390196,"current_range_meters":16800,"station_id":"ce4bhh12rcd13ifvqfg0","pricing_plan_id":"cebpf4jnsgd1na2vs0mg"},{"bike_id":"06669016-cd47-459f-9dbc-b8f7fe75d379","system_id":"levelo_inurba_marseille","lat":43.322846,"lon":5.382838,"is_reserved":false,"is_disabled":false,"rental_uris":{"android":"levelo://app?vid=06669016-cd47-459f-9dbc-b8f7fe75d379","ios":"levelo://app?vid=06669016-cd47-459f-9dbc-b8f7fe75d379"},"vehicle_type_id":"4","last_reported":1756390196,"current_range_meters":16800,"station_id":"ce4bhr12rcd13ifvqhqg","pricing_plan_id":"cebpf4jnsgd1na2vs0mg"},{"bike_id":"c8ed8afa-4750-4d5e-b29e-7da3cd8f4dc7","system_id":"levelo_inurba_marseille","lat":43.32389,"lon":5.36733,"is_reserved":false,"is_disabled":false,"rental_uris":{"android":"levelo://app?vid=c8ed8afa-4750-4d5e-b29e-7da3cd8f4dc7","ios":"levelo://app?vid=c8ed8afa-4750-4d5e-b29e-7da3cd8f4dc7"},"vehicle_type_id":"4","last_reported":1756390196,"current_range_meters":16800,"station_id":"ce4bhsh2rcd13ifvqi2g","pricing_plan_id":"cebpf4jnsgd1na2vs0mg"},{"bike_id":"ab7c0377-9067-4f33-b6fd-8c2b4cb14a20","system_id":"levelo_inurba_marseille","lat":43.30699,"lon":5.36606,"is_reserved":false,"is_disabled":false,"rental_uris":{"android":"levelo://app?vid=ab7c0377-9067-4f33-b6fd-8c2b4cb14a20","ios":"levelo://app?vid=ab7c0377-9067-4f33-b6fd-8c2b4cb14a20"},"vehicle_type_id":"4","last_reported":1756390196,"current_range_meters":16800,"station_id":"","pricing_plan_id":"cebpf4jnsgd1na2vs0mg"},{"bike_id":"e88813c3-e63a-4665-b0f4-72e6c6c89a00","system_id":"levelo_inurba_marseille","lat":43.21179,"lon":5.35074,"is_reserved":false,"is_disabled":false,"rental_uris":{"android":"levelo://app?vid=e88813c3-e63a-4665-b0f4-72e6c6c89a00","ios":"levelo://app?vid=e88813c3-e63a-4665-b0f4-72e6c6c89a00"},"vehicle_type_id":"4","last_reported":1756390196,"current_range_meters":16800,"station_id":"st_cvj6sg6p6f1abm77japg","pricing_plan_id":"cebpf4jnsgd1na2vs0mg"},{"bike_id":"87a3e5a1-584a-434f-890d-5908c2f7be8a","system_id":"levelo_inurba_marseille","lat":43.28237,"lon":5.39068,"is_reserved":false,"is_disabled":false,"rental_uris":{"android":"levelo://app?vid=87a3e5a1-584a-434f-890d-5908c2f7be8a","ios":"levelo://app?vid=87a3e5a1-584a-434f-890d-5908c2f7be8a"},"vehicle_type_id":"4","last_reported":1756390196,"current_range_meters":17200,"station_id":"ce4bhn92rcd13ifvqgsg","pricing_plan_id":"cebpf4jnsgd1na2vs0mg"},{"bike_id":"42515969-df58-4bc3-81b4-d2c5b3092781","system_id":"levelo_inurba_marseille","lat":43.27733,"lon":5.42016,"is_reserved":false,"is_disabled":false,"rental_uris":{"android":"levelo://app?vid=42515969-df58-4bc3-81b4-d2c5b3092781","ios":"levelo://app?vid=42515969-df58-4bc3-81b4-d2c5b3092781"},"vehicle_type_id":"4","last_reported":1756390196,"current_range_meters":17200,"station_id":"","pricing_plan_id":"cebpf4jnsgd1na2vs0mg"},{"bike_id":"ee6f853e-fe44-40c6-8197-71e5ebc9de78","system_id":"levelo_inurba_marseille","lat":43.23193,"lon":5.43675,"is_reserved":false,"is_disabled":false,"rental_uris":{"android":"levelo://app?vid=ee6f853e-fe44-40c6-8197-71e5ebc9de78","ios":"levelo://app?vid=ee6f853e-fe44-40c6-8197-71e5ebc9de78"},"vehicle_type_id":"4","last_reported":1756390196,"current_range_meters":17200,"station_id":"ce4bhmp2rcd13ifvqgog","pricing_plan_id":"cebpf4jnsgd1na2vs0mg"},{"bike_id":"5c1bbaab-96b8-4a4e-87b4-6eaa1b6f4b32","system_id":"levelo_inurba_marseille","lat":43.30309,"lon":5.39206,"is_reserved":false,"is_disabled":false,"rental_uris":{"android":"levelo://app?vid=5c1bbaab-96b8-4a4e-87b4-6eaa1b6f4b32","ios":"levelo://app?vid=5c1bbaab-96b8-4a4e-87b4-6eaa1b6f4b32"},"vehicle_type_id":"4","last_reported":1756390196,"current_range_meters":17200,"station_id":"ce4bgkh2rcd13ifvqbk0","pricing_plan_id":"cebpf4jnsgd1na2vs0mg"},{"bike_id":"2546da79-2b8e-4c83-b21b-56ab5ca6d2f7","system_id":"levelo_inurba_marseille","lat":43.28489,"lon":5.38413,"is_reserved":false,"is_disabled":false,"rental_uris":{"android":"levelo://app?vid=2546da79-2b8e-4c83-b21b-56ab5ca6d2f7","ios":"levelo://app?vid=2546da79-2b8e-4c83-b21b-56ab5ca6d2f7"},"vehicle_type_id":"4","last_reported":1756390196,"current_range_meters":17200,"station_id":"ce4bh512rcd13ifvqe3g","pricing_plan_id":"cebpf4jnsgd1na2vs0mg"},{"bike_id":"bd3d43c4-42cb-47a1-a4a1-1bea9a4b8466","system_id":"levelo_inurba_marseille","lat":43.295724,"lon":5.375062,"is_reserved":false,"is_disabled":false,"rental_uris":{"android":"levelo://app?vid=bd3d43c4-42cb-47a1-a4a1-1bea9a4b8466","ios":"levelo://app?vid=bd3d43c4-42cb-47a1-a4a1-1bea9a4b8466"},"vehicle_type_id":"4","last_reported":1756390196,"current_range_meters":17200,"station_id":"ce4bgh92rcd13ifvqb50","pricing_plan_id":"cebpf4jnsgd1na2vs0mg"},{"bike_id":"0f11a911-f7d2-47e5-ad43-0a539f0229d5","system_id":"levelo_inurba_marseille","lat":43.29782,"lon":5.39347,"is_reserved":false,"is_disabled":false,"rental_uris":{"android":"levelo://app?vid=0f11a911-f7d2-47e5-ad43-0a539f0229d5","ios":"levelo://app?vid=0f11a911-f7d2-47e5-ad43-0a539f0229d5"},"vehicle_type_id":"4","last_reported":1756390196,"current_range_meters":17200,"station_id":"","pricing_plan_id":"cebpf4jnsgd1na2vs0mg"},{"bike_id":"292038bc-157a-4457-9bfb-31bfbacb63a8","system_id":"levelo_inurba_marseille","lat":43.29786,"lon":5.39345,"is_reserved":false,"is_disabled":false,"rental_uris":{"android":"levelo://app?vid=292038bc-157a-4457-9bfb-31bfbacb63a8","ios":"levelo://app?vid=292038bc-157a-4457-9bfb-31bfbacb63a8"},"vehicle_type_id":"4","last_reported":1756390196,"current_range_meters":17200,"station_id":"chh1huq6cuj3fo74tm60","pricing_plan_id":"cebpf4jnsgd1na2vs0mg"},{"bike_id":"6c585c9e-34d5-486a-b1ef-53c3ee6bf89b","system_id":"levelo_inurba_marseille","lat":43.279788,"lon":5.387047,"is_reserved":false,"is_disabled":true,"rental_uris":{"android":"levelo://app?vid=6c585c9e-34d5-486a-b1ef-53c3ee6bf89b","ios":"levelo://app?vid=6c585c9e-34d5-486a-b1ef-53c3ee6bf89b"},"vehicle_type_id":"4","last_reported":1756390196,"current_range_meters":17200,"station_id":"ce4bhg12rcd13ifvqf80","pricing_plan_id":"cebpf4jnsgd1na2vs0mg"},{"bike_id":"98b21836-27d9-4369-ade1-dbd3b9345cbc","system_id":"levelo_inurba_marseille","lat":43.29874,"lon":5.38902,"is_reserved":false,"is_disabled":false,"rental_uris":{"android":"levelo://app?vid=98b21836-27d9-4369-ade1-dbd3b9345cbc","ios":"levelo://app?vid=98b21836-27d9-4369-ade1-dbd3b9345cbc"},"vehicle_type_id":"4","last_reported":1756390196,"current_range_meters":17200,"station_id":"ce4bh392rcd13ifvqdl0","pricing_plan_id":"cebpf4jnsgd1na2vs0mg"},{"bike_id":"a3e4ee41-5175-47da-ad6e-4c5ae3eb42d9","system_id":"levelo_inurba_marseille","lat":43.21198,"lon":5.35081,"is_reserved":false,"is_disabled":false,"rental_uris":{"android":"levelo://app?vid=a3e4ee41-5175-47da-ad6e-4c5ae3eb42d9","ios":"levelo://app?vid=a3e4ee41-5175-47da-ad6e-4c5ae3eb42d9"},"vehicle_type_id":"4","last_reported":1756390196,"current_range_meters":17200,"station_id":"st_cvj6sg6p6f1abm77japg","pricing_plan_id":"cebpf4jnsgd1na2vs0mg"},{"bike_id":"21facb37-f2df-4979-a525-418747dd4e09","system_id":"levelo_inurba_marseille","lat":43.28414,"lon":5.34984,"is_reserved":false,"is_disabled":false,"rental_uris":{"android":"levelo://app?vid=21facb37-f2df-4979-a525-418747dd4e09","ios":"levelo://app?vid=21facb37-f2df-4979-a525-418747dd4e09"},"vehicle_type_id":"4","last_reported":1756390196,"current_range_meters":17600,"station_id":"ce4bhbh2rcd13ifvqepg","pricing_plan_id":"cebpf4jnsgd1na2vs0mg"},{"bike_id":"ca808d34-9391-4691-b4c5-e9180d9c16d9","system_id":"levelo_inurba_marseille","lat":43.25337,"lon":5.42147,"is_reserved":false,"is_disabled":false,"rental_uris":{"android":"levelo://app?vid=ca808d34-9391-4691-b4c5-e9180d9c16d9","ios":"levelo://app?vid=ca808d34-9391-4691-b4c5-e9180d9c16d9"},"vehicle_type_id":"4","last_reported":1756390196,"current_range_meters":17600,"station_id":"st_d2m65c5bi1j21697t3ng","pricing_plan_id":"cebpf4jnsgd1na2vs0mg"},{"bike_id":"16790208-66fa-492b-b054-299839e8f997","system_id":"levelo_inurba_marseille","lat":43.279968,"lon":5.351527,"is_reserved":false,"is_disabled":false,"rental_uris":{"android":"levelo://app?vid=16790208-66fa-492b-b054-299839e8f997","ios":"levelo://app?vid=16790208-66fa-492b-b054-299839e8f997"},"vehicle_type_id":"4","last_reported":1756390196,"current_range_meters":17600,"station_id":"ce4bhbp2rcd13ifvqerg","pricing_plan_id":"cebpf4jnsgd1na2vs0mg"},{"bike_id":"fc335984-428d-4b89-8e33-02d6886b5377","system_id":"levelo_inurba_marseille","lat":43.24184,"lon":5.39703,"is_reserved":false,"is_disabled":false,"rental_uris":{"android":"levelo://app?vid=fc335984-428d-4b89-8e33-02d6886b5377","ios":"levelo://app?vid=fc335984-428d-4b89-8e33-02d6886b5377"},"vehicle_type_id":"4","last_reported":1756390196,"current_range_meters":17600,"station_id":"ce4bhn12rcd13ifvqgpg","pricing_plan_id":"cebpf4jnsgd1na2vs0mg"},{"bike_id":"62c2a1d3-b15e-41b4-bfca-767274576290","system_id":"levelo_inurba_marseille","lat":43.25342,"lon":5.4217,"is_reserved":false,"is_disabled":false,"rental_uris":{"android":"levelo://app?vid=62c2a1d3-b15e-41b4-bfca-767274576290","ios":"levelo://app?vid=62c2a1d3-b15e-41b4-bfca-767274576290"},"vehicle_type_id":"4","last_reported":1756390196,"current_range_meters":18000,"station_id":"st_d2m65c5bi1j21697t3ng","pricing_plan_id":"cebpf4jnsgd1na2vs0mg"},{"bike_id":"cf4b2965-fa3d-414a-baff-0e3d423c8e97","system_id":"levelo_inurba_marseille","lat":43.28159,"lon":5.42639,"is_reserved":false,"is_disabled":false,"rental_uris":{"android":"levelo://app?vid=cf4b2965-fa3d-414a-baff-0e3d423c8e97","ios":"levelo://app?vid=cf4b2965-fa3d-414a-baff-0e3d423c8e97"},"vehicle_type_id":"4","last_reported":1756390196,"current_range_meters":17600,"station_id":"ce4bhnh2rcd13ifvqgug","pricing_plan_id":"cebpf4jnsgd1na2vs0mg"},{"bike_id":"083b0e7f-357f-4afd-b79e-219efec9656b","system_id":"levelo_inurba_marseille","lat":43.28411,"lon":5.3498,"is_reserved":false,"is_disabled":false,"rental_uris":{"android":"levelo://app?vid=083b0e7f-357f-4afd-b79e-219efec9656b","ios":"levelo://app?vid=083b0e7f-357f-4afd-b79e-219efec9656b"},"vehicle_type_id":"4","last_reported":1756390196,"current_range_meters":18000,"station_id":"ce4bhbh2rcd13ifvqepg","pricing_plan_id":"cebpf4jnsgd1na2vs0mg"},{"bike_id":"e0e04e77-d2c9-4055-8b5b-ec1ba61e417b","system_id":"levelo_inurba_marseille","lat":43.24171,"lon":5.3639,"is_reserved":false,"is_disabled":false,"rental_uris":{"android":"levelo://app?vid=e0e04e77-d2c9-4055-8b5b-ec1ba61e417b","ios":"levelo://app?vid=e0e04e77-d2c9-4055-8b5b-ec1ba61e417b"},"vehicle_type_id":"4","last_reported":1756390196,"current_range_meters":18000,"station_id":"cpo36qri1sfpv3e86is0","pricing_plan_id":"cebpf4jnsgd1na2vs0mg"},{"bike_id":"a1f07aae-b74b-41d4-92da-3ac450571c28","system_id":"levelo_inurba_marseille","lat":43.29266,"lon":5.37631,"is_reserved":false,"is_disabled":false,"rental_uris":{"android":"levelo://app?vid=a1f07aae-b74b-41d4-92da-3ac450571c28","ios":"levelo://app?vid=a1f07aae-b74b-41d4-92da-3ac450571c28"},"vehicle_type_id":"4","last_reported":1756390196,"current_range_meters":18000,"station_id":"ce4bgi12rcd13ifvqb80","pricing_plan_id":"cebpf4jnsgd1na2vs0mg"},{"bike_id":"22573170-f4de-4e19-a401-e7aa113380c7","system_id":"levelo_inurba_marseille","lat":43.27363,"lon":5.36224,"is_reserved":false,"is_disabled":false,"rental_uris":{"android":"levelo://app?vid=22573170-f4de-4e19-a401-e7aa113380c7","ios":"levelo://app?vid=22573170-f4de-4e19-a401-e7aa113380c7"},"vehicle_type_id":"4","last_reported":1756390196,"current_range_meters":18000,"station_id":"ce4bhbh2rcd13ifvqeo0","pricing_plan_id":"cebpf4jnsgd1na2vs0mg"},{"bike_id":"679dd2c2-03ba-464f-b4ca-d253d6e39f03","system_id":"levelo_inurba_marseille","lat":43.28426,"lon":5.34969,"is_reserved":false,"is_disabled":false,"rental_uris":{"android":"levelo://app?vid=679dd2c2-03ba-464f-b4ca-d253d6e39f03","ios":"levelo://app?vid=679dd2c2-03ba-464f-b4ca-d253d6e39f03"},"vehicle_type_id":"4","last_reported":1756390196,"current_range_meters":18000,"station_id":"ce4bhbh2rcd13ifvqepg","pricing_plan_id":"cebpf4jnsgd1na2vs0mg"},{"bike_id":"348170a2-dadf-4b88-889e-3600d6df0af9","system_id":"levelo_inurba_marseille","lat":43.3171,"lon":5.43702,"is_reserved":false,"is_disabled":false,"rental_uris":{"android":"levelo://app?vid=348170a2-dadf-4b88-889e-3600d6df0af9","ios":"levelo://app?vid=348170a2-dadf-4b88-889e-3600d6df0af9"},"vehicle_type_id":"4","last_reported":1756390196,"current_range_meters":18000,"station_id":"ce4bhp92rcd13ifvqhcg","pricing_plan_id":"cebpf4jnsgd1na2vs0mg"},{"bike_id":"6c3f9606-3f72-4507-bdb0-acc139c19e6d","system_id":"levelo_inurba_marseille","lat":43.26561,"lon":5.37286,"is_reserved":false,"is_disabled":false,"rental_uris":{"android":"levelo://app?vid=6c3f9606-3f72-4507-bdb0-acc139c19e6d","ios":"levelo://app?vid=6c3f9606-3f72-4507-bdb0-acc139c19e6d"},"vehicle_type_id":"4","last_reported":1756390196,"current_range_meters":18000,"station_id":"ce4bhg12rcd13ifvqf70","pricing_plan_id":"cebpf4jnsgd1na2vs0mg"},{"bike_id":"daa67b3d-fc97-4380-8462-22d8b5674ead","system_id":"levelo_inurba_marseille","lat":43.2929,"lon":5.36842,"is_reserved":false,"is_disabled":false,"rental_uris":{"android":"levelo://app?vid=daa67b3d-fc97-4380-8462-22d8b5674ead","ios":"levelo://app?vid=daa67b3d-fc97-4380-8462-22d8b5674ead"},"vehicle_type_id":"4","last_reported":1756390196,"current_range_meters":18800,"station_id":"ce4bhbp2rcd13ifvqesg","pricing_plan_id":"cebpf4jnsgd1na2vs0mg"},{"bike_id":"f06e5c0e-5a76-4705-aa22-932f62009ec5","system_id":"levelo_inurba_marseille","lat":43.26233,"lon":5.37438,"is_reserved":false,"is_disabled":false,"rental_uris":{"android":"levelo://app?vid=f06e5c0e-5a76-4705-aa22-932f62009ec5","ios":"levelo://app?vid=f06e5c0e-5a76-4705-aa22-932f62009ec5"},"vehicle_type_id":"4","last_reported":1756390196,"current_range_meters":18800,"station_id":"","pricing_plan_id":"cebpf4jnsgd1na2vs0mg"},{"bike_id":"ab2b2968-2afc-4029-82d1-f9d7f0e7846c","system_id":"levelo_inurba_marseille","lat":43.292618,"lon":5.376212,"is_reserved":false,"is_disabled":false,"rental_uris":{"android":"levelo://app?vid=ab2b2968-2afc-4029-82d1-f9d7f0e7846c","ios":"levelo://app?vid=ab2b2968-2afc-4029-82d1-f9d7f0e7846c"},"vehicle_type_id":"4","last_reported":1756390196,"current_range_meters":18800,"station_id":"ce4bgi12rcd13ifvqb80","pricing_plan_id":"cebpf4jnsgd1na2vs0mg"},{"bike_id":"dee5fc92-9d8d-42ec-97e1-996d8f5266a8","system_id":"levelo_inurba_marseille","lat":43.22924,"lon":5.35401,"is_reserved":false,"is_disabled":false,"rental_uris":{"android":"levelo://app?vid=dee5fc92-9d8d-42ec-97e1-996d8f5266a8","ios":"levelo://app?vid=dee5fc92-9d8d-42ec-97e1-996d8f5266a8"},"vehicle_type_id":"4","last_reported":1756390196,"current_range_meters":18800,"station_id":"cpo3532slgdg3j2ikp40","pricing_plan_id":"cebpf4jnsgd1na2vs0mg"},{"bike_id":"223a3dd0-7d97-4b7e-84db-058782e23987","system_id":"levelo_inurba_marseille","lat":43.29865,"lon":5.36286,"is_reserved":false,"is_disabled":false,"rental_uris":{"android":"levelo://app?vid=223a3dd0-7d97-4b7e-84db-058782e23987","ios":"levelo://app?vid=223a3dd0-7d97-4b7e-84db-058782e23987"},"vehicle_type_id":"4","last_reported":1756390196,"current_range_meters":18800,"station_id":"ce4bgpp2rcd13ifvqc3g","pricing_plan_id":"cebpf4jnsgd1na2vs0mg"},{"bike_id":"af0e337f-d4cf-4e28-9020-c2f2b620012b","system_id":"levelo_inurba_marseille","lat":43.22923,"lon":5.353696,"is_reserved":false,"is_disabled":false,"rental_uris":{"android":"levelo://app?vid=af0e337f-d4cf-4e28-9020-c2f2b620012b","ios":"levelo://app?vid=af0e337f-d4cf-4e28-9020-c2f2b620012b"},"vehicle_type_id":"4","last_reported":1756390196,"current_range_meters":18800,"station_id":"cpo3532slgdg3j2ikp40","pricing_plan_id":"cebpf4jnsgd1na2vs0mg"},{"bike_id":"60863403-b289-4c9c-b2d0-3d448abf417f","system_id":"levelo_inurba_marseille","lat":43.28289,"lon":5.35069,"is_reserved":false,"is_disabled":true,"rental_uris":{"android":"levelo://app?vid=60863403-b289-4c9c-b2d0-3d448abf417f","ios":"levelo://app?vid=60863403-b289-4c9c-b2d0-3d448abf417f"},"vehicle_type_id":"4","last_reported":1756390196,"current_range_meters":18800,"station_id":"ce4bhbp2rcd13ifvqerg","pricing_plan_id":"cebpf4jnsgd1na2vs0mg"},{"bike_id":"688af5fb-6252-4eed-9501-ed7d2b2be597","system_id":"levelo_inurba_marseille","lat":43.2417,"lon":5.36394,"is_reserved":false,"is_disabled":false,"rental_uris":{"android":"levelo://app?vid=688af5fb-6252-4eed-9501-ed7d2b2be597","ios":"levelo://app?vid=688af5fb-6252-4eed-9501-ed7d2b2be597"},"vehicle_type_id":"4","last_reported":1756390196,"current_range_meters":18800,"station_id":"cpo36qri1sfpv3e86is0","pricing_plan_id":"cebpf4jnsgd1na2vs0mg"},{"bike_id":"49774fcc-922a-499c-b7d4-86afe0396868","system_id":"levelo_inurba_marseille","lat":43.255,"lon":5.37647,"is_reserved":false,"is_disabled":true,"rental_uris":{"android":"levelo://app?vid=49774fcc-922a-499c-b7d4-86afe0396868","ios":"levelo://app?vid=49774fcc-922a-499c-b7d4-86afe0396868"},"vehicle_type_id":"4","last_reported":1756390196,"current_range_meters":18800,"station_id":"ce4bhh12rcd13ifvqff0","pricing_plan_id":"cebpf4jnsgd1na2vs0mg"},{"bike_id":"196169a4-3222-419a-be3c-e08cc270c692","system_id":"levelo_inurba_marseille","lat":43.29335,"lon":5.37279,"is_reserved":false,"is_disabled":false,"rental_uris":{"android":"levelo://app?vid=196169a4-3222-419a-be3c-e08cc270c692","ios":"levelo://app?vid=196169a4-3222-419a-be3c-e08cc270c692"},"vehicle_type_id":"4","last_reported":1756390196,"current_range_meters":18800,"station_id":"","pricing_plan_id":"cebpf4jnsgd1na2vs0mg"},{"bike_id":"1c6eafd0-10d1-4db6-a2f5-5b01002e1fb3","system_id":"levelo_inurba_marseille","lat":43.29786,"lon":5.37102,"is_reserved":false,"is_disabled":false,"rental_uris":{"android":"levelo://app?vid=1c6eafd0-10d1-4db6-a2f5-5b01002e1fb3","ios":"levelo://app?vid=1c6eafd0-10d1-4db6-a2f5-5b01002e1fb3"},"vehicle_type_id":"4","last_reported":1756390196,"current_range_meters":18000,"station_id":"ce4bgop2rcd13ifvqc1g","pricing_plan_id":"cebpf4jnsgd1na2vs0mg"},{"bike_id":"136cb03c-4303-4726-bcfb-06193644a9ae","system_id":"levelo_inurba_marseille","lat":43.28719,"lon":5.36099,"is_reserved":false,"is_disabled":false,"rental_uris":{"android":"levelo://app?vid=136cb03c-4303-4726-bcfb-06193644a9ae","ios":"levelo://app?vid=136cb03c-4303-4726-bcfb-06193644a9ae"},"vehicle_type_id":"4","last_reported":1756390196,"current_range_meters":19200,"station_id":"cki0cbj6b192h4jlfktg","pricing_plan_id":"cebpf4jnsgd1na2vs0mg"},{"bike_id":"159e778a-d20c-42da-86c4-bf4c3d4998a3","system_id":"levelo_inurba_marseille","lat":43.26202,"lon":5.37443,"is_reserved":false,"is_disabled":false,"rental_uris":{"android":"levelo://app?vid=159e778a-d20c-42da-86c4-bf4c3d4998a3","ios":"levelo://app?vid=159e778a-d20c-42da-86c4-bf4c3d4998a3"},"vehicle_type_id":"4","last_reported":1756390196,"current_range_meters":18800,"station_id":"ce4bhgp2rcd13ifvqfc0","pricing_plan_id":"cebpf4jnsgd1na2vs0mg"},{"bike_id":"d1012ec4-1fc3-4e5f-a82c-9d7d73d65c20","system_id":"levelo_inurba_marseille","lat":43.26032,"lon":5.41741,"is_reserved":false,"is_disabled":false,"rental_uris":{"android":"levelo://app?vid=d1012ec4-1fc3-4e5f-a82c-9d7d73d65c20","ios":"levelo://app?vid=d1012ec4-1fc3-4e5f-a82c-9d7d73d65c20"},"vehicle_type_id":"4","last_reported":1756390196,"current_range_meters":18800,"station_id":"","pricing_plan_id":"cebpf4jnsgd1na2vs0mg"},{"bike_id":"c0d0e55a-61d0-4126-807e-343b774fd795","system_id":"levelo_inurba_marseille","lat":43.26217,"lon":5.37435,"is_reserved":false,"is_disabled":false,"rental_uris":{"android":"levelo://app?vid=c0d0e55a-61d0-4126-807e-343b774fd795","ios":"levelo://app?vid=c0d0e55a-61d0-4126-807e-343b774fd795"},"vehicle_type_id":"4","last_reported":1756390196,"current_range_meters":18800,"station_id":"ce4bhgp2rcd13ifvqfc0","pricing_plan_id":"cebpf4jnsgd1na2vs0mg"},{"bike_id":"72adf8d3-000d-462a-9b10-b49b61130129","system_id":"levelo_inurba_marseille","lat":43.28426,"lon":5.34975,"is_reserved":false,"is_disabled":false,"rental_uris":{"android":"levelo://app?vid=72adf8d3-000d-462a-9b10-b49b61130129","ios":"levelo://app?vid=72adf8d3-000d-462a-9b10-b49b61130129"},"vehicle_type_id":"4","last_reported":1756390196,"current_range_meters":19200,"station_id":"ce4bhbh2rcd13ifvqepg","pricing_plan_id":"cebpf4jnsgd1na2vs0mg"},{"bike_id":"6dd0abf3-b4b3-4f6d-8320-aeaf8346e3b9","system_id":"levelo_inurba_marseille","lat":43.23154,"lon":5.4372,"is_reserved":false,"is_disabled":false,"rental_uris":{"android":"levelo://app?vid=6dd0abf3-b4b3-4f6d-8320-aeaf8346e3b9","ios":"levelo://app?vid=6dd0abf3-b4b3-4f6d-8320-aeaf8346e3b9"},"vehicle_type_id":"4","last_reported":1756390196,"current_range_meters":19200,"station_id":"ce4bhmp2rcd13ifvqgog","pricing_plan_id":"cebpf4jnsgd1na2vs0mg"},{"bike_id":"07761c7f-90f3-44f4-a950-f91cbca976d7","system_id":"levelo_inurba_marseille","lat":43.262204,"lon":5.374336,"is_reserved":false,"is_disabled":false,"rental_uris":{"android":"levelo://app?vid=07761c7f-90f3-44f4-a950-f91cbca976d7","ios":"levelo://app?vid=07761c7f-90f3-44f4-a950-f91cbca976d7"},"vehicle_type_id":"4","last_reported":1756390196,"current_range_meters":19200,"station_id":"ce4bhgp2rcd13ifvqfc0","pricing_plan_id":"cebpf4jnsgd1na2vs0mg"},{"bike_id":"be5d03b9-a9f4-47d9-ab33-2fb64429a30a","system_id":"levelo_inurba_marseille","lat":43.2885,"lon":5.35851,"is_reserved":false,"is_disabled":false,"rental_uris":{"android":"levelo://app?vid=be5d03b9-a9f4-47d9-ab33-2fb64429a30a","ios":"levelo://app?vid=be5d03b9-a9f4-47d9-ab33-2fb64429a30a"},"vehicle_type_id":"4","last_reported":1756390196,"current_range_meters":19200,"station_id":"ce4bhb12rcd13ifvqem0","pricing_plan_id":"cebpf4jnsgd1na2vs0mg"},{"bike_id":"352357a0-6cdf-4f68-a6a1-a683b9b0e79e","system_id":"levelo_inurba_marseille","lat":43.29529,"lon":5.38537,"is_reserved":false,"is_disabled":false,"rental_uris":{"android":"levelo://app?vid=352357a0-6cdf-4f68-a6a1-a683b9b0e79e","ios":"levelo://app?vid=352357a0-6cdf-4f68-a6a1-a683b9b0e79e"},"vehicle_type_id":"4","last_reported":1756390196,"current_range_meters":19200,"station_id":"ce4bgih2rcd13ifvqba0","pricing_plan_id":"cebpf4jnsgd1na2vs0mg"},{"bike_id":"920f8f5e-91c4-40b3-9008-3cb9c1c1ffcc","system_id":"levelo_inurba_marseille","lat":43.25943,"lon":5.40909,"is_reserved":false,"is_disabled":false,"rental_uris":{"android":"levelo://app?vid=920f8f5e-91c4-40b3-9008-3cb9c1c1ffcc","ios":"levelo://app?vid=920f8f5e-91c4-40b3-9008-3cb9c1c1ffcc"},"vehicle_type_id":"4","last_reported":1756390196,"current_range_meters":19200,"station_id":"ce4bhm92rcd13ifvqglg","pricing_plan_id":"cebpf4jnsgd1na2vs0mg"},{"bike_id":"412741e8-9fb1-465d-a5a9-213fbff0c486","system_id":"levelo_inurba_marseille","lat":43.23976,"lon":5.36623,"is_reserved":false,"is_disabled":false,"rental_uris":{"android":"levelo://app?vid=412741e8-9fb1-465d-a5a9-213fbff0c486","ios":"levelo://app?vid=412741e8-9fb1-465d-a5a9-213fbff0c486"},"vehicle_type_id":"4","last_reported":1756390196,"current_range_meters":18800,"station_id":"ce4bhi12rcd13ifvqfp0","pricing_plan_id":"cebpf4jnsgd1na2vs0mg"},{"bike_id":"8022b2eb-d44b-41bc-9f96-2c68d3cd359b","system_id":"levelo_inurba_marseille","lat":43.32097,"lon":5.367853,"is_reserved":false,"is_disabled":false,"rental_uris":{"android":"levelo://app?vid=8022b2eb-d44b-41bc-9f96-2c68d3cd359b","ios":"levelo://app?vid=8022b2eb-d44b-41bc-9f96-2c68d3cd359b"},"vehicle_type_id":"4","last_reported":1756390196,"current_range_meters":19200,"station_id":"ce4bhrh2rcd13ifvqhug","pricing_plan_id":"cebpf4jnsgd1na2vs0mg"},{"bike_id":"1228df86-1f32-46eb-9e0a-1b413ae0e370","system_id":"levelo_inurba_marseille","lat":43.28281,"lon":5.35072,"is_reserved":false,"is_disabled":false,"rental_uris":{"android":"levelo://app?vid=1228df86-1f32-46eb-9e0a-1b413ae0e370","ios":"levelo://app?vid=1228df86-1f32-46eb-9e0a-1b413ae0e370"},"vehicle_type_id":"4","last_reported":1756390196,"current_range_meters":19600,"station_id":"ce4bhbp2rcd13ifvqerg","pricing_plan_id":"cebpf4jnsgd1na2vs0mg"},{"bike_id":"3a3545ec-2031-4f7e-b74f-451754af59a3","system_id":"levelo_inurba_marseille","lat":43.29792,"lon":5.37087,"is_reserved":false,"is_disabled":false,"rental_uris":{"android":"levelo://app?vid=3a3545ec-2031-4f7e-b74f-451754af59a3","ios":"levelo://app?vid=3a3545ec-2031-4f7e-b74f-451754af59a3"},"vehicle_type_id":"4","last_reported":1756390196,"current_range_meters":19600,"station_id":"ce4bgop2rcd13ifvqc1g","pricing_plan_id":"cebpf4jnsgd1na2vs0mg"},{"bike_id":"d987036a-ed8c-4648-8188-41d897e632cc","system_id":"levelo_inurba_marseille","lat":43.29268,"lon":5.3764,"is_reserved":false,"is_disabled":false,"rental_uris":{"android":"levelo://app?vid=d987036a-ed8c-4648-8188-41d897e632cc","ios":"levelo://app?vid=d987036a-ed8c-4648-8188-41d897e632cc"},"vehicle_type_id":"4","last_reported":1756390196,"current_range_meters":19600,"station_id":"ce4bgi12rcd13ifvqb80","pricing_plan_id":"cebpf4jnsgd1na2vs0mg"},{"bike_id":"3dd23926-ae78-488e-8f33-e0fe0712154d","system_id":"levelo_inurba_marseille","lat":43.31203,"lon":5.37758,"is_reserved":false,"is_disabled":false,"rental_uris":{"android":"levelo://app?vid=3dd23926-ae78-488e-8f33-e0fe0712154d","ios":"levelo://app?vid=3dd23926-ae78-488e-8f33-e0fe0712154d"},"vehicle_type_id":"4","last_reported":1756390196,"current_range_meters":19600,"station_id":"","pricing_plan_id":"cebpf4jnsgd1na2vs0mg"},{"bike_id":"f7c72213-bc1f-4dc8-9236-f4004cdae7b1","system_id":"levelo_inurba_marseille","lat":43.21762,"lon":5.34591,"is_reserved":false,"is_disabled":false,"rental_uris":{"android":"levelo://app?vid=f7c72213-bc1f-4dc8-9236-f4004cdae7b1","ios":"levelo://app?vid=f7c72213-bc1f-4dc8-9236-f4004cdae7b1"},"vehicle_type_id":"4","last_reported":1756390196,"current_range_meters":19600,"station_id":"st_cvj6r9ubvosntc0bgbag","pricing_plan_id":"cebpf4jnsgd1na2vs0mg"},{"bike_id":"bedbfafb-e8f2-4d6b-9dc8-56d123a4d55c","system_id":"levelo_inurba_marseille","lat":43.26206,"lon":5.37441,"is_reserved":false,"is_disabled":false,"rental_uris":{"android":"levelo://app?vid=bedbfafb-e8f2-4d6b-9dc8-56d123a4d55c","ios":"levelo://app?vid=bedbfafb-e8f2-4d6b-9dc8-56d123a4d55c"},"vehicle_type_id":"4","last_reported":1756390196,"current_range_meters":19600,"station_id":"ce4bhgp2rcd13ifvqfc0","pricing_plan_id":"cebpf4jnsgd1na2vs0mg"},{"bike_id":"e66b3941-edc1-47d2-a508-6af05bed5109","system_id":"levelo_inurba_marseille","lat":43.22507,"lon":5.34784,"is_reserved":false,"is_disabled":false,"rental_uris":{"android":"levelo://app?vid=e66b3941-edc1-47d2-a508-6af05bed5109","ios":"levelo://app?vid=e66b3941-edc1-47d2-a508-6af05bed5109"},"vehicle_type_id":"4","last_reported":1756390196,"current_range_meters":19600,"station_id":"st_cvj5dfep6f1abm77gieg","pricing_plan_id":"cebpf4jnsgd1na2vs0mg"},{"bike_id":"7b0c7fe1-e228-4095-a094-9bcfbbbb6612","system_id":"levelo_inurba_marseille","lat":43.30881,"lon":5.37191,"is_reserved":false,"is_disabled":false,"rental_uris":{"android":"levelo://app?vid=7b0c7fe1-e228-4095-a094-9bcfbbbb6612","ios":"levelo://app?vid=7b0c7fe1-e228-4095-a094-9bcfbbbb6612"},"vehicle_type_id":"4","last_reported":1756390196,"current_range_meters":18000,"station_id":"ce4bguh2rcd13ifvqckg","pricing_plan_id":"cebpf4jnsgd1na2vs0mg"},{"bike_id":"cf89a04c-5132-4345-a151-d29b686950e0","system_id":"levelo_inurba_marseille","lat":43.26193,"lon":5.37448,"is_reserved":false,"is_disabled":false,"rental_uris":{"android":"levelo://app?vid=cf89a04c-5132-4345-a151-d29b686950e0","ios":"levelo://app?vid=cf89a04c-5132-4345-a151-d29b686950e0"},"vehicle_type_id":"4","last_reported":1756390196,"current_range_meters":20000,"station_id":"ce4bhgp2rcd13ifvqfc0","pricing_plan_id":"cebpf4jnsgd1na2vs0mg"},{"bike_id":"258158f0-e507-44cf-9ba0-0bacc9740d7a","system_id":"levelo_inurba_marseille","lat":43.253396,"lon":5.421763,"is_reserved":false,"is_disabled":false,"rental_uris":{"android":"levelo://app?vid=258158f0-e507-44cf-9ba0-0bacc9740d7a","ios":"levelo://app?vid=258158f0-e507-44cf-9ba0-0bacc9740d7a"},"vehicle_type_id":"4","last_reported":1756390196,"current_range_meters":20000,"station_id":"st_d2m65c5bi1j21697t3ng","pricing_plan_id":"cebpf4jnsgd1na2vs0mg"},{"bike_id":"e9867b1d-5094-446b-8bd2-e1ebca39cf7c","system_id":"levelo_inurba_marseille","lat":43.29848,"lon":5.36281,"is_reserved":false,"is_disabled":false,"rental_uris":{"android":"levelo://app?vid=e9867b1d-5094-446b-8bd2-e1ebca39cf7c","ios":"levelo://app?vid=e9867b1d-5094-446b-8bd2-e1ebca39cf7c"},"vehicle_type_id":"4","last_reported":1756390196,"current_range_meters":20000,"station_id":"ce4bgpp2rcd13ifvqc3g","pricing_plan_id":"cebpf4jnsgd1na2vs0mg"},{"bike_id":"bd8a8096-85ea-4e22-9f9f-64bd89fbd1c5","system_id":"levelo_inurba_marseille","lat":43.29711,"lon":5.36619,"is_reserved":false,"is_disabled":false,"rental_uris":{"android":"levelo://app?vid=bd8a8096-85ea-4e22-9f9f-64bd89fbd1c5","ios":"levelo://app?vid=bd8a8096-85ea-4e22-9f9f-64bd89fbd1c5"},"vehicle_type_id":"4","last_reported":1756390196,"current_range_meters":20400,"station_id":"ce4bgn12rcd13ifvqbt0","pricing_plan_id":"cebpf4jnsgd1na2vs0mg"},{"bike_id":"4cdce467-196d-4c0c-b160-ac8eb766ee9b","system_id":"levelo_inurba_marseille","lat":43.26793,"lon":5.3941,"is_reserved":false,"is_disabled":false,"rental_uris":{"android":"levelo://app?vid=4cdce467-196d-4c0c-b160-ac8eb766ee9b","ios":"levelo://app?vid=4cdce467-196d-4c0c-b160-ac8eb766ee9b"},"vehicle_type_id":"4","last_reported":1756390196,"current_range_meters":20400,"station_id":"ce4bhh12rcd13ifvqfg0","pricing_plan_id":"cebpf4jnsgd1na2vs0mg"},{"bike_id":"03f46024-5d07-4d20-acf7-34c246cc136f","system_id":"levelo_inurba_marseille","lat":43.290553,"lon":5.399636,"is_reserved":false,"is_disabled":false,"rental_uris":{"android":"levelo://app?vid=03f46024-5d07-4d20-acf7-34c246cc136f","ios":"levelo://app?vid=03f46024-5d07-4d20-acf7-34c246cc136f"},"vehicle_type_id":"4","last_reported":1756390196,"current_range_meters":21600,"station_id":"ce4bh392rcd13ifvqdm0","pricing_plan_id":"cebpf4jnsgd1na2vs0mg"},{"bike_id":"9a3f96f6-81eb-4032-8ed0-b7359ee25fe2","system_id":"levelo_inurba_marseille","lat":43.259392,"lon":5.40893,"is_reserved":false,"is_disabled":false,"rental_uris":{"android":"levelo://app?vid=9a3f96f6-81eb-4032-8ed0-b7359ee25fe2","ios":"levelo://app?vid=9a3f96f6-81eb-4032-8ed0-b7359ee25fe2"},"vehicle_type_id":"4","last_reported":1756390196,"current_range_meters":20400,"station_id":"ce4bhm92rcd13ifvqglg","pricing_plan_id":"cebpf4jnsgd1na2vs0mg"},{"bike_id":"ef92bd80-be1c-4588-8888-0b42cadf016b","system_id":"levelo_inurba_marseille","lat":43.26585,"lon":5.37265,"is_reserved":false,"is_disabled":false,"rental_uris":{"android":"levelo://app?vid=ef92bd80-be1c-4588-8888-0b42cadf016b","ios":"levelo://app?vid=ef92bd80-be1c-4588-8888-0b42cadf016b"},"vehicle_type_id":"4","last_reported":1756390196,"current_range_meters":20400,"station_id":"ce4bhg12rcd13ifvqf70","pricing_plan_id":"cebpf4jnsgd1na2vs0mg"},{"bike_id":"90346c2d-fc57-4cd6-8c01-888c8f7fba91","system_id":"levelo_inurba_marseille","lat":43.268273,"lon":5.384133,"is_reserved":false,"is_disabled":false,"rental_uris":{"android":"levelo://app?vid=90346c2d-fc57-4cd6-8c01-888c8f7fba91","ios":"levelo://app?vid=90346c2d-fc57-4cd6-8c01-888c8f7fba91"},"vehicle_type_id":"4","last_reported":1756390196,"current_range_meters":20400,"station_id":"ce4bhgp2rcd13ifvqfc0","pricing_plan_id":"cebpf4jnsgd1na2vs0mg"},{"bike_id":"78579646-18c6-4a8b-9ea8-ae4925daa506","system_id":"levelo_inurba_marseille","lat":43.24393,"lon":5.37058,"is_reserved":false,"is_disabled":false,"rental_uris":{"android":"levelo://app?vid=78579646-18c6-4a8b-9ea8-ae4925daa506","ios":"levelo://app?vid=78579646-18c6-4a8b-9ea8-ae4925daa506"},"vehicle_type_id":"4","last_reported":1756390196,"current_range_meters":20400,"station_id":"ce4bhhh2rcd13ifvqfk0","pricing_plan_id":"cebpf4jnsgd1na2vs0mg"},{"bike_id":"be56a579-3870-4545-85bd-dad43950a1f0","system_id":"levelo_inurba_marseille","lat":43.28141,"lon":5.42641,"is_reserved":false,"is_disabled":false,"rental_uris":{"android":"levelo://app?vid=be56a579-3870-4545-85bd-dad43950a1f0","ios":"levelo://app?vid=be56a579-3870-4545-85bd-dad43950a1f0"},"vehicle_type_id":"4","last_reported":1756390196,"current_range_meters":20400,"station_id":"ce4bhnh2rcd13ifvqgug","pricing_plan_id":"cebpf4jnsgd1na2vs0mg"},{"bike_id":"b9c6faf7-7a8d-432d-9456-0e2454eccdaa","system_id":"levelo_inurba_marseille","lat":43.299154,"lon":5.381492,"is_reserved":false,"is_disabled":false,"rental_uris":{"android":"levelo://app?vid=b9c6faf7-7a8d-432d-9456-0e2454eccdaa","ios":"levelo://app?vid=b9c6faf7-7a8d-432d-9456-0e2454eccdaa"},"vehicle_type_id":"4","last_reported":1756390196,"current_range_meters":20400,"station_id":"","pricing_plan_id":"cebpf4jnsgd1na2vs0mg"},{"bike_id":"f5f2ca21-5d95-4289-978c-eadf93ad3706","system_id":"levelo_inurba_marseille","lat":43.23162,"lon":5.43712,"is_reserved":false,"is_disabled":false,"rental_uris":{"android":"levelo://app?vid=f5f2ca21-5d95-4289-978c-eadf93ad3706","ios":"levelo://app?vid=f5f2ca21-5d95-4289-978c-eadf93ad3706"},"vehicle_type_id":"4","last_reported":1756390196,"current_range_meters":20400,"station_id":"ce4bhmp2rcd13ifvqgog","pricing_plan_id":"cebpf4jnsgd1na2vs0mg"},{"bike_id":"177cf6c1-1d34-41ef-af65-0c74f51510ee","system_id":"levelo_inurba_marseille","lat":43.28859,"lon":5.3586,"is_reserved":false,"is_disabled":false,"rental_uris":{"android":"levelo://app?vid=177cf6c1-1d34-41ef-af65-0c74f51510ee","ios":"levelo://app?vid=177cf6c1-1d34-41ef-af65-0c74f51510ee"},"vehicle_type_id":"4","last_reported":1756390196,"current_range_meters":20400,"station_id":"ce4bhb12rcd13ifvqem0","pricing_plan_id":"cebpf4jnsgd1na2vs0mg"},{"bike_id":"d5c0016f-c98f-4940-b45a-884fc5cda2dc","system_id":"levelo_inurba_marseille","lat":43.29193,"lon":5.35804,"is_reserved":false,"is_disabled":false,"rental_uris":{"android":"levelo://app?vid=d5c0016f-c98f-4940-b45a-884fc5cda2dc","ios":"levelo://app?vid=d5c0016f-c98f-4940-b45a-884fc5cda2dc"},"vehicle_type_id":"4","last_reported":1756390196,"current_range_meters":20800,"station_id":"ce4bhb12rcd13ifvqel0","pricing_plan_id":"cebpf4jnsgd1na2vs0mg"},{"bike_id":"5d2632e1-5416-4b0d-b754-3bfd3a35844a","system_id":"levelo_inurba_marseille","lat":43.26203,"lon":5.37923,"is_reserved":false,"is_disabled":false,"rental_uris":{"android":"levelo://app?vid=5d2632e1-5416-4b0d-b754-3bfd3a35844a","ios":"levelo://app?vid=5d2632e1-5416-4b0d-b754-3bfd3a35844a"},"vehicle_type_id":"4","last_reported":1756390196,"current_range_meters":20800,"station_id":"ce4bhjp2rcd13ifvqg90","pricing_plan_id":"cebpf4jnsgd1na2vs0mg"},{"bike_id":"6b2df92f-d5ed-46e1-98aa-848a9f703188","system_id":"levelo_inurba_marseille","lat":43.2926,"lon":5.40903,"is_reserved":false,"is_disabled":false,"rental_uris":{"android":"levelo://app?vid=6b2df92f-d5ed-46e1-98aa-848a9f703188","ios":"levelo://app?vid=6b2df92f-d5ed-46e1-98aa-848a9f703188"},"vehicle_type_id":"4","last_reported":1756390196,"current_range_meters":20000,"station_id":"ce4bh192rcd13ifvqdc0","pricing_plan_id":"cebpf4jnsgd1na2vs0mg"},{"bike_id":"84a6d6e6-c246-4089-a291-8d7f3e9c2118","system_id":"levelo_inurba_marseille","lat":43.30131,"lon":5.39875,"is_reserved":false,"is_disabled":false,"rental_uris":{"android":"levelo://app?vid=84a6d6e6-c246-4089-a291-8d7f3e9c2118","ios":"levelo://app?vid=84a6d6e6-c246-4089-a291-8d7f3e9c2118"},"vehicle_type_id":"4","last_reported":1756390196,"current_range_meters":21600,"station_id":"ce4bh0h2rcd13ifvqd40","pricing_plan_id":"cebpf4jnsgd1na2vs0mg"},{"bike_id":"94469496-96ae-450e-adaf-a7663bfd0e82","system_id":"levelo_inurba_marseille","lat":43.33768,"lon":5.37481,"is_reserved":false,"is_disabled":false,"rental_uris":{"android":"levelo://app?vid=94469496-96ae-450e-adaf-a7663bfd0e82","ios":"levelo://app?vid=94469496-96ae-450e-adaf-a7663bfd0e82"},"vehicle_type_id":"4","last_reported":1756390196,"current_range_meters":21600,"station_id":"","pricing_plan_id":"cebpf4jnsgd1na2vs0mg"},{"bike_id":"d1efc9c0-b449-4a83-8dcd-4c4473ea4d6d","system_id":"levelo_inurba_marseille","lat":43.29013,"lon":5.35597,"is_reserved":false,"is_disabled":false,"rental_uris":{"android":"levelo://app?vid=d1efc9c0-b449-4a83-8dcd-4c4473ea4d6d","ios":"levelo://app?vid=d1efc9c0-b449-4a83-8dcd-4c4473ea4d6d"},"vehicle_type_id":"4","last_reported":1756390196,"current_range_meters":21600,"station_id":"ce4bhb92rcd13ifvqen0","pricing_plan_id":"cebpf4jnsgd1na2vs0mg"},{"bike_id":"c4ff6e2e-7c46-4a14-90e0-391caea45a27","system_id":"levelo_inurba_marseille","lat":43.24658,"lon":5.38894,"is_reserved":false,"is_disabled":false,"rental_uris":{"android":"levelo://app?vid=c4ff6e2e-7c46-4a14-90e0-391caea45a27","ios":"levelo://app?vid=c4ff6e2e-7c46-4a14-90e0-391caea45a27"},"vehicle_type_id":"4","last_reported":1756390196,"current_range_meters":21600,"station_id":"ce4bhg12rcd13ifvqf60","pricing_plan_id":"cebpf4jnsgd1na2vs0mg"},{"bike_id":"f6ba8372-a211-441a-91d5-83fe68b3d093","system_id":"levelo_inurba_marseille","lat":43.29004,"lon":5.35598,"is_reserved":false,"is_disabled":false,"rental_uris":{"android":"levelo://app?vid=f6ba8372-a211-441a-91d5-83fe68b3d093","ios":"levelo://app?vid=f6ba8372-a211-441a-91d5-83fe68b3d093"},"vehicle_type_id":"4","last_reported":1756390196,"current_range_meters":21600,"station_id":"ce4bhb92rcd13ifvqen0","pricing_plan_id":"cebpf4jnsgd1na2vs0mg"},{"bike_id":"0b4850cf-79db-4249-8600-d01b6dffcca7","system_id":"levelo_inurba_marseille","lat":43.24804,"lon":5.37446,"is_reserved":false,"is_disabled":false,"rental_uris":{"android":"levelo://app?vid=0b4850cf-79db-4249-8600-d01b6dffcca7","ios":"levelo://app?vid=0b4850cf-79db-4249-8600-d01b6dffcca7"},"vehicle_type_id":"4","last_reported":1756390196,"current_range_meters":21600,"station_id":"ce4bhgh2rcd13ifvqfb0","pricing_plan_id":"cebpf4jnsgd1na2vs0mg"},{"bike_id":"0e16483d-7c29-42d6-90d2-d9cb7ef31592","system_id":"levelo_inurba_marseille","lat":43.32345,"lon":5.36738,"is_reserved":false,"is_disabled":false,"rental_uris":{"android":"levelo://app?vid=0e16483d-7c29-42d6-90d2-d9cb7ef31592","ios":"levelo://app?vid=0e16483d-7c29-42d6-90d2-d9cb7ef31592"},"vehicle_type_id":"4","last_reported":1756390196,"current_range_meters":21600,"station_id":"ce4bhsh2rcd13ifvqi2g","pricing_plan_id":"cebpf4jnsgd1na2vs0mg"},{"bike_id":"e21324cc-7232-48ba-b097-b18f8110fa42","system_id":"levelo_inurba_marseille","lat":43.28006,"lon":5.40008,"is_reserved":false,"is_disabled":false,"rental_uris":{"android":"levelo://app?vid=e21324cc-7232-48ba-b097-b18f8110fa42","ios":"levelo://app?vid=e21324cc-7232-48ba-b097-b18f8110fa42"},"vehicle_type_id":"4","last_reported":1756390196,"current_range_meters":21600,"station_id":"ce4bho92rcd13ifvqh4g","pricing_plan_id":"cebpf4jnsgd1na2vs0mg"},{"bike_id":"877d4ff2-8e4e-4dd8-9f9d-3f576d35b87a","system_id":"levelo_inurba_marseille","lat":43.29353,"lon":5.37858,"is_reserved":false,"is_disabled":true,"rental_uris":{"android":"levelo://app?vid=877d4ff2-8e4e-4dd8-9f9d-3f576d35b87a","ios":"levelo://app?vid=877d4ff2-8e4e-4dd8-9f9d-3f576d35b87a"},"vehicle_type_id":"4","last_reported":1756390196,"current_range_meters":22400,"station_id":"ce4bgjh2rcd13ifvqbf0","pricing_plan_id":"cebpf4jnsgd1na2vs0mg"},{"bike_id":"7fa84784-2dda-4198-8e8b-5a7c7ec2289f","system_id":"levelo_inurba_marseille","lat":43.32386,"lon":5.36757,"is_reserved":false,"is_disabled":false,"rental_uris":{"android":"levelo://app?vid=7fa84784-2dda-4198-8e8b-5a7c7ec2289f","ios":"levelo://app?vid=7fa84784-2dda-4198-8e8b-5a7c7ec2289f"},"vehicle_type_id":"4","last_reported":1756390196,"current_range_meters":22000,"station_id":"ce4bhsh2rcd13ifvqi2g","pricing_plan_id":"cebpf4jnsgd1na2vs0mg"},{"bike_id":"ab4879ea-14fc-4274-854e-6eabdbab2245","system_id":"levelo_inurba_marseille","lat":43.2622,"lon":5.37434,"is_reserved":false,"is_disabled":false,"rental_uris":{"android":"levelo://app?vid=ab4879ea-14fc-4274-854e-6eabdbab2245","ios":"levelo://app?vid=ab4879ea-14fc-4274-854e-6eabdbab2245"},"vehicle_type_id":"4","last_reported":1756390196,"current_range_meters":22000,"station_id":"ce4bhgp2rcd13ifvqfc0","pricing_plan_id":"cebpf4jnsgd1na2vs0mg"},{"bike_id":"c0881cb5-357f-468d-a3c1-b313679c3509","system_id":"levelo_inurba_marseille","lat":43.337579,"lon":5.37436,"is_reserved":false,"is_disabled":false,"rental_uris":{"android":"levelo://app?vid=c0881cb5-357f-468d-a3c1-b313679c3509","ios":"levelo://app?vid=c0881cb5-357f-468d-a3c1-b313679c3509"},"vehicle_type_id":"4","last_reported":1756390196,"current_range_meters":22000,"station_id":"","pricing_plan_id":"cebpf4jnsgd1na2vs0mg"},{"bike_id":"d36d9e96-7c4f-44b6-a672-782a9f75e62f","system_id":"levelo_inurba_marseille","lat":43.2872,"lon":5.37944,"is_reserved":false,"is_disabled":false,"rental_uris":{"android":"levelo://app?vid=d36d9e96-7c4f-44b6-a672-782a9f75e62f","ios":"levelo://app?vid=d36d9e96-7c4f-44b6-a672-782a9f75e62f"},"vehicle_type_id":"4","last_reported":1756390196,"current_range_meters":22000,"station_id":"ce4bh9p2rcd13ifvqec0","pricing_plan_id":"cebpf4jnsgd1na2vs0mg"},{"bike_id":"93cc04ec-00cd-4c5a-9919-841c31df513d","system_id":"levelo_inurba_marseille","lat":43.26211,"lon":5.37424,"is_reserved":false,"is_disabled":false,"rental_uris":{"android":"levelo://app?vid=93cc04ec-00cd-4c5a-9919-841c31df513d","ios":"levelo://app?vid=93cc04ec-00cd-4c5a-9919-841c31df513d"},"vehicle_type_id":"4","last_reported":1756390196,"current_range_meters":22000,"station_id":"ce4bhgp2rcd13ifvqfc0","pricing_plan_id":"cebpf4jnsgd1na2vs0mg"},{"bike_id":"9ee36fe0-e94f-44ac-9763-e92d7fec4766","system_id":"levelo_inurba_marseille","lat":43.27822,"lon":5.40722,"is_reserved":false,"is_disabled":false,"rental_uris":{"android":"levelo://app?vid=9ee36fe0-e94f-44ac-9763-e92d7fec4766","ios":"levelo://app?vid=9ee36fe0-e94f-44ac-9763-e92d7fec4766"},"vehicle_type_id":"4","last_reported":1756390196,"current_range_meters":22000,"station_id":"ce4bhnh2rcd13ifvqgtg","pricing_plan_id":"cebpf4jnsgd1na2vs0mg"},{"bike_id":"cc62593e-1c51-43b1-82dd-f689985026fb","system_id":"levelo_inurba_marseille","lat":43.28443,"lon":5.39198,"is_reserved":false,"is_disabled":false,"rental_uris":{"android":"levelo://app?vid=cc62593e-1c51-43b1-82dd-f689985026fb","ios":"levelo://app?vid=cc62593e-1c51-43b1-82dd-f689985026fb"},"vehicle_type_id":"4","last_reported":1756390196,"current_range_meters":22400,"station_id":"ce4bhoh2rcd13ifvqh5g","pricing_plan_id":"cebpf4jnsgd1na2vs0mg"},{"bike_id":"df66d8d3-4a1a-4acb-82a0-04a364343ece","system_id":"levelo_inurba_marseille","lat":43.291906,"lon":5.358072,"is_reserved":false,"is_disabled":false,"rental_uris":{"android":"levelo://app?vid=df66d8d3-4a1a-4acb-82a0-04a364343ece","ios":"levelo://app?vid=df66d8d3-4a1a-4acb-82a0-04a364343ece"},"vehicle_type_id":"4","last_reported":1756390196,"current_range_meters":22000,"station_id":"ce4bhb12rcd13ifvqel0","pricing_plan_id":"cebpf4jnsgd1na2vs0mg"},{"bike_id":"12022de6-f2d0-48a7-b18b-1259dd55169e","system_id":"levelo_inurba_marseille","lat":43.28265,"lon":5.35065,"is_reserved":false,"is_disabled":false,"rental_uris":{"android":"levelo://app?vid=12022de6-f2d0-48a7-b18b-1259dd55169e","ios":"levelo://app?vid=12022de6-f2d0-48a7-b18b-1259dd55169e"},"vehicle_type_id":"4","last_reported":1756390196,"current_range_meters":22000,"station_id":"ce4bhbp2rcd13ifvqerg","pricing_plan_id":"cebpf4jnsgd1na2vs0mg"},{"bike_id":"17346dce-e9f3-48b8-9a6a-34dc001fc6e7","system_id":"levelo_inurba_marseille","lat":43.29801,"lon":5.39332,"is_reserved":false,"is_disabled":false,"rental_uris":{"android":"levelo://app?vid=17346dce-e9f3-48b8-9a6a-34dc001fc6e7","ios":"levelo://app?vid=17346dce-e9f3-48b8-9a6a-34dc001fc6e7"},"vehicle_type_id":"4","last_reported":1756390196,"current_range_meters":22000,"station_id":"","pricing_plan_id":"cebpf4jnsgd1na2vs0mg"},{"bike_id":"ac27170e-9570-4f63-bb10-7f62fa3f5708","system_id":"levelo_inurba_marseille","lat":43.30148,"lon":5.37404,"is_reserved":false,"is_disabled":false,"rental_uris":{"android":"levelo://app?vid=ac27170e-9570-4f63-bb10-7f62fa3f5708","ios":"levelo://app?vid=ac27170e-9570-4f63-bb10-7f62fa3f5708"},"vehicle_type_id":"4","last_reported":1756390196,"current_range_meters":22400,"station_id":"","pricing_plan_id":"cebpf4jnsgd1na2vs0mg"},{"bike_id":"1e1b8fa4-f407-4e56-8b56-744ee5170d8a","system_id":"levelo_inurba_marseille","lat":43.31075,"lon":5.3835,"is_reserved":false,"is_disabled":false,"rental_uris":{"android":"levelo://app?vid=1e1b8fa4-f407-4e56-8b56-744ee5170d8a","ios":"levelo://app?vid=1e1b8fa4-f407-4e56-8b56-744ee5170d8a"},"vehicle_type_id":"4","last_reported":1756390196,"current_range_meters":22400,"station_id":"ce4bgv92rcd13ifvqcr0","pricing_plan_id":"cebpf4jnsgd1na2vs0mg"},{"bike_id":"0e1517e1-8e32-4d2c-9eea-c7b6fa5094e6","system_id":"levelo_inurba_marseille","lat":43.26021,"lon":5.37558,"is_reserved":false,"is_disabled":false,"rental_uris":{"android":"levelo://app?vid=0e1517e1-8e32-4d2c-9eea-c7b6fa5094e6","ios":"levelo://app?vid=0e1517e1-8e32-4d2c-9eea-c7b6fa5094e6"},"vehicle_type_id":"4","last_reported":1756390196,"current_range_meters":22400,"station_id":"ce4bhgh2rcd13ifvqfa0","pricing_plan_id":"cebpf4jnsgd1na2vs0mg"},{"bike_id":"6a3e5802-6548-4300-bdf5-0fedbdff8a76","system_id":"levelo_inurba_marseille","lat":43.322848,"lon":5.382737,"is_reserved":false,"is_disabled":false,"rental_uris":{"android":"levelo://app?vid=6a3e5802-6548-4300-bdf5-0fedbdff8a76","ios":"levelo://app?vid=6a3e5802-6548-4300-bdf5-0fedbdff8a76"},"vehicle_type_id":"4","last_reported":1756390196,"current_range_meters":22400,"station_id":"ce4bhr12rcd13ifvqhqg","pricing_plan_id":"cebpf4jnsgd1na2vs0mg"},{"bike_id":"e9cb6436-0428-41b2-925a-cf5b31128397","system_id":"levelo_inurba_marseille","lat":43.32383,"lon":5.39023,"is_reserved":false,"is_disabled":false,"rental_uris":{"android":"levelo://app?vid=e9cb6436-0428-41b2-925a-cf5b31128397","ios":"levelo://app?vid=e9cb6436-0428-41b2-925a-cf5b31128397"},"vehicle_type_id":"4","last_reported":1756390196,"current_range_meters":22800,"station_id":"","pricing_plan_id":"cebpf4jnsgd1na2vs0mg"},{"bike_id":"e23fe185-5190-4610-b4e2-63078e6f0bce","system_id":"levelo_inurba_marseille","lat":43.31381,"lon":5.3672,"is_reserved":false,"is_disabled":false,"rental_uris":{"android":"levelo://app?vid=e23fe185-5190-4610-b4e2-63078e6f0bce","ios":"levelo://app?vid=e23fe185-5190-4610-b4e2-63078e6f0bce"},"vehicle_type_id":"4","last_reported":1756390196,"current_range_meters":22800,"station_id":"ce4bgr92rcd13ifvqc6g","pricing_plan_id":"cebpf4jnsgd1na2vs0mg"},{"bike_id":"857f6989-3eec-4d38-b710-f95af1b889df","system_id":"levelo_inurba_marseille","lat":43.32349,"lon":5.36742,"is_reserved":false,"is_disabled":false,"rental_uris":{"android":"levelo://app?vid=857f6989-3eec-4d38-b710-f95af1b889df","ios":"levelo://app?vid=857f6989-3eec-4d38-b710-f95af1b889df"},"vehicle_type_id":"4","last_reported":1756390196,"current_range_meters":22800,"station_id":"ce4bhsh2rcd13ifvqi2g","pricing_plan_id":"cebpf4jnsgd1na2vs0mg"},{"bike_id":"af10f840-9282-4be6-8a32-dd834535ba59","system_id":"levelo_inurba_marseille","lat":43.258582,"lon":5.399212,"is_reserved":false,"is_disabled":false,"rental_uris":{"android":"levelo://app?vid=af10f840-9282-4be6-8a32-dd834535ba59","ios":"levelo://app?vid=af10f840-9282-4be6-8a32-dd834535ba59"},"vehicle_type_id":"4","last_reported":1756390196,"current_range_meters":23200,"station_id":"ce4bhl92rcd13ifvqghg","pricing_plan_id":"cebpf4jnsgd1na2vs0mg"},{"bike_id":"91a2e73c-3eb7-4f88-9491-b3aba4997f89","system_id":"levelo_inurba_marseille","lat":43.26187,"lon":5.37443,"is_reserved":false,"is_disabled":false,"rental_uris":{"android":"levelo://app?vid=91a2e73c-3eb7-4f88-9491-b3aba4997f89","ios":"levelo://app?vid=91a2e73c-3eb7-4f88-9491-b3aba4997f89"},"vehicle_type_id":"4","last_reported":1756390196,"current_range_meters":23200,"station_id":"ce4bhgp2rcd13ifvqfc0","pricing_plan_id":"cebpf4jnsgd1na2vs0mg"},{"bike_id":"2c64b12d-8fe2-476c-b98a-623b95341823","system_id":"levelo_inurba_marseille","lat":43.31522,"lon":5.37282,"is_reserved":false,"is_disabled":false,"rental_uris":{"android":"levelo://app?vid=2c64b12d-8fe2-476c-b98a-623b95341823","ios":"levelo://app?vid=2c64b12d-8fe2-476c-b98a-623b95341823"},"vehicle_type_id":"4","last_reported":1756390196,"current_range_meters":23200,"station_id":"ce4bgt12rcd13ifvqcd0","pricing_plan_id":"cebpf4jnsgd1na2vs0mg"},{"bike_id":"717092f3-931a-4468-bb14-eb362a038673","system_id":"levelo_inurba_marseille","lat":43.26212,"lon":5.3744,"is_reserved":false,"is_disabled":false,"rental_uris":{"android":"levelo://app?vid=717092f3-931a-4468-bb14-eb362a038673","ios":"levelo://app?vid=717092f3-931a-4468-bb14-eb362a038673"},"vehicle_type_id":"4","last_reported":1756390196,"current_range_meters":23200,"station_id":"ce4bhgp2rcd13ifvqfc0","pricing_plan_id":"cebpf4jnsgd1na2vs0mg"},{"bike_id":"b9911da3-bdb3-495d-a5d5-70da40927edb","system_id":"levelo_inurba_marseille","lat":43.28417,"lon":5.34981,"is_reserved":false,"is_disabled":false,"rental_uris":{"android":"levelo://app?vid=b9911da3-bdb3-495d-a5d5-70da40927edb","ios":"levelo://app?vid=b9911da3-bdb3-495d-a5d5-70da40927edb"},"vehicle_type_id":"4","last_reported":1756390196,"current_range_meters":23200,"station_id":"ce4bhbh2rcd13ifvqepg","pricing_plan_id":"cebpf4jnsgd1na2vs0mg"},{"bike_id":"91254781-5995-4c62-8be4-f60c0c53eb3c","system_id":"levelo_inurba_marseille","lat":43.21752,"lon":5.3461,"is_reserved":false,"is_disabled":false,"rental_uris":{"android":"levelo://app?vid=91254781-5995-4c62-8be4-f60c0c53eb3c","ios":"levelo://app?vid=91254781-5995-4c62-8be4-f60c0c53eb3c"},"vehicle_type_id":"4","last_reported":1756390196,"current_range_meters":23200,"station_id":"st_cvj6r9ubvosntc0bgbag","pricing_plan_id":"cebpf4jnsgd1na2vs0mg"},{"bike_id":"f27c5ada-3a94-406d-b3fd-149cf4ac0ce4","system_id":"levelo_inurba_marseille","lat":43.32295,"lon":5.38229,"is_reserved":false,"is_disabled":false,"rental_uris":{"android":"levelo://app?vid=f27c5ada-3a94-406d-b3fd-149cf4ac0ce4","ios":"levelo://app?vid=f27c5ada-3a94-406d-b3fd-149cf4ac0ce4"},"vehicle_type_id":"4","last_reported":1756390196,"current_range_meters":23200,"station_id":"ce4bhr12rcd13ifvqhqg","pricing_plan_id":"cebpf4jnsgd1na2vs0mg"},{"bike_id":"933fad5f-f927-4ead-a3a5-e66903852858","system_id":"levelo_inurba_marseille","lat":43.29615,"lon":5.37729,"is_reserved":false,"is_disabled":false,"rental_uris":{"android":"levelo://app?vid=933fad5f-f927-4ead-a3a5-e66903852858","ios":"levelo://app?vid=933fad5f-f927-4ead-a3a5-e66903852858"},"vehicle_type_id":"4","last_reported":1756390196,"current_range_meters":23200,"station_id":"ce4bgi92rcd13ifvqb90","pricing_plan_id":"cebpf4jnsgd1na2vs0mg"},{"bike_id":"ad342a57-16de-4802-917b-2c54902b8e93","system_id":"levelo_inurba_marseille","lat":43.33767,"lon":5.374384,"is_reserved":false,"is_disabled":false,"rental_uris":{"android":"levelo://app?vid=ad342a57-16de-4802-917b-2c54902b8e93","ios":"levelo://app?vid=ad342a57-16de-4802-917b-2c54902b8e93"},"vehicle_type_id":"4","last_reported":1756390196,"current_range_meters":23200,"station_id":"","pricing_plan_id":"cebpf4jnsgd1na2vs0mg"},{"bike_id":"2b3b5a15-a382-44ac-98cd-7eb2831e6cbf","system_id":"levelo_inurba_marseille","lat":43.33211,"lon":5.39815,"is_reserved":false,"is_disabled":false,"rental_uris":{"android":"levelo://app?vid=2b3b5a15-a382-44ac-98cd-7eb2831e6cbf","ios":"levelo://app?vid=2b3b5a15-a382-44ac-98cd-7eb2831e6cbf"},"vehicle_type_id":"4","last_reported":1756390196,"current_range_meters":23200,"station_id":"","pricing_plan_id":"cebpf4jnsgd1na2vs0mg"},{"bike_id":"cac15bd1-e122-4e7d-8ef0-b1173a77bce9","system_id":"levelo_inurba_marseille","lat":43.30293,"lon":5.3921,"is_reserved":false,"is_disabled":false,"rental_uris":{"android":"levelo://app?vid=cac15bd1-e122-4e7d-8ef0-b1173a77bce9","ios":"levelo://app?vid=cac15bd1-e122-4e7d-8ef0-b1173a77bce9"},"vehicle_type_id":"4","last_reported":1756390196,"current_range_meters":23200,"station_id":"ce4bgkh2rcd13ifvqbk0","pricing_plan_id":"cebpf4jnsgd1na2vs0mg"},