{"last_updated":1741119048,"ttl":60,"version":"2.2","data":{"bikes":[{"bike_id":"ca6cfd5d-bf7b-4ac1-a889-198ec586fb76","system_id":"levelo_inurba_marseille","lat":43.26792,"lon":5.39403,"is_reserved":false,"is_disabled":false,"rental_uris":{"android":"levelo://app?vid=ca6cfd5d-bf7b-4ac1-a889-198ec586fb76","ios":"levelo://app?vid=ca6cfd5d-bf7b-4ac1-a889-198ec586fb76"},"vehicle_type_id":"4","last_reported":1741119048,"current_range_meters":2800,"station_id":"ce4bhh12rcd13ifvqfg0","pricing_plan_id":"cebpf4jnsgd1na2vs0mg"},{"bike_id":"c25a404e-31a0-4c2b-b296-15c836182734","system_id":"levelo_inurba_marseille","lat":43.297957,"lon":5.404015,"is_reserved":false,"is_disabled":false,"rental_uris":{"android":"levelo://app?vid=c25a404e-31a0-4c2b-b296-15c836182734","ios":"levelo://app?vid=c25a404e-31a0-4c2b-b296-15c836182734"},"vehicle_type_id":"4","last_reported":1741119048,"current_range_meters":2800,"station_id":"ce4bh112rcd13ifvqd90","pricing_plan_id":"cebpf4jnsgd1na2vs0mg"},{"bike_id":"51cd10ef-cb10-401c-a5d1-98eae4729644","system_id":"levelo_inurba_marseille","lat":43.2795,"lon":5.38697,"is_reserved":false,"is_disabled":true,"rental_uris":{"android":"levelo://app?vid=51cd10ef-cb10-401c-a5d1-98eae4729644","ios":"levelo://app?vid=51cd10ef-cb10-401c-a5d1-98eae4729644"},"vehicle_type_id":"4","last_reported":1741119048,"current_range_meters":3200,"station_id":"ce4bhg12rcd13ifvqf80","pricing_plan_id":"cebpf4jnsgd1na2vs0mg"},{"bike_id":"3b592065-43a4-406e-9fdb-ffe4c42b5c76","system_id":"levelo_inurba_marseille","lat":43.26227,"lon":5.40454,"is_reserved":false,"is_disabled":false,"rental_uris":{"android":"levelo://app?vid=3b592065-43a4-406e-9fdb-ffe4c42b5c76","ios":"levelo://app?vid=3b592065-43a4-406e-9fdb-ffe4c42b5c76"},"vehicle_type_id":"4","last_reported":1741119048,"current_range_meters":3200,"station_id":"ce4bhmh2rcd13ifvqgmg","pricing_plan_id":"cebpf4jnsgd1na2vs0mg"},{"bike_id":"5d6e7723-8748-47b1-a15b-5c719e60614f","system_id":"levelo_inurba_marseille","lat":43.30795,"lon":5.43528,"is_reserved":false,"is_disabled":false,"rental_uris":{"android":"levelo://app?vid=5d6e7723-8748-47b1-a15b-5c719e60614f","ios":"levelo://app?vid=5d6e7723-8748-47b1-a15b-5c719e60614f"},"vehicle_type_id":"4","last_reported":1741119048,"current_range_meters":3200,"station_id":"ce4bhph2rcd13ifvqheg","pricing_plan_id":"cebpf4jnsgd1na2vs0mg"},{"bike_id":"a70e0990-aba3-4e95-914e-2767d475a9e2","system_id":"levelo_inurba_marseille","lat":43.296,"lon":5.38106,"is_reserved":false,"is_disabled":false,"rental_uris":{"android":"levelo://app?vid=a70e0990-aba3-4e95-914e-2767d475a9e2","ios":"levelo://app?vid=a70e0990-aba3-4e95-914e-2767d475a9e2"},"vehicle_type_id":"4","last_reported":1741119048,"current_range_meters":3200,"station_id":"ce4bgl12rcd13ifvqbo0","pricing_plan_id":"cebpf4jnsgd1na2vs0mg"},{"bike_id":"b207e307-6611-4332-9af8-2805dec77149","system_id":"levelo_inurba_marseille","lat":43.314976,"lon":5.373128,"is_reserved":false,"is_disabled":false,"rental_uris":{"android":"levelo://app?vid=b207e307-6611-4332-9af8-2805dec77149","ios":"levelo://app?vid=b207e307-6611-4332-9af8-2805dec77149"},"vehicle_type_id":"4","last_reported":1741119048,"current_range_meters":3200,"station_id":"ce4bgv92rcd13ifvqcq0","pricing_plan_id":"cebpf4jnsgd1na2vs0mg"},{"bike_id":"3e5c2a66-e8ef-4968-b550-77e762ebf3af","system_id":"levelo_inurba_marseille","lat":43.2943,"lon":5.38604,"is_reserved":false,"is_disabled":false,"rental_uris":{"android":"levelo://app?vid=3e5c2a66-e8ef-4968-b550-77e762ebf3af","ios":"levelo://app?vid=3e5c2a66-e8ef-4968-b550-77e762ebf3af"},"vehicle_type_id":"4","last_reported":1741119048,"current_range_meters":3600,"station_id":"ce4bh2h2rcd13ifvqdh0","pricing_plan_id":"cebpf4jnsgd1na2vs0mg"},{"bike_id":"661fcf11-cdda-4a84-bf37-2e13edefdc10","system_id":"levelo_inurba_marseille","lat":43.29051,"lon":5.37157,"is_reserved":false,"is_disabled":false,"rental_uris":{"android":"levelo://app?vid=661fcf11-cdda-4a84-bf37-2e13edefdc10","ios":"levelo://app?vid=661fcf11-cdda-4a84-bf37-2e13edefdc10"},"vehicle_type_id":"4","last_reported":1741119048,"current_range_meters":3600,"station_id":"ce4bh5p2rcd13ifvqe4g","pricing_plan_id":"cebpf4jnsgd1na2vs0mg"},{"bike_id":"45640cfb-96fa-4825-b923-44ca7d68caf3","system_id":"levelo_inurba_marseille","lat":43.27951,"lon":5.41026,"is_reserved":false,"is_disabled":false,"rental_uris":{"android":"levelo://app?vid=45640cfb-96fa-4825-b923-44ca7d68caf3","ios":"levelo://app?vid=45640cfb-96fa-4825-b923-44ca7d68caf3"},"vehicle_type_id":"4","last_reported":1741119048,"current_range_meters":4000,"station_id":"ce4bhnp2rcd13ifvqh0g","pricing_plan_id":"cebpf4jnsgd1na2vs0mg"},{"bike_id":"97e7bb85-e6e8-4733-8f69-592227eaaf23","system_id":"levelo_inurba_marseille","lat":43.28882,"lon":5.40014,"is_reserved":false,"is_disabled":false,"rental_uris":{"android":"levelo://app?vid=97e7bb85-e6e8-4733-8f69-592227eaaf23","ios":"levelo://app?vid=97e7bb85-e6e8-4733-8f69-592227eaaf23"},"vehicle_type_id":"4","last_reported":1741119048,"current_range_meters":4000,"station_id":"","pricing_plan_id":"cebpf4jnsgd1na2vs0mg"},{"bike_id":"c5e8cd2d-bc8c-432b-b100-b523341f5479","system_id":"levelo_inurba_marseille","lat":43.30856,"lon":5.38567,"is_reserved":false,"is_disabled":true,"rental_uris":{"android":"levelo://app?vid=c5e8cd2d-bc8c-432b-b100-b523341f5479","ios":"levelo://app?vid=c5e8cd2d-bc8c-432b-b100-b523341f5479"},"vehicle_type_id":"4","last_reported":1741119048,"current_range_meters":4400,"station_id":"","pricing_plan_id":"cebpf4jnsgd1na2vs0mg"},{"bike_id":"e7ec1ac1-2323-47bd-a2b5-7cd3afb282cf","system_id":"levelo_inurba_marseille","lat":43.26926,"lon":5.36694,"is_reserved":false,"is_disabled":false,"rental_uris":{"android":"levelo://app?vid=e7ec1ac1-2323-47bd-a2b5-7cd3afb282cf","ios":"levelo://app?vid=e7ec1ac1-2323-47bd-a2b5-7cd3afb282cf"},"vehicle_type_id":"4","last_reported":1741119048,"current_range_meters":4400,"station_id":"","pricing_plan_id":"cebpf4jnsgd1na2vs0mg"},{"bike_id":"00341472-e6bb-48cf-8c13-513b85fbf326","system_id":"levelo_inurba_marseille","lat":43.30021,"lon":5.36407,"is_reserved":false,"is_disabled":false,"rental_uris":{"android":"levelo://app?vid=00341472-e6bb-48cf-8c13-513b85fbf326","ios":"levelo://app?vid=00341472-e6bb-48cf-8c13-513b85fbf326"},"vehicle_type_id":"4","last_reported":1741119048,"current_range_meters":4400,"station_id":"ce4bgup2rcd13ifvqcn0","pricing_plan_id":"cebpf4jnsgd1na2vs0mg"},{"bike_id":"6a2c4cd2-a60d-4693-baf1-ec0a12f6f2cc","system_id":"levelo_inurba_marseille","lat":43.2927,"lon":5.38422,"is_reserved":false,"is_disabled":false,"rental_uris":{"android":"levelo://app?vid=6a2c4cd2-a60d-4693-baf1-ec0a12f6f2cc","ios":"levelo://app?vid=6a2c4cd2-a60d-4693-baf1-ec0a12f6f2cc"},"vehicle_type_id":"4","last_reported":1741119048,"current_range_meters":4400,"station_id":"ce4bh692rcd13ifvqea0","pricing_plan_id":"cebpf4jnsgd1na2vs0mg"},{"bike_id":"720f7dc4-8848-4796-8fc7-25201bd24654","system_id":"levelo_inurba_marseille","lat":43.31722,"lon":5.40447,"is_reserved":false,"is_disabled":false,"rental_uris":{"android":"levelo://app?vid=720f7dc4-8848-4796-8fc7-25201bd24654","ios":"levelo://app?vid=720f7dc4-8848-4796-8fc7-25201bd24654"},"vehicle_type_id":"4","last_reported":1741119048,"current_range_meters":4400,"station_id":"ce4bh012rcd13ifvqd00","pricing_plan_id":"cebpf4jnsgd1na2vs0mg"},{"bike_id":"d74c08c3-3c28-403f-b4a8-b1aefb0eaa7f","system_id":"levelo_inurba_marseille","lat":43.303026,"lon":5.392779,"is_reserved":false,"is_disabled":false,"rental_uris":{"android":"levelo://app?vid=d74c08c3-3c28-403f-b4a8-b1aefb0eaa7f","ios":"levelo://app?vid=d74c08c3-3c28-403f-b4a8-b1aefb0eaa7f"},"vehicle_type_id":"4","last_reported":1741119048,"current_range_meters":4400,"station_id":"ce4bgkh2rcd13ifvqbk0","pricing_plan_id":"cebpf4jnsgd1na2vs0mg"},{"bike_id":"219d62ce-7b93-4c64-8d23-3e9d98cebec8","system_id":"levelo_inurba_marseille","lat":43.23186,"lon":5.39976,"is_reserved":false,"is_disabled":false,"rental_uris":{"android":"levelo://app?vid=219d62ce-7b93-4c64-8d23-3e9d98cebec8","ios":"levelo://app?vid=219d62ce-7b93-4c64-8d23-3e9d98cebec8"},"vehicle_type_id":"4","last_reported":1741119048,"current_range_meters":4800,"station_id":"ce4bhn12rcd13ifvqgqg","pricing_plan_id":"cebpf4jnsgd1na2vs0mg"},{"bike_id":"ec509645-f808-4420-9eb3-bd545a7d0af3","system_id":"levelo_inurba_marseille","lat":43.29424,"lon":5.38638,"is_reserved":false,"is_disabled":false,"rental_uris":{"android":"levelo://app?vid=ec509645-f808-4420-9eb3-bd545a7d0af3","ios":"levelo://app?vid=ec509645-f808-4420-9eb3-bd545a7d0af3"},"vehicle_type_id":"4","last_reported":1741119048,"current_range_meters":5600,"station_id":"ce4bh2h2rcd13ifvqdh0","pricing_plan_id":"cebpf4jnsgd1na2vs0mg"},{"bike_id":"3c1ca905-e6dc-4f76-bfc7-9b62c1010561","system_id":"levelo_inurba_marseille","lat":43.29514,"lon":5.39405,"is_reserved":false,"is_disabled":false,"rental_uris":{"android":"levelo://app?vid=3c1ca905-e6dc-4f76-bfc7-9b62c1010561","ios":"levelo://app?vid=3c1ca905-e6dc-4f76-bfc7-9b62c1010561"},"vehicle_type_id":"4","last_reported":1741119048,"current_range_meters":5600,"station_id":"ce4bh292rcd13ifvqdf0","pricing_plan_id":"cebpf4jnsgd1na2vs0mg"},{"bike_id":"523797ee-a9f0-494d-a6a9-db807f9343e4","system_id":"levelo_inurba_marseille","lat":43.27144,"lon":5.39175,"is_reserved":false,"is_disabled":false,"rental_uris":{"android":"levelo://app?vid=523797ee-a9f0-494d-a6a9-db807f9343e4","ios":"levelo://app?vid=523797ee-a9f0-494d-a6a9-db807f9343e4"},"vehicle_type_id":"4","last_reported":1741119048,"current_range_meters":5600,"station_id":"ce4bhhp2rcd13ifvqfm0","pricing_plan_id":"cebpf4jnsgd1na2vs0mg"},{"bike_id":"9fa3a17f-7423-41be-a0d2-253c9f27a2e2","system_id":"levelo_inurba_marseille","lat":43.28625,"lon":5.35111,"is_reserved":false,"is_disabled":false,"rental_uris":{"android":"levelo://app?vid=9fa3a17f-7423-41be-a0d2-253c9f27a2e2","ios":"levelo://app?vid=9fa3a17f-7423-41be-a0d2-253c9f27a2e2"},"vehicle_type_id":"4","last_reported":1741119048,"current_range_meters":5600,"station_id":"ce4bhch2rcd13ifvqeug","pricing_plan_id":"cebpf4jnsgd1na2vs0mg"},{"bike_id":"96af8820-976d-4b32-a9a0-9bc8fbb007f1","system_id":"levelo_inurba_marseille","lat":43.3135,"lon":5.38488,"is_reserved":false,"is_disabled":false,"rental_uris":{"android":"levelo://app?vid=96af8820-976d-4b32-a9a0-9bc8fbb007f1","ios":"levelo://app?vid=96af8820-976d-4b32-a9a0-9bc8fbb007f1"},"vehicle_type_id":"4","last_reported":1741119048,"current_range_meters":5600,"station_id":"ce4bgt92rcd13ifvqcf0","pricing_plan_id":"cebpf4jnsgd1na2vs0mg"},{"bike_id":"8bbef58b-16f0-4a65-a671-648d74f284f0","system_id":"levelo_inurba_marseille","lat":43.26512,"lon":5.39549,"is_reserved":false,"is_disabled":false,"rental_uris":{"android":"levelo://app?vid=8bbef58b-16f0-4a65-a671-648d74f284f0","ios":"levelo://app?vid=8bbef58b-16f0-4a65-a671-648d74f284f0"},"vehicle_type_id":"4","last_reported":1741119048,"current_range_meters":5600,"station_id":"ce4bhi12rcd13ifvqfq0","pricing_plan_id":"cebpf4jnsgd1na2vs0mg"},{"bike_id":"3fdc9a7e-2885-4db2-b302-c77e590b4771","system_id":"levelo_inurba_marseille","lat":43.31028,"lon":5.37557,"is_reserved":false,"is_disabled":false,"rental_uris":{"android":"levelo://app?vid=3fdc9a7e-2885-4db2-b302-c77e590b4771","ios":"levelo://app?vid=3fdc9a7e-2885-4db2-b302-c77e590b4771"},"vehicle_type_id":"4","last_reported":1741119048,"current_range_meters":5600,"station_id":"","pricing_plan_id":"cebpf4jnsgd1na2vs0mg"},{"bike_id":"72a4303f-d642-475b-9ed7-1d2b9ce5671c","system_id":"levelo_inurba_marseille","lat":43.2988,"lon":5.38907,"is_reserved":false,"is_disabled":false,"rental_uris":{"android":"levelo://app?vid=72a4303f-d642-475b-9ed7-1d2b9ce5671c","ios":"levelo://app?vid=72a4303f-d642-475b-9ed7-1d2b9ce5671c"},"vehicle_type_id":"4","last_reported":1741119048,"current_range_meters":5600,"station_id":"ce4bh392rcd13ifvqdl0","pricing_plan_id":"cebpf4jnsgd1na2vs0mg"},{"bike_id":"905da3b5-ffda-4093-b252-634c59f7dd89","system_id":"levelo_inurba_marseille","lat":43.28624,"lon":5.35038,"is_reserved":false,"is_disabled":false,"rental_uris":{"android":"levelo://app?vid=905da3b5-ffda-4093-b252-634c59f7dd89","ios":"levelo://app?vid=905da3b5-ffda-4093-b252-634c59f7dd89"},"vehicle_type_id":"4","last_reported":1741119048,"current_range_meters":6000,"station_id":"","pricing_plan_id":"cebpf4jnsgd1na2vs0mg"},{"bike_id":"bfe26a9a-f533-4fbe-b0b6-95a1e95a5f24","system_id":"levelo_inurba_marseille","lat":43.28098,"lon":5.39659,"is_reserved":false,"is_disabled":true,"rental_uris":{"android":"levelo://app?vid=bfe26a9a-f533-4fbe-b0b6-95a1e95a5f24","ios":"levelo://app?vid=bfe26a9a-f533-4fbe-b0b6-95a1e95a5f24"},"vehicle_type_id":"4","last_reported":1741119048,"current_range_meters":6000,"station_id":"ce4bho12rcd13ifvqh2g","pricing_plan_id":"cebpf4jnsgd1na2vs0mg"},{"bike_id":"79687e17-5ece-4f9c-9252-898196d1c2cb","system_id":"levelo_inurba_marseille","lat":43.29892,"lon":5.38506,"is_reserved":false,"is_disabled":false,"rental_uris":{"android":"levelo://app?vid=79687e17-5ece-4f9c-9252-898196d1c2cb","ios":"levelo://app?vid=79687e17-5ece-4f9c-9252-898196d1c2cb"},"vehicle_type_id":"4","last_reported":1741119048,"current_range_meters":6000,"station_id":"","pricing_plan_id":"cebpf4jnsgd1na2vs0mg"},{"bike_id":"3199d0b1-1880-4a09-9b73-b476aef89546","system_id":"levelo_inurba_marseille","lat":43.29984,"lon":5.37181,"is_reserved":false,"is_disabled":true,"rental_uris":{"android":"levelo://app?vid=3199d0b1-1880-4a09-9b73-b476aef89546","ios":"levelo://app?vid=3199d0b1-1880-4a09-9b73-b476aef89546"},"vehicle_type_id":"4","last_reported":1741119048,"current_range_meters":6000,"station_id":"ce4bgr92rcd13ifvqc7g","pricing_plan_id":"cebpf4jnsgd1na2vs0mg"},{"bike_id":"e65082d6-5529-479d-9979-0976e546b0b6","system_id":"levelo_inurba_marseille","lat":43.25574,"lon":5.38247,"is_reserved":false,"is_disabled":false,"rental_uris":{"android":"levelo://app?vid=e65082d6-5529-479d-9979-0976e546b0b6","ios":"levelo://app?vid=e65082d6-5529-479d-9979-0976e546b0b6"},"vehicle_type_id":"4","last_reported":1741119048,"current_range_meters":6000,"station_id":"ce4bhih2rcd13ifvqfs0","pricing_plan_id":"cebpf4jnsgd1na2vs0mg"},{"bike_id":"5dc87ed1-3bd7-4e23-9ac8-a3f9d1414938","system_id":"levelo_inurba_marseille","lat":43.28667,"lon":5.36349,"is_reserved":false,"is_disabled":false,"rental_uris":{"android":"levelo://app?vid=5dc87ed1-3bd7-4e23-9ac8-a3f9d1414938","ios":"levelo://app?vid=5dc87ed1-3bd7-4e23-9ac8-a3f9d1414938"},"vehicle_type_id":"4","last_reported":1741119048,"current_range_meters":6000,"station_id":"ce4bhah2rcd13ifvqej0","pricing_plan_id":"cebpf4jnsgd1na2vs0mg"},{"bike_id":"22299551-e044-4341-a820-6bbc9e1dce72","system_id":"levelo_inurba_marseille","lat":43.29422,"lon":5.38624,"is_reserved":false,"is_disabled":false,"rental_uris":{"android":"levelo://app?vid=22299551-e044-4341-a820-6bbc9e1dce72","ios":"levelo://app?vid=22299551-e044-4341-a820-6bbc9e1dce72"},"vehicle_type_id":"4","last_reported":1741119048,"current_range_meters":6000,"station_id":"ce4bh2h2rcd13ifvqdh0","pricing_plan_id":"cebpf4jnsgd1na2vs0mg"},{"bike_id":"efcc3214-84bf-482e-adca-8f94362cd09d","system_id":"levelo_inurba_marseille","lat":43.29268,"lon":5.38439,"is_reserved":false,"is_disabled":false,"rental_uris":{"android":"levelo://app?vid=efcc3214-84bf-482e-adca-8f94362cd09d","ios":"levelo://app?vid=efcc3214-84bf-482e-adca-8f94362cd09d"},"vehicle_type_id":"4","last_reported":1741119048,"current_range_meters":6000,"station_id":"ce4bh692rcd13ifvqea0","pricing_plan_id":"cebpf4jnsgd1na2vs0mg"},{"bike_id":"ce8ef3d2-07e3-4512-8813-bcde53a01429","system_id":"levelo_inurba_marseille","lat":43.24142,"lon":5.3641,"is_reserved":false,"is_disabled":false,"rental_uris":{"android":"levelo://app?vid=ce8ef3d2-07e3-4512-8813-bcde53a01429","ios":"levelo://app?vid=ce8ef3d2-07e3-4512-8813-bcde53a01429"},"vehicle_type_id":"4","last_reported":1741119048,"current_range_meters":6400,"station_id":"cpo36qri1sfpv3e86is0","pricing_plan_id":"cebpf4jnsgd1na2vs0mg"},{"bike_id":"9417d2e2-9aa4-4b26-be00-4bce81ddfd56","system_id":"levelo_inurba_marseille","lat":43.29249,"lon":5.38423,"is_reserved":false,"is_disabled":false,"rental_uris":{"android":"levelo://app?vid=9417d2e2-9aa4-4b26-be00-4bce81ddfd56","ios":"levelo://app?vid=9417d2e2-9aa4-4b26-be00-4bce81ddfd56"},"vehicle_type_id":"4","last_reported":1741119048,"current_range_meters":6400,"station_id":"ce4bh692rcd13ifvqea0","pricing_plan_id":"cebpf4jnsgd1na2vs0mg"},{"bike_id":"9e6dbc2a-80eb-443b-bb2c-7b14a1ecc330","system_id":"levelo_inurba_marseille","lat":43.26802,"lon":5.40266,"is_reserved":false,"is_disabled":false,"rental_uris":{"android":"levelo://app?vid=9e6dbc2a-80eb-443b-bb2c-7b14a1ecc330","ios":"levelo://app?vid=9e6dbc2a-80eb-443b-bb2c-7b14a1ecc330"},"vehicle_type_id":"4","last_reported":1741119048,"current_range_meters":6400,"station_id":"ce501612rcd8frsf0b60","pricing_plan_id":"cebpf4jnsgd1na2vs0mg"},{"bike_id":"ecddc8a7-91af-4ea4-ba05-c8a5c9a398e9","system_id":"levelo_inurba_marseille","lat":43.31719,"lon":5.42398,"is_reserved":false,"is_disabled":false,"rental_uris":{"android":"levelo://app?vid=ecddc8a7-91af-4ea4-ba05-c8a5c9a398e9","ios":"levelo://app?vid=ecddc8a7-91af-4ea4-ba05-c8a5c9a398e9"},"vehicle_type_id":"4","last_reported":1741119048,"current_range_meters":6400,"station_id":"ce4bhp92rcd13ifvqhbg","pricing_plan_id":"cebpf4jnsgd1na2vs0mg"},{"bike_id":"fa19ca92-65a6-465d-b51e-0c201719d3a7","system_id":"levelo_inurba_marseille","lat":43.28855,"lon":5.35859,"is_reserved":false,"is_disabled":false,"rental_uris":{"android":"levelo://app?vid=fa19ca92-65a6-465d-b51e-0c201719d3a7","ios":"levelo://app?vid=fa19ca92-65a6-465d-b51e-0c201719d3a7"},"vehicle_type_id":"4","last_reported":1741119048,"current_range_meters":6400,"station_id":"ce4bhb12rcd13ifvqem0","pricing_plan_id":"cebpf4jnsgd1na2vs0mg"},{"bike_id":"33fe321d-8986-4707-8df3-b3cf5edb9fc3","system_id":"levelo_inurba_marseille","lat":43.24653,"lon":5.38894,"is_reserved":false,"is_disabled":false,"rental_uris":{"android":"levelo://app?vid=33fe321d-8986-4707-8df3-b3cf5edb9fc3","ios":"levelo://app?vid=33fe321d-8986-4707-8df3-b3cf5edb9fc3"},"vehicle_type_id":"4","last_reported":1741119048,"current_range_meters":6400,"station_id":"ce4bhg12rcd13ifvqf60","pricing_plan_id":"cebpf4jnsgd1na2vs0mg"},{"bike_id":"ab688728-3efd-4c64-b2f4-7fc7d175be61","system_id":"levelo_inurba_marseille","lat":43.24661,"lon":5.38168,"is_reserved":false,"is_disabled":false,"rental_uris":{"android":"levelo://app?vid=ab688728-3efd-4c64-b2f4-7fc7d175be61","ios":"levelo://app?vid=ab688728-3efd-4c64-b2f4-7fc7d175be61"},"vehicle_type_id":"4","last_reported":1741119048,"current_range_meters":6400,"station_id":"ce4bhih2rcd13ifvqfr0","pricing_plan_id":"cebpf4jnsgd1na2vs0mg"},{"bike_id":"cbeb989b-1e6f-48ed-998d-e2792887d159","system_id":"levelo_inurba_marseille","lat":43.28114,"lon":5.37855,"is_reserved":false,"is_disabled":false,"rental_uris":{"android":"levelo://app?vid=cbeb989b-1e6f-48ed-998d-e2792887d159","ios":"levelo://app?vid=cbeb989b-1e6f-48ed-998d-e2792887d159"},"vehicle_type_id":"4","last_reported":1741119048,"current_range_meters":6400,"station_id":"ce4bha12rcd13ifvqee0","pricing_plan_id":"cebpf4jnsgd1na2vs0mg"},{"bike_id":"34198965-01fc-4d36-8ac8-36742420987d","system_id":"levelo_inurba_marseille","lat":43.2705,"lon":5.40266,"is_reserved":false,"is_disabled":false,"rental_uris":{"android":"levelo://app?vid=34198965-01fc-4d36-8ac8-36742420987d","ios":"levelo://app?vid=34198965-01fc-4d36-8ac8-36742420987d"},"vehicle_type_id":"4","last_reported":1741119048,"current_range_meters":6800,"station_id":"ce4bhk92rcd13ifvqgc0","pricing_plan_id":"cebpf4jnsgd1na2vs0mg"},{"bike_id":"d757d769-36a7-461b-8c3a-235fc8e92c2b","system_id":"levelo_inurba_marseille","lat":43.29268,"lon":5.38427,"is_reserved":false,"is_disabled":false,"rental_uris":{"android":"levelo://app?vid=d757d769-36a7-461b-8c3a-235fc8e92c2b","ios":"levelo://app?vid=d757d769-36a7-461b-8c3a-235fc8e92c2b"},"vehicle_type_id":"4","last_reported":1741119048,"current_range_meters":6800,"station_id":"ce4bh692rcd13ifvqea0","pricing_plan_id":"cebpf4jnsgd1na2vs0mg"},{"bike_id":"5d24545f-5896-40f1-bc04-227357551531","system_id":"levelo_inurba_marseille","lat":43.28978,"lon":5.37823,"is_reserved":false,"is_disabled":false,"rental_uris":{"android":"levelo://app?vid=5d24545f-5896-40f1-bc04-227357551531","ios":"levelo://app?vid=5d24545f-5896-40f1-bc04-227357551531"},"vehicle_type_id":"4","last_reported":1741119048,"current_range_meters":6800,"station_id":"ce4bh9p2rcd13ifvqed0","pricing_plan_id":"cebpf4jnsgd1na2vs0mg"},{"bike_id":"2fcd0949-7d80-44a4-9cb8-5322d541e1fd","system_id":"levelo_inurba_marseille","lat":43.31284,"lon":5.40166,"is_reserved":false,"is_disabled":false,"rental_uris":{"android":"levelo://app?vid=2fcd0949-7d80-44a4-9cb8-5322d541e1fd","ios":"levelo://app?vid=2fcd0949-7d80-44a4-9cb8-5322d541e1fd"},"vehicle_type_id":"4","last_reported":1741119048,"current_range_meters":6800,"station_id":"ce4bh092rcd13ifvqd30","pricing_plan_id":"cebpf4jnsgd1na2vs0mg"},{"bike_id":"7c56e753-c384-40ec-96b6-b270324269c6","system_id":"levelo_inurba_marseille","lat":43.26228,"lon":5.40451,"is_reserved":false,"is_disabled":false,"rental_uris":{"android":"levelo://app?vid=7c56e753-c384-40ec-96b6-b270324269c6","ios":"levelo://app?vid=7c56e753-c384-40ec-96b6-b270324269c6"},"vehicle_type_id":"4","last_reported":1741119048,"current_range_meters":6800,"station_id":"ce4bhmh2rcd13ifvqgmg","pricing_plan_id":"cebpf4jnsgd1na2vs0mg"},{"bike_id":"10d61af2-a218-4397-b179-939c5dec9f2f","system_id":"levelo_inurba_marseille","lat":43.26484,"lon":5.39554,"is_reserved":false,"is_disabled":false,"rental_uris":{"android":"levelo://app?vid=10d61af2-a218-4397-b179-939c5dec9f2f","ios":"levelo://app?vid=10d61af2-a218-4397-b179-939c5dec9f2f"},"vehicle_type_id":"4","last_reported":1741119048,"current_range_meters":6800,"station_id":"ce4bhi12rcd13ifvqfq0","pricing_plan_id":"cebpf4jnsgd1na2vs0mg"},{"bike_id":"4847309d-7e09-4234-968f-b7dd75adecbf","system_id":"levelo_inurba_marseille","lat":43.25084,"lon":5.39512,"is_reserved":false,"is_disabled":false,"rental_uris":{"android":"levelo://app?vid=4847309d-7e09-4234-968f-b7dd75adecbf","ios":"levelo://app?vid=4847309d-7e09-4234-968f-b7dd75adecbf"},"vehicle_type_id":"4","last_reported":1741119048,"current_range_meters":6800,"station_id":"ce4bhm12rcd13ifvqgkg","pricing_plan_id":"cebpf4jnsgd1na2vs0mg"},{"bike_id":"c0cb2966-b027-48f1-9372-6f4fbc702f7b","system_id":"levelo_inurba_marseille","lat":43.2892,"lon":5.38387,"is_reserved":false,"is_disabled":false,"rental_uris":{"android":"levelo://app?vid=c0cb2966-b027-48f1-9372-6f4fbc702f7b","ios":"levelo://app?vid=c0cb2966-b027-48f1-9372-6f4fbc702f7b"},"vehicle_type_id":"4","last_reported":1741119048,"current_range_meters":6800,"station_id":"ce4bh612rcd13ifvqe6g","pricing_plan_id":"cebpf4jnsgd1na2vs0mg"},{"bike_id":"3def793a-3d24-4dee-9622-bae54e3a444c","system_id":"levelo_inurba_marseille","lat":43.33025,"lon":5.39039,"is_reserved":false,"is_disabled":false,"rental_uris":{"android":"levelo://app?vid=3def793a-3d24-4dee-9622-bae54e3a444c","ios":"levelo://app?vid=3def793a-3d24-4dee-9622-bae54e3a444c"},"vehicle_type_id":"4","last_reported":1741119048,"current_range_meters":6800,"station_id":"ce4bhr92rcd13ifvqhrg","pricing_plan_id":"cebpf4jnsgd1na2vs0mg"},{"bike_id":"098e1208-3091-42bd-9bb4-612148ea4ada","system_id":"levelo_inurba_marseille","lat":43.23341,"lon":5.36011,"is_reserved":false,"is_disabled":false,"rental_uris":{"android":"levelo://app?vid=098e1208-3091-42bd-9bb4-612148ea4ada","ios":"levelo://app?vid=098e1208-3091-42bd-9bb4-612148ea4ada"},"vehicle_type_id":"4","last_reported":1741119048,"current_range_meters":6800,"station_id":"","pricing_plan_id":"cebpf4jnsgd1na2vs0mg"},{"bike_id":"c19080ff-e434-49dd-91c8-3cb01fd73f9b","system_id":"levelo_inurba_marseille","lat":43.29518,"lon":5.39055,"is_reserved":false,"is_disabled":false,"rental_uris":{"android":"levelo://app?vid=c19080ff-e434-49dd-91c8-3cb01fd73f9b","ios":"levelo://app?vid=c19080ff-e434-49dd-91c8-3cb01fd73f9b"},"vehicle_type_id":"4","last_reported":1741119048,"current_range_meters":6800,"station_id":"ce4bh3p2rcd13ifvqdp0","pricing_plan_id":"cebpf4jnsgd1na2vs0mg"},{"bike_id":"6f359f76-3a72-41be-9552-f3e86e80f519","system_id":"levelo_inurba_marseille","lat":43.31283,"lon":5.38447,"is_reserved":false,"is_disabled":false,"rental_uris":{"android":"levelo://app?vid=6f359f76-3a72-41be-9552-f3e86e80f519","ios":"levelo://app?vid=6f359f76-3a72-41be-9552-f3e86e80f519"},"vehicle_type_id":"4","last_reported":1741119048,"current_range_meters":6800,"station_id":"","pricing_plan_id":"cebpf4jnsgd1na2vs0mg"},{"bike_id":"c1c6d331-bef2-4ec2-b58e-cea42d9b5662","system_id":"levelo_inurba_marseille","lat":43.26757,"lon":5.39464,"is_reserved":false,"is_disabled":true,"rental_uris":{"android":"levelo://app?vid=c1c6d331-bef2-4ec2-b58e-cea42d9b5662","ios":"levelo://app?vid=c1c6d331-bef2-4ec2-b58e-cea42d9b5662"},"vehicle_type_id":"4","last_reported":1741119048,"current_range_meters":7200,"station_id":"ce4bhh12rcd13ifvqfg0","pricing_plan_id":"cebpf4jnsgd1na2vs0mg"},{"bike_id":"0b818497-4d97-451b-b637-cef3d02b5c9d","system_id":"levelo_inurba_marseille","lat":43.3169,"lon":5.43703,"is_reserved":false,"is_disabled":false,"rental_uris":{"android":"levelo://app?vid=0b818497-4d97-451b-b637-cef3d02b5c9d","ios":"levelo://app?vid=0b818497-4d97-451b-b637-cef3d02b5c9d"},"vehicle_type_id":"4","last_reported":1741119048,"current_range_meters":7200,"station_id":"ce4bhp92rcd13ifvqhcg","pricing_plan_id":"cebpf4jnsgd1na2vs0mg"},{"bike_id":"a21d80fa-a304-4401-8f70-3c0d7949bd39","system_id":"levelo_inurba_marseille","lat":43.294189,"lon":5.386145,"is_reserved":false,"is_disabled":false,"rental_uris":{"android":"levelo://app?vid=a21d80fa-a304-4401-8f70-3c0d7949bd39","ios":"levelo://app?vid=a21d80fa-a304-4401-8f70-3c0d7949bd39"},"vehicle_type_id":"4","last_reported":1741119048,"current_range_meters":7200,"station_id":"","pricing_plan_id":"cebpf4jnsgd1na2vs0mg"},{"bike_id":"83e13657-2b1f-4b00-8276-03c45d12c05c","system_id":"levelo_inurba_marseille","lat":43.23202,"lon":5.40003,"is_reserved":false,"is_disabled":false,"rental_uris":{"android":"levelo://app?vid=83e13657-2b1f-4b00-8276-03c45d12c05c","ios":"levelo://app?vid=83e13657-2b1f-4b00-8276-03c45d12c05c"},"vehicle_type_id":"4","last_reported":1741119048,"current_range_meters":7200,"station_id":"ce4bhn12rcd13ifvqgqg","pricing_plan_id":"cebpf4jnsgd1na2vs0mg"},{"bike_id":"13c44e5e-5463-4505-ba1b-c0544af7d8ca","system_id":"levelo_inurba_marseille","lat":43.23188,"lon":5.3555,"is_reserved":false,"is_disabled":false,"rental_uris":{"android":"levelo://app?vid=13c44e5e-5463-4505-ba1b-c0544af7d8ca","ios":"levelo://app?vid=13c44e5e-5463-4505-ba1b-c0544af7d8ca"},"vehicle_type_id":"4","last_reported":1741119048,"current_range_meters":7200,"station_id":"ce4bhu92rcd13ifvqi70","pricing_plan_id":"cebpf4jnsgd1na2vs0mg"},{"bike_id":"d76c2761-7a7a-498e-959a-aad13a1b47fa","system_id":"levelo_inurba_marseille","lat":43.29576,"lon":5.36726,"is_reserved":false,"is_disabled":false,"rental_uris":{"android":"levelo://app?vid=d76c2761-7a7a-498e-959a-aad13a1b47fa","ios":"levelo://app?vid=d76c2761-7a7a-498e-959a-aad13a1b47fa"},"vehicle_type_id":"4","last_reported":1741119048,"current_range_meters":7200,"station_id":"ce4bgph2rcd13ifvqc2g","pricing_plan_id":"cebpf4jnsgd1na2vs0mg"},{"bike_id":"c8cde401-392f-4424-ab6f-9347e43fda2c","system_id":"levelo_inurba_marseille","lat":43.31173,"lon":5.3872,"is_reserved":false,"is_disabled":false,"rental_uris":{"android":"levelo://app?vid=c8cde401-392f-4424-ab6f-9347e43fda2c","ios":"levelo://app?vid=c8cde401-392f-4424-ab6f-9347e43fda2c"},"vehicle_type_id":"4","last_reported":1741119048,"current_range_meters":7200,"station_id":"ce4bgv12rcd13ifvqcp0","pricing_plan_id":"cebpf4jnsgd1na2vs0mg"},{"bike_id":"4953908e-c12d-41ee-881a-cce039598782","system_id":"levelo_inurba_marseille","lat":43.30805,"lon":5.43523,"is_reserved":false,"is_disabled":false,"rental_uris":{"android":"levelo://app?vid=4953908e-c12d-41ee-881a-cce039598782","ios":"levelo://app?vid=4953908e-c12d-41ee-881a-cce039598782"},"vehicle_type_id":"4","last_reported":1741119048,"current_range_meters":7200,"station_id":"ce4bhph2rcd13ifvqheg","pricing_plan_id":"cebpf4jnsgd1na2vs0mg"},{"bike_id":"48b630d1-9760-4929-9b11-b92e22cf6290","system_id":"levelo_inurba_marseille","lat":43.30636,"lon":5.40097,"is_reserved":false,"is_disabled":false,"rental_uris":{"android":"levelo://app?vid=48b630d1-9760-4929-9b11-b92e22cf6290","ios":"levelo://app?vid=48b630d1-9760-4929-9b11-b92e22cf6290"},"vehicle_type_id":"4","last_reported":1741119048,"current_range_meters":7200,"station_id":"ce4bh112rcd13ifvqda0","pricing_plan_id":"cebpf4jnsgd1na2vs0mg"},{"bike_id":"1f8d912f-9675-47af-bf3e-f08f23f8ef22","system_id":"levelo_inurba_marseille","lat":43.31716,"lon":5.437,"is_reserved":false,"is_disabled":false,"rental_uris":{"android":"levelo://app?vid=1f8d912f-9675-47af-bf3e-f08f23f8ef22","ios":"levelo://app?vid=1f8d912f-9675-47af-bf3e-f08f23f8ef22"},"vehicle_type_id":"4","last_reported":1741119048,"current_range_meters":8000,"station_id":"ce4bhp92rcd13ifvqhcg","pricing_plan_id":"cebpf4jnsgd1na2vs0mg"},{"bike_id":"22ff5ed0-3b00-49c8-aa12-a3c3a0bfbc05","system_id":"levelo_inurba_marseille","lat":43.29299,"lon":5.3851,"is_reserved":false,"is_disabled":false,"rental_uris":{"android":"levelo://app?vid=22ff5ed0-3b00-49c8-aa12-a3c3a0bfbc05","ios":"levelo://app?vid=22ff5ed0-3b00-49c8-aa12-a3c3a0bfbc05"},"vehicle_type_id":"4","last_reported":1741119048,"current_range_meters":8000,"station_id":"","pricing_plan_id":"cebpf4jnsgd1na2vs0mg"},{"bike_id":"6522d8fe-a033-424f-b842-952e814d7413","system_id":"levelo_inurba_marseille","lat":43.27967,"lon":5.41062,"is_reserved":false,"is_disabled":false,"rental_uris":{"android":"levelo://app?vid=6522d8fe-a033-424f-b842-952e814d7413","ios":"levelo://app?vid=6522d8fe-a033-424f-b842-952e814d7413"},"vehicle_type_id":"4","last_reported":1741119048,"current_range_meters":8000,"station_id":"ce4bhnp2rcd13ifvqh0g","pricing_plan_id":"cebpf4jnsgd1na2vs0mg"},{"bike_id":"4e90ca10-f656-43c5-8362-9f409237258a","system_id":"levelo_inurba_marseille","lat":43.2989,"lon":5.39771,"is_reserved":false,"is_disabled":false,"rental_uris":{"android":"levelo://app?vid=4e90ca10-f656-43c5-8362-9f409237258a","ios":"levelo://app?vid=4e90ca10-f656-43c5-8362-9f409237258a"},"vehicle_type_id":"4","last_reported":1741119048,"current_range_meters":8000,"station_id":"ce4bh0h2rcd13ifvqd50","pricing_plan_id":"cebpf4jnsgd1na2vs0mg"},{"bike_id":"fa00760a-3a61-4c7a-8148-e9ea0f8a5891","system_id":"levelo_inurba_marseille","lat":43.24419,"lon":5.37043,"is_reserved":false,"is_disabled":false,"rental_uris":{"android":"levelo://app?vid=fa00760a-3a61-4c7a-8148-e9ea0f8a5891","ios":"levelo://app?vid=fa00760a-3a61-4c7a-8148-e9ea0f8a5891"},"vehicle_type_id":"4","last_reported":1741119048,"current_range_meters":8000,"station_id":"ce4bhhh2rcd13ifvqfk0","pricing_plan_id":"cebpf4jnsgd1na2vs0mg"},{"bike_id":"64953142-7637-42b4-b0d1-c449e63f1db7","system_id":"levelo_inurba_marseille","lat":43.296367,"lon":5.36015,"is_reserved":false,"is_disabled":false,"rental_uris":{"android":"levelo://app?vid=64953142-7637-42b4-b0d1-c449e63f1db7","ios":"levelo://app?vid=64953142-7637-42b4-b0d1-c449e63f1db7"},"vehicle_type_id":"4","last_reported":1741119048,"current_range_meters":8000,"station_id":"","pricing_plan_id":"cebpf4jnsgd1na2vs0mg"},{"bike_id":"90034b26-6125-4c5a-8954-f420a2b0e96f","system_id":"levelo_inurba_marseille","lat":43.28671,"lon":5.38671,"is_reserved":false,"is_disabled":false,"rental_uris":{"android":"levelo://app?vid=90034b26-6125-4c5a-8954-f420a2b0e96f","ios":"levelo://app?vid=90034b26-6125-4c5a-8954-f420a2b0e96f"},"vehicle_type_id":"4","last_reported":1741119048,"current_range_meters":8000,"station_id":"ce4bh492rcd13ifvqdug","pricing_plan_id":"cebpf4jnsgd1na2vs0mg"},{"bike_id":"8c09e45d-b7a1-454d-bb26-42edbaaac246","system_id":"levelo_inurba_marseille","lat":43.27697,"lon":5.41179,"is_reserved":false,"is_disabled":false,"rental_uris":{"android":"levelo://app?vid=8c09e45d-b7a1-454d-bb26-42edbaaac246","ios":"levelo://app?vid=8c09e45d-b7a1-454d-bb26-42edbaaac246"},"vehicle_type_id":"4","last_reported":1741119048,"current_range_meters":8000,"station_id":"","pricing_plan_id":"cebpf4jnsgd1na2vs0mg"},{"bike_id":"89318145-9eb0-465a-b07a-e13ca76565f9","system_id":"levelo_inurba_marseille","lat":43.2799,"lon":5.40019,"is_reserved":false,"is_disabled":false,"rental_uris":{"android":"levelo://app?vid=89318145-9eb0-465a-b07a-e13ca76565f9","ios":"levelo://app?vid=89318145-9eb0-465a-b07a-e13ca76565f9"},"vehicle_type_id":"4","last_reported":1741119048,"current_range_meters":8400,"station_id":"ce4bho92rcd13ifvqh4g","pricing_plan_id":"cebpf4jnsgd1na2vs0mg"},{"bike_id":"4d031821-b90c-420c-be9f-756d9af38822","system_id":"levelo_inurba_marseille","lat":43.27706,"lon":5.40719,"is_reserved":false,"is_disabled":false,"rental_uris":{"android":"levelo://app?vid=4d031821-b90c-420c-be9f-756d9af38822","ios":"levelo://app?vid=4d031821-b90c-420c-be9f-756d9af38822"},"vehicle_type_id":"4","last_reported":1741119048,"current_range_meters":8400,"station_id":"","pricing_plan_id":"cebpf4jnsgd1na2vs0mg"},{"bike_id":"30b17250-432f-436d-beee-9af35d478158","system_id":"levelo_inurba_marseille","lat":43.31722,"lon":5.43696,"is_reserved":false,"is_disabled":false,"rental_uris":{"android":"levelo://app?vid=30b17250-432f-436d-beee-9af35d478158","ios":"levelo://app?vid=30b17250-432f-436d-beee-9af35d478158"},"vehicle_type_id":"4","last_reported":1741119048,"current_range_meters":8400,"station_id":"ce4bhp92rcd13ifvqhcg","pricing_plan_id":"cebpf4jnsgd1na2vs0mg"},{"bike_id":"7cf386a1-f879-4a1b-a7c4-9eebe0c89ca8","system_id":"levelo_inurba_marseille","lat":43.28084,"lon":5.39659,"is_reserved":false,"is_disabled":false,"rental_uris":{"android":"levelo://app?vid=7cf386a1-f879-4a1b-a7c4-9eebe0c89ca8","ios":"levelo://app?vid=7cf386a1-f879-4a1b-a7c4-9eebe0c89ca8"},"vehicle_type_id":"4","last_reported":1741119048,"current_range_meters":8400,"station_id":"ce4bho12rcd13ifvqh2g","pricing_plan_id":"cebpf4jnsgd1na2vs0mg"},{"bike_id":"e2cac07f-2e5f-40e6-85dc-c3def63c2502","system_id":"levelo_inurba_marseille","lat":43.29257,"lon":5.38444,"is_reserved":false,"is_disabled":false,"rental_uris":{"android":"levelo://app?vid=e2cac07f-2e5f-40e6-85dc-c3def63c2502","ios":"levelo://app?vid=e2cac07f-2e5f-40e6-85dc-c3def63c2502"},"vehicle_type_id":"4","last_reported":1741119048,"current_range_meters":8400,"station_id":"ce4bh692rcd13ifvqea0","pricing_plan_id":"cebpf4jnsgd1na2vs0mg"},{"bike_id":"60d031a8-24b1-4366-8e11-42c4737cb648","system_id":"levelo_inurba_marseille","lat":43.31369,"lon":5.38494,"is_reserved":false,"is_disabled":false,"rental_uris":{"android":"levelo://app?vid=60d031a8-24b1-4366-8e11-42c4737cb648","ios":"levelo://app?vid=60d031a8-24b1-4366-8e11-42c4737cb648"},"vehicle_type_id":"4","last_reported":1741119048,"current_range_meters":8400,"station_id":"ce4bgt92rcd13ifvqcf0","pricing_plan_id":"cebpf4jnsgd1na2vs0mg"},{"bike_id":"5b72e45d-01fb-4eaf-8071-a1e78c4dc0c5","system_id":"levelo_inurba_marseille","lat":43.27949,"lon":5.41054,"is_reserved":false,"is_disabled":false,"rental_uris":{"android":"levelo://app?vid=5b72e45d-01fb-4eaf-8071-a1e78c4dc0c5","ios":"levelo://app?vid=5b72e45d-01fb-4eaf-8071-a1e78c4dc0c5"},"vehicle_type_id":"4","last_reported":1741119048,"current_range_meters":8400,"station_id":"ce4bhnp2rcd13ifvqh0g","pricing_plan_id":"cebpf4jnsgd1na2vs0mg"},{"bike_id":"32ec58ac-1836-4fb6-ae91-f231fbc95936","system_id":"levelo_inurba_marseille","lat":43.32117,"lon":5.40957,"is_reserved":false,"is_disabled":false,"rental_uris":{"android":"levelo://app?vid=32ec58ac-1836-4fb6-ae91-f231fbc95936","ios":"levelo://app?vid=32ec58ac-1836-4fb6-ae91-f231fbc95936"},"vehicle_type_id":"4","last_reported":1741119048,"current_range_meters":8400,"station_id":"","pricing_plan_id":"cebpf4jnsgd1na2vs0mg"},{"bike_id":"ef586f23-ee4b-465a-84b4-b76ec36bdcf2","system_id":"levelo_inurba_marseille","lat":43.28427,"lon":5.37529,"is_reserved":false,"is_disabled":false,"rental_uris":{"android":"levelo://app?vid=ef586f23-ee4b-465a-84b4-b76ec36bdcf2","ios":"levelo://app?vid=ef586f23-ee4b-465a-84b4-b76ec36bdcf2"},"vehicle_type_id":"4","last_reported":1741119048,"current_range_meters":8400,"station_id":"ce4bh412rcd13ifvqds0","pricing_plan_id":"cebpf4jnsgd1na2vs0mg"},{"bike_id":"88d87003-c361-403a-bd17-494750314acf","system_id":"levelo_inurba_marseille","lat":43.24801,"lon":5.37457,"is_reserved":false,"is_disabled":false,"rental_uris":{"android":"levelo://app?vid=88d87003-c361-403a-bd17-494750314acf","ios":"levelo://app?vid=88d87003-c361-403a-bd17-494750314acf"},"vehicle_type_id":"4","last_reported":1741119048,"current_range_meters":8400,"station_id":"ce4bhgh2rcd13ifvqfb0","pricing_plan_id":"cebpf4jnsgd1na2vs0mg"},{"bike_id":"b1b9d5a8-7fcf-4f7d-8b39-b1ba79ed8c1e","system_id":"levelo_inurba_marseille","lat":43.27911,"lon":5.3958,"is_reserved":false,"is_disabled":false,"rental_uris":{"android":"levelo://app?vid=b1b9d5a8-7fcf-4f7d-8b39-b1ba79ed8c1e","ios":"levelo://app?vid=b1b9d5a8-7fcf-4f7d-8b39-b1ba79ed8c1e"},"vehicle_type_id":"4","last_reported":1741119048,"current_range_meters":8800,"station_id":"ce4bhf92rcd13ifvqf40","pricing_plan_id":"cebpf4jnsgd1na2vs0mg"},{"bike_id":"f9e6d230-69c5-4095-84ed-f5e6a773b409","system_id":"levelo_inurba_marseille","lat":43.31163,"lon":5.38707,"is_reserved":false,"is_disabled":false,"rental_uris":{"android":"levelo://app?vid=f9e6d230-69c5-4095-84ed-f5e6a773b409","ios":"levelo://app?vid=f9e6d230-69c5-4095-84ed-f5e6a773b409"},"vehicle_type_id":"4","last_reported":1741119048,"current_range_meters":8800,"station_id":"ce4bgv12rcd13ifvqcp0","pricing_plan_id":"cebpf4jnsgd1na2vs0mg"},{"bike_id":"2f2997b2-435b-4046-83a1-e6ed0b0f0bde","system_id":"levelo_inurba_marseille","lat":43.24685,"lon":5.38102,"is_reserved":false,"is_disabled":false,"rental_uris":{"android":"levelo://app?vid=2f2997b2-435b-4046-83a1-e6ed0b0f0bde","ios":"levelo://app?vid=2f2997b2-435b-4046-83a1-e6ed0b0f0bde"},"vehicle_type_id":"4","last_reported":1741119048,"current_range_meters":8800,"station_id":"ce4bhih2rcd13ifvqfr0","pricing_plan_id":"cebpf4jnsgd1na2vs0mg"},{"bike_id":"d952bf0e-e992-4385-8be0-ab03fcfafdf1","system_id":"levelo_inurba_marseille","lat":43.29557,"lon":5.4229,"is_reserved":false,"is_disabled":false,"rental_uris":{"android":"levelo://app?vid=d952bf0e-e992-4385-8be0-ab03fcfafdf1","ios":"levelo://app?vid=d952bf0e-e992-4385-8be0-ab03fcfafdf1"},"vehicle_type_id":"4","last_reported":1741119048,"current_range_meters":8800,"station_id":"ce4bhph2rcd13ifvqhdg","pricing_plan_id":"cebpf4jnsgd1na2vs0mg"},{"bike_id":"4c818eea-19df-48bf-9ce4-555acae93297","system_id":"levelo_inurba_marseille","lat":43.28265,"lon":5.35122,"is_reserved":false,"is_disabled":false,"rental_uris":{"android":"levelo://app?vid=4c818eea-19df-48bf-9ce4-555acae93297","ios":"levelo://app?vid=4c818eea-19df-48bf-9ce4-555acae93297"},"vehicle_type_id":"4","last_reported":1741119048,"current_range_meters":8800,"station_id":"ce4bhbp2rcd13ifvqerg","pricing_plan_id":"cebpf4jnsgd1na2vs0mg"},{"bike_id":"afe37ceb-95ba-4f08-a1be-d4cf0e40900e","system_id":"levelo_inurba_marseille","lat":43.29527,"lon":5.3785,"is_reserved":false,"is_disabled":false,"rental_uris":{"android":"levelo://app?vid=afe37ceb-95ba-4f08-a1be-d4cf0e40900e","ios":"levelo://app?vid=afe37ceb-95ba-4f08-a1be-d4cf0e40900e"},"vehicle_type_id":"4","last_reported":1741119048,"current_range_meters":8800,"station_id":"","pricing_plan_id":"cebpf4jnsgd1na2vs0mg"},{"bike_id":"48d28e38-4ec2-4e1e-b64a-7d4b817a6fea","system_id":"levelo_inurba_marseille","lat":43.23188,"lon":5.39976,"is_reserved":false,"is_disabled":false,"rental_uris":{"android":"levelo://app?vid=48d28e38-4ec2-4e1e-b64a-7d4b817a6fea","ios":"levelo://app?vid=48d28e38-4ec2-4e1e-b64a-7d4b817a6fea"},"vehicle_type_id":"4","last_reported":1741119048,"current_range_meters":8800,"station_id":"ce4bhn12rcd13ifvqgqg","pricing_plan_id":"cebpf4jnsgd1na2vs0mg"},{"bike_id":"0f9ddea6-1d75-4d7a-86df-1ec423c3282c","system_id":"levelo_inurba_marseille","lat":43.28019,"lon":5.40027,"is_reserved":false,"is_disabled":false,"rental_uris":{"android":"levelo://app?vid=0f9ddea6-1d75-4d7a-86df-1ec423c3282c","ios":"levelo://app?vid=0f9ddea6-1d75-4d7a-86df-1ec423c3282c"},"vehicle_type_id":"4","last_reported":1741119048,"current_range_meters":8800,"station_id":"ce4bho92rcd13ifvqh4g","pricing_plan_id":"cebpf4jnsgd1na2vs0mg"},{"bike_id":"7fd36018-1682-424c-94e6-c1b74147c997","system_id":"levelo_inurba_marseille","lat":43.27985,"lon":5.40021,"is_reserved":false,"is_disabled":false,"rental_uris":{"android":"levelo://app?vid=7fd36018-1682-424c-94e6-c1b74147c997","ios":"levelo://app?vid=7fd36018-1682-424c-94e6-c1b74147c997"},"vehicle_type_id":"4","last_reported":1741119048,"current_range_meters":8800,"station_id":"ce4bho92rcd13ifvqh4g","pricing_plan_id":"cebpf4jnsgd1na2vs0mg"},{"bike_id":"67f170b2-c527-4f82-a5e7-48060deabad3","system_id":"levelo_inurba_marseille","lat":43.28051,"lon":5.36948,"is_reserved":false,"is_disabled":false,"rental_uris":{"android":"levelo://app?vid=67f170b2-c527-4f82-a5e7-48060deabad3","ios":"levelo://app?vid=67f170b2-c527-4f82-a5e7-48060deabad3"},"vehicle_type_id":"4","last_reported":1741119048,"current_range_meters":8800,"station_id":"ce4bha12rcd13ifvqef0","pricing_plan_id":"cebpf4jnsgd1na2vs0mg"},{"bike_id":"a99b6ca0-cb75-4009-9bd5-71d003bb1668","system_id":"levelo_inurba_marseille","lat":43.24798,"lon":5.37462,"is_reserved":false,"is_disabled":false,"rental_uris":{"android":"levelo://app?vid=a99b6ca0-cb75-4009-9bd5-71d003bb1668","ios":"levelo://app?vid=a99b6ca0-cb75-4009-9bd5-71d003bb1668"},"vehicle_type_id":"4","last_reported":1741119048,"current_range_meters":8800,"station_id":"ce4bhgh2rcd13ifvqfb0","pricing_plan_id":"cebpf4jnsgd1na2vs0mg"},{"bike_id":"6505a35c-aa27-4080-a0b8-ca40d72e6c5a","system_id":"levelo_inurba_marseille","lat":43.28837,"lon":5.39292,"is_reserved":false,"is_disabled":false,"rental_uris":{"android":"levelo://app?vid=6505a35c-aa27-4080-a0b8-ca40d72e6c5a","ios":"levelo://app?vid=6505a35c-aa27-4080-a0b8-ca40d72e6c5a"},"vehicle_type_id":"4","last_reported":1741119048,"current_range_meters":8400,"station_id":"ce4bh2p2rcd13ifvqdi0","pricing_plan_id":"cebpf4jnsgd1na2vs0mg"},{"bike_id":"13cc4aae-49e8-44f7-bfab-719bb6820256","system_id":"levelo_inurba_marseille","lat":43.27837,"lon":5.40725,"is_reserved":false,"is_disabled":true,"rental_uris":{"android":"levelo://app?vid=13cc4aae-49e8-44f7-bfab-719bb6820256","ios":"levelo://app?vid=13cc4aae-49e8-44f7-bfab-719bb6820256"},"vehicle_type_id":"4","last_reported":1741119048,"current_range_meters":8800,"station_id":"ce4bhnh2rcd13ifvqgtg","pricing_plan_id":"cebpf4jnsgd1na2vs0mg"},{"bike_id":"70c36bdc-c2f1-4305-8335-23864614c1d2","system_id":"levelo_inurba_marseille","lat":43.30302,"lon":5.39194,"is_reserved":false,"is_disabled":false,"rental_uris":{"android":"levelo://app?vid=70c36bdc-c2f1-4305-8335-23864614c1d2","ios":"levelo://app?vid=70c36bdc-c2f1-4305-8335-23864614c1d2"},"vehicle_type_id":"4","last_reported":1741119048,"current_range_meters":9200,"station_id":"ce4bgkh2rcd13ifvqbk0","pricing_plan_id":"cebpf4jnsgd1na2vs0mg"},{"bike_id":"1eed803b-2aca-4bf8-b6c5-88a1f7cbc44f","system_id":"levelo_inurba_marseille","lat":43.29043,"lon":5.38637,"is_reserved":false,"is_disabled":false,"rental_uris":{"android":"levelo://app?vid=1eed803b-2aca-4bf8-b6c5-88a1f7cbc44f","ios":"levelo://app?vid=1eed803b-2aca-4bf8-b6c5-88a1f7cbc44f"},"vehicle_type_id":"4","last_reported":1741119048,"current_range_meters":8400,"station_id":"ce4bh4p2rcd13ifvqe0g","pricing_plan_id":"cebpf4jnsgd1na2vs0mg"},{"bike_id":"f7dd2f31-e3f3-4254-8a69-306a2ef063c9","system_id":"levelo_inurba_marseille","lat":43.29262,"lon":5.38438,"is_reserved":false,"is_disabled":false,"rental_uris":{"android":"levelo://app?vid=f7dd2f31-e3f3-4254-8a69-306a2ef063c9","ios":"levelo://app?vid=f7dd2f31-e3f3-4254-8a69-306a2ef063c9"},"vehicle_type_id":"4","last_reported":1741119048,"current_range_meters":8800,"station_id":"ce4bh692rcd13ifvqea0","pricing_plan_id":"cebpf4jnsgd1na2vs0mg"},{"bike_id":"40592169-4d72-4b69-a512-be614d00ab33","system_id":"levelo_inurba_marseille","lat":43.28074,"lon":5.39651,"is_reserved":false,"is_disabled":false,"rental_uris":{"android":"levelo://app?vid=40592169-4d72-4b69-a512-be614d00ab33","ios":"levelo://app?vid=40592169-4d72-4b69-a512-be614d00ab33"},"vehicle_type_id":"4","last_reported":1741119048,"current_range_meters":8800,"station_id":"ce4bho12rcd13ifvqh2g","pricing_plan_id":"cebpf4jnsgd1na2vs0mg"},{"bike_id":"82cf1890-6fc9-45de-a4c6-a2860b6ad381","system_id":"levelo_inurba_marseille","lat":43.30932,"lon":5.39681,"is_reserved":false,"is_disabled":false,"rental_uris":{"android":"levelo://app?vid=82cf1890-6fc9-45de-a4c6-a2860b6ad381","ios":"levelo://app?vid=82cf1890-6fc9-45de-a4c6-a2860b6ad381"},"vehicle_type_id":"4","last_reported":1741119048,"current_range_meters":9200,"station_id":"ce4bh012rcd13ifvqcv0","pricing_plan_id":"cebpf4jnsgd1na2vs0mg"},{"bike_id":"39fbed77-4b9c-4f8d-bb61-98aaba0b0ee1","system_id":"levelo_inurba_marseille","lat":43.28091,"lon":5.39641,"is_reserved":false,"is_disabled":false,"rental_uris":{"android":"levelo://app?vid=39fbed77-4b9c-4f8d-bb61-98aaba0b0ee1","ios":"levelo://app?vid=39fbed77-4b9c-4f8d-bb61-98aaba0b0ee1"},"vehicle_type_id":"4","last_reported":1741119048,"current_range_meters":9200,"station_id":"ce4bho12rcd13ifvqh2g","pricing_plan_id":"cebpf4jnsgd1na2vs0mg"},{"bike_id":"1ebc3531-977b-4008-9b89-c777084f1c70","system_id":"levelo_inurba_marseille","lat":43.27812,"lon":5.40718,"is_reserved":false,"is_disabled":false,"rental_uris":{"android":"levelo://app?vid=1ebc3531-977b-4008-9b89-c777084f1c70","ios":"levelo://app?vid=1ebc3531-977b-4008-9b89-c777084f1c70"},"vehicle_type_id":"4","last_reported":1741119048,"current_range_meters":9200,"station_id":"ce4bhnh2rcd13ifvqgtg","pricing_plan_id":"cebpf4jnsgd1na2vs0mg"},{"bike_id":"8caa3965-8df2-4769-ba39-b1c61d160a62","system_id":"levelo_inurba_marseille","lat":43.28634,"lon":5.35087,"is_reserved":false,"is_disabled":false,"rental_uris":{"android":"levelo://app?vid=8caa3965-8df2-4769-ba39-b1c61d160a62","ios":"levelo://app?vid=8caa3965-8df2-4769-ba39-b1c61d160a62"},"vehicle_type_id":"4","last_reported":1741119048,"current_range_meters":9200,"station_id":"ce4bhch2rcd13ifvqeug","pricing_plan_id":"cebpf4jnsgd1na2vs0mg"},{"bike_id":"cd6ba5d8-b773-4299-a158-af911ba3b385","system_id":"levelo_inurba_marseille","lat":43.3059,"lon":5.39355,"is_reserved":false,"is_disabled":false,"rental_uris":{"android":"levelo://app?vid=cd6ba5d8-b773-4299-a158-af911ba3b385","ios":"levelo://app?vid=cd6ba5d8-b773-4299-a158-af911ba3b385"},"vehicle_type_id":"4","last_reported":1741119048,"current_range_meters":9200,"station_id":"ce4bh0p2rcd13ifvqd80","pricing_plan_id":"cebpf4jnsgd1na2vs0mg"},{"bike_id":"16422601-b06e-4432-b609-e1ea0e7ea850","system_id":"levelo_inurba_marseille","lat":43.26249,"lon":5.4049,"is_reserved":false,"is_disabled":false,"rental_uris":{"android":"levelo://app?vid=16422601-b06e-4432-b609-e1ea0e7ea850","ios":"levelo://app?vid=16422601-b06e-4432-b609-e1ea0e7ea850"},"vehicle_type_id":"4","last_reported":1741119048,"current_range_meters":9200,"station_id":"","pricing_plan_id":"cebpf4jnsgd1na2vs0mg"},{"bike_id":"4bc22bc8-57d9-4e3e-bbf9-5bb2e57875a0","system_id":"levelo_inurba_marseille","lat":43.27811,"lon":5.40694,"is_reserved":false,"is_disabled":false,"rental_uris":{"android":"levelo://app?vid=4bc22bc8-57d9-4e3e-bbf9-5bb2e57875a0","ios":"levelo://app?vid=4bc22bc8-57d9-4e3e-bbf9-5bb2e57875a0"},"vehicle_type_id":"4","last_reported":1741119048,"current_range_meters":9200,"station_id":"ce4bhnh2rcd13ifvqgtg","pricing_plan_id":"cebpf4jnsgd1na2vs0mg"},{"bike_id":"b8dacfd7-6aa1-4cb2-ac25-dfdf82e53218","system_id":"levelo_inurba_marseille","lat":43.32326,"lon":5.38883,"is_reserved":false,"is_disabled":false,"rental_uris":{"android":"levelo://app?vid=b8dacfd7-6aa1-4cb2-ac25-dfdf82e53218","ios":"levelo://app?vid=b8dacfd7-6aa1-4cb2-ac25-dfdf82e53218"},"vehicle_type_id":"4","last_reported":1741119048,"current_range_meters":9200,"station_id":"ce4bhqp2rcd13ifvqhog","pricing_plan_id":"cebpf4jnsgd1na2vs0mg"},{"bike_id":"119408e4-7624-4320-bf5e-e4f029d82dc4","system_id":"levelo_inurba_marseille","lat":43.2872,"lon":5.39997,"is_reserved":false,"is_disabled":true,"rental_uris":{"android":"levelo://app?vid=119408e4-7624-4320-bf5e-e4f029d82dc4","ios":"levelo://app?vid=119408e4-7624-4320-bf5e-e4f029d82dc4"},"vehicle_type_id":"4","last_reported":1741119048,"current_range_meters":9200,"station_id":"ce4bho92rcd13ifvqh3g","pricing_plan_id":"cebpf4jnsgd1na2vs0mg"},{"bike_id":"673a0145-2d59-42c5-a9c3-2acb956f3a40","system_id":"levelo_inurba_marseille","lat":43.24807,"lon":5.37463,"is_reserved":false,"is_disabled":false,"rental_uris":{"android":"levelo://app?vid=673a0145-2d59-42c5-a9c3-2acb956f3a40","ios":"levelo://app?vid=673a0145-2d59-42c5-a9c3-2acb956f3a40"},"vehicle_type_id":"4","last_reported":1741119048,"current_range_meters":9200,"station_id":"ce4bhgh2rcd13ifvqfb0","pricing_plan_id":"cebpf4jnsgd1na2vs0mg"},{"bike_id":"ea6a4a15-a453-498d-be30-f6d5d98c6c99","system_id":"levelo_inurba_marseille","lat":43.26812,"lon":5.40263,"is_reserved":false,"is_disabled":false,"rental_uris":{"android":"levelo://app?vid=ea6a4a15-a453-498d-be30-f6d5d98c6c99","ios":"levelo://app?vid=ea6a4a15-a453-498d-be30-f6d5d98c6c99"},"vehicle_type_id":"4","last_reported":1741119048,"current_range_meters":9600,"station_id":"ce501612rcd8frsf0b60","pricing_plan_id":"cebpf4jnsgd1na2vs0mg"},{"bike_id":"ee1d2ad1-36ca-49dd-a328-f2a9a9994ecb","system_id":"levelo_inurba_marseille","lat":43.31069,"lon":5.38134,"is_reserved":false,"is_disabled":false,"rental_uris":{"android":"levelo://app?vid=ee1d2ad1-36ca-49dd-a328-f2a9a9994ecb","ios":"levelo://app?vid=ee1d2ad1-36ca-49dd-a328-f2a9a9994ecb"},"vehicle_type_id":"4","last_reported":1741119048,"current_range_meters":9600,"station_id":"","pricing_plan_id":"cebpf4jnsgd1na2vs0mg"},{"bike_id":"6178d4a3-6d1b-438c-ac71-a61f5db2dfc0","system_id":"levelo_inurba_marseille","lat":43.27813,"lon":5.40715,"is_reserved":false,"is_disabled":false,"rental_uris":{"android":"levelo://app?vid=6178d4a3-6d1b-438c-ac71-a61f5db2dfc0","ios":"levelo://app?vid=6178d4a3-6d1b-438c-ac71-a61f5db2dfc0"},"vehicle_type_id":"4","last_reported":1741119048,"current_range_meters":9600,"station_id":"ce4bhnh2rcd13ifvqgtg","pricing_plan_id":"cebpf4jnsgd1na2vs0mg"},{"bike_id":"53f068fa-f1d9-412b-a167-bcf2cb1ede53","system_id":"levelo_inurba_marseille","lat":43.31887,"lon":5.40737,"is_reserved":false,"is_disabled":false,"rental_uris":{"android":"levelo://app?vid=53f068fa-f1d9-412b-a167-bcf2cb1ede53","ios":"levelo://app?vid=53f068fa-f1d9-412b-a167-bcf2cb1ede53"},"vehicle_type_id":"4","last_reported":1741119048,"current_range_meters":9200,"station_id":"ce4bhq12rcd13ifvqhig","pricing_plan_id":"cebpf4jnsgd1na2vs0mg"},{"bike_id":"30b7c3e8-6592-4d15-9206-baa170e6133a","system_id":"levelo_inurba_marseille","lat":43.29524,"lon":5.39026,"is_reserved":false,"is_disabled":false,"rental_uris":{"android":"levelo://app?vid=30b7c3e8-6592-4d15-9206-baa170e6133a","ios":"levelo://app?vid=30b7c3e8-6592-4d15-9206-baa170e6133a"},"vehicle_type_id":"4","last_reported":1741119048,"current_range_meters":9600,"station_id":"ce4bh3p2rcd13ifvqdp0","pricing_plan_id":"cebpf4jnsgd1na2vs0mg"},{"bike_id":"6805d7b7-3709-4159-a850-aceccba0c126","system_id":"levelo_inurba_marseille","lat":43.31758,"lon":5.39029,"is_reserved":false,"is_disabled":false,"rental_uris":{"android":"levelo://app?vid=6805d7b7-3709-4159-a850-aceccba0c126","ios":"levelo://app?vid=6805d7b7-3709-4159-a850-aceccba0c126"},"vehicle_type_id":"4","last_reported":1741119048,"current_range_meters":9600,"station_id":"ce4bhqp2rcd13ifvqhng","pricing_plan_id":"cebpf4jnsgd1na2vs0mg"},{"bike_id":"41077412-3a41-4a40-8906-1b3127b18d15","system_id":"levelo_inurba_marseille","lat":43.27929,"lon":5.38011,"is_reserved":false,"is_disabled":false,"rental_uris":{"android":"levelo://app?vid=41077412-3a41-4a40-8906-1b3127b18d15","ios":"levelo://app?vid=41077412-3a41-4a40-8906-1b3127b18d15"},"vehicle_type_id":"4","last_reported":1741119048,"current_range_meters":9600,"station_id":"ce4bhf92rcd13ifvqf50","pricing_plan_id":"cebpf4jnsgd1na2vs0mg"},{"bike_id":"b733ca8c-93af-4b91-899d-9cb251933370","system_id":"levelo_inurba_marseille","lat":43.28011,"lon":5.39984,"is_reserved":false,"is_disabled":false,"rental_uris":{"android":"levelo://app?vid=b733ca8c-93af-4b91-899d-9cb251933370","ios":"levelo://app?vid=b733ca8c-93af-4b91-899d-9cb251933370"},"vehicle_type_id":"4","last_reported":1741119048,"current_range_meters":9600,"station_id":"ce4bho92rcd13ifvqh4g","pricing_plan_id":"cebpf4jnsgd1na2vs0mg"},{"bike_id":"dfc6d8cf-8bde-4e87-8908-fe30f2570195","system_id":"levelo_inurba_marseille","lat":43.30298,"lon":5.36881,"is_reserved":false,"is_disabled":false,"rental_uris":{"android":"levelo://app?vid=dfc6d8cf-8bde-4e87-8908-fe30f2570195","ios":"levelo://app?vid=dfc6d8cf-8bde-4e87-8908-fe30f2570195"},"vehicle_type_id":"4","last_reported":1741119048,"current_range_meters":9600,"station_id":"ce4bgqh2rcd13ifvqc5g","pricing_plan_id":"cebpf4jnsgd1na2vs0mg"},{"bike_id":"44a7153b-0fd7-4509-836b-676bbf84fb06","system_id":"levelo_inurba_marseille","lat":43.23191,"lon":5.35583,"is_reserved":false,"is_disabled":false,"rental_uris":{"android":"levelo://app?vid=44a7153b-0fd7-4509-836b-676bbf84fb06","ios":"levelo://app?vid=44a7153b-0fd7-4509-836b-676bbf84fb06"},"vehicle_type_id":"4","last_reported":1741119048,"current_range_meters":9600,"station_id":"ce4bhu92rcd13ifvqi70","pricing_plan_id":"cebpf4jnsgd1na2vs0mg"},{"bike_id":"bb7c5513-c777-46af-a801-d0ef1330e2fa","system_id":"levelo_inurba_marseille","lat":43.29176,"lon":5.38312,"is_reserved":false,"is_disabled":false,"rental_uris":{"android":"levelo://app?vid=bb7c5513-c777-46af-a801-d0ef1330e2fa","ios":"levelo://app?vid=bb7c5513-c777-46af-a801-d0ef1330e2fa"},"vehicle_type_id":"4","last_reported":1741119048,"current_range_meters":10800,"station_id":"","pricing_plan_id":"cebpf4jnsgd1na2vs0mg"},{"bike_id":"27c2d55e-b76d-4cd8-93c1-ca2e9a10f330","system_id":"levelo_inurba_marseille","lat":43.29415,"lon":5.38622,"is_reserved":false,"is_disabled":false,"rental_uris":{"android":"levelo://app?vid=27c2d55e-b76d-4cd8-93c1-ca2e9a10f330","ios":"levelo://app?vid=27c2d55e-b76d-4cd8-93c1-ca2e9a10f330"},"vehicle_type_id":"4","last_reported":1741119048,"current_range_meters":10000,"station_id":"ce4bh2h2rcd13ifvqdh0","pricing_plan_id":"cebpf4jnsgd1na2vs0mg"},{"bike_id":"96534ab7-4f6f-4c1c-9eeb-a2113adfd031","system_id":"levelo_inurba_marseille","lat":43.27195,"lon":5.40984,"is_reserved":false,"is_disabled":false,"rental_uris":{"android":"levelo://app?vid=96534ab7-4f6f-4c1c-9eeb-a2113adfd031","ios":"levelo://app?vid=96534ab7-4f6f-4c1c-9eeb-a2113adfd031"},"vehicle_type_id":"4","last_reported":1741119048,"current_range_meters":10000,"station_id":"ce4bhl12rcd13ifvqgf0","pricing_plan_id":"cebpf4jnsgd1na2vs0mg"},{"bike_id":"0d40529a-4ceb-4fe5-a173-9a9387273cfa","system_id":"levelo_inurba_marseille","lat":43.25737,"lon":5.41086,"is_reserved":false,"is_disabled":false,"rental_uris":{"android":"levelo://app?vid=0d40529a-4ceb-4fe5-a173-9a9387273cfa","ios":"levelo://app?vid=0d40529a-4ceb-4fe5-a173-9a9387273cfa"},"vehicle_type_id":"4","last_reported":1741119048,"current_range_meters":10000,"station_id":"ce4bhkp2rcd13ifvqgd0","pricing_plan_id":"cebpf4jnsgd1na2vs0mg"},{"bike_id":"b3e2a09d-27d2-45e0-ae52-ca4e141ad0cc","system_id":"levelo_inurba_marseille","lat":43.24073,"lon":5.37757,"is_reserved":false,"is_disabled":false,"rental_uris":{"android":"levelo://app?vid=b3e2a09d-27d2-45e0-ae52-ca4e141ad0cc","ios":"levelo://app?vid=b3e2a09d-27d2-45e0-ae52-ca4e141ad0cc"},"vehicle_type_id":"4","last_reported":1741119048,"current_range_meters":10000,"station_id":"ce4bhnp2rcd13ifvqgvg","pricing_plan_id":"cebpf4jnsgd1na2vs0mg"},{"bike_id":"763ab7be-9165-4d07-bb77-b2b41ba5b4ec","system_id":"levelo_inurba_marseille","lat":43.29401,"lon":5.387,"is_reserved":false,"is_disabled":false,"rental_uris":{"android":"levelo://app?vid=763ab7be-9165-4d07-bb77-b2b41ba5b4ec","ios":"levelo://app?vid=763ab7be-9165-4d07-bb77-b2b41ba5b4ec"},"vehicle_type_id":"4","last_reported":1741119048,"current_range_meters":10000,"station_id":"","pricing_plan_id":"cebpf4jnsgd1na2vs0mg"},{"bike_id":"c19d2d03-17b5-4949-b7dc-22a7fd555156","system_id":"levelo_inurba_marseille","lat":43.3004,"lon":5.39949,"is_reserved":false,"is_disabled":false,"rental_uris":{"android":"levelo://app?vid=c19d2d03-17b5-4949-b7dc-22a7fd555156","ios":"levelo://app?vid=c19d2d03-17b5-4949-b7dc-22a7fd555156"},"vehicle_type_id":"4","last_reported":1741119048,"current_range_meters":10000,"station_id":"","pricing_plan_id":"cebpf4jnsgd1na2vs0mg"},{"bike_id":"a2e9312b-d692-42a0-9823-fe0aab56075b","system_id":"levelo_inurba_marseille","lat":43.231512,"lon":5.437216,"is_reserved":false,"is_disabled":true,"rental_uris":{"android":"levelo://app?vid=a2e9312b-d692-42a0-9823-fe0aab56075b","ios":"levelo://app?vid=a2e9312b-d692-42a0-9823-fe0aab56075b"},"vehicle_type_id":"4","last_reported":1741119048,"current_range_meters":10000,"station_id":"ce4bhmp2rcd13ifvqgog","pricing_plan_id":"cebpf4jnsgd1na2vs0mg"},{"bike_id":"a9493587-f8d0-4f33-aaef-90da35a6feeb","system_id":"levelo_inurba_marseille","lat":43.29536,"lon":5.39404,"is_reserved":false,"is_disabled":false,"rental_uris":{"android":"levelo://app?vid=a9493587-f8d0-4f33-aaef-90da35a6feeb","ios":"levelo://app?vid=a9493587-f8d0-4f33-aaef-90da35a6feeb"},"vehicle_type_id":"4","last_reported":1741119048,"current_range_meters":9600,"station_id":"ce4bh292rcd13ifvqdf0","pricing_plan_id":"cebpf4jnsgd1na2vs0mg"},{"bike_id":"076aa187-e9b8-441c-a957-de1b0b83c66c","system_id":"levelo_inurba_marseille","lat":43.29039,"lon":5.35889,"is_reserved":false,"is_disabled":false,"rental_uris":{"android":"levelo://app?vid=076aa187-e9b8-441c-a957-de1b0b83c66c","ios":"levelo://app?vid=076aa187-e9b8-441c-a957-de1b0b83c66c"},"vehicle_type_id":"4","last_reported":1741119048,"current_range_meters":10000,"station_id":"ce4bha92rcd13ifvqeg0","pricing_plan_id":"cebpf4jnsgd1na2vs0mg"},{"bike_id":"f53ab856-a51c-4b11-a707-fb7b533d8225","system_id":"levelo_inurba_marseille","lat":43.28974,"lon":5.37842,"is_reserved":false,"is_disabled":false,"rental_uris":{"android":"levelo://app?vid=f53ab856-a51c-4b11-a707-fb7b533d8225","ios":"levelo://app?vid=f53ab856-a51c-4b11-a707-fb7b533d8225"},"vehicle_type_id":"4","last_reported":1741119048,"current_range_meters":10000,"station_id":"ce4bh9p2rcd13ifvqed0","pricing_plan_id":"cebpf4jnsgd1na2vs0mg"},{"bike_id":"a8475a01-da77-4c71-bc0c-19abd92ff8a9","system_id":"levelo_inurba_marseille","lat":43.29258,"lon":5.38446,"is_reserved":false,"is_disabled":false,"rental_uris":{"android":"levelo://app?vid=a8475a01-da77-4c71-bc0c-19abd92ff8a9","ios":"levelo://app?vid=a8475a01-da77-4c71-bc0c-19abd92ff8a9"},"vehicle_type_id":"4","last_reported":1741119048,"current_range_meters":10000,"station_id":"ce4bh692rcd13ifvqea0","pricing_plan_id":"cebpf4jnsgd1na2vs0mg"},{"bike_id":"a274c9d7-46e5-452d-819c-865bb28026f5","system_id":"levelo_inurba_marseille","lat":43.28669,"lon":5.36345,"is_reserved":false,"is_disabled":false,"rental_uris":{"android":"levelo://app?vid=a274c9d7-46e5-452d-819c-865bb28026f5","ios":"levelo://app?vid=a274c9d7-46e5-452d-819c-865bb28026f5"},"vehicle_type_id":"4","last_reported":1741119048,"current_range_meters":10000,"station_id":"ce4bhah2rcd13ifvqej0","pricing_plan_id":"cebpf4jnsgd1na2vs0mg"},{"bike_id":"97d0cc1e-b85b-4315-9149-86ad1aaf4246","system_id":"levelo_inurba_marseille","lat":43.2845,"lon":5.3919,"is_reserved":false,"is_disabled":false,"rental_uris":{"android":"levelo://app?vid=97d0cc1e-b85b-4315-9149-86ad1aaf4246","ios":"levelo://app?vid=97d0cc1e-b85b-4315-9149-86ad1aaf4246"},"vehicle_type_id":"4","last_reported":1741119048,"current_range_meters":10000,"station_id":"ce4bhoh2rcd13ifvqh5g","pricing_plan_id":"cebpf4jnsgd1na2vs0mg"},{"bike_id":"c72def86-b1d6-40b7-aba2-62fc1c6809bb","system_id":"levelo_inurba_marseille","lat":43.27991,"lon":5.40009,"is_reserved":false,"is_disabled":false,"rental_uris":{"android":"levelo://app?vid=c72def86-b1d6-40b7-aba2-62fc1c6809bb","ios":"levelo://app?vid=c72def86-b1d6-40b7-aba2-62fc1c6809bb"},"vehicle_type_id":"4","last_reported":1741119048,"current_range_meters":10000,"station_id":"ce4bho92rcd13ifvqh4g","pricing_plan_id":"cebpf4jnsgd1na2vs0mg"},{"bike_id":"ede61442-3229-4ac2-8d72-b654099eef6a","system_id":"levelo_inurba_marseille","lat":43.33025,"lon":5.39029,"is_reserved":false,"is_disabled":false,"rental_uris":{"android":"levelo://app?vid=ede61442-3229-4ac2-8d72-b654099eef6a","ios":"levelo://app?vid=ede61442-3229-4ac2-8d72-b654099eef6a"},"vehicle_type_id":"4","last_reported":1741119048,"current_range_meters":10000,"station_id":"ce4bhr92rcd13ifvqhrg","pricing_plan_id":"cebpf4jnsgd1na2vs0mg"},{"bike_id":"21b19842-9ad9-4db0-bc46-3d2827c0069e","system_id":"levelo_inurba_marseille","lat":43.23193,"lon":5.35549,"is_reserved":false,"is_disabled":false,"rental_uris":{"android":"levelo://app?vid=21b19842-9ad9-4db0-bc46-3d2827c0069e","ios":"levelo://app?vid=21b19842-9ad9-4db0-bc46-3d2827c0069e"},"vehicle_type_id":"4","last_reported":1741119048,"current_range_meters":10000,"station_id":"ce4bhu92rcd13ifvqi70","pricing_plan_id":"cebpf4jnsgd1na2vs0mg"},{"bike_id":"322a9756-c329-42ae-9e63-220fa56f0d6b","system_id":"levelo_inurba_marseille","lat":43.29806,"lon":5.40407,"is_reserved":false,"is_disabled":false,"rental_uris":{"android":"levelo://app?vid=322a9756-c329-42ae-9e63-220fa56f0d6b","ios":"levelo://app?vid=322a9756-c329-42ae-9e63-220fa56f0d6b"},"vehicle_type_id":"4","last_reported":1741119048,"current_range_meters":10000,"station_id":"ce4bh112rcd13ifvqd90","pricing_plan_id":"cebpf4jnsgd1na2vs0mg"},{"bike_id":"4e6eac08-b624-4f71-84f3-0c6188cb583d","system_id":"levelo_inurba_marseille","lat":43.33008,"lon":5.39074,"is_reserved":false,"is_disabled":false,"rental_uris":{"android":"levelo://app?vid=4e6eac08-b624-4f71-84f3-0c6188cb583d","ios":"levelo://app?vid=4e6eac08-b624-4f71-84f3-0c6188cb583d"},"vehicle_type_id":"4","last_reported":1741119048,"current_range_meters":10800,"station_id":"ce4bhr92rcd13ifvqhrg","pricing_plan_id":"cebpf4jnsgd1na2vs0mg"},{"bike_id":"25e77a36-0553-478f-8cf4-298779953729","system_id":"levelo_inurba_marseille","lat":43.28941,"lon":5.3664,"is_reserved":false,"is_disabled":false,"rental_uris":{"android":"levelo://app?vid=25e77a36-0553-478f-8cf4-298779953729","ios":"levelo://app?vid=25e77a36-0553-478f-8cf4-298779953729"},"vehicle_type_id":"4","last_reported":1741119048,"current_range_meters":10800,"station_id":"ce4bhap2rcd13ifvqek0","pricing_plan_id":"cebpf4jnsgd1na2vs0mg"},{"bike_id":"db99b6b9-a30e-45ea-a005-66ffba70fee3","system_id":"levelo_inurba_marseille","lat":43.28,"lon":5.40038,"is_reserved":false,"is_disabled":false,"rental_uris":{"android":"levelo://app?vid=db99b6b9-a30e-45ea-a005-66ffba70fee3","ios":"levelo://app?vid=db99b6b9-a30e-45ea-a005-66ffba70fee3"},"vehicle_type_id":"4","last_reported":1741119048,"current_range_meters":10800,"station_id":"ce4bho92rcd13ifvqh4g","pricing_plan_id":"cebpf4jnsgd1na2vs0mg"},{"bike_id":"2a8cc652-f2e0-44b6-b4be-8aba943cd557","system_id":"levelo_inurba_marseille","lat":43.29275,"lon":5.37557,"is_reserved":false,"is_disabled":false,"rental_uris":{"android":"levelo://app?vid=2a8cc652-f2e0-44b6-b4be-8aba943cd557","ios":"levelo://app?vid=2a8cc652-f2e0-44b6-b4be-8aba943cd557"},"vehicle_type_id":"4","last_reported":1741119048,"current_range_meters":10800,"station_id":"ce4bgi12rcd13ifvqb80","pricing_plan_id":"cebpf4jnsgd1na2vs0mg"},{"bike_id":"cb1cd250-1c05-47e3-a818-4f19fe6f06a2","system_id":"levelo_inurba_marseille","lat":43.27995,"lon":5.40019,"is_reserved":false,"is_disabled":false,"rental_uris":{"android":"levelo://app?vid=cb1cd250-1c05-47e3-a818-4f19fe6f06a2","ios":"levelo://app?vid=cb1cd250-1c05-47e3-a818-4f19fe6f06a2"},"vehicle_type_id":"4","last_reported":1741119048,"current_range_meters":10800,"station_id":"ce4bho92rcd13ifvqh4g","pricing_plan_id":"cebpf4jnsgd1na2vs0mg"},{"bike_id":"c0b00efc-a044-44d4-9e07-c7974d8650d2","system_id":"levelo_inurba_marseille","lat":43.27825,"lon":5.40725,"is_reserved":false,"is_disabled":false,"rental_uris":{"android":"levelo://app?vid=c0b00efc-a044-44d4-9e07-c7974d8650d2","ios":"levelo://app?vid=c0b00efc-a044-44d4-9e07-c7974d8650d2"},"vehicle_type_id":"4","last_reported":1741119048,"current_range_meters":10800,"station_id":"ce4bhnh2rcd13ifvqgtg","pricing_plan_id":"cebpf4jnsgd1na2vs0mg"},{"bike_id":"d662d263-2acd-4a76-83b7-92b7eba181ca","system_id":"levelo_inurba_marseille","lat":43.2705,"lon":5.40265,"is_reserved":false,"is_disabled":false,"rental_uris":{"android":"levelo://app?vid=d662d263-2acd-4a76-83b7-92b7eba181ca","ios":"levelo://app?vid=d662d263-2acd-4a76-83b7-92b7eba181ca"},"vehicle_type_id":"4","last_reported":1741119048,"current_range_meters":10800,"station_id":"ce4bhk92rcd13ifvqgc0","pricing_plan_id":"cebpf4jnsgd1na2vs0mg"},{"bike_id":"913bb55b-2edb-4434-9d82-fe796f8d08f1","system_id":"levelo_inurba_marseille","lat":43.28634,"lon":5.35081,"is_reserved":false,"is_disabled":false,"rental_uris":{"android":"levelo://app?vid=913bb55b-2edb-4434-9d82-fe796f8d08f1","ios":"levelo://app?vid=913bb55b-2edb-4434-9d82-fe796f8d08f1"},"vehicle_type_id":"4","last_reported":1741119048,"current_range_meters":10800,"station_id":"ce4bhch2rcd13ifvqeug","pricing_plan_id":"cebpf4jnsgd1na2vs0mg"},{"bike_id":"3eb72fbf-7948-4624-8ffb-a8d97ab7c9e6","system_id":"levelo_inurba_marseille","lat":43.2396,"lon":5.3664,"is_reserved":false,"is_disabled":false,"rental_uris":{"android":"levelo://app?vid=3eb72fbf-7948-4624-8ffb-a8d97ab7c9e6","ios":"levelo://app?vid=3eb72fbf-7948-4624-8ffb-a8d97ab7c9e6"},"vehicle_type_id":"4","last_reported":1741119048,"current_range_meters":10800,"station_id":"ce4bhi12rcd13ifvqfp0","pricing_plan_id":"cebpf4jnsgd1na2vs0mg"},{"bike_id":"2baebe7d-3f2d-4983-96cd-c29427ec37a6","system_id":"levelo_inurba_marseille","lat":43.29263,"lon":5.3843,"is_reserved":false,"is_disabled":false,"rental_uris":{"android":"levelo://app?vid=2baebe7d-3f2d-4983-96cd-c29427ec37a6","ios":"levelo://app?vid=2baebe7d-3f2d-4983-96cd-c29427ec37a6"},"vehicle_type_id":"4","last_reported":1741119048,"current_range_meters":10800,"station_id":"ce4bh692rcd13ifvqea0","pricing_plan_id":"cebpf4jnsgd1na2vs0mg"},{"bike_id":"ed4c1c10-3fc3-47c0-be84-e8c73611bf7f","system_id":"levelo_inurba_marseille","lat":43.2706,"lon":5.40294,"is_reserved":false,"is_disabled":false,"rental_uris":{"android":"levelo://app?vid=ed4c1c10-3fc3-47c0-be84-e8c73611bf7f","ios":"levelo://app?vid=ed4c1c10-3fc3-47c0-be84-e8c73611bf7f"},"vehicle_type_id":"4","last_reported":1741119048,"current_range_meters":10800,"station_id":"ce4bhk92rcd13ifvqgc0","pricing_plan_id":"cebpf4jnsgd1na2vs0mg"},{"bike_id":"c39e2295-e7a5-4c5b-833a-007e71b3658e","system_id":"levelo_inurba_marseille","lat":43.30824,"lon":5.43527,"is_reserved":false,"is_disabled":false,"rental_uris":{"android":"levelo://app?vid=c39e2295-e7a5-4c5b-833a-007e71b3658e","ios":"levelo://app?vid=c39e2295-e7a5-4c5b-833a-007e71b3658e"},"vehicle_type_id":"4","last_reported":1741119048,"current_range_meters":11200,"station_id":"ce4bhph2rcd13ifvqheg","pricing_plan_id":"cebpf4jnsgd1na2vs0mg"},{"bike_id":"0596970d-6eb4-4331-8d1d-96c25a649f4a","system_id":"levelo_inurba_marseille","lat":43.286676,"lon":5.363416,"is_reserved":false,"is_disabled":false,"rental_uris":{"android":"levelo://app?vid=0596970d-6eb4-4331-8d1d-96c25a649f4a","ios":"levelo://app?vid=0596970d-6eb4-4331-8d1d-96c25a649f4a"},"vehicle_type_id":"4","last_reported":1741119048,"current_range_meters":11200,"station_id":"ce4bhah2rcd13ifvqej0","pricing_plan_id":"cebpf4jnsgd1na2vs0mg"},{"bike_id":"3f3c1456-9049-45c0-983e-1e780cd7ac03","system_id":"levelo_inurba_marseille","lat":43.28079,"lon":5.39628,"is_reserved":false,"is_disabled":false,"rental_uris":{"android":"levelo://app?vid=3f3c1456-9049-45c0-983e-1e780cd7ac03","ios":"levelo://app?vid=3f3c1456-9049-45c0-983e-1e780cd7ac03"},"vehicle_type_id":"4","last_reported":1741119048,"current_range_meters":11200,"station_id":"ce4bho12rcd13ifvqh2g","pricing_plan_id":"cebpf4jnsgd1na2vs0mg"},{"bike_id":"061cf0fd-4d82-4720-8d71-5c077d54051b","system_id":"levelo_inurba_marseille","lat":43.29425,"lon":5.38609,"is_reserved":false,"is_disabled":false,"rental_uris":{"android":"levelo://app?vid=061cf0fd-4d82-4720-8d71-5c077d54051b","ios":"levelo://app?vid=061cf0fd-4d82-4720-8d71-5c077d54051b"},"vehicle_type_id":"4","last_reported":1741119048,"current_range_meters":11200,"station_id":"ce4bh2h2rcd13ifvqdh0","pricing_plan_id":"cebpf4jnsgd1na2vs0mg"},{"bike_id":"80e8e7ae-53b5-4b6e-bbb9-289a53dff2f7","system_id":"levelo_inurba_marseille","lat":43.27992,"lon":5.40011,"is_reserved":false,"is_disabled":false,"rental_uris":{"android":"levelo://app?vid=80e8e7ae-53b5-4b6e-bbb9-289a53dff2f7","ios":"levelo://app?vid=80e8e7ae-53b5-4b6e-bbb9-289a53dff2f7"},"vehicle_type_id":"4","last_reported":1741119048,"current_range_meters":11600,"station_id":"ce4bho92rcd13ifvqh4g","pricing_plan_id":"cebpf4jnsgd1na2vs0mg"},{"bike_id":"d7527d7b-d40c-41ab-aeb5-cac021160e30","system_id":"levelo_inurba_marseille","lat":43.28035,"lon":5.36938,"is_reserved":false,"is_disabled":false,"rental_uris":{"android":"levelo://app?vid=d7527d7b-d40c-41ab-aeb5-cac021160e30","ios":"levelo://app?vid=d7527d7b-d40c-41ab-aeb5-cac021160e30"},"vehicle_type_id":"4","last_reported":1741119048,"current_range_meters":11600,"station_id":"ce4bha12rcd13ifvqef0","pricing_plan_id":"cebpf4jnsgd1na2vs0mg"},{"bike_id":"37b40abb-551f-4e86-8965-a99b1a45d466","system_id":"levelo_inurba_marseille","lat":43.25823,"lon":5.39434,"is_reserved":false,"is_disabled":false,"rental_uris":{"android":"levelo://app?vid=37b40abb-551f-4e86-8965-a99b1a45d466","ios":"levelo://app?vid=37b40abb-551f-4e86-8965-a99b1a45d466"},"vehicle_type_id":"4","last_reported":1741119048,"current_range_meters":11600,"station_id":"ce4bhip2rcd13ifvqft0","pricing_plan_id":"cebpf4jnsgd1na2vs0mg"},{"bike_id":"51f6f578-8898-487a-9da7-ff3d6d379d1b","system_id":"levelo_inurba_marseille","lat":43.32118,"lon":5.36791,"is_reserved":false,"is_disabled":false,"rental_uris":{"android":"levelo://app?vid=51f6f578-8898-487a-9da7-ff3d6d379d1b","ios":"levelo://app?vid=51f6f578-8898-487a-9da7-ff3d6d379d1b"},"vehicle_type_id":"4","last_reported":1741119048,"current_range_meters":11600,"station_id":"ce4bhrh2rcd13ifvqhug","pricing_plan_id":"cebpf4jnsgd1na2vs0mg"},{"bike_id":"4c0e314a-87e2-48f0-a7b0-ec6605046de8","system_id":"levelo_inurba_marseille","lat":43.32141,"lon":5.3681,"is_reserved":false,"is_disabled":false,"rental_uris":{"android":"levelo://app?vid=4c0e314a-87e2-48f0-a7b0-ec6605046de8","ios":"levelo://app?vid=4c0e314a-87e2-48f0-a7b0-ec6605046de8"},"vehicle_type_id":"4","last_reported":1741119048,"current_range_meters":11600,"station_id":"","pricing_plan_id":"cebpf4jnsgd1na2vs0mg"},{"bike_id":"ec1930f4-7944-4e1a-8967-bad6e440e5c9","system_id":"levelo_inurba_marseille","lat":43.24667,"lon":5.38172,"is_reserved":false,"is_disabled":false,"rental_uris":{"android":"levelo://app?vid=ec1930f4-7944-4e1a-8967-bad6e440e5c9","ios":"levelo://app?vid=ec1930f4-7944-4e1a-8967-bad6e440e5c9"},"vehicle_type_id":"4","last_reported":1741119048,"current_range_meters":11600,"station_id":"ce4bhih2rcd13ifvqfr0","pricing_plan_id":"cebpf4jnsgd1na2vs0mg"},{"bike_id":"2da29b42-27fb-4d34-ad44-907a56da443e","system_id":"levelo_inurba_marseille","lat":43.2657,"lon":5.39543,"is_reserved":false,"is_disabled":false,"rental_uris":{"android":"levelo://app?vid=2da29b42-27fb-4d34-ad44-907a56da443e","ios":"levelo://app?vid=2da29b42-27fb-4d34-ad44-907a56da443e"},"vehicle_type_id":"4","last_reported":1741119048,"current_range_meters":12000,"station_id":"ce4bhi12rcd13ifvqfq0","pricing_plan_id":"cebpf4jnsgd1na2vs0mg"},{"bike_id":"5e2cb1a1-2c48-430d-b077-2c19be925714","system_id":"levelo_inurba_marseille","lat":43.290033,"lon":5.368502,"is_reserved":false,"is_disabled":false,"rental_uris":{"android":"levelo://app?vid=5e2cb1a1-2c48-430d-b077-2c19be925714","ios":"levelo://app?vid=5e2cb1a1-2c48-430d-b077-2c19be925714"},"vehicle_type_id":"4","last_reported":1741119048,"current_range_meters":12000,"station_id":"ce4bhap2rcd13ifvqek0","pricing_plan_id":"cebpf4jnsgd1na2vs0mg"},{"bike_id":"004bb06e-beff-4104-bcf6-323d94d584aa","system_id":"levelo_inurba_marseille","lat":43.24657,"lon":5.38162,"is_reserved":false,"is_disabled":false,"rental_uris":{"android":"levelo://app?vid=004bb06e-beff-4104-bcf6-323d94d584aa","ios":"levelo://app?vid=004bb06e-beff-4104-bcf6-323d94d584aa"},"vehicle_type_id":"4","last_reported":1741119048,"current_range_meters":12000,"station_id":"ce4bhih2rcd13ifvqfr0","pricing_plan_id":"cebpf4jnsgd1na2vs0mg"},{"bike_id":"0122c1c3-b417-4093-9107-12ae15086493","system_id":"levelo_inurba_marseille","lat":43.31332,"lon":5.39703,"is_reserved":false,"is_disabled":false,"rental_uris":{"android":"levelo://app?vid=0122c1c3-b417-4093-9107-12ae15086493","ios":"levelo://app?vid=0122c1c3-b417-4093-9107-12ae15086493"},"vehicle_type_id":"4","last_reported":1741119048,"current_range_meters":12000,"station_id":"ce4bgvp2rcd13ifvqcu0","pricing_plan_id":"cebpf4jnsgd1na2vs0mg"},{"bike_id":"6ea8ab5c-65c2-4db6-8cb6-dfdbe5b30189","system_id":"levelo_inurba_marseille","lat":43.32357,"lon":5.38913,"is_reserved":false,"is_disabled":false,"rental_uris":{"android":"levelo://app?vid=6ea8ab5c-65c2-4db6-8cb6-dfdbe5b30189","ios":"levelo://app?vid=6ea8ab5c-65c2-4db6-8cb6-dfdbe5b30189"},"vehicle_type_id":"4","last_reported":1741119048,"current_range_meters":12000,"station_id":"ce4bhqp2rcd13ifvqhog","pricing_plan_id":"cebpf4jnsgd1na2vs0mg"},{"bike_id":"891d4632-f0a6-4752-943b-f639ac2b49bc","system_id":"levelo_inurba_marseille","lat":43.27979,"lon":5.40087,"is_reserved":false,"is_disabled":false,"rental_uris":{"android":"levelo://app?vid=891d4632-f0a6-4752-943b-f639ac2b49bc","ios":"levelo://app?vid=891d4632-f0a6-4752-943b-f639ac2b49bc"},"vehicle_type_id":"4","last_reported":1741119048,"current_range_meters":12000,"station_id":"","pricing_plan_id":"cebpf4jnsgd1na2vs0mg"},{"bike_id":"e01955a4-91d8-4de2-9c8d-bbb965be7dd3","system_id":"levelo_inurba_marseille","lat":43.29784,"lon":5.39342,"is_reserved":false,"is_disabled":true,"rental_uris":{"android":"levelo://app?vid=e01955a4-91d8-4de2-9c8d-bbb965be7dd3","ios":"levelo://app?vid=e01955a4-91d8-4de2-9c8d-bbb965be7dd3"},"vehicle_type_id":"4","last_reported":1741119048,"current_range_meters":12000,"station_id":"chh1huq6cuj3fo74tm60","pricing_plan_id":"cebpf4jnsgd1na2vs0mg"},{"bike_id":"e94a5fce-6bea-4c6b-a4fa-535f0a096198","system_id":"levelo_inurba_marseille","lat":43.27815,"lon":5.4071,"is_reserved":false,"is_disabled":false,"rental_uris":{"android":"levelo://app?vid=e94a5fce-6bea-4c6b-a4fa-535f0a096198","ios":"levelo://app?vid=e94a5fce-6bea-4c6b-a4fa-535f0a096198"},"vehicle_type_id":"4","last_reported":1741119048,"current_range_meters":12400,"station_id":"ce4bhnh2rcd13ifvqgtg","pricing_plan_id":"cebpf4jnsgd1na2vs0mg"},{"bike_id":"4a79d1d9-88e7-4946-878a-55b8e1a7f191","system_id":"levelo_inurba_marseille","lat":43.29602,"lon":5.36734,"is_reserved":false,"is_disabled":false,"rental_uris":{"android":"levelo://app?vid=4a79d1d9-88e7-4946-878a-55b8e1a7f191","ios":"levelo://app?vid=4a79d1d9-88e7-4946-878a-55b8e1a7f191"},"vehicle_type_id":"4","last_reported":1741119048,"current_range_meters":12400,"station_id":"ce4bgph2rcd13ifvqc2g","pricing_plan_id":"cebpf4jnsgd1na2vs0mg"},{"bike_id":"4167f6bd-40b7-45c1-950d-68f467926bd6","system_id":"levelo_inurba_marseille","lat":43.28984,"lon":5.3783,"is_reserved":false,"is_disabled":true,"rental_uris":{"android":"levelo://app?vid=4167f6bd-40b7-45c1-950d-68f467926bd6","ios":"levelo://app?vid=4167f6bd-40b7-45c1-950d-68f467926bd6"},"vehicle_type_id":"4","last_reported":1741119048,"current_range_meters":12400,"station_id":"ce4bh9p2rcd13ifvqed0","pricing_plan_id":"cebpf4jnsgd1na2vs0mg"},{"bike_id":"6061c82f-63ed-42ba-870f-42df5f1a263a","system_id":"levelo_inurba_marseille","lat":43.28818,"lon":5.35864,"is_reserved":false,"is_disabled":false,"rental_uris":{"android":"levelo://app?vid=6061c82f-63ed-42ba-870f-42df5f1a263a","ios":"levelo://app?vid=6061c82f-63ed-42ba-870f-42df5f1a263a"},"vehicle_type_id":"4","last_reported":1741119048,"current_range_meters":12400,"station_id":"ce4bhb12rcd13ifvqem0","pricing_plan_id":"cebpf4jnsgd1na2vs0mg"},{"bike_id":"663ab96c-9d71-4e5b-9771-84bb4bac2c25","system_id":"levelo_inurba_marseille","lat":43.30433,"lon":5.38896,"is_reserved":false,"is_disabled":false,"rental_uris":{"android":"levelo://app?vid=663ab96c-9d71-4e5b-9771-84bb4bac2c25","ios":"levelo://app?vid=663ab96c-9d71-4e5b-9771-84bb4bac2c25"},"vehicle_type_id":"4","last_reported":1741119048,"current_range_meters":12400,"station_id":"ce4bgk12rcd13ifvqbi0","pricing_plan_id":"cebpf4jnsgd1na2vs0mg"},{"bike_id":"5da28e8e-bd33-4e2b-8caa-4dcf371719b4","system_id":"levelo_inurba_marseille","lat":43.29631,"lon":5.40606,"is_reserved":false,"is_disabled":false,"rental_uris":{"android":"levelo://app?vid=5da28e8e-bd33-4e2b-8caa-4dcf371719b4","ios":"levelo://app?vid=5da28e8e-bd33-4e2b-8caa-4dcf371719b4"},"vehicle_type_id":"4","last_reported":1741119048,"current_range_meters":12400,"station_id":"ce4bh0h2rcd13ifvqd60","pricing_plan_id":"cebpf4jnsgd1na2vs0mg"},{"bike_id":"a4bdfb6f-4204-49ee-ba23-42c2071e5ef0","system_id":"levelo_inurba_marseille","lat":43.29561,"lon":5.40016,"is_reserved":false,"is_disabled":false,"rental_uris":{"android":"levelo://app?vid=a4bdfb6f-4204-49ee-ba23-42c2071e5ef0","ios":"levelo://app?vid=a4bdfb6f-4204-49ee-ba23-42c2071e5ef0"},"vehicle_type_id":"4","last_reported":1741119048,"current_range_meters":12400,"station_id":"ce4bh312rcd13ifvqdj0","pricing_plan_id":"cebpf4jnsgd1na2vs0mg"},{"bike_id":"3ed97a74-a4c3-497b-a61c-1d5ce2c8a803","system_id":"levelo_inurba_marseille","lat":43.2782,"lon":5.40708,"is_reserved":false,"is_disabled":false,"rental_uris":{"android":"levelo://app?vid=3ed97a74-a4c3-497b-a61c-1d5ce2c8a803","ios":"levelo://app?vid=3ed97a74-a4c3-497b-a61c-1d5ce2c8a803"},"vehicle_type_id":"4","last_reported":1741119048,"current_range_meters":12800,"station_id":"ce4bhnh2rcd13ifvqgtg","pricing_plan_id":"cebpf4jnsgd1na2vs0mg"},{"bike_id":"11542ba3-a68a-43a2-930e-4932d68bf99a","system_id":"levelo_inurba_marseille","lat":43.29634,"lon":5.40599,"is_reserved":false,"is_disabled":false,"rental_uris":{"android":"levelo://app?vid=11542ba3-a68a-43a2-930e-4932d68bf99a","ios":"levelo://app?vid=11542ba3-a68a-43a2-930e-4932d68bf99a"},"vehicle_type_id":"4","last_reported":1741119048,"current_range_meters":12400,"station_id":"ce4bh0h2rcd13ifvqd60","pricing_plan_id":"cebpf4jnsgd1na2vs0mg"},{"bike_id":"62abbf65-fdb4-4039-8d17-a6787ca98437","system_id":"levelo_inurba_marseille","lat":43.26498,"lon":5.39529,"is_reserved":false,"is_disabled":true,"rental_uris":{"android":"levelo://app?vid=62abbf65-fdb4-4039-8d17-a6787ca98437","ios":"levelo://app?vid=62abbf65-fdb4-4039-8d17-a6787ca98437"},"vehicle_type_id":"4","last_reported":1741119048,"current_range_meters":12800,"station_id":"ce4bhi12rcd13ifvqfq0","pricing_plan_id":"cebpf4jnsgd1na2vs0mg"},{"bike_id":"a0606e3a-d583-4934-b37d-243ea3543796","system_id":"levelo_inurba_marseille","lat":43.28722,"lon":5.37937,"is_reserved":false,"is_disabled":false,"rental_uris":{"android":"levelo://app?vid=a0606e3a-d583-4934-b37d-243ea3543796","ios":"levelo://app?vid=a0606e3a-d583-4934-b37d-243ea3543796"},"vehicle_type_id":"4","last_reported":1741119048,"current_range_meters":12800,"station_id":"ce4bh9p2rcd13ifvqec0","pricing_plan_id":"cebpf4jnsgd1na2vs0mg"},{"bike_id":"b9b128b1-541f-4193-a4a2-5e6052bf522b","system_id":"levelo_inurba_marseille","lat":43.29558,"lon":5.39981,"is_reserved":false,"is_disabled":false,"rental_uris":{"android":"levelo://app?vid=b9b128b1-541f-4193-a4a2-5e6052bf522b","ios":"levelo://app?vid=b9b128b1-541f-4193-a4a2-5e6052bf522b"},"vehicle_type_id":"4","last_reported":1741119048,"current_range_meters":12800,"station_id":"ce4bh312rcd13ifvqdj0","pricing_plan_id":"cebpf4jnsgd1na2vs0mg"},{"bike_id":"a47a13a9-c176-4f2b-bca1-9dd7e5a64881","system_id":"levelo_inurba_marseille","lat":43.30933,"lon":5.40125,"is_reserved":false,"is_disabled":true,"rental_uris":{"android":"levelo://app?vid=a47a13a9-c176-4f2b-bca1-9dd7e5a64881","ios":"levelo://app?vid=a47a13a9-c176-4f2b-bca1-9dd7e5a64881"},"vehicle_type_id":"4","last_reported":1741119048,"current_range_meters":12800,"station_id":"ce4bgvp2rcd13ifvqct0","pricing_plan_id":"cebpf4jnsgd1na2vs0mg"},{"bike_id":"53f986b5-b4ac-4e4d-bde6-b88e844ffa37","system_id":"levelo_inurba_marseille","lat":43.24072,"lon":5.37766,"is_reserved":false,"is_disabled":false,"rental_uris":{"android":"levelo://app?vid=53f986b5-b4ac-4e4d-bde6-b88e844ffa37","ios":"levelo://app?vid=53f986b5-b4ac-4e4d-bde6-b88e844ffa37"},"vehicle_type_id":"4","last_reported":1741119048,"current_range_meters":12800,"station_id":"ce4bhnp2rcd13ifvqgvg","pricing_plan_id":"cebpf4jnsgd1na2vs0mg"},{"bike_id":"40f6abab-1530-4133-b1bf-6d1769347a06","system_id":"levelo_inurba_marseille","lat":43.24818,"lon":5.37429,"is_reserved":false,"is_disabled":false,"rental_uris":{"android":"levelo://app?vid=40f6abab-1530-4133-b1bf-6d1769347a06","ios":"levelo://app?vid=40f6abab-1530-4133-b1bf-6d1769347a06"},"vehicle_type_id":"4","last_reported":1741119048,"current_range_meters":12800,"station_id":"ce4bhgh2rcd13ifvqfb0","pricing_plan_id":"cebpf4jnsgd1na2vs0mg"},{"bike_id":"f8b34b05-3ce8-4023-b46a-493d367bd4f6","system_id":"levelo_inurba_marseille","lat":43.27185,"lon":5.40999,"is_reserved":false,"is_disabled":false,"rental_uris":{"android":"levelo://app?vid=f8b34b05-3ce8-4023-b46a-493d367bd4f6","ios":"levelo://app?vid=f8b34b05-3ce8-4023-b46a-493d367bd4f6"},"vehicle_type_id":"4","last_reported":1741119048,"current_range_meters":12800,"station_id":"ce4bhl12rcd13ifvqgf0","pricing_plan_id":"cebpf4jnsgd1na2vs0mg"},{"bike_id":"0eb9fef3-83c8-47c8-ad9e-cfe2998c47d1","system_id":"levelo_inurba_marseille","lat":43.31074,"lon":5.3756,"is_reserved":false,"is_disabled":false,"rental_uris":{"android":"levelo://app?vid=0eb9fef3-83c8-47c8-ad9e-cfe2998c47d1","ios":"levelo://app?vid=0eb9fef3-83c8-47c8-ad9e-cfe2998c47d1"},"vehicle_type_id":"4","last_reported":1741119048,"current_range_meters":13600,"station_id":"","pricing_plan_id":"cebpf4jnsgd1na2vs0mg"},{"bike_id":"d827558c-2e6b-4c94-a239-2a1aa50bc71b","system_id":"levelo_inurba_marseille","lat":43.30438,"lon":5.38847,"is_reserved":false,"is_disabled":false,"rental_uris":{"android":"levelo://app?vid=d827558c-2e6b-4c94-a239-2a1aa50bc71b","ios":"levelo://app?vid=d827558c-2e6b-4c94-a239-2a1aa50bc71b"},"vehicle_type_id":"4","last_reported":1741119048,"current_range_meters":13600,"station_id":"ce4bgk12rcd13ifvqbi0","pricing_plan_id":"cebpf4jnsgd1na2vs0mg"},{"bike_id":"7cd5e07c-ad2a-4af8-99d9-77c41335ce79","system_id":"levelo_inurba_marseille","lat":43.24148,"lon":5.36467,"is_reserved":false,"is_disabled":false,"rental_uris":{"android":"levelo://app?vid=7cd5e07c-ad2a-4af8-99d9-77c41335ce79","ios":"levelo://app?vid=7cd5e07c-ad2a-4af8-99d9-77c41335ce79"},"vehicle_type_id":"4","last_reported":1741119048,"current_range_meters":13600,"station_id":"cpo36qri1sfpv3e86is0","pricing_plan_id":"cebpf4jnsgd1na2vs0mg"},{"bike_id":"6d43b52d-edb7-44c3-8ec8-85fd8093a142","system_id":"levelo_inurba_marseille","lat":43.28096,"lon":5.37834,"is_reserved":false,"is_disabled":false,"rental_uris":{"android":"levelo://app?vid=6d43b52d-edb7-44c3-8ec8-85fd8093a142","ios":"levelo://app?vid=6d43b52d-edb7-44c3-8ec8-85fd8093a142"},"vehicle_type_id":"4","last_reported":1741119048,"current_range_meters":13600,"station_id":"ce4bha12rcd13ifvqee0","pricing_plan_id":"cebpf4jnsgd1na2vs0mg"},{"bike_id":"d571166c-77a4-4a91-b051-9cc34ad31336","system_id":"levelo_inurba_marseille","lat":43.30188,"lon":5.39311,"is_reserved":false,"is_disabled":false,"rental_uris":{"android":"levelo://app?vid=d571166c-77a4-4a91-b051-9cc34ad31336","ios":"levelo://app?vid=d571166c-77a4-4a91-b051-9cc34ad31336"},"vehicle_type_id":"4","last_reported":1741119048,"current_range_meters":13600,"station_id":"","pricing_plan_id":"cebpf4jnsgd1na2vs0mg"},{"bike_id":"e948d0d2-9d60-4e0f-8f45-dc40fd7ec45c","system_id":"levelo_inurba_marseille","lat":43.27999,"lon":5.40008,"is_reserved":false,"is_disabled":false,"rental_uris":{"android":"levelo://app?vid=e948d0d2-9d60-4e0f-8f45-dc40fd7ec45c","ios":"levelo://app?vid=e948d0d2-9d60-4e0f-8f45-dc40fd7ec45c"},"vehicle_type_id":"4","last_reported":1741119048,"current_range_meters":13600,"station_id":"ce4bho92rcd13ifvqh4g","pricing_plan_id":"cebpf4jnsgd1na2vs0mg"},{"bike_id":"b714427e-ba5b-4c6c-b9d4-f730c9ac010f","system_id":"levelo_inurba_marseille","lat":43.30097,"lon":5.39077,"is_reserved":false,"is_disabled":false,"rental_uris":{"android":"levelo://app?vid=b714427e-ba5b-4c6c-b9d4-f730c9ac010f","ios":"levelo://app?vid=b714427e-ba5b-4c6c-b9d4-f730c9ac010f"},"vehicle_type_id":"4","last_reported":1741119048,"current_range_meters":13600,"station_id":"ce4bh192rcd13ifvqdb0","pricing_plan_id":"cebpf4jnsgd1na2vs0mg"},{"bike_id":"3e606d5f-ea0c-41c8-b2c9-6b22a464b627","system_id":"levelo_inurba_marseille","lat":43.27991,"lon":5.40012,"is_reserved":false,"is_disabled":false,"rental_uris":{"android":"levelo://app?vid=3e606d5f-ea0c-41c8-b2c9-6b22a464b627","ios":"levelo://app?vid=3e606d5f-ea0c-41c8-b2c9-6b22a464b627"},"vehicle_type_id":"4","last_reported":1741119048,"current_range_meters":13600,"station_id":"ce4bho92rcd13ifvqh4g","pricing_plan_id":"cebpf4jnsgd1na2vs0mg"},{"bike_id":"586ec96a-7733-4ebc-b778-8cf9d4e9476c","system_id":"levelo_inurba_marseille","lat":43.27058,"lon":5.40258,"is_reserved":false,"is_disabled":false,"rental_uris":{"android":"levelo://app?vid=586ec96a-7733-4ebc-b778-8cf9d4e9476c","ios":"levelo://app?vid=586ec96a-7733-4ebc-b778-8cf9d4e9476c"},"vehicle_type_id":"4","last_reported":1741119048,"current_range_meters":13600,"station_id":"ce4bhk92rcd13ifvqgc0","pricing_plan_id":"cebpf4jnsgd1na2vs0mg"},{"bike_id":"f0a02552-031b-4b79-847a-8e80bf2ee549","system_id":"levelo_inurba_marseille","lat":43.29038,"lon":5.38631,"is_reserved":false,"is_disabled":false,"rental_uris":{"android":"levelo://app?vid=f0a02552-031b-4b79-847a-8e80bf2ee549","ios":"levelo://app?vid=f0a02552-031b-4b79-847a-8e80bf2ee549"},"vehicle_type_id":"4","last_reported":1741119048,"current_range_meters":14000,"station_id":"ce4bh4p2rcd13ifvqe0g","pricing_plan_id":"cebpf4jnsgd1na2vs0mg"},{"bike_id":"9664280c-ec19-44a4-9913-206ac50d66b9","system_id":"levelo_inurba_marseille","lat":43.2623,"lon":5.40445,"is_reserved":false,"is_disabled":false,"rental_uris":{"android":"levelo://app?vid=9664280c-ec19-44a4-9913-206ac50d66b9","ios":"levelo://app?vid=9664280c-ec19-44a4-9913-206ac50d66b9"},"vehicle_type_id":"4","last_reported":1741119048,"current_range_meters":14000,"station_id":"ce4bhmh2rcd13ifvqgmg","pricing_plan_id":"cebpf4jnsgd1na2vs0mg"},{"bike_id":"407c3b82-1df0-4375-b8c9-961d033a67e7","system_id":"levelo_inurba_marseille","lat":43.28432,"lon":5.39211,"is_reserved":false,"is_disabled":false,"rental_uris":{"android":"levelo://app?vid=407c3b82-1df0-4375-b8c9-961d033a67e7","ios":"levelo://app?vid=407c3b82-1df0-4375-b8c9-961d033a67e7"},"vehicle_type_id":"4","last_reported":1741119048,"current_range_meters":14000,"station_id":"ce4bhoh2rcd13ifvqh5g","pricing_plan_id":"cebpf4jnsgd1na2vs0mg"},{"bike_id":"651f17c5-ed5e-45f2-9005-48fcbe47a5aa","system_id":"levelo_inurba_marseille","lat":43.27995,"lon":5.41658,"is_reserved":false,"is_disabled":false,"rental_uris":{"android":"levelo://app?vid=651f17c5-ed5e-45f2-9005-48fcbe47a5aa","ios":"levelo://app?vid=651f17c5-ed5e-45f2-9005-48fcbe47a5aa"},"vehicle_type_id":"4","last_reported":1741119048,"current_range_meters":14000,"station_id":"ce4bho12rcd13ifvqh1g","pricing_plan_id":"cebpf4jnsgd1na2vs0mg"},{"bike_id":"03d5bd23-db2c-4a3d-9573-a1403447f741","system_id":"levelo_inurba_marseille","lat":43.27815,"lon":5.40719,"is_reserved":false,"is_disabled":false,"rental_uris":{"android":"levelo://app?vid=03d5bd23-db2c-4a3d-9573-a1403447f741","ios":"levelo://app?vid=03d5bd23-db2c-4a3d-9573-a1403447f741"},"vehicle_type_id":"4","last_reported":1741119048,"current_range_meters":14000,"station_id":"ce4bhnh2rcd13ifvqgtg","pricing_plan_id":"cebpf4jnsgd1na2vs0mg"},{"bike_id":"8441514c-4110-42af-a6dc-85606173b4cc","system_id":"levelo_inurba_marseille","lat":43.24666,"lon":5.38156,"is_reserved":false,"is_disabled":false,"rental_uris":{"android":"levelo://app?vid=8441514c-4110-42af-a6dc-85606173b4cc","ios":"levelo://app?vid=8441514c-4110-42af-a6dc-85606173b4cc"},"vehicle_type_id":"4","last_reported":1741119048,"current_range_meters":14000,"station_id":"ce4bhih2rcd13ifvqfr0","pricing_plan_id":"cebpf4jnsgd1na2vs0mg"},{"bike_id":"5bec1b6f-2cbf-47ff-a1c7-9594824bfe74","system_id":"levelo_inurba_marseille","lat":43.28871,"lon":5.35844,"is_reserved":false,"is_disabled":false,"rental_uris":{"android":"levelo://app?vid=5bec1b6f-2cbf-47ff-a1c7-9594824bfe74","ios":"levelo://app?vid=5bec1b6f-2cbf-47ff-a1c7-9594824bfe74"},"vehicle_type_id":"4","last_reported":1741119048,"current_range_meters":14000,"station_id":"ce4bhb12rcd13ifvqem0","pricing_plan_id":"cebpf4jnsgd1na2vs0mg"},{"bike_id":"28096b7f-96ae-4ea2-8ceb-2396385a6306","system_id":"levelo_inurba_marseille","lat":43.24662,"lon":5.38928,"is_reserved":false,"is_disabled":true,"rental_uris":{"android":"levelo://app?vid=28096b7f-96ae-4ea2-8ceb-2396385a6306","ios":"levelo://app?vid=28096b7f-96ae-4ea2-8ceb-2396385a6306"},"vehicle_type_id":"4","last_reported":1741119048,"current_range_meters":14400,"station_id":"ce4bhg12rcd13ifvqf60","pricing_plan_id":"cebpf4jnsgd1na2vs0mg"},{"bike_id":"e74ea7f2-4cd2-4fc1-9031-80e8da0b0754","system_id":"levelo_inurba_marseille","lat":43.24074,"lon":5.37746,"is_reserved":false,"is_disabled":false,"rental_uris":{"android":"levelo://app?vid=e74ea7f2-4cd2-4fc1-9031-80e8da0b0754","ios":"levelo://app?vid=e74ea7f2-4cd2-4fc1-9031-80e8da0b0754"},"vehicle_type_id":"4","last_reported":1741119048,"current_range_meters":14400,"station_id":"ce4bhnp2rcd13ifvqgvg","pricing_plan_id":"cebpf4jnsgd1na2vs0mg"},{"bike_id":"6929c11c-b9fc-4ee3-9d53-d7028b4dbf8d","system_id":"levelo_inurba_marseille","lat":43.29558,"lon":5.42292,"is_reserved":false,"is_disabled":false,"rental_uris":{"android":"levelo://app?vid=6929c11c-b9fc-4ee3-9d53-d7028b4dbf8d","ios":"levelo://app?vid=6929c11c-b9fc-4ee3-9d53-d7028b4dbf8d"},"vehicle_type_id":"4","last_reported":1741119048,"current_range_meters":14400,"station_id":"ce4bhph2rcd13ifvqhdg","pricing_plan_id":"cebpf4jnsgd1na2vs0mg"},{"bike_id":"3315cf2d-e3a4-4c89-b502-a566aff85948","system_id":"levelo_inurba_marseille","lat":43.31527,"lon":5.38031,"is_reserved":false,"is_disabled":false,"rental_uris":{"android":"levelo://app?vid=3315cf2d-e3a4-4c89-b502-a566aff85948","ios":"levelo://app?vid=3315cf2d-e3a4-4c89-b502-a566aff85948"},"vehicle_type_id":"4","last_reported":1741119048,"current_range_meters":14400,"station_id":"ce4bhsp2rcd13ifvqi50","pricing_plan_id":"cebpf4jnsgd1na2vs0mg"},{"bike_id":"15d8cf60-e2c6-4878-b1df-683348cc043e","system_id":"levelo_inurba_marseille","lat":43.24818,"lon":5.37443,"is_reserved":false,"is_disabled":false,"rental_uris":{"android":"levelo://app?vid=15d8cf60-e2c6-4878-b1df-683348cc043e","ios":"levelo://app?vid=15d8cf60-e2c6-4878-b1df-683348cc043e"},"vehicle_type_id":"4","last_reported":1741119048,"current_range_meters":14400,"station_id":"ce4bhgh2rcd13ifvqfb0","pricing_plan_id":"cebpf4jnsgd1na2vs0mg"},{"bike_id":"0d371c53-38eb-4966-a75f-fd259dfc2f1b","system_id":"levelo_inurba_marseille","lat":43.27819,"lon":5.40699,"is_reserved":false,"is_disabled":false,"rental_uris":{"android":"levelo://app?vid=0d371c53-38eb-4966-a75f-fd259dfc2f1b","ios":"levelo://app?vid=0d371c53-38eb-4966-a75f-fd259dfc2f1b"},"vehicle_type_id":"4","last_reported":1741119048,"current_range_meters":14400,"station_id":"ce4bhnh2rcd13ifvqgtg","pricing_plan_id":"cebpf4jnsgd1na2vs0mg"},{"bike_id":"e126cf9b-9912-4c39-ab86-baa13346af6b","system_id":"levelo_inurba_marseille","lat":43.30886,"lon":5.39696,"is_reserved":false,"is_disabled":false,"rental_uris":{"android":"levelo://app?vid=e126cf9b-9912-4c39-ab86-baa13346af6b","ios":"levelo://app?vid=e126cf9b-9912-4c39-ab86-baa13346af6b"},"vehicle_type_id":"4","last_reported":1741119048,"current_range_meters":14400,"station_id":"ce4bh012rcd13ifvqcv0","pricing_plan_id":"cebpf4jnsgd1na2vs0mg"},{"bike_id":"b9c73a45-eb33-4d96-857d-39d500e0f9c2","system_id":"levelo_inurba_marseille","lat":43.29174,"lon":5.37161,"is_reserved":false,"is_disabled":false,"rental_uris":{"android":"levelo://app?vid=b9c73a45-eb33-4d96-857d-39d500e0f9c2","ios":"levelo://app?vid=b9c73a45-eb33-4d96-857d-39d500e0f9c2"},"vehicle_type_id":"4","last_reported":1741119048,"current_range_meters":14800,"station_id":"ce4bha92rcd13ifvqeh0","pricing_plan_id":"cebpf4jnsgd1na2vs0mg"},{"bike_id":"1ace5e40-026a-4164-8ee6-9e542b7e250d","system_id":"levelo_inurba_marseille","lat":43.2981,"lon":5.39343,"is_reserved":false,"is_disabled":false,"rental_uris":{"android":"levelo://app?vid=1ace5e40-026a-4164-8ee6-9e542b7e250d","ios":"levelo://app?vid=1ace5e40-026a-4164-8ee6-9e542b7e250d"},"vehicle_type_id":"4","last_reported":1741119048,"current_range_meters":14800,"station_id":"chh1huq6cuj3fo74tm60","pricing_plan_id":"cebpf4jnsgd1na2vs0mg"},{"bike_id":"6220dbad-0ed6-4924-bf8a-6bbe02577641","system_id":"levelo_inurba_marseille","lat":43.29296,"lon":5.3746,"is_reserved":false,"is_disabled":false,"rental_uris":{"android":"levelo://app?vid=6220dbad-0ed6-4924-bf8a-6bbe02577641","ios":"levelo://app?vid=6220dbad-0ed6-4924-bf8a-6bbe02577641"},"vehicle_type_id":"4","last_reported":1741119048,"current_range_meters":14800,"station_id":"ce4bgi12rcd13ifvqb70","pricing_plan_id":"cebpf4jnsgd1na2vs0mg"},{"bike_id":"59265087-e393-4063-9d20-fa507a2a898c","system_id":"levelo_inurba_marseille","lat":43.27839,"lon":5.40729,"is_reserved":false,"is_disabled":false,"rental_uris":{"android":"levelo://app?vid=59265087-e393-4063-9d20-fa507a2a898c","ios":"levelo://app?vid=59265087-e393-4063-9d20-fa507a2a898c"},"vehicle_type_id":"4","last_reported":1741119048,"current_range_meters":14800,"station_id":"ce4bhnh2rcd13ifvqgtg","pricing_plan_id":"cebpf4jnsgd1na2vs0mg"},{"bike_id":"7e814d43-f703-4dc6-8b5a-2c58feb3faf2","system_id":"levelo_inurba_marseille","lat":43.30933,"lon":5.40145,"is_reserved":false,"is_disabled":false,"rental_uris":{"android":"levelo://app?vid=7e814d43-f703-4dc6-8b5a-2c58feb3faf2","ios":"levelo://app?vid=7e814d43-f703-4dc6-8b5a-2c58feb3faf2"},"vehicle_type_id":"4","last_reported":1741119048,"current_range_meters":14800,"station_id":"ce4bgvp2rcd13ifvqct0","pricing_plan_id":"cebpf4jnsgd1na2vs0mg"},{"bike_id":"cb63dd26-9f53-41e6-8650-3a8c5d750856","system_id":"levelo_inurba_marseille","lat":43.30564,"lon":5.36701,"is_reserved":false,"is_disabled":false,"rental_uris":{"android":"levelo://app?vid=cb63dd26-9f53-41e6-8650-3a8c5d750856","ios":"levelo://app?vid=cb63dd26-9f53-41e6-8650-3a8c5d750856"},"vehicle_type_id":"4","last_reported":1741119048,"current_range_meters":14800,"station_id":"ce4bgrp2rcd13ifvqc9g","pricing_plan_id":"cebpf4jnsgd1na2vs0mg"},{"bike_id":"e1cdc4f0-509b-415c-9592-9c6eaf597898","system_id":"levelo_inurba_marseille","lat":43.27822,"lon":5.40723,"is_reserved":false,"is_disabled":false,"rental_uris":{"android":"levelo://app?vid=e1cdc4f0-509b-415c-9592-9c6eaf597898","ios":"levelo://app?vid=e1cdc4f0-509b-415c-9592-9c6eaf597898"},"vehicle_type_id":"4","last_reported":1741119048,"current_range_meters":14800,"station_id":"ce4bhnh2rcd13ifvqgtg","pricing_plan_id":"cebpf4jnsgd1na2vs0mg"},{"bike_id":"5c0d7678-af0d-4c07-ba6d-73e21c2b49b7","system_id":"levelo_inurba_marseille","lat":43.28564,"lon":5.39501,"is_reserved":false,"is_disabled":false,"rental_uris":{"android":"levelo://app?vid=5c0d7678-af0d-4c07-ba6d-73e21c2b49b7","ios":"levelo://app?vid=5c0d7678-af0d-4c07-ba6d-73e21c2b49b7"},"vehicle_type_id":"4","last_reported":1741119048,"current_range_meters":14800,"station_id":"ce4bh292rcd13ifvqdg0","pricing_plan_id":"cebpf4jnsgd1na2vs0mg"},{"bike_id":"185159e2-fef0-45ed-88fa-3809164a844a","system_id":"levelo_inurba_marseille","lat":43.24822,"lon":5.37434,"is_reserved":false,"is_disabled":false,"rental_uris":{"android":"levelo://app?vid=185159e2-fef0-45ed-88fa-3809164a844a","ios":"levelo://app?vid=185159e2-fef0-45ed-88fa-3809164a844a"},"vehicle_type_id":"4","last_reported":1741119048,"current_range_meters":15200,"station_id":"ce4bhgh2rcd13ifvqfb0","pricing_plan_id":"cebpf4jnsgd1na2vs0mg"},{"bike_id":"c55557ad-1ed5-4997-aee7-ac92107f14b6","system_id":"levelo_inurba_marseille","lat":43.26451,"lon":5.37493,"is_reserved":false,"is_disabled":false,"rental_uris":{"android":"levelo://app?vid=c55557ad-1ed5-4997-aee7-ac92107f14b6","ios":"levelo://app?vid=c55557ad-1ed5-4997-aee7-ac92107f14b6"},"vehicle_type_id":"4","last_reported":1741119048,"current_range_meters":15200,"station_id":"","pricing_plan_id":"cebpf4jnsgd1na2vs0mg"},{"bike_id":"87e234d8-4b69-4724-91d5-42ab3e0e2c29","system_id":"levelo_inurba_marseille","lat":43.28848,"lon":5.35859,"is_reserved":false,"is_disabled":false,"rental_uris":{"android":"levelo://app?vid=87e234d8-4b69-4724-91d5-42ab3e0e2c29","ios":"levelo://app?vid=87e234d8-4b69-4724-91d5-42ab3e0e2c29"},"vehicle_type_id":"4","last_reported":1741119048,"current_range_meters":15200,"station_id":"ce4bhb12rcd13ifvqem0","pricing_plan_id":"cebpf4jnsgd1na2vs0mg"},{"bike_id":"ad84434d-20fb-4dcc-8def-077a9f6fa45b","system_id":"levelo_inurba_marseille","lat":43.284061,"lon":5.375022,"is_reserved":false,"is_disabled":false,"rental_uris":{"android":"levelo://app?vid=ad84434d-20fb-4dcc-8def-077a9f6fa45b","ios":"levelo://app?vid=ad84434d-20fb-4dcc-8def-077a9f6fa45b"},"vehicle_type_id":"4","last_reported":1741119048,"current_range_meters":15200,"station_id":"","pricing_plan_id":"cebpf4jnsgd1na2vs0mg"},{"bike_id":"cd6daa3a-07f9-42ed-90a2-4f41a2e8d311","system_id":"levelo_inurba_marseille","lat":43.30233,"lon":5.39486,"is_reserved":false,"is_disabled":false,"rental_uris":{"android":"levelo://app?vid=cd6daa3a-07f9-42ed-90a2-4f41a2e8d311","ios":"levelo://app?vid=cd6daa3a-07f9-42ed-90a2-4f41a2e8d311"},"vehicle_type_id":"4","last_reported":1741119048,"current_range_meters":15200,"station_id":"ce4bh0p2rcd13ifvqd70","pricing_plan_id":"cebpf4jnsgd1na2vs0mg"},{"bike_id":"7f684a3a-3df6-42ac-9a86-ea6baaf3d0fe","system_id":"levelo_inurba_marseille","lat":43.25814,"lon":5.39438,"is_reserved":false,"is_disabled":false,"rental_uris":{"android":"levelo://app?vid=7f684a3a-3df6-42ac-9a86-ea6baaf3d0fe","ios":"levelo://app?vid=7f684a3a-3df6-42ac-9a86-ea6baaf3d0fe"},"vehicle_type_id":"4","last_reported":1741119048,"current_range_meters":15200,"station_id":"ce4bhip2rcd13ifvqft0","pricing_plan_id":"cebpf4jnsgd1na2vs0mg"},{"bike_id":"70df1b63-3a66-44ae-9367-f5610f977954","system_id":"levelo_inurba_marseille","lat":43.3153,"lon":5.38029,"is_reserved":false,"is_disabled":false,"rental_uris":{"android":"levelo://app?vid=70df1b63-3a66-44ae-9367-f5610f977954","ios":"levelo://app?vid=70df1b63-3a66-44ae-9367-f5610f977954"},"vehicle_type_id":"4","last_reported":1741119048,"current_range_meters":15200,"station_id":"ce4bhsp2rcd13ifvqi50","pricing_plan_id":"cebpf4jnsgd1na2vs0mg"},{"bike_id":"7c90017c-385a-4dda-a2db-3feffd3179b9","system_id":"levelo_inurba_marseille","lat":43.2868,"lon":5.38692,"is_reserved":false,"is_disabled":false,"rental_uris":{"android":"levelo://app?vid=7c90017c-385a-4dda-a2db-3feffd3179b9","ios":"levelo://app?vid=7c90017c-385a-4dda-a2db-3feffd3179b9"},"vehicle_type_id":"4","last_reported":1741119048,"current_range_meters":14800,"station_id":"ce4bh492rcd13ifvqdug","pricing_plan_id":"cebpf4jnsgd1na2vs0mg"},{"bike_id":"ad024729-5b2a-4823-b232-88199eed1cfc","system_id":"levelo_inurba_marseille","lat":43.279905,"lon":5.4001,"is_reserved":false,"is_disabled":false,"rental_uris":{"android":"levelo://app?vid=ad024729-5b2a-4823-b232-88199eed1cfc","ios":"levelo://app?vid=ad024729-5b2a-4823-b232-88199eed1cfc"},"vehicle_type_id":"4","last_reported":1741119048,"current_range_meters":16000,"station_id":"ce4bho92rcd13ifvqh4g","pricing_plan_id":"cebpf4jnsgd1na2vs0mg"},