{"last_updated":1733872132,"ttl":60,"version":"2.2","data":{"bikes":[{"bike_id":"20e7158e-c6e0-4a8c-897a-1bb8b5451f5c","system_id":"levelo_inurba_marseille","lat":43.22933,"lon":5.35379,"is_reserved":false,"is_disabled":false,"rental_uris":{"android":"levelo://app?vid=20e7158e-c6e0-4a8c-897a-1bb8b5451f5c","ios":"levelo://app?vid=20e7158e-c6e0-4a8c-897a-1bb8b5451f5c"},"vehicle_type_id":"4","last_reported":1733872132,"current_range_meters":22800,"station_id":"cpo3532slgdg3j2ikp40","pricing_plan_id":"cebpf4jnsgd1na2vs0mg"},{"bike_id":"cd3ea23b-0fc9-4b65-a5ae-f91c4c7dfe85","system_id":"levelo_inurba_marseille","lat":43.28285,"lon":5.35072,"is_reserved":false,"is_disabled":false,"rental_uris":{"android":"levelo://app?vid=cd3ea23b-0fc9-4b65-a5ae-f91c4c7dfe85","ios":"levelo://app?vid=cd3ea23b-0fc9-4b65-a5ae-f91c4c7dfe85"},"vehicle_type_id":"4","last_reported":1733872132,"current_range_meters":38800,"station_id":"ce4bhbp2rcd13ifvqerg","pricing_plan_id":"cebpf4jnsgd1na2vs0mg"},{"bike_id":"9e840671-2878-4845-b8fb-114afd1f4bc9","system_id":"levelo_inurba_marseille","lat":43.26686,"lon":5.38274,"is_reserved":false,"is_disabled":true,"rental_uris":{"android":"levelo://app?vid=9e840671-2878-4845-b8fb-114afd1f4bc9","ios":"levelo://app?vid=9e840671-2878-4845-b8fb-114afd1f4bc9"},"vehicle_type_id":"4","last_reported":1733872132,"current_range_meters":0,"station_id":"ce4bhg92rcd13ifvqf90","pricing_plan_id":"cebpf4jnsgd1na2vs0mg"},{"bike_id":"bbde57dc-f031-4a20-81da-5a1680f0cbcb","system_id":"levelo_inurba_marseille","lat":43.29037,"lon":5.35902,"is_reserved":false,"is_disabled":false,"rental_uris":{"android":"levelo://app?vid=bbde57dc-f031-4a20-81da-5a1680f0cbcb","ios":"levelo://app?vid=bbde57dc-f031-4a20-81da-5a1680f0cbcb"},"vehicle_type_id":"4","last_reported":1733872132,"current_range_meters":33200,"station_id":"ce4bha92rcd13ifvqeg0","pricing_plan_id":"cebpf4jnsgd1na2vs0mg"},{"bike_id":"8e029eaf-e104-4c5d-858d-6cd39de73d09","system_id":"levelo_inurba_marseille","lat":43.24169,"lon":5.36391,"is_reserved":false,"is_disabled":false,"rental_uris":{"android":"levelo://app?vid=8e029eaf-e104-4c5d-858d-6cd39de73d09","ios":"levelo://app?vid=8e029eaf-e104-4c5d-858d-6cd39de73d09"},"vehicle_type_id":"4","last_reported":1733872132,"current_range_meters":14800,"station_id":"cpo36qri1sfpv3e86is0","pricing_plan_id":"cebpf4jnsgd1na2vs0mg"},{"bike_id":"13d7ea24-4d31-4870-8b0d-eae4d39b8bf6","system_id":"levelo_inurba_marseille","lat":43.28108,"lon":5.37866,"is_reserved":false,"is_disabled":false,"rental_uris":{"android":"levelo://app?vid=13d7ea24-4d31-4870-8b0d-eae4d39b8bf6","ios":"levelo://app?vid=13d7ea24-4d31-4870-8b0d-eae4d39b8bf6"},"vehicle_type_id":"4","last_reported":1733872132,"current_range_meters":16800,"station_id":"ce4bha12rcd13ifvqee0","pricing_plan_id":"cebpf4jnsgd1na2vs0mg"},{"bike_id":"96d2c3f1-3c2d-486a-9bde-be63e96d0730","system_id":"levelo_inurba_marseille","lat":43.26065,"lon":5.39388,"is_reserved":false,"is_disabled":false,"rental_uris":{"android":"levelo://app?vid=96d2c3f1-3c2d-486a-9bde-be63e96d0730","ios":"levelo://app?vid=96d2c3f1-3c2d-486a-9bde-be63e96d0730"},"vehicle_type_id":"4","last_reported":1733872132,"current_range_meters":32400,"station_id":"ce4bhh92rcd13ifvqfj0","pricing_plan_id":"cebpf4jnsgd1na2vs0mg"},{"bike_id":"fe358a9c-b38d-4402-949c-8e555a305d74","system_id":"levelo_inurba_marseille","lat":43.30355,"lon":5.41877,"is_reserved":false,"is_disabled":false,"rental_uris":{"android":"levelo://app?vid=fe358a9c-b38d-4402-949c-8e555a305d74","ios":"levelo://app?vid=fe358a9c-b38d-4402-949c-8e555a305d74"},"vehicle_type_id":"4","last_reported":1733872132,"current_range_meters":37600,"station_id":"ce4bhop2rcd13ifvqh7g","pricing_plan_id":"cebpf4jnsgd1na2vs0mg"},{"bike_id":"e0671578-fce1-46a5-b97e-d8531f795cd5","system_id":"levelo_inurba_marseille","lat":43.28711,"lon":5.37945,"is_reserved":false,"is_disabled":true,"rental_uris":{"android":"levelo://app?vid=e0671578-fce1-46a5-b97e-d8531f795cd5","ios":"levelo://app?vid=e0671578-fce1-46a5-b97e-d8531f795cd5"},"vehicle_type_id":"4","last_reported":1733872132,"current_range_meters":0,"station_id":"ce4bh9p2rcd13ifvqec0","pricing_plan_id":"cebpf4jnsgd1na2vs0mg"},{"bike_id":"9a8b4e4d-3853-4931-9e5a-63c2bf362103","system_id":"levelo_inurba_marseille","lat":43.30637,"lon":5.40096,"is_reserved":false,"is_disabled":false,"rental_uris":{"android":"levelo://app?vid=9a8b4e4d-3853-4931-9e5a-63c2bf362103","ios":"levelo://app?vid=9a8b4e4d-3853-4931-9e5a-63c2bf362103"},"vehicle_type_id":"4","last_reported":1733872132,"current_range_meters":10800,"station_id":"ce4bh112rcd13ifvqda0","pricing_plan_id":"cebpf4jnsgd1na2vs0mg"},{"bike_id":"014914cf-eb98-4b5d-8cd3-12a67a219c23","system_id":"levelo_inurba_marseille","lat":43.3361,"lon":5.41018,"is_reserved":false,"is_disabled":true,"rental_uris":{"android":"levelo://app?vid=014914cf-eb98-4b5d-8cd3-12a67a219c23","ios":"levelo://app?vid=014914cf-eb98-4b5d-8cd3-12a67a219c23"},"vehicle_type_id":"4","last_reported":1733872132,"current_range_meters":36400,"station_id":"ce4bhqh2rcd13ifvqhmg","pricing_plan_id":"cebpf4jnsgd1na2vs0mg"},{"bike_id":"f4d45015-cae8-4b91-8472-ef79e4ebbfa8","system_id":"levelo_inurba_marseille","lat":43.294888,"lon":5.438276,"is_reserved":false,"is_disabled":false,"rental_uris":{"android":"levelo://app?vid=f4d45015-cae8-4b91-8472-ef79e4ebbfa8","ios":"levelo://app?vid=f4d45015-cae8-4b91-8472-ef79e4ebbfa8"},"vehicle_type_id":"4","last_reported":1733872132,"current_range_meters":24000,"station_id":"","pricing_plan_id":"cebpf4jnsgd1na2vs0mg"},{"bike_id":"affeae99-5af7-477d-acd9-0c5a0f0da4e1","system_id":"levelo_inurba_marseille","lat":43.31361,"lon":5.38495,"is_reserved":false,"is_disabled":false,"rental_uris":{"android":"levelo://app?vid=affeae99-5af7-477d-acd9-0c5a0f0da4e1","ios":"levelo://app?vid=affeae99-5af7-477d-acd9-0c5a0f0da4e1"},"vehicle_type_id":"4","last_reported":1733872132,"current_range_meters":20800,"station_id":"ce4bgt92rcd13ifvqcf0","pricing_plan_id":"cebpf4jnsgd1na2vs0mg"},{"bike_id":"8517ae66-f6ff-4dd6-9d2d-51917863b4c1","system_id":"levelo_inurba_marseille","lat":43.30882,"lon":5.39657,"is_reserved":false,"is_disabled":false,"rental_uris":{"android":"levelo://app?vid=8517ae66-f6ff-4dd6-9d2d-51917863b4c1","ios":"levelo://app?vid=8517ae66-f6ff-4dd6-9d2d-51917863b4c1"},"vehicle_type_id":"4","last_reported":1733872132,"current_range_meters":38800,"station_id":"ce4bh012rcd13ifvqcv0","pricing_plan_id":"cebpf4jnsgd1na2vs0mg"},{"bike_id":"8bd642b2-0279-44c7-9ee2-fc3b57332c83","system_id":"levelo_inurba_marseille","lat":43.27455,"lon":5.40073,"is_reserved":false,"is_disabled":true,"rental_uris":{"android":"levelo://app?vid=8bd642b2-0279-44c7-9ee2-fc3b57332c83","ios":"levelo://app?vid=8bd642b2-0279-44c7-9ee2-fc3b57332c83"},"vehicle_type_id":"4","last_reported":1733872132,"current_range_meters":0,"station_id":"","pricing_plan_id":"cebpf4jnsgd1na2vs0mg"},{"bike_id":"59b0b34c-6f92-4349-9ebf-bf641fd76061","system_id":"levelo_inurba_marseille","lat":43.27069,"lon":5.42282,"is_reserved":false,"is_disabled":true,"rental_uris":{"android":"levelo://app?vid=59b0b34c-6f92-4349-9ebf-bf641fd76061","ios":"levelo://app?vid=59b0b34c-6f92-4349-9ebf-bf641fd76061"},"vehicle_type_id":"4","last_reported":1733872132,"current_range_meters":28800,"station_id":"ce4bhk92rcd13ifvqgb0","pricing_plan_id":"cebpf4jnsgd1na2vs0mg"},{"bike_id":"0e97a4f9-9494-4d18-8014-d897be428619","system_id":"levelo_inurba_marseille","lat":43.30592,"lon":5.40168,"is_reserved":false,"is_disabled":false,"rental_uris":{"android":"levelo://app?vid=0e97a4f9-9494-4d18-8014-d897be428619","ios":"levelo://app?vid=0e97a4f9-9494-4d18-8014-d897be428619"},"vehicle_type_id":"4","last_reported":1733872132,"current_range_meters":20800,"station_id":"","pricing_plan_id":"cebpf4jnsgd1na2vs0mg"},{"bike_id":"e8623716-563e-4e1f-a0f0-0610c38adc55","system_id":"levelo_inurba_marseille","lat":43.29059,"lon":5.39966,"is_reserved":false,"is_disabled":false,"rental_uris":{"android":"levelo://app?vid=e8623716-563e-4e1f-a0f0-0610c38adc55","ios":"levelo://app?vid=e8623716-563e-4e1f-a0f0-0610c38adc55"},"vehicle_type_id":"4","last_reported":1733872132,"current_range_meters":6000,"station_id":"ce4bh392rcd13ifvqdm0","pricing_plan_id":"cebpf4jnsgd1na2vs0mg"},{"bike_id":"1dad97ad-a656-4121-81e9-3da4e603ecb9","system_id":"levelo_inurba_marseille","lat":43.29015,"lon":5.3592,"is_reserved":false,"is_disabled":false,"rental_uris":{"android":"levelo://app?vid=1dad97ad-a656-4121-81e9-3da4e603ecb9","ios":"levelo://app?vid=1dad97ad-a656-4121-81e9-3da4e603ecb9"},"vehicle_type_id":"4","last_reported":1733872132,"current_range_meters":10000,"station_id":"ce4bha92rcd13ifvqeg0","pricing_plan_id":"cebpf4jnsgd1na2vs0mg"},{"bike_id":"f09914a1-032a-4233-965f-c73f49a269ba","system_id":"levelo_inurba_marseille","lat":43.337444,"lon":5.374475,"is_reserved":false,"is_disabled":true,"rental_uris":{"android":"levelo://app?vid=f09914a1-032a-4233-965f-c73f49a269ba","ios":"levelo://app?vid=f09914a1-032a-4233-965f-c73f49a269ba"},"vehicle_type_id":"4","last_reported":1733872132,"current_range_meters":0,"station_id":"","pricing_plan_id":"cebpf4jnsgd1na2vs0mg"},{"bike_id":"499fba63-6d35-4ec8-b934-4b67877bf634","system_id":"levelo_inurba_marseille","lat":43.25864,"lon":5.399,"is_reserved":false,"is_disabled":false,"rental_uris":{"android":"levelo://app?vid=499fba63-6d35-4ec8-b934-4b67877bf634","ios":"levelo://app?vid=499fba63-6d35-4ec8-b934-4b67877bf634"},"vehicle_type_id":"4","last_reported":1733872132,"current_range_meters":18000,"station_id":"ce4bhl92rcd13ifvqghg","pricing_plan_id":"cebpf4jnsgd1na2vs0mg"},{"bike_id":"4232301f-62cf-4f72-99fa-7b7e52509b87","system_id":"levelo_inurba_marseille","lat":43.337444,"lon":5.374475,"is_reserved":false,"is_disabled":true,"rental_uris":{"android":"levelo://app?vid=4232301f-62cf-4f72-99fa-7b7e52509b87","ios":"levelo://app?vid=4232301f-62cf-4f72-99fa-7b7e52509b87"},"vehicle_type_id":"4","last_reported":1733872132,"current_range_meters":32000,"station_id":"ce4bhoh2rcd13ifvqh5g","pricing_plan_id":"cebpf4jnsgd1na2vs0mg"},{"bike_id":"8ea17690-fa95-47d3-b25a-5a144648903c","system_id":"levelo_inurba_marseille","lat":43.290657,"lon":5.384863,"is_reserved":false,"is_disabled":false,"rental_uris":{"android":"levelo://app?vid=8ea17690-fa95-47d3-b25a-5a144648903c","ios":"levelo://app?vid=8ea17690-fa95-47d3-b25a-5a144648903c"},"vehicle_type_id":"4","last_reported":1733872132,"current_range_meters":8800,"station_id":"","pricing_plan_id":"cebpf4jnsgd1na2vs0mg"},{"bike_id":"f6ceca24-19af-4ed8-b20b-dad7699688ae","system_id":"levelo_inurba_marseille","lat":43.32481,"lon":5.36581,"is_reserved":false,"is_disabled":true,"rental_uris":{"android":"levelo://app?vid=f6ceca24-19af-4ed8-b20b-dad7699688ae","ios":"levelo://app?vid=f6ceca24-19af-4ed8-b20b-dad7699688ae"},"vehicle_type_id":"4","last_reported":1733872132,"current_range_meters":21600,"station_id":"ce4bhs12rcd13ifvqhvg","pricing_plan_id":"cebpf4jnsgd1na2vs0mg"},{"bike_id":"c6dfc32e-27e7-4bcc-b052-16f1beab3eaa","system_id":"levelo_inurba_marseille","lat":43.28153,"lon":5.42647,"is_reserved":false,"is_disabled":false,"rental_uris":{"android":"levelo://app?vid=c6dfc32e-27e7-4bcc-b052-16f1beab3eaa","ios":"levelo://app?vid=c6dfc32e-27e7-4bcc-b052-16f1beab3eaa"},"vehicle_type_id":"4","last_reported":1733872132,"current_range_meters":20400,"station_id":"ce4bhnh2rcd13ifvqgug","pricing_plan_id":"cebpf4jnsgd1na2vs0mg"},{"bike_id":"56d5a060-025c-47e4-a766-7625b30c6a58","system_id":"levelo_inurba_marseille","lat":43.31167,"lon":5.3872,"is_reserved":false,"is_disabled":false,"rental_uris":{"android":"levelo://app?vid=56d5a060-025c-47e4-a766-7625b30c6a58","ios":"levelo://app?vid=56d5a060-025c-47e4-a766-7625b30c6a58"},"vehicle_type_id":"4","last_reported":1733872132,"current_range_meters":33200,"station_id":"ce4bgv12rcd13ifvqcp0","pricing_plan_id":"cebpf4jnsgd1na2vs0mg"},{"bike_id":"acea7ec0-cbda-41f3-be04-a34748e63d59","system_id":"levelo_inurba_marseille","lat":43.28034,"lon":5.36943,"is_reserved":false,"is_disabled":false,"rental_uris":{"android":"levelo://app?vid=acea7ec0-cbda-41f3-be04-a34748e63d59","ios":"levelo://app?vid=acea7ec0-cbda-41f3-be04-a34748e63d59"},"vehicle_type_id":"4","last_reported":1733872132,"current_range_meters":28400,"station_id":"ce4bha12rcd13ifvqef0","pricing_plan_id":"cebpf4jnsgd1na2vs0mg"},{"bike_id":"7c54a220-59e1-4e4b-938a-1653b1665605","system_id":"levelo_inurba_marseille","lat":43.31369,"lon":5.38498,"is_reserved":false,"is_disabled":false,"rental_uris":{"android":"levelo://app?vid=7c54a220-59e1-4e4b-938a-1653b1665605","ios":"levelo://app?vid=7c54a220-59e1-4e4b-938a-1653b1665605"},"vehicle_type_id":"4","last_reported":1733872132,"current_range_meters":24000,"station_id":"ce4bgt92rcd13ifvqcf0","pricing_plan_id":"cebpf4jnsgd1na2vs0mg"},{"bike_id":"0d3fb4b9-872d-45e1-909a-e34fdffa9da0","system_id":"levelo_inurba_marseille","lat":43.28029,"lon":5.3694,"is_reserved":false,"is_disabled":false,"rental_uris":{"android":"levelo://app?vid=0d3fb4b9-872d-45e1-909a-e34fdffa9da0","ios":"levelo://app?vid=0d3fb4b9-872d-45e1-909a-e34fdffa9da0"},"vehicle_type_id":"4","last_reported":1733872132,"current_range_meters":27200,"station_id":"ce4bha12rcd13ifvqef0","pricing_plan_id":"cebpf4jnsgd1na2vs0mg"},{"bike_id":"9798a14a-cd61-47ed-aaf1-b8c85e3fdb91","system_id":"levelo_inurba_marseille","lat":43.28938,"lon":5.36635,"is_reserved":false,"is_disabled":true,"rental_uris":{"android":"levelo://app?vid=9798a14a-cd61-47ed-aaf1-b8c85e3fdb91","ios":"levelo://app?vid=9798a14a-cd61-47ed-aaf1-b8c85e3fdb91"},"vehicle_type_id":"4","last_reported":1733872132,"current_range_meters":3200,"station_id":"ce4bhap2rcd13ifvqek0","pricing_plan_id":"cebpf4jnsgd1na2vs0mg"},{"bike_id":"f742d182-a4c1-4ed5-8168-7831b028526b","system_id":"levelo_inurba_marseille","lat":43.32359,"lon":5.38893,"is_reserved":false,"is_disabled":false,"rental_uris":{"android":"levelo://app?vid=f742d182-a4c1-4ed5-8168-7831b028526b","ios":"levelo://app?vid=f742d182-a4c1-4ed5-8168-7831b028526b"},"vehicle_type_id":"4","last_reported":1733872132,"current_range_meters":38800,"station_id":"ce4bhqp2rcd13ifvqhog","pricing_plan_id":"cebpf4jnsgd1na2vs0mg"},{"bike_id":"9a8f7d6e-f0b3-4496-add2-e9124652bb7b","system_id":"levelo_inurba_marseille","lat":43.29548,"lon":5.42281,"is_reserved":false,"is_disabled":false,"rental_uris":{"android":"levelo://app?vid=9a8f7d6e-f0b3-4496-add2-e9124652bb7b","ios":"levelo://app?vid=9a8f7d6e-f0b3-4496-add2-e9124652bb7b"},"vehicle_type_id":"4","last_reported":1733872132,"current_range_meters":24800,"station_id":"ce4bhph2rcd13ifvqhdg","pricing_plan_id":"cebpf4jnsgd1na2vs0mg"},{"bike_id":"9f10c2c9-55ec-4460-a121-3f5fecd15570","system_id":"levelo_inurba_marseille","lat":43.31481,"lon":5.37301,"is_reserved":false,"is_disabled":false,"rental_uris":{"android":"levelo://app?vid=9f10c2c9-55ec-4460-a121-3f5fecd15570","ios":"levelo://app?vid=9f10c2c9-55ec-4460-a121-3f5fecd15570"},"vehicle_type_id":"4","last_reported":1733872132,"current_range_meters":31200,"station_id":"ce4bgt12rcd13ifvqcd0","pricing_plan_id":"cebpf4jnsgd1na2vs0mg"},{"bike_id":"6759c756-c36f-4ebb-8466-b04f64ae8da5","system_id":"levelo_inurba_marseille","lat":43.26566,"lon":5.37277,"is_reserved":false,"is_disabled":false,"rental_uris":{"android":"levelo://app?vid=6759c756-c36f-4ebb-8466-b04f64ae8da5","ios":"levelo://app?vid=6759c756-c36f-4ebb-8466-b04f64ae8da5"},"vehicle_type_id":"4","last_reported":1733872132,"current_range_meters":16000,"station_id":"ce4bhg12rcd13ifvqf70","pricing_plan_id":"cebpf4jnsgd1na2vs0mg"},{"bike_id":"63f51a99-e88f-4e4d-b4df-03a3652dc436","system_id":"levelo_inurba_marseille","lat":43.28861,"lon":5.3587,"is_reserved":false,"is_disabled":false,"rental_uris":{"android":"levelo://app?vid=63f51a99-e88f-4e4d-b4df-03a3652dc436","ios":"levelo://app?vid=63f51a99-e88f-4e4d-b4df-03a3652dc436"},"vehicle_type_id":"4","last_reported":1733872132,"current_range_meters":30800,"station_id":"ce4bhb12rcd13ifvqem0","pricing_plan_id":"cebpf4jnsgd1na2vs0mg"},{"bike_id":"70f6d5da-309a-407d-b0a2-0fc4f678efcd","system_id":"levelo_inurba_marseille","lat":43.31236,"lon":5.3686,"is_reserved":false,"is_disabled":true,"rental_uris":{"android":"levelo://app?vid=70f6d5da-309a-407d-b0a2-0fc4f678efcd","ios":"levelo://app?vid=70f6d5da-309a-407d-b0a2-0fc4f678efcd"},"vehicle_type_id":"4","last_reported":1733872132,"current_range_meters":1200,"station_id":"ce4bgl92rcd13ifvqbq0","pricing_plan_id":"cebpf4jnsgd1na2vs0mg"},{"bike_id":"a75f2e36-4d15-4ce2-9527-3c1cd13156b5","system_id":"levelo_inurba_marseille","lat":43.27818,"lon":5.40684,"is_reserved":false,"is_disabled":false,"rental_uris":{"android":"levelo://app?vid=a75f2e36-4d15-4ce2-9527-3c1cd13156b5","ios":"levelo://app?vid=a75f2e36-4d15-4ce2-9527-3c1cd13156b5"},"vehicle_type_id":"4","last_reported":1733872132,"current_range_meters":38000,"station_id":"ce4bhnh2rcd13ifvqgtg","pricing_plan_id":"cebpf4jnsgd1na2vs0mg"},{"bike_id":"d7a879f6-0e25-4ad7-a843-848b313ff6c1","system_id":"levelo_inurba_marseille","lat":43.29433,"lon":5.39762,"is_reserved":false,"is_disabled":true,"rental_uris":{"android":"levelo://app?vid=d7a879f6-0e25-4ad7-a843-848b313ff6c1","ios":"levelo://app?vid=d7a879f6-0e25-4ad7-a843-848b313ff6c1"},"vehicle_type_id":"4","last_reported":1733872132,"current_range_meters":38400,"station_id":"ce4bh3h2rcd13ifvqdo0","pricing_plan_id":"cebpf4jnsgd1na2vs0mg"},{"bike_id":"3382ae16-d77d-40d4-ade6-aa3116784e40","system_id":"levelo_inurba_marseille","lat":43.29553,"lon":5.42288,"is_reserved":false,"is_disabled":false,"rental_uris":{"android":"levelo://app?vid=3382ae16-d77d-40d4-ade6-aa3116784e40","ios":"levelo://app?vid=3382ae16-d77d-40d4-ade6-aa3116784e40"},"vehicle_type_id":"4","last_reported":1733872132,"current_range_meters":39200,"station_id":"ce4bhph2rcd13ifvqhdg","pricing_plan_id":"cebpf4jnsgd1na2vs0mg"},{"bike_id":"7cf3b644-15ba-4035-8c8a-1bafb733469c","system_id":"levelo_inurba_marseille","lat":43.30144,"lon":5.37422,"is_reserved":false,"is_disabled":false,"rental_uris":{"android":"levelo://app?vid=7cf3b644-15ba-4035-8c8a-1bafb733469c","ios":"levelo://app?vid=7cf3b644-15ba-4035-8c8a-1bafb733469c"},"vehicle_type_id":"4","last_reported":1733872132,"current_range_meters":24400,"station_id":"ce4bgs92rcd13ifvqcc0","pricing_plan_id":"cebpf4jnsgd1na2vs0mg"},{"bike_id":"2f3968e7-9336-4ee4-ba78-8e92c0a818cc","system_id":"levelo_inurba_marseille","lat":43.31322,"lon":5.36647,"is_reserved":false,"is_disabled":true,"rental_uris":{"android":"levelo://app?vid=2f3968e7-9336-4ee4-ba78-8e92c0a818cc","ios":"levelo://app?vid=2f3968e7-9336-4ee4-ba78-8e92c0a818cc"},"vehicle_type_id":"4","last_reported":1733872132,"current_range_meters":0,"station_id":"","pricing_plan_id":"cebpf4jnsgd1na2vs0mg"},{"bike_id":"54a3175b-09c1-4988-a335-546838d9d582","system_id":"levelo_inurba_marseille","lat":43.2957,"lon":5.39975,"is_reserved":false,"is_disabled":false,"rental_uris":{"android":"levelo://app?vid=54a3175b-09c1-4988-a335-546838d9d582","ios":"levelo://app?vid=54a3175b-09c1-4988-a335-546838d9d582"},"vehicle_type_id":"4","last_reported":1733872132,"current_range_meters":38800,"station_id":"ce4bh312rcd13ifvqdj0","pricing_plan_id":"cebpf4jnsgd1na2vs0mg"},{"bike_id":"8a5ec9a7-aee2-4a51-8cc7-336f9eb55348","system_id":"levelo_inurba_marseille","lat":43.31526,"lon":5.38032,"is_reserved":false,"is_disabled":false,"rental_uris":{"android":"levelo://app?vid=8a5ec9a7-aee2-4a51-8cc7-336f9eb55348","ios":"levelo://app?vid=8a5ec9a7-aee2-4a51-8cc7-336f9eb55348"},"vehicle_type_id":"4","last_reported":1733872132,"current_range_meters":37600,"station_id":"ce4bhsp2rcd13ifvqi50","pricing_plan_id":"cebpf4jnsgd1na2vs0mg"},{"bike_id":"296ab8cb-e177-4af2-b784-e043c3ebc1c3","system_id":"levelo_inurba_marseille","lat":43.30694,"lon":5.40076,"is_reserved":false,"is_disabled":false,"rental_uris":{"android":"levelo://app?vid=296ab8cb-e177-4af2-b784-e043c3ebc1c3","ios":"levelo://app?vid=296ab8cb-e177-4af2-b784-e043c3ebc1c3"},"vehicle_type_id":"4","last_reported":1733872132,"current_range_meters":38800,"station_id":"ce4bh112rcd13ifvqda0","pricing_plan_id":"cebpf4jnsgd1na2vs0mg"},{"bike_id":"75791e08-5163-4396-ab56-c5d4b5cc5ecd","system_id":"levelo_inurba_marseille","lat":43.24392,"lon":5.37062,"is_reserved":false,"is_disabled":false,"rental_uris":{"android":"levelo://app?vid=75791e08-5163-4396-ab56-c5d4b5cc5ecd","ios":"levelo://app?vid=75791e08-5163-4396-ab56-c5d4b5cc5ecd"},"vehicle_type_id":"4","last_reported":1733872132,"current_range_meters":38800,"station_id":"ce4bhhh2rcd13ifvqfk0","pricing_plan_id":"cebpf4jnsgd1na2vs0mg"},{"bike_id":"215c1549-0db8-4dd1-89f9-3e1b19b2c58d","system_id":"levelo_inurba_marseille","lat":43.27988,"lon":5.40026,"is_reserved":false,"is_disabled":true,"rental_uris":{"android":"levelo://app?vid=215c1549-0db8-4dd1-89f9-3e1b19b2c58d","ios":"levelo://app?vid=215c1549-0db8-4dd1-89f9-3e1b19b2c58d"},"vehicle_type_id":"4","last_reported":1733872132,"current_range_meters":1600,"station_id":"ce4bho92rcd13ifvqh4g","pricing_plan_id":"cebpf4jnsgd1na2vs0mg"},{"bike_id":"844bd8d7-c23e-440a-bf42-a0bfecd3f520","system_id":"levelo_inurba_marseille","lat":43.30595,"lon":5.37192,"is_reserved":false,"is_disabled":false,"rental_uris":{"android":"levelo://app?vid=844bd8d7-c23e-440a-bf42-a0bfecd3f520","ios":"levelo://app?vid=844bd8d7-c23e-440a-bf42-a0bfecd3f520"},"vehicle_type_id":"4","last_reported":1733872132,"current_range_meters":28000,"station_id":"ce4bgqh2rcd13ifvqc4g","pricing_plan_id":"cebpf4jnsgd1na2vs0mg"},{"bike_id":"49782732-c1a6-4c2f-8cd6-f0c41d19caf5","system_id":"levelo_inurba_marseille","lat":43.290409,"lon":5.399741,"is_reserved":false,"is_disabled":false,"rental_uris":{"android":"levelo://app?vid=49782732-c1a6-4c2f-8cd6-f0c41d19caf5","ios":"levelo://app?vid=49782732-c1a6-4c2f-8cd6-f0c41d19caf5"},"vehicle_type_id":"4","last_reported":1733872132,"current_range_meters":28400,"station_id":"ce4bh392rcd13ifvqdm0","pricing_plan_id":"cebpf4jnsgd1na2vs0mg"},{"bike_id":"70fa3b16-4f34-4b08-8795-d6cb5ef08a68","system_id":"levelo_inurba_marseille","lat":43.24548,"lon":5.3952,"is_reserved":false,"is_disabled":false,"rental_uris":{"android":"levelo://app?vid=70fa3b16-4f34-4b08-8795-d6cb5ef08a68","ios":"levelo://app?vid=70fa3b16-4f34-4b08-8795-d6cb5ef08a68"},"vehicle_type_id":"4","last_reported":1733872132,"current_range_meters":38800,"station_id":"ce4bhlp2rcd13ifvqgjg","pricing_plan_id":"cebpf4jnsgd1na2vs0mg"},{"bike_id":"0b7ea693-c4bb-4268-931a-f9f6f8ec27a7","system_id":"levelo_inurba_marseille","lat":43.28945,"lon":5.36395,"is_reserved":false,"is_disabled":false,"rental_uris":{"android":"levelo://app?vid=0b7ea693-c4bb-4268-931a-f9f6f8ec27a7","ios":"levelo://app?vid=0b7ea693-c4bb-4268-931a-f9f6f8ec27a7"},"vehicle_type_id":"4","last_reported":1733872132,"current_range_meters":36800,"station_id":"ce4bhc92rcd13ifvqetg","pricing_plan_id":"cebpf4jnsgd1na2vs0mg"},{"bike_id":"02b35678-f4a7-4801-8ef2-5a96033c92be","system_id":"levelo_inurba_marseille","lat":43.31076,"lon":5.38341,"is_reserved":false,"is_disabled":false,"rental_uris":{"android":"levelo://app?vid=02b35678-f4a7-4801-8ef2-5a96033c92be","ios":"levelo://app?vid=02b35678-f4a7-4801-8ef2-5a96033c92be"},"vehicle_type_id":"4","last_reported":1733872132,"current_range_meters":32400,"station_id":"ce4bgv92rcd13ifvqcr0","pricing_plan_id":"cebpf4jnsgd1na2vs0mg"},{"bike_id":"f32467db-cf0d-44a5-8115-2d51ee9eff51","system_id":"levelo_inurba_marseille","lat":43.30435,"lon":5.38887,"is_reserved":false,"is_disabled":false,"rental_uris":{"android":"levelo://app?vid=f32467db-cf0d-44a5-8115-2d51ee9eff51","ios":"levelo://app?vid=f32467db-cf0d-44a5-8115-2d51ee9eff51"},"vehicle_type_id":"4","last_reported":1733872132,"current_range_meters":33600,"station_id":"ce4bgk12rcd13ifvqbi0","pricing_plan_id":"cebpf4jnsgd1na2vs0mg"},{"bike_id":"cacc44c0-24fb-4c8e-869f-fe47763ec521","system_id":"levelo_inurba_marseille","lat":43.31272,"lon":5.40165,"is_reserved":false,"is_disabled":false,"rental_uris":{"android":"levelo://app?vid=cacc44c0-24fb-4c8e-869f-fe47763ec521","ios":"levelo://app?vid=cacc44c0-24fb-4c8e-869f-fe47763ec521"},"vehicle_type_id":"4","last_reported":1733872132,"current_range_meters":39200,"station_id":"ce4bh092rcd13ifvqd30","pricing_plan_id":"cebpf4jnsgd1na2vs0mg"},{"bike_id":"014cf524-69c6-4b89-b41e-8fb18927cd86","system_id":"levelo_inurba_marseille","lat":43.30806,"lon":5.43521,"is_reserved":false,"is_disabled":false,"rental_uris":{"android":"levelo://app?vid=014cf524-69c6-4b89-b41e-8fb18927cd86","ios":"levelo://app?vid=014cf524-69c6-4b89-b41e-8fb18927cd86"},"vehicle_type_id":"4","last_reported":1733872132,"current_range_meters":24800,"station_id":"ce4bhph2rcd13ifvqheg","pricing_plan_id":"cebpf4jnsgd1na2vs0mg"},{"bike_id":"12add500-ea1f-403d-bb3c-de83ce61c6f3","system_id":"levelo_inurba_marseille","lat":43.28944,"lon":5.3663,"is_reserved":false,"is_disabled":true,"rental_uris":{"android":"levelo://app?vid=12add500-ea1f-403d-bb3c-de83ce61c6f3","ios":"levelo://app?vid=12add500-ea1f-403d-bb3c-de83ce61c6f3"},"vehicle_type_id":"4","last_reported":1733872132,"current_range_meters":33200,"station_id":"ce4bhap2rcd13ifvqek0","pricing_plan_id":"cebpf4jnsgd1na2vs0mg"},{"bike_id":"31b9dc14-975f-4a3e-bcc5-194ee4280d5a","system_id":"levelo_inurba_marseille","lat":43.27983,"lon":5.41646,"is_reserved":false,"is_disabled":false,"rental_uris":{"android":"levelo://app?vid=31b9dc14-975f-4a3e-bcc5-194ee4280d5a","ios":"levelo://app?vid=31b9dc14-975f-4a3e-bcc5-194ee4280d5a"},"vehicle_type_id":"4","last_reported":1733872132,"current_range_meters":36000,"station_id":"ce4bho12rcd13ifvqh1g","pricing_plan_id":"cebpf4jnsgd1na2vs0mg"},{"bike_id":"be45178b-17ee-49ac-b151-4f7e4227bfa2","system_id":"levelo_inurba_marseille","lat":43.280398,"lon":5.369403,"is_reserved":false,"is_disabled":false,"rental_uris":{"android":"levelo://app?vid=be45178b-17ee-49ac-b151-4f7e4227bfa2","ios":"levelo://app?vid=be45178b-17ee-49ac-b151-4f7e4227bfa2"},"vehicle_type_id":"4","last_reported":1733872132,"current_range_meters":38800,"station_id":"ce4bha12rcd13ifvqef0","pricing_plan_id":"cebpf4jnsgd1na2vs0mg"},{"bike_id":"2410b01a-5da7-4d60-be03-4988951089e2","system_id":"levelo_inurba_marseille","lat":43.28107,"lon":5.37835,"is_reserved":false,"is_disabled":false,"rental_uris":{"android":"levelo://app?vid=2410b01a-5da7-4d60-be03-4988951089e2","ios":"levelo://app?vid=2410b01a-5da7-4d60-be03-4988951089e2"},"vehicle_type_id":"4","last_reported":1733872132,"current_range_meters":37600,"station_id":"ce4bha12rcd13ifvqee0","pricing_plan_id":"cebpf4jnsgd1na2vs0mg"},{"bike_id":"15b20b6b-daab-4da2-a228-a8042b0ad8e7","system_id":"levelo_inurba_marseille","lat":43.28847,"lon":5.35852,"is_reserved":false,"is_disabled":false,"rental_uris":{"android":"levelo://app?vid=15b20b6b-daab-4da2-a228-a8042b0ad8e7","ios":"levelo://app?vid=15b20b6b-daab-4da2-a228-a8042b0ad8e7"},"vehicle_type_id":"4","last_reported":1733872132,"current_range_meters":38000,"station_id":"ce4bhb12rcd13ifvqem0","pricing_plan_id":"cebpf4jnsgd1na2vs0mg"},{"bike_id":"ce93eba4-a260-4242-bfd1-eb4a1083d4a6","system_id":"levelo_inurba_marseille","lat":43.27366,"lon":5.36259,"is_reserved":false,"is_disabled":false,"rental_uris":{"android":"levelo://app?vid=ce93eba4-a260-4242-bfd1-eb4a1083d4a6","ios":"levelo://app?vid=ce93eba4-a260-4242-bfd1-eb4a1083d4a6"},"vehicle_type_id":"4","last_reported":1733872132,"current_range_meters":39200,"station_id":"ce4bhbh2rcd13ifvqeo0","pricing_plan_id":"cebpf4jnsgd1na2vs0mg"},{"bike_id":"47c92de8-b6d5-45bb-9b41-090bd82afb07","system_id":"levelo_inurba_marseille","lat":43.3061,"lon":5.37207,"is_reserved":false,"is_disabled":false,"rental_uris":{"android":"levelo://app?vid=47c92de8-b6d5-45bb-9b41-090bd82afb07","ios":"levelo://app?vid=47c92de8-b6d5-45bb-9b41-090bd82afb07"},"vehicle_type_id":"4","last_reported":1733872132,"current_range_meters":27600,"station_id":"ce4bgqh2rcd13ifvqc4g","pricing_plan_id":"cebpf4jnsgd1na2vs0mg"},{"bike_id":"7772d601-3886-4ddf-bc2a-d375776fe6ae","system_id":"levelo_inurba_marseille","lat":43.3361,"lon":5.41031,"is_reserved":false,"is_disabled":false,"rental_uris":{"android":"levelo://app?vid=7772d601-3886-4ddf-bc2a-d375776fe6ae","ios":"levelo://app?vid=7772d601-3886-4ddf-bc2a-d375776fe6ae"},"vehicle_type_id":"4","last_reported":1733872132,"current_range_meters":33200,"station_id":"ce4bhqh2rcd13ifvqhmg","pricing_plan_id":"cebpf4jnsgd1na2vs0mg"},{"bike_id":"9734b120-c4e4-4325-a738-780027e8da66","system_id":"levelo_inurba_marseille","lat":43.28035,"lon":5.36944,"is_reserved":false,"is_disabled":false,"rental_uris":{"android":"levelo://app?vid=9734b120-c4e4-4325-a738-780027e8da66","ios":"levelo://app?vid=9734b120-c4e4-4325-a738-780027e8da66"},"vehicle_type_id":"4","last_reported":1733872132,"current_range_meters":30400,"station_id":"ce4bha12rcd13ifvqef0","pricing_plan_id":"cebpf4jnsgd1na2vs0mg"},{"bike_id":"c1af07c0-ed11-49c8-aa2e-1104638a28b7","system_id":"levelo_inurba_marseille","lat":43.23063,"lon":5.35492,"is_reserved":false,"is_disabled":false,"rental_uris":{"android":"levelo://app?vid=c1af07c0-ed11-49c8-aa2e-1104638a28b7","ios":"levelo://app?vid=c1af07c0-ed11-49c8-aa2e-1104638a28b7"},"vehicle_type_id":"4","last_reported":1733872132,"current_range_meters":16800,"station_id":"cpo3342slgdg3j2ifvpg","pricing_plan_id":"cebpf4jnsgd1na2vs0mg"},{"bike_id":"62fc8764-a9a2-46fc-b59b-39e0e5007705","system_id":"levelo_inurba_marseille","lat":43.284653,"lon":5.358778,"is_reserved":false,"is_disabled":false,"rental_uris":{"android":"levelo://app?vid=62fc8764-a9a2-46fc-b59b-39e0e5007705","ios":"levelo://app?vid=62fc8764-a9a2-46fc-b59b-39e0e5007705"},"vehicle_type_id":"4","last_reported":1733872132,"current_range_meters":38400,"station_id":"ce4bhah2rcd13ifvqei0","pricing_plan_id":"cebpf4jnsgd1na2vs0mg"},{"bike_id":"11662efe-6a94-46cf-bea5-2f4809a90b5b","system_id":"levelo_inurba_marseille","lat":43.28467,"lon":5.38533,"is_reserved":false,"is_disabled":false,"rental_uris":{"android":"levelo://app?vid=11662efe-6a94-46cf-bea5-2f4809a90b5b","ios":"levelo://app?vid=11662efe-6a94-46cf-bea5-2f4809a90b5b"},"vehicle_type_id":"4","last_reported":1733872132,"current_range_meters":32400,"station_id":"ce4bh8p2rcd13ifvqeb0","pricing_plan_id":"cebpf4jnsgd1na2vs0mg"},{"bike_id":"7d344c9c-169f-43df-a2e8-f6d4868c2684","system_id":"levelo_inurba_marseille","lat":43.30879,"lon":5.39657,"is_reserved":false,"is_disabled":false,"rental_uris":{"android":"levelo://app?vid=7d344c9c-169f-43df-a2e8-f6d4868c2684","ios":"levelo://app?vid=7d344c9c-169f-43df-a2e8-f6d4868c2684"},"vehicle_type_id":"4","last_reported":1733872132,"current_range_meters":14000,"station_id":"ce4bh012rcd13ifvqcv0","pricing_plan_id":"cebpf4jnsgd1na2vs0mg"},{"bike_id":"a9dde08b-6d06-4ebc-b232-3bba2d50b767","system_id":"levelo_inurba_marseille","lat":43.31756,"lon":5.39015,"is_reserved":false,"is_disabled":false,"rental_uris":{"android":"levelo://app?vid=a9dde08b-6d06-4ebc-b232-3bba2d50b767","ios":"levelo://app?vid=a9dde08b-6d06-4ebc-b232-3bba2d50b767"},"vehicle_type_id":"4","last_reported":1733872132,"current_range_meters":36800,"station_id":"ce4bhqp2rcd13ifvqhng","pricing_plan_id":"cebpf4jnsgd1na2vs0mg"},{"bike_id":"dee835e6-f2ba-4a33-9e4b-7ee13e6d35dc","system_id":"levelo_inurba_marseille","lat":43.28616,"lon":5.35102,"is_reserved":false,"is_disabled":false,"rental_uris":{"android":"levelo://app?vid=dee835e6-f2ba-4a33-9e4b-7ee13e6d35dc","ios":"levelo://app?vid=dee835e6-f2ba-4a33-9e4b-7ee13e6d35dc"},"vehicle_type_id":"4","last_reported":1733872132,"current_range_meters":27200,"station_id":"ce4bhch2rcd13ifvqeug","pricing_plan_id":"cebpf4jnsgd1na2vs0mg"},{"bike_id":"6f5aafc4-06b9-4dba-b612-5d926167490b","system_id":"levelo_inurba_marseille","lat":43.32477,"lon":5.36582,"is_reserved":false,"is_disabled":true,"rental_uris":{"android":"levelo://app?vid=6f5aafc4-06b9-4dba-b612-5d926167490b","ios":"levelo://app?vid=6f5aafc4-06b9-4dba-b612-5d926167490b"},"vehicle_type_id":"4","last_reported":1733872132,"current_range_meters":0,"station_id":"ce4bhs12rcd13ifvqhvg","pricing_plan_id":"cebpf4jnsgd1na2vs0mg"},{"bike_id":"1a86fe30-22f2-464b-a186-7eec9c054327","system_id":"levelo_inurba_marseille","lat":43.31117,"lon":5.37769,"is_reserved":false,"is_disabled":false,"rental_uris":{"android":"levelo://app?vid=1a86fe30-22f2-464b-a186-7eec9c054327","ios":"levelo://app?vid=1a86fe30-22f2-464b-a186-7eec9c054327"},"vehicle_type_id":"4","last_reported":1733872132,"current_range_meters":30800,"station_id":"ce4bgt92rcd13ifvqcg0","pricing_plan_id":"cebpf4jnsgd1na2vs0mg"},{"bike_id":"54b87f69-9e8b-43af-8b62-afe45ccf4c1c","system_id":"levelo_inurba_marseille","lat":43.29724,"lon":5.36609,"is_reserved":false,"is_disabled":false,"rental_uris":{"android":"levelo://app?vid=54b87f69-9e8b-43af-8b62-afe45ccf4c1c","ios":"levelo://app?vid=54b87f69-9e8b-43af-8b62-afe45ccf4c1c"},"vehicle_type_id":"4","last_reported":1733872132,"current_range_meters":39200,"station_id":"ce4bgn12rcd13ifvqbt0","pricing_plan_id":"cebpf4jnsgd1na2vs0mg"},{"bike_id":"6073c691-1d9a-4822-aed9-38a08f4a6df9","system_id":"levelo_inurba_marseille","lat":43.30419,"lon":5.41282,"is_reserved":false,"is_disabled":false,"rental_uris":{"android":"levelo://app?vid=6073c691-1d9a-4822-aed9-38a08f4a6df9","ios":"levelo://app?vid=6073c691-1d9a-4822-aed9-38a08f4a6df9"},"vehicle_type_id":"4","last_reported":1733872132,"current_range_meters":38000,"station_id":"ce4bhop2rcd13ifvqh8g","pricing_plan_id":"cebpf4jnsgd1na2vs0mg"},{"bike_id":"192c7215-c928-4138-9a2c-6c048775082a","system_id":"levelo_inurba_marseille","lat":43.25115,"lon":5.4032,"is_reserved":false,"is_disabled":true,"rental_uris":{"android":"levelo://app?vid=192c7215-c928-4138-9a2c-6c048775082a","ios":"levelo://app?vid=192c7215-c928-4138-9a2c-6c048775082a"},"vehicle_type_id":"4","last_reported":1733872132,"current_range_meters":0,"station_id":"ce4bhlh2rcd13ifvqgig","pricing_plan_id":"cebpf4jnsgd1na2vs0mg"},{"bike_id":"74ddbdc3-b082-4f44-a075-38dfc2e6b2cd","system_id":"levelo_inurba_marseille","lat":43.24164,"lon":5.36398,"is_reserved":false,"is_disabled":false,"rental_uris":{"android":"levelo://app?vid=74ddbdc3-b082-4f44-a075-38dfc2e6b2cd","ios":"levelo://app?vid=74ddbdc3-b082-4f44-a075-38dfc2e6b2cd"},"vehicle_type_id":"4","last_reported":1733872132,"current_range_meters":19600,"station_id":"cpo36qri1sfpv3e86is0","pricing_plan_id":"cebpf4jnsgd1na2vs0mg"},{"bike_id":"c686933c-fda6-483a-93e8-899283bfaa69","system_id":"levelo_inurba_marseille","lat":43.33021,"lon":5.39035,"is_reserved":false,"is_disabled":false,"rental_uris":{"android":"levelo://app?vid=c686933c-fda6-483a-93e8-899283bfaa69","ios":"levelo://app?vid=c686933c-fda6-483a-93e8-899283bfaa69"},"vehicle_type_id":"4","last_reported":1733872132,"current_range_meters":38800,"station_id":"ce4bhr92rcd13ifvqhrg","pricing_plan_id":"cebpf4jnsgd1na2vs0mg"},{"bike_id":"627751bc-d2b6-495a-97de-471267d080a6","system_id":"levelo_inurba_marseille","lat":43.30316,"lon":5.40438,"is_reserved":false,"is_disabled":true,"rental_uris":{"android":"levelo://app?vid=627751bc-d2b6-495a-97de-471267d080a6","ios":"levelo://app?vid=627751bc-d2b6-495a-97de-471267d080a6"},"vehicle_type_id":"4","last_reported":1733872132,"current_range_meters":37600,"station_id":"ce4bh012rcd13ifvqd10","pricing_plan_id":"cebpf4jnsgd1na2vs0mg"},{"bike_id":"9cd79aab-6f4c-4919-b570-803a9e8b35c5","system_id":"levelo_inurba_marseille","lat":43.30469,"lon":5.36703,"is_reserved":false,"is_disabled":true,"rental_uris":{"android":"levelo://app?vid=9cd79aab-6f4c-4919-b570-803a9e8b35c5","ios":"levelo://app?vid=9cd79aab-6f4c-4919-b570-803a9e8b35c5"},"vehicle_type_id":"4","last_reported":1733872132,"current_range_meters":22000,"station_id":"","pricing_plan_id":"cebpf4jnsgd1na2vs0mg"},{"bike_id":"13f377ca-99b2-48ff-93be-6b0ac3120bbb","system_id":"levelo_inurba_marseille","lat":43.28452,"lon":5.39187,"is_reserved":false,"is_disabled":true,"rental_uris":{"android":"levelo://app?vid=13f377ca-99b2-48ff-93be-6b0ac3120bbb","ios":"levelo://app?vid=13f377ca-99b2-48ff-93be-6b0ac3120bbb"},"vehicle_type_id":"4","last_reported":1733872132,"current_range_meters":38000,"station_id":"ce4bhoh2rcd13ifvqh5g","pricing_plan_id":"cebpf4jnsgd1na2vs0mg"},{"bike_id":"d4cf4dc8-25ec-4bf6-92cf-917fbe800064","system_id":"levelo_inurba_marseille","lat":43.26995,"lon":5.38766,"is_reserved":false,"is_disabled":false,"rental_uris":{"android":"levelo://app?vid=d4cf4dc8-25ec-4bf6-92cf-917fbe800064","ios":"levelo://app?vid=d4cf4dc8-25ec-4bf6-92cf-917fbe800064"},"vehicle_type_id":"4","last_reported":1733872132,"current_range_meters":8400,"station_id":"","pricing_plan_id":"cebpf4jnsgd1na2vs0mg"},{"bike_id":"fd164b21-2dab-4351-954f-ff56dadaa227","system_id":"levelo_inurba_marseille","lat":43.250921,"lon":5.395247,"is_reserved":false,"is_disabled":true,"rental_uris":{"android":"levelo://app?vid=fd164b21-2dab-4351-954f-ff56dadaa227","ios":"levelo://app?vid=fd164b21-2dab-4351-954f-ff56dadaa227"},"vehicle_type_id":"4","last_reported":1733872132,"current_range_meters":12400,"station_id":"","pricing_plan_id":"cebpf4jnsgd1na2vs0mg"},{"bike_id":"18aa15f5-a8e4-419a-a630-a462cd1365df","system_id":"levelo_inurba_marseille","lat":43.23961,"lon":5.36633,"is_reserved":false,"is_disabled":false,"rental_uris":{"android":"levelo://app?vid=18aa15f5-a8e4-419a-a630-a462cd1365df","ios":"levelo://app?vid=18aa15f5-a8e4-419a-a630-a462cd1365df"},"vehicle_type_id":"4","last_reported":1733872132,"current_range_meters":8000,"station_id":"ce4bhi12rcd13ifvqfp0","pricing_plan_id":"cebpf4jnsgd1na2vs0mg"},{"bike_id":"91e195df-17b2-4084-bbfe-158bf0cc8cf2","system_id":"levelo_inurba_marseille","lat":43.31177,"lon":5.38716,"is_reserved":false,"is_disabled":false,"rental_uris":{"android":"levelo://app?vid=91e195df-17b2-4084-bbfe-158bf0cc8cf2","ios":"levelo://app?vid=91e195df-17b2-4084-bbfe-158bf0cc8cf2"},"vehicle_type_id":"4","last_reported":1733872132,"current_range_meters":38800,"station_id":"ce4bgv12rcd13ifvqcp0","pricing_plan_id":"cebpf4jnsgd1na2vs0mg"},{"bike_id":"543ffcfa-aa63-4350-88ea-e89f19556564","system_id":"levelo_inurba_marseille","lat":43.27178,"lon":5.40993,"is_reserved":false,"is_disabled":false,"rental_uris":{"android":"levelo://app?vid=543ffcfa-aa63-4350-88ea-e89f19556564","ios":"levelo://app?vid=543ffcfa-aa63-4350-88ea-e89f19556564"},"vehicle_type_id":"4","last_reported":1733872132,"current_range_meters":36800,"station_id":"ce4bhl12rcd13ifvqgf0","pricing_plan_id":"cebpf4jnsgd1na2vs0mg"},{"bike_id":"b06e932e-056e-43fd-a10a-865d43894420","system_id":"levelo_inurba_marseille","lat":43.29634,"lon":5.4063,"is_reserved":false,"is_disabled":false,"rental_uris":{"android":"levelo://app?vid=b06e932e-056e-43fd-a10a-865d43894420","ios":"levelo://app?vid=b06e932e-056e-43fd-a10a-865d43894420"},"vehicle_type_id":"4","last_reported":1733872132,"current_range_meters":28000,"station_id":"ce4bh0h2rcd13ifvqd60","pricing_plan_id":"cebpf4jnsgd1na2vs0mg"},{"bike_id":"11e86528-eb6b-4391-86a5-9b1822d069a4","system_id":"levelo_inurba_marseille","lat":43.278805,"lon":5.388003,"is_reserved":false,"is_disabled":true,"rental_uris":{"android":"levelo://app?vid=11e86528-eb6b-4391-86a5-9b1822d069a4","ios":"levelo://app?vid=11e86528-eb6b-4391-86a5-9b1822d069a4"},"vehicle_type_id":"4","last_reported":1733872132,"current_range_meters":0,"station_id":"","pricing_plan_id":"cebpf4jnsgd1na2vs0mg"},{"bike_id":"6cc6805f-c0ca-4585-bdf1-b5a0339762b0","system_id":"levelo_inurba_marseille","lat":43.29027,"lon":5.42744,"is_reserved":false,"is_disabled":true,"rental_uris":{"android":"levelo://app?vid=6cc6805f-c0ca-4585-bdf1-b5a0339762b0","ios":"levelo://app?vid=6cc6805f-c0ca-4585-bdf1-b5a0339762b0"},"vehicle_type_id":"4","last_reported":1733872132,"current_range_meters":0,"station_id":"","pricing_plan_id":"cebpf4jnsgd1na2vs0mg"},{"bike_id":"080c9623-7190-4a88-b14f-4d131f18aefc","system_id":"levelo_inurba_marseille","lat":43.29428,"lon":5.39756,"is_reserved":false,"is_disabled":true,"rental_uris":{"android":"levelo://app?vid=080c9623-7190-4a88-b14f-4d131f18aefc","ios":"levelo://app?vid=080c9623-7190-4a88-b14f-4d131f18aefc"},"vehicle_type_id":"4","last_reported":1733872132,"current_range_meters":6000,"station_id":"ce4bh3h2rcd13ifvqdo0","pricing_plan_id":"cebpf4jnsgd1na2vs0mg"},{"bike_id":"d0b8ab9f-97c0-41bc-a39a-4de4579525b5","system_id":"levelo_inurba_marseille","lat":43.30794,"lon":5.38158,"is_reserved":false,"is_disabled":false,"rental_uris":{"android":"levelo://app?vid=d0b8ab9f-97c0-41bc-a39a-4de4579525b5","ios":"levelo://app?vid=d0b8ab9f-97c0-41bc-a39a-4de4579525b5"},"vehicle_type_id":"4","last_reported":1733872132,"current_range_meters":3200,"station_id":"ce4bgt12rcd13ifvqce0","pricing_plan_id":"cebpf4jnsgd1na2vs0mg"},{"bike_id":"16d26648-3788-416f-9597-e71c7e50efdc","system_id":"levelo_inurba_marseille","lat":43.23192,"lon":5.39973,"is_reserved":false,"is_disabled":false,"rental_uris":{"android":"levelo://app?vid=16d26648-3788-416f-9597-e71c7e50efdc","ios":"levelo://app?vid=16d26648-3788-416f-9597-e71c7e50efdc"},"vehicle_type_id":"4","last_reported":1733872132,"current_range_meters":6800,"station_id":"ce4bhn12rcd13ifvqgqg","pricing_plan_id":"cebpf4jnsgd1na2vs0mg"},{"bike_id":"9f03dca4-237a-49dc-8f4b-3b6a07909c99","system_id":"levelo_inurba_marseille","lat":43.23194,"lon":5.35555,"is_reserved":false,"is_disabled":false,"rental_uris":{"android":"levelo://app?vid=9f03dca4-237a-49dc-8f4b-3b6a07909c99","ios":"levelo://app?vid=9f03dca4-237a-49dc-8f4b-3b6a07909c99"},"vehicle_type_id":"4","last_reported":1733872132,"current_range_meters":36400,"station_id":"ce4bhu92rcd13ifvqi70","pricing_plan_id":"cebpf4jnsgd1na2vs0mg"},{"bike_id":"d0e9b0d9-b932-4d84-83c8-f81795e05f31","system_id":"levelo_inurba_marseille","lat":43.28486,"lon":5.38432,"is_reserved":false,"is_disabled":true,"rental_uris":{"android":"levelo://app?vid=d0e9b0d9-b932-4d84-83c8-f81795e05f31","ios":"levelo://app?vid=d0e9b0d9-b932-4d84-83c8-f81795e05f31"},"vehicle_type_id":"4","last_reported":1733872132,"current_range_meters":1200,"station_id":"ce4bh512rcd13ifvqe3g","pricing_plan_id":"cebpf4jnsgd1na2vs0mg"},{"bike_id":"a74c558a-f390-4af8-8bb6-842fae2b466a","system_id":"levelo_inurba_marseille","lat":43.26555,"lon":5.37289,"is_reserved":false,"is_disabled":false,"rental_uris":{"android":"levelo://app?vid=a74c558a-f390-4af8-8bb6-842fae2b466a","ios":"levelo://app?vid=a74c558a-f390-4af8-8bb6-842fae2b466a"},"vehicle_type_id":"4","last_reported":1733872132,"current_range_meters":25600,"station_id":"ce4bhg12rcd13ifvqf70","pricing_plan_id":"cebpf4jnsgd1na2vs0mg"},{"bike_id":"a9b1260b-a046-42c2-9a18-b469d76623a6","system_id":"levelo_inurba_marseille","lat":43.29787,"lon":5.39343,"is_reserved":false,"is_disabled":false,"rental_uris":{"android":"levelo://app?vid=a9b1260b-a046-42c2-9a18-b469d76623a6","ios":"levelo://app?vid=a9b1260b-a046-42c2-9a18-b469d76623a6"},"vehicle_type_id":"4","last_reported":1733872132,"current_range_meters":36800,"station_id":"chh1huq6cuj3fo74tm60","pricing_plan_id":"cebpf4jnsgd1na2vs0mg"},{"bike_id":"94c0b02d-ed77-48ca-b698-f7231f279493","system_id":"levelo_inurba_marseille","lat":43.27543,"lon":5.38415,"is_reserved":false,"is_disabled":false,"rental_uris":{"android":"levelo://app?vid=94c0b02d-ed77-48ca-b698-f7231f279493","ios":"levelo://app?vid=94c0b02d-ed77-48ca-b698-f7231f279493"},"vehicle_type_id":"4","last_reported":1733872132,"current_range_meters":38000,"station_id":"ce4bhh92rcd13ifvqfi0","pricing_plan_id":"cebpf4jnsgd1na2vs0mg"},{"bike_id":"bc9e11dc-a8b4-4da5-bdad-d19b6b0356fe","system_id":"levelo_inurba_marseille","lat":43.30316,"lon":5.39199,"is_reserved":false,"is_disabled":false,"rental_uris":{"android":"levelo://app?vid=bc9e11dc-a8b4-4da5-bdad-d19b6b0356fe","ios":"levelo://app?vid=bc9e11dc-a8b4-4da5-bdad-d19b6b0356fe"},"vehicle_type_id":"4","last_reported":1733872132,"current_range_meters":32400,"station_id":"ce4bgkh2rcd13ifvqbk0","pricing_plan_id":"cebpf4jnsgd1na2vs0mg"},{"bike_id":"3342795f-d2d0-4d24-8bd2-2c7cb45ceea3","system_id":"levelo_inurba_marseille","lat":43.30141,"lon":5.39873,"is_reserved":false,"is_disabled":false,"rental_uris":{"android":"levelo://app?vid=3342795f-d2d0-4d24-8bd2-2c7cb45ceea3","ios":"levelo://app?vid=3342795f-d2d0-4d24-8bd2-2c7cb45ceea3"},"vehicle_type_id":"4","last_reported":1733872132,"current_range_meters":20400,"station_id":"ce4bh0h2rcd13ifvqd40","pricing_plan_id":"cebpf4jnsgd1na2vs0mg"},{"bike_id":"40b57be1-ce30-40b9-8655-77f9e22115c7","system_id":"levelo_inurba_marseille","lat":43.29568,"lon":5.39972,"is_reserved":false,"is_disabled":false,"rental_uris":{"android":"levelo://app?vid=40b57be1-ce30-40b9-8655-77f9e22115c7","ios":"levelo://app?vid=40b57be1-ce30-40b9-8655-77f9e22115c7"},"vehicle_type_id":"4","last_reported":1733872132,"current_range_meters":12000,"station_id":"ce4bh312rcd13ifvqdj0","pricing_plan_id":"cebpf4jnsgd1na2vs0mg"},{"bike_id":"7af45bb2-5ce8-4482-a56e-11f61f863cb1","system_id":"levelo_inurba_marseille","lat":43.2979,"lon":5.39331,"is_reserved":false,"is_disabled":false,"rental_uris":{"android":"levelo://app?vid=7af45bb2-5ce8-4482-a56e-11f61f863cb1","ios":"levelo://app?vid=7af45bb2-5ce8-4482-a56e-11f61f863cb1"},"vehicle_type_id":"4","last_reported":1733872132,"current_range_meters":31200,"station_id":"chh1huq6cuj3fo74tm60","pricing_plan_id":"cebpf4jnsgd1na2vs0mg"},{"bike_id":"5a3c1ce0-4cb9-423e-a954-3ef88fe1aa34","system_id":"levelo_inurba_marseille","lat":43.28258,"lon":5.35064,"is_reserved":false,"is_disabled":false,"rental_uris":{"android":"levelo://app?vid=5a3c1ce0-4cb9-423e-a954-3ef88fe1aa34","ios":"levelo://app?vid=5a3c1ce0-4cb9-423e-a954-3ef88fe1aa34"},"vehicle_type_id":"4","last_reported":1733872132,"current_range_meters":28800,"station_id":"ce4bhbp2rcd13ifvqerg","pricing_plan_id":"cebpf4jnsgd1na2vs0mg"},{"bike_id":"fe3e4c49-b791-42c4-867e-0a2aff1aed10","system_id":"levelo_inurba_marseille","lat":43.29571,"lon":5.37499,"is_reserved":false,"is_disabled":false,"rental_uris":{"android":"levelo://app?vid=fe3e4c49-b791-42c4-867e-0a2aff1aed10","ios":"levelo://app?vid=fe3e4c49-b791-42c4-867e-0a2aff1aed10"},"vehicle_type_id":"4","last_reported":1733872132,"current_range_meters":32000,"station_id":"ce4bgh92rcd13ifvqb50","pricing_plan_id":"cebpf4jnsgd1na2vs0mg"},{"bike_id":"7105a5e0-57ab-4345-9c88-741eb9d8570a","system_id":"levelo_inurba_marseille","lat":43.28437,"lon":5.39189,"is_reserved":false,"is_disabled":false,"rental_uris":{"android":"levelo://app?vid=7105a5e0-57ab-4345-9c88-741eb9d8570a","ios":"levelo://app?vid=7105a5e0-57ab-4345-9c88-741eb9d8570a"},"vehicle_type_id":"4","last_reported":1733872132,"current_range_meters":38800,"station_id":"ce4bhoh2rcd13ifvqh5g","pricing_plan_id":"cebpf4jnsgd1na2vs0mg"},{"bike_id":"44a3143e-1310-449d-bfee-524f6fc11f3a","system_id":"levelo_inurba_marseille","lat":43.30326,"lon":5.40432,"is_reserved":false,"is_disabled":false,"rental_uris":{"android":"levelo://app?vid=44a3143e-1310-449d-bfee-524f6fc11f3a","ios":"levelo://app?vid=44a3143e-1310-449d-bfee-524f6fc11f3a"},"vehicle_type_id":"4","last_reported":1733872132,"current_range_meters":38800,"station_id":"ce4bh012rcd13ifvqd10","pricing_plan_id":"cebpf4jnsgd1na2vs0mg"},{"bike_id":"b0a46ba0-c8bc-4621-808f-2274c3b3257e","system_id":"levelo_inurba_marseille","lat":43.3228,"lon":5.38291,"is_reserved":false,"is_disabled":false,"rental_uris":{"android":"levelo://app?vid=b0a46ba0-c8bc-4621-808f-2274c3b3257e","ios":"levelo://app?vid=b0a46ba0-c8bc-4621-808f-2274c3b3257e"},"vehicle_type_id":"4","last_reported":1733872132,"current_range_meters":38800,"station_id":"ce4bhr12rcd13ifvqhqg","pricing_plan_id":"cebpf4jnsgd1na2vs0mg"},{"bike_id":"72369e3c-7a31-4199-a732-76fa73093ac4","system_id":"levelo_inurba_marseille","lat":43.31351,"lon":5.36705,"is_reserved":false,"is_disabled":true,"rental_uris":{"android":"levelo://app?vid=72369e3c-7a31-4199-a732-76fa73093ac4","ios":"levelo://app?vid=72369e3c-7a31-4199-a732-76fa73093ac4"},"vehicle_type_id":"4","last_reported":1733872132,"current_range_meters":22000,"station_id":"ce4bgr92rcd13ifvqc6g","pricing_plan_id":"cebpf4jnsgd1na2vs0mg"},{"bike_id":"94fd1857-87a7-465b-8a7a-cc24038b7742","system_id":"levelo_inurba_marseille","lat":43.33028,"lon":5.39045,"is_reserved":false,"is_disabled":false,"rental_uris":{"android":"levelo://app?vid=94fd1857-87a7-465b-8a7a-cc24038b7742","ios":"levelo://app?vid=94fd1857-87a7-465b-8a7a-cc24038b7742"},"vehicle_type_id":"4","last_reported":1733872132,"current_range_meters":38800,"station_id":"ce4bhr92rcd13ifvqhrg","pricing_plan_id":"cebpf4jnsgd1na2vs0mg"},{"bike_id":"b0e59066-0468-4a30-923c-2b4bc7328b40","system_id":"levelo_inurba_marseille","lat":43.29525,"lon":5.39409,"is_reserved":false,"is_disabled":false,"rental_uris":{"android":"levelo://app?vid=b0e59066-0468-4a30-923c-2b4bc7328b40","ios":"levelo://app?vid=b0e59066-0468-4a30-923c-2b4bc7328b40"},"vehicle_type_id":"4","last_reported":1733872132,"current_range_meters":38800,"station_id":"ce4bh292rcd13ifvqdf0","pricing_plan_id":"cebpf4jnsgd1na2vs0mg"},{"bike_id":"fdf14e0a-fc6a-40d5-addd-21a77a41b672","system_id":"levelo_inurba_marseille","lat":43.29243,"lon":5.36889,"is_reserved":false,"is_disabled":false,"rental_uris":{"android":"levelo://app?vid=fdf14e0a-fc6a-40d5-addd-21a77a41b672","ios":"levelo://app?vid=fdf14e0a-fc6a-40d5-addd-21a77a41b672"},"vehicle_type_id":"4","last_reported":1733872132,"current_range_meters":2800,"station_id":"","pricing_plan_id":"cebpf4jnsgd1na2vs0mg"},{"bike_id":"1a0232f1-4b5f-4330-917e-477389b86a21","system_id":"levelo_inurba_marseille","lat":43.28566,"lon":5.39502,"is_reserved":false,"is_disabled":false,"rental_uris":{"android":"levelo://app?vid=1a0232f1-4b5f-4330-917e-477389b86a21","ios":"levelo://app?vid=1a0232f1-4b5f-4330-917e-477389b86a21"},"vehicle_type_id":"4","last_reported":1733872132,"current_range_meters":38800,"station_id":"ce4bh292rcd13ifvqdg0","pricing_plan_id":"cebpf4jnsgd1na2vs0mg"},{"bike_id":"c7994383-f96a-46b4-9beb-0b15c03b6c60","system_id":"levelo_inurba_marseille","lat":43.28616,"lon":5.35101,"is_reserved":false,"is_disabled":false,"rental_uris":{"android":"levelo://app?vid=c7994383-f96a-46b4-9beb-0b15c03b6c60","ios":"levelo://app?vid=c7994383-f96a-46b4-9beb-0b15c03b6c60"},"vehicle_type_id":"4","last_reported":1733872132,"current_range_meters":27600,"station_id":"ce4bhch2rcd13ifvqeug","pricing_plan_id":"cebpf4jnsgd1na2vs0mg"},{"bike_id":"2fd72f79-e6aa-48d3-802c-7188995826aa","system_id":"levelo_inurba_marseille","lat":43.32279,"lon":5.3827,"is_reserved":false,"is_disabled":false,"rental_uris":{"android":"levelo://app?vid=2fd72f79-e6aa-48d3-802c-7188995826aa","ios":"levelo://app?vid=2fd72f79-e6aa-48d3-802c-7188995826aa"},"vehicle_type_id":"4","last_reported":1733872132,"current_range_meters":38800,"station_id":"ce4bhr12rcd13ifvqhqg","pricing_plan_id":"cebpf4jnsgd1na2vs0mg"},{"bike_id":"8acbfd76-356a-474f-95dd-872826eb1008","system_id":"levelo_inurba_marseille","lat":43.28732,"lon":5.36083,"is_reserved":false,"is_disabled":false,"rental_uris":{"android":"levelo://app?vid=8acbfd76-356a-474f-95dd-872826eb1008","ios":"levelo://app?vid=8acbfd76-356a-474f-95dd-872826eb1008"},"vehicle_type_id":"4","last_reported":1733872132,"current_range_meters":38800,"station_id":"cki0cbj6b192h4jlfktg","pricing_plan_id":"cebpf4jnsgd1na2vs0mg"},{"bike_id":"c738269d-77c2-4524-a8ce-084a9f31cadb","system_id":"levelo_inurba_marseille","lat":43.26216,"lon":5.37441,"is_reserved":false,"is_disabled":false,"rental_uris":{"android":"levelo://app?vid=c738269d-77c2-4524-a8ce-084a9f31cadb","ios":"levelo://app?vid=c738269d-77c2-4524-a8ce-084a9f31cadb"},"vehicle_type_id":"4","last_reported":1733872132,"current_range_meters":37600,"station_id":"ce4bhgp2rcd13ifvqfc0","pricing_plan_id":"cebpf4jnsgd1na2vs0mg"},{"bike_id":"896d4ccf-3d83-4122-b2f2-1a77a517b0e7","system_id":"levelo_inurba_marseille","lat":43.23963,"lon":5.36628,"is_reserved":false,"is_disabled":false,"rental_uris":{"android":"levelo://app?vid=896d4ccf-3d83-4122-b2f2-1a77a517b0e7","ios":"levelo://app?vid=896d4ccf-3d83-4122-b2f2-1a77a517b0e7"},"vehicle_type_id":"4","last_reported":1733872132,"current_range_meters":38800,"station_id":"ce4bhi12rcd13ifvqfp0","pricing_plan_id":"cebpf4jnsgd1na2vs0mg"},{"bike_id":"5ab05328-df2c-4301-8359-efac20f401a3","system_id":"levelo_inurba_marseille","lat":43.2937,"lon":5.37854,"is_reserved":false,"is_disabled":true,"rental_uris":{"android":"levelo://app?vid=5ab05328-df2c-4301-8359-efac20f401a3","ios":"levelo://app?vid=5ab05328-df2c-4301-8359-efac20f401a3"},"vehicle_type_id":"4","last_reported":1733872132,"current_range_meters":28800,"station_id":"ce4bgjh2rcd13ifvqbf0","pricing_plan_id":"cebpf4jnsgd1na2vs0mg"},{"bike_id":"21e3190b-55c5-411e-936b-986eb1b73bd6","system_id":"levelo_inurba_marseille","lat":43.30659,"lon":5.40083,"is_reserved":false,"is_disabled":false,"rental_uris":{"android":"levelo://app?vid=21e3190b-55c5-411e-936b-986eb1b73bd6","ios":"levelo://app?vid=21e3190b-55c5-411e-936b-986eb1b73bd6"},"vehicle_type_id":"4","last_reported":1733872132,"current_range_meters":38800,"station_id":"ce4bh112rcd13ifvqda0","pricing_plan_id":"cebpf4jnsgd1na2vs0mg"},{"bike_id":"060ad32f-2471-4961-af5f-593a9fd13318","system_id":"levelo_inurba_marseille","lat":43.27566,"lon":5.38421,"is_reserved":false,"is_disabled":false,"rental_uris":{"android":"levelo://app?vid=060ad32f-2471-4961-af5f-593a9fd13318","ios":"levelo://app?vid=060ad32f-2471-4961-af5f-593a9fd13318"},"vehicle_type_id":"4","last_reported":1733872132,"current_range_meters":38800,"station_id":"ce4bhh92rcd13ifvqfi0","pricing_plan_id":"cebpf4jnsgd1na2vs0mg"},{"bike_id":"da06a13f-e4bd-4583-aaab-aaaf35e97670","system_id":"levelo_inurba_marseille","lat":43.2465,"lon":5.38897,"is_reserved":false,"is_disabled":false,"rental_uris":{"android":"levelo://app?vid=da06a13f-e4bd-4583-aaab-aaaf35e97670","ios":"levelo://app?vid=da06a13f-e4bd-4583-aaab-aaaf35e97670"},"vehicle_type_id":"4","last_reported":1733872132,"current_range_meters":38800,"station_id":"ce4bhg12rcd13ifvqf60","pricing_plan_id":"cebpf4jnsgd1na2vs0mg"},{"bike_id":"22acc05b-acd3-4e14-94ba-c1ff56249bb7","system_id":"levelo_inurba_marseille","lat":43.28841,"lon":5.35839,"is_reserved":false,"is_disabled":false,"rental_uris":{"android":"levelo://app?vid=22acc05b-acd3-4e14-94ba-c1ff56249bb7","ios":"levelo://app?vid=22acc05b-acd3-4e14-94ba-c1ff56249bb7"},"vehicle_type_id":"4","last_reported":1733872132,"current_range_meters":27600,"station_id":"ce4bhb12rcd13ifvqem0","pricing_plan_id":"cebpf4jnsgd1na2vs0mg"},{"bike_id":"b3c5591b-5ccb-49b1-8351-3506fdb656c0","system_id":"levelo_inurba_marseille","lat":43.32287,"lon":5.38268,"is_reserved":false,"is_disabled":false,"rental_uris":{"android":"levelo://app?vid=b3c5591b-5ccb-49b1-8351-3506fdb656c0","ios":"levelo://app?vid=b3c5591b-5ccb-49b1-8351-3506fdb656c0"},"vehicle_type_id":"4","last_reported":1733872132,"current_range_meters":39200,"station_id":"ce4bhr12rcd13ifvqhqg","pricing_plan_id":"cebpf4jnsgd1na2vs0mg"},{"bike_id":"a5f926b9-41d2-4ade-a577-485de9ef83f4","system_id":"levelo_inurba_marseille","lat":43.26026,"lon":5.37549,"is_reserved":false,"is_disabled":false,"rental_uris":{"android":"levelo://app?vid=a5f926b9-41d2-4ade-a577-485de9ef83f4","ios":"levelo://app?vid=a5f926b9-41d2-4ade-a577-485de9ef83f4"},"vehicle_type_id":"4","last_reported":1733872132,"current_range_meters":37600,"station_id":"ce4bhgh2rcd13ifvqfa0","pricing_plan_id":"cebpf4jnsgd1na2vs0mg"},{"bike_id":"33e48884-4b3d-4e17-8bfe-d8ab60a0c6ef","system_id":"levelo_inurba_marseille","lat":43.26075,"lon":5.39397,"is_reserved":false,"is_disabled":true,"rental_uris":{"android":"levelo://app?vid=33e48884-4b3d-4e17-8bfe-d8ab60a0c6ef","ios":"levelo://app?vid=33e48884-4b3d-4e17-8bfe-d8ab60a0c6ef"},"vehicle_type_id":"4","last_reported":1733872132,"current_range_meters":38000,"station_id":"ce4bhh92rcd13ifvqfj0","pricing_plan_id":"cebpf4jnsgd1na2vs0mg"},{"bike_id":"8a541c78-58b4-45d9-94a7-3d8383bc9bce","system_id":"levelo_inurba_marseille","lat":43.294183,"lon":5.386102,"is_reserved":false,"is_disabled":true,"rental_uris":{"android":"levelo://app?vid=8a541c78-58b4-45d9-94a7-3d8383bc9bce","ios":"levelo://app?vid=8a541c78-58b4-45d9-94a7-3d8383bc9bce"},"vehicle_type_id":"4","last_reported":1733872132,"current_range_meters":14400,"station_id":"ce4bh2h2rcd13ifvqdh0","pricing_plan_id":"cebpf4jnsgd1na2vs0mg"},{"bike_id":"ddc3cf62-a354-4232-96fa-54b290a1f3af","system_id":"levelo_inurba_marseille","lat":43.29911,"lon":5.3975,"is_reserved":false,"is_disabled":false,"rental_uris":{"android":"levelo://app?vid=ddc3cf62-a354-4232-96fa-54b290a1f3af","ios":"levelo://app?vid=ddc3cf62-a354-4232-96fa-54b290a1f3af"},"vehicle_type_id":"4","last_reported":1733872132,"current_range_meters":38800,"station_id":"ce4bh0h2rcd13ifvqd50","pricing_plan_id":"cebpf4jnsgd1na2vs0mg"},{"bike_id":"fa57460c-d69f-4b9a-99e7-91f2695d13a4","system_id":"levelo_inurba_marseille","lat":43.30934,"lon":5.40141,"is_reserved":false,"is_disabled":false,"rental_uris":{"android":"levelo://app?vid=fa57460c-d69f-4b9a-99e7-91f2695d13a4","ios":"levelo://app?vid=fa57460c-d69f-4b9a-99e7-91f2695d13a4"},"vehicle_type_id":"4","last_reported":1733872132,"current_range_meters":38800,"station_id":"ce4bgvp2rcd13ifvqct0","pricing_plan_id":"cebpf4jnsgd1na2vs0mg"},{"bike_id":"3729ff4d-e4fc-480d-9d4c-0531c34e6198","system_id":"levelo_inurba_marseille","lat":43.31176,"lon":5.38709,"is_reserved":false,"is_disabled":false,"rental_uris":{"android":"levelo://app?vid=3729ff4d-e4fc-480d-9d4c-0531c34e6198","ios":"levelo://app?vid=3729ff4d-e4fc-480d-9d4c-0531c34e6198"},"vehicle_type_id":"4","last_reported":1733872132,"current_range_meters":38000,"station_id":"ce4bgv12rcd13ifvqcp0","pricing_plan_id":"cebpf4jnsgd1na2vs0mg"},{"bike_id":"aa22f6b4-6745-464f-9ff5-3ccde6c815d3","system_id":"levelo_inurba_marseille","lat":43.31076,"lon":5.38353,"is_reserved":false,"is_disabled":false,"rental_uris":{"android":"levelo://app?vid=aa22f6b4-6745-464f-9ff5-3ccde6c815d3","ios":"levelo://app?vid=aa22f6b4-6745-464f-9ff5-3ccde6c815d3"},"vehicle_type_id":"4","last_reported":1733872132,"current_range_meters":37600,"station_id":"ce4bgv92rcd13ifvqcr0","pricing_plan_id":"cebpf4jnsgd1na2vs0mg"},{"bike_id":"b02c24ef-aac5-4dc7-94c4-ee928b33d372","system_id":"levelo_inurba_marseille","lat":43.26027,"lon":5.37549,"is_reserved":false,"is_disabled":false,"rental_uris":{"android":"levelo://app?vid=b02c24ef-aac5-4dc7-94c4-ee928b33d372","ios":"levelo://app?vid=b02c24ef-aac5-4dc7-94c4-ee928b33d372"},"vehicle_type_id":"4","last_reported":1733872132,"current_range_meters":27200,"station_id":"ce4bhgh2rcd13ifvqfa0","pricing_plan_id":"cebpf4jnsgd1na2vs0mg"},{"bike_id":"9e533191-da82-438a-a837-b070786255db","system_id":"levelo_inurba_marseille","lat":43.23965,"lon":5.36644,"is_reserved":false,"is_disabled":false,"rental_uris":{"android":"levelo://app?vid=9e533191-da82-438a-a837-b070786255db","ios":"levelo://app?vid=9e533191-da82-438a-a837-b070786255db"},"vehicle_type_id":"4","last_reported":1733872132,"current_range_meters":38800,"station_id":"ce4bhi12rcd13ifvqfp0","pricing_plan_id":"cebpf4jnsgd1na2vs0mg"},{"bike_id":"c7d6d0e2-5d6c-43d9-9506-3230b6413803","system_id":"levelo_inurba_marseille","lat":43.31531,"lon":5.38032,"is_reserved":false,"is_disabled":false,"rental_uris":{"android":"levelo://app?vid=c7d6d0e2-5d6c-43d9-9506-3230b6413803","ios":"levelo://app?vid=c7d6d0e2-5d6c-43d9-9506-3230b6413803"},"vehicle_type_id":"4","last_reported":1733872132,"current_range_meters":38000,"station_id":"ce4bhsp2rcd13ifvqi50","pricing_plan_id":"cebpf4jnsgd1na2vs0mg"},{"bike_id":"f1e1b83c-6b4c-4d52-9b3f-becfd8274a79","system_id":"levelo_inurba_marseille","lat":43.24988,"lon":5.38935,"is_reserved":false,"is_disabled":false,"rental_uris":{"android":"levelo://app?vid=f1e1b83c-6b4c-4d52-9b3f-becfd8274a79","ios":"levelo://app?vid=f1e1b83c-6b4c-4d52-9b3f-becfd8274a79"},"vehicle_type_id":"4","last_reported":1733872132,"current_range_meters":37600,"station_id":"ce4bhgp2rcd13ifvqfd0","pricing_plan_id":"cebpf4jnsgd1na2vs0mg"},{"bike_id":"d822d752-9852-4a44-8c73-0177217c42f3","system_id":"levelo_inurba_marseille","lat":43.31193,"lon":5.38718,"is_reserved":false,"is_disabled":false,"rental_uris":{"android":"levelo://app?vid=d822d752-9852-4a44-8c73-0177217c42f3","ios":"levelo://app?vid=d822d752-9852-4a44-8c73-0177217c42f3"},"vehicle_type_id":"4","last_reported":1733872132,"current_range_meters":24800,"station_id":"ce4bgv12rcd13ifvqcp0","pricing_plan_id":"cebpf4jnsgd1na2vs0mg"},{"bike_id":"e0251b32-b340-44b9-a685-42a1e27fe71d","system_id":"levelo_inurba_marseille","lat":43.25719,"lon":5.41098,"is_reserved":false,"is_disabled":false,"rental_uris":{"android":"levelo://app?vid=e0251b32-b340-44b9-a685-42a1e27fe71d","ios":"levelo://app?vid=e0251b32-b340-44b9-a685-42a1e27fe71d"},"vehicle_type_id":"4","last_reported":1733872132,"current_range_meters":38800,"station_id":"ce4bhkp2rcd13ifvqgd0","pricing_plan_id":"cebpf4jnsgd1na2vs0mg"},{"bike_id":"feb8df89-ec90-4db2-83c1-1276a81a894e","system_id":"levelo_inurba_marseille","lat":43.29016,"lon":5.37552,"is_reserved":false,"is_disabled":true,"rental_uris":{"android":"levelo://app?vid=feb8df89-ec90-4db2-83c1-1276a81a894e","ios":"levelo://app?vid=feb8df89-ec90-4db2-83c1-1276a81a894e"},"vehicle_type_id":"4","last_reported":1733872132,"current_range_meters":4400,"station_id":"ce4bh692rcd13ifvqe90","pricing_plan_id":"cebpf4jnsgd1na2vs0mg"},{"bike_id":"e776819f-d0c2-4e90-8b6a-72fc3d50c85e","system_id":"levelo_inurba_marseille","lat":43.27071,"lon":5.42276,"is_reserved":false,"is_disabled":false,"rental_uris":{"android":"levelo://app?vid=e776819f-d0c2-4e90-8b6a-72fc3d50c85e","ios":"levelo://app?vid=e776819f-d0c2-4e90-8b6a-72fc3d50c85e"},"vehicle_type_id":"4","last_reported":1733872132,"current_range_meters":39200,"station_id":"ce4bhk92rcd13ifvqgb0","pricing_plan_id":"cebpf4jnsgd1na2vs0mg"},{"bike_id":"ccca5c70-4081-4ecf-aa2a-cd92bf6e79dc","system_id":"levelo_inurba_marseille","lat":43.26063,"lon":5.39398,"is_reserved":false,"is_disabled":false,"rental_uris":{"android":"levelo://app?vid=ccca5c70-4081-4ecf-aa2a-cd92bf6e79dc","ios":"levelo://app?vid=ccca5c70-4081-4ecf-aa2a-cd92bf6e79dc"},"vehicle_type_id":"4","last_reported":1733872132,"current_range_meters":38800,"station_id":"ce4bhh92rcd13ifvqfj0","pricing_plan_id":"cebpf4jnsgd1na2vs0mg"},{"bike_id":"a0a21e6c-5f89-4d49-af6e-72066a94e09b","system_id":"levelo_inurba_marseille","lat":43.27953,"lon":5.41036,"is_reserved":false,"is_disabled":false,"rental_uris":{"android":"levelo://app?vid=a0a21e6c-5f89-4d49-af6e-72066a94e09b","ios":"levelo://app?vid=a0a21e6c-5f89-4d49-af6e-72066a94e09b"},"vehicle_type_id":"4","last_reported":1733872132,"current_range_meters":16000,"station_id":"ce4bhnp2rcd13ifvqh0g","pricing_plan_id":"cebpf4jnsgd1na2vs0mg"},{"bike_id":"0cc67691-a5bd-4b9e-9f2f-fed68c75c5ec","system_id":"levelo_inurba_marseille","lat":43.28456,"lon":5.35894,"is_reserved":false,"is_disabled":false,"rental_uris":{"android":"levelo://app?vid=0cc67691-a5bd-4b9e-9f2f-fed68c75c5ec","ios":"levelo://app?vid=0cc67691-a5bd-4b9e-9f2f-fed68c75c5ec"},"vehicle_type_id":"4","last_reported":1733872132,"current_range_meters":38800,"station_id":"ce4bhah2rcd13ifvqei0","pricing_plan_id":"cebpf4jnsgd1na2vs0mg"},{"bike_id":"8183d8e7-3c4b-4ed6-83fa-10d192b7d8bd","system_id":"levelo_inurba_marseille","lat":43.2754,"lon":5.40915,"is_reserved":false,"is_disabled":false,"rental_uris":{"android":"levelo://app?vid=8183d8e7-3c4b-4ed6-83fa-10d192b7d8bd","ios":"levelo://app?vid=8183d8e7-3c4b-4ed6-83fa-10d192b7d8bd"},"vehicle_type_id":"4","last_reported":1733872132,"current_range_meters":4400,"station_id":"","pricing_plan_id":"cebpf4jnsgd1na2vs0mg"},{"bike_id":"c83dfe18-da88-4c9c-9197-7658cb325ec6","system_id":"levelo_inurba_marseille","lat":43.28434,"lon":5.3919,"is_reserved":false,"is_disabled":false,"rental_uris":{"android":"levelo://app?vid=c83dfe18-da88-4c9c-9197-7658cb325ec6","ios":"levelo://app?vid=c83dfe18-da88-4c9c-9197-7658cb325ec6"},"vehicle_type_id":"4","last_reported":1733872132,"current_range_meters":36800,"station_id":"ce4bhoh2rcd13ifvqh5g","pricing_plan_id":"cebpf4jnsgd1na2vs0mg"},{"bike_id":"04a51bf4-3219-493f-985a-0d4f3e27b5ac","system_id":"levelo_inurba_marseille","lat":43.28662,"lon":5.36343,"is_reserved":false,"is_disabled":false,"rental_uris":{"android":"levelo://app?vid=04a51bf4-3219-493f-985a-0d4f3e27b5ac","ios":"levelo://app?vid=04a51bf4-3219-493f-985a-0d4f3e27b5ac"},"vehicle_type_id":"4","last_reported":1733872132,"current_range_meters":12400,"station_id":"ce4bhah2rcd13ifvqej0","pricing_plan_id":"cebpf4jnsgd1na2vs0mg"},{"bike_id":"24038e93-6c8d-4dcb-8949-05294cdd45c2","system_id":"levelo_inurba_marseille","lat":43.26031,"lon":5.3755,"is_reserved":false,"is_disabled":false,"rental_uris":{"android":"levelo://app?vid=24038e93-6c8d-4dcb-8949-05294cdd45c2","ios":"levelo://app?vid=24038e93-6c8d-4dcb-8949-05294cdd45c2"},"vehicle_type_id":"4","last_reported":1733872132,"current_range_meters":38000,"station_id":"ce4bhgh2rcd13ifvqfa0","pricing_plan_id":"cebpf4jnsgd1na2vs0mg"},{"bike_id":"1dc4955e-448d-4691-8b8d-82e1d01f30a0","system_id":"levelo_inurba_marseille","lat":43.29778,"lon":5.37087,"is_reserved":false,"is_disabled":false,"rental_uris":{"android":"levelo://app?vid=1dc4955e-448d-4691-8b8d-82e1d01f30a0","ios":"levelo://app?vid=1dc4955e-448d-4691-8b8d-82e1d01f30a0"},"vehicle_type_id":"4","last_reported":1733872132,"current_range_meters":38800,"station_id":"ce4bgop2rcd13ifvqc1g","pricing_plan_id":"cebpf4jnsgd1na2vs0mg"},{"bike_id":"1b2d4db1-cec0-4376-9abf-f3b964e5dcb7","system_id":"levelo_inurba_marseille","lat":43.23193,"lon":5.35555,"is_reserved":false,"is_disabled":false,"rental_uris":{"android":"levelo://app?vid=1b2d4db1-cec0-4376-9abf-f3b964e5dcb7","ios":"levelo://app?vid=1b2d4db1-cec0-4376-9abf-f3b964e5dcb7"},"vehicle_type_id":"4","last_reported":1733872132,"current_range_meters":38800,"station_id":"ce4bhu92rcd13ifvqi70","pricing_plan_id":"cebpf4jnsgd1na2vs0mg"},{"bike_id":"abe3768a-af77-40ce-9702-940dad3a7b79","system_id":"levelo_inurba_marseille","lat":43.2467,"lon":5.38175,"is_reserved":false,"is_disabled":false,"rental_uris":{"android":"levelo://app?vid=abe3768a-af77-40ce-9702-940dad3a7b79","ios":"levelo://app?vid=abe3768a-af77-40ce-9702-940dad3a7b79"},"vehicle_type_id":"4","last_reported":1733872132,"current_range_meters":36400,"station_id":"ce4bhih2rcd13ifvqfr0","pricing_plan_id":"cebpf4jnsgd1na2vs0mg"},{"bike_id":"9df6e774-6214-4ea6-aa4c-d5eb077f372e","system_id":"levelo_inurba_marseille","lat":43.30806,"lon":5.38146,"is_reserved":false,"is_disabled":false,"rental_uris":{"android":"levelo://app?vid=9df6e774-6214-4ea6-aa4c-d5eb077f372e","ios":"levelo://app?vid=9df6e774-6214-4ea6-aa4c-d5eb077f372e"},"vehicle_type_id":"4","last_reported":1733872132,"current_range_meters":28000,"station_id":"ce4bgt12rcd13ifvqce0","pricing_plan_id":"cebpf4jnsgd1na2vs0mg"},{"bike_id":"50290e6a-0f78-4fdd-a8c0-3fdecfe0ca84","system_id":"levelo_inurba_marseille","lat":43.29553,"lon":5.42292,"is_reserved":false,"is_disabled":false,"rental_uris":{"android":"levelo://app?vid=50290e6a-0f78-4fdd-a8c0-3fdecfe0ca84","ios":"levelo://app?vid=50290e6a-0f78-4fdd-a8c0-3fdecfe0ca84"},"vehicle_type_id":"4","last_reported":1733872132,"current_range_meters":39200,"station_id":"ce4bhph2rcd13ifvqhdg","pricing_plan_id":"cebpf4jnsgd1na2vs0mg"},{"bike_id":"dd36dcf3-c84a-49da-9e24-a51d5e4a9583","system_id":"levelo_inurba_marseille","lat":43.28002,"lon":5.41661,"is_reserved":false,"is_disabled":false,"rental_uris":{"android":"levelo://app?vid=dd36dcf3-c84a-49da-9e24-a51d5e4a9583","ios":"levelo://app?vid=dd36dcf3-c84a-49da-9e24-a51d5e4a9583"},"vehicle_type_id":"4","last_reported":1733872132,"current_range_meters":10000,"station_id":"ce4bho12rcd13ifvqh1g","pricing_plan_id":"cebpf4jnsgd1na2vs0mg"},{"bike_id":"c955d2b5-2c77-4f09-827c-f3f31d701fad","system_id":"levelo_inurba_marseille","lat":43.30319,"lon":5.40441,"is_reserved":false,"is_disabled":false,"rental_uris":{"android":"levelo://app?vid=c955d2b5-2c77-4f09-827c-f3f31d701fad","ios":"levelo://app?vid=c955d2b5-2c77-4f09-827c-f3f31d701fad"},"vehicle_type_id":"4","last_reported":1733872132,"current_range_meters":18000,"station_id":"ce4bh012rcd13ifvqd10","pricing_plan_id":"cebpf4jnsgd1na2vs0mg"},{"bike_id":"68469145-5869-4949-94f0-3ccc825184a3","system_id":"levelo_inurba_marseille","lat":43.28329,"lon":5.38089,"is_reserved":false,"is_disabled":true,"rental_uris":{"android":"levelo://app?vid=68469145-5869-4949-94f0-3ccc825184a3","ios":"levelo://app?vid=68469145-5869-4949-94f0-3ccc825184a3"},"vehicle_type_id":"4","last_reported":1733872132,"current_range_meters":28000,"station_id":"ce4bh412rcd13ifvqdr0","pricing_plan_id":"cebpf4jnsgd1na2vs0mg"},{"bike_id":"0e11347d-09a4-40bf-9b51-30af8fbb3eae","system_id":"levelo_inurba_marseille","lat":43.29897,"lon":5.39745,"is_reserved":false,"is_disabled":false,"rental_uris":{"android":"levelo://app?vid=0e11347d-09a4-40bf-9b51-30af8fbb3eae","ios":"levelo://app?vid=0e11347d-09a4-40bf-9b51-30af8fbb3eae"},"vehicle_type_id":"4","last_reported":1733872132,"current_range_meters":38800,"station_id":"ce4bh0h2rcd13ifvqd50","pricing_plan_id":"cebpf4jnsgd1na2vs0mg"},{"bike_id":"e2e5fff8-dab3-4021-a87d-3c7c833d47d1","system_id":"levelo_inurba_marseille","lat":43.26204,"lon":5.37441,"is_reserved":false,"is_disabled":true,"rental_uris":{"android":"levelo://app?vid=e2e5fff8-dab3-4021-a87d-3c7c833d47d1","ios":"levelo://app?vid=e2e5fff8-dab3-4021-a87d-3c7c833d47d1"},"vehicle_type_id":"4","last_reported":1733872132,"current_range_meters":7200,"station_id":"ce4bhgp2rcd13ifvqfc0","pricing_plan_id":"cebpf4jnsgd1na2vs0mg"},{"bike_id":"b241863f-e61b-49b9-91ae-46249e43e00c","system_id":"levelo_inurba_marseille","lat":43.30805,"lon":5.38152,"is_reserved":false,"is_disabled":false,"rental_uris":{"android":"levelo://app?vid=b241863f-e61b-49b9-91ae-46249e43e00c","ios":"levelo://app?vid=b241863f-e61b-49b9-91ae-46249e43e00c"},"vehicle_type_id":"4","last_reported":1733872132,"current_range_meters":39200,"station_id":"ce4bgt12rcd13ifvqce0","pricing_plan_id":"cebpf4jnsgd1na2vs0mg"},{"bike_id":"dc7a929b-1a22-41cd-a6af-6836d471c1b6","system_id":"levelo_inurba_marseille","lat":43.28855,"lon":5.35854,"is_reserved":false,"is_disabled":false,"rental_uris":{"android":"levelo://app?vid=dc7a929b-1a22-41cd-a6af-6836d471c1b6","ios":"levelo://app?vid=dc7a929b-1a22-41cd-a6af-6836d471c1b6"},"vehicle_type_id":"4","last_reported":1733872132,"current_range_meters":21600,"station_id":"ce4bhb12rcd13ifvqem0","pricing_plan_id":"cebpf4jnsgd1na2vs0mg"},{"bike_id":"75ae6d39-6dc2-49bc-ad9b-72136961811e","system_id":"levelo_inurba_marseille","lat":43.33023,"lon":5.39041,"is_reserved":false,"is_disabled":false,"rental_uris":{"android":"levelo://app?vid=75ae6d39-6dc2-49bc-ad9b-72136961811e","ios":"levelo://app?vid=75ae6d39-6dc2-49bc-ad9b-72136961811e"},"vehicle_type_id":"4","last_reported":1733872132,"current_range_meters":16400,"station_id":"ce4bhr92rcd13ifvqhrg","pricing_plan_id":"cebpf4jnsgd1na2vs0mg"},{"bike_id":"874a3809-50d5-4e80-9c6a-2acc016e95f8","system_id":"levelo_inurba_marseille","lat":43.27952,"lon":5.4103,"is_reserved":false,"is_disabled":false,"rental_uris":{"android":"levelo://app?vid=874a3809-50d5-4e80-9c6a-2acc016e95f8","ios":"levelo://app?vid=874a3809-50d5-4e80-9c6a-2acc016e95f8"},"vehicle_type_id":"4","last_reported":1733872132,"current_range_meters":24400,"station_id":"ce4bhnp2rcd13ifvqh0g","pricing_plan_id":"cebpf4jnsgd1na2vs0mg"},{"bike_id":"89ff4683-020f-42e1-9b5d-f60ac373be8a","system_id":"levelo_inurba_marseille","lat":43.30605,"lon":5.37226,"is_reserved":false,"is_disabled":false,"rental_uris":{"android":"levelo://app?vid=89ff4683-020f-42e1-9b5d-f60ac373be8a","ios":"levelo://app?vid=89ff4683-020f-42e1-9b5d-f60ac373be8a"},"vehicle_type_id":"4","last_reported":1733872132,"current_range_meters":38800,"station_id":"ce4bgqh2rcd13ifvqc4g","pricing_plan_id":"cebpf4jnsgd1na2vs0mg"},{"bike_id":"808abae7-b950-454a-a741-21e5319a822b","system_id":"levelo_inurba_marseille","lat":43.27188,"lon":5.3916,"is_reserved":false,"is_disabled":false,"rental_uris":{"android":"levelo://app?vid=808abae7-b950-454a-a741-21e5319a822b","ios":"levelo://app?vid=808abae7-b950-454a-a741-21e5319a822b"},"vehicle_type_id":"4","last_reported":1733872132,"current_range_meters":38800,"station_id":"ce4bhhp2rcd13ifvqfm0","pricing_plan_id":"cebpf4jnsgd1na2vs0mg"},{"bike_id":"e7450eaf-e45f-4bd1-b7ac-9c306ab89734","system_id":"levelo_inurba_marseille","lat":43.29632,"lon":5.40591,"is_reserved":false,"is_disabled":false,"rental_uris":{"android":"levelo://app?vid=e7450eaf-e45f-4bd1-b7ac-9c306ab89734","ios":"levelo://app?vid=e7450eaf-e45f-4bd1-b7ac-9c306ab89734"},"vehicle_type_id":"4","last_reported":1733872132,"current_range_meters":38800,"station_id":"ce4bh0h2rcd13ifvqd60","pricing_plan_id":"cebpf4jnsgd1na2vs0mg"},{"bike_id":"08e46dca-c7ab-473d-8cd7-0439ec94df64","system_id":"levelo_inurba_marseille","lat":43.27204,"lon":5.39191,"is_reserved":false,"is_disabled":true,"rental_uris":{"android":"levelo://app?vid=08e46dca-c7ab-473d-8cd7-0439ec94df64","ios":"levelo://app?vid=08e46dca-c7ab-473d-8cd7-0439ec94df64"},"vehicle_type_id":"4","last_reported":1733872132,"current_range_meters":14400,"station_id":"ce4bhhp2rcd13ifvqfm0","pricing_plan_id":"cebpf4jnsgd1na2vs0mg"},{"bike_id":"dda0c4e2-f0a1-4398-879a-2cf5955f0703","system_id":"levelo_inurba_marseille","lat":43.28564,"lon":5.39503,"is_reserved":false,"is_disabled":false,"rental_uris":{"android":"levelo://app?vid=dda0c4e2-f0a1-4398-879a-2cf5955f0703","ios":"levelo://app?vid=dda0c4e2-f0a1-4398-879a-2cf5955f0703"},"vehicle_type_id":"4","last_reported":1733872132,"current_range_meters":35600,"station_id":"ce4bh292rcd13ifvqdg0","pricing_plan_id":"cebpf4jnsgd1na2vs0mg"},{"bike_id":"bc53fa51-fa84-469c-8478-c3c1765f2da9","system_id":"levelo_inurba_marseille","lat":43.31361,"lon":5.38491,"is_reserved":false,"is_disabled":false,"rental_uris":{"android":"levelo://app?vid=bc53fa51-fa84-469c-8478-c3c1765f2da9","ios":"levelo://app?vid=bc53fa51-fa84-469c-8478-c3c1765f2da9"},"vehicle_type_id":"4","last_reported":1733872132,"current_range_meters":38800,"station_id":"ce4bgt92rcd13ifvqcf0","pricing_plan_id":"cebpf4jnsgd1na2vs0mg"},{"bike_id":"bd80e73f-cca8-40a9-8899-08aa856aa65d","system_id":"levelo_inurba_marseille","lat":43.28727,"lon":5.36084,"is_reserved":false,"is_disabled":false,"rental_uris":{"android":"levelo://app?vid=bd80e73f-cca8-40a9-8899-08aa856aa65d","ios":"levelo://app?vid=bd80e73f-cca8-40a9-8899-08aa856aa65d"},"vehicle_type_id":"4","last_reported":1733872132,"current_range_meters":34800,"station_id":"cki0cbj6b192h4jlfktg","pricing_plan_id":"cebpf4jnsgd1na2vs0mg"},{"bike_id":"cdc01f00-cea6-4481-8402-e99c6faccfff","system_id":"levelo_inurba_marseille","lat":43.30256,"lon":5.40079,"is_reserved":false,"is_disabled":false,"rental_uris":{"android":"levelo://app?vid=cdc01f00-cea6-4481-8402-e99c6faccfff","ios":"levelo://app?vid=cdc01f00-cea6-4481-8402-e99c6faccfff"},"vehicle_type_id":"4","last_reported":1733872132,"current_range_meters":36400,"station_id":"ce4bgvh2rcd13ifvqcs0","pricing_plan_id":"cebpf4jnsgd1na2vs0mg"},{"bike_id":"17e9115d-8113-4bca-9428-2e6c563b1c7f","system_id":"levelo_inurba_marseille","lat":43.31075,"lon":5.38286,"is_reserved":false,"is_disabled":false,"rental_uris":{"android":"levelo://app?vid=17e9115d-8113-4bca-9428-2e6c563b1c7f","ios":"levelo://app?vid=17e9115d-8113-4bca-9428-2e6c563b1c7f"},"vehicle_type_id":"4","last_reported":1733872132,"current_range_meters":38800,"station_id":"","pricing_plan_id":"cebpf4jnsgd1na2vs0mg"},{"bike_id":"1798b009-d070-4a48-981c-7e69a8a0d034","system_id":"levelo_inurba_marseille","lat":43.32364,"lon":5.38883,"is_reserved":false,"is_disabled":false,"rental_uris":{"android":"levelo://app?vid=1798b009-d070-4a48-981c-7e69a8a0d034","ios":"levelo://app?vid=1798b009-d070-4a48-981c-7e69a8a0d034"},"vehicle_type_id":"4","last_reported":1733872132,"current_range_meters":38800,"station_id":"ce4bhqp2rcd13ifvqhog","pricing_plan_id":"cebpf4jnsgd1na2vs0mg"},{"bike_id":"eb4e32cd-a02d-4e92-a013-1fdc0dd71ccb","system_id":"levelo_inurba_marseille","lat":43.324799,"lon":5.365716,"is_reserved":false,"is_disabled":true,"rental_uris":{"android":"levelo://app?vid=eb4e32cd-a02d-4e92-a013-1fdc0dd71ccb","ios":"levelo://app?vid=eb4e32cd-a02d-4e92-a013-1fdc0dd71ccb"},"vehicle_type_id":"4","last_reported":1733872132,"current_range_meters":0,"station_id":"","pricing_plan_id":"cebpf4jnsgd1na2vs0mg"},{"bike_id":"4a24454f-8f11-4139-a07d-79231199cd33","system_id":"levelo_inurba_marseille","lat":43.24371,"lon":5.3703,"is_reserved":false,"is_disabled":false,"rental_uris":{"android":"levelo://app?vid=4a24454f-8f11-4139-a07d-79231199cd33","ios":"levelo://app?vid=4a24454f-8f11-4139-a07d-79231199cd33"},"vehicle_type_id":"4","last_reported":1733872132,"current_range_meters":28800,"station_id":"ce4bhhh2rcd13ifvqfk0","pricing_plan_id":"cebpf4jnsgd1na2vs0mg"},{"bike_id":"928896f9-930a-4dfa-a7ab-6b63e5b73b70","system_id":"levelo_inurba_marseille","lat":43.31698,"lon":5.40459,"is_reserved":false,"is_disabled":false,"rental_uris":{"android":"levelo://app?vid=928896f9-930a-4dfa-a7ab-6b63e5b73b70","ios":"levelo://app?vid=928896f9-930a-4dfa-a7ab-6b63e5b73b70"},"vehicle_type_id":"4","last_reported":1733872132,"current_range_meters":38000,"station_id":"ce4bh012rcd13ifvqd00","pricing_plan_id":"cebpf4jnsgd1na2vs0mg"},{"bike_id":"b440da32-4995-4919-a7ff-91d7ae815e1e","system_id":"levelo_inurba_marseille","lat":43.30632,"lon":5.4007,"is_reserved":false,"is_disabled":false,"rental_uris":{"android":"levelo://app?vid=b440da32-4995-4919-a7ff-91d7ae815e1e","ios":"levelo://app?vid=b440da32-4995-4919-a7ff-91d7ae815e1e"},"vehicle_type_id":"4","last_reported":1733872132,"current_range_meters":38000,"station_id":"ce4bh112rcd13ifvqda0","pricing_plan_id":"cebpf4jnsgd1na2vs0mg"},{"bike_id":"c79a44c3-57a2-4768-b6b8-e298d2460a22","system_id":"levelo_inurba_marseille","lat":43.24166,"lon":5.36396,"is_reserved":false,"is_disabled":false,"rental_uris":{"android":"levelo://app?vid=c79a44c3-57a2-4768-b6b8-e298d2460a22","ios":"levelo://app?vid=c79a44c3-57a2-4768-b6b8-e298d2460a22"},"vehicle_type_id":"4","last_reported":1733872132,"current_range_meters":36800,"station_id":"cpo36qri1sfpv3e86is0","pricing_plan_id":"cebpf4jnsgd1na2vs0mg"},{"bike_id":"9d80a548-f609-424a-b271-462289cef155","system_id":"levelo_inurba_marseille","lat":43.23959,"lon":5.36634,"is_reserved":false,"is_disabled":false,"rental_uris":{"android":"levelo://app?vid=9d80a548-f609-424a-b271-462289cef155","ios":"levelo://app?vid=9d80a548-f609-424a-b271-462289cef155"},"vehicle_type_id":"4","last_reported":1733872132,"current_range_meters":24000,"station_id":"ce4bhi12rcd13ifvqfp0","pricing_plan_id":"cebpf4jnsgd1na2vs0mg"},{"bike_id":"19fe4af2-6058-4ff5-9830-ffd1a24217f0","system_id":"levelo_inurba_marseille","lat":43.3054,"lon":5.38431,"is_reserved":false,"is_disabled":false,"rental_uris":{"android":"levelo://app?vid=19fe4af2-6058-4ff5-9830-ffd1a24217f0","ios":"levelo://app?vid=19fe4af2-6058-4ff5-9830-ffd1a24217f0"},"vehicle_type_id":"4","last_reported":1733872132,"current_range_meters":38800,"station_id":"ce4bgg92rcd13ifvqb30","pricing_plan_id":"cebpf4jnsgd1na2vs0mg"},{"bike_id":"26924fb9-4179-4abe-8b03-e0d47c141d92","system_id":"levelo_inurba_marseille","lat":43.27179,"lon":5.40989,"is_reserved":false,"is_disabled":false,"rental_uris":{"android":"levelo://app?vid=26924fb9-4179-4abe-8b03-e0d47c141d92","ios":"levelo://app?vid=26924fb9-4179-4abe-8b03-e0d47c141d92"},"vehicle_type_id":"4","last_reported":1733872132,"current_range_meters":24800,"station_id":"ce4bhl12rcd13ifvqgf0","pricing_plan_id":"cebpf4jnsgd1na2vs0mg"},{"bike_id":"13413a55-efc9-4e48-bc2b-ad373df4b5d3","system_id":"levelo_inurba_marseille","lat":43.24809,"lon":5.37461,"is_reserved":false,"is_disabled":false,"rental_uris":{"android":"levelo://app?vid=13413a55-efc9-4e48-bc2b-ad373df4b5d3","ios":"levelo://app?vid=13413a55-efc9-4e48-bc2b-ad373df4b5d3"},"vehicle_type_id":"4","last_reported":1733872132,"current_range_meters":21600,"station_id":"ce4bhgh2rcd13ifvqfb0","pricing_plan_id":"cebpf4jnsgd1na2vs0mg"},{"bike_id":"2e51fb70-b1be-4661-b646-3870500c9133","system_id":"levelo_inurba_marseille","lat":43.29932,"lon":5.41321,"is_reserved":false,"is_disabled":false,"rental_uris":{"android":"levelo://app?vid=2e51fb70-b1be-4661-b646-3870500c9133","ios":"levelo://app?vid=2e51fb70-b1be-4661-b646-3870500c9133"},"vehicle_type_id":"4","last_reported":1733872132,"current_range_meters":32800,"station_id":"ce4bhp12rcd13ifvqh9g","pricing_plan_id":"cebpf4jnsgd1na2vs0mg"},{"bike_id":"7bdec345-eeec-47c0-a1aa-d0b0f44ab6d1","system_id":"levelo_inurba_marseille","lat":43.32663,"lon":5.40995,"is_reserved":false,"is_disabled":true,"rental_uris":{"android":"levelo://app?vid=7bdec345-eeec-47c0-a1aa-d0b0f44ab6d1","ios":"levelo://app?vid=7bdec345-eeec-47c0-a1aa-d0b0f44ab6d1"},"vehicle_type_id":"4","last_reported":1733872132,"current_range_meters":37600,"station_id":"ce4bhpp2rcd13ifvqhgg","pricing_plan_id":"cebpf4jnsgd1na2vs0mg"},{"bike_id":"5f84a9fc-4939-4018-8635-659d9891eef7","system_id":"levelo_inurba_marseille","lat":43.25136,"lon":5.40347,"is_reserved":false,"is_disabled":false,"rental_uris":{"android":"levelo://app?vid=5f84a9fc-4939-4018-8635-659d9891eef7","ios":"levelo://app?vid=5f84a9fc-4939-4018-8635-659d9891eef7"},"vehicle_type_id":"4","last_reported":1733872132,"current_range_meters":37600,"station_id":"ce4bhlh2rcd13ifvqgig","pricing_plan_id":"cebpf4jnsgd1na2vs0mg"},{"bike_id":"f86f7e2a-9da2-46ae-ba67-518e13dbcfb7","system_id":"levelo_inurba_marseille","lat":43.27182,"lon":5.40995,"is_reserved":false,"is_disabled":false,"rental_uris":{"android":"levelo://app?vid=f86f7e2a-9da2-46ae-ba67-518e13dbcfb7","ios":"levelo://app?vid=f86f7e2a-9da2-46ae-ba67-518e13dbcfb7"},"vehicle_type_id":"4","last_reported":1733872132,"current_range_meters":38800,"station_id":"ce4bhl12rcd13ifvqgf0","pricing_plan_id":"cebpf4jnsgd1na2vs0mg"},{"bike_id":"0f9c6464-cc78-471b-ab3b-64023f6382f0","system_id":"levelo_inurba_marseille","lat":43.2816,"lon":5.42637,"is_reserved":false,"is_disabled":false,"rental_uris":{"android":"levelo://app?vid=0f9c6464-cc78-471b-ab3b-64023f6382f0","ios":"levelo://app?vid=0f9c6464-cc78-471b-ab3b-64023f6382f0"},"vehicle_type_id":"4","last_reported":1733872132,"current_range_meters":16800,"station_id":"ce4bhnh2rcd13ifvqgug","pricing_plan_id":"cebpf4jnsgd1na2vs0mg"},{"bike_id":"6b183d9c-fcd9-4c3e-8f0c-f63b7ade2362","system_id":"levelo_inurba_marseille","lat":43.31324,"lon":5.39706,"is_reserved":false,"is_disabled":false,"rental_uris":{"android":"levelo://app?vid=6b183d9c-fcd9-4c3e-8f0c-f63b7ade2362","ios":"levelo://app?vid=6b183d9c-fcd9-4c3e-8f0c-f63b7ade2362"},"vehicle_type_id":"4","last_reported":1733872132,"current_range_meters":30000,"station_id":"ce4bgvp2rcd13ifvqcu0","pricing_plan_id":"cebpf4jnsgd1na2vs0mg"},{"bike_id":"4b9f2e0c-e6c8-41ae-a354-ab0c34618599","system_id":"levelo_inurba_marseille","lat":43.23954,"lon":5.36638,"is_reserved":false,"is_disabled":false,"rental_uris":{"android":"levelo://app?vid=4b9f2e0c-e6c8-41ae-a354-ab0c34618599","ios":"levelo://app?vid=4b9f2e0c-e6c8-41ae-a354-ab0c34618599"},"vehicle_type_id":"4","last_reported":1733872132,"current_range_meters":38800,"station_id":"ce4bhi12rcd13ifvqfp0","pricing_plan_id":"cebpf4jnsgd1na2vs0mg"},{"bike_id":"24181ba8-8457-411d-85d3-7bc96f4747f8","system_id":"levelo_inurba_marseille","lat":43.30868,"lon":5.39648,"is_reserved":false,"is_disabled":false,"rental_uris":{"android":"levelo://app?vid=24181ba8-8457-411d-85d3-7bc96f4747f8","ios":"levelo://app?vid=24181ba8-8457-411d-85d3-7bc96f4747f8"},"vehicle_type_id":"4","last_reported":1733872132,"current_range_meters":39200,"station_id":"ce4bh012rcd13ifvqcv0","pricing_plan_id":"cebpf4jnsgd1na2vs0mg"},{"bike_id":"ee894ae6-4440-4436-8cda-0363ef82342a","system_id":"levelo_inurba_marseille","lat":43.29456,"lon":5.3974,"is_reserved":false,"is_disabled":false,"rental_uris":{"android":"levelo://app?vid=ee894ae6-4440-4436-8cda-0363ef82342a","ios":"levelo://app?vid=ee894ae6-4440-4436-8cda-0363ef82342a"},"vehicle_type_id":"4","last_reported":1733872132,"current_range_meters":25600,"station_id":"ce4bh3h2rcd13ifvqdo0","pricing_plan_id":"cebpf4jnsgd1na2vs0mg"},{"bike_id":"eccfe248-da19-40ce-b842-4eb5f39b7b91","system_id":"levelo_inurba_marseille","lat":43.30663,"lon":5.40067,"is_reserved":false,"is_disabled":false,"rental_uris":{"android":"levelo://app?vid=eccfe248-da19-40ce-b842-4eb5f39b7b91","ios":"levelo://app?vid=eccfe248-da19-40ce-b842-4eb5f39b7b91"},"vehicle_type_id":"4","last_reported":1733872132,"current_range_meters":36400,"station_id":"ce4bh112rcd13ifvqda0","pricing_plan_id":"cebpf4jnsgd1na2vs0mg"},{"bike_id":"cda007dd-06bb-4a86-b841-00a7ca3fac29","system_id":"levelo_inurba_marseille","lat":43.31763,"lon":5.39015,"is_reserved":false,"is_disabled":false,"rental_uris":{"android":"levelo://app?vid=cda007dd-06bb-4a86-b841-00a7ca3fac29","ios":"levelo://app?vid=cda007dd-06bb-4a86-b841-00a7ca3fac29"},"vehicle_type_id":"4","last_reported":1733872132,"current_range_meters":31200,"station_id":"ce4bhqp2rcd13ifvqhng","pricing_plan_id":"cebpf4jnsgd1na2vs0mg"},{"bike_id":"95d8628d-10b1-47e7-9a42-9b126ec315c6","system_id":"levelo_inurba_marseille","lat":43.23201,"lon":5.35565,"is_reserved":false,"is_disabled":false,"rental_uris":{"android":"levelo://app?vid=95d8628d-10b1-47e7-9a42-9b126ec315c6","ios":"levelo://app?vid=95d8628d-10b1-47e7-9a42-9b126ec315c6"},"vehicle_type_id":"4","last_reported":1733872132,"current_range_meters":22400,"station_id":"ce4bhu92rcd13ifvqi70","pricing_plan_id":"cebpf4jnsgd1na2vs0mg"},{"bike_id":"ff157558-4762-4775-8ebe-d59ef36bd776","system_id":"levelo_inurba_marseille","lat":43.26558,"lon":5.37295,"is_reserved":false,"is_disabled":false,"rental_uris":{"android":"levelo://app?vid=ff157558-4762-4775-8ebe-d59ef36bd776","ios":"levelo://app?vid=ff157558-4762-4775-8ebe-d59ef36bd776"},"vehicle_type_id":"4","last_reported":1733872132,"current_range_meters":11600,"station_id":"ce4bhg12rcd13ifvqf70","pricing_plan_id":"cebpf4jnsgd1na2vs0mg"},{"bike_id":"ebf11412-8f20-4f09-a2fa-4bbb5ad3b254","system_id":"levelo_inurba_marseille","lat":43.31485,"lon":5.37308,"is_reserved":false,"is_disabled":false,"rental_uris":{"android":"levelo://app?vid=ebf11412-8f20-4f09-a2fa-4bbb5ad3b254","ios":"levelo://app?vid=ebf11412-8f20-4f09-a2fa-4bbb5ad3b254"},"vehicle_type_id":"4","last_reported":1733872132,"current_range_meters":38800,"station_id":"ce4bgt12rcd13ifvqcd0","pricing_plan_id":"cebpf4jnsgd1na2vs0mg"},{"bike_id":"6c88932d-00ec-4b60-9546-85018a6b7535","system_id":"levelo_inurba_marseille","lat":43.292522,"lon":5.409138,"is_reserved":false,"is_disabled":false,"rental_uris":{"android":"levelo://app?vid=6c88932d-00ec-4b60-9546-85018a6b7535","ios":"levelo://app?vid=6c88932d-00ec-4b60-9546-85018a6b7535"},"vehicle_type_id":"4","last_reported":1733872132,"current_range_meters":37600,"station_id":"ce4bh192rcd13ifvqdc0","pricing_plan_id":"cebpf4jnsgd1na2vs0mg"},{"bike_id":"d7d9a536-4223-424e-9b1a-12c2b62a0c29","system_id":"levelo_inurba_marseille","lat":43.32535,"lon":5.41438,"is_reserved":false,"is_disabled":false,"rental_uris":{"android":"levelo://app?vid=d7d9a536-4223-424e-9b1a-12c2b62a0c29","ios":"levelo://app?vid=d7d9a536-4223-424e-9b1a-12c2b62a0c29"},"vehicle_type_id":"4","last_reported":1733872132,"current_range_meters":38400,"station_id":"ce4bhq12rcd13ifvqhhg","pricing_plan_id":"cebpf4jnsgd1na2vs0mg"},{"bike_id":"48da4f20-85d1-4cb5-9ac2-4ad50f3087c3","system_id":"levelo_inurba_marseille","lat":43.28111,"lon":5.37843,"is_reserved":false,"is_disabled":false,"rental_uris":{"android":"levelo://app?vid=48da4f20-85d1-4cb5-9ac2-4ad50f3087c3","ios":"levelo://app?vid=48da4f20-85d1-4cb5-9ac2-4ad50f3087c3"},"vehicle_type_id":"4","last_reported":1733872132,"current_range_meters":30000,"station_id":"ce4bha12rcd13ifvqee0","pricing_plan_id":"cebpf4jnsgd1na2vs0mg"},{"bike_id":"570bad79-da0a-4f0e-bd71-fcfb4fde31b3","system_id":"levelo_inurba_marseille","lat":43.2396,"lon":5.36634,"is_reserved":false,"is_disabled":true,"rental_uris":{"android":"levelo://app?vid=570bad79-da0a-4f0e-bd71-fcfb4fde31b3","ios":"levelo://app?vid=570bad79-da0a-4f0e-bd71-fcfb4fde31b3"},"vehicle_type_id":"4","last_reported":1733872132,"current_range_meters":30400,"station_id":"ce4bhi12rcd13ifvqfp0","pricing_plan_id":"cebpf4jnsgd1na2vs0mg"},{"bike_id":"0f20b602-7b45-4989-92b6-4d1c64ab5468","system_id":"levelo_inurba_marseille","lat":43.26554,"lon":5.3729,"is_reserved":false,"is_disabled":false,"rental_uris":{"android":"levelo://app?vid=0f20b602-7b45-4989-92b6-4d1c64ab5468","ios":"levelo://app?vid=0f20b602-7b45-4989-92b6-4d1c64ab5468"},"vehicle_type_id":"4","last_reported":1733872132,"current_range_meters":30800,"station_id":"ce4bhg12rcd13ifvqf70","pricing_plan_id":"cebpf4jnsgd1na2vs0mg"},{"bike_id":"a594951f-0274-4429-b56b-19578d6dff3b","system_id":"levelo_inurba_marseille","lat":43.24663,"lon":5.38165,"is_reserved":false,"is_disabled":false,"rental_uris":{"android":"levelo://app?vid=a594951f-0274-4429-b56b-19578d6dff3b","ios":"levelo://app?vid=a594951f-0274-4429-b56b-19578d6dff3b"},"vehicle_type_id":"4","last_reported":1733872132,"current_range_meters":8400,"station_id":"ce4bhih2rcd13ifvqfr0","pricing_plan_id":"cebpf4jnsgd1na2vs0mg"},{"bike_id":"e7864067-1489-4fd3-808a-56b2e376b2a6","system_id":"levelo_inurba_marseille","lat":43.28008,"lon":5.44189,"is_reserved":false,"is_disabled":false,"rental_uris":{"android":"levelo://app?vid=e7864067-1489-4fd3-808a-56b2e376b2a6","ios":"levelo://app?vid=e7864067-1489-4fd3-808a-56b2e376b2a6"},"vehicle_type_id":"4","last_reported":1733872132,"current_range_meters":28000,"station_id":"","pricing_plan_id":"cebpf4jnsgd1na2vs0mg"},{"bike_id":"27efcad8-e1e6-4e95-a9b5-a7e9501f805a","system_id":"levelo_inurba_marseille","lat":43.31484,"lon":5.37302,"is_reserved":false,"is_disabled":false,"rental_uris":{"android":"levelo://app?vid=27efcad8-e1e6-4e95-a9b5-a7e9501f805a","ios":"levelo://app?vid=27efcad8-e1e6-4e95-a9b5-a7e9501f805a"},"vehicle_type_id":"4","last_reported":1733872132,"current_range_meters":38000,"station_id":"ce4bgt12rcd13ifvqcd0","pricing_plan_id":"cebpf4jnsgd1na2vs0mg"},{"bike_id":"c608fb33-5cb4-45da-8ac1-ef9862264fb7","system_id":"levelo_inurba_marseille","lat":43.31062,"lon":5.38346,"is_reserved":false,"is_disabled":false,"rental_uris":{"android":"levelo://app?vid=c608fb33-5cb4-45da-8ac1-ef9862264fb7","ios":"levelo://app?vid=c608fb33-5cb4-45da-8ac1-ef9862264fb7"},"vehicle_type_id":"4","last_reported":1733872132,"current_range_meters":24400,"station_id":"ce4bgv92rcd13ifvqcr0","pricing_plan_id":"cebpf4jnsgd1na2vs0mg"},{"bike_id":"87790148-1929-4f7d-81e9-bc17b083cc36","system_id":"levelo_inurba_marseille","lat":43.25725,"lon":5.41108,"is_reserved":false,"is_disabled":false,"rental_uris":{"android":"levelo://app?vid=87790148-1929-4f7d-81e9-bc17b083cc36","ios":"levelo://app?vid=87790148-1929-4f7d-81e9-bc17b083cc36"},"vehicle_type_id":"4","last_reported":1733872132,"current_range_meters":38400,"station_id":"ce4bhkp2rcd13ifvqgd0","pricing_plan_id":"cebpf4jnsgd1na2vs0mg"},{"bike_id":"b8e7f883-5b9b-422d-81e9-d00c2442da3b","system_id":"levelo_inurba_marseille","lat":43.23064,"lon":5.35494,"is_reserved":false,"is_disabled":false,"rental_uris":{"android":"levelo://app?vid=b8e7f883-5b9b-422d-81e9-d00c2442da3b","ios":"levelo://app?vid=b8e7f883-5b9b-422d-81e9-d00c2442da3b"},"vehicle_type_id":"4","last_reported":1733872132,"current_range_meters":34000,"station_id":"cpo3342slgdg3j2ifvpg","pricing_plan_id":"cebpf4jnsgd1na2vs0mg"},{"bike_id":"24fb0239-8712-4e5a-b1f4-2e31d2817871","system_id":"levelo_inurba_marseille","lat":43.31358,"lon":5.38487,"is_reserved":false,"is_disabled":false,"rental_uris":{"android":"levelo://app?vid=24fb0239-8712-4e5a-b1f4-2e31d2817871","ios":"levelo://app?vid=24fb0239-8712-4e5a-b1f4-2e31d2817871"},"vehicle_type_id":"4","last_reported":1733872132,"current_range_meters":16400,"station_id":"ce4bgt92rcd13ifvqcf0","pricing_plan_id":"cebpf4jnsgd1na2vs0mg"},{"bike_id":"7e71959f-4851-4623-bdc3-b03f805043bb","system_id":"levelo_inurba_marseille","lat":43.3148,"lon":5.37293,"is_reserved":false,"is_disabled":false,"rental_uris":{"android":"levelo://app?vid=7e71959f-4851-4623-bdc3-b03f805043bb","ios":"levelo://app?vid=7e71959f-4851-4623-bdc3-b03f805043bb"},"vehicle_type_id":"4","last_reported":1733872132,"current_range_meters":16800,"station_id":"ce4bgt12rcd13ifvqcd0","pricing_plan_id":"cebpf4jnsgd1na2vs0mg"},{"bike_id":"b7c21cd2-254f-4556-bc54-df1e590de785","system_id":"levelo_inurba_marseille","lat":43.30354,"lon":5.41877,"is_reserved":false,"is_disabled":false,"rental_uris":{"android":"levelo://app?vid=b7c21cd2-254f-4556-bc54-df1e590de785","ios":"levelo://app?vid=b7c21cd2-254f-4556-bc54-df1e590de785"},"vehicle_type_id":"4","last_reported":1733872132,"current_range_meters":28000,"station_id":"ce4bhop2rcd13ifvqh7g","pricing_plan_id":"cebpf4jnsgd1na2vs0mg"},{"bike_id":"f78f4e7d-a540-4cbd-99d7-83208916456d","system_id":"levelo_inurba_marseille","lat":43.26231,"lon":5.37426,"is_reserved":false,"is_disabled":false,"rental_uris":{"android":"levelo://app?vid=f78f4e7d-a540-4cbd-99d7-83208916456d","ios":"levelo://app?vid=f78f4e7d-a540-4cbd-99d7-83208916456d"},"vehicle_type_id":"4","last_reported":1733872132,"current_range_meters":38800,"station_id":"","pricing_plan_id":"cebpf4jnsgd1na2vs0mg"},{"bike_id":"aac345db-d41e-475c-a96f-986bffa1163f","system_id":"levelo_inurba_marseille","lat":43.29611,"lon":5.37721,"is_reserved":false,"is_disabled":true,"rental_uris":{"android":"levelo://app?vid=aac345db-d41e-475c-a96f-986bffa1163f","ios":"levelo://app?vid=aac345db-d41e-475c-a96f-986bffa1163f"},"vehicle_type_id":"4","last_reported":1733872132,"current_range_meters":26800,"station_id":"ce4bgi92rcd13ifvqb90","pricing_plan_id":"cebpf4jnsgd1na2vs0mg"},{"bike_id":"d23a8705-e529-47a4-8077-bf556f13b60b","system_id":"levelo_inurba_marseille","lat":43.3147,"lon":5.37286,"is_reserved":false,"is_disabled":false,"rental_uris":{"android":"levelo://app?vid=d23a8705-e529-47a4-8077-bf556f13b60b","ios":"levelo://app?vid=d23a8705-e529-47a4-8077-bf556f13b60b"},"vehicle_type_id":"4","last_reported":1733872132,"current_range_meters":38800,"station_id":"ce4bgt12rcd13ifvqcd0","pricing_plan_id":"cebpf4jnsgd1na2vs0mg"},{"bike_id":"107cd575-c5d8-4048-9a37-78677d6a0549","system_id":"levelo_inurba_marseille","lat":43.299028,"lon":5.381249,"is_reserved":false,"is_disabled":false,"rental_uris":{"android":"levelo://app?vid=107cd575-c5d8-4048-9a37-78677d6a0549","ios":"levelo://app?vid=107cd575-c5d8-4048-9a37-78677d6a0549"},"vehicle_type_id":"4","last_reported":1733872132,"current_range_meters":25200,"station_id":"ce4bgj12rcd13ifvqbc0","pricing_plan_id":"cebpf4jnsgd1na2vs0mg"},{"bike_id":"a0b44e86-9121-4df3-b62a-0fc9a0d1110c","system_id":"levelo_inurba_marseille","lat":43.23063,"lon":5.35497,"is_reserved":false,"is_disabled":false,"rental_uris":{"android":"levelo://app?vid=a0b44e86-9121-4df3-b62a-0fc9a0d1110c","ios":"levelo://app?vid=a0b44e86-9121-4df3-b62a-0fc9a0d1110c"},"vehicle_type_id":"4","last_reported":1733872132,"current_range_meters":33600,"station_id":"cpo3342slgdg3j2ifvpg","pricing_plan_id":"cebpf4jnsgd1na2vs0mg"},{"bike_id":"480c700b-8a1f-40f6-bff6-60ef94be8110","system_id":"levelo_inurba_marseille","lat":43.30892,"lon":5.39645,"is_reserved":false,"is_disabled":false,"rental_uris":{"android":"levelo://app?vid=480c700b-8a1f-40f6-bff6-60ef94be8110","ios":"levelo://app?vid=480c700b-8a1f-40f6-bff6-60ef94be8110"},"vehicle_type_id":"4","last_reported":1733872132,"current_range_meters":31200,"station_id":"ce4bh012rcd13ifvqcv0","pricing_plan_id":"cebpf4jnsgd1na2vs0mg"},{"bike_id":"047edeb7-9682-416e-8d94-a8a2b6a94655","system_id":"levelo_inurba_marseille","lat":43.31318,"lon":5.39703,"is_reserved":false,"is_disabled":false,"rental_uris":{"android":"levelo://app?vid=047edeb7-9682-416e-8d94-a8a2b6a94655","ios":"levelo://app?vid=047edeb7-9682-416e-8d94-a8a2b6a94655"},"vehicle_type_id":"4","last_reported":1733872132,"current_range_meters":38800,"station_id":"ce4bgvp2rcd13ifvqcu0","pricing_plan_id":"cebpf4jnsgd1na2vs0mg"},{"bike_id":"462cf08f-da5e-4233-ac29-19efa267eb1e","system_id":"levelo_inurba_marseille","lat":43.31123,"lon":5.3775,"is_reserved":false,"is_disabled":true,"rental_uris":{"android":"levelo://app?vid=462cf08f-da5e-4233-ac29-19efa267eb1e","ios":"levelo://app?vid=462cf08f-da5e-4233-ac29-19efa267eb1e"},"vehicle_type_id":"4","last_reported":1733872132,"current_range_meters":1200,"station_id":"ce4bgt92rcd13ifvqcg0","pricing_plan_id":"cebpf4jnsgd1na2vs0mg"},{"bike_id":"9842e302-60c5-4463-a154-2234e3c29308","system_id":"levelo_inurba_marseille","lat":43.26195,"lon":5.37448,"is_reserved":false,"is_disabled":false,"rental_uris":{"android":"levelo://app?vid=9842e302-60c5-4463-a154-2234e3c29308","ios":"levelo://app?vid=9842e302-60c5-4463-a154-2234e3c29308"},"vehicle_type_id":"4","last_reported":1733872132,"current_range_meters":38000,"station_id":"ce4bhgp2rcd13ifvqfc0","pricing_plan_id":"cebpf4jnsgd1na2vs0mg"},{"bike_id":"df618d12-d827-459f-8b16-ffaa83931232","system_id":"levelo_inurba_marseille","lat":43.30535,"lon":5.38428,"is_reserved":false,"is_disabled":false,"rental_uris":{"android":"levelo://app?vid=df618d12-d827-459f-8b16-ffaa83931232","ios":"levelo://app?vid=df618d12-d827-459f-8b16-ffaa83931232"},"vehicle_type_id":"4","last_reported":1733872132,"current_range_meters":35200,"station_id":"ce4bgg92rcd13ifvqb30","pricing_plan_id":"cebpf4jnsgd1na2vs0mg"},{"bike_id":"eab7c24e-3533-4637-b397-5e46bc48ccfd","system_id":"levelo_inurba_marseille","lat":43.23158,"lon":5.43707,"is_reserved":false,"is_disabled":true,"rental_uris":{"android":"levelo://app?vid=eab7c24e-3533-4637-b397-5e46bc48ccfd","ios":"levelo://app?vid=eab7c24e-3533-4637-b397-5e46bc48ccfd"},"vehicle_type_id":"4","last_reported":1733872132,"current_range_meters":3600,"station_id":"ce4bhmp2rcd13ifvqgog","pricing_plan_id":"cebpf4jnsgd1na2vs0mg"},{"bike_id":"ff46f7b7-bf8e-4339-90a6-087c02b41ce7","system_id":"levelo_inurba_marseille","lat":43.28661,"lon":5.36356,"is_reserved":false,"is_disabled":false,"rental_uris":{"android":"levelo://app?vid=ff46f7b7-bf8e-4339-90a6-087c02b41ce7","ios":"levelo://app?vid=ff46f7b7-bf8e-4339-90a6-087c02b41ce7"},"vehicle_type_id":"4","last_reported":1733872132,"current_range_meters":33600,"station_id":"ce4bhah2rcd13ifvqej0","pricing_plan_id":"cebpf4jnsgd1na2vs0mg"},{"bike_id":"f2c7c514-6e72-4032-aac1-b5d8f64a426c","system_id":"levelo_inurba_marseille","lat":43.26683,"lon":5.38269,"is_reserved":false,"is_disabled":false,"rental_uris":{"android":"levelo://app?vid=f2c7c514-6e72-4032-aac1-b5d8f64a426c","ios":"levelo://app?vid=f2c7c514-6e72-4032-aac1-b5d8f64a426c"},"vehicle_type_id":"4","last_reported":1733872132,"current_range_meters":28400,"station_id":"ce4bhg92rcd13ifvqf90","pricing_plan_id":"cebpf4jnsgd1na2vs0mg"},{"bike_id":"97d58032-523c-44eb-90bb-b2be72ae18e4","system_id":"levelo_inurba_marseille","lat":43.2858,"lon":5.39457,"is_reserved":false,"is_disabled":true,"rental_uris":{"android":"levelo://app?vid=97d58032-523c-44eb-90bb-b2be72ae18e4","ios":"levelo://app?vid=97d58032-523c-44eb-90bb-b2be72ae18e4"},"vehicle_type_id":"4","last_reported":1733872132,"current_range_meters":0,"station_id":"ce4bh292rcd13ifvqdg0","pricing_plan_id":"cebpf4jnsgd1na2vs0mg"},{"bike_id":"be52c543-5169-4365-949a-7ebfc60e54fc","system_id":"levelo_inurba_marseille","lat":43.31326,"lon":5.39696,"is_reserved":false,"is_disabled":false,"rental_uris":{"android":"levelo://app?vid=be52c543-5169-4365-949a-7ebfc60e54fc","ios":"levelo://app?vid=be52c543-5169-4365-949a-7ebfc60e54fc"},"vehicle_type_id":"4","last_reported":1733872132,"current_range_meters":5600,"station_id":"ce4bgvp2rcd13ifvqcu0","pricing_plan_id":"cebpf4jnsgd1na2vs0mg"},{"bike_id":"1bbef0f8-8963-4604-a852-033ad0e236e3","system_id":"levelo_inurba_marseille","lat":43.28456,"lon":5.35891,"is_reserved":false,"is_disabled":false,"rental_uris":{"android":"levelo://app?vid=1bbef0f8-8963-4604-a852-033ad0e236e3","ios":"levelo://app?vid=1bbef0f8-8963-4604-a852-033ad0e236e3"},"vehicle_type_id":"4","last_reported":1733872132,"current_range_meters":36800,"station_id":"ce4bhah2rcd13ifvqei0","pricing_plan_id":"cebpf4jnsgd1na2vs0mg"},{"bike_id":"be0ae677-27b3-490f-9c84-0248b379ccf7","system_id":"levelo_inurba_marseille","lat":43.29518,"lon":5.39406,"is_reserved":false,"is_disabled":false,"rental_uris":{"android":"levelo://app?vid=be0ae677-27b3-490f-9c84-0248b379ccf7","ios":"levelo://app?vid=be0ae677-27b3-490f-9c84-0248b379ccf7"},