{"last_updated":1745039405,"ttl":60,"version":"2.2","data":{"bikes":[{"bike_id":"7b2b2cef-c022-4d24-b49c-8c1952b4364c","system_id":"levelo_inurba_marseille","lat":43.23187,"lon":5.35557,"is_reserved":false,"is_disabled":false,"rental_uris":{"android":"levelo://app?vid=7b2b2cef-c022-4d24-b49c-8c1952b4364c","ios":"levelo://app?vid=7b2b2cef-c022-4d24-b49c-8c1952b4364c"},"vehicle_type_id":"4","last_reported":1745039405,"current_range_meters":2800,"station_id":"ce4bhu92rcd13ifvqi70","pricing_plan_id":"cebpf4jnsgd1na2vs0mg"},{"bike_id":"b710fbb1-b765-492e-8cff-58a86822a607","system_id":"levelo_inurba_marseille","lat":43.23192,"lon":5.35571,"is_reserved":false,"is_disabled":true,"rental_uris":{"android":"levelo://app?vid=b710fbb1-b765-492e-8cff-58a86822a607","ios":"levelo://app?vid=b710fbb1-b765-492e-8cff-58a86822a607"},"vehicle_type_id":"4","last_reported":1745039405,"current_range_meters":2800,"station_id":"ce4bhu92rcd13ifvqi70","pricing_plan_id":"cebpf4jnsgd1na2vs0mg"},{"bike_id":"683727aa-af5c-4a30-b620-923da0da034b","system_id":"levelo_inurba_marseille","lat":43.268479,"lon":5.404526,"is_reserved":false,"is_disabled":false,"rental_uris":{"android":"levelo://app?vid=683727aa-af5c-4a30-b620-923da0da034b","ios":"levelo://app?vid=683727aa-af5c-4a30-b620-923da0da034b"},"vehicle_type_id":"4","last_reported":1745039405,"current_range_meters":2800,"station_id":"ce501612rcd8frsf0b60","pricing_plan_id":"cebpf4jnsgd1na2vs0mg"},{"bike_id":"cd82bfe1-a0ed-4cd0-b6ff-6d2046533e87","system_id":"levelo_inurba_marseille","lat":43.295752,"lon":5.407004,"is_reserved":false,"is_disabled":false,"rental_uris":{"android":"levelo://app?vid=cd82bfe1-a0ed-4cd0-b6ff-6d2046533e87","ios":"levelo://app?vid=cd82bfe1-a0ed-4cd0-b6ff-6d2046533e87"},"vehicle_type_id":"4","last_reported":1745039405,"current_range_meters":2800,"station_id":"","pricing_plan_id":"cebpf4jnsgd1na2vs0mg"},{"bike_id":"eabf696b-f9f3-4720-8a30-d72f02495516","system_id":"levelo_inurba_marseille","lat":43.273775,"lon":5.362605,"is_reserved":false,"is_disabled":true,"rental_uris":{"android":"levelo://app?vid=eabf696b-f9f3-4720-8a30-d72f02495516","ios":"levelo://app?vid=eabf696b-f9f3-4720-8a30-d72f02495516"},"vehicle_type_id":"4","last_reported":1745039405,"current_range_meters":2800,"station_id":"ce4bhbh2rcd13ifvqeo0","pricing_plan_id":"cebpf4jnsgd1na2vs0mg"},{"bike_id":"2a297b53-e6c9-4a44-8832-a1535085da75","system_id":"levelo_inurba_marseille","lat":43.319939,"lon":5.381571,"is_reserved":false,"is_disabled":true,"rental_uris":{"android":"levelo://app?vid=2a297b53-e6c9-4a44-8832-a1535085da75","ios":"levelo://app?vid=2a297b53-e6c9-4a44-8832-a1535085da75"},"vehicle_type_id":"4","last_reported":1745039405,"current_range_meters":3200,"station_id":"ce4bhr12rcd13ifvqhpg","pricing_plan_id":"cebpf4jnsgd1na2vs0mg"},{"bike_id":"6f568c50-6f17-47d2-bbba-2c6ecfbc9644","system_id":"levelo_inurba_marseille","lat":43.29184,"lon":5.3689,"is_reserved":false,"is_disabled":false,"rental_uris":{"android":"levelo://app?vid=6f568c50-6f17-47d2-bbba-2c6ecfbc9644","ios":"levelo://app?vid=6f568c50-6f17-47d2-bbba-2c6ecfbc9644"},"vehicle_type_id":"4","last_reported":1745039405,"current_range_meters":3200,"station_id":"","pricing_plan_id":"cebpf4jnsgd1na2vs0mg"},{"bike_id":"8ce61295-9afe-4619-b167-a344c2f95745","system_id":"levelo_inurba_marseille","lat":43.231874,"lon":5.399892,"is_reserved":false,"is_disabled":false,"rental_uris":{"android":"levelo://app?vid=8ce61295-9afe-4619-b167-a344c2f95745","ios":"levelo://app?vid=8ce61295-9afe-4619-b167-a344c2f95745"},"vehicle_type_id":"4","last_reported":1745039405,"current_range_meters":3200,"station_id":"ce4bhn12rcd13ifvqgqg","pricing_plan_id":"cebpf4jnsgd1na2vs0mg"},{"bike_id":"d21b61a1-2569-42c7-922a-c023825f2a00","system_id":"levelo_inurba_marseille","lat":43.24099,"lon":5.37757,"is_reserved":false,"is_disabled":false,"rental_uris":{"android":"levelo://app?vid=d21b61a1-2569-42c7-922a-c023825f2a00","ios":"levelo://app?vid=d21b61a1-2569-42c7-922a-c023825f2a00"},"vehicle_type_id":"4","last_reported":1745039405,"current_range_meters":3200,"station_id":"ce4bhnp2rcd13ifvqgvg","pricing_plan_id":"cebpf4jnsgd1na2vs0mg"},{"bike_id":"5741aebf-1467-4f18-b08a-e660f9dd364f","system_id":"levelo_inurba_marseille","lat":43.30143,"lon":5.39855,"is_reserved":false,"is_disabled":false,"rental_uris":{"android":"levelo://app?vid=5741aebf-1467-4f18-b08a-e660f9dd364f","ios":"levelo://app?vid=5741aebf-1467-4f18-b08a-e660f9dd364f"},"vehicle_type_id":"4","last_reported":1745039405,"current_range_meters":4000,"station_id":"ce4bh0h2rcd13ifvqd40","pricing_plan_id":"cebpf4jnsgd1na2vs0mg"},{"bike_id":"b3543f4c-6062-43d7-ad41-d52c3893e922","system_id":"levelo_inurba_marseille","lat":43.29207,"lon":5.39339,"is_reserved":false,"is_disabled":false,"rental_uris":{"android":"levelo://app?vid=b3543f4c-6062-43d7-ad41-d52c3893e922","ios":"levelo://app?vid=b3543f4c-6062-43d7-ad41-d52c3893e922"},"vehicle_type_id":"4","last_reported":1745039405,"current_range_meters":4000,"station_id":"ce4bh192rcd13ifvqdd0","pricing_plan_id":"cebpf4jnsgd1na2vs0mg"},{"bike_id":"9261d6d0-f018-4de8-abfe-64c6727086ce","system_id":"levelo_inurba_marseille","lat":43.25092,"lon":5.40356,"is_reserved":false,"is_disabled":false,"rental_uris":{"android":"levelo://app?vid=9261d6d0-f018-4de8-abfe-64c6727086ce","ios":"levelo://app?vid=9261d6d0-f018-4de8-abfe-64c6727086ce"},"vehicle_type_id":"4","last_reported":1745039405,"current_range_meters":4400,"station_id":"ce4bhlh2rcd13ifvqgig","pricing_plan_id":"cebpf4jnsgd1na2vs0mg"},{"bike_id":"20b10e20-daa3-4c8d-99a3-204ba679a932","system_id":"levelo_inurba_marseille","lat":43.28488,"lon":5.3589,"is_reserved":false,"is_disabled":false,"rental_uris":{"android":"levelo://app?vid=20b10e20-daa3-4c8d-99a3-204ba679a932","ios":"levelo://app?vid=20b10e20-daa3-4c8d-99a3-204ba679a932"},"vehicle_type_id":"4","last_reported":1745039405,"current_range_meters":4800,"station_id":"ce4bhah2rcd13ifvqei0","pricing_plan_id":"cebpf4jnsgd1na2vs0mg"},{"bike_id":"a9eb962f-7d8b-4c1e-8c65-8047073e3592","system_id":"levelo_inurba_marseille","lat":43.24166,"lon":5.36412,"is_reserved":false,"is_disabled":false,"rental_uris":{"android":"levelo://app?vid=a9eb962f-7d8b-4c1e-8c65-8047073e3592","ios":"levelo://app?vid=a9eb962f-7d8b-4c1e-8c65-8047073e3592"},"vehicle_type_id":"4","last_reported":1745039405,"current_range_meters":4800,"station_id":"cpo36qri1sfpv3e86is0","pricing_plan_id":"cebpf4jnsgd1na2vs0mg"},{"bike_id":"1716b76d-60a5-4c86-bdab-a2e5f630e50f","system_id":"levelo_inurba_marseille","lat":43.29513,"lon":5.39046,"is_reserved":false,"is_disabled":false,"rental_uris":{"android":"levelo://app?vid=1716b76d-60a5-4c86-bdab-a2e5f630e50f","ios":"levelo://app?vid=1716b76d-60a5-4c86-bdab-a2e5f630e50f"},"vehicle_type_id":"4","last_reported":1745039405,"current_range_meters":4800,"station_id":"ce4bh3p2rcd13ifvqdp0","pricing_plan_id":"cebpf4jnsgd1na2vs0mg"},{"bike_id":"12e61b61-a165-4320-af5e-d9d6c29090fc","system_id":"levelo_inurba_marseille","lat":43.22918,"lon":5.35398,"is_reserved":false,"is_disabled":false,"rental_uris":{"android":"levelo://app?vid=12e61b61-a165-4320-af5e-d9d6c29090fc","ios":"levelo://app?vid=12e61b61-a165-4320-af5e-d9d6c29090fc"},"vehicle_type_id":"4","last_reported":1745039405,"current_range_meters":5600,"station_id":"cpo3532slgdg3j2ikp40","pricing_plan_id":"cebpf4jnsgd1na2vs0mg"},{"bike_id":"5583a1cb-ef8e-4930-b38d-8d47fac1b289","system_id":"levelo_inurba_marseille","lat":43.27799,"lon":5.40728,"is_reserved":false,"is_disabled":true,"rental_uris":{"android":"levelo://app?vid=5583a1cb-ef8e-4930-b38d-8d47fac1b289","ios":"levelo://app?vid=5583a1cb-ef8e-4930-b38d-8d47fac1b289"},"vehicle_type_id":"4","last_reported":1745039405,"current_range_meters":5600,"station_id":"ce4bhnh2rcd13ifvqgtg","pricing_plan_id":"cebpf4jnsgd1na2vs0mg"},{"bike_id":"ac258475-3a4a-4554-aa8c-ba192de9f574","system_id":"levelo_inurba_marseille","lat":43.33596,"lon":5.40998,"is_reserved":false,"is_disabled":false,"rental_uris":{"android":"levelo://app?vid=ac258475-3a4a-4554-aa8c-ba192de9f574","ios":"levelo://app?vid=ac258475-3a4a-4554-aa8c-ba192de9f574"},"vehicle_type_id":"4","last_reported":1745039405,"current_range_meters":6000,"station_id":"ce4bhqh2rcd13ifvqhmg","pricing_plan_id":"cebpf4jnsgd1na2vs0mg"},{"bike_id":"b3b82863-a2fc-41d2-bccd-5becece4b492","system_id":"levelo_inurba_marseille","lat":43.31478,"lon":5.37306,"is_reserved":false,"is_disabled":false,"rental_uris":{"android":"levelo://app?vid=b3b82863-a2fc-41d2-bccd-5becece4b492","ios":"levelo://app?vid=b3b82863-a2fc-41d2-bccd-5becece4b492"},"vehicle_type_id":"4","last_reported":1745039405,"current_range_meters":6000,"station_id":"ce4bgt12rcd13ifvqcd0","pricing_plan_id":"cebpf4jnsgd1na2vs0mg"},{"bike_id":"65ec13a0-b6c9-4a64-a021-8c2cd6f8a26c","system_id":"levelo_inurba_marseille","lat":43.28362,"lon":5.3864,"is_reserved":false,"is_disabled":false,"rental_uris":{"android":"levelo://app?vid=65ec13a0-b6c9-4a64-a021-8c2cd6f8a26c","ios":"levelo://app?vid=65ec13a0-b6c9-4a64-a021-8c2cd6f8a26c"},"vehicle_type_id":"4","last_reported":1745039405,"current_range_meters":6000,"station_id":"ce4bh492rcd13ifvqdvg","pricing_plan_id":"cebpf4jnsgd1na2vs0mg"},{"bike_id":"84e49312-ac99-4ef9-99d2-031114a019a8","system_id":"levelo_inurba_marseille","lat":43.32112,"lon":5.36815,"is_reserved":false,"is_disabled":true,"rental_uris":{"android":"levelo://app?vid=84e49312-ac99-4ef9-99d2-031114a019a8","ios":"levelo://app?vid=84e49312-ac99-4ef9-99d2-031114a019a8"},"vehicle_type_id":"4","last_reported":1745039405,"current_range_meters":6000,"station_id":"ce4bhrh2rcd13ifvqhug","pricing_plan_id":"cebpf4jnsgd1na2vs0mg"},{"bike_id":"c53345b3-0d4a-4f7d-b745-19f596d6baf6","system_id":"levelo_inurba_marseille","lat":43.284811,"lon":5.384355,"is_reserved":false,"is_disabled":false,"rental_uris":{"android":"levelo://app?vid=c53345b3-0d4a-4f7d-b745-19f596d6baf6","ios":"levelo://app?vid=c53345b3-0d4a-4f7d-b745-19f596d6baf6"},"vehicle_type_id":"4","last_reported":1745039405,"current_range_meters":6000,"station_id":"ce4bh512rcd13ifvqe3g","pricing_plan_id":"cebpf4jnsgd1na2vs0mg"},{"bike_id":"162ca56f-091f-42b0-8b5a-e34a3c4cb98a","system_id":"levelo_inurba_marseille","lat":43.29969,"lon":5.385,"is_reserved":false,"is_disabled":false,"rental_uris":{"android":"levelo://app?vid=162ca56f-091f-42b0-8b5a-e34a3c4cb98a","ios":"levelo://app?vid=162ca56f-091f-42b0-8b5a-e34a3c4cb98a"},"vehicle_type_id":"4","last_reported":1745039405,"current_range_meters":6000,"station_id":"ce4bgj92rcd13ifvqbd0","pricing_plan_id":"cebpf4jnsgd1na2vs0mg"},{"bike_id":"d38d5fc9-78c0-453e-8c93-0aad9190067a","system_id":"levelo_inurba_marseille","lat":43.303556,"lon":5.385859,"is_reserved":false,"is_disabled":false,"rental_uris":{"android":"levelo://app?vid=d38d5fc9-78c0-453e-8c93-0aad9190067a","ios":"levelo://app?vid=d38d5fc9-78c0-453e-8c93-0aad9190067a"},"vehicle_type_id":"4","last_reported":1745039405,"current_range_meters":6000,"station_id":"ce4bgg92rcd13ifvqb30","pricing_plan_id":"cebpf4jnsgd1na2vs0mg"},{"bike_id":"bc361a36-5c6c-4af8-a9e6-22fee141b78a","system_id":"levelo_inurba_marseille","lat":43.33578,"lon":5.40969,"is_reserved":false,"is_disabled":true,"rental_uris":{"android":"levelo://app?vid=bc361a36-5c6c-4af8-a9e6-22fee141b78a","ios":"levelo://app?vid=bc361a36-5c6c-4af8-a9e6-22fee141b78a"},"vehicle_type_id":"4","last_reported":1745039405,"current_range_meters":6400,"station_id":"ce4bhqh2rcd13ifvqhmg","pricing_plan_id":"cebpf4jnsgd1na2vs0mg"},{"bike_id":"cf4db056-d3f7-4001-aa54-c43d57090a49","system_id":"levelo_inurba_marseille","lat":43.23186,"lon":5.355636,"is_reserved":false,"is_disabled":false,"rental_uris":{"android":"levelo://app?vid=cf4db056-d3f7-4001-aa54-c43d57090a49","ios":"levelo://app?vid=cf4db056-d3f7-4001-aa54-c43d57090a49"},"vehicle_type_id":"4","last_reported":1745039405,"current_range_meters":6400,"station_id":"ce4bhu92rcd13ifvqi70","pricing_plan_id":"cebpf4jnsgd1na2vs0mg"},{"bike_id":"6cc1e5a0-610e-4ca5-9ae7-6d16ff207d58","system_id":"levelo_inurba_marseille","lat":43.318831,"lon":5.407333,"is_reserved":false,"is_disabled":false,"rental_uris":{"android":"levelo://app?vid=6cc1e5a0-610e-4ca5-9ae7-6d16ff207d58","ios":"levelo://app?vid=6cc1e5a0-610e-4ca5-9ae7-6d16ff207d58"},"vehicle_type_id":"4","last_reported":1745039405,"current_range_meters":6400,"station_id":"ce4bhq12rcd13ifvqhig","pricing_plan_id":"cebpf4jnsgd1na2vs0mg"},{"bike_id":"23a24979-a7a9-46a1-9672-84042090959b","system_id":"levelo_inurba_marseille","lat":43.29254,"lon":5.40172,"is_reserved":false,"is_disabled":false,"rental_uris":{"android":"levelo://app?vid=23a24979-a7a9-46a1-9672-84042090959b","ios":"levelo://app?vid=23a24979-a7a9-46a1-9672-84042090959b"},"vehicle_type_id":"4","last_reported":1745039405,"current_range_meters":6400,"station_id":"ce4bh312rcd13ifvqdk0","pricing_plan_id":"cebpf4jnsgd1na2vs0mg"},{"bike_id":"6987c513-b50c-45b1-80e3-356055d982d5","system_id":"levelo_inurba_marseille","lat":43.29959,"lon":5.37752,"is_reserved":false,"is_disabled":true,"rental_uris":{"android":"levelo://app?vid=6987c513-b50c-45b1-80e3-356055d982d5","ios":"levelo://app?vid=6987c513-b50c-45b1-80e3-356055d982d5"},"vehicle_type_id":"4","last_reported":1745039405,"current_range_meters":6800,"station_id":"","pricing_plan_id":"cebpf4jnsgd1na2vs0mg"},{"bike_id":"c415b972-8ead-4e78-8d80-7a091746c0aa","system_id":"levelo_inurba_marseille","lat":43.24359,"lon":5.37127,"is_reserved":false,"is_disabled":false,"rental_uris":{"android":"levelo://app?vid=c415b972-8ead-4e78-8d80-7a091746c0aa","ios":"levelo://app?vid=c415b972-8ead-4e78-8d80-7a091746c0aa"},"vehicle_type_id":"4","last_reported":1745039405,"current_range_meters":6800,"station_id":"","pricing_plan_id":"cebpf4jnsgd1na2vs0mg"},{"bike_id":"36028acb-1986-4460-84fe-b2aca491647c","system_id":"levelo_inurba_marseille","lat":43.267833,"lon":5.394146,"is_reserved":false,"is_disabled":true,"rental_uris":{"android":"levelo://app?vid=36028acb-1986-4460-84fe-b2aca491647c","ios":"levelo://app?vid=36028acb-1986-4460-84fe-b2aca491647c"},"vehicle_type_id":"4","last_reported":1745039405,"current_range_meters":6800,"station_id":"ce4bhh12rcd13ifvqfg0","pricing_plan_id":"cebpf4jnsgd1na2vs0mg"},{"bike_id":"fcb16b8d-7b53-48c4-9b9d-daed86c760ad","system_id":"levelo_inurba_marseille","lat":43.28839,"lon":5.35843,"is_reserved":false,"is_disabled":false,"rental_uris":{"android":"levelo://app?vid=fcb16b8d-7b53-48c4-9b9d-daed86c760ad","ios":"levelo://app?vid=fcb16b8d-7b53-48c4-9b9d-daed86c760ad"},"vehicle_type_id":"4","last_reported":1745039405,"current_range_meters":6800,"station_id":"ce4bhb12rcd13ifvqem0","pricing_plan_id":"cebpf4jnsgd1na2vs0mg"},{"bike_id":"a9a7f8d0-1b7c-4b56-b75b-1784b6d46bc1","system_id":"levelo_inurba_marseille","lat":43.25723,"lon":5.41109,"is_reserved":false,"is_disabled":false,"rental_uris":{"android":"levelo://app?vid=a9a7f8d0-1b7c-4b56-b75b-1784b6d46bc1","ios":"levelo://app?vid=a9a7f8d0-1b7c-4b56-b75b-1784b6d46bc1"},"vehicle_type_id":"4","last_reported":1745039405,"current_range_meters":6800,"station_id":"ce4bhkp2rcd13ifvqgd0","pricing_plan_id":"cebpf4jnsgd1na2vs0mg"},{"bike_id":"815760a6-7b9e-4044-9b3b-9d5a7dceda21","system_id":"levelo_inurba_marseille","lat":43.311677,"lon":5.387187,"is_reserved":false,"is_disabled":false,"rental_uris":{"android":"levelo://app?vid=815760a6-7b9e-4044-9b3b-9d5a7dceda21","ios":"levelo://app?vid=815760a6-7b9e-4044-9b3b-9d5a7dceda21"},"vehicle_type_id":"4","last_reported":1745039405,"current_range_meters":6800,"station_id":"ce4bgv12rcd13ifvqcp0","pricing_plan_id":"cebpf4jnsgd1na2vs0mg"},{"bike_id":"0bf759ac-1ef0-4cd1-9bd0-3a765382832f","system_id":"levelo_inurba_marseille","lat":43.23149,"lon":5.43724,"is_reserved":false,"is_disabled":false,"rental_uris":{"android":"levelo://app?vid=0bf759ac-1ef0-4cd1-9bd0-3a765382832f","ios":"levelo://app?vid=0bf759ac-1ef0-4cd1-9bd0-3a765382832f"},"vehicle_type_id":"4","last_reported":1745039405,"current_range_meters":6800,"station_id":"ce4bhmp2rcd13ifvqgog","pricing_plan_id":"cebpf4jnsgd1na2vs0mg"},{"bike_id":"70b6b133-6705-4dfd-b4a7-6e88067904e8","system_id":"levelo_inurba_marseille","lat":43.241726,"lon":5.364006,"is_reserved":false,"is_disabled":false,"rental_uris":{"android":"levelo://app?vid=70b6b133-6705-4dfd-b4a7-6e88067904e8","ios":"levelo://app?vid=70b6b133-6705-4dfd-b4a7-6e88067904e8"},"vehicle_type_id":"4","last_reported":1745039405,"current_range_meters":6800,"station_id":"cpo36qri1sfpv3e86is0","pricing_plan_id":"cebpf4jnsgd1na2vs0mg"},{"bike_id":"3287305e-dc20-444a-9949-00d7352f401a","system_id":"levelo_inurba_marseille","lat":43.241703,"lon":5.364062,"is_reserved":false,"is_disabled":false,"rental_uris":{"android":"levelo://app?vid=3287305e-dc20-444a-9949-00d7352f401a","ios":"levelo://app?vid=3287305e-dc20-444a-9949-00d7352f401a"},"vehicle_type_id":"4","last_reported":1745039405,"current_range_meters":6800,"station_id":"cpo36qri1sfpv3e86is0","pricing_plan_id":"cebpf4jnsgd1na2vs0mg"},{"bike_id":"5f45d412-da62-4b2d-b407-6eb2602c6e52","system_id":"levelo_inurba_marseille","lat":43.28619,"lon":5.37066,"is_reserved":false,"is_disabled":false,"rental_uris":{"android":"levelo://app?vid=5f45d412-da62-4b2d-b407-6eb2602c6e52","ios":"levelo://app?vid=5f45d412-da62-4b2d-b407-6eb2602c6e52"},"vehicle_type_id":"4","last_reported":1745039405,"current_range_meters":6800,"station_id":"ce4bht12rcd13ifvqi60","pricing_plan_id":"cebpf4jnsgd1na2vs0mg"},{"bike_id":"21b43f58-f78e-467c-9a50-824d99f06e17","system_id":"levelo_inurba_marseille","lat":43.3089,"lon":5.37186,"is_reserved":false,"is_disabled":false,"rental_uris":{"android":"levelo://app?vid=21b43f58-f78e-467c-9a50-824d99f06e17","ios":"levelo://app?vid=21b43f58-f78e-467c-9a50-824d99f06e17"},"vehicle_type_id":"4","last_reported":1745039405,"current_range_meters":6400,"station_id":"ce4bguh2rcd13ifvqckg","pricing_plan_id":"cebpf4jnsgd1na2vs0mg"},{"bike_id":"9f4e5c72-054b-4523-9439-16878db5b8e7","system_id":"levelo_inurba_marseille","lat":43.265504,"lon":5.372754,"is_reserved":false,"is_disabled":false,"rental_uris":{"android":"levelo://app?vid=9f4e5c72-054b-4523-9439-16878db5b8e7","ios":"levelo://app?vid=9f4e5c72-054b-4523-9439-16878db5b8e7"},"vehicle_type_id":"4","last_reported":1745039405,"current_range_meters":6800,"station_id":"ce4bhg12rcd13ifvqf70","pricing_plan_id":"cebpf4jnsgd1na2vs0mg"},{"bike_id":"a9f5f0bc-8026-49a5-a645-ac7b387ec5d4","system_id":"levelo_inurba_marseille","lat":43.246701,"lon":5.381606,"is_reserved":false,"is_disabled":false,"rental_uris":{"android":"levelo://app?vid=a9f5f0bc-8026-49a5-a645-ac7b387ec5d4","ios":"levelo://app?vid=a9f5f0bc-8026-49a5-a645-ac7b387ec5d4"},"vehicle_type_id":"4","last_reported":1745039405,"current_range_meters":6800,"station_id":"ce4bhih2rcd13ifvqfr0","pricing_plan_id":"cebpf4jnsgd1na2vs0mg"},{"bike_id":"ca8d9f01-ab92-4f7c-9280-7e06093856f1","system_id":"levelo_inurba_marseille","lat":43.24544,"lon":5.39528,"is_reserved":false,"is_disabled":false,"rental_uris":{"android":"levelo://app?vid=ca8d9f01-ab92-4f7c-9280-7e06093856f1","ios":"levelo://app?vid=ca8d9f01-ab92-4f7c-9280-7e06093856f1"},"vehicle_type_id":"4","last_reported":1745039405,"current_range_meters":6800,"station_id":"ce4bhlp2rcd13ifvqgjg","pricing_plan_id":"cebpf4jnsgd1na2vs0mg"},{"bike_id":"163ae193-1956-4708-9a9f-e75528a51829","system_id":"levelo_inurba_marseille","lat":43.30882,"lon":5.39636,"is_reserved":false,"is_disabled":false,"rental_uris":{"android":"levelo://app?vid=163ae193-1956-4708-9a9f-e75528a51829","ios":"levelo://app?vid=163ae193-1956-4708-9a9f-e75528a51829"},"vehicle_type_id":"4","last_reported":1745039405,"current_range_meters":7200,"station_id":"ce4bh012rcd13ifvqcv0","pricing_plan_id":"cebpf4jnsgd1na2vs0mg"},{"bike_id":"7364fd10-5c32-4ec1-97dc-9a40265b3325","system_id":"levelo_inurba_marseille","lat":43.28425,"lon":5.375205,"is_reserved":false,"is_disabled":false,"rental_uris":{"android":"levelo://app?vid=7364fd10-5c32-4ec1-97dc-9a40265b3325","ios":"levelo://app?vid=7364fd10-5c32-4ec1-97dc-9a40265b3325"},"vehicle_type_id":"4","last_reported":1745039405,"current_range_meters":7200,"station_id":"ce4bh412rcd13ifvqds0","pricing_plan_id":"cebpf4jnsgd1na2vs0mg"},{"bike_id":"a744e6fc-71f4-4361-9531-5d5d5dea5d82","system_id":"levelo_inurba_marseille","lat":43.30467,"lon":5.37906,"is_reserved":false,"is_disabled":false,"rental_uris":{"android":"levelo://app?vid=a744e6fc-71f4-4361-9531-5d5d5dea5d82","ios":"levelo://app?vid=a744e6fc-71f4-4361-9531-5d5d5dea5d82"},"vehicle_type_id":"4","last_reported":1745039405,"current_range_meters":7200,"station_id":"ce4bgup2rcd13ifvqcn0","pricing_plan_id":"cebpf4jnsgd1na2vs0mg"},{"bike_id":"22209dda-afa5-4a31-9c25-a5d94a331926","system_id":"levelo_inurba_marseille","lat":43.24081,"lon":5.37751,"is_reserved":false,"is_disabled":true,"rental_uris":{"android":"levelo://app?vid=22209dda-afa5-4a31-9c25-a5d94a331926","ios":"levelo://app?vid=22209dda-afa5-4a31-9c25-a5d94a331926"},"vehicle_type_id":"4","last_reported":1745039405,"current_range_meters":7200,"station_id":"ce4bhnp2rcd13ifvqgvg","pricing_plan_id":"cebpf4jnsgd1na2vs0mg"},{"bike_id":"32ae70bf-b15f-4f5b-8e11-29448bd84c38","system_id":"levelo_inurba_marseille","lat":43.310644,"lon":5.38354,"is_reserved":false,"is_disabled":false,"rental_uris":{"android":"levelo://app?vid=32ae70bf-b15f-4f5b-8e11-29448bd84c38","ios":"levelo://app?vid=32ae70bf-b15f-4f5b-8e11-29448bd84c38"},"vehicle_type_id":"4","last_reported":1745039405,"current_range_meters":7200,"station_id":"ce4bgv92rcd13ifvqcr0","pricing_plan_id":"cebpf4jnsgd1na2vs0mg"},{"bike_id":"dc20ec95-bb08-43c3-8a9e-7b926d993d06","system_id":"levelo_inurba_marseille","lat":43.307327,"lon":5.424375,"is_reserved":false,"is_disabled":false,"rental_uris":{"android":"levelo://app?vid=dc20ec95-bb08-43c3-8a9e-7b926d993d06","ios":"levelo://app?vid=dc20ec95-bb08-43c3-8a9e-7b926d993d06"},"vehicle_type_id":"4","last_reported":1745039405,"current_range_meters":7200,"station_id":"st_cvj6ca6bvosntc0bfgr0","pricing_plan_id":"cebpf4jnsgd1na2vs0mg"},{"bike_id":"506dec7b-eb9c-453c-9aee-cd3a51e99e34","system_id":"levelo_inurba_marseille","lat":43.29448,"lon":5.38827,"is_reserved":false,"is_disabled":true,"rental_uris":{"android":"levelo://app?vid=506dec7b-eb9c-453c-9aee-cd3a51e99e34","ios":"levelo://app?vid=506dec7b-eb9c-453c-9aee-cd3a51e99e34"},"vehicle_type_id":"4","last_reported":1745039405,"current_range_meters":7200,"station_id":"","pricing_plan_id":"cebpf4jnsgd1na2vs0mg"},{"bike_id":"c09d605c-d5d3-42f8-9be2-d2e1dcde23bd","system_id":"levelo_inurba_marseille","lat":43.24653,"lon":5.38909,"is_reserved":false,"is_disabled":false,"rental_uris":{"android":"levelo://app?vid=c09d605c-d5d3-42f8-9be2-d2e1dcde23bd","ios":"levelo://app?vid=c09d605c-d5d3-42f8-9be2-d2e1dcde23bd"},"vehicle_type_id":"4","last_reported":1745039405,"current_range_meters":7200,"station_id":"ce4bhg12rcd13ifvqf60","pricing_plan_id":"cebpf4jnsgd1na2vs0mg"},{"bike_id":"3bc0b23e-ddd6-4067-94ce-dd8c73f7de91","system_id":"levelo_inurba_marseille","lat":43.30799,"lon":5.43517,"is_reserved":false,"is_disabled":false,"rental_uris":{"android":"levelo://app?vid=3bc0b23e-ddd6-4067-94ce-dd8c73f7de91","ios":"levelo://app?vid=3bc0b23e-ddd6-4067-94ce-dd8c73f7de91"},"vehicle_type_id":"4","last_reported":1745039405,"current_range_meters":7200,"station_id":"ce4bhph2rcd13ifvqheg","pricing_plan_id":"cebpf4jnsgd1na2vs0mg"},{"bike_id":"678d1aa7-dc7f-4ee1-a950-5a4f554ad695","system_id":"levelo_inurba_marseille","lat":43.297916,"lon":5.393549,"is_reserved":false,"is_disabled":true,"rental_uris":{"android":"levelo://app?vid=678d1aa7-dc7f-4ee1-a950-5a4f554ad695","ios":"levelo://app?vid=678d1aa7-dc7f-4ee1-a950-5a4f554ad695"},"vehicle_type_id":"4","last_reported":1745039405,"current_range_meters":7200,"station_id":"chh1huq6cuj3fo74tm60","pricing_plan_id":"cebpf4jnsgd1na2vs0mg"},{"bike_id":"9d4a6782-01ec-4471-a935-a4bbbdc69445","system_id":"levelo_inurba_marseille","lat":43.29592,"lon":5.38106,"is_reserved":false,"is_disabled":false,"rental_uris":{"android":"levelo://app?vid=9d4a6782-01ec-4471-a935-a4bbbdc69445","ios":"levelo://app?vid=9d4a6782-01ec-4471-a935-a4bbbdc69445"},"vehicle_type_id":"4","last_reported":1745039405,"current_range_meters":7200,"station_id":"ce4bgl12rcd13ifvqbo0","pricing_plan_id":"cebpf4jnsgd1na2vs0mg"},{"bike_id":"d4d9b665-d4f4-49cf-9dcd-00e920a45b50","system_id":"levelo_inurba_marseille","lat":43.258293,"lon":5.394324,"is_reserved":false,"is_disabled":false,"rental_uris":{"android":"levelo://app?vid=d4d9b665-d4f4-49cf-9dcd-00e920a45b50","ios":"levelo://app?vid=d4d9b665-d4f4-49cf-9dcd-00e920a45b50"},"vehicle_type_id":"4","last_reported":1745039405,"current_range_meters":7200,"station_id":"ce4bhip2rcd13ifvqft0","pricing_plan_id":"cebpf4jnsgd1na2vs0mg"},{"bike_id":"271c8c79-7ca6-4367-80fb-8a0efc84181c","system_id":"levelo_inurba_marseille","lat":43.23184,"lon":5.35581,"is_reserved":false,"is_disabled":false,"rental_uris":{"android":"levelo://app?vid=271c8c79-7ca6-4367-80fb-8a0efc84181c","ios":"levelo://app?vid=271c8c79-7ca6-4367-80fb-8a0efc84181c"},"vehicle_type_id":"4","last_reported":1745039405,"current_range_meters":7200,"station_id":"ce4bhu92rcd13ifvqi70","pricing_plan_id":"cebpf4jnsgd1na2vs0mg"},{"bike_id":"7c83599a-5eac-4830-af25-9ddb7a5d3258","system_id":"levelo_inurba_marseille","lat":43.30929,"lon":5.40137,"is_reserved":false,"is_disabled":false,"rental_uris":{"android":"levelo://app?vid=7c83599a-5eac-4830-af25-9ddb7a5d3258","ios":"levelo://app?vid=7c83599a-5eac-4830-af25-9ddb7a5d3258"},"vehicle_type_id":"4","last_reported":1745039405,"current_range_meters":8000,"station_id":"ce4bgvp2rcd13ifvqct0","pricing_plan_id":"cebpf4jnsgd1na2vs0mg"},{"bike_id":"f2d09a49-02ca-41b9-870e-fdff640473d6","system_id":"levelo_inurba_marseille","lat":43.24194,"lon":5.36369,"is_reserved":false,"is_disabled":false,"rental_uris":{"android":"levelo://app?vid=f2d09a49-02ca-41b9-870e-fdff640473d6","ios":"levelo://app?vid=f2d09a49-02ca-41b9-870e-fdff640473d6"},"vehicle_type_id":"4","last_reported":1745039405,"current_range_meters":8000,"station_id":"cpo36qri1sfpv3e86is0","pricing_plan_id":"cebpf4jnsgd1na2vs0mg"},{"bike_id":"3793d003-f994-43cd-89fb-abf2c2913fb9","system_id":"levelo_inurba_marseille","lat":43.33608,"lon":5.409855,"is_reserved":false,"is_disabled":false,"rental_uris":{"android":"levelo://app?vid=3793d003-f994-43cd-89fb-abf2c2913fb9","ios":"levelo://app?vid=3793d003-f994-43cd-89fb-abf2c2913fb9"},"vehicle_type_id":"4","last_reported":1745039405,"current_range_meters":8000,"station_id":"ce4bhqh2rcd13ifvqhmg","pricing_plan_id":"cebpf4jnsgd1na2vs0mg"},{"bike_id":"d0693017-3219-4f2c-9252-be27486404d3","system_id":"levelo_inurba_marseille","lat":43.24621,"lon":5.3816,"is_reserved":false,"is_disabled":false,"rental_uris":{"android":"levelo://app?vid=d0693017-3219-4f2c-9252-be27486404d3","ios":"levelo://app?vid=d0693017-3219-4f2c-9252-be27486404d3"},"vehicle_type_id":"4","last_reported":1745039405,"current_range_meters":8000,"station_id":"ce4bhih2rcd13ifvqfr0","pricing_plan_id":"cebpf4jnsgd1na2vs0mg"},{"bike_id":"0f0c2c9d-c11a-480f-8137-c5315e4ded3a","system_id":"levelo_inurba_marseille","lat":43.23185,"lon":5.35579,"is_reserved":false,"is_disabled":false,"rental_uris":{"android":"levelo://app?vid=0f0c2c9d-c11a-480f-8137-c5315e4ded3a","ios":"levelo://app?vid=0f0c2c9d-c11a-480f-8137-c5315e4ded3a"},"vehicle_type_id":"4","last_reported":1745039405,"current_range_meters":8000,"station_id":"ce4bhu92rcd13ifvqi70","pricing_plan_id":"cebpf4jnsgd1na2vs0mg"},{"bike_id":"ea496a57-7005-4143-9fc7-a7b9c61a21e9","system_id":"levelo_inurba_marseille","lat":43.265678,"lon":5.390143,"is_reserved":false,"is_disabled":false,"rental_uris":{"android":"levelo://app?vid=ea496a57-7005-4143-9fc7-a7b9c61a21e9","ios":"levelo://app?vid=ea496a57-7005-4143-9fc7-a7b9c61a21e9"},"vehicle_type_id":"4","last_reported":1745039405,"current_range_meters":8000,"station_id":"ce4bhe12rcd13ifvqf30","pricing_plan_id":"cebpf4jnsgd1na2vs0mg"},{"bike_id":"50dc23ed-5e19-46ee-92cf-f2ca4c445852","system_id":"levelo_inurba_marseille","lat":43.33759,"lon":5.39188,"is_reserved":false,"is_disabled":false,"rental_uris":{"android":"levelo://app?vid=50dc23ed-5e19-46ee-92cf-f2ca4c445852","ios":"levelo://app?vid=50dc23ed-5e19-46ee-92cf-f2ca4c445852"},"vehicle_type_id":"4","last_reported":1745039405,"current_range_meters":8000,"station_id":"ce4bhr92rcd13ifvqhsg","pricing_plan_id":"cebpf4jnsgd1na2vs0mg"},{"bike_id":"38d71541-39fa-44bc-b9fa-dad7cbdc7434","system_id":"levelo_inurba_marseille","lat":43.28767,"lon":5.38663,"is_reserved":false,"is_disabled":false,"rental_uris":{"android":"levelo://app?vid=38d71541-39fa-44bc-b9fa-dad7cbdc7434","ios":"levelo://app?vid=38d71541-39fa-44bc-b9fa-dad7cbdc7434"},"vehicle_type_id":"4","last_reported":1745039405,"current_range_meters":8000,"station_id":"","pricing_plan_id":"cebpf4jnsgd1na2vs0mg"},{"bike_id":"1210dc72-37b8-49f7-b249-6faa54daba28","system_id":"levelo_inurba_marseille","lat":43.32372,"lon":5.3668,"is_reserved":false,"is_disabled":false,"rental_uris":{"android":"levelo://app?vid=1210dc72-37b8-49f7-b249-6faa54daba28","ios":"levelo://app?vid=1210dc72-37b8-49f7-b249-6faa54daba28"},"vehicle_type_id":"4","last_reported":1745039405,"current_range_meters":8400,"station_id":"","pricing_plan_id":"cebpf4jnsgd1na2vs0mg"},{"bike_id":"165c9427-8a52-4d6c-a8c7-65e604da6a4f","system_id":"levelo_inurba_marseille","lat":43.24791,"lon":5.37462,"is_reserved":false,"is_disabled":false,"rental_uris":{"android":"levelo://app?vid=165c9427-8a52-4d6c-a8c7-65e604da6a4f","ios":"levelo://app?vid=165c9427-8a52-4d6c-a8c7-65e604da6a4f"},"vehicle_type_id":"4","last_reported":1745039405,"current_range_meters":8400,"station_id":"ce4bhgh2rcd13ifvqfb0","pricing_plan_id":"cebpf4jnsgd1na2vs0mg"},{"bike_id":"91b0f96d-1a6e-4e28-98b9-2c86f2485aee","system_id":"levelo_inurba_marseille","lat":43.32416,"lon":5.39048,"is_reserved":false,"is_disabled":true,"rental_uris":{"android":"levelo://app?vid=91b0f96d-1a6e-4e28-98b9-2c86f2485aee","ios":"levelo://app?vid=91b0f96d-1a6e-4e28-98b9-2c86f2485aee"},"vehicle_type_id":"4","last_reported":1745039405,"current_range_meters":8400,"station_id":"","pricing_plan_id":"cebpf4jnsgd1na2vs0mg"},{"bike_id":"ab0a8077-4242-4166-b0f9-a816f1854fd0","system_id":"levelo_inurba_marseille","lat":43.286639,"lon":5.363426,"is_reserved":false,"is_disabled":false,"rental_uris":{"android":"levelo://app?vid=ab0a8077-4242-4166-b0f9-a816f1854fd0","ios":"levelo://app?vid=ab0a8077-4242-4166-b0f9-a816f1854fd0"},"vehicle_type_id":"4","last_reported":1745039405,"current_range_meters":8400,"station_id":"ce4bhah2rcd13ifvqej0","pricing_plan_id":"cebpf4jnsgd1na2vs0mg"},{"bike_id":"7f174117-e5d9-4e09-9d71-4a11ef6882f7","system_id":"levelo_inurba_marseille","lat":43.246561,"lon":5.381682,"is_reserved":false,"is_disabled":false,"rental_uris":{"android":"levelo://app?vid=7f174117-e5d9-4e09-9d71-4a11ef6882f7","ios":"levelo://app?vid=7f174117-e5d9-4e09-9d71-4a11ef6882f7"},"vehicle_type_id":"4","last_reported":1745039405,"current_range_meters":8400,"station_id":"ce4bhih2rcd13ifvqfr0","pricing_plan_id":"cebpf4jnsgd1na2vs0mg"},{"bike_id":"782da538-2223-4ccd-8232-244cda12462d","system_id":"levelo_inurba_marseille","lat":43.23204,"lon":5.39959,"is_reserved":false,"is_disabled":false,"rental_uris":{"android":"levelo://app?vid=782da538-2223-4ccd-8232-244cda12462d","ios":"levelo://app?vid=782da538-2223-4ccd-8232-244cda12462d"},"vehicle_type_id":"4","last_reported":1745039405,"current_range_meters":8400,"station_id":"ce4bhn12rcd13ifvqgqg","pricing_plan_id":"cebpf4jnsgd1na2vs0mg"},{"bike_id":"ee45d3b2-e8a1-4166-92e0-42002aca85ac","system_id":"levelo_inurba_marseille","lat":43.31331,"lon":5.39714,"is_reserved":false,"is_disabled":false,"rental_uris":{"android":"levelo://app?vid=ee45d3b2-e8a1-4166-92e0-42002aca85ac","ios":"levelo://app?vid=ee45d3b2-e8a1-4166-92e0-42002aca85ac"},"vehicle_type_id":"4","last_reported":1745039405,"current_range_meters":8800,"station_id":"ce4bgvp2rcd13ifvqcu0","pricing_plan_id":"cebpf4jnsgd1na2vs0mg"},{"bike_id":"c2f2baf5-f776-4f05-8512-1bd1e12b33e4","system_id":"levelo_inurba_marseille","lat":43.3012,"lon":5.39867,"is_reserved":false,"is_disabled":false,"rental_uris":{"android":"levelo://app?vid=c2f2baf5-f776-4f05-8512-1bd1e12b33e4","ios":"levelo://app?vid=c2f2baf5-f776-4f05-8512-1bd1e12b33e4"},"vehicle_type_id":"4","last_reported":1745039405,"current_range_meters":8800,"station_id":"ce4bh0h2rcd13ifvqd40","pricing_plan_id":"cebpf4jnsgd1na2vs0mg"},{"bike_id":"70c249ef-5763-43b6-ba23-01ca44ae03ae","system_id":"levelo_inurba_marseille","lat":43.2464,"lon":5.38919,"is_reserved":false,"is_disabled":false,"rental_uris":{"android":"levelo://app?vid=70c249ef-5763-43b6-ba23-01ca44ae03ae","ios":"levelo://app?vid=70c249ef-5763-43b6-ba23-01ca44ae03ae"},"vehicle_type_id":"4","last_reported":1745039405,"current_range_meters":8800,"station_id":"ce4bhg12rcd13ifvqf60","pricing_plan_id":"cebpf4jnsgd1na2vs0mg"},{"bike_id":"a2268c6e-3acd-4abc-8a0e-702d1396e3f3","system_id":"levelo_inurba_marseille","lat":43.304309,"lon":5.388857,"is_reserved":false,"is_disabled":false,"rental_uris":{"android":"levelo://app?vid=a2268c6e-3acd-4abc-8a0e-702d1396e3f3","ios":"levelo://app?vid=a2268c6e-3acd-4abc-8a0e-702d1396e3f3"},"vehicle_type_id":"4","last_reported":1745039405,"current_range_meters":8800,"station_id":"ce4bgk12rcd13ifvqbi0","pricing_plan_id":"cebpf4jnsgd1na2vs0mg"},{"bike_id":"c42c97dc-851b-476d-ba23-67d0582febc0","system_id":"levelo_inurba_marseille","lat":43.30303,"lon":5.40467,"is_reserved":false,"is_disabled":true,"rental_uris":{"android":"levelo://app?vid=c42c97dc-851b-476d-ba23-67d0582febc0","ios":"levelo://app?vid=c42c97dc-851b-476d-ba23-67d0582febc0"},"vehicle_type_id":"4","last_reported":1745039405,"current_range_meters":8800,"station_id":"ce4bh012rcd13ifvqd10","pricing_plan_id":"cebpf4jnsgd1na2vs0mg"},{"bike_id":"db683e79-1939-434e-b081-b9990fd856fe","system_id":"levelo_inurba_marseille","lat":43.229341,"lon":5.353854,"is_reserved":false,"is_disabled":false,"rental_uris":{"android":"levelo://app?vid=db683e79-1939-434e-b081-b9990fd856fe","ios":"levelo://app?vid=db683e79-1939-434e-b081-b9990fd856fe"},"vehicle_type_id":"4","last_reported":1745039405,"current_range_meters":8800,"station_id":"cpo3532slgdg3j2ikp40","pricing_plan_id":"cebpf4jnsgd1na2vs0mg"},{"bike_id":"9b4d5e07-bf1a-4418-b544-e78b0d83a1c0","system_id":"levelo_inurba_marseille","lat":43.26265,"lon":5.40358,"is_reserved":false,"is_disabled":false,"rental_uris":{"android":"levelo://app?vid=9b4d5e07-bf1a-4418-b544-e78b0d83a1c0","ios":"levelo://app?vid=9b4d5e07-bf1a-4418-b544-e78b0d83a1c0"},"vehicle_type_id":"4","last_reported":1745039405,"current_range_meters":8800,"station_id":"ce4bhmh2rcd13ifvqgmg","pricing_plan_id":"cebpf4jnsgd1na2vs0mg"},{"bike_id":"4affa1cf-896e-4b35-92a9-9624470d1083","system_id":"levelo_inurba_marseille","lat":43.292695,"lon":5.401381,"is_reserved":false,"is_disabled":false,"rental_uris":{"android":"levelo://app?vid=4affa1cf-896e-4b35-92a9-9624470d1083","ios":"levelo://app?vid=4affa1cf-896e-4b35-92a9-9624470d1083"},"vehicle_type_id":"4","last_reported":1745039405,"current_range_meters":8800,"station_id":"ce4bh312rcd13ifvqdk0","pricing_plan_id":"cebpf4jnsgd1na2vs0mg"},{"bike_id":"5ab4a80e-364b-48b0-a070-906bb9e16755","system_id":"levelo_inurba_marseille","lat":43.31997,"lon":5.38158,"is_reserved":false,"is_disabled":false,"rental_uris":{"android":"levelo://app?vid=5ab4a80e-364b-48b0-a070-906bb9e16755","ios":"levelo://app?vid=5ab4a80e-364b-48b0-a070-906bb9e16755"},"vehicle_type_id":"4","last_reported":1745039405,"current_range_meters":9200,"station_id":"ce4bhr12rcd13ifvqhpg","pricing_plan_id":"cebpf4jnsgd1na2vs0mg"},{"bike_id":"4bcaca61-be58-49cf-89c9-274b98e3c699","system_id":"levelo_inurba_marseille","lat":43.31997,"lon":5.38147,"is_reserved":false,"is_disabled":true,"rental_uris":{"android":"levelo://app?vid=4bcaca61-be58-49cf-89c9-274b98e3c699","ios":"levelo://app?vid=4bcaca61-be58-49cf-89c9-274b98e3c699"},"vehicle_type_id":"4","last_reported":1745039405,"current_range_meters":9200,"station_id":"ce4bhr12rcd13ifvqhpg","pricing_plan_id":"cebpf4jnsgd1na2vs0mg"},{"bike_id":"b8a785f7-fe23-4c1f-8a9b-62bbbd08b152","system_id":"levelo_inurba_marseille","lat":43.30957,"lon":5.40187,"is_reserved":false,"is_disabled":false,"rental_uris":{"android":"levelo://app?vid=b8a785f7-fe23-4c1f-8a9b-62bbbd08b152","ios":"levelo://app?vid=b8a785f7-fe23-4c1f-8a9b-62bbbd08b152"},"vehicle_type_id":"4","last_reported":1745039405,"current_range_meters":9200,"station_id":"ce4bgvp2rcd13ifvqct0","pricing_plan_id":"cebpf4jnsgd1na2vs0mg"},{"bike_id":"1e304385-a349-4c73-9093-19ef60147df7","system_id":"levelo_inurba_marseille","lat":43.28443,"lon":5.35893,"is_reserved":false,"is_disabled":false,"rental_uris":{"android":"levelo://app?vid=1e304385-a349-4c73-9093-19ef60147df7","ios":"levelo://app?vid=1e304385-a349-4c73-9093-19ef60147df7"},"vehicle_type_id":"4","last_reported":1745039405,"current_range_meters":9200,"station_id":"ce4bhah2rcd13ifvqei0","pricing_plan_id":"cebpf4jnsgd1na2vs0mg"},{"bike_id":"3fb00f12-f422-4c57-93cf-c85631c66627","system_id":"levelo_inurba_marseille","lat":43.28911,"lon":5.39648,"is_reserved":false,"is_disabled":false,"rental_uris":{"android":"levelo://app?vid=3fb00f12-f422-4c57-93cf-c85631c66627","ios":"levelo://app?vid=3fb00f12-f422-4c57-93cf-c85631c66627"},"vehicle_type_id":"4","last_reported":1745039405,"current_range_meters":9200,"station_id":"ce4bh3h2rcd13ifvqdn0","pricing_plan_id":"cebpf4jnsgd1na2vs0mg"},{"bike_id":"68402f87-cbbb-4c46-951e-e392446c6497","system_id":"levelo_inurba_marseille","lat":43.3028,"lon":5.3919,"is_reserved":false,"is_disabled":false,"rental_uris":{"android":"levelo://app?vid=68402f87-cbbb-4c46-951e-e392446c6497","ios":"levelo://app?vid=68402f87-cbbb-4c46-951e-e392446c6497"},"vehicle_type_id":"4","last_reported":1745039405,"current_range_meters":9200,"station_id":"ce4bgkh2rcd13ifvqbk0","pricing_plan_id":"cebpf4jnsgd1na2vs0mg"},{"bike_id":"934a8fc0-98f8-4aaf-a145-d485dee937c7","system_id":"levelo_inurba_marseille","lat":43.32363,"lon":5.36763,"is_reserved":false,"is_disabled":false,"rental_uris":{"android":"levelo://app?vid=934a8fc0-98f8-4aaf-a145-d485dee937c7","ios":"levelo://app?vid=934a8fc0-98f8-4aaf-a145-d485dee937c7"},"vehicle_type_id":"4","last_reported":1745039405,"current_range_meters":9200,"station_id":"ce4bhsh2rcd13ifvqi2g","pricing_plan_id":"cebpf4jnsgd1na2vs0mg"},{"bike_id":"90e903d2-34b6-47e1-930e-acbe25fa18ab","system_id":"levelo_inurba_marseille","lat":43.30384,"lon":5.38945,"is_reserved":false,"is_disabled":false,"rental_uris":{"android":"levelo://app?vid=90e903d2-34b6-47e1-930e-acbe25fa18ab","ios":"levelo://app?vid=90e903d2-34b6-47e1-930e-acbe25fa18ab"},"vehicle_type_id":"4","last_reported":1745039405,"current_range_meters":9600,"station_id":"","pricing_plan_id":"cebpf4jnsgd1na2vs0mg"},{"bike_id":"3abcd8a1-bc4b-4780-96f7-c41259227a65","system_id":"levelo_inurba_marseille","lat":43.298611,"lon":5.384208,"is_reserved":false,"is_disabled":false,"rental_uris":{"android":"levelo://app?vid=3abcd8a1-bc4b-4780-96f7-c41259227a65","ios":"levelo://app?vid=3abcd8a1-bc4b-4780-96f7-c41259227a65"},"vehicle_type_id":"4","last_reported":1745039405,"current_range_meters":9600,"station_id":"","pricing_plan_id":"cebpf4jnsgd1na2vs0mg"},{"bike_id":"1d222e9f-44d5-4163-97f8-e473ee263069","system_id":"levelo_inurba_marseille","lat":43.29633,"lon":5.40635,"is_reserved":false,"is_disabled":false,"rental_uris":{"android":"levelo://app?vid=1d222e9f-44d5-4163-97f8-e473ee263069","ios":"levelo://app?vid=1d222e9f-44d5-4163-97f8-e473ee263069"},"vehicle_type_id":"4","last_reported":1745039405,"current_range_meters":9600,"station_id":"ce4bh0h2rcd13ifvqd60","pricing_plan_id":"cebpf4jnsgd1na2vs0mg"},{"bike_id":"e8065a5a-7d89-4217-ba06-b2c12aee1519","system_id":"levelo_inurba_marseille","lat":43.2848,"lon":5.38536,"is_reserved":false,"is_disabled":false,"rental_uris":{"android":"levelo://app?vid=e8065a5a-7d89-4217-ba06-b2c12aee1519","ios":"levelo://app?vid=e8065a5a-7d89-4217-ba06-b2c12aee1519"},"vehicle_type_id":"4","last_reported":1745039405,"current_range_meters":9600,"station_id":"ce4bh8p2rcd13ifvqeb0","pricing_plan_id":"cebpf4jnsgd1na2vs0mg"},{"bike_id":"ab6c3752-2f5d-4f8e-bcb2-21fd83d3918e","system_id":"levelo_inurba_marseille","lat":43.28718,"lon":5.38948,"is_reserved":false,"is_disabled":false,"rental_uris":{"android":"levelo://app?vid=ab6c3752-2f5d-4f8e-bcb2-21fd83d3918e","ios":"levelo://app?vid=ab6c3752-2f5d-4f8e-bcb2-21fd83d3918e"},"vehicle_type_id":"4","last_reported":1745039405,"current_range_meters":9600,"station_id":"","pricing_plan_id":"cebpf4jnsgd1na2vs0mg"},{"bike_id":"bbfdf557-4301-4a67-b9bf-198f07f58d13","system_id":"levelo_inurba_marseille","lat":43.31048,"lon":5.38341,"is_reserved":false,"is_disabled":true,"rental_uris":{"android":"levelo://app?vid=bbfdf557-4301-4a67-b9bf-198f07f58d13","ios":"levelo://app?vid=bbfdf557-4301-4a67-b9bf-198f07f58d13"},"vehicle_type_id":"4","last_reported":1745039405,"current_range_meters":9600,"station_id":"ce4bgv92rcd13ifvqcr0","pricing_plan_id":"cebpf4jnsgd1na2vs0mg"},{"bike_id":"7465727d-29ee-461e-b202-0c9d97082ce5","system_id":"levelo_inurba_marseille","lat":43.30949,"lon":5.39039,"is_reserved":false,"is_disabled":false,"rental_uris":{"android":"levelo://app?vid=7465727d-29ee-461e-b202-0c9d97082ce5","ios":"levelo://app?vid=7465727d-29ee-461e-b202-0c9d97082ce5"},"vehicle_type_id":"4","last_reported":1745039405,"current_range_meters":9600,"station_id":"ce4bgup2rcd13ifvqco0","pricing_plan_id":"cebpf4jnsgd1na2vs0mg"},{"bike_id":"aa3e78a4-6d31-41b6-8224-e85124b1f14d","system_id":"levelo_inurba_marseille","lat":43.31326,"lon":5.39715,"is_reserved":false,"is_disabled":false,"rental_uris":{"android":"levelo://app?vid=aa3e78a4-6d31-41b6-8224-e85124b1f14d","ios":"levelo://app?vid=aa3e78a4-6d31-41b6-8224-e85124b1f14d"},"vehicle_type_id":"4","last_reported":1745039405,"current_range_meters":9600,"station_id":"ce4bgvp2rcd13ifvqcu0","pricing_plan_id":"cebpf4jnsgd1na2vs0mg"},{"bike_id":"272a699a-1338-4817-b43f-f3a545f75518","system_id":"levelo_inurba_marseille","lat":43.24051,"lon":5.37772,"is_reserved":false,"is_disabled":false,"rental_uris":{"android":"levelo://app?vid=272a699a-1338-4817-b43f-f3a545f75518","ios":"levelo://app?vid=272a699a-1338-4817-b43f-f3a545f75518"},"vehicle_type_id":"4","last_reported":1745039405,"current_range_meters":9600,"station_id":"ce4bhnp2rcd13ifvqgvg","pricing_plan_id":"cebpf4jnsgd1na2vs0mg"},{"bike_id":"020aa141-02d6-4c64-b0cb-fbf2c6cc4c74","system_id":"levelo_inurba_marseille","lat":43.30797,"lon":5.38177,"is_reserved":false,"is_disabled":false,"rental_uris":{"android":"levelo://app?vid=020aa141-02d6-4c64-b0cb-fbf2c6cc4c74","ios":"levelo://app?vid=020aa141-02d6-4c64-b0cb-fbf2c6cc4c74"},"vehicle_type_id":"4","last_reported":1745039405,"current_range_meters":9600,"station_id":"ce4bgt12rcd13ifvqce0","pricing_plan_id":"cebpf4jnsgd1na2vs0mg"},{"bike_id":"da54d534-cdfc-4dbf-9f0d-6cfc2a37323d","system_id":"levelo_inurba_marseille","lat":43.2333,"lon":5.36166,"is_reserved":false,"is_disabled":false,"rental_uris":{"android":"levelo://app?vid=da54d534-cdfc-4dbf-9f0d-6cfc2a37323d","ios":"levelo://app?vid=da54d534-cdfc-4dbf-9f0d-6cfc2a37323d"},"vehicle_type_id":"4","last_reported":1745039405,"current_range_meters":9600,"station_id":"","pricing_plan_id":"cebpf4jnsgd1na2vs0mg"},{"bike_id":"c09b1ff6-1e1f-4cd6-9ee9-4e1b23955bbc","system_id":"levelo_inurba_marseille","lat":43.231965,"lon":5.355517,"is_reserved":false,"is_disabled":true,"rental_uris":{"android":"levelo://app?vid=c09b1ff6-1e1f-4cd6-9ee9-4e1b23955bbc","ios":"levelo://app?vid=c09b1ff6-1e1f-4cd6-9ee9-4e1b23955bbc"},"vehicle_type_id":"4","last_reported":1745039405,"current_range_meters":10000,"station_id":"ce4bhu92rcd13ifvqi70","pricing_plan_id":"cebpf4jnsgd1na2vs0mg"},{"bike_id":"2df22311-bac1-4b8f-abff-11893969de63","system_id":"levelo_inurba_marseille","lat":43.31069,"lon":5.37849,"is_reserved":false,"is_disabled":true,"rental_uris":{"android":"levelo://app?vid=2df22311-bac1-4b8f-abff-11893969de63","ios":"levelo://app?vid=2df22311-bac1-4b8f-abff-11893969de63"},"vehicle_type_id":"4","last_reported":1745039405,"current_range_meters":10000,"station_id":"","pricing_plan_id":"cebpf4jnsgd1na2vs0mg"},{"bike_id":"7c9d0069-215b-40b5-8aaf-d3d3120b20d7","system_id":"levelo_inurba_marseille","lat":43.25109,"lon":5.40352,"is_reserved":false,"is_disabled":false,"rental_uris":{"android":"levelo://app?vid=7c9d0069-215b-40b5-8aaf-d3d3120b20d7","ios":"levelo://app?vid=7c9d0069-215b-40b5-8aaf-d3d3120b20d7"},"vehicle_type_id":"4","last_reported":1745039405,"current_range_meters":10000,"station_id":"ce4bhlh2rcd13ifvqgig","pricing_plan_id":"cebpf4jnsgd1na2vs0mg"},{"bike_id":"2f0b555a-8b00-4b9a-bde9-3456a41b38a3","system_id":"levelo_inurba_marseille","lat":43.286782,"lon":5.386707,"is_reserved":false,"is_disabled":false,"rental_uris":{"android":"levelo://app?vid=2f0b555a-8b00-4b9a-bde9-3456a41b38a3","ios":"levelo://app?vid=2f0b555a-8b00-4b9a-bde9-3456a41b38a3"},"vehicle_type_id":"4","last_reported":1745039405,"current_range_meters":10000,"station_id":"ce4bh492rcd13ifvqdug","pricing_plan_id":"cebpf4jnsgd1na2vs0mg"},{"bike_id":"6f523da1-5f60-475c-93df-7a5b709bcac9","system_id":"levelo_inurba_marseille","lat":43.231992,"lon":5.355461,"is_reserved":false,"is_disabled":false,"rental_uris":{"android":"levelo://app?vid=6f523da1-5f60-475c-93df-7a5b709bcac9","ios":"levelo://app?vid=6f523da1-5f60-475c-93df-7a5b709bcac9"},"vehicle_type_id":"4","last_reported":1745039405,"current_range_meters":10000,"station_id":"ce4bhu92rcd13ifvqi70","pricing_plan_id":"cebpf4jnsgd1na2vs0mg"},{"bike_id":"33efbe4e-e642-4271-be29-4926b421ca5b","system_id":"levelo_inurba_marseille","lat":43.24167,"lon":5.36394,"is_reserved":false,"is_disabled":false,"rental_uris":{"android":"levelo://app?vid=33efbe4e-e642-4271-be29-4926b421ca5b","ios":"levelo://app?vid=33efbe4e-e642-4271-be29-4926b421ca5b"},"vehicle_type_id":"4","last_reported":1745039405,"current_range_meters":10000,"station_id":"cpo36qri1sfpv3e86is0","pricing_plan_id":"cebpf4jnsgd1na2vs0mg"},{"bike_id":"434bff1a-200c-40d9-aeec-aea1a5371c9c","system_id":"levelo_inurba_marseille","lat":43.30307,"lon":5.40438,"is_reserved":false,"is_disabled":false,"rental_uris":{"android":"levelo://app?vid=434bff1a-200c-40d9-aeec-aea1a5371c9c","ios":"levelo://app?vid=434bff1a-200c-40d9-aeec-aea1a5371c9c"},"vehicle_type_id":"4","last_reported":1745039405,"current_range_meters":10000,"station_id":"ce4bh012rcd13ifvqd10","pricing_plan_id":"cebpf4jnsgd1na2vs0mg"},{"bike_id":"e8ea4f71-f9bc-4069-9d4b-c148fc560222","system_id":"levelo_inurba_marseille","lat":43.30431,"lon":5.38896,"is_reserved":false,"is_disabled":false,"rental_uris":{"android":"levelo://app?vid=e8ea4f71-f9bc-4069-9d4b-c148fc560222","ios":"levelo://app?vid=e8ea4f71-f9bc-4069-9d4b-c148fc560222"},"vehicle_type_id":"4","last_reported":1745039405,"current_range_meters":10000,"station_id":"ce4bgk12rcd13ifvqbi0","pricing_plan_id":"cebpf4jnsgd1na2vs0mg"},{"bike_id":"a0ddb0a5-f7f0-4281-aa27-9e82747cc573","system_id":"levelo_inurba_marseille","lat":43.33754,"lon":5.37491,"is_reserved":false,"is_disabled":false,"rental_uris":{"android":"levelo://app?vid=a0ddb0a5-f7f0-4281-aa27-9e82747cc573","ios":"levelo://app?vid=a0ddb0a5-f7f0-4281-aa27-9e82747cc573"},"vehicle_type_id":"4","last_reported":1745039405,"current_range_meters":10000,"station_id":"","pricing_plan_id":"cebpf4jnsgd1na2vs0mg"},{"bike_id":"6748dd24-ca17-4156-9bff-157e0bdf8b06","system_id":"levelo_inurba_marseille","lat":43.29915,"lon":5.37468,"is_reserved":false,"is_disabled":false,"rental_uris":{"android":"levelo://app?vid=6748dd24-ca17-4156-9bff-157e0bdf8b06","ios":"levelo://app?vid=6748dd24-ca17-4156-9bff-157e0bdf8b06"},"vehicle_type_id":"4","last_reported":1745039405,"current_range_meters":10800,"station_id":"ce4bgjh2rcd13ifvqbg0","pricing_plan_id":"cebpf4jnsgd1na2vs0mg"},{"bike_id":"e18ee3c3-1639-4152-b0fe-39f72e453b50","system_id":"levelo_inurba_marseille","lat":43.31337,"lon":5.397,"is_reserved":false,"is_disabled":false,"rental_uris":{"android":"levelo://app?vid=e18ee3c3-1639-4152-b0fe-39f72e453b50","ios":"levelo://app?vid=e18ee3c3-1639-4152-b0fe-39f72e453b50"},"vehicle_type_id":"4","last_reported":1745039405,"current_range_meters":10800,"station_id":"ce4bgvp2rcd13ifvqcu0","pricing_plan_id":"cebpf4jnsgd1na2vs0mg"},{"bike_id":"6f13060f-7899-404a-a795-da3c27be4dca","system_id":"levelo_inurba_marseille","lat":43.325717,"lon":5.379227,"is_reserved":false,"is_disabled":false,"rental_uris":{"android":"levelo://app?vid=6f13060f-7899-404a-a795-da3c27be4dca","ios":"levelo://app?vid=6f13060f-7899-404a-a795-da3c27be4dca"},"vehicle_type_id":"4","last_reported":1745039405,"current_range_meters":10800,"station_id":"","pricing_plan_id":"cebpf4jnsgd1na2vs0mg"},{"bike_id":"d3cb27fa-e00d-4800-b2b9-da2ecf965c04","system_id":"levelo_inurba_marseille","lat":43.31264,"lon":5.40177,"is_reserved":false,"is_disabled":false,"rental_uris":{"android":"levelo://app?vid=d3cb27fa-e00d-4800-b2b9-da2ecf965c04","ios":"levelo://app?vid=d3cb27fa-e00d-4800-b2b9-da2ecf965c04"},"vehicle_type_id":"4","last_reported":1745039405,"current_range_meters":10800,"station_id":"ce4bh092rcd13ifvqd30","pricing_plan_id":"cebpf4jnsgd1na2vs0mg"},{"bike_id":"84cf32ce-de0f-4700-89f3-151cf63311a2","system_id":"levelo_inurba_marseille","lat":43.30128,"lon":5.39854,"is_reserved":false,"is_disabled":false,"rental_uris":{"android":"levelo://app?vid=84cf32ce-de0f-4700-89f3-151cf63311a2","ios":"levelo://app?vid=84cf32ce-de0f-4700-89f3-151cf63311a2"},"vehicle_type_id":"4","last_reported":1745039405,"current_range_meters":10800,"station_id":"ce4bh0h2rcd13ifvqd40","pricing_plan_id":"cebpf4jnsgd1na2vs0mg"},{"bike_id":"0794a140-1c8d-4b8a-ba89-689a82f0bde5","system_id":"levelo_inurba_marseille","lat":43.30298,"lon":5.39209,"is_reserved":false,"is_disabled":false,"rental_uris":{"android":"levelo://app?vid=0794a140-1c8d-4b8a-ba89-689a82f0bde5","ios":"levelo://app?vid=0794a140-1c8d-4b8a-ba89-689a82f0bde5"},"vehicle_type_id":"4","last_reported":1745039405,"current_range_meters":10800,"station_id":"ce4bgkh2rcd13ifvqbk0","pricing_plan_id":"cebpf4jnsgd1na2vs0mg"},{"bike_id":"fa22a6d4-65a6-4211-b00c-976bd3411aaf","system_id":"levelo_inurba_marseille","lat":43.28701,"lon":5.36306,"is_reserved":false,"is_disabled":false,"rental_uris":{"android":"levelo://app?vid=fa22a6d4-65a6-4211-b00c-976bd3411aaf","ios":"levelo://app?vid=fa22a6d4-65a6-4211-b00c-976bd3411aaf"},"vehicle_type_id":"4","last_reported":1745039405,"current_range_meters":11200,"station_id":"ce4bhah2rcd13ifvqej0","pricing_plan_id":"cebpf4jnsgd1na2vs0mg"},{"bike_id":"6cd98a68-dfc0-4aef-a25d-03e1f7826476","system_id":"levelo_inurba_marseille","lat":43.23714,"lon":5.37737,"is_reserved":false,"is_disabled":false,"rental_uris":{"android":"levelo://app?vid=6cd98a68-dfc0-4aef-a25d-03e1f7826476","ios":"levelo://app?vid=6cd98a68-dfc0-4aef-a25d-03e1f7826476"},"vehicle_type_id":"4","last_reported":1745039405,"current_range_meters":11200,"station_id":"","pricing_plan_id":"cebpf4jnsgd1na2vs0mg"},{"bike_id":"68342d9f-f0b6-47e7-b690-b27078e67a77","system_id":"levelo_inurba_marseille","lat":43.2417,"lon":5.36393,"is_reserved":false,"is_disabled":false,"rental_uris":{"android":"levelo://app?vid=68342d9f-f0b6-47e7-b690-b27078e67a77","ios":"levelo://app?vid=68342d9f-f0b6-47e7-b690-b27078e67a77"},"vehicle_type_id":"4","last_reported":1745039405,"current_range_meters":11200,"station_id":"cpo36qri1sfpv3e86is0","pricing_plan_id":"cebpf4jnsgd1na2vs0mg"},{"bike_id":"e6dd6ae1-3bcb-4010-8c4f-946f95c5cd66","system_id":"levelo_inurba_marseille","lat":43.28858,"lon":5.35805,"is_reserved":false,"is_disabled":true,"rental_uris":{"android":"levelo://app?vid=e6dd6ae1-3bcb-4010-8c4f-946f95c5cd66","ios":"levelo://app?vid=e6dd6ae1-3bcb-4010-8c4f-946f95c5cd66"},"vehicle_type_id":"4","last_reported":1745039405,"current_range_meters":11200,"station_id":"ce4bhb12rcd13ifvqem0","pricing_plan_id":"cebpf4jnsgd1na2vs0mg"},{"bike_id":"847895a2-dd89-4930-a7a4-89b8fe873669","system_id":"levelo_inurba_marseille","lat":43.27383,"lon":5.36249,"is_reserved":false,"is_disabled":false,"rental_uris":{"android":"levelo://app?vid=847895a2-dd89-4930-a7a4-89b8fe873669","ios":"levelo://app?vid=847895a2-dd89-4930-a7a4-89b8fe873669"},"vehicle_type_id":"4","last_reported":1745039405,"current_range_meters":11200,"station_id":"ce4bhbh2rcd13ifvqeo0","pricing_plan_id":"cebpf4jnsgd1na2vs0mg"},{"bike_id":"67a2aa0e-44b2-482c-88ae-6154a9a4b689","system_id":"levelo_inurba_marseille","lat":43.286008,"lon":5.370795,"is_reserved":false,"is_disabled":false,"rental_uris":{"android":"levelo://app?vid=67a2aa0e-44b2-482c-88ae-6154a9a4b689","ios":"levelo://app?vid=67a2aa0e-44b2-482c-88ae-6154a9a4b689"},"vehicle_type_id":"4","last_reported":1745039405,"current_range_meters":11200,"station_id":"ce4bht12rcd13ifvqi60","pricing_plan_id":"cebpf4jnsgd1na2vs0mg"},{"bike_id":"34e9dccb-d114-43d7-ab3e-a86d98ec1d22","system_id":"levelo_inurba_marseille","lat":43.28348,"lon":5.38093,"is_reserved":false,"is_disabled":false,"rental_uris":{"android":"levelo://app?vid=34e9dccb-d114-43d7-ab3e-a86d98ec1d22","ios":"levelo://app?vid=34e9dccb-d114-43d7-ab3e-a86d98ec1d22"},"vehicle_type_id":"4","last_reported":1745039405,"current_range_meters":11200,"station_id":"ce4bh412rcd13ifvqdr0","pricing_plan_id":"cebpf4jnsgd1na2vs0mg"},{"bike_id":"a69d9534-dedc-46a9-a1f1-f2c2dbbd85ea","system_id":"levelo_inurba_marseille","lat":43.27984,"lon":5.38674,"is_reserved":false,"is_disabled":false,"rental_uris":{"android":"levelo://app?vid=a69d9534-dedc-46a9-a1f1-f2c2dbbd85ea","ios":"levelo://app?vid=a69d9534-dedc-46a9-a1f1-f2c2dbbd85ea"},"vehicle_type_id":"4","last_reported":1745039405,"current_range_meters":11200,"station_id":"","pricing_plan_id":"cebpf4jnsgd1na2vs0mg"},{"bike_id":"12b394c6-fd59-4eb1-9ee1-01ad07d9f662","system_id":"levelo_inurba_marseille","lat":43.304105,"lon":5.415766,"is_reserved":false,"is_disabled":false,"rental_uris":{"android":"levelo://app?vid=12b394c6-fd59-4eb1-9ee1-01ad07d9f662","ios":"levelo://app?vid=12b394c6-fd59-4eb1-9ee1-01ad07d9f662"},"vehicle_type_id":"4","last_reported":1745039405,"current_range_meters":11200,"station_id":"ce4bhoh2rcd13ifvqh6g","pricing_plan_id":"cebpf4jnsgd1na2vs0mg"},{"bike_id":"e01403ae-8c8a-4317-828d-39241f5a962c","system_id":"levelo_inurba_marseille","lat":43.30404,"lon":5.38909,"is_reserved":false,"is_disabled":false,"rental_uris":{"android":"levelo://app?vid=e01403ae-8c8a-4317-828d-39241f5a962c","ios":"levelo://app?vid=e01403ae-8c8a-4317-828d-39241f5a962c"},"vehicle_type_id":"4","last_reported":1745039405,"current_range_meters":11200,"station_id":"ce4bgk12rcd13ifvqbi0","pricing_plan_id":"cebpf4jnsgd1na2vs0mg"},{"bike_id":"37d249f4-6386-4fb4-a5f1-e1ba14814164","system_id":"levelo_inurba_marseille","lat":43.25103,"lon":5.40349,"is_reserved":false,"is_disabled":false,"rental_uris":{"android":"levelo://app?vid=37d249f4-6386-4fb4-a5f1-e1ba14814164","ios":"levelo://app?vid=37d249f4-6386-4fb4-a5f1-e1ba14814164"},"vehicle_type_id":"4","last_reported":1745039405,"current_range_meters":11200,"station_id":"ce4bhlh2rcd13ifvqgig","pricing_plan_id":"cebpf4jnsgd1na2vs0mg"},{"bike_id":"1eaca8f5-0017-418a-9bfc-52185bf67513","system_id":"levelo_inurba_marseille","lat":43.33724,"lon":5.39197,"is_reserved":false,"is_disabled":false,"rental_uris":{"android":"levelo://app?vid=1eaca8f5-0017-418a-9bfc-52185bf67513","ios":"levelo://app?vid=1eaca8f5-0017-418a-9bfc-52185bf67513"},"vehicle_type_id":"4","last_reported":1745039405,"current_range_meters":11600,"station_id":"ce4bhr92rcd13ifvqhsg","pricing_plan_id":"cebpf4jnsgd1na2vs0mg"},{"bike_id":"709594ef-4d5a-43e4-8bb0-c482c9fa12f8","system_id":"levelo_inurba_marseille","lat":43.30983,"lon":5.39442,"is_reserved":false,"is_disabled":true,"rental_uris":{"android":"levelo://app?vid=709594ef-4d5a-43e4-8bb0-c482c9fa12f8","ios":"levelo://app?vid=709594ef-4d5a-43e4-8bb0-c482c9fa12f8"},"vehicle_type_id":"4","last_reported":1745039405,"current_range_meters":11600,"station_id":"","pricing_plan_id":"cebpf4jnsgd1na2vs0mg"},{"bike_id":"ef871c8e-2013-4622-a683-0ab17a74d870","system_id":"levelo_inurba_marseille","lat":43.231894,"lon":5.35552,"is_reserved":false,"is_disabled":true,"rental_uris":{"android":"levelo://app?vid=ef871c8e-2013-4622-a683-0ab17a74d870","ios":"levelo://app?vid=ef871c8e-2013-4622-a683-0ab17a74d870"},"vehicle_type_id":"4","last_reported":1745039405,"current_range_meters":11600,"station_id":"ce4bhu92rcd13ifvqi70","pricing_plan_id":"cebpf4jnsgd1na2vs0mg"},{"bike_id":"ed96664b-be68-4d8e-885b-88ee1ce7b22c","system_id":"levelo_inurba_marseille","lat":43.28836,"lon":5.35847,"is_reserved":false,"is_disabled":false,"rental_uris":{"android":"levelo://app?vid=ed96664b-be68-4d8e-885b-88ee1ce7b22c","ios":"levelo://app?vid=ed96664b-be68-4d8e-885b-88ee1ce7b22c"},"vehicle_type_id":"4","last_reported":1745039405,"current_range_meters":11600,"station_id":"ce4bhb12rcd13ifvqem0","pricing_plan_id":"cebpf4jnsgd1na2vs0mg"},{"bike_id":"5c4ead29-1e5e-49af-829a-7868c3cf014f","system_id":"levelo_inurba_marseille","lat":43.25058,"lon":5.40307,"is_reserved":false,"is_disabled":false,"rental_uris":{"android":"levelo://app?vid=5c4ead29-1e5e-49af-829a-7868c3cf014f","ios":"levelo://app?vid=5c4ead29-1e5e-49af-829a-7868c3cf014f"},"vehicle_type_id":"4","last_reported":1745039405,"current_range_meters":11600,"station_id":"","pricing_plan_id":"cebpf4jnsgd1na2vs0mg"},{"bike_id":"5d4c9cc0-56a3-468c-9bfd-437b9498da8b","system_id":"levelo_inurba_marseille","lat":43.28339,"lon":5.38105,"is_reserved":false,"is_disabled":false,"rental_uris":{"android":"levelo://app?vid=5d4c9cc0-56a3-468c-9bfd-437b9498da8b","ios":"levelo://app?vid=5d4c9cc0-56a3-468c-9bfd-437b9498da8b"},"vehicle_type_id":"4","last_reported":1745039405,"current_range_meters":11600,"station_id":"ce4bh412rcd13ifvqdr0","pricing_plan_id":"cebpf4jnsgd1na2vs0mg"},{"bike_id":"7eb8853e-3665-40f5-8308-1299f0674652","system_id":"levelo_inurba_marseille","lat":43.30375,"lon":5.42491,"is_reserved":false,"is_disabled":false,"rental_uris":{"android":"levelo://app?vid=7eb8853e-3665-40f5-8308-1299f0674652","ios":"levelo://app?vid=7eb8853e-3665-40f5-8308-1299f0674652"},"vehicle_type_id":"4","last_reported":1745039405,"current_range_meters":11600,"station_id":"ce4bhoh2rcd13ifvqh6g","pricing_plan_id":"cebpf4jnsgd1na2vs0mg"},{"bike_id":"186380b9-3dab-457b-b648-71d123fa0368","system_id":"levelo_inurba_marseille","lat":43.25104,"lon":5.40344,"is_reserved":false,"is_disabled":true,"rental_uris":{"android":"levelo://app?vid=186380b9-3dab-457b-b648-71d123fa0368","ios":"levelo://app?vid=186380b9-3dab-457b-b648-71d123fa0368"},"vehicle_type_id":"4","last_reported":1745039405,"current_range_meters":11600,"station_id":"ce4bhlh2rcd13ifvqgig","pricing_plan_id":"cebpf4jnsgd1na2vs0mg"},{"bike_id":"98725c4e-8444-4956-813a-f008f3539035","system_id":"levelo_inurba_marseille","lat":43.29925,"lon":5.39726,"is_reserved":false,"is_disabled":false,"rental_uris":{"android":"levelo://app?vid=98725c4e-8444-4956-813a-f008f3539035","ios":"levelo://app?vid=98725c4e-8444-4956-813a-f008f3539035"},"vehicle_type_id":"4","last_reported":1745039405,"current_range_meters":11600,"station_id":"ce4bh0h2rcd13ifvqd50","pricing_plan_id":"cebpf4jnsgd1na2vs0mg"},{"bike_id":"110c4abb-ffb8-4fd0-ba35-0e68e73379e5","system_id":"levelo_inurba_marseille","lat":43.22926,"lon":5.35384,"is_reserved":false,"is_disabled":false,"rental_uris":{"android":"levelo://app?vid=110c4abb-ffb8-4fd0-ba35-0e68e73379e5","ios":"levelo://app?vid=110c4abb-ffb8-4fd0-ba35-0e68e73379e5"},"vehicle_type_id":"4","last_reported":1745039405,"current_range_meters":11600,"station_id":"cpo3532slgdg3j2ikp40","pricing_plan_id":"cebpf4jnsgd1na2vs0mg"},{"bike_id":"7160ae32-8fc4-482b-a644-55cae0c1f5b1","system_id":"levelo_inurba_marseille","lat":43.309841,"lon":5.417365,"is_reserved":false,"is_disabled":false,"rental_uris":{"android":"levelo://app?vid=7160ae32-8fc4-482b-a644-55cae0c1f5b1","ios":"levelo://app?vid=7160ae32-8fc4-482b-a644-55cae0c1f5b1"},"vehicle_type_id":"4","last_reported":1745039405,"current_range_meters":12000,"station_id":"","pricing_plan_id":"cebpf4jnsgd1na2vs0mg"},{"bike_id":"bd252512-7aef-49a5-b319-c1c41d41e1eb","system_id":"levelo_inurba_marseille","lat":43.27509,"lon":5.42468,"is_reserved":false,"is_disabled":false,"rental_uris":{"android":"levelo://app?vid=bd252512-7aef-49a5-b319-c1c41d41e1eb","ios":"levelo://app?vid=bd252512-7aef-49a5-b319-c1c41d41e1eb"},"vehicle_type_id":"4","last_reported":1745039405,"current_range_meters":12000,"station_id":"ce4bhn92rcd13ifvqgrg","pricing_plan_id":"cebpf4jnsgd1na2vs0mg"},{"bike_id":"6e82670d-a4ba-4bce-a91a-28c6c7ac4444","system_id":"levelo_inurba_marseille","lat":43.28409,"lon":5.35033,"is_reserved":false,"is_disabled":false,"rental_uris":{"android":"levelo://app?vid=6e82670d-a4ba-4bce-a91a-28c6c7ac4444","ios":"levelo://app?vid=6e82670d-a4ba-4bce-a91a-28c6c7ac4444"},"vehicle_type_id":"4","last_reported":1745039405,"current_range_meters":12000,"station_id":"ce4bhbh2rcd13ifvqepg","pricing_plan_id":"cebpf4jnsgd1na2vs0mg"},{"bike_id":"ab083597-4025-42a7-9355-4053d7f1cf8d","system_id":"levelo_inurba_marseille","lat":43.288435,"lon":5.358507,"is_reserved":false,"is_disabled":false,"rental_uris":{"android":"levelo://app?vid=ab083597-4025-42a7-9355-4053d7f1cf8d","ios":"levelo://app?vid=ab083597-4025-42a7-9355-4053d7f1cf8d"},"vehicle_type_id":"4","last_reported":1745039405,"current_range_meters":12400,"station_id":"ce4bhb12rcd13ifvqem0","pricing_plan_id":"cebpf4jnsgd1na2vs0mg"},{"bike_id":"81d07084-66a1-44dc-ae08-3b708e7b5eb3","system_id":"levelo_inurba_marseille","lat":43.24999,"lon":5.38919,"is_reserved":false,"is_disabled":false,"rental_uris":{"android":"levelo://app?vid=81d07084-66a1-44dc-ae08-3b708e7b5eb3","ios":"levelo://app?vid=81d07084-66a1-44dc-ae08-3b708e7b5eb3"},"vehicle_type_id":"4","last_reported":1745039405,"current_range_meters":12400,"station_id":"ce4bhgp2rcd13ifvqfd0","pricing_plan_id":"cebpf4jnsgd1na2vs0mg"},{"bike_id":"f2901a7f-bfae-47e1-b487-cb4d93986e1c","system_id":"levelo_inurba_marseille","lat":43.3134,"lon":5.39713,"is_reserved":false,"is_disabled":false,"rental_uris":{"android":"levelo://app?vid=f2901a7f-bfae-47e1-b487-cb4d93986e1c","ios":"levelo://app?vid=f2901a7f-bfae-47e1-b487-cb4d93986e1c"},"vehicle_type_id":"4","last_reported":1745039405,"current_range_meters":12400,"station_id":"ce4bgvp2rcd13ifvqcu0","pricing_plan_id":"cebpf4jnsgd1na2vs0mg"},{"bike_id":"c6ff4b58-c48b-4cb0-9011-251bee0e099e","system_id":"levelo_inurba_marseille","lat":43.287089,"lon":5.399783,"is_reserved":false,"is_disabled":false,"rental_uris":{"android":"levelo://app?vid=c6ff4b58-c48b-4cb0-9011-251bee0e099e","ios":"levelo://app?vid=c6ff4b58-c48b-4cb0-9011-251bee0e099e"},"vehicle_type_id":"4","last_reported":1745039405,"current_range_meters":12400,"station_id":"ce4bho92rcd13ifvqh3g","pricing_plan_id":"cebpf4jnsgd1na2vs0mg"},{"bike_id":"1c4957af-863d-481b-a0a1-ea06d389e63f","system_id":"levelo_inurba_marseille","lat":43.27802,"lon":5.40726,"is_reserved":false,"is_disabled":false,"rental_uris":{"android":"levelo://app?vid=1c4957af-863d-481b-a0a1-ea06d389e63f","ios":"levelo://app?vid=1c4957af-863d-481b-a0a1-ea06d389e63f"},"vehicle_type_id":"4","last_reported":1745039405,"current_range_meters":12400,"station_id":"ce4bhnh2rcd13ifvqgtg","pricing_plan_id":"cebpf4jnsgd1na2vs0mg"},{"bike_id":"dbf610d2-693f-4f8e-91fc-a7ae80981b0f","system_id":"levelo_inurba_marseille","lat":43.28686,"lon":5.36313,"is_reserved":false,"is_disabled":false,"rental_uris":{"android":"levelo://app?vid=dbf610d2-693f-4f8e-91fc-a7ae80981b0f","ios":"levelo://app?vid=dbf610d2-693f-4f8e-91fc-a7ae80981b0f"},"vehicle_type_id":"4","last_reported":1745039405,"current_range_meters":12400,"station_id":"ce4bhah2rcd13ifvqej0","pricing_plan_id":"cebpf4jnsgd1na2vs0mg"},{"bike_id":"b6821e5f-2b42-4cde-8784-0fb0fe3fb2be","system_id":"levelo_inurba_marseille","lat":43.2467,"lon":5.38187,"is_reserved":false,"is_disabled":false,"rental_uris":{"android":"levelo://app?vid=b6821e5f-2b42-4cde-8784-0fb0fe3fb2be","ios":"levelo://app?vid=b6821e5f-2b42-4cde-8784-0fb0fe3fb2be"},"vehicle_type_id":"4","last_reported":1745039405,"current_range_meters":12800,"station_id":"ce4bhih2rcd13ifvqfr0","pricing_plan_id":"cebpf4jnsgd1na2vs0mg"},{"bike_id":"baebd87a-d533-41df-8d1c-1a8e62d3b4e8","system_id":"levelo_inurba_marseille","lat":43.29796,"lon":5.3651,"is_reserved":false,"is_disabled":false,"rental_uris":{"android":"levelo://app?vid=baebd87a-d533-41df-8d1c-1a8e62d3b4e8","ios":"levelo://app?vid=baebd87a-d533-41df-8d1c-1a8e62d3b4e8"},"vehicle_type_id":"4","last_reported":1745039405,"current_range_meters":12800,"station_id":"","pricing_plan_id":"cebpf4jnsgd1na2vs0mg"},{"bike_id":"f751481e-4ca5-4f18-9b65-946061f378ce","system_id":"levelo_inurba_marseille","lat":43.28048,"lon":5.39628,"is_reserved":false,"is_disabled":false,"rental_uris":{"android":"levelo://app?vid=f751481e-4ca5-4f18-9b65-946061f378ce","ios":"levelo://app?vid=f751481e-4ca5-4f18-9b65-946061f378ce"},"vehicle_type_id":"4","last_reported":1745039405,"current_range_meters":12800,"station_id":"ce4bho12rcd13ifvqh2g","pricing_plan_id":"cebpf4jnsgd1na2vs0mg"},{"bike_id":"cb45350e-0e1f-42b0-85cb-ffd652a74a75","system_id":"levelo_inurba_marseille","lat":43.23193,"lon":5.35576,"is_reserved":false,"is_disabled":false,"rental_uris":{"android":"levelo://app?vid=cb45350e-0e1f-42b0-85cb-ffd652a74a75","ios":"levelo://app?vid=cb45350e-0e1f-42b0-85cb-ffd652a74a75"},"vehicle_type_id":"4","last_reported":1745039405,"current_range_meters":13600,"station_id":"ce4bhu92rcd13ifvqi70","pricing_plan_id":"cebpf4jnsgd1na2vs0mg"},{"bike_id":"97e50bb0-9a70-481b-b370-e509345e710a","system_id":"levelo_inurba_marseille","lat":43.28053,"lon":5.36947,"is_reserved":false,"is_disabled":true,"rental_uris":{"android":"levelo://app?vid=97e50bb0-9a70-481b-b370-e509345e710a","ios":"levelo://app?vid=97e50bb0-9a70-481b-b370-e509345e710a"},"vehicle_type_id":"4","last_reported":1745039405,"current_range_meters":13600,"station_id":"ce4bha12rcd13ifvqef0","pricing_plan_id":"cebpf4jnsgd1na2vs0mg"},{"bike_id":"48c38bae-454f-405f-948e-f78fb891e7d5","system_id":"levelo_inurba_marseille","lat":43.28683,"lon":5.40013,"is_reserved":false,"is_disabled":false,"rental_uris":{"android":"levelo://app?vid=48c38bae-454f-405f-948e-f78fb891e7d5","ios":"levelo://app?vid=48c38bae-454f-405f-948e-f78fb891e7d5"},"vehicle_type_id":"4","last_reported":1745039405,"current_range_meters":13600,"station_id":"ce4bho92rcd13ifvqh3g","pricing_plan_id":"cebpf4jnsgd1na2vs0mg"},{"bike_id":"789c3822-56ca-4769-bcd4-8845bdea2fda","system_id":"levelo_inurba_marseille","lat":43.24164,"lon":5.36385,"is_reserved":false,"is_disabled":false,"rental_uris":{"android":"levelo://app?vid=789c3822-56ca-4769-bcd4-8845bdea2fda","ios":"levelo://app?vid=789c3822-56ca-4769-bcd4-8845bdea2fda"},"vehicle_type_id":"4","last_reported":1745039405,"current_range_meters":13600,"station_id":"cpo36qri1sfpv3e86is0","pricing_plan_id":"cebpf4jnsgd1na2vs0mg"},{"bike_id":"0c2750a9-0ab1-4fa2-bd82-cb372ac22cf3","system_id":"levelo_inurba_marseille","lat":43.30776,"lon":5.37653,"is_reserved":false,"is_disabled":false,"rental_uris":{"android":"levelo://app?vid=0c2750a9-0ab1-4fa2-bd82-cb372ac22cf3","ios":"levelo://app?vid=0c2750a9-0ab1-4fa2-bd82-cb372ac22cf3"},"vehicle_type_id":"4","last_reported":1745039405,"current_range_meters":13600,"station_id":"ce4bgv92rcd13ifvqcq0","pricing_plan_id":"cebpf4jnsgd1na2vs0mg"},{"bike_id":"c99eee79-ef05-4f36-b87c-c8a0c5e304bb","system_id":"levelo_inurba_marseille","lat":43.28339,"lon":5.38104,"is_reserved":false,"is_disabled":false,"rental_uris":{"android":"levelo://app?vid=c99eee79-ef05-4f36-b87c-c8a0c5e304bb","ios":"levelo://app?vid=c99eee79-ef05-4f36-b87c-c8a0c5e304bb"},"vehicle_type_id":"4","last_reported":1745039405,"current_range_meters":13600,"station_id":"ce4bh412rcd13ifvqdr0","pricing_plan_id":"cebpf4jnsgd1na2vs0mg"},{"bike_id":"7f44b622-fe66-4447-98b6-d7912a7c91a6","system_id":"levelo_inurba_marseille","lat":43.252338,"lon":5.394617,"is_reserved":false,"is_disabled":false,"rental_uris":{"android":"levelo://app?vid=7f44b622-fe66-4447-98b6-d7912a7c91a6","ios":"levelo://app?vid=7f44b622-fe66-4447-98b6-d7912a7c91a6"},"vehicle_type_id":"4","last_reported":1745039405,"current_range_meters":13600,"station_id":"ce4bhm12rcd13ifvqgkg","pricing_plan_id":"cebpf4jnsgd1na2vs0mg"},{"bike_id":"ce3fee90-b321-4105-971f-27349ec005fb","system_id":"levelo_inurba_marseille","lat":43.22924,"lon":5.354,"is_reserved":false,"is_disabled":false,"rental_uris":{"android":"levelo://app?vid=ce3fee90-b321-4105-971f-27349ec005fb","ios":"levelo://app?vid=ce3fee90-b321-4105-971f-27349ec005fb"},"vehicle_type_id":"4","last_reported":1745039405,"current_range_meters":14000,"station_id":"cpo3532slgdg3j2ikp40","pricing_plan_id":"cebpf4jnsgd1na2vs0mg"},{"bike_id":"b6c3499a-415c-4534-9db3-37550ecba7e2","system_id":"levelo_inurba_marseille","lat":43.241692,"lon":5.363984,"is_reserved":false,"is_disabled":false,"rental_uris":{"android":"levelo://app?vid=b6c3499a-415c-4534-9db3-37550ecba7e2","ios":"levelo://app?vid=b6c3499a-415c-4534-9db3-37550ecba7e2"},"vehicle_type_id":"4","last_reported":1745039405,"current_range_meters":14000,"station_id":"cpo36qri1sfpv3e86is0","pricing_plan_id":"cebpf4jnsgd1na2vs0mg"},{"bike_id":"372c5d58-0de3-4fac-bc02-7152f85cfe93","system_id":"levelo_inurba_marseille","lat":43.24605,"lon":5.38134,"is_reserved":false,"is_disabled":false,"rental_uris":{"android":"levelo://app?vid=372c5d58-0de3-4fac-bc02-7152f85cfe93","ios":"levelo://app?vid=372c5d58-0de3-4fac-bc02-7152f85cfe93"},"vehicle_type_id":"4","last_reported":1745039405,"current_range_meters":14000,"station_id":"ce4bhih2rcd13ifvqfr0","pricing_plan_id":"cebpf4jnsgd1na2vs0mg"},{"bike_id":"7eaec3ab-8a5e-47e9-898f-ff4d1570df36","system_id":"levelo_inurba_marseille","lat":43.27215,"lon":5.39186,"is_reserved":false,"is_disabled":false,"rental_uris":{"android":"levelo://app?vid=7eaec3ab-8a5e-47e9-898f-ff4d1570df36","ios":"levelo://app?vid=7eaec3ab-8a5e-47e9-898f-ff4d1570df36"},"vehicle_type_id":"4","last_reported":1745039405,"current_range_meters":14000,"station_id":"ce4bhhp2rcd13ifvqfm0","pricing_plan_id":"cebpf4jnsgd1na2vs0mg"},{"bike_id":"124cc1fa-422c-42e6-a66e-f9628f99f3a2","system_id":"levelo_inurba_marseille","lat":43.265566,"lon":5.372825,"is_reserved":false,"is_disabled":false,"rental_uris":{"android":"levelo://app?vid=124cc1fa-422c-42e6-a66e-f9628f99f3a2","ios":"levelo://app?vid=124cc1fa-422c-42e6-a66e-f9628f99f3a2"},"vehicle_type_id":"4","last_reported":1745039405,"current_range_meters":14000,"station_id":"ce4bhg12rcd13ifvqf70","pricing_plan_id":"cebpf4jnsgd1na2vs0mg"},{"bike_id":"35ab27ca-fde9-4b4c-b6a6-94b2004f786e","system_id":"levelo_inurba_marseille","lat":43.30932,"lon":5.40152,"is_reserved":false,"is_disabled":false,"rental_uris":{"android":"levelo://app?vid=35ab27ca-fde9-4b4c-b6a6-94b2004f786e","ios":"levelo://app?vid=35ab27ca-fde9-4b4c-b6a6-94b2004f786e"},"vehicle_type_id":"4","last_reported":1745039405,"current_range_meters":14400,"station_id":"ce4bgvp2rcd13ifvqct0","pricing_plan_id":"cebpf4jnsgd1na2vs0mg"},{"bike_id":"327196b9-7b72-44be-becb-f429158bbe9c","system_id":"levelo_inurba_marseille","lat":43.30883,"lon":5.39636,"is_reserved":false,"is_disabled":false,"rental_uris":{"android":"levelo://app?vid=327196b9-7b72-44be-becb-f429158bbe9c","ios":"levelo://app?vid=327196b9-7b72-44be-becb-f429158bbe9c"},"vehicle_type_id":"4","last_reported":1745039405,"current_range_meters":14400,"station_id":"ce4bh012rcd13ifvqcv0","pricing_plan_id":"cebpf4jnsgd1na2vs0mg"},{"bike_id":"f5720b37-43aa-4c9b-858d-427911a8f736","system_id":"levelo_inurba_marseille","lat":43.3205,"lon":5.41546,"is_reserved":false,"is_disabled":false,"rental_uris":{"android":"levelo://app?vid=f5720b37-43aa-4c9b-858d-427911a8f736","ios":"levelo://app?vid=f5720b37-43aa-4c9b-858d-427911a8f736"},"vehicle_type_id":"4","last_reported":1745039405,"current_range_meters":14800,"station_id":"ce4bhq92rcd13ifvqhkg","pricing_plan_id":"cebpf4jnsgd1na2vs0mg"},{"bike_id":"343406d9-08d9-46fe-b35a-6f875b542c07","system_id":"levelo_inurba_marseille","lat":43.230498,"lon":5.354957,"is_reserved":false,"is_disabled":true,"rental_uris":{"android":"levelo://app?vid=343406d9-08d9-46fe-b35a-6f875b542c07","ios":"levelo://app?vid=343406d9-08d9-46fe-b35a-6f875b542c07"},"vehicle_type_id":"4","last_reported":1745039405,"current_range_meters":14800,"station_id":"cpo3342slgdg3j2ifvpg","pricing_plan_id":"cebpf4jnsgd1na2vs0mg"},{"bike_id":"5c87a66e-a468-4c06-bf6a-016059f2b476","system_id":"levelo_inurba_marseille","lat":43.22924,"lon":5.3541,"is_reserved":false,"is_disabled":false,"rental_uris":{"android":"levelo://app?vid=5c87a66e-a468-4c06-bf6a-016059f2b476","ios":"levelo://app?vid=5c87a66e-a468-4c06-bf6a-016059f2b476"},"vehicle_type_id":"4","last_reported":1745039405,"current_range_meters":14800,"station_id":"cpo3532slgdg3j2ikp40","pricing_plan_id":"cebpf4jnsgd1na2vs0mg"},{"bike_id":"86578676-4ea1-4948-8a01-f1830610bb68","system_id":"levelo_inurba_marseille","lat":43.2407,"lon":5.37764,"is_reserved":false,"is_disabled":false,"rental_uris":{"android":"levelo://app?vid=86578676-4ea1-4948-8a01-f1830610bb68","ios":"levelo://app?vid=86578676-4ea1-4948-8a01-f1830610bb68"},"vehicle_type_id":"4","last_reported":1745039405,"current_range_meters":14800,"station_id":"ce4bhnp2rcd13ifvqgvg","pricing_plan_id":"cebpf4jnsgd1na2vs0mg"},{"bike_id":"961812c2-8e30-43ed-bb44-760390cf3342","system_id":"levelo_inurba_marseille","lat":43.30605,"lon":5.37192,"is_reserved":false,"is_disabled":false,"rental_uris":{"android":"levelo://app?vid=961812c2-8e30-43ed-bb44-760390cf3342","ios":"levelo://app?vid=961812c2-8e30-43ed-bb44-760390cf3342"},"vehicle_type_id":"4","last_reported":1745039405,"current_range_meters":15200,"station_id":"ce4bgqh2rcd13ifvqc4g","pricing_plan_id":"cebpf4jnsgd1na2vs0mg"},{"bike_id":"f58e9ea8-538c-4628-919b-442ba24886f7","system_id":"levelo_inurba_marseille","lat":43.24085,"lon":5.37754,"is_reserved":false,"is_disabled":false,"rental_uris":{"android":"levelo://app?vid=f58e9ea8-538c-4628-919b-442ba24886f7","ios":"levelo://app?vid=f58e9ea8-538c-4628-919b-442ba24886f7"},"vehicle_type_id":"4","last_reported":1745039405,"current_range_meters":15200,"station_id":"ce4bhnp2rcd13ifvqgvg","pricing_plan_id":"cebpf4jnsgd1na2vs0mg"},{"bike_id":"f2a225bc-b0a4-4c85-98a7-1948371b7f0d","system_id":"levelo_inurba_marseille","lat":43.29001,"lon":5.35626,"is_reserved":false,"is_disabled":false,"rental_uris":{"android":"levelo://app?vid=f2a225bc-b0a4-4c85-98a7-1948371b7f0d","ios":"levelo://app?vid=f2a225bc-b0a4-4c85-98a7-1948371b7f0d"},"vehicle_type_id":"4","last_reported":1745039405,"current_range_meters":15200,"station_id":"ce4bhb92rcd13ifvqen0","pricing_plan_id":"cebpf4jnsgd1na2vs0mg"},{"bike_id":"296350a4-7455-4598-aa77-077e58fc0eab","system_id":"levelo_inurba_marseille","lat":43.31313,"lon":5.39734,"is_reserved":false,"is_disabled":true,"rental_uris":{"android":"levelo://app?vid=296350a4-7455-4598-aa77-077e58fc0eab","ios":"levelo://app?vid=296350a4-7455-4598-aa77-077e58fc0eab"},"vehicle_type_id":"4","last_reported":1745039405,"current_range_meters":15200,"station_id":"ce4bgvp2rcd13ifvqcu0","pricing_plan_id":"cebpf4jnsgd1na2vs0mg"},{"bike_id":"b2f08c4c-65a0-4096-a667-21c7b39e913d","system_id":"levelo_inurba_marseille","lat":43.30648,"lon":5.40093,"is_reserved":false,"is_disabled":false,"rental_uris":{"android":"levelo://app?vid=b2f08c4c-65a0-4096-a667-21c7b39e913d","ios":"levelo://app?vid=b2f08c4c-65a0-4096-a667-21c7b39e913d"},"vehicle_type_id":"4","last_reported":1745039405,"current_range_meters":15200,"station_id":"ce4bh112rcd13ifvqda0","pricing_plan_id":"cebpf4jnsgd1na2vs0mg"},{"bike_id":"172eae1b-9d1e-4794-b816-7eb65fb0aa0d","system_id":"levelo_inurba_marseille","lat":43.29983,"lon":5.38503,"is_reserved":false,"is_disabled":true,"rental_uris":{"android":"levelo://app?vid=172eae1b-9d1e-4794-b816-7eb65fb0aa0d","ios":"levelo://app?vid=172eae1b-9d1e-4794-b816-7eb65fb0aa0d"},"vehicle_type_id":"4","last_reported":1745039405,"current_range_meters":16000,"station_id":"ce4bgj92rcd13ifvqbd0","pricing_plan_id":"cebpf4jnsgd1na2vs0mg"},{"bike_id":"a860d99e-1058-48b6-8863-1e15350a5cc0","system_id":"levelo_inurba_marseille","lat":43.30744,"lon":5.42435,"is_reserved":false,"is_disabled":false,"rental_uris":{"android":"levelo://app?vid=a860d99e-1058-48b6-8863-1e15350a5cc0","ios":"levelo://app?vid=a860d99e-1058-48b6-8863-1e15350a5cc0"},"vehicle_type_id":"4","last_reported":1745039405,"current_range_meters":16000,"station_id":"st_cvj6ca6bvosntc0bfgr0","pricing_plan_id":"cebpf4jnsgd1na2vs0mg"},{"bike_id":"4e6892ef-dbe3-43e4-bc69-b2da5d802c90","system_id":"levelo_inurba_marseille","lat":43.27376,"lon":5.36255,"is_reserved":false,"is_disabled":true,"rental_uris":{"android":"levelo://app?vid=4e6892ef-dbe3-43e4-bc69-b2da5d802c90","ios":"levelo://app?vid=4e6892ef-dbe3-43e4-bc69-b2da5d802c90"},"vehicle_type_id":"4","last_reported":1745039405,"current_range_meters":16000,"station_id":"ce4bhbh2rcd13ifvqeo0","pricing_plan_id":"cebpf4jnsgd1na2vs0mg"},{"bike_id":"1e43d6fd-6e5a-43f5-bddf-e5b948394d03","system_id":"levelo_inurba_marseille","lat":43.24661,"lon":5.38186,"is_reserved":false,"is_disabled":false,"rental_uris":{"android":"levelo://app?vid=1e43d6fd-6e5a-43f5-bddf-e5b948394d03","ios":"levelo://app?vid=1e43d6fd-6e5a-43f5-bddf-e5b948394d03"},"vehicle_type_id":"4","last_reported":1745039405,"current_range_meters":16000,"station_id":"ce4bhih2rcd13ifvqfr0","pricing_plan_id":"cebpf4jnsgd1na2vs0mg"},{"bike_id":"9f45b2bf-53d1-4e39-9a64-fb391bdbd395","system_id":"levelo_inurba_marseille","lat":43.3373,"lon":5.39194,"is_reserved":false,"is_disabled":false,"rental_uris":{"android":"levelo://app?vid=9f45b2bf-53d1-4e39-9a64-fb391bdbd395","ios":"levelo://app?vid=9f45b2bf-53d1-4e39-9a64-fb391bdbd395"},"vehicle_type_id":"4","last_reported":1745039405,"current_range_meters":16000,"station_id":"ce4bhr92rcd13ifvqhsg","pricing_plan_id":"cebpf4jnsgd1na2vs0mg"},{"bike_id":"24213b37-b766-4d9c-a174-f6bf34920497","system_id":"levelo_inurba_marseille","lat":43.28469,"lon":5.384178,"is_reserved":false,"is_disabled":false,"rental_uris":{"android":"levelo://app?vid=24213b37-b766-4d9c-a174-f6bf34920497","ios":"levelo://app?vid=24213b37-b766-4d9c-a174-f6bf34920497"},"vehicle_type_id":"4","last_reported":1745039405,"current_range_meters":16000,"station_id":"ce4bh512rcd13ifvqe3g","pricing_plan_id":"cebpf4jnsgd1na2vs0mg"},{"bike_id":"c0880bb8-23bb-4be6-a64d-333bd751e77f","system_id":"levelo_inurba_marseille","lat":43.303185,"lon":5.404454,"is_reserved":false,"is_disabled":false,"rental_uris":{"android":"levelo://app?vid=c0880bb8-23bb-4be6-a64d-333bd751e77f","ios":"levelo://app?vid=c0880bb8-23bb-4be6-a64d-333bd751e77f"},"vehicle_type_id":"4","last_reported":1745039405,"current_range_meters":16000,"station_id":"ce4bh012rcd13ifvqd10","pricing_plan_id":"cebpf4jnsgd1na2vs0mg"},{"bike_id":"4ad69b0a-e646-4397-97bf-629e6528706b","system_id":"levelo_inurba_marseille","lat":43.31696,"lon":5.37723,"is_reserved":false,"is_disabled":false,"rental_uris":{"android":"levelo://app?vid=4ad69b0a-e646-4397-97bf-629e6528706b","ios":"levelo://app?vid=4ad69b0a-e646-4397-97bf-629e6528706b"},"vehicle_type_id":"4","last_reported":1745039405,"current_range_meters":16000,"station_id":"","pricing_plan_id":"cebpf4jnsgd1na2vs0mg"},{"bike_id":"a2f6ba3b-91f3-4ed9-81a7-6161539b6c68","system_id":"levelo_inurba_marseille","lat":43.284146,"lon":5.349984,"is_reserved":false,"is_disabled":false,"rental_uris":{"android":"levelo://app?vid=a2f6ba3b-91f3-4ed9-81a7-6161539b6c68","ios":"levelo://app?vid=a2f6ba3b-91f3-4ed9-81a7-6161539b6c68"},"vehicle_type_id":"4","last_reported":1745039405,"current_range_meters":16400,"station_id":"ce4bhbh2rcd13ifvqepg","pricing_plan_id":"cebpf4jnsgd1na2vs0mg"},{"bike_id":"1fad1949-da2d-4b93-9386-de1f3dc78d1f","system_id":"levelo_inurba_marseille","lat":43.305913,"lon":5.393573,"is_reserved":false,"is_disabled":true,"rental_uris":{"android":"levelo://app?vid=1fad1949-da2d-4b93-9386-de1f3dc78d1f","ios":"levelo://app?vid=1fad1949-da2d-4b93-9386-de1f3dc78d1f"},"vehicle_type_id":"4","last_reported":1745039405,"current_range_meters":16400,"station_id":"ce4bh0p2rcd13ifvqd80","pricing_plan_id":"cebpf4jnsgd1na2vs0mg"},{"bike_id":"b3850466-f6ca-4cc7-9793-e1ee89a897ad","system_id":"levelo_inurba_marseille","lat":43.3122,"lon":5.3685,"is_reserved":false,"is_disabled":false,"rental_uris":{"android":"levelo://app?vid=b3850466-f6ca-4cc7-9793-e1ee89a897ad","ios":"levelo://app?vid=b3850466-f6ca-4cc7-9793-e1ee89a897ad"},"vehicle_type_id":"4","last_reported":1745039405,"current_range_meters":16400,"station_id":"ce4bgl92rcd13ifvqbq0","pricing_plan_id":"cebpf4jnsgd1na2vs0mg"},{"bike_id":"d05b7cc4-f88b-4d02-ae6c-c344f22c0e5c","system_id":"levelo_inurba_marseille","lat":43.29777,"lon":5.36551,"is_reserved":false,"is_disabled":false,"rental_uris":{"android":"levelo://app?vid=d05b7cc4-f88b-4d02-ae6c-c344f22c0e5c","ios":"levelo://app?vid=d05b7cc4-f88b-4d02-ae6c-c344f22c0e5c"},"vehicle_type_id":"4","last_reported":1745039405,"current_range_meters":16800,"station_id":"","pricing_plan_id":"cebpf4jnsgd1na2vs0mg"},{"bike_id":"0886c839-6192-440b-95c0-a0278bc273d2","system_id":"levelo_inurba_marseille","lat":43.307999,"lon":5.435214,"is_reserved":false,"is_disabled":false,"rental_uris":{"android":"levelo://app?vid=0886c839-6192-440b-95c0-a0278bc273d2","ios":"levelo://app?vid=0886c839-6192-440b-95c0-a0278bc273d2"},"vehicle_type_id":"4","last_reported":1745039405,"current_range_meters":16800,"station_id":"ce4bhph2rcd13ifvqheg","pricing_plan_id":"cebpf4jnsgd1na2vs0mg"},{"bike_id":"15572984-94dd-404c-b34b-0eba775da91a","system_id":"levelo_inurba_marseille","lat":43.250129,"lon":5.389127,"is_reserved":false,"is_disabled":false,"rental_uris":{"android":"levelo://app?vid=15572984-94dd-404c-b34b-0eba775da91a","ios":"levelo://app?vid=15572984-94dd-404c-b34b-0eba775da91a"},"vehicle_type_id":"4","last_reported":1745039405,"current_range_meters":16800,"station_id":"ce4bhgp2rcd13ifvqfd0","pricing_plan_id":"cebpf4jnsgd1na2vs0mg"},{"bike_id":"8b386a13-d7ce-4797-850b-d66b405de4c3","system_id":"levelo_inurba_marseille","lat":43.29568,"lon":5.37643,"is_reserved":false,"is_disabled":false,"rental_uris":{"android":"levelo://app?vid=8b386a13-d7ce-4797-850b-d66b405de4c3","ios":"levelo://app?vid=8b386a13-d7ce-4797-850b-d66b405de4c3"},"vehicle_type_id":"4","last_reported":1745039405,"current_range_meters":16800,"station_id":"","pricing_plan_id":"cebpf4jnsgd1na2vs0mg"},{"bike_id":"91066f0f-54a6-4ac2-930f-479cb9e52f6f","system_id":"levelo_inurba_marseille","lat":43.246645,"lon":5.381594,"is_reserved":false,"is_disabled":false,"rental_uris":{"android":"levelo://app?vid=91066f0f-54a6-4ac2-930f-479cb9e52f6f","ios":"levelo://app?vid=91066f0f-54a6-4ac2-930f-479cb9e52f6f"},"vehicle_type_id":"4","last_reported":1745039405,"current_range_meters":16800,"station_id":"ce4bhih2rcd13ifvqfr0","pricing_plan_id":"cebpf4jnsgd1na2vs0mg"},{"bike_id":"81a2e0e0-777d-40e4-9cb3-2356cc8ef807","system_id":"levelo_inurba_marseille","lat":43.30135,"lon":5.39846,"is_reserved":false,"is_disabled":false,"rental_uris":{"android":"levelo://app?vid=81a2e0e0-777d-40e4-9cb3-2356cc8ef807","ios":"levelo://app?vid=81a2e0e0-777d-40e4-9cb3-2356cc8ef807"},"vehicle_type_id":"4","last_reported":1745039405,"current_range_meters":16800,"station_id":"ce4bh0h2rcd13ifvqd40","pricing_plan_id":"cebpf4jnsgd1na2vs0mg"},{"bike_id":"bd978f2b-72e1-4db2-9223-37e76bd90956","system_id":"levelo_inurba_marseille","lat":43.29483,"lon":5.39055,"is_reserved":false,"is_disabled":false,"rental_uris":{"android":"levelo://app?vid=bd978f2b-72e1-4db2-9223-37e76bd90956","ios":"levelo://app?vid=bd978f2b-72e1-4db2-9223-37e76bd90956"},"vehicle_type_id":"4","last_reported":1745039405,"current_range_meters":16800,"station_id":"ce4bh3p2rcd13ifvqdp0","pricing_plan_id":"cebpf4jnsgd1na2vs0mg"},{"bike_id":"b075c115-a3f9-4f40-83ed-cbc1e8e5f84e","system_id":"levelo_inurba_marseille","lat":43.305467,"lon":5.366974,"is_reserved":false,"is_disabled":true,"rental_uris":{"android":"levelo://app?vid=b075c115-a3f9-4f40-83ed-cbc1e8e5f84e","ios":"levelo://app?vid=b075c115-a3f9-4f40-83ed-cbc1e8e5f84e"},"vehicle_type_id":"4","last_reported":1745039405,"current_range_meters":16800,"station_id":"ce4bgrp2rcd13ifvqc9g","pricing_plan_id":"cebpf4jnsgd1na2vs0mg"},{"bike_id":"1c46e1ef-ecc2-40e9-bb84-3560d46edbc0","system_id":"levelo_inurba_marseille","lat":43.229257,"lon":5.353779,"is_reserved":false,"is_disabled":false,"rental_uris":{"android":"levelo://app?vid=1c46e1ef-ecc2-40e9-bb84-3560d46edbc0","ios":"levelo://app?vid=1c46e1ef-ecc2-40e9-bb84-3560d46edbc0"},"vehicle_type_id":"4","last_reported":1745039405,"current_range_meters":16800,"station_id":"cpo3532slgdg3j2ikp40","pricing_plan_id":"cebpf4jnsgd1na2vs0mg"},{"bike_id":"13b31f8f-095e-4302-ac35-4cfd47f60cb0","system_id":"levelo_inurba_marseille","lat":43.29866,"lon":5.38907,"is_reserved":false,"is_disabled":false,"rental_uris":{"android":"levelo://app?vid=13b31f8f-095e-4302-ac35-4cfd47f60cb0","ios":"levelo://app?vid=13b31f8f-095e-4302-ac35-4cfd47f60cb0"},"vehicle_type_id":"4","last_reported":1745039405,"current_range_meters":16800,"station_id":"ce4bh392rcd13ifvqdl0","pricing_plan_id":"cebpf4jnsgd1na2vs0mg"},{"bike_id":"d0399850-f7a8-4b91-82e0-71d98db1ca05","system_id":"levelo_inurba_marseille","lat":43.310696,"lon":5.383473,"is_reserved":false,"is_disabled":true,"rental_uris":{"android":"levelo://app?vid=d0399850-f7a8-4b91-82e0-71d98db1ca05","ios":"levelo://app?vid=d0399850-f7a8-4b91-82e0-71d98db1ca05"},"vehicle_type_id":"4","last_reported":1745039405,"current_range_meters":16800,"station_id":"ce4bgv92rcd13ifvqcr0","pricing_plan_id":"cebpf4jnsgd1na2vs0mg"},{"bike_id":"91de8706-e2bc-4d69-90d0-ff04ff3ca694","system_id":"levelo_inurba_marseille","lat":43.246473,"lon":5.388862,"is_reserved":false,"is_disabled":false,"rental_uris":{"android":"levelo://app?vid=91de8706-e2bc-4d69-90d0-ff04ff3ca694","ios":"levelo://app?vid=91de8706-e2bc-4d69-90d0-ff04ff3ca694"},"vehicle_type_id":"4","last_reported":1745039405,"current_range_meters":16800,"station_id":"ce4bhg12rcd13ifvqf60","pricing_plan_id":"cebpf4jnsgd1na2vs0mg"},{"bike_id":"a70f54b1-6881-4fc2-914c-3e42e35ac74d","system_id":"levelo_inurba_marseille","lat":43.269351,"lon":5.402578,"is_reserved":false,"is_disabled":false,"rental_uris":{"android":"levelo://app?vid=a70f54b1-6881-4fc2-914c-3e42e35ac74d","ios":"levelo://app?vid=a70f54b1-6881-4fc2-914c-3e42e35ac74d"},"vehicle_type_id":"4","last_reported":1745039405,"current_range_meters":16800,"station_id":"cjm6bp8fraef2m0cb0m0","pricing_plan_id":"cebpf4jnsgd1na2vs0mg"},{"bike_id":"a1b52b69-e42e-4503-a9bb-dbb4d6fbb716","system_id":"levelo_inurba_marseille","lat":43.28713,"lon":5.36095,"is_reserved":false,"is_disabled":false,"rental_uris":{"android":"levelo://app?vid=a1b52b69-e42e-4503-a9bb-dbb4d6fbb716","ios":"levelo://app?vid=a1b52b69-e42e-4503-a9bb-dbb4d6fbb716"},"vehicle_type_id":"4","last_reported":1745039405,"current_range_meters":16800,"station_id":"cki0cbj6b192h4jlfktg","pricing_plan_id":"cebpf4jnsgd1na2vs0mg"},{"bike_id":"c00bd5aa-603b-48d4-b8ed-490d21cb9549","system_id":"levelo_inurba_marseille","lat":43.31024,"lon":5.38366,"is_reserved":false,"is_disabled":false,"rental_uris":{"android":"levelo://app?vid=c00bd5aa-603b-48d4-b8ed-490d21cb9549","ios":"levelo://app?vid=c00bd5aa-603b-48d4-b8ed-490d21cb9549"},"vehicle_type_id":"4","last_reported":1745039405,"current_range_meters":17200,"station_id":"","pricing_plan_id":"cebpf4jnsgd1na2vs0mg"},{"bike_id":"007a8943-514a-4d00-af12-186d61494f50","system_id":"levelo_inurba_marseille","lat":43.30108,"lon":5.3988,"is_reserved":false,"is_disabled":false,"rental_uris":{"android":"levelo://app?vid=007a8943-514a-4d00-af12-186d61494f50","ios":"levelo://app?vid=007a8943-514a-4d00-af12-186d61494f50"},"vehicle_type_id":"4","last_reported":1745039405,"current_range_meters":17200,"station_id":"ce4bh0h2rcd13ifvqd40","pricing_plan_id":"cebpf4jnsgd1na2vs0mg"},{"bike_id":"bb4170fb-2aee-44c9-a8e2-041417bf6973","system_id":"levelo_inurba_marseille","lat":43.240695,"lon":5.377652,"is_reserved":false,"is_disabled":false,"rental_uris":{"android":"levelo://app?vid=bb4170fb-2aee-44c9-a8e2-041417bf6973","ios":"levelo://app?vid=bb4170fb-2aee-44c9-a8e2-041417bf6973"},"vehicle_type_id":"4","last_reported":1745039405,"current_range_meters":17200,"station_id":"ce4bhnp2rcd13ifvqgvg","pricing_plan_id":"cebpf4jnsgd1na2vs0mg"},{"bike_id":"6d2c542b-7061-4bba-9bdf-461e291f90d5","system_id":"levelo_inurba_marseille","lat":43.30884,"lon":5.39642,"is_reserved":false,"is_disabled":false,"rental_uris":{"android":"levelo://app?vid=6d2c542b-7061-4bba-9bdf-461e291f90d5","ios":"levelo://app?vid=6d2c542b-7061-4bba-9bdf-461e291f90d5"},"vehicle_type_id":"4","last_reported":1745039405,"current_range_meters":17200,"station_id":"ce4bh012rcd13ifvqcv0","pricing_plan_id":"cebpf4jnsgd1na2vs0mg"},{"bike_id":"9847b860-8350-4e18-b661-5d15192f1f53","system_id":"levelo_inurba_marseille","lat":43.27307,"lon":5.39109,"is_reserved":false,"is_disabled":true,"rental_uris":{"android":"levelo://app?vid=9847b860-8350-4e18-b661-5d15192f1f53","ios":"levelo://app?vid=9847b860-8350-4e18-b661-5d15192f1f53"},"vehicle_type_id":"4","last_reported":1745039405,"current_range_meters":17200,"station_id":"ce4bhgp2rcd13ifvqfe0","pricing_plan_id":"cebpf4jnsgd1na2vs0mg"},{"bike_id":"0fabe441-18a7-4ca5-b3d6-02a723f7cf99","system_id":"levelo_inurba_marseille","lat":43.22932,"lon":5.35384,"is_reserved":false,"is_disabled":false,"rental_uris":{"android":"levelo://app?vid=0fabe441-18a7-4ca5-b3d6-02a723f7cf99","ios":"levelo://app?vid=0fabe441-18a7-4ca5-b3d6-02a723f7cf99"},"vehicle_type_id":"4","last_reported":1745039405,"current_range_meters":17200,"station_id":"cpo3532slgdg3j2ikp40","pricing_plan_id":"cebpf4jnsgd1na2vs0mg"},{"bike_id":"f528136a-6c8d-4220-beba-8137b07f246a","system_id":"levelo_inurba_marseille","lat":43.30745,"lon":5.42438,"is_reserved":false,"is_disabled":false,"rental_uris":{"android":"levelo://app?vid=f528136a-6c8d-4220-beba-8137b07f246a","ios":"levelo://app?vid=f528136a-6c8d-4220-beba-8137b07f246a"},"vehicle_type_id":"4","last_reported":1745039405,"current_range_meters":17600,"station_id":"st_cvj6ca6bvosntc0bfgr0","pricing_plan_id":"cebpf4jnsgd1na2vs0mg"},{"bike_id":"8a967336-045f-4c1f-84bc-75b15c61e5a3","system_id":"levelo_inurba_marseille","lat":43.24072,"lon":5.37771,"is_reserved":false,"is_disabled":false,"rental_uris":{"android":"levelo://app?vid=8a967336-045f-4c1f-84bc-75b15c61e5a3","ios":"levelo://app?vid=8a967336-045f-4c1f-84bc-75b15c61e5a3"},"vehicle_type_id":"4","last_reported":1745039405,"current_range_meters":17600,"station_id":"ce4bhnp2rcd13ifvqgvg","pricing_plan_id":"cebpf4jnsgd1na2vs0mg"},{"bike_id":"c32777ad-cea8-4e3c-9e8d-0a83fd196c07","system_id":"levelo_inurba_marseille","lat":43.26926,"lon":5.38921,"is_reserved":false,"is_disabled":false,"rental_uris":{"android":"levelo://app?vid=c32777ad-cea8-4e3c-9e8d-0a83fd196c07","ios":"levelo://app?vid=c32777ad-cea8-4e3c-9e8d-0a83fd196c07"},"vehicle_type_id":"4","last_reported":1745039405,"current_range_meters":19200,"station_id":"ce4bhhh2rcd13ifvqfl0","pricing_plan_id":"cebpf4jnsgd1na2vs0mg"},{"bike_id":"c28ea96e-8609-4f86-abff-2bd4c97bc80b","system_id":"levelo_inurba_marseille","lat":43.30743,"lon":5.42437,"is_reserved":false,"is_disabled":false,"rental_uris":{"android":"levelo://app?vid=c28ea96e-8609-4f86-abff-2bd4c97bc80b","ios":"levelo://app?vid=c28ea96e-8609-4f86-abff-2bd4c97bc80b"},"vehicle_type_id":"4","last_reported":1745039405,"current_range_meters":17600,"station_id":"st_cvj6ca6bvosntc0bfgr0","pricing_plan_id":"cebpf4jnsgd1na2vs0mg"},{"bike_id":"01fbd7dc-b2da-4a4a-95a5-3e40b8452636","system_id":"levelo_inurba_marseille","lat":43.25106,"lon":5.40325,"is_reserved":false,"is_disabled":false,"rental_uris":{"android":"levelo://app?vid=01fbd7dc-b2da-4a4a-95a5-3e40b8452636","ios":"levelo://app?vid=01fbd7dc-b2da-4a4a-95a5-3e40b8452636"},"vehicle_type_id":"4","last_reported":1745039405,"current_range_meters":17600,"station_id":"ce4bhlh2rcd13ifvqgig","pricing_plan_id":"cebpf4jnsgd1na2vs0mg"},{"bike_id":"6b5be633-53c2-46c1-9844-cf17620748a5","system_id":"levelo_inurba_marseille","lat":43.29809,"lon":5.40405,"is_reserved":false,"is_disabled":false,"rental_uris":{"android":"levelo://app?vid=6b5be633-53c2-46c1-9844-cf17620748a5","ios":"levelo://app?vid=6b5be633-53c2-46c1-9844-cf17620748a5"},"vehicle_type_id":"4","last_reported":1745039405,"current_range_meters":17600,"station_id":"ce4bh112rcd13ifvqd90","pricing_plan_id":"cebpf4jnsgd1na2vs0mg"},{"bike_id":"b1fbdecd-628d-456e-8ff5-65379f464c6d","system_id":"levelo_inurba_marseille","lat":43.30145,"lon":5.39874,"is_reserved":false,"is_disabled":false,"rental_uris":{"android":"levelo://app?vid=b1fbdecd-628d-456e-8ff5-65379f464c6d","ios":"levelo://app?vid=b1fbdecd-628d-456e-8ff5-65379f464c6d"},"vehicle_type_id":"4","last_reported":1745039405,"current_range_meters":17600,"station_id":"ce4bh0h2rcd13ifvqd40","pricing_plan_id":"cebpf4jnsgd1na2vs0mg"},{"bike_id":"e2104665-0928-4d65-a1ba-6d0d513bf18a","system_id":"levelo_inurba_marseille","lat":43.24159,"lon":5.364,"is_reserved":false,"is_disabled":false,"rental_uris":{"android":"levelo://app?vid=e2104665-0928-4d65-a1ba-6d0d513bf18a","ios":"levelo://app?vid=e2104665-0928-4d65-a1ba-6d0d513bf18a"},"vehicle_type_id":"4","last_reported":1745039405,"current_range_meters":17600,"station_id":"cpo36qri1sfpv3e86is0","pricing_plan_id":"cebpf4jnsgd1na2vs0mg"},{"bike_id":"e49e029e-6b74-48c7-9b4a-75b99918feec","system_id":"levelo_inurba_marseille","lat":43.29796,"lon":5.40406,"is_reserved":false,"is_disabled":false,"rental_uris":{"android":"levelo://app?vid=e49e029e-6b74-48c7-9b4a-75b99918feec","ios":"levelo://app?vid=e49e029e-6b74-48c7-9b4a-75b99918feec"},"vehicle_type_id":"4","last_reported":1745039405,"current_range_meters":18000,"station_id":"ce4bh112rcd13ifvqd90","pricing_plan_id":"cebpf4jnsgd1na2vs0mg"},{"bike_id":"3c301e88-55cb-4368-8ea9-112cb3dfd836","system_id":"levelo_inurba_marseille","lat":43.30883,"lon":5.39644,"is_reserved":false,"is_disabled":false,"rental_uris":{"android":"levelo://app?vid=3c301e88-55cb-4368-8ea9-112cb3dfd836","ios":"levelo://app?vid=3c301e88-55cb-4368-8ea9-112cb3dfd836"},"vehicle_type_id":"4","last_reported":1745039405,"current_range_meters":18000,"station_id":"ce4bh012rcd13ifvqcv0","pricing_plan_id":"cebpf4jnsgd1na2vs0mg"},{"bike_id":"6c881130-765a-402a-b1be-9866f36b9d9b","system_id":"levelo_inurba_marseille","lat":43.27787,"lon":5.40729,"is_reserved":false,"is_disabled":true,"rental_uris":{"android":"levelo://app?vid=6c881130-765a-402a-b1be-9866f36b9d9b","ios":"levelo://app?vid=6c881130-765a-402a-b1be-9866f36b9d9b"},"vehicle_type_id":"4","last_reported":1745039405,"current_range_meters":18000,"station_id":"ce4bhnh2rcd13ifvqgtg","pricing_plan_id":"cebpf4jnsgd1na2vs0mg"},{"bike_id":"00879c1d-a962-4133-ba5d-8de0f524e6f5","system_id":"levelo_inurba_marseille","lat":43.27508,"lon":5.42473,"is_reserved":false,"is_disabled":false,"rental_uris":{"android":"levelo://app?vid=00879c1d-a962-4133-ba5d-8de0f524e6f5","ios":"levelo://app?vid=00879c1d-a962-4133-ba5d-8de0f524e6f5"},"vehicle_type_id":"4","last_reported":1745039405,"current_range_meters":18000,"station_id":"ce4bhn92rcd13ifvqgrg","pricing_plan_id":"cebpf4jnsgd1na2vs0mg"},{"bike_id":"a8a5d61c-36b6-466e-b35e-420a6e8765de","system_id":"levelo_inurba_marseille","lat":43.309315,"lon":5.40146,"is_reserved":false,"is_disabled":false,"rental_uris":{"android":"levelo://app?vid=a8a5d61c-36b6-466e-b35e-420a6e8765de","ios":"levelo://app?vid=a8a5d61c-36b6-466e-b35e-420a6e8765de"},"vehicle_type_id":"4","last_reported":1745039405,"current_range_meters":18800,"station_id":"ce4bgvp2rcd13ifvqct0","pricing_plan_id":"cebpf4jnsgd1na2vs0mg"},{"bike_id":"0ce552e9-720f-4c93-b828-3c63f7f4928d","system_id":"levelo_inurba_marseille","lat":43.31126,"lon":5.37738,"is_reserved":false,"is_disabled":false,"rental_uris":{"android":"levelo://app?vid=0ce552e9-720f-4c93-b828-3c63f7f4928d","ios":"levelo://app?vid=0ce552e9-720f-4c93-b828-3c63f7f4928d"},"vehicle_type_id":"4","last_reported":1745039405,"current_range_meters":18800,"station_id":"ce4bgt92rcd13ifvqcg0","pricing_plan_id":"cebpf4jnsgd1na2vs0mg"},{"bike_id":"05772e29-e28d-4de5-8dce-055a765d636f","system_id":"levelo_inurba_marseille","lat":43.29042,"lon":5.39965,"is_reserved":false,"is_disabled":false,"rental_uris":{"android":"levelo://app?vid=05772e29-e28d-4de5-8dce-055a765d636f","ios":"levelo://app?vid=05772e29-e28d-4de5-8dce-055a765d636f"},"vehicle_type_id":"4","last_reported":1745039405,"current_range_meters":19200,"station_id":"ce4bh392rcd13ifvqdm0","pricing_plan_id":"cebpf4jnsgd1na2vs0mg"},{"bike_id":"b71bb904-421e-4c4e-b38c-fa08e6c93681","system_id":"levelo_inurba_marseille","lat":43.309115,"lon":5.401703,"is_reserved":false,"is_disabled":false,"rental_uris":{"android":"levelo://app?vid=b71bb904-421e-4c4e-b38c-fa08e6c93681","ios":"levelo://app?vid=b71bb904-421e-4c4e-b38c-fa08e6c93681"},"vehicle_type_id":"4","last_reported":1745039405,"current_range_meters":19200,"station_id":"ce4bgvp2rcd13ifvqct0","pricing_plan_id":"cebpf4jnsgd1na2vs0mg"},{"bike_id":"c0f5e4f3-3aab-48bd-afce-ce47388832b1","system_id":"levelo_inurba_marseille","lat":43.22947,"lon":5.35392,"is_reserved":false,"is_disabled":false,"rental_uris":{"android":"levelo://app?vid=c0f5e4f3-3aab-48bd-afce-ce47388832b1","ios":"levelo://app?vid=c0f5e4f3-3aab-48bd-afce-ce47388832b1"},"vehicle_type_id":"4","last_reported":1745039405,"current_range_meters":19200,"station_id":"cpo3532slgdg3j2ikp40","pricing_plan_id":"cebpf4jnsgd1na2vs0mg"},{"bike_id":"565a326b-ba23-4419-9c31-384c6ec8d8b0","system_id":"levelo_inurba_marseille","lat":43.25107,"lon":5.40336,"is_reserved":false,"is_disabled":false,"rental_uris":{"android":"levelo://app?vid=565a326b-ba23-4419-9c31-384c6ec8d8b0","ios":"levelo://app?vid=565a326b-ba23-4419-9c31-384c6ec8d8b0"},"vehicle_type_id":"4","last_reported":1745039405,"current_range_meters":19200,"station_id":"ce4bhlh2rcd13ifvqgig","pricing_plan_id":"cebpf4jnsgd1na2vs0mg"},{"bike_id":"d9fd32d7-3cda-4c2f-8802-a58eaf159ea1","system_id":"levelo_inurba_marseille","lat":43.26558,"lon":5.37305,"is_reserved":false,"is_disabled":false,"rental_uris":{"android":"levelo://app?vid=d9fd32d7-3cda-4c2f-8802-a58eaf159ea1","ios":"levelo://app?vid=d9fd32d7-3cda-4c2f-8802-a58eaf159ea1"},"vehicle_type_id":"4","last_reported":1745039405,"current_range_meters":19200,"station_id":"ce4bhg12rcd13ifvqf70","pricing_plan_id":"cebpf4jnsgd1na2vs0mg"},{"bike_id":"d2c0d9b4-2387-46d4-9bbe-958af069e96f","system_id":"levelo_inurba_marseille","lat":43.292463,"lon":5.409058,"is_reserved":false,"is_disabled":false,"rental_uris":{"android":"levelo://app?vid=d2c0d9b4-2387-46d4-9bbe-958af069e96f","ios":"levelo://app?vid=d2c0d9b4-2387-46d4-9bbe-958af069e96f"},"vehicle_type_id":"4","last_reported":1745039405,"current_range_meters":19200,"station_id":"ce4bh192rcd13ifvqdc0","pricing_plan_id":"cebpf4jnsgd1na2vs0mg"},{"bike_id":"516c3ed7-4c63-42bf-9e96-a9d89884b233","system_id":"levelo_inurba_marseille","lat":43.29281,"lon":5.40127,"is_reserved":false,"is_disabled":false,"rental_uris":{"android":"levelo://app?vid=516c3ed7-4c63-42bf-9e96-a9d89884b233","ios":"levelo://app?vid=516c3ed7-4c63-42bf-9e96-a9d89884b233"},"vehicle_type_id":"4","last_reported":1745039405,"current_range_meters":19200,"station_id":"ce4bh312rcd13ifvqdk0","pricing_plan_id":"cebpf4jnsgd1na2vs0mg"},{"bike_id":"bb89e80b-d4ed-4ba1-9ea8-de0a8b8d90df","system_id":"levelo_inurba_marseille","lat":43.31352,"lon":5.39706,"is_reserved":false,"is_disabled":false,"rental_uris":{"android":"levelo://app?vid=bb89e80b-d4ed-4ba1-9ea8-de0a8b8d90df","ios":"levelo://app?vid=bb89e80b-d4ed-4ba1-9ea8-de0a8b8d90df"},"vehicle_type_id":"4","last_reported":1745039405,"current_range_meters":19200,"station_id":"ce4bgvp2rcd13ifvqcu0","pricing_plan_id":"cebpf4jnsgd1na2vs0mg"},{"bike_id":"a2c548ce-e567-45fd-91e2-6a9379f6614c","system_id":"levelo_inurba_marseille","lat":43.30879,"lon":5.39637,"is_reserved":false,"is_disabled":false,"rental_uris":{"android":"levelo://app?vid=a2c548ce-e567-45fd-91e2-6a9379f6614c","ios":"levelo://app?vid=a2c548ce-e567-45fd-91e2-6a9379f6614c"},