{"last_updated":1731071750,"ttl":60,"version":"2.2","data":{"bikes":[{"bike_id":"0c4f7cd5-af8a-4eae-be04-2bd5279f7358","system_id":"levelo_inurba_marseille","lat":43.291,"lon":5.38142,"is_reserved":false,"is_disabled":false,"rental_uris":{"android":"levelo://app?vid=0c4f7cd5-af8a-4eae-be04-2bd5279f7358","ios":"levelo://app?vid=0c4f7cd5-af8a-4eae-be04-2bd5279f7358"},"vehicle_type_id":"4","last_reported":1731071750,"current_range_meters":23200,"station_id":"ce4bh512rcd13ifvqe2g","pricing_plan_id":"cebpf4jnsgd1na2vs0mg"},{"bike_id":"6dd4d8b8-553d-49a9-9ec0-8e06927cfe70","system_id":"levelo_inurba_marseille","lat":43.27672,"lon":5.38929,"is_reserved":false,"is_disabled":false,"rental_uris":{"android":"levelo://app?vid=6dd4d8b8-553d-49a9-9ec0-8e06927cfe70","ios":"levelo://app?vid=6dd4d8b8-553d-49a9-9ec0-8e06927cfe70"},"vehicle_type_id":"4","last_reported":1731071750,"current_range_meters":36000,"station_id":"ce4bhi12rcd13ifvqfo0","pricing_plan_id":"cebpf4jnsgd1na2vs0mg"},{"bike_id":"1151f7c9-e122-4e41-a2b9-3d1ee51da486","system_id":"levelo_inurba_marseille","lat":43.2985,"lon":5.36253,"is_reserved":false,"is_disabled":false,"rental_uris":{"android":"levelo://app?vid=1151f7c9-e122-4e41-a2b9-3d1ee51da486","ios":"levelo://app?vid=1151f7c9-e122-4e41-a2b9-3d1ee51da486"},"vehicle_type_id":"4","last_reported":1731071750,"current_range_meters":22800,"station_id":"ce4bgpp2rcd13ifvqc3g","pricing_plan_id":"cebpf4jnsgd1na2vs0mg"},{"bike_id":"c2e15428-d2ba-434b-9f47-55afdd0f856a","system_id":"levelo_inurba_marseille","lat":43.28268,"lon":5.35067,"is_reserved":false,"is_disabled":false,"rental_uris":{"android":"levelo://app?vid=c2e15428-d2ba-434b-9f47-55afdd0f856a","ios":"levelo://app?vid=c2e15428-d2ba-434b-9f47-55afdd0f856a"},"vehicle_type_id":"4","last_reported":1731071750,"current_range_meters":8400,"station_id":"ce4bhbp2rcd13ifvqerg","pricing_plan_id":"cebpf4jnsgd1na2vs0mg"},{"bike_id":"c55ba6b0-8766-42a5-8448-b05670acebea","system_id":"levelo_inurba_marseille","lat":43.26208,"lon":5.37441,"is_reserved":false,"is_disabled":false,"rental_uris":{"android":"levelo://app?vid=c55ba6b0-8766-42a5-8448-b05670acebea","ios":"levelo://app?vid=c55ba6b0-8766-42a5-8448-b05670acebea"},"vehicle_type_id":"4","last_reported":1731071750,"current_range_meters":28000,"station_id":"ce4bhgp2rcd13ifvqfc0","pricing_plan_id":"cebpf4jnsgd1na2vs0mg"},{"bike_id":"f4b9f796-16d8-4ff8-92f6-796de87138bb","system_id":"levelo_inurba_marseille","lat":43.2958,"lon":5.36745,"is_reserved":false,"is_disabled":false,"rental_uris":{"android":"levelo://app?vid=f4b9f796-16d8-4ff8-92f6-796de87138bb","ios":"levelo://app?vid=f4b9f796-16d8-4ff8-92f6-796de87138bb"},"vehicle_type_id":"4","last_reported":1731071750,"current_range_meters":35200,"station_id":"ce4bgph2rcd13ifvqc2g","pricing_plan_id":"cebpf4jnsgd1na2vs0mg"},{"bike_id":"72e9e90c-3fe6-4ae7-bf78-3a78b52770e5","system_id":"levelo_inurba_marseille","lat":43.29043,"lon":5.3997,"is_reserved":false,"is_disabled":false,"rental_uris":{"android":"levelo://app?vid=72e9e90c-3fe6-4ae7-bf78-3a78b52770e5","ios":"levelo://app?vid=72e9e90c-3fe6-4ae7-bf78-3a78b52770e5"},"vehicle_type_id":"4","last_reported":1731071750,"current_range_meters":36000,"station_id":"ce4bh392rcd13ifvqdm0","pricing_plan_id":"cebpf4jnsgd1na2vs0mg"},{"bike_id":"7f774ae5-6cb7-4c53-91e0-4e9519e7a5f3","system_id":"levelo_inurba_marseille","lat":43.31726,"lon":5.42386,"is_reserved":false,"is_disabled":false,"rental_uris":{"android":"levelo://app?vid=7f774ae5-6cb7-4c53-91e0-4e9519e7a5f3","ios":"levelo://app?vid=7f774ae5-6cb7-4c53-91e0-4e9519e7a5f3"},"vehicle_type_id":"4","last_reported":1731071750,"current_range_meters":30800,"station_id":"ce4bhp92rcd13ifvqhbg","pricing_plan_id":"cebpf4jnsgd1na2vs0mg"},{"bike_id":"dd72e57e-0163-460a-a25f-78231d1d5490","system_id":"levelo_inurba_marseille","lat":43.295427,"lon":5.374933,"is_reserved":false,"is_disabled":false,"rental_uris":{"android":"levelo://app?vid=dd72e57e-0163-460a-a25f-78231d1d5490","ios":"levelo://app?vid=dd72e57e-0163-460a-a25f-78231d1d5490"},"vehicle_type_id":"4","last_reported":1731071750,"current_range_meters":38000,"station_id":"ce4bgkp2rcd13ifvqbmg","pricing_plan_id":"cebpf4jnsgd1na2vs0mg"},{"bike_id":"3be020d0-d14a-4b26-8243-12c3a44122c5","system_id":"levelo_inurba_marseille","lat":43.24249,"lon":5.37121,"is_reserved":false,"is_disabled":false,"rental_uris":{"android":"levelo://app?vid=3be020d0-d14a-4b26-8243-12c3a44122c5","ios":"levelo://app?vid=3be020d0-d14a-4b26-8243-12c3a44122c5"},"vehicle_type_id":"4","last_reported":1731071750,"current_range_meters":16400,"station_id":"","pricing_plan_id":"cebpf4jnsgd1na2vs0mg"},{"bike_id":"41dc0cdc-e2a3-4364-9502-e92dd8e24227","system_id":"levelo_inurba_marseille","lat":43.31362,"lon":5.36719,"is_reserved":false,"is_disabled":false,"rental_uris":{"android":"levelo://app?vid=41dc0cdc-e2a3-4364-9502-e92dd8e24227","ios":"levelo://app?vid=41dc0cdc-e2a3-4364-9502-e92dd8e24227"},"vehicle_type_id":"4","last_reported":1731071750,"current_range_meters":12800,"station_id":"ce4bgr92rcd13ifvqc6g","pricing_plan_id":"cebpf4jnsgd1na2vs0mg"},{"bike_id":"85ec6972-2474-4903-af30-b7a390d3db72","system_id":"levelo_inurba_marseille","lat":43.26203,"lon":5.37447,"is_reserved":false,"is_disabled":false,"rental_uris":{"android":"levelo://app?vid=85ec6972-2474-4903-af30-b7a390d3db72","ios":"levelo://app?vid=85ec6972-2474-4903-af30-b7a390d3db72"},"vehicle_type_id":"4","last_reported":1731071750,"current_range_meters":35600,"station_id":"ce4bhgp2rcd13ifvqfc0","pricing_plan_id":"cebpf4jnsgd1na2vs0mg"},{"bike_id":"c88f1b31-dd3c-4e82-a81a-152198c83c26","system_id":"levelo_inurba_marseille","lat":43.31225,"lon":5.36868,"is_reserved":false,"is_disabled":false,"rental_uris":{"android":"levelo://app?vid=c88f1b31-dd3c-4e82-a81a-152198c83c26","ios":"levelo://app?vid=c88f1b31-dd3c-4e82-a81a-152198c83c26"},"vehicle_type_id":"4","last_reported":1731071750,"current_range_meters":9200,"station_id":"ce4bgl92rcd13ifvqbq0","pricing_plan_id":"cebpf4jnsgd1na2vs0mg"},{"bike_id":"40649bdd-4a2f-4b19-99ba-6224afd5a562","system_id":"levelo_inurba_marseille","lat":43.30134,"lon":5.37415,"is_reserved":false,"is_disabled":false,"rental_uris":{"android":"levelo://app?vid=40649bdd-4a2f-4b19-99ba-6224afd5a562","ios":"levelo://app?vid=40649bdd-4a2f-4b19-99ba-6224afd5a562"},"vehicle_type_id":"4","last_reported":1731071750,"current_range_meters":8800,"station_id":"ce4bgs92rcd13ifvqcc0","pricing_plan_id":"cebpf4jnsgd1na2vs0mg"},{"bike_id":"504e5d62-7828-485f-b5c5-e0859c494a6c","system_id":"levelo_inurba_marseille","lat":43.32479,"lon":5.36565,"is_reserved":false,"is_disabled":false,"rental_uris":{"android":"levelo://app?vid=504e5d62-7828-485f-b5c5-e0859c494a6c","ios":"levelo://app?vid=504e5d62-7828-485f-b5c5-e0859c494a6c"},"vehicle_type_id":"4","last_reported":1731071750,"current_range_meters":36400,"station_id":"ce4bhs12rcd13ifvqhvg","pricing_plan_id":"cebpf4jnsgd1na2vs0mg"},{"bike_id":"74cb9b7e-ecd6-4552-af7e-d09021f8d0af","system_id":"levelo_inurba_marseille","lat":43.27838,"lon":5.39209,"is_reserved":false,"is_disabled":false,"rental_uris":{"android":"levelo://app?vid=74cb9b7e-ecd6-4552-af7e-d09021f8d0af","ios":"levelo://app?vid=74cb9b7e-ecd6-4552-af7e-d09021f8d0af"},"vehicle_type_id":"4","last_reported":1731071750,"current_range_meters":7200,"station_id":"ce4bhjp2rcd13ifvqga0","pricing_plan_id":"cebpf4jnsgd1na2vs0mg"},{"bike_id":"80ede611-0400-4314-bb97-6b43003d136b","system_id":"levelo_inurba_marseille","lat":43.30536,"lon":5.367,"is_reserved":false,"is_disabled":false,"rental_uris":{"android":"levelo://app?vid=80ede611-0400-4314-bb97-6b43003d136b","ios":"levelo://app?vid=80ede611-0400-4314-bb97-6b43003d136b"},"vehicle_type_id":"4","last_reported":1731071750,"current_range_meters":38800,"station_id":"ce4bgrp2rcd13ifvqc9g","pricing_plan_id":"cebpf4jnsgd1na2vs0mg"},{"bike_id":"8ee32fc1-c959-4cce-bf0d-44c1c5eb26e1","system_id":"levelo_inurba_marseille","lat":43.3028,"lon":5.37697,"is_reserved":false,"is_disabled":false,"rental_uris":{"android":"levelo://app?vid=8ee32fc1-c959-4cce-bf0d-44c1c5eb26e1","ios":"levelo://app?vid=8ee32fc1-c959-4cce-bf0d-44c1c5eb26e1"},"vehicle_type_id":"4","last_reported":1731071750,"current_range_meters":18000,"station_id":"ce4bguh2rcd13ifvqcj0","pricing_plan_id":"cebpf4jnsgd1na2vs0mg"},{"bike_id":"e382a5f5-b97c-4326-befe-74fa542b41c7","system_id":"levelo_inurba_marseille","lat":43.23152,"lon":5.4371,"is_reserved":false,"is_disabled":false,"rental_uris":{"android":"levelo://app?vid=e382a5f5-b97c-4326-befe-74fa542b41c7","ios":"levelo://app?vid=e382a5f5-b97c-4326-befe-74fa542b41c7"},"vehicle_type_id":"4","last_reported":1731071750,"current_range_meters":28000,"station_id":"ce4bhmp2rcd13ifvqgog","pricing_plan_id":"cebpf4jnsgd1na2vs0mg"},{"bike_id":"f4d24dc2-93b6-4cc1-bfe0-dec97c1a5a80","system_id":"levelo_inurba_marseille","lat":43.29033,"lon":5.37566,"is_reserved":false,"is_disabled":false,"rental_uris":{"android":"levelo://app?vid=f4d24dc2-93b6-4cc1-bfe0-dec97c1a5a80","ios":"levelo://app?vid=f4d24dc2-93b6-4cc1-bfe0-dec97c1a5a80"},"vehicle_type_id":"4","last_reported":1731071750,"current_range_meters":27600,"station_id":"ce4bh692rcd13ifvqe90","pricing_plan_id":"cebpf4jnsgd1na2vs0mg"},{"bike_id":"4d048441-1e1f-4ed2-947c-a5d5c9275dfd","system_id":"levelo_inurba_marseille","lat":43.28108,"lon":5.37833,"is_reserved":false,"is_disabled":false,"rental_uris":{"android":"levelo://app?vid=4d048441-1e1f-4ed2-947c-a5d5c9275dfd","ios":"levelo://app?vid=4d048441-1e1f-4ed2-947c-a5d5c9275dfd"},"vehicle_type_id":"4","last_reported":1731071750,"current_range_meters":25200,"station_id":"ce4bha12rcd13ifvqee0","pricing_plan_id":"cebpf4jnsgd1na2vs0mg"},{"bike_id":"e22b98a5-9773-4f71-85ed-e74c4dff6249","system_id":"levelo_inurba_marseille","lat":43.30541,"lon":5.36708,"is_reserved":false,"is_disabled":false,"rental_uris":{"android":"levelo://app?vid=e22b98a5-9773-4f71-85ed-e74c4dff6249","ios":"levelo://app?vid=e22b98a5-9773-4f71-85ed-e74c4dff6249"},"vehicle_type_id":"4","last_reported":1731071750,"current_range_meters":29600,"station_id":"ce4bgrp2rcd13ifvqc9g","pricing_plan_id":"cebpf4jnsgd1na2vs0mg"},{"bike_id":"6cd637df-ccc3-4eda-a95d-926a7583846b","system_id":"levelo_inurba_marseille","lat":43.31687,"lon":5.40476,"is_reserved":false,"is_disabled":false,"rental_uris":{"android":"levelo://app?vid=6cd637df-ccc3-4eda-a95d-926a7583846b","ios":"levelo://app?vid=6cd637df-ccc3-4eda-a95d-926a7583846b"},"vehicle_type_id":"4","last_reported":1731071750,"current_range_meters":31200,"station_id":"ce4bh012rcd13ifvqd00","pricing_plan_id":"cebpf4jnsgd1na2vs0mg"},{"bike_id":"18e80a43-568d-4d3b-88b4-c7568a83b037","system_id":"levelo_inurba_marseille","lat":43.2926,"lon":5.38446,"is_reserved":false,"is_disabled":false,"rental_uris":{"android":"levelo://app?vid=18e80a43-568d-4d3b-88b4-c7568a83b037","ios":"levelo://app?vid=18e80a43-568d-4d3b-88b4-c7568a83b037"},"vehicle_type_id":"4","last_reported":1731071750,"current_range_meters":16800,"station_id":"ce4bh692rcd13ifvqea0","pricing_plan_id":"cebpf4jnsgd1na2vs0mg"},{"bike_id":"3e1d0ac1-41eb-46d6-868b-1f98af7efa91","system_id":"levelo_inurba_marseille","lat":43.30348,"lon":5.41875,"is_reserved":false,"is_disabled":false,"rental_uris":{"android":"levelo://app?vid=3e1d0ac1-41eb-46d6-868b-1f98af7efa91","ios":"levelo://app?vid=3e1d0ac1-41eb-46d6-868b-1f98af7efa91"},"vehicle_type_id":"4","last_reported":1731071750,"current_range_meters":12000,"station_id":"ce4bhop2rcd13ifvqh7g","pricing_plan_id":"cebpf4jnsgd1na2vs0mg"},{"bike_id":"e02419a2-7e10-42e6-99d0-1f15eb60cb10","system_id":"levelo_inurba_marseille","lat":43.27688,"lon":5.38915,"is_reserved":false,"is_disabled":false,"rental_uris":{"android":"levelo://app?vid=e02419a2-7e10-42e6-99d0-1f15eb60cb10","ios":"levelo://app?vid=e02419a2-7e10-42e6-99d0-1f15eb60cb10"},"vehicle_type_id":"4","last_reported":1731071750,"current_range_meters":22000,"station_id":"ce4bhi12rcd13ifvqfo0","pricing_plan_id":"cebpf4jnsgd1na2vs0mg"},{"bike_id":"1edff315-e785-4c28-b81d-974a273c8f66","system_id":"levelo_inurba_marseille","lat":43.24067,"lon":5.37765,"is_reserved":false,"is_disabled":false,"rental_uris":{"android":"levelo://app?vid=1edff315-e785-4c28-b81d-974a273c8f66","ios":"levelo://app?vid=1edff315-e785-4c28-b81d-974a273c8f66"},"vehicle_type_id":"4","last_reported":1731071750,"current_range_meters":6400,"station_id":"ce4bhnp2rcd13ifvqgvg","pricing_plan_id":"cebpf4jnsgd1na2vs0mg"},{"bike_id":"ce23bc23-f800-43e2-93fb-378d92089b6e","system_id":"levelo_inurba_marseille","lat":43.25499,"lon":5.3765,"is_reserved":false,"is_disabled":false,"rental_uris":{"android":"levelo://app?vid=ce23bc23-f800-43e2-93fb-378d92089b6e","ios":"levelo://app?vid=ce23bc23-f800-43e2-93fb-378d92089b6e"},"vehicle_type_id":"4","last_reported":1731071750,"current_range_meters":32400,"station_id":"ce4bhh12rcd13ifvqff0","pricing_plan_id":"cebpf4jnsgd1na2vs0mg"},{"bike_id":"f02f6348-7d80-4075-9fd0-a32acf641868","system_id":"levelo_inurba_marseille","lat":43.25502,"lon":5.3765,"is_reserved":false,"is_disabled":false,"rental_uris":{"android":"levelo://app?vid=f02f6348-7d80-4075-9fd0-a32acf641868","ios":"levelo://app?vid=f02f6348-7d80-4075-9fd0-a32acf641868"},"vehicle_type_id":"4","last_reported":1731071750,"current_range_meters":19600,"station_id":"ce4bhh12rcd13ifvqff0","pricing_plan_id":"cebpf4jnsgd1na2vs0mg"},{"bike_id":"3d32f789-a044-47cc-8444-b1887a88a83f","system_id":"levelo_inurba_marseille","lat":43.3055,"lon":5.36714,"is_reserved":false,"is_disabled":false,"rental_uris":{"android":"levelo://app?vid=3d32f789-a044-47cc-8444-b1887a88a83f","ios":"levelo://app?vid=3d32f789-a044-47cc-8444-b1887a88a83f"},"vehicle_type_id":"4","last_reported":1731071750,"current_range_meters":38000,"station_id":"ce4bgrp2rcd13ifvqc9g","pricing_plan_id":"cebpf4jnsgd1na2vs0mg"},{"bike_id":"ea3e44e4-5607-432c-a36c-1dd1c2026358","system_id":"levelo_inurba_marseille","lat":43.32368,"lon":5.38886,"is_reserved":false,"is_disabled":false,"rental_uris":{"android":"levelo://app?vid=ea3e44e4-5607-432c-a36c-1dd1c2026358","ios":"levelo://app?vid=ea3e44e4-5607-432c-a36c-1dd1c2026358"},"vehicle_type_id":"4","last_reported":1731071750,"current_range_meters":35200,"station_id":"ce4bhqp2rcd13ifvqhog","pricing_plan_id":"cebpf4jnsgd1na2vs0mg"},{"bike_id":"533a9f77-d491-4dcc-a301-f4805bc01f05","system_id":"levelo_inurba_marseille","lat":43.24386,"lon":5.37057,"is_reserved":false,"is_disabled":false,"rental_uris":{"android":"levelo://app?vid=533a9f77-d491-4dcc-a301-f4805bc01f05","ios":"levelo://app?vid=533a9f77-d491-4dcc-a301-f4805bc01f05"},"vehicle_type_id":"4","last_reported":1731071750,"current_range_meters":30800,"station_id":"ce4bhhh2rcd13ifvqfk0","pricing_plan_id":"cebpf4jnsgd1na2vs0mg"},{"bike_id":"7c5afddb-3d61-4c9b-a8b1-d221327ecc9f","system_id":"levelo_inurba_marseille","lat":43.30946,"lon":5.39032,"is_reserved":false,"is_disabled":false,"rental_uris":{"android":"levelo://app?vid=7c5afddb-3d61-4c9b-a8b1-d221327ecc9f","ios":"levelo://app?vid=7c5afddb-3d61-4c9b-a8b1-d221327ecc9f"},"vehicle_type_id":"4","last_reported":1731071750,"current_range_meters":39200,"station_id":"ce4bgup2rcd13ifvqco0","pricing_plan_id":"cebpf4jnsgd1na2vs0mg"},{"bike_id":"1ed8831a-a3da-44b2-8f67-fa4791d6ae74","system_id":"levelo_inurba_marseille","lat":43.28151,"lon":5.42638,"is_reserved":false,"is_disabled":false,"rental_uris":{"android":"levelo://app?vid=1ed8831a-a3da-44b2-8f67-fa4791d6ae74","ios":"levelo://app?vid=1ed8831a-a3da-44b2-8f67-fa4791d6ae74"},"vehicle_type_id":"4","last_reported":1731071750,"current_range_meters":32000,"station_id":"ce4bhnh2rcd13ifvqgug","pricing_plan_id":"cebpf4jnsgd1na2vs0mg"},{"bike_id":"c58d3c01-b430-46ee-a829-9d8a402341e2","system_id":"levelo_inurba_marseille","lat":43.28718,"lon":5.37943,"is_reserved":false,"is_disabled":false,"rental_uris":{"android":"levelo://app?vid=c58d3c01-b430-46ee-a829-9d8a402341e2","ios":"levelo://app?vid=c58d3c01-b430-46ee-a829-9d8a402341e2"},"vehicle_type_id":"4","last_reported":1731071750,"current_range_meters":26000,"station_id":"ce4bh9p2rcd13ifvqec0","pricing_plan_id":"cebpf4jnsgd1na2vs0mg"},{"bike_id":"22c2910c-c395-401a-9c60-3a72ab53ce1d","system_id":"levelo_inurba_marseille","lat":43.26543,"lon":5.39502,"is_reserved":false,"is_disabled":false,"rental_uris":{"android":"levelo://app?vid=22c2910c-c395-401a-9c60-3a72ab53ce1d","ios":"levelo://app?vid=22c2910c-c395-401a-9c60-3a72ab53ce1d"},"vehicle_type_id":"4","last_reported":1731071750,"current_range_meters":30800,"station_id":"ce4bhh12rcd13ifvqfg0","pricing_plan_id":"cebpf4jnsgd1na2vs0mg"},{"bike_id":"f4ef053d-e709-4411-bdd9-de1d0f41e46f","system_id":"levelo_inurba_marseille","lat":43.2293,"lon":5.35374,"is_reserved":false,"is_disabled":false,"rental_uris":{"android":"levelo://app?vid=f4ef053d-e709-4411-bdd9-de1d0f41e46f","ios":"levelo://app?vid=f4ef053d-e709-4411-bdd9-de1d0f41e46f"},"vehicle_type_id":"4","last_reported":1731071750,"current_range_meters":39200,"station_id":"cpo3532slgdg3j2ikp40","pricing_plan_id":"cebpf4jnsgd1na2vs0mg"},{"bike_id":"2cfefc2b-883e-4c09-9ec7-d916256d2c51","system_id":"levelo_inurba_marseille","lat":43.28927,"lon":5.36632,"is_reserved":false,"is_disabled":false,"rental_uris":{"android":"levelo://app?vid=2cfefc2b-883e-4c09-9ec7-d916256d2c51","ios":"levelo://app?vid=2cfefc2b-883e-4c09-9ec7-d916256d2c51"},"vehicle_type_id":"4","last_reported":1731071750,"current_range_meters":20800,"station_id":"ce4bhap2rcd13ifvqek0","pricing_plan_id":"cebpf4jnsgd1na2vs0mg"},{"bike_id":"33e2e127-b1c0-4156-80b5-b675713f59cd","system_id":"levelo_inurba_marseille","lat":43.25579,"lon":5.38251,"is_reserved":false,"is_disabled":false,"rental_uris":{"android":"levelo://app?vid=33e2e127-b1c0-4156-80b5-b675713f59cd","ios":"levelo://app?vid=33e2e127-b1c0-4156-80b5-b675713f59cd"},"vehicle_type_id":"4","last_reported":1731071750,"current_range_meters":34000,"station_id":"ce4bhih2rcd13ifvqfs0","pricing_plan_id":"cebpf4jnsgd1na2vs0mg"},{"bike_id":"79f54653-1ab3-4cca-a17c-debcd6225c2e","system_id":"levelo_inurba_marseille","lat":43.31168,"lon":5.3872,"is_reserved":false,"is_disabled":false,"rental_uris":{"android":"levelo://app?vid=79f54653-1ab3-4cca-a17c-debcd6225c2e","ios":"levelo://app?vid=79f54653-1ab3-4cca-a17c-debcd6225c2e"},"vehicle_type_id":"4","last_reported":1731071750,"current_range_meters":8800,"station_id":"ce4bgv12rcd13ifvqcp0","pricing_plan_id":"cebpf4jnsgd1na2vs0mg"},{"bike_id":"97a95198-b9ed-4ee4-87b5-64fa27bf44a2","system_id":"levelo_inurba_marseille","lat":43.30885,"lon":5.39653,"is_reserved":false,"is_disabled":false,"rental_uris":{"android":"levelo://app?vid=97a95198-b9ed-4ee4-87b5-64fa27bf44a2","ios":"levelo://app?vid=97a95198-b9ed-4ee4-87b5-64fa27bf44a2"},"vehicle_type_id":"4","last_reported":1731071750,"current_range_meters":38000,"station_id":"ce4bh012rcd13ifvqcv0","pricing_plan_id":"cebpf4jnsgd1na2vs0mg"},{"bike_id":"7a419be2-700a-40fe-9a2e-c4d1abef876c","system_id":"levelo_inurba_marseille","lat":43.23155,"lon":5.43706,"is_reserved":false,"is_disabled":false,"rental_uris":{"android":"levelo://app?vid=7a419be2-700a-40fe-9a2e-c4d1abef876c","ios":"levelo://app?vid=7a419be2-700a-40fe-9a2e-c4d1abef876c"},"vehicle_type_id":"4","last_reported":1731071750,"current_range_meters":4400,"station_id":"ce4bhmp2rcd13ifvqgog","pricing_plan_id":"cebpf4jnsgd1na2vs0mg"},{"bike_id":"88b6369f-01c0-4072-be44-e2c31f1ba005","system_id":"levelo_inurba_marseille","lat":43.25582,"lon":5.38226,"is_reserved":false,"is_disabled":false,"rental_uris":{"android":"levelo://app?vid=88b6369f-01c0-4072-be44-e2c31f1ba005","ios":"levelo://app?vid=88b6369f-01c0-4072-be44-e2c31f1ba005"},"vehicle_type_id":"4","last_reported":1731071750,"current_range_meters":36400,"station_id":"ce4bhih2rcd13ifvqfs0","pricing_plan_id":"cebpf4jnsgd1na2vs0mg"},{"bike_id":"ca10a5c3-f3ce-4f91-8de9-8bcbe8db6bbe","system_id":"levelo_inurba_marseille","lat":43.24367,"lon":5.38594,"is_reserved":false,"is_disabled":false,"rental_uris":{"android":"levelo://app?vid=ca10a5c3-f3ce-4f91-8de9-8bcbe8db6bbe","ios":"levelo://app?vid=ca10a5c3-f3ce-4f91-8de9-8bcbe8db6bbe"},"vehicle_type_id":"4","last_reported":1731071750,"current_range_meters":28000,"station_id":"","pricing_plan_id":"cebpf4jnsgd1na2vs0mg"},{"bike_id":"3322b820-b83d-4333-858c-c295e26f68ce","system_id":"levelo_inurba_marseille","lat":43.2872,"lon":5.37947,"is_reserved":false,"is_disabled":false,"rental_uris":{"android":"levelo://app?vid=3322b820-b83d-4333-858c-c295e26f68ce","ios":"levelo://app?vid=3322b820-b83d-4333-858c-c295e26f68ce"},"vehicle_type_id":"4","last_reported":1731071750,"current_range_meters":32800,"station_id":"ce4bh9p2rcd13ifvqec0","pricing_plan_id":"cebpf4jnsgd1na2vs0mg"},{"bike_id":"8d7e5922-664a-4a28-aea6-8506137867d9","system_id":"levelo_inurba_marseille","lat":43.26211,"lon":5.37442,"is_reserved":false,"is_disabled":false,"rental_uris":{"android":"levelo://app?vid=8d7e5922-664a-4a28-aea6-8506137867d9","ios":"levelo://app?vid=8d7e5922-664a-4a28-aea6-8506137867d9"},"vehicle_type_id":"4","last_reported":1731071750,"current_range_meters":19200,"station_id":"ce4bhgp2rcd13ifvqfc0","pricing_plan_id":"cebpf4jnsgd1na2vs0mg"},{"bike_id":"dd52211b-7f29-4536-a395-8bf0ff7bb1fc","system_id":"levelo_inurba_marseille","lat":43.28724,"lon":5.3795,"is_reserved":false,"is_disabled":false,"rental_uris":{"android":"levelo://app?vid=dd52211b-7f29-4536-a395-8bf0ff7bb1fc","ios":"levelo://app?vid=dd52211b-7f29-4536-a395-8bf0ff7bb1fc"},"vehicle_type_id":"4","last_reported":1731071750,"current_range_meters":19200,"station_id":"ce4bh9p2rcd13ifvqec0","pricing_plan_id":"cebpf4jnsgd1na2vs0mg"},{"bike_id":"897bc6a5-d3b3-4949-b1bf-b7efb4b0cb92","system_id":"levelo_inurba_marseille","lat":43.30536,"lon":5.36712,"is_reserved":false,"is_disabled":false,"rental_uris":{"android":"levelo://app?vid=897bc6a5-d3b3-4949-b1bf-b7efb4b0cb92","ios":"levelo://app?vid=897bc6a5-d3b3-4949-b1bf-b7efb4b0cb92"},"vehicle_type_id":"4","last_reported":1731071750,"current_range_meters":38800,"station_id":"ce4bgrp2rcd13ifvqc9g","pricing_plan_id":"cebpf4jnsgd1na2vs0mg"},{"bike_id":"b8fdd341-0697-41ca-82c9-e4253415f4e6","system_id":"levelo_inurba_marseille","lat":43.23055,"lon":5.35495,"is_reserved":false,"is_disabled":false,"rental_uris":{"android":"levelo://app?vid=b8fdd341-0697-41ca-82c9-e4253415f4e6","ios":"levelo://app?vid=b8fdd341-0697-41ca-82c9-e4253415f4e6"},"vehicle_type_id":"4","last_reported":1731071750,"current_range_meters":36800,"station_id":"cpo3342slgdg3j2ifvpg","pricing_plan_id":"cebpf4jnsgd1na2vs0mg"},{"bike_id":"9b96d1a7-1bb0-4837-8ce5-5f6325109a7b","system_id":"levelo_inurba_marseille","lat":43.23177,"lon":5.39995,"is_reserved":false,"is_disabled":false,"rental_uris":{"android":"levelo://app?vid=9b96d1a7-1bb0-4837-8ce5-5f6325109a7b","ios":"levelo://app?vid=9b96d1a7-1bb0-4837-8ce5-5f6325109a7b"},"vehicle_type_id":"4","last_reported":1731071750,"current_range_meters":39200,"station_id":"ce4bhn12rcd13ifvqgqg","pricing_plan_id":"cebpf4jnsgd1na2vs0mg"},{"bike_id":"255e493f-baaf-4748-98f0-8ed03d01c784","system_id":"levelo_inurba_marseille","lat":43.241981,"lon":5.397076,"is_reserved":false,"is_disabled":false,"rental_uris":{"android":"levelo://app?vid=255e493f-baaf-4748-98f0-8ed03d01c784","ios":"levelo://app?vid=255e493f-baaf-4748-98f0-8ed03d01c784"},"vehicle_type_id":"4","last_reported":1731071750,"current_range_meters":18000,"station_id":"ce4bhn12rcd13ifvqgpg","pricing_plan_id":"cebpf4jnsgd1na2vs0mg"},{"bike_id":"faef3d1b-af43-4db0-aed3-175a5ca6fbf8","system_id":"levelo_inurba_marseille","lat":43.30919,"lon":5.36855,"is_reserved":false,"is_disabled":false,"rental_uris":{"android":"levelo://app?vid=faef3d1b-af43-4db0-aed3-175a5ca6fbf8","ios":"levelo://app?vid=faef3d1b-af43-4db0-aed3-175a5ca6fbf8"},"vehicle_type_id":"4","last_reported":1731071750,"current_range_meters":32400,"station_id":"ce4bgn92rcd13ifvqbvg","pricing_plan_id":"cebpf4jnsgd1na2vs0mg"},{"bike_id":"ffa6a709-cf7b-41fd-acb6-77573eab6973","system_id":"levelo_inurba_marseille","lat":43.324808,"lon":5.365559,"is_reserved":false,"is_disabled":false,"rental_uris":{"android":"levelo://app?vid=ffa6a709-cf7b-41fd-acb6-77573eab6973","ios":"levelo://app?vid=ffa6a709-cf7b-41fd-acb6-77573eab6973"},"vehicle_type_id":"4","last_reported":1731071750,"current_range_meters":14000,"station_id":"ce4bhs12rcd13ifvqhvg","pricing_plan_id":"cebpf4jnsgd1na2vs0mg"},{"bike_id":"70cb8752-7cdc-473d-8547-9e63a42728da","system_id":"levelo_inurba_marseille","lat":43.2306,"lon":5.3549,"is_reserved":false,"is_disabled":false,"rental_uris":{"android":"levelo://app?vid=70cb8752-7cdc-473d-8547-9e63a42728da","ios":"levelo://app?vid=70cb8752-7cdc-473d-8547-9e63a42728da"},"vehicle_type_id":"4","last_reported":1731071750,"current_range_meters":27600,"station_id":"cpo3342slgdg3j2ifvpg","pricing_plan_id":"cebpf4jnsgd1na2vs0mg"},{"bike_id":"a8c379e9-4777-4dda-b09f-f9983c01cdce","system_id":"levelo_inurba_marseille","lat":43.30532,"lon":5.36707,"is_reserved":false,"is_disabled":false,"rental_uris":{"android":"levelo://app?vid=a8c379e9-4777-4dda-b09f-f9983c01cdce","ios":"levelo://app?vid=a8c379e9-4777-4dda-b09f-f9983c01cdce"},"vehicle_type_id":"4","last_reported":1731071750,"current_range_meters":20000,"station_id":"ce4bgrp2rcd13ifvqc9g","pricing_plan_id":"cebpf4jnsgd1na2vs0mg"},{"bike_id":"bc695a9b-18a5-4613-b255-9f19e0d39a61","system_id":"levelo_inurba_marseille","lat":43.28462,"lon":5.35888,"is_reserved":false,"is_disabled":false,"rental_uris":{"android":"levelo://app?vid=bc695a9b-18a5-4613-b255-9f19e0d39a61","ios":"levelo://app?vid=bc695a9b-18a5-4613-b255-9f19e0d39a61"},"vehicle_type_id":"4","last_reported":1731071750,"current_range_meters":35600,"station_id":"ce4bhah2rcd13ifvqei0","pricing_plan_id":"cebpf4jnsgd1na2vs0mg"},{"bike_id":"712aec6a-f635-4444-87ba-733e3683de57","system_id":"levelo_inurba_marseille","lat":43.23182,"lon":5.39988,"is_reserved":false,"is_disabled":false,"rental_uris":{"android":"levelo://app?vid=712aec6a-f635-4444-87ba-733e3683de57","ios":"levelo://app?vid=712aec6a-f635-4444-87ba-733e3683de57"},"vehicle_type_id":"4","last_reported":1731071750,"current_range_meters":19600,"station_id":"ce4bhn12rcd13ifvqgqg","pricing_plan_id":"cebpf4jnsgd1na2vs0mg"},{"bike_id":"0915e036-7640-41c3-9357-a9ed490e1859","system_id":"levelo_inurba_marseille","lat":43.29113,"lon":5.3812,"is_reserved":false,"is_disabled":false,"rental_uris":{"android":"levelo://app?vid=0915e036-7640-41c3-9357-a9ed490e1859","ios":"levelo://app?vid=0915e036-7640-41c3-9357-a9ed490e1859"},"vehicle_type_id":"4","last_reported":1731071750,"current_range_meters":38800,"station_id":"ce4bh512rcd13ifvqe2g","pricing_plan_id":"cebpf4jnsgd1na2vs0mg"},{"bike_id":"25d1c874-66ca-418d-9221-c7a07cf17390","system_id":"levelo_inurba_marseille","lat":43.30652,"lon":5.401,"is_reserved":false,"is_disabled":false,"rental_uris":{"android":"levelo://app?vid=25d1c874-66ca-418d-9221-c7a07cf17390","ios":"levelo://app?vid=25d1c874-66ca-418d-9221-c7a07cf17390"},"vehicle_type_id":"4","last_reported":1731071750,"current_range_meters":28000,"station_id":"ce4bh112rcd13ifvqda0","pricing_plan_id":"cebpf4jnsgd1na2vs0mg"},{"bike_id":"1fa66a94-8f13-4b14-9f4f-7350c4c2f490","system_id":"levelo_inurba_marseille","lat":43.29807,"lon":5.381,"is_reserved":false,"is_disabled":false,"rental_uris":{"android":"levelo://app?vid=1fa66a94-8f13-4b14-9f4f-7350c4c2f490","ios":"levelo://app?vid=1fa66a94-8f13-4b14-9f4f-7350c4c2f490"},"vehicle_type_id":"4","last_reported":1731071750,"current_range_meters":27600,"station_id":"ce4bgip2rcd13ifvqbb0","pricing_plan_id":"cebpf4jnsgd1na2vs0mg"},{"bike_id":"227b26cf-68e3-49ff-ac24-167aaa55dbbc","system_id":"levelo_inurba_marseille","lat":43.30595,"lon":5.39353,"is_reserved":false,"is_disabled":false,"rental_uris":{"android":"levelo://app?vid=227b26cf-68e3-49ff-ac24-167aaa55dbbc","ios":"levelo://app?vid=227b26cf-68e3-49ff-ac24-167aaa55dbbc"},"vehicle_type_id":"4","last_reported":1731071750,"current_range_meters":39200,"station_id":"ce4bh0p2rcd13ifvqd80","pricing_plan_id":"cebpf4jnsgd1na2vs0mg"},{"bike_id":"8938651d-a1e6-490d-b4fb-bacae31dc9fc","system_id":"levelo_inurba_marseille","lat":43.323669,"lon":5.388807,"is_reserved":false,"is_disabled":false,"rental_uris":{"android":"levelo://app?vid=8938651d-a1e6-490d-b4fb-bacae31dc9fc","ios":"levelo://app?vid=8938651d-a1e6-490d-b4fb-bacae31dc9fc"},"vehicle_type_id":"4","last_reported":1731071750,"current_range_meters":38000,"station_id":"ce4bh312rcd13ifvqdk0","pricing_plan_id":"cebpf4jnsgd1na2vs0mg"},{"bike_id":"15db8208-58cc-44ba-9da0-245ef3d59c5a","system_id":"levelo_inurba_marseille","lat":43.30468,"lon":5.379,"is_reserved":false,"is_disabled":false,"rental_uris":{"android":"levelo://app?vid=15db8208-58cc-44ba-9da0-245ef3d59c5a","ios":"levelo://app?vid=15db8208-58cc-44ba-9da0-245ef3d59c5a"},"vehicle_type_id":"4","last_reported":1731071750,"current_range_meters":19200,"station_id":"ce4bgup2rcd13ifvqcn0","pricing_plan_id":"cebpf4jnsgd1na2vs0mg"},{"bike_id":"ed53bb0f-2eca-4e4b-97a8-5e304cdf59ba","system_id":"levelo_inurba_marseille","lat":43.27992,"lon":5.41663,"is_reserved":false,"is_disabled":false,"rental_uris":{"android":"levelo://app?vid=ed53bb0f-2eca-4e4b-97a8-5e304cdf59ba","ios":"levelo://app?vid=ed53bb0f-2eca-4e4b-97a8-5e304cdf59ba"},"vehicle_type_id":"4","last_reported":1731071750,"current_range_meters":8000,"station_id":"ce4bho12rcd13ifvqh1g","pricing_plan_id":"cebpf4jnsgd1na2vs0mg"},{"bike_id":"a77d95f8-1237-461c-b90c-b3583a177300","system_id":"levelo_inurba_marseille","lat":43.29195,"lon":5.3932,"is_reserved":false,"is_disabled":false,"rental_uris":{"android":"levelo://app?vid=a77d95f8-1237-461c-b90c-b3583a177300","ios":"levelo://app?vid=a77d95f8-1237-461c-b90c-b3583a177300"},"vehicle_type_id":"4","last_reported":1731071750,"current_range_meters":38000,"station_id":"ce4bh192rcd13ifvqdd0","pricing_plan_id":"cebpf4jnsgd1na2vs0mg"},{"bike_id":"2f45061a-c105-4c1a-9387-cdab4a357a08","system_id":"levelo_inurba_marseille","lat":43.29585,"lon":5.36736,"is_reserved":false,"is_disabled":false,"rental_uris":{"android":"levelo://app?vid=2f45061a-c105-4c1a-9387-cdab4a357a08","ios":"levelo://app?vid=2f45061a-c105-4c1a-9387-cdab4a357a08"},"vehicle_type_id":"4","last_reported":1731071750,"current_range_meters":37600,"station_id":"ce4bgph2rcd13ifvqc2g","pricing_plan_id":"cebpf4jnsgd1na2vs0mg"},{"bike_id":"c68419ae-5304-473c-904a-721cc7490645","system_id":"levelo_inurba_marseille","lat":43.26556,"lon":5.37283,"is_reserved":false,"is_disabled":false,"rental_uris":{"android":"levelo://app?vid=c68419ae-5304-473c-904a-721cc7490645","ios":"levelo://app?vid=c68419ae-5304-473c-904a-721cc7490645"},"vehicle_type_id":"4","last_reported":1731071750,"current_range_meters":26800,"station_id":"ce4bhg12rcd13ifvqf70","pricing_plan_id":"cebpf4jnsgd1na2vs0mg"},{"bike_id":"b4a9b982-0d09-4959-9186-3153c383a403","system_id":"levelo_inurba_marseille","lat":43.23966,"lon":5.3663,"is_reserved":false,"is_disabled":false,"rental_uris":{"android":"levelo://app?vid=b4a9b982-0d09-4959-9186-3153c383a403","ios":"levelo://app?vid=b4a9b982-0d09-4959-9186-3153c383a403"},"vehicle_type_id":"4","last_reported":1731071750,"current_range_meters":20800,"station_id":"ce4bhi12rcd13ifvqfp0","pricing_plan_id":"cebpf4jnsgd1na2vs0mg"},{"bike_id":"e626ac0d-02ef-47de-b965-17d428d6e9a8","system_id":"levelo_inurba_marseille","lat":43.28725,"lon":5.37936,"is_reserved":false,"is_disabled":false,"rental_uris":{"android":"levelo://app?vid=e626ac0d-02ef-47de-b965-17d428d6e9a8","ios":"levelo://app?vid=e626ac0d-02ef-47de-b965-17d428d6e9a8"},"vehicle_type_id":"4","last_reported":1731071750,"current_range_meters":31200,"station_id":"ce4bh9p2rcd13ifvqec0","pricing_plan_id":"cebpf4jnsgd1na2vs0mg"},{"bike_id":"1e44e300-15dd-4448-8bd6-74cd106933f4","system_id":"levelo_inurba_marseille","lat":43.30783,"lon":5.37645,"is_reserved":false,"is_disabled":false,"rental_uris":{"android":"levelo://app?vid=1e44e300-15dd-4448-8bd6-74cd106933f4","ios":"levelo://app?vid=1e44e300-15dd-4448-8bd6-74cd106933f4"},"vehicle_type_id":"4","last_reported":1731071750,"current_range_meters":37600,"station_id":"ce4bgv92rcd13ifvqcq0","pricing_plan_id":"cebpf4jnsgd1na2vs0mg"},{"bike_id":"f2b88fdd-2e0b-4b5e-888c-35155555732c","system_id":"levelo_inurba_marseille","lat":43.31998,"lon":5.38148,"is_reserved":false,"is_disabled":false,"rental_uris":{"android":"levelo://app?vid=f2b88fdd-2e0b-4b5e-888c-35155555732c","ios":"levelo://app?vid=f2b88fdd-2e0b-4b5e-888c-35155555732c"},"vehicle_type_id":"4","last_reported":1731071750,"current_range_meters":36000,"station_id":"ce4bhr12rcd13ifvqhpg","pricing_plan_id":"cebpf4jnsgd1na2vs0mg"},{"bike_id":"a3b99355-bf98-41fa-b64a-368059675b8a","system_id":"levelo_inurba_marseille","lat":43.30139,"lon":5.39883,"is_reserved":false,"is_disabled":false,"rental_uris":{"android":"levelo://app?vid=a3b99355-bf98-41fa-b64a-368059675b8a","ios":"levelo://app?vid=a3b99355-bf98-41fa-b64a-368059675b8a"},"vehicle_type_id":"4","last_reported":1731071750,"current_range_meters":25600,"station_id":"ce4bh0h2rcd13ifvqd40","pricing_plan_id":"cebpf4jnsgd1na2vs0mg"},{"bike_id":"d40cdce1-11f6-4d7c-8178-9cc127fd9f08","system_id":"levelo_inurba_marseille","lat":43.29259,"lon":5.40919,"is_reserved":false,"is_disabled":false,"rental_uris":{"android":"levelo://app?vid=d40cdce1-11f6-4d7c-8178-9cc127fd9f08","ios":"levelo://app?vid=d40cdce1-11f6-4d7c-8178-9cc127fd9f08"},"vehicle_type_id":"4","last_reported":1731071750,"current_range_meters":8800,"station_id":"ce4bh192rcd13ifvqdc0","pricing_plan_id":"cebpf4jnsgd1na2vs0mg"},{"bike_id":"cceb39b3-49fa-4fb1-8d6d-3af58b2358d7","system_id":"levelo_inurba_marseille","lat":43.26205,"lon":5.37935,"is_reserved":false,"is_disabled":false,"rental_uris":{"android":"levelo://app?vid=cceb39b3-49fa-4fb1-8d6d-3af58b2358d7","ios":"levelo://app?vid=cceb39b3-49fa-4fb1-8d6d-3af58b2358d7"},"vehicle_type_id":"4","last_reported":1731071750,"current_range_meters":38400,"station_id":"ce4bhjp2rcd13ifvqg90","pricing_plan_id":"cebpf4jnsgd1na2vs0mg"},{"bike_id":"fde56abe-2286-4f7f-8f77-26766294064b","system_id":"levelo_inurba_marseille","lat":43.2916,"lon":5.37168,"is_reserved":false,"is_disabled":false,"rental_uris":{"android":"levelo://app?vid=fde56abe-2286-4f7f-8f77-26766294064b","ios":"levelo://app?vid=fde56abe-2286-4f7f-8f77-26766294064b"},"vehicle_type_id":"4","last_reported":1731071750,"current_range_meters":36400,"station_id":"ce4bha92rcd13ifvqeh0","pricing_plan_id":"cebpf4jnsgd1na2vs0mg"},{"bike_id":"d3608781-7a95-4a80-9c45-48f596cb3e4b","system_id":"levelo_inurba_marseille","lat":43.33748,"lon":5.37453,"is_reserved":false,"is_disabled":false,"rental_uris":{"android":"levelo://app?vid=d3608781-7a95-4a80-9c45-48f596cb3e4b","ios":"levelo://app?vid=d3608781-7a95-4a80-9c45-48f596cb3e4b"},"vehicle_type_id":"4","last_reported":1731071750,"current_range_meters":20800,"station_id":"","pricing_plan_id":"cebpf4jnsgd1na2vs0mg"},{"bike_id":"b1eb2178-50d3-499e-89c2-ecfd00953ead","system_id":"levelo_inurba_marseille","lat":43.30543,"lon":5.36537,"is_reserved":false,"is_disabled":false,"rental_uris":{"android":"levelo://app?vid=b1eb2178-50d3-499e-89c2-ecfd00953ead","ios":"levelo://app?vid=b1eb2178-50d3-499e-89c2-ecfd00953ead"},"vehicle_type_id":"4","last_reported":1731071750,"current_range_meters":14000,"station_id":"ce4bgs12rcd13ifvqcag","pricing_plan_id":"cebpf4jnsgd1na2vs0mg"},{"bike_id":"065cc511-f6c2-41de-9ebc-8db637bb7c30","system_id":"levelo_inurba_marseille","lat":43.301344,"lon":5.374184,"is_reserved":false,"is_disabled":false,"rental_uris":{"android":"levelo://app?vid=065cc511-f6c2-41de-9ebc-8db637bb7c30","ios":"levelo://app?vid=065cc511-f6c2-41de-9ebc-8db637bb7c30"},"vehicle_type_id":"4","last_reported":1731071750,"current_range_meters":36800,"station_id":"ce4bgs92rcd13ifvqcc0","pricing_plan_id":"cebpf4jnsgd1na2vs0mg"},{"bike_id":"af609ee6-a964-4375-8ba7-491d8f765af3","system_id":"levelo_inurba_marseille","lat":43.33724,"lon":5.39191,"is_reserved":false,"is_disabled":false,"rental_uris":{"android":"levelo://app?vid=af609ee6-a964-4375-8ba7-491d8f765af3","ios":"levelo://app?vid=af609ee6-a964-4375-8ba7-491d8f765af3"},"vehicle_type_id":"4","last_reported":1731071750,"current_range_meters":37600,"station_id":"ce4bhr92rcd13ifvqhsg","pricing_plan_id":"cebpf4jnsgd1na2vs0mg"},{"bike_id":"04cd3841-a84b-4b91-bc27-bb10f63e2a0f","system_id":"levelo_inurba_marseille","lat":43.26806,"lon":5.4026,"is_reserved":false,"is_disabled":false,"rental_uris":{"android":"levelo://app?vid=04cd3841-a84b-4b91-bc27-bb10f63e2a0f","ios":"levelo://app?vid=04cd3841-a84b-4b91-bc27-bb10f63e2a0f"},"vehicle_type_id":"4","last_reported":1731071750,"current_range_meters":28000,"station_id":"ce501612rcd8frsf0b60","pricing_plan_id":"cebpf4jnsgd1na2vs0mg"},{"bike_id":"781005c8-e92d-4538-ad39-54fa82b03703","system_id":"levelo_inurba_marseille","lat":43.30302,"lon":5.37707,"is_reserved":false,"is_disabled":false,"rental_uris":{"android":"levelo://app?vid=781005c8-e92d-4538-ad39-54fa82b03703","ios":"levelo://app?vid=781005c8-e92d-4538-ad39-54fa82b03703"},"vehicle_type_id":"4","last_reported":1731071750,"current_range_meters":38800,"station_id":"ce4bguh2rcd13ifvqcj0","pricing_plan_id":"cebpf4jnsgd1na2vs0mg"},{"bike_id":"88ae8fb1-dc6f-41e9-9272-d1d410d2da47","system_id":"levelo_inurba_marseille","lat":43.24666,"lon":5.3817,"is_reserved":false,"is_disabled":false,"rental_uris":{"android":"levelo://app?vid=88ae8fb1-dc6f-41e9-9272-d1d410d2da47","ios":"levelo://app?vid=88ae8fb1-dc6f-41e9-9272-d1d410d2da47"},"vehicle_type_id":"4","last_reported":1731071750,"current_range_meters":26000,"station_id":"ce4bhih2rcd13ifvqfr0","pricing_plan_id":"cebpf4jnsgd1na2vs0mg"},{"bike_id":"d9b6972c-3620-40e1-bc45-221c19919928","system_id":"levelo_inurba_marseille","lat":43.27809,"lon":5.40712,"is_reserved":false,"is_disabled":false,"rental_uris":{"android":"levelo://app?vid=d9b6972c-3620-40e1-bc45-221c19919928","ios":"levelo://app?vid=d9b6972c-3620-40e1-bc45-221c19919928"},"vehicle_type_id":"4","last_reported":1731071750,"current_range_meters":26000,"station_id":"ce4bhnh2rcd13ifvqgtg","pricing_plan_id":"cebpf4jnsgd1na2vs0mg"},{"bike_id":"29824cde-4cdc-4355-9b22-a5922a403deb","system_id":"levelo_inurba_marseille","lat":43.337444,"lon":5.374475,"is_reserved":false,"is_disabled":false,"rental_uris":{"android":"levelo://app?vid=29824cde-4cdc-4355-9b22-a5922a403deb","ios":"levelo://app?vid=29824cde-4cdc-4355-9b22-a5922a403deb"},"vehicle_type_id":"4","last_reported":1731071750,"current_range_meters":38000,"station_id":"","pricing_plan_id":"cebpf4jnsgd1na2vs0mg"},{"bike_id":"8c05b6d3-c992-452a-8005-92a250b3fc20","system_id":"levelo_inurba_marseille","lat":43.30468,"lon":5.37914,"is_reserved":false,"is_disabled":false,"rental_uris":{"android":"levelo://app?vid=8c05b6d3-c992-452a-8005-92a250b3fc20","ios":"levelo://app?vid=8c05b6d3-c992-452a-8005-92a250b3fc20"},"vehicle_type_id":"4","last_reported":1731071750,"current_range_meters":10000,"station_id":"ce4bgup2rcd13ifvqcn0","pricing_plan_id":"cebpf4jnsgd1na2vs0mg"},{"bike_id":"80d5c89e-745d-46d6-9ab9-4f5ea40b6def","system_id":"levelo_inurba_marseille","lat":43.27177,"lon":5.40993,"is_reserved":false,"is_disabled":false,"rental_uris":{"android":"levelo://app?vid=80d5c89e-745d-46d6-9ab9-4f5ea40b6def","ios":"levelo://app?vid=80d5c89e-745d-46d6-9ab9-4f5ea40b6def"},"vehicle_type_id":"4","last_reported":1731071750,"current_range_meters":36800,"station_id":"ce4bhl12rcd13ifvqgf0","pricing_plan_id":"cebpf4jnsgd1na2vs0mg"},{"bike_id":"eccb9bf1-4a0c-4df5-8229-bf46f21c4329","system_id":"levelo_inurba_marseille","lat":43.31717,"lon":5.42407,"is_reserved":false,"is_disabled":false,"rental_uris":{"android":"levelo://app?vid=eccb9bf1-4a0c-4df5-8229-bf46f21c4329","ios":"levelo://app?vid=eccb9bf1-4a0c-4df5-8229-bf46f21c4329"},"vehicle_type_id":"4","last_reported":1731071750,"current_range_meters":38000,"station_id":"ce4bhp92rcd13ifvqhbg","pricing_plan_id":"cebpf4jnsgd1na2vs0mg"},{"bike_id":"ef288286-229d-4b9a-a189-8d61840dcffb","system_id":"levelo_inurba_marseille","lat":43.23198,"lon":5.35548,"is_reserved":false,"is_disabled":false,"rental_uris":{"android":"levelo://app?vid=ef288286-229d-4b9a-a189-8d61840dcffb","ios":"levelo://app?vid=ef288286-229d-4b9a-a189-8d61840dcffb"},"vehicle_type_id":"4","last_reported":1731071750,"current_range_meters":38400,"station_id":"ce4bhu92rcd13ifvqi70","pricing_plan_id":"cebpf4jnsgd1na2vs0mg"},{"bike_id":"ab71346e-2424-43b3-a815-79155226e53e","system_id":"levelo_inurba_marseille","lat":43.28354,"lon":5.38103,"is_reserved":false,"is_disabled":false,"rental_uris":{"android":"levelo://app?vid=ab71346e-2424-43b3-a815-79155226e53e","ios":"levelo://app?vid=ab71346e-2424-43b3-a815-79155226e53e"},"vehicle_type_id":"4","last_reported":1731071750,"current_range_meters":25600,"station_id":"ce4bh412rcd13ifvqdr0","pricing_plan_id":"cebpf4jnsgd1na2vs0mg"},{"bike_id":"68a16cb1-5aff-45bf-9786-11e01f81ed1f","system_id":"levelo_inurba_marseille","lat":43.26211,"lon":5.37444,"is_reserved":false,"is_disabled":false,"rental_uris":{"android":"levelo://app?vid=68a16cb1-5aff-45bf-9786-11e01f81ed1f","ios":"levelo://app?vid=68a16cb1-5aff-45bf-9786-11e01f81ed1f"},"vehicle_type_id":"4","last_reported":1731071750,"current_range_meters":38000,"station_id":"ce4bhgp2rcd13ifvqfc0","pricing_plan_id":"cebpf4jnsgd1na2vs0mg"},{"bike_id":"335caa32-6b41-4710-be22-444941083bfc","system_id":"levelo_inurba_marseille","lat":43.291443,"lon":5.384967,"is_reserved":false,"is_disabled":false,"rental_uris":{"android":"levelo://app?vid=335caa32-6b41-4710-be22-444941083bfc","ios":"levelo://app?vid=335caa32-6b41-4710-be22-444941083bfc"},"vehicle_type_id":"4","last_reported":1731071750,"current_range_meters":35600,"station_id":"ce4bh4p2rcd13ifvqe0g","pricing_plan_id":"cebpf4jnsgd1na2vs0mg"},{"bike_id":"cb840506-fc64-4fb3-ac5c-c5a532d2fcdc","system_id":"levelo_inurba_marseille","lat":43.28951,"lon":5.36397,"is_reserved":false,"is_disabled":false,"rental_uris":{"android":"levelo://app?vid=cb840506-fc64-4fb3-ac5c-c5a532d2fcdc","ios":"levelo://app?vid=cb840506-fc64-4fb3-ac5c-c5a532d2fcdc"},"vehicle_type_id":"4","last_reported":1731071750,"current_range_meters":38800,"station_id":"ce4bhc92rcd13ifvqetg","pricing_plan_id":"cebpf4jnsgd1na2vs0mg"},{"bike_id":"052cd127-92c4-4ec2-b821-515d41e0ab67","system_id":"levelo_inurba_marseille","lat":43.28725,"lon":5.37945,"is_reserved":false,"is_disabled":false,"rental_uris":{"android":"levelo://app?vid=052cd127-92c4-4ec2-b821-515d41e0ab67","ios":"levelo://app?vid=052cd127-92c4-4ec2-b821-515d41e0ab67"},"vehicle_type_id":"4","last_reported":1731071750,"current_range_meters":22000,"station_id":"ce4bh9p2rcd13ifvqec0","pricing_plan_id":"cebpf4jnsgd1na2vs0mg"},{"bike_id":"db7aab85-5b58-490f-864c-56c1c0b006cc","system_id":"levelo_inurba_marseille","lat":43.28935,"lon":5.3639,"is_reserved":false,"is_disabled":false,"rental_uris":{"android":"levelo://app?vid=db7aab85-5b58-490f-864c-56c1c0b006cc","ios":"levelo://app?vid=db7aab85-5b58-490f-864c-56c1c0b006cc"},"vehicle_type_id":"4","last_reported":1731071750,"current_range_meters":10800,"station_id":"ce4bhc92rcd13ifvqetg","pricing_plan_id":"cebpf4jnsgd1na2vs0mg"},{"bike_id":"795d93dc-58cd-47d3-954f-fe5d9510e8f0","system_id":"levelo_inurba_marseille","lat":43.23153,"lon":5.4371,"is_reserved":false,"is_disabled":false,"rental_uris":{"android":"levelo://app?vid=795d93dc-58cd-47d3-954f-fe5d9510e8f0","ios":"levelo://app?vid=795d93dc-58cd-47d3-954f-fe5d9510e8f0"},"vehicle_type_id":"4","last_reported":1731071750,"current_range_meters":22400,"station_id":"ce4bhmp2rcd13ifvqgog","pricing_plan_id":"cebpf4jnsgd1na2vs0mg"},{"bike_id":"e11d6f43-b181-4f60-9933-8de992d8aef3","system_id":"levelo_inurba_marseille","lat":43.28945,"lon":5.36408,"is_reserved":false,"is_disabled":false,"rental_uris":{"android":"levelo://app?vid=e11d6f43-b181-4f60-9933-8de992d8aef3","ios":"levelo://app?vid=e11d6f43-b181-4f60-9933-8de992d8aef3"},"vehicle_type_id":"4","last_reported":1731071750,"current_range_meters":26800,"station_id":"ce4bhc92rcd13ifvqetg","pricing_plan_id":"cebpf4jnsgd1na2vs0mg"},{"bike_id":"a0cfcee9-8bd4-4a51-8dcf-1b722226c575","system_id":"levelo_inurba_marseille","lat":43.27996,"lon":5.40013,"is_reserved":false,"is_disabled":false,"rental_uris":{"android":"levelo://app?vid=a0cfcee9-8bd4-4a51-8dcf-1b722226c575","ios":"levelo://app?vid=a0cfcee9-8bd4-4a51-8dcf-1b722226c575"},"vehicle_type_id":"4","last_reported":1731071750,"current_range_meters":7200,"station_id":"ce4bho92rcd13ifvqh4g","pricing_plan_id":"cebpf4jnsgd1na2vs0mg"},{"bike_id":"f159a216-3f34-4840-a87f-14cfda860195","system_id":"levelo_inurba_marseille","lat":43.307983,"lon":5.435309,"is_reserved":false,"is_disabled":false,"rental_uris":{"android":"levelo://app?vid=f159a216-3f34-4840-a87f-14cfda860195","ios":"levelo://app?vid=f159a216-3f34-4840-a87f-14cfda860195"},"vehicle_type_id":"4","last_reported":1731071750,"current_range_meters":36000,"station_id":"ce4bhph2rcd13ifvqheg","pricing_plan_id":"cebpf4jnsgd1na2vs0mg"},{"bike_id":"12ab8a2b-bf2e-44a7-8096-67ee8e37b5b1","system_id":"levelo_inurba_marseille","lat":43.2694,"lon":5.40259,"is_reserved":false,"is_disabled":false,"rental_uris":{"android":"levelo://app?vid=12ab8a2b-bf2e-44a7-8096-67ee8e37b5b1","ios":"levelo://app?vid=12ab8a2b-bf2e-44a7-8096-67ee8e37b5b1"},"vehicle_type_id":"4","last_reported":1731071750,"current_range_meters":38800,"station_id":"cjm6bp8fraef2m0cb0m0","pricing_plan_id":"cebpf4jnsgd1na2vs0mg"},{"bike_id":"a30aac20-0bde-49f6-8006-0baa9606d9c8","system_id":"levelo_inurba_marseille","lat":43.31244,"lon":5.3686,"is_reserved":false,"is_disabled":false,"rental_uris":{"android":"levelo://app?vid=a30aac20-0bde-49f6-8006-0baa9606d9c8","ios":"levelo://app?vid=a30aac20-0bde-49f6-8006-0baa9606d9c8"},"vehicle_type_id":"4","last_reported":1731071750,"current_range_meters":11200,"station_id":"ce4bgl92rcd13ifvqbq0","pricing_plan_id":"cebpf4jnsgd1na2vs0mg"},{"bike_id":"841c9df1-f0db-4c1b-b9a9-575f56c5769d","system_id":"levelo_inurba_marseille","lat":43.292,"lon":5.39323,"is_reserved":false,"is_disabled":false,"rental_uris":{"android":"levelo://app?vid=841c9df1-f0db-4c1b-b9a9-575f56c5769d","ios":"levelo://app?vid=841c9df1-f0db-4c1b-b9a9-575f56c5769d"},"vehicle_type_id":"4","last_reported":1731071750,"current_range_meters":38000,"station_id":"ce4bh192rcd13ifvqdd0","pricing_plan_id":"cebpf4jnsgd1na2vs0mg"},{"bike_id":"efb330b1-5f87-4bab-a84a-8bb2ad39b6db","system_id":"levelo_inurba_marseille","lat":43.31493,"lon":5.37312,"is_reserved":false,"is_disabled":false,"rental_uris":{"android":"levelo://app?vid=efb330b1-5f87-4bab-a84a-8bb2ad39b6db","ios":"levelo://app?vid=efb330b1-5f87-4bab-a84a-8bb2ad39b6db"},"vehicle_type_id":"4","last_reported":1731071750,"current_range_meters":19200,"station_id":"ce4bgt12rcd13ifvqcd0","pricing_plan_id":"cebpf4jnsgd1na2vs0mg"},{"bike_id":"8faa22dc-5f3c-4af6-b84b-f554e09d6313","system_id":"levelo_inurba_marseille","lat":43.337444,"lon":5.374475,"is_reserved":false,"is_disabled":false,"rental_uris":{"android":"levelo://app?vid=8faa22dc-5f3c-4af6-b84b-f554e09d6313","ios":"levelo://app?vid=8faa22dc-5f3c-4af6-b84b-f554e09d6313"},"vehicle_type_id":"4","last_reported":1731071750,"current_range_meters":38000,"station_id":"","pricing_plan_id":"cebpf4jnsgd1na2vs0mg"},{"bike_id":"fe7758a6-a8c6-4638-9576-39fc56b8883f","system_id":"levelo_inurba_marseille","lat":43.25865,"lon":5.39899,"is_reserved":false,"is_disabled":false,"rental_uris":{"android":"levelo://app?vid=fe7758a6-a8c6-4638-9576-39fc56b8883f","ios":"levelo://app?vid=fe7758a6-a8c6-4638-9576-39fc56b8883f"},"vehicle_type_id":"4","last_reported":1731071750,"current_range_meters":33600,"station_id":"ce4bhl92rcd13ifvqghg","pricing_plan_id":"cebpf4jnsgd1na2vs0mg"},{"bike_id":"f63b3b09-393e-4ad3-b2a1-5c8a4b607f25","system_id":"levelo_inurba_marseille","lat":43.24386,"lon":5.37063,"is_reserved":false,"is_disabled":false,"rental_uris":{"android":"levelo://app?vid=f63b3b09-393e-4ad3-b2a1-5c8a4b607f25","ios":"levelo://app?vid=f63b3b09-393e-4ad3-b2a1-5c8a4b607f25"},"vehicle_type_id":"4","last_reported":1731071750,"current_range_meters":17200,"station_id":"ce4bhhh2rcd13ifvqfk0","pricing_plan_id":"cebpf4jnsgd1na2vs0mg"},{"bike_id":"9b454d36-c2e4-44e2-9983-2ea03238baa0","system_id":"levelo_inurba_marseille","lat":43.2558,"lon":5.38238,"is_reserved":false,"is_disabled":false,"rental_uris":{"android":"levelo://app?vid=9b454d36-c2e4-44e2-9983-2ea03238baa0","ios":"levelo://app?vid=9b454d36-c2e4-44e2-9983-2ea03238baa0"},"vehicle_type_id":"4","last_reported":1731071750,"current_range_meters":17200,"station_id":"ce4bhih2rcd13ifvqfs0","pricing_plan_id":"cebpf4jnsgd1na2vs0mg"},{"bike_id":"d1fe14ed-13c3-4535-90af-3f1b5eee58a8","system_id":"levelo_inurba_marseille","lat":43.27998,"lon":5.41657,"is_reserved":false,"is_disabled":false,"rental_uris":{"android":"levelo://app?vid=d1fe14ed-13c3-4535-90af-3f1b5eee58a8","ios":"levelo://app?vid=d1fe14ed-13c3-4535-90af-3f1b5eee58a8"},"vehicle_type_id":"4","last_reported":1731071750,"current_range_meters":6400,"station_id":"ce4bho12rcd13ifvqh1g","pricing_plan_id":"cebpf4jnsgd1na2vs0mg"},{"bike_id":"2971af5c-694e-4fbb-a638-0656f0be40cd","system_id":"levelo_inurba_marseille","lat":43.31894,"lon":5.40733,"is_reserved":false,"is_disabled":false,"rental_uris":{"android":"levelo://app?vid=2971af5c-694e-4fbb-a638-0656f0be40cd","ios":"levelo://app?vid=2971af5c-694e-4fbb-a638-0656f0be40cd"},"vehicle_type_id":"4","last_reported":1731071750,"current_range_meters":35600,"station_id":"ce4bhq12rcd13ifvqhig","pricing_plan_id":"cebpf4jnsgd1na2vs0mg"},{"bike_id":"cc38392c-76d8-467d-92bf-828855686fef","system_id":"levelo_inurba_marseille","lat":43.26947,"lon":5.40257,"is_reserved":false,"is_disabled":false,"rental_uris":{"android":"levelo://app?vid=cc38392c-76d8-467d-92bf-828855686fef","ios":"levelo://app?vid=cc38392c-76d8-467d-92bf-828855686fef"},"vehicle_type_id":"4","last_reported":1731071750,"current_range_meters":3200,"station_id":"cjm6bp8fraef2m0cb0m0","pricing_plan_id":"cebpf4jnsgd1na2vs0mg"},{"bike_id":"c7022000-40bb-4946-aca4-3a5058fa7b80","system_id":"levelo_inurba_marseille","lat":43.26562,"lon":5.37292,"is_reserved":false,"is_disabled":false,"rental_uris":{"android":"levelo://app?vid=c7022000-40bb-4946-aca4-3a5058fa7b80","ios":"levelo://app?vid=c7022000-40bb-4946-aca4-3a5058fa7b80"},"vehicle_type_id":"4","last_reported":1731071750,"current_range_meters":8800,"station_id":"ce4bhg12rcd13ifvqf70","pricing_plan_id":"cebpf4jnsgd1na2vs0mg"},{"bike_id":"eefd0687-4492-41ad-9368-b877bab02ae1","system_id":"levelo_inurba_marseille","lat":43.31227,"lon":5.36859,"is_reserved":false,"is_disabled":false,"rental_uris":{"android":"levelo://app?vid=eefd0687-4492-41ad-9368-b877bab02ae1","ios":"levelo://app?vid=eefd0687-4492-41ad-9368-b877bab02ae1"},"vehicle_type_id":"4","last_reported":1731071750,"current_range_meters":38800,"station_id":"ce4bgl92rcd13ifvqbq0","pricing_plan_id":"cebpf4jnsgd1na2vs0mg"},{"bike_id":"6bbe3f1c-a12b-4b0d-9b91-a5c7de629161","system_id":"levelo_inurba_marseille","lat":43.29579,"lon":5.36738,"is_reserved":false,"is_disabled":false,"rental_uris":{"android":"levelo://app?vid=6bbe3f1c-a12b-4b0d-9b91-a5c7de629161","ios":"levelo://app?vid=6bbe3f1c-a12b-4b0d-9b91-a5c7de629161"},"vehicle_type_id":"4","last_reported":1731071750,"current_range_meters":18000,"station_id":"ce4bgph2rcd13ifvqc2g","pricing_plan_id":"cebpf4jnsgd1na2vs0mg"},{"bike_id":"0be0f67f-6897-4030-961d-da161612ea30","system_id":"levelo_inurba_marseille","lat":43.30141,"lon":5.39867,"is_reserved":false,"is_disabled":false,"rental_uris":{"android":"levelo://app?vid=0be0f67f-6897-4030-961d-da161612ea30","ios":"levelo://app?vid=0be0f67f-6897-4030-961d-da161612ea30"},"vehicle_type_id":"4","last_reported":1731071750,"current_range_meters":800,"station_id":"ce4bh0h2rcd13ifvqd40","pricing_plan_id":"cebpf4jnsgd1na2vs0mg"},{"bike_id":"1f3ba906-6e07-4370-b207-43e1aae1c14a","system_id":"levelo_inurba_marseille","lat":43.31361,"lon":5.36724,"is_reserved":false,"is_disabled":false,"rental_uris":{"android":"levelo://app?vid=1f3ba906-6e07-4370-b207-43e1aae1c14a","ios":"levelo://app?vid=1f3ba906-6e07-4370-b207-43e1aae1c14a"},"vehicle_type_id":"4","last_reported":1731071750,"current_range_meters":12000,"station_id":"ce4bgr92rcd13ifvqc6g","pricing_plan_id":"cebpf4jnsgd1na2vs0mg"},{"bike_id":"9472b0d5-1806-414f-be65-ae4f9b89127a","system_id":"levelo_inurba_marseille","lat":43.28937,"lon":5.3664,"is_reserved":false,"is_disabled":false,"rental_uris":{"android":"levelo://app?vid=9472b0d5-1806-414f-be65-ae4f9b89127a","ios":"levelo://app?vid=9472b0d5-1806-414f-be65-ae4f9b89127a"},"vehicle_type_id":"4","last_reported":1731071750,"current_range_meters":38000,"station_id":"ce4bhap2rcd13ifvqek0","pricing_plan_id":"cebpf4jnsgd1na2vs0mg"},{"bike_id":"5f88edad-fecb-429c-94ff-3652898605d6","system_id":"levelo_inurba_marseille","lat":43.28714,"lon":5.37941,"is_reserved":false,"is_disabled":false,"rental_uris":{"android":"levelo://app?vid=5f88edad-fecb-429c-94ff-3652898605d6","ios":"levelo://app?vid=5f88edad-fecb-429c-94ff-3652898605d6"},"vehicle_type_id":"4","last_reported":1731071750,"current_range_meters":35600,"station_id":"ce4bh9p2rcd13ifvqec0","pricing_plan_id":"cebpf4jnsgd1na2vs0mg"},{"bike_id":"2ffe6b38-d5b4-4e9e-b577-8f876adfd6b9","system_id":"levelo_inurba_marseille","lat":43.30534,"lon":5.36536,"is_reserved":false,"is_disabled":false,"rental_uris":{"android":"levelo://app?vid=2ffe6b38-d5b4-4e9e-b577-8f876adfd6b9","ios":"levelo://app?vid=2ffe6b38-d5b4-4e9e-b577-8f876adfd6b9"},"vehicle_type_id":"4","last_reported":1731071750,"current_range_meters":19200,"station_id":"ce4bgs12rcd13ifvqcag","pricing_plan_id":"cebpf4jnsgd1na2vs0mg"},{"bike_id":"d6fdae69-642e-4d84-a8fd-edeb75ed0ef4","system_id":"levelo_inurba_marseille","lat":43.22932,"lon":5.35376,"is_reserved":false,"is_disabled":false,"rental_uris":{"android":"levelo://app?vid=d6fdae69-642e-4d84-a8fd-edeb75ed0ef4","ios":"levelo://app?vid=d6fdae69-642e-4d84-a8fd-edeb75ed0ef4"},"vehicle_type_id":"4","last_reported":1731071750,"current_range_meters":39200,"station_id":"cpo3532slgdg3j2ikp40","pricing_plan_id":"cebpf4jnsgd1na2vs0mg"},{"bike_id":"355ad1ba-f9c7-4734-a875-565359b898de","system_id":"levelo_inurba_marseille","lat":43.33763,"lon":5.37446,"is_reserved":false,"is_disabled":false,"rental_uris":{"android":"levelo://app?vid=355ad1ba-f9c7-4734-a875-565359b898de","ios":"levelo://app?vid=355ad1ba-f9c7-4734-a875-565359b898de"},"vehicle_type_id":"4","last_reported":1731071750,"current_range_meters":17600,"station_id":"","pricing_plan_id":"cebpf4jnsgd1na2vs0mg"},{"bike_id":"bdc2614c-f690-4a70-b4fe-4ce04e111f7f","system_id":"levelo_inurba_marseille","lat":43.31361,"lon":5.36706,"is_reserved":false,"is_disabled":false,"rental_uris":{"android":"levelo://app?vid=bdc2614c-f690-4a70-b4fe-4ce04e111f7f","ios":"levelo://app?vid=bdc2614c-f690-4a70-b4fe-4ce04e111f7f"},"vehicle_type_id":"4","last_reported":1731071750,"current_range_meters":38800,"station_id":"ce4bgr92rcd13ifvqc6g","pricing_plan_id":"cebpf4jnsgd1na2vs0mg"},{"bike_id":"990c12eb-f5c5-495d-8bc6-f71e7aa21213","system_id":"levelo_inurba_marseille","lat":43.24386,"lon":5.37061,"is_reserved":false,"is_disabled":false,"rental_uris":{"android":"levelo://app?vid=990c12eb-f5c5-495d-8bc6-f71e7aa21213","ios":"levelo://app?vid=990c12eb-f5c5-495d-8bc6-f71e7aa21213"},"vehicle_type_id":"4","last_reported":1731071750,"current_range_meters":38800,"station_id":"ce4bhhh2rcd13ifvqfk0","pricing_plan_id":"cebpf4jnsgd1na2vs0mg"},{"bike_id":"928799c6-074b-4122-930b-f376849875be","system_id":"levelo_inurba_marseille","lat":43.29204,"lon":5.35805,"is_reserved":false,"is_disabled":false,"rental_uris":{"android":"levelo://app?vid=928799c6-074b-4122-930b-f376849875be","ios":"levelo://app?vid=928799c6-074b-4122-930b-f376849875be"},"vehicle_type_id":"4","last_reported":1731071750,"current_range_meters":28400,"station_id":"ce4bhb12rcd13ifvqel0","pricing_plan_id":"cebpf4jnsgd1na2vs0mg"},{"bike_id":"5fb44a42-3e17-4422-b1b6-9555dccd055a","system_id":"levelo_inurba_marseille","lat":43.28616,"lon":5.3706,"is_reserved":false,"is_disabled":false,"rental_uris":{"android":"levelo://app?vid=5fb44a42-3e17-4422-b1b6-9555dccd055a","ios":"levelo://app?vid=5fb44a42-3e17-4422-b1b6-9555dccd055a"},"vehicle_type_id":"4","last_reported":1731071750,"current_range_meters":13600,"station_id":"ce4bht12rcd13ifvqi60","pricing_plan_id":"cebpf4jnsgd1na2vs0mg"},{"bike_id":"86d64521-d332-4842-b4fb-5fa4820d8c81","system_id":"levelo_inurba_marseille","lat":43.337444,"lon":5.374475,"is_reserved":false,"is_disabled":false,"rental_uris":{"android":"levelo://app?vid=86d64521-d332-4842-b4fb-5fa4820d8c81","ios":"levelo://app?vid=86d64521-d332-4842-b4fb-5fa4820d8c81"},"vehicle_type_id":"4","last_reported":1731071750,"current_range_meters":37600,"station_id":"","pricing_plan_id":"cebpf4jnsgd1na2vs0mg"},{"bike_id":"0fa54834-ecb9-4c23-a693-56aa9c750a6c","system_id":"levelo_inurba_marseille","lat":43.267864,"lon":5.394129,"is_reserved":false,"is_disabled":false,"rental_uris":{"android":"levelo://app?vid=0fa54834-ecb9-4c23-a693-56aa9c750a6c","ios":"levelo://app?vid=0fa54834-ecb9-4c23-a693-56aa9c750a6c"},"vehicle_type_id":"4","last_reported":1731071750,"current_range_meters":3600,"station_id":"ce4bhh12rcd13ifvqfg0","pricing_plan_id":"cebpf4jnsgd1na2vs0mg"},{"bike_id":"bde08989-23ea-4b54-bef5-ef219bd6bfde","system_id":"levelo_inurba_marseille","lat":43.2551,"lon":5.37653,"is_reserved":false,"is_disabled":false,"rental_uris":{"android":"levelo://app?vid=bde08989-23ea-4b54-bef5-ef219bd6bfde","ios":"levelo://app?vid=bde08989-23ea-4b54-bef5-ef219bd6bfde"},"vehicle_type_id":"4","last_reported":1731071750,"current_range_meters":35600,"station_id":"ce4bhh12rcd13ifvqff0","pricing_plan_id":"cebpf4jnsgd1na2vs0mg"},{"bike_id":"7267f367-27af-4a7f-873e-8336747c5d6d","system_id":"levelo_inurba_marseille","lat":43.29854,"lon":5.36273,"is_reserved":false,"is_disabled":false,"rental_uris":{"android":"levelo://app?vid=7267f367-27af-4a7f-873e-8336747c5d6d","ios":"levelo://app?vid=7267f367-27af-4a7f-873e-8336747c5d6d"},"vehicle_type_id":"4","last_reported":1731071750,"current_range_meters":28800,"station_id":"ce4bgpp2rcd13ifvqc3g","pricing_plan_id":"cebpf4jnsgd1na2vs0mg"},{"bike_id":"1fa68d49-ceb3-4c0b-a6ec-94163afd9dca","system_id":"levelo_inurba_marseille","lat":43.29797,"lon":5.38109,"is_reserved":false,"is_disabled":false,"rental_uris":{"android":"levelo://app?vid=1fa68d49-ceb3-4c0b-a6ec-94163afd9dca","ios":"levelo://app?vid=1fa68d49-ceb3-4c0b-a6ec-94163afd9dca"},"vehicle_type_id":"4","last_reported":1731071750,"current_range_meters":24800,"station_id":"ce4bgip2rcd13ifvqbb0","pricing_plan_id":"cebpf4jnsgd1na2vs0mg"},{"bike_id":"80f88f91-d648-453a-88b2-cfa7d57ba25b","system_id":"levelo_inurba_marseille","lat":43.23181,"lon":5.39991,"is_reserved":false,"is_disabled":false,"rental_uris":{"android":"levelo://app?vid=80f88f91-d648-453a-88b2-cfa7d57ba25b","ios":"levelo://app?vid=80f88f91-d648-453a-88b2-cfa7d57ba25b"},"vehicle_type_id":"4","last_reported":1731071750,"current_range_meters":33600,"station_id":"ce4bhn12rcd13ifvqgqg","pricing_plan_id":"cebpf4jnsgd1na2vs0mg"},{"bike_id":"0199f989-516e-4613-bd4d-35eb2f670e3d","system_id":"levelo_inurba_marseille","lat":43.29791,"lon":5.38114,"is_reserved":false,"is_disabled":false,"rental_uris":{"android":"levelo://app?vid=0199f989-516e-4613-bd4d-35eb2f670e3d","ios":"levelo://app?vid=0199f989-516e-4613-bd4d-35eb2f670e3d"},"vehicle_type_id":"4","last_reported":1731071750,"current_range_meters":13600,"station_id":"ce4bgip2rcd13ifvqbb0","pricing_plan_id":"cebpf4jnsgd1na2vs0mg"},{"bike_id":"4de9755c-0b4d-4232-b77c-780413d082cb","system_id":"levelo_inurba_marseille","lat":43.28378,"lon":5.38649,"is_reserved":false,"is_disabled":false,"rental_uris":{"android":"levelo://app?vid=4de9755c-0b4d-4232-b77c-780413d082cb","ios":"levelo://app?vid=4de9755c-0b4d-4232-b77c-780413d082cb"},"vehicle_type_id":"4","last_reported":1731071750,"current_range_meters":24800,"station_id":"ce4bh492rcd13ifvqdvg","pricing_plan_id":"cebpf4jnsgd1na2vs0mg"},{"bike_id":"30c759a2-6df1-49dd-8b4a-2f09b3c85fab","system_id":"levelo_inurba_marseille","lat":43.28121,"lon":5.37809,"is_reserved":false,"is_disabled":false,"rental_uris":{"android":"levelo://app?vid=30c759a2-6df1-49dd-8b4a-2f09b3c85fab","ios":"levelo://app?vid=30c759a2-6df1-49dd-8b4a-2f09b3c85fab"},"vehicle_type_id":"4","last_reported":1731071750,"current_range_meters":27600,"station_id":"ce4bha12rcd13ifvqee0","pricing_plan_id":"cebpf4jnsgd1na2vs0mg"},{"bike_id":"73ab35f1-bfdb-4678-85b3-28a9d7db8a08","system_id":"levelo_inurba_marseille","lat":43.28426,"lon":5.3499,"is_reserved":false,"is_disabled":false,"rental_uris":{"android":"levelo://app?vid=73ab35f1-bfdb-4678-85b3-28a9d7db8a08","ios":"levelo://app?vid=73ab35f1-bfdb-4678-85b3-28a9d7db8a08"},"vehicle_type_id":"4","last_reported":1731071750,"current_range_meters":38800,"station_id":"ce4bhbh2rcd13ifvqepg","pricing_plan_id":"cebpf4jnsgd1na2vs0mg"},{"bike_id":"f50bfe44-6214-4ae4-8f90-fbc2e1e10e8a","system_id":"levelo_inurba_marseille","lat":43.30807,"lon":5.38155,"is_reserved":false,"is_disabled":false,"rental_uris":{"android":"levelo://app?vid=f50bfe44-6214-4ae4-8f90-fbc2e1e10e8a","ios":"levelo://app?vid=f50bfe44-6214-4ae4-8f90-fbc2e1e10e8a"},"vehicle_type_id":"4","last_reported":1731071750,"current_range_meters":36000,"station_id":"ce4bgt12rcd13ifvqce0","pricing_plan_id":"cebpf4jnsgd1na2vs0mg"},{"bike_id":"7681c751-2a40-4a19-b638-44494a945313","system_id":"levelo_inurba_marseille","lat":43.30671,"lon":5.39506,"is_reserved":false,"is_disabled":false,"rental_uris":{"android":"levelo://app?vid=7681c751-2a40-4a19-b638-44494a945313","ios":"levelo://app?vid=7681c751-2a40-4a19-b638-44494a945313"},"vehicle_type_id":"4","last_reported":1731071750,"current_range_meters":20800,"station_id":"ce4bgup2rcd13ifvqco0","pricing_plan_id":"cebpf4jnsgd1na2vs0mg"},{"bike_id":"c1519990-a45d-4f16-9ad0-2cc0a97cac6a","system_id":"levelo_inurba_marseille","lat":43.29034,"lon":5.39956,"is_reserved":false,"is_disabled":false,"rental_uris":{"android":"levelo://app?vid=c1519990-a45d-4f16-9ad0-2cc0a97cac6a","ios":"levelo://app?vid=c1519990-a45d-4f16-9ad0-2cc0a97cac6a"},"vehicle_type_id":"4","last_reported":1731071750,"current_range_meters":19200,"station_id":"ce4bh392rcd13ifvqdm0","pricing_plan_id":"cebpf4jnsgd1na2vs0mg"},{"bike_id":"c67b0c96-4a20-4458-973b-ccf417da9518","system_id":"levelo_inurba_marseille","lat":43.2695,"lon":5.40253,"is_reserved":false,"is_disabled":false,"rental_uris":{"android":"levelo://app?vid=c67b0c96-4a20-4458-973b-ccf417da9518","ios":"levelo://app?vid=c67b0c96-4a20-4458-973b-ccf417da9518"},"vehicle_type_id":"4","last_reported":1731071750,"current_range_meters":6800,"station_id":"cjm6bp8fraef2m0cb0m0","pricing_plan_id":"cebpf4jnsgd1na2vs0mg"},{"bike_id":"7de9c802-15ff-46fb-9cae-b6ab2cff5424","system_id":"levelo_inurba_marseille","lat":43.34146,"lon":5.40901,"is_reserved":false,"is_disabled":false,"rental_uris":{"android":"levelo://app?vid=7de9c802-15ff-46fb-9cae-b6ab2cff5424","ios":"levelo://app?vid=7de9c802-15ff-46fb-9cae-b6ab2cff5424"},"vehicle_type_id":"4","last_reported":1731071750,"current_range_meters":3200,"station_id":"ce4bhqh2rcd13ifvqhlg","pricing_plan_id":"cebpf4jnsgd1na2vs0mg"},{"bike_id":"f210d639-7132-4470-847a-0d20570bd17a","system_id":"levelo_inurba_marseille","lat":43.27071,"lon":5.42282,"is_reserved":false,"is_disabled":false,"rental_uris":{"android":"levelo://app?vid=f210d639-7132-4470-847a-0d20570bd17a","ios":"levelo://app?vid=f210d639-7132-4470-847a-0d20570bd17a"},"vehicle_type_id":"4","last_reported":1731071750,"current_range_meters":36000,"station_id":"ce4bhk92rcd13ifvqgb0","pricing_plan_id":"cebpf4jnsgd1na2vs0mg"},{"bike_id":"ee57e61c-d077-4b8f-9842-5b05c01839e5","system_id":"levelo_inurba_marseille","lat":43.27812,"lon":5.40718,"is_reserved":false,"is_disabled":false,"rental_uris":{"android":"levelo://app?vid=ee57e61c-d077-4b8f-9842-5b05c01839e5","ios":"levelo://app?vid=ee57e61c-d077-4b8f-9842-5b05c01839e5"},"vehicle_type_id":"4","last_reported":1731071750,"current_range_meters":9200,"station_id":"ce4bhnh2rcd13ifvqgtg","pricing_plan_id":"cebpf4jnsgd1na2vs0mg"},{"bike_id":"c0be04a6-9f37-4b1a-bcf3-5a8b1e863b59","system_id":"levelo_inurba_marseille","lat":43.27496,"lon":5.42451,"is_reserved":false,"is_disabled":false,"rental_uris":{"android":"levelo://app?vid=c0be04a6-9f37-4b1a-bcf3-5a8b1e863b59","ios":"levelo://app?vid=c0be04a6-9f37-4b1a-bcf3-5a8b1e863b59"},"vehicle_type_id":"4","last_reported":1731071750,"current_range_meters":11200,"station_id":"ce4bhn92rcd13ifvqgrg","pricing_plan_id":"cebpf4jnsgd1na2vs0mg"},{"bike_id":"fa10585e-a6bf-48dc-bab9-27f4da951a65","system_id":"levelo_inurba_marseille","lat":43.30796,"lon":5.37639,"is_reserved":false,"is_disabled":false,"rental_uris":{"android":"levelo://app?vid=fa10585e-a6bf-48dc-bab9-27f4da951a65","ios":"levelo://app?vid=fa10585e-a6bf-48dc-bab9-27f4da951a65"},"vehicle_type_id":"4","last_reported":1731071750,"current_range_meters":33600,"station_id":"ce4bgv92rcd13ifvqcq0","pricing_plan_id":"cebpf4jnsgd1na2vs0mg"},{"bike_id":"ff72051d-7e8f-46d3-bc5a-ce8f35154003","system_id":"levelo_inurba_marseille","lat":43.28614,"lon":5.35106,"is_reserved":false,"is_disabled":false,"rental_uris":{"android":"levelo://app?vid=ff72051d-7e8f-46d3-bc5a-ce8f35154003","ios":"levelo://app?vid=ff72051d-7e8f-46d3-bc5a-ce8f35154003"},"vehicle_type_id":"4","last_reported":1731071750,"current_range_meters":6400,"station_id":"ce4bhch2rcd13ifvqeug","pricing_plan_id":"cebpf4jnsgd1na2vs0mg"},{"bike_id":"1b23b6c0-9779-4a9c-9ef0-ae7906244709","system_id":"levelo_inurba_marseille","lat":43.32477,"lon":5.36565,"is_reserved":false,"is_disabled":false,"rental_uris":{"android":"levelo://app?vid=1b23b6c0-9779-4a9c-9ef0-ae7906244709","ios":"levelo://app?vid=1b23b6c0-9779-4a9c-9ef0-ae7906244709"},"vehicle_type_id":"4","last_reported":1731071750,"current_range_meters":37600,"station_id":"ce4bhs12rcd13ifvqhvg","pricing_plan_id":"cebpf4jnsgd1na2vs0mg"},{"bike_id":"7b2d613d-5d06-4bcb-9498-b395033b281b","system_id":"levelo_inurba_marseille","lat":43.29623,"lon":5.37719,"is_reserved":false,"is_disabled":false,"rental_uris":{"android":"levelo://app?vid=7b2d613d-5d06-4bcb-9498-b395033b281b","ios":"levelo://app?vid=7b2d613d-5d06-4bcb-9498-b395033b281b"},"vehicle_type_id":"4","last_reported":1731071750,"current_range_meters":3600,"station_id":"ce4bgi92rcd13ifvqb90","pricing_plan_id":"cebpf4jnsgd1na2vs0mg"},{"bike_id":"6dd7052e-82e0-433b-bd8b-fbc14cfa833c","system_id":"levelo_inurba_marseille","lat":43.23967,"lon":5.36631,"is_reserved":false,"is_disabled":false,"rental_uris":{"android":"levelo://app?vid=6dd7052e-82e0-433b-bd8b-fbc14cfa833c","ios":"levelo://app?vid=6dd7052e-82e0-433b-bd8b-fbc14cfa833c"},"vehicle_type_id":"4","last_reported":1731071750,"current_range_meters":16800,"station_id":"ce4bhi12rcd13ifvqfp0","pricing_plan_id":"cebpf4jnsgd1na2vs0mg"},{"bike_id":"7523d551-6c6b-4056-8b9d-907021a21a00","system_id":"levelo_inurba_marseille","lat":43.31356,"lon":5.36702,"is_reserved":false,"is_disabled":false,"rental_uris":{"android":"levelo://app?vid=7523d551-6c6b-4056-8b9d-907021a21a00","ios":"levelo://app?vid=7523d551-6c6b-4056-8b9d-907021a21a00"},"vehicle_type_id":"4","last_reported":1731071750,"current_range_meters":22000,"station_id":"ce4bgr92rcd13ifvqc6g","pricing_plan_id":"cebpf4jnsgd1na2vs0mg"},{"bike_id":"af4daf64-18f9-41ec-b8bd-1df711ac30af","system_id":"levelo_inurba_marseille","lat":43.31241,"lon":5.36857,"is_reserved":false,"is_disabled":false,"rental_uris":{"android":"levelo://app?vid=af4daf64-18f9-41ec-b8bd-1df711ac30af","ios":"levelo://app?vid=af4daf64-18f9-41ec-b8bd-1df711ac30af"},"vehicle_type_id":"4","last_reported":1731071750,"current_range_meters":30800,"station_id":"ce4bgl92rcd13ifvqbq0","pricing_plan_id":"cebpf4jnsgd1na2vs0mg"},{"bike_id":"bd9d7180-121c-41fd-a444-72a1252584b0","system_id":"levelo_inurba_marseille","lat":43.25582,"lon":5.38225,"is_reserved":false,"is_disabled":false,"rental_uris":{"android":"levelo://app?vid=bd9d7180-121c-41fd-a444-72a1252584b0","ios":"levelo://app?vid=bd9d7180-121c-41fd-a444-72a1252584b0"},"vehicle_type_id":"4","last_reported":1731071750,"current_range_meters":9600,"station_id":"ce4bhih2rcd13ifvqfs0","pricing_plan_id":"cebpf4jnsgd1na2vs0mg"},{"bike_id":"92bbe5af-b5d9-48fc-afb8-3b15fc8d3190","system_id":"levelo_inurba_marseille","lat":43.31726,"lon":5.42399,"is_reserved":false,"is_disabled":false,"rental_uris":{"android":"levelo://app?vid=92bbe5af-b5d9-48fc-afb8-3b15fc8d3190","ios":"levelo://app?vid=92bbe5af-b5d9-48fc-afb8-3b15fc8d3190"},"vehicle_type_id":"4","last_reported":1731071750,"current_range_meters":28800,"station_id":"ce4bhp92rcd13ifvqhbg","pricing_plan_id":"cebpf4jnsgd1na2vs0mg"},{"bike_id":"6db2b8ab-31e3-4398-b857-38df6a63999d","system_id":"levelo_inurba_marseille","lat":43.30286,"lon":5.3771,"is_reserved":false,"is_disabled":false,"rental_uris":{"android":"levelo://app?vid=6db2b8ab-31e3-4398-b857-38df6a63999d","ios":"levelo://app?vid=6db2b8ab-31e3-4398-b857-38df6a63999d"},"vehicle_type_id":"4","last_reported":1731071750,"current_range_meters":38000,"station_id":"ce4bguh2rcd13ifvqcj0","pricing_plan_id":"cebpf4jnsgd1na2vs0mg"},{"bike_id":"a43bb8da-a04a-4645-bc84-ab3da5bd826c","system_id":"levelo_inurba_marseille","lat":43.28666,"lon":5.36344,"is_reserved":false,"is_disabled":false,"rental_uris":{"android":"levelo://app?vid=a43bb8da-a04a-4645-bc84-ab3da5bd826c","ios":"levelo://app?vid=a43bb8da-a04a-4645-bc84-ab3da5bd826c"},"vehicle_type_id":"4","last_reported":1731071750,"current_range_meters":28400,"station_id":"ce4bhah2rcd13ifvqej0","pricing_plan_id":"cebpf4jnsgd1na2vs0mg"},{"bike_id":"ae6411f3-ae31-4f90-8975-cbb8b6d77600","system_id":"levelo_inurba_marseille","lat":43.32481,"lon":5.36562,"is_reserved":false,"is_disabled":false,"rental_uris":{"android":"levelo://app?vid=ae6411f3-ae31-4f90-8975-cbb8b6d77600","ios":"levelo://app?vid=ae6411f3-ae31-4f90-8975-cbb8b6d77600"},"vehicle_type_id":"4","last_reported":1731071750,"current_range_meters":10800,"station_id":"ce4bhs12rcd13ifvqhvg","pricing_plan_id":"cebpf4jnsgd1na2vs0mg"},{"bike_id":"7915d98a-cd17-40c4-895b-77f10998b284","system_id":"levelo_inurba_marseille","lat":43.30547,"lon":5.36541,"is_reserved":false,"is_disabled":false,"rental_uris":{"android":"levelo://app?vid=7915d98a-cd17-40c4-895b-77f10998b284","ios":"levelo://app?vid=7915d98a-cd17-40c4-895b-77f10998b284"},"vehicle_type_id":"4","last_reported":1731071750,"current_range_meters":27200,"station_id":"ce4bgs12rcd13ifvqcag","pricing_plan_id":"cebpf4jnsgd1na2vs0mg"},{"bike_id":"6bdccd16-85fa-431b-a7f3-36a44169de68","system_id":"levelo_inurba_marseille","lat":43.281494,"lon":5.404773,"is_reserved":false,"is_disabled":false,"rental_uris":{"android":"levelo://app?vid=6bdccd16-85fa-431b-a7f3-36a44169de68","ios":"levelo://app?vid=6bdccd16-85fa-431b-a7f3-36a44169de68"},"vehicle_type_id":"4","last_reported":1731071750,"current_range_meters":16400,"station_id":"ce4bgkh2rcd13ifvqbl0","pricing_plan_id":"cebpf4jnsgd1na2vs0mg"},{"bike_id":"7a001719-7d30-4be7-b71f-41877307ae9a","system_id":"levelo_inurba_marseille","lat":43.28109,"lon":5.37841,"is_reserved":false,"is_disabled":false,"rental_uris":{"android":"levelo://app?vid=7a001719-7d30-4be7-b71f-41877307ae9a","ios":"levelo://app?vid=7a001719-7d30-4be7-b71f-41877307ae9a"},"vehicle_type_id":"4","last_reported":1731071750,"current_range_meters":38800,"station_id":"ce4bha12rcd13ifvqee0","pricing_plan_id":"cebpf4jnsgd1na2vs0mg"},{"bike_id":"4adc051b-cab2-444f-a4c6-933d4708baf0","system_id":"levelo_inurba_marseille","lat":43.31716,"lon":5.42395,"is_reserved":false,"is_disabled":false,"rental_uris":{"android":"levelo://app?vid=4adc051b-cab2-444f-a4c6-933d4708baf0","ios":"levelo://app?vid=4adc051b-cab2-444f-a4c6-933d4708baf0"},"vehicle_type_id":"4","last_reported":1731071750,"current_range_meters":14000,"station_id":"ce4bhp92rcd13ifvqhbg","pricing_plan_id":"cebpf4jnsgd1na2vs0mg"},{"bike_id":"e25a463c-7ebd-4227-92a7-041a2c690f67","system_id":"levelo_inurba_marseille","lat":43.30292,"lon":5.37703,"is_reserved":false,"is_disabled":false,"rental_uris":{"android":"levelo://app?vid=e25a463c-7ebd-4227-92a7-041a2c690f67","ios":"levelo://app?vid=e25a463c-7ebd-4227-92a7-041a2c690f67"},"vehicle_type_id":"4","last_reported":1731071750,"current_range_meters":14800,"station_id":"ce4bguh2rcd13ifvqcj0","pricing_plan_id":"cebpf4jnsgd1na2vs0mg"},{"bike_id":"a1a91312-09f0-4517-917a-efce577fc884","system_id":"levelo_inurba_marseille","lat":43.29035,"lon":5.39982,"is_reserved":false,"is_disabled":false,"rental_uris":{"android":"levelo://app?vid=a1a91312-09f0-4517-917a-efce577fc884","ios":"levelo://app?vid=a1a91312-09f0-4517-917a-efce577fc884"},"vehicle_type_id":"4","last_reported":1731071750,"current_range_meters":19200,"station_id":"ce4bh392rcd13ifvqdm0","pricing_plan_id":"cebpf4jnsgd1na2vs0mg"},{"bike_id":"4b10c409-28aa-4c2b-af65-3313e9e7297c","system_id":"levelo_inurba_marseille","lat":43.31756,"lon":5.39012,"is_reserved":false,"is_disabled":false,"rental_uris":{"android":"levelo://app?vid=4b10c409-28aa-4c2b-af65-3313e9e7297c","ios":"levelo://app?vid=4b10c409-28aa-4c2b-af65-3313e9e7297c"},"vehicle_type_id":"4","last_reported":1731071750,"current_range_meters":19600,"station_id":"ce4bhqp2rcd13ifvqhng","pricing_plan_id":"cebpf4jnsgd1na2vs0mg"},{"bike_id":"fe234b70-78d3-458d-be67-253d3b8f30c3","system_id":"levelo_inurba_marseille","lat":43.2849,"lon":5.38431,"is_reserved":false,"is_disabled":false,"rental_uris":{"android":"levelo://app?vid=fe234b70-78d3-458d-be67-253d3b8f30c3","ios":"levelo://app?vid=fe234b70-78d3-458d-be67-253d3b8f30c3"},"vehicle_type_id":"4","last_reported":1731071750,"current_range_meters":25200,"station_id":"ce4bh512rcd13ifvqe3g","pricing_plan_id":"cebpf4jnsgd1na2vs0mg"},{"bike_id":"9d187e41-e8d8-4fdb-9fe7-5f6de266c1ef","system_id":"levelo_inurba_marseille","lat":43.30294,"lon":5.37697,"is_reserved":false,"is_disabled":false,"rental_uris":{"android":"levelo://app?vid=9d187e41-e8d8-4fdb-9fe7-5f6de266c1ef","ios":"levelo://app?vid=9d187e41-e8d8-4fdb-9fe7-5f6de266c1ef"},"vehicle_type_id":"4","last_reported":1731071750,"current_range_meters":38800,"station_id":"ce4bguh2rcd13ifvqcj0","pricing_plan_id":"cebpf4jnsgd1na2vs0mg"},{"bike_id":"32e30d26-bdc8-480e-9cbc-1831bf3b336e","system_id":"levelo_inurba_marseille","lat":43.30911,"lon":5.36847,"is_reserved":false,"is_disabled":false,"rental_uris":{"android":"levelo://app?vid=32e30d26-bdc8-480e-9cbc-1831bf3b336e","ios":"levelo://app?vid=32e30d26-bdc8-480e-9cbc-1831bf3b336e"},"vehicle_type_id":"4","last_reported":1731071750,"current_range_meters":24800,"station_id":"ce4bgn92rcd13ifvqbvg","pricing_plan_id":"cebpf4jnsgd1na2vs0mg"},{"bike_id":"2d2562ea-568b-428f-9d02-f01744f33d1f","system_id":"levelo_inurba_marseille","lat":43.29784,"lon":5.37101,"is_reserved":false,"is_disabled":false,"rental_uris":{"android":"levelo://app?vid=2d2562ea-568b-428f-9d02-f01744f33d1f","ios":"levelo://app?vid=2d2562ea-568b-428f-9d02-f01744f33d1f"},"vehicle_type_id":"4","last_reported":1731071750,"current_range_meters":28400,"station_id":"ce4bgop2rcd13ifvqc1g","pricing_plan_id":"cebpf4jnsgd1na2vs0mg"},{"bike_id":"d7367dae-c7e6-4f05-906e-4ff9800b773e","system_id":"levelo_inurba_marseille","lat":43.29042,"lon":5.37562,"is_reserved":false,"is_disabled":false,"rental_uris":{"android":"levelo://app?vid=d7367dae-c7e6-4f05-906e-4ff9800b773e","ios":"levelo://app?vid=d7367dae-c7e6-4f05-906e-4ff9800b773e"},"vehicle_type_id":"4","last_reported":1731071750,"current_range_meters":39200,"station_id":"ce4bh692rcd13ifvqe90","pricing_plan_id":"cebpf4jnsgd1na2vs0mg"},{"bike_id":"0f707362-384e-4c4c-90f6-eb2d477a6ec9","system_id":"levelo_inurba_marseille","lat":43.30462,"lon":5.37912,"is_reserved":false,"is_disabled":false,"rental_uris":{"android":"levelo://app?vid=0f707362-384e-4c4c-90f6-eb2d477a6ec9","ios":"levelo://app?vid=0f707362-384e-4c4c-90f6-eb2d477a6ec9"},"vehicle_type_id":"4","last_reported":1731071750,"current_range_meters":24400,"station_id":"ce4bgup2rcd13ifvqcn0","pricing_plan_id":"cebpf4jnsgd1na2vs0mg"},{"bike_id":"2bbcb9cc-f8b8-4b14-879a-f3df66920005","system_id":"levelo_inurba_marseille","lat":43.31229,"lon":5.3685,"is_reserved":false,"is_disabled":false,"rental_uris":{"android":"levelo://app?vid=2bbcb9cc-f8b8-4b14-879a-f3df66920005","ios":"levelo://app?vid=2bbcb9cc-f8b8-4b14-879a-f3df66920005"},"vehicle_type_id":"4","last_reported":1731071750,"current_range_meters":20400,"station_id":"ce4bgl92rcd13ifvqbq0","pricing_plan_id":"cebpf4jnsgd1na2vs0mg"},{"bike_id":"94a1c3ea-483a-4192-ad42-fad0b81b347e","system_id":"levelo_inurba_marseille","lat":43.29202,"lon":5.39307,"is_reserved":false,"is_disabled":false,"rental_uris":{"android":"levelo://app?vid=94a1c3ea-483a-4192-ad42-fad0b81b347e","ios":"levelo://app?vid=94a1c3ea-483a-4192-ad42-fad0b81b347e"},"vehicle_type_id":"4","last_reported":1731071750,"current_range_meters":38800,"station_id":"ce4bh192rcd13ifvqdd0","pricing_plan_id":"cebpf4jnsgd1na2vs0mg"},{"bike_id":"8d9b4948-ffb1-4606-affc-44ff0ef17cad","system_id":"levelo_inurba_marseille","lat":43.27313,"lon":5.39096,"is_reserved":false,"is_disabled":false,"rental_uris":{"android":"levelo://app?vid=8d9b4948-ffb1-4606-affc-44ff0ef17cad","ios":"levelo://app?vid=8d9b4948-ffb1-4606-affc-44ff0ef17cad"},"vehicle_type_id":"4","last_reported":1731071750,"current_range_meters":32000,"station_id":"ce4bhgp2rcd13ifvqfe0","pricing_plan_id":"cebpf4jnsgd1na2vs0mg"},{"bike_id":"c4860642-f700-4865-b293-9131f4d88fb7","system_id":"levelo_inurba_marseille","lat":43.32478,"lon":5.36575,"is_reserved":false,"is_disabled":false,"rental_uris":{"android":"levelo://app?vid=c4860642-f700-4865-b293-9131f4d88fb7","ios":"levelo://app?vid=c4860642-f700-4865-b293-9131f4d88fb7"},"vehicle_type_id":"4","last_reported":1731071750,"current_range_meters":18800,"station_id":"ce4bhs12rcd13ifvqhvg","pricing_plan_id":"cebpf4jnsgd1na2vs0mg"},{"bike_id":"08464f54-62c4-4cbd-9c6e-314f2c93ad66","system_id":"levelo_inurba_marseille","lat":43.32542,"lon":5.41435,"is_reserved":false,"is_disabled":false,"rental_uris":{"android":"levelo://app?vid=08464f54-62c4-4cbd-9c6e-314f2c93ad66","ios":"levelo://app?vid=08464f54-62c4-4cbd-9c6e-314f2c93ad66"},"vehicle_type_id":"4","last_reported":1731071750,"current_range_meters":26800,"station_id":"ce4bhq12rcd13ifvqhhg","pricing_plan_id":"cebpf4jnsgd1na2vs0mg"},{"bike_id":"f50e857c-e79e-4585-b438-3487e1d543d2","system_id":"levelo_inurba_marseille","lat":43.23965,"lon":5.36632,"is_reserved":false,"is_disabled":false,"rental_uris":{"android":"levelo://app?vid=f50e857c-e79e-4585-b438-3487e1d543d2","ios":"levelo://app?vid=f50e857c-e79e-4585-b438-3487e1d543d2"},"vehicle_type_id":"4","last_reported":1731071750,"current_range_meters":8000,"station_id":"ce4bhi12rcd13ifvqfp0","pricing_plan_id":"cebpf4jnsgd1na2vs0mg"},{"bike_id":"cf7eea50-8ca4-4b52-b048-2953b8a3370f","system_id":"levelo_inurba_marseille","lat":43.25869,"lon":5.39903,"is_reserved":false,"is_disabled":false,"rental_uris":{"android":"levelo://app?vid=cf7eea50-8ca4-4b52-b048-2953b8a3370f","ios":"levelo://app?vid=cf7eea50-8ca4-4b52-b048-2953b8a3370f"},"vehicle_type_id":"4","last_reported":1731071750,"current_range_meters":28000,"station_id":"ce4bhl92rcd13ifvqghg","pricing_plan_id":"cebpf4jnsgd1na2vs0mg"},{"bike_id":"d9af5e3a-8f7a-4432-be49-b823312daf5d","system_id":"levelo_inurba_marseille","lat":43.28854,"lon":5.35861,"is_reserved":false,"is_disabled":false,"rental_uris":{"android":"levelo://app?vid=d9af5e3a-8f7a-4432-be49-b823312daf5d","ios":"levelo://app?vid=d9af5e3a-8f7a-4432-be49-b823312daf5d"},"vehicle_type_id":"4","last_reported":1731071750,"current_range_meters":29600,"station_id":"ce4bhb12rcd13ifvqem0","pricing_plan_id":"cebpf4jnsgd1na2vs0mg"},{"bike_id":"a857852f-ab68-41f9-9316-7113b72659b6","system_id":"levelo_inurba_marseille","lat":43.25011,"lon":5.38927,"is_reserved":false,"is_disabled":false,"rental_uris":{"android":"levelo://app?vid=a857852f-ab68-41f9-9316-7113b72659b6","ios":"levelo://app?vid=a857852f-ab68-41f9-9316-7113b72659b6"},"vehicle_type_id":"4","last_reported":1731071750,"current_range_meters":11200,"station_id":"ce4bhgp2rcd13ifvqfd0","pricing_plan_id":"cebpf4jnsgd1na2vs0mg"},{"bike_id":"4da14e1b-131c-41ff-a192-5be6d8c75907","system_id":"levelo_inurba_marseille","lat":43.24809,"lon":5.37462,"is_reserved":false,"is_disabled":false,"rental_uris":{"android":"levelo://app?vid=4da14e1b-131c-41ff-a192-5be6d8c75907","ios":"levelo://app?vid=4da14e1b-131c-41ff-a192-5be6d8c75907"},"vehicle_type_id":"4","last_reported":1731071750,"current_range_meters":16000,"station_id":"ce4bhgh2rcd13ifvqfb0","pricing_plan_id":"cebpf4jnsgd1na2vs0mg"},{"bike_id":"8cad707a-e3ad-40e9-b226-f167324d7985","system_id":"levelo_inurba_marseille","lat":43.32289,"lon":5.3827,"is_reserved":false,"is_disabled":false,"rental_uris":{"android":"levelo://app?vid=8cad707a-e3ad-40e9-b226-f167324d7985","ios":"levelo://app?vid=8cad707a-e3ad-40e9-b226-f167324d7985"},"vehicle_type_id":"4","last_reported":1731071750,"current_range_meters":30000,"station_id":"ce4bhr12rcd13ifvqhqg","pricing_plan_id":"cebpf4jnsgd1na2vs0mg"},{"bike_id":"cf8f8482-f782-4c29-b6ce-e440f1c1c735","system_id":"levelo_inurba_marseille","lat":43.30548,"lon":5.36698,"is_reserved":false,"is_disabled":false,"rental_uris":{"android":"levelo://app?vid=cf8f8482-f782-4c29-b6ce-e440f1c1c735","ios":"levelo://app?vid=cf8f8482-f782-4c29-b6ce-e440f1c1c735"},"vehicle_type_id":"4","last_reported":1731071750,"current_range_meters":38800,"station_id":"ce4bgrp2rcd13ifvqc9g","pricing_plan_id":"cebpf4jnsgd1na2vs0mg"},{"bike_id":"98f3c442-9727-4caa-8fd5-63209b42a86c","system_id":"levelo_inurba_marseille","lat":43.25824,"lon":5.39439,"is_reserved":false,"is_disabled":false,"rental_uris":{"android":"levelo://app?vid=98f3c442-9727-4caa-8fd5-63209b42a86c","ios":"levelo://app?vid=98f3c442-9727-4caa-8fd5-63209b42a86c"},"vehicle_type_id":"4","last_reported":1731071750,"current_range_meters":28400,"station_id":"ce4bhip2rcd13ifvqft0","pricing_plan_id":"cebpf4jnsgd1na2vs0mg"},{"bike_id":"40adf87a-b88d-4491-97f8-fb98e21d32ef","system_id":"levelo_inurba_marseille","lat":43.29079,"lon":5.37162,"is_reserved":false,"is_disabled":false,"rental_uris":{"android":"levelo://app?vid=40adf87a-b88d-4491-97f8-fb98e21d32ef","ios":"levelo://app?vid=40adf87a-b88d-4491-97f8-fb98e21d32ef"},"vehicle_type_id":"4","last_reported":1731071750,"current_range_meters":24400,"station_id":"ce4bh5p2rcd13ifvqe4g","pricing_plan_id":"cebpf4jnsgd1na2vs0mg"},{"bike_id":"ff989801-f59b-46d1-867b-7c2b6eab1cca","system_id":"levelo_inurba_marseille","lat":43.337444,"lon":5.374475,"is_reserved":false,"is_disabled":false,"rental_uris":{"android":"levelo://app?vid=ff989801-f59b-46d1-867b-7c2b6eab1cca","ios":"levelo://app?vid=ff989801-f59b-46d1-867b-7c2b6eab1cca"},"vehicle_type_id":"4","last_reported":1731071750,"current_range_meters":38000,"station_id":"","pricing_plan_id":"cebpf4jnsgd1na2vs0mg"},{"bike_id":"eab9e695-9a87-4479-8d9c-13db92e6b0f4","system_id":"levelo_inurba_marseille","lat":43.29582,"lon":5.36743,"is_reserved":false,"is_disabled":false,"rental_uris":{"android":"levelo://app?vid=eab9e695-9a87-4479-8d9c-13db92e6b0f4","ios":"levelo://app?vid=eab9e695-9a87-4479-8d9c-13db92e6b0f4"},"vehicle_type_id":"4","last_reported":1731071750,"current_range_meters":38800,"station_id":"ce4bgph2rcd13ifvqc2g","pricing_plan_id":"cebpf4jnsgd1na2vs0mg"},{"bike_id":"0f445d8d-c5c6-4426-9c60-d64eb330cd19","system_id":"levelo_inurba_marseille","lat":43.32289,"lon":5.38275,"is_reserved":false,"is_disabled":false,"rental_uris":{"android":"levelo://app?vid=0f445d8d-c5c6-4426-9c60-d64eb330cd19","ios":"levelo://app?vid=0f445d8d-c5c6-4426-9c60-d64eb330cd19"},"vehicle_type_id":"4","last_reported":1731071750,"current_range_meters":38400,"station_id":"ce4bhr12rcd13ifvqhqg","pricing_plan_id":"cebpf4jnsgd1na2vs0mg"},{"bike_id":"e9c8a630-2d73-4117-9bf7-aca5570a0743","system_id":"levelo_inurba_marseille","lat":43.23187,"lon":5.39988,"is_reserved":false,"is_disabled":false,"rental_uris":{"android":"levelo://app?vid=e9c8a630-2d73-4117-9bf7-aca5570a0743","ios":"levelo://app?vid=e9c8a630-2d73-4117-9bf7-aca5570a0743"},"vehicle_type_id":"4","last_reported":1731071750,"current_range_meters":36800,"station_id":"ce4bhn12rcd13ifvqgqg","pricing_plan_id":"cebpf4jnsgd1na2vs0mg"},{"bike_id":"17f82b42-6551-4c0a-8ff1-d994768496b0","system_id":"levelo_inurba_marseille","lat":43.31482,"lon":5.37314,"is_reserved":false,"is_disabled":false,"rental_uris":{"android":"levelo://app?vid=17f82b42-6551-4c0a-8ff1-d994768496b0","ios":"levelo://app?vid=17f82b42-6551-4c0a-8ff1-d994768496b0"},"vehicle_type_id":"4","last_reported":1731071750,"current_range_meters":22800,"station_id":"ce4bgt12rcd13ifvqcd0","pricing_plan_id":"cebpf4jnsgd1na2vs0mg"},{"bike_id":"c517a4ee-7a32-4e4c-84c4-637e1007d970","system_id":"levelo_inurba_marseille","lat":43.26682,"lon":5.38273,"is_reserved":false,"is_disabled":false,"rental_uris":{"android":"levelo://app?vid=c517a4ee-7a32-4e4c-84c4-637e1007d970","ios":"levelo://app?vid=c517a4ee-7a32-4e4c-84c4-637e1007d970"},"vehicle_type_id":"4","last_reported":1731071750,"current_range_meters":37600,"station_id":"ce4bhg92rcd13ifvqf90","pricing_plan_id":"cebpf4jnsgd1na2vs0mg"},{"bike_id":"164cd3b7-96e6-4ae6-b7f3-05fa1f137c9f","system_id":"levelo_inurba_marseille","lat":43.30884,"lon":5.39644,"is_reserved":false,"is_disabled":false,"rental_uris":{"android":"levelo://app?vid=164cd3b7-96e6-4ae6-b7f3-05fa1f137c9f","ios":"levelo://app?vid=164cd3b7-96e6-4ae6-b7f3-05fa1f137c9f"},"vehicle_type_id":"4","last_reported":1731071750,"current_range_meters":35200,"station_id":"ce4bh012rcd13ifvqcv0","pricing_plan_id":"cebpf4jnsgd1na2vs0mg"},{"bike_id":"acd3a113-4782-472a-9aa3-24b77925a532","system_id":"levelo_inurba_marseille","lat":43.30151,"lon":5.37426,"is_reserved":false,"is_disabled":false,"rental_uris":{"android":"levelo://app?vid=acd3a113-4782-472a-9aa3-24b77925a532","ios":"levelo://app?vid=acd3a113-4782-472a-9aa3-24b77925a532"},"vehicle_type_id":"4","last_reported":1731071750,"current_range_meters":31200,"station_id":"ce4bgs92rcd13ifvqcc0","pricing_plan_id":"cebpf4jnsgd1na2vs0mg"},{"bike_id":"d115c69c-dc61-4019-86ca-8f3ef1285cfb","system_id":"levelo_inurba_marseille","lat":43.22929,"lon":5.3538,"is_reserved":false,"is_disabled":false,"rental_uris":{"android":"levelo://app?vid=d115c69c-dc61-4019-86ca-8f3ef1285cfb","ios":"levelo://app?vid=d115c69c-dc61-4019-86ca-8f3ef1285cfb"},"vehicle_type_id":"4","last_reported":1731071750,"current_range_meters":36800,"station_id":"cpo3532slgdg3j2ikp40","pricing_plan_id":"cebpf4jnsgd1na2vs0mg"},{"bike_id":"8efd0c02-0960-4d1b-85fd-5ccaeccaf819","system_id":"levelo_inurba_marseille","lat":43.30534,"lon":5.36529,"is_reserved":false,"is_disabled":false,"rental_uris":{"android":"levelo://app?vid=8efd0c02-0960-4d1b-85fd-5ccaeccaf819","ios":"levelo://app?vid=8efd0c02-0960-4d1b-85fd-5ccaeccaf819"},"vehicle_type_id":"4","last_reported":1731071750,"current_range_meters":19200,"station_id":"ce4bgs12rcd13ifvqcag","pricing_plan_id":"cebpf4jnsgd1na2vs0mg"},{"bike_id":"bdc0e56f-8ec1-460e-8532-2976e16b80ef","system_id":"levelo_inurba_marseille","lat":43.33753,"lon":5.37469,"is_reserved":false,"is_disabled":false,"rental_uris":{"android":"levelo://app?vid=bdc0e56f-8ec1-460e-8532-2976e16b80ef","ios":"levelo://app?vid=bdc0e56f-8ec1-460e-8532-2976e16b80ef"},"vehicle_type_id":"4","last_reported":1731071750,"current_range_meters":33600,"station_id":"","pricing_plan_id":"cebpf4jnsgd1na2vs0mg"},{"bike_id":"4fcc0f07-34d7-4aab-92ae-1432630bbd7a","system_id":"levelo_inurba_marseille","lat":43.30311,"lon":5.36905,"is_reserved":false,"is_disabled":false,"rental_uris":{"android":"levelo://app?vid=4fcc0f07-34d7-4aab-92ae-1432630bbd7a","ios":"levelo://app?vid=4fcc0f07-34d7-4aab-92ae-1432630bbd7a"},"vehicle_type_id":"4","last_reported":1731071750,"current_range_meters":28000,"station_id":"ce4bgqh2rcd13ifvqc5g","pricing_plan_id":"cebpf4jnsgd1na2vs0mg"},{"bike_id":"0def2c40-935c-4e60-a5e8-8e45a6388ffb","system_id":"levelo_inurba_marseille","lat":43.25873,"lon":5.39897,"is_reserved":false,"is_disabled":false,"rental_uris":{"android":"levelo://app?vid=0def2c40-935c-4e60-a5e8-8e45a6388ffb","ios":"levelo://app?vid=0def2c40-935c-4e60-a5e8-8e45a6388ffb"},"vehicle_type_id":"4","last_reported":1731071750,"current_range_meters":30000,"station_id":"ce4bhl92rcd13ifvqghg","pricing_plan_id":"cebpf4jnsgd1na2vs0mg"},{"bike_id":"6ba9ca98-cdab-46e8-bcb3-d22861a3b09f","system_id":"levelo_inurba_marseille","lat":43.26212,"lon":5.37442,"is_reserved":false,"is_disabled":false,"rental_uris":{"android":"levelo://app?vid=6ba9ca98-cdab-46e8-bcb3-d22861a3b09f","ios":"levelo://app?vid=6ba9ca98-cdab-46e8-bcb3-d22861a3b09f"},"vehicle_type_id":"4","last_reported":1731071750,"current_range_meters":36800,"station_id":"ce4bhgp2rcd13ifvqfc0","pricing_plan_id":"cebpf4jnsgd1na2vs0mg"},{"bike_id":"38b766ed-05ed-414b-8453-336ebd5dbba9","system_id":"levelo_inurba_marseille","lat":43.2931,"lon":5.3719,"is_reserved":false,"is_disabled":false,"rental_uris":{"android":"levelo://app?vid=38b766ed-05ed-414b-8453-336ebd5dbba9","ios":"levelo://app?vid=38b766ed-05ed-414b-8453-336ebd5dbba9"},"vehicle_type_id":"4","last_reported":1731071750,"current_range_meters":37600,"station_id":"ce4bgh92rcd13ifvqb40","pricing_plan_id":"cebpf4jnsgd1na2vs0mg"},{"bike_id":"ed366f95-9ba9-4569-a29b-9d8d122c6858","system_id":"levelo_inurba_marseille","lat":43.27815,"lon":5.40711,"is_reserved":false,"is_disabled":false,"rental_uris":{"android":"levelo://app?vid=ed366f95-9ba9-4569-a29b-9d8d122c6858","ios":"levelo://app?vid=ed366f95-9ba9-4569-a29b-9d8d122c6858"},"vehicle_type_id":"4","last_reported":1731071750,"current_range_meters":30800,"station_id":"ce4bhnh2rcd13ifvqgtg","pricing_plan_id":"cebpf4jnsgd1na2vs0mg"},{"bike_id":"2d9666ab-3575-4eea-b7e7-239ff3f3e41c","system_id":"levelo_inurba_marseille","lat":43.29369,"lon":5.37841,"is_reserved":false,"is_disabled":false,"rental_uris":{"android":"levelo://app?vid=2d9666ab-3575-4eea-b7e7-239ff3f3e41c","ios":"levelo://app?vid=2d9666ab-3575-4eea-b7e7-239ff3f3e41c"},"vehicle_type_id":"4","last_reported":1731071750,"current_range_meters":28800,"station_id":"ce4bgjh2rcd13ifvqbf0","pricing_plan_id":"cebpf4jnsgd1na2vs0mg"},{"bike_id":"7d575a83-29c2-4413-91cf-3cf972c579e1","system_id":"levelo_inurba_marseille","lat":43.28951,"lon":5.36399,"is_reserved":false,"is_disabled":false,"rental_uris":{"android":"levelo://app?vid=7d575a83-29c2-4413-91cf-3cf972c579e1","ios":"levelo://app?vid=7d575a83-29c2-4413-91cf-3cf972c579e1"},"vehicle_type_id":"4","last_reported":1731071750,"current_range_meters":20000,"station_id":"ce4bhc92rcd13ifvqetg","pricing_plan_id":"cebpf4jnsgd1na2vs0mg"},{"bike_id":"665d75d7-694d-4ce1-a474-00da4d51ba9b","system_id":"levelo_inurba_marseille","lat":43.27683,"lon":5.38884,"is_reserved":false,"is_disabled":false,"rental_uris":{"android":"levelo://app?vid=665d75d7-694d-4ce1-a474-00da4d51ba9b","ios":"levelo://app?vid=665d75d7-694d-4ce1-a474-00da4d51ba9b"},"vehicle_type_id":"4","last_reported":1731071750,"current_range_meters":4000,"station_id":"ce4bhi12rcd13ifvqfo0","pricing_plan_id":"cebpf4jnsgd1na2vs0mg"},{"bike_id":"c5a86f13-1741-4a55-b7ed-67201b94b97e","system_id":"levelo_inurba_marseille","lat":43.29981,"lon":5.37186,"is_reserved":false,"is_disabled":false,"rental_uris":{"android":"levelo://app?vid=c5a86f13-1741-4a55-b7ed-67201b94b97e","ios":"levelo://app?vid=c5a86f13-1741-4a55-b7ed-67201b94b97e"},"vehicle_type_id":"4","last_reported":1731071750,"current_range_meters":37600,"station_id":"ce4bgr92rcd13ifvqc7g","pricing_plan_id":"cebpf4jnsgd1na2vs0mg"},{"bike_id":"11217f86-f5d4-4c38-b7d2-0ab41d260ecd","system_id":"levelo_inurba_marseille","lat":43.29258,"lon":5.3844,"is_reserved":false,"is_disabled":false,"rental_uris":{"android":"levelo://app?vid=11217f86-f5d4-4c38-b7d2-0ab41d260ecd","ios":"levelo://app?vid=11217f86-f5d4-4c38-b7d2-0ab41d260ecd"},"vehicle_type_id":"4","last_reported":1731071750,"current_range_meters":34800,"station_id":"ce4bh692rcd13ifvqea0","pricing_plan_id":"cebpf4jnsgd1na2vs0mg"},{"bike_id":"7e9dd6ce-a416-43f9-a22d-0d514a74a582","system_id":"levelo_inurba_marseille","lat":43.29573,"lon":5.39978,"is_reserved":false,"is_disabled":false,"rental_uris":{"android":"levelo://app?vid=7e9dd6ce-a416-43f9-a22d-0d514a74a582","ios":"levelo://app?vid=7e9dd6ce-a416-43f9-a22d-0d514a74a582"},"vehicle_type_id":"4","last_reported":1731071750,"current_range_meters":8800,"station_id":"ce4bh312rcd13ifvqdj0","pricing_plan_id":"cebpf4jnsgd1na2vs0mg"},{"bike_id":"958a4dac-8dcf-4f61-8474-2aa67fe39b16","system_id":"levelo_inurba_marseille","lat":43.25576,"lon":5.38224,"is_reserved":false,"is_disabled":false,"rental_uris":{"android":"levelo://app?vid=958a4dac-8dcf-4f61-8474-2aa67fe39b16","ios":"levelo://app?vid=958a4dac-8dcf-4f61-8474-2aa67fe39b16"},"vehicle_type_id":"4","last_reported":1731071750,"current_range_meters":10800,"station_id":"ce4bhih2rcd13ifvqfs0","pricing_plan_id":"cebpf4jnsgd1na2vs0mg"},{"bike_id":"199f3831-c04a-454b-85c1-7148d71c8612","system_id":"levelo_inurba_marseille","lat":43.31335,"lon":5.39696,"is_reserved":false,"is_disabled":false,"rental_uris":{"android":"levelo://app?vid=199f3831-c04a-454b-85c1-7148d71c8612","ios":"levelo://app?vid=199f3831-c04a-454b-85c1-7148d71c8612"},"vehicle_type_id":"4","last_reported":1731071750,"current_range_meters":38800,"station_id":"ce4bgvp2rcd13ifvqcu0","pricing_plan_id":"cebpf4jnsgd1na2vs0mg"},{"bike_id":"d3ba1181-4785-49b3-be66-9c9a1f895c58","system_id":"levelo_inurba_marseille","lat":43.29035,"lon":5.37562,"is_reserved":false,"is_disabled":false,"rental_uris":{"android":"levelo://app?vid=d3ba1181-4785-49b3-be66-9c9a1f895c58","ios":"levelo://app?vid=d3ba1181-4785-49b3-be66-9c9a1f895c58"},"vehicle_type_id":"4","last_reported":1731071750,"current_range_meters":30800,"station_id":"ce4bh692rcd13ifvqe90","pricing_plan_id":"cebpf4jnsgd1na2vs0mg"},{"bike_id":"e52420d4-63e9-418f-89d3-416320262e35","system_id":"levelo_inurba_marseille","lat":43.23962,"lon":5.36629,"is_reserved":false,"is_disabled":false,"rental_uris":{"android":"levelo://app?vid=e52420d4-63e9-418f-89d3-416320262e35","ios":"levelo://app?vid=e52420d4-63e9-418f-89d3-416320262e35"},"vehicle_type_id":"4","last_reported":1731071750,"current_range_meters":38800,"station_id":"ce4bhi12rcd13ifvqfp0","pricing_plan_id":"cebpf4jnsgd1na2vs0mg"},{"bike_id":"02f3bd69-c440-439f-96d2-1f56246cbb70","system_id":"levelo_inurba_marseille","lat":43.23055,"lon":5.35489,"is_reserved":false,"is_disabled":false,"rental_uris":{"android":"levelo://app?vid=02f3bd69-c440-439f-96d2-1f56246cbb70","ios":"levelo://app?vid=02f3bd69-c440-439f-96d2-1f56246cbb70"},"vehicle_type_id":"4","last_reported":1731071750,"current_range_meters":32400,"station_id":"cpo3342slgdg3j2ifvpg","pricing_plan_id":"cebpf4jnsgd1na2vs0mg"},{"bike_id":"16dc682d-1fa0-46f8-90c4-c8479c008c43","system_id":"levelo_inurba_marseille","lat":43.29607,"lon":5.38111,"is_reserved":false,"is_disabled":false,"rental_uris":{"android":"levelo://app?vid=16dc682d-1fa0-46f8-90c4-c8479c008c43","ios":"levelo://app?vid=16dc682d-1fa0-46f8-90c4-c8479c008c43"},"vehicle_type_id":"4","last_reported":1731071750,"current_range_meters":31200,"station_id":"ce4bgl12rcd13ifvqbo0","pricing_plan_id":"cebpf4jnsgd1na2vs0mg"},{"bike_id":"b26326ff-73a1-4254-96f5-a4d8c5fdb74a","system_id":"levelo_inurba_marseille","lat":43.28149,"lon":5.42633,"is_reserved":false,"is_disabled":false,"rental_uris":{"android":"levelo://app?vid=b26326ff-73a1-4254-96f5-a4d8c5fdb74a","ios":"levelo://app?vid=b26326ff-73a1-4254-96f5-a4d8c5fdb74a"},"vehicle_type_id":"4","last_reported":1731071750,"current_range_meters":33600,"station_id":"ce4bhnh2rcd13ifvqgug","pricing_plan_id":"cebpf4jnsgd1na2vs0mg"},{"bike_id":"054ee07d-072e-4e80-af40-bc3f45c01dc9","system_id":"levelo_inurba_marseille","lat":43.29076,"lon":5.3716,"is_reserved":false,"is_disabled":false,"rental_uris":{"android":"levelo://app?vid=054ee07d-072e-4e80-af40-bc3f45c01dc9","ios":"levelo://app?vid=054ee07d-072e-4e80-af40-bc3f45c01dc9"},"vehicle_type_id":"4","last_reported":1731071750,"current_range_meters":38000,"station_id":"ce4bh5p2rcd13ifvqe4g","pricing_plan_id":"cebpf4jnsgd1na2vs0mg"},{"bike_id":"ad1a4eed-0121-40c8-8c1a-96a29bb86511","system_id":"levelo_inurba_marseille","lat":43.31763,"lon":5.39014,"is_reserved":false,"is_disabled":false,"rental_uris":{"android":"levelo://app?vid=ad1a4eed-0121-40c8-8c1a-96a29bb86511","ios":"levelo://app?vid=ad1a4eed-0121-40c8-8c1a-96a29bb86511"},"vehicle_type_id":"4","last_reported":1731071750,"current_range_meters":38800,"station_id":"ce4bhqp2rcd13ifvqhng","pricing_plan_id":"cebpf4jnsgd1na2vs0mg"},{"bike_id":"003196b0-8394-4df7-a27f-70f2646d5441","system_id":"levelo_inurba_marseille","lat":43.320526,"lon":5.415275,"is_reserved":false,"is_disabled":false,"rental_uris":{"android":"levelo://app?vid=003196b0-8394-4df7-a27f-70f2646d5441","ios":"levelo://app?vid=003196b0-8394-4df7-a27f-70f2646d5441"},"vehicle_type_id":"4","last_reported":1731071750,"current_range_meters":3600,"station_id":"ce4bhq92rcd13ifvqhkg","pricing_plan_id":"cebpf4jnsgd1na2vs0mg"},{"bike_id":"1b31d83e-3be8-4b8e-83ee-f6cd6581af1c","system_id":"levelo_inurba_marseille","lat":43.26934,"lon":5.38925,"is_reserved":false,"is_disabled":false,"rental_uris":{"android":"levelo://app?vid=1b31d83e-3be8-4b8e-83ee-f6cd6581af1c","ios":"levelo://app?vid=1b31d83e-3be8-4b8e-83ee-f6cd6581af1c"},"vehicle_type_id":"4","last_reported":1731071750,"current_range_meters":24400,"station_id":"ce4bhhh2rcd13ifvqfl0","pricing_plan_id":"cebpf4jnsgd1na2vs0mg"},{"bike_id":"f6240ba0-900a-4bbb-b767-16165ed8fd4d","system_id":"levelo_inurba_marseille","lat":43.31816,"lon":5.38775,"is_reserved":false,"is_disabled":false,"rental_uris":{"android":"levelo://app?vid=f6240ba0-900a-4bbb-b767-16165ed8fd4d","ios":"levelo://app?vid=f6240ba0-900a-4bbb-b767-16165ed8fd4d"},"vehicle_type_id":"4","last_reported":1731071750,"current_range_meters":11200,"station_id":"","pricing_plan_id":"cebpf4jnsgd1na2vs0mg"},{"bike_id":"a28cfdeb-e930-467b-915e-09543549bbe8","system_id":"levelo_inurba_marseille","lat":43.31238,"lon":5.36865,"is_reserved":false,"is_disabled":false,"rental_uris":{"android":"levelo://app?vid=a28cfdeb-e930-467b-915e-09543549bbe8","ios":"levelo://app?vid=a28cfdeb-e930-467b-915e-09543549bbe8"},"vehicle_type_id":"4","last_reported":1731071750,"current_range_meters":8400,"station_id":"ce4bgl92rcd13ifvqbq0","pricing_plan_id":"cebpf4jnsgd1na2vs0mg"},{"bike_id":"f3675469-de76-4a89-b0b1-0596e5dc5664","system_id":"levelo_inurba_marseille","lat":43.29532,"lon":5.36705,"is_reserved":false,"is_disabled":false,"rental_uris":{"android":"levelo://app?vid=f3675469-de76-4a89-b0b1-0596e5dc5664","ios":"levelo://app?vid=f3675469-de76-4a89-b0b1-0596e5dc5664"},"vehicle_type_id":"4","last_reported":1731071750,"current_range_meters":19200,"station_id":"ce4bgph2rcd13ifvqc2g","pricing_plan_id":"cebpf4jnsgd1na2vs0mg"},{"bike_id":"f2866440-3dd8-422a-b48c-51cd8869d6cd","system_id":"levelo_inurba_marseille","lat":43.29791,"lon":5.38101,"is_reserved":false,"is_disabled":false,"rental_uris":{"android":"levelo://app?vid=f2866440-3dd8-422a-b48c-51cd8869d6cd","ios":"levelo://app?vid=f2866440-3dd8-422a-b48c-51cd8869d6cd"},"vehicle_type_id":"4","last_reported":1731071750,"current_range_meters":31200,"station_id":"ce4bgip2rcd13ifvqbb0","pricing_plan_id":"cebpf4jnsgd1na2vs0mg"},{"bike_id":"d76f6347-395f-4e57-8af4-c524e2667097","system_id":"levelo_inurba_marseille","lat":43.28946,"lon":5.36637,"is_reserved":false,"is_disabled":false,"rental_uris":{"android":"levelo://app?vid=d76f6347-395f-4e57-8af4-c524e2667097","ios":"levelo://app?vid=d76f6347-395f-4e57-8af4-c524e2667097"},"vehicle_type_id":"4","last_reported":1731071750,"current_range_meters":12800,"station_id":"ce4bhap2rcd13ifvqek0","pricing_plan_id":"cebpf4jnsgd1na2vs0mg"},{"bike_id":"5ff265e3-ff12-4921-96f3-63d05d31bed9","system_id":"levelo_inurba_marseille","lat":43.31371,"lon":5.3849,"is_reserved":false,"is_disabled":false,"rental_uris":{"android":"levelo://app?vid=5ff265e3-ff12-4921-96f3-63d05d31bed9","ios":"levelo://app?vid=5ff265e3-ff12-4921-96f3-63d05d31bed9"},"vehicle_type_id":"4","last_reported":1731071750,"current_range_meters":12400,"station_id":"ce4bgt92rcd13ifvqcf0","pricing_plan_id":"cebpf4jnsgd1na2vs0mg"},