{"last_updated":1735466940,"ttl":60,"version":"2.2","data":{"bikes":[{"bike_id":"1b9b7ac5-7146-4875-a901-6087283acb22","system_id":"levelo_inurba_marseille","lat":43.28071,"lon":5.396521,"is_reserved":false,"is_disabled":false,"rental_uris":{"android":"levelo://app?vid=1b9b7ac5-7146-4875-a901-6087283acb22","ios":"levelo://app?vid=1b9b7ac5-7146-4875-a901-6087283acb22"},"vehicle_type_id":"4","last_reported":1735466941,"current_range_meters":28400,"station_id":"ce4bho12rcd13ifvqh2g","pricing_plan_id":"cebpf4jnsgd1na2vs0mg"},{"bike_id":"3946dffa-efd3-40de-97f2-62ef8c95e60d","system_id":"levelo_inurba_marseille","lat":43.29356,"lon":5.37831,"is_reserved":false,"is_disabled":false,"rental_uris":{"android":"levelo://app?vid=3946dffa-efd3-40de-97f2-62ef8c95e60d","ios":"levelo://app?vid=3946dffa-efd3-40de-97f2-62ef8c95e60d"},"vehicle_type_id":"4","last_reported":1735466941,"current_range_meters":38000,"station_id":"ce4bgjh2rcd13ifvqbf0","pricing_plan_id":"cebpf4jnsgd1na2vs0mg"},{"bike_id":"6b42328f-1854-4a25-97f7-efe92120b1ca","system_id":"levelo_inurba_marseille","lat":43.31711,"lon":5.43706,"is_reserved":false,"is_disabled":false,"rental_uris":{"android":"levelo://app?vid=6b42328f-1854-4a25-97f7-efe92120b1ca","ios":"levelo://app?vid=6b42328f-1854-4a25-97f7-efe92120b1ca"},"vehicle_type_id":"4","last_reported":1735466941,"current_range_meters":28800,"station_id":"ce4bhp92rcd13ifvqhcg","pricing_plan_id":"cebpf4jnsgd1na2vs0mg"},{"bike_id":"1123e054-c8e3-4c26-93bd-cba303931104","system_id":"levelo_inurba_marseille","lat":43.29168,"lon":5.3717,"is_reserved":false,"is_disabled":false,"rental_uris":{"android":"levelo://app?vid=1123e054-c8e3-4c26-93bd-cba303931104","ios":"levelo://app?vid=1123e054-c8e3-4c26-93bd-cba303931104"},"vehicle_type_id":"4","last_reported":1735466941,"current_range_meters":14400,"station_id":"ce4bha92rcd13ifvqeh0","pricing_plan_id":"cebpf4jnsgd1na2vs0mg"},{"bike_id":"b4f0b831-11f0-44df-8b83-adba4da987c8","system_id":"levelo_inurba_marseille","lat":43.29615,"lon":5.37196,"is_reserved":false,"is_disabled":false,"rental_uris":{"android":"levelo://app?vid=b4f0b831-11f0-44df-8b83-adba4da987c8","ios":"levelo://app?vid=b4f0b831-11f0-44df-8b83-adba4da987c8"},"vehicle_type_id":"4","last_reported":1735466941,"current_range_meters":26000,"station_id":"ce4bgnh2rcd13ifvqc0g","pricing_plan_id":"cebpf4jnsgd1na2vs0mg"},{"bike_id":"0081e87f-c303-4a7c-9b6f-6bf566a55ca9","system_id":"levelo_inurba_marseille","lat":43.29276,"lon":5.40125,"is_reserved":false,"is_disabled":false,"rental_uris":{"android":"levelo://app?vid=0081e87f-c303-4a7c-9b6f-6bf566a55ca9","ios":"levelo://app?vid=0081e87f-c303-4a7c-9b6f-6bf566a55ca9"},"vehicle_type_id":"4","last_reported":1735466941,"current_range_meters":38800,"station_id":"ce4bh312rcd13ifvqdk0","pricing_plan_id":"cebpf4jnsgd1na2vs0mg"},{"bike_id":"17467958-a151-40f2-98e4-bb65ea00e49d","system_id":"levelo_inurba_marseille","lat":43.27947,"lon":5.41042,"is_reserved":false,"is_disabled":false,"rental_uris":{"android":"levelo://app?vid=17467958-a151-40f2-98e4-bb65ea00e49d","ios":"levelo://app?vid=17467958-a151-40f2-98e4-bb65ea00e49d"},"vehicle_type_id":"4","last_reported":1735466941,"current_range_meters":33200,"station_id":"ce4bhnp2rcd13ifvqh0g","pricing_plan_id":"cebpf4jnsgd1na2vs0mg"},{"bike_id":"8e3501de-0fdd-4c51-8a37-aa32b9990297","system_id":"levelo_inurba_marseille","lat":43.28568,"lon":5.395,"is_reserved":false,"is_disabled":false,"rental_uris":{"android":"levelo://app?vid=8e3501de-0fdd-4c51-8a37-aa32b9990297","ios":"levelo://app?vid=8e3501de-0fdd-4c51-8a37-aa32b9990297"},"vehicle_type_id":"4","last_reported":1735466941,"current_range_meters":38800,"station_id":"ce4bh292rcd13ifvqdg0","pricing_plan_id":"cebpf4jnsgd1na2vs0mg"},{"bike_id":"3991aac2-ec7f-43c8-801f-23e11845f2d6","system_id":"levelo_inurba_marseille","lat":43.28136,"lon":5.42678,"is_reserved":false,"is_disabled":false,"rental_uris":{"android":"levelo://app?vid=3991aac2-ec7f-43c8-801f-23e11845f2d6","ios":"levelo://app?vid=3991aac2-ec7f-43c8-801f-23e11845f2d6"},"vehicle_type_id":"4","last_reported":1735466941,"current_range_meters":38800,"station_id":"ce4bhnh2rcd13ifvqgug","pricing_plan_id":"cebpf4jnsgd1na2vs0mg"},{"bike_id":"06450166-35ea-4146-8f52-53bd835ce382","system_id":"levelo_inurba_marseille","lat":43.29589,"lon":5.38107,"is_reserved":false,"is_disabled":false,"rental_uris":{"android":"levelo://app?vid=06450166-35ea-4146-8f52-53bd835ce382","ios":"levelo://app?vid=06450166-35ea-4146-8f52-53bd835ce382"},"vehicle_type_id":"4","last_reported":1735466941,"current_range_meters":18800,"station_id":"ce4bgl12rcd13ifvqbo0","pricing_plan_id":"cebpf4jnsgd1na2vs0mg"},{"bike_id":"23920f29-adfe-4b79-b4dd-dbe320ee557d","system_id":"levelo_inurba_marseille","lat":43.33598,"lon":5.40971,"is_reserved":false,"is_disabled":false,"rental_uris":{"android":"levelo://app?vid=23920f29-adfe-4b79-b4dd-dbe320ee557d","ios":"levelo://app?vid=23920f29-adfe-4b79-b4dd-dbe320ee557d"},"vehicle_type_id":"4","last_reported":1735466941,"current_range_meters":38800,"station_id":"ce4bhqh2rcd13ifvqhmg","pricing_plan_id":"cebpf4jnsgd1na2vs0mg"},{"bike_id":"6a7f4062-1ef7-4669-90bb-74085051c932","system_id":"levelo_inurba_marseille","lat":43.30784,"lon":5.37644,"is_reserved":false,"is_disabled":false,"rental_uris":{"android":"levelo://app?vid=6a7f4062-1ef7-4669-90bb-74085051c932","ios":"levelo://app?vid=6a7f4062-1ef7-4669-90bb-74085051c932"},"vehicle_type_id":"4","last_reported":1735466941,"current_range_meters":32400,"station_id":"ce4bgv92rcd13ifvqcq0","pricing_plan_id":"cebpf4jnsgd1na2vs0mg"},{"bike_id":"cd8677a4-9692-4ecc-96ac-e8d6c69c3590","system_id":"levelo_inurba_marseille","lat":43.27316,"lon":5.39129,"is_reserved":false,"is_disabled":false,"rental_uris":{"android":"levelo://app?vid=cd8677a4-9692-4ecc-96ac-e8d6c69c3590","ios":"levelo://app?vid=cd8677a4-9692-4ecc-96ac-e8d6c69c3590"},"vehicle_type_id":"4","last_reported":1735466941,"current_range_meters":28800,"station_id":"ce4bhgp2rcd13ifvqfe0","pricing_plan_id":"cebpf4jnsgd1na2vs0mg"},{"bike_id":"6ad1742e-8bff-4c51-a529-dfe59edb730a","system_id":"levelo_inurba_marseille","lat":43.29919,"lon":5.37463,"is_reserved":false,"is_disabled":false,"rental_uris":{"android":"levelo://app?vid=6ad1742e-8bff-4c51-a529-dfe59edb730a","ios":"levelo://app?vid=6ad1742e-8bff-4c51-a529-dfe59edb730a"},"vehicle_type_id":"4","last_reported":1735466941,"current_range_meters":28800,"station_id":"ce4bgjh2rcd13ifvqbg0","pricing_plan_id":"cebpf4jnsgd1na2vs0mg"},{"bike_id":"3b3d2c75-4195-4f81-af35-afa13ebc8eea","system_id":"levelo_inurba_marseille","lat":43.27375,"lon":5.36272,"is_reserved":false,"is_disabled":true,"rental_uris":{"android":"levelo://app?vid=3b3d2c75-4195-4f81-af35-afa13ebc8eea","ios":"levelo://app?vid=3b3d2c75-4195-4f81-af35-afa13ebc8eea"},"vehicle_type_id":"4","last_reported":1735466941,"current_range_meters":27200,"station_id":"ce4bhbh2rcd13ifvqeo0","pricing_plan_id":"cebpf4jnsgd1na2vs0mg"},{"bike_id":"11850572-7aeb-42b1-a1ef-fd7764614105","system_id":"levelo_inurba_marseille","lat":43.23194,"lon":5.35555,"is_reserved":false,"is_disabled":false,"rental_uris":{"android":"levelo://app?vid=11850572-7aeb-42b1-a1ef-fd7764614105","ios":"levelo://app?vid=11850572-7aeb-42b1-a1ef-fd7764614105"},"vehicle_type_id":"4","last_reported":1735466941,"current_range_meters":28400,"station_id":"ce4bhu92rcd13ifvqi70","pricing_plan_id":"cebpf4jnsgd1na2vs0mg"},{"bike_id":"59ae49c2-3874-4a4b-b6c0-f970a6a4c17b","system_id":"levelo_inurba_marseille","lat":43.29617,"lon":5.38094,"is_reserved":false,"is_disabled":false,"rental_uris":{"android":"levelo://app?vid=59ae49c2-3874-4a4b-b6c0-f970a6a4c17b","ios":"levelo://app?vid=59ae49c2-3874-4a4b-b6c0-f970a6a4c17b"},"vehicle_type_id":"4","last_reported":1735466941,"current_range_meters":36400,"station_id":"ce4bgl12rcd13ifvqbo0","pricing_plan_id":"cebpf4jnsgd1na2vs0mg"},{"bike_id":"acdf547b-af9f-48ce-8f30-0548228cd41d","system_id":"levelo_inurba_marseille","lat":43.29875,"lon":5.39749,"is_reserved":false,"is_disabled":false,"rental_uris":{"android":"levelo://app?vid=acdf547b-af9f-48ce-8f30-0548228cd41d","ios":"levelo://app?vid=acdf547b-af9f-48ce-8f30-0548228cd41d"},"vehicle_type_id":"4","last_reported":1735466941,"current_range_meters":38000,"station_id":"ce4bh0h2rcd13ifvqd50","pricing_plan_id":"cebpf4jnsgd1na2vs0mg"},{"bike_id":"71ca0ec7-4f8c-4ae2-b587-1dca9d733aa5","system_id":"levelo_inurba_marseille","lat":43.29847,"lon":5.36291,"is_reserved":false,"is_disabled":false,"rental_uris":{"android":"levelo://app?vid=71ca0ec7-4f8c-4ae2-b587-1dca9d733aa5","ios":"levelo://app?vid=71ca0ec7-4f8c-4ae2-b587-1dca9d733aa5"},"vehicle_type_id":"4","last_reported":1735466941,"current_range_meters":14400,"station_id":"ce4bgpp2rcd13ifvqc3g","pricing_plan_id":"cebpf4jnsgd1na2vs0mg"},{"bike_id":"4afaa01d-2154-4233-8360-224b59b51008","system_id":"levelo_inurba_marseille","lat":43.31484,"lon":5.37271,"is_reserved":false,"is_disabled":false,"rental_uris":{"android":"levelo://app?vid=4afaa01d-2154-4233-8360-224b59b51008","ios":"levelo://app?vid=4afaa01d-2154-4233-8360-224b59b51008"},"vehicle_type_id":"4","last_reported":1735466941,"current_range_meters":38000,"station_id":"ce4bgt12rcd13ifvqcd0","pricing_plan_id":"cebpf4jnsgd1na2vs0mg"},{"bike_id":"afcae62c-635b-4484-9281-8b2321203264","system_id":"levelo_inurba_marseille","lat":43.33613,"lon":5.41028,"is_reserved":false,"is_disabled":false,"rental_uris":{"android":"levelo://app?vid=afcae62c-635b-4484-9281-8b2321203264","ios":"levelo://app?vid=afcae62c-635b-4484-9281-8b2321203264"},"vehicle_type_id":"4","last_reported":1735466941,"current_range_meters":38800,"station_id":"ce4bhqh2rcd13ifvqhmg","pricing_plan_id":"cebpf4jnsgd1na2vs0mg"},{"bike_id":"ed68c988-1b8a-4ec6-aee7-59e79c3f1220","system_id":"levelo_inurba_marseille","lat":43.26495,"lon":5.3954,"is_reserved":false,"is_disabled":false,"rental_uris":{"android":"levelo://app?vid=ed68c988-1b8a-4ec6-aee7-59e79c3f1220","ios":"levelo://app?vid=ed68c988-1b8a-4ec6-aee7-59e79c3f1220"},"vehicle_type_id":"4","last_reported":1735466941,"current_range_meters":34000,"station_id":"ce4bhi12rcd13ifvqfq0","pricing_plan_id":"cebpf4jnsgd1na2vs0mg"},{"bike_id":"c22bbf32-8fa7-4c11-aec0-e06228310adf","system_id":"levelo_inurba_marseille","lat":43.31722,"lon":5.37408,"is_reserved":false,"is_disabled":false,"rental_uris":{"android":"levelo://app?vid=c22bbf32-8fa7-4c11-aec0-e06228310adf","ios":"levelo://app?vid=c22bbf32-8fa7-4c11-aec0-e06228310adf"},"vehicle_type_id":"4","last_reported":1735466941,"current_range_meters":33200,"station_id":"","pricing_plan_id":"cebpf4jnsgd1na2vs0mg"},{"bike_id":"dde23100-284b-476d-b6ea-b936ad5ae2e8","system_id":"levelo_inurba_marseille","lat":43.2961,"lon":5.38109,"is_reserved":false,"is_disabled":false,"rental_uris":{"android":"levelo://app?vid=dde23100-284b-476d-b6ea-b936ad5ae2e8","ios":"levelo://app?vid=dde23100-284b-476d-b6ea-b936ad5ae2e8"},"vehicle_type_id":"4","last_reported":1735466941,"current_range_meters":38800,"station_id":"ce4bgl12rcd13ifvqbo0","pricing_plan_id":"cebpf4jnsgd1na2vs0mg"},{"bike_id":"857344dd-6be1-4d34-90e7-6f62afbbef2e","system_id":"levelo_inurba_marseille","lat":43.32111,"lon":5.36773,"is_reserved":false,"is_disabled":false,"rental_uris":{"android":"levelo://app?vid=857344dd-6be1-4d34-90e7-6f62afbbef2e","ios":"levelo://app?vid=857344dd-6be1-4d34-90e7-6f62afbbef2e"},"vehicle_type_id":"4","last_reported":1735466941,"current_range_meters":28400,"station_id":"ce4bhrh2rcd13ifvqhug","pricing_plan_id":"cebpf4jnsgd1na2vs0mg"},{"bike_id":"7eb7fe80-af77-47e8-b4dc-da63e7d840f1","system_id":"levelo_inurba_marseille","lat":43.3014,"lon":5.3739,"is_reserved":false,"is_disabled":false,"rental_uris":{"android":"levelo://app?vid=7eb7fe80-af77-47e8-b4dc-da63e7d840f1","ios":"levelo://app?vid=7eb7fe80-af77-47e8-b4dc-da63e7d840f1"},"vehicle_type_id":"4","last_reported":1735466941,"current_range_meters":38800,"station_id":"ce4bgs92rcd13ifvqcc0","pricing_plan_id":"cebpf4jnsgd1na2vs0mg"},{"bike_id":"df946adf-3a8e-48eb-be79-8571a31652e0","system_id":"levelo_inurba_marseille","lat":43.28269,"lon":5.35081,"is_reserved":false,"is_disabled":false,"rental_uris":{"android":"levelo://app?vid=df946adf-3a8e-48eb-be79-8571a31652e0","ios":"levelo://app?vid=df946adf-3a8e-48eb-be79-8571a31652e0"},"vehicle_type_id":"4","last_reported":1735466941,"current_range_meters":14800,"station_id":"ce4bhbp2rcd13ifvqerg","pricing_plan_id":"cebpf4jnsgd1na2vs0mg"},{"bike_id":"28177986-0e86-4b07-b8ab-9db837e388e1","system_id":"levelo_inurba_marseille","lat":43.29682,"lon":5.37284,"is_reserved":false,"is_disabled":false,"rental_uris":{"android":"levelo://app?vid=28177986-0e86-4b07-b8ab-9db837e388e1","ios":"levelo://app?vid=28177986-0e86-4b07-b8ab-9db837e388e1"},"vehicle_type_id":"4","last_reported":1735466941,"current_range_meters":10800,"station_id":"ce4bgk12rcd13ifvqbj0","pricing_plan_id":"cebpf4jnsgd1na2vs0mg"},{"bike_id":"353a11f9-7601-454c-8af2-e5ea93e8a34d","system_id":"levelo_inurba_marseille","lat":43.27499,"lon":5.4245,"is_reserved":false,"is_disabled":false,"rental_uris":{"android":"levelo://app?vid=353a11f9-7601-454c-8af2-e5ea93e8a34d","ios":"levelo://app?vid=353a11f9-7601-454c-8af2-e5ea93e8a34d"},"vehicle_type_id":"4","last_reported":1735466941,"current_range_meters":38800,"station_id":"ce4bhn92rcd13ifvqgrg","pricing_plan_id":"cebpf4jnsgd1na2vs0mg"},{"bike_id":"88fc0f7e-c1a7-46ae-b3e8-501efa9da970","system_id":"levelo_inurba_marseille","lat":43.297113,"lon":5.376938,"is_reserved":false,"is_disabled":false,"rental_uris":{"android":"levelo://app?vid=88fc0f7e-c1a7-46ae-b3e8-501efa9da970","ios":"levelo://app?vid=88fc0f7e-c1a7-46ae-b3e8-501efa9da970"},"vehicle_type_id":"4","last_reported":1735466941,"current_range_meters":36400,"station_id":"ce4bgkh2rcd13ifvqbl0","pricing_plan_id":"cebpf4jnsgd1na2vs0mg"},{"bike_id":"b4d130c6-4fa7-4fa3-83b8-3ae416781279","system_id":"levelo_inurba_marseille","lat":43.27442,"lon":5.39285,"is_reserved":false,"is_disabled":false,"rental_uris":{"android":"levelo://app?vid=b4d130c6-4fa7-4fa3-83b8-3ae416781279","ios":"levelo://app?vid=b4d130c6-4fa7-4fa3-83b8-3ae416781279"},"vehicle_type_id":"4","last_reported":1735466941,"current_range_meters":16800,"station_id":"","pricing_plan_id":"cebpf4jnsgd1na2vs0mg"},{"bike_id":"ad66ce9d-e2b2-4064-ae7f-fe87403c632b","system_id":"levelo_inurba_marseille","lat":43.23063,"lon":5.35485,"is_reserved":false,"is_disabled":false,"rental_uris":{"android":"levelo://app?vid=ad66ce9d-e2b2-4064-ae7f-fe87403c632b","ios":"levelo://app?vid=ad66ce9d-e2b2-4064-ae7f-fe87403c632b"},"vehicle_type_id":"4","last_reported":1735466941,"current_range_meters":16800,"station_id":"cpo3342slgdg3j2ifvpg","pricing_plan_id":"cebpf4jnsgd1na2vs0mg"},{"bike_id":"1e26afe9-c92a-479f-abb9-286cc207ef1a","system_id":"levelo_inurba_marseille","lat":43.2549,"lon":5.37647,"is_reserved":false,"is_disabled":false,"rental_uris":{"android":"levelo://app?vid=1e26afe9-c92a-479f-abb9-286cc207ef1a","ios":"levelo://app?vid=1e26afe9-c92a-479f-abb9-286cc207ef1a"},"vehicle_type_id":"4","last_reported":1735466941,"current_range_meters":37600,"station_id":"ce4bhh12rcd13ifvqff0","pricing_plan_id":"cebpf4jnsgd1na2vs0mg"},{"bike_id":"4e6a6b09-c29d-4572-bd03-ffe64c36b39b","system_id":"levelo_inurba_marseille","lat":43.24064,"lon":5.37777,"is_reserved":false,"is_disabled":false,"rental_uris":{"android":"levelo://app?vid=4e6a6b09-c29d-4572-bd03-ffe64c36b39b","ios":"levelo://app?vid=4e6a6b09-c29d-4572-bd03-ffe64c36b39b"},"vehicle_type_id":"4","last_reported":1735466941,"current_range_meters":8800,"station_id":"ce4bhnp2rcd13ifvqgvg","pricing_plan_id":"cebpf4jnsgd1na2vs0mg"},{"bike_id":"8e4b61d6-7c08-48fe-bed9-9e4e3948085b","system_id":"levelo_inurba_marseille","lat":43.26034,"lon":5.37549,"is_reserved":false,"is_disabled":false,"rental_uris":{"android":"levelo://app?vid=8e4b61d6-7c08-48fe-bed9-9e4e3948085b","ios":"levelo://app?vid=8e4b61d6-7c08-48fe-bed9-9e4e3948085b"},"vehicle_type_id":"4","last_reported":1735466941,"current_range_meters":38000,"station_id":"ce4bhgh2rcd13ifvqfa0","pricing_plan_id":"cebpf4jnsgd1na2vs0mg"},{"bike_id":"753fe1a2-6ec1-4d51-9513-13144401ea46","system_id":"levelo_inurba_marseille","lat":43.29165,"lon":5.37146,"is_reserved":false,"is_disabled":false,"rental_uris":{"android":"levelo://app?vid=753fe1a2-6ec1-4d51-9513-13144401ea46","ios":"levelo://app?vid=753fe1a2-6ec1-4d51-9513-13144401ea46"},"vehicle_type_id":"4","last_reported":1735466941,"current_range_meters":30800,"station_id":"ce4bha92rcd13ifvqeh0","pricing_plan_id":"cebpf4jnsgd1na2vs0mg"},{"bike_id":"2924d707-8197-454c-9f11-6f7bb738d897","system_id":"levelo_inurba_marseille","lat":43.25114,"lon":5.40324,"is_reserved":false,"is_disabled":false,"rental_uris":{"android":"levelo://app?vid=2924d707-8197-454c-9f11-6f7bb738d897","ios":"levelo://app?vid=2924d707-8197-454c-9f11-6f7bb738d897"},"vehicle_type_id":"4","last_reported":1735466941,"current_range_meters":38800,"station_id":"ce4bhlh2rcd13ifvqgig","pricing_plan_id":"cebpf4jnsgd1na2vs0mg"},{"bike_id":"d0533ccb-11ce-46dc-9cca-daa9f7a4985a","system_id":"levelo_inurba_marseille","lat":43.29548,"lon":5.42247,"is_reserved":false,"is_disabled":false,"rental_uris":{"android":"levelo://app?vid=d0533ccb-11ce-46dc-9cca-daa9f7a4985a","ios":"levelo://app?vid=d0533ccb-11ce-46dc-9cca-daa9f7a4985a"},"vehicle_type_id":"4","last_reported":1735466941,"current_range_meters":36400,"station_id":"ce4bhph2rcd13ifvqhdg","pricing_plan_id":"cebpf4jnsgd1na2vs0mg"},{"bike_id":"18ed169b-f8e6-48ff-8d23-5f83e81eb63f","system_id":"levelo_inurba_marseille","lat":43.31701,"lon":5.37779,"is_reserved":false,"is_disabled":false,"rental_uris":{"android":"levelo://app?vid=18ed169b-f8e6-48ff-8d23-5f83e81eb63f","ios":"levelo://app?vid=18ed169b-f8e6-48ff-8d23-5f83e81eb63f"},"vehicle_type_id":"4","last_reported":1735466941,"current_range_meters":38400,"station_id":"ce4bgth2rcd13ifvqch0","pricing_plan_id":"cebpf4jnsgd1na2vs0mg"},{"bike_id":"b4e9bf27-57d2-4021-ae8e-b8042d288018","system_id":"levelo_inurba_marseille","lat":43.26552,"lon":5.3729,"is_reserved":false,"is_disabled":true,"rental_uris":{"android":"levelo://app?vid=b4e9bf27-57d2-4021-ae8e-b8042d288018","ios":"levelo://app?vid=b4e9bf27-57d2-4021-ae8e-b8042d288018"},"vehicle_type_id":"4","last_reported":1735466941,"current_range_meters":0,"station_id":"ce4bhg12rcd13ifvqf70","pricing_plan_id":"cebpf4jnsgd1na2vs0mg"},{"bike_id":"6fcb8b31-3b16-48dc-b478-288d7213edc8","system_id":"levelo_inurba_marseille","lat":43.30472,"lon":5.37901,"is_reserved":false,"is_disabled":false,"rental_uris":{"android":"levelo://app?vid=6fcb8b31-3b16-48dc-b478-288d7213edc8","ios":"levelo://app?vid=6fcb8b31-3b16-48dc-b478-288d7213edc8"},"vehicle_type_id":"4","last_reported":1735466941,"current_range_meters":14000,"station_id":"ce4bgup2rcd13ifvqcn0","pricing_plan_id":"cebpf4jnsgd1na2vs0mg"},{"bike_id":"13f84696-4405-43e0-b0f5-1a61d67abe32","system_id":"levelo_inurba_marseille","lat":43.278302,"lon":5.392077,"is_reserved":false,"is_disabled":false,"rental_uris":{"android":"levelo://app?vid=13f84696-4405-43e0-b0f5-1a61d67abe32","ios":"levelo://app?vid=13f84696-4405-43e0-b0f5-1a61d67abe32"},"vehicle_type_id":"4","last_reported":1735466941,"current_range_meters":24800,"station_id":"ce4bhjp2rcd13ifvqga0","pricing_plan_id":"cebpf4jnsgd1na2vs0mg"},{"bike_id":"420fce2e-8c1b-4c8d-8c6f-37964bd75f83","system_id":"levelo_inurba_marseille","lat":43.28339,"lon":5.38113,"is_reserved":false,"is_disabled":false,"rental_uris":{"android":"levelo://app?vid=420fce2e-8c1b-4c8d-8c6f-37964bd75f83","ios":"levelo://app?vid=420fce2e-8c1b-4c8d-8c6f-37964bd75f83"},"vehicle_type_id":"4","last_reported":1735466941,"current_range_meters":29600,"station_id":"ce4bh412rcd13ifvqdr0","pricing_plan_id":"cebpf4jnsgd1na2vs0mg"},{"bike_id":"caab34a4-5264-4b72-a12f-e55159fe93b6","system_id":"levelo_inurba_marseille","lat":43.27069,"lon":5.42291,"is_reserved":false,"is_disabled":false,"rental_uris":{"android":"levelo://app?vid=caab34a4-5264-4b72-a12f-e55159fe93b6","ios":"levelo://app?vid=caab34a4-5264-4b72-a12f-e55159fe93b6"},"vehicle_type_id":"4","last_reported":1735466941,"current_range_meters":25600,"station_id":"ce4bhk92rcd13ifvqgb0","pricing_plan_id":"cebpf4jnsgd1na2vs0mg"},{"bike_id":"66928562-af48-4888-8229-1fe3757ee83b","system_id":"levelo_inurba_marseille","lat":43.24646,"lon":5.38893,"is_reserved":false,"is_disabled":false,"rental_uris":{"android":"levelo://app?vid=66928562-af48-4888-8229-1fe3757ee83b","ios":"levelo://app?vid=66928562-af48-4888-8229-1fe3757ee83b"},"vehicle_type_id":"4","last_reported":1735466941,"current_range_meters":16000,"station_id":"ce4bhg12rcd13ifvqf60","pricing_plan_id":"cebpf4jnsgd1na2vs0mg"},{"bike_id":"edb2f717-899b-49dc-a18d-34e41738f8e0","system_id":"levelo_inurba_marseille","lat":43.2827,"lon":5.35079,"is_reserved":false,"is_disabled":false,"rental_uris":{"android":"levelo://app?vid=edb2f717-899b-49dc-a18d-34e41738f8e0","ios":"levelo://app?vid=edb2f717-899b-49dc-a18d-34e41738f8e0"},"vehicle_type_id":"4","last_reported":1735466941,"current_range_meters":24400,"station_id":"ce4bhbp2rcd13ifvqerg","pricing_plan_id":"cebpf4jnsgd1na2vs0mg"},{"bike_id":"da963667-a8aa-4b23-8c8e-e29f6f393424","system_id":"levelo_inurba_marseille","lat":43.3107,"lon":5.383544,"is_reserved":false,"is_disabled":false,"rental_uris":{"android":"levelo://app?vid=da963667-a8aa-4b23-8c8e-e29f6f393424","ios":"levelo://app?vid=da963667-a8aa-4b23-8c8e-e29f6f393424"},"vehicle_type_id":"4","last_reported":1735466941,"current_range_meters":16400,"station_id":"ce4bgv92rcd13ifvqcr0","pricing_plan_id":"cebpf4jnsgd1na2vs0mg"},{"bike_id":"f3f9533f-9b20-4085-9f18-a07559421abb","system_id":"levelo_inurba_marseille","lat":43.29526,"lon":5.37499,"is_reserved":false,"is_disabled":false,"rental_uris":{"android":"levelo://app?vid=f3f9533f-9b20-4085-9f18-a07559421abb","ios":"levelo://app?vid=f3f9533f-9b20-4085-9f18-a07559421abb"},"vehicle_type_id":"4","last_reported":1735466941,"current_range_meters":37600,"station_id":"ce4bgkp2rcd13ifvqbmg","pricing_plan_id":"cebpf4jnsgd1na2vs0mg"},{"bike_id":"deca8431-a5b2-4fcd-b4ef-fe8f136722a6","system_id":"levelo_inurba_marseille","lat":43.28155,"lon":5.42642,"is_reserved":false,"is_disabled":false,"rental_uris":{"android":"levelo://app?vid=deca8431-a5b2-4fcd-b4ef-fe8f136722a6","ios":"levelo://app?vid=deca8431-a5b2-4fcd-b4ef-fe8f136722a6"},"vehicle_type_id":"4","last_reported":1735466941,"current_range_meters":26800,"station_id":"ce4bhnh2rcd13ifvqgug","pricing_plan_id":"cebpf4jnsgd1na2vs0mg"},{"bike_id":"2eaf5aab-e12e-4e93-a20d-88a34894165c","system_id":"levelo_inurba_marseille","lat":43.28458,"lon":5.35896,"is_reserved":false,"is_disabled":true,"rental_uris":{"android":"levelo://app?vid=2eaf5aab-e12e-4e93-a20d-88a34894165c","ios":"levelo://app?vid=2eaf5aab-e12e-4e93-a20d-88a34894165c"},"vehicle_type_id":"4","last_reported":1735466941,"current_range_meters":0,"station_id":"ce4bhah2rcd13ifvqei0","pricing_plan_id":"cebpf4jnsgd1na2vs0mg"},{"bike_id":"edf0b663-1d49-48b0-9482-86766f1b112c","system_id":"levelo_inurba_marseille","lat":43.28664,"lon":5.36363,"is_reserved":false,"is_disabled":false,"rental_uris":{"android":"levelo://app?vid=edf0b663-1d49-48b0-9482-86766f1b112c","ios":"levelo://app?vid=edf0b663-1d49-48b0-9482-86766f1b112c"},"vehicle_type_id":"4","last_reported":1735466941,"current_range_meters":32000,"station_id":"ce4bhah2rcd13ifvqej0","pricing_plan_id":"cebpf4jnsgd1na2vs0mg"},{"bike_id":"d07ac0e3-849c-44fe-ab38-0273add2ad10","system_id":"levelo_inurba_marseille","lat":43.30888,"lon":5.37193,"is_reserved":false,"is_disabled":true,"rental_uris":{"android":"levelo://app?vid=d07ac0e3-849c-44fe-ab38-0273add2ad10","ios":"levelo://app?vid=d07ac0e3-849c-44fe-ab38-0273add2ad10"},"vehicle_type_id":"4","last_reported":1735466941,"current_range_meters":9600,"station_id":"ce4bguh2rcd13ifvqckg","pricing_plan_id":"cebpf4jnsgd1na2vs0mg"},{"bike_id":"874a55c5-2be9-45f9-acec-1c06f64f0a03","system_id":"levelo_inurba_marseille","lat":43.31323,"lon":5.39701,"is_reserved":false,"is_disabled":false,"rental_uris":{"android":"levelo://app?vid=874a55c5-2be9-45f9-acec-1c06f64f0a03","ios":"levelo://app?vid=874a55c5-2be9-45f9-acec-1c06f64f0a03"},"vehicle_type_id":"4","last_reported":1735466941,"current_range_meters":37600,"station_id":"ce4bgvp2rcd13ifvqcu0","pricing_plan_id":"cebpf4jnsgd1na2vs0mg"},{"bike_id":"b8310779-a1ed-43b8-93c2-4d2a1cabb080","system_id":"levelo_inurba_marseille","lat":43.26512,"lon":5.39547,"is_reserved":false,"is_disabled":false,"rental_uris":{"android":"levelo://app?vid=b8310779-a1ed-43b8-93c2-4d2a1cabb080","ios":"levelo://app?vid=b8310779-a1ed-43b8-93c2-4d2a1cabb080"},"vehicle_type_id":"4","last_reported":1735466941,"current_range_meters":37600,"station_id":"ce4bhi12rcd13ifvqfq0","pricing_plan_id":"cebpf4jnsgd1na2vs0mg"},{"bike_id":"63e292a4-7211-4399-b573-131fa3cc14cf","system_id":"levelo_inurba_marseille","lat":43.34135,"lon":5.40904,"is_reserved":false,"is_disabled":false,"rental_uris":{"android":"levelo://app?vid=63e292a4-7211-4399-b573-131fa3cc14cf","ios":"levelo://app?vid=63e292a4-7211-4399-b573-131fa3cc14cf"},"vehicle_type_id":"4","last_reported":1735466941,"current_range_meters":37600,"station_id":"ce4bhqh2rcd13ifvqhlg","pricing_plan_id":"cebpf4jnsgd1na2vs0mg"},{"bike_id":"9f98d7c2-7b73-45e9-a880-31a76fde57c2","system_id":"levelo_inurba_marseille","lat":43.27374,"lon":5.36256,"is_reserved":false,"is_disabled":false,"rental_uris":{"android":"levelo://app?vid=9f98d7c2-7b73-45e9-a880-31a76fde57c2","ios":"levelo://app?vid=9f98d7c2-7b73-45e9-a880-31a76fde57c2"},"vehicle_type_id":"4","last_reported":1735466941,"current_range_meters":5600,"station_id":"ce4bhbh2rcd13ifvqeo0","pricing_plan_id":"cebpf4jnsgd1na2vs0mg"},{"bike_id":"ffa98d73-85f5-47f0-b4c1-cd42ae045e38","system_id":"levelo_inurba_marseille","lat":43.31272,"lon":5.40166,"is_reserved":false,"is_disabled":false,"rental_uris":{"android":"levelo://app?vid=ffa98d73-85f5-47f0-b4c1-cd42ae045e38","ios":"levelo://app?vid=ffa98d73-85f5-47f0-b4c1-cd42ae045e38"},"vehicle_type_id":"4","last_reported":1735466941,"current_range_meters":7200,"station_id":"ce4bh092rcd13ifvqd30","pricing_plan_id":"cebpf4jnsgd1na2vs0mg"},{"bike_id":"eccfad66-c267-470e-be27-7e3cd3a0d1c8","system_id":"levelo_inurba_marseille","lat":43.2651,"lon":5.39571,"is_reserved":false,"is_disabled":false,"rental_uris":{"android":"levelo://app?vid=eccfad66-c267-470e-be27-7e3cd3a0d1c8","ios":"levelo://app?vid=eccfad66-c267-470e-be27-7e3cd3a0d1c8"},"vehicle_type_id":"4","last_reported":1735466941,"current_range_meters":38800,"station_id":"ce4bhi12rcd13ifvqfq0","pricing_plan_id":"cebpf4jnsgd1na2vs0mg"},{"bike_id":"d225e49f-de10-470b-90af-648b3c15cce7","system_id":"levelo_inurba_marseille","lat":43.2574,"lon":5.41131,"is_reserved":false,"is_disabled":false,"rental_uris":{"android":"levelo://app?vid=d225e49f-de10-470b-90af-648b3c15cce7","ios":"levelo://app?vid=d225e49f-de10-470b-90af-648b3c15cce7"},"vehicle_type_id":"4","last_reported":1735466941,"current_range_meters":38000,"station_id":"ce4bhkp2rcd13ifvqgd0","pricing_plan_id":"cebpf4jnsgd1na2vs0mg"},{"bike_id":"2ad96645-53b8-4b57-b8b9-898b5d0758ec","system_id":"levelo_inurba_marseille","lat":43.273317,"lon":5.362728,"is_reserved":false,"is_disabled":false,"rental_uris":{"android":"levelo://app?vid=2ad96645-53b8-4b57-b8b9-898b5d0758ec","ios":"levelo://app?vid=2ad96645-53b8-4b57-b8b9-898b5d0758ec"},"vehicle_type_id":"4","last_reported":1735466941,"current_range_meters":25200,"station_id":"ce4bhbh2rcd13ifvqeo0","pricing_plan_id":"cebpf4jnsgd1na2vs0mg"},{"bike_id":"cc8f126f-26fa-49dc-9514-b87b7b2b0e00","system_id":"levelo_inurba_marseille","lat":43.30305,"lon":5.36898,"is_reserved":false,"is_disabled":false,"rental_uris":{"android":"levelo://app?vid=cc8f126f-26fa-49dc-9514-b87b7b2b0e00","ios":"levelo://app?vid=cc8f126f-26fa-49dc-9514-b87b7b2b0e00"},"vehicle_type_id":"4","last_reported":1735466941,"current_range_meters":38000,"station_id":"ce4bgqh2rcd13ifvqc5g","pricing_plan_id":"cebpf4jnsgd1na2vs0mg"},{"bike_id":"05fb7452-2e75-415b-85e8-66f72f2a1cf5","system_id":"levelo_inurba_marseille","lat":43.3135,"lon":5.39177,"is_reserved":false,"is_disabled":false,"rental_uris":{"android":"levelo://app?vid=05fb7452-2e75-415b-85e8-66f72f2a1cf5","ios":"levelo://app?vid=05fb7452-2e75-415b-85e8-66f72f2a1cf5"},"vehicle_type_id":"4","last_reported":1735466941,"current_range_meters":19600,"station_id":"","pricing_plan_id":"cebpf4jnsgd1na2vs0mg"},{"bike_id":"158e017f-4a76-4ad7-a5e3-1ca7daceabea","system_id":"levelo_inurba_marseille","lat":43.27495,"lon":5.42455,"is_reserved":false,"is_disabled":false,"rental_uris":{"android":"levelo://app?vid=158e017f-4a76-4ad7-a5e3-1ca7daceabea","ios":"levelo://app?vid=158e017f-4a76-4ad7-a5e3-1ca7daceabea"},"vehicle_type_id":"4","last_reported":1735466941,"current_range_meters":17600,"station_id":"ce4bhn92rcd13ifvqgrg","pricing_plan_id":"cebpf4jnsgd1na2vs0mg"},{"bike_id":"d6144803-d96b-4980-90a1-d59f6d11564c","system_id":"levelo_inurba_marseille","lat":43.28151,"lon":5.42649,"is_reserved":false,"is_disabled":false,"rental_uris":{"android":"levelo://app?vid=d6144803-d96b-4980-90a1-d59f6d11564c","ios":"levelo://app?vid=d6144803-d96b-4980-90a1-d59f6d11564c"},"vehicle_type_id":"4","last_reported":1735466941,"current_range_meters":38800,"station_id":"ce4bhnh2rcd13ifvqgug","pricing_plan_id":"cebpf4jnsgd1na2vs0mg"},{"bike_id":"c74aa9b1-1e0f-46cb-8704-6e5852910a9d","system_id":"levelo_inurba_marseille","lat":43.26562,"lon":5.39004,"is_reserved":false,"is_disabled":false,"rental_uris":{"android":"levelo://app?vid=c74aa9b1-1e0f-46cb-8704-6e5852910a9d","ios":"levelo://app?vid=c74aa9b1-1e0f-46cb-8704-6e5852910a9d"},"vehicle_type_id":"4","last_reported":1735466941,"current_range_meters":12800,"station_id":"ce4bhe12rcd13ifvqf30","pricing_plan_id":"cebpf4jnsgd1na2vs0mg"},{"bike_id":"8ed5a1f5-589e-42ed-8f11-2d154ce6b9eb","system_id":"levelo_inurba_marseille","lat":43.23954,"lon":5.36639,"is_reserved":false,"is_disabled":false,"rental_uris":{"android":"levelo://app?vid=8ed5a1f5-589e-42ed-8f11-2d154ce6b9eb","ios":"levelo://app?vid=8ed5a1f5-589e-42ed-8f11-2d154ce6b9eb"},"vehicle_type_id":"4","last_reported":1735466941,"current_range_meters":36400,"station_id":"ce4bhi12rcd13ifvqfp0","pricing_plan_id":"cebpf4jnsgd1na2vs0mg"},{"bike_id":"45162248-eec0-4c57-8399-bb0013ca31e0","system_id":"levelo_inurba_marseille","lat":43.29359,"lon":5.37842,"is_reserved":false,"is_disabled":false,"rental_uris":{"android":"levelo://app?vid=45162248-eec0-4c57-8399-bb0013ca31e0","ios":"levelo://app?vid=45162248-eec0-4c57-8399-bb0013ca31e0"},"vehicle_type_id":"4","last_reported":1735466941,"current_range_meters":38000,"station_id":"ce4bgjh2rcd13ifvqbf0","pricing_plan_id":"cebpf4jnsgd1na2vs0mg"},{"bike_id":"f4189305-6728-4291-a854-08791309906c","system_id":"levelo_inurba_marseille","lat":43.32331,"lon":5.40629,"is_reserved":false,"is_disabled":false,"rental_uris":{"android":"levelo://app?vid=f4189305-6728-4291-a854-08791309906c","ios":"levelo://app?vid=f4189305-6728-4291-a854-08791309906c"},"vehicle_type_id":"4","last_reported":1735466941,"current_range_meters":17200,"station_id":"ce4bhq92rcd13ifvqhjg","pricing_plan_id":"cebpf4jnsgd1na2vs0mg"},{"bike_id":"f24b5934-538c-4c9a-b591-a2ef53b2ccf7","system_id":"levelo_inurba_marseille","lat":43.31065,"lon":5.38355,"is_reserved":false,"is_disabled":false,"rental_uris":{"android":"levelo://app?vid=f24b5934-538c-4c9a-b591-a2ef53b2ccf7","ios":"levelo://app?vid=f24b5934-538c-4c9a-b591-a2ef53b2ccf7"},"vehicle_type_id":"4","last_reported":1735466941,"current_range_meters":36400,"station_id":"ce4bgv92rcd13ifvqcr0","pricing_plan_id":"cebpf4jnsgd1na2vs0mg"},{"bike_id":"172ad825-205e-4e51-8894-6caead3b93a9","system_id":"levelo_inurba_marseille","lat":43.27985,"lon":5.41663,"is_reserved":false,"is_disabled":false,"rental_uris":{"android":"levelo://app?vid=172ad825-205e-4e51-8894-6caead3b93a9","ios":"levelo://app?vid=172ad825-205e-4e51-8894-6caead3b93a9"},"vehicle_type_id":"4","last_reported":1735466941,"current_range_meters":16000,"station_id":"ce4bho12rcd13ifvqh1g","pricing_plan_id":"cebpf4jnsgd1na2vs0mg"},{"bike_id":"289c7f20-3fd2-43a0-9b76-274c495998e0","system_id":"levelo_inurba_marseille","lat":43.28106,"lon":5.37846,"is_reserved":false,"is_disabled":false,"rental_uris":{"android":"levelo://app?vid=289c7f20-3fd2-43a0-9b76-274c495998e0","ios":"levelo://app?vid=289c7f20-3fd2-43a0-9b76-274c495998e0"},"vehicle_type_id":"4","last_reported":1735466941,"current_range_meters":27600,"station_id":"ce4bha12rcd13ifvqee0","pricing_plan_id":"cebpf4jnsgd1na2vs0mg"},{"bike_id":"75586ade-f7a4-41b5-afef-c1e2f4499a7d","system_id":"levelo_inurba_marseille","lat":43.30888,"lon":5.372053,"is_reserved":false,"is_disabled":false,"rental_uris":{"android":"levelo://app?vid=75586ade-f7a4-41b5-afef-c1e2f4499a7d","ios":"levelo://app?vid=75586ade-f7a4-41b5-afef-c1e2f4499a7d"},"vehicle_type_id":"4","last_reported":1735466941,"current_range_meters":36400,"station_id":"ce4bguh2rcd13ifvqckg","pricing_plan_id":"cebpf4jnsgd1na2vs0mg"},{"bike_id":"b3bf66fd-e609-467c-a5ee-ab6ea256e2c4","system_id":"levelo_inurba_marseille","lat":43.308004,"lon":5.381444,"is_reserved":false,"is_disabled":false,"rental_uris":{"android":"levelo://app?vid=b3bf66fd-e609-467c-a5ee-ab6ea256e2c4","ios":"levelo://app?vid=b3bf66fd-e609-467c-a5ee-ab6ea256e2c4"},"vehicle_type_id":"4","last_reported":1735466941,"current_range_meters":28800,"station_id":"ce4bgt12rcd13ifvqce0","pricing_plan_id":"cebpf4jnsgd1na2vs0mg"},{"bike_id":"f58729af-e494-40ff-92b4-ecbddf113586","system_id":"levelo_inurba_marseille","lat":43.28914,"lon":5.36634,"is_reserved":false,"is_disabled":false,"rental_uris":{"android":"levelo://app?vid=f58729af-e494-40ff-92b4-ecbddf113586","ios":"levelo://app?vid=f58729af-e494-40ff-92b4-ecbddf113586"},"vehicle_type_id":"4","last_reported":1735466941,"current_range_meters":33200,"station_id":"ce4bhap2rcd13ifvqek0","pricing_plan_id":"cebpf4jnsgd1na2vs0mg"},{"bike_id":"ade8f6ef-b3ee-4321-b0e3-fa2122109c5d","system_id":"levelo_inurba_marseille","lat":43.250112,"lon":5.389114,"is_reserved":false,"is_disabled":false,"rental_uris":{"android":"levelo://app?vid=ade8f6ef-b3ee-4321-b0e3-fa2122109c5d","ios":"levelo://app?vid=ade8f6ef-b3ee-4321-b0e3-fa2122109c5d"},"vehicle_type_id":"4","last_reported":1735466941,"current_range_meters":20400,"station_id":"ce4bhgp2rcd13ifvqfd0","pricing_plan_id":"cebpf4jnsgd1na2vs0mg"},{"bike_id":"22fd7190-4a48-4311-a205-02e98d2bbea1","system_id":"levelo_inurba_marseille","lat":43.3373,"lon":5.39185,"is_reserved":false,"is_disabled":false,"rental_uris":{"android":"levelo://app?vid=22fd7190-4a48-4311-a205-02e98d2bbea1","ios":"levelo://app?vid=22fd7190-4a48-4311-a205-02e98d2bbea1"},"vehicle_type_id":"4","last_reported":1735466941,"current_range_meters":36800,"station_id":"ce4bhr92rcd13ifvqhsg","pricing_plan_id":"cebpf4jnsgd1na2vs0mg"},{"bike_id":"c2e178aa-81c8-48f1-83f8-a7e7c71225b2","system_id":"levelo_inurba_marseille","lat":43.30904,"lon":5.37194,"is_reserved":false,"is_disabled":false,"rental_uris":{"android":"levelo://app?vid=c2e178aa-81c8-48f1-83f8-a7e7c71225b2","ios":"levelo://app?vid=c2e178aa-81c8-48f1-83f8-a7e7c71225b2"},"vehicle_type_id":"4","last_reported":1735466941,"current_range_meters":23200,"station_id":"ce4bguh2rcd13ifvqckg","pricing_plan_id":"cebpf4jnsgd1na2vs0mg"},{"bike_id":"b7cda0b8-8215-4862-a601-5a9e0de498ed","system_id":"levelo_inurba_marseille","lat":43.31758,"lon":5.39026,"is_reserved":false,"is_disabled":false,"rental_uris":{"android":"levelo://app?vid=b7cda0b8-8215-4862-a601-5a9e0de498ed","ios":"levelo://app?vid=b7cda0b8-8215-4862-a601-5a9e0de498ed"},"vehicle_type_id":"4","last_reported":1735466941,"current_range_meters":38000,"station_id":"ce4bhqp2rcd13ifvqhng","pricing_plan_id":"cebpf4jnsgd1na2vs0mg"},{"bike_id":"b51899bf-eb59-4427-b974-726780043f14","system_id":"levelo_inurba_marseille","lat":43.27938,"lon":5.41043,"is_reserved":false,"is_disabled":false,"rental_uris":{"android":"levelo://app?vid=b51899bf-eb59-4427-b974-726780043f14","ios":"levelo://app?vid=b51899bf-eb59-4427-b974-726780043f14"},"vehicle_type_id":"4","last_reported":1735466941,"current_range_meters":35200,"station_id":"ce4bhnp2rcd13ifvqh0g","pricing_plan_id":"cebpf4jnsgd1na2vs0mg"},{"bike_id":"ebad73eb-ddf1-4716-985c-2447b376c89e","system_id":"levelo_inurba_marseille","lat":43.27207,"lon":5.39187,"is_reserved":false,"is_disabled":false,"rental_uris":{"android":"levelo://app?vid=ebad73eb-ddf1-4716-985c-2447b376c89e","ios":"levelo://app?vid=ebad73eb-ddf1-4716-985c-2447b376c89e"},"vehicle_type_id":"4","last_reported":1735466941,"current_range_meters":38800,"station_id":"ce4bhhp2rcd13ifvqfm0","pricing_plan_id":"cebpf4jnsgd1na2vs0mg"},{"bike_id":"2fdeab75-c3c7-44e1-8744-5eb7e97729bb","system_id":"levelo_inurba_marseille","lat":43.32109,"lon":5.36776,"is_reserved":false,"is_disabled":false,"rental_uris":{"android":"levelo://app?vid=2fdeab75-c3c7-44e1-8744-5eb7e97729bb","ios":"levelo://app?vid=2fdeab75-c3c7-44e1-8744-5eb7e97729bb"},"vehicle_type_id":"4","last_reported":1735466941,"current_range_meters":10000,"station_id":"ce4bhrh2rcd13ifvqhug","pricing_plan_id":"cebpf4jnsgd1na2vs0mg"},{"bike_id":"81153036-60c1-41ab-b815-babcaaf9e6b0","system_id":"levelo_inurba_marseille","lat":43.31266,"lon":5.40165,"is_reserved":false,"is_disabled":false,"rental_uris":{"android":"levelo://app?vid=81153036-60c1-41ab-b815-babcaaf9e6b0","ios":"levelo://app?vid=81153036-60c1-41ab-b815-babcaaf9e6b0"},"vehicle_type_id":"4","last_reported":1735466941,"current_range_meters":37600,"station_id":"ce4bh092rcd13ifvqd30","pricing_plan_id":"cebpf4jnsgd1na2vs0mg"},{"bike_id":"7061b452-6de4-4de7-8c4e-e80c8067d5f8","system_id":"levelo_inurba_marseille","lat":43.3047,"lon":5.37925,"is_reserved":false,"is_disabled":false,"rental_uris":{"android":"levelo://app?vid=7061b452-6de4-4de7-8c4e-e80c8067d5f8","ios":"levelo://app?vid=7061b452-6de4-4de7-8c4e-e80c8067d5f8"},"vehicle_type_id":"4","last_reported":1735466941,"current_range_meters":16000,"station_id":"ce4bgup2rcd13ifvqcn0","pricing_plan_id":"cebpf4jnsgd1na2vs0mg"},{"bike_id":"9e6d9495-e6fc-46af-bf3a-7dc282e2ba92","system_id":"levelo_inurba_marseille","lat":43.2707,"lon":5.42278,"is_reserved":false,"is_disabled":false,"rental_uris":{"android":"levelo://app?vid=9e6d9495-e6fc-46af-bf3a-7dc282e2ba92","ios":"levelo://app?vid=9e6d9495-e6fc-46af-bf3a-7dc282e2ba92"},"vehicle_type_id":"4","last_reported":1735466941,"current_range_meters":33200,"station_id":"ce4bhk92rcd13ifvqgb0","pricing_plan_id":"cebpf4jnsgd1na2vs0mg"},{"bike_id":"57103b12-06fc-494b-9a1a-1903f8f245d5","system_id":"levelo_inurba_marseille","lat":43.27993,"lon":5.41643,"is_reserved":false,"is_disabled":false,"rental_uris":{"android":"levelo://app?vid=57103b12-06fc-494b-9a1a-1903f8f245d5","ios":"levelo://app?vid=57103b12-06fc-494b-9a1a-1903f8f245d5"},"vehicle_type_id":"4","last_reported":1735466941,"current_range_meters":18000,"station_id":"ce4bho12rcd13ifvqh1g","pricing_plan_id":"cebpf4jnsgd1na2vs0mg"},{"bike_id":"c851116d-99dd-4dac-b2f2-5a1f9d6851a0","system_id":"levelo_inurba_marseille","lat":43.27376,"lon":5.36252,"is_reserved":false,"is_disabled":false,"rental_uris":{"android":"levelo://app?vid=c851116d-99dd-4dac-b2f2-5a1f9d6851a0","ios":"levelo://app?vid=c851116d-99dd-4dac-b2f2-5a1f9d6851a0"},"vehicle_type_id":"4","last_reported":1735466941,"current_range_meters":37600,"station_id":"ce4bhbh2rcd13ifvqeo0","pricing_plan_id":"cebpf4jnsgd1na2vs0mg"},{"bike_id":"3db05973-cc08-4299-9c9c-1e95f6ad1810","system_id":"levelo_inurba_marseille","lat":43.30802,"lon":5.38149,"is_reserved":false,"is_disabled":false,"rental_uris":{"android":"levelo://app?vid=3db05973-cc08-4299-9c9c-1e95f6ad1810","ios":"levelo://app?vid=3db05973-cc08-4299-9c9c-1e95f6ad1810"},"vehicle_type_id":"4","last_reported":1735466941,"current_range_meters":26000,"station_id":"ce4bgt12rcd13ifvqce0","pricing_plan_id":"cebpf4jnsgd1na2vs0mg"},{"bike_id":"d9d97985-8792-47a3-ab8c-09980f6a9900","system_id":"levelo_inurba_marseille","lat":43.29545,"lon":5.37505,"is_reserved":false,"is_disabled":true,"rental_uris":{"android":"levelo://app?vid=d9d97985-8792-47a3-ab8c-09980f6a9900","ios":"levelo://app?vid=d9d97985-8792-47a3-ab8c-09980f6a9900"},"vehicle_type_id":"4","last_reported":1735466941,"current_range_meters":7200,"station_id":"ce4bgkp2rcd13ifvqbmg","pricing_plan_id":"cebpf4jnsgd1na2vs0mg"},{"bike_id":"e1e242d1-2cf6-4a1f-8622-55d7b81af7d8","system_id":"levelo_inurba_marseille","lat":43.27827,"lon":5.40709,"is_reserved":false,"is_disabled":false,"rental_uris":{"android":"levelo://app?vid=e1e242d1-2cf6-4a1f-8622-55d7b81af7d8","ios":"levelo://app?vid=e1e242d1-2cf6-4a1f-8622-55d7b81af7d8"},"vehicle_type_id":"4","last_reported":1735466941,"current_range_meters":37600,"station_id":"ce4bhnh2rcd13ifvqgtg","pricing_plan_id":"cebpf4jnsgd1na2vs0mg"},{"bike_id":"62c6d429-3767-4773-be41-bb492a25ccfa","system_id":"levelo_inurba_marseille","lat":43.2794,"lon":5.41038,"is_reserved":false,"is_disabled":false,"rental_uris":{"android":"levelo://app?vid=62c6d429-3767-4773-be41-bb492a25ccfa","ios":"levelo://app?vid=62c6d429-3767-4773-be41-bb492a25ccfa"},"vehicle_type_id":"4","last_reported":1735466941,"current_range_meters":15200,"station_id":"ce4bhnp2rcd13ifvqh0g","pricing_plan_id":"cebpf4jnsgd1na2vs0mg"},{"bike_id":"51145a9f-1dd5-49ff-b0a8-9d0e3c399b7d","system_id":"levelo_inurba_marseille","lat":43.2907,"lon":5.37181,"is_reserved":false,"is_disabled":false,"rental_uris":{"android":"levelo://app?vid=51145a9f-1dd5-49ff-b0a8-9d0e3c399b7d","ios":"levelo://app?vid=51145a9f-1dd5-49ff-b0a8-9d0e3c399b7d"},"vehicle_type_id":"4","last_reported":1735466941,"current_range_meters":17600,"station_id":"ce4bh5p2rcd13ifvqe4g","pricing_plan_id":"cebpf4jnsgd1na2vs0mg"},{"bike_id":"482b0b80-c53d-4d05-aa82-218b22575b6c","system_id":"levelo_inurba_marseille","lat":43.23152,"lon":5.43708,"is_reserved":false,"is_disabled":true,"rental_uris":{"android":"levelo://app?vid=482b0b80-c53d-4d05-aa82-218b22575b6c","ios":"levelo://app?vid=482b0b80-c53d-4d05-aa82-218b22575b6c"},"vehicle_type_id":"4","last_reported":1735466941,"current_range_meters":38400,"station_id":"ce4bhmp2rcd13ifvqgog","pricing_plan_id":"cebpf4jnsgd1na2vs0mg"},{"bike_id":"0cf324f6-4a68-49dd-865b-89986a3d1e0b","system_id":"levelo_inurba_marseille","lat":43.30136,"lon":5.38773,"is_reserved":false,"is_disabled":false,"rental_uris":{"android":"levelo://app?vid=0cf324f6-4a68-49dd-865b-89986a3d1e0b","ios":"levelo://app?vid=0cf324f6-4a68-49dd-865b-89986a3d1e0b"},"vehicle_type_id":"4","last_reported":1735466941,"current_range_meters":38800,"station_id":"ce4bhoh2rcd13ifvqh6g","pricing_plan_id":"cebpf4jnsgd1na2vs0mg"},{"bike_id":"337c7ecd-95c1-4e9a-8b35-bb37ebfe1bec","system_id":"levelo_inurba_marseille","lat":43.31324,"lon":5.39696,"is_reserved":false,"is_disabled":false,"rental_uris":{"android":"levelo://app?vid=337c7ecd-95c1-4e9a-8b35-bb37ebfe1bec","ios":"levelo://app?vid=337c7ecd-95c1-4e9a-8b35-bb37ebfe1bec"},"vehicle_type_id":"4","last_reported":1735466941,"current_range_meters":38000,"station_id":"ce4bgvp2rcd13ifvqcu0","pricing_plan_id":"cebpf4jnsgd1na2vs0mg"},{"bike_id":"cb0d02f4-613e-4027-9f67-1bb49f28195e","system_id":"levelo_inurba_marseille","lat":43.29266,"lon":5.36848,"is_reserved":false,"is_disabled":false,"rental_uris":{"android":"levelo://app?vid=cb0d02f4-613e-4027-9f67-1bb49f28195e","ios":"levelo://app?vid=cb0d02f4-613e-4027-9f67-1bb49f28195e"},"vehicle_type_id":"4","last_reported":1735466941,"current_range_meters":33600,"station_id":"ce4bhbp2rcd13ifvqesg","pricing_plan_id":"cebpf4jnsgd1na2vs0mg"},{"bike_id":"4f159b3a-7c41-4df4-8fad-ed79f7f1368b","system_id":"levelo_inurba_marseille","lat":43.30884,"lon":5.37192,"is_reserved":false,"is_disabled":false,"rental_uris":{"android":"levelo://app?vid=4f159b3a-7c41-4df4-8fad-ed79f7f1368b","ios":"levelo://app?vid=4f159b3a-7c41-4df4-8fad-ed79f7f1368b"},"vehicle_type_id":"4","last_reported":1735466941,"current_range_meters":28000,"station_id":"ce4bguh2rcd13ifvqckg","pricing_plan_id":"cebpf4jnsgd1na2vs0mg"},{"bike_id":"c33f4286-aba0-493b-a84b-cccc50a4fb8c","system_id":"levelo_inurba_marseille","lat":43.27618,"lon":5.36112,"is_reserved":false,"is_disabled":false,"rental_uris":{"android":"levelo://app?vid=c33f4286-aba0-493b-a84b-cccc50a4fb8c","ios":"levelo://app?vid=c33f4286-aba0-493b-a84b-cccc50a4fb8c"},"vehicle_type_id":"4","last_reported":1735466941,"current_range_meters":11200,"station_id":"ce4bgj92rcd13ifvqbe0","pricing_plan_id":"cebpf4jnsgd1na2vs0mg"},{"bike_id":"6a65b5f4-f935-4b10-b393-4853aba7b25b","system_id":"levelo_inurba_marseille","lat":43.26682,"lon":5.38254,"is_reserved":false,"is_disabled":false,"rental_uris":{"android":"levelo://app?vid=6a65b5f4-f935-4b10-b393-4853aba7b25b","ios":"levelo://app?vid=6a65b5f4-f935-4b10-b393-4853aba7b25b"},"vehicle_type_id":"4","last_reported":1735466941,"current_range_meters":8400,"station_id":"ce4bhg92rcd13ifvqf90","pricing_plan_id":"cebpf4jnsgd1na2vs0mg"},{"bike_id":"139ba5af-cd52-4f53-9b4f-5ca42e118791","system_id":"levelo_inurba_marseille","lat":43.30601,"lon":5.37218,"is_reserved":false,"is_disabled":false,"rental_uris":{"android":"levelo://app?vid=139ba5af-cd52-4f53-9b4f-5ca42e118791","ios":"levelo://app?vid=139ba5af-cd52-4f53-9b4f-5ca42e118791"},"vehicle_type_id":"4","last_reported":1735466941,"current_range_meters":38800,"station_id":"ce4bgqh2rcd13ifvqc4g","pricing_plan_id":"cebpf4jnsgd1na2vs0mg"},{"bike_id":"f6a398ba-af8e-4fe3-a6c0-f28cb0077f88","system_id":"levelo_inurba_marseille","lat":43.28146,"lon":5.42654,"is_reserved":false,"is_disabled":false,"rental_uris":{"android":"levelo://app?vid=f6a398ba-af8e-4fe3-a6c0-f28cb0077f88","ios":"levelo://app?vid=f6a398ba-af8e-4fe3-a6c0-f28cb0077f88"},"vehicle_type_id":"4","last_reported":1735466941,"current_range_meters":22000,"station_id":"ce4bhnh2rcd13ifvqgug","pricing_plan_id":"cebpf4jnsgd1na2vs0mg"},{"bike_id":"0bcec2f5-0203-436b-a80c-c30c50ac99f3","system_id":"levelo_inurba_marseille","lat":43.25869,"lon":5.39912,"is_reserved":false,"is_disabled":false,"rental_uris":{"android":"levelo://app?vid=0bcec2f5-0203-436b-a80c-c30c50ac99f3","ios":"levelo://app?vid=0bcec2f5-0203-436b-a80c-c30c50ac99f3"},"vehicle_type_id":"4","last_reported":1735466941,"current_range_meters":38800,"station_id":"ce4bhl92rcd13ifvqghg","pricing_plan_id":"cebpf4jnsgd1na2vs0mg"},{"bike_id":"7bd44d09-e872-4291-b548-1cbe40f16cac","system_id":"levelo_inurba_marseille","lat":43.28156,"lon":5.42653,"is_reserved":false,"is_disabled":false,"rental_uris":{"android":"levelo://app?vid=7bd44d09-e872-4291-b548-1cbe40f16cac","ios":"levelo://app?vid=7bd44d09-e872-4291-b548-1cbe40f16cac"},"vehicle_type_id":"4","last_reported":1735466941,"current_range_meters":24800,"station_id":"ce4bhnh2rcd13ifvqgug","pricing_plan_id":"cebpf4jnsgd1na2vs0mg"},{"bike_id":"17f11d6e-aa7f-4c3a-a8cc-c12fcf3b37a3","system_id":"levelo_inurba_marseille","lat":43.30983,"lon":5.41734,"is_reserved":false,"is_disabled":false,"rental_uris":{"android":"levelo://app?vid=17f11d6e-aa7f-4c3a-a8cc-c12fcf3b37a3","ios":"levelo://app?vid=17f11d6e-aa7f-4c3a-a8cc-c12fcf3b37a3"},"vehicle_type_id":"4","last_reported":1735466941,"current_range_meters":26800,"station_id":"","pricing_plan_id":"cebpf4jnsgd1na2vs0mg"},{"bike_id":"d124b3fa-f3a5-4c6d-bebc-2f7ad1a1004e","system_id":"levelo_inurba_marseille","lat":43.26936,"lon":5.38649,"is_reserved":false,"is_disabled":false,"rental_uris":{"android":"levelo://app?vid=d124b3fa-f3a5-4c6d-bebc-2f7ad1a1004e","ios":"levelo://app?vid=d124b3fa-f3a5-4c6d-bebc-2f7ad1a1004e"},"vehicle_type_id":"4","last_reported":1735466941,"current_range_meters":38800,"station_id":"ce4bhh92rcd13ifvqfh0","pricing_plan_id":"cebpf4jnsgd1na2vs0mg"},{"bike_id":"100ef54d-79f8-4689-8411-ae5cedc3c94e","system_id":"levelo_inurba_marseille","lat":43.290688,"lon":5.371711,"is_reserved":false,"is_disabled":false,"rental_uris":{"android":"levelo://app?vid=100ef54d-79f8-4689-8411-ae5cedc3c94e","ios":"levelo://app?vid=100ef54d-79f8-4689-8411-ae5cedc3c94e"},"vehicle_type_id":"4","last_reported":1735466941,"current_range_meters":10000,"station_id":"ce4bh5p2rcd13ifvqe4g","pricing_plan_id":"cebpf4jnsgd1na2vs0mg"},{"bike_id":"2b99ea0b-95a4-4d80-b75c-af1f2e5707ad","system_id":"levelo_inurba_marseille","lat":43.29577,"lon":5.36739,"is_reserved":false,"is_disabled":false,"rental_uris":{"android":"levelo://app?vid=2b99ea0b-95a4-4d80-b75c-af1f2e5707ad","ios":"levelo://app?vid=2b99ea0b-95a4-4d80-b75c-af1f2e5707ad"},"vehicle_type_id":"4","last_reported":1735466941,"current_range_meters":39200,"station_id":"ce4bgph2rcd13ifvqc2g","pricing_plan_id":"cebpf4jnsgd1na2vs0mg"},{"bike_id":"84e9960c-5d51-43ec-a5af-2b8f0882416c","system_id":"levelo_inurba_marseille","lat":43.24058,"lon":5.37762,"is_reserved":false,"is_disabled":false,"rental_uris":{"android":"levelo://app?vid=84e9960c-5d51-43ec-a5af-2b8f0882416c","ios":"levelo://app?vid=84e9960c-5d51-43ec-a5af-2b8f0882416c"},"vehicle_type_id":"4","last_reported":1735466941,"current_range_meters":28000,"station_id":"ce4bhnp2rcd13ifvqgvg","pricing_plan_id":"cebpf4jnsgd1na2vs0mg"},{"bike_id":"359ddae0-5d3f-4b29-8d32-daa2bb9138da","system_id":"levelo_inurba_marseille","lat":43.297368,"lon":5.376869,"is_reserved":false,"is_disabled":false,"rental_uris":{"android":"levelo://app?vid=359ddae0-5d3f-4b29-8d32-daa2bb9138da","ios":"levelo://app?vid=359ddae0-5d3f-4b29-8d32-daa2bb9138da"},"vehicle_type_id":"4","last_reported":1735466941,"current_range_meters":30000,"station_id":"ce4bgkh2rcd13ifvqbl0","pricing_plan_id":"cebpf4jnsgd1na2vs0mg"},{"bike_id":"1107b56a-98a5-4a01-8449-9eba086fee5a","system_id":"levelo_inurba_marseille","lat":43.29073,"lon":5.39883,"is_reserved":false,"is_disabled":true,"rental_uris":{"android":"levelo://app?vid=1107b56a-98a5-4a01-8449-9eba086fee5a","ios":"levelo://app?vid=1107b56a-98a5-4a01-8449-9eba086fee5a"},"vehicle_type_id":"4","last_reported":1735466941,"current_range_meters":16400,"station_id":"","pricing_plan_id":"cebpf4jnsgd1na2vs0mg"},{"bike_id":"5b1cd6da-e84a-476d-b462-54b1dc0dcd97","system_id":"levelo_inurba_marseille","lat":43.29274,"lon":5.36846,"is_reserved":false,"is_disabled":false,"rental_uris":{"android":"levelo://app?vid=5b1cd6da-e84a-476d-b462-54b1dc0dcd97","ios":"levelo://app?vid=5b1cd6da-e84a-476d-b462-54b1dc0dcd97"},"vehicle_type_id":"4","last_reported":1735466941,"current_range_meters":34000,"station_id":"ce4bhbp2rcd13ifvqesg","pricing_plan_id":"cebpf4jnsgd1na2vs0mg"},{"bike_id":"b26295a2-53a3-4c96-9a49-718cdfe52e77","system_id":"levelo_inurba_marseille","lat":43.28695,"lon":5.37404,"is_reserved":false,"is_disabled":false,"rental_uris":{"android":"levelo://app?vid=b26295a2-53a3-4c96-9a49-718cdfe52e77","ios":"levelo://app?vid=b26295a2-53a3-4c96-9a49-718cdfe52e77"},"vehicle_type_id":"4","last_reported":1735466941,"current_range_meters":38800,"station_id":"ce4bh3p2rcd13ifvqdq0","pricing_plan_id":"cebpf4jnsgd1na2vs0mg"},{"bike_id":"f98f86cd-bd12-4a77-a017-bbfdfb0a17cc","system_id":"levelo_inurba_marseille","lat":43.26493,"lon":5.39553,"is_reserved":false,"is_disabled":false,"rental_uris":{"android":"levelo://app?vid=f98f86cd-bd12-4a77-a017-bbfdfb0a17cc","ios":"levelo://app?vid=f98f86cd-bd12-4a77-a017-bbfdfb0a17cc"},"vehicle_type_id":"4","last_reported":1735466941,"current_range_meters":37600,"station_id":"ce4bhi12rcd13ifvqfq0","pricing_plan_id":"cebpf4jnsgd1na2vs0mg"},{"bike_id":"c9b97fb7-b709-4c26-ae01-dabf637bc152","system_id":"levelo_inurba_marseille","lat":43.27813,"lon":5.40717,"is_reserved":false,"is_disabled":false,"rental_uris":{"android":"levelo://app?vid=c9b97fb7-b709-4c26-ae01-dabf637bc152","ios":"levelo://app?vid=c9b97fb7-b709-4c26-ae01-dabf637bc152"},"vehicle_type_id":"4","last_reported":1735466941,"current_range_meters":24400,"station_id":"ce4bhnh2rcd13ifvqgtg","pricing_plan_id":"cebpf4jnsgd1na2vs0mg"},{"bike_id":"8d5af813-b00e-4aed-8d13-e6a45a692526","system_id":"levelo_inurba_marseille","lat":43.24795,"lon":5.37467,"is_reserved":false,"is_disabled":false,"rental_uris":{"android":"levelo://app?vid=8d5af813-b00e-4aed-8d13-e6a45a692526","ios":"levelo://app?vid=8d5af813-b00e-4aed-8d13-e6a45a692526"},"vehicle_type_id":"4","last_reported":1735466941,"current_range_meters":26800,"station_id":"ce4bhgh2rcd13ifvqfb0","pricing_plan_id":"cebpf4jnsgd1na2vs0mg"},{"bike_id":"8a613f5a-5979-4022-a092-2888a966fd1d","system_id":"levelo_inurba_marseille","lat":43.30619,"lon":5.37204,"is_reserved":false,"is_disabled":false,"rental_uris":{"android":"levelo://app?vid=8a613f5a-5979-4022-a092-2888a966fd1d","ios":"levelo://app?vid=8a613f5a-5979-4022-a092-2888a966fd1d"},"vehicle_type_id":"4","last_reported":1735466941,"current_range_meters":39200,"station_id":"ce4bgqh2rcd13ifvqc4g","pricing_plan_id":"cebpf4jnsgd1na2vs0mg"},{"bike_id":"ed49c6a3-5e64-485a-beb0-24d7970e5e6b","system_id":"levelo_inurba_marseille","lat":43.26495,"lon":5.39548,"is_reserved":false,"is_disabled":false,"rental_uris":{"android":"levelo://app?vid=ed49c6a3-5e64-485a-beb0-24d7970e5e6b","ios":"levelo://app?vid=ed49c6a3-5e64-485a-beb0-24d7970e5e6b"},"vehicle_type_id":"4","last_reported":1735466941,"current_range_meters":38800,"station_id":"ce4bhi12rcd13ifvqfq0","pricing_plan_id":"cebpf4jnsgd1na2vs0mg"},{"bike_id":"7a8d39fc-f385-4cc2-bc46-a909e71408e4","system_id":"levelo_inurba_marseille","lat":43.30182,"lon":5.38078,"is_reserved":false,"is_disabled":false,"rental_uris":{"android":"levelo://app?vid=7a8d39fc-f385-4cc2-bc46-a909e71408e4","ios":"levelo://app?vid=7a8d39fc-f385-4cc2-bc46-a909e71408e4"},"vehicle_type_id":"4","last_reported":1735466941,"current_range_meters":17200,"station_id":"ce4bgjp2rcd13ifvqbh0","pricing_plan_id":"cebpf4jnsgd1na2vs0mg"},{"bike_id":"fd9dccc3-920a-4f08-931a-e49fee0b5433","system_id":"levelo_inurba_marseille","lat":43.29251,"lon":5.40916,"is_reserved":false,"is_disabled":false,"rental_uris":{"android":"levelo://app?vid=fd9dccc3-920a-4f08-931a-e49fee0b5433","ios":"levelo://app?vid=fd9dccc3-920a-4f08-931a-e49fee0b5433"},"vehicle_type_id":"4","last_reported":1735466941,"current_range_meters":39200,"station_id":"ce4bh192rcd13ifvqdc0","pricing_plan_id":"cebpf4jnsgd1na2vs0mg"},{"bike_id":"acb2dad3-f056-4596-afe6-87db7ce6de45","system_id":"levelo_inurba_marseille","lat":43.28701,"lon":5.39985,"is_reserved":false,"is_disabled":false,"rental_uris":{"android":"levelo://app?vid=acb2dad3-f056-4596-afe6-87db7ce6de45","ios":"levelo://app?vid=acb2dad3-f056-4596-afe6-87db7ce6de45"},"vehicle_type_id":"4","last_reported":1735466941,"current_range_meters":39200,"station_id":"ce4bho92rcd13ifvqh3g","pricing_plan_id":"cebpf4jnsgd1na2vs0mg"},{"bike_id":"e56a5aaf-50c3-4775-a06f-8f7c009f81a1","system_id":"levelo_inurba_marseille","lat":43.2865,"lon":5.36354,"is_reserved":false,"is_disabled":false,"rental_uris":{"android":"levelo://app?vid=e56a5aaf-50c3-4775-a06f-8f7c009f81a1","ios":"levelo://app?vid=e56a5aaf-50c3-4775-a06f-8f7c009f81a1"},"vehicle_type_id":"4","last_reported":1735466941,"current_range_meters":25600,"station_id":"ce4bhah2rcd13ifvqej0","pricing_plan_id":"cebpf4jnsgd1na2vs0mg"},{"bike_id":"41e441a8-4ad2-4bf0-81ba-96c35feaf6d8","system_id":"levelo_inurba_marseille","lat":43.28152,"lon":5.42636,"is_reserved":false,"is_disabled":false,"rental_uris":{"android":"levelo://app?vid=41e441a8-4ad2-4bf0-81ba-96c35feaf6d8","ios":"levelo://app?vid=41e441a8-4ad2-4bf0-81ba-96c35feaf6d8"},"vehicle_type_id":"4","last_reported":1735466941,"current_range_meters":29600,"station_id":"ce4bhnh2rcd13ifvqgug","pricing_plan_id":"cebpf4jnsgd1na2vs0mg"},{"bike_id":"709ae17d-e4b3-4756-b5f5-c67b4fadf597","system_id":"levelo_inurba_marseille","lat":43.29197,"lon":5.35813,"is_reserved":false,"is_disabled":false,"rental_uris":{"android":"levelo://app?vid=709ae17d-e4b3-4756-b5f5-c67b4fadf597","ios":"levelo://app?vid=709ae17d-e4b3-4756-b5f5-c67b4fadf597"},"vehicle_type_id":"4","last_reported":1735466941,"current_range_meters":38800,"station_id":"ce4bhb12rcd13ifvqel0","pricing_plan_id":"cebpf4jnsgd1na2vs0mg"},{"bike_id":"0cfa0846-db27-4c5a-b233-3bf9fb29600a","system_id":"levelo_inurba_marseille","lat":43.24806,"lon":5.37456,"is_reserved":false,"is_disabled":false,"rental_uris":{"android":"levelo://app?vid=0cfa0846-db27-4c5a-b233-3bf9fb29600a","ios":"levelo://app?vid=0cfa0846-db27-4c5a-b233-3bf9fb29600a"},"vehicle_type_id":"4","last_reported":1735466941,"current_range_meters":34800,"station_id":"ce4bhgh2rcd13ifvqfb0","pricing_plan_id":"cebpf4jnsgd1na2vs0mg"},{"bike_id":"b0d45b52-6895-4f7d-b544-51d0d9d0ee35","system_id":"levelo_inurba_marseille","lat":43.30534,"lon":5.36715,"is_reserved":false,"is_disabled":true,"rental_uris":{"android":"levelo://app?vid=b0d45b52-6895-4f7d-b544-51d0d9d0ee35","ios":"levelo://app?vid=b0d45b52-6895-4f7d-b544-51d0d9d0ee35"},"vehicle_type_id":"4","last_reported":1735466941,"current_range_meters":0,"station_id":"ce4bgrp2rcd13ifvqc9g","pricing_plan_id":"cebpf4jnsgd1na2vs0mg"},{"bike_id":"d2cb3dc8-9c6d-486b-b6fe-943502ea293f","system_id":"levelo_inurba_marseille","lat":43.27206,"lon":5.41003,"is_reserved":false,"is_disabled":false,"rental_uris":{"android":"levelo://app?vid=d2cb3dc8-9c6d-486b-b6fe-943502ea293f","ios":"levelo://app?vid=d2cb3dc8-9c6d-486b-b6fe-943502ea293f"},"vehicle_type_id":"4","last_reported":1735466941,"current_range_meters":38000,"station_id":"ce4bhl12rcd13ifvqgf0","pricing_plan_id":"cebpf4jnsgd1na2vs0mg"},{"bike_id":"5639f52b-1196-4558-b062-4f7891cec443","system_id":"levelo_inurba_marseille","lat":43.28397,"lon":5.37537,"is_reserved":false,"is_disabled":true,"rental_uris":{"android":"levelo://app?vid=5639f52b-1196-4558-b062-4f7891cec443","ios":"levelo://app?vid=5639f52b-1196-4558-b062-4f7891cec443"},"vehicle_type_id":"4","last_reported":1735466941,"current_range_meters":26000,"station_id":"ce4bh412rcd13ifvqds0","pricing_plan_id":"cebpf4jnsgd1na2vs0mg"},{"bike_id":"1727a0bf-5c41-4aa7-be74-58dfcc6e8f12","system_id":"levelo_inurba_marseille","lat":43.31496,"lon":5.3731,"is_reserved":false,"is_disabled":false,"rental_uris":{"android":"levelo://app?vid=1727a0bf-5c41-4aa7-be74-58dfcc6e8f12","ios":"levelo://app?vid=1727a0bf-5c41-4aa7-be74-58dfcc6e8f12"},"vehicle_type_id":"4","last_reported":1735466941,"current_range_meters":38800,"station_id":"ce4bgt12rcd13ifvqcd0","pricing_plan_id":"cebpf4jnsgd1na2vs0mg"},{"bike_id":"4f64baea-2dce-476e-949c-545a91d1c25f","system_id":"levelo_inurba_marseille","lat":43.30539,"lon":5.36546,"is_reserved":false,"is_disabled":false,"rental_uris":{"android":"levelo://app?vid=4f64baea-2dce-476e-949c-545a91d1c25f","ios":"levelo://app?vid=4f64baea-2dce-476e-949c-545a91d1c25f"},"vehicle_type_id":"4","last_reported":1735466941,"current_range_meters":35600,"station_id":"ce4bgs12rcd13ifvqcag","pricing_plan_id":"cebpf4jnsgd1na2vs0mg"},{"bike_id":"9cb744ce-e2a6-4f49-969f-f3c21749d065","system_id":"levelo_inurba_marseille","lat":43.29612,"lon":5.38101,"is_reserved":false,"is_disabled":false,"rental_uris":{"android":"levelo://app?vid=9cb744ce-e2a6-4f49-969f-f3c21749d065","ios":"levelo://app?vid=9cb744ce-e2a6-4f49-969f-f3c21749d065"},"vehicle_type_id":"4","last_reported":1735466941,"current_range_meters":16800,"station_id":"ce4bgl12rcd13ifvqbo0","pricing_plan_id":"cebpf4jnsgd1na2vs0mg"},{"bike_id":"c4464463-92cc-48b8-b950-7ed437f91335","system_id":"levelo_inurba_marseille","lat":43.29218,"lon":5.3605,"is_reserved":false,"is_disabled":false,"rental_uris":{"android":"levelo://app?vid=c4464463-92cc-48b8-b950-7ed437f91335","ios":"levelo://app?vid=c4464463-92cc-48b8-b950-7ed437f91335"},"vehicle_type_id":"4","last_reported":1735466941,"current_range_meters":35600,"station_id":"ce4bhbh2rcd13ifvqeqg","pricing_plan_id":"cebpf4jnsgd1na2vs0mg"},{"bike_id":"b561c8dd-38e0-48e4-a326-a9f947862345","system_id":"levelo_inurba_marseille","lat":43.25727,"lon":5.41101,"is_reserved":false,"is_disabled":false,"rental_uris":{"android":"levelo://app?vid=b561c8dd-38e0-48e4-a326-a9f947862345","ios":"levelo://app?vid=b561c8dd-38e0-48e4-a326-a9f947862345"},"vehicle_type_id":"4","last_reported":1735466941,"current_range_meters":38800,"station_id":"ce4bhkp2rcd13ifvqgd0","pricing_plan_id":"cebpf4jnsgd1na2vs0mg"},{"bike_id":"356fd92d-e963-40e6-b40e-58fc72ac9553","system_id":"levelo_inurba_marseille","lat":43.321049,"lon":5.36778,"is_reserved":false,"is_disabled":false,"rental_uris":{"android":"levelo://app?vid=356fd92d-e963-40e6-b40e-58fc72ac9553","ios":"levelo://app?vid=356fd92d-e963-40e6-b40e-58fc72ac9553"},"vehicle_type_id":"4","last_reported":1735466941,"current_range_meters":37600,"station_id":"ce4bhrh2rcd13ifvqhug","pricing_plan_id":"cebpf4jnsgd1na2vs0mg"},{"bike_id":"c35e3a16-681d-4b57-8851-06ee6d56458b","system_id":"levelo_inurba_marseille","lat":43.2762,"lon":5.36114,"is_reserved":false,"is_disabled":false,"rental_uris":{"android":"levelo://app?vid=c35e3a16-681d-4b57-8851-06ee6d56458b","ios":"levelo://app?vid=c35e3a16-681d-4b57-8851-06ee6d56458b"},"vehicle_type_id":"4","last_reported":1735466941,"current_range_meters":25600,"station_id":"ce4bgj92rcd13ifvqbe0","pricing_plan_id":"cebpf4jnsgd1na2vs0mg"},{"bike_id":"12b64bf2-4ce1-4146-af5b-eb3b72f8d5ae","system_id":"levelo_inurba_marseille","lat":43.25729,"lon":5.4111,"is_reserved":false,"is_disabled":false,"rental_uris":{"android":"levelo://app?vid=12b64bf2-4ce1-4146-af5b-eb3b72f8d5ae","ios":"levelo://app?vid=12b64bf2-4ce1-4146-af5b-eb3b72f8d5ae"},"vehicle_type_id":"4","last_reported":1735466941,"current_range_meters":38800,"station_id":"ce4bhkp2rcd13ifvqgd0","pricing_plan_id":"cebpf4jnsgd1na2vs0mg"},{"bike_id":"51c30c5c-9542-43d7-9b09-a742a84f8cf5","system_id":"levelo_inurba_marseille","lat":43.29522,"lon":5.3906,"is_reserved":false,"is_disabled":false,"rental_uris":{"android":"levelo://app?vid=51c30c5c-9542-43d7-9b09-a742a84f8cf5","ios":"levelo://app?vid=51c30c5c-9542-43d7-9b09-a742a84f8cf5"},"vehicle_type_id":"4","last_reported":1735466941,"current_range_meters":34000,"station_id":"ce4bh3p2rcd13ifvqdp0","pricing_plan_id":"cebpf4jnsgd1na2vs0mg"},{"bike_id":"a0a23f3e-a7a3-4649-a9f6-4d7c21f4f9e5","system_id":"levelo_inurba_marseille","lat":43.2971,"lon":5.37278,"is_reserved":false,"is_disabled":false,"rental_uris":{"android":"levelo://app?vid=a0a23f3e-a7a3-4649-a9f6-4d7c21f4f9e5","ios":"levelo://app?vid=a0a23f3e-a7a3-4649-a9f6-4d7c21f4f9e5"},"vehicle_type_id":"4","last_reported":1735466941,"current_range_meters":39200,"station_id":"ce4bgk12rcd13ifvqbj0","pricing_plan_id":"cebpf4jnsgd1na2vs0mg"},{"bike_id":"4ff07c24-5f71-48e2-ae35-b8ed4c8088e4","system_id":"levelo_inurba_marseille","lat":43.29203,"lon":5.36071,"is_reserved":false,"is_disabled":false,"rental_uris":{"android":"levelo://app?vid=4ff07c24-5f71-48e2-ae35-b8ed4c8088e4","ios":"levelo://app?vid=4ff07c24-5f71-48e2-ae35-b8ed4c8088e4"},"vehicle_type_id":"4","last_reported":1735466941,"current_range_meters":32400,"station_id":"ce4bhbh2rcd13ifvqeqg","pricing_plan_id":"cebpf4jnsgd1na2vs0mg"},{"bike_id":"7e1dc608-a820-41f3-8381-31f3794c2504","system_id":"levelo_inurba_marseille","lat":43.27987,"lon":5.41664,"is_reserved":false,"is_disabled":false,"rental_uris":{"android":"levelo://app?vid=7e1dc608-a820-41f3-8381-31f3794c2504","ios":"levelo://app?vid=7e1dc608-a820-41f3-8381-31f3794c2504"},"vehicle_type_id":"4","last_reported":1735466941,"current_range_meters":37600,"station_id":"ce4bho12rcd13ifvqh1g","pricing_plan_id":"cebpf4jnsgd1na2vs0mg"},{"bike_id":"a7322e7d-fa1c-435c-b4da-98cb797fb06e","system_id":"levelo_inurba_marseille","lat":43.30579,"lon":5.37192,"is_reserved":false,"is_disabled":false,"rental_uris":{"android":"levelo://app?vid=a7322e7d-fa1c-435c-b4da-98cb797fb06e","ios":"levelo://app?vid=a7322e7d-fa1c-435c-b4da-98cb797fb06e"},"vehicle_type_id":"4","last_reported":1735466941,"current_range_meters":38800,"station_id":"ce4bgqh2rcd13ifvqc4g","pricing_plan_id":"cebpf4jnsgd1na2vs0mg"},{"bike_id":"673ed0fe-3027-4e1f-9efc-2804b0e32190","system_id":"levelo_inurba_marseille","lat":43.2669,"lon":5.3827,"is_reserved":false,"is_disabled":false,"rental_uris":{"android":"levelo://app?vid=673ed0fe-3027-4e1f-9efc-2804b0e32190","ios":"levelo://app?vid=673ed0fe-3027-4e1f-9efc-2804b0e32190"},"vehicle_type_id":"4","last_reported":1735466941,"current_range_meters":8400,"station_id":"ce4bhg92rcd13ifvqf90","pricing_plan_id":"cebpf4jnsgd1na2vs0mg"},{"bike_id":"c2b38636-82b3-4c3a-88d2-48449d43e7b0","system_id":"levelo_inurba_marseille","lat":43.30546,"lon":5.38421,"is_reserved":false,"is_disabled":false,"rental_uris":{"android":"levelo://app?vid=c2b38636-82b3-4c3a-88d2-48449d43e7b0","ios":"levelo://app?vid=c2b38636-82b3-4c3a-88d2-48449d43e7b0"},"vehicle_type_id":"4","last_reported":1735466941,"current_range_meters":38000,"station_id":"ce4bgg92rcd13ifvqb30","pricing_plan_id":"cebpf4jnsgd1na2vs0mg"},{"bike_id":"839d9add-f6be-4f14-b54d-e253e7d94bc5","system_id":"levelo_inurba_marseille","lat":43.31117,"lon":5.37798,"is_reserved":false,"is_disabled":false,"rental_uris":{"android":"levelo://app?vid=839d9add-f6be-4f14-b54d-e253e7d94bc5","ios":"levelo://app?vid=839d9add-f6be-4f14-b54d-e253e7d94bc5"},"vehicle_type_id":"4","last_reported":1735466941,"current_range_meters":34800,"station_id":"ce4bgt92rcd13ifvqcg0","pricing_plan_id":"cebpf4jnsgd1na2vs0mg"},{"bike_id":"17281b94-d9ee-4de2-b86b-bf8a41fceb2b","system_id":"levelo_inurba_marseille","lat":43.25008,"lon":5.38919,"is_reserved":false,"is_disabled":false,"rental_uris":{"android":"levelo://app?vid=17281b94-d9ee-4de2-b86b-bf8a41fceb2b","ios":"levelo://app?vid=17281b94-d9ee-4de2-b86b-bf8a41fceb2b"},"vehicle_type_id":"4","last_reported":1735466941,"current_range_meters":22000,"station_id":"ce4bhgp2rcd13ifvqfd0","pricing_plan_id":"cebpf4jnsgd1na2vs0mg"},{"bike_id":"e70ce8bb-674e-436b-ab6d-79ca756c291a","system_id":"levelo_inurba_marseille","lat":43.25726,"lon":5.41103,"is_reserved":false,"is_disabled":false,"rental_uris":{"android":"levelo://app?vid=e70ce8bb-674e-436b-ab6d-79ca756c291a","ios":"levelo://app?vid=e70ce8bb-674e-436b-ab6d-79ca756c291a"},"vehicle_type_id":"4","last_reported":1735466941,"current_range_meters":32400,"station_id":"ce4bhkp2rcd13ifvqgd0","pricing_plan_id":"cebpf4jnsgd1na2vs0mg"},{"bike_id":"c8d1c33c-78e9-42be-a881-5b72ffd6d815","system_id":"levelo_inurba_marseille","lat":43.2991,"lon":5.37473,"is_reserved":false,"is_disabled":false,"rental_uris":{"android":"levelo://app?vid=c8d1c33c-78e9-42be-a881-5b72ffd6d815","ios":"levelo://app?vid=c8d1c33c-78e9-42be-a881-5b72ffd6d815"},"vehicle_type_id":"4","last_reported":1735466941,"current_range_meters":38800,"station_id":"ce4bgjh2rcd13ifvqbg0","pricing_plan_id":"cebpf4jnsgd1na2vs0mg"},{"bike_id":"2524961b-2c06-4256-ab6a-2f5342052226","system_id":"levelo_inurba_marseille","lat":43.30309,"lon":5.36895,"is_reserved":false,"is_disabled":false,"rental_uris":{"android":"levelo://app?vid=2524961b-2c06-4256-ab6a-2f5342052226","ios":"levelo://app?vid=2524961b-2c06-4256-ab6a-2f5342052226"},"vehicle_type_id":"4","last_reported":1735466941,"current_range_meters":38000,"station_id":"ce4bgqh2rcd13ifvqc5g","pricing_plan_id":"cebpf4jnsgd1na2vs0mg"},{"bike_id":"182697cb-2219-4e08-8291-846687f91a97","system_id":"levelo_inurba_marseille","lat":43.28154,"lon":5.42644,"is_reserved":false,"is_disabled":false,"rental_uris":{"android":"levelo://app?vid=182697cb-2219-4e08-8291-846687f91a97","ios":"levelo://app?vid=182697cb-2219-4e08-8291-846687f91a97"},"vehicle_type_id":"4","last_reported":1735466941,"current_range_meters":36800,"station_id":"ce4bhnh2rcd13ifvqgug","pricing_plan_id":"cebpf4jnsgd1na2vs0mg"},{"bike_id":"f119d51a-5c20-447e-8a4a-b026c7a23c3c","system_id":"levelo_inurba_marseille","lat":43.29125,"lon":5.37213,"is_reserved":false,"is_disabled":false,"rental_uris":{"android":"levelo://app?vid=f119d51a-5c20-447e-8a4a-b026c7a23c3c","ios":"levelo://app?vid=f119d51a-5c20-447e-8a4a-b026c7a23c3c"},"vehicle_type_id":"4","last_reported":1735466941,"current_range_meters":18800,"station_id":"ce4bha92rcd13ifvqeh0","pricing_plan_id":"cebpf4jnsgd1na2vs0mg"},{"bike_id":"35142cb1-da84-4465-a902-1b70f5829b31","system_id":"levelo_inurba_marseille","lat":43.25725,"lon":5.411003,"is_reserved":false,"is_disabled":false,"rental_uris":{"android":"levelo://app?vid=35142cb1-da84-4465-a902-1b70f5829b31","ios":"levelo://app?vid=35142cb1-da84-4465-a902-1b70f5829b31"},"vehicle_type_id":"4","last_reported":1735466941,"current_range_meters":37600,"station_id":"ce4bhkp2rcd13ifvqgd0","pricing_plan_id":"cebpf4jnsgd1na2vs0mg"},{"bike_id":"50fa15ec-9acb-42d4-b549-6b1320f335de","system_id":"levelo_inurba_marseille","lat":43.29232,"lon":5.3651,"is_reserved":false,"is_disabled":false,"rental_uris":{"android":"levelo://app?vid=50fa15ec-9acb-42d4-b549-6b1320f335de","ios":"levelo://app?vid=50fa15ec-9acb-42d4-b549-6b1320f335de"},"vehicle_type_id":"4","last_reported":1735466941,"current_range_meters":37600,"station_id":"ce4bhb12rcd13ifvqel0","pricing_plan_id":"cebpf4jnsgd1na2vs0mg"},{"bike_id":"df0eb88d-fd2c-4e51-b29b-0b4e96cdb399","system_id":"levelo_inurba_marseille","lat":43.2815,"lon":5.4264,"is_reserved":false,"is_disabled":false,"rental_uris":{"android":"levelo://app?vid=df0eb88d-fd2c-4e51-b29b-0b4e96cdb399","ios":"levelo://app?vid=df0eb88d-fd2c-4e51-b29b-0b4e96cdb399"},"vehicle_type_id":"4","last_reported":1735466941,"current_range_meters":32800,"station_id":"ce4bhnh2rcd13ifvqgug","pricing_plan_id":"cebpf4jnsgd1na2vs0mg"},{"bike_id":"f32cca47-ddd8-4ccd-b197-1c4f0f381420","system_id":"levelo_inurba_marseille","lat":43.29907,"lon":5.37516,"is_reserved":false,"is_disabled":false,"rental_uris":{"android":"levelo://app?vid=f32cca47-ddd8-4ccd-b197-1c4f0f381420","ios":"levelo://app?vid=f32cca47-ddd8-4ccd-b197-1c4f0f381420"},"vehicle_type_id":"4","last_reported":1735466941,"current_range_meters":36400,"station_id":"ce4bgjh2rcd13ifvqbg0","pricing_plan_id":"cebpf4jnsgd1na2vs0mg"},{"bike_id":"8b2caef2-7af0-44d2-8f46-cb4ab8b932ab","system_id":"levelo_inurba_marseille","lat":43.26061,"lon":5.39396,"is_reserved":false,"is_disabled":false,"rental_uris":{"android":"levelo://app?vid=8b2caef2-7af0-44d2-8f46-cb4ab8b932ab","ios":"levelo://app?vid=8b2caef2-7af0-44d2-8f46-cb4ab8b932ab"},"vehicle_type_id":"4","last_reported":1735466941,"current_range_meters":38800,"station_id":"ce4bhh92rcd13ifvqfj0","pricing_plan_id":"cebpf4jnsgd1na2vs0mg"},{"bike_id":"800f6e04-ce8a-47f4-854c-107a31ec46b1","system_id":"levelo_inurba_marseille","lat":43.279019,"lon":5.380094,"is_reserved":false,"is_disabled":false,"rental_uris":{"android":"levelo://app?vid=800f6e04-ce8a-47f4-854c-107a31ec46b1","ios":"levelo://app?vid=800f6e04-ce8a-47f4-854c-107a31ec46b1"},"vehicle_type_id":"4","last_reported":1735466941,"current_range_meters":36000,"station_id":"ce4bhf92rcd13ifvqf50","pricing_plan_id":"cebpf4jnsgd1na2vs0mg"},{"bike_id":"309a9554-13e3-4a27-8da4-4d931614d914","system_id":"levelo_inurba_marseille","lat":43.290176,"lon":5.381416,"is_reserved":false,"is_disabled":true,"rental_uris":{"android":"levelo://app?vid=309a9554-13e3-4a27-8da4-4d931614d914","ios":"levelo://app?vid=309a9554-13e3-4a27-8da4-4d931614d914"},"vehicle_type_id":"4","last_reported":1735466941,"current_range_meters":4400,"station_id":"ce4bh4p2rcd13ifvqe1g","pricing_plan_id":"cebpf4jnsgd1na2vs0mg"},{"bike_id":"661db2d5-e28b-4307-b130-bd69e3d3aa66","system_id":"levelo_inurba_marseille","lat":43.28656,"lon":5.3637,"is_reserved":false,"is_disabled":false,"rental_uris":{"android":"levelo://app?vid=661db2d5-e28b-4307-b130-bd69e3d3aa66","ios":"levelo://app?vid=661db2d5-e28b-4307-b130-bd69e3d3aa66"},"vehicle_type_id":"4","last_reported":1735466941,"current_range_meters":38800,"station_id":"ce4bhah2rcd13ifvqej0","pricing_plan_id":"cebpf4jnsgd1na2vs0mg"},{"bike_id":"1107af61-e211-41cf-b98e-f5d9cce08783","system_id":"levelo_inurba_marseille","lat":43.30875,"lon":5.37187,"is_reserved":false,"is_disabled":false,"rental_uris":{"android":"levelo://app?vid=1107af61-e211-41cf-b98e-f5d9cce08783","ios":"levelo://app?vid=1107af61-e211-41cf-b98e-f5d9cce08783"},"vehicle_type_id":"4","last_reported":1735466941,"current_range_meters":29600,"station_id":"ce4bguh2rcd13ifvqckg","pricing_plan_id":"cebpf4jnsgd1na2vs0mg"},{"bike_id":"2598d78b-c5cd-4ad1-8306-8c58913fa9c2","system_id":"levelo_inurba_marseille","lat":43.26526,"lon":5.42188,"is_reserved":false,"is_disabled":false,"rental_uris":{"android":"levelo://app?vid=2598d78b-c5cd-4ad1-8306-8c58913fa9c2","ios":"levelo://app?vid=2598d78b-c5cd-4ad1-8306-8c58913fa9c2"},"vehicle_type_id":"4","last_reported":1735466941,"current_range_meters":30400,"station_id":"","pricing_plan_id":"cebpf4jnsgd1na2vs0mg"},{"bike_id":"2d76d9f4-5ac3-420c-b7d3-8710df44025b","system_id":"levelo_inurba_marseille","lat":43.29554,"lon":5.42287,"is_reserved":false,"is_disabled":false,"rental_uris":{"android":"levelo://app?vid=2d76d9f4-5ac3-420c-b7d3-8710df44025b","ios":"levelo://app?vid=2d76d9f4-5ac3-420c-b7d3-8710df44025b"},"vehicle_type_id":"4","last_reported":1735466941,"current_range_meters":10000,"station_id":"ce4bhph2rcd13ifvqhdg","pricing_plan_id":"cebpf4jnsgd1na2vs0mg"},{"bike_id":"5477d212-35e2-4622-b27a-bfe5ff434d03","system_id":"levelo_inurba_marseille","lat":43.337603,"lon":5.374424,"is_reserved":false,"is_disabled":false,"rental_uris":{"android":"levelo://app?vid=5477d212-35e2-4622-b27a-bfe5ff434d03","ios":"levelo://app?vid=5477d212-35e2-4622-b27a-bfe5ff434d03"},"vehicle_type_id":"4","last_reported":1735466941,"current_range_meters":21600,"station_id":"","pricing_plan_id":"cebpf4jnsgd1na2vs0mg"},{"bike_id":"efa53824-6098-4031-9f6b-661c3ddc619c","system_id":"levelo_inurba_marseille","lat":43.29266,"lon":5.40122,"is_reserved":false,"is_disabled":false,"rental_uris":{"android":"levelo://app?vid=efa53824-6098-4031-9f6b-661c3ddc619c","ios":"levelo://app?vid=efa53824-6098-4031-9f6b-661c3ddc619c"},"vehicle_type_id":"4","last_reported":1735466941,"current_range_meters":28800,"station_id":"ce4bh312rcd13ifvqdk0","pricing_plan_id":"cebpf4jnsgd1na2vs0mg"},{"bike_id":"ae8c5d73-c32e-4966-86fa-fa7824db4018","system_id":"levelo_inurba_marseille","lat":43.29564,"lon":5.37498,"is_reserved":false,"is_disabled":false,"rental_uris":{"android":"levelo://app?vid=ae8c5d73-c32e-4966-86fa-fa7824db4018","ios":"levelo://app?vid=ae8c5d73-c32e-4966-86fa-fa7824db4018"},"vehicle_type_id":"4","last_reported":1735466941,"current_range_meters":26800,"station_id":"ce4bgh92rcd13ifvqb50","pricing_plan_id":"cebpf4jnsgd1na2vs0mg"},{"bike_id":"ee8cf5f1-3afc-4c7b-8ed3-ddb81b6ed983","system_id":"levelo_inurba_marseille","lat":43.29933,"lon":5.36547,"is_reserved":false,"is_disabled":false,"rental_uris":{"android":"levelo://app?vid=ee8cf5f1-3afc-4c7b-8ed3-ddb81b6ed983","ios":"levelo://app?vid=ee8cf5f1-3afc-4c7b-8ed3-ddb81b6ed983"},"vehicle_type_id":"4","last_reported":1735466941,"current_range_meters":38800,"station_id":"ce4bgm92rcd13ifvqbr0","pricing_plan_id":"cebpf4jnsgd1na2vs0mg"},{"bike_id":"7aab2ffc-cec0-4dd6-981d-6bd7c8cbfd0b","system_id":"levelo_inurba_marseille","lat":43.2605,"lon":5.39401,"is_reserved":false,"is_disabled":true,"rental_uris":{"android":"levelo://app?vid=7aab2ffc-cec0-4dd6-981d-6bd7c8cbfd0b","ios":"levelo://app?vid=7aab2ffc-cec0-4dd6-981d-6bd7c8cbfd0b"},"vehicle_type_id":"4","last_reported":1735466941,"current_range_meters":38800,"station_id":"ce4bhh92rcd13ifvqfj0","pricing_plan_id":"cebpf4jnsgd1na2vs0mg"},{"bike_id":"cbe2566f-d778-472a-a7a3-0b087ed13cf3","system_id":"levelo_inurba_marseille","lat":43.28273,"lon":5.35063,"is_reserved":false,"is_disabled":false,"rental_uris":{"android":"levelo://app?vid=cbe2566f-d778-472a-a7a3-0b087ed13cf3","ios":"levelo://app?vid=cbe2566f-d778-472a-a7a3-0b087ed13cf3"},"vehicle_type_id":"4","last_reported":1735466941,"current_range_meters":25600,"station_id":"ce4bhbp2rcd13ifvqerg","pricing_plan_id":"cebpf4jnsgd1na2vs0mg"},{"bike_id":"88b5984c-6754-4288-b0c2-ab7044a16ba7","system_id":"levelo_inurba_marseille","lat":43.29783,"lon":5.39346,"is_reserved":false,"is_disabled":false,"rental_uris":{"android":"levelo://app?vid=88b5984c-6754-4288-b0c2-ab7044a16ba7","ios":"levelo://app?vid=88b5984c-6754-4288-b0c2-ab7044a16ba7"},"vehicle_type_id":"4","last_reported":1735466941,"current_range_meters":38800,"station_id":"chh1huq6cuj3fo74tm60","pricing_plan_id":"cebpf4jnsgd1na2vs0mg"},{"bike_id":"bbe4e711-3e45-461b-b5f6-f6d4e22b6274","system_id":"levelo_inurba_marseille","lat":43.27918,"lon":5.39572,"is_reserved":false,"is_disabled":true,"rental_uris":{"android":"levelo://app?vid=bbe4e711-3e45-461b-b5f6-f6d4e22b6274","ios":"levelo://app?vid=bbe4e711-3e45-461b-b5f6-f6d4e22b6274"},"vehicle_type_id":"4","last_reported":1735466941,"current_range_meters":36000,"station_id":"ce4bhf92rcd13ifvqf40","pricing_plan_id":"cebpf4jnsgd1na2vs0mg"},{"bike_id":"b1c0ee8d-93e8-4cc8-82d6-c539d877336e","system_id":"levelo_inurba_marseille","lat":43.24397,"lon":5.37035,"is_reserved":false,"is_disabled":false,"rental_uris":{"android":"levelo://app?vid=b1c0ee8d-93e8-4cc8-82d6-c539d877336e","ios":"levelo://app?vid=b1c0ee8d-93e8-4cc8-82d6-c539d877336e"},"vehicle_type_id":"4","last_reported":1735466941,"current_range_meters":38000,"station_id":"ce4bhhh2rcd13ifvqfk0","pricing_plan_id":"cebpf4jnsgd1na2vs0mg"},{"bike_id":"e6d4b05e-c0c1-475b-859b-26539b7e3cbf","system_id":"levelo_inurba_marseille","lat":43.2872,"lon":5.3794,"is_reserved":false,"is_disabled":false,"rental_uris":{"android":"levelo://app?vid=e6d4b05e-c0c1-475b-859b-26539b7e3cbf","ios":"levelo://app?vid=e6d4b05e-c0c1-475b-859b-26539b7e3cbf"},"vehicle_type_id":"4","last_reported":1735466941,"current_range_meters":39200,"station_id":"ce4bh9p2rcd13ifvqec0","pricing_plan_id":"cebpf4jnsgd1na2vs0mg"},{"bike_id":"b59c2b9b-2b70-4d18-a0f4-0864f501dcb7","system_id":"levelo_inurba_marseille","lat":43.311098,"lon":5.377711,"is_reserved":false,"is_disabled":false,"rental_uris":{"android":"levelo://app?vid=b59c2b9b-2b70-4d18-a0f4-0864f501dcb7","ios":"levelo://app?vid=b59c2b9b-2b70-4d18-a0f4-0864f501dcb7"},"vehicle_type_id":"4","last_reported":1735466941,"current_range_meters":22800,"station_id":"ce4bgt92rcd13ifvqcg0","pricing_plan_id":"cebpf4jnsgd1na2vs0mg"},{"bike_id":"ce740909-4b3f-4f45-9e67-d418d08c0de0","system_id":"levelo_inurba_marseille","lat":43.24998,"lon":5.38946,"is_reserved":false,"is_disabled":false,"rental_uris":{"android":"levelo://app?vid=ce740909-4b3f-4f45-9e67-d418d08c0de0","ios":"levelo://app?vid=ce740909-4b3f-4f45-9e67-d418d08c0de0"},"vehicle_type_id":"4","last_reported":1735466941,"current_range_meters":36400,"station_id":"ce4bhgp2rcd13ifvqfd0","pricing_plan_id":"cebpf4jnsgd1na2vs0mg"},{"bike_id":"b1c233e5-706f-45e5-9465-ea01d85f3853","system_id":"levelo_inurba_marseille","lat":43.29223,"lon":5.3605,"is_reserved":false,"is_disabled":false,"rental_uris":{"android":"levelo://app?vid=b1c233e5-706f-45e5-9465-ea01d85f3853","ios":"levelo://app?vid=b1c233e5-706f-45e5-9465-ea01d85f3853"},"vehicle_type_id":"4","last_reported":1735466941,"current_range_meters":35600,"station_id":"ce4bhbh2rcd13ifvqeqg","pricing_plan_id":"cebpf4jnsgd1na2vs0mg"},{"bike_id":"cf9ecf03-93d1-4a63-a732-45c22e46698e","system_id":"levelo_inurba_marseille","lat":43.25719,"lon":5.41106,"is_reserved":false,"is_disabled":false,"rental_uris":{"android":"levelo://app?vid=cf9ecf03-93d1-4a63-a732-45c22e46698e","ios":"levelo://app?vid=cf9ecf03-93d1-4a63-a732-45c22e46698e"},"vehicle_type_id":"4","last_reported":1735466941,"current_range_meters":38000,"station_id":"ce4bhkp2rcd13ifvqgd0","pricing_plan_id":"cebpf4jnsgd1na2vs0mg"},{"bike_id":"5e2e67f6-8855-4a1a-a193-10c8e793ffd7","system_id":"levelo_inurba_marseille","lat":43.2407,"lon":5.37754,"is_reserved":false,"is_disabled":false,"rental_uris":{"android":"levelo://app?vid=5e2e67f6-8855-4a1a-a193-10c8e793ffd7","ios":"levelo://app?vid=5e2e67f6-8855-4a1a-a193-10c8e793ffd7"},"vehicle_type_id":"4","last_reported":1735466941,"current_range_meters":10000,"station_id":"ce4bhnp2rcd13ifvqgvg","pricing_plan_id":"cebpf4jnsgd1na2vs0mg"},{"bike_id":"ae9b6908-7454-4899-a4fc-b8e9335bda92","system_id":"levelo_inurba_marseille","lat":43.31766,"lon":5.390089,"is_reserved":false,"is_disabled":false,"rental_uris":{"android":"levelo://app?vid=ae9b6908-7454-4899-a4fc-b8e9335bda92","ios":"levelo://app?vid=ae9b6908-7454-4899-a4fc-b8e9335bda92"},"vehicle_type_id":"4","last_reported":1735466941,"current_range_meters":38400,"station_id":"ce4bhqp2rcd13ifvqhng","pricing_plan_id":"cebpf4jnsgd1na2vs0mg"},{"bike_id":"27001726-4b0a-4ba0-8261-5a303bdee373","system_id":"levelo_inurba_marseille","lat":43.27561,"lon":5.38411,"is_reserved":false,"is_disabled":false,"rental_uris":{"android":"levelo://app?vid=27001726-4b0a-4ba0-8261-5a303bdee373","ios":"levelo://app?vid=27001726-4b0a-4ba0-8261-5a303bdee373"},"vehicle_type_id":"4","last_reported":1735466941,"current_range_meters":38800,"station_id":"ce4bhh92rcd13ifvqfi0","pricing_plan_id":"cebpf4jnsgd1na2vs0mg"},{"bike_id":"47dd8f95-9906-44e1-82c6-7eff5dfeaa82","system_id":"levelo_inurba_marseille","lat":43.30806,"lon":5.38164,"is_reserved":false,"is_disabled":false,"rental_uris":{"android":"levelo://app?vid=47dd8f95-9906-44e1-82c6-7eff5dfeaa82","ios":"levelo://app?vid=47dd8f95-9906-44e1-82c6-7eff5dfeaa82"},"vehicle_type_id":"4","last_reported":1735466941,"current_range_meters":32800,"station_id":"ce4bgt12rcd13ifvqce0","pricing_plan_id":"cebpf4jnsgd1na2vs0mg"},{"bike_id":"9925f51a-d18b-45b4-85cc-29e16c4b5245","system_id":"levelo_inurba_marseille","lat":43.30549,"lon":5.38436,"is_reserved":false,"is_disabled":false,"rental_uris":{"android":"levelo://app?vid=9925f51a-d18b-45b4-85cc-29e16c4b5245","ios":"levelo://app?vid=9925f51a-d18b-45b4-85cc-29e16c4b5245"},"vehicle_type_id":"4","last_reported":1735466941,"current_range_meters":39200,"station_id":"ce4bgg92rcd13ifvqb30","pricing_plan_id":"cebpf4jnsgd1na2vs0mg"},{"bike_id":"5f8ee9c5-4e33-43ee-b8aa-ac908ba0aac5","system_id":"levelo_inurba_marseille","lat":43.27488,"lon":5.42456,"is_reserved":false,"is_disabled":false,"rental_uris":{"android":"levelo://app?vid=5f8ee9c5-4e33-43ee-b8aa-ac908ba0aac5","ios":"levelo://app?vid=5f8ee9c5-4e33-43ee-b8aa-ac908ba0aac5"},"vehicle_type_id":"4","last_reported":1735466941,"current_range_meters":25600,"station_id":"ce4bhn92rcd13ifvqgrg","pricing_plan_id":"cebpf4jnsgd1na2vs0mg"},{"bike_id":"5cde0b8a-33b1-4c05-9348-79fee963745d","system_id":"levelo_inurba_marseille","lat":43.29567,"lon":5.37509,"is_reserved":false,"is_disabled":false,"rental_uris":{"android":"levelo://app?vid=5cde0b8a-33b1-4c05-9348-79fee963745d","ios":"levelo://app?vid=5cde0b8a-33b1-4c05-9348-79fee963745d"},"vehicle_type_id":"4","last_reported":1735466941,"current_range_meters":8400,"station_id":"ce4bgh92rcd13ifvqb50","pricing_plan_id":"cebpf4jnsgd1na2vs0mg"},{"bike_id":"7f94e99c-5f78-49a4-ab5a-fe46a280da7d","system_id":"levelo_inurba_marseille","lat":43.28477,"lon":5.3843,"is_reserved":false,"is_disabled":false,"rental_uris":{"android":"levelo://app?vid=7f94e99c-5f78-49a4-ab5a-fe46a280da7d","ios":"levelo://app?vid=7f94e99c-5f78-49a4-ab5a-fe46a280da7d"},"vehicle_type_id":"4","last_reported":1735466941,"current_range_meters":36000,"station_id":"ce4bh512rcd13ifvqe3g","pricing_plan_id":"cebpf4jnsgd1na2vs0mg"},{"bike_id":"1560d899-203a-414b-9dd8-6d05efff7eee","system_id":"levelo_inurba_marseille","lat":43.276884,"lon":5.389115,"is_reserved":false,"is_disabled":false,"rental_uris":{"android":"levelo://app?vid=1560d899-203a-414b-9dd8-6d05efff7eee","ios":"levelo://app?vid=1560d899-203a-414b-9dd8-6d05efff7eee"},"vehicle_type_id":"4","last_reported":1735466941,"current_range_meters":6800,"station_id":"ce4bhi12rcd13ifvqfo0","pricing_plan_id":"cebpf4jnsgd1na2vs0mg"},{"bike_id":"c4fd707c-d047-48ec-b77f-f5859c2695cf","system_id":"levelo_inurba_marseille","lat":43.29262,"lon":5.40914,"is_reserved":false,"is_disabled":false,"rental_uris":{"android":"levelo://app?vid=c4fd707c-d047-48ec-b77f-f5859c2695cf","ios":"levelo://app?vid=c4fd707c-d047-48ec-b77f-f5859c2695cf"},"vehicle_type_id":"4","last_reported":1735466941,"current_range_meters":6000,"station_id":"ce4bh192rcd13ifvqdc0","pricing_plan_id":"cebpf4jnsgd1na2vs0mg"},{"bike_id":"7eeb53ca-6ac6-4389-9214-110ac78b2c17","system_id":"levelo_inurba_marseille","lat":43.30635,"lon":5.40062,"is_reserved":false,"is_disabled":false,"rental_uris":{"android":"levelo://app?vid=7eeb53ca-6ac6-4389-9214-110ac78b2c17","ios":"levelo://app?vid=7eeb53ca-6ac6-4389-9214-110ac78b2c17"},"vehicle_type_id":"4","last_reported":1735466941,"current_range_meters":38000,"station_id":"ce4bh112rcd13ifvqda0","pricing_plan_id":"cebpf4jnsgd1na2vs0mg"},{"bike_id":"c9e5d6c6-5601-4769-be5c-20fef93ca121","system_id":"levelo_inurba_marseille","lat":43.24159,"lon":5.36397,"is_reserved":false,"is_disabled":false,"rental_uris":{"android":"levelo://app?vid=c9e5d6c6-5601-4769-be5c-20fef93ca121","ios":"levelo://app?vid=c9e5d6c6-5601-4769-be5c-20fef93ca121"},"vehicle_type_id":"4","last_reported":1735466941,"current_range_meters":12400,"station_id":"cpo36qri1sfpv3e86is0","pricing_plan_id":"cebpf4jnsgd1na2vs0mg"},{"bike_id":"e23a7d55-7ce1-4f20-a71a-26c06c907d82","system_id":"levelo_inurba_marseille","lat":43.27945,"lon":5.41043,"is_reserved":false,"is_disabled":false,"rental_uris":{"android":"levelo://app?vid=e23a7d55-7ce1-4f20-a71a-26c06c907d82","ios":"levelo://app?vid=e23a7d55-7ce1-4f20-a71a-26c06c907d82"},"vehicle_type_id":"4","last_reported":1735466941,"current_range_meters":37600,"station_id":"ce4bhnp2rcd13ifvqh0g","pricing_plan_id":"cebpf4jnsgd1na2vs0mg"},{"bike_id":"b0c4d0d6-5451-4daa-af56-54957229db80","system_id":"levelo_inurba_marseille","lat":43.32362,"lon":5.36761,"is_reserved":false,"is_disabled":false,"rental_uris":{"android":"levelo://app?vid=b0c4d0d6-5451-4daa-af56-54957229db80","ios":"levelo://app?vid=b0c4d0d6-5451-4daa-af56-54957229db80"},"vehicle_type_id":"4","last_reported":1735466941,"current_range_meters":36000,"station_id":"ce4bhsh2rcd13ifvqi2g","pricing_plan_id":"cebpf4jnsgd1na2vs0mg"},{"bike_id":"5367a292-5564-4681-91cd-97babb89fc00","system_id":"levelo_inurba_marseille","lat":43.22927,"lon":5.35399,"is_reserved":false,"is_disabled":false,"rental_uris":{"android":"levelo://app?vid=5367a292-5564-4681-91cd-97babb89fc00","ios":"levelo://app?vid=5367a292-5564-4681-91cd-97babb89fc00"},"vehicle_type_id":"4","last_reported":1735466941,"current_range_meters":36800,"station_id":"cpo3532slgdg3j2ikp40","pricing_plan_id":"cebpf4jnsgd1na2vs0mg"},{"bike_id":"c032b476-131e-414a-b08a-3c2ad0be0a95","system_id":"levelo_inurba_marseille","lat":43.29575,"lon":5.3674,"is_reserved":false,"is_disabled":false,"rental_uris":{"android":"levelo://app?vid=c032b476-131e-414a-b08a-3c2ad0be0a95","ios":"levelo://app?vid=c032b476-131e-414a-b08a-3c2ad0be0a95"},"vehicle_type_id":"4","last_reported":1735466941,"current_range_meters":39200,"station_id":"ce4bgph2rcd13ifvqc2g","pricing_plan_id":"cebpf4jnsgd1na2vs0mg"},{"bike_id":"5c02046d-1ad7-4bbf-8c51-bc86c793dce3","system_id":"levelo_inurba_marseille","lat":43.24067,"lon":5.37762,"is_reserved":false,"is_disabled":false,"rental_uris":{"android":"levelo://app?vid=5c02046d-1ad7-4bbf-8c51-bc86c793dce3","ios":"levelo://app?vid=5c02046d-1ad7-4bbf-8c51-bc86c793dce3"},"vehicle_type_id":"4","last_reported":1735466941,"current_range_meters":38000,"station_id":"ce4bhnp2rcd13ifvqgvg","pricing_plan_id":"cebpf4jnsgd1na2vs0mg"},{"bike_id":"af10e129-04e6-4262-8e34-7b4f92e8696a","system_id":"levelo_inurba_marseille","lat":43.28347,"lon":5.3811,"is_reserved":false,"is_disabled":false,"rental_uris":{"android":"levelo://app?vid=af10e129-04e6-4262-8e34-7b4f92e8696a","ios":"levelo://app?vid=af10e129-04e6-4262-8e34-7b4f92e8696a"},"vehicle_type_id":"4","last_reported":1735466941,"current_range_meters":39200,"station_id":"ce4bh412rcd13ifvqdr0","pricing_plan_id":"cebpf4jnsgd1na2vs0mg"},{"bike_id":"4deb8ba8-63e0-494e-8fa5-729467c13a3d","system_id":"levelo_inurba_marseille","lat":43.29714,"lon":5.37699,"is_reserved":false,"is_disabled":false,"rental_uris":{"android":"levelo://app?vid=4deb8ba8-63e0-494e-8fa5-729467c13a3d","ios":"levelo://app?vid=4deb8ba8-63e0-494e-8fa5-729467c13a3d"},"vehicle_type_id":"4","last_reported":1735466941,"current_range_meters":28400,"station_id":"ce4bgkh2rcd13ifvqbl0","pricing_plan_id":"cebpf4jnsgd1na2vs0mg"},{"bike_id":"19b47162-5b43-4885-b69e-9f4d6f7ca795","system_id":"levelo_inurba_marseille","lat":43.30621,"lon":5.40068,"is_reserved":false,"is_disabled":false,"rental_uris":{"android":"levelo://app?vid=19b47162-5b43-4885-b69e-9f4d6f7ca795","ios":"levelo://app?vid=19b47162-5b43-4885-b69e-9f4d6f7ca795"},"vehicle_type_id":"4","last_reported":1735466941,"current_range_meters":36800,"station_id":"ce4bh112rcd13ifvqda0","pricing_plan_id":"cebpf4jnsgd1na2vs0mg"},{"bike_id":"e8dd34c9-6e3b-4bd0-a4ea-a3dc8a2f5c17","system_id":"levelo_inurba_marseille","lat":43.314937,"lon":5.373038,"is_reserved":false,"is_disabled":false,"rental_uris":{"android":"levelo://app?vid=e8dd34c9-6e3b-4bd0-a4ea-a3dc8a2f5c17","ios":"levelo://app?vid=e8dd34c9-6e3b-4bd0-a4ea-a3dc8a2f5c17"},"vehicle_type_id":"4","last_reported":1735466941,"current_range_meters":39200,"station_id":"ce4bgt12rcd13ifvqcd0","pricing_plan_id":"cebpf4jnsgd1na2vs0mg"},{"bike_id":"3bb6c0a3-c27d-4867-bf76-4190ca2b375a","system_id":"levelo_inurba_marseille","lat":43.26197,"lon":5.37472,"is_reserved":false,"is_disabled":false,"rental_uris":{"android":"levelo://app?vid=3bb6c0a3-c27d-4867-bf76-4190ca2b375a","ios":"levelo://app?vid=3bb6c0a3-c27d-4867-bf76-4190ca2b375a"},"vehicle_type_id":"4","last_reported":1735466941,"current_range_meters":26800,"station_id":"ce4bhgp2rcd13ifvqfc0","pricing_plan_id":"cebpf4jnsgd1na2vs0mg"},{"bike_id":"45301531-899a-49d2-b92d-0b4a4b121cb6","system_id":"levelo_inurba_marseille","lat":43.29582,"lon":5.36743,"is_reserved":false,"is_disabled":false,"rental_uris":{"android":"levelo://app?vid=45301531-899a-49d2-b92d-0b4a4b121cb6","ios":"levelo://app?vid=45301531-899a-49d2-b92d-0b4a4b121cb6"},"vehicle_type_id":"4","last_reported":1735466941,"current_range_meters":38800,"station_id":"ce4bgph2rcd13ifvqc2g","pricing_plan_id":"cebpf4jnsgd1na2vs0mg"},{"bike_id":"9da6422d-bebb-40a9-a854-a23b31415f24","system_id":"levelo_inurba_marseille","lat":43.287,"lon":5.39975,"is_reserved":false,"is_disabled":false,"rental_uris":{"android":"levelo://app?vid=9da6422d-bebb-40a9-a854-a23b31415f24","ios":"levelo://app?vid=9da6422d-bebb-40a9-a854-a23b31415f24"},"vehicle_type_id":"4","last_reported":1735466941,"current_range_meters":10000,"station_id":"ce4bho92rcd13ifvqh3g","pricing_plan_id":"cebpf4jnsgd1na2vs0mg"},{"bike_id":"6a29575b-1e36-49ac-86ce-fd989f52fc91","system_id":"levelo_inurba_marseille","lat":43.25831,"lon":5.39441,"is_reserved":false,"is_disabled":false,"rental_uris":{"android":"levelo://app?vid=6a29575b-1e36-49ac-86ce-fd989f52fc91","ios":"levelo://app?vid=6a29575b-1e36-49ac-86ce-fd989f52fc91"},"vehicle_type_id":"4","last_reported":1735466941,"current_range_meters":28000,"station_id":"ce4bhip2rcd13ifvqft0","pricing_plan_id":"cebpf4jnsgd1na2vs0mg"},{"bike_id":"e531dd35-c6e1-4e5e-81a1-3d3f59ae7565","system_id":"levelo_inurba_marseille","lat":43.25496,"lon":5.37646,"is_reserved":false,"is_disabled":false,"rental_uris":{"android":"levelo://app?vid=e531dd35-c6e1-4e5e-81a1-3d3f59ae7565","ios":"levelo://app?vid=e531dd35-c6e1-4e5e-81a1-3d3f59ae7565"},"vehicle_type_id":"4","last_reported":1735466941,"current_range_meters":28800,"station_id":"ce4bhh12rcd13ifvqff0","pricing_plan_id":"cebpf4jnsgd1na2vs0mg"},{"bike_id":"d6035e66-68be-4b74-b6dd-b15cc253028e","system_id":"levelo_inurba_marseille","lat":43.29583,"lon":5.36746,"is_reserved":false,"is_disabled":false,"rental_uris":{"android":"levelo://app?vid=d6035e66-68be-4b74-b6dd-b15cc253028e","ios":"levelo://app?vid=d6035e66-68be-4b74-b6dd-b15cc253028e"},"vehicle_type_id":"4","last_reported":1735466941,"current_range_meters":36800,"station_id":"ce4bgph2rcd13ifvqc2g","pricing_plan_id":"cebpf4jnsgd1na2vs0mg"},{"bike_id":"5cbd32e6-7fc0-4d1a-9262-b1453f12f3f3","system_id":"levelo_inurba_marseille","lat":43.28727,"lon":5.36093,"is_reserved":false,"is_disabled":false,"rental_uris":{"android":"levelo://app?vid=5cbd32e6-7fc0-4d1a-9262-b1453f12f3f3","ios":"levelo://app?vid=5cbd32e6-7fc0-4d1a-9262-b1453f12f3f3"},"vehicle_type_id":"4","last_reported":1735466941,"current_range_meters":38000,"station_id":"cki0cbj6b192h4jlfktg","pricing_plan_id":"cebpf4jnsgd1na2vs0mg"},{"bike_id":"ca471db4-078d-4366-a60c-488b75f21d01","system_id":"levelo_inurba_marseille","lat":43.31479,"lon":5.37312,"is_reserved":false,"is_disabled":false,"rental_uris":{"android":"levelo://app?vid=ca471db4-078d-4366-a60c-488b75f21d01","ios":"levelo://app?vid=ca471db4-078d-4366-a60c-488b75f21d01"},"vehicle_type_id":"4","last_reported":1735466941,"current_range_meters":36800,"station_id":"ce4bgt12rcd13ifvqcd0","pricing_plan_id":"cebpf4jnsgd1na2vs0mg"},{"bike_id":"6381aefa-cca5-4bb8-8e97-94b4d9e28caa","system_id":"levelo_inurba_marseille","lat":43.32349,"lon":5.4064,"is_reserved":false,"is_disabled":false,"rental_uris":{"android":"levelo://app?vid=6381aefa-cca5-4bb8-8e97-94b4d9e28caa","ios":"levelo://app?vid=6381aefa-cca5-4bb8-8e97-94b4d9e28caa"},"vehicle_type_id":"4","last_reported":1735466941,"current_range_meters":39200,"station_id":"ce4bhq92rcd13ifvqhjg","pricing_plan_id":"cebpf4jnsgd1na2vs0mg"},{"bike_id":"7346a946-a3b9-4151-ac1c-04a7d6f82614","system_id":"levelo_inurba_marseille","lat":43.243881,"lon":5.370587,"is_reserved":false,"is_disabled":false,"rental_uris":{"android":"levelo://app?vid=7346a946-a3b9-4151-ac1c-04a7d6f82614","ios":"levelo://app?vid=7346a946-a3b9-4151-ac1c-04a7d6f82614"},"vehicle_type_id":"4","last_reported":1735466941,"current_range_meters":23200,"station_id":"ce4bhhh2rcd13ifvqfk0","pricing_plan_id":"cebpf4jnsgd1na2vs0mg"},{"bike_id":"dac94ecf-3203-4c89-acc0-21c14e979588","system_id":"levelo_inurba_marseille","lat":43.266859,"lon":5.382714,"is_reserved":false,"is_disabled":false,"rental_uris":{"android":"levelo://app?vid=dac94ecf-3203-4c89-acc0-21c14e979588","ios":"levelo://app?vid=dac94ecf-3203-4c89-acc0-21c14e979588"},"vehicle_type_id":"4","last_reported":1735466941,"current_range_meters":27200,"station_id":"ce4bhg92rcd13ifvqf90","pricing_plan_id":"cebpf4jnsgd1na2vs0mg"},{"bike_id":"a79b7af7-122b-4816-9af7-43ab92fd3a76","system_id":"levelo_inurba_marseille","lat":43.30601,"lon":5.39341,"is_reserved":false,"is_disabled":false,"rental_uris":{"android":"levelo://app?vid=a79b7af7-122b-4816-9af7-43ab92fd3a76","ios":"levelo://app?vid=a79b7af7-122b-4816-9af7-43ab92fd3a76"},"vehicle_type_id":"4","last_reported":1735466941,"current_range_meters":38800,"station_id":"ce4bh0p2rcd13ifvqd80","pricing_plan_id":"cebpf4jnsgd1na2vs0mg"},{"bike_id":"891d4cba-ed2f-44ed-be87-e1f3b32896cd","system_id":"levelo_inurba_marseille","lat":43.26786,"lon":5.39418,"is_reserved":false,"is_disabled":false,"rental_uris":{"android":"levelo://app?vid=891d4cba-ed2f-44ed-be87-e1f3b32896cd","ios":"levelo://app?vid=891d4cba-ed2f-44ed-be87-e1f3b32896cd"},"vehicle_type_id":"4","last_reported":1735466941,"current_range_meters":37600,"station_id":"ce4bhh12rcd13ifvqfg0","pricing_plan_id":"cebpf4jnsgd1na2vs0mg"},{"bike_id":"d787e330-e288-4e1c-926a-5bcb7a236ca2","system_id":"levelo_inurba_marseille","lat":43.28148,"lon":5.42649,"is_reserved":false,"is_disabled":false,"rental_uris":{"android":"levelo://app?vid=d787e330-e288-4e1c-926a-5bcb7a236ca2","ios":"levelo://app?vid=d787e330-e288-4e1c-926a-5bcb7a236ca2"},"vehicle_type_id":"4","last_reported":1735466941,"current_range_meters":24800,"station_id":"ce4bhnh2rcd13ifvqgug","pricing_plan_id":"cebpf4jnsgd1na2vs0mg"},{"bike_id":"a97c8903-940e-43da-9537-fb051b09d366","system_id":"levelo_inurba_marseille","lat":43.30812,"lon":5.38165,"is_reserved":false,"is_disabled":false,"rental_uris":{"android":"levelo://app?vid=a97c8903-940e-43da-9537-fb051b09d366","ios":"levelo://app?vid=a97c8903-940e-43da-9537-fb051b09d366"},"vehicle_type_id":"4","last_reported":1735466941,"current_range_meters":34800,"station_id":"ce4bgt12rcd13ifvqce0","pricing_plan_id":"cebpf4jnsgd1na2vs0mg"},{"bike_id":"ca42594c-4c0a-4080-98d3-9312d00d8df7","system_id":"levelo_inurba_marseille","lat":43.23064,"lon":5.35516,"is_reserved":false,"is_disabled":false,"rental_uris":{"android":"levelo://app?vid=ca42594c-4c0a-4080-98d3-9312d00d8df7","ios":"levelo://app?vid=ca42594c-4c0a-4080-98d3-9312d00d8df7"},"vehicle_type_id":"4","last_reported":1735466941,"current_range_meters":8400,"station_id":"cpo3342slgdg3j2ifvpg","pricing_plan_id":"cebpf4jnsgd1na2vs0mg"},{"bike_id":"42eb0bc3-f70a-4514-a114-3f4edce68f2f","system_id":"levelo_inurba_marseille","lat":43.305238,"lon":5.367031,"is_reserved":false,"is_disabled":false,"rental_uris":{"android":"levelo://app?vid=42eb0bc3-f70a-4514-a114-3f4edce68f2f","ios":"levelo://app?vid=42eb0bc3-f70a-4514-a114-3f4edce68f2f"},"vehicle_type_id":"4","last_reported":1735466941,"current_range_meters":38800,"station_id":"ce4bgrp2rcd13ifvqc9g","pricing_plan_id":"cebpf4jnsgd1na2vs0mg"},{"bike_id":"2fc30ed6-020c-4eac-9373-0023079d58af","system_id":"levelo_inurba_marseille","lat":43.3014,"lon":5.37415,"is_reserved":false,"is_disabled":false,"rental_uris":{"android":"levelo://app?vid=2fc30ed6-020c-4eac-9373-0023079d58af","ios":"levelo://app?vid=2fc30ed6-020c-4eac-9373-0023079d58af"},"vehicle_type_id":"4","last_reported":1735466941,"current_range_meters":34000,"station_id":"ce4bgs92rcd13ifvqcc0","pricing_plan_id":"cebpf4jnsgd1na2vs0mg"},{"bike_id":"c5f9d832-95a0-462d-964e-f839e239b5da","system_id":"levelo_inurba_marseille","lat":43.25731,"lon":5.41102,"is_reserved":false,"is_disabled":false,"rental_uris":{"android":"levelo://app?vid=c5f9d832-95a0-462d-964e-f839e239b5da","ios":"levelo://app?vid=c5f9d832-95a0-462d-964e-f839e239b5da"},"vehicle_type_id":"4","last_reported":1735466941,"current_range_meters":38800,"station_id":"ce4bhkp2rcd13ifvqgd0","pricing_plan_id":"cebpf4jnsgd1na2vs0mg"},{"bike_id":"25d3980c-c4bb-4552-b28a-a703e6e340e5","system_id":"levelo_inurba_marseille","lat":43.33606,"lon":5.4102,"is_reserved":false,"is_disabled":false,"rental_uris":{"android":"levelo://app?vid=25d3980c-c4bb-4552-b28a-a703e6e340e5","ios":"levelo://app?vid=25d3980c-c4bb-4552-b28a-a703e6e340e5"},"vehicle_type_id":"4","last_reported":1735466941,"current_range_meters":38400,"station_id":"ce4bhqh2rcd13ifvqhmg","pricing_plan_id":"cebpf4jnsgd1na2vs0mg"},{"bike_id":"9c5bca43-a233-42d3-afe6-7aaa0033f973","system_id":"levelo_inurba_marseille","lat":43.31707,"lon":5.37789,"is_reserved":false,"is_disabled":false,"rental_uris":{"android":"levelo://app?vid=9c5bca43-a233-42d3-afe6-7aaa0033f973","ios":"levelo://app?vid=9c5bca43-a233-42d3-afe6-7aaa0033f973"},"vehicle_type_id":"4","last_reported":1735466941,"current_range_meters":9200,"station_id":"ce4bgth2rcd13ifvqch0","pricing_plan_id":"cebpf4jnsgd1na2vs0mg"},{"bike_id":"fc55ee07-cb79-4880-8466-c9fe9e754cca","system_id":"levelo_inurba_marseille","lat":43.32482,"lon":5.36685,"is_reserved":false,"is_disabled":false,"rental_uris":{"android":"levelo://app?vid=fc55ee07-cb79-4880-8466-c9fe9e754cca","ios":"levelo://app?vid=fc55ee07-cb79-4880-8466-c9fe9e754cca"},"vehicle_type_id":"4","last_reported":1735466941,"current_range_meters":17600,"station_id":"","pricing_plan_id":"cebpf4jnsgd1na2vs0mg"},{"bike_id":"b261cfda-6d1c-4e83-8318-49652e123edf","system_id":"levelo_inurba_marseille","lat":43.2594,"lon":5.40902,"is_reserved":false,"is_disabled":false,"rental_uris":{"android":"levelo://app?vid=b261cfda-6d1c-4e83-8318-49652e123edf","ios":"levelo://app?vid=b261cfda-6d1c-4e83-8318-49652e123edf"},"vehicle_type_id":"4","last_reported":1735466941,"current_range_meters":9200,"station_id":"ce4bhm92rcd13ifvqglg","pricing_plan_id":"cebpf4jnsgd1na2vs0mg"},{"bike_id":"a24825d3-b3af-47e3-be2c-4cba0397b9d9","system_id":"levelo_inurba_marseille","lat":43.311137,"lon":5.377677,"is_reserved":false,"is_disabled":false,"rental_uris":{"android":"levelo://app?vid=a24825d3-b3af-47e3-be2c-4cba0397b9d9","ios":"levelo://app?vid=a24825d3-b3af-47e3-be2c-4cba0397b9d9"},"vehicle_type_id":"4","last_reported":1735466941,"current_range_meters":31200,"station_id":"ce4bgt92rcd13ifvqcg0","pricing_plan_id":"cebpf4jnsgd1na2vs0mg"},{"bike_id":"fd5bffcc-934d-4a5b-abe1-37ba321ae7af","system_id":"levelo_inurba_marseille","lat":43.23055,"lon":5.35494,"is_reserved":false,"is_disabled":false,"rental_uris":{"android":"levelo://app?vid=fd5bffcc-934d-4a5b-abe1-37ba321ae7af","ios":"levelo://app?vid=fd5bffcc-934d-4a5b-abe1-37ba321ae7af"},"vehicle_type_id":"4","last_reported":1735466941,"current_range_meters":36800,"station_id":"cpo3342slgdg3j2ifvpg","pricing_plan_id":"cebpf4jnsgd1na2vs0mg"},