{"last_updated":1686876158,"ttl":30,"version":"2.2","data":{"bikes":[{"bike_id":"b31814f4-c247-41de-aba1-f777edc6184e","system_id":"levelo_inurba_marseille","lat":43.31341,"lon":5.367098,"is_reserved":false,"is_disabled":false,"rental_uris":{"android":"levelo://app?vid=b31814f4-c247-41de-aba1-f777edc6184e","ios":"levelo://app?vid=b31814f4-c247-41de-aba1-f777edc6184e"},"vehicle_type_id":"4","last_reported":1686876159,"current_range_meters":25200,"station_id":"ce4bgr92rcd13ifvqc6g","pricing_plan_id":"free"},{"bike_id":"adef1745-816d-45d2-89e2-4ddabaab7dc6","system_id":"levelo_inurba_marseille","lat":43.312239,"lon":5.368562,"is_reserved":false,"is_disabled":false,"rental_uris":{"android":"levelo://app?vid=adef1745-816d-45d2-89e2-4ddabaab7dc6","ios":"levelo://app?vid=adef1745-816d-45d2-89e2-4ddabaab7dc6"},"vehicle_type_id":"4","last_reported":1686876159,"current_range_meters":30000,"station_id":"ce4bgl92rcd13ifvqbq0","pricing_plan_id":"free"},{"bike_id":"a142fcc1-dd44-4e45-a4d3-f750f9811ffe","system_id":"levelo_inurba_marseille","lat":43.312239,"lon":5.368562,"is_reserved":false,"is_disabled":false,"rental_uris":{"android":"levelo://app?vid=a142fcc1-dd44-4e45-a4d3-f750f9811ffe","ios":"levelo://app?vid=a142fcc1-dd44-4e45-a4d3-f750f9811ffe"},"vehicle_type_id":"4","last_reported":1686876159,"current_range_meters":15200,"station_id":"ce4bgl92rcd13ifvqbq0","pricing_plan_id":"free"},{"bike_id":"9b0c0ed0-5f71-4f91-a3fb-fcd988a84b25","system_id":"levelo_inurba_marseille","lat":43.312239,"lon":5.368562,"is_reserved":false,"is_disabled":false,"rental_uris":{"android":"levelo://app?vid=9b0c0ed0-5f71-4f91-a3fb-fcd988a84b25","ios":"levelo://app?vid=9b0c0ed0-5f71-4f91-a3fb-fcd988a84b25"},"vehicle_type_id":"4","last_reported":1686876159,"current_range_meters":26400,"station_id":"ce4bgl92rcd13ifvqbq0","pricing_plan_id":"free"},{"bike_id":"1e83135a-89aa-4260-b4ac-a182c1e9a906","system_id":"levelo_inurba_marseille","lat":43.314811,"lon":5.373103,"is_reserved":false,"is_disabled":false,"rental_uris":{"android":"levelo://app?vid=1e83135a-89aa-4260-b4ac-a182c1e9a906","ios":"levelo://app?vid=1e83135a-89aa-4260-b4ac-a182c1e9a906"},"vehicle_type_id":"4","last_reported":1686876159,"current_range_meters":24800,"station_id":"ce4bgt12rcd13ifvqcd0","pricing_plan_id":"free"},{"bike_id":"dd77339b-132f-4074-bad8-17ae55b61982","system_id":"levelo_inurba_marseille","lat":43.314811,"lon":5.373103,"is_reserved":false,"is_disabled":false,"rental_uris":{"android":"levelo://app?vid=dd77339b-132f-4074-bad8-17ae55b61982","ios":"levelo://app?vid=dd77339b-132f-4074-bad8-17ae55b61982"},"vehicle_type_id":"4","last_reported":1686876159,"current_range_meters":13200,"station_id":"ce4bgt12rcd13ifvqcd0","pricing_plan_id":"free"},{"bike_id":"57e94f85-4283-4fd9-ada1-0ff4cf712306","system_id":"levelo_inurba_marseille","lat":43.314811,"lon":5.373103,"is_reserved":false,"is_disabled":false,"rental_uris":{"android":"levelo://app?vid=57e94f85-4283-4fd9-ada1-0ff4cf712306","ios":"levelo://app?vid=57e94f85-4283-4fd9-ada1-0ff4cf712306"},"vehicle_type_id":"4","last_reported":1686876159,"current_range_meters":25600,"station_id":"ce4bgt12rcd13ifvqcd0","pricing_plan_id":"free"},{"bike_id":"61258a7b-5bcf-474b-86ea-85d3047f7ade","system_id":"levelo_inurba_marseille","lat":43.314811,"lon":5.373103,"is_reserved":false,"is_disabled":false,"rental_uris":{"android":"levelo://app?vid=61258a7b-5bcf-474b-86ea-85d3047f7ade","ios":"levelo://app?vid=61258a7b-5bcf-474b-86ea-85d3047f7ade"},"vehicle_type_id":"4","last_reported":1686876159,"current_range_meters":27200,"station_id":"ce4bgt12rcd13ifvqcd0","pricing_plan_id":"free"},{"bike_id":"310a82ca-04a4-45b9-bfb0-120b23ba1ea4","system_id":"levelo_inurba_marseille","lat":43.314811,"lon":5.373103,"is_reserved":false,"is_disabled":false,"rental_uris":{"android":"levelo://app?vid=310a82ca-04a4-45b9-bfb0-120b23ba1ea4","ios":"levelo://app?vid=310a82ca-04a4-45b9-bfb0-120b23ba1ea4"},"vehicle_type_id":"4","last_reported":1686876159,"current_range_meters":29200,"station_id":"ce4bgt12rcd13ifvqcd0","pricing_plan_id":"free"},{"bike_id":"d3b9a6db-2450-46be-8ff0-57a527dcf5ef","system_id":"levelo_inurba_marseille","lat":43.314811,"lon":5.373104,"is_reserved":false,"is_disabled":false,"rental_uris":{"android":"levelo://app?vid=d3b9a6db-2450-46be-8ff0-57a527dcf5ef","ios":"levelo://app?vid=d3b9a6db-2450-46be-8ff0-57a527dcf5ef"},"vehicle_type_id":"4","last_reported":1686876159,"current_range_meters":30800,"station_id":"ce4bgt12rcd13ifvqcd0","pricing_plan_id":"free"},{"bike_id":"35dfac89-b805-42ec-9d0f-6846ec2d45f7","system_id":"levelo_inurba_marseille","lat":43.314811,"lon":5.373104,"is_reserved":false,"is_disabled":false,"rental_uris":{"android":"levelo://app?vid=35dfac89-b805-42ec-9d0f-6846ec2d45f7","ios":"levelo://app?vid=35dfac89-b805-42ec-9d0f-6846ec2d45f7"},"vehicle_type_id":"4","last_reported":1686876159,"current_range_meters":30800,"station_id":"ce4bgt12rcd13ifvqcd0","pricing_plan_id":"free"},{"bike_id":"341fef26-2b5f-4be8-89d6-1473900f23e1","system_id":"levelo_inurba_marseille","lat":43.308606,"lon":5.372099,"is_reserved":false,"is_disabled":false,"rental_uris":{"android":"levelo://app?vid=341fef26-2b5f-4be8-89d6-1473900f23e1","ios":"levelo://app?vid=341fef26-2b5f-4be8-89d6-1473900f23e1"},"vehicle_type_id":"4","last_reported":1686876159,"current_range_meters":6400,"station_id":"ce4bguh2rcd13ifvqckg","pricing_plan_id":"free"},{"bike_id":"82ca3b4f-66b9-42b3-9fd4-9c0932d9c107","system_id":"levelo_inurba_marseille","lat":43.308606,"lon":5.372099,"is_reserved":false,"is_disabled":false,"rental_uris":{"android":"levelo://app?vid=82ca3b4f-66b9-42b3-9fd4-9c0932d9c107","ios":"levelo://app?vid=82ca3b4f-66b9-42b3-9fd4-9c0932d9c107"},"vehicle_type_id":"4","last_reported":1686876159,"current_range_meters":12000,"station_id":"ce4bguh2rcd13ifvqckg","pricing_plan_id":"free"},{"bike_id":"1c636683-fe61-4c14-a7ef-11a158c4cca8","system_id":"levelo_inurba_marseille","lat":43.308614,"lon":5.372098,"is_reserved":false,"is_disabled":false,"rental_uris":{"android":"levelo://app?vid=1c636683-fe61-4c14-a7ef-11a158c4cca8","ios":"levelo://app?vid=1c636683-fe61-4c14-a7ef-11a158c4cca8"},"vehicle_type_id":"4","last_reported":1686876159,"current_range_meters":0,"station_id":"ce4bguh2rcd13ifvqckg","pricing_plan_id":"free"},{"bike_id":"3d2d0dea-b13e-4cd3-a8bf-666c2eed4765","system_id":"levelo_inurba_marseille","lat":43.308606,"lon":5.372099,"is_reserved":false,"is_disabled":false,"rental_uris":{"android":"levelo://app?vid=3d2d0dea-b13e-4cd3-a8bf-666c2eed4765","ios":"levelo://app?vid=3d2d0dea-b13e-4cd3-a8bf-666c2eed4765"},"vehicle_type_id":"4","last_reported":1686876159,"current_range_meters":27600,"station_id":"ce4bguh2rcd13ifvqckg","pricing_plan_id":"free"},{"bike_id":"dd90b398-1dbe-4262-8d3c-67bfd11429c2","system_id":"levelo_inurba_marseille","lat":43.308606,"lon":5.372099,"is_reserved":false,"is_disabled":false,"rental_uris":{"android":"levelo://app?vid=dd90b398-1dbe-4262-8d3c-67bfd11429c2","ios":"levelo://app?vid=dd90b398-1dbe-4262-8d3c-67bfd11429c2"},"vehicle_type_id":"4","last_reported":1686876159,"current_range_meters":14000,"station_id":"ce4bguh2rcd13ifvqckg","pricing_plan_id":"free"},{"bike_id":"d3a0e565-ce5d-41ee-aa67-dd83af1b6b46","system_id":"levelo_inurba_marseille","lat":43.305989,"lon":5.37225,"is_reserved":false,"is_disabled":false,"rental_uris":{"android":"levelo://app?vid=d3a0e565-ce5d-41ee-aa67-dd83af1b6b46","ios":"levelo://app?vid=d3a0e565-ce5d-41ee-aa67-dd83af1b6b46"},"vehicle_type_id":"4","last_reported":1686876159,"current_range_meters":31200,"station_id":"ce4bgqh2rcd13ifvqc4g","pricing_plan_id":"free"},{"bike_id":"fc25720e-e638-48d3-a266-dc0cd9a8a44b","system_id":"levelo_inurba_marseille","lat":43.305989,"lon":5.37225,"is_reserved":false,"is_disabled":false,"rental_uris":{"android":"levelo://app?vid=fc25720e-e638-48d3-a266-dc0cd9a8a44b","ios":"levelo://app?vid=fc25720e-e638-48d3-a266-dc0cd9a8a44b"},"vehicle_type_id":"4","last_reported":1686876159,"current_range_meters":9200,"station_id":"ce4bgqh2rcd13ifvqc4g","pricing_plan_id":"free"},{"bike_id":"4ab0330c-13bb-4ba2-a5e6-67e1662f69d9","system_id":"levelo_inurba_marseille","lat":43.311125,"lon":5.377624,"is_reserved":false,"is_disabled":false,"rental_uris":{"android":"levelo://app?vid=4ab0330c-13bb-4ba2-a5e6-67e1662f69d9","ios":"levelo://app?vid=4ab0330c-13bb-4ba2-a5e6-67e1662f69d9"},"vehicle_type_id":"4","last_reported":1686876159,"current_range_meters":18400,"station_id":"ce4bgt92rcd13ifvqcg0","pricing_plan_id":"free"},{"bike_id":"a1612d29-6c24-46a8-babc-ddee1225f7f6","system_id":"levelo_inurba_marseille","lat":43.311125,"lon":5.377624,"is_reserved":false,"is_disabled":false,"rental_uris":{"android":"levelo://app?vid=a1612d29-6c24-46a8-babc-ddee1225f7f6","ios":"levelo://app?vid=a1612d29-6c24-46a8-babc-ddee1225f7f6"},"vehicle_type_id":"4","last_reported":1686876159,"current_range_meters":19200,"station_id":"ce4bgt92rcd13ifvqcg0","pricing_plan_id":"free"},{"bike_id":"270c4965-4372-486b-a721-1075517359ae","system_id":"levelo_inurba_marseille","lat":43.317075,"lon":5.377367,"is_reserved":false,"is_disabled":false,"rental_uris":{"android":"levelo://app?vid=270c4965-4372-486b-a721-1075517359ae","ios":"levelo://app?vid=270c4965-4372-486b-a721-1075517359ae"},"vehicle_type_id":"4","last_reported":1686876159,"current_range_meters":10000,"station_id":"ce4bgth2rcd13ifvqch0","pricing_plan_id":"free"},{"bike_id":"2424216c-0462-4ad0-b127-d0366c91b61c","system_id":"levelo_inurba_marseille","lat":43.317075,"lon":5.377367,"is_reserved":false,"is_disabled":false,"rental_uris":{"android":"levelo://app?vid=2424216c-0462-4ad0-b127-d0366c91b61c","ios":"levelo://app?vid=2424216c-0462-4ad0-b127-d0366c91b61c"},"vehicle_type_id":"4","last_reported":1686876159,"current_range_meters":31200,"station_id":"ce4bgth2rcd13ifvqch0","pricing_plan_id":"free"},{"bike_id":"7170a570-a6d0-47c4-aa28-4d171ddf30d1","system_id":"levelo_inurba_marseille","lat":43.315293,"lon":5.380349,"is_reserved":false,"is_disabled":false,"rental_uris":{"android":"levelo://app?vid=7170a570-a6d0-47c4-aa28-4d171ddf30d1","ios":"levelo://app?vid=7170a570-a6d0-47c4-aa28-4d171ddf30d1"},"vehicle_type_id":"4","last_reported":1686876159,"current_range_meters":14800,"station_id":"ce4bhsp2rcd13ifvqi50","pricing_plan_id":"free"},{"bike_id":"df547573-eb08-4cca-a308-b38dcac13e1a","system_id":"levelo_inurba_marseille","lat":43.315289,"lon":5.380349,"is_reserved":false,"is_disabled":false,"rental_uris":{"android":"levelo://app?vid=df547573-eb08-4cca-a308-b38dcac13e1a","ios":"levelo://app?vid=df547573-eb08-4cca-a308-b38dcac13e1a"},"vehicle_type_id":"4","last_reported":1686876159,"current_range_meters":7600,"station_id":"ce4bhsp2rcd13ifvqi50","pricing_plan_id":"free"},{"bike_id":"d615bec8-d16a-4c36-8850-371d4102df2f","system_id":"levelo_inurba_marseille","lat":43.315289,"lon":5.380349,"is_reserved":false,"is_disabled":false,"rental_uris":{"android":"levelo://app?vid=d615bec8-d16a-4c36-8850-371d4102df2f","ios":"levelo://app?vid=d615bec8-d16a-4c36-8850-371d4102df2f"},"vehicle_type_id":"4","last_reported":1686876159,"current_range_meters":31200,"station_id":"ce4bhsp2rcd13ifvqi50","pricing_plan_id":"free"},{"bike_id":"80005a9e-541b-4863-b0bd-5e868f2144f5","system_id":"levelo_inurba_marseille","lat":43.315289,"lon":5.380349,"is_reserved":false,"is_disabled":false,"rental_uris":{"android":"levelo://app?vid=80005a9e-541b-4863-b0bd-5e868f2144f5","ios":"levelo://app?vid=80005a9e-541b-4863-b0bd-5e868f2144f5"},"vehicle_type_id":"4","last_reported":1686876159,"current_range_meters":5200,"station_id":"ce4bhsp2rcd13ifvqi50","pricing_plan_id":"free"},{"bike_id":"5ae2b31b-5738-4c93-a2fb-64e8edbc4b55","system_id":"levelo_inurba_marseille","lat":43.315289,"lon":5.380349,"is_reserved":false,"is_disabled":false,"rental_uris":{"android":"levelo://app?vid=5ae2b31b-5738-4c93-a2fb-64e8edbc4b55","ios":"levelo://app?vid=5ae2b31b-5738-4c93-a2fb-64e8edbc4b55"},"vehicle_type_id":"4","last_reported":1686876159,"current_range_meters":5600,"station_id":"ce4bhsp2rcd13ifvqi50","pricing_plan_id":"free"},{"bike_id":"cd8b6958-c31a-4a9d-8c48-cf838953f3b1","system_id":"levelo_inurba_marseille","lat":43.315289,"lon":5.380349,"is_reserved":false,"is_disabled":false,"rental_uris":{"android":"levelo://app?vid=cd8b6958-c31a-4a9d-8c48-cf838953f3b1","ios":"levelo://app?vid=cd8b6958-c31a-4a9d-8c48-cf838953f3b1"},"vehicle_type_id":"4","last_reported":1686876159,"current_range_meters":30000,"station_id":"ce4bhsp2rcd13ifvqi50","pricing_plan_id":"free"},{"bike_id":"4f10f362-cf6e-46c5-922a-934ddd81f7ca","system_id":"levelo_inurba_marseille","lat":43.308012,"lon":5.381511,"is_reserved":false,"is_disabled":false,"rental_uris":{"android":"levelo://app?vid=4f10f362-cf6e-46c5-922a-934ddd81f7ca","ios":"levelo://app?vid=4f10f362-cf6e-46c5-922a-934ddd81f7ca"},"vehicle_type_id":"4","last_reported":1686876159,"current_range_meters":20800,"station_id":"ce4bgt12rcd13ifvqce0","pricing_plan_id":"free"},{"bike_id":"ae33307b-fcd5-479b-9ae1-9002ed226c6e","system_id":"levelo_inurba_marseille","lat":43.308012,"lon":5.381511,"is_reserved":false,"is_disabled":false,"rental_uris":{"android":"levelo://app?vid=ae33307b-fcd5-479b-9ae1-9002ed226c6e","ios":"levelo://app?vid=ae33307b-fcd5-479b-9ae1-9002ed226c6e"},"vehicle_type_id":"4","last_reported":1686876159,"current_range_meters":17600,"station_id":"ce4bgt12rcd13ifvqce0","pricing_plan_id":"free"},{"bike_id":"1bba4ef7-d8c2-40ec-9e77-981fe995b1fa","system_id":"levelo_inurba_marseille","lat":43.308012,"lon":5.381511,"is_reserved":false,"is_disabled":false,"rental_uris":{"android":"levelo://app?vid=1bba4ef7-d8c2-40ec-9e77-981fe995b1fa","ios":"levelo://app?vid=1bba4ef7-d8c2-40ec-9e77-981fe995b1fa"},"vehicle_type_id":"4","last_reported":1686876159,"current_range_meters":25600,"station_id":"ce4bgt12rcd13ifvqce0","pricing_plan_id":"free"},{"bike_id":"a027531c-06b9-4d63-81d0-4b7db132c967","system_id":"levelo_inurba_marseille","lat":43.308012,"lon":5.381511,"is_reserved":false,"is_disabled":false,"rental_uris":{"android":"levelo://app?vid=a027531c-06b9-4d63-81d0-4b7db132c967","ios":"levelo://app?vid=a027531c-06b9-4d63-81d0-4b7db132c967"},"vehicle_type_id":"4","last_reported":1686876159,"current_range_meters":12400,"station_id":"ce4bgt12rcd13ifvqce0","pricing_plan_id":"free"},{"bike_id":"c4c4be91-5656-4297-a2fa-42eee6b50e56","system_id":"levelo_inurba_marseille","lat":43.304606,"lon":5.379026,"is_reserved":false,"is_disabled":false,"rental_uris":{"android":"levelo://app?vid=c4c4be91-5656-4297-a2fa-42eee6b50e56","ios":"levelo://app?vid=c4c4be91-5656-4297-a2fa-42eee6b50e56"},"vehicle_type_id":"4","last_reported":1686876159,"current_range_meters":29600,"station_id":"ce4bgup2rcd13ifvqcn0","pricing_plan_id":"free"},{"bike_id":"32827146-2d6b-4fb1-b00e-6b2f535ca544","system_id":"levelo_inurba_marseille","lat":43.304606,"lon":5.379026,"is_reserved":false,"is_disabled":false,"rental_uris":{"android":"levelo://app?vid=32827146-2d6b-4fb1-b00e-6b2f535ca544","ios":"levelo://app?vid=32827146-2d6b-4fb1-b00e-6b2f535ca544"},"vehicle_type_id":"4","last_reported":1686876159,"current_range_meters":31200,"station_id":"ce4bgup2rcd13ifvqcn0","pricing_plan_id":"free"},{"bike_id":"1544a31b-ff34-40b8-aa05-5d1ca58a822f","system_id":"levelo_inurba_marseille","lat":43.304615,"lon":5.379012,"is_reserved":false,"is_disabled":false,"rental_uris":{"android":"levelo://app?vid=1544a31b-ff34-40b8-aa05-5d1ca58a822f","ios":"levelo://app?vid=1544a31b-ff34-40b8-aa05-5d1ca58a822f"},"vehicle_type_id":"4","last_reported":1686876159,"current_range_meters":1600,"station_id":"","pricing_plan_id":"free"},{"bike_id":"3dd66f46-a44f-4068-8a41-0b6f6cab618e","system_id":"levelo_inurba_marseille","lat":43.30463,"lon":5.37908,"is_reserved":false,"is_disabled":false,"rental_uris":{"android":"levelo://app?vid=3dd66f46-a44f-4068-8a41-0b6f6cab618e","ios":"levelo://app?vid=3dd66f46-a44f-4068-8a41-0b6f6cab618e"},"vehicle_type_id":"4","last_reported":1686876159,"current_range_meters":26800,"station_id":"ce4bgup2rcd13ifvqcn0","pricing_plan_id":"free"},{"bike_id":"34429afd-bad4-4a23-a75c-13e1aac1ae52","system_id":"levelo_inurba_marseille","lat":43.304606,"lon":5.379026,"is_reserved":false,"is_disabled":false,"rental_uris":{"android":"levelo://app?vid=34429afd-bad4-4a23-a75c-13e1aac1ae52","ios":"levelo://app?vid=34429afd-bad4-4a23-a75c-13e1aac1ae52"},"vehicle_type_id":"4","last_reported":1686876159,"current_range_meters":400,"station_id":"ce4bgup2rcd13ifvqcn0","pricing_plan_id":"free"},{"bike_id":"0ee7bd70-92af-4635-a714-60603bff28b7","system_id":"levelo_inurba_marseille","lat":43.3046,"lon":5.3791,"is_reserved":false,"is_disabled":false,"rental_uris":{"android":"levelo://app?vid=0ee7bd70-92af-4635-a714-60603bff28b7","ios":"levelo://app?vid=0ee7bd70-92af-4635-a714-60603bff28b7"},"vehicle_type_id":"4","last_reported":1686876159,"current_range_meters":26000,"station_id":"ce4bgup2rcd13ifvqcn0","pricing_plan_id":"free"},{"bike_id":"fc4a69da-5dee-4c68-8631-20ee11bc487b","system_id":"levelo_inurba_marseille","lat":43.304606,"lon":5.379026,"is_reserved":false,"is_disabled":false,"rental_uris":{"android":"levelo://app?vid=fc4a69da-5dee-4c68-8631-20ee11bc487b","ios":"levelo://app?vid=fc4a69da-5dee-4c68-8631-20ee11bc487b"},"vehicle_type_id":"4","last_reported":1686876159,"current_range_meters":30800,"station_id":"ce4bgup2rcd13ifvqcn0","pricing_plan_id":"free"},{"bike_id":"7a01bdb2-4fc8-4229-b121-b18e40378d52","system_id":"levelo_inurba_marseille","lat":43.304606,"lon":5.379026,"is_reserved":false,"is_disabled":false,"rental_uris":{"android":"levelo://app?vid=7a01bdb2-4fc8-4229-b121-b18e40378d52","ios":"levelo://app?vid=7a01bdb2-4fc8-4229-b121-b18e40378d52"},"vehicle_type_id":"4","last_reported":1686876159,"current_range_meters":26400,"station_id":"ce4bgup2rcd13ifvqcn0","pricing_plan_id":"free"},{"bike_id":"14a08899-349d-4c49-bd20-7204a0b2cd69","system_id":"levelo_inurba_marseille","lat":43.319935,"lon":5.381699,"is_reserved":false,"is_disabled":false,"rental_uris":{"android":"levelo://app?vid=14a08899-349d-4c49-bd20-7204a0b2cd69","ios":"levelo://app?vid=14a08899-349d-4c49-bd20-7204a0b2cd69"},"vehicle_type_id":"4","last_reported":1686876159,"current_range_meters":26800,"station_id":"ce4bhr12rcd13ifvqhpg","pricing_plan_id":"free"},{"bike_id":"7917de1b-4403-4a43-b30b-52ac43236b65","system_id":"levelo_inurba_marseille","lat":43.319935,"lon":5.381699,"is_reserved":false,"is_disabled":false,"rental_uris":{"android":"levelo://app?vid=7917de1b-4403-4a43-b30b-52ac43236b65","ios":"levelo://app?vid=7917de1b-4403-4a43-b30b-52ac43236b65"},"vehicle_type_id":"4","last_reported":1686876159,"current_range_meters":31200,"station_id":"ce4bhr12rcd13ifvqhpg","pricing_plan_id":"free"},{"bike_id":"7327afa7-2fad-4a01-aeb9-a9d14bfbe769","system_id":"levelo_inurba_marseille","lat":43.319935,"lon":5.381699,"is_reserved":false,"is_disabled":false,"rental_uris":{"android":"levelo://app?vid=7327afa7-2fad-4a01-aeb9-a9d14bfbe769","ios":"levelo://app?vid=7327afa7-2fad-4a01-aeb9-a9d14bfbe769"},"vehicle_type_id":"4","last_reported":1686876159,"current_range_meters":13600,"station_id":"ce4bhr12rcd13ifvqhpg","pricing_plan_id":"free"},{"bike_id":"8915037a-70dd-41ae-ac31-da3ccea0cd8d","system_id":"levelo_inurba_marseille","lat":43.319935,"lon":5.381699,"is_reserved":false,"is_disabled":false,"rental_uris":{"android":"levelo://app?vid=8915037a-70dd-41ae-ac31-da3ccea0cd8d","ios":"levelo://app?vid=8915037a-70dd-41ae-ac31-da3ccea0cd8d"},"vehicle_type_id":"4","last_reported":1686876159,"current_range_meters":28800,"station_id":"ce4bhr12rcd13ifvqhpg","pricing_plan_id":"free"},{"bike_id":"c362f0e8-0431-494c-8f4e-329091583422","system_id":"levelo_inurba_marseille","lat":43.319935,"lon":5.381699,"is_reserved":false,"is_disabled":false,"rental_uris":{"android":"levelo://app?vid=c362f0e8-0431-494c-8f4e-329091583422","ios":"levelo://app?vid=c362f0e8-0431-494c-8f4e-329091583422"},"vehicle_type_id":"4","last_reported":1686876159,"current_range_meters":27200,"station_id":"ce4bhr12rcd13ifvqhpg","pricing_plan_id":"free"},{"bike_id":"9467db5d-6592-4a62-ad0c-ba36d7003010","system_id":"levelo_inurba_marseille","lat":43.32002,"lon":5.381636,"is_reserved":false,"is_disabled":false,"rental_uris":{"android":"levelo://app?vid=9467db5d-6592-4a62-ad0c-ba36d7003010","ios":"levelo://app?vid=9467db5d-6592-4a62-ad0c-ba36d7003010"},"vehicle_type_id":"4","last_reported":1686876159,"current_range_meters":30000,"station_id":"ce4bhr12rcd13ifvqhpg","pricing_plan_id":"free"},{"bike_id":"973279cd-48b3-4da5-b019-6bde256ffa58","system_id":"levelo_inurba_marseille","lat":43.319935,"lon":5.381699,"is_reserved":false,"is_disabled":false,"rental_uris":{"android":"levelo://app?vid=973279cd-48b3-4da5-b019-6bde256ffa58","ios":"levelo://app?vid=973279cd-48b3-4da5-b019-6bde256ffa58"},"vehicle_type_id":"4","last_reported":1686876159,"current_range_meters":28000,"station_id":"ce4bhr12rcd13ifvqhpg","pricing_plan_id":"free"},{"bike_id":"9f66c586-36b8-410b-a384-4314decc6f7e","system_id":"levelo_inurba_marseille","lat":43.319935,"lon":5.381699,"is_reserved":false,"is_disabled":false,"rental_uris":{"android":"levelo://app?vid=9f66c586-36b8-410b-a384-4314decc6f7e","ios":"levelo://app?vid=9f66c586-36b8-410b-a384-4314decc6f7e"},"vehicle_type_id":"4","last_reported":1686876159,"current_range_meters":0,"station_id":"ce4bhr12rcd13ifvqhpg","pricing_plan_id":"free"},{"bike_id":"4e0521ff-1123-4a52-b2fd-20ee54cbcc2d","system_id":"levelo_inurba_marseille","lat":43.30541,"lon":5.38422,"is_reserved":false,"is_disabled":false,"rental_uris":{"android":"levelo://app?vid=4e0521ff-1123-4a52-b2fd-20ee54cbcc2d","ios":"levelo://app?vid=4e0521ff-1123-4a52-b2fd-20ee54cbcc2d"},"vehicle_type_id":"4","last_reported":1686876159,"current_range_meters":31200,"station_id":"ce4bgg92rcd13ifvqb30","pricing_plan_id":"free"},{"bike_id":"fafb82eb-8626-45b9-89a7-65f587690f81","system_id":"levelo_inurba_marseille","lat":43.30543,"lon":5.38434,"is_reserved":false,"is_disabled":false,"rental_uris":{"android":"levelo://app?vid=fafb82eb-8626-45b9-89a7-65f587690f81","ios":"levelo://app?vid=fafb82eb-8626-45b9-89a7-65f587690f81"},"vehicle_type_id":"4","last_reported":1686876159,"current_range_meters":14800,"station_id":"ce4bgg92rcd13ifvqb30","pricing_plan_id":"free"},{"bike_id":"73c6bf7d-857d-495f-86d0-ec2368ef79ad","system_id":"levelo_inurba_marseille","lat":43.30539,"lon":5.38431,"is_reserved":false,"is_disabled":false,"rental_uris":{"android":"levelo://app?vid=73c6bf7d-857d-495f-86d0-ec2368ef79ad","ios":"levelo://app?vid=73c6bf7d-857d-495f-86d0-ec2368ef79ad"},"vehicle_type_id":"4","last_reported":1686876159,"current_range_meters":31200,"station_id":"ce4bgg92rcd13ifvqb30","pricing_plan_id":"free"},{"bike_id":"6eb81161-77ae-4afd-9bd1-5159b9958f0d","system_id":"levelo_inurba_marseille","lat":43.30535,"lon":5.3843,"is_reserved":false,"is_disabled":false,"rental_uris":{"android":"levelo://app?vid=6eb81161-77ae-4afd-9bd1-5159b9958f0d","ios":"levelo://app?vid=6eb81161-77ae-4afd-9bd1-5159b9958f0d"},"vehicle_type_id":"4","last_reported":1686876159,"current_range_meters":31200,"station_id":"ce4bgg92rcd13ifvqb30","pricing_plan_id":"free"},{"bike_id":"ddff4e5f-55c0-47b2-815c-b792df8cc00b","system_id":"levelo_inurba_marseille","lat":43.30542,"lon":5.38439,"is_reserved":false,"is_disabled":false,"rental_uris":{"android":"levelo://app?vid=ddff4e5f-55c0-47b2-815c-b792df8cc00b","ios":"levelo://app?vid=ddff4e5f-55c0-47b2-815c-b792df8cc00b"},"vehicle_type_id":"4","last_reported":1686876159,"current_range_meters":26800,"station_id":"ce4bgg92rcd13ifvqb30","pricing_plan_id":"free"},{"bike_id":"22787747-37a6-4881-9479-e87b277a49b4","system_id":"levelo_inurba_marseille","lat":43.30529,"lon":5.3843,"is_reserved":false,"is_disabled":false,"rental_uris":{"android":"levelo://app?vid=22787747-37a6-4881-9479-e87b277a49b4","ios":"levelo://app?vid=22787747-37a6-4881-9479-e87b277a49b4"},"vehicle_type_id":"4","last_reported":1686876159,"current_range_meters":31200,"station_id":"ce4bgg92rcd13ifvqb30","pricing_plan_id":"free"},{"bike_id":"43045b46-54de-42b3-a1d1-af8a48940fd0","system_id":"levelo_inurba_marseille","lat":43.311722,"lon":5.387247,"is_reserved":false,"is_disabled":false,"rental_uris":{"android":"levelo://app?vid=43045b46-54de-42b3-a1d1-af8a48940fd0","ios":"levelo://app?vid=43045b46-54de-42b3-a1d1-af8a48940fd0"},"vehicle_type_id":"4","last_reported":1686876159,"current_range_meters":13200,"station_id":"ce4bgv12rcd13ifvqcp0","pricing_plan_id":"free"},{"bike_id":"c192a1d3-1bef-4374-82bd-6f855d9f69e6","system_id":"levelo_inurba_marseille","lat":43.311722,"lon":5.387247,"is_reserved":false,"is_disabled":false,"rental_uris":{"android":"levelo://app?vid=c192a1d3-1bef-4374-82bd-6f855d9f69e6","ios":"levelo://app?vid=c192a1d3-1bef-4374-82bd-6f855d9f69e6"},"vehicle_type_id":"4","last_reported":1686876159,"current_range_meters":1200,"station_id":"ce4bgv12rcd13ifvqcp0","pricing_plan_id":"free"},{"bike_id":"e86261d5-6956-4f73-b101-d8250e26a8af","system_id":"levelo_inurba_marseille","lat":43.311722,"lon":5.387247,"is_reserved":false,"is_disabled":false,"rental_uris":{"android":"levelo://app?vid=e86261d5-6956-4f73-b101-d8250e26a8af","ios":"levelo://app?vid=e86261d5-6956-4f73-b101-d8250e26a8af"},"vehicle_type_id":"4","last_reported":1686876159,"current_range_meters":25200,"station_id":"ce4bgv12rcd13ifvqcp0","pricing_plan_id":"free"},{"bike_id":"9c71d63d-b897-4d9b-9972-6521f350acf2","system_id":"levelo_inurba_marseille","lat":43.311722,"lon":5.387247,"is_reserved":false,"is_disabled":false,"rental_uris":{"android":"levelo://app?vid=9c71d63d-b897-4d9b-9972-6521f350acf2","ios":"levelo://app?vid=9c71d63d-b897-4d9b-9972-6521f350acf2"},"vehicle_type_id":"4","last_reported":1686876159,"current_range_meters":16400,"station_id":"ce4bgv12rcd13ifvqcp0","pricing_plan_id":"free"},{"bike_id":"702f3e3d-6bea-4416-a5ff-54d90b840ead","system_id":"levelo_inurba_marseille","lat":43.311722,"lon":5.387247,"is_reserved":false,"is_disabled":false,"rental_uris":{"android":"levelo://app?vid=702f3e3d-6bea-4416-a5ff-54d90b840ead","ios":"levelo://app?vid=702f3e3d-6bea-4416-a5ff-54d90b840ead"},"vehicle_type_id":"4","last_reported":1686876159,"current_range_meters":26800,"station_id":"ce4bgv12rcd13ifvqcp0","pricing_plan_id":"free"},{"bike_id":"bff795a2-e921-46ed-b99a-2279312033cd","system_id":"levelo_inurba_marseille","lat":43.311722,"lon":5.387247,"is_reserved":false,"is_disabled":false,"rental_uris":{"android":"levelo://app?vid=bff795a2-e921-46ed-b99a-2279312033cd","ios":"levelo://app?vid=bff795a2-e921-46ed-b99a-2279312033cd"},"vehicle_type_id":"4","last_reported":1686876159,"current_range_meters":31200,"station_id":"ce4bgv12rcd13ifvqcp0","pricing_plan_id":"free"},{"bike_id":"6c139935-50f0-4a19-8f9a-1527e7d2732d","system_id":"levelo_inurba_marseille","lat":43.311722,"lon":5.387247,"is_reserved":false,"is_disabled":false,"rental_uris":{"android":"levelo://app?vid=6c139935-50f0-4a19-8f9a-1527e7d2732d","ios":"levelo://app?vid=6c139935-50f0-4a19-8f9a-1527e7d2732d"},"vehicle_type_id":"4","last_reported":1686876159,"current_range_meters":20000,"station_id":"ce4bgv12rcd13ifvqcp0","pricing_plan_id":"free"},{"bike_id":"2c9c1edb-398d-4c3e-8a4f-f2a9f2023577","system_id":"levelo_inurba_marseille","lat":43.311722,"lon":5.387247,"is_reserved":false,"is_disabled":false,"rental_uris":{"android":"levelo://app?vid=2c9c1edb-398d-4c3e-8a4f-f2a9f2023577","ios":"levelo://app?vid=2c9c1edb-398d-4c3e-8a4f-f2a9f2023577"},"vehicle_type_id":"4","last_reported":1686876159,"current_range_meters":18000,"station_id":"ce4bgv12rcd13ifvqcp0","pricing_plan_id":"free"},{"bike_id":"4d6c9c5b-0ebb-4bb1-8496-c5cd88fb499d","system_id":"levelo_inurba_marseille","lat":43.31176,"lon":5.38722,"is_reserved":false,"is_disabled":false,"rental_uris":{"android":"levelo://app?vid=4d6c9c5b-0ebb-4bb1-8496-c5cd88fb499d","ios":"levelo://app?vid=4d6c9c5b-0ebb-4bb1-8496-c5cd88fb499d"},"vehicle_type_id":"4","last_reported":1686876159,"current_range_meters":6000,"station_id":"ce4bgv12rcd13ifvqcp0","pricing_plan_id":"free"},{"bike_id":"9a1fc57f-95ab-4653-9da4-0fbb720e8e5d","system_id":"levelo_inurba_marseille","lat":43.311722,"lon":5.387247,"is_reserved":false,"is_disabled":false,"rental_uris":{"android":"levelo://app?vid=9a1fc57f-95ab-4653-9da4-0fbb720e8e5d","ios":"levelo://app?vid=9a1fc57f-95ab-4653-9da4-0fbb720e8e5d"},"vehicle_type_id":"4","last_reported":1686876159,"current_range_meters":25200,"station_id":"ce4bgv12rcd13ifvqcp0","pricing_plan_id":"free"},{"bike_id":"55ed4837-c367-413a-8ede-340840901315","system_id":"levelo_inurba_marseille","lat":43.311722,"lon":5.387247,"is_reserved":false,"is_disabled":false,"rental_uris":{"android":"levelo://app?vid=55ed4837-c367-413a-8ede-340840901315","ios":"levelo://app?vid=55ed4837-c367-413a-8ede-340840901315"},"vehicle_type_id":"4","last_reported":1686876159,"current_range_meters":26800,"station_id":"ce4bgv12rcd13ifvqcp0","pricing_plan_id":"free"},{"bike_id":"517cb9bb-e19e-404a-b4f2-78736171d187","system_id":"levelo_inurba_marseille","lat":43.2979,"lon":5.37089,"is_reserved":false,"is_disabled":false,"rental_uris":{"android":"levelo://app?vid=517cb9bb-e19e-404a-b4f2-78736171d187","ios":"levelo://app?vid=517cb9bb-e19e-404a-b4f2-78736171d187"},"vehicle_type_id":"4","last_reported":1686876159,"current_range_meters":11200,"station_id":"ce4bgop2rcd13ifvqc1g","pricing_plan_id":"free"},{"bike_id":"d060f3eb-77c0-44aa-b0dd-ff62655c3208","system_id":"levelo_inurba_marseille","lat":43.2978,"lon":5.37108,"is_reserved":false,"is_disabled":false,"rental_uris":{"android":"levelo://app?vid=d060f3eb-77c0-44aa-b0dd-ff62655c3208","ios":"levelo://app?vid=d060f3eb-77c0-44aa-b0dd-ff62655c3208"},"vehicle_type_id":"4","last_reported":1686876159,"current_range_meters":4000,"station_id":"ce4bgop2rcd13ifvqc1g","pricing_plan_id":"free"},{"bike_id":"31ef9166-d9cf-46df-84f8-4d7b62fdc9fb","system_id":"levelo_inurba_marseille","lat":43.328371,"lon":5.366912,"is_reserved":false,"is_disabled":false,"rental_uris":{"android":"levelo://app?vid=31ef9166-d9cf-46df-84f8-4d7b62fdc9fb","ios":"levelo://app?vid=31ef9166-d9cf-46df-84f8-4d7b62fdc9fb"},"vehicle_type_id":"4","last_reported":1686876159,"current_range_meters":23200,"station_id":"ce4bhs92rcd13ifvqi0g","pricing_plan_id":"free"},{"bike_id":"1ea12a67-ede4-4ff8-a101-50b723846867","system_id":"levelo_inurba_marseille","lat":43.29711,"lon":5.36602,"is_reserved":false,"is_disabled":false,"rental_uris":{"android":"levelo://app?vid=1ea12a67-ede4-4ff8-a101-50b723846867","ios":"levelo://app?vid=1ea12a67-ede4-4ff8-a101-50b723846867"},"vehicle_type_id":"4","last_reported":1686876159,"current_range_meters":22000,"station_id":"","pricing_plan_id":"free"},{"bike_id":"c21e70b3-fc87-462c-826c-c2445f260ab2","system_id":"levelo_inurba_marseille","lat":43.2968,"lon":5.37291,"is_reserved":false,"is_disabled":false,"rental_uris":{"android":"levelo://app?vid=c21e70b3-fc87-462c-826c-c2445f260ab2","ios":"levelo://app?vid=c21e70b3-fc87-462c-826c-c2445f260ab2"},"vehicle_type_id":"4","last_reported":1686876159,"current_range_meters":26400,"station_id":"ce4bgk12rcd13ifvqbj0","pricing_plan_id":"free"},{"bike_id":"88d0330c-5bb0-4a19-9b65-d4683b42e015","system_id":"levelo_inurba_marseille","lat":43.29683,"lon":5.36046,"is_reserved":false,"is_disabled":false,"rental_uris":{"android":"levelo://app?vid=88d0330c-5bb0-4a19-9b65-d4683b42e015","ios":"levelo://app?vid=88d0330c-5bb0-4a19-9b65-d4683b42e015"},"vehicle_type_id":"4","last_reported":1686876159,"current_range_meters":12400,"station_id":"ce4bgpp2rcd13ifvqc3g","pricing_plan_id":"free"},{"bike_id":"6ecb605b-0f59-4560-aac5-45fea8755ed4","system_id":"levelo_inurba_marseille","lat":43.296921,"lon":5.376579,"is_reserved":false,"is_disabled":false,"rental_uris":{"android":"levelo://app?vid=6ecb605b-0f59-4560-aac5-45fea8755ed4","ios":"levelo://app?vid=6ecb605b-0f59-4560-aac5-45fea8755ed4"},"vehicle_type_id":"4","last_reported":1686876159,"current_range_meters":31200,"station_id":"ce4bgkh2rcd13ifvqbl0","pricing_plan_id":"free"},{"bike_id":"a1a19b9c-c461-4e4b-b589-67429ca717e7","system_id":"levelo_inurba_marseille","lat":43.309589,"lon":5.390258,"is_reserved":false,"is_disabled":false,"rental_uris":{"android":"levelo://app?vid=a1a19b9c-c461-4e4b-b589-67429ca717e7","ios":"levelo://app?vid=a1a19b9c-c461-4e4b-b589-67429ca717e7"},"vehicle_type_id":"4","last_reported":1686876159,"current_range_meters":21200,"station_id":"ce4bgup2rcd13ifvqco0","pricing_plan_id":"free"},{"bike_id":"113d8f7e-ffd1-4394-aaba-49ba04306712","system_id":"levelo_inurba_marseille","lat":43.317557,"lon":5.390173,"is_reserved":false,"is_disabled":false,"rental_uris":{"android":"levelo://app?vid=113d8f7e-ffd1-4394-aaba-49ba04306712","ios":"levelo://app?vid=113d8f7e-ffd1-4394-aaba-49ba04306712"},"vehicle_type_id":"4","last_reported":1686876159,"current_range_meters":13600,"station_id":"ce4bhqp2rcd13ifvqhng","pricing_plan_id":"free"},{"bike_id":"5dc4d281-83d8-4ff6-a2f7-db4e46e88494","system_id":"levelo_inurba_marseille","lat":43.31759,"lon":5.3902,"is_reserved":false,"is_disabled":false,"rental_uris":{"android":"levelo://app?vid=5dc4d281-83d8-4ff6-a2f7-db4e46e88494","ios":"levelo://app?vid=5dc4d281-83d8-4ff6-a2f7-db4e46e88494"},"vehicle_type_id":"4","last_reported":1686876159,"current_range_meters":24400,"station_id":"ce4bhqp2rcd13ifvqhng","pricing_plan_id":"free"},{"bike_id":"18c5e92a-e05a-404d-8e0c-d3ef2fb4776b","system_id":"levelo_inurba_marseille","lat":43.298037,"lon":5.381066,"is_reserved":false,"is_disabled":false,"rental_uris":{"android":"levelo://app?vid=18c5e92a-e05a-404d-8e0c-d3ef2fb4776b","ios":"levelo://app?vid=18c5e92a-e05a-404d-8e0c-d3ef2fb4776b"},"vehicle_type_id":"4","last_reported":1686876159,"current_range_meters":20400,"station_id":"ce4bgip2rcd13ifvqbb0","pricing_plan_id":"free"},{"bike_id":"1911e093-d8d6-46bd-9f70-1bed64e4c4f8","system_id":"levelo_inurba_marseille","lat":43.317557,"lon":5.390173,"is_reserved":false,"is_disabled":false,"rental_uris":{"android":"levelo://app?vid=1911e093-d8d6-46bd-9f70-1bed64e4c4f8","ios":"levelo://app?vid=1911e093-d8d6-46bd-9f70-1bed64e4c4f8"},"vehicle_type_id":"4","last_reported":1686876159,"current_range_meters":20800,"station_id":"ce4bhqp2rcd13ifvqhng","pricing_plan_id":"free"},{"bike_id":"ca0ef5eb-8bb2-4f91-83b6-3c573a28c588","system_id":"levelo_inurba_marseille","lat":43.317557,"lon":5.390173,"is_reserved":false,"is_disabled":false,"rental_uris":{"android":"levelo://app?vid=ca0ef5eb-8bb2-4f91-83b6-3c573a28c588","ios":"levelo://app?vid=ca0ef5eb-8bb2-4f91-83b6-3c573a28c588"},"vehicle_type_id":"4","last_reported":1686876159,"current_range_meters":26000,"station_id":"ce4bhqp2rcd13ifvqhng","pricing_plan_id":"free"},{"bike_id":"f161d47d-76f2-4365-a391-cf11f65fff18","system_id":"levelo_inurba_marseille","lat":43.29804,"lon":5.38083,"is_reserved":false,"is_disabled":false,"rental_uris":{"android":"levelo://app?vid=f161d47d-76f2-4365-a391-cf11f65fff18","ios":"levelo://app?vid=f161d47d-76f2-4365-a391-cf11f65fff18"},"vehicle_type_id":"4","last_reported":1686876159,"current_range_meters":1200,"station_id":"","pricing_plan_id":"free"},{"bike_id":"dad1a3cc-1789-43de-a4c3-600c5c66b13b","system_id":"levelo_inurba_marseille","lat":43.296277,"lon":5.377108,"is_reserved":false,"is_disabled":false,"rental_uris":{"android":"levelo://app?vid=dad1a3cc-1789-43de-a4c3-600c5c66b13b","ios":"levelo://app?vid=dad1a3cc-1789-43de-a4c3-600c5c66b13b"},"vehicle_type_id":"4","last_reported":1686876159,"current_range_meters":28800,"station_id":"ce4bgi92rcd13ifvqb90","pricing_plan_id":"free"},{"bike_id":"d8abff79-73f5-4ebf-9626-7220b9f2e945","system_id":"levelo_inurba_marseille","lat":43.3001,"lon":5.38592,"is_reserved":false,"is_disabled":false,"rental_uris":{"android":"levelo://app?vid=d8abff79-73f5-4ebf-9626-7220b9f2e945","ios":"levelo://app?vid=d8abff79-73f5-4ebf-9626-7220b9f2e945"},"vehicle_type_id":"4","last_reported":1686876159,"current_range_meters":11600,"station_id":"","pricing_plan_id":"free"},{"bike_id":"78215555-c896-40a2-aa66-c1d318a07622","system_id":"levelo_inurba_marseille","lat":43.32367,"lon":5.388836,"is_reserved":false,"is_disabled":false,"rental_uris":{"android":"levelo://app?vid=78215555-c896-40a2-aa66-c1d318a07622","ios":"levelo://app?vid=78215555-c896-40a2-aa66-c1d318a07622"},"vehicle_type_id":"4","last_reported":1686876159,"current_range_meters":13200,"station_id":"ce4bhqp2rcd13ifvqhog","pricing_plan_id":"free"},{"bike_id":"2c9ad911-25e0-4222-8751-d809dfadd582","system_id":"levelo_inurba_marseille","lat":43.32367,"lon":5.388836,"is_reserved":false,"is_disabled":false,"rental_uris":{"android":"levelo://app?vid=2c9ad911-25e0-4222-8751-d809dfadd582","ios":"levelo://app?vid=2c9ad911-25e0-4222-8751-d809dfadd582"},"vehicle_type_id":"4","last_reported":1686876159,"current_range_meters":8800,"station_id":"ce4bhqp2rcd13ifvqhog","pricing_plan_id":"free"},{"bike_id":"4e609ef0-2e17-4e6c-ba3b-29daedaa2e8a","system_id":"levelo_inurba_marseille","lat":43.32367,"lon":5.388836,"is_reserved":false,"is_disabled":false,"rental_uris":{"android":"levelo://app?vid=4e609ef0-2e17-4e6c-ba3b-29daedaa2e8a","ios":"levelo://app?vid=4e609ef0-2e17-4e6c-ba3b-29daedaa2e8a"},"vehicle_type_id":"4","last_reported":1686876159,"current_range_meters":22400,"station_id":"ce4bhqp2rcd13ifvqhog","pricing_plan_id":"free"},{"bike_id":"20a5b24d-b520-42df-8ac4-5a606a1b7de6","system_id":"levelo_inurba_marseille","lat":43.32367,"lon":5.388836,"is_reserved":false,"is_disabled":false,"rental_uris":{"android":"levelo://app?vid=20a5b24d-b520-42df-8ac4-5a606a1b7de6","ios":"levelo://app?vid=20a5b24d-b520-42df-8ac4-5a606a1b7de6"},"vehicle_type_id":"4","last_reported":1686876159,"current_range_meters":12400,"station_id":"ce4bhqp2rcd13ifvqhog","pricing_plan_id":"free"},{"bike_id":"5e9ee6b8-8599-4da9-b0ac-3461b14d3f94","system_id":"levelo_inurba_marseille","lat":43.32367,"lon":5.388836,"is_reserved":false,"is_disabled":false,"rental_uris":{"android":"levelo://app?vid=5e9ee6b8-8599-4da9-b0ac-3461b14d3f94","ios":"levelo://app?vid=5e9ee6b8-8599-4da9-b0ac-3461b14d3f94"},"vehicle_type_id":"4","last_reported":1686876159,"current_range_meters":11200,"station_id":"ce4bhqp2rcd13ifvqhog","pricing_plan_id":"free"},{"bike_id":"71deb49d-5864-4461-882a-e14e759319e0","system_id":"levelo_inurba_marseille","lat":43.32367,"lon":5.388836,"is_reserved":false,"is_disabled":false,"rental_uris":{"android":"levelo://app?vid=71deb49d-5864-4461-882a-e14e759319e0","ios":"levelo://app?vid=71deb49d-5864-4461-882a-e14e759319e0"},"vehicle_type_id":"4","last_reported":1686876159,"current_range_meters":7600,"station_id":"ce4bhqp2rcd13ifvqhog","pricing_plan_id":"free"},{"bike_id":"c153f200-368f-49ef-9cf0-3bef515e633e","system_id":"levelo_inurba_marseille","lat":43.32367,"lon":5.388836,"is_reserved":false,"is_disabled":false,"rental_uris":{"android":"levelo://app?vid=c153f200-368f-49ef-9cf0-3bef515e633e","ios":"levelo://app?vid=c153f200-368f-49ef-9cf0-3bef515e633e"},"vehicle_type_id":"4","last_reported":1686876159,"current_range_meters":31200,"station_id":"ce4bhqp2rcd13ifvqhog","pricing_plan_id":"free"},{"bike_id":"d3e5ec50-cdd2-4dda-b3aa-56eb536bbb12","system_id":"levelo_inurba_marseille","lat":43.29264,"lon":5.35967,"is_reserved":false,"is_disabled":false,"rental_uris":{"android":"levelo://app?vid=d3e5ec50-cdd2-4dda-b3aa-56eb536bbb12","ios":"levelo://app?vid=d3e5ec50-cdd2-4dda-b3aa-56eb536bbb12"},"vehicle_type_id":"4","last_reported":1686876159,"current_range_meters":28000,"station_id":"","pricing_plan_id":"free"},{"bike_id":"013190ee-a784-46ee-b3a9-5829d17c0de6","system_id":"levelo_inurba_marseille","lat":43.298764,"lon":5.388973,"is_reserved":false,"is_disabled":false,"rental_uris":{"android":"levelo://app?vid=013190ee-a784-46ee-b3a9-5829d17c0de6","ios":"levelo://app?vid=013190ee-a784-46ee-b3a9-5829d17c0de6"},"vehicle_type_id":"4","last_reported":1686876159,"current_range_meters":18800,"station_id":"ce4bh392rcd13ifvqdl0","pricing_plan_id":"free"},{"bike_id":"d65d7215-f9c1-4921-aae7-818a6bd0347d","system_id":"levelo_inurba_marseille","lat":43.298764,"lon":5.388973,"is_reserved":false,"is_disabled":false,"rental_uris":{"android":"levelo://app?vid=d65d7215-f9c1-4921-aae7-818a6bd0347d","ios":"levelo://app?vid=d65d7215-f9c1-4921-aae7-818a6bd0347d"},"vehicle_type_id":"4","last_reported":1686876159,"current_range_meters":0,"station_id":"ce4bh392rcd13ifvqdl0","pricing_plan_id":"free"},{"bike_id":"2a8983f8-0435-4302-a26c-47fadbb58632","system_id":"levelo_inurba_marseille","lat":43.309038,"lon":5.396546,"is_reserved":false,"is_disabled":false,"rental_uris":{"android":"levelo://app?vid=2a8983f8-0435-4302-a26c-47fadbb58632","ios":"levelo://app?vid=2a8983f8-0435-4302-a26c-47fadbb58632"},"vehicle_type_id":"4","last_reported":1686876159,"current_range_meters":17600,"station_id":"ce4bh012rcd13ifvqcv0","pricing_plan_id":"free"},{"bike_id":"490db307-a8ca-4fc4-a0c7-794d3f49d6d2","system_id":"levelo_inurba_marseille","lat":43.309038,"lon":5.396546,"is_reserved":false,"is_disabled":false,"rental_uris":{"android":"levelo://app?vid=490db307-a8ca-4fc4-a0c7-794d3f49d6d2","ios":"levelo://app?vid=490db307-a8ca-4fc4-a0c7-794d3f49d6d2"},"vehicle_type_id":"4","last_reported":1686876159,"current_range_meters":22400,"station_id":"ce4bh012rcd13ifvqcv0","pricing_plan_id":"free"},{"bike_id":"f13fbbd9-b0f0-4771-a6e9-1b7d6cd561c1","system_id":"levelo_inurba_marseille","lat":43.309038,"lon":5.396546,"is_reserved":false,"is_disabled":false,"rental_uris":{"android":"levelo://app?vid=f13fbbd9-b0f0-4771-a6e9-1b7d6cd561c1","ios":"levelo://app?vid=f13fbbd9-b0f0-4771-a6e9-1b7d6cd561c1"},"vehicle_type_id":"4","last_reported":1686876159,"current_range_meters":29200,"station_id":"ce4bh012rcd13ifvqcv0","pricing_plan_id":"free"},{"bike_id":"3c75d78a-8700-47ee-8b80-e96e0b0c5746","system_id":"levelo_inurba_marseille","lat":43.309038,"lon":5.396546,"is_reserved":false,"is_disabled":false,"rental_uris":{"android":"levelo://app?vid=3c75d78a-8700-47ee-8b80-e96e0b0c5746","ios":"levelo://app?vid=3c75d78a-8700-47ee-8b80-e96e0b0c5746"},"vehicle_type_id":"4","last_reported":1686876159,"current_range_meters":9200,"station_id":"ce4bh012rcd13ifvqcv0","pricing_plan_id":"free"},{"bike_id":"2dd353af-ef80-4638-9eff-f5b3704b2d42","system_id":"levelo_inurba_marseille","lat":43.309038,"lon":5.396546,"is_reserved":false,"is_disabled":false,"rental_uris":{"android":"levelo://app?vid=2dd353af-ef80-4638-9eff-f5b3704b2d42","ios":"levelo://app?vid=2dd353af-ef80-4638-9eff-f5b3704b2d42"},"vehicle_type_id":"4","last_reported":1686876159,"current_range_meters":31200,"station_id":"ce4bh012rcd13ifvqcv0","pricing_plan_id":"free"},{"bike_id":"0fc5ed72-31f5-473a-b0cd-96dc82929c62","system_id":"levelo_inurba_marseille","lat":43.30878,"lon":5.3964,"is_reserved":false,"is_disabled":false,"rental_uris":{"android":"levelo://app?vid=0fc5ed72-31f5-473a-b0cd-96dc82929c62","ios":"levelo://app?vid=0fc5ed72-31f5-473a-b0cd-96dc82929c62"},"vehicle_type_id":"4","last_reported":1686876159,"current_range_meters":7200,"station_id":"","pricing_plan_id":"free"},{"bike_id":"fc74dd52-c886-4a02-a504-693ef7a204aa","system_id":"levelo_inurba_marseille","lat":43.313291,"lon":5.396838,"is_reserved":false,"is_disabled":false,"rental_uris":{"android":"levelo://app?vid=fc74dd52-c886-4a02-a504-693ef7a204aa","ios":"levelo://app?vid=fc74dd52-c886-4a02-a504-693ef7a204aa"},"vehicle_type_id":"4","last_reported":1686876159,"current_range_meters":17200,"station_id":"ce4bgvp2rcd13ifvqcu0","pricing_plan_id":"free"},{"bike_id":"5b433072-5fde-47a2-81f1-03acedbdb6f5","system_id":"levelo_inurba_marseille","lat":43.309038,"lon":5.396546,"is_reserved":false,"is_disabled":false,"rental_uris":{"android":"levelo://app?vid=5b433072-5fde-47a2-81f1-03acedbdb6f5","ios":"levelo://app?vid=5b433072-5fde-47a2-81f1-03acedbdb6f5"},"vehicle_type_id":"4","last_reported":1686876159,"current_range_meters":11600,"station_id":"ce4bh012rcd13ifvqcv0","pricing_plan_id":"free"},{"bike_id":"a7b2a4df-0afa-4f2c-bb10-7b3e48d4e96a","system_id":"levelo_inurba_marseille","lat":43.309038,"lon":5.396546,"is_reserved":false,"is_disabled":false,"rental_uris":{"android":"levelo://app?vid=a7b2a4df-0afa-4f2c-bb10-7b3e48d4e96a","ios":"levelo://app?vid=a7b2a4df-0afa-4f2c-bb10-7b3e48d4e96a"},"vehicle_type_id":"4","last_reported":1686876159,"current_range_meters":19200,"station_id":"ce4bh012rcd13ifvqcv0","pricing_plan_id":"free"},{"bike_id":"45d22024-432d-441e-9e98-3e28068202dd","system_id":"levelo_inurba_marseille","lat":43.313291,"lon":5.396838,"is_reserved":false,"is_disabled":false,"rental_uris":{"android":"levelo://app?vid=45d22024-432d-441e-9e98-3e28068202dd","ios":"levelo://app?vid=45d22024-432d-441e-9e98-3e28068202dd"},"vehicle_type_id":"4","last_reported":1686876159,"current_range_meters":30400,"station_id":"ce4bgvp2rcd13ifvqcu0","pricing_plan_id":"free"},{"bike_id":"ff44794b-bd71-4da2-8587-e06f051f6a29","system_id":"levelo_inurba_marseille","lat":43.309038,"lon":5.396546,"is_reserved":false,"is_disabled":false,"rental_uris":{"android":"levelo://app?vid=ff44794b-bd71-4da2-8587-e06f051f6a29","ios":"levelo://app?vid=ff44794b-bd71-4da2-8587-e06f051f6a29"},"vehicle_type_id":"4","last_reported":1686876159,"current_range_meters":12400,"station_id":"ce4bh012rcd13ifvqcv0","pricing_plan_id":"free"},{"bike_id":"304ef31a-6e3e-404a-81d7-e7bf591de05d","system_id":"levelo_inurba_marseille","lat":43.313291,"lon":5.396838,"is_reserved":false,"is_disabled":false,"rental_uris":{"android":"levelo://app?vid=304ef31a-6e3e-404a-81d7-e7bf591de05d","ios":"levelo://app?vid=304ef31a-6e3e-404a-81d7-e7bf591de05d"},"vehicle_type_id":"4","last_reported":1686876159,"current_range_meters":29600,"station_id":"ce4bgvp2rcd13ifvqcu0","pricing_plan_id":"free"},{"bike_id":"e275adb2-0c22-4ff3-bd7e-64b02de87a7d","system_id":"levelo_inurba_marseille","lat":43.313291,"lon":5.396838,"is_reserved":false,"is_disabled":false,"rental_uris":{"android":"levelo://app?vid=e275adb2-0c22-4ff3-bd7e-64b02de87a7d","ios":"levelo://app?vid=e275adb2-0c22-4ff3-bd7e-64b02de87a7d"},"vehicle_type_id":"4","last_reported":1686876159,"current_range_meters":25200,"station_id":"ce4bgvp2rcd13ifvqcu0","pricing_plan_id":"free"},{"bike_id":"72097416-7f45-450d-ad4e-28ca496e6d4f","system_id":"levelo_inurba_marseille","lat":43.313291,"lon":5.396838,"is_reserved":false,"is_disabled":false,"rental_uris":{"android":"levelo://app?vid=72097416-7f45-450d-ad4e-28ca496e6d4f","ios":"levelo://app?vid=72097416-7f45-450d-ad4e-28ca496e6d4f"},"vehicle_type_id":"4","last_reported":1686876159,"current_range_meters":28800,"station_id":"ce4bgvp2rcd13ifvqcu0","pricing_plan_id":"free"},{"bike_id":"e2176057-4454-45e9-9199-50d004f4feeb","system_id":"levelo_inurba_marseille","lat":43.31332,"lon":5.397009,"is_reserved":false,"is_disabled":false,"rental_uris":{"android":"levelo://app?vid=e2176057-4454-45e9-9199-50d004f4feeb","ios":"levelo://app?vid=e2176057-4454-45e9-9199-50d004f4feeb"},"vehicle_type_id":"4","last_reported":1686876159,"current_range_meters":31200,"station_id":"ce4bgvp2rcd13ifvqcu0","pricing_plan_id":"free"},{"bike_id":"b11297a7-e645-4dbc-afb2-5a9ebeb21663","system_id":"levelo_inurba_marseille","lat":43.309038,"lon":5.396546,"is_reserved":false,"is_disabled":false,"rental_uris":{"android":"levelo://app?vid=b11297a7-e645-4dbc-afb2-5a9ebeb21663","ios":"levelo://app?vid=b11297a7-e645-4dbc-afb2-5a9ebeb21663"},"vehicle_type_id":"4","last_reported":1686876159,"current_range_meters":7200,"station_id":"ce4bh012rcd13ifvqcv0","pricing_plan_id":"free"},{"bike_id":"a8414a31-b306-4141-a194-429e4a575ed7","system_id":"levelo_inurba_marseille","lat":43.309038,"lon":5.396546,"is_reserved":false,"is_disabled":false,"rental_uris":{"android":"levelo://app?vid=a8414a31-b306-4141-a194-429e4a575ed7","ios":"levelo://app?vid=a8414a31-b306-4141-a194-429e4a575ed7"},"vehicle_type_id":"4","last_reported":1686876159,"current_range_meters":17600,"station_id":"ce4bh012rcd13ifvqcv0","pricing_plan_id":"free"},{"bike_id":"ecdadcdd-8733-4ead-8c1e-8661ec40804c","system_id":"levelo_inurba_marseille","lat":43.309038,"lon":5.396546,"is_reserved":false,"is_disabled":false,"rental_uris":{"android":"levelo://app?vid=ecdadcdd-8733-4ead-8c1e-8661ec40804c","ios":"levelo://app?vid=ecdadcdd-8733-4ead-8c1e-8661ec40804c"},"vehicle_type_id":"4","last_reported":1686876159,"current_range_meters":0,"station_id":"ce4bh012rcd13ifvqcv0","pricing_plan_id":"free"},{"bike_id":"1f11b826-061c-4e3f-9c5e-53f143ea86fc","system_id":"levelo_inurba_marseille","lat":43.309038,"lon":5.396546,"is_reserved":false,"is_disabled":false,"rental_uris":{"android":"levelo://app?vid=1f11b826-061c-4e3f-9c5e-53f143ea86fc","ios":"levelo://app?vid=1f11b826-061c-4e3f-9c5e-53f143ea86fc"},"vehicle_type_id":"4","last_reported":1686876159,"current_range_meters":18800,"station_id":"ce4bh012rcd13ifvqcv0","pricing_plan_id":"free"},{"bike_id":"dd9c24db-f067-4b36-8a2c-1252995c85df","system_id":"levelo_inurba_marseille","lat":43.31322,"lon":5.39707,"is_reserved":false,"is_disabled":false,"rental_uris":{"android":"levelo://app?vid=dd9c24db-f067-4b36-8a2c-1252995c85df","ios":"levelo://app?vid=dd9c24db-f067-4b36-8a2c-1252995c85df"},"vehicle_type_id":"4","last_reported":1686876159,"current_range_meters":28000,"station_id":"ce4bgvp2rcd13ifvqcu0","pricing_plan_id":"free"},{"bike_id":"e167a6ba-12ea-4e2a-b8cb-763f66400203","system_id":"levelo_inurba_marseille","lat":43.302008,"lon":5.394694,"is_reserved":false,"is_disabled":false,"rental_uris":{"android":"levelo://app?vid=e167a6ba-12ea-4e2a-b8cb-763f66400203","ios":"levelo://app?vid=e167a6ba-12ea-4e2a-b8cb-763f66400203"},"vehicle_type_id":"4","last_reported":1686876159,"current_range_meters":22000,"station_id":"ce4bh0p2rcd13ifvqd70","pricing_plan_id":"free"},{"bike_id":"0087a6dd-1585-48d8-813f-782a10eda7c2","system_id":"levelo_inurba_marseille","lat":43.29003,"lon":5.3717,"is_reserved":false,"is_disabled":false,"rental_uris":{"android":"levelo://app?vid=0087a6dd-1585-48d8-813f-782a10eda7c2","ios":"levelo://app?vid=0087a6dd-1585-48d8-813f-782a10eda7c2"},"vehicle_type_id":"4","last_reported":1686876159,"current_range_meters":14800,"station_id":"ce4bha92rcd13ifvqeg0","pricing_plan_id":"free"},{"bike_id":"266e608b-3db7-4097-a8d3-eef473517f07","system_id":"levelo_inurba_marseille","lat":43.290631,"lon":5.359244,"is_reserved":false,"is_disabled":false,"rental_uris":{"android":"levelo://app?vid=266e608b-3db7-4097-a8d3-eef473517f07","ios":"levelo://app?vid=266e608b-3db7-4097-a8d3-eef473517f07"},"vehicle_type_id":"4","last_reported":1686876159,"current_range_meters":26400,"station_id":"ce4bha92rcd13ifvqeg0","pricing_plan_id":"free"},{"bike_id":"5e46e37f-2952-4c95-921a-c29269ff741c","system_id":"levelo_inurba_marseille","lat":43.290327,"lon":5.375711,"is_reserved":false,"is_disabled":false,"rental_uris":{"android":"levelo://app?vid=5e46e37f-2952-4c95-921a-c29269ff741c","ios":"levelo://app?vid=5e46e37f-2952-4c95-921a-c29269ff741c"},"vehicle_type_id":"4","last_reported":1686876159,"current_range_meters":2400,"station_id":"ce4bh692rcd13ifvqe90","pricing_plan_id":"free"},{"bike_id":"2e3dbfce-16e1-43ff-ae36-d4bd59bc2c8c","system_id":"levelo_inurba_marseille","lat":43.289184,"lon":5.366408,"is_reserved":false,"is_disabled":false,"rental_uris":{"android":"levelo://app?vid=2e3dbfce-16e1-43ff-ae36-d4bd59bc2c8c","ios":"levelo://app?vid=2e3dbfce-16e1-43ff-ae36-d4bd59bc2c8c"},"vehicle_type_id":"4","last_reported":1686876159,"current_range_meters":30400,"station_id":"ce4bhap2rcd13ifvqek0","pricing_plan_id":"free"},{"bike_id":"f4c90aaa-424c-48a5-a2a3-e233b639dbfc","system_id":"levelo_inurba_marseille","lat":43.289468,"lon":5.363719,"is_reserved":false,"is_disabled":false,"rental_uris":{"android":"levelo://app?vid=f4c90aaa-424c-48a5-a2a3-e233b639dbfc","ios":"levelo://app?vid=f4c90aaa-424c-48a5-a2a3-e233b639dbfc"},"vehicle_type_id":"4","last_reported":1686876159,"current_range_meters":27600,"station_id":"ce4bhc92rcd13ifvqetg","pricing_plan_id":"free"},{"bike_id":"7491dcba-86f1-4392-b920-568064febec0","system_id":"levelo_inurba_marseille","lat":43.304274,"lon":5.397513,"is_reserved":false,"is_disabled":false,"rental_uris":{"android":"levelo://app?vid=7491dcba-86f1-4392-b920-568064febec0","ios":"levelo://app?vid=7491dcba-86f1-4392-b920-568064febec0"},"vehicle_type_id":"4","last_reported":1686876159,"current_range_meters":29600,"station_id":"ce4bh092rcd13ifvqd20","pricing_plan_id":"free"},{"bike_id":"66c4c87b-9910-463a-b7e4-1099cad89bf6","system_id":"levelo_inurba_marseille","lat":43.304296,"lon":5.397513,"is_reserved":false,"is_disabled":false,"rental_uris":{"android":"levelo://app?vid=66c4c87b-9910-463a-b7e4-1099cad89bf6","ios":"levelo://app?vid=66c4c87b-9910-463a-b7e4-1099cad89bf6"},"vehicle_type_id":"4","last_reported":1686876159,"current_range_meters":30400,"station_id":"ce4bh092rcd13ifvqd20","pricing_plan_id":"free"},{"bike_id":"3db9403a-a8eb-4d4c-b143-bd31cd8439a5","system_id":"levelo_inurba_marseille","lat":43.304296,"lon":5.397513,"is_reserved":false,"is_disabled":false,"rental_uris":{"android":"levelo://app?vid=3db9403a-a8eb-4d4c-b143-bd31cd8439a5","ios":"levelo://app?vid=3db9403a-a8eb-4d4c-b143-bd31cd8439a5"},"vehicle_type_id":"4","last_reported":1686876159,"current_range_meters":11600,"station_id":"ce4bh092rcd13ifvqd20","pricing_plan_id":"free"},{"bike_id":"a4d2814a-ff66-466e-b091-93a97eadc809","system_id":"levelo_inurba_marseille","lat":43.33041,"lon":5.38907,"is_reserved":false,"is_disabled":false,"rental_uris":{"android":"levelo://app?vid=a4d2814a-ff66-466e-b091-93a97eadc809","ios":"levelo://app?vid=a4d2814a-ff66-466e-b091-93a97eadc809"},"vehicle_type_id":"4","last_reported":1686876159,"current_range_meters":31200,"station_id":"ce4bhr92rcd13ifvqhrg","pricing_plan_id":"free"},{"bike_id":"5b7c69a3-b803-4d87-80e1-151c935a484f","system_id":"levelo_inurba_marseille","lat":43.330442,"lon":5.389148,"is_reserved":false,"is_disabled":false,"rental_uris":{"android":"levelo://app?vid=5b7c69a3-b803-4d87-80e1-151c935a484f","ios":"levelo://app?vid=5b7c69a3-b803-4d87-80e1-151c935a484f"},"vehicle_type_id":"4","last_reported":1686876159,"current_range_meters":24400,"station_id":"ce4bhr92rcd13ifvqhrg","pricing_plan_id":"free"},{"bike_id":"4c624409-985c-41d3-8214-1acf2f3fce1f","system_id":"levelo_inurba_marseille","lat":43.330442,"lon":5.389148,"is_reserved":false,"is_disabled":false,"rental_uris":{"android":"levelo://app?vid=4c624409-985c-41d3-8214-1acf2f3fce1f","ios":"levelo://app?vid=4c624409-985c-41d3-8214-1acf2f3fce1f"},"vehicle_type_id":"4","last_reported":1686876159,"current_range_meters":24000,"station_id":"ce4bhr92rcd13ifvqhrg","pricing_plan_id":"free"},{"bike_id":"d12d08c1-12d1-4e99-8cb3-7b11ceac9cbb","system_id":"levelo_inurba_marseille","lat":43.330442,"lon":5.389148,"is_reserved":false,"is_disabled":false,"rental_uris":{"android":"levelo://app?vid=d12d08c1-12d1-4e99-8cb3-7b11ceac9cbb","ios":"levelo://app?vid=d12d08c1-12d1-4e99-8cb3-7b11ceac9cbb"},"vehicle_type_id":"4","last_reported":1686876159,"current_range_meters":1200,"station_id":"ce4bhr92rcd13ifvqhrg","pricing_plan_id":"free"},{"bike_id":"9add8f45-ba19-4365-9c40-1bba0a103763","system_id":"levelo_inurba_marseille","lat":43.33041,"lon":5.38925,"is_reserved":false,"is_disabled":false,"rental_uris":{"android":"levelo://app?vid=9add8f45-ba19-4365-9c40-1bba0a103763","ios":"levelo://app?vid=9add8f45-ba19-4365-9c40-1bba0a103763"},"vehicle_type_id":"4","last_reported":1686876159,"current_range_meters":14800,"station_id":"ce4bhr92rcd13ifvqhrg","pricing_plan_id":"free"},{"bike_id":"cc61286d-9ee0-4d17-8b36-87dd989ccf29","system_id":"levelo_inurba_marseille","lat":43.33051,"lon":5.38924,"is_reserved":false,"is_disabled":false,"rental_uris":{"android":"levelo://app?vid=cc61286d-9ee0-4d17-8b36-87dd989ccf29","ios":"levelo://app?vid=cc61286d-9ee0-4d17-8b36-87dd989ccf29"},"vehicle_type_id":"4","last_reported":1686876159,"current_range_meters":12400,"station_id":"ce4bhr92rcd13ifvqhrg","pricing_plan_id":"free"},{"bike_id":"816b8491-ab8e-4f32-b39c-24ba3574e385","system_id":"levelo_inurba_marseille","lat":43.290995,"lon":5.381361,"is_reserved":false,"is_disabled":false,"rental_uris":{"android":"levelo://app?vid=816b8491-ab8e-4f32-b39c-24ba3574e385","ios":"levelo://app?vid=816b8491-ab8e-4f32-b39c-24ba3574e385"},"vehicle_type_id":"4","last_reported":1686876159,"current_range_meters":14400,"station_id":"ce4bh512rcd13ifvqe2g","pricing_plan_id":"free"},{"bike_id":"13d5a42e-daac-4dee-b9dc-10feb0e254dc","system_id":"levelo_inurba_marseille","lat":43.297814,"lon":5.393513,"is_reserved":false,"is_disabled":false,"rental_uris":{"android":"levelo://app?vid=13d5a42e-daac-4dee-b9dc-10feb0e254dc","ios":"levelo://app?vid=13d5a42e-daac-4dee-b9dc-10feb0e254dc"},"vehicle_type_id":"4","last_reported":1686876159,"current_range_meters":2400,"station_id":"chh1huq6cuj3fo74tm60","pricing_plan_id":"free"},{"bike_id":"73af3104-7b01-4001-b136-b436742f8f86","system_id":"levelo_inurba_marseille","lat":43.297814,"lon":5.393513,"is_reserved":false,"is_disabled":false,"rental_uris":{"android":"levelo://app?vid=73af3104-7b01-4001-b136-b436742f8f86","ios":"levelo://app?vid=73af3104-7b01-4001-b136-b436742f8f86"},"vehicle_type_id":"4","last_reported":1686876159,"current_range_meters":22400,"station_id":"chh1huq6cuj3fo74tm60","pricing_plan_id":"free"},{"bike_id":"7b809514-38ef-4d74-a6c3-0b40b8af9124","system_id":"levelo_inurba_marseille","lat":43.297814,"lon":5.393513,"is_reserved":false,"is_disabled":false,"rental_uris":{"android":"levelo://app?vid=7b809514-38ef-4d74-a6c3-0b40b8af9124","ios":"levelo://app?vid=7b809514-38ef-4d74-a6c3-0b40b8af9124"},"vehicle_type_id":"4","last_reported":1686876159,"current_range_meters":4800,"station_id":"chh1huq6cuj3fo74tm60","pricing_plan_id":"free"},{"bike_id":"cf01f0d5-02d6-4540-ac61-29cb3b499fd0","system_id":"levelo_inurba_marseille","lat":43.295169,"lon":5.390426,"is_reserved":false,"is_disabled":false,"rental_uris":{"android":"levelo://app?vid=cf01f0d5-02d6-4540-ac61-29cb3b499fd0","ios":"levelo://app?vid=cf01f0d5-02d6-4540-ac61-29cb3b499fd0"},"vehicle_type_id":"4","last_reported":1686876159,"current_range_meters":26800,"station_id":"ce4bh3p2rcd13ifvqdp0","pricing_plan_id":"free"},{"bike_id":"30fd9bba-49d1-4c12-bdf5-5237ccc9f0f6","system_id":"levelo_inurba_marseille","lat":43.28856,"lon":5.358371,"is_reserved":false,"is_disabled":false,"rental_uris":{"android":"levelo://app?vid=30fd9bba-49d1-4c12-bdf5-5237ccc9f0f6","ios":"levelo://app?vid=30fd9bba-49d1-4c12-bdf5-5237ccc9f0f6"},"vehicle_type_id":"4","last_reported":1686876159,"current_range_meters":17600,"station_id":"ce4bhb12rcd13ifvqem0","pricing_plan_id":"free"},{"bike_id":"1655028b-97ca-43df-84bd-96e8237446bc","system_id":"levelo_inurba_marseille","lat":43.28853,"lon":5.35845,"is_reserved":false,"is_disabled":false,"rental_uris":{"android":"levelo://app?vid=1655028b-97ca-43df-84bd-96e8237446bc","ios":"levelo://app?vid=1655028b-97ca-43df-84bd-96e8237446bc"},"vehicle_type_id":"4","last_reported":1686876159,"current_range_meters":22800,"station_id":"ce4bhb12rcd13ifvqem0","pricing_plan_id":"free"},{"bike_id":"c0fb8083-e02d-4dec-b1b9-fa095e6c5b75","system_id":"levelo_inurba_marseille","lat":43.337396,"lon":5.374526,"is_reserved":false,"is_disabled":false,"rental_uris":{"android":"levelo://app?vid=c0fb8083-e02d-4dec-b1b9-fa095e6c5b75","ios":"levelo://app?vid=c0fb8083-e02d-4dec-b1b9-fa095e6c5b75"},"vehicle_type_id":"4","last_reported":1686876159,"current_range_meters":3200,"station_id":"ce4bhp92rcd13ifvqhag","pricing_plan_id":"free"},{"bike_id":"c783118d-9cc0-4585-883d-c41813aabf24","system_id":"levelo_inurba_marseille","lat":43.309371,"lon":5.401449,"is_reserved":false,"is_disabled":false,"rental_uris":{"android":"levelo://app?vid=c783118d-9cc0-4585-883d-c41813aabf24","ios":"levelo://app?vid=c783118d-9cc0-4585-883d-c41813aabf24"},"vehicle_type_id":"4","last_reported":1686876159,"current_range_meters":22000,"station_id":"ce4bgvp2rcd13ifvqct0","pricing_plan_id":"free"},{"bike_id":"386e58dc-6375-4dfe-81fe-a9c843389cef","system_id":"levelo_inurba_marseille","lat":43.309371,"lon":5.401449,"is_reserved":false,"is_disabled":false,"rental_uris":{"android":"levelo://app?vid=386e58dc-6375-4dfe-81fe-a9c843389cef","ios":"levelo://app?vid=386e58dc-6375-4dfe-81fe-a9c843389cef"},"vehicle_type_id":"4","last_reported":1686876159,"current_range_meters":22000,"station_id":"ce4bgvp2rcd13ifvqct0","pricing_plan_id":"free"},{"bike_id":"dd9fd1f4-dcd9-4d60-abf7-792a6ce7d812","system_id":"levelo_inurba_marseille","lat":43.309371,"lon":5.401449,"is_reserved":false,"is_disabled":false,"rental_uris":{"android":"levelo://app?vid=dd9fd1f4-dcd9-4d60-abf7-792a6ce7d812","ios":"levelo://app?vid=dd9fd1f4-dcd9-4d60-abf7-792a6ce7d812"},"vehicle_type_id":"4","last_reported":1686876159,"current_range_meters":16400,"station_id":"ce4bgvp2rcd13ifvqct0","pricing_plan_id":"free"},{"bike_id":"a2b90eef-33ca-458a-aaa5-7beae570bc6d","system_id":"levelo_inurba_marseille","lat":43.309371,"lon":5.401449,"is_reserved":false,"is_disabled":false,"rental_uris":{"android":"levelo://app?vid=a2b90eef-33ca-458a-aaa5-7beae570bc6d","ios":"levelo://app?vid=a2b90eef-33ca-458a-aaa5-7beae570bc6d"},"vehicle_type_id":"4","last_reported":1686876159,"current_range_meters":26400,"station_id":"ce4bgvp2rcd13ifvqct0","pricing_plan_id":"free"},{"bike_id":"f01cb20e-912b-40d2-ad57-b1c3e62cd7ba","system_id":"levelo_inurba_marseille","lat":43.309371,"lon":5.401449,"is_reserved":false,"is_disabled":false,"rental_uris":{"android":"levelo://app?vid=f01cb20e-912b-40d2-ad57-b1c3e62cd7ba","ios":"levelo://app?vid=f01cb20e-912b-40d2-ad57-b1c3e62cd7ba"},"vehicle_type_id":"4","last_reported":1686876159,"current_range_meters":17200,"station_id":"ce4bgvp2rcd13ifvqct0","pricing_plan_id":"free"},{"bike_id":"a1d12a38-cc4a-40c5-9bf1-8fc43f7a848f","system_id":"levelo_inurba_marseille","lat":43.309371,"lon":5.401449,"is_reserved":false,"is_disabled":false,"rental_uris":{"android":"levelo://app?vid=a1d12a38-cc4a-40c5-9bf1-8fc43f7a848f","ios":"levelo://app?vid=a1d12a38-cc4a-40c5-9bf1-8fc43f7a848f"},"vehicle_type_id":"4","last_reported":1686876159,"current_range_meters":14400,"station_id":"ce4bgvp2rcd13ifvqct0","pricing_plan_id":"free"},{"bike_id":"c5a9ed8a-bf89-4417-9bf8-860812280b85","system_id":"levelo_inurba_marseille","lat":43.309371,"lon":5.401449,"is_reserved":false,"is_disabled":false,"rental_uris":{"android":"levelo://app?vid=c5a9ed8a-bf89-4417-9bf8-860812280b85","ios":"levelo://app?vid=c5a9ed8a-bf89-4417-9bf8-860812280b85"},"vehicle_type_id":"4","last_reported":1686876159,"current_range_meters":16000,"station_id":"ce4bgvp2rcd13ifvqct0","pricing_plan_id":"free"},{"bike_id":"e2384163-4007-46d6-9bda-30c639608e9e","system_id":"levelo_inurba_marseille","lat":43.309371,"lon":5.401449,"is_reserved":false,"is_disabled":false,"rental_uris":{"android":"levelo://app?vid=e2384163-4007-46d6-9bda-30c639608e9e","ios":"levelo://app?vid=e2384163-4007-46d6-9bda-30c639608e9e"},"vehicle_type_id":"4","last_reported":1686876159,"current_range_meters":19200,"station_id":"ce4bgvp2rcd13ifvqct0","pricing_plan_id":"free"},{"bike_id":"daf4d5e5-1b57-4407-8a94-ebeb2e475a9a","system_id":"levelo_inurba_marseille","lat":43.30642,"lon":5.401031,"is_reserved":false,"is_disabled":false,"rental_uris":{"android":"levelo://app?vid=daf4d5e5-1b57-4407-8a94-ebeb2e475a9a","ios":"levelo://app?vid=daf4d5e5-1b57-4407-8a94-ebeb2e475a9a"},"vehicle_type_id":"4","last_reported":1686876159,"current_range_meters":3200,"station_id":"ce4bh112rcd13ifvqda0","pricing_plan_id":"free"},{"bike_id":"6cb64abf-1f60-471f-a41a-62da3de1f982","system_id":"levelo_inurba_marseille","lat":43.30642,"lon":5.401031,"is_reserved":false,"is_disabled":false,"rental_uris":{"android":"levelo://app?vid=6cb64abf-1f60-471f-a41a-62da3de1f982","ios":"levelo://app?vid=6cb64abf-1f60-471f-a41a-62da3de1f982"},"vehicle_type_id":"4","last_reported":1686876159,"current_range_meters":0,"station_id":"ce4bh112rcd13ifvqda0","pricing_plan_id":"free"},{"bike_id":"d2c4f189-4692-4c8b-b8e5-2c8debb6cc34","system_id":"levelo_inurba_marseille","lat":43.30642,"lon":5.401031,"is_reserved":false,"is_disabled":false,"rental_uris":{"android":"levelo://app?vid=d2c4f189-4692-4c8b-b8e5-2c8debb6cc34","ios":"levelo://app?vid=d2c4f189-4692-4c8b-b8e5-2c8debb6cc34"},"vehicle_type_id":"4","last_reported":1686876159,"current_range_meters":15600,"station_id":"ce4bh112rcd13ifvqda0","pricing_plan_id":"free"},{"bike_id":"e67b74df-a415-4444-a302-f71dae903bbb","system_id":"levelo_inurba_marseille","lat":43.30642,"lon":5.401031,"is_reserved":false,"is_disabled":false,"rental_uris":{"android":"levelo://app?vid=e67b74df-a415-4444-a302-f71dae903bbb","ios":"levelo://app?vid=e67b74df-a415-4444-a302-f71dae903bbb"},"vehicle_type_id":"4","last_reported":1686876159,"current_range_meters":800,"station_id":"ce4bh112rcd13ifvqda0","pricing_plan_id":"free"},{"bike_id":"6f0ab6b2-32ad-4084-a8c9-04ef3aa45141","system_id":"levelo_inurba_marseille","lat":43.30642,"lon":5.401031,"is_reserved":false,"is_disabled":false,"rental_uris":{"android":"levelo://app?vid=6f0ab6b2-32ad-4084-a8c9-04ef3aa45141","ios":"levelo://app?vid=6f0ab6b2-32ad-4084-a8c9-04ef3aa45141"},"vehicle_type_id":"4","last_reported":1686876159,"current_range_meters":16400,"station_id":"ce4bh112rcd13ifvqda0","pricing_plan_id":"free"},{"bike_id":"7c1d12a5-327a-4836-9c6c-93fb2d934ecf","system_id":"levelo_inurba_marseille","lat":43.30642,"lon":5.401031,"is_reserved":false,"is_disabled":false,"rental_uris":{"android":"levelo://app?vid=7c1d12a5-327a-4836-9c6c-93fb2d934ecf","ios":"levelo://app?vid=7c1d12a5-327a-4836-9c6c-93fb2d934ecf"},"vehicle_type_id":"4","last_reported":1686876159,"current_range_meters":10400,"station_id":"ce4bh112rcd13ifvqda0","pricing_plan_id":"free"},{"bike_id":"10cdb518-e270-4caa-b225-2f800bd44b58","system_id":"levelo_inurba_marseille","lat":43.33772,"lon":5.37453,"is_reserved":false,"is_disabled":false,"rental_uris":{"android":"levelo://app?vid=10cdb518-e270-4caa-b225-2f800bd44b58","ios":"levelo://app?vid=10cdb518-e270-4caa-b225-2f800bd44b58"},"vehicle_type_id":"4","last_reported":1686876159,"current_range_meters":23200,"station_id":"","pricing_plan_id":"free"},{"bike_id":"f6669c60-6789-442a-b1f9-5ed85e27873d","system_id":"levelo_inurba_marseille","lat":43.30642,"lon":5.401031,"is_reserved":false,"is_disabled":false,"rental_uris":{"android":"levelo://app?vid=f6669c60-6789-442a-b1f9-5ed85e27873d","ios":"levelo://app?vid=f6669c60-6789-442a-b1f9-5ed85e27873d"},"vehicle_type_id":"4","last_reported":1686876159,"current_range_meters":30000,"station_id":"ce4bh112rcd13ifvqda0","pricing_plan_id":"free"},{"bike_id":"8184cd8d-71ef-434a-907b-50cb7dd18d5d","system_id":"levelo_inurba_marseille","lat":43.301117,"lon":5.398795,"is_reserved":false,"is_disabled":false,"rental_uris":{"android":"levelo://app?vid=8184cd8d-71ef-434a-907b-50cb7dd18d5d","ios":"levelo://app?vid=8184cd8d-71ef-434a-907b-50cb7dd18d5d"},"vehicle_type_id":"4","last_reported":1686876159,"current_range_meters":21200,"station_id":"ce4bh0h2rcd13ifvqd40","pricing_plan_id":"free"},{"bike_id":"a4eb465e-44cc-4489-9ed5-5261b4be81af","system_id":"levelo_inurba_marseille","lat":43.301117,"lon":5.398795,"is_reserved":false,"is_disabled":false,"rental_uris":{"android":"levelo://app?vid=a4eb465e-44cc-4489-9ed5-5261b4be81af","ios":"levelo://app?vid=a4eb465e-44cc-4489-9ed5-5261b4be81af"},"vehicle_type_id":"4","last_reported":1686876159,"current_range_meters":30800,"station_id":"ce4bh0h2rcd13ifvqd40","pricing_plan_id":"free"},{"bike_id":"1eb3090f-acec-488c-9c62-fbcd5d35aef1","system_id":"levelo_inurba_marseille","lat":43.301117,"lon":5.398795,"is_reserved":false,"is_disabled":false,"rental_uris":{"android":"levelo://app?vid=1eb3090f-acec-488c-9c62-fbcd5d35aef1","ios":"levelo://app?vid=1eb3090f-acec-488c-9c62-fbcd5d35aef1"},"vehicle_type_id":"4","last_reported":1686876159,"current_range_meters":28400,"station_id":"ce4bh0h2rcd13ifvqd40","pricing_plan_id":"free"},{"bike_id":"76154d6f-d0cf-4500-9949-32df92b6d0e7","system_id":"levelo_inurba_marseille","lat":43.301117,"lon":5.398795,"is_reserved":false,"is_disabled":false,"rental_uris":{"android":"levelo://app?vid=76154d6f-d0cf-4500-9949-32df92b6d0e7","ios":"levelo://app?vid=76154d6f-d0cf-4500-9949-32df92b6d0e7"},"vehicle_type_id":"4","last_reported":1686876159,"current_range_meters":4000,"station_id":"ce4bh0h2rcd13ifvqd40","pricing_plan_id":"free"},{"bike_id":"760182f3-a557-42b8-846c-6b81536ad6d8","system_id":"levelo_inurba_marseille","lat":43.301117,"lon":5.398795,"is_reserved":false,"is_disabled":false,"rental_uris":{"android":"levelo://app?vid=760182f3-a557-42b8-846c-6b81536ad6d8","ios":"levelo://app?vid=760182f3-a557-42b8-846c-6b81536ad6d8"},"vehicle_type_id":"4","last_reported":1686876159,"current_range_meters":10400,"station_id":"ce4bh0h2rcd13ifvqd40","pricing_plan_id":"free"},{"bike_id":"ece0fcd9-bc3b-4b06-9f82-f6545f6de1bb","system_id":"levelo_inurba_marseille","lat":43.28716,"lon":5.37368,"is_reserved":false,"is_disabled":false,"rental_uris":{"android":"levelo://app?vid=ece0fcd9-bc3b-4b06-9f82-f6545f6de1bb","ios":"levelo://app?vid=ece0fcd9-bc3b-4b06-9f82-f6545f6de1bb"},"vehicle_type_id":"4","last_reported":1686876159,"current_range_meters":10400,"station_id":"","pricing_plan_id":"free"},{"bike_id":"ea22cb03-4452-4ea0-a0eb-328919edffde","system_id":"levelo_inurba_marseille","lat":43.28704,"lon":5.3731,"is_reserved":false,"is_disabled":false,"rental_uris":{"android":"levelo://app?vid=ea22cb03-4452-4ea0-a0eb-328919edffde","ios":"levelo://app?vid=ea22cb03-4452-4ea0-a0eb-328919edffde"},"vehicle_type_id":"4","last_reported":1686876159,"current_range_meters":20000,"station_id":"","pricing_plan_id":"free"},{"bike_id":"f0854f7a-d39b-43a5-b9ec-26e38620cd67","system_id":"levelo_inurba_marseille","lat":43.2871,"lon":5.37389,"is_reserved":false,"is_disabled":false,"rental_uris":{"android":"levelo://app?vid=f0854f7a-d39b-43a5-b9ec-26e38620cd67","ios":"levelo://app?vid=f0854f7a-d39b-43a5-b9ec-26e38620cd67"},"vehicle_type_id":"4","last_reported":1686876159,"current_range_meters":400,"station_id":"","pricing_plan_id":"free"},{"bike_id":"2309eee8-d9b6-421f-ac0f-8262329054b5","system_id":"levelo_inurba_marseille","lat":43.298681,"lon":5.397225,"is_reserved":false,"is_disabled":false,"rental_uris":{"android":"levelo://app?vid=2309eee8-d9b6-421f-ac0f-8262329054b5","ios":"levelo://app?vid=2309eee8-d9b6-421f-ac0f-8262329054b5"},"vehicle_type_id":"4","last_reported":1686876159,"current_range_meters":31200,"station_id":"ce4bh0h2rcd13ifvqd50","pricing_plan_id":"free"},{"bike_id":"df670d2a-6fb2-4206-9909-f6917e10c509","system_id":"levelo_inurba_marseille","lat":43.295196,"lon":5.39397,"is_reserved":false,"is_disabled":false,"rental_uris":{"android":"levelo://app?vid=df670d2a-6fb2-4206-9909-f6917e10c509","ios":"levelo://app?vid=df670d2a-6fb2-4206-9909-f6917e10c509"},"vehicle_type_id":"4","last_reported":1686876159,"current_range_meters":23200,"station_id":"ce4bh292rcd13ifvqdf0","pricing_plan_id":"free"},{"bike_id":"458c30cc-7013-4a04-a736-95ffa29fb4ee","system_id":"levelo_inurba_marseille","lat":43.290345,"lon":5.38646,"is_reserved":false,"is_disabled":false,"rental_uris":{"android":"levelo://app?vid=458c30cc-7013-4a04-a736-95ffa29fb4ee","ios":"levelo://app?vid=458c30cc-7013-4a04-a736-95ffa29fb4ee"},"vehicle_type_id":"4","last_reported":1686876159,"current_range_meters":12400,"station_id":"ce4bh4p2rcd13ifvqe0g","pricing_plan_id":"free"},{"bike_id":"5f8aeb5a-769f-4d9b-af33-efa6f8e455ed","system_id":"levelo_inurba_marseille","lat":43.302759,"lon":5.400793,"is_reserved":false,"is_disabled":false,"rental_uris":{"android":"levelo://app?vid=5f8aeb5a-769f-4d9b-af33-efa6f8e455ed","ios":"levelo://app?vid=5f8aeb5a-769f-4d9b-af33-efa6f8e455ed"},"vehicle_type_id":"4","last_reported":1686876159,"current_range_meters":2000,"station_id":"ce4bgvh2rcd13ifvqcs0","pricing_plan_id":"free"},{"bike_id":"11d42ed7-cc2b-4983-b4fb-6251655eb563","system_id":"levelo_inurba_marseille","lat":43.302759,"lon":5.400793,"is_reserved":false,"is_disabled":false,"rental_uris":{"android":"levelo://app?vid=11d42ed7-cc2b-4983-b4fb-6251655eb563","ios":"levelo://app?vid=11d42ed7-cc2b-4983-b4fb-6251655eb563"},"vehicle_type_id":"4","last_reported":1686876159,"current_range_meters":28400,"station_id":"ce4bgvh2rcd13ifvqcs0","pricing_plan_id":"free"},{"bike_id":"daf526b8-e3c0-42e9-915b-f6fe4c8c4d73","system_id":"levelo_inurba_marseille","lat":43.302759,"lon":5.400793,"is_reserved":false,"is_disabled":false,"rental_uris":{"android":"levelo://app?vid=daf526b8-e3c0-42e9-915b-f6fe4c8c4d73","ios":"levelo://app?vid=daf526b8-e3c0-42e9-915b-f6fe4c8c4d73"},"vehicle_type_id":"4","last_reported":1686876159,"current_range_meters":8800,"station_id":"ce4bgvh2rcd13ifvqcs0","pricing_plan_id":"free"},{"bike_id":"8b860527-619c-46c5-bd8d-5a9d3eee74cd","system_id":"levelo_inurba_marseille","lat":43.302759,"lon":5.400793,"is_reserved":false,"is_disabled":false,"rental_uris":{"android":"levelo://app?vid=8b860527-619c-46c5-bd8d-5a9d3eee74cd","ios":"levelo://app?vid=8b860527-619c-46c5-bd8d-5a9d3eee74cd"},"vehicle_type_id":"4","last_reported":1686876159,"current_range_meters":14400,"station_id":"ce4bgvh2rcd13ifvqcs0","pricing_plan_id":"free"},{"bike_id":"b6b69f7d-7628-4480-8248-35c267d8d493","system_id":"levelo_inurba_marseille","lat":43.302759,"lon":5.400793,"is_reserved":false,"is_disabled":false,"rental_uris":{"android":"levelo://app?vid=b6b69f7d-7628-4480-8248-35c267d8d493","ios":"levelo://app?vid=b6b69f7d-7628-4480-8248-35c267d8d493"},"vehicle_type_id":"4","last_reported":1686876159,"current_range_meters":20400,"station_id":"ce4bgvh2rcd13ifvqcs0","pricing_plan_id":"free"},{"bike_id":"395f3881-ff70-4179-8d55-4351d8ee17ec","system_id":"levelo_inurba_marseille","lat":43.302759,"lon":5.400793,"is_reserved":false,"is_disabled":false,"rental_uris":{"android":"levelo://app?vid=395f3881-ff70-4179-8d55-4351d8ee17ec","ios":"levelo://app?vid=395f3881-ff70-4179-8d55-4351d8ee17ec"},"vehicle_type_id":"4","last_reported":1686876159,"current_range_meters":10800,"station_id":"ce4bgvh2rcd13ifvqcs0","pricing_plan_id":"free"},{"bike_id":"dc66645c-7ae8-4a35-8065-84f63a930f53","system_id":"levelo_inurba_marseille","lat":43.286039,"lon":5.370679,"is_reserved":false,"is_disabled":false,"rental_uris":{"android":"levelo://app?vid=dc66645c-7ae8-4a35-8065-84f63a930f53","ios":"levelo://app?vid=dc66645c-7ae8-4a35-8065-84f63a930f53"},"vehicle_type_id":"4","last_reported":1686876159,"current_range_meters":16000,"station_id":"ce4bht12rcd13ifvqi60","pricing_plan_id":"free"},{"bike_id":"288d892a-39b3-4992-b25c-51402e8288dd","system_id":"levelo_inurba_marseille","lat":43.287184,"lon":5.37937,"is_reserved":false,"is_disabled":false,"rental_uris":{"android":"levelo://app?vid=288d892a-39b3-4992-b25c-51402e8288dd","ios":"levelo://app?vid=288d892a-39b3-4992-b25c-51402e8288dd"},"vehicle_type_id":"4","last_reported":1686876159,"current_range_meters":18000,"station_id":"ce4bh9p2rcd13ifvqec0","pricing_plan_id":"free"},{"bike_id":"f540193a-09e4-489d-944b-2e71ff92dd2d","system_id":"levelo_inurba_marseille","lat":43.30066,"lon":5.40067,"is_reserved":false,"is_disabled":false,"rental_uris":{"android":"levelo://app?vid=f540193a-09e4-489d-944b-2e71ff92dd2d","ios":"levelo://app?vid=f540193a-09e4-489d-944b-2e71ff92dd2d"},"vehicle_type_id":"4","last_reported":1686876159,"current_range_meters":15200,"station_id":"","pricing_plan_id":"free"},{"bike_id":"98ce8bb1-baeb-492c-b322-d26bf95536fa","system_id":"levelo_inurba_marseille","lat":43.316476,"lon":5.404301,"is_reserved":false,"is_disabled":false,"rental_uris":{"android":"levelo://app?vid=98ce8bb1-baeb-492c-b322-d26bf95536fa","ios":"levelo://app?vid=98ce8bb1-baeb-492c-b322-d26bf95536fa"},"vehicle_type_id":"4","last_reported":1686876159,"current_range_meters":22000,"station_id":"ce4bh012rcd13ifvqd00","pricing_plan_id":"free"},{"bike_id":"4c9ad696-d434-4328-8c48-58146a669ada","system_id":"levelo_inurba_marseille","lat":43.284534,"lon":5.358662,"is_reserved":false,"is_disabled":false,"rental_uris":{"android":"levelo://app?vid=4c9ad696-d434-4328-8c48-58146a669ada","ios":"levelo://app?vid=4c9ad696-d434-4328-8c48-58146a669ada"},"vehicle_type_id":"4","last_reported":1686876159,"current_range_meters":21200,"station_id":"ce4bhah2rcd13ifvqei0","pricing_plan_id":"free"},{"bike_id":"281fac07-77b8-42ae-b7f1-09f398dc856e","system_id":"levelo_inurba_marseille","lat":43.284534,"lon":5.358662,"is_reserved":false,"is_disabled":false,"rental_uris":{"android":"levelo://app?vid=281fac07-77b8-42ae-b7f1-09f398dc856e","ios":"levelo://app?vid=281fac07-77b8-42ae-b7f1-09f398dc856e"},"vehicle_type_id":"4","last_reported":1686876159,"current_range_meters":23600,"station_id":"ce4bhah2rcd13ifvqei0","pricing_plan_id":"free"},{"bike_id":"1d1e2533-7e78-4774-9b80-294df6428278","system_id":"levelo_inurba_marseille","lat":43.284534,"lon":5.358662,"is_reserved":false,"is_disabled":false,"rental_uris":{"android":"levelo://app?vid=1d1e2533-7e78-4774-9b80-294df6428278","ios":"levelo://app?vid=1d1e2533-7e78-4774-9b80-294df6428278"},"vehicle_type_id":"4","last_reported":1686876159,"current_range_meters":18400,"station_id":"ce4bhah2rcd13ifvqei0","pricing_plan_id":"free"},{"bike_id":"a7997a59-4e67-4ed9-a580-c29c79c5080c","system_id":"levelo_inurba_marseille","lat":43.284534,"lon":5.358662,"is_reserved":false,"is_disabled":false,"rental_uris":{"android":"levelo://app?vid=a7997a59-4e67-4ed9-a580-c29c79c5080c","ios":"levelo://app?vid=a7997a59-4e67-4ed9-a580-c29c79c5080c"},"vehicle_type_id":"4","last_reported":1686876159,"current_range_meters":27600,"station_id":"ce4bhah2rcd13ifvqei0","pricing_plan_id":"free"},{"bike_id":"e902f926-22fb-4a55-8d81-7da308d4abf8","system_id":"levelo_inurba_marseille","lat":43.284534,"lon":5.358662,"is_reserved":false,"is_disabled":false,"rental_uris":{"android":"levelo://app?vid=e902f926-22fb-4a55-8d81-7da308d4abf8","ios":"levelo://app?vid=e902f926-22fb-4a55-8d81-7da308d4abf8"},"vehicle_type_id":"4","last_reported":1686876159,"current_range_meters":30000,"station_id":"ce4bhah2rcd13ifvqei0","pricing_plan_id":"free"},{"bike_id":"d98fa9b1-bb56-47fc-99d9-1f827f8b4a0d","system_id":"levelo_inurba_marseille","lat":43.294314,"lon":5.397498,"is_reserved":false,"is_disabled":false,"rental_uris":{"android":"levelo://app?vid=d98fa9b1-bb56-47fc-99d9-1f827f8b4a0d","ios":"levelo://app?vid=d98fa9b1-bb56-47fc-99d9-1f827f8b4a0d"},"vehicle_type_id":"4","last_reported":1686876159,"current_range_meters":19600,"station_id":"ce4bh3h2rcd13ifvqdo0","pricing_plan_id":"free"},{"bike_id":"e7a9009d-9fe3-433b-afae-4efe6eb91899","system_id":"levelo_inurba_marseille","lat":43.294314,"lon":5.397498,"is_reserved":false,"is_disabled":false,"rental_uris":{"android":"levelo://app?vid=e7a9009d-9fe3-433b-afae-4efe6eb91899","ios":"levelo://app?vid=e7a9009d-9fe3-433b-afae-4efe6eb91899"},"vehicle_type_id":"4","last_reported":1686876159,"current_range_meters":11200,"station_id":"ce4bh3h2rcd13ifvqdo0","pricing_plan_id":"free"},{"bike_id":"b2d4806d-f41a-4dd3-b69d-159b71798185","system_id":"levelo_inurba_marseille","lat":43.285848,"lon":5.350787,"is_reserved":false,"is_disabled":false,"rental_uris":{"android":"levelo://app?vid=b2d4806d-f41a-4dd3-b69d-159b71798185","ios":"levelo://app?vid=b2d4806d-f41a-4dd3-b69d-159b71798185"},"vehicle_type_id":"4","last_reported":1686876159,"current_range_meters":21200,"station_id":"ce4bhch2rcd13ifvqeug","pricing_plan_id":"free"},{"bike_id":"68267656-2af2-4a6b-83bf-c3c9a73f1531","system_id":"levelo_inurba_marseille","lat":43.285856,"lon":5.350771,"is_reserved":false,"is_disabled":false,"rental_uris":{"android":"levelo://app?vid=68267656-2af2-4a6b-83bf-c3c9a73f1531","ios":"levelo://app?vid=68267656-2af2-4a6b-83bf-c3c9a73f1531"},"vehicle_type_id":"4","last_reported":1686876159,"current_range_meters":20400,"station_id":"ce4bhch2rcd13ifvqeug","pricing_plan_id":"free"},{"bike_id":"87cc5b16-46e4-4a8f-841d-3c4865b79d57","system_id":"levelo_inurba_marseille","lat":43.295713,"lon":5.399639,"is_reserved":false,"is_disabled":false,"rental_uris":{"android":"levelo://app?vid=87cc5b16-46e4-4a8f-841d-3c4865b79d57","ios":"levelo://app?vid=87cc5b16-46e4-4a8f-841d-3c4865b79d57"},"vehicle_type_id":"4","last_reported":1686876159,"current_range_meters":20800,"station_id":"ce4bh312rcd13ifvqdj0","pricing_plan_id":"free"},{"bike_id":"e4126e3b-3e06-46ec-8057-6e21d19cab26","system_id":"levelo_inurba_marseille","lat":43.29577,"lon":5.39965,"is_reserved":false,"is_disabled":false,"rental_uris":{"android":"levelo://app?vid=e4126e3b-3e06-46ec-8057-6e21d19cab26","ios":"levelo://app?vid=e4126e3b-3e06-46ec-8057-6e21d19cab26"},"vehicle_type_id":"4","last_reported":1686876159,"current_range_meters":2800,"station_id":"ce4bh312rcd13ifvqdj0","pricing_plan_id":"free"},{"bike_id":"494e10e4-d3fc-44ac-a3e8-4d21745542ae","system_id":"levelo_inurba_marseille","lat":43.29574,"lon":5.39969,"is_reserved":false,"is_disabled":false,"rental_uris":{"android":"levelo://app?vid=494e10e4-d3fc-44ac-a3e8-4d21745542ae","ios":"levelo://app?vid=494e10e4-d3fc-44ac-a3e8-4d21745542ae"},"vehicle_type_id":"4","last_reported":1686876159,"current_range_meters":25600,"station_id":"ce4bh312rcd13ifvqdj0","pricing_plan_id":"free"},{"bike_id":"75b957c0-e5c1-4dcc-931a-2ebbfec4ee3f","system_id":"levelo_inurba_marseille","lat":43.29565,"lon":5.39961,"is_reserved":false,"is_disabled":false,"rental_uris":{"android":"levelo://app?vid=75b957c0-e5c1-4dcc-931a-2ebbfec4ee3f","ios":"levelo://app?vid=75b957c0-e5c1-4dcc-931a-2ebbfec4ee3f"},"vehicle_type_id":"4","last_reported":1686876159,"current_range_meters":21200,"station_id":"ce4bh312rcd13ifvqdj0","pricing_plan_id":"free"},{"bike_id":"4715e304-e5f2-48fe-8f56-5ac6b6e2a2a4","system_id":"levelo_inurba_marseille","lat":43.29569,"lon":5.39965,"is_reserved":false,"is_disabled":false,"rental_uris":{"android":"levelo://app?vid=4715e304-e5f2-48fe-8f56-5ac6b6e2a2a4","ios":"levelo://app?vid=4715e304-e5f2-48fe-8f56-5ac6b6e2a2a4"},"vehicle_type_id":"4","last_reported":1686876159,"current_range_meters":11600,"station_id":"ce4bh312rcd13ifvqdj0","pricing_plan_id":"free"},{"bike_id":"0824b79d-8a98-46b7-83cf-c0ed32c107b0","system_id":"levelo_inurba_marseille","lat":43.29567,"lon":5.39975,"is_reserved":false,"is_disabled":false,"rental_uris":{"android":"levelo://app?vid=0824b79d-8a98-46b7-83cf-c0ed32c107b0","ios":"levelo://app?vid=0824b79d-8a98-46b7-83cf-c0ed32c107b0"},"vehicle_type_id":"4","last_reported":1686876159,"current_range_meters":22400,"station_id":"ce4bh312rcd13ifvqdj0","pricing_plan_id":"free"},{"bike_id":"35538741-e53a-48a2-b7cc-bb798c1d34f0","system_id":"levelo_inurba_marseille","lat":43.295713,"lon":5.399639,"is_reserved":false,"is_disabled":false,"rental_uris":{"android":"levelo://app?vid=35538741-e53a-48a2-b7cc-bb798c1d34f0","ios":"levelo://app?vid=35538741-e53a-48a2-b7cc-bb798c1d34f0"},"vehicle_type_id":"4","last_reported":1686876159,"current_range_meters":22800,"station_id":"ce4bh312rcd13ifvqdj0","pricing_plan_id":"free"},{"bike_id":"495359c5-6118-4aff-aa1b-53ecfdc31252","system_id":"levelo_inurba_marseille","lat":43.286595,"lon":5.386795,"is_reserved":false,"is_disabled":false,"rental_uris":{"android":"levelo://app?vid=495359c5-6118-4aff-aa1b-53ecfdc31252","ios":"levelo://app?vid=495359c5-6118-4aff-aa1b-53ecfdc31252"},"vehicle_type_id":"4","last_reported":1686876159,"current_range_meters":31200,"station_id":"ce4bh492rcd13ifvqdug","pricing_plan_id":"free"},{"bike_id":"39f6ae1d-0bf0-4d03-9bfa-2ea3bbbb992c","system_id":"levelo_inurba_marseille","lat":43.323464,"lon":5.406297,"is_reserved":false,"is_disabled":false,"rental_uris":{"android":"levelo://app?vid=39f6ae1d-0bf0-4d03-9bfa-2ea3bbbb992c","ios":"levelo://app?vid=39f6ae1d-0bf0-4d03-9bfa-2ea3bbbb992c"},"vehicle_type_id":"4","last_reported":1686876159,"current_range_meters":31200,"station_id":"ce4bhq92rcd13ifvqhjg","pricing_plan_id":"free"},{"bike_id":"16e5fedd-6e86-436a-a0a2-72c7cd60a6ea","system_id":"levelo_inurba_marseille","lat":43.323464,"lon":5.406297,"is_reserved":false,"is_disabled":false,"rental_uris":{"android":"levelo://app?vid=16e5fedd-6e86-436a-a0a2-72c7cd60a6ea","ios":"levelo://app?vid=16e5fedd-6e86-436a-a0a2-72c7cd60a6ea"},"vehicle_type_id":"4","last_reported":1686876159,"current_range_meters":30400,"station_id":"ce4bhq92rcd13ifvqhjg","pricing_plan_id":"free"},{"bike_id":"07e0ff6d-6d44-4ac4-ae41-b30d37d75d89","system_id":"levelo_inurba_marseille","lat":43.323464,"lon":5.406297,"is_reserved":false,"is_disabled":false,"rental_uris":{"android":"levelo://app?vid=07e0ff6d-6d44-4ac4-ae41-b30d37d75d89","ios":"levelo://app?vid=07e0ff6d-6d44-4ac4-ae41-b30d37d75d89"},"vehicle_type_id":"4","last_reported":1686876159,"current_range_meters":26400,"station_id":"ce4bhq92rcd13ifvqhjg","pricing_plan_id":"free"},{"bike_id":"7795e9ea-7559-4679-8401-39a2bb0fd0b6","system_id":"levelo_inurba_marseille","lat":43.284793,"lon":5.384113,"is_reserved":false,"is_disabled":false,"rental_uris":{"android":"levelo://app?vid=7795e9ea-7559-4679-8401-39a2bb0fd0b6","ios":"levelo://app?vid=7795e9ea-7559-4679-8401-39a2bb0fd0b6"},"vehicle_type_id":"4","last_reported":1686876159,"current_range_meters":20000,"station_id":"ce4bh512rcd13ifvqe3g","pricing_plan_id":"free"},{"bike_id":"00b4d942-d645-4a17-a320-9c02b5ecca68","system_id":"levelo_inurba_marseille","lat":43.288497,"lon":5.393089,"is_reserved":false,"is_disabled":false,"rental_uris":{"android":"levelo://app?vid=00b4d942-d645-4a17-a320-9c02b5ecca68","ios":"levelo://app?vid=00b4d942-d645-4a17-a320-9c02b5ecca68"},"vehicle_type_id":"4","last_reported":1686876159,"current_range_meters":19600,"station_id":"ce4bh2p2rcd13ifvqdi0","pricing_plan_id":"free"},{"bike_id":"79e1642a-20af-447a-95ea-718a181eed41","system_id":"levelo_inurba_marseille","lat":43.288497,"lon":5.393089,"is_reserved":false,"is_disabled":false,"rental_uris":{"android":"levelo://app?vid=79e1642a-20af-447a-95ea-718a181eed41","ios":"levelo://app?vid=79e1642a-20af-447a-95ea-718a181eed41"},"vehicle_type_id":"4","last_reported":1686876159,"current_range_meters":24400,"station_id":"ce4bh2p2rcd13ifvqdi0","pricing_plan_id":"free"},{"bike_id":"7cb13420-4367-4e6a-8f43-3b6e6355bab3","system_id":"levelo_inurba_marseille","lat":43.288497,"lon":5.393089,"is_reserved":false,"is_disabled":false,"rental_uris":{"android":"levelo://app?vid=7cb13420-4367-4e6a-8f43-3b6e6355bab3","ios":"levelo://app?vid=7cb13420-4367-4e6a-8f43-3b6e6355bab3"},"vehicle_type_id":"4","last_reported":1686876159,"current_range_meters":26800,"station_id":"ce4bh2p2rcd13ifvqdi0","pricing_plan_id":"free"},{"bike_id":"2fff7539-5f03-45b3-a82c-810ecf5f4fb1","system_id":"levelo_inurba_marseille","lat":43.288497,"lon":5.393089,"is_reserved":false,"is_disabled":false,"rental_uris":{"android":"levelo://app?vid=2fff7539-5f03-45b3-a82c-810ecf5f4fb1","ios":"levelo://app?vid=2fff7539-5f03-45b3-a82c-810ecf5f4fb1"},"vehicle_type_id":"4","last_reported":1686876159,"current_range_meters":15200,"station_id":"ce4bh2p2rcd13ifvqdi0","pricing_plan_id":"free"},{"bike_id":"3ce48866-e4ef-4775-ae02-38f87dacbc46","system_id":"levelo_inurba_marseille","lat":43.283494,"lon":5.380945,"is_reserved":false,"is_disabled":false,"rental_uris":{"android":"levelo://app?vid=3ce48866-e4ef-4775-ae02-38f87dacbc46","ios":"levelo://app?vid=3ce48866-e4ef-4775-ae02-38f87dacbc46"},"vehicle_type_id":"4","last_reported":1686876159,"current_range_meters":18000,"station_id":"ce4bh412rcd13ifvqdr0","pricing_plan_id":"free"},{"bike_id":"badfb8e9-7680-48e3-b36a-628476a7f62a","system_id":"levelo_inurba_marseille","lat":43.283494,"lon":5.380945,"is_reserved":false,"is_disabled":false,"rental_uris":{"android":"levelo://app?vid=badfb8e9-7680-48e3-b36a-628476a7f62a","ios":"levelo://app?vid=badfb8e9-7680-48e3-b36a-628476a7f62a"},"vehicle_type_id":"4","last_reported":1686876159,"current_range_meters":18000,"station_id":"ce4bh412rcd13ifvqdr0","pricing_plan_id":"free"},{"bike_id":"9b9db7c9-6c68-44c0-b3b4-922d570abf41","system_id":"levelo_inurba_marseille","lat":43.283494,"lon":5.380945,"is_reserved":false,"is_disabled":false,"rental_uris":{"android":"levelo://app?vid=9b9db7c9-6c68-44c0-b3b4-922d570abf41","ios":"levelo://app?vid=9b9db7c9-6c68-44c0-b3b4-922d570abf41"},"vehicle_type_id":"4","last_reported":1686876159,"current_range_meters":17600,"station_id":"ce4bh412rcd13ifvqdr0","pricing_plan_id":"free"},{"bike_id":"efda9132-d415-4570-b4b5-c690d7b08401","system_id":"levelo_inurba_marseille","lat":43.283494,"lon":5.380945,"is_reserved":false,"is_disabled":false,"rental_uris":{"android":"levelo://app?vid=efda9132-d415-4570-b4b5-c690d7b08401","ios":"levelo://app?vid=efda9132-d415-4570-b4b5-c690d7b08401"},"vehicle_type_id":"4","last_reported":1686876159,"current_range_meters":31200,"station_id":"ce4bh412rcd13ifvqdr0","pricing_plan_id":"free"},{"bike_id":"47eba72d-7908-4563-95af-9fb3a658415c","system_id":"levelo_inurba_marseille","lat":43.28351,"lon":5.38106,"is_reserved":false,"is_disabled":false,"rental_uris":{"android":"levelo://app?vid=47eba72d-7908-4563-95af-9fb3a658415c","ios":"levelo://app?vid=47eba72d-7908-4563-95af-9fb3a658415c"},"vehicle_type_id":"4","last_reported":1686876159,"current_range_meters":25200,"station_id":"ce4bh412rcd13ifvqdr0","pricing_plan_id":"free"},{"bike_id":"8d259ba8-5fe4-4144-b59d-b4d7c110ac6a","system_id":"levelo_inurba_marseille","lat":43.283498,"lon":5.380948,"is_reserved":false,"is_disabled":false,"rental_uris":{"android":"levelo://app?vid=8d259ba8-5fe4-4144-b59d-b4d7c110ac6a","ios":"levelo://app?vid=8d259ba8-5fe4-4144-b59d-b4d7c110ac6a"},"vehicle_type_id":"4","last_reported":1686876159,"current_range_meters":21200,"station_id":"ce4bh412rcd13ifvqdr0","pricing_plan_id":"free"},{"bike_id":"f690bed8-6d5b-4c87-892b-be321282541f","system_id":"levelo_inurba_marseille","lat":43.283498,"lon":5.380948,"is_reserved":false,"is_disabled":false,"rental_uris":{"android":"levelo://app?vid=f690bed8-6d5b-4c87-892b-be321282541f","ios":"levelo://app?vid=f690bed8-6d5b-4c87-892b-be321282541f"},"vehicle_type_id":"4","last_reported":1686876159,"current_range_meters":24400,"station_id":"ce4bh412rcd13ifvqdr0","pricing_plan_id":"free"},{"bike_id":"13b623ff-f8cd-4b2e-a79d-1be928d078b6","system_id":"levelo_inurba_marseille","lat":43.283498,"lon":5.380948,"is_reserved":false,"is_disabled":false,"rental_uris":{"android":"levelo://app?vid=13b623ff-f8cd-4b2e-a79d-1be928d078b6","ios":"levelo://app?vid=13b623ff-f8cd-4b2e-a79d-1be928d078b6"},"vehicle_type_id":"4","last_reported":1686876159,"current_range_meters":16400,"station_id":"ce4bh412rcd13ifvqdr0","pricing_plan_id":"free"},{"bike_id":"85097d8e-42c8-4490-b10d-8f06b76e6a0a","system_id":"levelo_inurba_marseille","lat":43.284219,"lon":5.3497,"is_reserved":false,"is_disabled":false,"rental_uris":{"android":"levelo://app?vid=85097d8e-42c8-4490-b10d-8f06b76e6a0a","ios":"levelo://app?vid=85097d8e-42c8-4490-b10d-8f06b76e6a0a"},"vehicle_type_id":"4","last_reported":1686876159,"current_range_meters":21200,"station_id":"ce4bhbh2rcd13ifvqepg","pricing_plan_id":"free"},{"bike_id":"f1bd3b93-8bcd-4c5a-a16a-f8bb97c55297","system_id":"levelo_inurba_marseille","lat":43.289363,"lon":5.396322,"is_reserved":false,"is_disabled":false,"rental_uris":{"android":"levelo://app?vid=f1bd3b93-8bcd-4c5a-a16a-f8bb97c55297","ios":"levelo://app?vid=f1bd3b93-8bcd-4c5a-a16a-f8bb97c55297"},"vehicle_type_id":"4","last_reported":1686876159,"current_range_meters":17600,"station_id":"ce4bh3h2rcd13ifvqdn0","pricing_plan_id":"free"},{"bike_id":"a20397d1-e067-4d41-82d4-c87dde52f0b0","system_id":"levelo_inurba_marseille","lat":43.289363,"lon":5.396322,"is_reserved":false,"is_disabled":false,"rental_uris":{"android":"levelo://app?vid=a20397d1-e067-4d41-82d4-c87dde52f0b0","ios":"levelo://app?vid=a20397d1-e067-4d41-82d4-c87dde52f0b0"},"vehicle_type_id":"4","last_reported":1686876159,"current_range_meters":20800,"station_id":"ce4bh3h2rcd13ifvqdn0","pricing_plan_id":"free"},{"bike_id":"dbae046a-c387-40a4-ad82-a2e3ed97edd2","system_id":"levelo_inurba_marseille","lat":43.289363,"lon":5.396322,"is_reserved":false,"is_disabled":false,"rental_uris":{"android":"levelo://app?vid=dbae046a-c387-40a4-ad82-a2e3ed97edd2","ios":"levelo://app?vid=dbae046a-c387-40a4-ad82-a2e3ed97edd2"},"vehicle_type_id":"4","last_reported":1686876159,"current_range_meters":14800,"station_id":"ce4bh3h2rcd13ifvqdn0","pricing_plan_id":"free"},{"bike_id":"a078083c-b406-4edf-986a-a62f7aa4c4dd","system_id":"levelo_inurba_marseille","lat":43.289363,"lon":5.396322,"is_reserved":false,"is_disabled":false,"rental_uris":{"android":"levelo://app?vid=a078083c-b406-4edf-986a-a62f7aa4c4dd","ios":"levelo://app?vid=a078083c-b406-4edf-986a-a62f7aa4c4dd"},"vehicle_type_id":"4","last_reported":1686876159,"current_range_meters":0,"station_id":"ce4bh3h2rcd13ifvqdn0","pricing_plan_id":"free"},{"bike_id":"fb399e72-7206-4a9c-b40a-18dfc213f73f","system_id":"levelo_inurba_marseille","lat":43.287154,"lon":5.399979,"is_reserved":false,"is_disabled":false,"rental_uris":{"android":"levelo://app?vid=fb399e72-7206-4a9c-b40a-18dfc213f73f","ios":"levelo://app?vid=fb399e72-7206-4a9c-b40a-18dfc213f73f"},"vehicle_type_id":"4","last_reported":1686876159,"current_range_meters":4400,"station_id":"ce4bho92rcd13ifvqh3g","pricing_plan_id":"free"},{"bike_id":"a79c32db-fdab-4368-990c-1cc9dc4e4b21","system_id":"levelo_inurba_marseille","lat":43.292724,"lon":5.401131,"is_reserved":false,"is_disabled":false,"rental_uris":{"android":"levelo://app?vid=a79c32db-fdab-4368-990c-1cc9dc4e4b21","ios":"levelo://app?vid=a79c32db-fdab-4368-990c-1cc9dc4e4b21"},"vehicle_type_id":"4","last_reported":1686876159,"current_range_meters":28400,"station_id":"ce4bh312rcd13ifvqdk0","pricing_plan_id":"free"},{"bike_id":"a3acc1be-cf95-4229-960f-71f8f95980cb","system_id":"levelo_inurba_marseille","lat":43.280382,"lon":5.369291,"is_reserved":false,"is_disabled":false,"rental_uris":{"android":"levelo://app?vid=a3acc1be-cf95-4229-960f-71f8f95980cb","ios":"levelo://app?vid=a3acc1be-cf95-4229-960f-71f8f95980cb"},"vehicle_type_id":"4","last_reported":1686876159,"current_range_meters":3600,"station_id":"ce4bha12rcd13ifvqef0","pricing_plan_id":"free"},{"bike_id":"823233c9-cbab-4bf4-bbd3-6db59331fa23","system_id":"levelo_inurba_marseille","lat":43.28265,"lon":5.35073,"is_reserved":false,"is_disabled":false,"rental_uris":{"android":"levelo://app?vid=823233c9-cbab-4bf4-bbd3-6db59331fa23","ios":"levelo://app?vid=823233c9-cbab-4bf4-bbd3-6db59331fa23"},"vehicle_type_id":"4","last_reported":1686876159,"current_range_meters":0,"station_id":"ce4bhbp2rcd13ifvqerg","pricing_plan_id":"free"},{"bike_id":"0b384d19-d06b-4034-a9ce-16c9902f1dd6","system_id":"levelo_inurba_marseille","lat":43.28039,"lon":5.369297,"is_reserved":false,"is_disabled":false,"rental_uris":{"android":"levelo://app?vid=0b384d19-d06b-4034-a9ce-16c9902f1dd6","ios":"levelo://app?vid=0b384d19-d06b-4034-a9ce-16c9902f1dd6"},"vehicle_type_id":"4","last_reported":1686876159,"current_range_meters":18000,"station_id":"ce4bha12rcd13ifvqef0","pricing_plan_id":"free"},{"bike_id":"5bc543d5-dbbc-4856-9191-4beb587dc8ad","system_id":"levelo_inurba_marseille","lat":43.28039,"lon":5.369297,"is_reserved":false,"is_disabled":false,"rental_uris":{"android":"levelo://app?vid=5bc543d5-dbbc-4856-9191-4beb587dc8ad","ios":"levelo://app?vid=5bc543d5-dbbc-4856-9191-4beb587dc8ad"},"vehicle_type_id":"4","last_reported":1686876159,"current_range_meters":31200,"station_id":"ce4bha12rcd13ifvqef0","pricing_plan_id":"free"},{"bike_id":"44c161f6-53c0-4296-b0d3-82cfeb0d383c","system_id":"levelo_inurba_marseille","lat":43.280382,"lon":5.369291,"is_reserved":false,"is_disabled":false,"rental_uris":{"android":"levelo://app?vid=44c161f6-53c0-4296-b0d3-82cfeb0d383c","ios":"levelo://app?vid=44c161f6-53c0-4296-b0d3-82cfeb0d383c"},"vehicle_type_id":"4","last_reported":1686876159,"current_range_meters":15200,"station_id":"ce4bha12rcd13ifvqef0","pricing_plan_id":"free"},{"bike_id":"32ee5626-8ded-447d-8e93-bd71e2fbd0e5","system_id":"levelo_inurba_marseille","lat":43.280382,"lon":5.369291,"is_reserved":false,"is_disabled":false,"rental_uris":{"android":"levelo://app?vid=32ee5626-8ded-447d-8e93-bd71e2fbd0e5","ios":"levelo://app?vid=32ee5626-8ded-447d-8e93-bd71e2fbd0e5"},"vehicle_type_id":"4","last_reported":1686876159,"current_range_meters":23200,"station_id":"ce4bha12rcd13ifvqef0","pricing_plan_id":"free"},{"bike_id":"305c4004-de1a-4a88-9ca0-eb149158cb01","system_id":"levelo_inurba_marseille","lat":43.2905,"lon":5.39944,"is_reserved":false,"is_disabled":false,"rental_uris":{"android":"levelo://app?vid=305c4004-de1a-4a88-9ca0-eb149158cb01","ios":"levelo://app?vid=305c4004-de1a-4a88-9ca0-eb149158cb01"},"vehicle_type_id":"4","last_reported":1686876159,"current_range_meters":10000,"station_id":"ce4bh392rcd13ifvqdm0","pricing_plan_id":"free"},{"bike_id":"8c48e428-3af3-4cfd-971e-8d4efeb347fc","system_id":"levelo_inurba_marseille","lat":43.290412,"lon":5.399633,"is_reserved":false,"is_disabled":false,"rental_uris":{"android":"levelo://app?vid=8c48e428-3af3-4cfd-971e-8d4efeb347fc","ios":"levelo://app?vid=8c48e428-3af3-4cfd-971e-8d4efeb347fc"},"vehicle_type_id":"4","last_reported":1686876159,"current_range_meters":19200,"station_id":"ce4bh392rcd13ifvqdm0","pricing_plan_id":"free"},{"bike_id":"be824bc5-10ad-4ae3-ac35-405df02cae14","system_id":"levelo_inurba_marseille","lat":43.29041,"lon":5.399634,"is_reserved":false,"is_disabled":false,"rental_uris":{"android":"levelo://app?vid=be824bc5-10ad-4ae3-ac35-405df02cae14","ios":"levelo://app?vid=be824bc5-10ad-4ae3-ac35-405df02cae14"},"vehicle_type_id":"4","last_reported":1686876159,"current_range_meters":29200,"station_id":"ce4bh392rcd13ifvqdm0","pricing_plan_id":"free"},{"bike_id":"588bec76-897a-433a-a688-f34d011b71ac","system_id":"levelo_inurba_marseille","lat":43.29041,"lon":5.399634,"is_reserved":false,"is_disabled":false,"rental_uris":{"android":"levelo://app?vid=588bec76-897a-433a-a688-f34d011b71ac","ios":"levelo://app?vid=588bec76-897a-433a-a688-f34d011b71ac"},"vehicle_type_id":"4","last_reported":1686876159,"current_range_meters":22000,"station_id":"ce4bh392rcd13ifvqdm0","pricing_plan_id":"free"},{"bike_id":"d22173a7-32ec-48e1-9c0d-ad1730377144","system_id":"levelo_inurba_marseille","lat":43.281044,"lon":5.378308,"is_reserved":false,"is_disabled":false,"rental_uris":{"android":"levelo://app?vid=d22173a7-32ec-48e1-9c0d-ad1730377144","ios":"levelo://app?vid=d22173a7-32ec-48e1-9c0d-ad1730377144"},"vehicle_type_id":"4","last_reported":1686876159,"current_range_meters":19200,"station_id":"ce4bha12rcd13ifvqee0","pricing_plan_id":"free"},{"bike_id":"4c237c16-1d12-4041-892a-571d6fb6aed5","system_id":"levelo_inurba_marseille","lat":43.281044,"lon":5.378308,"is_reserved":false,"is_disabled":false,"rental_uris":{"android":"levelo://app?vid=4c237c16-1d12-4041-892a-571d6fb6aed5","ios":"levelo://app?vid=4c237c16-1d12-4041-892a-571d6fb6aed5"},"vehicle_type_id":"4","last_reported":1686876159,"current_range_meters":31200,"station_id":"ce4bha12rcd13ifvqee0","pricing_plan_id":"free"},{"bike_id":"aa81995d-6081-4a66-a6ec-75ba2ee3f6b8","system_id":"levelo_inurba_marseille","lat":43.281044,"lon":5.378308,"is_reserved":false,"is_disabled":false,"rental_uris":{"android":"levelo://app?vid=aa81995d-6081-4a66-a6ec-75ba2ee3f6b8","ios":"levelo://app?vid=aa81995d-6081-4a66-a6ec-75ba2ee3f6b8"},"vehicle_type_id":"4","last_reported":1686876159,"current_range_meters":31200,"station_id":"ce4bha12rcd13ifvqee0","pricing_plan_id":"free"},{"bike_id":"4eeae6e3-ca65-469d-849c-96ca8d0208fc","system_id":"levelo_inurba_marseille","lat":43.281044,"lon":5.378308,"is_reserved":false,"is_disabled":false,"rental_uris":{"android":"levelo://app?vid=4eeae6e3-ca65-469d-849c-96ca8d0208fc","ios":"levelo://app?vid=4eeae6e3-ca65-469d-849c-96ca8d0208fc"},"vehicle_type_id":"4","last_reported":1686876159,"current_range_meters":1600,"station_id":"ce4bha12rcd13ifvqee0","pricing_plan_id":"free"},{"bike_id":"74a8bca5-5841-4263-91fe-dcc7d8903341","system_id":"levelo_inurba_marseille","lat":43.281044,"lon":5.378308,"is_reserved":false,"is_disabled":false,"rental_uris":{"android":"levelo://app?vid=74a8bca5-5841-4263-91fe-dcc7d8903341","ios":"levelo://app?vid=74a8bca5-5841-4263-91fe-dcc7d8903341"},"vehicle_type_id":"4","last_reported":1686876159,"current_range_meters":31200,"station_id":"ce4bha12rcd13ifvqee0","pricing_plan_id":"free"},