{"last_updated":1753636185,"ttl":60,"version":"2.2","data":{"bikes":[{"bike_id":"4aa4d7de-c8b5-4abb-a2aa-bb2d27b01902","system_id":"levelo_inurba_marseille","lat":43.30949,"lon":5.39037,"is_reserved":false,"is_disabled":false,"rental_uris":{"android":"levelo://app?vid=4aa4d7de-c8b5-4abb-a2aa-bb2d27b01902","ios":"levelo://app?vid=4aa4d7de-c8b5-4abb-a2aa-bb2d27b01902"},"vehicle_type_id":"4","last_reported":1753636186,"current_range_meters":2800,"station_id":"ce4bgup2rcd13ifvqco0","pricing_plan_id":"cebpf4jnsgd1na2vs0mg"},{"bike_id":"01d4cb87-03a4-4165-91e9-3333a2aa4d12","system_id":"levelo_inurba_marseille","lat":43.27906,"lon":5.37997,"is_reserved":false,"is_disabled":false,"rental_uris":{"android":"levelo://app?vid=01d4cb87-03a4-4165-91e9-3333a2aa4d12","ios":"levelo://app?vid=01d4cb87-03a4-4165-91e9-3333a2aa4d12"},"vehicle_type_id":"4","last_reported":1753636186,"current_range_meters":2800,"station_id":"ce4bhf92rcd13ifvqf50","pricing_plan_id":"cebpf4jnsgd1na2vs0mg"},{"bike_id":"14b1118b-dba5-4840-9924-7a7824da8508","system_id":"levelo_inurba_marseille","lat":43.26202,"lon":5.3742,"is_reserved":false,"is_disabled":false,"rental_uris":{"android":"levelo://app?vid=14b1118b-dba5-4840-9924-7a7824da8508","ios":"levelo://app?vid=14b1118b-dba5-4840-9924-7a7824da8508"},"vehicle_type_id":"4","last_reported":1753636186,"current_range_meters":2800,"station_id":"ce4bhgp2rcd13ifvqfc0","pricing_plan_id":"cebpf4jnsgd1na2vs0mg"},{"bike_id":"b3c907f9-11d3-4e3b-9a07-0661179c7f7f","system_id":"levelo_inurba_marseille","lat":43.29262,"lon":5.38436,"is_reserved":false,"is_disabled":false,"rental_uris":{"android":"levelo://app?vid=b3c907f9-11d3-4e3b-9a07-0661179c7f7f","ios":"levelo://app?vid=b3c907f9-11d3-4e3b-9a07-0661179c7f7f"},"vehicle_type_id":"4","last_reported":1753636186,"current_range_meters":2800,"station_id":"ce4bh692rcd13ifvqea0","pricing_plan_id":"cebpf4jnsgd1na2vs0mg"},{"bike_id":"ad0da038-db2b-460d-90c7-d1751f2a60b2","system_id":"levelo_inurba_marseille","lat":43.288538,"lon":5.393057,"is_reserved":false,"is_disabled":false,"rental_uris":{"android":"levelo://app?vid=ad0da038-db2b-460d-90c7-d1751f2a60b2","ios":"levelo://app?vid=ad0da038-db2b-460d-90c7-d1751f2a60b2"},"vehicle_type_id":"4","last_reported":1753636186,"current_range_meters":3200,"station_id":"ce4bh2p2rcd13ifvqdi0","pricing_plan_id":"cebpf4jnsgd1na2vs0mg"},{"bike_id":"1fc4cd63-e6b9-497e-8c4a-4aff51ff862d","system_id":"levelo_inurba_marseille","lat":43.2835,"lon":5.3809,"is_reserved":false,"is_disabled":false,"rental_uris":{"android":"levelo://app?vid=1fc4cd63-e6b9-497e-8c4a-4aff51ff862d","ios":"levelo://app?vid=1fc4cd63-e6b9-497e-8c4a-4aff51ff862d"},"vehicle_type_id":"4","last_reported":1753636186,"current_range_meters":3200,"station_id":"ce4bh412rcd13ifvqdr0","pricing_plan_id":"cebpf4jnsgd1na2vs0mg"},{"bike_id":"acb9f650-a83f-454e-b5e0-d276930bac46","system_id":"levelo_inurba_marseille","lat":43.28266,"lon":5.35057,"is_reserved":false,"is_disabled":false,"rental_uris":{"android":"levelo://app?vid=acb9f650-a83f-454e-b5e0-d276930bac46","ios":"levelo://app?vid=acb9f650-a83f-454e-b5e0-d276930bac46"},"vehicle_type_id":"4","last_reported":1753636186,"current_range_meters":3200,"station_id":"ce4bhbp2rcd13ifvqerg","pricing_plan_id":"cebpf4jnsgd1na2vs0mg"},{"bike_id":"17b6e3fd-40c4-4b9e-a131-8fc0bc64644b","system_id":"levelo_inurba_marseille","lat":43.30641,"lon":5.40078,"is_reserved":false,"is_disabled":false,"rental_uris":{"android":"levelo://app?vid=17b6e3fd-40c4-4b9e-a131-8fc0bc64644b","ios":"levelo://app?vid=17b6e3fd-40c4-4b9e-a131-8fc0bc64644b"},"vehicle_type_id":"4","last_reported":1753636186,"current_range_meters":3600,"station_id":"ce4bh112rcd13ifvqda0","pricing_plan_id":"cebpf4jnsgd1na2vs0mg"},{"bike_id":"bcb19cdb-8ebb-4476-8ea3-4f0c3616216b","system_id":"levelo_inurba_marseille","lat":43.288544,"lon":5.358613,"is_reserved":false,"is_disabled":false,"rental_uris":{"android":"levelo://app?vid=bcb19cdb-8ebb-4476-8ea3-4f0c3616216b","ios":"levelo://app?vid=bcb19cdb-8ebb-4476-8ea3-4f0c3616216b"},"vehicle_type_id":"4","last_reported":1753636186,"current_range_meters":3600,"station_id":"ce4bhb12rcd13ifvqem0","pricing_plan_id":"cebpf4jnsgd1na2vs0mg"},{"bike_id":"078febbd-6d49-4abf-8b46-d33f87f8da46","system_id":"levelo_inurba_marseille","lat":43.25452,"lon":5.38007,"is_reserved":false,"is_disabled":true,"rental_uris":{"android":"levelo://app?vid=078febbd-6d49-4abf-8b46-d33f87f8da46","ios":"levelo://app?vid=078febbd-6d49-4abf-8b46-d33f87f8da46"},"vehicle_type_id":"4","last_reported":1753636186,"current_range_meters":3600,"station_id":"","pricing_plan_id":"cebpf4jnsgd1na2vs0mg"},{"bike_id":"f4098b00-b854-4706-8afd-d77a6326669b","system_id":"levelo_inurba_marseille","lat":43.2603,"lon":5.37549,"is_reserved":false,"is_disabled":false,"rental_uris":{"android":"levelo://app?vid=f4098b00-b854-4706-8afd-d77a6326669b","ios":"levelo://app?vid=f4098b00-b854-4706-8afd-d77a6326669b"},"vehicle_type_id":"4","last_reported":1753636186,"current_range_meters":3600,"station_id":"ce4bhgh2rcd13ifvqfa0","pricing_plan_id":"cebpf4jnsgd1na2vs0mg"},{"bike_id":"db4a7a0c-b973-4744-9b66-dee1f8aec0c7","system_id":"levelo_inurba_marseille","lat":43.27205,"lon":5.39166,"is_reserved":false,"is_disabled":false,"rental_uris":{"android":"levelo://app?vid=db4a7a0c-b973-4744-9b66-dee1f8aec0c7","ios":"levelo://app?vid=db4a7a0c-b973-4744-9b66-dee1f8aec0c7"},"vehicle_type_id":"4","last_reported":1753636186,"current_range_meters":3600,"station_id":"ce4bhhp2rcd13ifvqfm0","pricing_plan_id":"cebpf4jnsgd1na2vs0mg"},{"bike_id":"f123af25-f5e1-4535-bf9a-e453fb7322cc","system_id":"levelo_inurba_marseille","lat":43.2756,"lon":5.40891,"is_reserved":false,"is_disabled":true,"rental_uris":{"android":"levelo://app?vid=f123af25-f5e1-4535-bf9a-e453fb7322cc","ios":"levelo://app?vid=f123af25-f5e1-4535-bf9a-e453fb7322cc"},"vehicle_type_id":"4","last_reported":1753636186,"current_range_meters":4000,"station_id":"","pricing_plan_id":"cebpf4jnsgd1na2vs0mg"},{"bike_id":"ddec43c2-b326-475a-8796-95d991acb9c6","system_id":"levelo_inurba_marseille","lat":43.30884,"lon":5.3965,"is_reserved":false,"is_disabled":false,"rental_uris":{"android":"levelo://app?vid=ddec43c2-b326-475a-8796-95d991acb9c6","ios":"levelo://app?vid=ddec43c2-b326-475a-8796-95d991acb9c6"},"vehicle_type_id":"4","last_reported":1753636186,"current_range_meters":4000,"station_id":"ce4bh012rcd13ifvqcv0","pricing_plan_id":"cebpf4jnsgd1na2vs0mg"},{"bike_id":"a947d761-8cbf-4af2-8c29-177c9cc242bd","system_id":"levelo_inurba_marseille","lat":43.29029,"lon":5.38646,"is_reserved":false,"is_disabled":false,"rental_uris":{"android":"levelo://app?vid=a947d761-8cbf-4af2-8c29-177c9cc242bd","ios":"levelo://app?vid=a947d761-8cbf-4af2-8c29-177c9cc242bd"},"vehicle_type_id":"4","last_reported":1753636186,"current_range_meters":3600,"station_id":"ce4bh4p2rcd13ifvqe0g","pricing_plan_id":"cebpf4jnsgd1na2vs0mg"},{"bike_id":"5072b951-e871-4f79-b2dd-b332441d14a9","system_id":"levelo_inurba_marseille","lat":43.31163,"lon":5.3871,"is_reserved":false,"is_disabled":false,"rental_uris":{"android":"levelo://app?vid=5072b951-e871-4f79-b2dd-b332441d14a9","ios":"levelo://app?vid=5072b951-e871-4f79-b2dd-b332441d14a9"},"vehicle_type_id":"4","last_reported":1753636186,"current_range_meters":3600,"station_id":"ce4bgv12rcd13ifvqcp0","pricing_plan_id":"cebpf4jnsgd1na2vs0mg"},{"bike_id":"4f2965e8-fc7e-4b32-9b61-c485a7f65833","system_id":"levelo_inurba_marseille","lat":43.28077,"lon":5.3966,"is_reserved":false,"is_disabled":false,"rental_uris":{"android":"levelo://app?vid=4f2965e8-fc7e-4b32-9b61-c485a7f65833","ios":"levelo://app?vid=4f2965e8-fc7e-4b32-9b61-c485a7f65833"},"vehicle_type_id":"4","last_reported":1753636186,"current_range_meters":4000,"station_id":"ce4bho12rcd13ifvqh2g","pricing_plan_id":"cebpf4jnsgd1na2vs0mg"},{"bike_id":"7034d87e-ff4b-473f-9240-13fec7d24f0a","system_id":"levelo_inurba_marseille","lat":43.2927,"lon":5.40888,"is_reserved":false,"is_disabled":false,"rental_uris":{"android":"levelo://app?vid=7034d87e-ff4b-473f-9240-13fec7d24f0a","ios":"levelo://app?vid=7034d87e-ff4b-473f-9240-13fec7d24f0a"},"vehicle_type_id":"4","last_reported":1753636186,"current_range_meters":4400,"station_id":"ce4bh192rcd13ifvqdc0","pricing_plan_id":"cebpf4jnsgd1na2vs0mg"},{"bike_id":"fd567713-bb67-41d2-a2a1-b6ec6f6f0efe","system_id":"levelo_inurba_marseille","lat":43.30957,"lon":5.39011,"is_reserved":false,"is_disabled":false,"rental_uris":{"android":"levelo://app?vid=fd567713-bb67-41d2-a2a1-b6ec6f6f0efe","ios":"levelo://app?vid=fd567713-bb67-41d2-a2a1-b6ec6f6f0efe"},"vehicle_type_id":"4","last_reported":1753636186,"current_range_meters":4400,"station_id":"ce4bgup2rcd13ifvqco0","pricing_plan_id":"cebpf4jnsgd1na2vs0mg"},{"bike_id":"acdc15f3-f881-4795-bd43-7b1b297ebaa4","system_id":"levelo_inurba_marseille","lat":43.27094,"lon":5.42237,"is_reserved":false,"is_disabled":true,"rental_uris":{"android":"levelo://app?vid=acdc15f3-f881-4795-bd43-7b1b297ebaa4","ios":"levelo://app?vid=acdc15f3-f881-4795-bd43-7b1b297ebaa4"},"vehicle_type_id":"4","last_reported":1753636186,"current_range_meters":4400,"station_id":"ce4bhk92rcd13ifvqgb0","pricing_plan_id":"cebpf4jnsgd1na2vs0mg"},{"bike_id":"b7ed9571-0d35-4df5-9ba8-fcfa0cd8d52b","system_id":"levelo_inurba_marseille","lat":43.32639,"lon":5.37849,"is_reserved":false,"is_disabled":false,"rental_uris":{"android":"levelo://app?vid=b7ed9571-0d35-4df5-9ba8-fcfa0cd8d52b","ios":"levelo://app?vid=b7ed9571-0d35-4df5-9ba8-fcfa0cd8d52b"},"vehicle_type_id":"4","last_reported":1753636186,"current_range_meters":4400,"station_id":"","pricing_plan_id":"cebpf4jnsgd1na2vs0mg"},{"bike_id":"7caf143b-51c0-4fbb-8c74-69d0e833e23a","system_id":"levelo_inurba_marseille","lat":43.29277,"lon":5.36847,"is_reserved":false,"is_disabled":false,"rental_uris":{"android":"levelo://app?vid=7caf143b-51c0-4fbb-8c74-69d0e833e23a","ios":"levelo://app?vid=7caf143b-51c0-4fbb-8c74-69d0e833e23a"},"vehicle_type_id":"4","last_reported":1753636186,"current_range_meters":4400,"station_id":"ce4bhbp2rcd13ifvqesg","pricing_plan_id":"cebpf4jnsgd1na2vs0mg"},{"bike_id":"0ef0c759-1ec2-4c4c-b8f3-3f70170ffc5b","system_id":"levelo_inurba_marseille","lat":43.27667,"lon":5.38873,"is_reserved":false,"is_disabled":false,"rental_uris":{"android":"levelo://app?vid=0ef0c759-1ec2-4c4c-b8f3-3f70170ffc5b","ios":"levelo://app?vid=0ef0c759-1ec2-4c4c-b8f3-3f70170ffc5b"},"vehicle_type_id":"4","last_reported":1753636186,"current_range_meters":4800,"station_id":"ce4bhi12rcd13ifvqfo0","pricing_plan_id":"cebpf4jnsgd1na2vs0mg"},{"bike_id":"01a8e307-f9de-4eb5-a307-55559ca42c36","system_id":"levelo_inurba_marseille","lat":43.22435,"lon":5.34875,"is_reserved":false,"is_disabled":false,"rental_uris":{"android":"levelo://app?vid=01a8e307-f9de-4eb5-a307-55559ca42c36","ios":"levelo://app?vid=01a8e307-f9de-4eb5-a307-55559ca42c36"},"vehicle_type_id":"4","last_reported":1753636186,"current_range_meters":4800,"station_id":"","pricing_plan_id":"cebpf4jnsgd1na2vs0mg"},{"bike_id":"8414c65a-e2b6-4cab-b8f8-536a15b6717a","system_id":"levelo_inurba_marseille","lat":43.2763,"lon":5.36076,"is_reserved":false,"is_disabled":true,"rental_uris":{"android":"levelo://app?vid=8414c65a-e2b6-4cab-b8f8-536a15b6717a","ios":"levelo://app?vid=8414c65a-e2b6-4cab-b8f8-536a15b6717a"},"vehicle_type_id":"4","last_reported":1753636186,"current_range_meters":5600,"station_id":"ce4bgj92rcd13ifvqbe0","pricing_plan_id":"cebpf4jnsgd1na2vs0mg"},{"bike_id":"83a67c65-7f9b-4a81-a80c-c007cd448d24","system_id":"levelo_inurba_marseille","lat":43.292531,"lon":5.384314,"is_reserved":false,"is_disabled":false,"rental_uris":{"android":"levelo://app?vid=83a67c65-7f9b-4a81-a80c-c007cd448d24","ios":"levelo://app?vid=83a67c65-7f9b-4a81-a80c-c007cd448d24"},"vehicle_type_id":"4","last_reported":1753636186,"current_range_meters":5600,"station_id":"","pricing_plan_id":"cebpf4jnsgd1na2vs0mg"},{"bike_id":"d486700e-e027-47e1-8c1e-2c2cd78658f2","system_id":"levelo_inurba_marseille","lat":43.29265,"lon":5.40896,"is_reserved":false,"is_disabled":false,"rental_uris":{"android":"levelo://app?vid=d486700e-e027-47e1-8c1e-2c2cd78658f2","ios":"levelo://app?vid=d486700e-e027-47e1-8c1e-2c2cd78658f2"},"vehicle_type_id":"4","last_reported":1753636186,"current_range_meters":4800,"station_id":"ce4bh192rcd13ifvqdc0","pricing_plan_id":"cebpf4jnsgd1na2vs0mg"},{"bike_id":"45869598-e0dc-4c63-9a96-28a10004efd1","system_id":"levelo_inurba_marseille","lat":43.22504,"lon":5.34773,"is_reserved":false,"is_disabled":false,"rental_uris":{"android":"levelo://app?vid=45869598-e0dc-4c63-9a96-28a10004efd1","ios":"levelo://app?vid=45869598-e0dc-4c63-9a96-28a10004efd1"},"vehicle_type_id":"4","last_reported":1753636186,"current_range_meters":6000,"station_id":"st_cvj5dfep6f1abm77gieg","pricing_plan_id":"cebpf4jnsgd1na2vs0mg"},{"bike_id":"9b887368-b2a8-449e-9601-28d267b3d3a2","system_id":"levelo_inurba_marseille","lat":43.30211,"lon":5.39463,"is_reserved":false,"is_disabled":false,"rental_uris":{"android":"levelo://app?vid=9b887368-b2a8-449e-9601-28d267b3d3a2","ios":"levelo://app?vid=9b887368-b2a8-449e-9601-28d267b3d3a2"},"vehicle_type_id":"4","last_reported":1753636186,"current_range_meters":6000,"station_id":"ce4bh0p2rcd13ifvqd70","pricing_plan_id":"cebpf4jnsgd1na2vs0mg"},{"bike_id":"097c4709-efc3-49b0-9807-02f329a24b8f","system_id":"levelo_inurba_marseille","lat":43.29298,"lon":5.37459,"is_reserved":false,"is_disabled":false,"rental_uris":{"android":"levelo://app?vid=097c4709-efc3-49b0-9807-02f329a24b8f","ios":"levelo://app?vid=097c4709-efc3-49b0-9807-02f329a24b8f"},"vehicle_type_id":"4","last_reported":1753636186,"current_range_meters":6000,"station_id":"ce4bgi12rcd13ifvqb70","pricing_plan_id":"cebpf4jnsgd1na2vs0mg"},{"bike_id":"22dca147-1260-44d8-822d-d9d1d50cce31","system_id":"levelo_inurba_marseille","lat":43.27461,"lon":5.39564,"is_reserved":false,"is_disabled":true,"rental_uris":{"android":"levelo://app?vid=22dca147-1260-44d8-822d-d9d1d50cce31","ios":"levelo://app?vid=22dca147-1260-44d8-822d-d9d1d50cce31"},"vehicle_type_id":"4","last_reported":1753636186,"current_range_meters":6400,"station_id":"","pricing_plan_id":"cebpf4jnsgd1na2vs0mg"},{"bike_id":"e17d6034-610f-4a5b-a189-08dba2ea7aa6","system_id":"levelo_inurba_marseille","lat":43.22933,"lon":5.35372,"is_reserved":false,"is_disabled":false,"rental_uris":{"android":"levelo://app?vid=e17d6034-610f-4a5b-a189-08dba2ea7aa6","ios":"levelo://app?vid=e17d6034-610f-4a5b-a189-08dba2ea7aa6"},"vehicle_type_id":"4","last_reported":1753636186,"current_range_meters":6400,"station_id":"cpo3532slgdg3j2ikp40","pricing_plan_id":"cebpf4jnsgd1na2vs0mg"},{"bike_id":"b12dbb31-5c75-4551-bc03-29f3c4082217","system_id":"levelo_inurba_marseille","lat":43.21212,"lon":5.35051,"is_reserved":false,"is_disabled":false,"rental_uris":{"android":"levelo://app?vid=b12dbb31-5c75-4551-bc03-29f3c4082217","ios":"levelo://app?vid=b12dbb31-5c75-4551-bc03-29f3c4082217"},"vehicle_type_id":"4","last_reported":1753636186,"current_range_meters":6400,"station_id":"st_cvj6sg6p6f1abm77japg","pricing_plan_id":"cebpf4jnsgd1na2vs0mg"},{"bike_id":"990eb3e5-15e9-44a1-85d5-1f979e53a5bd","system_id":"levelo_inurba_marseille","lat":43.23962,"lon":5.36622,"is_reserved":false,"is_disabled":true,"rental_uris":{"android":"levelo://app?vid=990eb3e5-15e9-44a1-85d5-1f979e53a5bd","ios":"levelo://app?vid=990eb3e5-15e9-44a1-85d5-1f979e53a5bd"},"vehicle_type_id":"4","last_reported":1753636186,"current_range_meters":6400,"station_id":"ce4bhi12rcd13ifvqfp0","pricing_plan_id":"cebpf4jnsgd1na2vs0mg"},{"bike_id":"3fc8dc12-d40e-40a9-8760-2e089b539e1a","system_id":"levelo_inurba_marseille","lat":43.26216,"lon":5.37447,"is_reserved":false,"is_disabled":false,"rental_uris":{"android":"levelo://app?vid=3fc8dc12-d40e-40a9-8760-2e089b539e1a","ios":"levelo://app?vid=3fc8dc12-d40e-40a9-8760-2e089b539e1a"},"vehicle_type_id":"4","last_reported":1753636186,"current_range_meters":6400,"station_id":"ce4bhgp2rcd13ifvqfc0","pricing_plan_id":"cebpf4jnsgd1na2vs0mg"},{"bike_id":"d620d18f-b5a0-4d29-bbb7-9d0134391b23","system_id":"levelo_inurba_marseille","lat":43.28698,"lon":5.37381,"is_reserved":false,"is_disabled":false,"rental_uris":{"android":"levelo://app?vid=d620d18f-b5a0-4d29-bbb7-9d0134391b23","ios":"levelo://app?vid=d620d18f-b5a0-4d29-bbb7-9d0134391b23"},"vehicle_type_id":"4","last_reported":1753636186,"current_range_meters":6400,"station_id":"ce4bh3p2rcd13ifvqdq0","pricing_plan_id":"cebpf4jnsgd1na2vs0mg"},{"bike_id":"f1911a36-8862-4b51-bfe0-9aa1086b3300","system_id":"levelo_inurba_marseille","lat":43.28413,"lon":5.384982,"is_reserved":false,"is_disabled":false,"rental_uris":{"android":"levelo://app?vid=f1911a36-8862-4b51-bfe0-9aa1086b3300","ios":"levelo://app?vid=f1911a36-8862-4b51-bfe0-9aa1086b3300"},"vehicle_type_id":"4","last_reported":1753636186,"current_range_meters":6400,"station_id":"ce4bh512rcd13ifvqe3g","pricing_plan_id":"cebpf4jnsgd1na2vs0mg"},{"bike_id":"0b6e37e1-db39-4d64-9941-7e484c9ea038","system_id":"levelo_inurba_marseille","lat":43.30148,"lon":5.38097,"is_reserved":false,"is_disabled":true,"rental_uris":{"android":"levelo://app?vid=0b6e37e1-db39-4d64-9941-7e484c9ea038","ios":"levelo://app?vid=0b6e37e1-db39-4d64-9941-7e484c9ea038"},"vehicle_type_id":"4","last_reported":1753636186,"current_range_meters":6400,"station_id":"","pricing_plan_id":"cebpf4jnsgd1na2vs0mg"},{"bike_id":"a3fe9995-2e3e-423b-9540-429a92fa997e","system_id":"levelo_inurba_marseille","lat":43.30183,"lon":5.371619,"is_reserved":false,"is_disabled":false,"rental_uris":{"android":"levelo://app?vid=a3fe9995-2e3e-423b-9540-429a92fa997e","ios":"levelo://app?vid=a3fe9995-2e3e-423b-9540-429a92fa997e"},"vehicle_type_id":"4","last_reported":1753636186,"current_range_meters":6400,"station_id":"","pricing_plan_id":"cebpf4jnsgd1na2vs0mg"},{"bike_id":"54daca6a-78be-4a02-8cf7-7c2749511ae5","system_id":"levelo_inurba_marseille","lat":43.30802,"lon":5.43524,"is_reserved":false,"is_disabled":false,"rental_uris":{"android":"levelo://app?vid=54daca6a-78be-4a02-8cf7-7c2749511ae5","ios":"levelo://app?vid=54daca6a-78be-4a02-8cf7-7c2749511ae5"},"vehicle_type_id":"4","last_reported":1753636186,"current_range_meters":6800,"station_id":"ce4bhph2rcd13ifvqheg","pricing_plan_id":"cebpf4jnsgd1na2vs0mg"},{"bike_id":"06cde4bd-e275-4f5a-8117-8e883da1e361","system_id":"levelo_inurba_marseille","lat":43.31166,"lon":5.38703,"is_reserved":false,"is_disabled":false,"rental_uris":{"android":"levelo://app?vid=06cde4bd-e275-4f5a-8117-8e883da1e361","ios":"levelo://app?vid=06cde4bd-e275-4f5a-8117-8e883da1e361"},"vehicle_type_id":"4","last_reported":1753636186,"current_range_meters":6800,"station_id":"ce4bgv12rcd13ifvqcp0","pricing_plan_id":"cebpf4jnsgd1na2vs0mg"},{"bike_id":"de99b14c-9afd-4bdd-bc56-50354c110c3d","system_id":"levelo_inurba_marseille","lat":43.25467,"lon":5.37687,"is_reserved":false,"is_disabled":false,"rental_uris":{"android":"levelo://app?vid=de99b14c-9afd-4bdd-bc56-50354c110c3d","ios":"levelo://app?vid=de99b14c-9afd-4bdd-bc56-50354c110c3d"},"vehicle_type_id":"4","last_reported":1753636186,"current_range_meters":6800,"station_id":"","pricing_plan_id":"cebpf4jnsgd1na2vs0mg"},{"bike_id":"a520741a-dcb6-494d-9d43-0ad113907acb","system_id":"levelo_inurba_marseille","lat":43.29209,"lon":5.40066,"is_reserved":false,"is_disabled":false,"rental_uris":{"android":"levelo://app?vid=a520741a-dcb6-494d-9d43-0ad113907acb","ios":"levelo://app?vid=a520741a-dcb6-494d-9d43-0ad113907acb"},"vehicle_type_id":"4","last_reported":1753636186,"current_range_meters":6800,"station_id":"","pricing_plan_id":"cebpf4jnsgd1na2vs0mg"},{"bike_id":"56d9a81e-ebef-4145-abbc-16fab0d35650","system_id":"levelo_inurba_marseille","lat":43.25863,"lon":5.39895,"is_reserved":false,"is_disabled":false,"rental_uris":{"android":"levelo://app?vid=56d9a81e-ebef-4145-abbc-16fab0d35650","ios":"levelo://app?vid=56d9a81e-ebef-4145-abbc-16fab0d35650"},"vehicle_type_id":"4","last_reported":1753636186,"current_range_meters":6800,"station_id":"ce4bhl92rcd13ifvqghg","pricing_plan_id":"cebpf4jnsgd1na2vs0mg"},{"bike_id":"4aca4962-8433-4e72-90ef-32939ad1f7d0","system_id":"levelo_inurba_marseille","lat":43.29029,"lon":5.3864,"is_reserved":false,"is_disabled":false,"rental_uris":{"android":"levelo://app?vid=4aca4962-8433-4e72-90ef-32939ad1f7d0","ios":"levelo://app?vid=4aca4962-8433-4e72-90ef-32939ad1f7d0"},"vehicle_type_id":"4","last_reported":1753636186,"current_range_meters":6800,"station_id":"ce4bh4p2rcd13ifvqe0g","pricing_plan_id":"cebpf4jnsgd1na2vs0mg"},{"bike_id":"eccace9f-344a-4262-a025-b485f51bd7df","system_id":"levelo_inurba_marseille","lat":43.292593,"lon":5.384304,"is_reserved":false,"is_disabled":false,"rental_uris":{"android":"levelo://app?vid=eccace9f-344a-4262-a025-b485f51bd7df","ios":"levelo://app?vid=eccace9f-344a-4262-a025-b485f51bd7df"},"vehicle_type_id":"4","last_reported":1753636186,"current_range_meters":6800,"station_id":"ce4bh692rcd13ifvqea0","pricing_plan_id":"cebpf4jnsgd1na2vs0mg"},{"bike_id":"9c418ca3-3e71-47c6-9bcc-d2c00e440b92","system_id":"levelo_inurba_marseille","lat":43.2962,"lon":5.37158,"is_reserved":false,"is_disabled":false,"rental_uris":{"android":"levelo://app?vid=9c418ca3-3e71-47c6-9bcc-d2c00e440b92","ios":"levelo://app?vid=9c418ca3-3e71-47c6-9bcc-d2c00e440b92"},"vehicle_type_id":"4","last_reported":1753636186,"current_range_meters":6800,"station_id":"ce4bgnh2rcd13ifvqc0g","pricing_plan_id":"cebpf4jnsgd1na2vs0mg"},{"bike_id":"8e878e8f-5d80-490d-b86c-324c23d42717","system_id":"levelo_inurba_marseille","lat":43.2919,"lon":5.40725,"is_reserved":false,"is_disabled":false,"rental_uris":{"android":"levelo://app?vid=8e878e8f-5d80-490d-b86c-324c23d42717","ios":"levelo://app?vid=8e878e8f-5d80-490d-b86c-324c23d42717"},"vehicle_type_id":"4","last_reported":1753636186,"current_range_meters":7200,"station_id":"","pricing_plan_id":"cebpf4jnsgd1na2vs0mg"},{"bike_id":"0ed53f46-29e9-4af6-be43-1bb7fa322a9b","system_id":"levelo_inurba_marseille","lat":43.30933,"lon":5.40139,"is_reserved":false,"is_disabled":true,"rental_uris":{"android":"levelo://app?vid=0ed53f46-29e9-4af6-be43-1bb7fa322a9b","ios":"levelo://app?vid=0ed53f46-29e9-4af6-be43-1bb7fa322a9b"},"vehicle_type_id":"4","last_reported":1753636186,"current_range_meters":7200,"station_id":"ce4bgvp2rcd13ifvqct0","pricing_plan_id":"cebpf4jnsgd1na2vs0mg"},{"bike_id":"2a61a2ea-c747-4813-b4f7-be88e7640cf4","system_id":"levelo_inurba_marseille","lat":43.28798,"lon":5.39134,"is_reserved":false,"is_disabled":false,"rental_uris":{"android":"levelo://app?vid=2a61a2ea-c747-4813-b4f7-be88e7640cf4","ios":"levelo://app?vid=2a61a2ea-c747-4813-b4f7-be88e7640cf4"},"vehicle_type_id":"4","last_reported":1753636186,"current_range_meters":7200,"station_id":"ce4bho92rcd13ifvqh3g","pricing_plan_id":"cebpf4jnsgd1na2vs0mg"},{"bike_id":"b0e2a88a-e235-4afa-8fbb-bfc027f4777f","system_id":"levelo_inurba_marseille","lat":43.3094,"lon":5.39017,"is_reserved":false,"is_disabled":false,"rental_uris":{"android":"levelo://app?vid=b0e2a88a-e235-4afa-8fbb-bfc027f4777f","ios":"levelo://app?vid=b0e2a88a-e235-4afa-8fbb-bfc027f4777f"},"vehicle_type_id":"4","last_reported":1753636186,"current_range_meters":7200,"station_id":"ce4bgup2rcd13ifvqco0","pricing_plan_id":"cebpf4jnsgd1na2vs0mg"},{"bike_id":"e10d966a-1694-4b9e-bf8d-31fc73fe54b3","system_id":"levelo_inurba_marseille","lat":43.2963,"lon":5.40591,"is_reserved":false,"is_disabled":false,"rental_uris":{"android":"levelo://app?vid=e10d966a-1694-4b9e-bf8d-31fc73fe54b3","ios":"levelo://app?vid=e10d966a-1694-4b9e-bf8d-31fc73fe54b3"},"vehicle_type_id":"4","last_reported":1753636186,"current_range_meters":6800,"station_id":"ce4bh0h2rcd13ifvqd60","pricing_plan_id":"cebpf4jnsgd1na2vs0mg"},{"bike_id":"f85d4fda-b699-483e-9cf7-e211b1314ade","system_id":"levelo_inurba_marseille","lat":43.29975,"lon":5.38488,"is_reserved":false,"is_disabled":false,"rental_uris":{"android":"levelo://app?vid=f85d4fda-b699-483e-9cf7-e211b1314ade","ios":"levelo://app?vid=f85d4fda-b699-483e-9cf7-e211b1314ade"},"vehicle_type_id":"4","last_reported":1753636186,"current_range_meters":7200,"station_id":"ce4bgj92rcd13ifvqbd0","pricing_plan_id":"cebpf4jnsgd1na2vs0mg"},{"bike_id":"57755280-973c-4ff3-9c25-8f15e2c5b510","system_id":"levelo_inurba_marseille","lat":43.31872,"lon":5.37373,"is_reserved":false,"is_disabled":true,"rental_uris":{"android":"levelo://app?vid=57755280-973c-4ff3-9c25-8f15e2c5b510","ios":"levelo://app?vid=57755280-973c-4ff3-9c25-8f15e2c5b510"},"vehicle_type_id":"4","last_reported":1753636186,"current_range_meters":7200,"station_id":"","pricing_plan_id":"cebpf4jnsgd1na2vs0mg"},{"bike_id":"7925154e-7d46-4ecd-9a1b-5af7edead5e8","system_id":"levelo_inurba_marseille","lat":43.2987,"lon":5.39722,"is_reserved":false,"is_disabled":false,"rental_uris":{"android":"levelo://app?vid=7925154e-7d46-4ecd-9a1b-5af7edead5e8","ios":"levelo://app?vid=7925154e-7d46-4ecd-9a1b-5af7edead5e8"},"vehicle_type_id":"4","last_reported":1753636186,"current_range_meters":7200,"station_id":"ce4bh0h2rcd13ifvqd50","pricing_plan_id":"cebpf4jnsgd1na2vs0mg"},{"bike_id":"1e555c6b-044c-4bd1-a690-5b7bdd1ff5ab","system_id":"levelo_inurba_marseille","lat":43.30948,"lon":5.3903,"is_reserved":false,"is_disabled":true,"rental_uris":{"android":"levelo://app?vid=1e555c6b-044c-4bd1-a690-5b7bdd1ff5ab","ios":"levelo://app?vid=1e555c6b-044c-4bd1-a690-5b7bdd1ff5ab"},"vehicle_type_id":"4","last_reported":1753636186,"current_range_meters":8000,"station_id":"ce4bgup2rcd13ifvqco0","pricing_plan_id":"cebpf4jnsgd1na2vs0mg"},{"bike_id":"bc178da4-7ba9-41de-8928-13f913d476fc","system_id":"levelo_inurba_marseille","lat":43.308923,"lon":5.371951,"is_reserved":false,"is_disabled":false,"rental_uris":{"android":"levelo://app?vid=bc178da4-7ba9-41de-8928-13f913d476fc","ios":"levelo://app?vid=bc178da4-7ba9-41de-8928-13f913d476fc"},"vehicle_type_id":"4","last_reported":1753636186,"current_range_meters":8000,"station_id":"ce4bguh2rcd13ifvqckg","pricing_plan_id":"cebpf4jnsgd1na2vs0mg"},{"bike_id":"f5b69059-21dd-4178-a5f2-8fa63d642801","system_id":"levelo_inurba_marseille","lat":43.31123,"lon":5.37759,"is_reserved":false,"is_disabled":false,"rental_uris":{"android":"levelo://app?vid=f5b69059-21dd-4178-a5f2-8fa63d642801","ios":"levelo://app?vid=f5b69059-21dd-4178-a5f2-8fa63d642801"},"vehicle_type_id":"4","last_reported":1753636186,"current_range_meters":8000,"station_id":"ce4bgt92rcd13ifvqcg0","pricing_plan_id":"cebpf4jnsgd1na2vs0mg"},{"bike_id":"b89cb98d-553f-439c-acb8-eeb36182f63f","system_id":"levelo_inurba_marseille","lat":43.26214,"lon":5.37438,"is_reserved":false,"is_disabled":false,"rental_uris":{"android":"levelo://app?vid=b89cb98d-553f-439c-acb8-eeb36182f63f","ios":"levelo://app?vid=b89cb98d-553f-439c-acb8-eeb36182f63f"},"vehicle_type_id":"4","last_reported":1753636186,"current_range_meters":8000,"station_id":"ce4bhgp2rcd13ifvqfc0","pricing_plan_id":"cebpf4jnsgd1na2vs0mg"},{"bike_id":"5653c255-65c6-4058-8a33-1216ce6fc3a9","system_id":"levelo_inurba_marseille","lat":43.29518,"lon":5.375,"is_reserved":false,"is_disabled":false,"rental_uris":{"android":"levelo://app?vid=5653c255-65c6-4058-8a33-1216ce6fc3a9","ios":"levelo://app?vid=5653c255-65c6-4058-8a33-1216ce6fc3a9"},"vehicle_type_id":"4","last_reported":1753636186,"current_range_meters":8000,"station_id":"ce4bgkp2rcd13ifvqbmg","pricing_plan_id":"cebpf4jnsgd1na2vs0mg"},{"bike_id":"6465da74-6a84-4cac-8b04-fe8b41a02fc2","system_id":"levelo_inurba_marseille","lat":43.29433,"lon":5.39758,"is_reserved":false,"is_disabled":false,"rental_uris":{"android":"levelo://app?vid=6465da74-6a84-4cac-8b04-fe8b41a02fc2","ios":"levelo://app?vid=6465da74-6a84-4cac-8b04-fe8b41a02fc2"},"vehicle_type_id":"4","last_reported":1753636186,"current_range_meters":7200,"station_id":"ce4bh3h2rcd13ifvqdo0","pricing_plan_id":"cebpf4jnsgd1na2vs0mg"},{"bike_id":"54583db4-bdca-480e-96b7-dd0c89550277","system_id":"levelo_inurba_marseille","lat":43.27939,"lon":5.41042,"is_reserved":false,"is_disabled":false,"rental_uris":{"android":"levelo://app?vid=54583db4-bdca-480e-96b7-dd0c89550277","ios":"levelo://app?vid=54583db4-bdca-480e-96b7-dd0c89550277"},"vehicle_type_id":"4","last_reported":1753636186,"current_range_meters":8400,"station_id":"ce4bhnp2rcd13ifvqh0g","pricing_plan_id":"cebpf4jnsgd1na2vs0mg"},{"bike_id":"ecd45f85-f516-49a6-9b87-95b4e1b1fb96","system_id":"levelo_inurba_marseille","lat":43.23179,"lon":5.3999,"is_reserved":false,"is_disabled":false,"rental_uris":{"android":"levelo://app?vid=ecd45f85-f516-49a6-9b87-95b4e1b1fb96","ios":"levelo://app?vid=ecd45f85-f516-49a6-9b87-95b4e1b1fb96"},"vehicle_type_id":"4","last_reported":1753636186,"current_range_meters":8400,"station_id":"ce4bhn12rcd13ifvqgqg","pricing_plan_id":"cebpf4jnsgd1na2vs0mg"},{"bike_id":"3d457a54-3aab-4510-a9b2-8b550e4da950","system_id":"levelo_inurba_marseille","lat":43.293102,"lon":5.371777,"is_reserved":false,"is_disabled":false,"rental_uris":{"android":"levelo://app?vid=3d457a54-3aab-4510-a9b2-8b550e4da950","ios":"levelo://app?vid=3d457a54-3aab-4510-a9b2-8b550e4da950"},"vehicle_type_id":"4","last_reported":1753636186,"current_range_meters":8400,"station_id":"ce4bgh92rcd13ifvqb40","pricing_plan_id":"cebpf4jnsgd1na2vs0mg"},{"bike_id":"37f53949-ad45-4675-8afd-297d4c1abc47","system_id":"levelo_inurba_marseille","lat":43.26796,"lon":5.3941,"is_reserved":false,"is_disabled":false,"rental_uris":{"android":"levelo://app?vid=37f53949-ad45-4675-8afd-297d4c1abc47","ios":"levelo://app?vid=37f53949-ad45-4675-8afd-297d4c1abc47"},"vehicle_type_id":"4","last_reported":1753636186,"current_range_meters":8400,"station_id":"ce4bhh12rcd13ifvqfg0","pricing_plan_id":"cebpf4jnsgd1na2vs0mg"},{"bike_id":"dd5b3db2-62f9-4716-992d-435138b6493d","system_id":"levelo_inurba_marseille","lat":43.308232,"lon":5.381486,"is_reserved":false,"is_disabled":true,"rental_uris":{"android":"levelo://app?vid=dd5b3db2-62f9-4716-992d-435138b6493d","ios":"levelo://app?vid=dd5b3db2-62f9-4716-992d-435138b6493d"},"vehicle_type_id":"4","last_reported":1753636186,"current_range_meters":8400,"station_id":"ce4bgt12rcd13ifvqce0","pricing_plan_id":"cebpf4jnsgd1na2vs0mg"},{"bike_id":"4139fec5-b4b2-44b9-b0f2-3743303a7118","system_id":"levelo_inurba_marseille","lat":43.29973,"lon":5.3656,"is_reserved":false,"is_disabled":false,"rental_uris":{"android":"levelo://app?vid=4139fec5-b4b2-44b9-b0f2-3743303a7118","ios":"levelo://app?vid=4139fec5-b4b2-44b9-b0f2-3743303a7118"},"vehicle_type_id":"4","last_reported":1753636186,"current_range_meters":8400,"station_id":"ce4bgm92rcd13ifvqbr0","pricing_plan_id":"cebpf4jnsgd1na2vs0mg"},{"bike_id":"f2c0d178-a474-46a0-b002-379a7a30c411","system_id":"levelo_inurba_marseille","lat":43.29453,"lon":5.37601,"is_reserved":false,"is_disabled":false,"rental_uris":{"android":"levelo://app?vid=f2c0d178-a474-46a0-b002-379a7a30c411","ios":"levelo://app?vid=f2c0d178-a474-46a0-b002-379a7a30c411"},"vehicle_type_id":"4","last_reported":1753636186,"current_range_meters":8800,"station_id":"","pricing_plan_id":"cebpf4jnsgd1na2vs0mg"},{"bike_id":"686c5d1f-4c01-4972-8a56-7b2df6795562","system_id":"levelo_inurba_marseille","lat":43.2958,"lon":5.36737,"is_reserved":false,"is_disabled":false,"rental_uris":{"android":"levelo://app?vid=686c5d1f-4c01-4972-8a56-7b2df6795562","ios":"levelo://app?vid=686c5d1f-4c01-4972-8a56-7b2df6795562"},"vehicle_type_id":"4","last_reported":1753636186,"current_range_meters":8800,"station_id":"ce4bgph2rcd13ifvqc2g","pricing_plan_id":"cebpf4jnsgd1na2vs0mg"},{"bike_id":"b168c975-9a27-49d9-b68f-ff01922dc129","system_id":"levelo_inurba_marseille","lat":43.28344,"lon":5.38099,"is_reserved":false,"is_disabled":false,"rental_uris":{"android":"levelo://app?vid=b168c975-9a27-49d9-b68f-ff01922dc129","ios":"levelo://app?vid=b168c975-9a27-49d9-b68f-ff01922dc129"},"vehicle_type_id":"4","last_reported":1753636186,"current_range_meters":8800,"station_id":"ce4bh412rcd13ifvqdr0","pricing_plan_id":"cebpf4jnsgd1na2vs0mg"},{"bike_id":"ba2536f6-3801-4f6a-b413-ca1f3075c3be","system_id":"levelo_inurba_marseille","lat":43.28414,"lon":5.34986,"is_reserved":false,"is_disabled":false,"rental_uris":{"android":"levelo://app?vid=ba2536f6-3801-4f6a-b413-ca1f3075c3be","ios":"levelo://app?vid=ba2536f6-3801-4f6a-b413-ca1f3075c3be"},"vehicle_type_id":"4","last_reported":1753636186,"current_range_meters":8800,"station_id":"ce4bhbh2rcd13ifvqepg","pricing_plan_id":"cebpf4jnsgd1na2vs0mg"},{"bike_id":"2698940b-2307-49a3-9232-a2845e2c80bf","system_id":"levelo_inurba_marseille","lat":43.29984,"lon":5.39717,"is_reserved":false,"is_disabled":false,"rental_uris":{"android":"levelo://app?vid=2698940b-2307-49a3-9232-a2845e2c80bf","ios":"levelo://app?vid=2698940b-2307-49a3-9232-a2845e2c80bf"},"vehicle_type_id":"4","last_reported":1753636186,"current_range_meters":8800,"station_id":"","pricing_plan_id":"cebpf4jnsgd1na2vs0mg"},{"bike_id":"042a8476-d3c4-476b-9557-f32c03e9d625","system_id":"levelo_inurba_marseille","lat":43.33964,"lon":5.35679,"is_reserved":false,"is_disabled":false,"rental_uris":{"android":"levelo://app?vid=042a8476-d3c4-476b-9557-f32c03e9d625","ios":"levelo://app?vid=042a8476-d3c4-476b-9557-f32c03e9d625"},"vehicle_type_id":"4","last_reported":1753636186,"current_range_meters":8800,"station_id":"","pricing_plan_id":"cebpf4jnsgd1na2vs0mg"},{"bike_id":"cd0d4afa-9de1-4afb-923d-b45a4942c9a1","system_id":"levelo_inurba_marseille","lat":43.22502,"lon":5.34776,"is_reserved":false,"is_disabled":false,"rental_uris":{"android":"levelo://app?vid=cd0d4afa-9de1-4afb-923d-b45a4942c9a1","ios":"levelo://app?vid=cd0d4afa-9de1-4afb-923d-b45a4942c9a1"},"vehicle_type_id":"4","last_reported":1753636186,"current_range_meters":8800,"station_id":"st_cvj5dfep6f1abm77gieg","pricing_plan_id":"cebpf4jnsgd1na2vs0mg"},{"bike_id":"1e4c7edd-28b3-46bc-acb0-da10442c4c38","system_id":"levelo_inurba_marseille","lat":43.29187,"lon":5.393,"is_reserved":false,"is_disabled":false,"rental_uris":{"android":"levelo://app?vid=1e4c7edd-28b3-46bc-acb0-da10442c4c38","ios":"levelo://app?vid=1e4c7edd-28b3-46bc-acb0-da10442c4c38"},"vehicle_type_id":"4","last_reported":1753636186,"current_range_meters":9200,"station_id":"ce4bh192rcd13ifvqdd0","pricing_plan_id":"cebpf4jnsgd1na2vs0mg"},{"bike_id":"c3c2652b-f2d7-4ed4-89ec-9559feb01451","system_id":"levelo_inurba_marseille","lat":43.29226,"lon":5.360481,"is_reserved":false,"is_disabled":true,"rental_uris":{"android":"levelo://app?vid=c3c2652b-f2d7-4ed4-89ec-9559feb01451","ios":"levelo://app?vid=c3c2652b-f2d7-4ed4-89ec-9559feb01451"},"vehicle_type_id":"4","last_reported":1753636186,"current_range_meters":9200,"station_id":"ce4bhbh2rcd13ifvqeqg","pricing_plan_id":"cebpf4jnsgd1na2vs0mg"},{"bike_id":"43cf4049-15dd-4e8c-88a8-61cd8dc10bf5","system_id":"levelo_inurba_marseille","lat":43.33271,"lon":5.38007,"is_reserved":false,"is_disabled":true,"rental_uris":{"android":"levelo://app?vid=43cf4049-15dd-4e8c-88a8-61cd8dc10bf5","ios":"levelo://app?vid=43cf4049-15dd-4e8c-88a8-61cd8dc10bf5"},"vehicle_type_id":"4","last_reported":1753636186,"current_range_meters":9200,"station_id":"","pricing_plan_id":"cebpf4jnsgd1na2vs0mg"},{"bike_id":"ad676354-5f32-402a-ace7-3af7e2297b05","system_id":"levelo_inurba_marseille","lat":43.32363,"lon":5.36755,"is_reserved":false,"is_disabled":false,"rental_uris":{"android":"levelo://app?vid=ad676354-5f32-402a-ace7-3af7e2297b05","ios":"levelo://app?vid=ad676354-5f32-402a-ace7-3af7e2297b05"},"vehicle_type_id":"4","last_reported":1753636186,"current_range_meters":9200,"station_id":"ce4bhsh2rcd13ifvqi2g","pricing_plan_id":"cebpf4jnsgd1na2vs0mg"},{"bike_id":"02cab979-ccb2-40ce-bd89-cd624415fc04","system_id":"levelo_inurba_marseille","lat":43.277789,"lon":5.399404,"is_reserved":false,"is_disabled":false,"rental_uris":{"android":"levelo://app?vid=02cab979-ccb2-40ce-bd89-cd624415fc04","ios":"levelo://app?vid=02cab979-ccb2-40ce-bd89-cd624415fc04"},"vehicle_type_id":"4","last_reported":1753636186,"current_range_meters":9200,"station_id":"","pricing_plan_id":"cebpf4jnsgd1na2vs0mg"},{"bike_id":"9188366a-c6a3-4354-b558-553177316347","system_id":"levelo_inurba_marseille","lat":43.26232,"lon":5.37435,"is_reserved":false,"is_disabled":true,"rental_uris":{"android":"levelo://app?vid=9188366a-c6a3-4354-b558-553177316347","ios":"levelo://app?vid=9188366a-c6a3-4354-b558-553177316347"},"vehicle_type_id":"4","last_reported":1753636186,"current_range_meters":9200,"station_id":"","pricing_plan_id":"cebpf4jnsgd1na2vs0mg"},{"bike_id":"6c35420a-3bf6-4d4c-ad9d-34a9a069f430","system_id":"levelo_inurba_marseille","lat":43.30424,"lon":5.39729,"is_reserved":false,"is_disabled":false,"rental_uris":{"android":"levelo://app?vid=6c35420a-3bf6-4d4c-ad9d-34a9a069f430","ios":"levelo://app?vid=6c35420a-3bf6-4d4c-ad9d-34a9a069f430"},"vehicle_type_id":"4","last_reported":1753636186,"current_range_meters":9200,"station_id":"ce4bh092rcd13ifvqd20","pricing_plan_id":"cebpf4jnsgd1na2vs0mg"},{"bike_id":"9377d52d-7c04-4205-81e5-05265b3eabff","system_id":"levelo_inurba_marseille","lat":43.287091,"lon":5.379544,"is_reserved":false,"is_disabled":true,"rental_uris":{"android":"levelo://app?vid=9377d52d-7c04-4205-81e5-05265b3eabff","ios":"levelo://app?vid=9377d52d-7c04-4205-81e5-05265b3eabff"},"vehicle_type_id":"4","last_reported":1753636186,"current_range_meters":9600,"station_id":"ce4bh9p2rcd13ifvqec0","pricing_plan_id":"cebpf4jnsgd1na2vs0mg"},{"bike_id":"b204d68f-342d-4ad3-af0f-624df031efe5","system_id":"levelo_inurba_marseille","lat":43.28412,"lon":5.37501,"is_reserved":false,"is_disabled":false,"rental_uris":{"android":"levelo://app?vid=b204d68f-342d-4ad3-af0f-624df031efe5","ios":"levelo://app?vid=b204d68f-342d-4ad3-af0f-624df031efe5"},"vehicle_type_id":"4","last_reported":1753636186,"current_range_meters":9600,"station_id":"ce4bh412rcd13ifvqds0","pricing_plan_id":"cebpf4jnsgd1na2vs0mg"},{"bike_id":"d5a63dee-a415-40f6-88a8-f1d25d6ddaa1","system_id":"levelo_inurba_marseille","lat":43.290311,"lon":5.399895,"is_reserved":false,"is_disabled":true,"rental_uris":{"android":"levelo://app?vid=d5a63dee-a415-40f6-88a8-f1d25d6ddaa1","ios":"levelo://app?vid=d5a63dee-a415-40f6-88a8-f1d25d6ddaa1"},"vehicle_type_id":"4","last_reported":1753636186,"current_range_meters":9600,"station_id":"ce4bh392rcd13ifvqdm0","pricing_plan_id":"cebpf4jnsgd1na2vs0mg"},{"bike_id":"96e8f9e2-5ed4-4a64-abed-b574666ba88d","system_id":"levelo_inurba_marseille","lat":43.21195,"lon":5.3507,"is_reserved":false,"is_disabled":false,"rental_uris":{"android":"levelo://app?vid=96e8f9e2-5ed4-4a64-abed-b574666ba88d","ios":"levelo://app?vid=96e8f9e2-5ed4-4a64-abed-b574666ba88d"},"vehicle_type_id":"4","last_reported":1753636186,"current_range_meters":9600,"station_id":"st_cvj6sg6p6f1abm77japg","pricing_plan_id":"cebpf4jnsgd1na2vs0mg"},{"bike_id":"37e15234-24ff-44e4-bed3-6710b8c51be2","system_id":"levelo_inurba_marseille","lat":43.28705,"lon":5.39972,"is_reserved":false,"is_disabled":false,"rental_uris":{"android":"levelo://app?vid=37e15234-24ff-44e4-bed3-6710b8c51be2","ios":"levelo://app?vid=37e15234-24ff-44e4-bed3-6710b8c51be2"},"vehicle_type_id":"4","last_reported":1753636186,"current_range_meters":9600,"station_id":"ce4bho92rcd13ifvqh3g","pricing_plan_id":"cebpf4jnsgd1na2vs0mg"},{"bike_id":"0d1c822a-5e8f-43b9-8b88-5ff04f23bf46","system_id":"levelo_inurba_marseille","lat":43.30294,"lon":5.39204,"is_reserved":false,"is_disabled":false,"rental_uris":{"android":"levelo://app?vid=0d1c822a-5e8f-43b9-8b88-5ff04f23bf46","ios":"levelo://app?vid=0d1c822a-5e8f-43b9-8b88-5ff04f23bf46"},"vehicle_type_id":"4","last_reported":1753636186,"current_range_meters":9600,"station_id":"ce4bgkh2rcd13ifvqbk0","pricing_plan_id":"cebpf4jnsgd1na2vs0mg"},{"bike_id":"21d47ff6-37e1-4bae-902d-55b4deaa5d17","system_id":"levelo_inurba_marseille","lat":43.29015,"lon":5.3813,"is_reserved":false,"is_disabled":false,"rental_uris":{"android":"levelo://app?vid=21d47ff6-37e1-4bae-902d-55b4deaa5d17","ios":"levelo://app?vid=21d47ff6-37e1-4bae-902d-55b4deaa5d17"},"vehicle_type_id":"4","last_reported":1753636186,"current_range_meters":9600,"station_id":"ce4bh4p2rcd13ifvqe1g","pricing_plan_id":"cebpf4jnsgd1na2vs0mg"},{"bike_id":"7e65c5ea-0429-45f5-a396-bd32e67f0744","system_id":"levelo_inurba_marseille","lat":43.33477,"lon":5.40058,"is_reserved":false,"is_disabled":false,"rental_uris":{"android":"levelo://app?vid=7e65c5ea-0429-45f5-a396-bd32e67f0744","ios":"levelo://app?vid=7e65c5ea-0429-45f5-a396-bd32e67f0744"},"vehicle_type_id":"4","last_reported":1753636186,"current_range_meters":9600,"station_id":"","pricing_plan_id":"cebpf4jnsgd1na2vs0mg"},{"bike_id":"d44efb16-751b-4e09-9958-d896643bc7e3","system_id":"levelo_inurba_marseille","lat":43.31117,"lon":5.37776,"is_reserved":false,"is_disabled":false,"rental_uris":{"android":"levelo://app?vid=d44efb16-751b-4e09-9958-d896643bc7e3","ios":"levelo://app?vid=d44efb16-751b-4e09-9958-d896643bc7e3"},"vehicle_type_id":"4","last_reported":1753636186,"current_range_meters":10000,"station_id":"ce4bgt92rcd13ifvqcg0","pricing_plan_id":"cebpf4jnsgd1na2vs0mg"},{"bike_id":"a1d5115b-997f-44a5-8b4b-21cb29757407","system_id":"levelo_inurba_marseille","lat":43.31216,"lon":5.37299,"is_reserved":false,"is_disabled":false,"rental_uris":{"android":"levelo://app?vid=a1d5115b-997f-44a5-8b4b-21cb29757407","ios":"levelo://app?vid=a1d5115b-997f-44a5-8b4b-21cb29757407"},"vehicle_type_id":"4","last_reported":1753636186,"current_range_meters":10000,"station_id":"","pricing_plan_id":"cebpf4jnsgd1na2vs0mg"},{"bike_id":"116d820b-84bd-4dfc-aaee-ab6c2eaff230","system_id":"levelo_inurba_marseille","lat":43.29784,"lon":5.39352,"is_reserved":false,"is_disabled":false,"rental_uris":{"android":"levelo://app?vid=116d820b-84bd-4dfc-aaee-ab6c2eaff230","ios":"levelo://app?vid=116d820b-84bd-4dfc-aaee-ab6c2eaff230"},"vehicle_type_id":"4","last_reported":1753636186,"current_range_meters":10000,"station_id":"chh1huq6cuj3fo74tm60","pricing_plan_id":"cebpf4jnsgd1na2vs0mg"},{"bike_id":"0e6bcd53-d8c2-401b-aff3-fd02177d15c0","system_id":"levelo_inurba_marseille","lat":43.290313,"lon":5.386476,"is_reserved":false,"is_disabled":false,"rental_uris":{"android":"levelo://app?vid=0e6bcd53-d8c2-401b-aff3-fd02177d15c0","ios":"levelo://app?vid=0e6bcd53-d8c2-401b-aff3-fd02177d15c0"},"vehicle_type_id":"4","last_reported":1753636186,"current_range_meters":10000,"station_id":"ce4bh4p2rcd13ifvqe0g","pricing_plan_id":"cebpf4jnsgd1na2vs0mg"},{"bike_id":"cbd3c835-3646-48da-a31a-110bb275e07a","system_id":"levelo_inurba_marseille","lat":43.28612,"lon":5.37047,"is_reserved":false,"is_disabled":false,"rental_uris":{"android":"levelo://app?vid=cbd3c835-3646-48da-a31a-110bb275e07a","ios":"levelo://app?vid=cbd3c835-3646-48da-a31a-110bb275e07a"},"vehicle_type_id":"4","last_reported":1753636186,"current_range_meters":10800,"station_id":"ce4bht12rcd13ifvqi60","pricing_plan_id":"cebpf4jnsgd1na2vs0mg"},{"bike_id":"4597faaf-0f07-49dc-a89c-a120b26e74ee","system_id":"levelo_inurba_marseille","lat":43.29794,"lon":5.38073,"is_reserved":false,"is_disabled":false,"rental_uris":{"android":"levelo://app?vid=4597faaf-0f07-49dc-a89c-a120b26e74ee","ios":"levelo://app?vid=4597faaf-0f07-49dc-a89c-a120b26e74ee"},"vehicle_type_id":"4","last_reported":1753636186,"current_range_meters":10800,"station_id":"ce4bgip2rcd13ifvqbb0","pricing_plan_id":"cebpf4jnsgd1na2vs0mg"},{"bike_id":"898d1f8e-e261-4f25-9386-a6825028d102","system_id":"levelo_inurba_marseille","lat":43.2909,"lon":5.47337,"is_reserved":false,"is_disabled":false,"rental_uris":{"android":"levelo://app?vid=898d1f8e-e261-4f25-9386-a6825028d102","ios":"levelo://app?vid=898d1f8e-e261-4f25-9386-a6825028d102"},"vehicle_type_id":"4","last_reported":1753636186,"current_range_meters":10800,"station_id":"","pricing_plan_id":"cebpf4jnsgd1na2vs0mg"},{"bike_id":"9dfdeb8a-ee13-4931-94b4-ad2b5f23aa4b","system_id":"levelo_inurba_marseille","lat":43.23186,"lon":5.39963,"is_reserved":false,"is_disabled":true,"rental_uris":{"android":"levelo://app?vid=9dfdeb8a-ee13-4931-94b4-ad2b5f23aa4b","ios":"levelo://app?vid=9dfdeb8a-ee13-4931-94b4-ad2b5f23aa4b"},"vehicle_type_id":"4","last_reported":1753636186,"current_range_meters":10800,"station_id":"ce4bhn12rcd13ifvqgqg","pricing_plan_id":"cebpf4jnsgd1na2vs0mg"},{"bike_id":"a05343f6-5345-451e-92c9-8d14b4ec04eb","system_id":"levelo_inurba_marseille","lat":43.314919,"lon":5.373082,"is_reserved":false,"is_disabled":false,"rental_uris":{"android":"levelo://app?vid=a05343f6-5345-451e-92c9-8d14b4ec04eb","ios":"levelo://app?vid=a05343f6-5345-451e-92c9-8d14b4ec04eb"},"vehicle_type_id":"4","last_reported":1753636186,"current_range_meters":10800,"station_id":"","pricing_plan_id":"cebpf4jnsgd1na2vs0mg"},{"bike_id":"645a7516-9fc5-4343-b86c-621f42cfe850","system_id":"levelo_inurba_marseille","lat":43.29796,"lon":5.38104,"is_reserved":false,"is_disabled":false,"rental_uris":{"android":"levelo://app?vid=645a7516-9fc5-4343-b86c-621f42cfe850","ios":"levelo://app?vid=645a7516-9fc5-4343-b86c-621f42cfe850"},"vehicle_type_id":"4","last_reported":1753636186,"current_range_meters":10000,"station_id":"ce4bgip2rcd13ifvqbb0","pricing_plan_id":"cebpf4jnsgd1na2vs0mg"},{"bike_id":"ac292fd0-9260-411b-b28d-fa140a5b11ed","system_id":"levelo_inurba_marseille","lat":43.28344,"lon":5.38102,"is_reserved":false,"is_disabled":false,"rental_uris":{"android":"levelo://app?vid=ac292fd0-9260-411b-b28d-fa140a5b11ed","ios":"levelo://app?vid=ac292fd0-9260-411b-b28d-fa140a5b11ed"},"vehicle_type_id":"4","last_reported":1753636186,"current_range_meters":10800,"station_id":"ce4bh412rcd13ifvqdr0","pricing_plan_id":"cebpf4jnsgd1na2vs0mg"},{"bike_id":"06398972-07fe-4140-ae6c-fbee965bec94","system_id":"levelo_inurba_marseille","lat":43.31493,"lon":5.37307,"is_reserved":false,"is_disabled":false,"rental_uris":{"android":"levelo://app?vid=06398972-07fe-4140-ae6c-fbee965bec94","ios":"levelo://app?vid=06398972-07fe-4140-ae6c-fbee965bec94"},"vehicle_type_id":"4","last_reported":1753636186,"current_range_meters":10800,"station_id":"ce4bgt12rcd13ifvqcd0","pricing_plan_id":"cebpf4jnsgd1na2vs0mg"},{"bike_id":"7fe8107c-aa92-49b9-a3d4-b0180595b13e","system_id":"levelo_inurba_marseille","lat":43.298235,"lon":5.376573,"is_reserved":false,"is_disabled":false,"rental_uris":{"android":"levelo://app?vid=7fe8107c-aa92-49b9-a3d4-b0180595b13e","ios":"levelo://app?vid=7fe8107c-aa92-49b9-a3d4-b0180595b13e"},"vehicle_type_id":"4","last_reported":1753636186,"current_range_meters":10800,"station_id":"","pricing_plan_id":"cebpf4jnsgd1na2vs0mg"},{"bike_id":"1e5c96a6-9d0f-4d5f-85ef-5a5f8ac0317a","system_id":"levelo_inurba_marseille","lat":43.33441,"lon":5.39101,"is_reserved":false,"is_disabled":false,"rental_uris":{"android":"levelo://app?vid=1e5c96a6-9d0f-4d5f-85ef-5a5f8ac0317a","ios":"levelo://app?vid=1e5c96a6-9d0f-4d5f-85ef-5a5f8ac0317a"},"vehicle_type_id":"4","last_reported":1753636186,"current_range_meters":10800,"station_id":"","pricing_plan_id":"cebpf4jnsgd1na2vs0mg"},{"bike_id":"f931608b-967d-430a-8f49-b39332bd85c7","system_id":"levelo_inurba_marseille","lat":43.292581,"lon":5.40907,"is_reserved":false,"is_disabled":false,"rental_uris":{"android":"levelo://app?vid=f931608b-967d-430a-8f49-b39332bd85c7","ios":"levelo://app?vid=f931608b-967d-430a-8f49-b39332bd85c7"},"vehicle_type_id":"4","last_reported":1753636186,"current_range_meters":10800,"station_id":"ce4bh192rcd13ifvqdc0","pricing_plan_id":"cebpf4jnsgd1na2vs0mg"},{"bike_id":"feda9177-8d0e-4404-9efc-04a8a9a61951","system_id":"levelo_inurba_marseille","lat":43.28475,"lon":5.38397,"is_reserved":false,"is_disabled":false,"rental_uris":{"android":"levelo://app?vid=feda9177-8d0e-4404-9efc-04a8a9a61951","ios":"levelo://app?vid=feda9177-8d0e-4404-9efc-04a8a9a61951"},"vehicle_type_id":"4","last_reported":1753636186,"current_range_meters":10800,"station_id":"ce4bh512rcd13ifvqe3g","pricing_plan_id":"cebpf4jnsgd1na2vs0mg"},{"bike_id":"883ffbb1-4b6b-40dc-98c4-d6492b809535","system_id":"levelo_inurba_marseille","lat":43.30592,"lon":5.39357,"is_reserved":false,"is_disabled":false,"rental_uris":{"android":"levelo://app?vid=883ffbb1-4b6b-40dc-98c4-d6492b809535","ios":"levelo://app?vid=883ffbb1-4b6b-40dc-98c4-d6492b809535"},"vehicle_type_id":"4","last_reported":1753636186,"current_range_meters":12800,"station_id":"ce4bh0p2rcd13ifvqd80","pricing_plan_id":"cebpf4jnsgd1na2vs0mg"},{"bike_id":"6a38ad86-92b8-4aed-98d7-3569ef9cc105","system_id":"levelo_inurba_marseille","lat":43.21752,"lon":5.34588,"is_reserved":false,"is_disabled":true,"rental_uris":{"android":"levelo://app?vid=6a38ad86-92b8-4aed-98d7-3569ef9cc105","ios":"levelo://app?vid=6a38ad86-92b8-4aed-98d7-3569ef9cc105"},"vehicle_type_id":"4","last_reported":1753636186,"current_range_meters":11200,"station_id":"st_cvj6r9ubvosntc0bgbag","pricing_plan_id":"cebpf4jnsgd1na2vs0mg"},{"bike_id":"8092de4e-7439-4602-9e83-ab541558074e","system_id":"levelo_inurba_marseille","lat":43.2984,"lon":5.36262,"is_reserved":false,"is_disabled":false,"rental_uris":{"android":"levelo://app?vid=8092de4e-7439-4602-9e83-ab541558074e","ios":"levelo://app?vid=8092de4e-7439-4602-9e83-ab541558074e"},"vehicle_type_id":"4","last_reported":1753636186,"current_range_meters":11200,"station_id":"ce4bgpp2rcd13ifvqc3g","pricing_plan_id":"cebpf4jnsgd1na2vs0mg"},{"bike_id":"43dbc09e-d0e4-4ddb-bafe-4f55874d23a9","system_id":"levelo_inurba_marseille","lat":43.30211,"lon":5.38219,"is_reserved":false,"is_disabled":false,"rental_uris":{"android":"levelo://app?vid=43dbc09e-d0e4-4ddb-bafe-4f55874d23a9","ios":"levelo://app?vid=43dbc09e-d0e4-4ddb-bafe-4f55874d23a9"},"vehicle_type_id":"4","last_reported":1753636186,"current_range_meters":11200,"station_id":"","pricing_plan_id":"cebpf4jnsgd1na2vs0mg"},{"bike_id":"1e8010d4-2de4-4e9e-8c2f-1c31a9757002","system_id":"levelo_inurba_marseille","lat":43.31321,"lon":5.39693,"is_reserved":false,"is_disabled":false,"rental_uris":{"android":"levelo://app?vid=1e8010d4-2de4-4e9e-8c2f-1c31a9757002","ios":"levelo://app?vid=1e8010d4-2de4-4e9e-8c2f-1c31a9757002"},"vehicle_type_id":"4","last_reported":1753636186,"current_range_meters":11200,"station_id":"ce4bgvp2rcd13ifvqcu0","pricing_plan_id":"cebpf4jnsgd1na2vs0mg"},{"bike_id":"1d2f92cc-5eee-4686-a745-6cb2184d6c85","system_id":"levelo_inurba_marseille","lat":43.31733,"lon":5.37732,"is_reserved":false,"is_disabled":false,"rental_uris":{"android":"levelo://app?vid=1d2f92cc-5eee-4686-a745-6cb2184d6c85","ios":"levelo://app?vid=1d2f92cc-5eee-4686-a745-6cb2184d6c85"},"vehicle_type_id":"4","last_reported":1753636186,"current_range_meters":11200,"station_id":"ce4bgth2rcd13ifvqch0","pricing_plan_id":"cebpf4jnsgd1na2vs0mg"},{"bike_id":"ffa1f981-cb5d-4c32-a0ef-e884572fffc1","system_id":"levelo_inurba_marseille","lat":43.28422,"lon":5.34973,"is_reserved":false,"is_disabled":false,"rental_uris":{"android":"levelo://app?vid=ffa1f981-cb5d-4c32-a0ef-e884572fffc1","ios":"levelo://app?vid=ffa1f981-cb5d-4c32-a0ef-e884572fffc1"},"vehicle_type_id":"4","last_reported":1753636186,"current_range_meters":11600,"station_id":"ce4bhbh2rcd13ifvqepg","pricing_plan_id":"cebpf4jnsgd1na2vs0mg"},{"bike_id":"c3466406-c5a1-4968-951b-c6ffb30e1d1e","system_id":"levelo_inurba_marseille","lat":43.29076,"lon":5.37172,"is_reserved":false,"is_disabled":false,"rental_uris":{"android":"levelo://app?vid=c3466406-c5a1-4968-951b-c6ffb30e1d1e","ios":"levelo://app?vid=c3466406-c5a1-4968-951b-c6ffb30e1d1e"},"vehicle_type_id":"4","last_reported":1753636186,"current_range_meters":11200,"station_id":"ce4bh5p2rcd13ifvqe4g","pricing_plan_id":"cebpf4jnsgd1na2vs0mg"},{"bike_id":"388bc238-fad7-406c-9d22-fb5bb71926c0","system_id":"levelo_inurba_marseille","lat":43.28412,"lon":5.37519,"is_reserved":false,"is_disabled":false,"rental_uris":{"android":"levelo://app?vid=388bc238-fad7-406c-9d22-fb5bb71926c0","ios":"levelo://app?vid=388bc238-fad7-406c-9d22-fb5bb71926c0"},"vehicle_type_id":"4","last_reported":1753636186,"current_range_meters":11600,"station_id":"ce4bh412rcd13ifvqds0","pricing_plan_id":"cebpf4jnsgd1na2vs0mg"},{"bike_id":"61b23ec9-bf24-4d41-be8c-373ef8207eba","system_id":"levelo_inurba_marseille","lat":43.27564,"lon":5.38416,"is_reserved":false,"is_disabled":false,"rental_uris":{"android":"levelo://app?vid=61b23ec9-bf24-4d41-be8c-373ef8207eba","ios":"levelo://app?vid=61b23ec9-bf24-4d41-be8c-373ef8207eba"},"vehicle_type_id":"4","last_reported":1753636186,"current_range_meters":11600,"station_id":"ce4bhh92rcd13ifvqfi0","pricing_plan_id":"cebpf4jnsgd1na2vs0mg"},{"bike_id":"dee5acb5-f8c3-4271-bd52-7f978456b271","system_id":"levelo_inurba_marseille","lat":43.273824,"lon":5.362368,"is_reserved":false,"is_disabled":false,"rental_uris":{"android":"levelo://app?vid=dee5acb5-f8c3-4271-bd52-7f978456b271","ios":"levelo://app?vid=dee5acb5-f8c3-4271-bd52-7f978456b271"},"vehicle_type_id":"4","last_reported":1753636186,"current_range_meters":11600,"station_id":"ce4bhbh2rcd13ifvqeo0","pricing_plan_id":"cebpf4jnsgd1na2vs0mg"},{"bike_id":"e5f45e86-a25f-4bde-9c89-4e7b0afd2dbd","system_id":"levelo_inurba_marseille","lat":43.28401,"lon":5.37508,"is_reserved":false,"is_disabled":false,"rental_uris":{"android":"levelo://app?vid=e5f45e86-a25f-4bde-9c89-4e7b0afd2dbd","ios":"levelo://app?vid=e5f45e86-a25f-4bde-9c89-4e7b0afd2dbd"},"vehicle_type_id":"4","last_reported":1753636186,"current_range_meters":12000,"station_id":"ce4bh412rcd13ifvqds0","pricing_plan_id":"cebpf4jnsgd1na2vs0mg"},{"bike_id":"cb0585d3-2f9b-4644-8abe-1cc056e12bd9","system_id":"levelo_inurba_marseille","lat":43.2763,"lon":5.36103,"is_reserved":false,"is_disabled":false,"rental_uris":{"android":"levelo://app?vid=cb0585d3-2f9b-4644-8abe-1cc056e12bd9","ios":"levelo://app?vid=cb0585d3-2f9b-4644-8abe-1cc056e12bd9"},"vehicle_type_id":"4","last_reported":1753636186,"current_range_meters":12000,"station_id":"ce4bgj92rcd13ifvqbe0","pricing_plan_id":"cebpf4jnsgd1na2vs0mg"},{"bike_id":"aebdf431-3b97-428a-a9b4-1e35e4b29383","system_id":"levelo_inurba_marseille","lat":43.31722,"lon":5.40428,"is_reserved":false,"is_disabled":false,"rental_uris":{"android":"levelo://app?vid=aebdf431-3b97-428a-a9b4-1e35e4b29383","ios":"levelo://app?vid=aebdf431-3b97-428a-a9b4-1e35e4b29383"},"vehicle_type_id":"4","last_reported":1753636186,"current_range_meters":12000,"station_id":"","pricing_plan_id":"cebpf4jnsgd1na2vs0mg"},{"bike_id":"dde1f343-71f8-4623-b05b-f366c677229d","system_id":"levelo_inurba_marseille","lat":43.31328,"lon":5.39688,"is_reserved":false,"is_disabled":false,"rental_uris":{"android":"levelo://app?vid=dde1f343-71f8-4623-b05b-f366c677229d","ios":"levelo://app?vid=dde1f343-71f8-4623-b05b-f366c677229d"},"vehicle_type_id":"4","last_reported":1753636186,"current_range_meters":12000,"station_id":"ce4bgvp2rcd13ifvqcu0","pricing_plan_id":"cebpf4jnsgd1na2vs0mg"},{"bike_id":"f2e73ed9-a948-43ea-ab9d-32368cf8a475","system_id":"levelo_inurba_marseille","lat":43.26193,"lon":5.37467,"is_reserved":false,"is_disabled":true,"rental_uris":{"android":"levelo://app?vid=f2e73ed9-a948-43ea-ab9d-32368cf8a475","ios":"levelo://app?vid=f2e73ed9-a948-43ea-ab9d-32368cf8a475"},"vehicle_type_id":"4","last_reported":1753636186,"current_range_meters":12000,"station_id":"ce4bhgp2rcd13ifvqfc0","pricing_plan_id":"cebpf4jnsgd1na2vs0mg"},{"bike_id":"cd3b08e6-c974-4cd3-9f10-0a74cd99e828","system_id":"levelo_inurba_marseille","lat":43.290311,"lon":5.381281,"is_reserved":false,"is_disabled":false,"rental_uris":{"android":"levelo://app?vid=cd3b08e6-c974-4cd3-9f10-0a74cd99e828","ios":"levelo://app?vid=cd3b08e6-c974-4cd3-9f10-0a74cd99e828"},"vehicle_type_id":"4","last_reported":1753636186,"current_range_meters":12000,"station_id":"ce4bh4p2rcd13ifvqe1g","pricing_plan_id":"cebpf4jnsgd1na2vs0mg"},{"bike_id":"51ad7dd7-88ab-4eb9-87b7-6c1197faf725","system_id":"levelo_inurba_marseille","lat":43.28613,"lon":5.35089,"is_reserved":false,"is_disabled":false,"rental_uris":{"android":"levelo://app?vid=51ad7dd7-88ab-4eb9-87b7-6c1197faf725","ios":"levelo://app?vid=51ad7dd7-88ab-4eb9-87b7-6c1197faf725"},"vehicle_type_id":"4","last_reported":1753636186,"current_range_meters":12000,"station_id":"ce4bhch2rcd13ifvqeug","pricing_plan_id":"cebpf4jnsgd1na2vs0mg"},{"bike_id":"fe9a04d5-499b-49b8-a461-f3c21737743c","system_id":"levelo_inurba_marseille","lat":43.29301,"lon":5.3745,"is_reserved":false,"is_disabled":false,"rental_uris":{"android":"levelo://app?vid=fe9a04d5-499b-49b8-a461-f3c21737743c","ios":"levelo://app?vid=fe9a04d5-499b-49b8-a461-f3c21737743c"},"vehicle_type_id":"4","last_reported":1753636186,"current_range_meters":12400,"station_id":"ce4bgi12rcd13ifvqb70","pricing_plan_id":"cebpf4jnsgd1na2vs0mg"},{"bike_id":"da0dea9a-07a2-4249-aa7c-2489e28d40de","system_id":"levelo_inurba_marseille","lat":43.29673,"lon":5.36244,"is_reserved":false,"is_disabled":false,"rental_uris":{"android":"levelo://app?vid=da0dea9a-07a2-4249-aa7c-2489e28d40de","ios":"levelo://app?vid=da0dea9a-07a2-4249-aa7c-2489e28d40de"},"vehicle_type_id":"4","last_reported":1753636186,"current_range_meters":12400,"station_id":"","pricing_plan_id":"cebpf4jnsgd1na2vs0mg"},{"bike_id":"905576ef-66ce-426e-9600-566828c3b671","system_id":"levelo_inurba_marseille","lat":43.21754,"lon":5.3459,"is_reserved":false,"is_disabled":true,"rental_uris":{"android":"levelo://app?vid=905576ef-66ce-426e-9600-566828c3b671","ios":"levelo://app?vid=905576ef-66ce-426e-9600-566828c3b671"},"vehicle_type_id":"4","last_reported":1753636186,"current_range_meters":12400,"station_id":"","pricing_plan_id":"cebpf4jnsgd1na2vs0mg"},{"bike_id":"6e0d469e-c7b7-478d-b94e-daf583879f57","system_id":"levelo_inurba_marseille","lat":43.23193,"lon":5.35549,"is_reserved":false,"is_disabled":false,"rental_uris":{"android":"levelo://app?vid=6e0d469e-c7b7-478d-b94e-daf583879f57","ios":"levelo://app?vid=6e0d469e-c7b7-478d-b94e-daf583879f57"},"vehicle_type_id":"4","last_reported":1753636186,"current_range_meters":12400,"station_id":"ce4bhu92rcd13ifvqi70","pricing_plan_id":"cebpf4jnsgd1na2vs0mg"},{"bike_id":"8acd0f9b-1427-4884-9801-953eae2c9205","system_id":"levelo_inurba_marseille","lat":43.28665,"lon":5.36349,"is_reserved":false,"is_disabled":false,"rental_uris":{"android":"levelo://app?vid=8acd0f9b-1427-4884-9801-953eae2c9205","ios":"levelo://app?vid=8acd0f9b-1427-4884-9801-953eae2c9205"},"vehicle_type_id":"4","last_reported":1753636186,"current_range_meters":12000,"station_id":"ce4bhah2rcd13ifvqej0","pricing_plan_id":"cebpf4jnsgd1na2vs0mg"},{"bike_id":"2392c54b-a5c8-4459-b080-5be8274f7965","system_id":"levelo_inurba_marseille","lat":43.28371,"lon":5.38634,"is_reserved":false,"is_disabled":false,"rental_uris":{"android":"levelo://app?vid=2392c54b-a5c8-4459-b080-5be8274f7965","ios":"levelo://app?vid=2392c54b-a5c8-4459-b080-5be8274f7965"},"vehicle_type_id":"4","last_reported":1753636186,"current_range_meters":12400,"station_id":"ce4bh492rcd13ifvqdvg","pricing_plan_id":"cebpf4jnsgd1na2vs0mg"},{"bike_id":"89be56b2-61d4-4973-a380-bd770e612fca","system_id":"levelo_inurba_marseille","lat":43.3009,"lon":5.39082,"is_reserved":false,"is_disabled":false,"rental_uris":{"android":"levelo://app?vid=89be56b2-61d4-4973-a380-bd770e612fca","ios":"levelo://app?vid=89be56b2-61d4-4973-a380-bd770e612fca"},"vehicle_type_id":"4","last_reported":1753636186,"current_range_meters":12400,"station_id":"ce4bh192rcd13ifvqdb0","pricing_plan_id":"cebpf4jnsgd1na2vs0mg"},{"bike_id":"198a8a48-9082-408a-ac7c-20dca32fbf4e","system_id":"levelo_inurba_marseille","lat":43.32055,"lon":5.40925,"is_reserved":false,"is_disabled":false,"rental_uris":{"android":"levelo://app?vid=198a8a48-9082-408a-ac7c-20dca32fbf4e","ios":"levelo://app?vid=198a8a48-9082-408a-ac7c-20dca32fbf4e"},"vehicle_type_id":"4","last_reported":1753636186,"current_range_meters":12400,"station_id":"","pricing_plan_id":"cebpf4jnsgd1na2vs0mg"},{"bike_id":"416acd6b-072a-494f-b869-b2b61f9cc9d7","system_id":"levelo_inurba_marseille","lat":43.22501,"lon":5.34762,"is_reserved":false,"is_disabled":false,"rental_uris":{"android":"levelo://app?vid=416acd6b-072a-494f-b869-b2b61f9cc9d7","ios":"levelo://app?vid=416acd6b-072a-494f-b869-b2b61f9cc9d7"},"vehicle_type_id":"4","last_reported":1753636186,"current_range_meters":12400,"station_id":"st_cvj5dfep6f1abm77gieg","pricing_plan_id":"cebpf4jnsgd1na2vs0mg"},{"bike_id":"c4344d50-ec68-405a-bc5d-17bb944e60f0","system_id":"levelo_inurba_marseille","lat":43.29166,"lon":5.37158,"is_reserved":false,"is_disabled":false,"rental_uris":{"android":"levelo://app?vid=c4344d50-ec68-405a-bc5d-17bb944e60f0","ios":"levelo://app?vid=c4344d50-ec68-405a-bc5d-17bb944e60f0"},"vehicle_type_id":"4","last_reported":1753636186,"current_range_meters":12800,"station_id":"ce4bha92rcd13ifvqeh0","pricing_plan_id":"cebpf4jnsgd1na2vs0mg"},{"bike_id":"463e03fe-b9b0-4212-a764-9bd6d78e3c2e","system_id":"levelo_inurba_marseille","lat":43.31012,"lon":5.38126,"is_reserved":false,"is_disabled":false,"rental_uris":{"android":"levelo://app?vid=463e03fe-b9b0-4212-a764-9bd6d78e3c2e","ios":"levelo://app?vid=463e03fe-b9b0-4212-a764-9bd6d78e3c2e"},"vehicle_type_id":"4","last_reported":1753636186,"current_range_meters":12800,"station_id":"","pricing_plan_id":"cebpf4jnsgd1na2vs0mg"},{"bike_id":"e93689f3-25dc-4193-bbc3-fc3901826c20","system_id":"levelo_inurba_marseille","lat":43.29256,"lon":5.38438,"is_reserved":false,"is_disabled":false,"rental_uris":{"android":"levelo://app?vid=e93689f3-25dc-4193-bbc3-fc3901826c20","ios":"levelo://app?vid=e93689f3-25dc-4193-bbc3-fc3901826c20"},"vehicle_type_id":"4","last_reported":1753636186,"current_range_meters":12800,"station_id":"ce4bh692rcd13ifvqea0","pricing_plan_id":"cebpf4jnsgd1na2vs0mg"},{"bike_id":"8512b265-75e1-49d7-bb7d-bd988c357d7c","system_id":"levelo_inurba_marseille","lat":43.28705,"lon":5.39977,"is_reserved":false,"is_disabled":true,"rental_uris":{"android":"levelo://app?vid=8512b265-75e1-49d7-bb7d-bd988c357d7c","ios":"levelo://app?vid=8512b265-75e1-49d7-bb7d-bd988c357d7c"},"vehicle_type_id":"4","last_reported":1753636186,"current_range_meters":12800,"station_id":"","pricing_plan_id":"cebpf4jnsgd1na2vs0mg"},{"bike_id":"f0beafc6-4f1d-406d-9b81-bf9ae37556b7","system_id":"levelo_inurba_marseille","lat":43.22954,"lon":5.35367,"is_reserved":false,"is_disabled":false,"rental_uris":{"android":"levelo://app?vid=f0beafc6-4f1d-406d-9b81-bf9ae37556b7","ios":"levelo://app?vid=f0beafc6-4f1d-406d-9b81-bf9ae37556b7"},"vehicle_type_id":"4","last_reported":1753636186,"current_range_meters":13600,"station_id":"cpo3532slgdg3j2ikp40","pricing_plan_id":"cebpf4jnsgd1na2vs0mg"},{"bike_id":"8b091c87-00a4-4e64-a058-ca35b401f679","system_id":"levelo_inurba_marseille","lat":43.2482,"lon":5.37433,"is_reserved":false,"is_disabled":true,"rental_uris":{"android":"levelo://app?vid=8b091c87-00a4-4e64-a058-ca35b401f679","ios":"levelo://app?vid=8b091c87-00a4-4e64-a058-ca35b401f679"},"vehicle_type_id":"4","last_reported":1753636186,"current_range_meters":13600,"station_id":"ce4bhgh2rcd13ifvqfb0","pricing_plan_id":"cebpf4jnsgd1na2vs0mg"},{"bike_id":"5b4cdc70-31e0-4c78-adb6-44a333f5629f","system_id":"levelo_inurba_marseille","lat":43.29579,"lon":5.3674,"is_reserved":false,"is_disabled":false,"rental_uris":{"android":"levelo://app?vid=5b4cdc70-31e0-4c78-adb6-44a333f5629f","ios":"levelo://app?vid=5b4cdc70-31e0-4c78-adb6-44a333f5629f"},"vehicle_type_id":"4","last_reported":1753636186,"current_range_meters":13600,"station_id":"ce4bgph2rcd13ifvqc2g","pricing_plan_id":"cebpf4jnsgd1na2vs0mg"},{"bike_id":"887412fc-a50e-47c5-960e-d540b9c533a2","system_id":"levelo_inurba_marseille","lat":43.30645,"lon":5.40081,"is_reserved":false,"is_disabled":false,"rental_uris":{"android":"levelo://app?vid=887412fc-a50e-47c5-960e-d540b9c533a2","ios":"levelo://app?vid=887412fc-a50e-47c5-960e-d540b9c533a2"},"vehicle_type_id":"4","last_reported":1753636186,"current_range_meters":13600,"station_id":"ce4bh112rcd13ifvqda0","pricing_plan_id":"cebpf4jnsgd1na2vs0mg"},{"bike_id":"0a00fb8c-9c05-463f-921e-a94b832da8f4","system_id":"levelo_inurba_marseille","lat":43.29094,"lon":5.38139,"is_reserved":false,"is_disabled":false,"rental_uris":{"android":"levelo://app?vid=0a00fb8c-9c05-463f-921e-a94b832da8f4","ios":"levelo://app?vid=0a00fb8c-9c05-463f-921e-a94b832da8f4"},"vehicle_type_id":"4","last_reported":1753636186,"current_range_meters":14000,"station_id":"ce4bh512rcd13ifvqe2g","pricing_plan_id":"cebpf4jnsgd1na2vs0mg"},{"bike_id":"e666153e-0d94-49fc-a285-a6a2347ef6ad","system_id":"levelo_inurba_marseille","lat":43.26956,"lon":5.3862,"is_reserved":false,"is_disabled":true,"rental_uris":{"android":"levelo://app?vid=e666153e-0d94-49fc-a285-a6a2347ef6ad","ios":"levelo://app?vid=e666153e-0d94-49fc-a285-a6a2347ef6ad"},"vehicle_type_id":"4","last_reported":1753636186,"current_range_meters":13600,"station_id":"ce4bhh92rcd13ifvqfh0","pricing_plan_id":"cebpf4jnsgd1na2vs0mg"},{"bike_id":"86582cbe-628e-4eb3-b7c1-a8efcd5c1a21","system_id":"levelo_inurba_marseille","lat":43.29577,"lon":5.3674,"is_reserved":false,"is_disabled":false,"rental_uris":{"android":"levelo://app?vid=86582cbe-628e-4eb3-b7c1-a8efcd5c1a21","ios":"levelo://app?vid=86582cbe-628e-4eb3-b7c1-a8efcd5c1a21"},"vehicle_type_id":"4","last_reported":1753636186,"current_range_meters":14000,"station_id":"ce4bgph2rcd13ifvqc2g","pricing_plan_id":"cebpf4jnsgd1na2vs0mg"},{"bike_id":"d1ee7493-1c8a-469d-8c3c-eed7b0a6afe5","system_id":"levelo_inurba_marseille","lat":43.299683,"lon":5.386239,"is_reserved":false,"is_disabled":false,"rental_uris":{"android":"levelo://app?vid=d1ee7493-1c8a-469d-8c3c-eed7b0a6afe5","ios":"levelo://app?vid=d1ee7493-1c8a-469d-8c3c-eed7b0a6afe5"},"vehicle_type_id":"4","last_reported":1753636186,"current_range_meters":14000,"station_id":"","pricing_plan_id":"cebpf4jnsgd1na2vs0mg"},{"bike_id":"fc17dd07-1a4a-4aa7-beb0-db0d740f1929","system_id":"levelo_inurba_marseille","lat":43.2295,"lon":5.35353,"is_reserved":false,"is_disabled":false,"rental_uris":{"android":"levelo://app?vid=fc17dd07-1a4a-4aa7-beb0-db0d740f1929","ios":"levelo://app?vid=fc17dd07-1a4a-4aa7-beb0-db0d740f1929"},"vehicle_type_id":"4","last_reported":1753636186,"current_range_meters":14000,"station_id":"cpo3532slgdg3j2ikp40","pricing_plan_id":"cebpf4jnsgd1na2vs0mg"},{"bike_id":"8f785e69-82ae-4e1d-82c1-f85cc3f67788","system_id":"levelo_inurba_marseille","lat":43.29098,"lon":5.38147,"is_reserved":false,"is_disabled":true,"rental_uris":{"android":"levelo://app?vid=8f785e69-82ae-4e1d-82c1-f85cc3f67788","ios":"levelo://app?vid=8f785e69-82ae-4e1d-82c1-f85cc3f67788"},"vehicle_type_id":"4","last_reported":1753636186,"current_range_meters":14000,"station_id":"ce4bh512rcd13ifvqe2g","pricing_plan_id":"cebpf4jnsgd1na2vs0mg"},{"bike_id":"0b5615a5-106d-4400-b215-3c269075e481","system_id":"levelo_inurba_marseille","lat":43.22506,"lon":5.34774,"is_reserved":false,"is_disabled":false,"rental_uris":{"android":"levelo://app?vid=0b5615a5-106d-4400-b215-3c269075e481","ios":"levelo://app?vid=0b5615a5-106d-4400-b215-3c269075e481"},"vehicle_type_id":"4","last_reported":1753636186,"current_range_meters":14000,"station_id":"st_cvj5dfep6f1abm77gieg","pricing_plan_id":"cebpf4jnsgd1na2vs0mg"},{"bike_id":"935d2844-6718-432b-8e9a-2e214573bb35","system_id":"levelo_inurba_marseille","lat":43.27969,"lon":5.38721,"is_reserved":false,"is_disabled":false,"rental_uris":{"android":"levelo://app?vid=935d2844-6718-432b-8e9a-2e214573bb35","ios":"levelo://app?vid=935d2844-6718-432b-8e9a-2e214573bb35"},"vehicle_type_id":"4","last_reported":1753636186,"current_range_meters":14000,"station_id":"ce4bhg12rcd13ifvqf80","pricing_plan_id":"cebpf4jnsgd1na2vs0mg"},{"bike_id":"70381b97-b2ee-4f26-8f16-caf046608e7f","system_id":"levelo_inurba_marseille","lat":43.279968,"lon":5.400099,"is_reserved":false,"is_disabled":true,"rental_uris":{"android":"levelo://app?vid=70381b97-b2ee-4f26-8f16-caf046608e7f","ios":"levelo://app?vid=70381b97-b2ee-4f26-8f16-caf046608e7f"},"vehicle_type_id":"4","last_reported":1753636186,"current_range_meters":14400,"station_id":"ce4bho92rcd13ifvqh4g","pricing_plan_id":"cebpf4jnsgd1na2vs0mg"},{"bike_id":"bf3b53b2-3e96-407b-b4d4-d797204ff8bd","system_id":"levelo_inurba_marseille","lat":43.2989,"lon":5.39738,"is_reserved":false,"is_disabled":true,"rental_uris":{"android":"levelo://app?vid=bf3b53b2-3e96-407b-b4d4-d797204ff8bd","ios":"levelo://app?vid=bf3b53b2-3e96-407b-b4d4-d797204ff8bd"},"vehicle_type_id":"4","last_reported":1753636186,"current_range_meters":14400,"station_id":"ce4bh0h2rcd13ifvqd50","pricing_plan_id":"cebpf4jnsgd1na2vs0mg"},{"bike_id":"9306cb98-ff63-47ed-9064-9c9a8b611a79","system_id":"levelo_inurba_marseille","lat":43.29644,"lon":5.37296,"is_reserved":false,"is_disabled":false,"rental_uris":{"android":"levelo://app?vid=9306cb98-ff63-47ed-9064-9c9a8b611a79","ios":"levelo://app?vid=9306cb98-ff63-47ed-9064-9c9a8b611a79"},"vehicle_type_id":"4","last_reported":1753636186,"current_range_meters":14400,"station_id":"ce4bgk12rcd13ifvqbj0","pricing_plan_id":"cebpf4jnsgd1na2vs0mg"},{"bike_id":"2e6696a0-1f19-41f5-8593-0f7f9c16afdd","system_id":"levelo_inurba_marseille","lat":43.25002,"lon":5.38926,"is_reserved":false,"is_disabled":false,"rental_uris":{"android":"levelo://app?vid=2e6696a0-1f19-41f5-8593-0f7f9c16afdd","ios":"levelo://app?vid=2e6696a0-1f19-41f5-8593-0f7f9c16afdd"},"vehicle_type_id":"4","last_reported":1753636186,"current_range_meters":14400,"station_id":"ce4bhgp2rcd13ifvqfd0","pricing_plan_id":"cebpf4jnsgd1na2vs0mg"},{"bike_id":"6196600d-ecff-4703-969e-2e333e4edc0d","system_id":"levelo_inurba_marseille","lat":43.31168,"lon":5.38714,"is_reserved":false,"is_disabled":false,"rental_uris":{"android":"levelo://app?vid=6196600d-ecff-4703-969e-2e333e4edc0d","ios":"levelo://app?vid=6196600d-ecff-4703-969e-2e333e4edc0d"},"vehicle_type_id":"4","last_reported":1753636186,"current_range_meters":14400,"station_id":"ce4bgv12rcd13ifvqcp0","pricing_plan_id":"cebpf4jnsgd1na2vs0mg"},{"bike_id":"bd6b549e-0d95-4969-a481-beeb57b83b8f","system_id":"levelo_inurba_marseille","lat":43.30286,"lon":5.39208,"is_reserved":false,"is_disabled":false,"rental_uris":{"android":"levelo://app?vid=bd6b549e-0d95-4969-a481-beeb57b83b8f","ios":"levelo://app?vid=bd6b549e-0d95-4969-a481-beeb57b83b8f"},"vehicle_type_id":"4","last_reported":1753636186,"current_range_meters":14400,"station_id":"ce4bgkh2rcd13ifvqbk0","pricing_plan_id":"cebpf4jnsgd1na2vs0mg"},{"bike_id":"8d801f83-3686-49fa-a7fd-3701c57be20d","system_id":"levelo_inurba_marseille","lat":43.24084,"lon":5.37717,"is_reserved":false,"is_disabled":false,"rental_uris":{"android":"levelo://app?vid=8d801f83-3686-49fa-a7fd-3701c57be20d","ios":"levelo://app?vid=8d801f83-3686-49fa-a7fd-3701c57be20d"},"vehicle_type_id":"4","last_reported":1753636186,"current_range_meters":14400,"station_id":"ce4bhnp2rcd13ifvqgvg","pricing_plan_id":"cebpf4jnsgd1na2vs0mg"},{"bike_id":"3ea3f346-5119-4e7a-9acb-4f55569d9c60","system_id":"levelo_inurba_marseille","lat":43.30306,"lon":5.36901,"is_reserved":false,"is_disabled":false,"rental_uris":{"android":"levelo://app?vid=3ea3f346-5119-4e7a-9acb-4f55569d9c60","ios":"levelo://app?vid=3ea3f346-5119-4e7a-9acb-4f55569d9c60"},"vehicle_type_id":"4","last_reported":1753636186,"current_range_meters":14800,"station_id":"","pricing_plan_id":"cebpf4jnsgd1na2vs0mg"},{"bike_id":"56ec8761-dee0-49c1-aba7-a69ac65d386f","system_id":"levelo_inurba_marseille","lat":43.22953,"lon":5.35358,"is_reserved":false,"is_disabled":false,"rental_uris":{"android":"levelo://app?vid=56ec8761-dee0-49c1-aba7-a69ac65d386f","ios":"levelo://app?vid=56ec8761-dee0-49c1-aba7-a69ac65d386f"},"vehicle_type_id":"4","last_reported":1753636186,"current_range_meters":14800,"station_id":"cpo3532slgdg3j2ikp40","pricing_plan_id":"cebpf4jnsgd1na2vs0mg"},{"bike_id":"0bcd7894-6f17-4131-b9c0-3c5cb7124a86","system_id":"levelo_inurba_marseille","lat":43.28413,"lon":5.34993,"is_reserved":false,"is_disabled":false,"rental_uris":{"android":"levelo://app?vid=0bcd7894-6f17-4131-b9c0-3c5cb7124a86","ios":"levelo://app?vid=0bcd7894-6f17-4131-b9c0-3c5cb7124a86"},"vehicle_type_id":"4","last_reported":1753636186,"current_range_meters":14800,"station_id":"ce4bhbh2rcd13ifvqepg","pricing_plan_id":"cebpf4jnsgd1na2vs0mg"},{"bike_id":"441356d0-6677-4b9f-9cd5-dc9331b2f813","system_id":"levelo_inurba_marseille","lat":43.31368,"lon":5.38478,"is_reserved":false,"is_disabled":false,"rental_uris":{"android":"levelo://app?vid=441356d0-6677-4b9f-9cd5-dc9331b2f813","ios":"levelo://app?vid=441356d0-6677-4b9f-9cd5-dc9331b2f813"},"vehicle_type_id":"4","last_reported":1753636186,"current_range_meters":14400,"station_id":"ce4bgt92rcd13ifvqcf0","pricing_plan_id":"cebpf4jnsgd1na2vs0mg"},{"bike_id":"3152576e-d602-4c3f-980e-717f41aed773","system_id":"levelo_inurba_marseille","lat":43.33737,"lon":5.37465,"is_reserved":false,"is_disabled":false,"rental_uris":{"android":"levelo://app?vid=3152576e-d602-4c3f-980e-717f41aed773","ios":"levelo://app?vid=3152576e-d602-4c3f-980e-717f41aed773"},"vehicle_type_id":"4","last_reported":1753636186,"current_range_meters":14800,"station_id":"","pricing_plan_id":"cebpf4jnsgd1na2vs0mg"},{"bike_id":"7ae1342e-f363-4af5-b37a-506b5d6ef845","system_id":"levelo_inurba_marseille","lat":43.29256,"lon":5.409,"is_reserved":false,"is_disabled":false,"rental_uris":{"android":"levelo://app?vid=7ae1342e-f363-4af5-b37a-506b5d6ef845","ios":"levelo://app?vid=7ae1342e-f363-4af5-b37a-506b5d6ef845"},"vehicle_type_id":"4","last_reported":1753636186,"current_range_meters":15200,"station_id":"ce4bh192rcd13ifvqdc0","pricing_plan_id":"cebpf4jnsgd1na2vs0mg"},{"bike_id":"3dac6e7a-6727-4547-a162-4acf06c4c2f5","system_id":"levelo_inurba_marseille","lat":43.24653,"lon":5.38916,"is_reserved":false,"is_disabled":false,"rental_uris":{"android":"levelo://app?vid=3dac6e7a-6727-4547-a162-4acf06c4c2f5","ios":"levelo://app?vid=3dac6e7a-6727-4547-a162-4acf06c4c2f5"},"vehicle_type_id":"4","last_reported":1753636186,"current_range_meters":15200,"station_id":"ce4bhg12rcd13ifvqf60","pricing_plan_id":"cebpf4jnsgd1na2vs0mg"},{"bike_id":"c08ea85f-82dd-46fd-a841-85b45c63ba4d","system_id":"levelo_inurba_marseille","lat":43.31269,"lon":5.40167,"is_reserved":false,"is_disabled":false,"rental_uris":{"android":"levelo://app?vid=c08ea85f-82dd-46fd-a841-85b45c63ba4d","ios":"levelo://app?vid=c08ea85f-82dd-46fd-a841-85b45c63ba4d"},"vehicle_type_id":"4","last_reported":1753636186,"current_range_meters":15200,"station_id":"ce4bh092rcd13ifvqd30","pricing_plan_id":"cebpf4jnsgd1na2vs0mg"},{"bike_id":"515c199d-d66e-4967-aa6b-e550863f3b61","system_id":"levelo_inurba_marseille","lat":43.257176,"lon":5.411163,"is_reserved":false,"is_disabled":false,"rental_uris":{"android":"levelo://app?vid=515c199d-d66e-4967-aa6b-e550863f3b61","ios":"levelo://app?vid=515c199d-d66e-4967-aa6b-e550863f3b61"},"vehicle_type_id":"4","last_reported":1753636186,"current_range_meters":15200,"station_id":"ce4bhkp2rcd13ifvqgd0","pricing_plan_id":"cebpf4jnsgd1na2vs0mg"},{"bike_id":"48538135-5d0a-49ee-9320-155fbd091354","system_id":"levelo_inurba_marseille","lat":43.25939,"lon":5.40887,"is_reserved":false,"is_disabled":false,"rental_uris":{"android":"levelo://app?vid=48538135-5d0a-49ee-9320-155fbd091354","ios":"levelo://app?vid=48538135-5d0a-49ee-9320-155fbd091354"},"vehicle_type_id":"4","last_reported":1753636186,"current_range_meters":15200,"station_id":"ce4bhm92rcd13ifvqglg","pricing_plan_id":"cebpf4jnsgd1na2vs0mg"},{"bike_id":"d8cd6055-23c8-4622-a5bf-68f9b9ebfe53","system_id":"levelo_inurba_marseille","lat":43.27078,"lon":5.4228,"is_reserved":false,"is_disabled":true,"rental_uris":{"android":"levelo://app?vid=d8cd6055-23c8-4622-a5bf-68f9b9ebfe53","ios":"levelo://app?vid=d8cd6055-23c8-4622-a5bf-68f9b9ebfe53"},"vehicle_type_id":"4","last_reported":1753636186,"current_range_meters":15200,"station_id":"ce4bhk92rcd13ifvqgb0","pricing_plan_id":"cebpf4jnsgd1na2vs0mg"},{"bike_id":"a7fd965b-7d34-4367-86f2-ea4562e6381d","system_id":"levelo_inurba_marseille","lat":43.30299,"lon":5.39223,"is_reserved":false,"is_disabled":false,"rental_uris":{"android":"levelo://app?vid=a7fd965b-7d34-4367-86f2-ea4562e6381d","ios":"levelo://app?vid=a7fd965b-7d34-4367-86f2-ea4562e6381d"},"vehicle_type_id":"4","last_reported":1753636186,"current_range_meters":15200,"station_id":"ce4bgkh2rcd13ifvqbk0","pricing_plan_id":"cebpf4jnsgd1na2vs0mg"},{"bike_id":"264fbea3-2c7f-4636-bd2b-32e60faed0d5","system_id":"levelo_inurba_marseille","lat":43.22509,"lon":5.3476,"is_reserved":false,"is_disabled":false,"rental_uris":{"android":"levelo://app?vid=264fbea3-2c7f-4636-bd2b-32e60faed0d5","ios":"levelo://app?vid=264fbea3-2c7f-4636-bd2b-32e60faed0d5"},"vehicle_type_id":"4","last_reported":1753636186,"current_range_meters":15200,"station_id":"st_cvj5dfep6f1abm77gieg","pricing_plan_id":"cebpf4jnsgd1na2vs0mg"},{"bike_id":"05c0f62b-da09-4ec2-9e7b-b85ef897c1d0","system_id":"levelo_inurba_marseille","lat":43.30297,"lon":5.39214,"is_reserved":false,"is_disabled":false,"rental_uris":{"android":"levelo://app?vid=05c0f62b-da09-4ec2-9e7b-b85ef897c1d0","ios":"levelo://app?vid=05c0f62b-da09-4ec2-9e7b-b85ef897c1d0"},"vehicle_type_id":"4","last_reported":1753636186,"current_range_meters":16000,"station_id":"ce4bgkh2rcd13ifvqbk0","pricing_plan_id":"cebpf4jnsgd1na2vs0mg"},{"bike_id":"87a4d710-c859-4883-a056-db27db09862e","system_id":"levelo_inurba_marseille","lat":43.277585,"lon":5.355971,"is_reserved":false,"is_disabled":false,"rental_uris":{"android":"levelo://app?vid=87a4d710-c859-4883-a056-db27db09862e","ios":"levelo://app?vid=87a4d710-c859-4883-a056-db27db09862e"},"vehicle_type_id":"4","last_reported":1753636186,"current_range_meters":16000,"station_id":"","pricing_plan_id":"cebpf4jnsgd1na2vs0mg"},{"bike_id":"a591545e-2b41-4298-a6a7-8e4c88bde821","system_id":"levelo_inurba_marseille","lat":43.286088,"lon":5.370594,"is_reserved":false,"is_disabled":false,"rental_uris":{"android":"levelo://app?vid=a591545e-2b41-4298-a6a7-8e4c88bde821","ios":"levelo://app?vid=a591545e-2b41-4298-a6a7-8e4c88bde821"},"vehicle_type_id":"4","last_reported":1753636186,"current_range_meters":16000,"station_id":"ce4bht12rcd13ifvqi60","pricing_plan_id":"cebpf4jnsgd1na2vs0mg"},{"bike_id":"10fa1caf-33e5-4f95-b100-173987d17ae4","system_id":"levelo_inurba_marseille","lat":43.24803,"lon":5.37453,"is_reserved":false,"is_disabled":false,"rental_uris":{"android":"levelo://app?vid=10fa1caf-33e5-4f95-b100-173987d17ae4","ios":"levelo://app?vid=10fa1caf-33e5-4f95-b100-173987d17ae4"},"vehicle_type_id":"4","last_reported":1753636186,"current_range_meters":16000,"station_id":"ce4bhgh2rcd13ifvqfb0","pricing_plan_id":"cebpf4jnsgd1na2vs0mg"},{"bike_id":"df2dcce2-833a-46b7-98bc-ef17fe2d1fd9","system_id":"levelo_inurba_marseille","lat":43.29619,"lon":5.3772,"is_reserved":false,"is_disabled":false,"rental_uris":{"android":"levelo://app?vid=df2dcce2-833a-46b7-98bc-ef17fe2d1fd9","ios":"levelo://app?vid=df2dcce2-833a-46b7-98bc-ef17fe2d1fd9"},"vehicle_type_id":"4","last_reported":1753636186,"current_range_meters":16000,"station_id":"ce4bgi92rcd13ifvqb90","pricing_plan_id":"cebpf4jnsgd1na2vs0mg"},{"bike_id":"1a41f7b5-6fdb-4d39-a2fc-94f6954a3a4f","system_id":"levelo_inurba_marseille","lat":43.306,"lon":5.37222,"is_reserved":false,"is_disabled":false,"rental_uris":{"android":"levelo://app?vid=1a41f7b5-6fdb-4d39-a2fc-94f6954a3a4f","ios":"levelo://app?vid=1a41f7b5-6fdb-4d39-a2fc-94f6954a3a4f"},"vehicle_type_id":"4","last_reported":1753636186,"current_range_meters":16000,"station_id":"ce4bgqh2rcd13ifvqc4g","pricing_plan_id":"cebpf4jnsgd1na2vs0mg"},{"bike_id":"feb40379-0815-4a68-aadb-305942f11d04","system_id":"levelo_inurba_marseille","lat":43.249447,"lon":5.389839,"is_reserved":false,"is_disabled":false,"rental_uris":{"android":"levelo://app?vid=feb40379-0815-4a68-aadb-305942f11d04","ios":"levelo://app?vid=feb40379-0815-4a68-aadb-305942f11d04"},"vehicle_type_id":"4","last_reported":1753636186,"current_range_meters":16000,"station_id":"","pricing_plan_id":"cebpf4jnsgd1na2vs0mg"},{"bike_id":"3e02d1f0-0222-4858-946c-ee2ac9060ae6","system_id":"levelo_inurba_marseille","lat":43.2814,"lon":5.4265,"is_reserved":false,"is_disabled":false,"rental_uris":{"android":"levelo://app?vid=3e02d1f0-0222-4858-946c-ee2ac9060ae6","ios":"levelo://app?vid=3e02d1f0-0222-4858-946c-ee2ac9060ae6"},"vehicle_type_id":"4","last_reported":1753636186,"current_range_meters":16400,"station_id":"ce4bhnh2rcd13ifvqgug","pricing_plan_id":"cebpf4jnsgd1na2vs0mg"},{"bike_id":"2edf8151-cb92-46cc-9321-24e397aeed28","system_id":"levelo_inurba_marseille","lat":43.23055,"lon":5.35471,"is_reserved":false,"is_disabled":false,"rental_uris":{"android":"levelo://app?vid=2edf8151-cb92-46cc-9321-24e397aeed28","ios":"levelo://app?vid=2edf8151-cb92-46cc-9321-24e397aeed28"},"vehicle_type_id":"4","last_reported":1753636186,"current_range_meters":16400,"station_id":"cpo3342slgdg3j2ifvpg","pricing_plan_id":"cebpf4jnsgd1na2vs0mg"},{"bike_id":"61f03b96-eba5-4b16-b393-41a82afa26e7","system_id":"levelo_inurba_marseille","lat":43.297387,"lon":5.376772,"is_reserved":false,"is_disabled":true,"rental_uris":{"android":"levelo://app?vid=61f03b96-eba5-4b16-b393-41a82afa26e7","ios":"levelo://app?vid=61f03b96-eba5-4b16-b393-41a82afa26e7"},"vehicle_type_id":"4","last_reported":1753636186,"current_range_meters":16400,"station_id":"ce4bgkh2rcd13ifvqbl0","pricing_plan_id":"cebpf4jnsgd1na2vs0mg"},{"bike_id":"d6f576dc-ffe7-4ab5-bc96-13103d0759e3","system_id":"levelo_inurba_marseille","lat":43.23958,"lon":5.36621,"is_reserved":false,"is_disabled":false,"rental_uris":{"android":"levelo://app?vid=d6f576dc-ffe7-4ab5-bc96-13103d0759e3","ios":"levelo://app?vid=d6f576dc-ffe7-4ab5-bc96-13103d0759e3"},"vehicle_type_id":"4","last_reported":1753636186,"current_range_meters":16400,"station_id":"ce4bhi12rcd13ifvqfp0","pricing_plan_id":"cebpf4jnsgd1na2vs0mg"},{"bike_id":"b08688a9-3d1a-42a1-af74-605bad2088a3","system_id":"levelo_inurba_marseille","lat":43.28927,"lon":5.38404,"is_reserved":false,"is_disabled":false,"rental_uris":{"android":"levelo://app?vid=b08688a9-3d1a-42a1-af74-605bad2088a3","ios":"levelo://app?vid=b08688a9-3d1a-42a1-af74-605bad2088a3"},"vehicle_type_id":"4","last_reported":1753636186,"current_range_meters":16400,"station_id":"ce4bh612rcd13ifvqe6g","pricing_plan_id":"cebpf4jnsgd1na2vs0mg"},{"bike_id":"78a8a8f6-1cbe-48a7-afd7-d8db96ba8c71","system_id":"levelo_inurba_marseille","lat":43.30206,"lon":5.36612,"is_reserved":false,"is_disabled":true,"rental_uris":{"android":"levelo://app?vid=78a8a8f6-1cbe-48a7-afd7-d8db96ba8c71","ios":"levelo://app?vid=78a8a8f6-1cbe-48a7-afd7-d8db96ba8c71"},"vehicle_type_id":"4","last_reported":1753636186,"current_range_meters":16400,"station_id":"ce4bgrh2rcd13ifvqc8g","pricing_plan_id":"cebpf4jnsgd1na2vs0mg"},{"bike_id":"f843fcb4-7cb9-4195-8cf9-1ecbe360cf0a","system_id":"levelo_inurba_marseille","lat":43.28408,"lon":5.34961,"is_reserved":false,"is_disabled":false,"rental_uris":{"android":"levelo://app?vid=f843fcb4-7cb9-4195-8cf9-1ecbe360cf0a","ios":"levelo://app?vid=f843fcb4-7cb9-4195-8cf9-1ecbe360cf0a"},"vehicle_type_id":"4","last_reported":1753636186,"current_range_meters":16400,"station_id":"ce4bhbh2rcd13ifvqepg","pricing_plan_id":"cebpf4jnsgd1na2vs0mg"},{"bike_id":"5f3b4fd1-eae6-41fc-8eb7-bc8b29b63214","system_id":"levelo_inurba_marseille","lat":43.32354,"lon":5.36749,"is_reserved":false,"is_disabled":false,"rental_uris":{"android":"levelo://app?vid=5f3b4fd1-eae6-41fc-8eb7-bc8b29b63214","ios":"levelo://app?vid=5f3b4fd1-eae6-41fc-8eb7-bc8b29b63214"},"vehicle_type_id":"4","last_reported":1753636186,"current_range_meters":16400,"station_id":"ce4bhsh2rcd13ifvqi2g","pricing_plan_id":"cebpf4jnsgd1na2vs0mg"},{"bike_id":"21119b74-9092-450b-a780-dc3f5e5aa101","system_id":"levelo_inurba_marseille","lat":43.24103,"lon":5.37729,"is_reserved":false,"is_disabled":false,"rental_uris":{"android":"levelo://app?vid=21119b74-9092-450b-a780-dc3f5e5aa101","ios":"levelo://app?vid=21119b74-9092-450b-a780-dc3f5e5aa101"},"vehicle_type_id":"4","last_reported":1753636186,"current_range_meters":16400,"station_id":"ce4bhnp2rcd13ifvqgvg","pricing_plan_id":"cebpf4jnsgd1na2vs0mg"},{"bike_id":"329681ee-4b7c-4b42-a093-9c4985b10282","system_id":"levelo_inurba_marseille","lat":43.28424,"lon":5.34966,"is_reserved":false,"is_disabled":true,"rental_uris":{"android":"levelo://app?vid=329681ee-4b7c-4b42-a093-9c4985b10282","ios":"levelo://app?vid=329681ee-4b7c-4b42-a093-9c4985b10282"},"vehicle_type_id":"4","last_reported":1753636186,"current_range_meters":16400,"station_id":"ce4bhbh2rcd13ifvqepg","pricing_plan_id":"cebpf4jnsgd1na2vs0mg"},{"bike_id":"78512513-38f4-4c06-8458-80c4e2a42ec3","system_id":"levelo_inurba_marseille","lat":43.27815,"lon":5.40714,"is_reserved":false,"is_disabled":false,"rental_uris":{"android":"levelo://app?vid=78512513-38f4-4c06-8458-80c4e2a42ec3","ios":"levelo://app?vid=78512513-38f4-4c06-8458-80c4e2a42ec3"},"vehicle_type_id":"4","last_reported":1753636186,"current_range_meters":16400,"station_id":"ce4bhnh2rcd13ifvqgtg","pricing_plan_id":"cebpf4jnsgd1na2vs0mg"},{"bike_id":"b2e80c2c-cca4-43c9-b626-e46bbf2de62d","system_id":"levelo_inurba_marseille","lat":43.28416,"lon":5.34974,"is_reserved":false,"is_disabled":false,"rental_uris":{"android":"levelo://app?vid=b2e80c2c-cca4-43c9-b626-e46bbf2de62d","ios":"levelo://app?vid=b2e80c2c-cca4-43c9-b626-e46bbf2de62d"},"vehicle_type_id":"4","last_reported":1753636186,"current_range_meters":16400,"station_id":"ce4bhbh2rcd13ifvqepg","pricing_plan_id":"cebpf4jnsgd1na2vs0mg"},{"bike_id":"06b37b78-75ad-42cc-bf01-6fceceed78c5","system_id":"levelo_inurba_marseille","lat":43.23956,"lon":5.366296,"is_reserved":false,"is_disabled":false,"rental_uris":{"android":"levelo://app?vid=06b37b78-75ad-42cc-bf01-6fceceed78c5","ios":"levelo://app?vid=06b37b78-75ad-42cc-bf01-6fceceed78c5"},"vehicle_type_id":"4","last_reported":1753636186,"current_range_meters":16800,"station_id":"ce4bhi12rcd13ifvqfp0","pricing_plan_id":"cebpf4jnsgd1na2vs0mg"},{"bike_id":"f9c852e7-c1aa-4705-9842-ddd55acb7058","system_id":"levelo_inurba_marseille","lat":43.281549,"lon":5.351309,"is_reserved":false,"is_disabled":false,"rental_uris":{"android":"levelo://app?vid=f9c852e7-c1aa-4705-9842-ddd55acb7058","ios":"levelo://app?vid=f9c852e7-c1aa-4705-9842-ddd55acb7058"},"vehicle_type_id":"4","last_reported":1753636186,"current_range_meters":16800,"station_id":"ce4bhbh2rcd13ifvqeo0","pricing_plan_id":"cebpf4jnsgd1na2vs0mg"},{"bike_id":"363860ed-6d0c-40e8-91e3-2c5053026ca7","system_id":"levelo_inurba_marseille","lat":43.22945,"lon":5.3537,"is_reserved":false,"is_disabled":false,"rental_uris":{"android":"levelo://app?vid=363860ed-6d0c-40e8-91e3-2c5053026ca7","ios":"levelo://app?vid=363860ed-6d0c-40e8-91e3-2c5053026ca7"},"vehicle_type_id":"4","last_reported":1753636186,"current_range_meters":16800,"station_id":"cpo3532slgdg3j2ikp40","pricing_plan_id":"cebpf4jnsgd1na2vs0mg"},{"bike_id":"b1ce726d-f66e-4a21-9e58-bcc99e079d39","system_id":"levelo_inurba_marseille","lat":43.27616,"lon":5.36107,"is_reserved":false,"is_disabled":false,"rental_uris":{"android":"levelo://app?vid=b1ce726d-f66e-4a21-9e58-bcc99e079d39","ios":"levelo://app?vid=b1ce726d-f66e-4a21-9e58-bcc99e079d39"},"vehicle_type_id":"4","last_reported":1753636186,"current_range_meters":16800,"station_id":"ce4bgj92rcd13ifvqbe0","pricing_plan_id":"cebpf4jnsgd1na2vs0mg"},{"bike_id":"098b018e-2607-4af2-bc10-8758893e88ea","system_id":"levelo_inurba_marseille","lat":43.240723,"lon":5.377519,"is_reserved":false,"is_disabled":false,"rental_uris":{"android":"levelo://app?vid=098b018e-2607-4af2-bc10-8758893e88ea","ios":"levelo://app?vid=098b018e-2607-4af2-bc10-8758893e88ea"},"vehicle_type_id":"4","last_reported":1753636186,"current_range_meters":16800,"station_id":"ce4bhnp2rcd13ifvqgvg","pricing_plan_id":"cebpf4jnsgd1na2vs0mg"},{"bike_id":"43db33db-3d20-45e3-81a8-0eca208dab5f","system_id":"levelo_inurba_marseille","lat":43.29268,"lon":5.38436,"is_reserved":false,"is_disabled":false,"rental_uris":{"android":"levelo://app?vid=43db33db-3d20-45e3-81a8-0eca208dab5f","ios":"levelo://app?vid=43db33db-3d20-45e3-81a8-0eca208dab5f"},"vehicle_type_id":"4","last_reported":1753636186,"current_range_meters":16800,"station_id":"ce4bh692rcd13ifvqea0","pricing_plan_id":"cebpf4jnsgd1na2vs0mg"},{"bike_id":"823cbbe5-ef66-4542-ab0a-41cc2d9b7cd8","system_id":"levelo_inurba_marseille","lat":43.29845,"lon":5.36272,"is_reserved":false,"is_disabled":false,"rental_uris":{"android":"levelo://app?vid=823cbbe5-ef66-4542-ab0a-41cc2d9b7cd8","ios":"levelo://app?vid=823cbbe5-ef66-4542-ab0a-41cc2d9b7cd8"},"vehicle_type_id":"4","last_reported":1753636186,"current_range_meters":16800,"station_id":"ce4bgpp2rcd13ifvqc3g","pricing_plan_id":"cebpf4jnsgd1na2vs0mg"},{"bike_id":"209c73e6-1f69-4d13-9fed-77cb46eecd05","system_id":"levelo_inurba_marseille","lat":43.34681,"lon":5.38065,"is_reserved":false,"is_disabled":false,"rental_uris":{"android":"levelo://app?vid=209c73e6-1f69-4d13-9fed-77cb46eecd05","ios":"levelo://app?vid=209c73e6-1f69-4d13-9fed-77cb46eecd05"},"vehicle_type_id":"4","last_reported":1753636186,"current_range_meters":16800,"station_id":"","pricing_plan_id":"cebpf4jnsgd1na2vs0mg"},{"bike_id":"114fe628-df7a-4468-9cc0-14911bee2d76","system_id":"levelo_inurba_marseille","lat":43.28417,"lon":5.34973,"is_reserved":false,"is_disabled":false,"rental_uris":{"android":"levelo://app?vid=114fe628-df7a-4468-9cc0-14911bee2d76","ios":"levelo://app?vid=114fe628-df7a-4468-9cc0-14911bee2d76"},"vehicle_type_id":"4","last_reported":1753636186,"current_range_meters":17200,"station_id":"ce4bhbh2rcd13ifvqepg","pricing_plan_id":"cebpf4jnsgd1na2vs0mg"},{"bike_id":"608ecc5c-8a83-4f8b-aeda-9ddb96bb8238","system_id":"levelo_inurba_marseille","lat":43.28411,"lon":5.34969,"is_reserved":false,"is_disabled":false,"rental_uris":{"android":"levelo://app?vid=608ecc5c-8a83-4f8b-aeda-9ddb96bb8238","ios":"levelo://app?vid=608ecc5c-8a83-4f8b-aeda-9ddb96bb8238"},"vehicle_type_id":"4","last_reported":1753636186,"current_range_meters":17200,"station_id":"ce4bhbh2rcd13ifvqepg","pricing_plan_id":"cebpf4jnsgd1na2vs0mg"},{"bike_id":"f0cdf0c8-bc5a-4d40-b028-109d2b47cbb8","system_id":"levelo_inurba_marseille","lat":43.316934,"lon":5.404656,"is_reserved":false,"is_disabled":false,"rental_uris":{"android":"levelo://app?vid=f0cdf0c8-bc5a-4d40-b028-109d2b47cbb8","ios":"levelo://app?vid=f0cdf0c8-bc5a-4d40-b028-109d2b47cbb8"},"vehicle_type_id":"4","last_reported":1753636186,"current_range_meters":17200,"station_id":"ce4bh012rcd13ifvqd00","pricing_plan_id":"cebpf4jnsgd1na2vs0mg"},{"bike_id":"95dd70e4-879c-49e7-b318-a6c71b22a43e","system_id":"levelo_inurba_marseille","lat":43.2703,"lon":5.39295,"is_reserved":false,"is_disabled":false,"rental_uris":{"android":"levelo://app?vid=95dd70e4-879c-49e7-b318-a6c71b22a43e","ios":"levelo://app?vid=95dd70e4-879c-49e7-b318-a6c71b22a43e"},"vehicle_type_id":"4","last_reported":1753636186,"current_range_meters":17200,"station_id":"","pricing_plan_id":"cebpf4jnsgd1na2vs0mg"},{"bike_id":"baa049fa-c3e2-4c1a-8082-0c6c10cd9a92","system_id":"levelo_inurba_marseille","lat":43.23055,"lon":5.35489,"is_reserved":false,"is_disabled":false,"rental_uris":{"android":"levelo://app?vid=baa049fa-c3e2-4c1a-8082-0c6c10cd9a92","ios":"levelo://app?vid=baa049fa-c3e2-4c1a-8082-0c6c10cd9a92"},"vehicle_type_id":"4","last_reported":1753636186,"current_range_meters":17200,"station_id":"cpo3342slgdg3j2ifvpg","pricing_plan_id":"cebpf4jnsgd1na2vs0mg"},{"bike_id":"18f10040-1279-4ecf-aaa5-fac653919fac","system_id":"levelo_inurba_marseille","lat":43.30885,"lon":5.39658,"is_reserved":false,"is_disabled":false,"rental_uris":{"android":"levelo://app?vid=18f10040-1279-4ecf-aaa5-fac653919fac","ios":"levelo://app?vid=18f10040-1279-4ecf-aaa5-fac653919fac"},"vehicle_type_id":"4","last_reported":1753636186,"current_range_meters":17200,"station_id":"ce4bh012rcd13ifvqcv0","pricing_plan_id":"cebpf4jnsgd1na2vs0mg"},{"bike_id":"536dd0a6-7f1b-40ed-af5a-c920c69aac4b","system_id":"levelo_inurba_marseille","lat":43.2762,"lon":5.36102,"is_reserved":false,"is_disabled":false,"rental_uris":{"android":"levelo://app?vid=536dd0a6-7f1b-40ed-af5a-c920c69aac4b","ios":"levelo://app?vid=536dd0a6-7f1b-40ed-af5a-c920c69aac4b"},"vehicle_type_id":"4","last_reported":1753636186,"current_range_meters":17200,"station_id":"ce4bgj92rcd13ifvqbe0","pricing_plan_id":"cebpf4jnsgd1na2vs0mg"},{"bike_id":"149fbe11-3bce-47a0-b584-c7c7bd6bb12f","system_id":"levelo_inurba_marseille","lat":43.21614,"lon":5.34449,"is_reserved":false,"is_disabled":false,"rental_uris":{"android":"levelo://app?vid=149fbe11-3bce-47a0-b584-c7c7bd6bb12f","ios":"levelo://app?vid=149fbe11-3bce-47a0-b584-c7c7bd6bb12f"},"vehicle_type_id":"4","last_reported":1753636186,"current_range_meters":17200,"station_id":"","pricing_plan_id":"cebpf4jnsgd1na2vs0mg"},{"bike_id":"8ba8dc19-9480-44b0-8314-f750d170710c","system_id":"levelo_inurba_marseille","lat":43.24069,"lon":5.37762,"is_reserved":false,"is_disabled":false,"rental_uris":{"android":"levelo://app?vid=8ba8dc19-9480-44b0-8314-f750d170710c","ios":"levelo://app?vid=8ba8dc19-9480-44b0-8314-f750d170710c"},"vehicle_type_id":"4","last_reported":1753636186,"current_range_meters":17200,"station_id":"ce4bhnp2rcd13ifvqgvg","pricing_plan_id":"cebpf4jnsgd1na2vs0mg"},{"bike_id":"27f1f75b-6baf-4fdf-ac69-40f27d204269","system_id":"levelo_inurba_marseille","lat":43.29395,"lon":5.37842,"is_reserved":false,"is_disabled":true,"rental_uris":{"android":"levelo://app?vid=27f1f75b-6baf-4fdf-ac69-40f27d204269","ios":"levelo://app?vid=27f1f75b-6baf-4fdf-ac69-40f27d204269"},"vehicle_type_id":"4","last_reported":1753636186,"current_range_meters":17200,"station_id":"ce4bgjh2rcd13ifvqbf0","pricing_plan_id":"cebpf4jnsgd1na2vs0mg"},{"bike_id":"183555a8-6f99-4990-88bb-e67409876a66","system_id":"levelo_inurba_marseille","lat":43.28672,"lon":5.38658,"is_reserved":false,"is_disabled":false,"rental_uris":{"android":"levelo://app?vid=183555a8-6f99-4990-88bb-e67409876a66","ios":"levelo://app?vid=183555a8-6f99-4990-88bb-e67409876a66"},"vehicle_type_id":"4","last_reported":1753636186,"current_range_meters":17200,"station_id":"ce4bh492rcd13ifvqdug","pricing_plan_id":"cebpf4jnsgd1na2vs0mg"},{"bike_id":"95d1bf9d-753e-4f8f-9e8d-451ff600a165","system_id":"levelo_inurba_marseille","lat":43.28849,"lon":5.39302,"is_reserved":false,"is_disabled":false,"rental_uris":{"android":"levelo://app?vid=95d1bf9d-753e-4f8f-9e8d-451ff600a165","ios":"levelo://app?vid=95d1bf9d-753e-4f8f-9e8d-451ff600a165"},"vehicle_type_id":"4","last_reported":1753636186,"current_range_meters":17200,"station_id":"ce4bh2p2rcd13ifvqdi0","pricing_plan_id":"cebpf4jnsgd1na2vs0mg"},{"bike_id":"6d790834-3e55-4c11-9b80-b950b92d1b83","system_id":"levelo_inurba_marseille","lat":43.299,"lon":5.38165,"is_reserved":false,"is_disabled":false,"rental_uris":{"android":"levelo://app?vid=6d790834-3e55-4c11-9b80-b950b92d1b83","ios":"levelo://app?vid=6d790834-3e55-4c11-9b80-b950b92d1b83"},"vehicle_type_id":"4","last_reported":1753636186,"current_range_meters":16800,"station_id":"ce4bgj12rcd13ifvqbc0","pricing_plan_id":"cebpf4jnsgd1na2vs0mg"},{"bike_id":"8142408b-84ea-4577-9728-f52c3a5f16f1","system_id":"levelo_inurba_marseille","lat":43.241747,"lon":5.364035,"is_reserved":false,"is_disabled":true,"rental_uris":{"android":"levelo://app?vid=8142408b-84ea-4577-9728-f52c3a5f16f1","ios":"levelo://app?vid=8142408b-84ea-4577-9728-f52c3a5f16f1"},"vehicle_type_id":"4","last_reported":1753636186,"current_range_meters":17600,"station_id":"cpo36qri1sfpv3e86is0","pricing_plan_id":"cebpf4jnsgd1na2vs0mg"},{"bike_id":"ec21a687-39a2-4aa5-8eee-7c9721be293e","system_id":"levelo_inurba_marseille","lat":43.29623,"lon":5.37169,"is_reserved":false,"is_disabled":false,"rental_uris":{"android":"levelo://app?vid=ec21a687-39a2-4aa5-8eee-7c9721be293e","ios":"levelo://app?vid=ec21a687-39a2-4aa5-8eee-7c9721be293e"},"vehicle_type_id":"4","last_reported":1753636186,"current_range_meters":17200,"station_id":"ce4bgnh2rcd13ifvqc0g","pricing_plan_id":"cebpf4jnsgd1na2vs0mg"},{"bike_id":"1c41963a-013a-4553-b4f5-ce2fcf2d6c9d","system_id":"levelo_inurba_marseille","lat":43.29943,"lon":5.36549,"is_reserved":false,"is_disabled":false,"rental_uris":{"android":"levelo://app?vid=1c41963a-013a-4553-b4f5-ce2fcf2d6c9d","ios":"levelo://app?vid=1c41963a-013a-4553-b4f5-ce2fcf2d6c9d"},"vehicle_type_id":"4","last_reported":1753636186,"current_range_meters":17600,"station_id":"ce4bgm92rcd13ifvqbr0","pricing_plan_id":"cebpf4jnsgd1na2vs0mg"},{"bike_id":"5bf3ed1a-1969-409f-8d81-292c7d10a407","system_id":"levelo_inurba_marseille","lat":43.32119,"lon":5.36782,"is_reserved":false,"is_disabled":false,"rental_uris":{"android":"levelo://app?vid=5bf3ed1a-1969-409f-8d81-292c7d10a407","ios":"levelo://app?vid=5bf3ed1a-1969-409f-8d81-292c7d10a407"},"vehicle_type_id":"4","last_reported":1753636186,"current_range_meters":17600,"station_id":"ce4bhrh2rcd13ifvqhug","pricing_plan_id":"cebpf4jnsgd1na2vs0mg"},{"bike_id":"370636ac-f04f-462b-8596-88232943766f","system_id":"levelo_inurba_marseille","lat":43.29508,"lon":5.37493,"is_reserved":false,"is_disabled":true,"rental_uris":{"android":"levelo://app?vid=370636ac-f04f-462b-8596-88232943766f","ios":"levelo://app?vid=370636ac-f04f-462b-8596-88232943766f"},"vehicle_type_id":"4","last_reported":1753636186,"current_range_meters":17600,"station_id":"ce4bgkp2rcd13ifvqbmg","pricing_plan_id":"cebpf4jnsgd1na2vs0mg"},{"bike_id":"842d5d55-7511-4021-87dd-fadb1d54f268","system_id":"levelo_inurba_marseille","lat":43.24798,"lon":5.37488,"is_reserved":false,"is_disabled":false,"rental_uris":{"android":"levelo://app?vid=842d5d55-7511-4021-87dd-fadb1d54f268","ios":"levelo://app?vid=842d5d55-7511-4021-87dd-fadb1d54f268"},"vehicle_type_id":"4","last_reported":1753636186,"current_range_meters":17200,"station_id":"ce4bhgh2rcd13ifvqfb0","pricing_plan_id":"cebpf4jnsgd1na2vs0mg"},{"bike_id":"e094082d-aff5-406a-9a62-df970729fae5","system_id":"levelo_inurba_marseille","lat":43.28417,"lon":5.34973,"is_reserved":false,"is_disabled":false,"rental_uris":{"android":"levelo://app?vid=e094082d-aff5-406a-9a62-df970729fae5","ios":"levelo://app?vid=e094082d-aff5-406a-9a62-df970729fae5"},"vehicle_type_id":"4","last_reported":1753636186,"current_range_meters":17600,"station_id":"ce4bhbh2rcd13ifvqepg","pricing_plan_id":"cebpf4jnsgd1na2vs0mg"},{"bike_id":"b44dab48-5bd3-48c3-b789-115573a7c484","system_id":"levelo_inurba_marseille","lat":43.24065,"lon":5.37739,"is_reserved":false,"is_disabled":false,"rental_uris":{"android":"levelo://app?vid=b44dab48-5bd3-48c3-b789-115573a7c484","ios":"levelo://app?vid=b44dab48-5bd3-48c3-b789-115573a7c484"},"vehicle_type_id":"4","last_reported":1753636186,"current_range_meters":17600,"station_id":"ce4bhnp2rcd13ifvqgvg","pricing_plan_id":"cebpf4jnsgd1na2vs0mg"},{"bike_id":"5d4f225d-0b45-4bd5-9f54-aa57a5a0580a","system_id":"levelo_inurba_marseille","lat":43.29181,"lon":5.3714,"is_reserved":false,"is_disabled":false,"rental_uris":{"android":"levelo://app?vid=5d4f225d-0b45-4bd5-9f54-aa57a5a0580a","ios":"levelo://app?vid=5d4f225d-0b45-4bd5-9f54-aa57a5a0580a"},"vehicle_type_id":"4","last_reported":1753636186,"current_range_meters":17200,"station_id":"ce4bha92rcd13ifvqeh0","pricing_plan_id":"cebpf4jnsgd1na2vs0mg"},{"bike_id":"da8a121b-dd93-4a31-8254-38a795a66238","system_id":"levelo_inurba_marseille","lat":43.24064,"lon":5.37748,"is_reserved":false,"is_disabled":false,"rental_uris":{"android":"levelo://app?vid=da8a121b-dd93-4a31-8254-38a795a66238","ios":"levelo://app?vid=da8a121b-dd93-4a31-8254-38a795a66238"},"vehicle_type_id":"4","last_reported":1753636186,"current_range_meters":17600,"station_id":"ce4bhnp2rcd13ifvqgvg","pricing_plan_id":"cebpf4jnsgd1na2vs0mg"},{"bike_id":"9d6f4d9f-a761-4ae2-9e4b-00f8fda461c4","system_id":"levelo_inurba_marseille","lat":43.285782,"lon":5.394934,"is_reserved":false,"is_disabled":true,"rental_uris":{"android":"levelo://app?vid=9d6f4d9f-a761-4ae2-9e4b-00f8fda461c4","ios":"levelo://app?vid=9d6f4d9f-a761-4ae2-9e4b-00f8fda461c4"},"vehicle_type_id":"4","last_reported":1753636186,"current_range_meters":17600,"station_id":"ce4bh292rcd13ifvqdg0","pricing_plan_id":"cebpf4jnsgd1na2vs0mg"},{"bike_id":"26d69215-edb4-4917-b3fc-22f62f7da34a","system_id":"levelo_inurba_marseille","lat":43.2252,"lon":5.34754,"is_reserved":false,"is_disabled":false,"rental_uris":{"android":"levelo://app?vid=26d69215-edb4-4917-b3fc-22f62f7da34a","ios":"levelo://app?vid=26d69215-edb4-4917-b3fc-22f62f7da34a"},"vehicle_type_id":"4","last_reported":1753636186,"current_range_meters":17600,"station_id":"st_cvj5dfep6f1abm77gieg","pricing_plan_id":"cebpf4jnsgd1na2vs0mg"},