{"last_updated":1737644946,"ttl":60,"version":"2.2","data":{"bikes":[{"bike_id":"c3fa857d-6c16-4a35-a19b-32c6da4e6156","system_id":"levelo_inurba_marseille","lat":43.3249,"lon":5.36565,"is_reserved":false,"is_disabled":false,"rental_uris":{"android":"levelo://app?vid=c3fa857d-6c16-4a35-a19b-32c6da4e6156","ios":"levelo://app?vid=c3fa857d-6c16-4a35-a19b-32c6da4e6156"},"vehicle_type_id":"4","last_reported":1737644946,"current_range_meters":12400,"station_id":"ce4bhs12rcd13ifvqhvg","pricing_plan_id":"cebpf4jnsgd1na2vs0mg"},{"bike_id":"d623b4b3-be07-4eff-97e9-6eae49ffd7a3","system_id":"levelo_inurba_marseille","lat":43.31115,"lon":5.37763,"is_reserved":false,"is_disabled":false,"rental_uris":{"android":"levelo://app?vid=d623b4b3-be07-4eff-97e9-6eae49ffd7a3","ios":"levelo://app?vid=d623b4b3-be07-4eff-97e9-6eae49ffd7a3"},"vehicle_type_id":"4","last_reported":1737644946,"current_range_meters":22800,"station_id":"ce4bgt92rcd13ifvqcg0","pricing_plan_id":"cebpf4jnsgd1na2vs0mg"},{"bike_id":"84b2d6c1-5a2d-48bd-9a96-68195c3a8e86","system_id":"levelo_inurba_marseille","lat":43.30544,"lon":5.36554,"is_reserved":false,"is_disabled":false,"rental_uris":{"android":"levelo://app?vid=84b2d6c1-5a2d-48bd-9a96-68195c3a8e86","ios":"levelo://app?vid=84b2d6c1-5a2d-48bd-9a96-68195c3a8e86"},"vehicle_type_id":"4","last_reported":1737644946,"current_range_meters":8000,"station_id":"ce4bgs12rcd13ifvqcag","pricing_plan_id":"cebpf4jnsgd1na2vs0mg"},{"bike_id":"dcf4555a-aebc-4561-8ac8-3e8a57d63da1","system_id":"levelo_inurba_marseille","lat":43.2958,"lon":5.3673,"is_reserved":false,"is_disabled":false,"rental_uris":{"android":"levelo://app?vid=dcf4555a-aebc-4561-8ac8-3e8a57d63da1","ios":"levelo://app?vid=dcf4555a-aebc-4561-8ac8-3e8a57d63da1"},"vehicle_type_id":"4","last_reported":1737644946,"current_range_meters":35200,"station_id":"ce4bgph2rcd13ifvqc2g","pricing_plan_id":"cebpf4jnsgd1na2vs0mg"},{"bike_id":"99f05b23-f7e4-4004-bdcf-e777c32389e7","system_id":"levelo_inurba_marseille","lat":43.29929,"lon":5.36539,"is_reserved":false,"is_disabled":false,"rental_uris":{"android":"levelo://app?vid=99f05b23-f7e4-4004-bdcf-e777c32389e7","ios":"levelo://app?vid=99f05b23-f7e4-4004-bdcf-e777c32389e7"},"vehicle_type_id":"4","last_reported":1737644946,"current_range_meters":36000,"station_id":"ce4bgm92rcd13ifvqbr0","pricing_plan_id":"cebpf4jnsgd1na2vs0mg"},{"bike_id":"5ac14c7e-46e9-49c3-a78f-fec5377ad444","system_id":"levelo_inurba_marseille","lat":43.29703,"lon":5.37645,"is_reserved":false,"is_disabled":false,"rental_uris":{"android":"levelo://app?vid=5ac14c7e-46e9-49c3-a78f-fec5377ad444","ios":"levelo://app?vid=5ac14c7e-46e9-49c3-a78f-fec5377ad444"},"vehicle_type_id":"4","last_reported":1737644946,"current_range_meters":36000,"station_id":"ce4bgkh2rcd13ifvqbl0","pricing_plan_id":"cebpf4jnsgd1na2vs0mg"},{"bike_id":"6eb2e4ba-52be-4994-856c-5e938ae795fa","system_id":"levelo_inurba_marseille","lat":43.31354,"lon":5.36705,"is_reserved":false,"is_disabled":false,"rental_uris":{"android":"levelo://app?vid=6eb2e4ba-52be-4994-856c-5e938ae795fa","ios":"levelo://app?vid=6eb2e4ba-52be-4994-856c-5e938ae795fa"},"vehicle_type_id":"4","last_reported":1737644946,"current_range_meters":38000,"station_id":"ce4bgr92rcd13ifvqc6g","pricing_plan_id":"cebpf4jnsgd1na2vs0mg"},{"bike_id":"71e61069-1562-4329-801a-b772795ef420","system_id":"levelo_inurba_marseille","lat":43.27807,"lon":5.40707,"is_reserved":false,"is_disabled":false,"rental_uris":{"android":"levelo://app?vid=71e61069-1562-4329-801a-b772795ef420","ios":"levelo://app?vid=71e61069-1562-4329-801a-b772795ef420"},"vehicle_type_id":"4","last_reported":1737644946,"current_range_meters":31200,"station_id":"ce4bhnh2rcd13ifvqgtg","pricing_plan_id":"cebpf4jnsgd1na2vs0mg"},{"bike_id":"b5cb07e6-6ffd-4db4-8954-0084503b2aef","system_id":"levelo_inurba_marseille","lat":43.33006,"lon":5.3902,"is_reserved":false,"is_disabled":false,"rental_uris":{"android":"levelo://app?vid=b5cb07e6-6ffd-4db4-8954-0084503b2aef","ios":"levelo://app?vid=b5cb07e6-6ffd-4db4-8954-0084503b2aef"},"vehicle_type_id":"4","last_reported":1737644946,"current_range_meters":39200,"station_id":"ce4bhr92rcd13ifvqhrg","pricing_plan_id":"cebpf4jnsgd1na2vs0mg"},{"bike_id":"ce2b86ec-5c6e-436b-bbf1-eb1b6c761903","system_id":"levelo_inurba_marseille","lat":43.27673,"lon":5.38915,"is_reserved":false,"is_disabled":false,"rental_uris":{"android":"levelo://app?vid=ce2b86ec-5c6e-436b-bbf1-eb1b6c761903","ios":"levelo://app?vid=ce2b86ec-5c6e-436b-bbf1-eb1b6c761903"},"vehicle_type_id":"4","last_reported":1737644946,"current_range_meters":36400,"station_id":"ce4bhi12rcd13ifvqfo0","pricing_plan_id":"cebpf4jnsgd1na2vs0mg"},{"bike_id":"b4cf4d28-efd4-4a4c-b772-f14f752a0c6c","system_id":"levelo_inurba_marseille","lat":43.32359,"lon":5.36756,"is_reserved":false,"is_disabled":false,"rental_uris":{"android":"levelo://app?vid=b4cf4d28-efd4-4a4c-b772-f14f752a0c6c","ios":"levelo://app?vid=b4cf4d28-efd4-4a4c-b772-f14f752a0c6c"},"vehicle_type_id":"4","last_reported":1737644946,"current_range_meters":29600,"station_id":"ce4bhsh2rcd13ifvqi2g","pricing_plan_id":"cebpf4jnsgd1na2vs0mg"},{"bike_id":"68d348c3-3de8-46d3-83c6-e42d41e18b9f","system_id":"levelo_inurba_marseille","lat":43.2828,"lon":5.35073,"is_reserved":false,"is_disabled":false,"rental_uris":{"android":"levelo://app?vid=68d348c3-3de8-46d3-83c6-e42d41e18b9f","ios":"levelo://app?vid=68d348c3-3de8-46d3-83c6-e42d41e18b9f"},"vehicle_type_id":"4","last_reported":1737644946,"current_range_meters":28000,"station_id":"ce4bhbp2rcd13ifvqerg","pricing_plan_id":"cebpf4jnsgd1na2vs0mg"},{"bike_id":"787ace6a-2072-4fbe-a48b-2f231ad156b8","system_id":"levelo_inurba_marseille","lat":43.23194,"lon":5.35555,"is_reserved":false,"is_disabled":false,"rental_uris":{"android":"levelo://app?vid=787ace6a-2072-4fbe-a48b-2f231ad156b8","ios":"levelo://app?vid=787ace6a-2072-4fbe-a48b-2f231ad156b8"},"vehicle_type_id":"4","last_reported":1737644946,"current_range_meters":38800,"station_id":"ce4bhu92rcd13ifvqi70","pricing_plan_id":"cebpf4jnsgd1na2vs0mg"},{"bike_id":"308959f0-a2fa-4c4e-a328-48ad646b5222","system_id":"levelo_inurba_marseille","lat":43.31379,"lon":5.36737,"is_reserved":false,"is_disabled":false,"rental_uris":{"android":"levelo://app?vid=308959f0-a2fa-4c4e-a328-48ad646b5222","ios":"levelo://app?vid=308959f0-a2fa-4c4e-a328-48ad646b5222"},"vehicle_type_id":"4","last_reported":1737644946,"current_range_meters":8400,"station_id":"","pricing_plan_id":"cebpf4jnsgd1na2vs0mg"},{"bike_id":"f3ee8930-953f-44f3-9595-412bce8728bb","system_id":"levelo_inurba_marseille","lat":43.27501,"lon":5.42468,"is_reserved":false,"is_disabled":false,"rental_uris":{"android":"levelo://app?vid=f3ee8930-953f-44f3-9595-412bce8728bb","ios":"levelo://app?vid=f3ee8930-953f-44f3-9595-412bce8728bb"},"vehicle_type_id":"4","last_reported":1737644946,"current_range_meters":27600,"station_id":"ce4bhn92rcd13ifvqgrg","pricing_plan_id":"cebpf4jnsgd1na2vs0mg"},{"bike_id":"2a80df51-a758-43ec-8377-7504eaafab77","system_id":"levelo_inurba_marseille","lat":43.25916,"lon":5.40874,"is_reserved":false,"is_disabled":false,"rental_uris":{"android":"levelo://app?vid=2a80df51-a758-43ec-8377-7504eaafab77","ios":"levelo://app?vid=2a80df51-a758-43ec-8377-7504eaafab77"},"vehicle_type_id":"4","last_reported":1737644946,"current_range_meters":38800,"station_id":"ce4bhm92rcd13ifvqglg","pricing_plan_id":"cebpf4jnsgd1na2vs0mg"},{"bike_id":"62deda02-398b-428c-93c7-c43dbeb4b460","system_id":"levelo_inurba_marseille","lat":43.31979,"lon":5.38152,"is_reserved":false,"is_disabled":false,"rental_uris":{"android":"levelo://app?vid=62deda02-398b-428c-93c7-c43dbeb4b460","ios":"levelo://app?vid=62deda02-398b-428c-93c7-c43dbeb4b460"},"vehicle_type_id":"4","last_reported":1737644946,"current_range_meters":38400,"station_id":"ce4bhr12rcd13ifvqhpg","pricing_plan_id":"cebpf4jnsgd1na2vs0mg"},{"bike_id":"678cf826-7ffa-42ff-869c-d437b4d33350","system_id":"levelo_inurba_marseille","lat":43.29525,"lon":5.39039,"is_reserved":false,"is_disabled":false,"rental_uris":{"android":"levelo://app?vid=678cf826-7ffa-42ff-869c-d437b4d33350","ios":"levelo://app?vid=678cf826-7ffa-42ff-869c-d437b4d33350"},"vehicle_type_id":"4","last_reported":1737644946,"current_range_meters":25200,"station_id":"ce4bh3p2rcd13ifvqdp0","pricing_plan_id":"cebpf4jnsgd1na2vs0mg"},{"bike_id":"4b99948f-ea48-4383-875e-b58ed823d600","system_id":"levelo_inurba_marseille","lat":43.30541,"lon":5.36672,"is_reserved":false,"is_disabled":false,"rental_uris":{"android":"levelo://app?vid=4b99948f-ea48-4383-875e-b58ed823d600","ios":"levelo://app?vid=4b99948f-ea48-4383-875e-b58ed823d600"},"vehicle_type_id":"4","last_reported":1737644946,"current_range_meters":38800,"station_id":"ce4bgrp2rcd13ifvqc9g","pricing_plan_id":"cebpf4jnsgd1na2vs0mg"},{"bike_id":"547a73d5-3351-4bc5-80c3-6e11a818d825","system_id":"levelo_inurba_marseille","lat":43.31707,"lon":5.37765,"is_reserved":false,"is_disabled":false,"rental_uris":{"android":"levelo://app?vid=547a73d5-3351-4bc5-80c3-6e11a818d825","ios":"levelo://app?vid=547a73d5-3351-4bc5-80c3-6e11a818d825"},"vehicle_type_id":"4","last_reported":1737644946,"current_range_meters":38800,"station_id":"ce4bgth2rcd13ifvqch0","pricing_plan_id":"cebpf4jnsgd1na2vs0mg"},{"bike_id":"e38da209-d8d9-4680-be99-11d1954272ef","system_id":"levelo_inurba_marseille","lat":43.26198,"lon":5.37917,"is_reserved":false,"is_disabled":false,"rental_uris":{"android":"levelo://app?vid=e38da209-d8d9-4680-be99-11d1954272ef","ios":"levelo://app?vid=e38da209-d8d9-4680-be99-11d1954272ef"},"vehicle_type_id":"4","last_reported":1737644946,"current_range_meters":39200,"station_id":"ce4bhjp2rcd13ifvqg90","pricing_plan_id":"cebpf4jnsgd1na2vs0mg"},{"bike_id":"3a44c7c1-6953-45a4-94d4-f82731f8ffc4","system_id":"levelo_inurba_marseille","lat":43.30889,"lon":5.39648,"is_reserved":false,"is_disabled":false,"rental_uris":{"android":"levelo://app?vid=3a44c7c1-6953-45a4-94d4-f82731f8ffc4","ios":"levelo://app?vid=3a44c7c1-6953-45a4-94d4-f82731f8ffc4"},"vehicle_type_id":"4","last_reported":1737644946,"current_range_meters":32000,"station_id":"ce4bh012rcd13ifvqcv0","pricing_plan_id":"cebpf4jnsgd1na2vs0mg"},{"bike_id":"b41c30b6-77ed-4417-9cf4-1029fb547e67","system_id":"levelo_inurba_marseille","lat":43.29405,"lon":5.38595,"is_reserved":false,"is_disabled":false,"rental_uris":{"android":"levelo://app?vid=b41c30b6-77ed-4417-9cf4-1029fb547e67","ios":"levelo://app?vid=b41c30b6-77ed-4417-9cf4-1029fb547e67"},"vehicle_type_id":"4","last_reported":1737644946,"current_range_meters":38800,"station_id":"ce4bh2h2rcd13ifvqdh0","pricing_plan_id":"cebpf4jnsgd1na2vs0mg"},{"bike_id":"8ebd6f9f-d039-403f-98dc-71fb0b803930","system_id":"levelo_inurba_marseille","lat":43.30548,"lon":5.36708,"is_reserved":false,"is_disabled":false,"rental_uris":{"android":"levelo://app?vid=8ebd6f9f-d039-403f-98dc-71fb0b803930","ios":"levelo://app?vid=8ebd6f9f-d039-403f-98dc-71fb0b803930"},"vehicle_type_id":"4","last_reported":1737644946,"current_range_meters":8800,"station_id":"ce4bgrp2rcd13ifvqc9g","pricing_plan_id":"cebpf4jnsgd1na2vs0mg"},{"bike_id":"8af8c407-bf84-4091-99cf-74f62278e1fc","system_id":"levelo_inurba_marseille","lat":43.30862,"lon":5.37181,"is_reserved":false,"is_disabled":false,"rental_uris":{"android":"levelo://app?vid=8af8c407-bf84-4091-99cf-74f62278e1fc","ios":"levelo://app?vid=8af8c407-bf84-4091-99cf-74f62278e1fc"},"vehicle_type_id":"4","last_reported":1737644946,"current_range_meters":36000,"station_id":"ce4bguh2rcd13ifvqckg","pricing_plan_id":"cebpf4jnsgd1na2vs0mg"},{"bike_id":"89fbcf6b-d56e-495e-95fa-df6f43bc03ca","system_id":"levelo_inurba_marseille","lat":43.29091,"lon":5.38138,"is_reserved":false,"is_disabled":false,"rental_uris":{"android":"levelo://app?vid=89fbcf6b-d56e-495e-95fa-df6f43bc03ca","ios":"levelo://app?vid=89fbcf6b-d56e-495e-95fa-df6f43bc03ca"},"vehicle_type_id":"4","last_reported":1737644946,"current_range_meters":38800,"station_id":"ce4bh512rcd13ifvqe2g","pricing_plan_id":"cebpf4jnsgd1na2vs0mg"},{"bike_id":"78e04b22-500f-4fc2-b600-8f3fdd81bda1","system_id":"levelo_inurba_marseille","lat":43.25591,"lon":5.38254,"is_reserved":false,"is_disabled":false,"rental_uris":{"android":"levelo://app?vid=78e04b22-500f-4fc2-b600-8f3fdd81bda1","ios":"levelo://app?vid=78e04b22-500f-4fc2-b600-8f3fdd81bda1"},"vehicle_type_id":"4","last_reported":1737644946,"current_range_meters":16400,"station_id":"ce4bhih2rcd13ifvqfs0","pricing_plan_id":"cebpf4jnsgd1na2vs0mg"},{"bike_id":"81fb47e4-14b0-44c5-bc25-9c83f3592e76","system_id":"levelo_inurba_marseille","lat":43.29372,"lon":5.37874,"is_reserved":false,"is_disabled":false,"rental_uris":{"android":"levelo://app?vid=81fb47e4-14b0-44c5-bc25-9c83f3592e76","ios":"levelo://app?vid=81fb47e4-14b0-44c5-bc25-9c83f3592e76"},"vehicle_type_id":"4","last_reported":1737644946,"current_range_meters":16000,"station_id":"ce4bgjh2rcd13ifvqbf0","pricing_plan_id":"cebpf4jnsgd1na2vs0mg"},{"bike_id":"75bf5fea-19ed-42b9-870c-aa13e16b432c","system_id":"levelo_inurba_marseille","lat":43.3064,"lon":5.40096,"is_reserved":false,"is_disabled":false,"rental_uris":{"android":"levelo://app?vid=75bf5fea-19ed-42b9-870c-aa13e16b432c","ios":"levelo://app?vid=75bf5fea-19ed-42b9-870c-aa13e16b432c"},"vehicle_type_id":"4","last_reported":1737644946,"current_range_meters":10000,"station_id":"ce4bh112rcd13ifvqda0","pricing_plan_id":"cebpf4jnsgd1na2vs0mg"},{"bike_id":"b919efc2-441c-4653-b7c7-a1298540c6a1","system_id":"levelo_inurba_marseille","lat":43.30888,"lon":5.39655,"is_reserved":false,"is_disabled":false,"rental_uris":{"android":"levelo://app?vid=b919efc2-441c-4653-b7c7-a1298540c6a1","ios":"levelo://app?vid=b919efc2-441c-4653-b7c7-a1298540c6a1"},"vehicle_type_id":"4","last_reported":1737644946,"current_range_meters":22400,"station_id":"ce4bh012rcd13ifvqcv0","pricing_plan_id":"cebpf4jnsgd1na2vs0mg"},{"bike_id":"159f9a9d-60ed-4b8f-90f2-23c1bf57b24d","system_id":"levelo_inurba_marseille","lat":43.28289,"lon":5.35063,"is_reserved":false,"is_disabled":false,"rental_uris":{"android":"levelo://app?vid=159f9a9d-60ed-4b8f-90f2-23c1bf57b24d","ios":"levelo://app?vid=159f9a9d-60ed-4b8f-90f2-23c1bf57b24d"},"vehicle_type_id":"4","last_reported":1737644946,"current_range_meters":30000,"station_id":"ce4bhbp2rcd13ifvqerg","pricing_plan_id":"cebpf4jnsgd1na2vs0mg"},{"bike_id":"40486eab-0147-4334-921f-e5b3fd1d10ab","system_id":"levelo_inurba_marseille","lat":43.29911,"lon":5.38131,"is_reserved":false,"is_disabled":false,"rental_uris":{"android":"levelo://app?vid=40486eab-0147-4334-921f-e5b3fd1d10ab","ios":"levelo://app?vid=40486eab-0147-4334-921f-e5b3fd1d10ab"},"vehicle_type_id":"4","last_reported":1737644946,"current_range_meters":31200,"station_id":"ce4bgj12rcd13ifvqbc0","pricing_plan_id":"cebpf4jnsgd1na2vs0mg"},{"bike_id":"cfd43bf3-4573-4b36-9c33-43776ac243f1","system_id":"levelo_inurba_marseille","lat":43.30875,"lon":5.37191,"is_reserved":false,"is_disabled":false,"rental_uris":{"android":"levelo://app?vid=cfd43bf3-4573-4b36-9c33-43776ac243f1","ios":"levelo://app?vid=cfd43bf3-4573-4b36-9c33-43776ac243f1"},"vehicle_type_id":"4","last_reported":1737644946,"current_range_meters":0,"station_id":"ce4bguh2rcd13ifvqckg","pricing_plan_id":"cebpf4jnsgd1na2vs0mg"},{"bike_id":"dec31f37-4218-40d0-a15b-0fef56fa9f65","system_id":"levelo_inurba_marseille","lat":43.2842,"lon":5.37519,"is_reserved":false,"is_disabled":false,"rental_uris":{"android":"levelo://app?vid=dec31f37-4218-40d0-a15b-0fef56fa9f65","ios":"levelo://app?vid=dec31f37-4218-40d0-a15b-0fef56fa9f65"},"vehicle_type_id":"4","last_reported":1737644946,"current_range_meters":9600,"station_id":"ce4bh412rcd13ifvqds0","pricing_plan_id":"cebpf4jnsgd1na2vs0mg"},{"bike_id":"b8f6ffa9-75e7-431e-b532-8286e4c34399","system_id":"levelo_inurba_marseille","lat":43.25584,"lon":5.38241,"is_reserved":false,"is_disabled":false,"rental_uris":{"android":"levelo://app?vid=b8f6ffa9-75e7-431e-b532-8286e4c34399","ios":"levelo://app?vid=b8f6ffa9-75e7-431e-b532-8286e4c34399"},"vehicle_type_id":"4","last_reported":1737644946,"current_range_meters":7200,"station_id":"ce4bhih2rcd13ifvqfs0","pricing_plan_id":"cebpf4jnsgd1na2vs0mg"},{"bike_id":"b7c1b669-81b3-4492-91f7-f1e7410caa45","system_id":"levelo_inurba_marseille","lat":43.32365,"lon":5.36757,"is_reserved":false,"is_disabled":false,"rental_uris":{"android":"levelo://app?vid=b7c1b669-81b3-4492-91f7-f1e7410caa45","ios":"levelo://app?vid=b7c1b669-81b3-4492-91f7-f1e7410caa45"},"vehicle_type_id":"4","last_reported":1737644946,"current_range_meters":31200,"station_id":"ce4bhsh2rcd13ifvqi2g","pricing_plan_id":"cebpf4jnsgd1na2vs0mg"},{"bike_id":"bee169a1-ab8a-4d70-9f29-5b015aff493f","system_id":"levelo_inurba_marseille","lat":43.28698,"lon":5.37413,"is_reserved":false,"is_disabled":false,"rental_uris":{"android":"levelo://app?vid=bee169a1-ab8a-4d70-9f29-5b015aff493f","ios":"levelo://app?vid=bee169a1-ab8a-4d70-9f29-5b015aff493f"},"vehicle_type_id":"4","last_reported":1737644946,"current_range_meters":10800,"station_id":"ce4bh3p2rcd13ifvqdq0","pricing_plan_id":"cebpf4jnsgd1na2vs0mg"},{"bike_id":"23eacb26-5460-47ec-a1b6-88b503b6fa82","system_id":"levelo_inurba_marseille","lat":43.26031,"lon":5.37548,"is_reserved":false,"is_disabled":false,"rental_uris":{"android":"levelo://app?vid=23eacb26-5460-47ec-a1b6-88b503b6fa82","ios":"levelo://app?vid=23eacb26-5460-47ec-a1b6-88b503b6fa82"},"vehicle_type_id":"4","last_reported":1737644946,"current_range_meters":30400,"station_id":"ce4bhgh2rcd13ifvqfa0","pricing_plan_id":"cebpf4jnsgd1na2vs0mg"},{"bike_id":"976942c9-fd74-4192-96df-8f6fcef6bc19","system_id":"levelo_inurba_marseille","lat":43.24673,"lon":5.3818,"is_reserved":false,"is_disabled":false,"rental_uris":{"android":"levelo://app?vid=976942c9-fd74-4192-96df-8f6fcef6bc19","ios":"levelo://app?vid=976942c9-fd74-4192-96df-8f6fcef6bc19"},"vehicle_type_id":"4","last_reported":1737644946,"current_range_meters":10000,"station_id":"ce4bhih2rcd13ifvqfr0","pricing_plan_id":"cebpf4jnsgd1na2vs0mg"},{"bike_id":"bbdfc660-e997-4a11-9591-bbb56c89be46","system_id":"levelo_inurba_marseille","lat":43.33016,"lon":5.39041,"is_reserved":false,"is_disabled":false,"rental_uris":{"android":"levelo://app?vid=bbdfc660-e997-4a11-9591-bbb56c89be46","ios":"levelo://app?vid=bbdfc660-e997-4a11-9591-bbb56c89be46"},"vehicle_type_id":"4","last_reported":1737644946,"current_range_meters":30400,"station_id":"ce4bhr92rcd13ifvqhrg","pricing_plan_id":"cebpf4jnsgd1na2vs0mg"},{"bike_id":"5e75dd30-ab3b-44d3-8dcb-cb5fd4a0eb65","system_id":"levelo_inurba_marseille","lat":43.246361,"lon":5.389098,"is_reserved":false,"is_disabled":false,"rental_uris":{"android":"levelo://app?vid=5e75dd30-ab3b-44d3-8dcb-cb5fd4a0eb65","ios":"levelo://app?vid=5e75dd30-ab3b-44d3-8dcb-cb5fd4a0eb65"},"vehicle_type_id":"4","last_reported":1737644946,"current_range_meters":37600,"station_id":"ce4bhg12rcd13ifvqf60","pricing_plan_id":"cebpf4jnsgd1na2vs0mg"},{"bike_id":"11878398-5936-424f-997a-06c8004ade6a","system_id":"levelo_inurba_marseille","lat":43.2998,"lon":5.37138,"is_reserved":false,"is_disabled":true,"rental_uris":{"android":"levelo://app?vid=11878398-5936-424f-997a-06c8004ade6a","ios":"levelo://app?vid=11878398-5936-424f-997a-06c8004ade6a"},"vehicle_type_id":"4","last_reported":1737644946,"current_range_meters":0,"station_id":"ce4bgr92rcd13ifvqc7g","pricing_plan_id":"cebpf4jnsgd1na2vs0mg"},{"bike_id":"d12a6117-9192-43dc-9e5b-71e32bbabcda","system_id":"levelo_inurba_marseille","lat":43.26031,"lon":5.37562,"is_reserved":false,"is_disabled":false,"rental_uris":{"android":"levelo://app?vid=d12a6117-9192-43dc-9e5b-71e32bbabcda","ios":"levelo://app?vid=d12a6117-9192-43dc-9e5b-71e32bbabcda"},"vehicle_type_id":"4","last_reported":1737644946,"current_range_meters":38000,"station_id":"ce4bhgh2rcd13ifvqfa0","pricing_plan_id":"cebpf4jnsgd1na2vs0mg"},{"bike_id":"6c2e2f41-9c52-4308-86ab-09129b1176ab","system_id":"levelo_inurba_marseille","lat":43.30528,"lon":5.36531,"is_reserved":false,"is_disabled":false,"rental_uris":{"android":"levelo://app?vid=6c2e2f41-9c52-4308-86ab-09129b1176ab","ios":"levelo://app?vid=6c2e2f41-9c52-4308-86ab-09129b1176ab"},"vehicle_type_id":"4","last_reported":1737644946,"current_range_meters":32000,"station_id":"ce4bgs12rcd13ifvqcag","pricing_plan_id":"cebpf4jnsgd1na2vs0mg"},{"bike_id":"627cb65c-8458-444d-94bb-8117ef5675ba","system_id":"levelo_inurba_marseille","lat":43.3055,"lon":5.36533,"is_reserved":false,"is_disabled":false,"rental_uris":{"android":"levelo://app?vid=627cb65c-8458-444d-94bb-8117ef5675ba","ios":"levelo://app?vid=627cb65c-8458-444d-94bb-8117ef5675ba"},"vehicle_type_id":"4","last_reported":1737644946,"current_range_meters":27200,"station_id":"ce4bgs12rcd13ifvqcag","pricing_plan_id":"cebpf4jnsgd1na2vs0mg"},{"bike_id":"9838cc78-2b53-49d3-ae13-82df62c4fd64","system_id":"levelo_inurba_marseille","lat":43.28428,"lon":5.40923,"is_reserved":false,"is_disabled":false,"rental_uris":{"android":"levelo://app?vid=9838cc78-2b53-49d3-ae13-82df62c4fd64","ios":"levelo://app?vid=9838cc78-2b53-49d3-ae13-82df62c4fd64"},"vehicle_type_id":"4","last_reported":1737644946,"current_range_meters":6000,"station_id":"","pricing_plan_id":"cebpf4jnsgd1na2vs0mg"},{"bike_id":"cb7fa7ff-d4b4-4d7b-b609-53390e0797c3","system_id":"levelo_inurba_marseille","lat":43.28857,"lon":5.37324,"is_reserved":false,"is_disabled":false,"rental_uris":{"android":"levelo://app?vid=cb7fa7ff-d4b4-4d7b-b609-53390e0797c3","ios":"levelo://app?vid=cb7fa7ff-d4b4-4d7b-b609-53390e0797c3"},"vehicle_type_id":"4","last_reported":1737644946,"current_range_meters":30800,"station_id":"ce4bhb12rcd13ifvqel0","pricing_plan_id":"cebpf4jnsgd1na2vs0mg"},{"bike_id":"d9d67e50-ff60-4024-bb97-06b4cc192a7e","system_id":"levelo_inurba_marseille","lat":43.302208,"lon":5.374818,"is_reserved":false,"is_disabled":true,"rental_uris":{"android":"levelo://app?vid=d9d67e50-ff60-4024-bb97-06b4cc192a7e","ios":"levelo://app?vid=d9d67e50-ff60-4024-bb97-06b4cc192a7e"},"vehicle_type_id":"4","last_reported":1737644946,"current_range_meters":38800,"station_id":"","pricing_plan_id":"cebpf4jnsgd1na2vs0mg"},{"bike_id":"36c2fbd6-83da-40b1-b256-f76feeef0a5c","system_id":"levelo_inurba_marseille","lat":43.27962,"lon":5.38749,"is_reserved":false,"is_disabled":false,"rental_uris":{"android":"levelo://app?vid=36c2fbd6-83da-40b1-b256-f76feeef0a5c","ios":"levelo://app?vid=36c2fbd6-83da-40b1-b256-f76feeef0a5c"},"vehicle_type_id":"4","last_reported":1737644946,"current_range_meters":19600,"station_id":"ce4bhg12rcd13ifvqf80","pricing_plan_id":"cebpf4jnsgd1na2vs0mg"},{"bike_id":"7d763c98-42ea-4785-9a67-445fecef725e","system_id":"levelo_inurba_marseille","lat":43.2827,"lon":5.35067,"is_reserved":false,"is_disabled":false,"rental_uris":{"android":"levelo://app?vid=7d763c98-42ea-4785-9a67-445fecef725e","ios":"levelo://app?vid=7d763c98-42ea-4785-9a67-445fecef725e"},"vehicle_type_id":"4","last_reported":1737644946,"current_range_meters":38800,"station_id":"ce4bhbp2rcd13ifvqerg","pricing_plan_id":"cebpf4jnsgd1na2vs0mg"},{"bike_id":"19b8198b-0b8b-41c2-8c4a-a703ec5c010b","system_id":"levelo_inurba_marseille","lat":43.30153,"lon":5.38092,"is_reserved":false,"is_disabled":false,"rental_uris":{"android":"levelo://app?vid=19b8198b-0b8b-41c2-8c4a-a703ec5c010b","ios":"levelo://app?vid=19b8198b-0b8b-41c2-8c4a-a703ec5c010b"},"vehicle_type_id":"4","last_reported":1737644946,"current_range_meters":38800,"station_id":"ce4bgjp2rcd13ifvqbh0","pricing_plan_id":"cebpf4jnsgd1na2vs0mg"},{"bike_id":"2ff8aa2c-6030-4929-9d20-8b73670094e6","system_id":"levelo_inurba_marseille","lat":43.30542,"lon":5.36537,"is_reserved":false,"is_disabled":false,"rental_uris":{"android":"levelo://app?vid=2ff8aa2c-6030-4929-9d20-8b73670094e6","ios":"levelo://app?vid=2ff8aa2c-6030-4929-9d20-8b73670094e6"},"vehicle_type_id":"4","last_reported":1737644946,"current_range_meters":25600,"station_id":"ce4bgs12rcd13ifvqcag","pricing_plan_id":"cebpf4jnsgd1na2vs0mg"},{"bike_id":"634d56c1-a2c0-4178-97ec-f77ccc52b51c","system_id":"levelo_inurba_marseille","lat":43.23188,"lon":5.39984,"is_reserved":false,"is_disabled":false,"rental_uris":{"android":"levelo://app?vid=634d56c1-a2c0-4178-97ec-f77ccc52b51c","ios":"levelo://app?vid=634d56c1-a2c0-4178-97ec-f77ccc52b51c"},"vehicle_type_id":"4","last_reported":1737644946,"current_range_meters":36000,"station_id":"ce4bhn12rcd13ifvqgqg","pricing_plan_id":"cebpf4jnsgd1na2vs0mg"},{"bike_id":"453049cf-9b62-421e-aca6-df9a4afd0bf0","system_id":"levelo_inurba_marseille","lat":43.28121,"lon":5.37802,"is_reserved":false,"is_disabled":false,"rental_uris":{"android":"levelo://app?vid=453049cf-9b62-421e-aca6-df9a4afd0bf0","ios":"levelo://app?vid=453049cf-9b62-421e-aca6-df9a4afd0bf0"},"vehicle_type_id":"4","last_reported":1737644946,"current_range_meters":11200,"station_id":"ce4bha12rcd13ifvqee0","pricing_plan_id":"cebpf4jnsgd1na2vs0mg"},{"bike_id":"3df41493-2ee9-4fe1-ade9-4b35261d3ac9","system_id":"levelo_inurba_marseille","lat":43.30644,"lon":5.40079,"is_reserved":false,"is_disabled":false,"rental_uris":{"android":"levelo://app?vid=3df41493-2ee9-4fe1-ade9-4b35261d3ac9","ios":"levelo://app?vid=3df41493-2ee9-4fe1-ade9-4b35261d3ac9"},"vehicle_type_id":"4","last_reported":1737644946,"current_range_meters":31200,"station_id":"ce4bh112rcd13ifvqda0","pricing_plan_id":"cebpf4jnsgd1na2vs0mg"},{"bike_id":"5ef6ee23-b2ed-4cef-a362-717f0e52aeed","system_id":"levelo_inurba_marseille","lat":43.25089,"lon":5.39504,"is_reserved":false,"is_disabled":false,"rental_uris":{"android":"levelo://app?vid=5ef6ee23-b2ed-4cef-a362-717f0e52aeed","ios":"levelo://app?vid=5ef6ee23-b2ed-4cef-a362-717f0e52aeed"},"vehicle_type_id":"4","last_reported":1737644946,"current_range_meters":16000,"station_id":"ce4bhm12rcd13ifvqgkg","pricing_plan_id":"cebpf4jnsgd1na2vs0mg"},{"bike_id":"f4630646-60d0-4628-9e00-43bcdef8c001","system_id":"levelo_inurba_marseille","lat":43.29564,"lon":5.42282,"is_reserved":false,"is_disabled":false,"rental_uris":{"android":"levelo://app?vid=f4630646-60d0-4628-9e00-43bcdef8c001","ios":"levelo://app?vid=f4630646-60d0-4628-9e00-43bcdef8c001"},"vehicle_type_id":"4","last_reported":1737644946,"current_range_meters":18800,"station_id":"ce4bhph2rcd13ifvqhdg","pricing_plan_id":"cebpf4jnsgd1na2vs0mg"},{"bike_id":"68b608b1-4b2e-42e4-afbb-5cdcf5bc15cf","system_id":"levelo_inurba_marseille","lat":43.26678,"lon":5.38264,"is_reserved":false,"is_disabled":false,"rental_uris":{"android":"levelo://app?vid=68b608b1-4b2e-42e4-afbb-5cdcf5bc15cf","ios":"levelo://app?vid=68b608b1-4b2e-42e4-afbb-5cdcf5bc15cf"},"vehicle_type_id":"4","last_reported":1737644946,"current_range_meters":24000,"station_id":"ce4bhg92rcd13ifvqf90","pricing_plan_id":"cebpf4jnsgd1na2vs0mg"},{"bike_id":"971d8679-f6ef-47d5-954b-9ccb5525bd1f","system_id":"levelo_inurba_marseille","lat":43.29027,"lon":5.38643,"is_reserved":false,"is_disabled":false,"rental_uris":{"android":"levelo://app?vid=971d8679-f6ef-47d5-954b-9ccb5525bd1f","ios":"levelo://app?vid=971d8679-f6ef-47d5-954b-9ccb5525bd1f"},"vehicle_type_id":"4","last_reported":1737644946,"current_range_meters":28800,"station_id":"ce4bh4p2rcd13ifvqe0g","pricing_plan_id":"cebpf4jnsgd1na2vs0mg"},{"bike_id":"2e72d554-1452-4a28-913e-882d069e5964","system_id":"levelo_inurba_marseille","lat":43.30143,"lon":5.37423,"is_reserved":false,"is_disabled":false,"rental_uris":{"android":"levelo://app?vid=2e72d554-1452-4a28-913e-882d069e5964","ios":"levelo://app?vid=2e72d554-1452-4a28-913e-882d069e5964"},"vehicle_type_id":"4","last_reported":1737644946,"current_range_meters":38000,"station_id":"ce4bgs92rcd13ifvqcc0","pricing_plan_id":"cebpf4jnsgd1na2vs0mg"},{"bike_id":"48abaa4a-2251-4b1a-985d-736d5322fef9","system_id":"levelo_inurba_marseille","lat":43.26557,"lon":5.37288,"is_reserved":false,"is_disabled":false,"rental_uris":{"android":"levelo://app?vid=48abaa4a-2251-4b1a-985d-736d5322fef9","ios":"levelo://app?vid=48abaa4a-2251-4b1a-985d-736d5322fef9"},"vehicle_type_id":"4","last_reported":1737644946,"current_range_meters":18800,"station_id":"ce4bhg12rcd13ifvqf70","pricing_plan_id":"cebpf4jnsgd1na2vs0mg"},{"bike_id":"008eeba8-6089-43ad-99b2-d1d8874e491d","system_id":"levelo_inurba_marseille","lat":43.31357,"lon":5.36712,"is_reserved":false,"is_disabled":false,"rental_uris":{"android":"levelo://app?vid=008eeba8-6089-43ad-99b2-d1d8874e491d","ios":"levelo://app?vid=008eeba8-6089-43ad-99b2-d1d8874e491d"},"vehicle_type_id":"4","last_reported":1737644946,"current_range_meters":32800,"station_id":"ce4bgr92rcd13ifvqc6g","pricing_plan_id":"cebpf4jnsgd1na2vs0mg"},{"bike_id":"fe1d98f5-afb0-4b9a-9249-4ac090fab3cc","system_id":"levelo_inurba_marseille","lat":43.32359,"lon":5.420513,"is_reserved":false,"is_disabled":false,"rental_uris":{"android":"levelo://app?vid=fe1d98f5-afb0-4b9a-9249-4ac090fab3cc","ios":"levelo://app?vid=fe1d98f5-afb0-4b9a-9249-4ac090fab3cc"},"vehicle_type_id":"4","last_reported":1737644946,"current_range_meters":24800,"station_id":"","pricing_plan_id":"cebpf4jnsgd1na2vs0mg"},{"bike_id":"04de6f23-407d-4fcf-b28c-ee2a21a52bbe","system_id":"levelo_inurba_marseille","lat":43.23171,"lon":5.43713,"is_reserved":false,"is_disabled":false,"rental_uris":{"android":"levelo://app?vid=04de6f23-407d-4fcf-b28c-ee2a21a52bbe","ios":"levelo://app?vid=04de6f23-407d-4fcf-b28c-ee2a21a52bbe"},"vehicle_type_id":"4","last_reported":1737644946,"current_range_meters":38800,"station_id":"ce4bhmp2rcd13ifvqgog","pricing_plan_id":"cebpf4jnsgd1na2vs0mg"},{"bike_id":"ab50ad4c-d1eb-415d-a68b-92d828791955","system_id":"levelo_inurba_marseille","lat":43.31275,"lon":5.40172,"is_reserved":false,"is_disabled":false,"rental_uris":{"android":"levelo://app?vid=ab50ad4c-d1eb-415d-a68b-92d828791955","ios":"levelo://app?vid=ab50ad4c-d1eb-415d-a68b-92d828791955"},"vehicle_type_id":"4","last_reported":1737644946,"current_range_meters":16000,"station_id":"ce4bh092rcd13ifvqd30","pricing_plan_id":"cebpf4jnsgd1na2vs0mg"},{"bike_id":"afd39d6a-5a3e-4fa0-9ffc-fb1667baea59","system_id":"levelo_inurba_marseille","lat":43.31719,"lon":5.40458,"is_reserved":false,"is_disabled":false,"rental_uris":{"android":"levelo://app?vid=afd39d6a-5a3e-4fa0-9ffc-fb1667baea59","ios":"levelo://app?vid=afd39d6a-5a3e-4fa0-9ffc-fb1667baea59"},"vehicle_type_id":"4","last_reported":1737644946,"current_range_meters":8800,"station_id":"ce4bh012rcd13ifvqd00","pricing_plan_id":"cebpf4jnsgd1na2vs0mg"},{"bike_id":"050bd42b-0fa4-4ea3-8a02-3c1196960ece","system_id":"levelo_inurba_marseille","lat":43.31652,"lon":5.3743,"is_reserved":false,"is_disabled":false,"rental_uris":{"android":"levelo://app?vid=050bd42b-0fa4-4ea3-8a02-3c1196960ece","ios":"levelo://app?vid=050bd42b-0fa4-4ea3-8a02-3c1196960ece"},"vehicle_type_id":"4","last_reported":1737644946,"current_range_meters":27200,"station_id":"","pricing_plan_id":"cebpf4jnsgd1na2vs0mg"},{"bike_id":"3a59db95-3ba3-45d9-9d51-35faeb1e0f2b","system_id":"levelo_inurba_marseille","lat":43.2511,"lon":5.40346,"is_reserved":false,"is_disabled":false,"rental_uris":{"android":"levelo://app?vid=3a59db95-3ba3-45d9-9d51-35faeb1e0f2b","ios":"levelo://app?vid=3a59db95-3ba3-45d9-9d51-35faeb1e0f2b"},"vehicle_type_id":"4","last_reported":1737644946,"current_range_meters":25600,"station_id":"ce4bhlh2rcd13ifvqgig","pricing_plan_id":"cebpf4jnsgd1na2vs0mg"},{"bike_id":"58b8c960-0e3e-47e6-8cbe-80e4ca2c6526","system_id":"levelo_inurba_marseille","lat":43.27434,"lon":5.39399,"is_reserved":false,"is_disabled":false,"rental_uris":{"android":"levelo://app?vid=58b8c960-0e3e-47e6-8cbe-80e4ca2c6526","ios":"levelo://app?vid=58b8c960-0e3e-47e6-8cbe-80e4ca2c6526"},"vehicle_type_id":"4","last_reported":1737644946,"current_range_meters":9200,"station_id":"ce4bhdp2rcd13ifvqf20","pricing_plan_id":"cebpf4jnsgd1na2vs0mg"},{"bike_id":"988722fa-c562-470b-a042-bda1b2c31819","system_id":"levelo_inurba_marseille","lat":43.31109,"lon":5.37769,"is_reserved":false,"is_disabled":false,"rental_uris":{"android":"levelo://app?vid=988722fa-c562-470b-a042-bda1b2c31819","ios":"levelo://app?vid=988722fa-c562-470b-a042-bda1b2c31819"},"vehicle_type_id":"4","last_reported":1737644946,"current_range_meters":10000,"station_id":"ce4bgt92rcd13ifvqcg0","pricing_plan_id":"cebpf4jnsgd1na2vs0mg"},{"bike_id":"fe2dfd38-2ef9-441c-ba10-be1bc71fc1c6","system_id":"levelo_inurba_marseille","lat":43.30556,"lon":5.36718,"is_reserved":false,"is_disabled":false,"rental_uris":{"android":"levelo://app?vid=fe2dfd38-2ef9-441c-ba10-be1bc71fc1c6","ios":"levelo://app?vid=fe2dfd38-2ef9-441c-ba10-be1bc71fc1c6"},"vehicle_type_id":"4","last_reported":1737644946,"current_range_meters":38800,"station_id":"ce4bgrp2rcd13ifvqc9g","pricing_plan_id":"cebpf4jnsgd1na2vs0mg"},{"bike_id":"51ee3845-aaa0-43a5-81ed-1ff7573c4fd5","system_id":"levelo_inurba_marseille","lat":43.24167,"lon":5.36398,"is_reserved":false,"is_disabled":false,"rental_uris":{"android":"levelo://app?vid=51ee3845-aaa0-43a5-81ed-1ff7573c4fd5","ios":"levelo://app?vid=51ee3845-aaa0-43a5-81ed-1ff7573c4fd5"},"vehicle_type_id":"4","last_reported":1737644946,"current_range_meters":19600,"station_id":"cpo36qri1sfpv3e86is0","pricing_plan_id":"cebpf4jnsgd1na2vs0mg"},{"bike_id":"62e12003-b3a9-4657-9c3a-37d97033d625","system_id":"levelo_inurba_marseille","lat":43.3248,"lon":5.36562,"is_reserved":false,"is_disabled":false,"rental_uris":{"android":"levelo://app?vid=62e12003-b3a9-4657-9c3a-37d97033d625","ios":"levelo://app?vid=62e12003-b3a9-4657-9c3a-37d97033d625"},"vehicle_type_id":"4","last_reported":1737644946,"current_range_meters":8800,"station_id":"ce4bhs12rcd13ifvqhvg","pricing_plan_id":"cebpf4jnsgd1na2vs0mg"},{"bike_id":"f98a7ee0-f9fe-4556-933e-ecf6827038e5","system_id":"levelo_inurba_marseille","lat":43.29183,"lon":5.35732,"is_reserved":false,"is_disabled":false,"rental_uris":{"android":"levelo://app?vid=f98a7ee0-f9fe-4556-933e-ecf6827038e5","ios":"levelo://app?vid=f98a7ee0-f9fe-4556-933e-ecf6827038e5"},"vehicle_type_id":"4","last_reported":1737644946,"current_range_meters":12800,"station_id":"","pricing_plan_id":"cebpf4jnsgd1na2vs0mg"},{"bike_id":"b1a957ac-abc5-4d68-9d38-4cf1b468b5fd","system_id":"levelo_inurba_marseille","lat":43.303174,"lon":5.392114,"is_reserved":false,"is_disabled":false,"rental_uris":{"android":"levelo://app?vid=b1a957ac-abc5-4d68-9d38-4cf1b468b5fd","ios":"levelo://app?vid=b1a957ac-abc5-4d68-9d38-4cf1b468b5fd"},"vehicle_type_id":"4","last_reported":1737644946,"current_range_meters":29600,"station_id":"ce4bgkh2rcd13ifvqbk0","pricing_plan_id":"cebpf4jnsgd1na2vs0mg"},{"bike_id":"90b8a1b1-ad54-458d-9362-f5197bbdf048","system_id":"levelo_inurba_marseille","lat":43.22938,"lon":5.35374,"is_reserved":false,"is_disabled":false,"rental_uris":{"android":"levelo://app?vid=90b8a1b1-ad54-458d-9362-f5197bbdf048","ios":"levelo://app?vid=90b8a1b1-ad54-458d-9362-f5197bbdf048"},"vehicle_type_id":"4","last_reported":1737644946,"current_range_meters":32800,"station_id":"cpo3532slgdg3j2ikp40","pricing_plan_id":"cebpf4jnsgd1na2vs0mg"},{"bike_id":"9a7537a6-eda7-4dd3-b30f-ceb51182fba6","system_id":"levelo_inurba_marseille","lat":43.26224,"lon":5.40446,"is_reserved":false,"is_disabled":false,"rental_uris":{"android":"levelo://app?vid=9a7537a6-eda7-4dd3-b30f-ceb51182fba6","ios":"levelo://app?vid=9a7537a6-eda7-4dd3-b30f-ceb51182fba6"},"vehicle_type_id":"4","last_reported":1737644946,"current_range_meters":9600,"station_id":"","pricing_plan_id":"cebpf4jnsgd1na2vs0mg"},{"bike_id":"656571c3-6c17-4e0d-a9af-c80324863edf","system_id":"levelo_inurba_marseille","lat":43.29191,"lon":5.35811,"is_reserved":false,"is_disabled":false,"rental_uris":{"android":"levelo://app?vid=656571c3-6c17-4e0d-a9af-c80324863edf","ios":"levelo://app?vid=656571c3-6c17-4e0d-a9af-c80324863edf"},"vehicle_type_id":"4","last_reported":1737644946,"current_range_meters":38000,"station_id":"ce4bhb12rcd13ifvqel0","pricing_plan_id":"cebpf4jnsgd1na2vs0mg"},{"bike_id":"dee32118-ec80-4f6f-8df0-3b0cf85ca19c","system_id":"levelo_inurba_marseille","lat":43.296,"lon":5.38107,"is_reserved":false,"is_disabled":false,"rental_uris":{"android":"levelo://app?vid=dee32118-ec80-4f6f-8df0-3b0cf85ca19c","ios":"levelo://app?vid=dee32118-ec80-4f6f-8df0-3b0cf85ca19c"},"vehicle_type_id":"4","last_reported":1737644946,"current_range_meters":22000,"station_id":"ce4bgl12rcd13ifvqbo0","pricing_plan_id":"cebpf4jnsgd1na2vs0mg"},{"bike_id":"c4500821-8242-4f17-be4b-8a8e65d70c73","system_id":"levelo_inurba_marseille","lat":43.23155,"lon":5.43721,"is_reserved":false,"is_disabled":false,"rental_uris":{"android":"levelo://app?vid=c4500821-8242-4f17-be4b-8a8e65d70c73","ios":"levelo://app?vid=c4500821-8242-4f17-be4b-8a8e65d70c73"},"vehicle_type_id":"4","last_reported":1737644946,"current_range_meters":38800,"station_id":"ce4bhmp2rcd13ifvqgog","pricing_plan_id":"cebpf4jnsgd1na2vs0mg"},{"bike_id":"62069f6c-3dd9-4b79-9f44-941214b1a57f","system_id":"levelo_inurba_marseille","lat":43.2995,"lon":5.36508,"is_reserved":false,"is_disabled":false,"rental_uris":{"android":"levelo://app?vid=62069f6c-3dd9-4b79-9f44-941214b1a57f","ios":"levelo://app?vid=62069f6c-3dd9-4b79-9f44-941214b1a57f"},"vehicle_type_id":"4","last_reported":1737644946,"current_range_meters":38800,"station_id":"ce4bgm92rcd13ifvqbr0","pricing_plan_id":"cebpf4jnsgd1na2vs0mg"},{"bike_id":"ce90fea6-ff2a-4d0b-bd4f-45ced0acf4c0","system_id":"levelo_inurba_marseille","lat":43.32358,"lon":5.36728,"is_reserved":false,"is_disabled":false,"rental_uris":{"android":"levelo://app?vid=ce90fea6-ff2a-4d0b-bd4f-45ced0acf4c0","ios":"levelo://app?vid=ce90fea6-ff2a-4d0b-bd4f-45ced0acf4c0"},"vehicle_type_id":"4","last_reported":1737644946,"current_range_meters":11200,"station_id":"ce4bhsh2rcd13ifvqi2g","pricing_plan_id":"cebpf4jnsgd1na2vs0mg"},{"bike_id":"241e0007-ecf7-437a-b532-163bccf9f3dc","system_id":"levelo_inurba_marseille","lat":43.30322,"lon":5.40447,"is_reserved":false,"is_disabled":false,"rental_uris":{"android":"levelo://app?vid=241e0007-ecf7-437a-b532-163bccf9f3dc","ios":"levelo://app?vid=241e0007-ecf7-437a-b532-163bccf9f3dc"},"vehicle_type_id":"4","last_reported":1737644946,"current_range_meters":26000,"station_id":"ce4bh012rcd13ifvqd10","pricing_plan_id":"cebpf4jnsgd1na2vs0mg"},{"bike_id":"ab13439f-1c4b-4b83-ac72-9f4e6d1f64cb","system_id":"levelo_inurba_marseille","lat":43.3126,"lon":5.37977,"is_reserved":false,"is_disabled":true,"rental_uris":{"android":"levelo://app?vid=ab13439f-1c4b-4b83-ac72-9f4e6d1f64cb","ios":"levelo://app?vid=ab13439f-1c4b-4b83-ac72-9f4e6d1f64cb"},"vehicle_type_id":"4","last_reported":1737644946,"current_range_meters":10000,"station_id":"","pricing_plan_id":"cebpf4jnsgd1na2vs0mg"},{"bike_id":"02394dc5-85af-47df-a8e1-31c154c9e2cc","system_id":"levelo_inurba_marseille","lat":43.23192,"lon":5.39982,"is_reserved":false,"is_disabled":false,"rental_uris":{"android":"levelo://app?vid=02394dc5-85af-47df-a8e1-31c154c9e2cc","ios":"levelo://app?vid=02394dc5-85af-47df-a8e1-31c154c9e2cc"},"vehicle_type_id":"4","last_reported":1737644946,"current_range_meters":38000,"station_id":"ce4bhn12rcd13ifvqgqg","pricing_plan_id":"cebpf4jnsgd1na2vs0mg"},{"bike_id":"8fa1cfa8-dc33-47f5-b777-912d9a7a7eb3","system_id":"levelo_inurba_marseille","lat":43.26807,"lon":5.40265,"is_reserved":false,"is_disabled":false,"rental_uris":{"android":"levelo://app?vid=8fa1cfa8-dc33-47f5-b777-912d9a7a7eb3","ios":"levelo://app?vid=8fa1cfa8-dc33-47f5-b777-912d9a7a7eb3"},"vehicle_type_id":"4","last_reported":1737644946,"current_range_meters":39200,"station_id":"ce501612rcd8frsf0b60","pricing_plan_id":"cebpf4jnsgd1na2vs0mg"},{"bike_id":"9852a9dc-943a-442f-9475-a08ad558062a","system_id":"levelo_inurba_marseille","lat":43.30288,"lon":5.37684,"is_reserved":false,"is_disabled":false,"rental_uris":{"android":"levelo://app?vid=9852a9dc-943a-442f-9475-a08ad558062a","ios":"levelo://app?vid=9852a9dc-943a-442f-9475-a08ad558062a"},"vehicle_type_id":"4","last_reported":1737644946,"current_range_meters":38800,"station_id":"ce4bguh2rcd13ifvqcj0","pricing_plan_id":"cebpf4jnsgd1na2vs0mg"},{"bike_id":"69c47985-dae8-486f-a22e-57ba7614bd83","system_id":"levelo_inurba_marseille","lat":43.29962,"lon":5.41324,"is_reserved":false,"is_disabled":false,"rental_uris":{"android":"levelo://app?vid=69c47985-dae8-486f-a22e-57ba7614bd83","ios":"levelo://app?vid=69c47985-dae8-486f-a22e-57ba7614bd83"},"vehicle_type_id":"4","last_reported":1737644946,"current_range_meters":38800,"station_id":"ce4bhp12rcd13ifvqh9g","pricing_plan_id":"cebpf4jnsgd1na2vs0mg"},{"bike_id":"704b9ac4-08a6-48ef-85ea-bb2a6455baf7","system_id":"levelo_inurba_marseille","lat":43.26208,"lon":5.37916,"is_reserved":false,"is_disabled":false,"rental_uris":{"android":"levelo://app?vid=704b9ac4-08a6-48ef-85ea-bb2a6455baf7","ios":"levelo://app?vid=704b9ac4-08a6-48ef-85ea-bb2a6455baf7"},"vehicle_type_id":"4","last_reported":1737644946,"current_range_meters":38800,"station_id":"ce4bhjp2rcd13ifvqg90","pricing_plan_id":"cebpf4jnsgd1na2vs0mg"},{"bike_id":"852c4b2c-ff0b-4349-b1ad-8f4566913b6c","system_id":"levelo_inurba_marseille","lat":43.29764,"lon":5.37632,"is_reserved":false,"is_disabled":true,"rental_uris":{"android":"levelo://app?vid=852c4b2c-ff0b-4349-b1ad-8f4566913b6c","ios":"levelo://app?vid=852c4b2c-ff0b-4349-b1ad-8f4566913b6c"},"vehicle_type_id":"4","last_reported":1737644946,"current_range_meters":800,"station_id":"","pricing_plan_id":"cebpf4jnsgd1na2vs0mg"},{"bike_id":"f3c43f3f-5ca3-46fd-a012-c8d0e216ec91","system_id":"levelo_inurba_marseille","lat":43.28661,"lon":5.38659,"is_reserved":false,"is_disabled":false,"rental_uris":{"android":"levelo://app?vid=f3c43f3f-5ca3-46fd-a012-c8d0e216ec91","ios":"levelo://app?vid=f3c43f3f-5ca3-46fd-a012-c8d0e216ec91"},"vehicle_type_id":"4","last_reported":1737644946,"current_range_meters":17600,"station_id":"ce4bh492rcd13ifvqdug","pricing_plan_id":"cebpf4jnsgd1na2vs0mg"},{"bike_id":"cb89451d-fcbc-47ab-bfa4-263d9c5e103c","system_id":"levelo_inurba_marseille","lat":43.2498,"lon":5.38945,"is_reserved":false,"is_disabled":false,"rental_uris":{"android":"levelo://app?vid=cb89451d-fcbc-47ab-bfa4-263d9c5e103c","ios":"levelo://app?vid=cb89451d-fcbc-47ab-bfa4-263d9c5e103c"},"vehicle_type_id":"4","last_reported":1737644946,"current_range_meters":29600,"station_id":"ce4bhgp2rcd13ifvqfd0","pricing_plan_id":"cebpf4jnsgd1na2vs0mg"},{"bike_id":"c4db15ea-eb22-409d-a92c-518ac96d96dd","system_id":"levelo_inurba_marseille","lat":43.29558,"lon":5.42268,"is_reserved":false,"is_disabled":false,"rental_uris":{"android":"levelo://app?vid=c4db15ea-eb22-409d-a92c-518ac96d96dd","ios":"levelo://app?vid=c4db15ea-eb22-409d-a92c-518ac96d96dd"},"vehicle_type_id":"4","last_reported":1737644946,"current_range_meters":36800,"station_id":"ce4bhph2rcd13ifvqhdg","pricing_plan_id":"cebpf4jnsgd1na2vs0mg"},{"bike_id":"4e5bd741-bc92-4ef7-a388-a180aaf9ebcd","system_id":"levelo_inurba_marseille","lat":43.30533,"lon":5.38425,"is_reserved":false,"is_disabled":false,"rental_uris":{"android":"levelo://app?vid=4e5bd741-bc92-4ef7-a388-a180aaf9ebcd","ios":"levelo://app?vid=4e5bd741-bc92-4ef7-a388-a180aaf9ebcd"},"vehicle_type_id":"4","last_reported":1737644946,"current_range_meters":31200,"station_id":"ce4bgg92rcd13ifvqb30","pricing_plan_id":"cebpf4jnsgd1na2vs0mg"},{"bike_id":"2876aca2-4ddb-4f16-984a-1efd2877960c","system_id":"levelo_inurba_marseille","lat":43.33727,"lon":5.39192,"is_reserved":false,"is_disabled":false,"rental_uris":{"android":"levelo://app?vid=2876aca2-4ddb-4f16-984a-1efd2877960c","ios":"levelo://app?vid=2876aca2-4ddb-4f16-984a-1efd2877960c"},"vehicle_type_id":"4","last_reported":1737644946,"current_range_meters":38800,"station_id":"ce4bhr92rcd13ifvqhsg","pricing_plan_id":"cebpf4jnsgd1na2vs0mg"},{"bike_id":"3c2d04af-48e1-4ba6-a556-dc47e92f8e87","system_id":"levelo_inurba_marseille","lat":43.30316,"lon":5.369,"is_reserved":false,"is_disabled":false,"rental_uris":{"android":"levelo://app?vid=3c2d04af-48e1-4ba6-a556-dc47e92f8e87","ios":"levelo://app?vid=3c2d04af-48e1-4ba6-a556-dc47e92f8e87"},"vehicle_type_id":"4","last_reported":1737644946,"current_range_meters":25600,"station_id":"ce4bgqh2rcd13ifvqc5g","pricing_plan_id":"cebpf4jnsgd1na2vs0mg"},{"bike_id":"15529485-bb03-43f2-8208-0da69a1dcabc","system_id":"levelo_inurba_marseille","lat":43.28256,"lon":5.35065,"is_reserved":false,"is_disabled":false,"rental_uris":{"android":"levelo://app?vid=15529485-bb03-43f2-8208-0da69a1dcabc","ios":"levelo://app?vid=15529485-bb03-43f2-8208-0da69a1dcabc"},"vehicle_type_id":"4","last_reported":1737644946,"current_range_meters":23200,"station_id":"ce4bhbp2rcd13ifvqerg","pricing_plan_id":"cebpf4jnsgd1na2vs0mg"},{"bike_id":"fc0abc3e-3dd9-4426-bd49-faf33e935976","system_id":"levelo_inurba_marseille","lat":43.32473,"lon":5.36581,"is_reserved":false,"is_disabled":false,"rental_uris":{"android":"levelo://app?vid=fc0abc3e-3dd9-4426-bd49-faf33e935976","ios":"levelo://app?vid=fc0abc3e-3dd9-4426-bd49-faf33e935976"},"vehicle_type_id":"4","last_reported":1737644946,"current_range_meters":38000,"station_id":"ce4bhs12rcd13ifvqhvg","pricing_plan_id":"cebpf4jnsgd1na2vs0mg"},{"bike_id":"292b083f-75c4-4934-a480-b95cdee98c8a","system_id":"levelo_inurba_marseille","lat":43.27994,"lon":5.41672,"is_reserved":false,"is_disabled":false,"rental_uris":{"android":"levelo://app?vid=292b083f-75c4-4934-a480-b95cdee98c8a","ios":"levelo://app?vid=292b083f-75c4-4934-a480-b95cdee98c8a"},"vehicle_type_id":"4","last_reported":1737644946,"current_range_meters":18000,"station_id":"ce4bho12rcd13ifvqh1g","pricing_plan_id":"cebpf4jnsgd1na2vs0mg"},{"bike_id":"71d52a33-572c-438c-8f2d-2f6bcd6207cc","system_id":"levelo_inurba_marseille","lat":43.29589,"lon":5.38102,"is_reserved":false,"is_disabled":false,"rental_uris":{"android":"levelo://app?vid=71d52a33-572c-438c-8f2d-2f6bcd6207cc","ios":"levelo://app?vid=71d52a33-572c-438c-8f2d-2f6bcd6207cc"},"vehicle_type_id":"4","last_reported":1737644946,"current_range_meters":30000,"station_id":"ce4bgl12rcd13ifvqbo0","pricing_plan_id":"cebpf4jnsgd1na2vs0mg"},{"bike_id":"a68c43ea-6ad3-4a83-a94e-689782e633e3","system_id":"levelo_inurba_marseille","lat":43.28717,"lon":5.36097,"is_reserved":false,"is_disabled":false,"rental_uris":{"android":"levelo://app?vid=a68c43ea-6ad3-4a83-a94e-689782e633e3","ios":"levelo://app?vid=a68c43ea-6ad3-4a83-a94e-689782e633e3"},"vehicle_type_id":"4","last_reported":1737644946,"current_range_meters":28400,"station_id":"cki0cbj6b192h4jlfktg","pricing_plan_id":"cebpf4jnsgd1na2vs0mg"},{"bike_id":"494a4259-b47c-4fb4-8bfd-6b65486524bb","system_id":"levelo_inurba_marseille","lat":43.3034,"lon":5.40424,"is_reserved":false,"is_disabled":false,"rental_uris":{"android":"levelo://app?vid=494a4259-b47c-4fb4-8bfd-6b65486524bb","ios":"levelo://app?vid=494a4259-b47c-4fb4-8bfd-6b65486524bb"},"vehicle_type_id":"4","last_reported":1737644946,"current_range_meters":8000,"station_id":"ce4bh012rcd13ifvqd10","pricing_plan_id":"cebpf4jnsgd1na2vs0mg"},{"bike_id":"232b25b7-fa81-4630-9104-082348ac0480","system_id":"levelo_inurba_marseille","lat":43.27997,"lon":5.40025,"is_reserved":false,"is_disabled":false,"rental_uris":{"android":"levelo://app?vid=232b25b7-fa81-4630-9104-082348ac0480","ios":"levelo://app?vid=232b25b7-fa81-4630-9104-082348ac0480"},"vehicle_type_id":"4","last_reported":1737644946,"current_range_meters":38800,"station_id":"ce4bho92rcd13ifvqh4g","pricing_plan_id":"cebpf4jnsgd1na2vs0mg"},{"bike_id":"8da8cb2e-4804-4a75-b9d1-9b31a3de6fd6","system_id":"levelo_inurba_marseille","lat":43.26684,"lon":5.3823,"is_reserved":false,"is_disabled":false,"rental_uris":{"android":"levelo://app?vid=8da8cb2e-4804-4a75-b9d1-9b31a3de6fd6","ios":"levelo://app?vid=8da8cb2e-4804-4a75-b9d1-9b31a3de6fd6"},"vehicle_type_id":"4","last_reported":1737644946,"current_range_meters":38800,"station_id":"ce4bhg92rcd13ifvqf90","pricing_plan_id":"cebpf4jnsgd1na2vs0mg"},{"bike_id":"7a55f28a-5a5b-4ca4-9825-dee123c17d08","system_id":"levelo_inurba_marseille","lat":43.3211,"lon":5.36776,"is_reserved":false,"is_disabled":true,"rental_uris":{"android":"levelo://app?vid=7a55f28a-5a5b-4ca4-9825-dee123c17d08","ios":"levelo://app?vid=7a55f28a-5a5b-4ca4-9825-dee123c17d08"},"vehicle_type_id":"4","last_reported":1737644946,"current_range_meters":0,"station_id":"ce4bhrh2rcd13ifvqhug","pricing_plan_id":"cebpf4jnsgd1na2vs0mg"},{"bike_id":"25759590-4ebf-4911-b8af-3858d7aa38eb","system_id":"levelo_inurba_marseille","lat":43.29624,"lon":5.37715,"is_reserved":false,"is_disabled":false,"rental_uris":{"android":"levelo://app?vid=25759590-4ebf-4911-b8af-3858d7aa38eb","ios":"levelo://app?vid=25759590-4ebf-4911-b8af-3858d7aa38eb"},"vehicle_type_id":"4","last_reported":1737644946,"current_range_meters":30000,"station_id":"ce4bgi92rcd13ifvqb90","pricing_plan_id":"cebpf4jnsgd1na2vs0mg"},{"bike_id":"c8936230-0322-4799-a777-be7bf709a988","system_id":"levelo_inurba_marseille","lat":43.29028,"lon":5.38642,"is_reserved":false,"is_disabled":false,"rental_uris":{"android":"levelo://app?vid=c8936230-0322-4799-a777-be7bf709a988","ios":"levelo://app?vid=c8936230-0322-4799-a777-be7bf709a988"},"vehicle_type_id":"4","last_reported":1737644946,"current_range_meters":37600,"station_id":"ce4bh4p2rcd13ifvqe0g","pricing_plan_id":"cebpf4jnsgd1na2vs0mg"},{"bike_id":"acc9e968-42f2-443f-bb58-cd32856c66f2","system_id":"levelo_inurba_marseille","lat":43.2841,"lon":5.3752,"is_reserved":false,"is_disabled":false,"rental_uris":{"android":"levelo://app?vid=acc9e968-42f2-443f-bb58-cd32856c66f2","ios":"levelo://app?vid=acc9e968-42f2-443f-bb58-cd32856c66f2"},"vehicle_type_id":"4","last_reported":1737644946,"current_range_meters":30400,"station_id":"ce4bh412rcd13ifvqds0","pricing_plan_id":"cebpf4jnsgd1na2vs0mg"},{"bike_id":"4312c3bc-d293-4b6a-adf2-d15f18de232b","system_id":"levelo_inurba_marseille","lat":43.27671,"lon":5.38875,"is_reserved":false,"is_disabled":false,"rental_uris":{"android":"levelo://app?vid=4312c3bc-d293-4b6a-adf2-d15f18de232b","ios":"levelo://app?vid=4312c3bc-d293-4b6a-adf2-d15f18de232b"},"vehicle_type_id":"4","last_reported":1737644946,"current_range_meters":38000,"station_id":"ce4bhi12rcd13ifvqfo0","pricing_plan_id":"cebpf4jnsgd1na2vs0mg"},{"bike_id":"bdc9df5b-15df-4da6-8498-c1412c4f1ee3","system_id":"levelo_inurba_marseille","lat":43.26946,"lon":5.38625,"is_reserved":false,"is_disabled":false,"rental_uris":{"android":"levelo://app?vid=bdc9df5b-15df-4da6-8498-c1412c4f1ee3","ios":"levelo://app?vid=bdc9df5b-15df-4da6-8498-c1412c4f1ee3"},"vehicle_type_id":"4","last_reported":1737644946,"current_range_meters":36400,"station_id":"ce4bhh92rcd13ifvqfh0","pricing_plan_id":"cebpf4jnsgd1na2vs0mg"},{"bike_id":"35614ed7-a0df-4792-bca2-a1978fcd9fab","system_id":"levelo_inurba_marseille","lat":43.30804,"lon":5.43526,"is_reserved":false,"is_disabled":true,"rental_uris":{"android":"levelo://app?vid=35614ed7-a0df-4792-bca2-a1978fcd9fab","ios":"levelo://app?vid=35614ed7-a0df-4792-bca2-a1978fcd9fab"},"vehicle_type_id":"4","last_reported":1737644946,"current_range_meters":0,"station_id":"ce4bhph2rcd13ifvqheg","pricing_plan_id":"cebpf4jnsgd1na2vs0mg"},{"bike_id":"98b38b60-228e-49d8-9b00-6e56fec176f1","system_id":"levelo_inurba_marseille","lat":43.23152,"lon":5.43716,"is_reserved":false,"is_disabled":false,"rental_uris":{"android":"levelo://app?vid=98b38b60-228e-49d8-9b00-6e56fec176f1","ios":"levelo://app?vid=98b38b60-228e-49d8-9b00-6e56fec176f1"},"vehicle_type_id":"4","last_reported":1737644946,"current_range_meters":38800,"station_id":"ce4bhmp2rcd13ifvqgog","pricing_plan_id":"cebpf4jnsgd1na2vs0mg"},{"bike_id":"91151293-54a7-4717-83f7-c5a75314aca3","system_id":"levelo_inurba_marseille","lat":43.25002,"lon":5.38925,"is_reserved":false,"is_disabled":false,"rental_uris":{"android":"levelo://app?vid=91151293-54a7-4717-83f7-c5a75314aca3","ios":"levelo://app?vid=91151293-54a7-4717-83f7-c5a75314aca3"},"vehicle_type_id":"4","last_reported":1737644946,"current_range_meters":14800,"station_id":"ce4bhgp2rcd13ifvqfd0","pricing_plan_id":"cebpf4jnsgd1na2vs0mg"},{"bike_id":"5e0169dd-cfb6-4345-b9e5-59ab64e75e4d","system_id":"levelo_inurba_marseille","lat":43.32294,"lon":5.38266,"is_reserved":false,"is_disabled":false,"rental_uris":{"android":"levelo://app?vid=5e0169dd-cfb6-4345-b9e5-59ab64e75e4d","ios":"levelo://app?vid=5e0169dd-cfb6-4345-b9e5-59ab64e75e4d"},"vehicle_type_id":"4","last_reported":1737644946,"current_range_meters":38800,"station_id":"ce4bhr12rcd13ifvqhqg","pricing_plan_id":"cebpf4jnsgd1na2vs0mg"},{"bike_id":"91597c02-45b7-468d-ad8f-7004609287ce","system_id":"levelo_inurba_marseille","lat":43.25113,"lon":5.40329,"is_reserved":false,"is_disabled":false,"rental_uris":{"android":"levelo://app?vid=91597c02-45b7-468d-ad8f-7004609287ce","ios":"levelo://app?vid=91597c02-45b7-468d-ad8f-7004609287ce"},"vehicle_type_id":"4","last_reported":1737644946,"current_range_meters":7200,"station_id":"ce4bhlh2rcd13ifvqgig","pricing_plan_id":"cebpf4jnsgd1na2vs0mg"},{"bike_id":"96bd9e64-ec79-445f-af92-f8aeeeeb8575","system_id":"levelo_inurba_marseille","lat":43.28402,"lon":5.3754,"is_reserved":false,"is_disabled":false,"rental_uris":{"android":"levelo://app?vid=96bd9e64-ec79-445f-af92-f8aeeeeb8575","ios":"levelo://app?vid=96bd9e64-ec79-445f-af92-f8aeeeeb8575"},"vehicle_type_id":"4","last_reported":1737644946,"current_range_meters":15200,"station_id":"ce4bh412rcd13ifvqds0","pricing_plan_id":"cebpf4jnsgd1na2vs0mg"},{"bike_id":"554d3b69-abb7-4aa8-948d-4f3f1d465343","system_id":"levelo_inurba_marseille","lat":43.29268,"lon":5.36844,"is_reserved":false,"is_disabled":false,"rental_uris":{"android":"levelo://app?vid=554d3b69-abb7-4aa8-948d-4f3f1d465343","ios":"levelo://app?vid=554d3b69-abb7-4aa8-948d-4f3f1d465343"},"vehicle_type_id":"4","last_reported":1737644946,"current_range_meters":35600,"station_id":"ce4bhbp2rcd13ifvqesg","pricing_plan_id":"cebpf4jnsgd1na2vs0mg"},{"bike_id":"a909192c-b42e-42fd-897a-26537d9a69e9","system_id":"levelo_inurba_marseille","lat":43.29959,"lon":5.41318,"is_reserved":false,"is_disabled":true,"rental_uris":{"android":"levelo://app?vid=a909192c-b42e-42fd-897a-26537d9a69e9","ios":"levelo://app?vid=a909192c-b42e-42fd-897a-26537d9a69e9"},"vehicle_type_id":"4","last_reported":1737644946,"current_range_meters":0,"station_id":"ce4bhp12rcd13ifvqh9g","pricing_plan_id":"cebpf4jnsgd1na2vs0mg"},{"bike_id":"b7484b8b-3a71-45d6-b948-aa32b13a1995","system_id":"levelo_inurba_marseille","lat":43.29895,"lon":5.43662,"is_reserved":false,"is_disabled":false,"rental_uris":{"android":"levelo://app?vid=b7484b8b-3a71-45d6-b948-aa32b13a1995","ios":"levelo://app?vid=b7484b8b-3a71-45d6-b948-aa32b13a1995"},"vehicle_type_id":"4","last_reported":1737644946,"current_range_meters":18800,"station_id":"ce4bhpp2rcd13ifvqhfg","pricing_plan_id":"cebpf4jnsgd1na2vs0mg"},{"bike_id":"07067357-8180-439d-9d4f-6736447bfef4","system_id":"levelo_inurba_marseille","lat":43.29373,"lon":5.37869,"is_reserved":false,"is_disabled":false,"rental_uris":{"android":"levelo://app?vid=07067357-8180-439d-9d4f-6736447bfef4","ios":"levelo://app?vid=07067357-8180-439d-9d4f-6736447bfef4"},"vehicle_type_id":"4","last_reported":1737644946,"current_range_meters":6800,"station_id":"ce4bgjh2rcd13ifvqbf0","pricing_plan_id":"cebpf4jnsgd1na2vs0mg"},{"bike_id":"62af5f83-db6f-4b05-8b8a-b92be9949626","system_id":"levelo_inurba_marseille","lat":43.30209,"lon":5.39457,"is_reserved":false,"is_disabled":false,"rental_uris":{"android":"levelo://app?vid=62af5f83-db6f-4b05-8b8a-b92be9949626","ios":"levelo://app?vid=62af5f83-db6f-4b05-8b8a-b92be9949626"},"vehicle_type_id":"4","last_reported":1737644946,"current_range_meters":35600,"station_id":"ce4bh0p2rcd13ifvqd70","pricing_plan_id":"cebpf4jnsgd1na2vs0mg"},{"bike_id":"4ec96207-5c88-4957-875c-7fb36b853318","system_id":"levelo_inurba_marseille","lat":43.3094,"lon":5.39025,"is_reserved":false,"is_disabled":false,"rental_uris":{"android":"levelo://app?vid=4ec96207-5c88-4957-875c-7fb36b853318","ios":"levelo://app?vid=4ec96207-5c88-4957-875c-7fb36b853318"},"vehicle_type_id":"4","last_reported":1737644946,"current_range_meters":9600,"station_id":"ce4bgup2rcd13ifvqco0","pricing_plan_id":"cebpf4jnsgd1na2vs0mg"},{"bike_id":"11da746e-cac9-447e-b5bf-83bad256ee2f","system_id":"levelo_inurba_marseille","lat":43.28939,"lon":5.36642,"is_reserved":false,"is_disabled":false,"rental_uris":{"android":"levelo://app?vid=11da746e-cac9-447e-b5bf-83bad256ee2f","ios":"levelo://app?vid=11da746e-cac9-447e-b5bf-83bad256ee2f"},"vehicle_type_id":"4","last_reported":1737644946,"current_range_meters":14400,"station_id":"ce4bhap2rcd13ifvqek0","pricing_plan_id":"cebpf4jnsgd1na2vs0mg"},{"bike_id":"9863b7f9-4316-4322-9f6c-3cc66b0448e2","system_id":"levelo_inurba_marseille","lat":43.279439,"lon":5.389008,"is_reserved":false,"is_disabled":true,"rental_uris":{"android":"levelo://app?vid=9863b7f9-4316-4322-9f6c-3cc66b0448e2","ios":"levelo://app?vid=9863b7f9-4316-4322-9f6c-3cc66b0448e2"},"vehicle_type_id":"4","last_reported":1737644946,"current_range_meters":24400,"station_id":"","pricing_plan_id":"cebpf4jnsgd1na2vs0mg"},{"bike_id":"479448ff-2f13-4118-9ba0-8144ee0f5723","system_id":"levelo_inurba_marseille","lat":43.30881,"lon":5.39657,"is_reserved":false,"is_disabled":false,"rental_uris":{"android":"levelo://app?vid=479448ff-2f13-4118-9ba0-8144ee0f5723","ios":"levelo://app?vid=479448ff-2f13-4118-9ba0-8144ee0f5723"},"vehicle_type_id":"4","last_reported":1737644946,"current_range_meters":30400,"station_id":"ce4bh012rcd13ifvqcv0","pricing_plan_id":"cebpf4jnsgd1na2vs0mg"},{"bike_id":"6fa2f3d2-bfc7-4a9b-a1c6-efd0e29b47c4","system_id":"levelo_inurba_marseille","lat":43.26032,"lon":5.3754,"is_reserved":false,"is_disabled":false,"rental_uris":{"android":"levelo://app?vid=6fa2f3d2-bfc7-4a9b-a1c6-efd0e29b47c4","ios":"levelo://app?vid=6fa2f3d2-bfc7-4a9b-a1c6-efd0e29b47c4"},"vehicle_type_id":"4","last_reported":1737644946,"current_range_meters":38800,"station_id":"ce4bhgh2rcd13ifvqfa0","pricing_plan_id":"cebpf4jnsgd1na2vs0mg"},{"bike_id":"fa4cd009-3aad-46ce-b167-d7c86de01955","system_id":"levelo_inurba_marseille","lat":43.32498,"lon":5.36564,"is_reserved":false,"is_disabled":false,"rental_uris":{"android":"levelo://app?vid=fa4cd009-3aad-46ce-b167-d7c86de01955","ios":"levelo://app?vid=fa4cd009-3aad-46ce-b167-d7c86de01955"},"vehicle_type_id":"4","last_reported":1737644946,"current_range_meters":24400,"station_id":"ce4bhs12rcd13ifvqhvg","pricing_plan_id":"cebpf4jnsgd1na2vs0mg"},{"bike_id":"15d864da-208a-4a5a-8c7b-23a3b63b7be6","system_id":"levelo_inurba_marseille","lat":43.25106,"lon":5.40321,"is_reserved":false,"is_disabled":false,"rental_uris":{"android":"levelo://app?vid=15d864da-208a-4a5a-8c7b-23a3b63b7be6","ios":"levelo://app?vid=15d864da-208a-4a5a-8c7b-23a3b63b7be6"},"vehicle_type_id":"4","last_reported":1737644946,"current_range_meters":17200,"station_id":"ce4bhlh2rcd13ifvqgig","pricing_plan_id":"cebpf4jnsgd1na2vs0mg"},{"bike_id":"cc0371d6-5c0c-4e91-95c1-eb095a18c9d3","system_id":"levelo_inurba_marseille","lat":43.28343,"lon":5.38132,"is_reserved":false,"is_disabled":false,"rental_uris":{"android":"levelo://app?vid=cc0371d6-5c0c-4e91-95c1-eb095a18c9d3","ios":"levelo://app?vid=cc0371d6-5c0c-4e91-95c1-eb095a18c9d3"},"vehicle_type_id":"4","last_reported":1737644946,"current_range_meters":25600,"station_id":"ce4bh412rcd13ifvqdr0","pricing_plan_id":"cebpf4jnsgd1na2vs0mg"},{"bike_id":"dfbd27e7-12bf-4812-80d1-488dbaf230dc","system_id":"levelo_inurba_marseille","lat":43.32478,"lon":5.36595,"is_reserved":false,"is_disabled":false,"rental_uris":{"android":"levelo://app?vid=dfbd27e7-12bf-4812-80d1-488dbaf230dc","ios":"levelo://app?vid=dfbd27e7-12bf-4812-80d1-488dbaf230dc"},"vehicle_type_id":"4","last_reported":1737644946,"current_range_meters":22400,"station_id":"ce4bhs12rcd13ifvqhvg","pricing_plan_id":"cebpf4jnsgd1na2vs0mg"},{"bike_id":"cc8547c9-bc07-497c-a86f-0d168988ddc3","system_id":"levelo_inurba_marseille","lat":43.28404,"lon":5.37523,"is_reserved":false,"is_disabled":false,"rental_uris":{"android":"levelo://app?vid=cc8547c9-bc07-497c-a86f-0d168988ddc3","ios":"levelo://app?vid=cc8547c9-bc07-497c-a86f-0d168988ddc3"},"vehicle_type_id":"4","last_reported":1737644946,"current_range_meters":29600,"station_id":"ce4bh412rcd13ifvqds0","pricing_plan_id":"cebpf4jnsgd1na2vs0mg"},{"bike_id":"391f0113-1289-4a92-84a2-73a3a25662c7","system_id":"levelo_inurba_marseille","lat":43.31226,"lon":5.36864,"is_reserved":false,"is_disabled":false,"rental_uris":{"android":"levelo://app?vid=391f0113-1289-4a92-84a2-73a3a25662c7","ios":"levelo://app?vid=391f0113-1289-4a92-84a2-73a3a25662c7"},"vehicle_type_id":"4","last_reported":1737644946,"current_range_meters":7200,"station_id":"ce4bgl92rcd13ifvqbq0","pricing_plan_id":"cebpf4jnsgd1na2vs0mg"},{"bike_id":"589f4609-45ed-4db2-b282-d5a9a5bb7cf5","system_id":"levelo_inurba_marseille","lat":43.2656,"lon":5.38995,"is_reserved":false,"is_disabled":false,"rental_uris":{"android":"levelo://app?vid=589f4609-45ed-4db2-b282-d5a9a5bb7cf5","ios":"levelo://app?vid=589f4609-45ed-4db2-b282-d5a9a5bb7cf5"},"vehicle_type_id":"4","last_reported":1737644946,"current_range_meters":4000,"station_id":"ce4bhe12rcd13ifvqf30","pricing_plan_id":"cebpf4jnsgd1na2vs0mg"},{"bike_id":"b8522101-a8dc-4556-9aa4-7546debea75f","system_id":"levelo_inurba_marseille","lat":43.33736,"lon":5.3922,"is_reserved":false,"is_disabled":false,"rental_uris":{"android":"levelo://app?vid=b8522101-a8dc-4556-9aa4-7546debea75f","ios":"levelo://app?vid=b8522101-a8dc-4556-9aa4-7546debea75f"},"vehicle_type_id":"4","last_reported":1737644946,"current_range_meters":39200,"station_id":"ce4bhr92rcd13ifvqhsg","pricing_plan_id":"cebpf4jnsgd1na2vs0mg"},{"bike_id":"093c0a4b-c65c-4f81-818a-f415ef9de89a","system_id":"levelo_inurba_marseille","lat":43.31351,"lon":5.36705,"is_reserved":false,"is_disabled":false,"rental_uris":{"android":"levelo://app?vid=093c0a4b-c65c-4f81-818a-f415ef9de89a","ios":"levelo://app?vid=093c0a4b-c65c-4f81-818a-f415ef9de89a"},"vehicle_type_id":"4","last_reported":1737644946,"current_range_meters":38800,"station_id":"ce4bgr92rcd13ifvqc6g","pricing_plan_id":"cebpf4jnsgd1na2vs0mg"},{"bike_id":"49052dc3-4d8a-4007-89e4-6a2b13d47195","system_id":"levelo_inurba_marseille","lat":43.24392,"lon":5.37052,"is_reserved":false,"is_disabled":false,"rental_uris":{"android":"levelo://app?vid=49052dc3-4d8a-4007-89e4-6a2b13d47195","ios":"levelo://app?vid=49052dc3-4d8a-4007-89e4-6a2b13d47195"},"vehicle_type_id":"4","last_reported":1737644946,"current_range_meters":9600,"station_id":"ce4bhhh2rcd13ifvqfk0","pricing_plan_id":"cebpf4jnsgd1na2vs0mg"},{"bike_id":"13404d01-1c7c-4d4b-bb24-e98755f8bf24","system_id":"levelo_inurba_marseille","lat":43.30544,"lon":5.36699,"is_reserved":false,"is_disabled":false,"rental_uris":{"android":"levelo://app?vid=13404d01-1c7c-4d4b-bb24-e98755f8bf24","ios":"levelo://app?vid=13404d01-1c7c-4d4b-bb24-e98755f8bf24"},"vehicle_type_id":"4","last_reported":1737644946,"current_range_meters":32000,"station_id":"ce4bgrp2rcd13ifvqc9g","pricing_plan_id":"cebpf4jnsgd1na2vs0mg"},{"bike_id":"5ef17d0b-00e0-4e6e-9508-d3a82672aeaf","system_id":"levelo_inurba_marseille","lat":43.29632,"lon":5.40593,"is_reserved":false,"is_disabled":false,"rental_uris":{"android":"levelo://app?vid=5ef17d0b-00e0-4e6e-9508-d3a82672aeaf","ios":"levelo://app?vid=5ef17d0b-00e0-4e6e-9508-d3a82672aeaf"},"vehicle_type_id":"4","last_reported":1737644946,"current_range_meters":26800,"station_id":"ce4bh0h2rcd13ifvqd60","pricing_plan_id":"cebpf4jnsgd1na2vs0mg"},{"bike_id":"372d372c-fba1-4757-b021-5a0dc0db84d5","system_id":"levelo_inurba_marseille","lat":43.28942,"lon":5.36646,"is_reserved":false,"is_disabled":false,"rental_uris":{"android":"levelo://app?vid=372d372c-fba1-4757-b021-5a0dc0db84d5","ios":"levelo://app?vid=372d372c-fba1-4757-b021-5a0dc0db84d5"},"vehicle_type_id":"4","last_reported":1737644946,"current_range_meters":39200,"station_id":"ce4bhap2rcd13ifvqek0","pricing_plan_id":"cebpf4jnsgd1na2vs0mg"},{"bike_id":"e6d69e77-2426-40e6-8b56-caff4d581c0e","system_id":"levelo_inurba_marseille","lat":43.29564,"lon":5.42278,"is_reserved":false,"is_disabled":false,"rental_uris":{"android":"levelo://app?vid=e6d69e77-2426-40e6-8b56-caff4d581c0e","ios":"levelo://app?vid=e6d69e77-2426-40e6-8b56-caff4d581c0e"},"vehicle_type_id":"4","last_reported":1737644946,"current_range_meters":38800,"station_id":"ce4bhph2rcd13ifvqhdg","pricing_plan_id":"cebpf4jnsgd1na2vs0mg"},{"bike_id":"7c78a755-c7f5-4f07-a96b-621451d47948","system_id":"levelo_inurba_marseille","lat":43.29894,"lon":5.43668,"is_reserved":false,"is_disabled":false,"rental_uris":{"android":"levelo://app?vid=7c78a755-c7f5-4f07-a96b-621451d47948","ios":"levelo://app?vid=7c78a755-c7f5-4f07-a96b-621451d47948"},"vehicle_type_id":"4","last_reported":1737644946,"current_range_meters":11200,"station_id":"ce4bhpp2rcd13ifvqhfg","pricing_plan_id":"cebpf4jnsgd1na2vs0mg"},{"bike_id":"db4d6ad6-375d-4e89-9f56-82f178e67efd","system_id":"levelo_inurba_marseille","lat":43.30545,"lon":5.36535,"is_reserved":false,"is_disabled":false,"rental_uris":{"android":"levelo://app?vid=db4d6ad6-375d-4e89-9f56-82f178e67efd","ios":"levelo://app?vid=db4d6ad6-375d-4e89-9f56-82f178e67efd"},"vehicle_type_id":"4","last_reported":1737644946,"current_range_meters":37600,"station_id":"ce4bgs12rcd13ifvqcag","pricing_plan_id":"cebpf4jnsgd1na2vs0mg"},{"bike_id":"af26f1bc-cb1b-4e2f-b2d4-d9810d7dc31c","system_id":"levelo_inurba_marseille","lat":43.29847,"lon":5.36273,"is_reserved":false,"is_disabled":false,"rental_uris":{"android":"levelo://app?vid=af26f1bc-cb1b-4e2f-b2d4-d9810d7dc31c","ios":"levelo://app?vid=af26f1bc-cb1b-4e2f-b2d4-d9810d7dc31c"},"vehicle_type_id":"4","last_reported":1737644946,"current_range_meters":17200,"station_id":"ce4bgpp2rcd13ifvqc3g","pricing_plan_id":"cebpf4jnsgd1na2vs0mg"},{"bike_id":"adda049d-9385-4acf-9d47-59ff7f48fc5f","system_id":"levelo_inurba_marseille","lat":43.298,"lon":5.38097,"is_reserved":false,"is_disabled":false,"rental_uris":{"android":"levelo://app?vid=adda049d-9385-4acf-9d47-59ff7f48fc5f","ios":"levelo://app?vid=adda049d-9385-4acf-9d47-59ff7f48fc5f"},"vehicle_type_id":"4","last_reported":1737644946,"current_range_meters":32400,"station_id":"ce4bgip2rcd13ifvqbb0","pricing_plan_id":"cebpf4jnsgd1na2vs0mg"},{"bike_id":"5e65204b-5426-4b16-bf66-c33659b5e5fb","system_id":"levelo_inurba_marseille","lat":43.26562,"lon":5.39019,"is_reserved":false,"is_disabled":false,"rental_uris":{"android":"levelo://app?vid=5e65204b-5426-4b16-bf66-c33659b5e5fb","ios":"levelo://app?vid=5e65204b-5426-4b16-bf66-c33659b5e5fb"},"vehicle_type_id":"4","last_reported":1737644946,"current_range_meters":32400,"station_id":"ce4bhe12rcd13ifvqf30","pricing_plan_id":"cebpf4jnsgd1na2vs0mg"},{"bike_id":"258976de-f3d5-4097-9066-993987ca613f","system_id":"levelo_inurba_marseille","lat":43.30133,"lon":5.37421,"is_reserved":false,"is_disabled":false,"rental_uris":{"android":"levelo://app?vid=258976de-f3d5-4097-9066-993987ca613f","ios":"levelo://app?vid=258976de-f3d5-4097-9066-993987ca613f"},"vehicle_type_id":"4","last_reported":1737644946,"current_range_meters":28800,"station_id":"ce4bgs92rcd13ifvqcc0","pricing_plan_id":"cebpf4jnsgd1na2vs0mg"},{"bike_id":"16f0e6b5-d946-47d2-a97c-ad19d0c1e9a1","system_id":"levelo_inurba_marseille","lat":43.30887,"lon":5.36869,"is_reserved":false,"is_disabled":false,"rental_uris":{"android":"levelo://app?vid=16f0e6b5-d946-47d2-a97c-ad19d0c1e9a1","ios":"levelo://app?vid=16f0e6b5-d946-47d2-a97c-ad19d0c1e9a1"},"vehicle_type_id":"4","last_reported":1737644946,"current_range_meters":30000,"station_id":"ce4bgn92rcd13ifvqbvg","pricing_plan_id":"cebpf4jnsgd1na2vs0mg"},{"bike_id":"52620fd7-244c-42cf-ba46-2a14213c9041","system_id":"levelo_inurba_marseille","lat":43.26683,"lon":5.38276,"is_reserved":false,"is_disabled":false,"rental_uris":{"android":"levelo://app?vid=52620fd7-244c-42cf-ba46-2a14213c9041","ios":"levelo://app?vid=52620fd7-244c-42cf-ba46-2a14213c9041"},"vehicle_type_id":"4","last_reported":1737644946,"current_range_meters":12000,"station_id":"ce4bhg92rcd13ifvqf90","pricing_plan_id":"cebpf4jnsgd1na2vs0mg"},{"bike_id":"26d96d78-7a29-4ec5-93ac-79ad4342b085","system_id":"levelo_inurba_marseille","lat":43.31329,"lon":5.39697,"is_reserved":false,"is_disabled":false,"rental_uris":{"android":"levelo://app?vid=26d96d78-7a29-4ec5-93ac-79ad4342b085","ios":"levelo://app?vid=26d96d78-7a29-4ec5-93ac-79ad4342b085"},"vehicle_type_id":"4","last_reported":1737644946,"current_range_meters":39200,"station_id":"ce4bgvp2rcd13ifvqcu0","pricing_plan_id":"cebpf4jnsgd1na2vs0mg"},{"bike_id":"c7e0463a-31d7-43d0-aedb-5afe2217ee97","system_id":"levelo_inurba_marseille","lat":43.27575,"lon":5.384291,"is_reserved":false,"is_disabled":false,"rental_uris":{"android":"levelo://app?vid=c7e0463a-31d7-43d0-aedb-5afe2217ee97","ios":"levelo://app?vid=c7e0463a-31d7-43d0-aedb-5afe2217ee97"},"vehicle_type_id":"4","last_reported":1737644946,"current_range_meters":36800,"station_id":"ce4bhh92rcd13ifvqfi0","pricing_plan_id":"cebpf4jnsgd1na2vs0mg"},{"bike_id":"8091da5a-cc04-462d-bb09-ae380ca5e4ce","system_id":"levelo_inurba_marseille","lat":43.23186,"lon":5.39983,"is_reserved":false,"is_disabled":false,"rental_uris":{"android":"levelo://app?vid=8091da5a-cc04-462d-bb09-ae380ca5e4ce","ios":"levelo://app?vid=8091da5a-cc04-462d-bb09-ae380ca5e4ce"},"vehicle_type_id":"4","last_reported":1737644946,"current_range_meters":10000,"station_id":"ce4bhn12rcd13ifvqgqg","pricing_plan_id":"cebpf4jnsgd1na2vs0mg"},{"bike_id":"8bd70917-f949-4e55-8411-434a904e3f10","system_id":"levelo_inurba_marseille","lat":43.2928,"lon":5.40123,"is_reserved":false,"is_disabled":false,"rental_uris":{"android":"levelo://app?vid=8bd70917-f949-4e55-8411-434a904e3f10","ios":"levelo://app?vid=8bd70917-f949-4e55-8411-434a904e3f10"},"vehicle_type_id":"4","last_reported":1737644946,"current_range_meters":9600,"station_id":"ce4bh312rcd13ifvqdk0","pricing_plan_id":"cebpf4jnsgd1na2vs0mg"},{"bike_id":"d92a2864-562b-40b2-a310-c6d81b2588e9","system_id":"levelo_inurba_marseille","lat":43.30782,"lon":5.3765,"is_reserved":false,"is_disabled":false,"rental_uris":{"android":"levelo://app?vid=d92a2864-562b-40b2-a310-c6d81b2588e9","ios":"levelo://app?vid=d92a2864-562b-40b2-a310-c6d81b2588e9"},"vehicle_type_id":"4","last_reported":1737644946,"current_range_meters":9200,"station_id":"ce4bgv92rcd13ifvqcq0","pricing_plan_id":"cebpf4jnsgd1na2vs0mg"},{"bike_id":"7e50e231-6e86-4854-8e19-cf288d95a447","system_id":"levelo_inurba_marseille","lat":43.31171,"lon":5.3687,"is_reserved":false,"is_disabled":false,"rental_uris":{"android":"levelo://app?vid=7e50e231-6e86-4854-8e19-cf288d95a447","ios":"levelo://app?vid=7e50e231-6e86-4854-8e19-cf288d95a447"},"vehicle_type_id":"4","last_reported":1737644946,"current_range_meters":16800,"station_id":"","pricing_plan_id":"cebpf4jnsgd1na2vs0mg"},{"bike_id":"8210b62d-a1a5-4f4c-8046-84672334af72","system_id":"levelo_inurba_marseille","lat":43.25106,"lon":5.40322,"is_reserved":false,"is_disabled":false,"rental_uris":{"android":"levelo://app?vid=8210b62d-a1a5-4f4c-8046-84672334af72","ios":"levelo://app?vid=8210b62d-a1a5-4f4c-8046-84672334af72"},"vehicle_type_id":"4","last_reported":1737644946,"current_range_meters":32400,"station_id":"ce4bhlh2rcd13ifvqgig","pricing_plan_id":"cebpf4jnsgd1na2vs0mg"},{"bike_id":"e8d89669-ae06-4480-a309-966f17a22fff","system_id":"levelo_inurba_marseille","lat":43.27856,"lon":5.38301,"is_reserved":false,"is_disabled":false,"rental_uris":{"android":"levelo://app?vid=e8d89669-ae06-4480-a309-966f17a22fff","ios":"levelo://app?vid=e8d89669-ae06-4480-a309-966f17a22fff"},"vehicle_type_id":"4","last_reported":1737644946,"current_range_meters":27200,"station_id":"ce4bhgh2rcd13ifvqfb0","pricing_plan_id":"cebpf4jnsgd1na2vs0mg"},{"bike_id":"51b693ec-6376-489f-b989-9f78de29a1f3","system_id":"levelo_inurba_marseille","lat":43.24177,"lon":5.36396,"is_reserved":false,"is_disabled":false,"rental_uris":{"android":"levelo://app?vid=51b693ec-6376-489f-b989-9f78de29a1f3","ios":"levelo://app?vid=51b693ec-6376-489f-b989-9f78de29a1f3"},"vehicle_type_id":"4","last_reported":1737644946,"current_range_meters":22000,"station_id":"cpo36qri1sfpv3e86is0","pricing_plan_id":"cebpf4jnsgd1na2vs0mg"},{"bike_id":"66608dc1-56d2-47c5-adf6-aeb6e2343bb6","system_id":"levelo_inurba_marseille","lat":43.29613,"lon":5.37172,"is_reserved":false,"is_disabled":false,"rental_uris":{"android":"levelo://app?vid=66608dc1-56d2-47c5-adf6-aeb6e2343bb6","ios":"levelo://app?vid=66608dc1-56d2-47c5-adf6-aeb6e2343bb6"},"vehicle_type_id":"4","last_reported":1737644946,"current_range_meters":38800,"station_id":"ce4bgnh2rcd13ifvqc0g","pricing_plan_id":"cebpf4jnsgd1na2vs0mg"},{"bike_id":"13ff516e-16cf-4543-8540-9030b8b296b4","system_id":"levelo_inurba_marseille","lat":43.23187,"lon":5.35544,"is_reserved":false,"is_disabled":false,"rental_uris":{"android":"levelo://app?vid=13ff516e-16cf-4543-8540-9030b8b296b4","ios":"levelo://app?vid=13ff516e-16cf-4543-8540-9030b8b296b4"},"vehicle_type_id":"4","last_reported":1737644946,"current_range_meters":28800,"station_id":"ce4bhu92rcd13ifvqi70","pricing_plan_id":"cebpf4jnsgd1na2vs0mg"},{"bike_id":"ec6a541f-38df-4148-a6ac-6db39abd6d59","system_id":"levelo_inurba_marseille","lat":43.28109,"lon":5.37848,"is_reserved":false,"is_disabled":false,"rental_uris":{"android":"levelo://app?vid=ec6a541f-38df-4148-a6ac-6db39abd6d59","ios":"levelo://app?vid=ec6a541f-38df-4148-a6ac-6db39abd6d59"},"vehicle_type_id":"4","last_reported":1737644946,"current_range_meters":36400,"station_id":"ce4bha12rcd13ifvqee0","pricing_plan_id":"cebpf4jnsgd1na2vs0mg"},{"bike_id":"4863d741-c83d-4a10-a239-ef9ca96ec30e","system_id":"levelo_inurba_marseille","lat":43.27815,"lon":5.40716,"is_reserved":false,"is_disabled":false,"rental_uris":{"android":"levelo://app?vid=4863d741-c83d-4a10-a239-ef9ca96ec30e","ios":"levelo://app?vid=4863d741-c83d-4a10-a239-ef9ca96ec30e"},"vehicle_type_id":"4","last_reported":1737644946,"current_range_meters":9200,"station_id":"ce4bhnh2rcd13ifvqgtg","pricing_plan_id":"cebpf4jnsgd1na2vs0mg"},{"bike_id":"6931a1ba-5d10-4c0d-981b-e8d636406c59","system_id":"levelo_inurba_marseille","lat":43.2846,"lon":5.35888,"is_reserved":false,"is_disabled":false,"rental_uris":{"android":"levelo://app?vid=6931a1ba-5d10-4c0d-981b-e8d636406c59","ios":"levelo://app?vid=6931a1ba-5d10-4c0d-981b-e8d636406c59"},"vehicle_type_id":"4","last_reported":1737644946,"current_range_meters":16800,"station_id":"ce4bhah2rcd13ifvqei0","pricing_plan_id":"cebpf4jnsgd1na2vs0mg"},{"bike_id":"1876537c-c9d8-4160-b31c-e17d644f44c6","system_id":"levelo_inurba_marseille","lat":43.32486,"lon":5.36564,"is_reserved":false,"is_disabled":false,"rental_uris":{"android":"levelo://app?vid=1876537c-c9d8-4160-b31c-e17d644f44c6","ios":"levelo://app?vid=1876537c-c9d8-4160-b31c-e17d644f44c6"},"vehicle_type_id":"4","last_reported":1737644946,"current_range_meters":32000,"station_id":"ce4bhs12rcd13ifvqhvg","pricing_plan_id":"cebpf4jnsgd1na2vs0mg"},{"bike_id":"50c36e52-4d6d-4227-99fe-fc5cba239461","system_id":"levelo_inurba_marseille","lat":43.2927,"lon":5.38406,"is_reserved":false,"is_disabled":false,"rental_uris":{"android":"levelo://app?vid=50c36e52-4d6d-4227-99fe-fc5cba239461","ios":"levelo://app?vid=50c36e52-4d6d-4227-99fe-fc5cba239461"},"vehicle_type_id":"4","last_reported":1737644946,"current_range_meters":8000,"station_id":"ce4bh692rcd13ifvqea0","pricing_plan_id":"cebpf4jnsgd1na2vs0mg"},{"bike_id":"e3438d4f-db10-490a-ac5f-41cf08bdb186","system_id":"levelo_inurba_marseille","lat":43.30799,"lon":5.3814,"is_reserved":false,"is_disabled":true,"rental_uris":{"android":"levelo://app?vid=e3438d4f-db10-490a-ac5f-41cf08bdb186","ios":"levelo://app?vid=e3438d4f-db10-490a-ac5f-41cf08bdb186"},"vehicle_type_id":"4","last_reported":1737644946,"current_range_meters":800,"station_id":"ce4bgt12rcd13ifvqce0","pricing_plan_id":"cebpf4jnsgd1na2vs0mg"},{"bike_id":"949adc13-c275-42bb-b995-242920fc8ce6","system_id":"levelo_inurba_marseille","lat":43.27819,"lon":5.40724,"is_reserved":false,"is_disabled":false,"rental_uris":{"android":"levelo://app?vid=949adc13-c275-42bb-b995-242920fc8ce6","ios":"levelo://app?vid=949adc13-c275-42bb-b995-242920fc8ce6"},"vehicle_type_id":"4","last_reported":1737644946,"current_range_meters":37600,"station_id":"ce4bhnh2rcd13ifvqgtg","pricing_plan_id":"cebpf4jnsgd1na2vs0mg"},{"bike_id":"a138d3a1-7ae0-4ffc-8be2-9c5ce4aff9f3","system_id":"levelo_inurba_marseille","lat":43.29521,"lon":5.39413,"is_reserved":false,"is_disabled":false,"rental_uris":{"android":"levelo://app?vid=a138d3a1-7ae0-4ffc-8be2-9c5ce4aff9f3","ios":"levelo://app?vid=a138d3a1-7ae0-4ffc-8be2-9c5ce4aff9f3"},"vehicle_type_id":"4","last_reported":1737644946,"current_range_meters":24400,"station_id":"ce4bh292rcd13ifvqdf0","pricing_plan_id":"cebpf4jnsgd1na2vs0mg"},{"bike_id":"d2ccf28c-f6d9-4cc7-ab13-e2de5a4593f9","system_id":"levelo_inurba_marseille","lat":43.27568,"lon":5.38434,"is_reserved":false,"is_disabled":false,"rental_uris":{"android":"levelo://app?vid=d2ccf28c-f6d9-4cc7-ab13-e2de5a4593f9","ios":"levelo://app?vid=d2ccf28c-f6d9-4cc7-ab13-e2de5a4593f9"},"vehicle_type_id":"4","last_reported":1737644946,"current_range_meters":20000,"station_id":"ce4bhh92rcd13ifvqfi0","pricing_plan_id":"cebpf4jnsgd1na2vs0mg"},{"bike_id":"fd2b9a30-1fe0-43e8-8ab3-3b8920099da6","system_id":"levelo_inurba_marseille","lat":43.2937,"lon":5.37841,"is_reserved":false,"is_disabled":false,"rental_uris":{"android":"levelo://app?vid=fd2b9a30-1fe0-43e8-8ab3-3b8920099da6","ios":"levelo://app?vid=fd2b9a30-1fe0-43e8-8ab3-3b8920099da6"},"vehicle_type_id":"4","last_reported":1737644946,"current_range_meters":34800,"station_id":"ce4bgjh2rcd13ifvqbf0","pricing_plan_id":"cebpf4jnsgd1na2vs0mg"},{"bike_id":"d28e6da9-9d50-41fc-92a1-acd12478bf45","system_id":"levelo_inurba_marseille","lat":43.27891,"lon":5.37999,"is_reserved":false,"is_disabled":false,"rental_uris":{"android":"levelo://app?vid=d28e6da9-9d50-41fc-92a1-acd12478bf45","ios":"levelo://app?vid=d28e6da9-9d50-41fc-92a1-acd12478bf45"},"vehicle_type_id":"4","last_reported":1737644946,"current_range_meters":34000,"station_id":"ce4bhf92rcd13ifvqf50","pricing_plan_id":"cebpf4jnsgd1na2vs0mg"},{"bike_id":"5660399e-e2b9-443c-b4b3-14669b1ff702","system_id":"levelo_inurba_marseille","lat":43.31325,"lon":5.39689,"is_reserved":false,"is_disabled":false,"rental_uris":{"android":"levelo://app?vid=5660399e-e2b9-443c-b4b3-14669b1ff702","ios":"levelo://app?vid=5660399e-e2b9-443c-b4b3-14669b1ff702"},"vehicle_type_id":"4","last_reported":1737644946,"current_range_meters":38800,"station_id":"ce4bgvp2rcd13ifvqcu0","pricing_plan_id":"cebpf4jnsgd1na2vs0mg"},{"bike_id":"e1cd9866-5b4a-4efe-a8a6-5860705b5fe2","system_id":"levelo_inurba_marseille","lat":43.251175,"lon":5.403253,"is_reserved":false,"is_disabled":true,"rental_uris":{"android":"levelo://app?vid=e1cd9866-5b4a-4efe-a8a6-5860705b5fe2","ios":"levelo://app?vid=e1cd9866-5b4a-4efe-a8a6-5860705b5fe2"},"vehicle_type_id":"4","last_reported":1737644946,"current_range_meters":1200,"station_id":"ce4bhlh2rcd13ifvqgig","pricing_plan_id":"cebpf4jnsgd1na2vs0mg"},{"bike_id":"d5e580bb-31f1-420b-8967-4ef30e3f9e43","system_id":"levelo_inurba_marseille","lat":43.310807,"lon":5.424383,"is_reserved":false,"is_disabled":false,"rental_uris":{"android":"levelo://app?vid=d5e580bb-31f1-420b-8967-4ef30e3f9e43","ios":"levelo://app?vid=d5e580bb-31f1-420b-8967-4ef30e3f9e43"},"vehicle_type_id":"4","last_reported":1737644946,"current_range_meters":25600,"station_id":"ce4bhp92rcd13ifvqhag","pricing_plan_id":"cebpf4jnsgd1na2vs0mg"},{"bike_id":"68e9c31c-ad3e-43bf-9dd6-a2db62b95ef7","system_id":"levelo_inurba_marseille","lat":43.32477,"lon":5.36585,"is_reserved":false,"is_disabled":false,"rental_uris":{"android":"levelo://app?vid=68e9c31c-ad3e-43bf-9dd6-a2db62b95ef7","ios":"levelo://app?vid=68e9c31c-ad3e-43bf-9dd6-a2db62b95ef7"},"vehicle_type_id":"4","last_reported":1737644946,"current_range_meters":22400,"station_id":"ce4bhs12rcd13ifvqhvg","pricing_plan_id":"cebpf4jnsgd1na2vs0mg"},{"bike_id":"6e00da7c-4929-4ee3-ada1-ce95046998af","system_id":"levelo_inurba_marseille","lat":43.29268,"lon":5.3846,"is_reserved":false,"is_disabled":false,"rental_uris":{"android":"levelo://app?vid=6e00da7c-4929-4ee3-ada1-ce95046998af","ios":"levelo://app?vid=6e00da7c-4929-4ee3-ada1-ce95046998af"},"vehicle_type_id":"4","last_reported":1737644946,"current_range_meters":10000,"station_id":"ce4bh692rcd13ifvqea0","pricing_plan_id":"cebpf4jnsgd1na2vs0mg"},{"bike_id":"30adea8e-37ba-4941-afce-59585fb8a8c3","system_id":"levelo_inurba_marseille","lat":43.26571,"lon":5.39018,"is_reserved":false,"is_disabled":true,"rental_uris":{"android":"levelo://app?vid=30adea8e-37ba-4941-afce-59585fb8a8c3","ios":"levelo://app?vid=30adea8e-37ba-4941-afce-59585fb8a8c3"},"vehicle_type_id":"4","last_reported":1737644946,"current_range_meters":0,"station_id":"ce4bhe12rcd13ifvqf30","pricing_plan_id":"cebpf4jnsgd1na2vs0mg"},{"bike_id":"b8338bfe-1284-4232-9a51-15bb8e974f1c","system_id":"levelo_inurba_marseille","lat":43.29843,"lon":5.36264,"is_reserved":false,"is_disabled":false,"rental_uris":{"android":"levelo://app?vid=b8338bfe-1284-4232-9a51-15bb8e974f1c","ios":"levelo://app?vid=b8338bfe-1284-4232-9a51-15bb8e974f1c"},"vehicle_type_id":"4","last_reported":1737644946,"current_range_meters":38800,"station_id":"ce4bgpp2rcd13ifvqc3g","pricing_plan_id":"cebpf4jnsgd1na2vs0mg"},{"bike_id":"e2d415bc-f67f-4b4f-97ae-e2086d3a457b","system_id":"levelo_inurba_marseille","lat":43.29003,"lon":5.35611,"is_reserved":false,"is_disabled":false,"rental_uris":{"android":"levelo://app?vid=e2d415bc-f67f-4b4f-97ae-e2086d3a457b","ios":"levelo://app?vid=e2d415bc-f67f-4b4f-97ae-e2086d3a457b"},"vehicle_type_id":"4","last_reported":1737644946,"current_range_meters":12400,"station_id":"ce4bhb92rcd13ifvqen0","pricing_plan_id":"cebpf4jnsgd1na2vs0mg"},{"bike_id":"75495e7c-20bd-4569-84c6-35df34ab244d","system_id":"levelo_inurba_marseille","lat":43.29894,"lon":5.43651,"is_reserved":false,"is_disabled":false,"rental_uris":{"android":"levelo://app?vid=75495e7c-20bd-4569-84c6-35df34ab244d","ios":"levelo://app?vid=75495e7c-20bd-4569-84c6-35df34ab244d"},"vehicle_type_id":"4","last_reported":1737644946,"current_range_meters":3200,"station_id":"ce4bhpp2rcd13ifvqhfg","pricing_plan_id":"cebpf4jnsgd1na2vs0mg"},{"bike_id":"97bd950d-f943-4475-9ee4-51feb4655152","system_id":"levelo_inurba_marseille","lat":43.26559,"lon":5.39006,"is_reserved":false,"is_disabled":false,"rental_uris":{"android":"levelo://app?vid=97bd950d-f943-4475-9ee4-51feb4655152","ios":"levelo://app?vid=97bd950d-f943-4475-9ee4-51feb4655152"},"vehicle_type_id":"4","last_reported":1737644946,"current_range_meters":13600,"station_id":"ce4bhe12rcd13ifvqf30","pricing_plan_id":"cebpf4jnsgd1na2vs0mg"},{"bike_id":"5348556e-a3e8-437e-9593-09ed4a71fa6d","system_id":"levelo_inurba_marseille","lat":43.29631,"lon":5.40595,"is_reserved":false,"is_disabled":false,"rental_uris":{"android":"levelo://app?vid=5348556e-a3e8-437e-9593-09ed4a71fa6d","ios":"levelo://app?vid=5348556e-a3e8-437e-9593-09ed4a71fa6d"},"vehicle_type_id":"4","last_reported":1737644946,"current_range_meters":37600,"station_id":"ce4bh0h2rcd13ifvqd60","pricing_plan_id":"cebpf4jnsgd1na2vs0mg"},{"bike_id":"cdee85b2-ebbe-4a47-9971-f129e09a924d","system_id":"levelo_inurba_marseille","lat":43.29022,"lon":5.38128,"is_reserved":false,"is_disabled":false,"rental_uris":{"android":"levelo://app?vid=cdee85b2-ebbe-4a47-9971-f129e09a924d","ios":"levelo://app?vid=cdee85b2-ebbe-4a47-9971-f129e09a924d"},"vehicle_type_id":"4","last_reported":1737644946,"current_range_meters":24000,"station_id":"ce4bh4p2rcd13ifvqe1g","pricing_plan_id":"cebpf4jnsgd1na2vs0mg"},{"bike_id":"f15a3926-03ea-4c4b-9f1b-6e7324acfe94","system_id":"levelo_inurba_marseille","lat":43.2875,"lon":5.37669,"is_reserved":false,"is_disabled":true,"rental_uris":{"android":"levelo://app?vid=f15a3926-03ea-4c4b-9f1b-6e7324acfe94","ios":"levelo://app?vid=f15a3926-03ea-4c4b-9f1b-6e7324acfe94"},"vehicle_type_id":"4","last_reported":1737644946,"current_range_meters":11600,"station_id":"","pricing_plan_id":"cebpf4jnsgd1na2vs0mg"},{"bike_id":"d22b6dd8-70dd-44e2-b2da-7416379d6042","system_id":"levelo_inurba_marseille","lat":43.26681,"lon":5.38231,"is_reserved":false,"is_disabled":false,"rental_uris":{"android":"levelo://app?vid=d22b6dd8-70dd-44e2-b2da-7416379d6042","ios":"levelo://app?vid=d22b6dd8-70dd-44e2-b2da-7416379d6042"},"vehicle_type_id":"4","last_reported":1737644946,"current_range_meters":38800,"station_id":"ce4bhg92rcd13ifvqf90","pricing_plan_id":"cebpf4jnsgd1na2vs0mg"},{"bike_id":"b349b681-95e4-4e93-87ff-7eb35ffee131","system_id":"levelo_inurba_marseille","lat":43.32657,"lon":5.4099,"is_reserved":false,"is_disabled":false,"rental_uris":{"android":"levelo://app?vid=b349b681-95e4-4e93-87ff-7eb35ffee131","ios":"levelo://app?vid=b349b681-95e4-4e93-87ff-7eb35ffee131"},"vehicle_type_id":"4","last_reported":1737644946,"current_range_meters":18000,"station_id":"ce4bhpp2rcd13ifvqhgg","pricing_plan_id":"cebpf4jnsgd1na2vs0mg"},{"bike_id":"a9fa9ee7-0043-4b3d-8664-ff88b12e7317","system_id":"levelo_inurba_marseille","lat":43.30784,"lon":5.37648,"is_reserved":false,"is_disabled":false,"rental_uris":{"android":"levelo://app?vid=a9fa9ee7-0043-4b3d-8664-ff88b12e7317","ios":"levelo://app?vid=a9fa9ee7-0043-4b3d-8664-ff88b12e7317"},"vehicle_type_id":"4","last_reported":1737644946,"current_range_meters":38800,"station_id":"ce4bgv92rcd13ifvqcq0","pricing_plan_id":"cebpf4jnsgd1na2vs0mg"},{"bike_id":"a4320781-8956-4842-bb82-162dc379120a","system_id":"levelo_inurba_marseille","lat":43.30912,"lon":5.36857,"is_reserved":false,"is_disabled":false,"rental_uris":{"android":"levelo://app?vid=a4320781-8956-4842-bb82-162dc379120a","ios":"levelo://app?vid=a4320781-8956-4842-bb82-162dc379120a"},"vehicle_type_id":"4","last_reported":1737644946,"current_range_meters":39200,"station_id":"ce4bgn92rcd13ifvqbvg","pricing_plan_id":"cebpf4jnsgd1na2vs0mg"},{"bike_id":"ce9b6775-622a-4006-8fb5-f269869a0dfc","system_id":"levelo_inurba_marseille","lat":43.31354,"lon":5.38487,"is_reserved":false,"is_disabled":true,"rental_uris":{"android":"levelo://app?vid=ce9b6775-622a-4006-8fb5-f269869a0dfc","ios":"levelo://app?vid=ce9b6775-622a-4006-8fb5-f269869a0dfc"},"vehicle_type_id":"4","last_reported":1737644946,"current_range_meters":30000,"station_id":"ce4bgt92rcd13ifvqcf0","pricing_plan_id":"cebpf4jnsgd1na2vs0mg"},{"bike_id":"73437ec1-c49c-4c1d-87bb-5c89656ded36","system_id":"levelo_inurba_marseille","lat":43.30539,"lon":5.36699,"is_reserved":false,"is_disabled":false,"rental_uris":{"android":"levelo://app?vid=73437ec1-c49c-4c1d-87bb-5c89656ded36","ios":"levelo://app?vid=73437ec1-c49c-4c1d-87bb-5c89656ded36"},"vehicle_type_id":"4","last_reported":1737644946,"current_range_meters":38800,"station_id":"ce4bgrp2rcd13ifvqc9g","pricing_plan_id":"cebpf4jnsgd1na2vs0mg"},{"bike_id":"6da04b8d-d7de-4d38-aa87-7fa450f9f6ac","system_id":"levelo_inurba_marseille","lat":43.29266,"lon":5.38447,"is_reserved":false,"is_disabled":false,"rental_uris":{"android":"levelo://app?vid=6da04b8d-d7de-4d38-aa87-7fa450f9f6ac","ios":"levelo://app?vid=6da04b8d-d7de-4d38-aa87-7fa450f9f6ac"},"vehicle_type_id":"4","last_reported":1737644946,"current_range_meters":29600,"station_id":"ce4bh692rcd13ifvqea0","pricing_plan_id":"cebpf4jnsgd1na2vs0mg"},{"bike_id":"1714e45e-7747-4d49-a740-f2b4f1a907bf","system_id":"levelo_inurba_marseille","lat":43.32471,"lon":5.36595,"is_reserved":false,"is_disabled":false,"rental_uris":{"android":"levelo://app?vid=1714e45e-7747-4d49-a740-f2b4f1a907bf","ios":"levelo://app?vid=1714e45e-7747-4d49-a740-f2b4f1a907bf"},"vehicle_type_id":"4","last_reported":1737644946,"current_range_meters":25200,"station_id":"ce4bhs12rcd13ifvqhvg","pricing_plan_id":"cebpf4jnsgd1na2vs0mg"},{"bike_id":"ac22529f-e5fd-4ea9-af8b-0bd01eb2116c","system_id":"levelo_inurba_marseille","lat":43.29529,"lon":5.3904,"is_reserved":false,"is_disabled":false,"rental_uris":{"android":"levelo://app?vid=ac22529f-e5fd-4ea9-af8b-0bd01eb2116c","ios":"levelo://app?vid=ac22529f-e5fd-4ea9-af8b-0bd01eb2116c"},"vehicle_type_id":"4","last_reported":1737644946,"current_range_meters":29600,"station_id":"ce4bh3p2rcd13ifvqdp0","pricing_plan_id":"cebpf4jnsgd1na2vs0mg"},{"bike_id":"28a1eee5-346e-464b-81ee-4d7011df9d3a","system_id":"levelo_inurba_marseille","lat":43.29579,"lon":5.37518,"is_reserved":false,"is_disabled":false,"rental_uris":{"android":"levelo://app?vid=28a1eee5-346e-464b-81ee-4d7011df9d3a","ios":"levelo://app?vid=28a1eee5-346e-464b-81ee-4d7011df9d3a"},"vehicle_type_id":"4","last_reported":1737644946,"current_range_meters":38400,"station_id":"ce4bgh92rcd13ifvqb50","pricing_plan_id":"cebpf4jnsgd1na2vs0mg"},{"bike_id":"2ed43785-2932-4a3e-97db-34a32dfd06fa","system_id":"levelo_inurba_marseille","lat":43.28106,"lon":5.37847,"is_reserved":false,"is_disabled":false,"rental_uris":{"android":"levelo://app?vid=2ed43785-2932-4a3e-97db-34a32dfd06fa","ios":"levelo://app?vid=2ed43785-2932-4a3e-97db-34a32dfd06fa"},"vehicle_type_id":"4","last_reported":1737644946,"current_range_meters":29600,"station_id":"ce4bha12rcd13ifvqee0","pricing_plan_id":"cebpf4jnsgd1na2vs0mg"},{"bike_id":"47078629-c7b7-45ce-8b45-10c5ffa6761f","system_id":"levelo_inurba_marseille","lat":43.26193,"lon":5.37928,"is_reserved":false,"is_disabled":false,"rental_uris":{"android":"levelo://app?vid=47078629-c7b7-45ce-8b45-10c5ffa6761f","ios":"levelo://app?vid=47078629-c7b7-45ce-8b45-10c5ffa6761f"},"vehicle_type_id":"4","last_reported":1737644946,"current_range_meters":26000,"station_id":"ce4bhjp2rcd13ifvqg90","pricing_plan_id":"cebpf4jnsgd1na2vs0mg"},{"bike_id":"766153d1-4733-4a74-97c2-d40a1d5993d0","system_id":"levelo_inurba_marseille","lat":43.29363,"lon":5.3862,"is_reserved":false,"is_disabled":false,"rental_uris":{"android":"levelo://app?vid=766153d1-4733-4a74-97c2-d40a1d5993d0","ios":"levelo://app?vid=766153d1-4733-4a74-97c2-d40a1d5993d0"},"vehicle_type_id":"4","last_reported":1737644946,"current_range_meters":16800,"station_id":"","pricing_plan_id":"cebpf4jnsgd1na2vs0mg"},{"bike_id":"189f2543-0832-404b-89b4-640b88e199ba","system_id":"levelo_inurba_marseille","lat":43.30882,"lon":5.39655,"is_reserved":false,"is_disabled":false,"rental_uris":{"android":"levelo://app?vid=189f2543-0832-404b-89b4-640b88e199ba","ios":"levelo://app?vid=189f2543-0832-404b-89b4-640b88e199ba"},"vehicle_type_id":"4","last_reported":1737644946,"current_range_meters":28000,"station_id":"ce4bh012rcd13ifvqcv0","pricing_plan_id":"cebpf4jnsgd1na2vs0mg"},{"bike_id":"201d8cc7-d001-4a6f-9d52-5db21f7bd252","system_id":"levelo_inurba_marseille","lat":43.30147,"lon":5.38083,"is_reserved":false,"is_disabled":false,"rental_uris":{"android":"levelo://app?vid=201d8cc7-d001-4a6f-9d52-5db21f7bd252","ios":"levelo://app?vid=201d8cc7-d001-4a6f-9d52-5db21f7bd252"},"vehicle_type_id":"4","last_reported":1737644946,"current_range_meters":8000,"station_id":"ce4bgjp2rcd13ifvqbh0","pricing_plan_id":"cebpf4jnsgd1na2vs0mg"},{"bike_id":"ddd963ba-9a0c-435b-be45-69b594dc5944","system_id":"levelo_inurba_marseille","lat":43.25137,"lon":5.40351,"is_reserved":false,"is_disabled":false,"rental_uris":{"android":"levelo://app?vid=ddd963ba-9a0c-435b-be45-69b594dc5944","ios":"levelo://app?vid=ddd963ba-9a0c-435b-be45-69b594dc5944"},"vehicle_type_id":"4","last_reported":1737644946,"current_range_meters":22800,"station_id":"ce4bhlh2rcd13ifvqgig","pricing_plan_id":"cebpf4jnsgd1na2vs0mg"},{"bike_id":"01a8523b-43e1-4eff-b2d1-7ed89b2cd7d8","system_id":"levelo_inurba_marseille","lat":43.28847,"lon":5.39312,"is_reserved":false,"is_disabled":false,"rental_uris":{"android":"levelo://app?vid=01a8523b-43e1-4eff-b2d1-7ed89b2cd7d8","ios":"levelo://app?vid=01a8523b-43e1-4eff-b2d1-7ed89b2cd7d8"},"vehicle_type_id":"4","last_reported":1737644946,"current_range_meters":16800,"station_id":"ce4bh2p2rcd13ifvqdi0","pricing_plan_id":"cebpf4jnsgd1na2vs0mg"},{"bike_id":"020eb91c-00ef-41d7-a341-bc7d74638ebe","system_id":"levelo_inurba_marseille","lat":43.25716,"lon":5.41022,"is_reserved":false,"is_disabled":false,"rental_uris":{"android":"levelo://app?vid=020eb91c-00ef-41d7-a341-bc7d74638ebe","ios":"levelo://app?vid=020eb91c-00ef-41d7-a341-bc7d74638ebe"},"vehicle_type_id":"4","last_reported":1737644946,"current_range_meters":20400,"station_id":"ce4bhkp2rcd13ifvqgd0","pricing_plan_id":"cebpf4jnsgd1na2vs0mg"},{"bike_id":"4b50bc4c-b085-478e-a97b-9c11f4c46896","system_id":"levelo_inurba_marseille","lat":43.31482,"lon":5.37296,"is_reserved":false,"is_disabled":false,"rental_uris":{"android":"levelo://app?vid=4b50bc4c-b085-478e-a97b-9c11f4c46896","ios":"levelo://app?vid=4b50bc4c-b085-478e-a97b-9c11f4c46896"},"vehicle_type_id":"4","last_reported":1737644946,"current_range_meters":38800,"station_id":"ce4bgt12rcd13ifvqcd0","pricing_plan_id":"cebpf4jnsgd1na2vs0mg"},{"bike_id":"8f2523d2-c7c9-473c-99fb-9baed9a2f04d","system_id":"levelo_inurba_marseille","lat":43.29032,"lon":5.38643,"is_reserved":false,"is_disabled":false,"rental_uris":{"android":"levelo://app?vid=8f2523d2-c7c9-473c-99fb-9baed9a2f04d","ios":"levelo://app?vid=8f2523d2-c7c9-473c-99fb-9baed9a2f04d"},"vehicle_type_id":"4","last_reported":1737644946,"current_range_meters":30000,"station_id":"ce4bh4p2rcd13ifvqe0g","pricing_plan_id":"cebpf4jnsgd1na2vs0mg"},{"bike_id":"869afb39-7c8f-4b75-be64-80f93751a215","system_id":"levelo_inurba_marseille","lat":43.28471,"lon":5.38418,"is_reserved":false,"is_disabled":false,"rental_uris":{"android":"levelo://app?vid=869afb39-7c8f-4b75-be64-80f93751a215","ios":"levelo://app?vid=869afb39-7c8f-4b75-be64-80f93751a215"},"vehicle_type_id":"4","last_reported":1737644946,"current_range_meters":38800,"station_id":"ce4bh512rcd13ifvqe3g","pricing_plan_id":"cebpf4jnsgd1na2vs0mg"},{"bike_id":"a0d0780d-5dcf-4dd7-b7a6-bc4f33b73062","system_id":"levelo_inurba_marseille","lat":43.25875,"lon":5.39898,"is_reserved":false,"is_disabled":false,"rental_uris":{"android":"levelo://app?vid=a0d0780d-5dcf-4dd7-b7a6-bc4f33b73062","ios":"levelo://app?vid=a0d0780d-5dcf-4dd7-b7a6-bc4f33b73062"},"vehicle_type_id":"4","last_reported":1737644946,"current_range_meters":38800,"station_id":"ce4bhl92rcd13ifvqghg","pricing_plan_id":"cebpf4jnsgd1na2vs0mg"},{"bike_id":"4e50cbdc-85c3-4dcc-bed9-b71517a4158c","system_id":"levelo_inurba_marseille","lat":43.27988,"lon":5.41664,"is_reserved":false,"is_disabled":false,"rental_uris":{"android":"levelo://app?vid=4e50cbdc-85c3-4dcc-bed9-b71517a4158c","ios":"levelo://app?vid=4e50cbdc-85c3-4dcc-bed9-b71517a4158c"},"vehicle_type_id":"4","last_reported":1737644946,"current_range_meters":37600,"station_id":"ce4bho12rcd13ifvqh1g","pricing_plan_id":"cebpf4jnsgd1na2vs0mg"},{"bike_id":"4ec5cfe3-396c-42e6-bd13-86fdef719e62","system_id":"levelo_inurba_marseille","lat":43.31379,"lon":5.38493,"is_reserved":false,"is_disabled":false,"rental_uris":{"android":"levelo://app?vid=4ec5cfe3-396c-42e6-bd13-86fdef719e62","ios":"levelo://app?vid=4ec5cfe3-396c-42e6-bd13-86fdef719e62"},"vehicle_type_id":"4","last_reported":1737644946,"current_range_meters":38400,"station_id":"ce4bgt92rcd13ifvqcf0","pricing_plan_id":"cebpf4jnsgd1na2vs0mg"},{"bike_id":"a7792e6b-e27d-430a-a466-afe28d5c54ba","system_id":"levelo_inurba_marseille","lat":43.29925,"lon":5.37508,"is_reserved":false,"is_disabled":false,"rental_uris":{"android":"levelo://app?vid=a7792e6b-e27d-430a-a466-afe28d5c54ba","ios":"levelo://app?vid=a7792e6b-e27d-430a-a466-afe28d5c54ba"},"vehicle_type_id":"4","last_reported":1737644946,"current_range_meters":35600,"station_id":"ce4bgjh2rcd13ifvqbg0","pricing_plan_id":"cebpf4jnsgd1na2vs0mg"},{"bike_id":"c80c5d56-2eb1-4f7d-bd75-25b0b6836c00","system_id":"levelo_inurba_marseille","lat":43.29229,"lon":5.36075,"is_reserved":false,"is_disabled":false,"rental_uris":{"android":"levelo://app?vid=c80c5d56-2eb1-4f7d-bd75-25b0b6836c00","ios":"levelo://app?vid=c80c5d56-2eb1-4f7d-bd75-25b0b6836c00"},"vehicle_type_id":"4","last_reported":1737644946,"current_range_meters":35600,"station_id":"ce4bhbh2rcd13ifvqeqg","pricing_plan_id":"cebpf4jnsgd1na2vs0mg"},{"bike_id":"1481177e-8f89-4f19-a929-aceaece98746","system_id":"levelo_inurba_marseille","lat":43.295102,"lon":5.390432,"is_reserved":false,"is_disabled":false,"rental_uris":{"android":"levelo://app?vid=1481177e-8f89-4f19-a929-aceaece98746","ios":"levelo://app?vid=1481177e-8f89-4f19-a929-aceaece98746"},"vehicle_type_id":"4","last_reported":1737644946,"current_range_meters":27600,"station_id":"ce4bh3p2rcd13ifvqdp0","pricing_plan_id":"cebpf4jnsgd1na2vs0mg"},{"bike_id":"8b8929bc-4b9f-45f1-9607-384009214396","system_id":"levelo_inurba_marseille","lat":43.25723,"lon":5.41118,"is_reserved":false,"is_disabled":true,"rental_uris":{"android":"levelo://app?vid=8b8929bc-4b9f-45f1-9607-384009214396","ios":"levelo://app?vid=8b8929bc-4b9f-45f1-9607-384009214396"},"vehicle_type_id":"4","last_reported":1737644946,"current_range_meters":2000,"station_id":"ce4bhkp2rcd13ifvqgd0","pricing_plan_id":"cebpf4jnsgd1na2vs0mg"},{"bike_id":"670e82bd-95b4-4ae6-b8d9-933faf6dbf98","system_id":"levelo_inurba_marseille","lat":43.29877,"lon":5.39735,"is_reserved":false,"is_disabled":false,"rental_uris":{"android":"levelo://app?vid=670e82bd-95b4-4ae6-b8d9-933faf6dbf98","ios":"levelo://app?vid=670e82bd-95b4-4ae6-b8d9-933faf6dbf98"},"vehicle_type_id":"4","last_reported":1737644946,"current_range_meters":24000,"station_id":"ce4bh0h2rcd13ifvqd50","pricing_plan_id":"cebpf4jnsgd1na2vs0mg"},{"bike_id":"31e32d05-f82b-4931-b1ac-634a5d17c4df","system_id":"levelo_inurba_marseille","lat":43.26273,"lon":5.37492,"is_reserved":false,"is_disabled":false,"rental_uris":{"android":"levelo://app?vid=31e32d05-f82b-4931-b1ac-634a5d17c4df","ios":"levelo://app?vid=31e32d05-f82b-4931-b1ac-634a5d17c4df"},"vehicle_type_id":"4","last_reported":1737644946,"current_range_meters":38800,"station_id":"ce4bhgp2rcd13ifvqfc0","pricing_plan_id":"cebpf4jnsgd1na2vs0mg"},{"bike_id":"835480b2-ed63-4958-94d6-182952837b81","system_id":"levelo_inurba_marseille","lat":43.29935,"lon":5.36531,"is_reserved":false,"is_disabled":false,"rental_uris":{"android":"levelo://app?vid=835480b2-ed63-4958-94d6-182952837b81","ios":"levelo://app?vid=835480b2-ed63-4958-94d6-182952837b81"},"vehicle_type_id":"4","last_reported":1737644946,"current_range_meters":38800,"station_id":"ce4bgm92rcd13ifvqbr0","pricing_plan_id":"cebpf4jnsgd1na2vs0mg"},{"bike_id":"d8798bf2-8d82-406c-a476-126705363321","system_id":"levelo_inurba_marseille","lat":43.29742,"lon":5.37676,"is_reserved":false,"is_disabled":false,"rental_uris":{"android":"levelo://app?vid=d8798bf2-8d82-406c-a476-126705363321","ios":"levelo://app?vid=d8798bf2-8d82-406c-a476-126705363321"},"vehicle_type_id":"4","last_reported":1737644946,"current_range_meters":39200,"station_id":"ce4bgkh2rcd13ifvqbl0","pricing_plan_id":"cebpf4jnsgd1na2vs0mg"},{"bike_id":"030bb3fe-8a1b-40d5-b718-98a24af974a6","system_id":"levelo_inurba_marseille","lat":43.2849,"lon":5.38417,"is_reserved":false,"is_disabled":false,"rental_uris":{"android":"levelo://app?vid=030bb3fe-8a1b-40d5-b718-98a24af974a6","ios":"levelo://app?vid=030bb3fe-8a1b-40d5-b718-98a24af974a6"},"vehicle_type_id":"4","last_reported":1737644946,"current_range_meters":12400,"station_id":"ce4bh512rcd13ifvqe3g","pricing_plan_id":"cebpf4jnsgd1na2vs0mg"},{"bike_id":"d757c695-922a-4453-b036-c28ce73b741f","system_id":"levelo_inurba_marseille","lat":43.29796,"lon":5.38108,"is_reserved":false,"is_disabled":false,"rental_uris":{"android":"levelo://app?vid=d757c695-922a-4453-b036-c28ce73b741f","ios":"levelo://app?vid=d757c695-922a-4453-b036-c28ce73b741f"},"vehicle_type_id":"4","last_reported":1737644946,"current_range_meters":39200,"station_id":"ce4bgip2rcd13ifvqbb0","pricing_plan_id":"cebpf4jnsgd1na2vs0mg"},{"bike_id":"2c0e51ff-3cdf-4455-a698-81736b193a3b","system_id":"levelo_inurba_marseille","lat":43.29556,"lon":5.42292,"is_reserved":false,"is_disabled":false,"rental_uris":{"android":"levelo://app?vid=2c0e51ff-3cdf-4455-a698-81736b193a3b","ios":"levelo://app?vid=2c0e51ff-3cdf-4455-a698-81736b193a3b"},"vehicle_type_id":"4","last_reported":1737644946,"current_range_meters":39200,"station_id":"ce4bhph2rcd13ifvqhdg","pricing_plan_id":"cebpf4jnsgd1na2vs0mg"},{"bike_id":"cb9632f4-857d-4eb4-b50f-87b2ab796f17","system_id":"levelo_inurba_marseille","lat":43.31117,"lon":5.37775,"is_reserved":false,"is_disabled":false,"rental_uris":{"android":"levelo://app?vid=cb9632f4-857d-4eb4-b50f-87b2ab796f17","ios":"levelo://app?vid=cb9632f4-857d-4eb4-b50f-87b2ab796f17"},"vehicle_type_id":"4","last_reported":1737644946,"current_range_meters":33200,"station_id":"ce4bgt92rcd13ifvqcg0","pricing_plan_id":"cebpf4jnsgd1na2vs0mg"},