{"last_updated":1751897504,"ttl":60,"version":"2.2","data":{"bikes":[{"bike_id":"3da29fb8-fc97-44c6-b9ac-31dd456b2fd4","system_id":"levelo_inurba_marseille","lat":43.33771,"lon":5.37424,"is_reserved":false,"is_disabled":true,"rental_uris":{"android":"levelo://app?vid=3da29fb8-fc97-44c6-b9ac-31dd456b2fd4","ios":"levelo://app?vid=3da29fb8-fc97-44c6-b9ac-31dd456b2fd4"},"vehicle_type_id":"4","last_reported":1751897504,"current_range_meters":0,"station_id":"","pricing_plan_id":"cebpf4jnsgd1na2vs0mg"},{"bike_id":"01861ad8-a8d7-4be6-816e-651927c87584","system_id":"levelo_inurba_marseille","lat":43.33751,"lon":5.37456,"is_reserved":false,"is_disabled":true,"rental_uris":{"android":"levelo://app?vid=01861ad8-a8d7-4be6-816e-651927c87584","ios":"levelo://app?vid=01861ad8-a8d7-4be6-816e-651927c87584"},"vehicle_type_id":"4","last_reported":1751897504,"current_range_meters":0,"station_id":"","pricing_plan_id":"cebpf4jnsgd1na2vs0mg"},{"bike_id":"95c194a9-5cae-4867-bc56-f8781828dc70","system_id":"levelo_inurba_marseille","lat":43.337444,"lon":5.374475,"is_reserved":false,"is_disabled":true,"rental_uris":{"android":"levelo://app?vid=95c194a9-5cae-4867-bc56-f8781828dc70","ios":"levelo://app?vid=95c194a9-5cae-4867-bc56-f8781828dc70"},"vehicle_type_id":"4","last_reported":1751897504,"current_range_meters":0,"station_id":"","pricing_plan_id":"cebpf4jnsgd1na2vs0mg"},{"bike_id":"573a928a-27e4-4c41-92dd-ed057948734b","system_id":"levelo_inurba_marseille","lat":43.31927,"lon":5.37383,"is_reserved":false,"is_disabled":true,"rental_uris":{"android":"levelo://app?vid=573a928a-27e4-4c41-92dd-ed057948734b","ios":"levelo://app?vid=573a928a-27e4-4c41-92dd-ed057948734b"},"vehicle_type_id":"4","last_reported":1751897504,"current_range_meters":0,"station_id":"","pricing_plan_id":"cebpf4jnsgd1na2vs0mg"},{"bike_id":"4426a170-93c6-4995-abe4-eb2b440ddadd","system_id":"levelo_inurba_marseille","lat":43.295269,"lon":5.385367,"is_reserved":false,"is_disabled":true,"rental_uris":{"android":"levelo://app?vid=4426a170-93c6-4995-abe4-eb2b440ddadd","ios":"levelo://app?vid=4426a170-93c6-4995-abe4-eb2b440ddadd"},"vehicle_type_id":"4","last_reported":1751897504,"current_range_meters":0,"station_id":"ce4bgih2rcd13ifvqba0","pricing_plan_id":"cebpf4jnsgd1na2vs0mg"},{"bike_id":"5f71c619-fd4a-4c5b-bdee-a753bf911c65","system_id":"levelo_inurba_marseille","lat":43.301987,"lon":5.36632,"is_reserved":false,"is_disabled":true,"rental_uris":{"android":"levelo://app?vid=5f71c619-fd4a-4c5b-bdee-a753bf911c65","ios":"levelo://app?vid=5f71c619-fd4a-4c5b-bdee-a753bf911c65"},"vehicle_type_id":"4","last_reported":1751897504,"current_range_meters":0,"station_id":"ce4bgrh2rcd13ifvqc8g","pricing_plan_id":"cebpf4jnsgd1na2vs0mg"},{"bike_id":"b4fad069-4146-4f1d-82cc-40dad4b202fc","system_id":"levelo_inurba_marseille","lat":43.310736,"lon":5.383533,"is_reserved":false,"is_disabled":true,"rental_uris":{"android":"levelo://app?vid=b4fad069-4146-4f1d-82cc-40dad4b202fc","ios":"levelo://app?vid=b4fad069-4146-4f1d-82cc-40dad4b202fc"},"vehicle_type_id":"4","last_reported":1751897504,"current_range_meters":0,"station_id":"ce4bgv92rcd13ifvqcr0","pricing_plan_id":"cebpf4jnsgd1na2vs0mg"},{"bike_id":"e1dbb679-22c3-455d-aea6-6545e629790c","system_id":"levelo_inurba_marseille","lat":43.28857,"lon":5.3586,"is_reserved":false,"is_disabled":true,"rental_uris":{"android":"levelo://app?vid=e1dbb679-22c3-455d-aea6-6545e629790c","ios":"levelo://app?vid=e1dbb679-22c3-455d-aea6-6545e629790c"},"vehicle_type_id":"4","last_reported":1751897504,"current_range_meters":0,"station_id":"ce4bhb12rcd13ifvqem0","pricing_plan_id":"cebpf4jnsgd1na2vs0mg"},{"bike_id":"80ee5ea8-dbd0-405c-8944-5884da9c9e2d","system_id":"levelo_inurba_marseille","lat":43.27942,"lon":5.41048,"is_reserved":false,"is_disabled":true,"rental_uris":{"android":"levelo://app?vid=80ee5ea8-dbd0-405c-8944-5884da9c9e2d","ios":"levelo://app?vid=80ee5ea8-dbd0-405c-8944-5884da9c9e2d"},"vehicle_type_id":"4","last_reported":1751897504,"current_range_meters":0,"station_id":"ce4bhnp2rcd13ifvqh0g","pricing_plan_id":"cebpf4jnsgd1na2vs0mg"},{"bike_id":"ad821e9f-4335-4ad5-a66c-6c4c75d599ac","system_id":"levelo_inurba_marseille","lat":43.28698,"lon":5.39987,"is_reserved":false,"is_disabled":true,"rental_uris":{"android":"levelo://app?vid=ad821e9f-4335-4ad5-a66c-6c4c75d599ac","ios":"levelo://app?vid=ad821e9f-4335-4ad5-a66c-6c4c75d599ac"},"vehicle_type_id":"4","last_reported":1751897504,"current_range_meters":0,"station_id":"ce4bho92rcd13ifvqh3g","pricing_plan_id":"cebpf4jnsgd1na2vs0mg"},{"bike_id":"fc11f1e3-fd7d-492a-8c42-2fb8faf16c6a","system_id":"levelo_inurba_marseille","lat":43.30373,"lon":5.42491,"is_reserved":false,"is_disabled":true,"rental_uris":{"android":"levelo://app?vid=fc11f1e3-fd7d-492a-8c42-2fb8faf16c6a","ios":"levelo://app?vid=fc11f1e3-fd7d-492a-8c42-2fb8faf16c6a"},"vehicle_type_id":"4","last_reported":1751897504,"current_range_meters":0,"station_id":"ce4bhoh2rcd13ifvqh6g","pricing_plan_id":"cebpf4jnsgd1na2vs0mg"},{"bike_id":"b4b7eb6f-5d24-4d35-87d8-f90bab30d04c","system_id":"levelo_inurba_marseille","lat":43.32292,"lon":5.38322,"is_reserved":false,"is_disabled":true,"rental_uris":{"android":"levelo://app?vid=b4b7eb6f-5d24-4d35-87d8-f90bab30d04c","ios":"levelo://app?vid=b4b7eb6f-5d24-4d35-87d8-f90bab30d04c"},"vehicle_type_id":"4","last_reported":1751897504,"current_range_meters":0,"station_id":"ce4bhr12rcd13ifvqhqg","pricing_plan_id":"cebpf4jnsgd1na2vs0mg"},{"bike_id":"a5cbe80c-76d9-45d0-8dd8-5f187d0d969d","system_id":"levelo_inurba_marseille","lat":43.3248,"lon":5.36565,"is_reserved":false,"is_disabled":true,"rental_uris":{"android":"levelo://app?vid=a5cbe80c-76d9-45d0-8dd8-5f187d0d969d","ios":"levelo://app?vid=a5cbe80c-76d9-45d0-8dd8-5f187d0d969d"},"vehicle_type_id":"4","last_reported":1751897504,"current_range_meters":0,"station_id":"ce4bhs12rcd13ifvqhvg","pricing_plan_id":"cebpf4jnsgd1na2vs0mg"},{"bike_id":"3d508917-55ee-42b6-894b-89c2a444dc06","system_id":"levelo_inurba_marseille","lat":43.22516,"lon":5.34765,"is_reserved":false,"is_disabled":true,"rental_uris":{"android":"levelo://app?vid=3d508917-55ee-42b6-894b-89c2a444dc06","ios":"levelo://app?vid=3d508917-55ee-42b6-894b-89c2a444dc06"},"vehicle_type_id":"4","last_reported":1751897504,"current_range_meters":0,"station_id":"st_cvj5dfep6f1abm77gieg","pricing_plan_id":"cebpf4jnsgd1na2vs0mg"},{"bike_id":"e86ba8c9-208d-482c-a826-4c100938472a","system_id":"levelo_inurba_marseille","lat":43.2119,"lon":5.35074,"is_reserved":false,"is_disabled":true,"rental_uris":{"android":"levelo://app?vid=e86ba8c9-208d-482c-a826-4c100938472a","ios":"levelo://app?vid=e86ba8c9-208d-482c-a826-4c100938472a"},"vehicle_type_id":"4","last_reported":1751897504,"current_range_meters":0,"station_id":"st_cvj6sg6p6f1abm77japg","pricing_plan_id":"cebpf4jnsgd1na2vs0mg"},{"bike_id":"95030bff-c0d3-4944-8bf3-5672f7a63e4c","system_id":"levelo_inurba_marseille","lat":43.29871,"lon":5.39741,"is_reserved":false,"is_disabled":true,"rental_uris":{"android":"levelo://app?vid=95030bff-c0d3-4944-8bf3-5672f7a63e4c","ios":"levelo://app?vid=95030bff-c0d3-4944-8bf3-5672f7a63e4c"},"vehicle_type_id":"4","last_reported":1751897504,"current_range_meters":400,"station_id":"ce4bh0h2rcd13ifvqd50","pricing_plan_id":"cebpf4jnsgd1na2vs0mg"},{"bike_id":"f0a19a9e-f150-4c1e-bcc6-db3195370cac","system_id":"levelo_inurba_marseille","lat":43.32711,"lon":5.43114,"is_reserved":false,"is_disabled":true,"rental_uris":{"android":"levelo://app?vid=f0a19a9e-f150-4c1e-bcc6-db3195370cac","ios":"levelo://app?vid=f0a19a9e-f150-4c1e-bcc6-db3195370cac"},"vehicle_type_id":"4","last_reported":1751897504,"current_range_meters":800,"station_id":"","pricing_plan_id":"cebpf4jnsgd1na2vs0mg"},{"bike_id":"0fab0e54-4e50-4390-9ebc-942da49b052e","system_id":"levelo_inurba_marseille","lat":43.26221,"lon":5.40453,"is_reserved":false,"is_disabled":true,"rental_uris":{"android":"levelo://app?vid=0fab0e54-4e50-4390-9ebc-942da49b052e","ios":"levelo://app?vid=0fab0e54-4e50-4390-9ebc-942da49b052e"},"vehicle_type_id":"4","last_reported":1751897504,"current_range_meters":800,"station_id":"ce4bhmh2rcd13ifvqgmg","pricing_plan_id":"cebpf4jnsgd1na2vs0mg"},{"bike_id":"c5819e96-3c2d-41f7-bdfa-67aa96c801cb","system_id":"levelo_inurba_marseille","lat":43.32479,"lon":5.36572,"is_reserved":false,"is_disabled":true,"rental_uris":{"android":"levelo://app?vid=c5819e96-3c2d-41f7-bdfa-67aa96c801cb","ios":"levelo://app?vid=c5819e96-3c2d-41f7-bdfa-67aa96c801cb"},"vehicle_type_id":"4","last_reported":1751897504,"current_range_meters":1200,"station_id":"ce4bhs12rcd13ifvqhvg","pricing_plan_id":"cebpf4jnsgd1na2vs0mg"},{"bike_id":"da5f5827-f310-4c64-affc-7fb6f84fe31d","system_id":"levelo_inurba_marseille","lat":43.29168,"lon":5.37153,"is_reserved":false,"is_disabled":true,"rental_uris":{"android":"levelo://app?vid=da5f5827-f310-4c64-affc-7fb6f84fe31d","ios":"levelo://app?vid=da5f5827-f310-4c64-affc-7fb6f84fe31d"},"vehicle_type_id":"4","last_reported":1751897504,"current_range_meters":1600,"station_id":"ce4bha92rcd13ifvqeh0","pricing_plan_id":"cebpf4jnsgd1na2vs0mg"},{"bike_id":"9c792458-6cc4-4120-ae5e-ea11766cad1d","system_id":"levelo_inurba_marseille","lat":43.295258,"lon":5.375039,"is_reserved":false,"is_disabled":false,"rental_uris":{"android":"levelo://app?vid=9c792458-6cc4-4120-ae5e-ea11766cad1d","ios":"levelo://app?vid=9c792458-6cc4-4120-ae5e-ea11766cad1d"},"vehicle_type_id":"4","last_reported":1751897504,"current_range_meters":2000,"station_id":"ce4bgkp2rcd13ifvqbmg","pricing_plan_id":"cebpf4jnsgd1na2vs0mg"},{"bike_id":"51f3a102-a5ce-4f9a-aa81-ba0d212da8eb","system_id":"levelo_inurba_marseille","lat":43.265762,"lon":5.390368,"is_reserved":false,"is_disabled":true,"rental_uris":{"android":"levelo://app?vid=51f3a102-a5ce-4f9a-aa81-ba0d212da8eb","ios":"levelo://app?vid=51f3a102-a5ce-4f9a-aa81-ba0d212da8eb"},"vehicle_type_id":"4","last_reported":1751897504,"current_range_meters":2000,"station_id":"ce4bhe12rcd13ifvqf30","pricing_plan_id":"cebpf4jnsgd1na2vs0mg"},{"bike_id":"58479a12-fc6d-41c3-ae70-6a47cb3eeed9","system_id":"levelo_inurba_marseille","lat":43.295258,"lon":5.374995,"is_reserved":false,"is_disabled":false,"rental_uris":{"android":"levelo://app?vid=58479a12-fc6d-41c3-ae70-6a47cb3eeed9","ios":"levelo://app?vid=58479a12-fc6d-41c3-ae70-6a47cb3eeed9"},"vehicle_type_id":"4","last_reported":1751897504,"current_range_meters":2800,"station_id":"ce4bgkp2rcd13ifvqbmg","pricing_plan_id":"cebpf4jnsgd1na2vs0mg"},{"bike_id":"af34b5ea-d64e-4a2c-95db-de70640b544d","system_id":"levelo_inurba_marseille","lat":43.28669,"lon":5.38658,"is_reserved":false,"is_disabled":false,"rental_uris":{"android":"levelo://app?vid=af34b5ea-d64e-4a2c-95db-de70640b544d","ios":"levelo://app?vid=af34b5ea-d64e-4a2c-95db-de70640b544d"},"vehicle_type_id":"4","last_reported":1751897504,"current_range_meters":2800,"station_id":"ce4bh492rcd13ifvqdug","pricing_plan_id":"cebpf4jnsgd1na2vs0mg"},{"bike_id":"b51a785c-81b9-414c-afb7-5176fdee722d","system_id":"levelo_inurba_marseille","lat":43.29037,"lon":5.37567,"is_reserved":false,"is_disabled":false,"rental_uris":{"android":"levelo://app?vid=b51a785c-81b9-414c-afb7-5176fdee722d","ios":"levelo://app?vid=b51a785c-81b9-414c-afb7-5176fdee722d"},"vehicle_type_id":"4","last_reported":1751897504,"current_range_meters":2800,"station_id":"ce4bh692rcd13ifvqe90","pricing_plan_id":"cebpf4jnsgd1na2vs0mg"},{"bike_id":"56059713-4ee5-458e-8a9e-2104bf1a13ad","system_id":"levelo_inurba_marseille","lat":43.305377,"lon":5.38447,"is_reserved":false,"is_disabled":false,"rental_uris":{"android":"levelo://app?vid=56059713-4ee5-458e-8a9e-2104bf1a13ad","ios":"levelo://app?vid=56059713-4ee5-458e-8a9e-2104bf1a13ad"},"vehicle_type_id":"4","last_reported":1751897504,"current_range_meters":3200,"station_id":"ce4bgg92rcd13ifvqb30","pricing_plan_id":"cebpf4jnsgd1na2vs0mg"},{"bike_id":"d43b3188-f180-49f0-bd4b-db8cd9bf6fef","system_id":"levelo_inurba_marseille","lat":43.29611,"lon":5.37722,"is_reserved":false,"is_disabled":false,"rental_uris":{"android":"levelo://app?vid=d43b3188-f180-49f0-bd4b-db8cd9bf6fef","ios":"levelo://app?vid=d43b3188-f180-49f0-bd4b-db8cd9bf6fef"},"vehicle_type_id":"4","last_reported":1751897504,"current_range_meters":3200,"station_id":"ce4bgi92rcd13ifvqb90","pricing_plan_id":"cebpf4jnsgd1na2vs0mg"},{"bike_id":"570ebbe4-f5f5-465f-954c-0dd5d74dc517","system_id":"levelo_inurba_marseille","lat":43.30535,"lon":5.36554,"is_reserved":false,"is_disabled":false,"rental_uris":{"android":"levelo://app?vid=570ebbe4-f5f5-465f-954c-0dd5d74dc517","ios":"levelo://app?vid=570ebbe4-f5f5-465f-954c-0dd5d74dc517"},"vehicle_type_id":"4","last_reported":1751897504,"current_range_meters":3200,"station_id":"ce4bgs12rcd13ifvqcag","pricing_plan_id":"cebpf4jnsgd1na2vs0mg"},{"bike_id":"8eb283fe-44c7-4bb1-836e-cde6c55f1adf","system_id":"levelo_inurba_marseille","lat":43.318084,"lon":5.368376,"is_reserved":false,"is_disabled":false,"rental_uris":{"android":"levelo://app?vid=8eb283fe-44c7-4bb1-836e-cde6c55f1adf","ios":"levelo://app?vid=8eb283fe-44c7-4bb1-836e-cde6c55f1adf"},"vehicle_type_id":"4","last_reported":1751897504,"current_range_meters":3600,"station_id":"","pricing_plan_id":"cebpf4jnsgd1na2vs0mg"},{"bike_id":"715cffe6-926b-4506-80f3-23f64cc4bf6f","system_id":"levelo_inurba_marseille","lat":43.307804,"lon":5.376568,"is_reserved":false,"is_disabled":false,"rental_uris":{"android":"levelo://app?vid=715cffe6-926b-4506-80f3-23f64cc4bf6f","ios":"levelo://app?vid=715cffe6-926b-4506-80f3-23f64cc4bf6f"},"vehicle_type_id":"4","last_reported":1751897504,"current_range_meters":4000,"station_id":"ce4bgv92rcd13ifvqcq0","pricing_plan_id":"cebpf4jnsgd1na2vs0mg"},{"bike_id":"10d2874a-6003-40dc-a934-9fd7ff9f39c4","system_id":"levelo_inurba_marseille","lat":43.308014,"lon":5.381463,"is_reserved":false,"is_disabled":false,"rental_uris":{"android":"levelo://app?vid=10d2874a-6003-40dc-a934-9fd7ff9f39c4","ios":"levelo://app?vid=10d2874a-6003-40dc-a934-9fd7ff9f39c4"},"vehicle_type_id":"4","last_reported":1751897504,"current_range_meters":4400,"station_id":"ce4bgt12rcd13ifvqce0","pricing_plan_id":"cebpf4jnsgd1na2vs0mg"},{"bike_id":"b63963b1-88e4-4378-9221-409d4077569d","system_id":"levelo_inurba_marseille","lat":43.29263,"lon":5.40907,"is_reserved":false,"is_disabled":false,"rental_uris":{"android":"levelo://app?vid=b63963b1-88e4-4378-9221-409d4077569d","ios":"levelo://app?vid=b63963b1-88e4-4378-9221-409d4077569d"},"vehicle_type_id":"4","last_reported":1751897504,"current_range_meters":4800,"station_id":"ce4bh192rcd13ifvqdc0","pricing_plan_id":"cebpf4jnsgd1na2vs0mg"},{"bike_id":"b0ac3c78-5e7c-409d-be77-709231f5a2f2","system_id":"levelo_inurba_marseille","lat":43.28032,"lon":5.36958,"is_reserved":false,"is_disabled":false,"rental_uris":{"android":"levelo://app?vid=b0ac3c78-5e7c-409d-be77-709231f5a2f2","ios":"levelo://app?vid=b0ac3c78-5e7c-409d-be77-709231f5a2f2"},"vehicle_type_id":"4","last_reported":1751897504,"current_range_meters":4800,"station_id":"ce4bha12rcd13ifvqef0","pricing_plan_id":"cebpf4jnsgd1na2vs0mg"},{"bike_id":"86c92dc1-b4da-49d9-acb8-ba390f939865","system_id":"levelo_inurba_marseille","lat":43.330316,"lon":5.392517,"is_reserved":false,"is_disabled":false,"rental_uris":{"android":"levelo://app?vid=86c92dc1-b4da-49d9-acb8-ba390f939865","ios":"levelo://app?vid=86c92dc1-b4da-49d9-acb8-ba390f939865"},"vehicle_type_id":"4","last_reported":1751897504,"current_range_meters":5600,"station_id":"","pricing_plan_id":"cebpf4jnsgd1na2vs0mg"},{"bike_id":"92a88e4c-086b-481f-96f3-d76afeb6e61d","system_id":"levelo_inurba_marseille","lat":43.2928,"lon":5.40114,"is_reserved":false,"is_disabled":false,"rental_uris":{"android":"levelo://app?vid=92a88e4c-086b-481f-96f3-d76afeb6e61d","ios":"levelo://app?vid=92a88e4c-086b-481f-96f3-d76afeb6e61d"},"vehicle_type_id":"4","last_reported":1751897504,"current_range_meters":5600,"station_id":"ce4bh312rcd13ifvqdk0","pricing_plan_id":"cebpf4jnsgd1na2vs0mg"},{"bike_id":"f2cdc950-0a3a-43c5-aef6-46eec0e4d4e4","system_id":"levelo_inurba_marseille","lat":43.29101,"lon":5.38146,"is_reserved":false,"is_disabled":false,"rental_uris":{"android":"levelo://app?vid=f2cdc950-0a3a-43c5-aef6-46eec0e4d4e4","ios":"levelo://app?vid=f2cdc950-0a3a-43c5-aef6-46eec0e4d4e4"},"vehicle_type_id":"4","last_reported":1751897504,"current_range_meters":5600,"station_id":"ce4bh512rcd13ifvqe2g","pricing_plan_id":"cebpf4jnsgd1na2vs0mg"},{"bike_id":"786ba7b8-ab7e-4386-b568-0367c772d553","system_id":"levelo_inurba_marseille","lat":43.2971,"lon":5.3662,"is_reserved":false,"is_disabled":false,"rental_uris":{"android":"levelo://app?vid=786ba7b8-ab7e-4386-b568-0367c772d553","ios":"levelo://app?vid=786ba7b8-ab7e-4386-b568-0367c772d553"},"vehicle_type_id":"4","last_reported":1751897504,"current_range_meters":6000,"station_id":"ce4bgn12rcd13ifvqbt0","pricing_plan_id":"cebpf4jnsgd1na2vs0mg"},{"bike_id":"761bc4fd-c028-46d3-9acb-a1d07ffda895","system_id":"levelo_inurba_marseille","lat":43.29041,"lon":5.35916,"is_reserved":false,"is_disabled":false,"rental_uris":{"android":"levelo://app?vid=761bc4fd-c028-46d3-9acb-a1d07ffda895","ios":"levelo://app?vid=761bc4fd-c028-46d3-9acb-a1d07ffda895"},"vehicle_type_id":"4","last_reported":1751897504,"current_range_meters":6000,"station_id":"ce4bha92rcd13ifvqeg0","pricing_plan_id":"cebpf4jnsgd1na2vs0mg"},{"bike_id":"d13d3185-6c00-4dc1-86c0-4e2447cc1534","system_id":"levelo_inurba_marseille","lat":43.292267,"lon":5.360617,"is_reserved":false,"is_disabled":true,"rental_uris":{"android":"levelo://app?vid=d13d3185-6c00-4dc1-86c0-4e2447cc1534","ios":"levelo://app?vid=d13d3185-6c00-4dc1-86c0-4e2447cc1534"},"vehicle_type_id":"4","last_reported":1751897504,"current_range_meters":6000,"station_id":"ce4bhbh2rcd13ifvqeqg","pricing_plan_id":"cebpf4jnsgd1na2vs0mg"},{"bike_id":"7709b90f-f235-4313-bf4d-904da5e95560","system_id":"levelo_inurba_marseille","lat":43.28156,"lon":5.42646,"is_reserved":false,"is_disabled":false,"rental_uris":{"android":"levelo://app?vid=7709b90f-f235-4313-bf4d-904da5e95560","ios":"levelo://app?vid=7709b90f-f235-4313-bf4d-904da5e95560"},"vehicle_type_id":"4","last_reported":1751897504,"current_range_meters":6000,"station_id":"ce4bhnh2rcd13ifvqgug","pricing_plan_id":"cebpf4jnsgd1na2vs0mg"},{"bike_id":"8adcb6be-8f22-4ce2-ad6e-b4a79c69d614","system_id":"levelo_inurba_marseille","lat":43.3013,"lon":5.38087,"is_reserved":false,"is_disabled":false,"rental_uris":{"android":"levelo://app?vid=8adcb6be-8f22-4ce2-ad6e-b4a79c69d614","ios":"levelo://app?vid=8adcb6be-8f22-4ce2-ad6e-b4a79c69d614"},"vehicle_type_id":"4","last_reported":1751897504,"current_range_meters":6400,"station_id":"ce4bgjp2rcd13ifvqbh0","pricing_plan_id":"cebpf4jnsgd1na2vs0mg"},{"bike_id":"b05c98ed-91d7-4215-b738-94e089b8acaa","system_id":"levelo_inurba_marseille","lat":43.31168,"lon":5.38716,"is_reserved":false,"is_disabled":false,"rental_uris":{"android":"levelo://app?vid=b05c98ed-91d7-4215-b738-94e089b8acaa","ios":"levelo://app?vid=b05c98ed-91d7-4215-b738-94e089b8acaa"},"vehicle_type_id":"4","last_reported":1751897504,"current_range_meters":6400,"station_id":"ce4bgv12rcd13ifvqcp0","pricing_plan_id":"cebpf4jnsgd1na2vs0mg"},{"bike_id":"74b1dda8-0f9c-4b4d-b7f6-1d17291e04a0","system_id":"levelo_inurba_marseille","lat":43.284107,"lon":5.37518,"is_reserved":false,"is_disabled":false,"rental_uris":{"android":"levelo://app?vid=74b1dda8-0f9c-4b4d-b7f6-1d17291e04a0","ios":"levelo://app?vid=74b1dda8-0f9c-4b4d-b7f6-1d17291e04a0"},"vehicle_type_id":"4","last_reported":1751897504,"current_range_meters":6400,"station_id":"ce4bh412rcd13ifvqds0","pricing_plan_id":"cebpf4jnsgd1na2vs0mg"},{"bike_id":"bc13fcae-c5dc-4c9e-991e-2cb440e75455","system_id":"levelo_inurba_marseille","lat":43.29193,"lon":5.35801,"is_reserved":false,"is_disabled":false,"rental_uris":{"android":"levelo://app?vid=bc13fcae-c5dc-4c9e-991e-2cb440e75455","ios":"levelo://app?vid=bc13fcae-c5dc-4c9e-991e-2cb440e75455"},"vehicle_type_id":"4","last_reported":1751897504,"current_range_meters":6400,"station_id":"ce4bhb12rcd13ifvqel0","pricing_plan_id":"cebpf4jnsgd1na2vs0mg"},{"bike_id":"6616a1be-978d-425a-a38f-fa6282663ff2","system_id":"levelo_inurba_marseille","lat":43.292291,"lon":5.360511,"is_reserved":false,"is_disabled":false,"rental_uris":{"android":"levelo://app?vid=6616a1be-978d-425a-a38f-fa6282663ff2","ios":"levelo://app?vid=6616a1be-978d-425a-a38f-fa6282663ff2"},"vehicle_type_id":"4","last_reported":1751897504,"current_range_meters":6800,"station_id":"","pricing_plan_id":"cebpf4jnsgd1na2vs0mg"},{"bike_id":"ee9f0a25-5d1d-4faf-9dff-2eb48164a2b9","system_id":"levelo_inurba_marseille","lat":43.29793,"lon":5.38112,"is_reserved":false,"is_disabled":false,"rental_uris":{"android":"levelo://app?vid=ee9f0a25-5d1d-4faf-9dff-2eb48164a2b9","ios":"levelo://app?vid=ee9f0a25-5d1d-4faf-9dff-2eb48164a2b9"},"vehicle_type_id":"4","last_reported":1751897504,"current_range_meters":6800,"station_id":"ce4bgip2rcd13ifvqbb0","pricing_plan_id":"cebpf4jnsgd1na2vs0mg"},{"bike_id":"6a8261a4-dbba-48f5-9f2a-a10cc302c0d5","system_id":"levelo_inurba_marseille","lat":43.29868,"lon":5.39734,"is_reserved":false,"is_disabled":false,"rental_uris":{"android":"levelo://app?vid=6a8261a4-dbba-48f5-9f2a-a10cc302c0d5","ios":"levelo://app?vid=6a8261a4-dbba-48f5-9f2a-a10cc302c0d5"},"vehicle_type_id":"4","last_reported":1751897504,"current_range_meters":6800,"station_id":"ce4bh0h2rcd13ifvqd50","pricing_plan_id":"cebpf4jnsgd1na2vs0mg"},{"bike_id":"ed290504-6948-4f69-8584-2e2b0286febf","system_id":"levelo_inurba_marseille","lat":43.21192,"lon":5.35071,"is_reserved":false,"is_disabled":false,"rental_uris":{"android":"levelo://app?vid=ed290504-6948-4f69-8584-2e2b0286febf","ios":"levelo://app?vid=ed290504-6948-4f69-8584-2e2b0286febf"},"vehicle_type_id":"4","last_reported":1751897504,"current_range_meters":6800,"station_id":"st_cvj6sg6p6f1abm77japg","pricing_plan_id":"cebpf4jnsgd1na2vs0mg"},{"bike_id":"5b334d8f-fa7e-4a7e-9d59-b7dce1a3cd71","system_id":"levelo_inurba_marseille","lat":43.29846,"lon":5.36275,"is_reserved":false,"is_disabled":false,"rental_uris":{"android":"levelo://app?vid=5b334d8f-fa7e-4a7e-9d59-b7dce1a3cd71","ios":"levelo://app?vid=5b334d8f-fa7e-4a7e-9d59-b7dce1a3cd71"},"vehicle_type_id":"4","last_reported":1751897504,"current_range_meters":7200,"station_id":"ce4bgpp2rcd13ifvqc3g","pricing_plan_id":"cebpf4jnsgd1na2vs0mg"},{"bike_id":"627b2b06-da8a-466f-9608-3cef29636059","system_id":"levelo_inurba_marseille","lat":43.21746,"lon":5.34606,"is_reserved":false,"is_disabled":false,"rental_uris":{"android":"levelo://app?vid=627b2b06-da8a-466f-9608-3cef29636059","ios":"levelo://app?vid=627b2b06-da8a-466f-9608-3cef29636059"},"vehicle_type_id":"4","last_reported":1751897504,"current_range_meters":7200,"station_id":"st_cvj6r9ubvosntc0bgbag","pricing_plan_id":"cebpf4jnsgd1na2vs0mg"},{"bike_id":"2a0f6a51-9e8e-4f14-beb4-27ac7d22c764","system_id":"levelo_inurba_marseille","lat":43.29855,"lon":5.36291,"is_reserved":false,"is_disabled":false,"rental_uris":{"android":"levelo://app?vid=2a0f6a51-9e8e-4f14-beb4-27ac7d22c764","ios":"levelo://app?vid=2a0f6a51-9e8e-4f14-beb4-27ac7d22c764"},"vehicle_type_id":"4","last_reported":1751897504,"current_range_meters":8000,"station_id":"ce4bgpp2rcd13ifvqc3g","pricing_plan_id":"cebpf4jnsgd1na2vs0mg"},{"bike_id":"fe44924c-dcf0-4048-a1ad-9e680cc9c00c","system_id":"levelo_inurba_marseille","lat":43.260215,"lon":5.417447,"is_reserved":false,"is_disabled":false,"rental_uris":{"android":"levelo://app?vid=fe44924c-dcf0-4048-a1ad-9e680cc9c00c","ios":"levelo://app?vid=fe44924c-dcf0-4048-a1ad-9e680cc9c00c"},"vehicle_type_id":"4","last_reported":1751897504,"current_range_meters":8400,"station_id":"","pricing_plan_id":"cebpf4jnsgd1na2vs0mg"},{"bike_id":"59422fbe-70f9-4fb5-85e0-9f435afd043f","system_id":"levelo_inurba_marseille","lat":43.30549,"lon":5.36542,"is_reserved":false,"is_disabled":false,"rental_uris":{"android":"levelo://app?vid=59422fbe-70f9-4fb5-85e0-9f435afd043f","ios":"levelo://app?vid=59422fbe-70f9-4fb5-85e0-9f435afd043f"},"vehicle_type_id":"4","last_reported":1751897504,"current_range_meters":8400,"station_id":"ce4bgs12rcd13ifvqcag","pricing_plan_id":"cebpf4jnsgd1na2vs0mg"},{"bike_id":"f04e51b3-b829-46e3-b854-365aa62ac0a1","system_id":"levelo_inurba_marseille","lat":43.26486,"lon":5.39541,"is_reserved":false,"is_disabled":false,"rental_uris":{"android":"levelo://app?vid=f04e51b3-b829-46e3-b854-365aa62ac0a1","ios":"levelo://app?vid=f04e51b3-b829-46e3-b854-365aa62ac0a1"},"vehicle_type_id":"4","last_reported":1751897504,"current_range_meters":8400,"station_id":"ce4bhi12rcd13ifvqfq0","pricing_plan_id":"cebpf4jnsgd1na2vs0mg"},{"bike_id":"cc80a4ee-f6ce-4d50-b991-f41b90ec0f24","system_id":"levelo_inurba_marseille","lat":43.31129,"lon":5.37749,"is_reserved":false,"is_disabled":false,"rental_uris":{"android":"levelo://app?vid=cc80a4ee-f6ce-4d50-b991-f41b90ec0f24","ios":"levelo://app?vid=cc80a4ee-f6ce-4d50-b991-f41b90ec0f24"},"vehicle_type_id":"4","last_reported":1751897504,"current_range_meters":8800,"station_id":"ce4bgt92rcd13ifvqcg0","pricing_plan_id":"cebpf4jnsgd1na2vs0mg"},{"bike_id":"60f3d515-a9ba-4358-ba10-5994fece7a0d","system_id":"levelo_inurba_marseille","lat":43.32072,"lon":5.36774,"is_reserved":false,"is_disabled":false,"rental_uris":{"android":"levelo://app?vid=60f3d515-a9ba-4358-ba10-5994fece7a0d","ios":"levelo://app?vid=60f3d515-a9ba-4358-ba10-5994fece7a0d"},"vehicle_type_id":"4","last_reported":1751897504,"current_range_meters":8800,"station_id":"ce4bhrh2rcd13ifvqhug","pricing_plan_id":"cebpf4jnsgd1na2vs0mg"},{"bike_id":"d6c5e041-56d5-44d3-8767-93bb0abd1776","system_id":"levelo_inurba_marseille","lat":43.21751,"lon":5.3459,"is_reserved":false,"is_disabled":false,"rental_uris":{"android":"levelo://app?vid=d6c5e041-56d5-44d3-8767-93bb0abd1776","ios":"levelo://app?vid=d6c5e041-56d5-44d3-8767-93bb0abd1776"},"vehicle_type_id":"4","last_reported":1751897504,"current_range_meters":8800,"station_id":"st_cvj6r9ubvosntc0bgbag","pricing_plan_id":"cebpf4jnsgd1na2vs0mg"},{"bike_id":"653697c4-c439-4a6d-869a-0ee928b604f9","system_id":"levelo_inurba_marseille","lat":43.26007,"lon":5.4177,"is_reserved":false,"is_disabled":false,"rental_uris":{"android":"levelo://app?vid=653697c4-c439-4a6d-869a-0ee928b604f9","ios":"levelo://app?vid=653697c4-c439-4a6d-869a-0ee928b604f9"},"vehicle_type_id":"4","last_reported":1751897504,"current_range_meters":9200,"station_id":"","pricing_plan_id":"cebpf4jnsgd1na2vs0mg"},{"bike_id":"9a539593-44b0-4ebb-8459-d72b23444e23","system_id":"levelo_inurba_marseille","lat":43.29201,"lon":5.3933,"is_reserved":false,"is_disabled":false,"rental_uris":{"android":"levelo://app?vid=9a539593-44b0-4ebb-8459-d72b23444e23","ios":"levelo://app?vid=9a539593-44b0-4ebb-8459-d72b23444e23"},"vehicle_type_id":"4","last_reported":1751897504,"current_range_meters":9200,"station_id":"ce4bh192rcd13ifvqdd0","pricing_plan_id":"cebpf4jnsgd1na2vs0mg"},{"bike_id":"6baef593-05a0-42e9-b771-34ad835cf25c","system_id":"levelo_inurba_marseille","lat":43.29271,"lon":5.40115,"is_reserved":false,"is_disabled":false,"rental_uris":{"android":"levelo://app?vid=6baef593-05a0-42e9-b771-34ad835cf25c","ios":"levelo://app?vid=6baef593-05a0-42e9-b771-34ad835cf25c"},"vehicle_type_id":"4","last_reported":1751897504,"current_range_meters":9200,"station_id":"ce4bh312rcd13ifvqdk0","pricing_plan_id":"cebpf4jnsgd1na2vs0mg"},{"bike_id":"75d036c7-0a6a-4fa7-a8b2-7537f41a4b53","system_id":"levelo_inurba_marseille","lat":43.27998,"lon":5.400137,"is_reserved":false,"is_disabled":false,"rental_uris":{"android":"levelo://app?vid=75d036c7-0a6a-4fa7-a8b2-7537f41a4b53","ios":"levelo://app?vid=75d036c7-0a6a-4fa7-a8b2-7537f41a4b53"},"vehicle_type_id":"4","last_reported":1751897504,"current_range_meters":9200,"station_id":"ce4bho92rcd13ifvqh4g","pricing_plan_id":"cebpf4jnsgd1na2vs0mg"},{"bike_id":"0b2ccd0f-688e-4ec3-aac3-f69227ec388f","system_id":"levelo_inurba_marseille","lat":43.32104,"lon":5.36796,"is_reserved":false,"is_disabled":false,"rental_uris":{"android":"levelo://app?vid=0b2ccd0f-688e-4ec3-aac3-f69227ec388f","ios":"levelo://app?vid=0b2ccd0f-688e-4ec3-aac3-f69227ec388f"},"vehicle_type_id":"4","last_reported":1751897504,"current_range_meters":9200,"station_id":"ce4bhrh2rcd13ifvqhug","pricing_plan_id":"cebpf4jnsgd1na2vs0mg"},{"bike_id":"e95502f0-eb98-4893-a8de-d9f12697d2ec","system_id":"levelo_inurba_marseille","lat":43.30432,"lon":5.38887,"is_reserved":false,"is_disabled":false,"rental_uris":{"android":"levelo://app?vid=e95502f0-eb98-4893-a8de-d9f12697d2ec","ios":"levelo://app?vid=e95502f0-eb98-4893-a8de-d9f12697d2ec"},"vehicle_type_id":"4","last_reported":1751897504,"current_range_meters":9600,"station_id":"ce4bgk12rcd13ifvqbi0","pricing_plan_id":"cebpf4jnsgd1na2vs0mg"},{"bike_id":"94add758-2002-4c40-881c-d3fe45161db7","system_id":"levelo_inurba_marseille","lat":43.305383,"lon":5.36561,"is_reserved":false,"is_disabled":false,"rental_uris":{"android":"levelo://app?vid=94add758-2002-4c40-881c-d3fe45161db7","ios":"levelo://app?vid=94add758-2002-4c40-881c-d3fe45161db7"},"vehicle_type_id":"4","last_reported":1751897504,"current_range_meters":9600,"station_id":"ce4bgs12rcd13ifvqcag","pricing_plan_id":"cebpf4jnsgd1na2vs0mg"},{"bike_id":"d7189a53-2549-4637-bd03-62c3de842b3a","system_id":"levelo_inurba_marseille","lat":43.28708,"lon":5.37384,"is_reserved":false,"is_disabled":false,"rental_uris":{"android":"levelo://app?vid=d7189a53-2549-4637-bd03-62c3de842b3a","ios":"levelo://app?vid=d7189a53-2549-4637-bd03-62c3de842b3a"},"vehicle_type_id":"4","last_reported":1751897504,"current_range_meters":9600,"station_id":"ce4bh3p2rcd13ifvqdq0","pricing_plan_id":"cebpf4jnsgd1na2vs0mg"},{"bike_id":"06ec5e73-7c37-4d7d-9933-e904369ec74e","system_id":"levelo_inurba_marseille","lat":43.323571,"lon":5.367564,"is_reserved":false,"is_disabled":false,"rental_uris":{"android":"levelo://app?vid=06ec5e73-7c37-4d7d-9933-e904369ec74e","ios":"levelo://app?vid=06ec5e73-7c37-4d7d-9933-e904369ec74e"},"vehicle_type_id":"4","last_reported":1751897504,"current_range_meters":9600,"station_id":"ce4bhsh2rcd13ifvqi2g","pricing_plan_id":"cebpf4jnsgd1na2vs0mg"},{"bike_id":"73eab00a-c8d1-43b0-b3d6-3ffdd4d18a5c","system_id":"levelo_inurba_marseille","lat":43.337444,"lon":5.374475,"is_reserved":false,"is_disabled":false,"rental_uris":{"android":"levelo://app?vid=73eab00a-c8d1-43b0-b3d6-3ffdd4d18a5c","ios":"levelo://app?vid=73eab00a-c8d1-43b0-b3d6-3ffdd4d18a5c"},"vehicle_type_id":"4","last_reported":1751897504,"current_range_meters":10000,"station_id":"","pricing_plan_id":"cebpf4jnsgd1na2vs0mg"},{"bike_id":"f564b4f8-7617-41c9-80d9-e72dc1da77cb","system_id":"levelo_inurba_marseille","lat":43.29538,"lon":5.37478,"is_reserved":false,"is_disabled":false,"rental_uris":{"android":"levelo://app?vid=f564b4f8-7617-41c9-80d9-e72dc1da77cb","ios":"levelo://app?vid=f564b4f8-7617-41c9-80d9-e72dc1da77cb"},"vehicle_type_id":"4","last_reported":1751897504,"current_range_meters":10000,"station_id":"ce4bgkp2rcd13ifvqbmg","pricing_plan_id":"cebpf4jnsgd1na2vs0mg"},{"bike_id":"10ac0bf0-76e5-41ef-84cb-2c2061551e26","system_id":"levelo_inurba_marseille","lat":43.26566,"lon":5.39018,"is_reserved":false,"is_disabled":false,"rental_uris":{"android":"levelo://app?vid=10ac0bf0-76e5-41ef-84cb-2c2061551e26","ios":"levelo://app?vid=10ac0bf0-76e5-41ef-84cb-2c2061551e26"},"vehicle_type_id":"4","last_reported":1751897504,"current_range_meters":10000,"station_id":"ce4bhe12rcd13ifvqf30","pricing_plan_id":"cebpf4jnsgd1na2vs0mg"},{"bike_id":"7b527f00-f6ea-4963-b59d-8da04a2feedb","system_id":"levelo_inurba_marseille","lat":43.32086,"lon":5.40117,"is_reserved":false,"is_disabled":false,"rental_uris":{"android":"levelo://app?vid=7b527f00-f6ea-4963-b59d-8da04a2feedb","ios":"levelo://app?vid=7b527f00-f6ea-4963-b59d-8da04a2feedb"},"vehicle_type_id":"4","last_reported":1751897504,"current_range_meters":10800,"station_id":"","pricing_plan_id":"cebpf4jnsgd1na2vs0mg"},{"bike_id":"88ea42cb-cf0f-4e4a-8442-732645bc4ba5","system_id":"levelo_inurba_marseille","lat":43.31068,"lon":5.36719,"is_reserved":false,"is_disabled":false,"rental_uris":{"android":"levelo://app?vid=88ea42cb-cf0f-4e4a-8442-732645bc4ba5","ios":"levelo://app?vid=88ea42cb-cf0f-4e4a-8442-732645bc4ba5"},"vehicle_type_id":"4","last_reported":1751897504,"current_range_meters":10800,"station_id":"","pricing_plan_id":"cebpf4jnsgd1na2vs0mg"},{"bike_id":"e39d7895-de81-4d90-bf3c-24533dea725e","system_id":"levelo_inurba_marseille","lat":43.30583,"lon":5.39348,"is_reserved":false,"is_disabled":false,"rental_uris":{"android":"levelo://app?vid=e39d7895-de81-4d90-bf3c-24533dea725e","ios":"levelo://app?vid=e39d7895-de81-4d90-bf3c-24533dea725e"},"vehicle_type_id":"4","last_reported":1751897504,"current_range_meters":10800,"station_id":"ce4bh0p2rcd13ifvqd80","pricing_plan_id":"cebpf4jnsgd1na2vs0mg"},{"bike_id":"7a23839a-f7cf-4c2f-a369-6cffa98b0c1c","system_id":"levelo_inurba_marseille","lat":43.27812,"lon":5.40713,"is_reserved":false,"is_disabled":false,"rental_uris":{"android":"levelo://app?vid=7a23839a-f7cf-4c2f-a369-6cffa98b0c1c","ios":"levelo://app?vid=7a23839a-f7cf-4c2f-a369-6cffa98b0c1c"},"vehicle_type_id":"4","last_reported":1751897504,"current_range_meters":10800,"station_id":"ce4bhnh2rcd13ifvqgtg","pricing_plan_id":"cebpf4jnsgd1na2vs0mg"},{"bike_id":"da9da1b0-94b7-499a-a120-7cb63ed396fd","system_id":"levelo_inurba_marseille","lat":43.28082,"lon":5.39663,"is_reserved":false,"is_disabled":false,"rental_uris":{"android":"levelo://app?vid=da9da1b0-94b7-499a-a120-7cb63ed396fd","ios":"levelo://app?vid=da9da1b0-94b7-499a-a120-7cb63ed396fd"},"vehicle_type_id":"4","last_reported":1751897504,"current_range_meters":10800,"station_id":"ce4bho12rcd13ifvqh2g","pricing_plan_id":"cebpf4jnsgd1na2vs0mg"},{"bike_id":"80955d0f-8669-4c02-b90f-c6fe20790c37","system_id":"levelo_inurba_marseille","lat":43.23185,"lon":5.35063,"is_reserved":false,"is_disabled":false,"rental_uris":{"android":"levelo://app?vid=80955d0f-8669-4c02-b90f-c6fe20790c37","ios":"levelo://app?vid=80955d0f-8669-4c02-b90f-c6fe20790c37"},"vehicle_type_id":"4","last_reported":1751897504,"current_range_meters":11200,"station_id":"","pricing_plan_id":"cebpf4jnsgd1na2vs0mg"},{"bike_id":"a8f69cb7-371c-4177-b738-6100353412a3","system_id":"levelo_inurba_marseille","lat":43.301119,"lon":5.374295,"is_reserved":false,"is_disabled":false,"rental_uris":{"android":"levelo://app?vid=a8f69cb7-371c-4177-b738-6100353412a3","ios":"levelo://app?vid=a8f69cb7-371c-4177-b738-6100353412a3"},"vehicle_type_id":"4","last_reported":1751897504,"current_range_meters":11200,"station_id":"ce4bgs92rcd13ifvqcc0","pricing_plan_id":"cebpf4jnsgd1na2vs0mg"},{"bike_id":"784f3097-ac07-42bf-be48-70a684b49310","system_id":"levelo_inurba_marseille","lat":43.30929,"lon":5.40147,"is_reserved":false,"is_disabled":false,"rental_uris":{"android":"levelo://app?vid=784f3097-ac07-42bf-be48-70a684b49310","ios":"levelo://app?vid=784f3097-ac07-42bf-be48-70a684b49310"},"vehicle_type_id":"4","last_reported":1751897504,"current_range_meters":11200,"station_id":"ce4bgvp2rcd13ifvqct0","pricing_plan_id":"cebpf4jnsgd1na2vs0mg"},{"bike_id":"8d73e30b-5bc2-4272-a549-657ba91890f5","system_id":"levelo_inurba_marseille","lat":43.29034,"lon":5.37566,"is_reserved":false,"is_disabled":false,"rental_uris":{"android":"levelo://app?vid=8d73e30b-5bc2-4272-a549-657ba91890f5","ios":"levelo://app?vid=8d73e30b-5bc2-4272-a549-657ba91890f5"},"vehicle_type_id":"4","last_reported":1751897504,"current_range_meters":11200,"station_id":"ce4bh692rcd13ifvqe90","pricing_plan_id":"cebpf4jnsgd1na2vs0mg"},{"bike_id":"bb7b235b-32aa-423f-b247-e1b5f81f6751","system_id":"levelo_inurba_marseille","lat":43.26195,"lon":5.37448,"is_reserved":false,"is_disabled":false,"rental_uris":{"android":"levelo://app?vid=bb7b235b-32aa-423f-b247-e1b5f81f6751","ios":"levelo://app?vid=bb7b235b-32aa-423f-b247-e1b5f81f6751"},"vehicle_type_id":"4","last_reported":1751897504,"current_range_meters":11200,"station_id":"ce4bhgp2rcd13ifvqfc0","pricing_plan_id":"cebpf4jnsgd1na2vs0mg"},{"bike_id":"3b22f952-d0bc-4c00-8fd3-7e27b88aea23","system_id":"levelo_inurba_marseille","lat":43.29659,"lon":5.36245,"is_reserved":false,"is_disabled":false,"rental_uris":{"android":"levelo://app?vid=3b22f952-d0bc-4c00-8fd3-7e27b88aea23","ios":"levelo://app?vid=3b22f952-d0bc-4c00-8fd3-7e27b88aea23"},"vehicle_type_id":"4","last_reported":1751897504,"current_range_meters":11600,"station_id":"","pricing_plan_id":"cebpf4jnsgd1na2vs0mg"},{"bike_id":"f0f8eceb-631a-4204-a147-40a2b0878501","system_id":"levelo_inurba_marseille","lat":43.32784,"lon":5.37482,"is_reserved":false,"is_disabled":false,"rental_uris":{"android":"levelo://app?vid=f0f8eceb-631a-4204-a147-40a2b0878501","ios":"levelo://app?vid=f0f8eceb-631a-4204-a147-40a2b0878501"},"vehicle_type_id":"4","last_reported":1751897504,"current_range_meters":11600,"station_id":"","pricing_plan_id":"cebpf4jnsgd1na2vs0mg"},{"bike_id":"9e9e0b5e-0d45-400f-b781-430fdc4129c5","system_id":"levelo_inurba_marseille","lat":43.30533,"lon":5.36691,"is_reserved":false,"is_disabled":false,"rental_uris":{"android":"levelo://app?vid=9e9e0b5e-0d45-400f-b781-430fdc4129c5","ios":"levelo://app?vid=9e9e0b5e-0d45-400f-b781-430fdc4129c5"},"vehicle_type_id":"4","last_reported":1751897504,"current_range_meters":11600,"station_id":"ce4bgrp2rcd13ifvqc9g","pricing_plan_id":"cebpf4jnsgd1na2vs0mg"},{"bike_id":"d9d35ca2-8ec2-4437-bce9-25db47b501a8","system_id":"levelo_inurba_marseille","lat":43.30518,"lon":5.36705,"is_reserved":false,"is_disabled":false,"rental_uris":{"android":"levelo://app?vid=d9d35ca2-8ec2-4437-bce9-25db47b501a8","ios":"levelo://app?vid=d9d35ca2-8ec2-4437-bce9-25db47b501a8"},"vehicle_type_id":"4","last_reported":1751897504,"current_range_meters":11600,"station_id":"ce4bgrp2rcd13ifvqc9g","pricing_plan_id":"cebpf4jnsgd1na2vs0mg"},{"bike_id":"a5a0f82e-d2ec-466d-a6c2-8246a6b408ae","system_id":"levelo_inurba_marseille","lat":43.285805,"lon":5.37084,"is_reserved":false,"is_disabled":false,"rental_uris":{"android":"levelo://app?vid=a5a0f82e-d2ec-466d-a6c2-8246a6b408ae","ios":"levelo://app?vid=a5a0f82e-d2ec-466d-a6c2-8246a6b408ae"},"vehicle_type_id":"4","last_reported":1751897504,"current_range_meters":11600,"station_id":"ce4bhkp2rcd13ifvqgd0","pricing_plan_id":"cebpf4jnsgd1na2vs0mg"},{"bike_id":"37f2becd-23f9-4f13-a711-38b8024eeec7","system_id":"levelo_inurba_marseille","lat":43.33768,"lon":5.37516,"is_reserved":false,"is_disabled":false,"rental_uris":{"android":"levelo://app?vid=37f2becd-23f9-4f13-a711-38b8024eeec7","ios":"levelo://app?vid=37f2becd-23f9-4f13-a711-38b8024eeec7"},"vehicle_type_id":"4","last_reported":1751897504,"current_range_meters":12000,"station_id":"","pricing_plan_id":"cebpf4jnsgd1na2vs0mg"},{"bike_id":"758de30d-655a-4b7a-b49f-13582d4054e9","system_id":"levelo_inurba_marseille","lat":43.31495,"lon":5.37312,"is_reserved":false,"is_disabled":false,"rental_uris":{"android":"levelo://app?vid=758de30d-655a-4b7a-b49f-13582d4054e9","ios":"levelo://app?vid=758de30d-655a-4b7a-b49f-13582d4054e9"},"vehicle_type_id":"4","last_reported":1751897504,"current_range_meters":12000,"station_id":"ce4bgt12rcd13ifvqcd0","pricing_plan_id":"cebpf4jnsgd1na2vs0mg"},{"bike_id":"b3854816-e1e5-498c-9947-e1b4099c5e05","system_id":"levelo_inurba_marseille","lat":43.29017,"lon":5.36951,"is_reserved":false,"is_disabled":false,"rental_uris":{"android":"levelo://app?vid=b3854816-e1e5-498c-9947-e1b4099c5e05","ios":"levelo://app?vid=b3854816-e1e5-498c-9947-e1b4099c5e05"},"vehicle_type_id":"4","last_reported":1751897504,"current_range_meters":12400,"station_id":"","pricing_plan_id":"cebpf4jnsgd1na2vs0mg"},{"bike_id":"ac882886-b35e-4961-9293-3db50de918aa","system_id":"levelo_inurba_marseille","lat":43.3056,"lon":5.36518,"is_reserved":false,"is_disabled":false,"rental_uris":{"android":"levelo://app?vid=ac882886-b35e-4961-9293-3db50de918aa","ios":"levelo://app?vid=ac882886-b35e-4961-9293-3db50de918aa"},"vehicle_type_id":"4","last_reported":1751897504,"current_range_meters":12400,"station_id":"ce4bgs12rcd13ifvqcag","pricing_plan_id":"cebpf4jnsgd1na2vs0mg"},{"bike_id":"abcdfac5-fe00-4da2-b177-13430b577d14","system_id":"levelo_inurba_marseille","lat":43.305398,"lon":5.365375,"is_reserved":false,"is_disabled":false,"rental_uris":{"android":"levelo://app?vid=abcdfac5-fe00-4da2-b177-13430b577d14","ios":"levelo://app?vid=abcdfac5-fe00-4da2-b177-13430b577d14"},"vehicle_type_id":"4","last_reported":1751897504,"current_range_meters":12400,"station_id":"ce4bgs12rcd13ifvqcag","pricing_plan_id":"cebpf4jnsgd1na2vs0mg"},{"bike_id":"5e099489-3d21-48f9-9ebe-1a34b19fe838","system_id":"levelo_inurba_marseille","lat":43.2867,"lon":5.38673,"is_reserved":false,"is_disabled":false,"rental_uris":{"android":"levelo://app?vid=5e099489-3d21-48f9-9ebe-1a34b19fe838","ios":"levelo://app?vid=5e099489-3d21-48f9-9ebe-1a34b19fe838"},"vehicle_type_id":"4","last_reported":1751897504,"current_range_meters":12400,"station_id":"ce4bh492rcd13ifvqdug","pricing_plan_id":"cebpf4jnsgd1na2vs0mg"},{"bike_id":"58c3dd38-4b5e-4a18-b0d9-390ad4f46d42","system_id":"levelo_inurba_marseille","lat":43.29069,"lon":5.37156,"is_reserved":false,"is_disabled":false,"rental_uris":{"android":"levelo://app?vid=58c3dd38-4b5e-4a18-b0d9-390ad4f46d42","ios":"levelo://app?vid=58c3dd38-4b5e-4a18-b0d9-390ad4f46d42"},"vehicle_type_id":"4","last_reported":1751897504,"current_range_meters":12400,"station_id":"ce4bh5p2rcd13ifvqe4g","pricing_plan_id":"cebpf4jnsgd1na2vs0mg"},{"bike_id":"63bbba94-a3c6-44dd-ae00-47fcacbdfb15","system_id":"levelo_inurba_marseille","lat":43.25003,"lon":5.38923,"is_reserved":false,"is_disabled":false,"rental_uris":{"android":"levelo://app?vid=63bbba94-a3c6-44dd-ae00-47fcacbdfb15","ios":"levelo://app?vid=63bbba94-a3c6-44dd-ae00-47fcacbdfb15"},"vehicle_type_id":"4","last_reported":1751897504,"current_range_meters":12400,"station_id":"ce4bhgp2rcd13ifvqfd0","pricing_plan_id":"cebpf4jnsgd1na2vs0mg"},{"bike_id":"a31d7b1d-f875-4f27-b8f6-640a4ac62493","system_id":"levelo_inurba_marseille","lat":43.33743,"lon":5.39191,"is_reserved":false,"is_disabled":false,"rental_uris":{"android":"levelo://app?vid=a31d7b1d-f875-4f27-b8f6-640a4ac62493","ios":"levelo://app?vid=a31d7b1d-f875-4f27-b8f6-640a4ac62493"},"vehicle_type_id":"4","last_reported":1751897504,"current_range_meters":12400,"station_id":"ce4bhr92rcd13ifvqhsg","pricing_plan_id":"cebpf4jnsgd1na2vs0mg"},{"bike_id":"ccc29df5-1113-42b5-b8de-771b9f206409","system_id":"levelo_inurba_marseille","lat":43.262601,"lon":5.374128,"is_reserved":false,"is_disabled":false,"rental_uris":{"android":"levelo://app?vid=ccc29df5-1113-42b5-b8de-771b9f206409","ios":"levelo://app?vid=ccc29df5-1113-42b5-b8de-771b9f206409"},"vehicle_type_id":"4","last_reported":1751897504,"current_range_meters":12800,"station_id":"","pricing_plan_id":"cebpf4jnsgd1na2vs0mg"},{"bike_id":"da72be63-6f0e-4ae7-be7a-09ded5403478","system_id":"levelo_inurba_marseille","lat":43.25121,"lon":5.40321,"is_reserved":false,"is_disabled":false,"rental_uris":{"android":"levelo://app?vid=da72be63-6f0e-4ae7-be7a-09ded5403478","ios":"levelo://app?vid=da72be63-6f0e-4ae7-be7a-09ded5403478"},"vehicle_type_id":"4","last_reported":1751897504,"current_range_meters":12800,"station_id":"ce4bhlh2rcd13ifvqgig","pricing_plan_id":"cebpf4jnsgd1na2vs0mg"},{"bike_id":"78c65a7f-d308-40b5-accc-8e6897ac9f8a","system_id":"levelo_inurba_marseille","lat":43.300907,"lon":5.377879,"is_reserved":false,"is_disabled":false,"rental_uris":{"android":"levelo://app?vid=78c65a7f-d308-40b5-accc-8e6897ac9f8a","ios":"levelo://app?vid=78c65a7f-d308-40b5-accc-8e6897ac9f8a"},"vehicle_type_id":"4","last_reported":1751897504,"current_range_meters":13600,"station_id":"","pricing_plan_id":"cebpf4jnsgd1na2vs0mg"},{"bike_id":"5a9693e6-ca2f-4c04-b4a1-04215c7b0d6a","system_id":"levelo_inurba_marseille","lat":43.30521,"lon":5.36722,"is_reserved":false,"is_disabled":false,"rental_uris":{"android":"levelo://app?vid=5a9693e6-ca2f-4c04-b4a1-04215c7b0d6a","ios":"levelo://app?vid=5a9693e6-ca2f-4c04-b4a1-04215c7b0d6a"},"vehicle_type_id":"4","last_reported":1751897504,"current_range_meters":13600,"station_id":"ce4bgrp2rcd13ifvqc9g","pricing_plan_id":"cebpf4jnsgd1na2vs0mg"},{"bike_id":"29102da4-02a2-4f9c-99ed-89cdef887179","system_id":"levelo_inurba_marseille","lat":43.22502,"lon":5.34777,"is_reserved":false,"is_disabled":false,"rental_uris":{"android":"levelo://app?vid=29102da4-02a2-4f9c-99ed-89cdef887179","ios":"levelo://app?vid=29102da4-02a2-4f9c-99ed-89cdef887179"},"vehicle_type_id":"4","last_reported":1751897504,"current_range_meters":13600,"station_id":"st_cvj5dfep6f1abm77gieg","pricing_plan_id":"cebpf4jnsgd1na2vs0mg"},{"bike_id":"a70cfab5-f447-4d61-b80a-343a49825360","system_id":"levelo_inurba_marseille","lat":43.31479,"lon":5.39108,"is_reserved":false,"is_disabled":false,"rental_uris":{"android":"levelo://app?vid=a70cfab5-f447-4d61-b80a-343a49825360","ios":"levelo://app?vid=a70cfab5-f447-4d61-b80a-343a49825360"},"vehicle_type_id":"4","last_reported":1751897504,"current_range_meters":14000,"station_id":"","pricing_plan_id":"cebpf4jnsgd1na2vs0mg"},{"bike_id":"9def8b07-8521-4023-8fea-449215b8264b","system_id":"levelo_inurba_marseille","lat":43.243902,"lon":5.370605,"is_reserved":false,"is_disabled":false,"rental_uris":{"android":"levelo://app?vid=9def8b07-8521-4023-8fea-449215b8264b","ios":"levelo://app?vid=9def8b07-8521-4023-8fea-449215b8264b"},"vehicle_type_id":"4","last_reported":1751897504,"current_range_meters":14000,"station_id":"ce4bhhh2rcd13ifvqfk0","pricing_plan_id":"cebpf4jnsgd1na2vs0mg"},{"bike_id":"53e9b7ad-625a-486c-a022-46e5911f21a5","system_id":"levelo_inurba_marseille","lat":43.25934,"lon":5.40913,"is_reserved":false,"is_disabled":false,"rental_uris":{"android":"levelo://app?vid=53e9b7ad-625a-486c-a022-46e5911f21a5","ios":"levelo://app?vid=53e9b7ad-625a-486c-a022-46e5911f21a5"},"vehicle_type_id":"4","last_reported":1751897504,"current_range_meters":14000,"station_id":"ce4bhm92rcd13ifvqglg","pricing_plan_id":"cebpf4jnsgd1na2vs0mg"},{"bike_id":"949188bf-6148-425e-828f-98a1d9650134","system_id":"levelo_inurba_marseille","lat":43.32486,"lon":5.36567,"is_reserved":false,"is_disabled":false,"rental_uris":{"android":"levelo://app?vid=949188bf-6148-425e-828f-98a1d9650134","ios":"levelo://app?vid=949188bf-6148-425e-828f-98a1d9650134"},"vehicle_type_id":"4","last_reported":1751897504,"current_range_meters":14000,"station_id":"ce4bhs12rcd13ifvqhvg","pricing_plan_id":"cebpf4jnsgd1na2vs0mg"},{"bike_id":"d23ff5eb-dc32-46e8-a11a-2ae72fe24931","system_id":"levelo_inurba_marseille","lat":43.29862,"lon":5.36271,"is_reserved":false,"is_disabled":false,"rental_uris":{"android":"levelo://app?vid=d23ff5eb-dc32-46e8-a11a-2ae72fe24931","ios":"levelo://app?vid=d23ff5eb-dc32-46e8-a11a-2ae72fe24931"},"vehicle_type_id":"4","last_reported":1751897504,"current_range_meters":14400,"station_id":"ce4bgpp2rcd13ifvqc3g","pricing_plan_id":"cebpf4jnsgd1na2vs0mg"},{"bike_id":"436d05f4-7431-474c-9d54-dc75a9f6c7fd","system_id":"levelo_inurba_marseille","lat":43.30917,"lon":5.40142,"is_reserved":false,"is_disabled":false,"rental_uris":{"android":"levelo://app?vid=436d05f4-7431-474c-9d54-dc75a9f6c7fd","ios":"levelo://app?vid=436d05f4-7431-474c-9d54-dc75a9f6c7fd"},"vehicle_type_id":"4","last_reported":1751897504,"current_range_meters":14400,"station_id":"ce4bgvp2rcd13ifvqct0","pricing_plan_id":"cebpf4jnsgd1na2vs0mg"},{"bike_id":"b2f2c7b7-fc5a-4e4e-991e-fd4459d05bdf","system_id":"levelo_inurba_marseille","lat":43.30889,"lon":5.39634,"is_reserved":false,"is_disabled":false,"rental_uris":{"android":"levelo://app?vid=b2f2c7b7-fc5a-4e4e-991e-fd4459d05bdf","ios":"levelo://app?vid=b2f2c7b7-fc5a-4e4e-991e-fd4459d05bdf"},"vehicle_type_id":"4","last_reported":1751897504,"current_range_meters":14400,"station_id":"ce4bh012rcd13ifvqcv0","pricing_plan_id":"cebpf4jnsgd1na2vs0mg"},{"bike_id":"d7988964-28c6-4fac-b7a3-c9a2ca519892","system_id":"levelo_inurba_marseille","lat":43.28625,"lon":5.35107,"is_reserved":false,"is_disabled":false,"rental_uris":{"android":"levelo://app?vid=d7988964-28c6-4fac-b7a3-c9a2ca519892","ios":"levelo://app?vid=d7988964-28c6-4fac-b7a3-c9a2ca519892"},"vehicle_type_id":"4","last_reported":1751897504,"current_range_meters":14400,"station_id":"ce4bhch2rcd13ifvqeug","pricing_plan_id":"cebpf4jnsgd1na2vs0mg"},{"bike_id":"5ec4874c-03c6-4a0e-89ff-0413efb1d60d","system_id":"levelo_inurba_marseille","lat":43.31992,"lon":5.36752,"is_reserved":false,"is_disabled":false,"rental_uris":{"android":"levelo://app?vid=5ec4874c-03c6-4a0e-89ff-0413efb1d60d","ios":"levelo://app?vid=5ec4874c-03c6-4a0e-89ff-0413efb1d60d"},"vehicle_type_id":"4","last_reported":1751897504,"current_range_meters":14400,"station_id":"ce4bhrh2rcd13ifvqhug","pricing_plan_id":"cebpf4jnsgd1na2vs0mg"},{"bike_id":"1cdc8be4-fbb5-41e5-8457-3a271e354e56","system_id":"levelo_inurba_marseille","lat":43.29073,"lon":5.3716,"is_reserved":false,"is_disabled":false,"rental_uris":{"android":"levelo://app?vid=1cdc8be4-fbb5-41e5-8457-3a271e354e56","ios":"levelo://app?vid=1cdc8be4-fbb5-41e5-8457-3a271e354e56"},"vehicle_type_id":"4","last_reported":1751897504,"current_range_meters":14800,"station_id":"ce4bh5p2rcd13ifvqe4g","pricing_plan_id":"cebpf4jnsgd1na2vs0mg"},{"bike_id":"b6f3ba3b-1c03-4203-a0f9-5c9ff472c172","system_id":"levelo_inurba_marseille","lat":43.28411,"lon":5.37511,"is_reserved":false,"is_disabled":false,"rental_uris":{"android":"levelo://app?vid=b6f3ba3b-1c03-4203-a0f9-5c9ff472c172","ios":"levelo://app?vid=b6f3ba3b-1c03-4203-a0f9-5c9ff472c172"},"vehicle_type_id":"4","last_reported":1751897504,"current_range_meters":15200,"station_id":"ce4bh412rcd13ifvqds0","pricing_plan_id":"cebpf4jnsgd1na2vs0mg"},{"bike_id":"baa79fc7-b159-4161-9ecc-97f5511413fd","system_id":"levelo_inurba_marseille","lat":43.28451,"lon":5.3589,"is_reserved":false,"is_disabled":false,"rental_uris":{"android":"levelo://app?vid=baa79fc7-b159-4161-9ecc-97f5511413fd","ios":"levelo://app?vid=baa79fc7-b159-4161-9ecc-97f5511413fd"},"vehicle_type_id":"4","last_reported":1751897504,"current_range_meters":15200,"station_id":"ce4bhah2rcd13ifvqei0","pricing_plan_id":"cebpf4jnsgd1na2vs0mg"},{"bike_id":"2ddd6815-6193-4bc9-bd9f-34f36bc7c904","system_id":"levelo_inurba_marseille","lat":43.28402,"lon":5.35002,"is_reserved":false,"is_disabled":false,"rental_uris":{"android":"levelo://app?vid=2ddd6815-6193-4bc9-bd9f-34f36bc7c904","ios":"levelo://app?vid=2ddd6815-6193-4bc9-bd9f-34f36bc7c904"},"vehicle_type_id":"4","last_reported":1751897504,"current_range_meters":15200,"station_id":"ce4bhbh2rcd13ifvqepg","pricing_plan_id":"cebpf4jnsgd1na2vs0mg"},{"bike_id":"522babc5-1b83-4bde-8ab6-ebfde9bd04b2","system_id":"levelo_inurba_marseille","lat":43.255,"lon":5.37653,"is_reserved":false,"is_disabled":false,"rental_uris":{"android":"levelo://app?vid=522babc5-1b83-4bde-8ab6-ebfde9bd04b2","ios":"levelo://app?vid=522babc5-1b83-4bde-8ab6-ebfde9bd04b2"},"vehicle_type_id":"4","last_reported":1751897504,"current_range_meters":15200,"station_id":"ce4bhh12rcd13ifvqff0","pricing_plan_id":"cebpf4jnsgd1na2vs0mg"},{"bike_id":"74ffcfa0-eae9-4944-8108-493f2ded3428","system_id":"levelo_inurba_marseille","lat":43.255829,"lon":5.382366,"is_reserved":false,"is_disabled":false,"rental_uris":{"android":"levelo://app?vid=74ffcfa0-eae9-4944-8108-493f2ded3428","ios":"levelo://app?vid=74ffcfa0-eae9-4944-8108-493f2ded3428"},"vehicle_type_id":"4","last_reported":1751897504,"current_range_meters":15200,"station_id":"ce4bhih2rcd13ifvqfs0","pricing_plan_id":"cebpf4jnsgd1na2vs0mg"},{"bike_id":"a7c39d59-40bd-4f7b-a228-ff2080b9cf69","system_id":"levelo_inurba_marseille","lat":43.2692,"lon":5.40252,"is_reserved":false,"is_disabled":false,"rental_uris":{"android":"levelo://app?vid=a7c39d59-40bd-4f7b-a228-ff2080b9cf69","ios":"levelo://app?vid=a7c39d59-40bd-4f7b-a228-ff2080b9cf69"},"vehicle_type_id":"4","last_reported":1751897504,"current_range_meters":15200,"station_id":"cjm6bp8fraef2m0cb0m0","pricing_plan_id":"cebpf4jnsgd1na2vs0mg"},{"bike_id":"073ef824-0758-41ad-880c-97fd500c03c2","system_id":"levelo_inurba_marseille","lat":43.30434,"lon":5.38891,"is_reserved":false,"is_disabled":false,"rental_uris":{"android":"levelo://app?vid=073ef824-0758-41ad-880c-97fd500c03c2","ios":"levelo://app?vid=073ef824-0758-41ad-880c-97fd500c03c2"},"vehicle_type_id":"4","last_reported":1751897504,"current_range_meters":16000,"station_id":"ce4bgk12rcd13ifvqbi0","pricing_plan_id":"cebpf4jnsgd1na2vs0mg"},{"bike_id":"1497346e-0c8c-4d09-bf59-c8a6560e1a35","system_id":"levelo_inurba_marseille","lat":43.29004,"lon":5.35618,"is_reserved":false,"is_disabled":false,"rental_uris":{"android":"levelo://app?vid=1497346e-0c8c-4d09-bf59-c8a6560e1a35","ios":"levelo://app?vid=1497346e-0c8c-4d09-bf59-c8a6560e1a35"},"vehicle_type_id":"4","last_reported":1751897504,"current_range_meters":16000,"station_id":"ce4bhb92rcd13ifvqen0","pricing_plan_id":"cebpf4jnsgd1na2vs0mg"},{"bike_id":"d2135e09-025c-4498-9c0d-2f81072a8f21","system_id":"levelo_inurba_marseille","lat":43.23966,"lon":5.36631,"is_reserved":false,"is_disabled":false,"rental_uris":{"android":"levelo://app?vid=d2135e09-025c-4498-9c0d-2f81072a8f21","ios":"levelo://app?vid=d2135e09-025c-4498-9c0d-2f81072a8f21"},"vehicle_type_id":"4","last_reported":1751897504,"current_range_meters":16000,"station_id":"ce4bhi12rcd13ifvqfp0","pricing_plan_id":"cebpf4jnsgd1na2vs0mg"},{"bike_id":"e79346c8-86fc-4daa-86ef-e1e68b65043e","system_id":"levelo_inurba_marseille","lat":43.2409,"lon":5.37786,"is_reserved":false,"is_disabled":false,"rental_uris":{"android":"levelo://app?vid=e79346c8-86fc-4daa-86ef-e1e68b65043e","ios":"levelo://app?vid=e79346c8-86fc-4daa-86ef-e1e68b65043e"},"vehicle_type_id":"4","last_reported":1751897504,"current_range_meters":16000,"station_id":"ce4bhnp2rcd13ifvqgvg","pricing_plan_id":"cebpf4jnsgd1na2vs0mg"},{"bike_id":"c9011b3a-ae20-4ab7-bba3-7e165d861242","system_id":"levelo_inurba_marseille","lat":43.24168,"lon":5.39719,"is_reserved":false,"is_disabled":false,"rental_uris":{"android":"levelo://app?vid=c9011b3a-ae20-4ab7-bba3-7e165d861242","ios":"levelo://app?vid=c9011b3a-ae20-4ab7-bba3-7e165d861242"},"vehicle_type_id":"4","last_reported":1751897504,"current_range_meters":16400,"station_id":"ce4bhn12rcd13ifvqgpg","pricing_plan_id":"cebpf4jnsgd1na2vs0mg"},{"bike_id":"88448def-5dd0-4785-bf46-b6c2e5cfe176","system_id":"levelo_inurba_marseille","lat":43.22532,"lon":5.34776,"is_reserved":false,"is_disabled":false,"rental_uris":{"android":"levelo://app?vid=88448def-5dd0-4785-bf46-b6c2e5cfe176","ios":"levelo://app?vid=88448def-5dd0-4785-bf46-b6c2e5cfe176"},"vehicle_type_id":"4","last_reported":1751897504,"current_range_meters":16400,"station_id":"st_cvj5dfep6f1abm77gieg","pricing_plan_id":"cebpf4jnsgd1na2vs0mg"},{"bike_id":"cd921873-e060-4800-a6eb-05ae1b62a4cb","system_id":"levelo_inurba_marseille","lat":43.31224,"lon":5.36848,"is_reserved":false,"is_disabled":false,"rental_uris":{"android":"levelo://app?vid=cd921873-e060-4800-a6eb-05ae1b62a4cb","ios":"levelo://app?vid=cd921873-e060-4800-a6eb-05ae1b62a4cb"},"vehicle_type_id":"4","last_reported":1751897504,"current_range_meters":16800,"station_id":"ce4bgl92rcd13ifvqbq0","pricing_plan_id":"cebpf4jnsgd1na2vs0mg"},{"bike_id":"c4d80167-db70-4f18-b0d8-7c35c6b724a0","system_id":"levelo_inurba_marseille","lat":43.298493,"lon":5.36276,"is_reserved":false,"is_disabled":false,"rental_uris":{"android":"levelo://app?vid=c4d80167-db70-4f18-b0d8-7c35c6b724a0","ios":"levelo://app?vid=c4d80167-db70-4f18-b0d8-7c35c6b724a0"},"vehicle_type_id":"4","last_reported":1751897504,"current_range_meters":16800,"station_id":"ce4bgpp2rcd13ifvqc3g","pricing_plan_id":"cebpf4jnsgd1na2vs0mg"},{"bike_id":"450e874d-b836-491e-9449-b0948ecd6f9a","system_id":"levelo_inurba_marseille","lat":43.30537,"lon":5.36557,"is_reserved":false,"is_disabled":false,"rental_uris":{"android":"levelo://app?vid=450e874d-b836-491e-9449-b0948ecd6f9a","ios":"levelo://app?vid=450e874d-b836-491e-9449-b0948ecd6f9a"},"vehicle_type_id":"4","last_reported":1751897504,"current_range_meters":16800,"station_id":"ce4bgs12rcd13ifvqcag","pricing_plan_id":"cebpf4jnsgd1na2vs0mg"},{"bike_id":"19545385-4e1c-4ee8-af3e-dff3d9137122","system_id":"levelo_inurba_marseille","lat":43.24657,"lon":5.38168,"is_reserved":false,"is_disabled":false,"rental_uris":{"android":"levelo://app?vid=19545385-4e1c-4ee8-af3e-dff3d9137122","ios":"levelo://app?vid=19545385-4e1c-4ee8-af3e-dff3d9137122"},"vehicle_type_id":"4","last_reported":1751897504,"current_range_meters":16800,"station_id":"ce4bhih2rcd13ifvqfr0","pricing_plan_id":"cebpf4jnsgd1na2vs0mg"},{"bike_id":"942a983a-7094-47d3-97b7-ba4ab853d965","system_id":"levelo_inurba_marseille","lat":43.27045,"lon":5.42284,"is_reserved":false,"is_disabled":false,"rental_uris":{"android":"levelo://app?vid=942a983a-7094-47d3-97b7-ba4ab853d965","ios":"levelo://app?vid=942a983a-7094-47d3-97b7-ba4ab853d965"},"vehicle_type_id":"4","last_reported":1751897504,"current_range_meters":16800,"station_id":"ce4bhk92rcd13ifvqgb0","pricing_plan_id":"cebpf4jnsgd1na2vs0mg"},{"bike_id":"869426ca-2edf-448e-a40f-b5b7fafdd2c2","system_id":"levelo_inurba_marseille","lat":43.27065,"lon":5.40258,"is_reserved":false,"is_disabled":false,"rental_uris":{"android":"levelo://app?vid=869426ca-2edf-448e-a40f-b5b7fafdd2c2","ios":"levelo://app?vid=869426ca-2edf-448e-a40f-b5b7fafdd2c2"},"vehicle_type_id":"4","last_reported":1751897504,"current_range_meters":16800,"station_id":"ce4bhk92rcd13ifvqgc0","pricing_plan_id":"cebpf4jnsgd1na2vs0mg"},{"bike_id":"6724b3bb-481b-4829-a8e8-71b2cb5369d9","system_id":"levelo_inurba_marseille","lat":43.25932,"lon":5.40861,"is_reserved":false,"is_disabled":false,"rental_uris":{"android":"levelo://app?vid=6724b3bb-481b-4829-a8e8-71b2cb5369d9","ios":"levelo://app?vid=6724b3bb-481b-4829-a8e8-71b2cb5369d9"},"vehicle_type_id":"4","last_reported":1751897504,"current_range_meters":16800,"station_id":"ce4bhm92rcd13ifvqglg","pricing_plan_id":"cebpf4jnsgd1na2vs0mg"},{"bike_id":"2090512e-543d-4a55-b888-2423e2f84234","system_id":"levelo_inurba_marseille","lat":43.24067,"lon":5.37736,"is_reserved":false,"is_disabled":false,"rental_uris":{"android":"levelo://app?vid=2090512e-543d-4a55-b888-2423e2f84234","ios":"levelo://app?vid=2090512e-543d-4a55-b888-2423e2f84234"},"vehicle_type_id":"4","last_reported":1751897504,"current_range_meters":16800,"station_id":"ce4bhnp2rcd13ifvqgvg","pricing_plan_id":"cebpf4jnsgd1na2vs0mg"},{"bike_id":"6908235d-c1e3-4629-a31c-15e589c5a8af","system_id":"levelo_inurba_marseille","lat":43.2873,"lon":5.36085,"is_reserved":false,"is_disabled":false,"rental_uris":{"android":"levelo://app?vid=6908235d-c1e3-4629-a31c-15e589c5a8af","ios":"levelo://app?vid=6908235d-c1e3-4629-a31c-15e589c5a8af"},"vehicle_type_id":"4","last_reported":1751897504,"current_range_meters":16800,"station_id":"cki0cbj6b192h4jlfktg","pricing_plan_id":"cebpf4jnsgd1na2vs0mg"},{"bike_id":"9bfc7d3d-4e60-4f8a-9c32-ef3d0e77ec5b","system_id":"levelo_inurba_marseille","lat":43.211913,"lon":5.35074,"is_reserved":false,"is_disabled":false,"rental_uris":{"android":"levelo://app?vid=9bfc7d3d-4e60-4f8a-9c32-ef3d0e77ec5b","ios":"levelo://app?vid=9bfc7d3d-4e60-4f8a-9c32-ef3d0e77ec5b"},"vehicle_type_id":"4","last_reported":1751897504,"current_range_meters":16800,"station_id":"st_cvj6sg6p6f1abm77japg","pricing_plan_id":"cebpf4jnsgd1na2vs0mg"},{"bike_id":"2f70f9cc-8dde-4938-b696-226b5b07f81d","system_id":"levelo_inurba_marseille","lat":43.27057,"lon":5.40259,"is_reserved":false,"is_disabled":false,"rental_uris":{"android":"levelo://app?vid=2f70f9cc-8dde-4938-b696-226b5b07f81d","ios":"levelo://app?vid=2f70f9cc-8dde-4938-b696-226b5b07f81d"},"vehicle_type_id":"4","last_reported":1751897504,"current_range_meters":17200,"station_id":"ce4bhk92rcd13ifvqgc0","pricing_plan_id":"cebpf4jnsgd1na2vs0mg"},{"bike_id":"762784bc-76e0-4220-961c-3afad064fde2","system_id":"levelo_inurba_marseille","lat":43.32087,"lon":5.36768,"is_reserved":false,"is_disabled":false,"rental_uris":{"android":"levelo://app?vid=762784bc-76e0-4220-961c-3afad064fde2","ios":"levelo://app?vid=762784bc-76e0-4220-961c-3afad064fde2"},"vehicle_type_id":"4","last_reported":1751897504,"current_range_meters":17200,"station_id":"ce4bhrh2rcd13ifvqhug","pricing_plan_id":"cebpf4jnsgd1na2vs0mg"},{"bike_id":"43d0a216-171e-45fe-88be-8650fec68cf8","system_id":"levelo_inurba_marseille","lat":43.21197,"lon":5.35041,"is_reserved":false,"is_disabled":false,"rental_uris":{"android":"levelo://app?vid=43d0a216-171e-45fe-88be-8650fec68cf8","ios":"levelo://app?vid=43d0a216-171e-45fe-88be-8650fec68cf8"},"vehicle_type_id":"4","last_reported":1751897504,"current_range_meters":17200,"station_id":"st_cvj6sg6p6f1abm77japg","pricing_plan_id":"cebpf4jnsgd1na2vs0mg"},{"bike_id":"6a3a3e65-1839-43d5-b574-3a73e4e32dac","system_id":"levelo_inurba_marseille","lat":43.32321,"lon":5.3887,"is_reserved":false,"is_disabled":false,"rental_uris":{"android":"levelo://app?vid=6a3a3e65-1839-43d5-b574-3a73e4e32dac","ios":"levelo://app?vid=6a3a3e65-1839-43d5-b574-3a73e4e32dac"},"vehicle_type_id":"4","last_reported":1751897504,"current_range_meters":17600,"station_id":"","pricing_plan_id":"cebpf4jnsgd1na2vs0mg"},{"bike_id":"c8810e8f-2a78-4a6d-8cb6-3d76e1b529a8","system_id":"levelo_inurba_marseille","lat":43.30534,"lon":5.36694,"is_reserved":false,"is_disabled":false,"rental_uris":{"android":"levelo://app?vid=c8810e8f-2a78-4a6d-8cb6-3d76e1b529a8","ios":"levelo://app?vid=c8810e8f-2a78-4a6d-8cb6-3d76e1b529a8"},"vehicle_type_id":"4","last_reported":1751897504,"current_range_meters":17600,"station_id":"ce4bgrp2rcd13ifvqc9g","pricing_plan_id":"cebpf4jnsgd1na2vs0mg"},{"bike_id":"da4a824d-93ee-44de-be08-03b1dd5ae8a0","system_id":"levelo_inurba_marseille","lat":43.29008,"lon":5.35615,"is_reserved":false,"is_disabled":false,"rental_uris":{"android":"levelo://app?vid=da4a824d-93ee-44de-be08-03b1dd5ae8a0","ios":"levelo://app?vid=da4a824d-93ee-44de-be08-03b1dd5ae8a0"},"vehicle_type_id":"4","last_reported":1751897504,"current_range_meters":17600,"station_id":"ce4bhb92rcd13ifvqen0","pricing_plan_id":"cebpf4jnsgd1na2vs0mg"},{"bike_id":"a19af955-9f5f-4ebf-9657-f7a0141cb78d","system_id":"levelo_inurba_marseille","lat":43.28427,"lon":5.35,"is_reserved":false,"is_disabled":false,"rental_uris":{"android":"levelo://app?vid=a19af955-9f5f-4ebf-9657-f7a0141cb78d","ios":"levelo://app?vid=a19af955-9f5f-4ebf-9657-f7a0141cb78d"},"vehicle_type_id":"4","last_reported":1751897504,"current_range_meters":17600,"station_id":"ce4bhbh2rcd13ifvqepg","pricing_plan_id":"cebpf4jnsgd1na2vs0mg"},{"bike_id":"55fda3be-3cc6-4a93-8ee8-a4fd7514483c","system_id":"levelo_inurba_marseille","lat":43.229288,"lon":5.353743,"is_reserved":false,"is_disabled":false,"rental_uris":{"android":"levelo://app?vid=55fda3be-3cc6-4a93-8ee8-a4fd7514483c","ios":"levelo://app?vid=55fda3be-3cc6-4a93-8ee8-a4fd7514483c"},"vehicle_type_id":"4","last_reported":1751897504,"current_range_meters":17600,"station_id":"cpo3532slgdg3j2ikp40","pricing_plan_id":"cebpf4jnsgd1na2vs0mg"},{"bike_id":"89aed59f-866e-4768-b8b5-54548cd7d320","system_id":"levelo_inurba_marseille","lat":43.22502,"lon":5.34785,"is_reserved":false,"is_disabled":false,"rental_uris":{"android":"levelo://app?vid=89aed59f-866e-4768-b8b5-54548cd7d320","ios":"levelo://app?vid=89aed59f-866e-4768-b8b5-54548cd7d320"},"vehicle_type_id":"4","last_reported":1751897504,"current_range_meters":17600,"station_id":"st_cvj5dfep6f1abm77gieg","pricing_plan_id":"cebpf4jnsgd1na2vs0mg"},{"bike_id":"888522e3-39b6-4ff3-ad74-ff6c6f771157","system_id":"levelo_inurba_marseille","lat":43.295006,"lon":5.40258,"is_reserved":false,"is_disabled":false,"rental_uris":{"android":"levelo://app?vid=888522e3-39b6-4ff3-ad74-ff6c6f771157","ios":"levelo://app?vid=888522e3-39b6-4ff3-ad74-ff6c6f771157"},"vehicle_type_id":"4","last_reported":1751897504,"current_range_meters":18000,"station_id":"","pricing_plan_id":"cebpf4jnsgd1na2vs0mg"},{"bike_id":"5809741d-fe6b-4a98-824b-89dde457ab11","system_id":"levelo_inurba_marseille","lat":43.30555,"lon":5.36545,"is_reserved":false,"is_disabled":false,"rental_uris":{"android":"levelo://app?vid=5809741d-fe6b-4a98-824b-89dde457ab11","ios":"levelo://app?vid=5809741d-fe6b-4a98-824b-89dde457ab11"},"vehicle_type_id":"4","last_reported":1751897504,"current_range_meters":18000,"station_id":"ce4bgs12rcd13ifvqcag","pricing_plan_id":"cebpf4jnsgd1na2vs0mg"},{"bike_id":"eb9935ae-92dc-4d9d-b9a6-1a60e153bee3","system_id":"levelo_inurba_marseille","lat":43.311186,"lon":5.377606,"is_reserved":false,"is_disabled":false,"rental_uris":{"android":"levelo://app?vid=eb9935ae-92dc-4d9d-b9a6-1a60e153bee3","ios":"levelo://app?vid=eb9935ae-92dc-4d9d-b9a6-1a60e153bee3"},"vehicle_type_id":"4","last_reported":1751897504,"current_range_meters":18000,"station_id":"ce4bgt92rcd13ifvqcg0","pricing_plan_id":"cebpf4jnsgd1na2vs0mg"},{"bike_id":"0fdb280a-3f1c-4c1f-8d73-ac5396ea91bf","system_id":"levelo_inurba_marseille","lat":43.28672,"lon":5.38667,"is_reserved":false,"is_disabled":false,"rental_uris":{"android":"levelo://app?vid=0fdb280a-3f1c-4c1f-8d73-ac5396ea91bf","ios":"levelo://app?vid=0fdb280a-3f1c-4c1f-8d73-ac5396ea91bf"},"vehicle_type_id":"4","last_reported":1751897504,"current_range_meters":18000,"station_id":"ce4bh492rcd13ifvqdug","pricing_plan_id":"cebpf4jnsgd1na2vs0mg"},{"bike_id":"e92b287d-d096-41e8-a8dc-5a20d4e20f73","system_id":"levelo_inurba_marseille","lat":43.2885,"lon":5.35837,"is_reserved":false,"is_disabled":false,"rental_uris":{"android":"levelo://app?vid=e92b287d-d096-41e8-a8dc-5a20d4e20f73","ios":"levelo://app?vid=e92b287d-d096-41e8-a8dc-5a20d4e20f73"},"vehicle_type_id":"4","last_reported":1751897504,"current_range_meters":18000,"station_id":"ce4bhb12rcd13ifvqem0","pricing_plan_id":"cebpf4jnsgd1na2vs0mg"},{"bike_id":"5f663f1f-def5-40cc-9abe-924bd04570e3","system_id":"levelo_inurba_marseille","lat":43.284119,"lon":5.349765,"is_reserved":false,"is_disabled":false,"rental_uris":{"android":"levelo://app?vid=5f663f1f-def5-40cc-9abe-924bd04570e3","ios":"levelo://app?vid=5f663f1f-def5-40cc-9abe-924bd04570e3"},"vehicle_type_id":"4","last_reported":1751897504,"current_range_meters":18000,"station_id":"ce4bhbh2rcd13ifvqepg","pricing_plan_id":"cebpf4jnsgd1na2vs0mg"},{"bike_id":"28056557-4c26-4c1f-86b8-a860e8648af4","system_id":"levelo_inurba_marseille","lat":43.25725,"lon":5.41112,"is_reserved":false,"is_disabled":false,"rental_uris":{"android":"levelo://app?vid=28056557-4c26-4c1f-86b8-a860e8648af4","ios":"levelo://app?vid=28056557-4c26-4c1f-86b8-a860e8648af4"},"vehicle_type_id":"4","last_reported":1751897504,"current_range_meters":18000,"station_id":"ce4bhkp2rcd13ifvqgd0","pricing_plan_id":"cebpf4jnsgd1na2vs0mg"},{"bike_id":"62e8477d-4fef-4bef-b3db-aa778dcc9892","system_id":"levelo_inurba_marseille","lat":43.27176,"lon":5.40996,"is_reserved":false,"is_disabled":false,"rental_uris":{"android":"levelo://app?vid=62e8477d-4fef-4bef-b3db-aa778dcc9892","ios":"levelo://app?vid=62e8477d-4fef-4bef-b3db-aa778dcc9892"},"vehicle_type_id":"4","last_reported":1751897504,"current_range_meters":18000,"station_id":"ce4bhl12rcd13ifvqgf0","pricing_plan_id":"cebpf4jnsgd1na2vs0mg"},{"bike_id":"4aac4324-1577-40ed-816f-92c6a9b0cce1","system_id":"levelo_inurba_marseille","lat":43.2842,"lon":5.39208,"is_reserved":false,"is_disabled":false,"rental_uris":{"android":"levelo://app?vid=4aac4324-1577-40ed-816f-92c6a9b0cce1","ios":"levelo://app?vid=4aac4324-1577-40ed-816f-92c6a9b0cce1"},"vehicle_type_id":"4","last_reported":1751897504,"current_range_meters":18000,"station_id":"ce4bhoh2rcd13ifvqh5g","pricing_plan_id":"cebpf4jnsgd1na2vs0mg"},{"bike_id":"d5ef770d-9759-47e3-b3a5-7d2785ef76db","system_id":"levelo_inurba_marseille","lat":43.32929,"lon":5.39031,"is_reserved":false,"is_disabled":false,"rental_uris":{"android":"levelo://app?vid=d5ef770d-9759-47e3-b3a5-7d2785ef76db","ios":"levelo://app?vid=d5ef770d-9759-47e3-b3a5-7d2785ef76db"},"vehicle_type_id":"4","last_reported":1751897504,"current_range_meters":18800,"station_id":"","pricing_plan_id":"cebpf4jnsgd1na2vs0mg"},{"bike_id":"afd2c671-b274-4716-95f7-9abfdfc6dc55","system_id":"levelo_inurba_marseille","lat":43.314,"lon":5.37543,"is_reserved":false,"is_disabled":false,"rental_uris":{"android":"levelo://app?vid=afd2c671-b274-4716-95f7-9abfdfc6dc55","ios":"levelo://app?vid=afd2c671-b274-4716-95f7-9abfdfc6dc55"},"vehicle_type_id":"4","last_reported":1751897504,"current_range_meters":18800,"station_id":"","pricing_plan_id":"cebpf4jnsgd1na2vs0mg"},{"bike_id":"9db15efa-62b5-43dc-beab-14a16c0840b9","system_id":"levelo_inurba_marseille","lat":43.304524,"lon":5.415534,"is_reserved":false,"is_disabled":false,"rental_uris":{"android":"levelo://app?vid=9db15efa-62b5-43dc-beab-14a16c0840b9","ios":"levelo://app?vid=9db15efa-62b5-43dc-beab-14a16c0840b9"},"vehicle_type_id":"4","last_reported":1751897504,"current_range_meters":18800,"station_id":"","pricing_plan_id":"cebpf4jnsgd1na2vs0mg"},{"bike_id":"0df513a5-66af-4575-9c13-0844e112b6d9","system_id":"levelo_inurba_marseille","lat":43.3015,"lon":5.38111,"is_reserved":false,"is_disabled":false,"rental_uris":{"android":"levelo://app?vid=0df513a5-66af-4575-9c13-0844e112b6d9","ios":"levelo://app?vid=0df513a5-66af-4575-9c13-0844e112b6d9"},"vehicle_type_id":"4","last_reported":1751897504,"current_range_meters":18800,"station_id":"ce4bgjp2rcd13ifvqbh0","pricing_plan_id":"cebpf4jnsgd1na2vs0mg"},{"bike_id":"1abe875c-4257-4041-a21e-75938c10a34f","system_id":"levelo_inurba_marseille","lat":43.28409,"lon":5.35,"is_reserved":false,"is_disabled":false,"rental_uris":{"android":"levelo://app?vid=1abe875c-4257-4041-a21e-75938c10a34f","ios":"levelo://app?vid=1abe875c-4257-4041-a21e-75938c10a34f"},"vehicle_type_id":"4","last_reported":1751897504,"current_range_meters":18800,"station_id":"ce4bhbh2rcd13ifvqepg","pricing_plan_id":"cebpf4jnsgd1na2vs0mg"},{"bike_id":"711f76fd-915e-4a5e-add7-3bebf4653905","system_id":"levelo_inurba_marseille","lat":43.282701,"lon":5.350555,"is_reserved":false,"is_disabled":false,"rental_uris":{"android":"levelo://app?vid=711f76fd-915e-4a5e-add7-3bebf4653905","ios":"levelo://app?vid=711f76fd-915e-4a5e-add7-3bebf4653905"},"vehicle_type_id":"4","last_reported":1751897504,"current_range_meters":18800,"station_id":"ce4bhbp2rcd13ifvqerg","pricing_plan_id":"cebpf4jnsgd1na2vs0mg"},{"bike_id":"df167326-3628-4fc0-ab69-159619671f79","system_id":"levelo_inurba_marseille","lat":43.24653,"lon":5.38898,"is_reserved":false,"is_disabled":false,"rental_uris":{"android":"levelo://app?vid=df167326-3628-4fc0-ab69-159619671f79","ios":"levelo://app?vid=df167326-3628-4fc0-ab69-159619671f79"},"vehicle_type_id":"4","last_reported":1751897504,"current_range_meters":18800,"station_id":"ce4bhg12rcd13ifvqf60","pricing_plan_id":"cebpf4jnsgd1na2vs0mg"},{"bike_id":"f9a3ed78-45d3-4ed1-b781-f667f3175a5b","system_id":"levelo_inurba_marseille","lat":43.23067,"lon":5.35491,"is_reserved":false,"is_disabled":false,"rental_uris":{"android":"levelo://app?vid=f9a3ed78-45d3-4ed1-b781-f667f3175a5b","ios":"levelo://app?vid=f9a3ed78-45d3-4ed1-b781-f667f3175a5b"},"vehicle_type_id":"4","last_reported":1751897504,"current_range_meters":18800,"station_id":"cpo3342slgdg3j2ifvpg","pricing_plan_id":"cebpf4jnsgd1na2vs0mg"},{"bike_id":"a53c7279-83a0-4c8b-888f-e8653560d40f","system_id":"levelo_inurba_marseille","lat":43.21758,"lon":5.34593,"is_reserved":false,"is_disabled":false,"rental_uris":{"android":"levelo://app?vid=a53c7279-83a0-4c8b-888f-e8653560d40f","ios":"levelo://app?vid=a53c7279-83a0-4c8b-888f-e8653560d40f"},"vehicle_type_id":"4","last_reported":1751897504,"current_range_meters":18800,"station_id":"st_cvj6r9ubvosntc0bgbag","pricing_plan_id":"cebpf4jnsgd1na2vs0mg"},{"bike_id":"51890362-46b0-4ee7-9f02-afbf036d064e","system_id":"levelo_inurba_marseille","lat":43.21207,"lon":5.35064,"is_reserved":false,"is_disabled":false,"rental_uris":{"android":"levelo://app?vid=51890362-46b0-4ee7-9f02-afbf036d064e","ios":"levelo://app?vid=51890362-46b0-4ee7-9f02-afbf036d064e"},"vehicle_type_id":"4","last_reported":1751897504,"current_range_meters":18800,"station_id":"st_cvj6sg6p6f1abm77japg","pricing_plan_id":"cebpf4jnsgd1na2vs0mg"},{"bike_id":"084f14d4-0bc9-446c-902e-a4f3b90135fe","system_id":"levelo_inurba_marseille","lat":43.32433,"lon":5.42881,"is_reserved":false,"is_disabled":false,"rental_uris":{"android":"levelo://app?vid=084f14d4-0bc9-446c-902e-a4f3b90135fe","ios":"levelo://app?vid=084f14d4-0bc9-446c-902e-a4f3b90135fe"},"vehicle_type_id":"4","last_reported":1751897504,"current_range_meters":19200,"station_id":"","pricing_plan_id":"cebpf4jnsgd1na2vs0mg"},{"bike_id":"87c2d236-4978-4760-be77-27d7f5a212e4","system_id":"levelo_inurba_marseille","lat":43.29644,"lon":5.36205,"is_reserved":false,"is_disabled":false,"rental_uris":{"android":"levelo://app?vid=87c2d236-4978-4760-be77-27d7f5a212e4","ios":"levelo://app?vid=87c2d236-4978-4760-be77-27d7f5a212e4"},"vehicle_type_id":"4","last_reported":1751897504,"current_range_meters":19200,"station_id":"","pricing_plan_id":"cebpf4jnsgd1na2vs0mg"},{"bike_id":"3c35c1cb-c3a7-4f8d-81dc-c78b3d7ef6f7","system_id":"levelo_inurba_marseille","lat":43.311945,"lon":5.372115,"is_reserved":false,"is_disabled":false,"rental_uris":{"android":"levelo://app?vid=3c35c1cb-c3a7-4f8d-81dc-c78b3d7ef6f7","ios":"levelo://app?vid=3c35c1cb-c3a7-4f8d-81dc-c78b3d7ef6f7"},"vehicle_type_id":"4","last_reported":1751897504,"current_range_meters":19200,"station_id":"","pricing_plan_id":"cebpf4jnsgd1na2vs0mg"},{"bike_id":"74d1dd5c-9f07-4c49-948a-3ae0ce476859","system_id":"levelo_inurba_marseille","lat":43.30544,"lon":5.36714,"is_reserved":false,"is_disabled":false,"rental_uris":{"android":"levelo://app?vid=74d1dd5c-9f07-4c49-948a-3ae0ce476859","ios":"levelo://app?vid=74d1dd5c-9f07-4c49-948a-3ae0ce476859"},"vehicle_type_id":"4","last_reported":1751897504,"current_range_meters":19200,"station_id":"ce4bgrp2rcd13ifvqc9g","pricing_plan_id":"cebpf4jnsgd1na2vs0mg"},{"bike_id":"a3e60d66-e458-4c1e-a184-d76f676481b3","system_id":"levelo_inurba_marseille","lat":43.30928,"lon":5.40168,"is_reserved":false,"is_disabled":false,"rental_uris":{"android":"levelo://app?vid=a3e60d66-e458-4c1e-a184-d76f676481b3","ios":"levelo://app?vid=a3e60d66-e458-4c1e-a184-d76f676481b3"},"vehicle_type_id":"4","last_reported":1751897504,"current_range_meters":19200,"station_id":"ce4bgvp2rcd13ifvqct0","pricing_plan_id":"cebpf4jnsgd1na2vs0mg"},{"bike_id":"9509211c-1f4c-4c0e-a99f-eb624ca0357a","system_id":"levelo_inurba_marseille","lat":43.26208,"lon":5.37441,"is_reserved":false,"is_disabled":false,"rental_uris":{"android":"levelo://app?vid=9509211c-1f4c-4c0e-a99f-eb624ca0357a","ios":"levelo://app?vid=9509211c-1f4c-4c0e-a99f-eb624ca0357a"},"vehicle_type_id":"4","last_reported":1751897504,"current_range_meters":19200,"station_id":"ce4bhgp2rcd13ifvqfc0","pricing_plan_id":"cebpf4jnsgd1na2vs0mg"},{"bike_id":"6ffc31bf-be63-440b-8353-4ff83386083b","system_id":"levelo_inurba_marseille","lat":43.30543,"lon":5.36538,"is_reserved":false,"is_disabled":false,"rental_uris":{"android":"levelo://app?vid=6ffc31bf-be63-440b-8353-4ff83386083b","ios":"levelo://app?vid=6ffc31bf-be63-440b-8353-4ff83386083b"},"vehicle_type_id":"4","last_reported":1751897504,"current_range_meters":19600,"station_id":"ce4bgs12rcd13ifvqcag","pricing_plan_id":"cebpf4jnsgd1na2vs0mg"},{"bike_id":"e6ac3134-4d5c-4d27-a5a3-b939ac26da4a","system_id":"levelo_inurba_marseille","lat":43.301418,"lon":5.374112,"is_reserved":false,"is_disabled":false,"rental_uris":{"android":"levelo://app?vid=e6ac3134-4d5c-4d27-a5a3-b939ac26da4a","ios":"levelo://app?vid=e6ac3134-4d5c-4d27-a5a3-b939ac26da4a"},"vehicle_type_id":"4","last_reported":1751897504,"current_range_meters":19600,"station_id":"ce4bgs92rcd13ifvqcc0","pricing_plan_id":"cebpf4jnsgd1na2vs0mg"},{"bike_id":"7b884dad-bef1-4829-ae2d-006244f42691","system_id":"levelo_inurba_marseille","lat":43.30431,"lon":5.38885,"is_reserved":false,"is_disabled":false,"rental_uris":{"android":"levelo://app?vid=7b884dad-bef1-4829-ae2d-006244f42691","ios":"levelo://app?vid=7b884dad-bef1-4829-ae2d-006244f42691"},"vehicle_type_id":"4","last_reported":1751897504,"current_range_meters":20000,"station_id":"ce4bgk12rcd13ifvqbi0","pricing_plan_id":"cebpf4jnsgd1na2vs0mg"},{"bike_id":"02b10c9f-d125-4421-b296-a24ad4a35dc3","system_id":"levelo_inurba_marseille","lat":43.30295,"lon":5.37711,"is_reserved":false,"is_disabled":false,"rental_uris":{"android":"levelo://app?vid=02b10c9f-d125-4421-b296-a24ad4a35dc3","ios":"levelo://app?vid=02b10c9f-d125-4421-b296-a24ad4a35dc3"},"vehicle_type_id":"4","last_reported":1751897504,"current_range_meters":20000,"station_id":"ce4bguh2rcd13ifvqcj0","pricing_plan_id":"cebpf4jnsgd1na2vs0mg"},{"bike_id":"743c515f-cfc8-4e06-959b-65a71f6b7c72","system_id":"levelo_inurba_marseille","lat":43.28842,"lon":5.39299,"is_reserved":false,"is_disabled":false,"rental_uris":{"android":"levelo://app?vid=743c515f-cfc8-4e06-959b-65a71f6b7c72","ios":"levelo://app?vid=743c515f-cfc8-4e06-959b-65a71f6b7c72"},"vehicle_type_id":"4","last_reported":1751897504,"current_range_meters":20000,"station_id":"ce4bh2p2rcd13ifvqdi0","pricing_plan_id":"cebpf4jnsgd1na2vs0mg"},{"bike_id":"9b17c7d8-d238-4371-9785-1a2572c0a3a8","system_id":"levelo_inurba_marseille","lat":43.28269,"lon":5.35078,"is_reserved":false,"is_disabled":false,"rental_uris":{"android":"levelo://app?vid=9b17c7d8-d238-4371-9785-1a2572c0a3a8","ios":"levelo://app?vid=9b17c7d8-d238-4371-9785-1a2572c0a3a8"},"vehicle_type_id":"4","last_reported":1751897504,"current_range_meters":20000,"station_id":"ce4bhbp2rcd13ifvqerg","pricing_plan_id":"cebpf4jnsgd1na2vs0mg"},{"bike_id":"a7c9f70f-9a0d-416c-b8fd-c3c4e2af0fcb","system_id":"levelo_inurba_marseille","lat":43.21756,"lon":5.34603,"is_reserved":false,"is_disabled":false,"rental_uris":{"android":"levelo://app?vid=a7c9f70f-9a0d-416c-b8fd-c3c4e2af0fcb","ios":"levelo://app?vid=a7c9f70f-9a0d-416c-b8fd-c3c4e2af0fcb"},"vehicle_type_id":"4","last_reported":1751897504,"current_range_meters":20000,"station_id":"st_cvj6r9ubvosntc0bgbag","pricing_plan_id":"cebpf4jnsgd1na2vs0mg"},{"bike_id":"70ab24e6-8b5b-41e9-948d-483273272777","system_id":"levelo_inurba_marseille","lat":43.29871,"lon":5.36612,"is_reserved":false,"is_disabled":false,"rental_uris":{"android":"levelo://app?vid=70ab24e6-8b5b-41e9-948d-483273272777","ios":"levelo://app?vid=70ab24e6-8b5b-41e9-948d-483273272777"},"vehicle_type_id":"4","last_reported":1751897504,"current_range_meters":20400,"station_id":"ce4bgn12rcd13ifvqbt0","pricing_plan_id":"cebpf4jnsgd1na2vs0mg"},{"bike_id":"f78e9bdc-16d5-498e-ac97-8103486ab868","system_id":"levelo_inurba_marseille","lat":43.30595,"lon":5.37209,"is_reserved":false,"is_disabled":false,"rental_uris":{"android":"levelo://app?vid=f78e9bdc-16d5-498e-ac97-8103486ab868","ios":"levelo://app?vid=f78e9bdc-16d5-498e-ac97-8103486ab868"},"vehicle_type_id":"4","last_reported":1751897504,"current_range_meters":20400,"station_id":"ce4bgqh2rcd13ifvqc4g","pricing_plan_id":"cebpf4jnsgd1na2vs0mg"},{"bike_id":"f98659e0-572a-48ad-aaa7-79bddbd4ee9b","system_id":"levelo_inurba_marseille","lat":43.29045,"lon":5.35909,"is_reserved":false,"is_disabled":false,"rental_uris":{"android":"levelo://app?vid=f98659e0-572a-48ad-aaa7-79bddbd4ee9b","ios":"levelo://app?vid=f98659e0-572a-48ad-aaa7-79bddbd4ee9b"},"vehicle_type_id":"4","last_reported":1751897504,"current_range_meters":20400,"station_id":"ce4bha92rcd13ifvqeg0","pricing_plan_id":"cebpf4jnsgd1na2vs0mg"},{"bike_id":"2695c39e-6304-4770-aa91-558309af57af","system_id":"levelo_inurba_marseille","lat":43.27995,"lon":5.40006,"is_reserved":false,"is_disabled":false,"rental_uris":{"android":"levelo://app?vid=2695c39e-6304-4770-aa91-558309af57af","ios":"levelo://app?vid=2695c39e-6304-4770-aa91-558309af57af"},"vehicle_type_id":"4","last_reported":1751897504,"current_range_meters":20400,"station_id":"ce4bho92rcd13ifvqh4g","pricing_plan_id":"cebpf4jnsgd1na2vs0mg"},{"bike_id":"35d41f41-e942-42c5-97f1-40ccdd96f7a4","system_id":"levelo_inurba_marseille","lat":43.21189,"lon":5.35082,"is_reserved":false,"is_disabled":false,"rental_uris":{"android":"levelo://app?vid=35d41f41-e942-42c5-97f1-40ccdd96f7a4","ios":"levelo://app?vid=35d41f41-e942-42c5-97f1-40ccdd96f7a4"},"vehicle_type_id":"4","last_reported":1751897504,"current_range_meters":20400,"station_id":"st_cvj6sg6p6f1abm77japg","pricing_plan_id":"cebpf4jnsgd1na2vs0mg"},{"bike_id":"a8186e13-8322-472a-8a33-490343db9ddd","system_id":"levelo_inurba_marseille","lat":43.30864,"lon":5.37205,"is_reserved":false,"is_disabled":false,"rental_uris":{"android":"levelo://app?vid=a8186e13-8322-472a-8a33-490343db9ddd","ios":"levelo://app?vid=a8186e13-8322-472a-8a33-490343db9ddd"},"vehicle_type_id":"4","last_reported":1751897504,"current_range_meters":20800,"station_id":"","pricing_plan_id":"cebpf4jnsgd1na2vs0mg"},{"bike_id":"68401c9b-e02d-416c-8bfe-5b31c7898105","system_id":"levelo_inurba_marseille","lat":43.27945,"lon":5.41049,"is_reserved":false,"is_disabled":false,"rental_uris":{"android":"levelo://app?vid=68401c9b-e02d-416c-8bfe-5b31c7898105","ios":"levelo://app?vid=68401c9b-e02d-416c-8bfe-5b31c7898105"},"vehicle_type_id":"4","last_reported":1751897504,"current_range_meters":20800,"station_id":"ce4bhnp2rcd13ifvqh0g","pricing_plan_id":"cebpf4jnsgd1na2vs0mg"},{"bike_id":"5a1922df-471e-42d8-b225-6e50989a2d75","system_id":"levelo_inurba_marseille","lat":43.29531,"lon":5.38539,"is_reserved":false,"is_disabled":false,"rental_uris":{"android":"levelo://app?vid=5a1922df-471e-42d8-b225-6e50989a2d75","ios":"levelo://app?vid=5a1922df-471e-42d8-b225-6e50989a2d75"},"vehicle_type_id":"4","last_reported":1751897504,"current_range_meters":21600,"station_id":"ce4bgih2rcd13ifvqba0","pricing_plan_id":"cebpf4jnsgd1na2vs0mg"},{"bike_id":"d788db4a-cc21-471a-a719-b5ef4cfc51cd","system_id":"levelo_inurba_marseille","lat":43.28945,"lon":5.39637,"is_reserved":false,"is_disabled":false,"rental_uris":{"android":"levelo://app?vid=d788db4a-cc21-471a-a719-b5ef4cfc51cd","ios":"levelo://app?vid=d788db4a-cc21-471a-a719-b5ef4cfc51cd"},"vehicle_type_id":"4","last_reported":1751897504,"current_range_meters":21600,"station_id":"ce4bh3h2rcd13ifvqdn0","pricing_plan_id":"cebpf4jnsgd1na2vs0mg"},{"bike_id":"da3c16a7-1722-44ec-a60c-bdcaac1fbdad","system_id":"levelo_inurba_marseille","lat":43.28619,"lon":5.35106,"is_reserved":false,"is_disabled":false,"rental_uris":{"android":"levelo://app?vid=da3c16a7-1722-44ec-a60c-bdcaac1fbdad","ios":"levelo://app?vid=da3c16a7-1722-44ec-a60c-bdcaac1fbdad"},"vehicle_type_id":"4","last_reported":1751897504,"current_range_meters":21600,"station_id":"ce4bhch2rcd13ifvqeug","pricing_plan_id":"cebpf4jnsgd1na2vs0mg"},{"bike_id":"8b9e185e-8ad6-4557-804a-351b80bcdd17","system_id":"levelo_inurba_marseille","lat":43.26684,"lon":5.38273,"is_reserved":false,"is_disabled":false,"rental_uris":{"android":"levelo://app?vid=8b9e185e-8ad6-4557-804a-351b80bcdd17","ios":"levelo://app?vid=8b9e185e-8ad6-4557-804a-351b80bcdd17"},"vehicle_type_id":"4","last_reported":1751897504,"current_range_meters":21600,"station_id":"ce4bhg92rcd13ifvqf90","pricing_plan_id":"cebpf4jnsgd1na2vs0mg"},{"bike_id":"49ed7bda-465b-47ad-8f5e-76769a5d169c","system_id":"levelo_inurba_marseille","lat":43.24072,"lon":5.37762,"is_reserved":false,"is_disabled":false,"rental_uris":{"android":"levelo://app?vid=49ed7bda-465b-47ad-8f5e-76769a5d169c","ios":"levelo://app?vid=49ed7bda-465b-47ad-8f5e-76769a5d169c"},"vehicle_type_id":"4","last_reported":1751897504,"current_range_meters":21600,"station_id":"ce4bhnp2rcd13ifvqgvg","pricing_plan_id":"cebpf4jnsgd1na2vs0mg"},{"bike_id":"8ebdf676-362f-4df9-8656-c995ef8ade51","system_id":"levelo_inurba_marseille","lat":43.24167,"lon":5.36394,"is_reserved":false,"is_disabled":false,"rental_uris":{"android":"levelo://app?vid=8ebdf676-362f-4df9-8656-c995ef8ade51","ios":"levelo://app?vid=8ebdf676-362f-4df9-8656-c995ef8ade51"},"vehicle_type_id":"4","last_reported":1751897504,"current_range_meters":21600,"station_id":"cpo36qri1sfpv3e86is0","pricing_plan_id":"cebpf4jnsgd1na2vs0mg"},{"bike_id":"b287377f-3d0b-47ac-86fe-9e0dfc1563de","system_id":"levelo_inurba_marseille","lat":43.22509,"lon":5.34764,"is_reserved":false,"is_disabled":false,"rental_uris":{"android":"levelo://app?vid=b287377f-3d0b-47ac-86fe-9e0dfc1563de","ios":"levelo://app?vid=b287377f-3d0b-47ac-86fe-9e0dfc1563de"},"vehicle_type_id":"4","last_reported":1751897504,"current_range_meters":21600,"station_id":"st_cvj5dfep6f1abm77gieg","pricing_plan_id":"cebpf4jnsgd1na2vs0mg"},{"bike_id":"ea7df389-5dc0-4c58-88fe-80a5af035925","system_id":"levelo_inurba_marseille","lat":43.29847,"lon":5.36409,"is_reserved":false,"is_disabled":false,"rental_uris":{"android":"levelo://app?vid=ea7df389-5dc0-4c58-88fe-80a5af035925","ios":"levelo://app?vid=ea7df389-5dc0-4c58-88fe-80a5af035925"},"vehicle_type_id":"4","last_reported":1751897504,"current_range_meters":22000,"station_id":"","pricing_plan_id":"cebpf4jnsgd1na2vs0mg"},{"bike_id":"b0821e08-083d-4251-a435-ece019a32c69","system_id":"levelo_inurba_marseille","lat":43.29322,"lon":5.37187,"is_reserved":false,"is_disabled":false,"rental_uris":{"android":"levelo://app?vid=b0821e08-083d-4251-a435-ece019a32c69","ios":"levelo://app?vid=b0821e08-083d-4251-a435-ece019a32c69"},"vehicle_type_id":"4","last_reported":1751897504,"current_range_meters":22000,"station_id":"ce4bgh92rcd13ifvqb40","pricing_plan_id":"cebpf4jnsgd1na2vs0mg"},{"bike_id":"02b81e79-aff6-493b-aa3b-80474d39ed13","system_id":"levelo_inurba_marseille","lat":43.29168,"lon":5.37145,"is_reserved":false,"is_disabled":false,"rental_uris":{"android":"levelo://app?vid=02b81e79-aff6-493b-aa3b-80474d39ed13","ios":"levelo://app?vid=02b81e79-aff6-493b-aa3b-80474d39ed13"},"vehicle_type_id":"4","last_reported":1751897504,"current_range_meters":22000,"station_id":"ce4bha92rcd13ifvqeh0","pricing_plan_id":"cebpf4jnsgd1na2vs0mg"},{"bike_id":"0cc3231e-ffee-4111-bbf5-1fd80b1e8f64","system_id":"levelo_inurba_marseille","lat":43.28863,"lon":5.35841,"is_reserved":false,"is_disabled":false,"rental_uris":{"android":"levelo://app?vid=0cc3231e-ffee-4111-bbf5-1fd80b1e8f64","ios":"levelo://app?vid=0cc3231e-ffee-4111-bbf5-1fd80b1e8f64"},"vehicle_type_id":"4","last_reported":1751897504,"current_range_meters":22000,"station_id":"ce4bhb12rcd13ifvqem0","pricing_plan_id":"cebpf4jnsgd1na2vs0mg"},{"bike_id":"f773ebc2-8912-4539-9156-9719f3ff1e1d","system_id":"levelo_inurba_marseille","lat":43.28413,"lon":5.34992,"is_reserved":false,"is_disabled":false,"rental_uris":{"android":"levelo://app?vid=f773ebc2-8912-4539-9156-9719f3ff1e1d","ios":"levelo://app?vid=f773ebc2-8912-4539-9156-9719f3ff1e1d"},"vehicle_type_id":"4","last_reported":1751897504,"current_range_meters":22000,"station_id":"ce4bhbh2rcd13ifvqepg","pricing_plan_id":"cebpf4jnsgd1na2vs0mg"},{"bike_id":"d2c279f6-e81a-4083-8034-a0b1121e6f50","system_id":"levelo_inurba_marseille","lat":43.25582,"lon":5.3823,"is_reserved":false,"is_disabled":false,"rental_uris":{"android":"levelo://app?vid=d2c279f6-e81a-4083-8034-a0b1121e6f50","ios":"levelo://app?vid=d2c279f6-e81a-4083-8034-a0b1121e6f50"},"vehicle_type_id":"4","last_reported":1751897504,"current_range_meters":22000,"station_id":"ce4bhih2rcd13ifvqfs0","pricing_plan_id":"cebpf4jnsgd1na2vs0mg"},{"bike_id":"63fef417-faad-45ec-917e-736bc9f219ae","system_id":"levelo_inurba_marseille","lat":43.30084,"lon":5.39075,"is_reserved":false,"is_disabled":false,"rental_uris":{"android":"levelo://app?vid=63fef417-faad-45ec-917e-736bc9f219ae","ios":"levelo://app?vid=63fef417-faad-45ec-917e-736bc9f219ae"},"vehicle_type_id":"4","last_reported":1751897504,"current_range_meters":22400,"station_id":"ce4bh192rcd13ifvqdb0","pricing_plan_id":"cebpf4jnsgd1na2vs0mg"},{"bike_id":"4302d792-8722-42b0-b61f-224824faa414","system_id":"levelo_inurba_marseille","lat":43.28847,"lon":5.35837,"is_reserved":false,"is_disabled":false,"rental_uris":{"android":"levelo://app?vid=4302d792-8722-42b0-b61f-224824faa414","ios":"levelo://app?vid=4302d792-8722-42b0-b61f-224824faa414"},"vehicle_type_id":"4","last_reported":1751897504,"current_range_meters":22400,"station_id":"ce4bhb12rcd13ifvqem0","pricing_plan_id":"cebpf4jnsgd1na2vs0mg"},{"bike_id":"6ec6d991-05db-4193-a8b3-dcfd8f81ab5a","system_id":"levelo_inurba_marseille","lat":43.30205,"lon":5.37642,"is_reserved":false,"is_disabled":false,"rental_uris":{"android":"levelo://app?vid=6ec6d991-05db-4193-a8b3-dcfd8f81ab5a","ios":"levelo://app?vid=6ec6d991-05db-4193-a8b3-dcfd8f81ab5a"},"vehicle_type_id":"4","last_reported":1751897504,"current_range_meters":22800,"station_id":"","pricing_plan_id":"cebpf4jnsgd1na2vs0mg"},{"bike_id":"d6d0ea9c-a8ce-4c5c-8cc1-bbb995dc1da8","system_id":"levelo_inurba_marseille","lat":43.21765,"lon":5.34682,"is_reserved":false,"is_disabled":false,"rental_uris":{"android":"levelo://app?vid=d6d0ea9c-a8ce-4c5c-8cc1-bbb995dc1da8","ios":"levelo://app?vid=d6d0ea9c-a8ce-4c5c-8cc1-bbb995dc1da8"},"vehicle_type_id":"4","last_reported":1751897504,"current_range_meters":22800,"station_id":"","pricing_plan_id":"cebpf4jnsgd1na2vs0mg"},{"bike_id":"f5c16f07-bc6f-4121-91a7-5ad90eec4f34","system_id":"levelo_inurba_marseille","lat":43.31209,"lon":5.37326,"is_reserved":false,"is_disabled":false,"rental_uris":{"android":"levelo://app?vid=f5c16f07-bc6f-4121-91a7-5ad90eec4f34","ios":"levelo://app?vid=f5c16f07-bc6f-4121-91a7-5ad90eec4f34"},"vehicle_type_id":"4","last_reported":1751897504,"current_range_meters":22800,"station_id":"","pricing_plan_id":"cebpf4jnsgd1na2vs0mg"},{"bike_id":"db3ab07f-7cec-4169-97bd-1add1bdc5adc","system_id":"levelo_inurba_marseille","lat":43.30803,"lon":5.38163,"is_reserved":false,"is_disabled":false,"rental_uris":{"android":"levelo://app?vid=db3ab07f-7cec-4169-97bd-1add1bdc5adc","ios":"levelo://app?vid=db3ab07f-7cec-4169-97bd-1add1bdc5adc"},"vehicle_type_id":"4","last_reported":1751897504,"current_range_meters":22800,"station_id":"ce4bgt12rcd13ifvqce0","pricing_plan_id":"cebpf4jnsgd1na2vs0mg"},{"bike_id":"bdb8b5b0-452c-44d5-8d53-a16bb769a719","system_id":"levelo_inurba_marseille","lat":43.30427,"lon":5.39745,"is_reserved":false,"is_disabled":false,"rental_uris":{"android":"levelo://app?vid=bdb8b5b0-452c-44d5-8d53-a16bb769a719","ios":"levelo://app?vid=bdb8b5b0-452c-44d5-8d53-a16bb769a719"},"vehicle_type_id":"4","last_reported":1751897504,"current_range_meters":22800,"station_id":"ce4bh092rcd13ifvqd20","pricing_plan_id":"cebpf4jnsgd1na2vs0mg"},{"bike_id":"2231be74-4a55-43bf-8da0-40a82668e79e","system_id":"levelo_inurba_marseille","lat":43.2826,"lon":5.35065,"is_reserved":false,"is_disabled":false,"rental_uris":{"android":"levelo://app?vid=2231be74-4a55-43bf-8da0-40a82668e79e","ios":"levelo://app?vid=2231be74-4a55-43bf-8da0-40a82668e79e"},"vehicle_type_id":"4","last_reported":1751897504,"current_range_meters":22800,"station_id":"ce4bhbp2rcd13ifvqerg","pricing_plan_id":"cebpf4jnsgd1na2vs0mg"},{"bike_id":"e4793d5e-b4cd-4c12-b9d4-446cb97752b9","system_id":"levelo_inurba_marseille","lat":43.292745,"lon":5.39054,"is_reserved":false,"is_disabled":false,"rental_uris":{"android":"levelo://app?vid=e4793d5e-b4cd-4c12-b9d4-446cb97752b9","ios":"levelo://app?vid=e4793d5e-b4cd-4c12-b9d4-446cb97752b9"},"vehicle_type_id":"4","last_reported":1751897504,"current_range_meters":23200,"station_id":"","pricing_plan_id":"cebpf4jnsgd1na2vs0mg"},{"bike_id":"7d189fb6-c2de-46be-aa41-a048bc00b4f1","system_id":"levelo_inurba_marseille","lat":43.296615,"lon":5.373966,"is_reserved":false,"is_disabled":false,"rental_uris":{"android":"levelo://app?vid=7d189fb6-c2de-46be-aa41-a048bc00b4f1","ios":"levelo://app?vid=7d189fb6-c2de-46be-aa41-a048bc00b4f1"},"vehicle_type_id":"4","last_reported":1751897504,"current_range_meters":23200,"station_id":"","pricing_plan_id":"cebpf4jnsgd1na2vs0mg"},{"bike_id":"86b3d048-1221-4210-845e-5cedcf68b48a","system_id":"levelo_inurba_marseille","lat":43.29919,"lon":5.37492,"is_reserved":false,"is_disabled":false,"rental_uris":{"android":"levelo://app?vid=86b3d048-1221-4210-845e-5cedcf68b48a","ios":"levelo://app?vid=86b3d048-1221-4210-845e-5cedcf68b48a"},"vehicle_type_id":"4","last_reported":1751897504,"current_range_meters":23200,"station_id":"ce4bgjh2rcd13ifvqbg0","pricing_plan_id":"cebpf4jnsgd1na2vs0mg"},{"bike_id":"c2b72fe0-bae6-4c7b-ad48-9e771b203dc8","system_id":"levelo_inurba_marseille","lat":43.31355,"lon":5.38474,"is_reserved":false,"is_disabled":false,"rental_uris":{"android":"levelo://app?vid=c2b72fe0-bae6-4c7b-ad48-9e771b203dc8","ios":"levelo://app?vid=c2b72fe0-bae6-4c7b-ad48-9e771b203dc8"},"vehicle_type_id":"4","last_reported":1751897504,"current_range_meters":23200,"station_id":"ce4bgt92rcd13ifvqcf0","pricing_plan_id":"cebpf4jnsgd1na2vs0mg"},{"bike_id":"cc1b2903-dac3-4bba-a0d6-c28034bf4a29","system_id":"levelo_inurba_marseille","lat":43.28414,"lon":5.34993,"is_reserved":false,"is_disabled":false,"rental_uris":{"android":"levelo://app?vid=cc1b2903-dac3-4bba-a0d6-c28034bf4a29","ios":"levelo://app?vid=cc1b2903-dac3-4bba-a0d6-c28034bf4a29"},"vehicle_type_id":"4","last_reported":1751897504,"current_range_meters":23200,"station_id":"ce4bhbh2rcd13ifvqepg","pricing_plan_id":"cebpf4jnsgd1na2vs0mg"},{"bike_id":"a97200b5-1476-4b36-93cf-5e275f32ebf6","system_id":"levelo_inurba_marseille","lat":43.24526,"lon":5.39526,"is_reserved":false,"is_disabled":false,"rental_uris":{"android":"levelo://app?vid=a97200b5-1476-4b36-93cf-5e275f32ebf6","ios":"levelo://app?vid=a97200b5-1476-4b36-93cf-5e275f32ebf6"},"vehicle_type_id":"4","last_reported":1751897504,"current_range_meters":23200,"station_id":"ce4bhlp2rcd13ifvqgjg","pricing_plan_id":"cebpf4jnsgd1na2vs0mg"},{"bike_id":"56eb3fdf-ea87-4fcf-85df-3680fa66363e","system_id":"levelo_inurba_marseille","lat":43.22508,"lon":5.34784,"is_reserved":false,"is_disabled":false,"rental_uris":{"android":"levelo://app?vid=56eb3fdf-ea87-4fcf-85df-3680fa66363e","ios":"levelo://app?vid=56eb3fdf-ea87-4fcf-85df-3680fa66363e"},"vehicle_type_id":"4","last_reported":1751897504,"current_range_meters":23200,"station_id":"st_cvj5dfep6f1abm77gieg","pricing_plan_id":"cebpf4jnsgd1na2vs0mg"},{"bike_id":"bbca0986-aa7a-4363-940e-5dd8032bf40e","system_id":"levelo_inurba_marseille","lat":43.21759,"lon":5.34572,"is_reserved":false,"is_disabled":false,"rental_uris":{"android":"levelo://app?vid=bbca0986-aa7a-4363-940e-5dd8032bf40e","ios":"levelo://app?vid=bbca0986-aa7a-4363-940e-5dd8032bf40e"},"vehicle_type_id":"4","last_reported":1751897504,"current_range_meters":23200,"station_id":"st_cvj6r9ubvosntc0bgbag","pricing_plan_id":"cebpf4jnsgd1na2vs0mg"},{"bike_id":"dd424475-1b09-4cb5-b79b-f20728299dd6","system_id":"levelo_inurba_marseille","lat":43.21207,"lon":5.35059,"is_reserved":false,"is_disabled":false,"rental_uris":{"android":"levelo://app?vid=dd424475-1b09-4cb5-b79b-f20728299dd6","ios":"levelo://app?vid=dd424475-1b09-4cb5-b79b-f20728299dd6"},"vehicle_type_id":"4","last_reported":1751897504,"current_range_meters":23200,"station_id":"st_cvj6sg6p6f1abm77japg","pricing_plan_id":"cebpf4jnsgd1na2vs0mg"},{"bike_id":"d0f90c24-dd03-411b-9731-55305f76b7c8","system_id":"levelo_inurba_marseille","lat":43.21202,"lon":5.3508,"is_reserved":false,"is_disabled":false,"rental_uris":{"android":"levelo://app?vid=d0f90c24-dd03-411b-9731-55305f76b7c8","ios":"levelo://app?vid=d0f90c24-dd03-411b-9731-55305f76b7c8"},"vehicle_type_id":"4","last_reported":1751897504,"current_range_meters":23200,"station_id":"st_cvj6sg6p6f1abm77japg","pricing_plan_id":"cebpf4jnsgd1na2vs0mg"},{"bike_id":"06feb6af-5eb5-49ba-8d41-8d2f4dbe1ee1","system_id":"levelo_inurba_marseille","lat":43.2994,"lon":5.36562,"is_reserved":false,"is_disabled":false,"rental_uris":{"android":"levelo://app?vid=06feb6af-5eb5-49ba-8d41-8d2f4dbe1ee1","ios":"levelo://app?vid=06feb6af-5eb5-49ba-8d41-8d2f4dbe1ee1"},"vehicle_type_id":"4","last_reported":1751897504,"current_range_meters":24000,"station_id":"","pricing_plan_id":"cebpf4jnsgd1na2vs0mg"},{"bike_id":"10dbcd6b-ba23-4979-b008-5061f98b6d89","system_id":"levelo_inurba_marseille","lat":43.2992,"lon":5.37476,"is_reserved":false,"is_disabled":false,"rental_uris":{"android":"levelo://app?vid=10dbcd6b-ba23-4979-b008-5061f98b6d89","ios":"levelo://app?vid=10dbcd6b-ba23-4979-b008-5061f98b6d89"},"vehicle_type_id":"4","last_reported":1751897504,"current_range_meters":24000,"station_id":"ce4bgjh2rcd13ifvqbg0","pricing_plan_id":"cebpf4jnsgd1na2vs0mg"},{"bike_id":"b0d656ed-2c63-4812-91d4-3f355e3e39e7","system_id":"levelo_inurba_marseille","lat":43.31493,"lon":5.37312,"is_reserved":false,"is_disabled":false,"rental_uris":{"android":"levelo://app?vid=b0d656ed-2c63-4812-91d4-3f355e3e39e7","ios":"levelo://app?vid=b0d656ed-2c63-4812-91d4-3f355e3e39e7"},"vehicle_type_id":"4","last_reported":1751897504,"current_range_meters":24000,"station_id":"ce4bgt12rcd13ifvqcd0","pricing_plan_id":"cebpf4jnsgd1na2vs0mg"},{"bike_id":"e258d0bc-abe9-4899-b2dc-48999035e364","system_id":"levelo_inurba_marseille","lat":43.30282,"lon":5.37702,"is_reserved":false,"is_disabled":false,"rental_uris":{"android":"levelo://app?vid=e258d0bc-abe9-4899-b2dc-48999035e364","ios":"levelo://app?vid=e258d0bc-abe9-4899-b2dc-48999035e364"},"vehicle_type_id":"4","last_reported":1751897504,"current_range_meters":24000,"station_id":"ce4bguh2rcd13ifvqcj0","pricing_plan_id":"cebpf4jnsgd1na2vs0mg"},{"bike_id":"9ced161e-3397-4ef7-87bd-1b22305f26da","system_id":"levelo_inurba_marseille","lat":43.28619,"lon":5.35103,"is_reserved":false,"is_disabled":false,"rental_uris":{"android":"levelo://app?vid=9ced161e-3397-4ef7-87bd-1b22305f26da","ios":"levelo://app?vid=9ced161e-3397-4ef7-87bd-1b22305f26da"},"vehicle_type_id":"4","last_reported":1751897504,"current_range_meters":24000,"station_id":"ce4bhch2rcd13ifvqeug","pricing_plan_id":"cebpf4jnsgd1na2vs0mg"},{"bike_id":"e3c20c7c-b10f-4351-bcef-66585c9db2a2","system_id":"levelo_inurba_marseille","lat":43.26678,"lon":5.38267,"is_reserved":false,"is_disabled":false,"rental_uris":{"android":"levelo://app?vid=e3c20c7c-b10f-4351-bcef-66585c9db2a2","ios":"levelo://app?vid=e3c20c7c-b10f-4351-bcef-66585c9db2a2"},"vehicle_type_id":"4","last_reported":1751897504,"current_range_meters":24000,"station_id":"ce4bhg92rcd13ifvqf90","pricing_plan_id":"cebpf4jnsgd1na2vs0mg"},{"bike_id":"1e91cee9-7d4a-458c-9805-68ef6c30eb40","system_id":"levelo_inurba_marseille","lat":43.21741,"lon":5.34614,"is_reserved":false,"is_disabled":false,"rental_uris":{"android":"levelo://app?vid=1e91cee9-7d4a-458c-9805-68ef6c30eb40","ios":"levelo://app?vid=1e91cee9-7d4a-458c-9805-68ef6c30eb40"},"vehicle_type_id":"4","last_reported":1751897504,"current_range_meters":24000,"station_id":"st_cvj6r9ubvosntc0bgbag","pricing_plan_id":"cebpf4jnsgd1na2vs0mg"},{"bike_id":"b6d9b946-f66a-4c6f-96e5-5d23e176360c","system_id":"levelo_inurba_marseille","lat":43.31306,"lon":5.38201,"is_reserved":false,"is_disabled":false,"rental_uris":{"android":"levelo://app?vid=b6d9b946-f66a-4c6f-96e5-5d23e176360c","ios":"levelo://app?vid=b6d9b946-f66a-4c6f-96e5-5d23e176360c"},"vehicle_type_id":"4","last_reported":1751897504,"current_range_meters":24400,"station_id":"","pricing_plan_id":"cebpf4jnsgd1na2vs0mg"},{"bike_id":"c026958a-2c62-4268-9db7-7205b4cc9322","system_id":"levelo_inurba_marseille","lat":43.21263,"lon":5.35015,"is_reserved":false,"is_disabled":false,"rental_uris":{"android":"levelo://app?vid=c026958a-2c62-4268-9db7-7205b4cc9322","ios":"levelo://app?vid=c026958a-2c62-4268-9db7-7205b4cc9322"},"vehicle_type_id":"4","last_reported":1751897504,"current_range_meters":24400,"station_id":"","pricing_plan_id":"cebpf4jnsgd1na2vs0mg"},{"bike_id":"b2caa530-bb19-4cc6-a6bd-61e3e1d7432e","system_id":"levelo_inurba_marseille","lat":43.33763,"lon":5.37461,"is_reserved":false,"is_disabled":false,"rental_uris":{"android":"levelo://app?vid=b2caa530-bb19-4cc6-a6bd-61e3e1d7432e","ios":"levelo://app?vid=b2caa530-bb19-4cc6-a6bd-61e3e1d7432e"},"vehicle_type_id":"4","last_reported":1751897504,"current_range_meters":24400,"station_id":"","pricing_plan_id":"cebpf4jnsgd1na2vs0mg"},{"bike_id":"294e769e-16f1-4fb7-992c-b7b823f97168","system_id":"levelo_inurba_marseille","lat":43.30319,"lon":5.3691,"is_reserved":false,"is_disabled":false,"rental_uris":{"android":"levelo://app?vid=294e769e-16f1-4fb7-992c-b7b823f97168","ios":"levelo://app?vid=294e769e-16f1-4fb7-992c-b7b823f97168"},"vehicle_type_id":"4","last_reported":1751897504,"current_range_meters":24400,"station_id":"ce4bgqh2rcd13ifvqc5g","pricing_plan_id":"cebpf4jnsgd1na2vs0mg"},