{"last_updated":1682449531,"ttl":30,"version":"2.2","data":{"bikes":[{"bike_id":"ef6d88c8-6055-4ef5-b089-2ec2ecb5651f","system_id":"levelo_inurba_marseille","lat":43.314811,"lon":5.373104,"is_reserved":false,"is_disabled":false,"rental_uris":{"android":"levelo://app?vid=ef6d88c8-6055-4ef5-b089-2ec2ecb5651f","ios":"levelo://app?vid=ef6d88c8-6055-4ef5-b089-2ec2ecb5651f"},"vehicle_type_id":"4","last_reported":1682449532,"current_range_meters":6400,"station_id":"ce4bgt12rcd13ifvqcd0","pricing_plan_id":"free"},{"bike_id":"7d662872-4beb-49d3-92a3-d5dc859ca1b0","system_id":"levelo_inurba_marseille","lat":43.314811,"lon":5.373103,"is_reserved":false,"is_disabled":false,"rental_uris":{"android":"levelo://app?vid=7d662872-4beb-49d3-92a3-d5dc859ca1b0","ios":"levelo://app?vid=7d662872-4beb-49d3-92a3-d5dc859ca1b0"},"vehicle_type_id":"4","last_reported":1682449532,"current_range_meters":14000,"station_id":"ce4bgt12rcd13ifvqcd0","pricing_plan_id":"free"},{"bike_id":"f89aac39-6785-47e2-9afa-cc4fc1978d8e","system_id":"levelo_inurba_marseille","lat":43.314811,"lon":5.373103,"is_reserved":false,"is_disabled":false,"rental_uris":{"android":"levelo://app?vid=f89aac39-6785-47e2-9afa-cc4fc1978d8e","ios":"levelo://app?vid=f89aac39-6785-47e2-9afa-cc4fc1978d8e"},"vehicle_type_id":"4","last_reported":1682449532,"current_range_meters":8400,"station_id":"ce4bgt12rcd13ifvqcd0","pricing_plan_id":"free"},{"bike_id":"26e814de-ede9-4047-8f6f-7a6b0b1c4d2b","system_id":"levelo_inurba_marseille","lat":43.314811,"lon":5.373103,"is_reserved":false,"is_disabled":false,"rental_uris":{"android":"levelo://app?vid=26e814de-ede9-4047-8f6f-7a6b0b1c4d2b","ios":"levelo://app?vid=26e814de-ede9-4047-8f6f-7a6b0b1c4d2b"},"vehicle_type_id":"4","last_reported":1682449532,"current_range_meters":28800,"station_id":"ce4bgt12rcd13ifvqcd0","pricing_plan_id":"free"},{"bike_id":"63ecc00c-f688-4a0c-82a8-4d0e38308463","system_id":"levelo_inurba_marseille","lat":43.30548,"lon":5.36555,"is_reserved":false,"is_disabled":false,"rental_uris":{"android":"levelo://app?vid=63ecc00c-f688-4a0c-82a8-4d0e38308463","ios":"levelo://app?vid=63ecc00c-f688-4a0c-82a8-4d0e38308463"},"vehicle_type_id":"4","last_reported":1682449532,"current_range_meters":31200,"station_id":"","pricing_plan_id":"free"},{"bike_id":"986bc8e2-3b57-4462-a9e8-bdf9b74026f1","system_id":"levelo_inurba_marseille","lat":43.30544,"lon":5.36533,"is_reserved":false,"is_disabled":false,"rental_uris":{"android":"levelo://app?vid=986bc8e2-3b57-4462-a9e8-bdf9b74026f1","ios":"levelo://app?vid=986bc8e2-3b57-4462-a9e8-bdf9b74026f1"},"vehicle_type_id":"4","last_reported":1682449532,"current_range_meters":31200,"station_id":"","pricing_plan_id":"free"},{"bike_id":"e062a634-cf12-40d9-b09e-4505e7ac4c29","system_id":"levelo_inurba_marseille","lat":43.30534,"lon":5.36707,"is_reserved":false,"is_disabled":false,"rental_uris":{"android":"levelo://app?vid=e062a634-cf12-40d9-b09e-4505e7ac4c29","ios":"levelo://app?vid=e062a634-cf12-40d9-b09e-4505e7ac4c29"},"vehicle_type_id":"4","last_reported":1682449532,"current_range_meters":6400,"station_id":"ce4bgrp2rcd13ifvqc9g","pricing_plan_id":"free"},{"bike_id":"d755aa50-8a7f-44ba-84fd-b24fbc6ec7f3","system_id":"levelo_inurba_marseille","lat":43.305706,"lon":5.365654,"is_reserved":false,"is_disabled":false,"rental_uris":{"android":"levelo://app?vid=d755aa50-8a7f-44ba-84fd-b24fbc6ec7f3","ios":"levelo://app?vid=d755aa50-8a7f-44ba-84fd-b24fbc6ec7f3"},"vehicle_type_id":"4","last_reported":1682449532,"current_range_meters":5200,"station_id":"ce4bgs12rcd13ifvqcag","pricing_plan_id":"free"},{"bike_id":"d0aab3e3-22b6-416d-be56-97a1d5bd6dc1","system_id":"levelo_inurba_marseille","lat":43.305989,"lon":5.37225,"is_reserved":false,"is_disabled":false,"rental_uris":{"android":"levelo://app?vid=d0aab3e3-22b6-416d-be56-97a1d5bd6dc1","ios":"levelo://app?vid=d0aab3e3-22b6-416d-be56-97a1d5bd6dc1"},"vehicle_type_id":"4","last_reported":1682449532,"current_range_meters":23200,"station_id":"ce4bgqh2rcd13ifvqc4g","pricing_plan_id":"free"},{"bike_id":"00450a81-c069-48c8-b486-a517418f198e","system_id":"levelo_inurba_marseille","lat":43.311131,"lon":5.377651,"is_reserved":false,"is_disabled":false,"rental_uris":{"android":"levelo://app?vid=00450a81-c069-48c8-b486-a517418f198e","ios":"levelo://app?vid=00450a81-c069-48c8-b486-a517418f198e"},"vehicle_type_id":"4","last_reported":1682449532,"current_range_meters":12800,"station_id":"ce4bgt92rcd13ifvqcg0","pricing_plan_id":"free"},{"bike_id":"f1fc5070-e262-4001-8af3-02f5be77eb3f","system_id":"levelo_inurba_marseille","lat":43.31721,"lon":5.37743,"is_reserved":false,"is_disabled":false,"rental_uris":{"android":"levelo://app?vid=f1fc5070-e262-4001-8af3-02f5be77eb3f","ios":"levelo://app?vid=f1fc5070-e262-4001-8af3-02f5be77eb3f"},"vehicle_type_id":"4","last_reported":1682449532,"current_range_meters":27600,"station_id":"ce4bgth2rcd13ifvqch0","pricing_plan_id":"free"},{"bike_id":"86849db0-2d11-41bc-8e3f-213a7e4b74c0","system_id":"levelo_inurba_marseille","lat":43.31715,"lon":5.3775,"is_reserved":false,"is_disabled":false,"rental_uris":{"android":"levelo://app?vid=86849db0-2d11-41bc-8e3f-213a7e4b74c0","ios":"levelo://app?vid=86849db0-2d11-41bc-8e3f-213a7e4b74c0"},"vehicle_type_id":"4","last_reported":1682449532,"current_range_meters":26800,"station_id":"ce4bgth2rcd13ifvqch0","pricing_plan_id":"free"},{"bike_id":"3c4e6c8c-df65-4deb-8995-f8befa733260","system_id":"levelo_inurba_marseille","lat":43.31534,"lon":5.37884,"is_reserved":false,"is_disabled":false,"rental_uris":{"android":"levelo://app?vid=3c4e6c8c-df65-4deb-8995-f8befa733260","ios":"levelo://app?vid=3c4e6c8c-df65-4deb-8995-f8befa733260"},"vehicle_type_id":"4","last_reported":1682449532,"current_range_meters":0,"station_id":"","pricing_plan_id":"free"},{"bike_id":"44b30e44-f780-471a-93ef-201229856ed8","system_id":"levelo_inurba_marseille","lat":43.315293,"lon":5.380349,"is_reserved":false,"is_disabled":false,"rental_uris":{"android":"levelo://app?vid=44b30e44-f780-471a-93ef-201229856ed8","ios":"levelo://app?vid=44b30e44-f780-471a-93ef-201229856ed8"},"vehicle_type_id":"4","last_reported":1682449532,"current_range_meters":31200,"station_id":"ce4bhsp2rcd13ifvqi50","pricing_plan_id":"free"},{"bike_id":"45cc80f7-9187-48e2-b5ce-0232127d891b","system_id":"levelo_inurba_marseille","lat":43.315289,"lon":5.380349,"is_reserved":false,"is_disabled":false,"rental_uris":{"android":"levelo://app?vid=45cc80f7-9187-48e2-b5ce-0232127d891b","ios":"levelo://app?vid=45cc80f7-9187-48e2-b5ce-0232127d891b"},"vehicle_type_id":"4","last_reported":1682449532,"current_range_meters":30400,"station_id":"ce4bhsp2rcd13ifvqi50","pricing_plan_id":"free"},{"bike_id":"7e9e8839-45fe-4fad-9be6-eeb07fd1eb61","system_id":"levelo_inurba_marseille","lat":43.315289,"lon":5.380349,"is_reserved":false,"is_disabled":false,"rental_uris":{"android":"levelo://app?vid=7e9e8839-45fe-4fad-9be6-eeb07fd1eb61","ios":"levelo://app?vid=7e9e8839-45fe-4fad-9be6-eeb07fd1eb61"},"vehicle_type_id":"4","last_reported":1682449532,"current_range_meters":25200,"station_id":"ce4bhsp2rcd13ifvqi50","pricing_plan_id":"free"},{"bike_id":"814ca9e3-5b24-4d65-b80e-f10fe4cbbeeb","system_id":"levelo_inurba_marseille","lat":43.315289,"lon":5.380349,"is_reserved":false,"is_disabled":false,"rental_uris":{"android":"levelo://app?vid=814ca9e3-5b24-4d65-b80e-f10fe4cbbeeb","ios":"levelo://app?vid=814ca9e3-5b24-4d65-b80e-f10fe4cbbeeb"},"vehicle_type_id":"4","last_reported":1682449532,"current_range_meters":4800,"station_id":"ce4bhsp2rcd13ifvqi50","pricing_plan_id":"free"},{"bike_id":"429301f6-3478-4c33-b001-db4923d358d8","system_id":"levelo_inurba_marseille","lat":43.301939,"lon":5.366286,"is_reserved":false,"is_disabled":false,"rental_uris":{"android":"levelo://app?vid=429301f6-3478-4c33-b001-db4923d358d8","ios":"levelo://app?vid=429301f6-3478-4c33-b001-db4923d358d8"},"vehicle_type_id":"4","last_reported":1682449532,"current_range_meters":8000,"station_id":"ce4bgrh2rcd13ifvqc8g","pricing_plan_id":"free"},{"bike_id":"9692a11f-dff4-4f9d-9af6-416ee9f2bd27","system_id":"levelo_inurba_marseille","lat":43.301939,"lon":5.366286,"is_reserved":false,"is_disabled":false,"rental_uris":{"android":"levelo://app?vid=9692a11f-dff4-4f9d-9af6-416ee9f2bd27","ios":"levelo://app?vid=9692a11f-dff4-4f9d-9af6-416ee9f2bd27"},"vehicle_type_id":"4","last_reported":1682449532,"current_range_meters":12400,"station_id":"ce4bgrh2rcd13ifvqc8g","pricing_plan_id":"free"},{"bike_id":"a277942b-fec4-4059-bc52-17f1bbb5963f","system_id":"levelo_inurba_marseille","lat":43.301939,"lon":5.366286,"is_reserved":false,"is_disabled":false,"rental_uris":{"android":"levelo://app?vid=a277942b-fec4-4059-bc52-17f1bbb5963f","ios":"levelo://app?vid=a277942b-fec4-4059-bc52-17f1bbb5963f"},"vehicle_type_id":"4","last_reported":1682449532,"current_range_meters":24000,"station_id":"ce4bgrh2rcd13ifvqc8g","pricing_plan_id":"free"},{"bike_id":"5b3bc5fb-f3fb-44c0-a500-2c4f3d6bba45","system_id":"levelo_inurba_marseille","lat":43.304606,"lon":5.379026,"is_reserved":false,"is_disabled":false,"rental_uris":{"android":"levelo://app?vid=5b3bc5fb-f3fb-44c0-a500-2c4f3d6bba45","ios":"levelo://app?vid=5b3bc5fb-f3fb-44c0-a500-2c4f3d6bba45"},"vehicle_type_id":"4","last_reported":1682449532,"current_range_meters":13600,"station_id":"ce4bgup2rcd13ifvqcn0","pricing_plan_id":"free"},{"bike_id":"62d08607-798a-4c07-ab2d-83f9756fb4c8","system_id":"levelo_inurba_marseille","lat":43.304606,"lon":5.379026,"is_reserved":false,"is_disabled":false,"rental_uris":{"android":"levelo://app?vid=62d08607-798a-4c07-ab2d-83f9756fb4c8","ios":"levelo://app?vid=62d08607-798a-4c07-ab2d-83f9756fb4c8"},"vehicle_type_id":"4","last_reported":1682449532,"current_range_meters":0,"station_id":"ce4bgup2rcd13ifvqcn0","pricing_plan_id":"free"},{"bike_id":"ff4b94b5-3894-4ad9-922a-d5ec641a1ad8","system_id":"levelo_inurba_marseille","lat":43.301939,"lon":5.366286,"is_reserved":false,"is_disabled":false,"rental_uris":{"android":"levelo://app?vid=ff4b94b5-3894-4ad9-922a-d5ec641a1ad8","ios":"levelo://app?vid=ff4b94b5-3894-4ad9-922a-d5ec641a1ad8"},"vehicle_type_id":"4","last_reported":1682449532,"current_range_meters":26800,"station_id":"ce4bgrh2rcd13ifvqc8g","pricing_plan_id":"free"},{"bike_id":"aaa9e142-b034-403e-bab7-5399c74857c4","system_id":"levelo_inurba_marseille","lat":43.313571,"lon":5.384829,"is_reserved":false,"is_disabled":false,"rental_uris":{"android":"levelo://app?vid=aaa9e142-b034-403e-bab7-5399c74857c4","ios":"levelo://app?vid=aaa9e142-b034-403e-bab7-5399c74857c4"},"vehicle_type_id":"4","last_reported":1682449532,"current_range_meters":7200,"station_id":"ce4bgt92rcd13ifvqcf0","pricing_plan_id":"free"},{"bike_id":"1aa9a31b-37b9-4b89-b30f-13857c66f4cd","system_id":"levelo_inurba_marseille","lat":43.299222,"lon":5.365554,"is_reserved":false,"is_disabled":false,"rental_uris":{"android":"levelo://app?vid=1aa9a31b-37b9-4b89-b30f-13857c66f4cd","ios":"levelo://app?vid=1aa9a31b-37b9-4b89-b30f-13857c66f4cd"},"vehicle_type_id":"4","last_reported":1682449532,"current_range_meters":24800,"station_id":"ce4bgm92rcd13ifvqbr0","pricing_plan_id":"free"},{"bike_id":"75cc00d2-6e72-456d-8ce8-9d0985786d6b","system_id":"levelo_inurba_marseille","lat":43.31896,"lon":5.38386,"is_reserved":false,"is_disabled":false,"rental_uris":{"android":"levelo://app?vid=75cc00d2-6e72-456d-8ce8-9d0985786d6b","ios":"levelo://app?vid=75cc00d2-6e72-456d-8ce8-9d0985786d6b"},"vehicle_type_id":"4","last_reported":1682449532,"current_range_meters":26400,"station_id":"","pricing_plan_id":"free"},{"bike_id":"a7608feb-ca57-4cbe-8eb3-7b1cc3d995d5","system_id":"levelo_inurba_marseille","lat":43.298433,"lon":5.362774,"is_reserved":false,"is_disabled":false,"rental_uris":{"android":"levelo://app?vid=a7608feb-ca57-4cbe-8eb3-7b1cc3d995d5","ios":"levelo://app?vid=a7608feb-ca57-4cbe-8eb3-7b1cc3d995d5"},"vehicle_type_id":"4","last_reported":1682449532,"current_range_meters":16400,"station_id":"ce4bgpp2rcd13ifvqc3g","pricing_plan_id":"free"},{"bike_id":"d473e08e-c100-4430-8157-dd704ac691ba","system_id":"levelo_inurba_marseille","lat":43.305364,"lon":5.384119,"is_reserved":false,"is_disabled":false,"rental_uris":{"android":"levelo://app?vid=d473e08e-c100-4430-8157-dd704ac691ba","ios":"levelo://app?vid=d473e08e-c100-4430-8157-dd704ac691ba"},"vehicle_type_id":"4","last_reported":1682449532,"current_range_meters":26000,"station_id":"ce4bgg92rcd13ifvqb30","pricing_plan_id":"free"},{"bike_id":"be3ceaf0-c428-4891-90d9-023175501e70","system_id":"levelo_inurba_marseille","lat":43.298433,"lon":5.362774,"is_reserved":false,"is_disabled":false,"rental_uris":{"android":"levelo://app?vid=be3ceaf0-c428-4891-90d9-023175501e70","ios":"levelo://app?vid=be3ceaf0-c428-4891-90d9-023175501e70"},"vehicle_type_id":"4","last_reported":1682449532,"current_range_meters":31200,"station_id":"ce4bgpp2rcd13ifvqc3g","pricing_plan_id":"free"},{"bike_id":"13374e48-b801-4685-8caa-328cb5e03f2a","system_id":"levelo_inurba_marseille","lat":43.298433,"lon":5.362774,"is_reserved":false,"is_disabled":false,"rental_uris":{"android":"levelo://app?vid=13374e48-b801-4685-8caa-328cb5e03f2a","ios":"levelo://app?vid=13374e48-b801-4685-8caa-328cb5e03f2a"},"vehicle_type_id":"4","last_reported":1682449532,"current_range_meters":15200,"station_id":"ce4bgpp2rcd13ifvqc3g","pricing_plan_id":"free"},{"bike_id":"0326fdf7-14ea-4327-a9e4-7149cd1d10f8","system_id":"levelo_inurba_marseille","lat":43.299243,"lon":5.374807,"is_reserved":false,"is_disabled":false,"rental_uris":{"android":"levelo://app?vid=0326fdf7-14ea-4327-a9e4-7149cd1d10f8","ios":"levelo://app?vid=0326fdf7-14ea-4327-a9e4-7149cd1d10f8"},"vehicle_type_id":"4","last_reported":1682449532,"current_range_meters":0,"station_id":"ce4bgjh2rcd13ifvqbg0","pricing_plan_id":"free"},{"bike_id":"3bc85822-5690-4e2c-967b-3e5403ec24e1","system_id":"levelo_inurba_marseille","lat":43.299243,"lon":5.37481,"is_reserved":false,"is_disabled":false,"rental_uris":{"android":"levelo://app?vid=3bc85822-5690-4e2c-967b-3e5403ec24e1","ios":"levelo://app?vid=3bc85822-5690-4e2c-967b-3e5403ec24e1"},"vehicle_type_id":"4","last_reported":1682449532,"current_range_meters":24800,"station_id":"ce4bgjh2rcd13ifvqbg0","pricing_plan_id":"free"},{"bike_id":"96b34a51-5eb1-4cdf-a3df-e449ed5a2916","system_id":"levelo_inurba_marseille","lat":43.299243,"lon":5.374807,"is_reserved":false,"is_disabled":false,"rental_uris":{"android":"levelo://app?vid=96b34a51-5eb1-4cdf-a3df-e449ed5a2916","ios":"levelo://app?vid=96b34a51-5eb1-4cdf-a3df-e449ed5a2916"},"vehicle_type_id":"4","last_reported":1682449532,"current_range_meters":6400,"station_id":"ce4bgjh2rcd13ifvqbg0","pricing_plan_id":"free"},{"bike_id":"909fcc92-a34a-4e66-945f-f1409d813779","system_id":"levelo_inurba_marseille","lat":43.31169,"lon":5.38717,"is_reserved":false,"is_disabled":false,"rental_uris":{"android":"levelo://app?vid=909fcc92-a34a-4e66-945f-f1409d813779","ios":"levelo://app?vid=909fcc92-a34a-4e66-945f-f1409d813779"},"vehicle_type_id":"4","last_reported":1682449532,"current_range_meters":13600,"station_id":"ce4bgv12rcd13ifvqcp0","pricing_plan_id":"free"},{"bike_id":"56498e1c-fb6c-4415-ae5c-6bb0f0b3312c","system_id":"levelo_inurba_marseille","lat":43.299243,"lon":5.374807,"is_reserved":false,"is_disabled":false,"rental_uris":{"android":"levelo://app?vid=56498e1c-fb6c-4415-ae5c-6bb0f0b3312c","ios":"levelo://app?vid=56498e1c-fb6c-4415-ae5c-6bb0f0b3312c"},"vehicle_type_id":"4","last_reported":1682449532,"current_range_meters":31200,"station_id":"ce4bgjh2rcd13ifvqbg0","pricing_plan_id":"free"},{"bike_id":"09091e78-9fa4-4452-84ac-f1eaa2804106","system_id":"levelo_inurba_marseille","lat":43.311722,"lon":5.387247,"is_reserved":false,"is_disabled":false,"rental_uris":{"android":"levelo://app?vid=09091e78-9fa4-4452-84ac-f1eaa2804106","ios":"levelo://app?vid=09091e78-9fa4-4452-84ac-f1eaa2804106"},"vehicle_type_id":"4","last_reported":1682449532,"current_range_meters":19600,"station_id":"ce4bgv12rcd13ifvqcp0","pricing_plan_id":"free"},{"bike_id":"f3e581ec-b548-452d-af88-8414e68cc0d4","system_id":"levelo_inurba_marseille","lat":43.299243,"lon":5.37481,"is_reserved":false,"is_disabled":false,"rental_uris":{"android":"levelo://app?vid=f3e581ec-b548-452d-af88-8414e68cc0d4","ios":"levelo://app?vid=f3e581ec-b548-452d-af88-8414e68cc0d4"},"vehicle_type_id":"4","last_reported":1682449532,"current_range_meters":4400,"station_id":"ce4bgjh2rcd13ifvqbg0","pricing_plan_id":"free"},{"bike_id":"f3c295e8-bae1-409d-bf6e-d964eb8927c3","system_id":"levelo_inurba_marseille","lat":43.32774,"lon":5.36702,"is_reserved":false,"is_disabled":false,"rental_uris":{"android":"levelo://app?vid=f3c295e8-bae1-409d-bf6e-d964eb8927c3","ios":"levelo://app?vid=f3c295e8-bae1-409d-bf6e-d964eb8927c3"},"vehicle_type_id":"4","last_reported":1682449532,"current_range_meters":21200,"station_id":"","pricing_plan_id":"free"},{"bike_id":"8bc41d49-0535-4b86-a768-c83590a710df","system_id":"levelo_inurba_marseille","lat":43.297774,"lon":5.370875,"is_reserved":false,"is_disabled":false,"rental_uris":{"android":"levelo://app?vid=8bc41d49-0535-4b86-a768-c83590a710df","ios":"levelo://app?vid=8bc41d49-0535-4b86-a768-c83590a710df"},"vehicle_type_id":"4","last_reported":1682449532,"current_range_meters":27200,"station_id":"ce4bgop2rcd13ifvqc1g","pricing_plan_id":"free"},{"bike_id":"77a15084-c151-4d9e-8db8-4eb1a02ee92f","system_id":"levelo_inurba_marseille","lat":43.32807,"lon":5.36692,"is_reserved":false,"is_disabled":false,"rental_uris":{"android":"levelo://app?vid=77a15084-c151-4d9e-8db8-4eb1a02ee92f","ios":"levelo://app?vid=77a15084-c151-4d9e-8db8-4eb1a02ee92f"},"vehicle_type_id":"4","last_reported":1682449532,"current_range_meters":14800,"station_id":"","pricing_plan_id":"free"},{"bike_id":"417ac905-4cc1-4e91-91ec-9fdd33afaaed","system_id":"levelo_inurba_marseille","lat":43.328371,"lon":5.366912,"is_reserved":false,"is_disabled":false,"rental_uris":{"android":"levelo://app?vid=417ac905-4cc1-4e91-91ec-9fdd33afaaed","ios":"levelo://app?vid=417ac905-4cc1-4e91-91ec-9fdd33afaaed"},"vehicle_type_id":"4","last_reported":1682449532,"current_range_meters":15200,"station_id":"ce4bhs92rcd13ifvqi0g","pricing_plan_id":"free"},{"bike_id":"4c52b8ae-ac32-46e1-8ea6-b30c4fd5ce91","system_id":"levelo_inurba_marseille","lat":43.32827,"lon":5.36676,"is_reserved":false,"is_disabled":false,"rental_uris":{"android":"levelo://app?vid=4c52b8ae-ac32-46e1-8ea6-b30c4fd5ce91","ios":"levelo://app?vid=4c52b8ae-ac32-46e1-8ea6-b30c4fd5ce91"},"vehicle_type_id":"4","last_reported":1682449532,"current_range_meters":16800,"station_id":"ce4bhs92rcd13ifvqi0g","pricing_plan_id":"free"},{"bike_id":"f5330e98-3000-4a99-b839-c61fb48a0b7d","system_id":"levelo_inurba_marseille","lat":43.328371,"lon":5.366912,"is_reserved":false,"is_disabled":false,"rental_uris":{"android":"levelo://app?vid=f5330e98-3000-4a99-b839-c61fb48a0b7d","ios":"levelo://app?vid=f5330e98-3000-4a99-b839-c61fb48a0b7d"},"vehicle_type_id":"4","last_reported":1682449532,"current_range_meters":6400,"station_id":"ce4bhs92rcd13ifvqi0g","pricing_plan_id":"free"},{"bike_id":"a07b6f04-6ed4-41f2-b90a-863cc4ca5121","system_id":"levelo_inurba_marseille","lat":43.328371,"lon":5.366912,"is_reserved":false,"is_disabled":false,"rental_uris":{"android":"levelo://app?vid=a07b6f04-6ed4-41f2-b90a-863cc4ca5121","ios":"levelo://app?vid=a07b6f04-6ed4-41f2-b90a-863cc4ca5121"},"vehicle_type_id":"4","last_reported":1682449532,"current_range_meters":20000,"station_id":"ce4bhs92rcd13ifvqi0g","pricing_plan_id":"free"},{"bike_id":"80117e7d-03ae-49e1-9afa-b1f0df9c0546","system_id":"levelo_inurba_marseille","lat":43.328371,"lon":5.366912,"is_reserved":false,"is_disabled":false,"rental_uris":{"android":"levelo://app?vid=80117e7d-03ae-49e1-9afa-b1f0df9c0546","ios":"levelo://app?vid=80117e7d-03ae-49e1-9afa-b1f0df9c0546"},"vehicle_type_id":"4","last_reported":1682449532,"current_range_meters":11600,"station_id":"ce4bhs92rcd13ifvqi0g","pricing_plan_id":"free"},{"bike_id":"d9d43933-484b-45d5-843b-63cf80635798","system_id":"levelo_inurba_marseille","lat":43.328371,"lon":5.366912,"is_reserved":false,"is_disabled":false,"rental_uris":{"android":"levelo://app?vid=d9d43933-484b-45d5-843b-63cf80635798","ios":"levelo://app?vid=d9d43933-484b-45d5-843b-63cf80635798"},"vehicle_type_id":"4","last_reported":1682449532,"current_range_meters":22000,"station_id":"ce4bhs92rcd13ifvqi0g","pricing_plan_id":"free"},{"bike_id":"f47e9305-1388-4838-94e3-4dd46bb086c2","system_id":"levelo_inurba_marseille","lat":43.328371,"lon":5.366912,"is_reserved":false,"is_disabled":false,"rental_uris":{"android":"levelo://app?vid=f47e9305-1388-4838-94e3-4dd46bb086c2","ios":"levelo://app?vid=f47e9305-1388-4838-94e3-4dd46bb086c2"},"vehicle_type_id":"4","last_reported":1682449532,"current_range_meters":19600,"station_id":"ce4bhs92rcd13ifvqi0g","pricing_plan_id":"free"},{"bike_id":"bb095569-7c3f-435a-af11-3d18055547f4","system_id":"levelo_inurba_marseille","lat":43.328371,"lon":5.366912,"is_reserved":false,"is_disabled":false,"rental_uris":{"android":"levelo://app?vid=bb095569-7c3f-435a-af11-3d18055547f4","ios":"levelo://app?vid=bb095569-7c3f-435a-af11-3d18055547f4"},"vehicle_type_id":"4","last_reported":1682449532,"current_range_meters":18000,"station_id":"ce4bhs92rcd13ifvqi0g","pricing_plan_id":"free"},{"bike_id":"3465bd78-9cf1-4302-9b2d-da15145258cd","system_id":"levelo_inurba_marseille","lat":43.328371,"lon":5.366912,"is_reserved":false,"is_disabled":false,"rental_uris":{"android":"levelo://app?vid=3465bd78-9cf1-4302-9b2d-da15145258cd","ios":"levelo://app?vid=3465bd78-9cf1-4302-9b2d-da15145258cd"},"vehicle_type_id":"4","last_reported":1682449532,"current_range_meters":13600,"station_id":"ce4bhs92rcd13ifvqi0g","pricing_plan_id":"free"},{"bike_id":"04ea76ac-c581-4b8b-9be6-f04ea62fd801","system_id":"levelo_inurba_marseille","lat":43.328371,"lon":5.366912,"is_reserved":false,"is_disabled":false,"rental_uris":{"android":"levelo://app?vid=04ea76ac-c581-4b8b-9be6-f04ea62fd801","ios":"levelo://app?vid=04ea76ac-c581-4b8b-9be6-f04ea62fd801"},"vehicle_type_id":"4","last_reported":1682449532,"current_range_meters":6000,"station_id":"ce4bhs92rcd13ifvqi0g","pricing_plan_id":"free"},{"bike_id":"30d95ef1-bfd9-46b5-81e9-795d7292a49c","system_id":"levelo_inurba_marseille","lat":43.2968,"lon":5.37291,"is_reserved":false,"is_disabled":false,"rental_uris":{"android":"levelo://app?vid=30d95ef1-bfd9-46b5-81e9-795d7292a49c","ios":"levelo://app?vid=30d95ef1-bfd9-46b5-81e9-795d7292a49c"},"vehicle_type_id":"4","last_reported":1682449532,"current_range_meters":20000,"station_id":"ce4bgk12rcd13ifvqbj0","pricing_plan_id":"free"},{"bike_id":"ea75c6aa-dacf-4201-9f4a-82f93db76186","system_id":"levelo_inurba_marseille","lat":43.2968,"lon":5.37291,"is_reserved":false,"is_disabled":false,"rental_uris":{"android":"levelo://app?vid=ea75c6aa-dacf-4201-9f4a-82f93db76186","ios":"levelo://app?vid=ea75c6aa-dacf-4201-9f4a-82f93db76186"},"vehicle_type_id":"4","last_reported":1682449532,"current_range_meters":7600,"station_id":"ce4bgk12rcd13ifvqbj0","pricing_plan_id":"free"},{"bike_id":"375b3d71-b340-4396-9e5d-72bed9e321ce","system_id":"levelo_inurba_marseille","lat":43.2968,"lon":5.37291,"is_reserved":false,"is_disabled":false,"rental_uris":{"android":"levelo://app?vid=375b3d71-b340-4396-9e5d-72bed9e321ce","ios":"levelo://app?vid=375b3d71-b340-4396-9e5d-72bed9e321ce"},"vehicle_type_id":"4","last_reported":1682449532,"current_range_meters":30800,"station_id":"ce4bgk12rcd13ifvqbj0","pricing_plan_id":"free"},{"bike_id":"8cd1b67f-375f-4274-a9ae-b5a91ccecce8","system_id":"levelo_inurba_marseille","lat":43.29779,"lon":5.37721,"is_reserved":false,"is_disabled":false,"rental_uris":{"android":"levelo://app?vid=8cd1b67f-375f-4274-a9ae-b5a91ccecce8","ios":"levelo://app?vid=8cd1b67f-375f-4274-a9ae-b5a91ccecce8"},"vehicle_type_id":"4","last_reported":1682449532,"current_range_meters":14800,"station_id":"","pricing_plan_id":"free"},{"bike_id":"01476b5c-c5a1-4c23-ae80-27aa8f5d22a8","system_id":"levelo_inurba_marseille","lat":43.296131,"lon":5.370791,"is_reserved":false,"is_disabled":false,"rental_uris":{"android":"levelo://app?vid=01476b5c-c5a1-4c23-ae80-27aa8f5d22a8","ios":"levelo://app?vid=01476b5c-c5a1-4c23-ae80-27aa8f5d22a8"},"vehicle_type_id":"4","last_reported":1682449532,"current_range_meters":31200,"station_id":"ce4bgnh2rcd13ifvqc0g","pricing_plan_id":"free"},{"bike_id":"0d0ebf86-52a6-42a7-b8ed-a4b830211a25","system_id":"levelo_inurba_marseille","lat":43.29573,"lon":5.367355,"is_reserved":false,"is_disabled":false,"rental_uris":{"android":"levelo://app?vid=0d0ebf86-52a6-42a7-b8ed-a4b830211a25","ios":"levelo://app?vid=0d0ebf86-52a6-42a7-b8ed-a4b830211a25"},"vehicle_type_id":"4","last_reported":1682449532,"current_range_meters":31200,"station_id":"ce4bgph2rcd13ifvqc2g","pricing_plan_id":"free"},{"bike_id":"71d282f0-e655-4fea-ac29-dff678d8c3f1","system_id":"levelo_inurba_marseille","lat":43.29573,"lon":5.367355,"is_reserved":false,"is_disabled":false,"rental_uris":{"android":"levelo://app?vid=71d282f0-e655-4fea-ac29-dff678d8c3f1","ios":"levelo://app?vid=71d282f0-e655-4fea-ac29-dff678d8c3f1"},"vehicle_type_id":"4","last_reported":1682449532,"current_range_meters":20000,"station_id":"ce4bgph2rcd13ifvqc2g","pricing_plan_id":"free"},{"bike_id":"2689c295-9b1b-46ff-b9e5-c9f09e83a95f","system_id":"levelo_inurba_marseille","lat":43.29573,"lon":5.367355,"is_reserved":false,"is_disabled":false,"rental_uris":{"android":"levelo://app?vid=2689c295-9b1b-46ff-b9e5-c9f09e83a95f","ios":"levelo://app?vid=2689c295-9b1b-46ff-b9e5-c9f09e83a95f"},"vehicle_type_id":"4","last_reported":1682449532,"current_range_meters":18800,"station_id":"ce4bgph2rcd13ifvqc2g","pricing_plan_id":"free"},{"bike_id":"22398558-cd44-455c-80bd-8e4d5701a770","system_id":"levelo_inurba_marseille","lat":43.29573,"lon":5.367355,"is_reserved":false,"is_disabled":false,"rental_uris":{"android":"levelo://app?vid=22398558-cd44-455c-80bd-8e4d5701a770","ios":"levelo://app?vid=22398558-cd44-455c-80bd-8e4d5701a770"},"vehicle_type_id":"4","last_reported":1682449532,"current_range_meters":20800,"station_id":"ce4bgph2rcd13ifvqc2g","pricing_plan_id":"free"},{"bike_id":"e39af1af-f949-47c5-a24f-7d8559faee21","system_id":"levelo_inurba_marseille","lat":43.29573,"lon":5.367355,"is_reserved":false,"is_disabled":false,"rental_uris":{"android":"levelo://app?vid=e39af1af-f949-47c5-a24f-7d8559faee21","ios":"levelo://app?vid=e39af1af-f949-47c5-a24f-7d8559faee21"},"vehicle_type_id":"4","last_reported":1682449532,"current_range_meters":4400,"station_id":"ce4bgph2rcd13ifvqc2g","pricing_plan_id":"free"},{"bike_id":"757cbf09-22b5-4580-8cf0-bf7497f4b9d2","system_id":"levelo_inurba_marseille","lat":43.29573,"lon":5.367355,"is_reserved":false,"is_disabled":false,"rental_uris":{"android":"levelo://app?vid=757cbf09-22b5-4580-8cf0-bf7497f4b9d2","ios":"levelo://app?vid=757cbf09-22b5-4580-8cf0-bf7497f4b9d2"},"vehicle_type_id":"4","last_reported":1682449532,"current_range_meters":31200,"station_id":"ce4bgph2rcd13ifvqc2g","pricing_plan_id":"free"},{"bike_id":"ce8194c6-421f-4bd0-8837-9868fef0d9b8","system_id":"levelo_inurba_marseille","lat":43.29573,"lon":5.367355,"is_reserved":false,"is_disabled":false,"rental_uris":{"android":"levelo://app?vid=ce8194c6-421f-4bd0-8837-9868fef0d9b8","ios":"levelo://app?vid=ce8194c6-421f-4bd0-8837-9868fef0d9b8"},"vehicle_type_id":"4","last_reported":1682449532,"current_range_meters":31200,"station_id":"ce4bgph2rcd13ifvqc2g","pricing_plan_id":"free"},{"bike_id":"c97a26ac-fe6f-43c5-bd73-33aff63f054d","system_id":"levelo_inurba_marseille","lat":43.29573,"lon":5.367355,"is_reserved":false,"is_disabled":false,"rental_uris":{"android":"levelo://app?vid=c97a26ac-fe6f-43c5-bd73-33aff63f054d","ios":"levelo://app?vid=c97a26ac-fe6f-43c5-bd73-33aff63f054d"},"vehicle_type_id":"4","last_reported":1682449532,"current_range_meters":4800,"station_id":"ce4bgph2rcd13ifvqc2g","pricing_plan_id":"free"},{"bike_id":"95249886-2403-410e-b031-9ed713e1555e","system_id":"levelo_inurba_marseille","lat":43.296935,"lon":5.376544,"is_reserved":false,"is_disabled":false,"rental_uris":{"android":"levelo://app?vid=95249886-2403-410e-b031-9ed713e1555e","ios":"levelo://app?vid=95249886-2403-410e-b031-9ed713e1555e"},"vehicle_type_id":"4","last_reported":1682449532,"current_range_meters":22800,"station_id":"ce4bgkh2rcd13ifvqbl0","pricing_plan_id":"free"},{"bike_id":"ad3750ca-0a59-484a-8e0f-d62e669a9e1c","system_id":"levelo_inurba_marseille","lat":43.317557,"lon":5.390173,"is_reserved":false,"is_disabled":false,"rental_uris":{"android":"levelo://app?vid=ad3750ca-0a59-484a-8e0f-d62e669a9e1c","ios":"levelo://app?vid=ad3750ca-0a59-484a-8e0f-d62e669a9e1c"},"vehicle_type_id":"4","last_reported":1682449532,"current_range_meters":31200,"station_id":"ce4bhqp2rcd13ifvqhng","pricing_plan_id":"free"},{"bike_id":"31e991cc-b092-4fc2-a449-02ccab74b89b","system_id":"levelo_inurba_marseille","lat":43.317557,"lon":5.390173,"is_reserved":false,"is_disabled":false,"rental_uris":{"android":"levelo://app?vid=31e991cc-b092-4fc2-a449-02ccab74b89b","ios":"levelo://app?vid=31e991cc-b092-4fc2-a449-02ccab74b89b"},"vehicle_type_id":"4","last_reported":1682449532,"current_range_meters":13200,"station_id":"ce4bhqp2rcd13ifvqhng","pricing_plan_id":"free"},{"bike_id":"431c54fc-dd87-4aac-aad6-cfe20b8f194f","system_id":"levelo_inurba_marseille","lat":43.317557,"lon":5.390173,"is_reserved":false,"is_disabled":false,"rental_uris":{"android":"levelo://app?vid=431c54fc-dd87-4aac-aad6-cfe20b8f194f","ios":"levelo://app?vid=431c54fc-dd87-4aac-aad6-cfe20b8f194f"},"vehicle_type_id":"4","last_reported":1682449532,"current_range_meters":22400,"station_id":"ce4bhqp2rcd13ifvqhng","pricing_plan_id":"free"},{"bike_id":"6da2afbc-d054-4096-b8df-f3cd7d268287","system_id":"levelo_inurba_marseille","lat":43.317557,"lon":5.390173,"is_reserved":false,"is_disabled":false,"rental_uris":{"android":"levelo://app?vid=6da2afbc-d054-4096-b8df-f3cd7d268287","ios":"levelo://app?vid=6da2afbc-d054-4096-b8df-f3cd7d268287"},"vehicle_type_id":"4","last_reported":1682449532,"current_range_meters":31200,"station_id":"ce4bhqp2rcd13ifvqhng","pricing_plan_id":"free"},{"bike_id":"fdf84ca3-8be5-4ebb-9de3-b552de5e511c","system_id":"levelo_inurba_marseille","lat":43.317557,"lon":5.390173,"is_reserved":false,"is_disabled":false,"rental_uris":{"android":"levelo://app?vid=fdf84ca3-8be5-4ebb-9de3-b552de5e511c","ios":"levelo://app?vid=fdf84ca3-8be5-4ebb-9de3-b552de5e511c"},"vehicle_type_id":"4","last_reported":1682449532,"current_range_meters":30400,"station_id":"ce4bhqp2rcd13ifvqhng","pricing_plan_id":"free"},{"bike_id":"ae70b685-6c2a-412a-8b43-6e179ca9df0c","system_id":"levelo_inurba_marseille","lat":43.295748,"lon":5.37522,"is_reserved":false,"is_disabled":false,"rental_uris":{"android":"levelo://app?vid=ae70b685-6c2a-412a-8b43-6e179ca9df0c","ios":"levelo://app?vid=ae70b685-6c2a-412a-8b43-6e179ca9df0c"},"vehicle_type_id":"4","last_reported":1682449532,"current_range_meters":0,"station_id":"ce4bgh92rcd13ifvqb50","pricing_plan_id":"free"},{"bike_id":"036cc471-2fba-4e7e-9cc6-281d149affdc","system_id":"levelo_inurba_marseille","lat":43.295748,"lon":5.37522,"is_reserved":false,"is_disabled":false,"rental_uris":{"android":"levelo://app?vid=036cc471-2fba-4e7e-9cc6-281d149affdc","ios":"levelo://app?vid=036cc471-2fba-4e7e-9cc6-281d149affdc"},"vehicle_type_id":"4","last_reported":1682449532,"current_range_meters":0,"station_id":"ce4bgh92rcd13ifvqb50","pricing_plan_id":"free"},{"bike_id":"eec6d1ef-bacd-48f1-83a5-c272cf7f24d8","system_id":"levelo_inurba_marseille","lat":43.295748,"lon":5.37522,"is_reserved":false,"is_disabled":false,"rental_uris":{"android":"levelo://app?vid=eec6d1ef-bacd-48f1-83a5-c272cf7f24d8","ios":"levelo://app?vid=eec6d1ef-bacd-48f1-83a5-c272cf7f24d8"},"vehicle_type_id":"4","last_reported":1682449532,"current_range_meters":22800,"station_id":"ce4bgh92rcd13ifvqb50","pricing_plan_id":"free"},{"bike_id":"7a20d677-ebfe-4fd0-a2a8-dca9c93e1092","system_id":"levelo_inurba_marseille","lat":43.30437,"lon":5.38885,"is_reserved":false,"is_disabled":false,"rental_uris":{"android":"levelo://app?vid=7a20d677-ebfe-4fd0-a2a8-dca9c93e1092","ios":"levelo://app?vid=7a20d677-ebfe-4fd0-a2a8-dca9c93e1092"},"vehicle_type_id":"4","last_reported":1682449532,"current_range_meters":0,"station_id":"ce4bgk12rcd13ifvqbi0","pricing_plan_id":"free"},{"bike_id":"b80397b9-9d3a-41f1-8064-6a11165eba51","system_id":"levelo_inurba_marseille","lat":43.296263,"lon":5.377094,"is_reserved":false,"is_disabled":false,"rental_uris":{"android":"levelo://app?vid=b80397b9-9d3a-41f1-8064-6a11165eba51","ios":"levelo://app?vid=b80397b9-9d3a-41f1-8064-6a11165eba51"},"vehicle_type_id":"4","last_reported":1682449532,"current_range_meters":8800,"station_id":"ce4bgi92rcd13ifvqb90","pricing_plan_id":"free"},{"bike_id":"c0674769-5adf-4bed-b2a5-c29e7dcae5ed","system_id":"levelo_inurba_marseille","lat":43.296263,"lon":5.377094,"is_reserved":false,"is_disabled":false,"rental_uris":{"android":"levelo://app?vid=c0674769-5adf-4bed-b2a5-c29e7dcae5ed","ios":"levelo://app?vid=c0674769-5adf-4bed-b2a5-c29e7dcae5ed"},"vehicle_type_id":"4","last_reported":1682449532,"current_range_meters":21200,"station_id":"ce4bgi92rcd13ifvqb90","pricing_plan_id":"free"},{"bike_id":"be3ee8db-9554-4ea9-b2f5-b96347cb17fb","system_id":"levelo_inurba_marseille","lat":43.299707,"lon":5.384859,"is_reserved":false,"is_disabled":false,"rental_uris":{"android":"levelo://app?vid=be3ee8db-9554-4ea9-b2f5-b96347cb17fb","ios":"levelo://app?vid=be3ee8db-9554-4ea9-b2f5-b96347cb17fb"},"vehicle_type_id":"4","last_reported":1682449532,"current_range_meters":31200,"station_id":"ce4bgj92rcd13ifvqbd0","pricing_plan_id":"free"},{"bike_id":"c1c37774-0fdc-4980-bd50-36c147fd61f0","system_id":"levelo_inurba_marseille","lat":43.299707,"lon":5.384859,"is_reserved":false,"is_disabled":false,"rental_uris":{"android":"levelo://app?vid=c1c37774-0fdc-4980-bd50-36c147fd61f0","ios":"levelo://app?vid=c1c37774-0fdc-4980-bd50-36c147fd61f0"},"vehicle_type_id":"4","last_reported":1682449532,"current_range_meters":14000,"station_id":"ce4bgj92rcd13ifvqbd0","pricing_plan_id":"free"},{"bike_id":"2975a1d9-b961-469f-8df8-9ae0814624b3","system_id":"levelo_inurba_marseille","lat":43.299717,"lon":5.384845,"is_reserved":false,"is_disabled":false,"rental_uris":{"android":"levelo://app?vid=2975a1d9-b961-469f-8df8-9ae0814624b3","ios":"levelo://app?vid=2975a1d9-b961-469f-8df8-9ae0814624b3"},"vehicle_type_id":"4","last_reported":1682449532,"current_range_meters":12400,"station_id":"ce4bgj92rcd13ifvqbd0","pricing_plan_id":"free"},{"bike_id":"3975eb14-2055-4732-a257-6b90ebe99606","system_id":"levelo_inurba_marseille","lat":43.299724,"lon":5.384848,"is_reserved":false,"is_disabled":false,"rental_uris":{"android":"levelo://app?vid=3975eb14-2055-4732-a257-6b90ebe99606","ios":"levelo://app?vid=3975eb14-2055-4732-a257-6b90ebe99606"},"vehicle_type_id":"4","last_reported":1682449532,"current_range_meters":6000,"station_id":"ce4bgj92rcd13ifvqbd0","pricing_plan_id":"free"},{"bike_id":"fad085ef-e125-4019-ac93-3c1eaa19cccd","system_id":"levelo_inurba_marseille","lat":43.299717,"lon":5.384845,"is_reserved":false,"is_disabled":false,"rental_uris":{"android":"levelo://app?vid=fad085ef-e125-4019-ac93-3c1eaa19cccd","ios":"levelo://app?vid=fad085ef-e125-4019-ac93-3c1eaa19cccd"},"vehicle_type_id":"4","last_reported":1682449532,"current_range_meters":1200,"station_id":"ce4bgj92rcd13ifvqbd0","pricing_plan_id":"free"},{"bike_id":"8d3c2085-a267-4535-ae55-d281442b365d","system_id":"levelo_inurba_marseille","lat":43.323689,"lon":5.388783,"is_reserved":false,"is_disabled":false,"rental_uris":{"android":"levelo://app?vid=8d3c2085-a267-4535-ae55-d281442b365d","ios":"levelo://app?vid=8d3c2085-a267-4535-ae55-d281442b365d"},"vehicle_type_id":"4","last_reported":1682449532,"current_range_meters":31200,"station_id":"","pricing_plan_id":"free"},{"bike_id":"54cdb0f5-dafa-4719-a57f-c074cd2a9606","system_id":"levelo_inurba_marseille","lat":43.32353,"lon":5.38908,"is_reserved":false,"is_disabled":false,"rental_uris":{"android":"levelo://app?vid=54cdb0f5-dafa-4719-a57f-c074cd2a9606","ios":"levelo://app?vid=54cdb0f5-dafa-4719-a57f-c074cd2a9606"},"vehicle_type_id":"4","last_reported":1682449532,"current_range_meters":28400,"station_id":"ce4bhqp2rcd13ifvqhog","pricing_plan_id":"free"},{"bike_id":"70d494b8-16d2-4c6c-b20c-9df06b21b412","system_id":"levelo_inurba_marseille","lat":43.323528,"lon":5.389165,"is_reserved":false,"is_disabled":false,"rental_uris":{"android":"levelo://app?vid=70d494b8-16d2-4c6c-b20c-9df06b21b412","ios":"levelo://app?vid=70d494b8-16d2-4c6c-b20c-9df06b21b412"},"vehicle_type_id":"4","last_reported":1682449532,"current_range_meters":24400,"station_id":"ce4bhqp2rcd13ifvqhog","pricing_plan_id":"free"},{"bike_id":"d5661d89-b610-46ab-a5e3-d65ee6e277ad","system_id":"levelo_inurba_marseille","lat":43.31422,"lon":5.39366,"is_reserved":false,"is_disabled":false,"rental_uris":{"android":"levelo://app?vid=d5661d89-b610-46ab-a5e3-d65ee6e277ad","ios":"levelo://app?vid=d5661d89-b610-46ab-a5e3-d65ee6e277ad"},"vehicle_type_id":"4","last_reported":1682449532,"current_range_meters":7600,"station_id":"","pricing_plan_id":"free"},{"bike_id":"1a1b4cc7-7c27-4185-b0a0-e3511f2953d3","system_id":"levelo_inurba_marseille","lat":43.29601,"lon":5.381084,"is_reserved":false,"is_disabled":false,"rental_uris":{"android":"levelo://app?vid=1a1b4cc7-7c27-4185-b0a0-e3511f2953d3","ios":"levelo://app?vid=1a1b4cc7-7c27-4185-b0a0-e3511f2953d3"},"vehicle_type_id":"4","last_reported":1682449532,"current_range_meters":12400,"station_id":"ce4bgl12rcd13ifvqbo0","pricing_plan_id":"free"},{"bike_id":"062595f5-8f70-4c10-9f64-c101d3f67e79","system_id":"levelo_inurba_marseille","lat":43.29601,"lon":5.381084,"is_reserved":false,"is_disabled":false,"rental_uris":{"android":"levelo://app?vid=062595f5-8f70-4c10-9f64-c101d3f67e79","ios":"levelo://app?vid=062595f5-8f70-4c10-9f64-c101d3f67e79"},"vehicle_type_id":"4","last_reported":1682449532,"current_range_meters":27600,"station_id":"ce4bgl12rcd13ifvqbo0","pricing_plan_id":"free"},{"bike_id":"76cb2400-47c2-4d87-aa1c-c980a507a6f5","system_id":"levelo_inurba_marseille","lat":43.305994,"lon":5.393687,"is_reserved":false,"is_disabled":false,"rental_uris":{"android":"levelo://app?vid=76cb2400-47c2-4d87-aa1c-c980a507a6f5","ios":"levelo://app?vid=76cb2400-47c2-4d87-aa1c-c980a507a6f5"},"vehicle_type_id":"4","last_reported":1682449532,"current_range_meters":6000,"station_id":"ce4bh0p2rcd13ifvqd80","pricing_plan_id":"free"},{"bike_id":"9d4f27e2-3ba9-4d24-abb8-1f527143a8ca","system_id":"levelo_inurba_marseille","lat":43.305994,"lon":5.393687,"is_reserved":false,"is_disabled":false,"rental_uris":{"android":"levelo://app?vid=9d4f27e2-3ba9-4d24-abb8-1f527143a8ca","ios":"levelo://app?vid=9d4f27e2-3ba9-4d24-abb8-1f527143a8ca"},"vehicle_type_id":"4","last_reported":1682449532,"current_range_meters":18800,"station_id":"ce4bh0p2rcd13ifvqd80","pricing_plan_id":"free"},{"bike_id":"38e26db0-18ad-41bc-9d50-67ac0adc949b","system_id":"levelo_inurba_marseille","lat":43.305994,"lon":5.393687,"is_reserved":false,"is_disabled":false,"rental_uris":{"android":"levelo://app?vid=38e26db0-18ad-41bc-9d50-67ac0adc949b","ios":"levelo://app?vid=38e26db0-18ad-41bc-9d50-67ac0adc949b"},"vehicle_type_id":"4","last_reported":1682449532,"current_range_meters":13600,"station_id":"ce4bh0p2rcd13ifvqd80","pricing_plan_id":"free"},{"bike_id":"757eee25-14a6-471b-aa76-a540a5d2ffea","system_id":"levelo_inurba_marseille","lat":43.324981,"lon":5.38965,"is_reserved":false,"is_disabled":false,"rental_uris":{"android":"levelo://app?vid=757eee25-14a6-471b-aa76-a540a5d2ffea","ios":"levelo://app?vid=757eee25-14a6-471b-aa76-a540a5d2ffea"},"vehicle_type_id":"4","last_reported":1682449532,"current_range_meters":0,"station_id":"","pricing_plan_id":"free"},{"bike_id":"1e21ec2d-89c2-496c-9ff1-dbe162e7bdc9","system_id":"levelo_inurba_marseille","lat":43.302992,"lon":5.392136,"is_reserved":false,"is_disabled":false,"rental_uris":{"android":"levelo://app?vid=1e21ec2d-89c2-496c-9ff1-dbe162e7bdc9","ios":"levelo://app?vid=1e21ec2d-89c2-496c-9ff1-dbe162e7bdc9"},"vehicle_type_id":"4","last_reported":1682449532,"current_range_meters":0,"station_id":"ce4bgkh2rcd13ifvqbk0","pricing_plan_id":"free"},{"bike_id":"efbfcf1c-c566-4684-9fad-c6002908d488","system_id":"levelo_inurba_marseille","lat":43.29271,"lon":5.35967,"is_reserved":false,"is_disabled":false,"rental_uris":{"android":"levelo://app?vid=efbfcf1c-c566-4684-9fad-c6002908d488","ios":"levelo://app?vid=efbfcf1c-c566-4684-9fad-c6002908d488"},"vehicle_type_id":"4","last_reported":1682449532,"current_range_meters":14800,"station_id":"","pricing_plan_id":"free"},{"bike_id":"491a274a-2000-4087-b323-0406368bf8ed","system_id":"levelo_inurba_marseille","lat":43.302992,"lon":5.392136,"is_reserved":false,"is_disabled":false,"rental_uris":{"android":"levelo://app?vid=491a274a-2000-4087-b323-0406368bf8ed","ios":"levelo://app?vid=491a274a-2000-4087-b323-0406368bf8ed"},"vehicle_type_id":"4","last_reported":1682449532,"current_range_meters":18800,"station_id":"ce4bgkh2rcd13ifvqbk0","pricing_plan_id":"free"},{"bike_id":"62367158-8c43-49d2-a639-f04688f4bf68","system_id":"levelo_inurba_marseille","lat":43.302992,"lon":5.392136,"is_reserved":false,"is_disabled":false,"rental_uris":{"android":"levelo://app?vid=62367158-8c43-49d2-a639-f04688f4bf68","ios":"levelo://app?vid=62367158-8c43-49d2-a639-f04688f4bf68"},"vehicle_type_id":"4","last_reported":1682449532,"current_range_meters":1600,"station_id":"ce4bgkh2rcd13ifvqbk0","pricing_plan_id":"free"},{"bike_id":"174f2546-6dc4-4915-9bca-c0cb3c302825","system_id":"levelo_inurba_marseille","lat":43.302992,"lon":5.392136,"is_reserved":false,"is_disabled":false,"rental_uris":{"android":"levelo://app?vid=174f2546-6dc4-4915-9bca-c0cb3c302825","ios":"levelo://app?vid=174f2546-6dc4-4915-9bca-c0cb3c302825"},"vehicle_type_id":"4","last_reported":1682449532,"current_range_meters":15600,"station_id":"ce4bgkh2rcd13ifvqbk0","pricing_plan_id":"free"},{"bike_id":"c89549bd-800a-40fb-b54c-c42c3cffafdb","system_id":"levelo_inurba_marseille","lat":43.2936,"lon":5.37835,"is_reserved":false,"is_disabled":false,"rental_uris":{"android":"levelo://app?vid=c89549bd-800a-40fb-b54c-c42c3cffafdb","ios":"levelo://app?vid=c89549bd-800a-40fb-b54c-c42c3cffafdb"},"vehicle_type_id":"4","last_reported":1682449532,"current_range_meters":24800,"station_id":"ce4bgjh2rcd13ifvqbf0","pricing_plan_id":"free"},{"bike_id":"3b74bf49-8523-4bd8-b813-c2658508e940","system_id":"levelo_inurba_marseille","lat":43.3031,"lon":5.39228,"is_reserved":false,"is_disabled":false,"rental_uris":{"android":"levelo://app?vid=3b74bf49-8523-4bd8-b813-c2658508e940","ios":"levelo://app?vid=3b74bf49-8523-4bd8-b813-c2658508e940"},"vehicle_type_id":"4","last_reported":1682449532,"current_range_meters":0,"station_id":"","pricing_plan_id":"free"},{"bike_id":"cf55e818-e874-49e5-b5bf-f54a512005b1","system_id":"levelo_inurba_marseille","lat":43.302992,"lon":5.392136,"is_reserved":false,"is_disabled":false,"rental_uris":{"android":"levelo://app?vid=cf55e818-e874-49e5-b5bf-f54a512005b1","ios":"levelo://app?vid=cf55e818-e874-49e5-b5bf-f54a512005b1"},"vehicle_type_id":"4","last_reported":1682449532,"current_range_meters":13600,"station_id":"ce4bgkh2rcd13ifvqbk0","pricing_plan_id":"free"},{"bike_id":"fe35a2a6-21e0-404f-9b3b-b47341f5d2ac","system_id":"levelo_inurba_marseille","lat":43.29231,"lon":5.36055,"is_reserved":false,"is_disabled":false,"rental_uris":{"android":"levelo://app?vid=fe35a2a6-21e0-404f-9b3b-b47341f5d2ac","ios":"levelo://app?vid=fe35a2a6-21e0-404f-9b3b-b47341f5d2ac"},"vehicle_type_id":"4","last_reported":1682449532,"current_range_meters":29600,"station_id":"ce4bhbh2rcd13ifvqeqg","pricing_plan_id":"free"},{"bike_id":"cee3da3d-398c-4365-89ad-0c83e2ef0404","system_id":"levelo_inurba_marseille","lat":43.292311,"lon":5.360731,"is_reserved":false,"is_disabled":false,"rental_uris":{"android":"levelo://app?vid=cee3da3d-398c-4365-89ad-0c83e2ef0404","ios":"levelo://app?vid=cee3da3d-398c-4365-89ad-0c83e2ef0404"},"vehicle_type_id":"4","last_reported":1682449532,"current_range_meters":23200,"station_id":"ce4bhbh2rcd13ifvqeqg","pricing_plan_id":"free"},{"bike_id":"8b2b740f-a887-4fce-9bdf-5a1cf27275d4","system_id":"levelo_inurba_marseille","lat":43.292311,"lon":5.360731,"is_reserved":false,"is_disabled":false,"rental_uris":{"android":"levelo://app?vid=8b2b740f-a887-4fce-9bdf-5a1cf27275d4","ios":"levelo://app?vid=8b2b740f-a887-4fce-9bdf-5a1cf27275d4"},"vehicle_type_id":"4","last_reported":1682449532,"current_range_meters":4400,"station_id":"ce4bhbh2rcd13ifvqeqg","pricing_plan_id":"free"},{"bike_id":"a2faa289-4b71-4091-9813-51bdd5701101","system_id":"levelo_inurba_marseille","lat":43.292311,"lon":5.360731,"is_reserved":false,"is_disabled":false,"rental_uris":{"android":"levelo://app?vid=a2faa289-4b71-4091-9813-51bdd5701101","ios":"levelo://app?vid=a2faa289-4b71-4091-9813-51bdd5701101"},"vehicle_type_id":"4","last_reported":1682449532,"current_range_meters":5600,"station_id":"ce4bhbh2rcd13ifvqeqg","pricing_plan_id":"free"},{"bike_id":"d8426fd5-9aa9-4481-9f47-8d10794aaea2","system_id":"levelo_inurba_marseille","lat":43.29228,"lon":5.36062,"is_reserved":false,"is_disabled":false,"rental_uris":{"android":"levelo://app?vid=d8426fd5-9aa9-4481-9f47-8d10794aaea2","ios":"levelo://app?vid=d8426fd5-9aa9-4481-9f47-8d10794aaea2"},"vehicle_type_id":"4","last_reported":1682449532,"current_range_meters":0,"station_id":"ce4bhbh2rcd13ifvqeqg","pricing_plan_id":"free"},{"bike_id":"d24f07a1-f526-4fea-bb9f-8d5ad4b24e7b","system_id":"levelo_inurba_marseille","lat":43.29223,"lon":5.3606,"is_reserved":false,"is_disabled":false,"rental_uris":{"android":"levelo://app?vid=d24f07a1-f526-4fea-bb9f-8d5ad4b24e7b","ios":"levelo://app?vid=d24f07a1-f526-4fea-bb9f-8d5ad4b24e7b"},"vehicle_type_id":"4","last_reported":1682449532,"current_range_meters":800,"station_id":"ce4bhbh2rcd13ifvqeqg","pricing_plan_id":"free"},{"bike_id":"e77e1303-64e5-486e-bc59-d51063c5c732","system_id":"levelo_inurba_marseille","lat":43.29223,"lon":5.36053,"is_reserved":false,"is_disabled":false,"rental_uris":{"android":"levelo://app?vid=e77e1303-64e5-486e-bc59-d51063c5c732","ios":"levelo://app?vid=e77e1303-64e5-486e-bc59-d51063c5c732"},"vehicle_type_id":"4","last_reported":1682449532,"current_range_meters":10000,"station_id":"ce4bhbh2rcd13ifvqeqg","pricing_plan_id":"free"},{"bike_id":"646900e7-90c9-4140-b901-6a849af9480b","system_id":"levelo_inurba_marseille","lat":43.29223,"lon":5.36051,"is_reserved":false,"is_disabled":false,"rental_uris":{"android":"levelo://app?vid=646900e7-90c9-4140-b901-6a849af9480b","ios":"levelo://app?vid=646900e7-90c9-4140-b901-6a849af9480b"},"vehicle_type_id":"4","last_reported":1682449532,"current_range_meters":30000,"station_id":"ce4bhbh2rcd13ifvqeqg","pricing_plan_id":"free"},{"bike_id":"f14c602e-d196-4f10-bc64-6c39a0273653","system_id":"levelo_inurba_marseille","lat":43.29222,"lon":5.36052,"is_reserved":false,"is_disabled":false,"rental_uris":{"android":"levelo://app?vid=f14c602e-d196-4f10-bc64-6c39a0273653","ios":"levelo://app?vid=f14c602e-d196-4f10-bc64-6c39a0273653"},"vehicle_type_id":"4","last_reported":1682449532,"current_range_meters":16800,"station_id":"ce4bhbh2rcd13ifvqeqg","pricing_plan_id":"free"},{"bike_id":"2653fc2f-53a9-4479-938f-188c9aa3d2e6","system_id":"levelo_inurba_marseille","lat":43.292663,"lon":5.376394,"is_reserved":false,"is_disabled":false,"rental_uris":{"android":"levelo://app?vid=2653fc2f-53a9-4479-938f-188c9aa3d2e6","ios":"levelo://app?vid=2653fc2f-53a9-4479-938f-188c9aa3d2e6"},"vehicle_type_id":"4","last_reported":1682449532,"current_range_meters":26000,"station_id":"ce4bgi12rcd13ifvqb80","pricing_plan_id":"free"},{"bike_id":"be2d3a93-508d-40dd-8728-c0c90e55845d","system_id":"levelo_inurba_marseille","lat":43.292663,"lon":5.376394,"is_reserved":false,"is_disabled":false,"rental_uris":{"android":"levelo://app?vid=be2d3a93-508d-40dd-8728-c0c90e55845d","ios":"levelo://app?vid=be2d3a93-508d-40dd-8728-c0c90e55845d"},"vehicle_type_id":"4","last_reported":1682449532,"current_range_meters":800,"station_id":"ce4bgi12rcd13ifvqb80","pricing_plan_id":"free"},{"bike_id":"7eaf8154-d9d9-41bd-bec6-558d4e806e39","system_id":"levelo_inurba_marseille","lat":43.292663,"lon":5.376394,"is_reserved":false,"is_disabled":false,"rental_uris":{"android":"levelo://app?vid=7eaf8154-d9d9-41bd-bec6-558d4e806e39","ios":"levelo://app?vid=7eaf8154-d9d9-41bd-bec6-558d4e806e39"},"vehicle_type_id":"4","last_reported":1682449532,"current_range_meters":11600,"station_id":"ce4bgi12rcd13ifvqb80","pricing_plan_id":"free"},{"bike_id":"b9166e66-9de7-4e91-9cd4-1f4a18f0c18c","system_id":"levelo_inurba_marseille","lat":43.292663,"lon":5.376389,"is_reserved":false,"is_disabled":false,"rental_uris":{"android":"levelo://app?vid=b9166e66-9de7-4e91-9cd4-1f4a18f0c18c","ios":"levelo://app?vid=b9166e66-9de7-4e91-9cd4-1f4a18f0c18c"},"vehicle_type_id":"4","last_reported":1682449532,"current_range_meters":11600,"station_id":"ce4bgi12rcd13ifvqb80","pricing_plan_id":"free"},{"bike_id":"8a702113-bc70-4a27-83ea-7f3c3f6c48cc","system_id":"levelo_inurba_marseille","lat":43.313291,"lon":5.396838,"is_reserved":false,"is_disabled":false,"rental_uris":{"android":"levelo://app?vid=8a702113-bc70-4a27-83ea-7f3c3f6c48cc","ios":"levelo://app?vid=8a702113-bc70-4a27-83ea-7f3c3f6c48cc"},"vehicle_type_id":"4","last_reported":1682449532,"current_range_meters":4000,"station_id":"ce4bgvp2rcd13ifvqcu0","pricing_plan_id":"free"},{"bike_id":"6f04bb9f-734d-4504-ad02-90cbb3aa9ee2","system_id":"levelo_inurba_marseille","lat":43.313291,"lon":5.396838,"is_reserved":false,"is_disabled":false,"rental_uris":{"android":"levelo://app?vid=6f04bb9f-734d-4504-ad02-90cbb3aa9ee2","ios":"levelo://app?vid=6f04bb9f-734d-4504-ad02-90cbb3aa9ee2"},"vehicle_type_id":"4","last_reported":1682449532,"current_range_meters":18400,"station_id":"ce4bgvp2rcd13ifvqcu0","pricing_plan_id":"free"},{"bike_id":"d91158f3-f117-4d18-a9a4-6646adc0fe07","system_id":"levelo_inurba_marseille","lat":43.313291,"lon":5.396838,"is_reserved":false,"is_disabled":false,"rental_uris":{"android":"levelo://app?vid=d91158f3-f117-4d18-a9a4-6646adc0fe07","ios":"levelo://app?vid=d91158f3-f117-4d18-a9a4-6646adc0fe07"},"vehicle_type_id":"4","last_reported":1682449532,"current_range_meters":10800,"station_id":"ce4bgvp2rcd13ifvqcu0","pricing_plan_id":"free"},{"bike_id":"7c221b34-96eb-45a6-98cb-88af710a26f0","system_id":"levelo_inurba_marseille","lat":43.313291,"lon":5.396838,"is_reserved":false,"is_disabled":false,"rental_uris":{"android":"levelo://app?vid=7c221b34-96eb-45a6-98cb-88af710a26f0","ios":"levelo://app?vid=7c221b34-96eb-45a6-98cb-88af710a26f0"},"vehicle_type_id":"4","last_reported":1682449532,"current_range_meters":22800,"station_id":"ce4bgvp2rcd13ifvqcu0","pricing_plan_id":"free"},{"bike_id":"e5560486-0bb7-4c48-8e9e-4ad8a21903fb","system_id":"levelo_inurba_marseille","lat":43.309038,"lon":5.396546,"is_reserved":false,"is_disabled":false,"rental_uris":{"android":"levelo://app?vid=e5560486-0bb7-4c48-8e9e-4ad8a21903fb","ios":"levelo://app?vid=e5560486-0bb7-4c48-8e9e-4ad8a21903fb"},"vehicle_type_id":"4","last_reported":1682449532,"current_range_meters":0,"station_id":"ce4bh012rcd13ifvqcv0","pricing_plan_id":"free"},{"bike_id":"9a9b474c-6c5d-4c6d-a200-8ec4dc13174b","system_id":"levelo_inurba_marseille","lat":43.313291,"lon":5.396838,"is_reserved":false,"is_disabled":false,"rental_uris":{"android":"levelo://app?vid=9a9b474c-6c5d-4c6d-a200-8ec4dc13174b","ios":"levelo://app?vid=9a9b474c-6c5d-4c6d-a200-8ec4dc13174b"},"vehicle_type_id":"4","last_reported":1682449532,"current_range_meters":12400,"station_id":"ce4bgvp2rcd13ifvqcu0","pricing_plan_id":"free"},{"bike_id":"f78a4a88-6cbb-44c6-8bef-3de99829aa47","system_id":"levelo_inurba_marseille","lat":43.29529,"lon":5.385581,"is_reserved":false,"is_disabled":false,"rental_uris":{"android":"levelo://app?vid=f78a4a88-6cbb-44c6-8bef-3de99829aa47","ios":"levelo://app?vid=f78a4a88-6cbb-44c6-8bef-3de99829aa47"},"vehicle_type_id":"4","last_reported":1682449532,"current_range_meters":25600,"station_id":"ce4bgih2rcd13ifvqba0","pricing_plan_id":"free"},{"bike_id":"e32e3c8a-e51e-42dc-ba41-da38c0cc9e1e","system_id":"levelo_inurba_marseille","lat":43.309038,"lon":5.396546,"is_reserved":false,"is_disabled":false,"rental_uris":{"android":"levelo://app?vid=e32e3c8a-e51e-42dc-ba41-da38c0cc9e1e","ios":"levelo://app?vid=e32e3c8a-e51e-42dc-ba41-da38c0cc9e1e"},"vehicle_type_id":"4","last_reported":1682449532,"current_range_meters":20000,"station_id":"ce4bh012rcd13ifvqcv0","pricing_plan_id":"free"},{"bike_id":"d40b5def-5808-4d7a-8b53-82f768346f75","system_id":"levelo_inurba_marseille","lat":43.29529,"lon":5.385581,"is_reserved":false,"is_disabled":false,"rental_uris":{"android":"levelo://app?vid=d40b5def-5808-4d7a-8b53-82f768346f75","ios":"levelo://app?vid=d40b5def-5808-4d7a-8b53-82f768346f75"},"vehicle_type_id":"4","last_reported":1682449532,"current_range_meters":2000,"station_id":"ce4bgih2rcd13ifvqba0","pricing_plan_id":"free"},{"bike_id":"0b7eb7db-4181-43e7-9077-f2764231ad5b","system_id":"levelo_inurba_marseille","lat":43.308888,"lon":5.396595,"is_reserved":false,"is_disabled":false,"rental_uris":{"android":"levelo://app?vid=0b7eb7db-4181-43e7-9077-f2764231ad5b","ios":"levelo://app?vid=0b7eb7db-4181-43e7-9077-f2764231ad5b"},"vehicle_type_id":"4","last_reported":1682449532,"current_range_meters":25600,"station_id":"ce4bh012rcd13ifvqcv0","pricing_plan_id":"free"},{"bike_id":"277de2ff-b3b6-48dc-80f4-4dcdeeaf4b05","system_id":"levelo_inurba_marseille","lat":43.309038,"lon":5.396546,"is_reserved":false,"is_disabled":false,"rental_uris":{"android":"levelo://app?vid=277de2ff-b3b6-48dc-80f4-4dcdeeaf4b05","ios":"levelo://app?vid=277de2ff-b3b6-48dc-80f4-4dcdeeaf4b05"},"vehicle_type_id":"4","last_reported":1682449532,"current_range_meters":19200,"station_id":"ce4bh012rcd13ifvqcv0","pricing_plan_id":"free"},{"bike_id":"51b51ac5-6cea-4778-9048-6fb0fa7e3aff","system_id":"levelo_inurba_marseille","lat":43.29529,"lon":5.385581,"is_reserved":false,"is_disabled":false,"rental_uris":{"android":"levelo://app?vid=51b51ac5-6cea-4778-9048-6fb0fa7e3aff","ios":"levelo://app?vid=51b51ac5-6cea-4778-9048-6fb0fa7e3aff"},"vehicle_type_id":"4","last_reported":1682449532,"current_range_meters":20400,"station_id":"ce4bgih2rcd13ifvqba0","pricing_plan_id":"free"},{"bike_id":"f0b66838-b233-4764-9524-7b9aeff3d3c6","system_id":"levelo_inurba_marseille","lat":43.29529,"lon":5.385581,"is_reserved":false,"is_disabled":false,"rental_uris":{"android":"levelo://app?vid=f0b66838-b233-4764-9524-7b9aeff3d3c6","ios":"levelo://app?vid=f0b66838-b233-4764-9524-7b9aeff3d3c6"},"vehicle_type_id":"4","last_reported":1682449532,"current_range_meters":7200,"station_id":"ce4bgih2rcd13ifvqba0","pricing_plan_id":"free"},{"bike_id":"dddeb8f6-41e8-4700-b7a4-1b19e5ef5969","system_id":"levelo_inurba_marseille","lat":43.29529,"lon":5.385581,"is_reserved":false,"is_disabled":false,"rental_uris":{"android":"levelo://app?vid=dddeb8f6-41e8-4700-b7a4-1b19e5ef5969","ios":"levelo://app?vid=dddeb8f6-41e8-4700-b7a4-1b19e5ef5969"},"vehicle_type_id":"4","last_reported":1682449532,"current_range_meters":30800,"station_id":"ce4bgih2rcd13ifvqba0","pricing_plan_id":"free"},{"bike_id":"78254b0a-193f-4836-b117-47c50937bc29","system_id":"levelo_inurba_marseille","lat":43.29529,"lon":5.385581,"is_reserved":false,"is_disabled":false,"rental_uris":{"android":"levelo://app?vid=78254b0a-193f-4836-b117-47c50937bc29","ios":"levelo://app?vid=78254b0a-193f-4836-b117-47c50937bc29"},"vehicle_type_id":"4","last_reported":1682449532,"current_range_meters":20000,"station_id":"ce4bgih2rcd13ifvqba0","pricing_plan_id":"free"},{"bike_id":"ee243272-5f44-43d2-bad9-8776ab947ef7","system_id":"levelo_inurba_marseille","lat":43.29529,"lon":5.385581,"is_reserved":false,"is_disabled":false,"rental_uris":{"android":"levelo://app?vid=ee243272-5f44-43d2-bad9-8776ab947ef7","ios":"levelo://app?vid=ee243272-5f44-43d2-bad9-8776ab947ef7"},"vehicle_type_id":"4","last_reported":1682449532,"current_range_meters":29200,"station_id":"ce4bgih2rcd13ifvqba0","pricing_plan_id":"free"},{"bike_id":"841fcf63-a1ab-47c2-9e53-842de9bf1ce1","system_id":"levelo_inurba_marseille","lat":43.29529,"lon":5.385581,"is_reserved":false,"is_disabled":false,"rental_uris":{"android":"levelo://app?vid=841fcf63-a1ab-47c2-9e53-842de9bf1ce1","ios":"levelo://app?vid=841fcf63-a1ab-47c2-9e53-842de9bf1ce1"},"vehicle_type_id":"4","last_reported":1682449532,"current_range_meters":25200,"station_id":"ce4bgih2rcd13ifvqba0","pricing_plan_id":"free"},{"bike_id":"2c94fba2-93cb-4dd9-9a9a-5317dc5f16a7","system_id":"levelo_inurba_marseille","lat":43.290779,"lon":5.371482,"is_reserved":false,"is_disabled":false,"rental_uris":{"android":"levelo://app?vid=2c94fba2-93cb-4dd9-9a9a-5317dc5f16a7","ios":"levelo://app?vid=2c94fba2-93cb-4dd9-9a9a-5317dc5f16a7"},"vehicle_type_id":"4","last_reported":1682449532,"current_range_meters":4000,"station_id":"ce4bh5p2rcd13ifvqe4g","pricing_plan_id":"free"},{"bike_id":"a6084a11-e676-492c-9fe4-7f4397b76854","system_id":"levelo_inurba_marseille","lat":43.31565,"lon":5.39721,"is_reserved":false,"is_disabled":false,"rental_uris":{"android":"levelo://app?vid=a6084a11-e676-492c-9fe4-7f4397b76854","ios":"levelo://app?vid=a6084a11-e676-492c-9fe4-7f4397b76854"},"vehicle_type_id":"4","last_reported":1682449532,"current_range_meters":20000,"station_id":"","pricing_plan_id":"free"},{"bike_id":"d7c39620-b26b-443e-b834-1d4e0b86777f","system_id":"levelo_inurba_marseille","lat":43.30212,"lon":5.3946,"is_reserved":false,"is_disabled":false,"rental_uris":{"android":"levelo://app?vid=d7c39620-b26b-443e-b834-1d4e0b86777f","ios":"levelo://app?vid=d7c39620-b26b-443e-b834-1d4e0b86777f"},"vehicle_type_id":"4","last_reported":1682449532,"current_range_meters":400,"station_id":"ce4bh0p2rcd13ifvqd70","pricing_plan_id":"free"},{"bike_id":"9e0dc87c-797e-4e31-afb1-ce8fb675d52a","system_id":"levelo_inurba_marseille","lat":43.290624,"lon":5.359245,"is_reserved":false,"is_disabled":false,"rental_uris":{"android":"levelo://app?vid=9e0dc87c-797e-4e31-afb1-ce8fb675d52a","ios":"levelo://app?vid=9e0dc87c-797e-4e31-afb1-ce8fb675d52a"},"vehicle_type_id":"4","last_reported":1682449532,"current_range_meters":13200,"station_id":"ce4bha92rcd13ifvqeg0","pricing_plan_id":"free"},{"bike_id":"cea47af3-be1b-41e3-8b90-81b846156a7e","system_id":"levelo_inurba_marseille","lat":43.29044,"lon":5.35906,"is_reserved":false,"is_disabled":false,"rental_uris":{"android":"levelo://app?vid=cea47af3-be1b-41e3-8b90-81b846156a7e","ios":"levelo://app?vid=cea47af3-be1b-41e3-8b90-81b846156a7e"},"vehicle_type_id":"4","last_reported":1682449532,"current_range_meters":20800,"station_id":"ce4bha92rcd13ifvqeg0","pricing_plan_id":"free"},{"bike_id":"c15b41bc-e331-4add-952d-bb64e086b95c","system_id":"levelo_inurba_marseille","lat":43.290327,"lon":5.375711,"is_reserved":false,"is_disabled":false,"rental_uris":{"android":"levelo://app?vid=c15b41bc-e331-4add-952d-bb64e086b95c","ios":"levelo://app?vid=c15b41bc-e331-4add-952d-bb64e086b95c"},"vehicle_type_id":"4","last_reported":1682449532,"current_range_meters":14800,"station_id":"ce4bh692rcd13ifvqe90","pricing_plan_id":"free"},{"bike_id":"4b073b0b-d917-4c00-8ad7-4d99599a4702","system_id":"levelo_inurba_marseille","lat":43.29425,"lon":5.38622,"is_reserved":false,"is_disabled":false,"rental_uris":{"android":"levelo://app?vid=4b073b0b-d917-4c00-8ad7-4d99599a4702","ios":"levelo://app?vid=4b073b0b-d917-4c00-8ad7-4d99599a4702"},"vehicle_type_id":"4","last_reported":1682449532,"current_range_meters":12000,"station_id":"ce4bh2h2rcd13ifvqdh0","pricing_plan_id":"free"},{"bike_id":"96e2baf4-ea7c-421a-8fb5-f657a147428c","system_id":"levelo_inurba_marseille","lat":43.290327,"lon":5.375711,"is_reserved":false,"is_disabled":false,"rental_uris":{"android":"levelo://app?vid=96e2baf4-ea7c-421a-8fb5-f657a147428c","ios":"levelo://app?vid=96e2baf4-ea7c-421a-8fb5-f657a147428c"},"vehicle_type_id":"4","last_reported":1682449532,"current_range_meters":30000,"station_id":"ce4bh692rcd13ifvqe90","pricing_plan_id":"free"},{"bike_id":"61e57b24-8d12-43e9-b571-93ea1852b7b1","system_id":"levelo_inurba_marseille","lat":43.29418,"lon":5.38615,"is_reserved":false,"is_disabled":false,"rental_uris":{"android":"levelo://app?vid=61e57b24-8d12-43e9-b571-93ea1852b7b1","ios":"levelo://app?vid=61e57b24-8d12-43e9-b571-93ea1852b7b1"},"vehicle_type_id":"4","last_reported":1682449532,"current_range_meters":11600,"station_id":"ce4bh2h2rcd13ifvqdh0","pricing_plan_id":"free"},{"bike_id":"0a64d8e9-f2bc-4990-8175-600b53671877","system_id":"levelo_inurba_marseille","lat":43.289184,"lon":5.366408,"is_reserved":false,"is_disabled":false,"rental_uris":{"android":"levelo://app?vid=0a64d8e9-f2bc-4990-8175-600b53671877","ios":"levelo://app?vid=0a64d8e9-f2bc-4990-8175-600b53671877"},"vehicle_type_id":"4","last_reported":1682449532,"current_range_meters":11600,"station_id":"ce4bhap2rcd13ifvqek0","pricing_plan_id":"free"},{"bike_id":"aa27a214-c949-4ae3-9620-4767abe1b3d7","system_id":"levelo_inurba_marseille","lat":43.29419,"lon":5.38618,"is_reserved":false,"is_disabled":false,"rental_uris":{"android":"levelo://app?vid=aa27a214-c949-4ae3-9620-4767abe1b3d7","ios":"levelo://app?vid=aa27a214-c949-4ae3-9620-4767abe1b3d7"},"vehicle_type_id":"4","last_reported":1682449532,"current_range_meters":22800,"station_id":"ce4bh2h2rcd13ifvqdh0","pricing_plan_id":"free"},{"bike_id":"e10e1f14-ac2d-49fd-8f8b-d4e28ac497c3","system_id":"levelo_inurba_marseille","lat":43.2942,"lon":5.38621,"is_reserved":false,"is_disabled":false,"rental_uris":{"android":"levelo://app?vid=e10e1f14-ac2d-49fd-8f8b-d4e28ac497c3","ios":"levelo://app?vid=e10e1f14-ac2d-49fd-8f8b-d4e28ac497c3"},"vehicle_type_id":"4","last_reported":1682449532,"current_range_meters":27600,"station_id":"ce4bh2h2rcd13ifvqdh0","pricing_plan_id":"free"},{"bike_id":"898d6ec0-ab25-46da-97c1-a386388c5d56","system_id":"levelo_inurba_marseille","lat":43.289184,"lon":5.366408,"is_reserved":false,"is_disabled":false,"rental_uris":{"android":"levelo://app?vid=898d6ec0-ab25-46da-97c1-a386388c5d56","ios":"levelo://app?vid=898d6ec0-ab25-46da-97c1-a386388c5d56"},"vehicle_type_id":"4","last_reported":1682449532,"current_range_meters":19600,"station_id":"ce4bhap2rcd13ifvqek0","pricing_plan_id":"free"},{"bike_id":"9f631f30-8119-427d-b6e4-32c259e39e44","system_id":"levelo_inurba_marseille","lat":43.29418,"lon":5.38618,"is_reserved":false,"is_disabled":false,"rental_uris":{"android":"levelo://app?vid=9f631f30-8119-427d-b6e4-32c259e39e44","ios":"levelo://app?vid=9f631f30-8119-427d-b6e4-32c259e39e44"},"vehicle_type_id":"4","last_reported":1682449532,"current_range_meters":14000,"station_id":"ce4bh2h2rcd13ifvqdh0","pricing_plan_id":"free"},{"bike_id":"be7dfd9a-5fe2-46a7-8be7-35e11fb620ae","system_id":"levelo_inurba_marseille","lat":43.289184,"lon":5.366408,"is_reserved":false,"is_disabled":false,"rental_uris":{"android":"levelo://app?vid=be7dfd9a-5fe2-46a7-8be7-35e11fb620ae","ios":"levelo://app?vid=be7dfd9a-5fe2-46a7-8be7-35e11fb620ae"},"vehicle_type_id":"4","last_reported":1682449532,"current_range_meters":23600,"station_id":"ce4bhap2rcd13ifvqek0","pricing_plan_id":"free"},{"bike_id":"c0c7d671-88e0-45fc-bc27-d47faff50a8a","system_id":"levelo_inurba_marseille","lat":43.29419,"lon":5.38623,"is_reserved":false,"is_disabled":false,"rental_uris":{"android":"levelo://app?vid=c0c7d671-88e0-45fc-bc27-d47faff50a8a","ios":"levelo://app?vid=c0c7d671-88e0-45fc-bc27-d47faff50a8a"},"vehicle_type_id":"4","last_reported":1682449532,"current_range_meters":17200,"station_id":"ce4bh2h2rcd13ifvqdh0","pricing_plan_id":"free"},{"bike_id":"e1f65da4-0534-47dd-a03d-a335d221db7d","system_id":"levelo_inurba_marseille","lat":43.29419,"lon":5.38624,"is_reserved":false,"is_disabled":false,"rental_uris":{"android":"levelo://app?vid=e1f65da4-0534-47dd-a03d-a335d221db7d","ios":"levelo://app?vid=e1f65da4-0534-47dd-a03d-a335d221db7d"},"vehicle_type_id":"4","last_reported":1682449532,"current_range_meters":5600,"station_id":"ce4bh2h2rcd13ifvqdh0","pricing_plan_id":"free"},{"bike_id":"1ef07c69-4e64-4330-9420-285bf746d2cb","system_id":"levelo_inurba_marseille","lat":43.29416,"lon":5.38619,"is_reserved":false,"is_disabled":false,"rental_uris":{"android":"levelo://app?vid=1ef07c69-4e64-4330-9420-285bf746d2cb","ios":"levelo://app?vid=1ef07c69-4e64-4330-9420-285bf746d2cb"},"vehicle_type_id":"4","last_reported":1682449532,"current_range_meters":16000,"station_id":"ce4bh2h2rcd13ifvqdh0","pricing_plan_id":"free"},{"bike_id":"b532b4ec-a9b0-43d4-9a2a-912627bac0cd","system_id":"levelo_inurba_marseille","lat":43.29419,"lon":5.38625,"is_reserved":false,"is_disabled":false,"rental_uris":{"android":"levelo://app?vid=b532b4ec-a9b0-43d4-9a2a-912627bac0cd","ios":"levelo://app?vid=b532b4ec-a9b0-43d4-9a2a-912627bac0cd"},"vehicle_type_id":"4","last_reported":1682449532,"current_range_meters":17200,"station_id":"ce4bh2h2rcd13ifvqdh0","pricing_plan_id":"free"},{"bike_id":"3b813227-bbbf-4a0e-8f6c-377308d5694f","system_id":"levelo_inurba_marseille","lat":43.29413,"lon":5.38617,"is_reserved":false,"is_disabled":false,"rental_uris":{"android":"levelo://app?vid=3b813227-bbbf-4a0e-8f6c-377308d5694f","ios":"levelo://app?vid=3b813227-bbbf-4a0e-8f6c-377308d5694f"},"vehicle_type_id":"4","last_reported":1682449532,"current_range_meters":25600,"station_id":"ce4bh2h2rcd13ifvqdh0","pricing_plan_id":"free"},{"bike_id":"ee5e16ef-22eb-4460-9f06-ae0ab9b07488","system_id":"levelo_inurba_marseille","lat":43.29414,"lon":5.38619,"is_reserved":false,"is_disabled":false,"rental_uris":{"android":"levelo://app?vid=ee5e16ef-22eb-4460-9f06-ae0ab9b07488","ios":"levelo://app?vid=ee5e16ef-22eb-4460-9f06-ae0ab9b07488"},"vehicle_type_id":"4","last_reported":1682449532,"current_range_meters":27200,"station_id":"ce4bh2h2rcd13ifvqdh0","pricing_plan_id":"free"},{"bike_id":"24b5c777-89b6-406b-a27a-d16b4dc479a6","system_id":"levelo_inurba_marseille","lat":43.289184,"lon":5.366408,"is_reserved":false,"is_disabled":false,"rental_uris":{"android":"levelo://app?vid=24b5c777-89b6-406b-a27a-d16b4dc479a6","ios":"levelo://app?vid=24b5c777-89b6-406b-a27a-d16b4dc479a6"},"vehicle_type_id":"4","last_reported":1682449532,"current_range_meters":27200,"station_id":"ce4bhap2rcd13ifvqek0","pricing_plan_id":"free"},{"bike_id":"df1bc22b-6cf7-41dd-83f9-c8638826f1d6","system_id":"levelo_inurba_marseille","lat":43.28945,"lon":5.36627,"is_reserved":false,"is_disabled":false,"rental_uris":{"android":"levelo://app?vid=df1bc22b-6cf7-41dd-83f9-c8638826f1d6","ios":"levelo://app?vid=df1bc22b-6cf7-41dd-83f9-c8638826f1d6"},"vehicle_type_id":"4","last_reported":1682449532,"current_range_meters":10400,"station_id":"","pricing_plan_id":"free"},{"bike_id":"bb7d3a0e-49e0-46b1-aef0-fba821638e2f","system_id":"levelo_inurba_marseille","lat":43.29419,"lon":5.38629,"is_reserved":false,"is_disabled":false,"rental_uris":{"android":"levelo://app?vid=bb7d3a0e-49e0-46b1-aef0-fba821638e2f","ios":"levelo://app?vid=bb7d3a0e-49e0-46b1-aef0-fba821638e2f"},"vehicle_type_id":"4","last_reported":1682449532,"current_range_meters":14400,"station_id":"ce4bh2h2rcd13ifvqdh0","pricing_plan_id":"free"},{"bike_id":"349aedff-0fac-4124-a8a8-24a9bd1bce88","system_id":"levelo_inurba_marseille","lat":43.29419,"lon":5.38629,"is_reserved":false,"is_disabled":false,"rental_uris":{"android":"levelo://app?vid=349aedff-0fac-4124-a8a8-24a9bd1bce88","ios":"levelo://app?vid=349aedff-0fac-4124-a8a8-24a9bd1bce88"},"vehicle_type_id":"4","last_reported":1682449532,"current_range_meters":11600,"station_id":"ce4bh2h2rcd13ifvqdh0","pricing_plan_id":"free"},{"bike_id":"e4de9e20-85f4-4071-95c5-03260d2d9401","system_id":"levelo_inurba_marseille","lat":43.294162,"lon":5.386292,"is_reserved":false,"is_disabled":false,"rental_uris":{"android":"levelo://app?vid=e4de9e20-85f4-4071-95c5-03260d2d9401","ios":"levelo://app?vid=e4de9e20-85f4-4071-95c5-03260d2d9401"},"vehicle_type_id":"4","last_reported":1682449532,"current_range_meters":29200,"station_id":"ce4bh2h2rcd13ifvqdh0","pricing_plan_id":"free"},{"bike_id":"a4623543-35bf-4669-8302-18d6e9357f69","system_id":"levelo_inurba_marseille","lat":43.29415,"lon":5.38622,"is_reserved":false,"is_disabled":false,"rental_uris":{"android":"levelo://app?vid=a4623543-35bf-4669-8302-18d6e9357f69","ios":"levelo://app?vid=a4623543-35bf-4669-8302-18d6e9357f69"},"vehicle_type_id":"4","last_reported":1682449532,"current_range_meters":29600,"station_id":"ce4bh2h2rcd13ifvqdh0","pricing_plan_id":"free"},{"bike_id":"6a984957-6d86-4403-b1d6-5d0aa0ccd093","system_id":"levelo_inurba_marseille","lat":43.289184,"lon":5.366408,"is_reserved":false,"is_disabled":false,"rental_uris":{"android":"levelo://app?vid=6a984957-6d86-4403-b1d6-5d0aa0ccd093","ios":"levelo://app?vid=6a984957-6d86-4403-b1d6-5d0aa0ccd093"},"vehicle_type_id":"4","last_reported":1682449532,"current_range_meters":22400,"station_id":"ce4bhap2rcd13ifvqek0","pricing_plan_id":"free"},{"bike_id":"bebcf26f-47eb-4668-a58b-22884ce50838","system_id":"levelo_inurba_marseille","lat":43.289184,"lon":5.366408,"is_reserved":false,"is_disabled":false,"rental_uris":{"android":"levelo://app?vid=bebcf26f-47eb-4668-a58b-22884ce50838","ios":"levelo://app?vid=bebcf26f-47eb-4668-a58b-22884ce50838"},"vehicle_type_id":"4","last_reported":1682449532,"current_range_meters":31600,"station_id":"ce4bhap2rcd13ifvqek0","pricing_plan_id":"free"},{"bike_id":"5c4d1ca1-a87b-4118-bf17-09242976e694","system_id":"levelo_inurba_marseille","lat":43.29412,"lon":5.38622,"is_reserved":false,"is_disabled":false,"rental_uris":{"android":"levelo://app?vid=5c4d1ca1-a87b-4118-bf17-09242976e694","ios":"levelo://app?vid=5c4d1ca1-a87b-4118-bf17-09242976e694"},"vehicle_type_id":"4","last_reported":1682449532,"current_range_meters":10800,"station_id":"ce4bh2h2rcd13ifvqdh0","pricing_plan_id":"free"},{"bike_id":"1b0d50fb-6a5b-4f11-8573-d90d9e1abf8c","system_id":"levelo_inurba_marseille","lat":43.29412,"lon":5.38622,"is_reserved":false,"is_disabled":false,"rental_uris":{"android":"levelo://app?vid=1b0d50fb-6a5b-4f11-8573-d90d9e1abf8c","ios":"levelo://app?vid=1b0d50fb-6a5b-4f11-8573-d90d9e1abf8c"},"vehicle_type_id":"4","last_reported":1682449532,"current_range_meters":13200,"station_id":"ce4bh2h2rcd13ifvqdh0","pricing_plan_id":"free"},{"bike_id":"a18929f9-2f58-4e76-8097-fc2b7629f148","system_id":"levelo_inurba_marseille","lat":43.289184,"lon":5.366408,"is_reserved":false,"is_disabled":false,"rental_uris":{"android":"levelo://app?vid=a18929f9-2f58-4e76-8097-fc2b7629f148","ios":"levelo://app?vid=a18929f9-2f58-4e76-8097-fc2b7629f148"},"vehicle_type_id":"4","last_reported":1682449532,"current_range_meters":4800,"station_id":"ce4bhap2rcd13ifvqek0","pricing_plan_id":"free"},{"bike_id":"c16e6cda-d183-4d13-94e4-de62d604df95","system_id":"levelo_inurba_marseille","lat":43.289184,"lon":5.366408,"is_reserved":false,"is_disabled":false,"rental_uris":{"android":"levelo://app?vid=c16e6cda-d183-4d13-94e4-de62d604df95","ios":"levelo://app?vid=c16e6cda-d183-4d13-94e4-de62d604df95"},"vehicle_type_id":"4","last_reported":1682449532,"current_range_meters":24000,"station_id":"ce4bhap2rcd13ifvqek0","pricing_plan_id":"free"},{"bike_id":"21253a6c-dbce-4abf-a26a-b39219356d46","system_id":"levelo_inurba_marseille","lat":43.29411,"lon":5.38623,"is_reserved":false,"is_disabled":false,"rental_uris":{"android":"levelo://app?vid=21253a6c-dbce-4abf-a26a-b39219356d46","ios":"levelo://app?vid=21253a6c-dbce-4abf-a26a-b39219356d46"},"vehicle_type_id":"4","last_reported":1682449532,"current_range_meters":5200,"station_id":"ce4bh2h2rcd13ifvqdh0","pricing_plan_id":"free"},{"bike_id":"2b46042d-e25b-40c0-b5b4-79b786f79941","system_id":"levelo_inurba_marseille","lat":43.289184,"lon":5.366408,"is_reserved":false,"is_disabled":false,"rental_uris":{"android":"levelo://app?vid=2b46042d-e25b-40c0-b5b4-79b786f79941","ios":"levelo://app?vid=2b46042d-e25b-40c0-b5b4-79b786f79941"},"vehicle_type_id":"4","last_reported":1682449532,"current_range_meters":29600,"station_id":"ce4bhap2rcd13ifvqek0","pricing_plan_id":"free"},{"bike_id":"12473274-bd40-4e35-9c96-d73f7f709694","system_id":"levelo_inurba_marseille","lat":43.28941,"lon":5.36625,"is_reserved":false,"is_disabled":false,"rental_uris":{"android":"levelo://app?vid=12473274-bd40-4e35-9c96-d73f7f709694","ios":"levelo://app?vid=12473274-bd40-4e35-9c96-d73f7f709694"},"vehicle_type_id":"4","last_reported":1682449532,"current_range_meters":11200,"station_id":"","pricing_plan_id":"free"},{"bike_id":"0bf51401-408f-49a0-a780-ed3d1e9ce62f","system_id":"levelo_inurba_marseille","lat":43.289184,"lon":5.366408,"is_reserved":false,"is_disabled":false,"rental_uris":{"android":"levelo://app?vid=0bf51401-408f-49a0-a780-ed3d1e9ce62f","ios":"levelo://app?vid=0bf51401-408f-49a0-a780-ed3d1e9ce62f"},"vehicle_type_id":"4","last_reported":1682449532,"current_range_meters":1600,"station_id":"ce4bhap2rcd13ifvqek0","pricing_plan_id":"free"},{"bike_id":"cca3b428-fa06-4cd9-a83b-fa1296cf9be2","system_id":"levelo_inurba_marseille","lat":43.289468,"lon":5.363719,"is_reserved":false,"is_disabled":false,"rental_uris":{"android":"levelo://app?vid=cca3b428-fa06-4cd9-a83b-fa1296cf9be2","ios":"levelo://app?vid=cca3b428-fa06-4cd9-a83b-fa1296cf9be2"},"vehicle_type_id":"4","last_reported":1682449532,"current_range_meters":30000,"station_id":"ce4bhc92rcd13ifvqetg","pricing_plan_id":"free"},{"bike_id":"53872df7-488e-4456-86ea-d5ca084ce47c","system_id":"levelo_inurba_marseille","lat":43.289468,"lon":5.363719,"is_reserved":false,"is_disabled":false,"rental_uris":{"android":"levelo://app?vid=53872df7-488e-4456-86ea-d5ca084ce47c","ios":"levelo://app?vid=53872df7-488e-4456-86ea-d5ca084ce47c"},"vehicle_type_id":"4","last_reported":1682449532,"current_range_meters":14800,"station_id":"ce4bhc92rcd13ifvqetg","pricing_plan_id":"free"},{"bike_id":"3ee71246-e597-41e2-9d3b-2bb1ceaaa311","system_id":"levelo_inurba_marseille","lat":43.289184,"lon":5.366408,"is_reserved":false,"is_disabled":false,"rental_uris":{"android":"levelo://app?vid=3ee71246-e597-41e2-9d3b-2bb1ceaaa311","ios":"levelo://app?vid=3ee71246-e597-41e2-9d3b-2bb1ceaaa311"},"vehicle_type_id":"4","last_reported":1682449532,"current_range_meters":11600,"station_id":"ce4bhap2rcd13ifvqek0","pricing_plan_id":"free"},{"bike_id":"fc3b02fe-e9d8-47ae-a5a0-4fe439e5b973","system_id":"levelo_inurba_marseille","lat":43.289184,"lon":5.366408,"is_reserved":false,"is_disabled":false,"rental_uris":{"android":"levelo://app?vid=fc3b02fe-e9d8-47ae-a5a0-4fe439e5b973","ios":"levelo://app?vid=fc3b02fe-e9d8-47ae-a5a0-4fe439e5b973"},"vehicle_type_id":"4","last_reported":1682449532,"current_range_meters":2000,"station_id":"ce4bhap2rcd13ifvqek0","pricing_plan_id":"free"},{"bike_id":"af65616f-74f4-4b74-9e73-861d9d09b8f3","system_id":"levelo_inurba_marseille","lat":43.289184,"lon":5.366408,"is_reserved":false,"is_disabled":false,"rental_uris":{"android":"levelo://app?vid=af65616f-74f4-4b74-9e73-861d9d09b8f3","ios":"levelo://app?vid=af65616f-74f4-4b74-9e73-861d9d09b8f3"},"vehicle_type_id":"4","last_reported":1682449532,"current_range_meters":11600,"station_id":"ce4bhap2rcd13ifvqek0","pricing_plan_id":"free"},{"bike_id":"0aa18e00-a56e-4bbb-89ff-1ba46ec94d3e","system_id":"levelo_inurba_marseille","lat":43.289184,"lon":5.366408,"is_reserved":false,"is_disabled":false,"rental_uris":{"android":"levelo://app?vid=0aa18e00-a56e-4bbb-89ff-1ba46ec94d3e","ios":"levelo://app?vid=0aa18e00-a56e-4bbb-89ff-1ba46ec94d3e"},"vehicle_type_id":"4","last_reported":1682449532,"current_range_meters":16000,"station_id":"ce4bhap2rcd13ifvqek0","pricing_plan_id":"free"},{"bike_id":"09e8cc11-c560-445a-b617-f687185ffa35","system_id":"levelo_inurba_marseille","lat":43.289184,"lon":5.366408,"is_reserved":false,"is_disabled":false,"rental_uris":{"android":"levelo://app?vid=09e8cc11-c560-445a-b617-f687185ffa35","ios":"levelo://app?vid=09e8cc11-c560-445a-b617-f687185ffa35"},"vehicle_type_id":"4","last_reported":1682449532,"current_range_meters":25200,"station_id":"ce4bhap2rcd13ifvqek0","pricing_plan_id":"free"},{"bike_id":"dd69ac79-b45c-4472-9e99-ef29c27f4106","system_id":"levelo_inurba_marseille","lat":43.28946,"lon":5.36394,"is_reserved":false,"is_disabled":false,"rental_uris":{"android":"levelo://app?vid=dd69ac79-b45c-4472-9e99-ef29c27f4106","ios":"levelo://app?vid=dd69ac79-b45c-4472-9e99-ef29c27f4106"},"vehicle_type_id":"4","last_reported":1682449532,"current_range_meters":31200,"station_id":"ce4bhc92rcd13ifvqetg","pricing_plan_id":"free"},{"bike_id":"78840a36-3f64-41df-9b3f-e88a595e31ce","system_id":"levelo_inurba_marseille","lat":43.289184,"lon":5.366408,"is_reserved":false,"is_disabled":false,"rental_uris":{"android":"levelo://app?vid=78840a36-3f64-41df-9b3f-e88a595e31ce","ios":"levelo://app?vid=78840a36-3f64-41df-9b3f-e88a595e31ce"},"vehicle_type_id":"4","last_reported":1682449532,"current_range_meters":20800,"station_id":"ce4bhap2rcd13ifvqek0","pricing_plan_id":"free"},{"bike_id":"cf02947e-72e6-4d9b-94b3-7a2e9ffaafd9","system_id":"levelo_inurba_marseille","lat":43.289184,"lon":5.366408,"is_reserved":false,"is_disabled":false,"rental_uris":{"android":"levelo://app?vid=cf02947e-72e6-4d9b-94b3-7a2e9ffaafd9","ios":"levelo://app?vid=cf02947e-72e6-4d9b-94b3-7a2e9ffaafd9"},"vehicle_type_id":"4","last_reported":1682449532,"current_range_meters":18800,"station_id":"ce4bhap2rcd13ifvqek0","pricing_plan_id":"free"},{"bike_id":"2b601d14-551b-44c2-b092-825b59f00000","system_id":"levelo_inurba_marseille","lat":43.28944,"lon":5.36396,"is_reserved":false,"is_disabled":false,"rental_uris":{"android":"levelo://app?vid=2b601d14-551b-44c2-b092-825b59f00000","ios":"levelo://app?vid=2b601d14-551b-44c2-b092-825b59f00000"},"vehicle_type_id":"4","last_reported":1682449532,"current_range_meters":12400,"station_id":"ce4bhc92rcd13ifvqetg","pricing_plan_id":"free"},{"bike_id":"4d2c66e7-6909-4692-87bf-b6a9d5a2643c","system_id":"levelo_inurba_marseille","lat":43.28941,"lon":5.36374,"is_reserved":false,"is_disabled":false,"rental_uris":{"android":"levelo://app?vid=4d2c66e7-6909-4692-87bf-b6a9d5a2643c","ios":"levelo://app?vid=4d2c66e7-6909-4692-87bf-b6a9d5a2643c"},"vehicle_type_id":"4","last_reported":1682449532,"current_range_meters":14400,"station_id":"ce4bhc92rcd13ifvqetg","pricing_plan_id":"free"},{"bike_id":"a4cb4741-50cf-46b1-8473-d73062689588","system_id":"levelo_inurba_marseille","lat":43.289468,"lon":5.363719,"is_reserved":false,"is_disabled":false,"rental_uris":{"android":"levelo://app?vid=a4cb4741-50cf-46b1-8473-d73062689588","ios":"levelo://app?vid=a4cb4741-50cf-46b1-8473-d73062689588"},"vehicle_type_id":"4","last_reported":1682449532,"current_range_meters":9600,"station_id":"ce4bhc92rcd13ifvqetg","pricing_plan_id":"free"},{"bike_id":"594d8d66-8ba9-4119-b62e-12fefa4e51bd","system_id":"levelo_inurba_marseille","lat":43.289468,"lon":5.363719,"is_reserved":false,"is_disabled":false,"rental_uris":{"android":"levelo://app?vid=594d8d66-8ba9-4119-b62e-12fefa4e51bd","ios":"levelo://app?vid=594d8d66-8ba9-4119-b62e-12fefa4e51bd"},"vehicle_type_id":"4","last_reported":1682449532,"current_range_meters":7200,"station_id":"ce4bhc92rcd13ifvqetg","pricing_plan_id":"free"},{"bike_id":"61be44fe-c7ae-4d24-9e3a-ea4cb7af7126","system_id":"levelo_inurba_marseille","lat":43.28931,"lon":5.36379,"is_reserved":false,"is_disabled":false,"rental_uris":{"android":"levelo://app?vid=61be44fe-c7ae-4d24-9e3a-ea4cb7af7126","ios":"levelo://app?vid=61be44fe-c7ae-4d24-9e3a-ea4cb7af7126"},"vehicle_type_id":"4","last_reported":1682449532,"current_range_meters":31200,"station_id":"ce4bhc92rcd13ifvqetg","pricing_plan_id":"free"},{"bike_id":"a2bb9519-00f4-48f5-8396-8a705188b104","system_id":"levelo_inurba_marseille","lat":43.292642,"lon":5.384254,"is_reserved":false,"is_disabled":false,"rental_uris":{"android":"levelo://app?vid=a2bb9519-00f4-48f5-8396-8a705188b104","ios":"levelo://app?vid=a2bb9519-00f4-48f5-8396-8a705188b104"},"vehicle_type_id":"4","last_reported":1682449532,"current_range_meters":31200,"station_id":"ce4bh692rcd13ifvqea0","pricing_plan_id":"free"},{"bike_id":"aaec4ce6-173c-4182-a3b0-ade212632f21","system_id":"levelo_inurba_marseille","lat":43.292703,"lon":5.384435,"is_reserved":false,"is_disabled":false,"rental_uris":{"android":"levelo://app?vid=aaec4ce6-173c-4182-a3b0-ade212632f21","ios":"levelo://app?vid=aaec4ce6-173c-4182-a3b0-ade212632f21"},"vehicle_type_id":"4","last_reported":1682449532,"current_range_meters":30400,"station_id":"ce4bh692rcd13ifvqea0","pricing_plan_id":"free"},{"bike_id":"97eeeb0f-bf08-4ef4-9143-705261f65740","system_id":"levelo_inurba_marseille","lat":43.292644,"lon":5.384257,"is_reserved":false,"is_disabled":false,"rental_uris":{"android":"levelo://app?vid=97eeeb0f-bf08-4ef4-9143-705261f65740","ios":"levelo://app?vid=97eeeb0f-bf08-4ef4-9143-705261f65740"},"vehicle_type_id":"4","last_reported":1682449532,"current_range_meters":24400,"station_id":"ce4bh692rcd13ifvqea0","pricing_plan_id":"free"},{"bike_id":"4371567c-11b4-4631-ad7c-9f9b6691ddca","system_id":"levelo_inurba_marseille","lat":43.292644,"lon":5.384257,"is_reserved":false,"is_disabled":false,"rental_uris":{"android":"levelo://app?vid=4371567c-11b4-4631-ad7c-9f9b6691ddca","ios":"levelo://app?vid=4371567c-11b4-4631-ad7c-9f9b6691ddca"},"vehicle_type_id":"4","last_reported":1682449532,"current_range_meters":16000,"station_id":"ce4bh692rcd13ifvqea0","pricing_plan_id":"free"},{"bike_id":"5014b783-c98f-4c12-a5f4-204dbe092285","system_id":"levelo_inurba_marseille","lat":43.292644,"lon":5.384257,"is_reserved":false,"is_disabled":false,"rental_uris":{"android":"levelo://app?vid=5014b783-c98f-4c12-a5f4-204dbe092285","ios":"levelo://app?vid=5014b783-c98f-4c12-a5f4-204dbe092285"},"vehicle_type_id":"4","last_reported":1682449532,"current_range_meters":30400,"station_id":"ce4bh692rcd13ifvqea0","pricing_plan_id":"free"},{"bike_id":"4792be19-209d-4e48-bba6-de996c21348c","system_id":"levelo_inurba_marseille","lat":43.292642,"lon":5.384254,"is_reserved":false,"is_disabled":false,"rental_uris":{"android":"levelo://app?vid=4792be19-209d-4e48-bba6-de996c21348c","ios":"levelo://app?vid=4792be19-209d-4e48-bba6-de996c21348c"},"vehicle_type_id":"4","last_reported":1682449532,"current_range_meters":15200,"station_id":"ce4bh692rcd13ifvqea0","pricing_plan_id":"free"},{"bike_id":"012580ae-d8f1-4d6f-8f85-c9772fc85ea1","system_id":"levelo_inurba_marseille","lat":43.292642,"lon":5.384254,"is_reserved":false,"is_disabled":false,"rental_uris":{"android":"levelo://app?vid=012580ae-d8f1-4d6f-8f85-c9772fc85ea1","ios":"levelo://app?vid=012580ae-d8f1-4d6f-8f85-c9772fc85ea1"},"vehicle_type_id":"4","last_reported":1682449532,"current_range_meters":28400,"station_id":"ce4bh692rcd13ifvqea0","pricing_plan_id":"free"},{"bike_id":"7a36582d-4a6f-416d-8d57-f9c1f1050635","system_id":"levelo_inurba_marseille","lat":43.304296,"lon":5.397513,"is_reserved":false,"is_disabled":false,"rental_uris":{"android":"levelo://app?vid=7a36582d-4a6f-416d-8d57-f9c1f1050635","ios":"levelo://app?vid=7a36582d-4a6f-416d-8d57-f9c1f1050635"},"vehicle_type_id":"4","last_reported":1682449532,"current_range_meters":18800,"station_id":"ce4bh092rcd13ifvqd20","pricing_plan_id":"free"},{"bike_id":"38f60c26-d454-4148-af9c-38aedf7826ae","system_id":"levelo_inurba_marseille","lat":43.292642,"lon":5.384254,"is_reserved":false,"is_disabled":false,"rental_uris":{"android":"levelo://app?vid=38f60c26-d454-4148-af9c-38aedf7826ae","ios":"levelo://app?vid=38f60c26-d454-4148-af9c-38aedf7826ae"},"vehicle_type_id":"4","last_reported":1682449532,"current_range_meters":23200,"station_id":"ce4bh692rcd13ifvqea0","pricing_plan_id":"free"},{"bike_id":"53f240a5-1aae-492a-84eb-f6b105539d78","system_id":"levelo_inurba_marseille","lat":43.292642,"lon":5.384254,"is_reserved":false,"is_disabled":false,"rental_uris":{"android":"levelo://app?vid=53f240a5-1aae-492a-84eb-f6b105539d78","ios":"levelo://app?vid=53f240a5-1aae-492a-84eb-f6b105539d78"},"vehicle_type_id":"4","last_reported":1682449532,"current_range_meters":31200,"station_id":"ce4bh692rcd13ifvqea0","pricing_plan_id":"free"},{"bike_id":"e095a1ea-968d-4b79-8a6b-9e052580149f","system_id":"levelo_inurba_marseille","lat":43.292644,"lon":5.384257,"is_reserved":false,"is_disabled":false,"rental_uris":{"android":"levelo://app?vid=e095a1ea-968d-4b79-8a6b-9e052580149f","ios":"levelo://app?vid=e095a1ea-968d-4b79-8a6b-9e052580149f"},"vehicle_type_id":"4","last_reported":1682449532,"current_range_meters":26800,"station_id":"ce4bh692rcd13ifvqea0","pricing_plan_id":"free"},{"bike_id":"3581be6d-094f-45ba-924e-59fef9e29950","system_id":"levelo_inurba_marseille","lat":43.292628,"lon":5.384456,"is_reserved":false,"is_disabled":false,"rental_uris":{"android":"levelo://app?vid=3581be6d-094f-45ba-924e-59fef9e29950","ios":"levelo://app?vid=3581be6d-094f-45ba-924e-59fef9e29950"},"vehicle_type_id":"4","last_reported":1682449532,"current_range_meters":28000,"station_id":"ce4bh692rcd13ifvqea0","pricing_plan_id":"free"},{"bike_id":"2d4b1970-88aa-49ab-88fd-a11024cf239a","system_id":"levelo_inurba_marseille","lat":43.292642,"lon":5.384254,"is_reserved":false,"is_disabled":false,"rental_uris":{"android":"levelo://app?vid=2d4b1970-88aa-49ab-88fd-a11024cf239a","ios":"levelo://app?vid=2d4b1970-88aa-49ab-88fd-a11024cf239a"},"vehicle_type_id":"4","last_reported":1682449532,"current_range_meters":28800,"station_id":"ce4bh692rcd13ifvqea0","pricing_plan_id":"free"},{"bike_id":"60da44f6-b524-4cd4-a776-e4dbb38248f8","system_id":"levelo_inurba_marseille","lat":43.330367,"lon":5.38922,"is_reserved":false,"is_disabled":false,"rental_uris":{"android":"levelo://app?vid=60da44f6-b524-4cd4-a776-e4dbb38248f8","ios":"levelo://app?vid=60da44f6-b524-4cd4-a776-e4dbb38248f8"},"vehicle_type_id":"4","last_reported":1682449532,"current_range_meters":29200,"station_id":"ce4bhr92rcd13ifvqhrg","pricing_plan_id":"free"},{"bike_id":"401babb9-d704-4401-9cb3-46c96cbb7da4","system_id":"levelo_inurba_marseille","lat":43.330392,"lon":5.389207,"is_reserved":false,"is_disabled":false,"rental_uris":{"android":"levelo://app?vid=401babb9-d704-4401-9cb3-46c96cbb7da4","ios":"levelo://app?vid=401babb9-d704-4401-9cb3-46c96cbb7da4"},"vehicle_type_id":"4","last_reported":1682449532,"current_range_meters":28800,"station_id":"ce4bhr92rcd13ifvqhrg","pricing_plan_id":"free"},{"bike_id":"bc6de142-8c07-4bbc-a37d-72437afc0a47","system_id":"levelo_inurba_marseille","lat":43.330454,"lon":5.389114,"is_reserved":false,"is_disabled":false,"rental_uris":{"android":"levelo://app?vid=bc6de142-8c07-4bbc-a37d-72437afc0a47","ios":"levelo://app?vid=bc6de142-8c07-4bbc-a37d-72437afc0a47"},"vehicle_type_id":"4","last_reported":1682449532,"current_range_meters":20000,"station_id":"ce4bhr92rcd13ifvqhrg","pricing_plan_id":"free"},{"bike_id":"4d2fb4ad-736b-40ff-a5d0-e8973f1b7624","system_id":"levelo_inurba_marseille","lat":43.33041,"lon":5.389186,"is_reserved":false,"is_disabled":false,"rental_uris":{"android":"levelo://app?vid=4d2fb4ad-736b-40ff-a5d0-e8973f1b7624","ios":"levelo://app?vid=4d2fb4ad-736b-40ff-a5d0-e8973f1b7624"},"vehicle_type_id":"4","last_reported":1682449532,"current_range_meters":19200,"station_id":"ce4bhr92rcd13ifvqhrg","pricing_plan_id":"free"},{"bike_id":"4099b1e7-9964-41b0-8476-034c422a98fe","system_id":"levelo_inurba_marseille","lat":43.330446,"lon":5.389151,"is_reserved":false,"is_disabled":false,"rental_uris":{"android":"levelo://app?vid=4099b1e7-9964-41b0-8476-034c422a98fe","ios":"levelo://app?vid=4099b1e7-9964-41b0-8476-034c422a98fe"},"vehicle_type_id":"4","last_reported":1682449532,"current_range_meters":18400,"station_id":"ce4bhr92rcd13ifvqhrg","pricing_plan_id":"free"},{"bike_id":"4bbc2b50-c3e0-4087-a354-589abb050b5b","system_id":"levelo_inurba_marseille","lat":43.330461,"lon":5.38913,"is_reserved":false,"is_disabled":false,"rental_uris":{"android":"levelo://app?vid=4bbc2b50-c3e0-4087-a354-589abb050b5b","ios":"levelo://app?vid=4bbc2b50-c3e0-4087-a354-589abb050b5b"},"vehicle_type_id":"4","last_reported":1682449532,"current_range_meters":18400,"station_id":"ce4bhr92rcd13ifvqhrg","pricing_plan_id":"free"},{"bike_id":"a1a218a3-67a1-4c51-9cc9-3e2af3096307","system_id":"levelo_inurba_marseille","lat":43.330461,"lon":5.389144,"is_reserved":false,"is_disabled":false,"rental_uris":{"android":"levelo://app?vid=a1a218a3-67a1-4c51-9cc9-3e2af3096307","ios":"levelo://app?vid=a1a218a3-67a1-4c51-9cc9-3e2af3096307"},"vehicle_type_id":"4","last_reported":1682449532,"current_range_meters":19200,"station_id":"ce4bhr92rcd13ifvqhrg","pricing_plan_id":"free"},{"bike_id":"d58390d7-6792-452f-90e8-27f42c258ae0","system_id":"levelo_inurba_marseille","lat":43.330455,"lon":5.389155,"is_reserved":false,"is_disabled":false,"rental_uris":{"android":"levelo://app?vid=d58390d7-6792-452f-90e8-27f42c258ae0","ios":"levelo://app?vid=d58390d7-6792-452f-90e8-27f42c258ae0"},"vehicle_type_id":"4","last_reported":1682449532,"current_range_meters":0,"station_id":"ce4bhr92rcd13ifvqhrg","pricing_plan_id":"free"},{"bike_id":"21e4a3ca-8f0d-4ba4-97f1-2aeb6db4698c","system_id":"levelo_inurba_marseille","lat":43.330459,"lon":5.389151,"is_reserved":false,"is_disabled":false,"rental_uris":{"android":"levelo://app?vid=21e4a3ca-8f0d-4ba4-97f1-2aeb6db4698c","ios":"levelo://app?vid=21e4a3ca-8f0d-4ba4-97f1-2aeb6db4698c"},"vehicle_type_id":"4","last_reported":1682449532,"current_range_meters":28000,"station_id":"ce4bhr92rcd13ifvqhrg","pricing_plan_id":"free"},{"bike_id":"13337b9a-286d-40ab-ad5c-6640cb331620","system_id":"levelo_inurba_marseille","lat":43.330471,"lon":5.389145,"is_reserved":false,"is_disabled":false,"rental_uris":{"android":"levelo://app?vid=13337b9a-286d-40ab-ad5c-6640cb331620","ios":"levelo://app?vid=13337b9a-286d-40ab-ad5c-6640cb331620"},"vehicle_type_id":"4","last_reported":1682449532,"current_range_meters":26800,"station_id":"ce4bhr92rcd13ifvqhrg","pricing_plan_id":"free"},{"bike_id":"678dff60-81ed-452b-9ca7-f9af550d725b","system_id":"levelo_inurba_marseille","lat":43.29102,"lon":5.38135,"is_reserved":false,"is_disabled":false,"rental_uris":{"android":"levelo://app?vid=678dff60-81ed-452b-9ca7-f9af550d725b","ios":"levelo://app?vid=678dff60-81ed-452b-9ca7-f9af550d725b"},"vehicle_type_id":"4","last_reported":1682449532,"current_range_meters":0,"station_id":"ce4bh512rcd13ifvqe2g","pricing_plan_id":"free"},{"bike_id":"a1cda687-b95f-498f-8de2-5950b3af714d","system_id":"levelo_inurba_marseille","lat":43.29309,"lon":5.38665,"is_reserved":false,"is_disabled":false,"rental_uris":{"android":"levelo://app?vid=a1cda687-b95f-498f-8de2-5950b3af714d","ios":"levelo://app?vid=a1cda687-b95f-498f-8de2-5950b3af714d"},"vehicle_type_id":"4","last_reported":1682449532,"current_range_meters":20400,"station_id":"","pricing_plan_id":"free"},{"bike_id":"fbf373f5-8679-43d9-a8cd-8b193cef9a06","system_id":"levelo_inurba_marseille","lat":43.29525,"lon":5.3902,"is_reserved":false,"is_disabled":false,"rental_uris":{"android":"levelo://app?vid=fbf373f5-8679-43d9-a8cd-8b193cef9a06","ios":"levelo://app?vid=fbf373f5-8679-43d9-a8cd-8b193cef9a06"},"vehicle_type_id":"4","last_reported":1682449532,"current_range_meters":25600,"station_id":"ce4bh3p2rcd13ifvqdp0","pricing_plan_id":"free"},{"bike_id":"9677448e-022c-4aca-90e0-82d35e0a0044","system_id":"levelo_inurba_marseille","lat":43.295169,"lon":5.390426,"is_reserved":false,"is_disabled":false,"rental_uris":{"android":"levelo://app?vid=9677448e-022c-4aca-90e0-82d35e0a0044","ios":"levelo://app?vid=9677448e-022c-4aca-90e0-82d35e0a0044"},"vehicle_type_id":"4","last_reported":1682449532,"current_range_meters":28400,"station_id":"ce4bh3p2rcd13ifvqdp0","pricing_plan_id":"free"},{"bike_id":"a3181926-b219-42cc-9d8d-675c59eeb13a","system_id":"levelo_inurba_marseille","lat":43.330506,"lon":5.390109,"is_reserved":false,"is_disabled":false,"rental_uris":{"android":"levelo://app?vid=a3181926-b219-42cc-9d8d-675c59eeb13a","ios":"levelo://app?vid=a3181926-b219-42cc-9d8d-675c59eeb13a"},"vehicle_type_id":"4","last_reported":1682449532,"current_range_meters":24000,"station_id":"ce4bhr92rcd13ifvqhrg","pricing_plan_id":"free"},{"bike_id":"e1c0b78f-15e3-4c7c-89c7-4034512de347","system_id":"levelo_inurba_marseille","lat":43.295169,"lon":5.390426,"is_reserved":false,"is_disabled":false,"rental_uris":{"android":"levelo://app?vid=e1c0b78f-15e3-4c7c-89c7-4034512de347","ios":"levelo://app?vid=e1c0b78f-15e3-4c7c-89c7-4034512de347"},"vehicle_type_id":"4","last_reported":1682449532,"current_range_meters":28800,"station_id":"ce4bh3p2rcd13ifvqdp0","pricing_plan_id":"free"},{"bike_id":"fc5011a5-32fe-4047-be9b-d6be7e69cd8d","system_id":"levelo_inurba_marseille","lat":43.295169,"lon":5.390426,"is_reserved":false,"is_disabled":false,"rental_uris":{"android":"levelo://app?vid=fc5011a5-32fe-4047-be9b-d6be7e69cd8d","ios":"levelo://app?vid=fc5011a5-32fe-4047-be9b-d6be7e69cd8d"},"vehicle_type_id":"4","last_reported":1682449532,"current_range_meters":22800,"station_id":"ce4bh3p2rcd13ifvqdp0","pricing_plan_id":"free"},{"bike_id":"f6d43fff-a973-4eb1-b9b5-0b5a27eaf033","system_id":"levelo_inurba_marseille","lat":43.28856,"lon":5.358371,"is_reserved":false,"is_disabled":false,"rental_uris":{"android":"levelo://app?vid=f6d43fff-a973-4eb1-b9b5-0b5a27eaf033","ios":"levelo://app?vid=f6d43fff-a973-4eb1-b9b5-0b5a27eaf033"},"vehicle_type_id":"4","last_reported":1682449532,"current_range_meters":3200,"station_id":"ce4bhb12rcd13ifvqem0","pricing_plan_id":"free"},{"bike_id":"bcbee443-0fc7-4a66-baef-e81544720c10","system_id":"levelo_inurba_marseille","lat":43.288664,"lon":5.358464,"is_reserved":false,"is_disabled":false,"rental_uris":{"android":"levelo://app?vid=bcbee443-0fc7-4a66-baef-e81544720c10","ios":"levelo://app?vid=bcbee443-0fc7-4a66-baef-e81544720c10"},"vehicle_type_id":"4","last_reported":1682449532,"current_range_meters":17200,"station_id":"ce4bhb12rcd13ifvqem0","pricing_plan_id":"free"},{"bike_id":"b408a909-1bac-4047-82cc-ea4d4be43e14","system_id":"levelo_inurba_marseille","lat":43.28856,"lon":5.358371,"is_reserved":false,"is_disabled":false,"rental_uris":{"android":"levelo://app?vid=b408a909-1bac-4047-82cc-ea4d4be43e14","ios":"levelo://app?vid=b408a909-1bac-4047-82cc-ea4d4be43e14"},"vehicle_type_id":"4","last_reported":1682449532,"current_range_meters":17200,"station_id":"ce4bhb12rcd13ifvqem0","pricing_plan_id":"free"},{"bike_id":"9bb40cbd-3915-433c-a672-abc57139d0e5","system_id":"levelo_inurba_marseille","lat":43.28856,"lon":5.358371,"is_reserved":false,"is_disabled":false,"rental_uris":{"android":"levelo://app?vid=9bb40cbd-3915-433c-a672-abc57139d0e5","ios":"levelo://app?vid=9bb40cbd-3915-433c-a672-abc57139d0e5"},"vehicle_type_id":"4","last_reported":1682449532,"current_range_meters":25200,"station_id":"ce4bhb12rcd13ifvqem0","pricing_plan_id":"free"},{"bike_id":"24ebf84a-ffc8-46ff-9418-b4ea2687a0f1","system_id":"levelo_inurba_marseille","lat":43.28862,"lon":5.35854,"is_reserved":false,"is_disabled":false,"rental_uris":{"android":"levelo://app?vid=24ebf84a-ffc8-46ff-9418-b4ea2687a0f1","ios":"levelo://app?vid=24ebf84a-ffc8-46ff-9418-b4ea2687a0f1"},"vehicle_type_id":"4","last_reported":1682449532,"current_range_meters":4800,"station_id":"ce4bhb12rcd13ifvqem0","pricing_plan_id":"free"},{"bike_id":"dabb8d3d-6869-4358-86b5-78c8ffd9fb2c","system_id":"levelo_inurba_marseille","lat":43.28856,"lon":5.358371,"is_reserved":false,"is_disabled":false,"rental_uris":{"android":"levelo://app?vid=dabb8d3d-6869-4358-86b5-78c8ffd9fb2c","ios":"levelo://app?vid=dabb8d3d-6869-4358-86b5-78c8ffd9fb2c"},"vehicle_type_id":"4","last_reported":1682449532,"current_range_meters":31600,"station_id":"ce4bhb12rcd13ifvqem0","pricing_plan_id":"free"},{"bike_id":"190eddb7-1444-45e4-8edc-e542ca682654","system_id":"levelo_inurba_marseille","lat":43.28856,"lon":5.358371,"is_reserved":false,"is_disabled":false,"rental_uris":{"android":"levelo://app?vid=190eddb7-1444-45e4-8edc-e542ca682654","ios":"levelo://app?vid=190eddb7-1444-45e4-8edc-e542ca682654"},"vehicle_type_id":"4","last_reported":1682449532,"current_range_meters":31600,"station_id":"ce4bhb12rcd13ifvqem0","pricing_plan_id":"free"},{"bike_id":"9f4a5a4a-9e94-44c0-aeb3-bd281e9b75a8","system_id":"levelo_inurba_marseille","lat":43.28856,"lon":5.358371,"is_reserved":false,"is_disabled":false,"rental_uris":{"android":"levelo://app?vid=9f4a5a4a-9e94-44c0-aeb3-bd281e9b75a8","ios":"levelo://app?vid=9f4a5a4a-9e94-44c0-aeb3-bd281e9b75a8"},"vehicle_type_id":"4","last_reported":1682449532,"current_range_meters":29600,"station_id":"ce4bhb12rcd13ifvqem0","pricing_plan_id":"free"},{"bike_id":"62925b71-ba97-44dc-9ffc-472f7e0a246d","system_id":"levelo_inurba_marseille","lat":43.28856,"lon":5.358371,"is_reserved":false,"is_disabled":false,"rental_uris":{"android":"levelo://app?vid=62925b71-ba97-44dc-9ffc-472f7e0a246d","ios":"levelo://app?vid=62925b71-ba97-44dc-9ffc-472f7e0a246d"},"vehicle_type_id":"4","last_reported":1682449532,"current_range_meters":3200,"station_id":"ce4bhb12rcd13ifvqem0","pricing_plan_id":"free"},{"bike_id":"7dc0f8b4-50d2-4f30-8651-30f4d7b1ff9a","system_id":"levelo_inurba_marseille","lat":43.28856,"lon":5.358371,"is_reserved":false,"is_disabled":false,"rental_uris":{"android":"levelo://app?vid=7dc0f8b4-50d2-4f30-8651-30f4d7b1ff9a","ios":"levelo://app?vid=7dc0f8b4-50d2-4f30-8651-30f4d7b1ff9a"},"vehicle_type_id":"4","last_reported":1682449532,"current_range_meters":31200,"station_id":"ce4bhb12rcd13ifvqem0","pricing_plan_id":"free"},{"bike_id":"7c8a3453-30d6-4180-89a9-2a0476045dd0","system_id":"levelo_inurba_marseille","lat":43.28856,"lon":5.358371,"is_reserved":false,"is_disabled":false,"rental_uris":{"android":"levelo://app?vid=7c8a3453-30d6-4180-89a9-2a0476045dd0","ios":"levelo://app?vid=7c8a3453-30d6-4180-89a9-2a0476045dd0"},"vehicle_type_id":"4","last_reported":1682449532,"current_range_meters":31600,"station_id":"ce4bhb12rcd13ifvqem0","pricing_plan_id":"free"},{"bike_id":"4a13871d-0020-4bdb-ad94-82c60d8fa4bf","system_id":"levelo_inurba_marseille","lat":43.28856,"lon":5.358371,"is_reserved":false,"is_disabled":false,"rental_uris":{"android":"levelo://app?vid=4a13871d-0020-4bdb-ad94-82c60d8fa4bf","ios":"levelo://app?vid=4a13871d-0020-4bdb-ad94-82c60d8fa4bf"},"vehicle_type_id":"4","last_reported":1682449532,"current_range_meters":12000,"station_id":"ce4bhb12rcd13ifvqem0","pricing_plan_id":"free"},{"bike_id":"2fe5ed8d-1382-4e8d-8a2f-b71c6cc855f9","system_id":"levelo_inurba_marseille","lat":43.28856,"lon":5.358371,"is_reserved":false,"is_disabled":false,"rental_uris":{"android":"levelo://app?vid=2fe5ed8d-1382-4e8d-8a2f-b71c6cc855f9","ios":"levelo://app?vid=2fe5ed8d-1382-4e8d-8a2f-b71c6cc855f9"},"vehicle_type_id":"4","last_reported":1682449532,"current_range_meters":20800,"station_id":"ce4bhb12rcd13ifvqem0","pricing_plan_id":"free"},{"bike_id":"bee714ed-e24a-4268-8833-a732483cfd30","system_id":"levelo_inurba_marseille","lat":43.288534,"lon":5.358444,"is_reserved":false,"is_disabled":false,"rental_uris":{"android":"levelo://app?vid=bee714ed-e24a-4268-8833-a732483cfd30","ios":"levelo://app?vid=bee714ed-e24a-4268-8833-a732483cfd30"},"vehicle_type_id":"4","last_reported":1682449532,"current_range_meters":31600,"station_id":"ce4bhb12rcd13ifvqem0","pricing_plan_id":"free"},{"bike_id":"90d0d3e3-f295-4ee5-bc14-5b1ceb0c5566","system_id":"levelo_inurba_marseille","lat":43.28856,"lon":5.358371,"is_reserved":false,"is_disabled":false,"rental_uris":{"android":"levelo://app?vid=90d0d3e3-f295-4ee5-bc14-5b1ceb0c5566","ios":"levelo://app?vid=90d0d3e3-f295-4ee5-bc14-5b1ceb0c5566"},"vehicle_type_id":"4","last_reported":1682449532,"current_range_meters":12000,"station_id":"ce4bhb12rcd13ifvqem0","pricing_plan_id":"free"},{"bike_id":"10124f05-2691-405d-9339-eabffc8ccb8a","system_id":"levelo_inurba_marseille","lat":43.28856,"lon":5.358371,"is_reserved":false,"is_disabled":false,"rental_uris":{"android":"levelo://app?vid=10124f05-2691-405d-9339-eabffc8ccb8a","ios":"levelo://app?vid=10124f05-2691-405d-9339-eabffc8ccb8a"},"vehicle_type_id":"4","last_reported":1682449532,"current_range_meters":11600,"station_id":"ce4bhb12rcd13ifvqem0","pricing_plan_id":"free"},{"bike_id":"2c90d4cb-9714-4b14-949d-16aa7e6aa7b3","system_id":"levelo_inurba_marseille","lat":43.28856,"lon":5.358371,"is_reserved":false,"is_disabled":false,"rental_uris":{"android":"levelo://app?vid=2c90d4cb-9714-4b14-949d-16aa7e6aa7b3","ios":"levelo://app?vid=2c90d4cb-9714-4b14-949d-16aa7e6aa7b3"},