{"last_updated":1732050552,"ttl":60,"version":"2.2","data":{"bikes":[{"bike_id":"cacde89c-5086-4b87-8bcd-a2b586b3345d","system_id":"levelo_inurba_marseille","lat":43.30154,"lon":5.38098,"is_reserved":false,"is_disabled":true,"rental_uris":{"android":"levelo://app?vid=cacde89c-5086-4b87-8bcd-a2b586b3345d","ios":"levelo://app?vid=cacde89c-5086-4b87-8bcd-a2b586b3345d"},"vehicle_type_id":"4","last_reported":1732050552,"current_range_meters":38400,"station_id":"ce4bgjp2rcd13ifvqbh0","pricing_plan_id":"cebpf4jnsgd1na2vs0mg"},{"bike_id":"46c6d75a-6f02-4f33-9930-3f2ae43c6e0c","system_id":"levelo_inurba_marseille","lat":43.255787,"lon":5.38235,"is_reserved":false,"is_disabled":false,"rental_uris":{"android":"levelo://app?vid=46c6d75a-6f02-4f33-9930-3f2ae43c6e0c","ios":"levelo://app?vid=46c6d75a-6f02-4f33-9930-3f2ae43c6e0c"},"vehicle_type_id":"4","last_reported":1732050552,"current_range_meters":28800,"station_id":"ce4bhih2rcd13ifvqfs0","pricing_plan_id":"cebpf4jnsgd1na2vs0mg"},{"bike_id":"b21da081-9879-40dd-84c5-23f42e6f5e53","system_id":"levelo_inurba_marseille","lat":43.27947,"lon":5.41041,"is_reserved":false,"is_disabled":true,"rental_uris":{"android":"levelo://app?vid=b21da081-9879-40dd-84c5-23f42e6f5e53","ios":"levelo://app?vid=b21da081-9879-40dd-84c5-23f42e6f5e53"},"vehicle_type_id":"4","last_reported":1732050552,"current_range_meters":17200,"station_id":"ce4bhnp2rcd13ifvqh0g","pricing_plan_id":"cebpf4jnsgd1na2vs0mg"},{"bike_id":"98fd58c5-ee32-4fee-a47c-fb865a30b758","system_id":"levelo_inurba_marseille","lat":43.25867,"lon":5.39904,"is_reserved":false,"is_disabled":false,"rental_uris":{"android":"levelo://app?vid=98fd58c5-ee32-4fee-a47c-fb865a30b758","ios":"levelo://app?vid=98fd58c5-ee32-4fee-a47c-fb865a30b758"},"vehicle_type_id":"4","last_reported":1732050552,"current_range_meters":32000,"station_id":"ce4bhl92rcd13ifvqghg","pricing_plan_id":"cebpf4jnsgd1na2vs0mg"},{"bike_id":"a892faef-a93d-417e-8807-b225fc9a1ba8","system_id":"levelo_inurba_marseille","lat":43.27998,"lon":5.40014,"is_reserved":false,"is_disabled":false,"rental_uris":{"android":"levelo://app?vid=a892faef-a93d-417e-8807-b225fc9a1ba8","ios":"levelo://app?vid=a892faef-a93d-417e-8807-b225fc9a1ba8"},"vehicle_type_id":"4","last_reported":1732050552,"current_range_meters":38800,"station_id":"ce4bho92rcd13ifvqh4g","pricing_plan_id":"cebpf4jnsgd1na2vs0mg"},{"bike_id":"dc94fd26-5f8e-4f9c-bc63-4eeb71a922dd","system_id":"levelo_inurba_marseille","lat":43.24995,"lon":5.38931,"is_reserved":false,"is_disabled":false,"rental_uris":{"android":"levelo://app?vid=dc94fd26-5f8e-4f9c-bc63-4eeb71a922dd","ios":"levelo://app?vid=dc94fd26-5f8e-4f9c-bc63-4eeb71a922dd"},"vehicle_type_id":"4","last_reported":1732050552,"current_range_meters":38800,"station_id":"ce4bhgp2rcd13ifvqfd0","pricing_plan_id":"cebpf4jnsgd1na2vs0mg"},{"bike_id":"bb9ea763-6e93-4922-b0c2-ce9421dca49b","system_id":"levelo_inurba_marseille","lat":43.25927,"lon":5.40918,"is_reserved":false,"is_disabled":false,"rental_uris":{"android":"levelo://app?vid=bb9ea763-6e93-4922-b0c2-ce9421dca49b","ios":"levelo://app?vid=bb9ea763-6e93-4922-b0c2-ce9421dca49b"},"vehicle_type_id":"4","last_reported":1732050552,"current_range_meters":38800,"station_id":"ce4bhm92rcd13ifvqglg","pricing_plan_id":"cebpf4jnsgd1na2vs0mg"},{"bike_id":"df89f28d-09ef-4d95-998a-b310ab3afea0","system_id":"levelo_inurba_marseille","lat":43.33021,"lon":5.39048,"is_reserved":false,"is_disabled":false,"rental_uris":{"android":"levelo://app?vid=df89f28d-09ef-4d95-998a-b310ab3afea0","ios":"levelo://app?vid=df89f28d-09ef-4d95-998a-b310ab3afea0"},"vehicle_type_id":"4","last_reported":1732050552,"current_range_meters":10000,"station_id":"ce4bhr92rcd13ifvqhrg","pricing_plan_id":"cebpf4jnsgd1na2vs0mg"},{"bike_id":"32c28f4b-d106-47da-ad83-2ad574a3a740","system_id":"levelo_inurba_marseille","lat":43.2953,"lon":5.38545,"is_reserved":false,"is_disabled":false,"rental_uris":{"android":"levelo://app?vid=32c28f4b-d106-47da-ad83-2ad574a3a740","ios":"levelo://app?vid=32c28f4b-d106-47da-ad83-2ad574a3a740"},"vehicle_type_id":"4","last_reported":1732050552,"current_range_meters":38800,"station_id":"ce4bgih2rcd13ifvqba0","pricing_plan_id":"cebpf4jnsgd1na2vs0mg"},{"bike_id":"ca00cbdb-a7ba-4754-84ce-2b505af78be6","system_id":"levelo_inurba_marseille","lat":43.28377,"lon":5.38647,"is_reserved":false,"is_disabled":false,"rental_uris":{"android":"levelo://app?vid=ca00cbdb-a7ba-4754-84ce-2b505af78be6","ios":"levelo://app?vid=ca00cbdb-a7ba-4754-84ce-2b505af78be6"},"vehicle_type_id":"4","last_reported":1732050552,"current_range_meters":35200,"station_id":"ce4bh492rcd13ifvqdvg","pricing_plan_id":"cebpf4jnsgd1na2vs0mg"},{"bike_id":"e01787d3-18f5-4b67-acfd-ea3f2d46ea51","system_id":"levelo_inurba_marseille","lat":43.30879,"lon":5.39642,"is_reserved":false,"is_disabled":false,"rental_uris":{"android":"levelo://app?vid=e01787d3-18f5-4b67-acfd-ea3f2d46ea51","ios":"levelo://app?vid=e01787d3-18f5-4b67-acfd-ea3f2d46ea51"},"vehicle_type_id":"4","last_reported":1732050552,"current_range_meters":9200,"station_id":"ce4bh012rcd13ifvqcv0","pricing_plan_id":"cebpf4jnsgd1na2vs0mg"},{"bike_id":"d9c5e426-f6d4-4e69-9b89-ae80ad47cc4f","system_id":"levelo_inurba_marseille","lat":43.27939,"lon":5.41048,"is_reserved":false,"is_disabled":false,"rental_uris":{"android":"levelo://app?vid=d9c5e426-f6d4-4e69-9b89-ae80ad47cc4f","ios":"levelo://app?vid=d9c5e426-f6d4-4e69-9b89-ae80ad47cc4f"},"vehicle_type_id":"4","last_reported":1732050552,"current_range_meters":37600,"station_id":"ce4bhnp2rcd13ifvqh0g","pricing_plan_id":"cebpf4jnsgd1na2vs0mg"},{"bike_id":"a8842fca-8834-42c5-a8c2-8425007cda29","system_id":"levelo_inurba_marseille","lat":43.30883,"lon":5.39644,"is_reserved":false,"is_disabled":false,"rental_uris":{"android":"levelo://app?vid=a8842fca-8834-42c5-a8c2-8425007cda29","ios":"levelo://app?vid=a8842fca-8834-42c5-a8c2-8425007cda29"},"vehicle_type_id":"4","last_reported":1732050552,"current_range_meters":26000,"station_id":"ce4bh012rcd13ifvqcv0","pricing_plan_id":"cebpf4jnsgd1na2vs0mg"},{"bike_id":"122b8c9f-821b-4320-8f89-f1c7267f8d64","system_id":"levelo_inurba_marseille","lat":43.32538,"lon":5.41427,"is_reserved":false,"is_disabled":false,"rental_uris":{"android":"levelo://app?vid=122b8c9f-821b-4320-8f89-f1c7267f8d64","ios":"levelo://app?vid=122b8c9f-821b-4320-8f89-f1c7267f8d64"},"vehicle_type_id":"4","last_reported":1732050552,"current_range_meters":16400,"station_id":"ce4bhq12rcd13ifvqhhg","pricing_plan_id":"cebpf4jnsgd1na2vs0mg"},{"bike_id":"f15b25c1-4ac5-48f3-9bc4-bf7f4729c1c6","system_id":"levelo_inurba_marseille","lat":43.31325,"lon":5.39694,"is_reserved":false,"is_disabled":false,"rental_uris":{"android":"levelo://app?vid=f15b25c1-4ac5-48f3-9bc4-bf7f4729c1c6","ios":"levelo://app?vid=f15b25c1-4ac5-48f3-9bc4-bf7f4729c1c6"},"vehicle_type_id":"4","last_reported":1732050552,"current_range_meters":25600,"station_id":"ce4bgvp2rcd13ifvqcu0","pricing_plan_id":"cebpf4jnsgd1na2vs0mg"},{"bike_id":"0ea93326-5034-4b5e-97b8-0a33b4d38611","system_id":"levelo_inurba_marseille","lat":43.3015,"lon":5.38097,"is_reserved":false,"is_disabled":true,"rental_uris":{"android":"levelo://app?vid=0ea93326-5034-4b5e-97b8-0a33b4d38611","ios":"levelo://app?vid=0ea93326-5034-4b5e-97b8-0a33b4d38611"},"vehicle_type_id":"4","last_reported":1732050552,"current_range_meters":0,"station_id":"ce4bgjp2rcd13ifvqbh0","pricing_plan_id":"cebpf4jnsgd1na2vs0mg"},{"bike_id":"f62c9a9c-3a75-4223-b237-440f9b9ba740","system_id":"levelo_inurba_marseille","lat":43.30311,"lon":5.39227,"is_reserved":false,"is_disabled":false,"rental_uris":{"android":"levelo://app?vid=f62c9a9c-3a75-4223-b237-440f9b9ba740","ios":"levelo://app?vid=f62c9a9c-3a75-4223-b237-440f9b9ba740"},"vehicle_type_id":"4","last_reported":1732050552,"current_range_meters":38000,"station_id":"ce4bgkh2rcd13ifvqbk0","pricing_plan_id":"cebpf4jnsgd1na2vs0mg"},{"bike_id":"68dfa3dd-d21d-4b5d-bb73-d0b0d42d18cb","system_id":"levelo_inurba_marseille","lat":43.29883,"lon":5.39735,"is_reserved":false,"is_disabled":false,"rental_uris":{"android":"levelo://app?vid=68dfa3dd-d21d-4b5d-bb73-d0b0d42d18cb","ios":"levelo://app?vid=68dfa3dd-d21d-4b5d-bb73-d0b0d42d18cb"},"vehicle_type_id":"4","last_reported":1732050552,"current_range_meters":38800,"station_id":"ce4bh0h2rcd13ifvqd50","pricing_plan_id":"cebpf4jnsgd1na2vs0mg"},{"bike_id":"25909b36-472f-423d-a882-20b903a3d85e","system_id":"levelo_inurba_marseille","lat":43.284631,"lon":5.358825,"is_reserved":false,"is_disabled":false,"rental_uris":{"android":"levelo://app?vid=25909b36-472f-423d-a882-20b903a3d85e","ios":"levelo://app?vid=25909b36-472f-423d-a882-20b903a3d85e"},"vehicle_type_id":"4","last_reported":1732050552,"current_range_meters":24000,"station_id":"","pricing_plan_id":"cebpf4jnsgd1na2vs0mg"},{"bike_id":"92ed161b-7532-4432-a194-1fd992bd18c4","system_id":"levelo_inurba_marseille","lat":43.28458,"lon":5.35887,"is_reserved":false,"is_disabled":false,"rental_uris":{"android":"levelo://app?vid=92ed161b-7532-4432-a194-1fd992bd18c4","ios":"levelo://app?vid=92ed161b-7532-4432-a194-1fd992bd18c4"},"vehicle_type_id":"4","last_reported":1732050552,"current_range_meters":38000,"station_id":"ce4bhah2rcd13ifvqei0","pricing_plan_id":"cebpf4jnsgd1na2vs0mg"},{"bike_id":"0729225f-edb5-4541-b6d9-a2bc5d69ccda","system_id":"levelo_inurba_marseille","lat":43.25082,"lon":5.39515,"is_reserved":false,"is_disabled":false,"rental_uris":{"android":"levelo://app?vid=0729225f-edb5-4541-b6d9-a2bc5d69ccda","ios":"levelo://app?vid=0729225f-edb5-4541-b6d9-a2bc5d69ccda"},"vehicle_type_id":"4","last_reported":1732050552,"current_range_meters":34800,"station_id":"ce4bhm12rcd13ifvqgkg","pricing_plan_id":"cebpf4jnsgd1na2vs0mg"},{"bike_id":"32a02b56-b3c6-4d9c-93da-9ec0f1b496d8","system_id":"levelo_inurba_marseille","lat":43.31484,"lon":5.37306,"is_reserved":false,"is_disabled":false,"rental_uris":{"android":"levelo://app?vid=32a02b56-b3c6-4d9c-93da-9ec0f1b496d8","ios":"levelo://app?vid=32a02b56-b3c6-4d9c-93da-9ec0f1b496d8"},"vehicle_type_id":"4","last_reported":1732050552,"current_range_meters":9600,"station_id":"ce4bgt12rcd13ifvqcd0","pricing_plan_id":"cebpf4jnsgd1na2vs0mg"},{"bike_id":"a977b746-1ded-41bb-8696-691cc9d5cea1","system_id":"levelo_inurba_marseille","lat":43.29874,"lon":5.39733,"is_reserved":false,"is_disabled":false,"rental_uris":{"android":"levelo://app?vid=a977b746-1ded-41bb-8696-691cc9d5cea1","ios":"levelo://app?vid=a977b746-1ded-41bb-8696-691cc9d5cea1"},"vehicle_type_id":"4","last_reported":1732050552,"current_range_meters":19600,"station_id":"ce4bh0h2rcd13ifvqd50","pricing_plan_id":"cebpf4jnsgd1na2vs0mg"},{"bike_id":"befe88e4-12d3-42a9-9602-54a0ae6623c7","system_id":"levelo_inurba_marseille","lat":43.30948,"lon":5.3905,"is_reserved":false,"is_disabled":false,"rental_uris":{"android":"levelo://app?vid=befe88e4-12d3-42a9-9602-54a0ae6623c7","ios":"levelo://app?vid=befe88e4-12d3-42a9-9602-54a0ae6623c7"},"vehicle_type_id":"4","last_reported":1732050552,"current_range_meters":38800,"station_id":"ce4bgup2rcd13ifvqco0","pricing_plan_id":"cebpf4jnsgd1na2vs0mg"},{"bike_id":"dbe74249-58cd-403e-a63d-5e0a1c17b552","system_id":"levelo_inurba_marseille","lat":43.24093,"lon":5.37745,"is_reserved":false,"is_disabled":true,"rental_uris":{"android":"levelo://app?vid=dbe74249-58cd-403e-a63d-5e0a1c17b552","ios":"levelo://app?vid=dbe74249-58cd-403e-a63d-5e0a1c17b552"},"vehicle_type_id":"4","last_reported":1732050552,"current_range_meters":0,"station_id":"","pricing_plan_id":"cebpf4jnsgd1na2vs0mg"},{"bike_id":"e60464c7-4f69-4dba-8efb-ce097bdab541","system_id":"levelo_inurba_marseille","lat":43.32363,"lon":5.38886,"is_reserved":false,"is_disabled":false,"rental_uris":{"android":"levelo://app?vid=e60464c7-4f69-4dba-8efb-ce097bdab541","ios":"levelo://app?vid=e60464c7-4f69-4dba-8efb-ce097bdab541"},"vehicle_type_id":"4","last_reported":1732050552,"current_range_meters":37600,"station_id":"ce4bhqp2rcd13ifvqhog","pricing_plan_id":"cebpf4jnsgd1na2vs0mg"},{"bike_id":"f08f4cf5-2ffe-4009-8a64-8ed06be2f3f9","system_id":"levelo_inurba_marseille","lat":43.30314,"lon":5.36901,"is_reserved":false,"is_disabled":false,"rental_uris":{"android":"levelo://app?vid=f08f4cf5-2ffe-4009-8a64-8ed06be2f3f9","ios":"levelo://app?vid=f08f4cf5-2ffe-4009-8a64-8ed06be2f3f9"},"vehicle_type_id":"4","last_reported":1732050552,"current_range_meters":12400,"station_id":"ce4bgqh2rcd13ifvqc5g","pricing_plan_id":"cebpf4jnsgd1na2vs0mg"},{"bike_id":"ed2082b4-7132-4717-96e4-72bf267e4a42","system_id":"levelo_inurba_marseille","lat":43.30307,"lon":5.39207,"is_reserved":false,"is_disabled":true,"rental_uris":{"android":"levelo://app?vid=ed2082b4-7132-4717-96e4-72bf267e4a42","ios":"levelo://app?vid=ed2082b4-7132-4717-96e4-72bf267e4a42"},"vehicle_type_id":"4","last_reported":1732050552,"current_range_meters":8400,"station_id":"ce4bgkh2rcd13ifvqbk0","pricing_plan_id":"cebpf4jnsgd1na2vs0mg"},{"bike_id":"25d2012a-bc68-4733-8ef9-7e23adebd322","system_id":"levelo_inurba_marseille","lat":43.31327,"lon":5.39684,"is_reserved":false,"is_disabled":false,"rental_uris":{"android":"levelo://app?vid=25d2012a-bc68-4733-8ef9-7e23adebd322","ios":"levelo://app?vid=25d2012a-bc68-4733-8ef9-7e23adebd322"},"vehicle_type_id":"4","last_reported":1732050552,"current_range_meters":28800,"station_id":"ce4bgvp2rcd13ifvqcu0","pricing_plan_id":"cebpf4jnsgd1na2vs0mg"},{"bike_id":"25785704-760b-4f4e-938c-5137c82d51e5","system_id":"levelo_inurba_marseille","lat":43.30788,"lon":5.37651,"is_reserved":false,"is_disabled":false,"rental_uris":{"android":"levelo://app?vid=25785704-760b-4f4e-938c-5137c82d51e5","ios":"levelo://app?vid=25785704-760b-4f4e-938c-5137c82d51e5"},"vehicle_type_id":"4","last_reported":1732050552,"current_range_meters":6000,"station_id":"ce4bgv92rcd13ifvqcq0","pricing_plan_id":"cebpf4jnsgd1na2vs0mg"},{"bike_id":"e68eafa6-5e9c-416f-9321-af780aefb27a","system_id":"levelo_inurba_marseille","lat":43.23963,"lon":5.36636,"is_reserved":false,"is_disabled":false,"rental_uris":{"android":"levelo://app?vid=e68eafa6-5e9c-416f-9321-af780aefb27a","ios":"levelo://app?vid=e68eafa6-5e9c-416f-9321-af780aefb27a"},"vehicle_type_id":"4","last_reported":1732050552,"current_range_meters":27600,"station_id":"ce4bhi12rcd13ifvqfp0","pricing_plan_id":"cebpf4jnsgd1na2vs0mg"},{"bike_id":"12b1e5ed-6fe3-452d-a7bb-1572617bbee2","system_id":"levelo_inurba_marseille","lat":43.27992,"lon":5.41651,"is_reserved":false,"is_disabled":false,"rental_uris":{"android":"levelo://app?vid=12b1e5ed-6fe3-452d-a7bb-1572617bbee2","ios":"levelo://app?vid=12b1e5ed-6fe3-452d-a7bb-1572617bbee2"},"vehicle_type_id":"4","last_reported":1732050552,"current_range_meters":38800,"station_id":"ce4bho12rcd13ifvqh1g","pricing_plan_id":"cebpf4jnsgd1na2vs0mg"},{"bike_id":"458495bb-2543-4369-be27-46e0cabe3916","system_id":"levelo_inurba_marseille","lat":43.29554,"lon":5.42293,"is_reserved":false,"is_disabled":false,"rental_uris":{"android":"levelo://app?vid=458495bb-2543-4369-be27-46e0cabe3916","ios":"levelo://app?vid=458495bb-2543-4369-be27-46e0cabe3916"},"vehicle_type_id":"4","last_reported":1732050552,"current_range_meters":6000,"station_id":"ce4bhph2rcd13ifvqhdg","pricing_plan_id":"cebpf4jnsgd1na2vs0mg"},{"bike_id":"9c86b2ee-84a4-46f9-ac74-7f65f8890b2e","system_id":"levelo_inurba_marseille","lat":43.31253,"lon":5.36914,"is_reserved":false,"is_disabled":false,"rental_uris":{"android":"levelo://app?vid=9c86b2ee-84a4-46f9-ac74-7f65f8890b2e","ios":"levelo://app?vid=9c86b2ee-84a4-46f9-ac74-7f65f8890b2e"},"vehicle_type_id":"4","last_reported":1732050552,"current_range_meters":31200,"station_id":"ce4bgl92rcd13ifvqbq0","pricing_plan_id":"cebpf4jnsgd1na2vs0mg"},{"bike_id":"4ba8e894-e21f-4601-8e88-8daeaf278168","system_id":"levelo_inurba_marseille","lat":43.25933,"lon":5.40905,"is_reserved":false,"is_disabled":false,"rental_uris":{"android":"levelo://app?vid=4ba8e894-e21f-4601-8e88-8daeaf278168","ios":"levelo://app?vid=4ba8e894-e21f-4601-8e88-8daeaf278168"},"vehicle_type_id":"4","last_reported":1732050552,"current_range_meters":20800,"station_id":"ce4bhm92rcd13ifvqglg","pricing_plan_id":"cebpf4jnsgd1na2vs0mg"},{"bike_id":"d53cbad1-ae23-4069-8110-e71ebf8550d2","system_id":"levelo_inurba_marseille","lat":43.29573,"lon":5.37517,"is_reserved":false,"is_disabled":false,"rental_uris":{"android":"levelo://app?vid=d53cbad1-ae23-4069-8110-e71ebf8550d2","ios":"levelo://app?vid=d53cbad1-ae23-4069-8110-e71ebf8550d2"},"vehicle_type_id":"4","last_reported":1732050552,"current_range_meters":30000,"station_id":"ce4bgh92rcd13ifvqb50","pricing_plan_id":"cebpf4jnsgd1na2vs0mg"},{"bike_id":"a37d2361-a227-49c1-92b2-997f442f36ee","system_id":"levelo_inurba_marseille","lat":43.29788,"lon":5.39338,"is_reserved":false,"is_disabled":false,"rental_uris":{"android":"levelo://app?vid=a37d2361-a227-49c1-92b2-997f442f36ee","ios":"levelo://app?vid=a37d2361-a227-49c1-92b2-997f442f36ee"},"vehicle_type_id":"4","last_reported":1732050552,"current_range_meters":39200,"station_id":"chh1huq6cuj3fo74tm60","pricing_plan_id":"cebpf4jnsgd1na2vs0mg"},{"bike_id":"85308c21-24d3-4ff7-9073-790d239a9901","system_id":"levelo_inurba_marseille","lat":43.31071,"lon":5.38342,"is_reserved":false,"is_disabled":true,"rental_uris":{"android":"levelo://app?vid=85308c21-24d3-4ff7-9073-790d239a9901","ios":"levelo://app?vid=85308c21-24d3-4ff7-9073-790d239a9901"},"vehicle_type_id":"4","last_reported":1732050552,"current_range_meters":35600,"station_id":"ce4bgv92rcd13ifvqcr0","pricing_plan_id":"cebpf4jnsgd1na2vs0mg"},{"bike_id":"de208543-9b1f-469d-95ed-a601b777cb16","system_id":"levelo_inurba_marseille","lat":43.24179,"lon":5.39729,"is_reserved":false,"is_disabled":true,"rental_uris":{"android":"levelo://app?vid=de208543-9b1f-469d-95ed-a601b777cb16","ios":"levelo://app?vid=de208543-9b1f-469d-95ed-a601b777cb16"},"vehicle_type_id":"4","last_reported":1732050552,"current_range_meters":800,"station_id":"ce4bhn12rcd13ifvqgpg","pricing_plan_id":"cebpf4jnsgd1na2vs0mg"},{"bike_id":"f2ca0235-9c69-43c7-abf6-aae5dc943f37","system_id":"levelo_inurba_marseille","lat":43.29768,"lon":5.37098,"is_reserved":false,"is_disabled":false,"rental_uris":{"android":"levelo://app?vid=f2ca0235-9c69-43c7-abf6-aae5dc943f37","ios":"levelo://app?vid=f2ca0235-9c69-43c7-abf6-aae5dc943f37"},"vehicle_type_id":"4","last_reported":1732050552,"current_range_meters":38800,"station_id":"ce4bgop2rcd13ifvqc1g","pricing_plan_id":"cebpf4jnsgd1na2vs0mg"},{"bike_id":"6b4fd609-2a55-4613-900a-ff42f37e922f","system_id":"levelo_inurba_marseille","lat":43.2467,"lon":5.38157,"is_reserved":false,"is_disabled":false,"rental_uris":{"android":"levelo://app?vid=6b4fd609-2a55-4613-900a-ff42f37e922f","ios":"levelo://app?vid=6b4fd609-2a55-4613-900a-ff42f37e922f"},"vehicle_type_id":"4","last_reported":1732050552,"current_range_meters":18000,"station_id":"ce4bhih2rcd13ifvqfr0","pricing_plan_id":"cebpf4jnsgd1na2vs0mg"},{"bike_id":"17868a27-5db2-4257-a0c1-5fe38f8156cc","system_id":"levelo_inurba_marseille","lat":43.28415,"lon":5.3752,"is_reserved":false,"is_disabled":false,"rental_uris":{"android":"levelo://app?vid=17868a27-5db2-4257-a0c1-5fe38f8156cc","ios":"levelo://app?vid=17868a27-5db2-4257-a0c1-5fe38f8156cc"},"vehicle_type_id":"4","last_reported":1732050552,"current_range_meters":23200,"station_id":"ce4bh412rcd13ifvqds0","pricing_plan_id":"cebpf4jnsgd1na2vs0mg"},{"bike_id":"2b5d7a4d-5b25-4b80-84d9-e10589e3033b","system_id":"levelo_inurba_marseille","lat":43.23966,"lon":5.3663,"is_reserved":false,"is_disabled":true,"rental_uris":{"android":"levelo://app?vid=2b5d7a4d-5b25-4b80-84d9-e10589e3033b","ios":"levelo://app?vid=2b5d7a4d-5b25-4b80-84d9-e10589e3033b"},"vehicle_type_id":"4","last_reported":1732050552,"current_range_meters":30400,"station_id":"ce4bhi12rcd13ifvqfp0","pricing_plan_id":"cebpf4jnsgd1na2vs0mg"},{"bike_id":"645e3cc3-5d53-4fad-b652-8da2295d3996","system_id":"levelo_inurba_marseille","lat":43.31757,"lon":5.39017,"is_reserved":false,"is_disabled":false,"rental_uris":{"android":"levelo://app?vid=645e3cc3-5d53-4fad-b652-8da2295d3996","ios":"levelo://app?vid=645e3cc3-5d53-4fad-b652-8da2295d3996"},"vehicle_type_id":"4","last_reported":1732050552,"current_range_meters":25600,"station_id":"ce4bhqp2rcd13ifvqhng","pricing_plan_id":"cebpf4jnsgd1na2vs0mg"},{"bike_id":"c0469821-8cc0-42a3-aedc-40add1fe77ce","system_id":"levelo_inurba_marseille","lat":43.28269,"lon":5.35078,"is_reserved":false,"is_disabled":false,"rental_uris":{"android":"levelo://app?vid=c0469821-8cc0-42a3-aedc-40add1fe77ce","ios":"levelo://app?vid=c0469821-8cc0-42a3-aedc-40add1fe77ce"},"vehicle_type_id":"4","last_reported":1732050552,"current_range_meters":36800,"station_id":"ce4bhbp2rcd13ifvqerg","pricing_plan_id":"cebpf4jnsgd1na2vs0mg"},{"bike_id":"e3511c0c-eb2b-4100-bb2d-c5ebcd644bea","system_id":"levelo_inurba_marseille","lat":43.23955,"lon":5.36635,"is_reserved":false,"is_disabled":true,"rental_uris":{"android":"levelo://app?vid=e3511c0c-eb2b-4100-bb2d-c5ebcd644bea","ios":"levelo://app?vid=e3511c0c-eb2b-4100-bb2d-c5ebcd644bea"},"vehicle_type_id":"4","last_reported":1732050552,"current_range_meters":33600,"station_id":"ce4bhi12rcd13ifvqfp0","pricing_plan_id":"cebpf4jnsgd1na2vs0mg"},{"bike_id":"7dc2540e-5c15-49cc-843d-b22dafd2ded0","system_id":"levelo_inurba_marseille","lat":43.33761,"lon":5.37437,"is_reserved":false,"is_disabled":false,"rental_uris":{"android":"levelo://app?vid=7dc2540e-5c15-49cc-843d-b22dafd2ded0","ios":"levelo://app?vid=7dc2540e-5c15-49cc-843d-b22dafd2ded0"},"vehicle_type_id":"4","last_reported":1732050552,"current_range_meters":33600,"station_id":"","pricing_plan_id":"cebpf4jnsgd1na2vs0mg"},{"bike_id":"5917a06d-1a89-42ee-9c96-70b3e49f2520","system_id":"levelo_inurba_marseille","lat":43.317,"lon":5.40471,"is_reserved":false,"is_disabled":true,"rental_uris":{"android":"levelo://app?vid=5917a06d-1a89-42ee-9c96-70b3e49f2520","ios":"levelo://app?vid=5917a06d-1a89-42ee-9c96-70b3e49f2520"},"vehicle_type_id":"4","last_reported":1732050552,"current_range_meters":9600,"station_id":"ce4bh012rcd13ifvqd00","pricing_plan_id":"cebpf4jnsgd1na2vs0mg"},{"bike_id":"4f9afd8d-edee-4af3-881a-dba0fbad4a10","system_id":"levelo_inurba_marseille","lat":43.30825,"lon":5.38143,"is_reserved":false,"is_disabled":false,"rental_uris":{"android":"levelo://app?vid=4f9afd8d-edee-4af3-881a-dba0fbad4a10","ios":"levelo://app?vid=4f9afd8d-edee-4af3-881a-dba0fbad4a10"},"vehicle_type_id":"4","last_reported":1732050552,"current_range_meters":34000,"station_id":"","pricing_plan_id":"cebpf4jnsgd1na2vs0mg"},{"bike_id":"497454ce-e4eb-4dce-94e8-18190e4c429b","system_id":"levelo_inurba_marseille","lat":43.27815,"lon":5.4072,"is_reserved":false,"is_disabled":true,"rental_uris":{"android":"levelo://app?vid=497454ce-e4eb-4dce-94e8-18190e4c429b","ios":"levelo://app?vid=497454ce-e4eb-4dce-94e8-18190e4c429b"},"vehicle_type_id":"4","last_reported":1732050552,"current_range_meters":0,"station_id":"ce4bhnh2rcd13ifvqgtg","pricing_plan_id":"cebpf4jnsgd1na2vs0mg"},{"bike_id":"ecf6e5c4-c87c-4b1a-a8c7-1e6b23333b2c","system_id":"levelo_inurba_marseille","lat":43.303,"lon":5.39205,"is_reserved":false,"is_disabled":false,"rental_uris":{"android":"levelo://app?vid=ecf6e5c4-c87c-4b1a-a8c7-1e6b23333b2c","ios":"levelo://app?vid=ecf6e5c4-c87c-4b1a-a8c7-1e6b23333b2c"},"vehicle_type_id":"4","last_reported":1732050552,"current_range_meters":3600,"station_id":"ce4bgkh2rcd13ifvqbk0","pricing_plan_id":"cebpf4jnsgd1na2vs0mg"},{"bike_id":"55f95fd1-6acd-4347-bb4c-6a144aacc036","system_id":"levelo_inurba_marseille","lat":43.28453,"lon":5.35891,"is_reserved":false,"is_disabled":false,"rental_uris":{"android":"levelo://app?vid=55f95fd1-6acd-4347-bb4c-6a144aacc036","ios":"levelo://app?vid=55f95fd1-6acd-4347-bb4c-6a144aacc036"},"vehicle_type_id":"4","last_reported":1732050552,"current_range_meters":38800,"station_id":"ce4bhah2rcd13ifvqei0","pricing_plan_id":"cebpf4jnsgd1na2vs0mg"},{"bike_id":"5dac8eba-2117-4a48-b16e-6efefe5ecc16","system_id":"levelo_inurba_marseille","lat":43.26785,"lon":5.39414,"is_reserved":false,"is_disabled":false,"rental_uris":{"android":"levelo://app?vid=5dac8eba-2117-4a48-b16e-6efefe5ecc16","ios":"levelo://app?vid=5dac8eba-2117-4a48-b16e-6efefe5ecc16"},"vehicle_type_id":"4","last_reported":1732050552,"current_range_meters":26000,"station_id":"ce4bhh12rcd13ifvqfg0","pricing_plan_id":"cebpf4jnsgd1na2vs0mg"},{"bike_id":"83ec9496-2624-41a0-9a14-66a04dda45c6","system_id":"levelo_inurba_marseille","lat":43.29786,"lon":5.39344,"is_reserved":false,"is_disabled":false,"rental_uris":{"android":"levelo://app?vid=83ec9496-2624-41a0-9a14-66a04dda45c6","ios":"levelo://app?vid=83ec9496-2624-41a0-9a14-66a04dda45c6"},"vehicle_type_id":"4","last_reported":1732050552,"current_range_meters":37600,"station_id":"chh1huq6cuj3fo74tm60","pricing_plan_id":"cebpf4jnsgd1na2vs0mg"},{"bike_id":"5f07201c-bcb3-434b-a8fd-71f1088cb631","system_id":"levelo_inurba_marseille","lat":43.33718,"lon":5.39181,"is_reserved":false,"is_disabled":false,"rental_uris":{"android":"levelo://app?vid=5f07201c-bcb3-434b-a8fd-71f1088cb631","ios":"levelo://app?vid=5f07201c-bcb3-434b-a8fd-71f1088cb631"},"vehicle_type_id":"4","last_reported":1732050552,"current_range_meters":30800,"station_id":"ce4bhr92rcd13ifvqhsg","pricing_plan_id":"cebpf4jnsgd1na2vs0mg"},{"bike_id":"b4814d7e-aae0-4894-9e10-4c84e16c4d8f","system_id":"levelo_inurba_marseille","lat":43.24387,"lon":5.37057,"is_reserved":false,"is_disabled":false,"rental_uris":{"android":"levelo://app?vid=b4814d7e-aae0-4894-9e10-4c84e16c4d8f","ios":"levelo://app?vid=b4814d7e-aae0-4894-9e10-4c84e16c4d8f"},"vehicle_type_id":"4","last_reported":1732050552,"current_range_meters":36800,"station_id":"ce4bhhh2rcd13ifvqfk0","pricing_plan_id":"cebpf4jnsgd1na2vs0mg"},{"bike_id":"25073dac-1c4b-4235-88f2-ba7b09ca22ac","system_id":"levelo_inurba_marseille","lat":43.32291,"lon":5.38266,"is_reserved":false,"is_disabled":false,"rental_uris":{"android":"levelo://app?vid=25073dac-1c4b-4235-88f2-ba7b09ca22ac","ios":"levelo://app?vid=25073dac-1c4b-4235-88f2-ba7b09ca22ac"},"vehicle_type_id":"4","last_reported":1732050552,"current_range_meters":20400,"station_id":"ce4bhr12rcd13ifvqhqg","pricing_plan_id":"cebpf4jnsgd1na2vs0mg"},{"bike_id":"37f14134-d611-451c-9aaa-25a59bd49fe3","system_id":"levelo_inurba_marseille","lat":43.2988,"lon":5.39745,"is_reserved":false,"is_disabled":true,"rental_uris":{"android":"levelo://app?vid=37f14134-d611-451c-9aaa-25a59bd49fe3","ios":"levelo://app?vid=37f14134-d611-451c-9aaa-25a59bd49fe3"},"vehicle_type_id":"4","last_reported":1732050552,"current_range_meters":38800,"station_id":"ce4bh0h2rcd13ifvqd50","pricing_plan_id":"cebpf4jnsgd1na2vs0mg"},{"bike_id":"18d8f13c-ad4d-42dd-80a9-d7ff6a44d211","system_id":"levelo_inurba_marseille","lat":43.29872,"lon":5.39733,"is_reserved":false,"is_disabled":false,"rental_uris":{"android":"levelo://app?vid=18d8f13c-ad4d-42dd-80a9-d7ff6a44d211","ios":"levelo://app?vid=18d8f13c-ad4d-42dd-80a9-d7ff6a44d211"},"vehicle_type_id":"4","last_reported":1732050552,"current_range_meters":39200,"station_id":"ce4bh0h2rcd13ifvqd50","pricing_plan_id":"cebpf4jnsgd1na2vs0mg"},{"bike_id":"3b7d8bb6-9afb-4f3e-94ad-7bc3814d280b","system_id":"levelo_inurba_marseille","lat":43.28435,"lon":5.39188,"is_reserved":false,"is_disabled":false,"rental_uris":{"android":"levelo://app?vid=3b7d8bb6-9afb-4f3e-94ad-7bc3814d280b","ios":"levelo://app?vid=3b7d8bb6-9afb-4f3e-94ad-7bc3814d280b"},"vehicle_type_id":"4","last_reported":1732050552,"current_range_meters":34800,"station_id":"ce4bhoh2rcd13ifvqh5g","pricing_plan_id":"cebpf4jnsgd1na2vs0mg"},{"bike_id":"dc7fa527-4def-471c-bced-6291e149d306","system_id":"levelo_inurba_marseille","lat":43.27803,"lon":5.40712,"is_reserved":false,"is_disabled":true,"rental_uris":{"android":"levelo://app?vid=dc7fa527-4def-471c-bced-6291e149d306","ios":"levelo://app?vid=dc7fa527-4def-471c-bced-6291e149d306"},"vehicle_type_id":"4","last_reported":1732050552,"current_range_meters":13600,"station_id":"ce4bhnh2rcd13ifvqgtg","pricing_plan_id":"cebpf4jnsgd1na2vs0mg"},{"bike_id":"fe466b38-f08e-4c08-bae1-f457152e4063","system_id":"levelo_inurba_marseille","lat":43.29416,"lon":5.38614,"is_reserved":false,"is_disabled":true,"rental_uris":{"android":"levelo://app?vid=fe466b38-f08e-4c08-bae1-f457152e4063","ios":"levelo://app?vid=fe466b38-f08e-4c08-bae1-f457152e4063"},"vehicle_type_id":"4","last_reported":1732050552,"current_range_meters":1200,"station_id":"ce4bh2h2rcd13ifvqdh0","pricing_plan_id":"cebpf4jnsgd1na2vs0mg"},{"bike_id":"d674a550-723f-4e20-a0c2-89aa344c2ade","system_id":"levelo_inurba_marseille","lat":43.28206,"lon":5.4438,"is_reserved":false,"is_disabled":true,"rental_uris":{"android":"levelo://app?vid=d674a550-723f-4e20-a0c2-89aa344c2ade","ios":"levelo://app?vid=d674a550-723f-4e20-a0c2-89aa344c2ade"},"vehicle_type_id":"4","last_reported":1732050552,"current_range_meters":800,"station_id":"","pricing_plan_id":"cebpf4jnsgd1na2vs0mg"},{"bike_id":"f9ca01ae-1502-439c-8bdf-e9502f55432e","system_id":"levelo_inurba_marseille","lat":43.28276,"lon":5.35079,"is_reserved":false,"is_disabled":false,"rental_uris":{"android":"levelo://app?vid=f9ca01ae-1502-439c-8bdf-e9502f55432e","ios":"levelo://app?vid=f9ca01ae-1502-439c-8bdf-e9502f55432e"},"vehicle_type_id":"4","last_reported":1732050552,"current_range_meters":32000,"station_id":"ce4bhbp2rcd13ifvqerg","pricing_plan_id":"cebpf4jnsgd1na2vs0mg"},{"bike_id":"676f965d-ced7-4bcf-9e72-3f3518021c38","system_id":"levelo_inurba_marseille","lat":43.3065,"lon":5.40094,"is_reserved":false,"is_disabled":false,"rental_uris":{"android":"levelo://app?vid=676f965d-ced7-4bcf-9e72-3f3518021c38","ios":"levelo://app?vid=676f965d-ced7-4bcf-9e72-3f3518021c38"},"vehicle_type_id":"4","last_reported":1732050552,"current_range_meters":33200,"station_id":"ce4bh112rcd13ifvqda0","pricing_plan_id":"cebpf4jnsgd1na2vs0mg"},{"bike_id":"73de2cc8-4db3-417a-9abb-3cffa18feca4","system_id":"levelo_inurba_marseille","lat":43.28417,"lon":5.37509,"is_reserved":false,"is_disabled":false,"rental_uris":{"android":"levelo://app?vid=73de2cc8-4db3-417a-9abb-3cffa18feca4","ios":"levelo://app?vid=73de2cc8-4db3-417a-9abb-3cffa18feca4"},"vehicle_type_id":"4","last_reported":1732050552,"current_range_meters":38800,"station_id":"ce4bh412rcd13ifvqds0","pricing_plan_id":"cebpf4jnsgd1na2vs0mg"},{"bike_id":"f5cf085e-8694-4c6f-ba9c-aa6e0d3c58c6","system_id":"levelo_inurba_marseille","lat":43.33662,"lon":5.35566,"is_reserved":false,"is_disabled":true,"rental_uris":{"android":"levelo://app?vid=f5cf085e-8694-4c6f-ba9c-aa6e0d3c58c6","ios":"levelo://app?vid=f5cf085e-8694-4c6f-ba9c-aa6e0d3c58c6"},"vehicle_type_id":"4","last_reported":1732050552,"current_range_meters":16400,"station_id":"","pricing_plan_id":"cebpf4jnsgd1na2vs0mg"},{"bike_id":"3d2beca7-eef0-4bae-98e1-8b3de347272c","system_id":"levelo_inurba_marseille","lat":43.23192,"lon":5.35556,"is_reserved":false,"is_disabled":true,"rental_uris":{"android":"levelo://app?vid=3d2beca7-eef0-4bae-98e1-8b3de347272c","ios":"levelo://app?vid=3d2beca7-eef0-4bae-98e1-8b3de347272c"},"vehicle_type_id":"4","last_reported":1732050552,"current_range_meters":0,"station_id":"ce4bhu92rcd13ifvqi70","pricing_plan_id":"cebpf4jnsgd1na2vs0mg"},{"bike_id":"3f8c5774-909d-4ea2-942c-a3a7382a3742","system_id":"levelo_inurba_marseille","lat":43.28704,"lon":5.39985,"is_reserved":false,"is_disabled":false,"rental_uris":{"android":"levelo://app?vid=3f8c5774-909d-4ea2-942c-a3a7382a3742","ios":"levelo://app?vid=3f8c5774-909d-4ea2-942c-a3a7382a3742"},"vehicle_type_id":"4","last_reported":1732050552,"current_range_meters":39200,"station_id":"ce4bho92rcd13ifvqh3g","pricing_plan_id":"cebpf4jnsgd1na2vs0mg"},{"bike_id":"5b0208d6-124b-4771-8c47-0ad7da20f926","system_id":"levelo_inurba_marseille","lat":43.32368,"lon":5.38883,"is_reserved":false,"is_disabled":false,"rental_uris":{"android":"levelo://app?vid=5b0208d6-124b-4771-8c47-0ad7da20f926","ios":"levelo://app?vid=5b0208d6-124b-4771-8c47-0ad7da20f926"},"vehicle_type_id":"4","last_reported":1732050552,"current_range_meters":7200,"station_id":"ce4bhqp2rcd13ifvqhog","pricing_plan_id":"cebpf4jnsgd1na2vs0mg"},{"bike_id":"1e34b337-e632-4079-8f96-e7d46b527251","system_id":"levelo_inurba_marseille","lat":43.31762,"lon":5.39008,"is_reserved":false,"is_disabled":false,"rental_uris":{"android":"levelo://app?vid=1e34b337-e632-4079-8f96-e7d46b527251","ios":"levelo://app?vid=1e34b337-e632-4079-8f96-e7d46b527251"},"vehicle_type_id":"4","last_reported":1732050552,"current_range_meters":20800,"station_id":"ce4bhqp2rcd13ifvqhng","pricing_plan_id":"cebpf4jnsgd1na2vs0mg"},{"bike_id":"599de7ea-2676-4b72-8d40-9ef13b596820","system_id":"levelo_inurba_marseille","lat":43.28447,"lon":5.39204,"is_reserved":false,"is_disabled":false,"rental_uris":{"android":"levelo://app?vid=599de7ea-2676-4b72-8d40-9ef13b596820","ios":"levelo://app?vid=599de7ea-2676-4b72-8d40-9ef13b596820"},"vehicle_type_id":"4","last_reported":1732050552,"current_range_meters":33200,"station_id":"ce4bhoh2rcd13ifvqh5g","pricing_plan_id":"cebpf4jnsgd1na2vs0mg"},{"bike_id":"e008ea5b-9c85-47a4-8557-75f660f9a13d","system_id":"levelo_inurba_marseille","lat":43.24389,"lon":5.37056,"is_reserved":false,"is_disabled":false,"rental_uris":{"android":"levelo://app?vid=e008ea5b-9c85-47a4-8557-75f660f9a13d","ios":"levelo://app?vid=e008ea5b-9c85-47a4-8557-75f660f9a13d"},"vehicle_type_id":"4","last_reported":1732050552,"current_range_meters":38800,"station_id":"ce4bhhh2rcd13ifvqfk0","pricing_plan_id":"cebpf4jnsgd1na2vs0mg"},{"bike_id":"f4b6451c-07fa-4369-8a7e-91b7f50d0cf0","system_id":"levelo_inurba_marseille","lat":43.30589,"lon":5.39358,"is_reserved":false,"is_disabled":false,"rental_uris":{"android":"levelo://app?vid=f4b6451c-07fa-4369-8a7e-91b7f50d0cf0","ios":"levelo://app?vid=f4b6451c-07fa-4369-8a7e-91b7f50d0cf0"},"vehicle_type_id":"4","last_reported":1732050552,"current_range_meters":10000,"station_id":"ce4bh0p2rcd13ifvqd80","pricing_plan_id":"cebpf4jnsgd1na2vs0mg"},{"bike_id":"576e505c-2e63-4d8a-9372-cb1dee038bde","system_id":"levelo_inurba_marseille","lat":43.28007,"lon":5.4001,"is_reserved":false,"is_disabled":false,"rental_uris":{"android":"levelo://app?vid=576e505c-2e63-4d8a-9372-cb1dee038bde","ios":"levelo://app?vid=576e505c-2e63-4d8a-9372-cb1dee038bde"},"vehicle_type_id":"4","last_reported":1732050552,"current_range_meters":30400,"station_id":"ce4bho92rcd13ifvqh4g","pricing_plan_id":"cebpf4jnsgd1na2vs0mg"},{"bike_id":"b3240729-8eb2-4095-8f89-1172cda3d8d4","system_id":"levelo_inurba_marseille","lat":43.29803,"lon":5.40402,"is_reserved":false,"is_disabled":false,"rental_uris":{"android":"levelo://app?vid=b3240729-8eb2-4095-8f89-1172cda3d8d4","ios":"levelo://app?vid=b3240729-8eb2-4095-8f89-1172cda3d8d4"},"vehicle_type_id":"4","last_reported":1732050552,"current_range_meters":39200,"station_id":"ce4bh112rcd13ifvqd90","pricing_plan_id":"cebpf4jnsgd1na2vs0mg"},{"bike_id":"1fdda543-2834-4ac4-a6e6-03047028c136","system_id":"levelo_inurba_marseille","lat":43.29617,"lon":5.37153,"is_reserved":false,"is_disabled":false,"rental_uris":{"android":"levelo://app?vid=1fdda543-2834-4ac4-a6e6-03047028c136","ios":"levelo://app?vid=1fdda543-2834-4ac4-a6e6-03047028c136"},"vehicle_type_id":"4","last_reported":1732050552,"current_range_meters":39200,"station_id":"ce4bgnh2rcd13ifvqc0g","pricing_plan_id":"cebpf4jnsgd1na2vs0mg"},{"bike_id":"530767e5-3c4a-4505-9f80-667edc6200df","system_id":"levelo_inurba_marseille","lat":43.29798,"lon":5.39342,"is_reserved":false,"is_disabled":false,"rental_uris":{"android":"levelo://app?vid=530767e5-3c4a-4505-9f80-667edc6200df","ios":"levelo://app?vid=530767e5-3c4a-4505-9f80-667edc6200df"},"vehicle_type_id":"4","last_reported":1732050552,"current_range_meters":20400,"station_id":"chh1huq6cuj3fo74tm60","pricing_plan_id":"cebpf4jnsgd1na2vs0mg"},{"bike_id":"0587f464-8fd6-430d-9045-f727e016e5fc","system_id":"levelo_inurba_marseille","lat":43.2846,"lon":5.35892,"is_reserved":false,"is_disabled":false,"rental_uris":{"android":"levelo://app?vid=0587f464-8fd6-430d-9045-f727e016e5fc","ios":"levelo://app?vid=0587f464-8fd6-430d-9045-f727e016e5fc"},"vehicle_type_id":"4","last_reported":1732050552,"current_range_meters":39200,"station_id":"ce4bhah2rcd13ifvqei0","pricing_plan_id":"cebpf4jnsgd1na2vs0mg"},{"bike_id":"d72ab1d2-76e2-49c5-9d16-464cfb71a81c","system_id":"levelo_inurba_marseille","lat":43.33604,"lon":5.41014,"is_reserved":false,"is_disabled":false,"rental_uris":{"android":"levelo://app?vid=d72ab1d2-76e2-49c5-9d16-464cfb71a81c","ios":"levelo://app?vid=d72ab1d2-76e2-49c5-9d16-464cfb71a81c"},"vehicle_type_id":"4","last_reported":1732050552,"current_range_meters":11600,"station_id":"ce4bhqh2rcd13ifvqhmg","pricing_plan_id":"cebpf4jnsgd1na2vs0mg"},{"bike_id":"73515bf0-f044-4f51-a059-4dbe3feae4bb","system_id":"levelo_inurba_marseille","lat":43.31531,"lon":5.38031,"is_reserved":false,"is_disabled":false,"rental_uris":{"android":"levelo://app?vid=73515bf0-f044-4f51-a059-4dbe3feae4bb","ios":"levelo://app?vid=73515bf0-f044-4f51-a059-4dbe3feae4bb"},"vehicle_type_id":"4","last_reported":1732050552,"current_range_meters":20000,"station_id":"ce4bhsp2rcd13ifvqi50","pricing_plan_id":"cebpf4jnsgd1na2vs0mg"},{"bike_id":"5edece7b-2d6c-4f25-8e64-66d0f40abaac","system_id":"levelo_inurba_marseille","lat":43.28842,"lon":5.35844,"is_reserved":false,"is_disabled":false,"rental_uris":{"android":"levelo://app?vid=5edece7b-2d6c-4f25-8e64-66d0f40abaac","ios":"levelo://app?vid=5edece7b-2d6c-4f25-8e64-66d0f40abaac"},"vehicle_type_id":"4","last_reported":1732050552,"current_range_meters":16400,"station_id":"ce4bhb12rcd13ifvqem0","pricing_plan_id":"cebpf4jnsgd1na2vs0mg"},{"bike_id":"1769703b-9903-454d-ac38-a754f724b036","system_id":"levelo_inurba_marseille","lat":43.25582,"lon":5.38228,"is_reserved":false,"is_disabled":false,"rental_uris":{"android":"levelo://app?vid=1769703b-9903-454d-ac38-a754f724b036","ios":"levelo://app?vid=1769703b-9903-454d-ac38-a754f724b036"},"vehicle_type_id":"4","last_reported":1732050552,"current_range_meters":38800,"station_id":"ce4bhih2rcd13ifvqfs0","pricing_plan_id":"cebpf4jnsgd1na2vs0mg"},{"bike_id":"bc249293-6395-4334-b84a-652f70f197fc","system_id":"levelo_inurba_marseille","lat":43.27631,"lon":5.42646,"is_reserved":false,"is_disabled":true,"rental_uris":{"android":"levelo://app?vid=bc249293-6395-4334-b84a-652f70f197fc","ios":"levelo://app?vid=bc249293-6395-4334-b84a-652f70f197fc"},"vehicle_type_id":"4","last_reported":1732050552,"current_range_meters":0,"station_id":"","pricing_plan_id":"cebpf4jnsgd1na2vs0mg"},{"bike_id":"ed4fa134-c8f3-40e1-ba97-1306c197c2c6","system_id":"levelo_inurba_marseille","lat":43.30325,"lon":5.40433,"is_reserved":false,"is_disabled":true,"rental_uris":{"android":"levelo://app?vid=ed4fa134-c8f3-40e1-ba97-1306c197c2c6","ios":"levelo://app?vid=ed4fa134-c8f3-40e1-ba97-1306c197c2c6"},"vehicle_type_id":"4","last_reported":1732050552,"current_range_meters":22800,"station_id":"ce4bh012rcd13ifvqd10","pricing_plan_id":"cebpf4jnsgd1na2vs0mg"},{"bike_id":"5ee18f5d-f31a-498d-8043-5a9ebb2a722c","system_id":"levelo_inurba_marseille","lat":43.27174,"lon":5.40995,"is_reserved":false,"is_disabled":false,"rental_uris":{"android":"levelo://app?vid=5ee18f5d-f31a-498d-8043-5a9ebb2a722c","ios":"levelo://app?vid=5ee18f5d-f31a-498d-8043-5a9ebb2a722c"},"vehicle_type_id":"4","last_reported":1732050552,"current_range_meters":16000,"station_id":"ce4bhl12rcd13ifvqgf0","pricing_plan_id":"cebpf4jnsgd1na2vs0mg"},{"bike_id":"be1dd5f8-91fc-4786-8461-76cd869dae13","system_id":"levelo_inurba_marseille","lat":43.31982,"lon":5.41584,"is_reserved":false,"is_disabled":true,"rental_uris":{"android":"levelo://app?vid=be1dd5f8-91fc-4786-8461-76cd869dae13","ios":"levelo://app?vid=be1dd5f8-91fc-4786-8461-76cd869dae13"},"vehicle_type_id":"4","last_reported":1732050552,"current_range_meters":24800,"station_id":"","pricing_plan_id":"cebpf4jnsgd1na2vs0mg"},{"bike_id":"d4a5cae9-1de2-4cc0-b54a-cd3448017edb","system_id":"levelo_inurba_marseille","lat":43.29887,"lon":5.38895,"is_reserved":false,"is_disabled":false,"rental_uris":{"android":"levelo://app?vid=d4a5cae9-1de2-4cc0-b54a-cd3448017edb","ios":"levelo://app?vid=d4a5cae9-1de2-4cc0-b54a-cd3448017edb"},"vehicle_type_id":"4","last_reported":1732050552,"current_range_meters":25600,"station_id":"ce4bh392rcd13ifvqdl0","pricing_plan_id":"cebpf4jnsgd1na2vs0mg"},{"bike_id":"246aff44-33b5-4b0b-a7a6-700af2ee3dd7","system_id":"levelo_inurba_marseille","lat":43.30597,"lon":5.39358,"is_reserved":false,"is_disabled":false,"rental_uris":{"android":"levelo://app?vid=246aff44-33b5-4b0b-a7a6-700af2ee3dd7","ios":"levelo://app?vid=246aff44-33b5-4b0b-a7a6-700af2ee3dd7"},"vehicle_type_id":"4","last_reported":1732050552,"current_range_meters":28400,"station_id":"ce4bh0p2rcd13ifvqd80","pricing_plan_id":"cebpf4jnsgd1na2vs0mg"},{"bike_id":"a5b4fc30-1316-4198-bc47-26bb0ca18c76","system_id":"levelo_inurba_marseille","lat":43.29254,"lon":5.38444,"is_reserved":false,"is_disabled":false,"rental_uris":{"android":"levelo://app?vid=a5b4fc30-1316-4198-bc47-26bb0ca18c76","ios":"levelo://app?vid=a5b4fc30-1316-4198-bc47-26bb0ca18c76"},"vehicle_type_id":"4","last_reported":1732050552,"current_range_meters":37600,"station_id":"ce4bh692rcd13ifvqea0","pricing_plan_id":"cebpf4jnsgd1na2vs0mg"},{"bike_id":"9e428f60-dc64-4e0e-959e-2a2867dd2a60","system_id":"levelo_inurba_marseille","lat":43.28273,"lon":5.35074,"is_reserved":false,"is_disabled":false,"rental_uris":{"android":"levelo://app?vid=9e428f60-dc64-4e0e-959e-2a2867dd2a60","ios":"levelo://app?vid=9e428f60-dc64-4e0e-959e-2a2867dd2a60"},"vehicle_type_id":"4","last_reported":1732050552,"current_range_meters":21600,"station_id":"ce4bhbp2rcd13ifvqerg","pricing_plan_id":"cebpf4jnsgd1na2vs0mg"},{"bike_id":"80ed2145-0455-4da8-ae4a-e36065982ce3","system_id":"levelo_inurba_marseille","lat":43.32365,"lon":5.3888,"is_reserved":false,"is_disabled":false,"rental_uris":{"android":"levelo://app?vid=80ed2145-0455-4da8-ae4a-e36065982ce3","ios":"levelo://app?vid=80ed2145-0455-4da8-ae4a-e36065982ce3"},"vehicle_type_id":"4","last_reported":1732050552,"current_range_meters":11600,"station_id":"ce4bhqp2rcd13ifvqhog","pricing_plan_id":"cebpf4jnsgd1na2vs0mg"},{"bike_id":"c0a078cf-61b1-476e-bc28-054889932355","system_id":"levelo_inurba_marseille","lat":43.28673,"lon":5.3866,"is_reserved":false,"is_disabled":false,"rental_uris":{"android":"levelo://app?vid=c0a078cf-61b1-476e-bc28-054889932355","ios":"levelo://app?vid=c0a078cf-61b1-476e-bc28-054889932355"},"vehicle_type_id":"4","last_reported":1732050552,"current_range_meters":12400,"station_id":"ce4bh492rcd13ifvqdug","pricing_plan_id":"cebpf4jnsgd1na2vs0mg"},{"bike_id":"823aac75-56da-47f7-a675-6babc5d4ef5e","system_id":"levelo_inurba_marseille","lat":43.25501,"lon":5.37649,"is_reserved":false,"is_disabled":false,"rental_uris":{"android":"levelo://app?vid=823aac75-56da-47f7-a675-6babc5d4ef5e","ios":"levelo://app?vid=823aac75-56da-47f7-a675-6babc5d4ef5e"},"vehicle_type_id":"4","last_reported":1732050552,"current_range_meters":3600,"station_id":"ce4bhh12rcd13ifvqff0","pricing_plan_id":"cebpf4jnsgd1na2vs0mg"},{"bike_id":"f198b97b-88d4-49aa-b205-4610520421a6","system_id":"levelo_inurba_marseille","lat":43.33022,"lon":5.39037,"is_reserved":false,"is_disabled":false,"rental_uris":{"android":"levelo://app?vid=f198b97b-88d4-49aa-b205-4610520421a6","ios":"levelo://app?vid=f198b97b-88d4-49aa-b205-4610520421a6"},"vehicle_type_id":"4","last_reported":1732050552,"current_range_meters":32800,"station_id":"ce4bhr92rcd13ifvqhrg","pricing_plan_id":"cebpf4jnsgd1na2vs0mg"},{"bike_id":"6fe65320-959e-41bb-8132-72e6c31cb31d","system_id":"levelo_inurba_marseille","lat":43.28078,"lon":5.39652,"is_reserved":false,"is_disabled":true,"rental_uris":{"android":"levelo://app?vid=6fe65320-959e-41bb-8132-72e6c31cb31d","ios":"levelo://app?vid=6fe65320-959e-41bb-8132-72e6c31cb31d"},"vehicle_type_id":"4","last_reported":1732050552,"current_range_meters":40000,"station_id":"ce4bho12rcd13ifvqh2g","pricing_plan_id":"cebpf4jnsgd1na2vs0mg"},{"bike_id":"abf2e417-7fd0-4f5e-9afa-64af93f85e22","system_id":"levelo_inurba_marseille","lat":43.31986,"lon":5.38138,"is_reserved":false,"is_disabled":false,"rental_uris":{"android":"levelo://app?vid=abf2e417-7fd0-4f5e-9afa-64af93f85e22","ios":"levelo://app?vid=abf2e417-7fd0-4f5e-9afa-64af93f85e22"},"vehicle_type_id":"4","last_reported":1732050552,"current_range_meters":35200,"station_id":"ce4bhr12rcd13ifvqhpg","pricing_plan_id":"cebpf4jnsgd1na2vs0mg"},{"bike_id":"e7f24bf0-eae1-41a8-93bb-91453789a04a","system_id":"levelo_inurba_marseille","lat":43.28453,"lon":5.3588,"is_reserved":false,"is_disabled":false,"rental_uris":{"android":"levelo://app?vid=e7f24bf0-eae1-41a8-93bb-91453789a04a","ios":"levelo://app?vid=e7f24bf0-eae1-41a8-93bb-91453789a04a"},"vehicle_type_id":"4","last_reported":1732050552,"current_range_meters":14400,"station_id":"ce4bhah2rcd13ifvqei0","pricing_plan_id":"cebpf4jnsgd1na2vs0mg"},{"bike_id":"5fe20d58-65ac-4c8a-b149-a2e6de20044d","system_id":"levelo_inurba_marseille","lat":43.29375,"lon":5.37858,"is_reserved":false,"is_disabled":true,"rental_uris":{"android":"levelo://app?vid=5fe20d58-65ac-4c8a-b149-a2e6de20044d","ios":"levelo://app?vid=5fe20d58-65ac-4c8a-b149-a2e6de20044d"},"vehicle_type_id":"4","last_reported":1732050552,"current_range_meters":30400,"station_id":"ce4bgjh2rcd13ifvqbf0","pricing_plan_id":"cebpf4jnsgd1na2vs0mg"},{"bike_id":"70c694b8-609a-4e19-9067-0bd1313ac6f9","system_id":"levelo_inurba_marseille","lat":43.32479,"lon":5.36561,"is_reserved":false,"is_disabled":false,"rental_uris":{"android":"levelo://app?vid=70c694b8-609a-4e19-9067-0bd1313ac6f9","ios":"levelo://app?vid=70c694b8-609a-4e19-9067-0bd1313ac6f9"},"vehicle_type_id":"4","last_reported":1732050552,"current_range_meters":39200,"station_id":"ce4bhs12rcd13ifvqhvg","pricing_plan_id":"cebpf4jnsgd1na2vs0mg"},{"bike_id":"6c884184-cddc-4cc0-aa45-5525e2fb7f75","system_id":"levelo_inurba_marseille","lat":43.23962,"lon":5.36632,"is_reserved":false,"is_disabled":false,"rental_uris":{"android":"levelo://app?vid=6c884184-cddc-4cc0-aa45-5525e2fb7f75","ios":"levelo://app?vid=6c884184-cddc-4cc0-aa45-5525e2fb7f75"},"vehicle_type_id":"4","last_reported":1732050552,"current_range_meters":19600,"station_id":"ce4bhi12rcd13ifvqfp0","pricing_plan_id":"cebpf4jnsgd1na2vs0mg"},{"bike_id":"2b891c5b-63d3-46d5-b15a-a179dad84936","system_id":"levelo_inurba_marseille","lat":43.24541,"lon":5.39529,"is_reserved":false,"is_disabled":false,"rental_uris":{"android":"levelo://app?vid=2b891c5b-63d3-46d5-b15a-a179dad84936","ios":"levelo://app?vid=2b891c5b-63d3-46d5-b15a-a179dad84936"},"vehicle_type_id":"4","last_reported":1732050552,"current_range_meters":38800,"station_id":"ce4bhlp2rcd13ifvqgjg","pricing_plan_id":"cebpf4jnsgd1na2vs0mg"},{"bike_id":"3df07603-4cc7-450a-9655-3b7606e514c1","system_id":"levelo_inurba_marseille","lat":43.29075,"lon":5.37161,"is_reserved":false,"is_disabled":true,"rental_uris":{"android":"levelo://app?vid=3df07603-4cc7-450a-9655-3b7606e514c1","ios":"levelo://app?vid=3df07603-4cc7-450a-9655-3b7606e514c1"},"vehicle_type_id":"4","last_reported":1732050552,"current_range_meters":16800,"station_id":"ce4bh5p2rcd13ifvqe4g","pricing_plan_id":"cebpf4jnsgd1na2vs0mg"},{"bike_id":"ad425b7d-c873-4aac-82cb-d98cebef8fc7","system_id":"levelo_inurba_marseille","lat":43.29532,"lon":5.38544,"is_reserved":false,"is_disabled":false,"rental_uris":{"android":"levelo://app?vid=ad425b7d-c873-4aac-82cb-d98cebef8fc7","ios":"levelo://app?vid=ad425b7d-c873-4aac-82cb-d98cebef8fc7"},"vehicle_type_id":"4","last_reported":1732050552,"current_range_meters":27600,"station_id":"ce4bgih2rcd13ifvqba0","pricing_plan_id":"cebpf4jnsgd1na2vs0mg"},{"bike_id":"43679b68-2478-4d79-a5c9-7b258522d608","system_id":"levelo_inurba_marseille","lat":43.30778,"lon":5.37662,"is_reserved":false,"is_disabled":false,"rental_uris":{"android":"levelo://app?vid=43679b68-2478-4d79-a5c9-7b258522d608","ios":"levelo://app?vid=43679b68-2478-4d79-a5c9-7b258522d608"},"vehicle_type_id":"4","last_reported":1732050552,"current_range_meters":23200,"station_id":"ce4bgv92rcd13ifvqcq0","pricing_plan_id":"cebpf4jnsgd1na2vs0mg"},{"bike_id":"24b2c3eb-8b9b-40a7-8aad-177c7a5a5f47","system_id":"levelo_inurba_marseille","lat":43.269326,"lon":5.389104,"is_reserved":false,"is_disabled":true,"rental_uris":{"android":"levelo://app?vid=24b2c3eb-8b9b-40a7-8aad-177c7a5a5f47","ios":"levelo://app?vid=24b2c3eb-8b9b-40a7-8aad-177c7a5a5f47"},"vehicle_type_id":"4","last_reported":1732050552,"current_range_meters":0,"station_id":"ce4bhhh2rcd13ifvqfl0","pricing_plan_id":"cebpf4jnsgd1na2vs0mg"},{"bike_id":"4bd268f3-b708-480d-b1f5-141d19aa9947","system_id":"levelo_inurba_marseille","lat":43.2447,"lon":5.37793,"is_reserved":false,"is_disabled":true,"rental_uris":{"android":"levelo://app?vid=4bd268f3-b708-480d-b1f5-141d19aa9947","ios":"levelo://app?vid=4bd268f3-b708-480d-b1f5-141d19aa9947"},"vehicle_type_id":"4","last_reported":1732050552,"current_range_meters":0,"station_id":"","pricing_plan_id":"cebpf4jnsgd1na2vs0mg"},{"bike_id":"a78bc1fa-f508-4cab-a5e8-89111600fa30","system_id":"levelo_inurba_marseille","lat":43.34135,"lon":5.40903,"is_reserved":false,"is_disabled":false,"rental_uris":{"android":"levelo://app?vid=a78bc1fa-f508-4cab-a5e8-89111600fa30","ios":"levelo://app?vid=a78bc1fa-f508-4cab-a5e8-89111600fa30"},"vehicle_type_id":"4","last_reported":1732050552,"current_range_meters":39200,"station_id":"ce4bhqh2rcd13ifvqhlg","pricing_plan_id":"cebpf4jnsgd1na2vs0mg"},{"bike_id":"9b4d52a8-a22b-418c-a556-65afaca3a235","system_id":"levelo_inurba_marseille","lat":43.33744,"lon":5.37447,"is_reserved":false,"is_disabled":false,"rental_uris":{"android":"levelo://app?vid=9b4d52a8-a22b-418c-a556-65afaca3a235","ios":"levelo://app?vid=9b4d52a8-a22b-418c-a556-65afaca3a235"},"vehicle_type_id":"4","last_reported":1732050552,"current_range_meters":20000,"station_id":"","pricing_plan_id":"cebpf4jnsgd1na2vs0mg"},{"bike_id":"0865269c-d4cf-4423-9d9e-e76dc6f775c6","system_id":"levelo_inurba_marseille","lat":43.2942,"lon":5.38609,"is_reserved":false,"is_disabled":false,"rental_uris":{"android":"levelo://app?vid=0865269c-d4cf-4423-9d9e-e76dc6f775c6","ios":"levelo://app?vid=0865269c-d4cf-4423-9d9e-e76dc6f775c6"},"vehicle_type_id":"4","last_reported":1732050552,"current_range_meters":30000,"station_id":"ce4bh2h2rcd13ifvqdh0","pricing_plan_id":"cebpf4jnsgd1na2vs0mg"},{"bike_id":"4d5fa4b8-d1ce-4e4b-87de-4eea68a4f2bd","system_id":"levelo_inurba_marseille","lat":43.30588,"lon":5.39353,"is_reserved":false,"is_disabled":false,"rental_uris":{"android":"levelo://app?vid=4d5fa4b8-d1ce-4e4b-87de-4eea68a4f2bd","ios":"levelo://app?vid=4d5fa4b8-d1ce-4e4b-87de-4eea68a4f2bd"},"vehicle_type_id":"4","last_reported":1732050552,"current_range_meters":8800,"station_id":"ce4bh0p2rcd13ifvqd80","pricing_plan_id":"cebpf4jnsgd1na2vs0mg"},{"bike_id":"d5e267a3-17b3-48f0-a5b7-c9834438a199","system_id":"levelo_inurba_marseille","lat":43.29802,"lon":5.40402,"is_reserved":false,"is_disabled":false,"rental_uris":{"android":"levelo://app?vid=d5e267a3-17b3-48f0-a5b7-c9834438a199","ios":"levelo://app?vid=d5e267a3-17b3-48f0-a5b7-c9834438a199"},"vehicle_type_id":"4","last_reported":1732050552,"current_range_meters":38800,"station_id":"ce4bh112rcd13ifvqd90","pricing_plan_id":"cebpf4jnsgd1na2vs0mg"},{"bike_id":"a12d6d5f-0f23-4ede-a12b-384b4925b55d","system_id":"levelo_inurba_marseille","lat":43.28409,"lon":5.3753,"is_reserved":false,"is_disabled":false,"rental_uris":{"android":"levelo://app?vid=a12d6d5f-0f23-4ede-a12b-384b4925b55d","ios":"levelo://app?vid=a12d6d5f-0f23-4ede-a12b-384b4925b55d"},"vehicle_type_id":"4","last_reported":1732050552,"current_range_meters":38000,"station_id":"ce4bh412rcd13ifvqds0","pricing_plan_id":"cebpf4jnsgd1na2vs0mg"},{"bike_id":"5c215695-7517-4c59-b4ed-3d09ca94c869","system_id":"levelo_inurba_marseille","lat":43.24801,"lon":5.37446,"is_reserved":false,"is_disabled":true,"rental_uris":{"android":"levelo://app?vid=5c215695-7517-4c59-b4ed-3d09ca94c869","ios":"levelo://app?vid=5c215695-7517-4c59-b4ed-3d09ca94c869"},"vehicle_type_id":"4","last_reported":1732050552,"current_range_meters":0,"station_id":"ce4bhgh2rcd13ifvqfb0","pricing_plan_id":"cebpf4jnsgd1na2vs0mg"},{"bike_id":"e74e8692-56b5-455e-b107-3674a73c30f0","system_id":"levelo_inurba_marseille","lat":43.2927,"lon":5.36839,"is_reserved":false,"is_disabled":true,"rental_uris":{"android":"levelo://app?vid=e74e8692-56b5-455e-b107-3674a73c30f0","ios":"levelo://app?vid=e74e8692-56b5-455e-b107-3674a73c30f0"},"vehicle_type_id":"4","last_reported":1732050552,"current_range_meters":800,"station_id":"ce4bhbp2rcd13ifvqesg","pricing_plan_id":"cebpf4jnsgd1na2vs0mg"},{"bike_id":"b8e0ff19-cfbf-49c3-a9f8-f8dcefd4b613","system_id":"levelo_inurba_marseille","lat":43.27665,"lon":5.389,"is_reserved":false,"is_disabled":true,"rental_uris":{"android":"levelo://app?vid=b8e0ff19-cfbf-49c3-a9f8-f8dcefd4b613","ios":"levelo://app?vid=b8e0ff19-cfbf-49c3-a9f8-f8dcefd4b613"},"vehicle_type_id":"4","last_reported":1732050552,"current_range_meters":36400,"station_id":"ce4bhi12rcd13ifvqfo0","pricing_plan_id":"cebpf4jnsgd1na2vs0mg"},{"bike_id":"0d4ef6cd-7436-4797-ab7a-b84a918dfc75","system_id":"levelo_inurba_marseille","lat":43.29569,"lon":5.39979,"is_reserved":false,"is_disabled":false,"rental_uris":{"android":"levelo://app?vid=0d4ef6cd-7436-4797-ab7a-b84a918dfc75","ios":"levelo://app?vid=0d4ef6cd-7436-4797-ab7a-b84a918dfc75"},"vehicle_type_id":"4","last_reported":1732050552,"current_range_meters":18000,"station_id":"ce4bh312rcd13ifvqdj0","pricing_plan_id":"cebpf4jnsgd1na2vs0mg"},{"bike_id":"6a4a5079-d2ef-4951-93b7-ecaeefc95070","system_id":"levelo_inurba_marseille","lat":43.24993,"lon":5.38933,"is_reserved":false,"is_disabled":false,"rental_uris":{"android":"levelo://app?vid=6a4a5079-d2ef-4951-93b7-ecaeefc95070","ios":"levelo://app?vid=6a4a5079-d2ef-4951-93b7-ecaeefc95070"},"vehicle_type_id":"4","last_reported":1732050552,"current_range_meters":23200,"station_id":"ce4bhgp2rcd13ifvqfd0","pricing_plan_id":"cebpf4jnsgd1na2vs0mg"},{"bike_id":"eaa42bfa-9e14-44cc-8771-e7142d3132b3","system_id":"levelo_inurba_marseille","lat":43.30804,"lon":5.4353,"is_reserved":false,"is_disabled":false,"rental_uris":{"android":"levelo://app?vid=eaa42bfa-9e14-44cc-8771-e7142d3132b3","ios":"levelo://app?vid=eaa42bfa-9e14-44cc-8771-e7142d3132b3"},"vehicle_type_id":"4","last_reported":1732050552,"current_range_meters":39200,"station_id":"ce4bhph2rcd13ifvqheg","pricing_plan_id":"cebpf4jnsgd1na2vs0mg"},{"bike_id":"7075eea6-5bcd-49ad-b2e0-5b352ae7a20d","system_id":"levelo_inurba_marseille","lat":43.30324,"lon":5.40443,"is_reserved":false,"is_disabled":false,"rental_uris":{"android":"levelo://app?vid=7075eea6-5bcd-49ad-b2e0-5b352ae7a20d","ios":"levelo://app?vid=7075eea6-5bcd-49ad-b2e0-5b352ae7a20d"},"vehicle_type_id":"4","last_reported":1732050552,"current_range_meters":3200,"station_id":"ce4bh012rcd13ifvqd10","pricing_plan_id":"cebpf4jnsgd1na2vs0mg"},{"bike_id":"1462f68e-113f-431d-9d5b-f4d7f987f2b8","system_id":"levelo_inurba_marseille","lat":43.28481,"lon":5.38416,"is_reserved":false,"is_disabled":true,"rental_uris":{"android":"levelo://app?vid=1462f68e-113f-431d-9d5b-f4d7f987f2b8","ios":"levelo://app?vid=1462f68e-113f-431d-9d5b-f4d7f987f2b8"},"vehicle_type_id":"4","last_reported":1732050552,"current_range_meters":0,"station_id":"ce4bh512rcd13ifvqe3g","pricing_plan_id":"cebpf4jnsgd1na2vs0mg"},{"bike_id":"c0ac236e-b052-4993-a73f-8d47ad75afde","system_id":"levelo_inurba_marseille","lat":43.28068,"lon":5.39649,"is_reserved":false,"is_disabled":false,"rental_uris":{"android":"levelo://app?vid=c0ac236e-b052-4993-a73f-8d47ad75afde","ios":"levelo://app?vid=c0ac236e-b052-4993-a73f-8d47ad75afde"},"vehicle_type_id":"4","last_reported":1732050552,"current_range_meters":6800,"station_id":"ce4bho12rcd13ifvqh2g","pricing_plan_id":"cebpf4jnsgd1na2vs0mg"},{"bike_id":"98ecb95d-710f-4a7b-b429-73ca51942102","system_id":"levelo_inurba_marseille","lat":43.284069,"lon":5.375245,"is_reserved":false,"is_disabled":false,"rental_uris":{"android":"levelo://app?vid=98ecb95d-710f-4a7b-b429-73ca51942102","ios":"levelo://app?vid=98ecb95d-710f-4a7b-b429-73ca51942102"},"vehicle_type_id":"4","last_reported":1732050552,"current_range_meters":24000,"station_id":"ce4bh412rcd13ifvqds0","pricing_plan_id":"cebpf4jnsgd1na2vs0mg"},{"bike_id":"dd6eb73e-54f0-4b0f-b44c-6d4ce902ef9b","system_id":"levelo_inurba_marseille","lat":43.29724,"lon":5.37687,"is_reserved":false,"is_disabled":false,"rental_uris":{"android":"levelo://app?vid=dd6eb73e-54f0-4b0f-b44c-6d4ce902ef9b","ios":"levelo://app?vid=dd6eb73e-54f0-4b0f-b44c-6d4ce902ef9b"},"vehicle_type_id":"4","last_reported":1732050552,"current_range_meters":38800,"station_id":"ce4bgkh2rcd13ifvqbl0","pricing_plan_id":"cebpf4jnsgd1na2vs0mg"},{"bike_id":"0b733133-03c9-4766-961e-92b775b50bbc","system_id":"levelo_inurba_marseille","lat":43.28193,"lon":5.44265,"is_reserved":false,"is_disabled":true,"rental_uris":{"android":"levelo://app?vid=0b733133-03c9-4766-961e-92b775b50bbc","ios":"levelo://app?vid=0b733133-03c9-4766-961e-92b775b50bbc"},"vehicle_type_id":"4","last_reported":1732050552,"current_range_meters":0,"station_id":"","pricing_plan_id":"cebpf4jnsgd1na2vs0mg"},{"bike_id":"87f72484-0dd8-4a5a-8b7f-bb079e67d618","system_id":"levelo_inurba_marseille","lat":43.29585,"lon":5.36748,"is_reserved":false,"is_disabled":false,"rental_uris":{"android":"levelo://app?vid=87f72484-0dd8-4a5a-8b7f-bb079e67d618","ios":"levelo://app?vid=87f72484-0dd8-4a5a-8b7f-bb079e67d618"},"vehicle_type_id":"4","last_reported":1732050552,"current_range_meters":27200,"station_id":"ce4bgph2rcd13ifvqc2g","pricing_plan_id":"cebpf4jnsgd1na2vs0mg"},{"bike_id":"d9a9fcd3-dfff-41da-81e5-54e419d0b57c","system_id":"levelo_inurba_marseille","lat":43.28613,"lon":5.35101,"is_reserved":false,"is_disabled":false,"rental_uris":{"android":"levelo://app?vid=d9a9fcd3-dfff-41da-81e5-54e419d0b57c","ios":"levelo://app?vid=d9a9fcd3-dfff-41da-81e5-54e419d0b57c"},"vehicle_type_id":"4","last_reported":1732050552,"current_range_meters":11600,"station_id":"ce4bhch2rcd13ifvqeug","pricing_plan_id":"cebpf4jnsgd1na2vs0mg"},{"bike_id":"0cb9fa22-9ef4-4bf5-9521-58ea78cc59b4","system_id":"levelo_inurba_marseille","lat":43.30135,"lon":5.37428,"is_reserved":false,"is_disabled":false,"rental_uris":{"android":"levelo://app?vid=0cb9fa22-9ef4-4bf5-9521-58ea78cc59b4","ios":"levelo://app?vid=0cb9fa22-9ef4-4bf5-9521-58ea78cc59b4"},"vehicle_type_id":"4","last_reported":1732050552,"current_range_meters":39200,"station_id":"ce4bgs92rcd13ifvqcc0","pricing_plan_id":"cebpf4jnsgd1na2vs0mg"},{"bike_id":"7d02f161-c4ab-430d-be6a-e052ba68aacf","system_id":"levelo_inurba_marseille","lat":43.30953,"lon":5.39022,"is_reserved":false,"is_disabled":true,"rental_uris":{"android":"levelo://app?vid=7d02f161-c4ab-430d-be6a-e052ba68aacf","ios":"levelo://app?vid=7d02f161-c4ab-430d-be6a-e052ba68aacf"},"vehicle_type_id":"4","last_reported":1732050552,"current_range_meters":9600,"station_id":"ce4bgup2rcd13ifvqco0","pricing_plan_id":"cebpf4jnsgd1na2vs0mg"},{"bike_id":"0d2e23d7-4630-455c-9335-5e5671d0d0f4","system_id":"levelo_inurba_marseille","lat":43.30299,"lon":5.39211,"is_reserved":false,"is_disabled":false,"rental_uris":{"android":"levelo://app?vid=0d2e23d7-4630-455c-9335-5e5671d0d0f4","ios":"levelo://app?vid=0d2e23d7-4630-455c-9335-5e5671d0d0f4"},"vehicle_type_id":"4","last_reported":1732050552,"current_range_meters":36800,"station_id":"ce4bgkh2rcd13ifvqbk0","pricing_plan_id":"cebpf4jnsgd1na2vs0mg"},{"bike_id":"e65461e3-d425-4dee-a20c-933c7023442e","system_id":"levelo_inurba_marseille","lat":43.30255,"lon":5.40062,"is_reserved":false,"is_disabled":true,"rental_uris":{"android":"levelo://app?vid=e65461e3-d425-4dee-a20c-933c7023442e","ios":"levelo://app?vid=e65461e3-d425-4dee-a20c-933c7023442e"},"vehicle_type_id":"4","last_reported":1732050552,"current_range_meters":36800,"station_id":"ce4bgvh2rcd13ifvqcs0","pricing_plan_id":"cebpf4jnsgd1na2vs0mg"},{"bike_id":"e8a55b1f-c734-4050-817f-07bf60214f39","system_id":"levelo_inurba_marseille","lat":43.28456,"lon":5.35895,"is_reserved":false,"is_disabled":false,"rental_uris":{"android":"levelo://app?vid=e8a55b1f-c734-4050-817f-07bf60214f39","ios":"levelo://app?vid=e8a55b1f-c734-4050-817f-07bf60214f39"},"vehicle_type_id":"4","last_reported":1732050552,"current_range_meters":12800,"station_id":"ce4bhah2rcd13ifvqei0","pricing_plan_id":"cebpf4jnsgd1na2vs0mg"},{"bike_id":"49a8cc66-6cd3-4328-9239-e2254c8eb681","system_id":"levelo_inurba_marseille","lat":43.30413,"lon":5.39343,"is_reserved":false,"is_disabled":false,"rental_uris":{"android":"levelo://app?vid=49a8cc66-6cd3-4328-9239-e2254c8eb681","ios":"levelo://app?vid=49a8cc66-6cd3-4328-9239-e2254c8eb681"},"vehicle_type_id":"4","last_reported":1732050552,"current_range_meters":30400,"station_id":"","pricing_plan_id":"cebpf4jnsgd1na2vs0mg"},{"bike_id":"b5aa51a6-53b4-4ce1-9f62-46acd3a879d7","system_id":"levelo_inurba_marseille","lat":43.31274,"lon":5.40167,"is_reserved":false,"is_disabled":false,"rental_uris":{"android":"levelo://app?vid=b5aa51a6-53b4-4ce1-9f62-46acd3a879d7","ios":"levelo://app?vid=b5aa51a6-53b4-4ce1-9f62-46acd3a879d7"},"vehicle_type_id":"4","last_reported":1732050552,"current_range_meters":29600,"station_id":"ce4bh092rcd13ifvqd30","pricing_plan_id":"cebpf4jnsgd1na2vs0mg"},{"bike_id":"62dfbbff-2ec9-42fe-bdca-a63180445360","system_id":"levelo_inurba_marseille","lat":43.2957,"lon":5.39973,"is_reserved":false,"is_disabled":false,"rental_uris":{"android":"levelo://app?vid=62dfbbff-2ec9-42fe-bdca-a63180445360","ios":"levelo://app?vid=62dfbbff-2ec9-42fe-bdca-a63180445360"},"vehicle_type_id":"4","last_reported":1732050552,"current_range_meters":30400,"station_id":"ce4bh312rcd13ifvqdj0","pricing_plan_id":"cebpf4jnsgd1na2vs0mg"},{"bike_id":"894d1fa3-4046-45d6-bab2-de26487a6c66","system_id":"levelo_inurba_marseille","lat":43.31078,"lon":5.42434,"is_reserved":false,"is_disabled":false,"rental_uris":{"android":"levelo://app?vid=894d1fa3-4046-45d6-bab2-de26487a6c66","ios":"levelo://app?vid=894d1fa3-4046-45d6-bab2-de26487a6c66"},"vehicle_type_id":"4","last_reported":1732050552,"current_range_meters":36400,"station_id":"ce4bhp92rcd13ifvqhag","pricing_plan_id":"cebpf4jnsgd1na2vs0mg"},{"bike_id":"35ae0824-f6a1-494d-ad0e-71e2a1b9e68e","system_id":"levelo_inurba_marseille","lat":43.25494,"lon":5.37652,"is_reserved":false,"is_disabled":false,"rental_uris":{"android":"levelo://app?vid=35ae0824-f6a1-494d-ad0e-71e2a1b9e68e","ios":"levelo://app?vid=35ae0824-f6a1-494d-ad0e-71e2a1b9e68e"},"vehicle_type_id":"4","last_reported":1732050552,"current_range_meters":8400,"station_id":"ce4bhh12rcd13ifvqff0","pricing_plan_id":"cebpf4jnsgd1na2vs0mg"},{"bike_id":"4e3d2798-03bd-46a3-9eeb-a0bf2624405c","system_id":"levelo_inurba_marseille","lat":43.29798,"lon":5.37105,"is_reserved":false,"is_disabled":false,"rental_uris":{"android":"levelo://app?vid=4e3d2798-03bd-46a3-9eeb-a0bf2624405c","ios":"levelo://app?vid=4e3d2798-03bd-46a3-9eeb-a0bf2624405c"},"vehicle_type_id":"4","last_reported":1732050552,"current_range_meters":38000,"station_id":"ce4bgop2rcd13ifvqc1g","pricing_plan_id":"cebpf4jnsgd1na2vs0mg"},{"bike_id":"7ee91914-acad-4a65-8992-954e71eb40ed","system_id":"levelo_inurba_marseille","lat":43.27897,"lon":5.38,"is_reserved":false,"is_disabled":false,"rental_uris":{"android":"levelo://app?vid=7ee91914-acad-4a65-8992-954e71eb40ed","ios":"levelo://app?vid=7ee91914-acad-4a65-8992-954e71eb40ed"},"vehicle_type_id":"4","last_reported":1732050552,"current_range_meters":28000,"station_id":"ce4bhf92rcd13ifvqf50","pricing_plan_id":"cebpf4jnsgd1na2vs0mg"},{"bike_id":"1eff5ce5-2d56-4465-a12c-60db9ec2175a","system_id":"levelo_inurba_marseille","lat":43.22927,"lon":5.35376,"is_reserved":false,"is_disabled":false,"rental_uris":{"android":"levelo://app?vid=1eff5ce5-2d56-4465-a12c-60db9ec2175a","ios":"levelo://app?vid=1eff5ce5-2d56-4465-a12c-60db9ec2175a"},"vehicle_type_id":"4","last_reported":1732050552,"current_range_meters":20000,"station_id":"cpo3532slgdg3j2ikp40","pricing_plan_id":"cebpf4jnsgd1na2vs0mg"},{"bike_id":"6ac38c08-263b-4dbc-9230-678d7993bb91","system_id":"levelo_inurba_marseille","lat":43.29305,"lon":5.37171,"is_reserved":false,"is_disabled":true,"rental_uris":{"android":"levelo://app?vid=6ac38c08-263b-4dbc-9230-678d7993bb91","ios":"levelo://app?vid=6ac38c08-263b-4dbc-9230-678d7993bb91"},"vehicle_type_id":"4","last_reported":1732050552,"current_range_meters":27200,"station_id":"ce4bgh92rcd13ifvqb40","pricing_plan_id":"cebpf4jnsgd1na2vs0mg"},{"bike_id":"384dcd34-d6c7-4cd6-a366-6ec5c33f37a6","system_id":"levelo_inurba_marseille","lat":43.24083,"lon":5.37747,"is_reserved":false,"is_disabled":false,"rental_uris":{"android":"levelo://app?vid=384dcd34-d6c7-4cd6-a366-6ec5c33f37a6","ios":"levelo://app?vid=384dcd34-d6c7-4cd6-a366-6ec5c33f37a6"},"vehicle_type_id":"4","last_reported":1732050552,"current_range_meters":36800,"station_id":"ce4bhnp2rcd13ifvqgvg","pricing_plan_id":"cebpf4jnsgd1na2vs0mg"},{"bike_id":"81070033-bcc2-4712-aaf2-ebd63bfae0ec","system_id":"levelo_inurba_marseille","lat":43.28434,"lon":5.39195,"is_reserved":false,"is_disabled":false,"rental_uris":{"android":"levelo://app?vid=81070033-bcc2-4712-aaf2-ebd63bfae0ec","ios":"levelo://app?vid=81070033-bcc2-4712-aaf2-ebd63bfae0ec"},"vehicle_type_id":"4","last_reported":1732050552,"current_range_meters":30400,"station_id":"ce4bhoh2rcd13ifvqh5g","pricing_plan_id":"cebpf4jnsgd1na2vs0mg"},{"bike_id":"9f3572b0-c0a7-43aa-8c1e-c100148af63b","system_id":"levelo_inurba_marseille","lat":43.29187,"lon":5.35795,"is_reserved":false,"is_disabled":true,"rental_uris":{"android":"levelo://app?vid=9f3572b0-c0a7-43aa-8c1e-c100148af63b","ios":"levelo://app?vid=9f3572b0-c0a7-43aa-8c1e-c100148af63b"},"vehicle_type_id":"4","last_reported":1732050552,"current_range_meters":38800,"station_id":"ce4bhb12rcd13ifvqel0","pricing_plan_id":"cebpf4jnsgd1na2vs0mg"},{"bike_id":"954054ad-77ac-46c3-a1b5-c8fc266a522b","system_id":"levelo_inurba_marseille","lat":43.31725,"lon":5.42398,"is_reserved":false,"is_disabled":false,"rental_uris":{"android":"levelo://app?vid=954054ad-77ac-46c3-a1b5-c8fc266a522b","ios":"levelo://app?vid=954054ad-77ac-46c3-a1b5-c8fc266a522b"},"vehicle_type_id":"4","last_reported":1732050552,"current_range_meters":39200,"station_id":"ce4bhp92rcd13ifvqhbg","pricing_plan_id":"cebpf4jnsgd1na2vs0mg"},{"bike_id":"248d2a9a-33c2-4b89-8440-7c78da5a808a","system_id":"levelo_inurba_marseille","lat":43.265,"lon":5.39528,"is_reserved":false,"is_disabled":false,"rental_uris":{"android":"levelo://app?vid=248d2a9a-33c2-4b89-8440-7c78da5a808a","ios":"levelo://app?vid=248d2a9a-33c2-4b89-8440-7c78da5a808a"},"vehicle_type_id":"4","last_reported":1732050552,"current_range_meters":2000,"station_id":"ce4bhi12rcd13ifvqfq0","pricing_plan_id":"cebpf4jnsgd1na2vs0mg"},{"bike_id":"a068dc40-1862-43fc-975c-c8329fcb1c80","system_id":"levelo_inurba_marseille","lat":43.2732,"lon":5.3911,"is_reserved":false,"is_disabled":true,"rental_uris":{"android":"levelo://app?vid=a068dc40-1862-43fc-975c-c8329fcb1c80","ios":"levelo://app?vid=a068dc40-1862-43fc-975c-c8329fcb1c80"},"vehicle_type_id":"4","last_reported":1732050552,"current_range_meters":0,"station_id":"ce4bhgp2rcd13ifvqfe0","pricing_plan_id":"cebpf4jnsgd1na2vs0mg"},{"bike_id":"9c4a655e-2680-4a60-a844-6a2ea62fb4b1","system_id":"levelo_inurba_marseille","lat":43.26063,"lon":5.39394,"is_reserved":false,"is_disabled":true,"rental_uris":{"android":"levelo://app?vid=9c4a655e-2680-4a60-a844-6a2ea62fb4b1","ios":"levelo://app?vid=9c4a655e-2680-4a60-a844-6a2ea62fb4b1"},"vehicle_type_id":"4","last_reported":1732050552,"current_range_meters":27600,"station_id":"ce4bhh92rcd13ifvqfj0","pricing_plan_id":"cebpf4jnsgd1na2vs0mg"},{"bike_id":"2d983866-913c-4390-ae48-1873d10c9730","system_id":"levelo_inurba_marseille","lat":43.24813,"lon":5.37458,"is_reserved":false,"is_disabled":true,"rental_uris":{"android":"levelo://app?vid=2d983866-913c-4390-ae48-1873d10c9730","ios":"levelo://app?vid=2d983866-913c-4390-ae48-1873d10c9730"},"vehicle_type_id":"4","last_reported":1732050552,"current_range_meters":13600,"station_id":"ce4bhgh2rcd13ifvqfb0","pricing_plan_id":"cebpf4jnsgd1na2vs0mg"},{"bike_id":"974cb2e1-1719-453d-8dd6-acbb98d63539","system_id":"levelo_inurba_marseille","lat":43.29964,"lon":5.38491,"is_reserved":false,"is_disabled":false,"rental_uris":{"android":"levelo://app?vid=974cb2e1-1719-453d-8dd6-acbb98d63539","ios":"levelo://app?vid=974cb2e1-1719-453d-8dd6-acbb98d63539"},"vehicle_type_id":"4","last_reported":1732050552,"current_range_meters":36800,"station_id":"ce4bgj92rcd13ifvqbd0","pricing_plan_id":"cebpf4jnsgd1na2vs0mg"},{"bike_id":"ada08269-fd0c-4046-bf21-25ab1000c736","system_id":"levelo_inurba_marseille","lat":43.3153,"lon":5.38025,"is_reserved":false,"is_disabled":false,"rental_uris":{"android":"levelo://app?vid=ada08269-fd0c-4046-bf21-25ab1000c736","ios":"levelo://app?vid=ada08269-fd0c-4046-bf21-25ab1000c736"},"vehicle_type_id":"4","last_reported":1732050552,"current_range_meters":29600,"station_id":"ce4bhsp2rcd13ifvqi50","pricing_plan_id":"cebpf4jnsgd1na2vs0mg"},{"bike_id":"be0057d7-36ed-4552-93a5-d26a01d6fce9","system_id":"levelo_inurba_marseille","lat":43.31712,"lon":5.37747,"is_reserved":false,"is_disabled":false,"rental_uris":{"android":"levelo://app?vid=be0057d7-36ed-4552-93a5-d26a01d6fce9","ios":"levelo://app?vid=be0057d7-36ed-4552-93a5-d26a01d6fce9"},"vehicle_type_id":"4","last_reported":1732050552,"current_range_meters":29600,"station_id":"ce4bgth2rcd13ifvqch0","pricing_plan_id":"cebpf4jnsgd1na2vs0mg"},{"bike_id":"e840fe4f-47a0-4d31-8133-7c332a3d517a","system_id":"levelo_inurba_marseille","lat":43.31082,"lon":5.42432,"is_reserved":false,"is_disabled":true,"rental_uris":{"android":"levelo://app?vid=e840fe4f-47a0-4d31-8133-7c332a3d517a","ios":"levelo://app?vid=e840fe4f-47a0-4d31-8133-7c332a3d517a"},"vehicle_type_id":"4","last_reported":1732050552,"current_range_meters":16000,"station_id":"ce4bhp92rcd13ifvqhag","pricing_plan_id":"cebpf4jnsgd1na2vs0mg"},{"bike_id":"b1f1f917-fbca-4468-807a-dad63fe9cf93","system_id":"levelo_inurba_marseille","lat":43.28075,"lon":5.3965,"is_reserved":false,"is_disabled":false,"rental_uris":{"android":"levelo://app?vid=b1f1f917-fbca-4468-807a-dad63fe9cf93","ios":"levelo://app?vid=b1f1f917-fbca-4468-807a-dad63fe9cf93"},"vehicle_type_id":"4","last_reported":1732050552,"current_range_meters":22000,"station_id":"ce4bho12rcd13ifvqh2g","pricing_plan_id":"cebpf4jnsgd1na2vs0mg"},{"bike_id":"d88da729-3a82-486f-b734-abaa176a4658","system_id":"levelo_inurba_marseille","lat":43.31888,"lon":5.40734,"is_reserved":false,"is_disabled":false,"rental_uris":{"android":"levelo://app?vid=d88da729-3a82-486f-b734-abaa176a4658","ios":"levelo://app?vid=d88da729-3a82-486f-b734-abaa176a4658"},"vehicle_type_id":"4","last_reported":1732050552,"current_range_meters":26000,"station_id":"ce4bhq12rcd13ifvqhig","pricing_plan_id":"cebpf4jnsgd1na2vs0mg"},{"bike_id":"7db3e109-59af-4df6-ad20-7ea41f506454","system_id":"levelo_inurba_marseille","lat":43.33018,"lon":5.39045,"is_reserved":false,"is_disabled":false,"rental_uris":{"android":"levelo://app?vid=7db3e109-59af-4df6-ad20-7ea41f506454","ios":"levelo://app?vid=7db3e109-59af-4df6-ad20-7ea41f506454"},"vehicle_type_id":"4","last_reported":1732050552,"current_range_meters":10000,"station_id":"ce4bhr92rcd13ifvqhrg","pricing_plan_id":"cebpf4jnsgd1na2vs0mg"},{"bike_id":"5bddf6e5-633d-4da8-a478-cc22aa6ccefd","system_id":"levelo_inurba_marseille","lat":43.28931,"lon":5.3639,"is_reserved":false,"is_disabled":false,"rental_uris":{"android":"levelo://app?vid=5bddf6e5-633d-4da8-a478-cc22aa6ccefd","ios":"levelo://app?vid=5bddf6e5-633d-4da8-a478-cc22aa6ccefd"},"vehicle_type_id":"4","last_reported":1732050552,"current_range_meters":28000,"station_id":"ce4bhc92rcd13ifvqetg","pricing_plan_id":"cebpf4jnsgd1na2vs0mg"},{"bike_id":"a1cf6f06-44aa-4bc8-9eb2-8055a5e207a9","system_id":"levelo_inurba_marseille","lat":43.32481,"lon":5.36561,"is_reserved":false,"is_disabled":false,"rental_uris":{"android":"levelo://app?vid=a1cf6f06-44aa-4bc8-9eb2-8055a5e207a9","ios":"levelo://app?vid=a1cf6f06-44aa-4bc8-9eb2-8055a5e207a9"},"vehicle_type_id":"4","last_reported":1732050552,"current_range_meters":39200,"station_id":"ce4bhs12rcd13ifvqhvg","pricing_plan_id":"cebpf4jnsgd1na2vs0mg"},{"bike_id":"e264033a-f915-4b27-a08a-2f42cfcf052a","system_id":"levelo_inurba_marseille","lat":43.33766,"lon":5.3743,"is_reserved":false,"is_disabled":false,"rental_uris":{"android":"levelo://app?vid=e264033a-f915-4b27-a08a-2f42cfcf052a","ios":"levelo://app?vid=e264033a-f915-4b27-a08a-2f42cfcf052a"},"vehicle_type_id":"4","last_reported":1732050552,"current_range_meters":30400,"station_id":"","pricing_plan_id":"cebpf4jnsgd1na2vs0mg"},{"bike_id":"0b29f16f-7c80-42f5-be29-18f63a31302c","system_id":"levelo_inurba_marseille","lat":43.29437,"lon":5.38571,"is_reserved":false,"is_disabled":false,"rental_uris":{"android":"levelo://app?vid=0b29f16f-7c80-42f5-be29-18f63a31302c","ios":"levelo://app?vid=0b29f16f-7c80-42f5-be29-18f63a31302c"},"vehicle_type_id":"4","last_reported":1732050552,"current_range_meters":8800,"station_id":"","pricing_plan_id":"cebpf4jnsgd1na2vs0mg"},{"bike_id":"478111c5-9ee8-4ccc-a30a-cc58cbff7345","system_id":"levelo_inurba_marseille","lat":43.29535,"lon":5.38545,"is_reserved":false,"is_disabled":false,"rental_uris":{"android":"levelo://app?vid=478111c5-9ee8-4ccc-a30a-cc58cbff7345","ios":"levelo://app?vid=478111c5-9ee8-4ccc-a30a-cc58cbff7345"},"vehicle_type_id":"4","last_reported":1732050552,"current_range_meters":37600,"station_id":"ce4bgih2rcd13ifvqba0","pricing_plan_id":"cebpf4jnsgd1na2vs0mg"},{"bike_id":"123094ab-e37c-4c8c-b9ed-42ce55ef4a32","system_id":"levelo_inurba_marseille","lat":43.29523,"lon":5.39051,"is_reserved":false,"is_disabled":false,"rental_uris":{"android":"levelo://app?vid=123094ab-e37c-4c8c-b9ed-42ce55ef4a32","ios":"levelo://app?vid=123094ab-e37c-4c8c-b9ed-42ce55ef4a32"},"vehicle_type_id":"4","last_reported":1732050552,"current_range_meters":39200,"station_id":"ce4bh3p2rcd13ifvqdp0","pricing_plan_id":"cebpf4jnsgd1na2vs0mg"},{"bike_id":"123862ba-68e2-48f6-a477-31ab9dae8bd5","system_id":"levelo_inurba_marseille","lat":43.337444,"lon":5.374475,"is_reserved":false,"is_disabled":true,"rental_uris":{"android":"levelo://app?vid=123862ba-68e2-48f6-a477-31ab9dae8bd5","ios":"levelo://app?vid=123862ba-68e2-48f6-a477-31ab9dae8bd5"},"vehicle_type_id":"4","last_reported":1732050552,"current_range_meters":14400,"station_id":"","pricing_plan_id":"cebpf4jnsgd1na2vs0mg"},{"bike_id":"a57e1d53-2136-4179-a533-047787b1374e","system_id":"levelo_inurba_marseille","lat":43.27987,"lon":5.40001,"is_reserved":false,"is_disabled":true,"rental_uris":{"android":"levelo://app?vid=a57e1d53-2136-4179-a533-047787b1374e","ios":"levelo://app?vid=a57e1d53-2136-4179-a533-047787b1374e"},"vehicle_type_id":"4","last_reported":1732050552,"current_range_meters":38800,"station_id":"ce4bho92rcd13ifvqh4g","pricing_plan_id":"cebpf4jnsgd1na2vs0mg"},{"bike_id":"e09f5bd3-1d6d-4c2b-8ba5-e78c43cdb728","system_id":"levelo_inurba_marseille","lat":43.29557,"lon":5.42274,"is_reserved":false,"is_disabled":false,"rental_uris":{"android":"levelo://app?vid=e09f5bd3-1d6d-4c2b-8ba5-e78c43cdb728","ios":"levelo://app?vid=e09f5bd3-1d6d-4c2b-8ba5-e78c43cdb728"},"vehicle_type_id":"4","last_reported":1732050552,"current_range_meters":36400,"station_id":"ce4bhph2rcd13ifvqhdg","pricing_plan_id":"cebpf4jnsgd1na2vs0mg"},{"bike_id":"f069aee7-5cae-4afe-bd5d-9138e484ef89","system_id":"levelo_inurba_marseille","lat":43.27971,"lon":5.38739,"is_reserved":false,"is_disabled":false,"rental_uris":{"android":"levelo://app?vid=f069aee7-5cae-4afe-bd5d-9138e484ef89","ios":"levelo://app?vid=f069aee7-5cae-4afe-bd5d-9138e484ef89"},"vehicle_type_id":"4","last_reported":1732050552,"current_range_meters":22000,"station_id":"ce4bhg12rcd13ifvqf80","pricing_plan_id":"cebpf4jnsgd1na2vs0mg"},{"bike_id":"5c576818-20af-409b-a7f5-400554d1aabd","system_id":"levelo_inurba_marseille","lat":43.29803,"lon":5.40394,"is_reserved":false,"is_disabled":false,"rental_uris":{"android":"levelo://app?vid=5c576818-20af-409b-a7f5-400554d1aabd","ios":"levelo://app?vid=5c576818-20af-409b-a7f5-400554d1aabd"},"vehicle_type_id":"4","last_reported":1732050552,"current_range_meters":38800,"station_id":"ce4bh112rcd13ifvqd90","pricing_plan_id":"cebpf4jnsgd1na2vs0mg"},{"bike_id":"66ffd7c3-e5e6-45da-aed2-6b9b69732823","system_id":"levelo_inurba_marseille","lat":43.31996,"lon":5.38141,"is_reserved":false,"is_disabled":false,"rental_uris":{"android":"levelo://app?vid=66ffd7c3-e5e6-45da-aed2-6b9b69732823","ios":"levelo://app?vid=66ffd7c3-e5e6-45da-aed2-6b9b69732823"},"vehicle_type_id":"4","last_reported":1732050552,"current_range_meters":29600,"station_id":"ce4bhr12rcd13ifvqhpg","pricing_plan_id":"cebpf4jnsgd1na2vs0mg"},{"bike_id":"cf1a7e82-21a4-4711-9b1e-cbca80979256","system_id":"levelo_inurba_marseille","lat":43.27427,"lon":5.39424,"is_reserved":false,"is_disabled":true,"rental_uris":{"android":"levelo://app?vid=cf1a7e82-21a4-4711-9b1e-cbca80979256","ios":"levelo://app?vid=cf1a7e82-21a4-4711-9b1e-cbca80979256"},"vehicle_type_id":"4","last_reported":1732050552,"current_range_meters":0,"station_id":"ce4bhdp2rcd13ifvqf20","pricing_plan_id":"cebpf4jnsgd1na2vs0mg"},{"bike_id":"df9d5396-9474-4876-97a8-21d4c85769c9","system_id":"levelo_inurba_marseille","lat":43.28434,"lon":5.39184,"is_reserved":false,"is_disabled":false,"rental_uris":{"android":"levelo://app?vid=df9d5396-9474-4876-97a8-21d4c85769c9","ios":"levelo://app?vid=df9d5396-9474-4876-97a8-21d4c85769c9"},"vehicle_type_id":"4","last_reported":1732050552,"current_range_meters":38400,"station_id":"ce4bhoh2rcd13ifvqh5g","pricing_plan_id":"cebpf4jnsgd1na2vs0mg"},{"bike_id":"96d854f2-ec2d-4002-b9d9-a475c303287c","system_id":"levelo_inurba_marseille","lat":43.2749,"lon":5.42426,"is_reserved":false,"is_disabled":false,"rental_uris":{"android":"levelo://app?vid=96d854f2-ec2d-4002-b9d9-a475c303287c","ios":"levelo://app?vid=96d854f2-ec2d-4002-b9d9-a475c303287c"},"vehicle_type_id":"4","last_reported":1732050552,"current_range_meters":4400,"station_id":"ce4bhn92rcd13ifvqgrg","pricing_plan_id":"cebpf4jnsgd1na2vs0mg"},{"bike_id":"1887bcea-d10b-488a-ad88-af3c36643bde","system_id":"levelo_inurba_marseille","lat":43.30326,"lon":5.40434,"is_reserved":false,"is_disabled":false,"rental_uris":{"android":"levelo://app?vid=1887bcea-d10b-488a-ad88-af3c36643bde","ios":"levelo://app?vid=1887bcea-d10b-488a-ad88-af3c36643bde"},"vehicle_type_id":"4","last_reported":1732050552,"current_range_meters":32000,"station_id":"ce4bh012rcd13ifvqd10","pricing_plan_id":"cebpf4jnsgd1na2vs0mg"},{"bike_id":"9a0f8073-9fc4-477f-af62-f52952da19ac","system_id":"levelo_inurba_marseille","lat":43.2846,"lon":5.35883,"is_reserved":false,"is_disabled":false,"rental_uris":{"android":"levelo://app?vid=9a0f8073-9fc4-477f-af62-f52952da19ac","ios":"levelo://app?vid=9a0f8073-9fc4-477f-af62-f52952da19ac"},"vehicle_type_id":"4","last_reported":1732050552,"current_range_meters":17600,"station_id":"ce4bhah2rcd13ifvqei0","pricing_plan_id":"cebpf4jnsgd1na2vs0mg"},{"bike_id":"0009ec07-8c49-43d0-9918-78167d6a99be","system_id":"levelo_inurba_marseille","lat":43.24663,"lon":5.38164,"is_reserved":false,"is_disabled":true,"rental_uris":{"android":"levelo://app?vid=0009ec07-8c49-43d0-9918-78167d6a99be","ios":"levelo://app?vid=0009ec07-8c49-43d0-9918-78167d6a99be"},"vehicle_type_id":"4","last_reported":1732050552,"current_range_meters":0,"station_id":"ce4bhih2rcd13ifvqfr0","pricing_plan_id":"cebpf4jnsgd1na2vs0mg"},{"bike_id":"efaa20f7-d2fb-4778-9ca3-b17e9193d440","system_id":"levelo_inurba_marseille","lat":43.33716,"lon":5.39172,"is_reserved":false,"is_disabled":false,"rental_uris":{"android":"levelo://app?vid=efaa20f7-d2fb-4778-9ca3-b17e9193d440","ios":"levelo://app?vid=efaa20f7-d2fb-4778-9ca3-b17e9193d440"},"vehicle_type_id":"4","last_reported":1732050552,"current_range_meters":37600,"station_id":"ce4bhr92rcd13ifvqhsg","pricing_plan_id":"cebpf4jnsgd1na2vs0mg"},{"bike_id":"42eca287-3460-4af0-902f-a7c650ccf094","system_id":"levelo_inurba_marseille","lat":43.3168,"lon":5.40475,"is_reserved":false,"is_disabled":false,"rental_uris":{"android":"levelo://app?vid=42eca287-3460-4af0-902f-a7c650ccf094","ios":"levelo://app?vid=42eca287-3460-4af0-902f-a7c650ccf094"},"vehicle_type_id":"4","last_reported":1732050552,"current_range_meters":12000,"station_id":"ce4bh012rcd13ifvqd00","pricing_plan_id":"cebpf4jnsgd1na2vs0mg"},{"bike_id":"cbb19e09-aa20-4763-8e71-dc123172ec07","system_id":"levelo_inurba_marseille","lat":43.2315,"lon":5.43707,"is_reserved":false,"is_disabled":true,"rental_uris":{"android":"levelo://app?vid=cbb19e09-aa20-4763-8e71-dc123172ec07","ios":"levelo://app?vid=cbb19e09-aa20-4763-8e71-dc123172ec07"},"vehicle_type_id":"4","last_reported":1732050552,"current_range_meters":38000,"station_id":"ce4bhmp2rcd13ifvqgog","pricing_plan_id":"cebpf4jnsgd1na2vs0mg"},{"bike_id":"66864d75-2346-429f-8d44-6391ce3744a8","system_id":"levelo_inurba_marseille","lat":43.3414,"lon":5.40899,"is_reserved":false,"is_disabled":false,"rental_uris":{"android":"levelo://app?vid=66864d75-2346-429f-8d44-6391ce3744a8","ios":"levelo://app?vid=66864d75-2346-429f-8d44-6391ce3744a8"},"vehicle_type_id":"4","last_reported":1732050552,"current_range_meters":28000,"station_id":"ce4bhqh2rcd13ifvqhlg","pricing_plan_id":"cebpf4jnsgd1na2vs0mg"},{"bike_id":"028e5427-36e2-49e1-b3db-260058fffb58","system_id":"levelo_inurba_marseille","lat":43.25573,"lon":5.38234,"is_reserved":false,"is_disabled":false,"rental_uris":{"android":"levelo://app?vid=028e5427-36e2-49e1-b3db-260058fffb58","ios":"levelo://app?vid=028e5427-36e2-49e1-b3db-260058fffb58"},"vehicle_type_id":"4","last_reported":1732050552,"current_range_meters":30800,"station_id":"ce4bhih2rcd13ifvqfs0","pricing_plan_id":"cebpf4jnsgd1na2vs0mg"},{"bike_id":"0db81cf3-40ae-4e31-aab7-a5cef3fda3e5","system_id":"levelo_inurba_marseille","lat":43.31485,"lon":5.373,"is_reserved":false,"is_disabled":false,"rental_uris":{"android":"levelo://app?vid=0db81cf3-40ae-4e31-aab7-a5cef3fda3e5","ios":"levelo://app?vid=0db81cf3-40ae-4e31-aab7-a5cef3fda3e5"},"vehicle_type_id":"4","last_reported":1732050552,"current_range_meters":14400,"station_id":"ce4bgt12rcd13ifvqcd0","pricing_plan_id":"cebpf4jnsgd1na2vs0mg"},{"bike_id":"7f6bcbd7-c375-40a1-9303-b978ffb5acba","system_id":"levelo_inurba_marseille","lat":43.29877,"lon":5.39738,"is_reserved":false,"is_disabled":false,"rental_uris":{"android":"levelo://app?vid=7f6bcbd7-c375-40a1-9303-b978ffb5acba","ios":"levelo://app?vid=7f6bcbd7-c375-40a1-9303-b978ffb5acba"},"vehicle_type_id":"4","last_reported":1732050552,"current_range_meters":38800,"station_id":"ce4bh0h2rcd13ifvqd50","pricing_plan_id":"cebpf4jnsgd1na2vs0mg"},{"bike_id":"188cc98e-642e-4def-884c-2d081e8ab29a","system_id":"levelo_inurba_marseille","lat":43.27944,"lon":5.4105,"is_reserved":false,"is_disabled":false,"rental_uris":{"android":"levelo://app?vid=188cc98e-642e-4def-884c-2d081e8ab29a","ios":"levelo://app?vid=188cc98e-642e-4def-884c-2d081e8ab29a"},"vehicle_type_id":"4","last_reported":1732050552,"current_range_meters":22800,"station_id":"ce4bhnp2rcd13ifvqh0g","pricing_plan_id":"cebpf4jnsgd1na2vs0mg"},{"bike_id":"d62dee1a-4f17-461c-968a-53e56a87f5c2","system_id":"levelo_inurba_marseille","lat":43.29192,"lon":5.358,"is_reserved":false,"is_disabled":false,"rental_uris":{"android":"levelo://app?vid=d62dee1a-4f17-461c-968a-53e56a87f5c2","ios":"levelo://app?vid=d62dee1a-4f17-461c-968a-53e56a87f5c2"},"vehicle_type_id":"4","last_reported":1732050552,"current_range_meters":38800,"station_id":"ce4bhb12rcd13ifvqel0","pricing_plan_id":"cebpf4jnsgd1na2vs0mg"},{"bike_id":"58b348a0-214e-4585-b413-619a307634a9","system_id":"levelo_inurba_marseille","lat":43.28925,"lon":5.3839,"is_reserved":false,"is_disabled":true,"rental_uris":{"android":"levelo://app?vid=58b348a0-214e-4585-b413-619a307634a9","ios":"levelo://app?vid=58b348a0-214e-4585-b413-619a307634a9"},"vehicle_type_id":"4","last_reported":1732050552,"current_range_meters":36400,"station_id":"ce4bh612rcd13ifvqe6g","pricing_plan_id":"cebpf4jnsgd1na2vs0mg"},{"bike_id":"889295f6-0b48-493d-aa29-8f2686077bc7","system_id":"levelo_inurba_marseille","lat":43.26782,"lon":5.39413,"is_reserved":false,"is_disabled":false,"rental_uris":{"android":"levelo://app?vid=889295f6-0b48-493d-aa29-8f2686077bc7","ios":"levelo://app?vid=889295f6-0b48-493d-aa29-8f2686077bc7"},"vehicle_type_id":"4","last_reported":1732050552,"current_range_meters":9600,"station_id":"ce4bhh12rcd13ifvqfg0","pricing_plan_id":"cebpf4jnsgd1na2vs0mg"},{"bike_id":"04ba697d-55c7-4c2f-93de-e345f8b77d99","system_id":"levelo_inurba_marseille","lat":43.31364,"lon":5.38494,"is_reserved":false,"is_disabled":false,"rental_uris":{"android":"levelo://app?vid=04ba697d-55c7-4c2f-93de-e345f8b77d99","ios":"levelo://app?vid=04ba697d-55c7-4c2f-93de-e345f8b77d99"},"vehicle_type_id":"4","last_reported":1732050552,"current_range_meters":18800,"station_id":"ce4bgt92rcd13ifvqcf0","pricing_plan_id":"cebpf4jnsgd1na2vs0mg"},{"bike_id":"0c5bbd39-2535-4e1b-896c-c0aa5772961e","system_id":"levelo_inurba_marseille","lat":43.33026,"lon":5.39046,"is_reserved":false,"is_disabled":false,"rental_uris":{"android":"levelo://app?vid=0c5bbd39-2535-4e1b-896c-c0aa5772961e","ios":"levelo://app?vid=0c5bbd39-2535-4e1b-896c-c0aa5772961e"},"vehicle_type_id":"4","last_reported":1732050552,"current_range_meters":38800,"station_id":"ce4bhr92rcd13ifvqhrg","pricing_plan_id":"cebpf4jnsgd1na2vs0mg"},{"bike_id":"ea3698ba-4aa8-4712-b521-18ff56838777","system_id":"levelo_inurba_marseille","lat":43.25495,"lon":5.3765,"is_reserved":false,"is_disabled":true,"rental_uris":{"android":"levelo://app?vid=ea3698ba-4aa8-4712-b521-18ff56838777","ios":"levelo://app?vid=ea3698ba-4aa8-4712-b521-18ff56838777"},"vehicle_type_id":"4","last_reported":1732050552,"current_range_meters":0,"station_id":"ce4bhh12rcd13ifvqff0","pricing_plan_id":"cebpf4jnsgd1na2vs0mg"},{"bike_id":"3d265bf3-4f47-4dde-b008-c1fedc3da151","system_id":"levelo_inurba_marseille","lat":43.30784,"lon":5.38167,"is_reserved":false,"is_disabled":false,"rental_uris":{"android":"levelo://app?vid=3d265bf3-4f47-4dde-b008-c1fedc3da151","ios":"levelo://app?vid=3d265bf3-4f47-4dde-b008-c1fedc3da151"},"vehicle_type_id":"4","last_reported":1732050552,"current_range_meters":20000,"station_id":"ce4bgt12rcd13ifvqce0","pricing_plan_id":"cebpf4jnsgd1na2vs0mg"},{"bike_id":"97a35da9-3917-40ad-b9e7-9f7cbd6aff5c","system_id":"levelo_inurba_marseille","lat":43.30137,"lon":5.39887,"is_reserved":false,"is_disabled":true,"rental_uris":{"android":"levelo://app?vid=97a35da9-3917-40ad-b9e7-9f7cbd6aff5c","ios":"levelo://app?vid=97a35da9-3917-40ad-b9e7-9f7cbd6aff5c"},"vehicle_type_id":"4","last_reported":1732050552,"current_range_meters":32000,"station_id":"ce4bh0h2rcd13ifvqd40","pricing_plan_id":"cebpf4jnsgd1na2vs0mg"},{"bike_id":"6e545785-5e16-4906-b88f-5bb12e1d71c6","system_id":"levelo_inurba_marseille","lat":43.29882,"lon":5.38912,"is_reserved":false,"is_disabled":false,"rental_uris":{"android":"levelo://app?vid=6e545785-5e16-4906-b88f-5bb12e1d71c6","ios":"levelo://app?vid=6e545785-5e16-4906-b88f-5bb12e1d71c6"},"vehicle_type_id":"4","last_reported":1732050552,"current_range_meters":16000,"station_id":"ce4bh392rcd13ifvqdl0","pricing_plan_id":"cebpf4jnsgd1na2vs0mg"},{"bike_id":"0f282a1e-be0e-4dcb-b4e9-d5fa6c749c17","system_id":"levelo_inurba_marseille","lat":43.26803,"lon":5.40268,"is_reserved":false,"is_disabled":true,"rental_uris":{"android":"levelo://app?vid=0f282a1e-be0e-4dcb-b4e9-d5fa6c749c17","ios":"levelo://app?vid=0f282a1e-be0e-4dcb-b4e9-d5fa6c749c17"},"vehicle_type_id":"4","last_reported":1732050552,"current_range_meters":2000,"station_id":"ce501612rcd8frsf0b60","pricing_plan_id":"cebpf4jnsgd1na2vs0mg"},{"bike_id":"7a74f50b-fe40-4106-9f5d-13731ba6b393","system_id":"levelo_inurba_marseille","lat":43.32364,"lon":5.38886,"is_reserved":false,"is_disabled":false,"rental_uris":{"android":"levelo://app?vid=7a74f50b-fe40-4106-9f5d-13731ba6b393","ios":"levelo://app?vid=7a74f50b-fe40-4106-9f5d-13731ba6b393"},"vehicle_type_id":"4","last_reported":1732050552,"current_range_meters":32800,"station_id":"ce4bhqp2rcd13ifvqhog","pricing_plan_id":"cebpf4jnsgd1na2vs0mg"},{"bike_id":"e5951ee3-4a5a-4ebb-b469-096c5188dfa3","system_id":"levelo_inurba_marseille","lat":43.24029,"lon":5.36612,"is_reserved":false,"is_disabled":true,"rental_uris":{"android":"levelo://app?vid=e5951ee3-4a5a-4ebb-b469-096c5188dfa3","ios":"levelo://app?vid=e5951ee3-4a5a-4ebb-b469-096c5188dfa3"},"vehicle_type_id":"4","last_reported":1732050552,"current_range_meters":800,"station_id":"","pricing_plan_id":"cebpf4jnsgd1na2vs0mg"},{"bike_id":"e479f909-ae5e-41db-9d1a-44b3b5e351a9","system_id":"levelo_inurba_marseille","lat":43.30778,"lon":5.3765,"is_reserved":false,"is_disabled":false,"rental_uris":{"android":"levelo://app?vid=e479f909-ae5e-41db-9d1a-44b3b5e351a9","ios":"levelo://app?vid=e479f909-ae5e-41db-9d1a-44b3b5e351a9"},"vehicle_type_id":"4","last_reported":1732050552,"current_range_meters":38800,"station_id":"ce4bgv92rcd13ifvqcq0","pricing_plan_id":"cebpf4jnsgd1na2vs0mg"},{"bike_id":"b2f6b9cf-69db-40ab-8230-689c41a2c16c","system_id":"levelo_inurba_marseille","lat":43.24169,"lon":5.36393,"is_reserved":false,"is_disabled":true,"rental_uris":{"android":"levelo://app?vid=b2f6b9cf-69db-40ab-8230-689c41a2c16c","ios":"levelo://app?vid=b2f6b9cf-69db-40ab-8230-689c41a2c16c"},"vehicle_type_id":"4","last_reported":1732050552,"current_range_meters":800,"station_id":"cpo36qri1sfpv3e86is0","pricing_plan_id":"cebpf4jnsgd1na2vs0mg"},{"bike_id":"2fcb6867-d92b-41d9-8e12-7bee2b648e53","system_id":"levelo_inurba_marseille","lat":43.29273,"lon":5.38445,"is_reserved":false,"is_disabled":false,"rental_uris":{"android":"levelo://app?vid=2fcb6867-d92b-41d9-8e12-7bee2b648e53","ios":"levelo://app?vid=2fcb6867-d92b-41d9-8e12-7bee2b648e53"},"vehicle_type_id":"4","last_reported":1732050552,"current_range_meters":36800,"station_id":"ce4bh692rcd13ifvqea0","pricing_plan_id":"cebpf4jnsgd1na2vs0mg"},{"bike_id":"ee58c0c2-c7d8-4d0f-91e5-095566050b2d","system_id":"levelo_inurba_marseille","lat":43.28564,"lon":5.39495,"is_reserved":false,"is_disabled":false,"rental_uris":{"android":"levelo://app?vid=ee58c0c2-c7d8-4d0f-91e5-095566050b2d","ios":"levelo://app?vid=ee58c0c2-c7d8-4d0f-91e5-095566050b2d"},"vehicle_type_id":"4","last_reported":1732050552,"current_range_meters":39200,"station_id":"ce4bh292rcd13ifvqdg0","pricing_plan_id":"cebpf4jnsgd1na2vs0mg"},{"bike_id":"2910f69a-6dac-4d69-a60d-e4f1b8cce200","system_id":"levelo_inurba_marseille","lat":43.27815,"lon":5.40714,"is_reserved":false,"is_disabled":true,"rental_uris":{"android":"levelo://app?vid=2910f69a-6dac-4d69-a60d-e4f1b8cce200","ios":"levelo://app?vid=2910f69a-6dac-4d69-a60d-e4f1b8cce200"},"vehicle_type_id":"4","last_reported":1732050552,"current_range_meters":17200,"station_id":"ce4bhnh2rcd13ifvqgtg","pricing_plan_id":"cebpf4jnsgd1na2vs0mg"},{"bike_id":"0cb4280d-adc6-4ece-a09c-77159710fd99","system_id":"levelo_inurba_marseille","lat":43.27424,"lon":5.39422,"is_reserved":false,"is_disabled":false,"rental_uris":{"android":"levelo://app?vid=0cb4280d-adc6-4ece-a09c-77159710fd99","ios":"levelo://app?vid=0cb4280d-adc6-4ece-a09c-77159710fd99"},"vehicle_type_id":"4","last_reported":1732050552,"current_range_meters":39200,"station_id":"ce4bhdp2rcd13ifvqf20","pricing_plan_id":"cebpf4jnsgd1na2vs0mg"},{"bike_id":"8b06473f-89d9-40e7-b900-458975555237","system_id":"levelo_inurba_marseille","lat":43.31267,"lon":5.40169,"is_reserved":false,"is_disabled":false,"rental_uris":{"android":"levelo://app?vid=8b06473f-89d9-40e7-b900-458975555237","ios":"levelo://app?vid=8b06473f-89d9-40e7-b900-458975555237"},"vehicle_type_id":"4","last_reported":1732050552,"current_range_meters":20800,"station_id":"ce4bh092rcd13ifvqd30","pricing_plan_id":"cebpf4jnsgd1na2vs0mg"},{"bike_id":"68f14fe1-2aa2-45e7-8afd-b9c004cd4b55","system_id":"levelo_inurba_marseille","lat":43.26927,"lon":5.3891,"is_reserved":false,"is_disabled":false,"rental_uris":{"android":"levelo://app?vid=68f14fe1-2aa2-45e7-8afd-b9c004cd4b55","ios":"levelo://app?vid=68f14fe1-2aa2-45e7-8afd-b9c004cd4b55"},"vehicle_type_id":"4","last_reported":1732050552,"current_range_meters":39200,"station_id":"ce4bhhh2rcd13ifvqfl0","pricing_plan_id":"cebpf4jnsgd1na2vs0mg"},{"bike_id":"da118503-6ab7-4c94-98bc-2b63accd50d2","system_id":"levelo_inurba_marseille","lat":43.31083,"lon":5.42432,"is_reserved":false,"is_disabled":false,"rental_uris":{"android":"levelo://app?vid=da118503-6ab7-4c94-98bc-2b63accd50d2","ios":"levelo://app?vid=da118503-6ab7-4c94-98bc-2b63accd50d2"},"vehicle_type_id":"4","last_reported":1732050552,"current_range_meters":38800,"station_id":"ce4bhp92rcd13ifvqhag","pricing_plan_id":"cebpf4jnsgd1na2vs0mg"},{"bike_id":"f55181d4-2053-40e2-9cda-06227a4b9bdf","system_id":"levelo_inurba_marseille","lat":43.32478,"lon":5.36561,"is_reserved":false,"is_disabled":false,"rental_uris":{"android":"levelo://app?vid=f55181d4-2053-40e2-9cda-06227a4b9bdf","ios":"levelo://app?vid=f55181d4-2053-40e2-9cda-06227a4b9bdf"},"vehicle_type_id":"4","last_reported":1732050552,"current_range_meters":18800,"station_id":"ce4bhs12rcd13ifvqhvg","pricing_plan_id":"cebpf4jnsgd1na2vs0mg"},{"bike_id":"c2201c61-6aeb-4246-aeb9-8290e1506bff","system_id":"levelo_inurba_marseille","lat":43.30431,"lon":5.3889,"is_reserved":false,"is_disabled":false,"rental_uris":{"android":"levelo://app?vid=c2201c61-6aeb-4246-aeb9-8290e1506bff","ios":"levelo://app?vid=c2201c61-6aeb-4246-aeb9-8290e1506bff"},"vehicle_type_id":"4","last_reported":1732050552,"current_range_meters":36000,"station_id":"ce4bgk12rcd13ifvqbi0","pricing_plan_id":"cebpf4jnsgd1na2vs0mg"},{"bike_id":"7ccf2f24-0143-407d-973b-322d37cb2794","system_id":"levelo_inurba_marseille","lat":43.32101,"lon":5.36777,"is_reserved":false,"is_disabled":false,"rental_uris":{"android":"levelo://app?vid=7ccf2f24-0143-407d-973b-322d37cb2794","ios":"levelo://app?vid=7ccf2f24-0143-407d-973b-322d37cb2794"},"vehicle_type_id":"4","last_reported":1732050552,"current_range_meters":28400,"station_id":"ce4bhrh2rcd13ifvqhug","pricing_plan_id":"cebpf4jnsgd1na2vs0mg"},{"bike_id":"c68126c9-8aa5-4704-a059-6d6aef7145fc","system_id":"levelo_inurba_marseille","lat":43.28846,"lon":5.39304,"is_reserved":false,"is_disabled":false,"rental_uris":{"android":"levelo://app?vid=c68126c9-8aa5-4704-a059-6d6aef7145fc","ios":"levelo://app?vid=c68126c9-8aa5-4704-a059-6d6aef7145fc"},"vehicle_type_id":"4","last_reported":1732050552,"current_range_meters":18000,"station_id":"ce4bh2p2rcd13ifvqdi0","pricing_plan_id":"cebpf4jnsgd1na2vs0mg"},{"bike_id":"ad142e48-0964-413b-b6c6-2a15c9a22e3c","system_id":"levelo_inurba_marseille","lat":43.30348,"lon":5.4187,"is_reserved":false,"is_disabled":false,"rental_uris":{"android":"levelo://app?vid=ad142e48-0964-413b-b6c6-2a15c9a22e3c","ios":"levelo://app?vid=ad142e48-0964-413b-b6c6-2a15c9a22e3c"},"vehicle_type_id":"4","last_reported":1732050552,"current_range_meters":38000,"station_id":"ce4bhop2rcd13ifvqh7g","pricing_plan_id":"cebpf4jnsgd1na2vs0mg"},{"bike_id":"4a09619b-fcaa-47c6-824f-43a00f956e63","system_id":"levelo_inurba_marseille","lat":43.29631,"lon":5.40599,"is_reserved":false,"is_disabled":false,"rental_uris":{"android":"levelo://app?vid=4a09619b-fcaa-47c6-824f-43a00f956e63","ios":"levelo://app?vid=4a09619b-fcaa-47c6-824f-43a00f956e63"},"vehicle_type_id":"4","last_reported":1732050552,"current_range_meters":38000,"station_id":"ce4bh0h2rcd13ifvqd60","pricing_plan_id":"cebpf4jnsgd1na2vs0mg"},{"bike_id":"f2cc4eb9-f669-4abb-815a-092e264f769c","system_id":"levelo_inurba_marseille","lat":43.28938,"lon":5.39621,"is_reserved":false,"is_disabled":false,"rental_uris":{"android":"levelo://app?vid=f2cc4eb9-f669-4abb-815a-092e264f769c","ios":"levelo://app?vid=f2cc4eb9-f669-4abb-815a-092e264f769c"},"vehicle_type_id":"4","last_reported":1732050552,"current_range_meters":28800,"station_id":"ce4bh3h2rcd13ifvqdn0","pricing_plan_id":"cebpf4jnsgd1na2vs0mg"},{"bike_id":"7e35deb2-0950-494e-a5fc-48886e723f0a","system_id":"levelo_inurba_marseille","lat":43.290368,"lon":5.37561,"is_reserved":false,"is_disabled":true,"rental_uris":{"android":"levelo://app?vid=7e35deb2-0950-494e-a5fc-48886e723f0a","ios":"levelo://app?vid=7e35deb2-0950-494e-a5fc-48886e723f0a"},"vehicle_type_id":"4","last_reported":1732050552,"current_range_meters":8000,"station_id":"ce4bh692rcd13ifvqe90","pricing_plan_id":"cebpf4jnsgd1na2vs0mg"},{"bike_id":"840cc3a2-26cc-49a0-ab61-18ebc6655d18","system_id":"levelo_inurba_marseille","lat":43.26192,"lon":5.37448,"is_reserved":false,"is_disabled":false,"rental_uris":{"android":"levelo://app?vid=840cc3a2-26cc-49a0-ab61-18ebc6655d18","ios":"levelo://app?vid=840cc3a2-26cc-49a0-ab61-18ebc6655d18"},"vehicle_type_id":"4","last_reported":1732050552,"current_range_meters":38800,"station_id":"ce4bhgp2rcd13ifvqfc0","pricing_plan_id":"cebpf4jnsgd1na2vs0mg"},{"bike_id":"da921ddb-6f5c-4ffe-9050-8a2588272370","system_id":"levelo_inurba_marseille","lat":43.3054,"lon":5.36558,"is_reserved":false,"is_disabled":false,"rental_uris":{"android":"levelo://app?vid=da921ddb-6f5c-4ffe-9050-8a2588272370","ios":"levelo://app?vid=da921ddb-6f5c-4ffe-9050-8a2588272370"},"vehicle_type_id":"4","last_reported":1732050552,"current_range_meters":35600,"station_id":"ce4bgs12rcd13ifvqcag","pricing_plan_id":"cebpf4jnsgd1na2vs0mg"},{"bike_id":"cde5eb04-35f5-4971-aec4-8004f9b2dcd9","system_id":"levelo_inurba_marseille","lat":43.28274,"lon":5.35064,"is_reserved":false,"is_disabled":true,"rental_uris":{"android":"levelo://app?vid=cde5eb04-35f5-4971-aec4-8004f9b2dcd9","ios":"levelo://app?vid=cde5eb04-35f5-4971-aec4-8004f9b2dcd9"},"vehicle_type_id":"4","last_reported":1732050552,"current_range_meters":0,"station_id":"ce4bhbp2rcd13ifvqerg","pricing_plan_id":"cebpf4jnsgd1na2vs0mg"},{"bike_id":"abf67661-65a9-4cd5-8a2a-27e915fb3db4","system_id":"levelo_inurba_marseille","lat":43.27919,"lon":5.39584,"is_reserved":false,"is_disabled":false,"rental_uris":{"android":"levelo://app?vid=abf67661-65a9-4cd5-8a2a-27e915fb3db4","ios":"levelo://app?vid=abf67661-65a9-4cd5-8a2a-27e915fb3db4"},"vehicle_type_id":"4","last_reported":1732050552,"current_range_meters":9200,"station_id":"ce4bhf92rcd13ifvqf40","pricing_plan_id":"cebpf4jnsgd1na2vs0mg"},{"bike_id":"cbd09d90-d27c-411b-9f2f-0385273baff2","system_id":"levelo_inurba_marseille","lat":43.308676,"lon":5.396595,"is_reserved":false,"is_disabled":false,"rental_uris":{"android":"levelo://app?vid=cbd09d90-d27c-411b-9f2f-0385273baff2","ios":"levelo://app?vid=cbd09d90-d27c-411b-9f2f-0385273baff2"},"vehicle_type_id":"4","last_reported":1732050552,"current_range_meters":34000,"station_id":"","pricing_plan_id":"cebpf4jnsgd1na2vs0mg"},{"bike_id":"95847fec-7d4e-4203-9906-b2cd26dae74c","system_id":"levelo_inurba_marseille","lat":43.27809,"lon":5.40716,"is_reserved":false,"is_disabled":false,"rental_uris":{"android":"levelo://app?vid=95847fec-7d4e-4203-9906-b2cd26dae74c","ios":"levelo://app?vid=95847fec-7d4e-4203-9906-b2cd26dae74c"},"vehicle_type_id":"4","last_reported":1732050552,"current_range_meters":38800,"station_id":"ce4bhnh2rcd13ifvqgtg","pricing_plan_id":"cebpf4jnsgd1na2vs0mg"},{"bike_id":"db0b2e20-fdb6-4d61-9d27-2e3dee7a94af","system_id":"levelo_inurba_marseille","lat":43.28254,"lon":5.40276,"is_reserved":false,"is_disabled":false,"rental_uris":{"android":"levelo://app?vid=db0b2e20-fdb6-4d61-9d27-2e3dee7a94af","ios":"levelo://app?vid=db0b2e20-fdb6-4d61-9d27-2e3dee7a94af"},"vehicle_type_id":"4","last_reported":1732050552,"current_range_meters":30400,"station_id":"","pricing_plan_id":"cebpf4jnsgd1na2vs0mg"},{"bike_id":"dd847edf-5e44-408c-ab9e-db4ca8cad3d3","system_id":"levelo_inurba_marseille","lat":43.28683,"lon":5.38645,"is_reserved":false,"is_disabled":false,"rental_uris":{"android":"levelo://app?vid=dd847edf-5e44-408c-ab9e-db4ca8cad3d3","ios":"levelo://app?vid=dd847edf-5e44-408c-ab9e-db4ca8cad3d3"},"vehicle_type_id":"4","last_reported":1732050552,"current_range_meters":38400,"station_id":"ce4bh492rcd13ifvqdug","pricing_plan_id":"cebpf4jnsgd1na2vs0mg"},{"bike_id":"0e2bbe61-8f31-47ba-b582-6a82d0b052e0","system_id":"levelo_inurba_marseille","lat":43.29024,"lon":5.38361,"is_reserved":false,"is_disabled":false,"rental_uris":{"android":"levelo://app?vid=0e2bbe61-8f31-47ba-b582-6a82d0b052e0","ios":"levelo://app?vid=0e2bbe61-8f31-47ba-b582-6a82d0b052e0"},