{"last_updated":1753902742,"ttl":60,"version":"2.2","data":{"bikes":[{"bike_id":"eefee470-d89f-4165-9122-2f1107fe9608","system_id":"levelo_inurba_marseille","lat":43.29004,"lon":5.3561,"is_reserved":false,"is_disabled":false,"rental_uris":{"android":"levelo://app?vid=eefee470-d89f-4165-9122-2f1107fe9608","ios":"levelo://app?vid=eefee470-d89f-4165-9122-2f1107fe9608"},"vehicle_type_id":"4","last_reported":1753902742,"current_range_meters":2800,"station_id":"ce4bhb92rcd13ifvqen0","pricing_plan_id":"cebpf4jnsgd1na2vs0mg"},{"bike_id":"8a569b31-55c0-441f-9435-5ac594ac9c22","system_id":"levelo_inurba_marseille","lat":43.297302,"lon":5.374166,"is_reserved":false,"is_disabled":false,"rental_uris":{"android":"levelo://app?vid=8a569b31-55c0-441f-9435-5ac594ac9c22","ios":"levelo://app?vid=8a569b31-55c0-441f-9435-5ac594ac9c22"},"vehicle_type_id":"4","last_reported":1753902742,"current_range_meters":2800,"station_id":"","pricing_plan_id":"cebpf4jnsgd1na2vs0mg"},{"bike_id":"61048ece-b528-444a-a267-1b6f26d9e541","system_id":"levelo_inurba_marseille","lat":43.23962,"lon":5.36625,"is_reserved":false,"is_disabled":false,"rental_uris":{"android":"levelo://app?vid=61048ece-b528-444a-a267-1b6f26d9e541","ios":"levelo://app?vid=61048ece-b528-444a-a267-1b6f26d9e541"},"vehicle_type_id":"4","last_reported":1753902742,"current_range_meters":3200,"station_id":"ce4bhi12rcd13ifvqfp0","pricing_plan_id":"cebpf4jnsgd1na2vs0mg"},{"bike_id":"95dd70e4-879c-49e7-b318-a6c71b22a43e","system_id":"levelo_inurba_marseille","lat":43.2703,"lon":5.39295,"is_reserved":false,"is_disabled":false,"rental_uris":{"android":"levelo://app?vid=95dd70e4-879c-49e7-b318-a6c71b22a43e","ios":"levelo://app?vid=95dd70e4-879c-49e7-b318-a6c71b22a43e"},"vehicle_type_id":"4","last_reported":1753902742,"current_range_meters":3200,"station_id":"","pricing_plan_id":"cebpf4jnsgd1na2vs0mg"},{"bike_id":"a9b23152-61b0-461a-9e89-393ea535e22a","system_id":"levelo_inurba_marseille","lat":43.29785,"lon":5.37105,"is_reserved":false,"is_disabled":false,"rental_uris":{"android":"levelo://app?vid=a9b23152-61b0-461a-9e89-393ea535e22a","ios":"levelo://app?vid=a9b23152-61b0-461a-9e89-393ea535e22a"},"vehicle_type_id":"4","last_reported":1753902742,"current_range_meters":2800,"station_id":"ce4bgop2rcd13ifvqc1g","pricing_plan_id":"cebpf4jnsgd1na2vs0mg"},{"bike_id":"224c21b3-fc10-4c97-adee-20059eead29f","system_id":"levelo_inurba_marseille","lat":43.27921,"lon":5.3957,"is_reserved":false,"is_disabled":false,"rental_uris":{"android":"levelo://app?vid=224c21b3-fc10-4c97-adee-20059eead29f","ios":"levelo://app?vid=224c21b3-fc10-4c97-adee-20059eead29f"},"vehicle_type_id":"4","last_reported":1753902742,"current_range_meters":3200,"station_id":"ce4bhf92rcd13ifvqf40","pricing_plan_id":"cebpf4jnsgd1na2vs0mg"},{"bike_id":"209c73e6-1f69-4d13-9fed-77cb46eecd05","system_id":"levelo_inurba_marseille","lat":43.34681,"lon":5.38065,"is_reserved":false,"is_disabled":false,"rental_uris":{"android":"levelo://app?vid=209c73e6-1f69-4d13-9fed-77cb46eecd05","ios":"levelo://app?vid=209c73e6-1f69-4d13-9fed-77cb46eecd05"},"vehicle_type_id":"4","last_reported":1753902742,"current_range_meters":3200,"station_id":"","pricing_plan_id":"cebpf4jnsgd1na2vs0mg"},{"bike_id":"b1f16876-485e-44c7-ba70-9d27c1c1d5dc","system_id":"levelo_inurba_marseille","lat":43.33733,"lon":5.36245,"is_reserved":false,"is_disabled":false,"rental_uris":{"android":"levelo://app?vid=b1f16876-485e-44c7-ba70-9d27c1c1d5dc","ios":"levelo://app?vid=b1f16876-485e-44c7-ba70-9d27c1c1d5dc"},"vehicle_type_id":"4","last_reported":1753902742,"current_range_meters":3600,"station_id":"","pricing_plan_id":"cebpf4jnsgd1na2vs0mg"},{"bike_id":"181c8049-4fb7-4c27-a6b2-7bb8fea4f09f","system_id":"levelo_inurba_marseille","lat":43.29532,"lon":5.39268,"is_reserved":false,"is_disabled":false,"rental_uris":{"android":"levelo://app?vid=181c8049-4fb7-4c27-a6b2-7bb8fea4f09f","ios":"levelo://app?vid=181c8049-4fb7-4c27-a6b2-7bb8fea4f09f"},"vehicle_type_id":"4","last_reported":1753902742,"current_range_meters":3600,"station_id":"","pricing_plan_id":"cebpf4jnsgd1na2vs0mg"},{"bike_id":"6d85bced-3404-422c-bd16-1d7d9a51dcc9","system_id":"levelo_inurba_marseille","lat":43.29204,"lon":5.39321,"is_reserved":false,"is_disabled":false,"rental_uris":{"android":"levelo://app?vid=6d85bced-3404-422c-bd16-1d7d9a51dcc9","ios":"levelo://app?vid=6d85bced-3404-422c-bd16-1d7d9a51dcc9"},"vehicle_type_id":"4","last_reported":1753902742,"current_range_meters":3600,"station_id":"ce4bh192rcd13ifvqdd0","pricing_plan_id":"cebpf4jnsgd1na2vs0mg"},{"bike_id":"7cc922f1-9f84-4d3e-af20-96ed5a910ea9","system_id":"levelo_inurba_marseille","lat":43.225,"lon":5.34764,"is_reserved":false,"is_disabled":false,"rental_uris":{"android":"levelo://app?vid=7cc922f1-9f84-4d3e-af20-96ed5a910ea9","ios":"levelo://app?vid=7cc922f1-9f84-4d3e-af20-96ed5a910ea9"},"vehicle_type_id":"4","last_reported":1753902742,"current_range_meters":3600,"station_id":"","pricing_plan_id":"cebpf4jnsgd1na2vs0mg"},{"bike_id":"97a9a1f8-2562-4a29-b17d-d917d168ae17","system_id":"levelo_inurba_marseille","lat":43.27917,"lon":5.39577,"is_reserved":false,"is_disabled":false,"rental_uris":{"android":"levelo://app?vid=97a9a1f8-2562-4a29-b17d-d917d168ae17","ios":"levelo://app?vid=97a9a1f8-2562-4a29-b17d-d917d168ae17"},"vehicle_type_id":"4","last_reported":1753902742,"current_range_meters":3600,"station_id":"ce4bhf92rcd13ifvqf40","pricing_plan_id":"cebpf4jnsgd1na2vs0mg"},{"bike_id":"901c8621-3a99-402d-840c-f10431344ffc","system_id":"levelo_inurba_marseille","lat":43.25723,"lon":5.41125,"is_reserved":false,"is_disabled":false,"rental_uris":{"android":"levelo://app?vid=901c8621-3a99-402d-840c-f10431344ffc","ios":"levelo://app?vid=901c8621-3a99-402d-840c-f10431344ffc"},"vehicle_type_id":"4","last_reported":1753902742,"current_range_meters":3600,"station_id":"ce4bhkp2rcd13ifvqgd0","pricing_plan_id":"cebpf4jnsgd1na2vs0mg"},{"bike_id":"7ead535a-e7f2-4489-9051-59e4f5eeec8a","system_id":"levelo_inurba_marseille","lat":43.30675,"lon":5.37358,"is_reserved":false,"is_disabled":false,"rental_uris":{"android":"levelo://app?vid=7ead535a-e7f2-4489-9051-59e4f5eeec8a","ios":"levelo://app?vid=7ead535a-e7f2-4489-9051-59e4f5eeec8a"},"vehicle_type_id":"4","last_reported":1753902742,"current_range_meters":4000,"station_id":"","pricing_plan_id":"cebpf4jnsgd1na2vs0mg"},{"bike_id":"e79d89b8-c750-4ede-9508-19d78ffe26cf","system_id":"levelo_inurba_marseille","lat":43.30311,"lon":5.36894,"is_reserved":false,"is_disabled":false,"rental_uris":{"android":"levelo://app?vid=e79d89b8-c750-4ede-9508-19d78ffe26cf","ios":"levelo://app?vid=e79d89b8-c750-4ede-9508-19d78ffe26cf"},"vehicle_type_id":"4","last_reported":1753902742,"current_range_meters":4000,"station_id":"ce4bgqh2rcd13ifvqc5g","pricing_plan_id":"cebpf4jnsgd1na2vs0mg"},{"bike_id":"217b7b3c-d441-44bc-98d3-6dd567574ef9","system_id":"levelo_inurba_marseille","lat":43.24806,"lon":5.37454,"is_reserved":false,"is_disabled":false,"rental_uris":{"android":"levelo://app?vid=217b7b3c-d441-44bc-98d3-6dd567574ef9","ios":"levelo://app?vid=217b7b3c-d441-44bc-98d3-6dd567574ef9"},"vehicle_type_id":"4","last_reported":1753902742,"current_range_meters":4000,"station_id":"ce4bhgh2rcd13ifvqfb0","pricing_plan_id":"cebpf4jnsgd1na2vs0mg"},{"bike_id":"f9759e95-1d70-4019-8d38-669503e54f83","system_id":"levelo_inurba_marseille","lat":43.30433,"lon":5.38886,"is_reserved":false,"is_disabled":false,"rental_uris":{"android":"levelo://app?vid=f9759e95-1d70-4019-8d38-669503e54f83","ios":"levelo://app?vid=f9759e95-1d70-4019-8d38-669503e54f83"},"vehicle_type_id":"4","last_reported":1753902742,"current_range_meters":5600,"station_id":"ce4bgk12rcd13ifvqbi0","pricing_plan_id":"cebpf4jnsgd1na2vs0mg"},{"bike_id":"80a28307-6d74-4378-bef3-3a1f0854988e","system_id":"levelo_inurba_marseille","lat":43.29713,"lon":5.36613,"is_reserved":false,"is_disabled":false,"rental_uris":{"android":"levelo://app?vid=80a28307-6d74-4378-bef3-3a1f0854988e","ios":"levelo://app?vid=80a28307-6d74-4378-bef3-3a1f0854988e"},"vehicle_type_id":"4","last_reported":1753902742,"current_range_meters":4400,"station_id":"ce4bgn12rcd13ifvqbt0","pricing_plan_id":"cebpf4jnsgd1na2vs0mg"},{"bike_id":"aaed349c-e0b8-4ec7-be41-95dc0fec03af","system_id":"levelo_inurba_marseille","lat":43.26264,"lon":5.40454,"is_reserved":false,"is_disabled":false,"rental_uris":{"android":"levelo://app?vid=aaed349c-e0b8-4ec7-be41-95dc0fec03af","ios":"levelo://app?vid=aaed349c-e0b8-4ec7-be41-95dc0fec03af"},"vehicle_type_id":"4","last_reported":1753902742,"current_range_meters":4400,"station_id":"ce4bhmh2rcd13ifvqgmg","pricing_plan_id":"cebpf4jnsgd1na2vs0mg"},{"bike_id":"149fbe11-3bce-47a0-b584-c7c7bd6bb12f","system_id":"levelo_inurba_marseille","lat":43.21623,"lon":5.34448,"is_reserved":false,"is_disabled":false,"rental_uris":{"android":"levelo://app?vid=149fbe11-3bce-47a0-b584-c7c7bd6bb12f","ios":"levelo://app?vid=149fbe11-3bce-47a0-b584-c7c7bd6bb12f"},"vehicle_type_id":"4","last_reported":1753902742,"current_range_meters":4400,"station_id":"","pricing_plan_id":"cebpf4jnsgd1na2vs0mg"},{"bike_id":"010d1c41-d8e0-43d9-9697-17a437148bb3","system_id":"levelo_inurba_marseille","lat":43.26573,"lon":5.39011,"is_reserved":false,"is_disabled":false,"rental_uris":{"android":"levelo://app?vid=010d1c41-d8e0-43d9-9697-17a437148bb3","ios":"levelo://app?vid=010d1c41-d8e0-43d9-9697-17a437148bb3"},"vehicle_type_id":"4","last_reported":1753902742,"current_range_meters":4800,"station_id":"ce4bhe12rcd13ifvqf30","pricing_plan_id":"cebpf4jnsgd1na2vs0mg"},{"bike_id":"882bdff1-651a-41c1-9ab0-596f43205cf1","system_id":"levelo_inurba_marseille","lat":43.337444,"lon":5.374475,"is_reserved":false,"is_disabled":false,"rental_uris":{"android":"levelo://app?vid=882bdff1-651a-41c1-9ab0-596f43205cf1","ios":"levelo://app?vid=882bdff1-651a-41c1-9ab0-596f43205cf1"},"vehicle_type_id":"4","last_reported":1753902742,"current_range_meters":4800,"station_id":"ce4bgkp2rcd13ifvqbmg","pricing_plan_id":"cebpf4jnsgd1na2vs0mg"},{"bike_id":"c97aa7ef-e88d-4d4e-b41b-1eba83c60c90","system_id":"levelo_inurba_marseille","lat":43.29785,"lon":5.39347,"is_reserved":false,"is_disabled":true,"rental_uris":{"android":"levelo://app?vid=c97aa7ef-e88d-4d4e-b41b-1eba83c60c90","ios":"levelo://app?vid=c97aa7ef-e88d-4d4e-b41b-1eba83c60c90"},"vehicle_type_id":"4","last_reported":1753902742,"current_range_meters":4800,"station_id":"chh1huq6cuj3fo74tm60","pricing_plan_id":"cebpf4jnsgd1na2vs0mg"},{"bike_id":"b2cf0d0a-a10b-4452-b71c-bf7db2ec6e14","system_id":"levelo_inurba_marseille","lat":43.29933,"lon":5.36546,"is_reserved":false,"is_disabled":false,"rental_uris":{"android":"levelo://app?vid=b2cf0d0a-a10b-4452-b71c-bf7db2ec6e14","ios":"levelo://app?vid=b2cf0d0a-a10b-4452-b71c-bf7db2ec6e14"},"vehicle_type_id":"4","last_reported":1753902742,"current_range_meters":4800,"station_id":"ce4bgm92rcd13ifvqbr0","pricing_plan_id":"cebpf4jnsgd1na2vs0mg"},{"bike_id":"72c6b06c-f46c-41bc-aa28-265dfc98e739","system_id":"levelo_inurba_marseille","lat":43.29254,"lon":5.38456,"is_reserved":false,"is_disabled":false,"rental_uris":{"android":"levelo://app?vid=72c6b06c-f46c-41bc-aa28-265dfc98e739","ios":"levelo://app?vid=72c6b06c-f46c-41bc-aa28-265dfc98e739"},"vehicle_type_id":"4","last_reported":1753902742,"current_range_meters":4800,"station_id":"ce4bh692rcd13ifvqea0","pricing_plan_id":"cebpf4jnsgd1na2vs0mg"},{"bike_id":"3f68a6dd-ef42-4cb8-8f9a-59076a58bfca","system_id":"levelo_inurba_marseille","lat":43.29201,"lon":5.3932,"is_reserved":false,"is_disabled":false,"rental_uris":{"android":"levelo://app?vid=3f68a6dd-ef42-4cb8-8f9a-59076a58bfca","ios":"levelo://app?vid=3f68a6dd-ef42-4cb8-8f9a-59076a58bfca"},"vehicle_type_id":"4","last_reported":1753902742,"current_range_meters":4800,"station_id":"ce4bh192rcd13ifvqdd0","pricing_plan_id":"cebpf4jnsgd1na2vs0mg"},{"bike_id":"573e2620-47f9-4435-b30b-2ec8d6de71e8","system_id":"levelo_inurba_marseille","lat":43.23192,"lon":5.3554,"is_reserved":false,"is_disabled":false,"rental_uris":{"android":"levelo://app?vid=573e2620-47f9-4435-b30b-2ec8d6de71e8","ios":"levelo://app?vid=573e2620-47f9-4435-b30b-2ec8d6de71e8"},"vehicle_type_id":"4","last_reported":1753902742,"current_range_meters":5600,"station_id":"ce4bhu92rcd13ifvqi70","pricing_plan_id":"cebpf4jnsgd1na2vs0mg"},{"bike_id":"e3b07b26-145a-4470-a2f3-10a351561542","system_id":"levelo_inurba_marseille","lat":43.2888,"lon":5.36868,"is_reserved":false,"is_disabled":false,"rental_uris":{"android":"levelo://app?vid=e3b07b26-145a-4470-a2f3-10a351561542","ios":"levelo://app?vid=e3b07b26-145a-4470-a2f3-10a351561542"},"vehicle_type_id":"4","last_reported":1753902742,"current_range_meters":5600,"station_id":"","pricing_plan_id":"cebpf4jnsgd1na2vs0mg"},{"bike_id":"2ed05692-37cc-4a6d-b357-c2644f9a7335","system_id":"levelo_inurba_marseille","lat":43.295796,"lon":5.367451,"is_reserved":false,"is_disabled":false,"rental_uris":{"android":"levelo://app?vid=2ed05692-37cc-4a6d-b357-c2644f9a7335","ios":"levelo://app?vid=2ed05692-37cc-4a6d-b357-c2644f9a7335"},"vehicle_type_id":"4","last_reported":1753902742,"current_range_meters":3200,"station_id":"","pricing_plan_id":"cebpf4jnsgd1na2vs0mg"},{"bike_id":"d4b0442d-37e3-4887-8827-87b59f4e9086","system_id":"levelo_inurba_marseille","lat":43.2977,"lon":5.38108,"is_reserved":false,"is_disabled":false,"rental_uris":{"android":"levelo://app?vid=d4b0442d-37e3-4887-8827-87b59f4e9086","ios":"levelo://app?vid=d4b0442d-37e3-4887-8827-87b59f4e9086"},"vehicle_type_id":"4","last_reported":1753902742,"current_range_meters":5600,"station_id":"","pricing_plan_id":"cebpf4jnsgd1na2vs0mg"},{"bike_id":"6c7a0feb-d941-448e-8e19-95b5b2a87eee","system_id":"levelo_inurba_marseille","lat":43.2417,"lon":5.36393,"is_reserved":false,"is_disabled":false,"rental_uris":{"android":"levelo://app?vid=6c7a0feb-d941-448e-8e19-95b5b2a87eee","ios":"levelo://app?vid=6c7a0feb-d941-448e-8e19-95b5b2a87eee"},"vehicle_type_id":"4","last_reported":1753902742,"current_range_meters":5600,"station_id":"cpo36qri1sfpv3e86is0","pricing_plan_id":"cebpf4jnsgd1na2vs0mg"},{"bike_id":"1b0b55e9-561f-4aac-aca2-334d6e2b1104","system_id":"levelo_inurba_marseille","lat":43.22499,"lon":5.34779,"is_reserved":false,"is_disabled":false,"rental_uris":{"android":"levelo://app?vid=1b0b55e9-561f-4aac-aca2-334d6e2b1104","ios":"levelo://app?vid=1b0b55e9-561f-4aac-aca2-334d6e2b1104"},"vehicle_type_id":"4","last_reported":1753902742,"current_range_meters":5600,"station_id":"st_cvj5dfep6f1abm77gieg","pricing_plan_id":"cebpf4jnsgd1na2vs0mg"},{"bike_id":"146befa7-dca5-47df-9cb9-5e67ab770afa","system_id":"levelo_inurba_marseille","lat":43.28007,"lon":5.400096,"is_reserved":false,"is_disabled":false,"rental_uris":{"android":"levelo://app?vid=146befa7-dca5-47df-9cb9-5e67ab770afa","ios":"levelo://app?vid=146befa7-dca5-47df-9cb9-5e67ab770afa"},"vehicle_type_id":"4","last_reported":1753902742,"current_range_meters":6000,"station_id":"ce4bho92rcd13ifvqh4g","pricing_plan_id":"cebpf4jnsgd1na2vs0mg"},{"bike_id":"f8401834-638e-4f56-b0c9-034583cc416c","system_id":"levelo_inurba_marseille","lat":43.29097,"lon":5.38118,"is_reserved":false,"is_disabled":false,"rental_uris":{"android":"levelo://app?vid=f8401834-638e-4f56-b0c9-034583cc416c","ios":"levelo://app?vid=f8401834-638e-4f56-b0c9-034583cc416c"},"vehicle_type_id":"4","last_reported":1753902742,"current_range_meters":6000,"station_id":"ce4bh512rcd13ifvqe2g","pricing_plan_id":"cebpf4jnsgd1na2vs0mg"},{"bike_id":"2d37bc61-30b7-4367-8c22-5ba3aba82cc5","system_id":"levelo_inurba_marseille","lat":43.284027,"lon":5.375032,"is_reserved":false,"is_disabled":false,"rental_uris":{"android":"levelo://app?vid=2d37bc61-30b7-4367-8c22-5ba3aba82cc5","ios":"levelo://app?vid=2d37bc61-30b7-4367-8c22-5ba3aba82cc5"},"vehicle_type_id":"4","last_reported":1753902742,"current_range_meters":6400,"station_id":"ce4bh412rcd13ifvqds0","pricing_plan_id":"cebpf4jnsgd1na2vs0mg"},{"bike_id":"37fcf059-83b8-4b6e-bc28-0c83f77e3c05","system_id":"levelo_inurba_marseille","lat":43.22557,"lon":5.34759,"is_reserved":false,"is_disabled":false,"rental_uris":{"android":"levelo://app?vid=37fcf059-83b8-4b6e-bc28-0c83f77e3c05","ios":"levelo://app?vid=37fcf059-83b8-4b6e-bc28-0c83f77e3c05"},"vehicle_type_id":"4","last_reported":1753902742,"current_range_meters":6400,"station_id":"","pricing_plan_id":"cebpf4jnsgd1na2vs0mg"},{"bike_id":"b1e9d972-2c60-4101-bba0-49bc0ec93627","system_id":"levelo_inurba_marseille","lat":43.29581,"lon":5.3674,"is_reserved":false,"is_disabled":false,"rental_uris":{"android":"levelo://app?vid=b1e9d972-2c60-4101-bba0-49bc0ec93627","ios":"levelo://app?vid=b1e9d972-2c60-4101-bba0-49bc0ec93627"},"vehicle_type_id":"4","last_reported":1753902742,"current_range_meters":6400,"station_id":"ce4bgph2rcd13ifvqc2g","pricing_plan_id":"cebpf4jnsgd1na2vs0mg"},{"bike_id":"97c02ca1-adc4-45da-a969-2800695e01c0","system_id":"levelo_inurba_marseille","lat":43.31368,"lon":5.38495,"is_reserved":false,"is_disabled":false,"rental_uris":{"android":"levelo://app?vid=97c02ca1-adc4-45da-a969-2800695e01c0","ios":"levelo://app?vid=97c02ca1-adc4-45da-a969-2800695e01c0"},"vehicle_type_id":"4","last_reported":1753902742,"current_range_meters":6400,"station_id":"ce4bgt92rcd13ifvqcf0","pricing_plan_id":"cebpf4jnsgd1na2vs0mg"},{"bike_id":"7e4a0d00-0d9a-4f5f-84b1-5c2ccf9f1b2f","system_id":"levelo_inurba_marseille","lat":43.320303,"lon":5.415729,"is_reserved":false,"is_disabled":true,"rental_uris":{"android":"levelo://app?vid=7e4a0d00-0d9a-4f5f-84b1-5c2ccf9f1b2f","ios":"levelo://app?vid=7e4a0d00-0d9a-4f5f-84b1-5c2ccf9f1b2f"},"vehicle_type_id":"4","last_reported":1753902742,"current_range_meters":6400,"station_id":"ce4bhq92rcd13ifvqhkg","pricing_plan_id":"cebpf4jnsgd1na2vs0mg"},{"bike_id":"f4fbc56d-6f4e-4352-96bc-ee5c87084bca","system_id":"levelo_inurba_marseille","lat":43.265891,"lon":5.372713,"is_reserved":false,"is_disabled":false,"rental_uris":{"android":"levelo://app?vid=f4fbc56d-6f4e-4352-96bc-ee5c87084bca","ios":"levelo://app?vid=f4fbc56d-6f4e-4352-96bc-ee5c87084bca"},"vehicle_type_id":"4","last_reported":1753902742,"current_range_meters":6400,"station_id":"ce4bhbh2rcd13ifvqeqg","pricing_plan_id":"cebpf4jnsgd1na2vs0mg"},{"bike_id":"c8c09037-e222-4300-bc53-2fc49091b111","system_id":"levelo_inurba_marseille","lat":43.32657,"lon":5.40993,"is_reserved":false,"is_disabled":false,"rental_uris":{"android":"levelo://app?vid=c8c09037-e222-4300-bc53-2fc49091b111","ios":"levelo://app?vid=c8c09037-e222-4300-bc53-2fc49091b111"},"vehicle_type_id":"4","last_reported":1753902742,"current_range_meters":6400,"station_id":"ce4bhpp2rcd13ifvqhgg","pricing_plan_id":"cebpf4jnsgd1na2vs0mg"},{"bike_id":"a64a62c7-0270-40a8-aad8-e9d5dfb9670f","system_id":"levelo_inurba_marseille","lat":43.28397,"lon":5.37527,"is_reserved":false,"is_disabled":false,"rental_uris":{"android":"levelo://app?vid=a64a62c7-0270-40a8-aad8-e9d5dfb9670f","ios":"levelo://app?vid=a64a62c7-0270-40a8-aad8-e9d5dfb9670f"},"vehicle_type_id":"4","last_reported":1753902742,"current_range_meters":6400,"station_id":"ce4bh412rcd13ifvqds0","pricing_plan_id":"cebpf4jnsgd1na2vs0mg"},{"bike_id":"9272c4db-e683-4e0a-accb-3e497371c995","system_id":"levelo_inurba_marseille","lat":43.27212,"lon":5.3918,"is_reserved":false,"is_disabled":false,"rental_uris":{"android":"levelo://app?vid=9272c4db-e683-4e0a-accb-3e497371c995","ios":"levelo://app?vid=9272c4db-e683-4e0a-accb-3e497371c995"},"vehicle_type_id":"4","last_reported":1753902742,"current_range_meters":6800,"station_id":"ce4bhhp2rcd13ifvqfm0","pricing_plan_id":"cebpf4jnsgd1na2vs0mg"},{"bike_id":"c9e5cf98-36fd-4b86-b6b1-31cf99619f3e","system_id":"levelo_inurba_marseille","lat":43.23181,"lon":5.400041,"is_reserved":false,"is_disabled":true,"rental_uris":{"android":"levelo://app?vid=c9e5cf98-36fd-4b86-b6b1-31cf99619f3e","ios":"levelo://app?vid=c9e5cf98-36fd-4b86-b6b1-31cf99619f3e"},"vehicle_type_id":"4","last_reported":1753902742,"current_range_meters":6800,"station_id":"ce4bhn12rcd13ifvqgqg","pricing_plan_id":"cebpf4jnsgd1na2vs0mg"},{"bike_id":"6ba3bce5-65b8-42a9-93f6-7cf2d537e39d","system_id":"levelo_inurba_marseille","lat":43.28405,"lon":5.37512,"is_reserved":false,"is_disabled":false,"rental_uris":{"android":"levelo://app?vid=6ba3bce5-65b8-42a9-93f6-7cf2d537e39d","ios":"levelo://app?vid=6ba3bce5-65b8-42a9-93f6-7cf2d537e39d"},"vehicle_type_id":"4","last_reported":1753902742,"current_range_meters":7200,"station_id":"ce4bh412rcd13ifvqds0","pricing_plan_id":"cebpf4jnsgd1na2vs0mg"},{"bike_id":"b5e469a6-8e8f-4b1a-91cc-e9f6f04151ad","system_id":"levelo_inurba_marseille","lat":43.29584,"lon":5.43645,"is_reserved":false,"is_disabled":false,"rental_uris":{"android":"levelo://app?vid=b5e469a6-8e8f-4b1a-91cc-e9f6f04151ad","ios":"levelo://app?vid=b5e469a6-8e8f-4b1a-91cc-e9f6f04151ad"},"vehicle_type_id":"4","last_reported":1753902742,"current_range_meters":7200,"station_id":"","pricing_plan_id":"cebpf4jnsgd1na2vs0mg"},{"bike_id":"0084a9e2-9758-4bb9-9a8d-bf40065701f8","system_id":"levelo_inurba_marseille","lat":43.3137,"lon":5.38491,"is_reserved":false,"is_disabled":false,"rental_uris":{"android":"levelo://app?vid=0084a9e2-9758-4bb9-9a8d-bf40065701f8","ios":"levelo://app?vid=0084a9e2-9758-4bb9-9a8d-bf40065701f8"},"vehicle_type_id":"4","last_reported":1753902742,"current_range_meters":7200,"station_id":"ce4bgt92rcd13ifvqcf0","pricing_plan_id":"cebpf4jnsgd1na2vs0mg"},{"bike_id":"6c800093-6be8-4864-a10d-3890e57125cc","system_id":"levelo_inurba_marseille","lat":43.24804,"lon":5.37452,"is_reserved":false,"is_disabled":false,"rental_uris":{"android":"levelo://app?vid=6c800093-6be8-4864-a10d-3890e57125cc","ios":"levelo://app?vid=6c800093-6be8-4864-a10d-3890e57125cc"},"vehicle_type_id":"4","last_reported":1753902742,"current_range_meters":7200,"station_id":"ce4bhgh2rcd13ifvqfb0","pricing_plan_id":"cebpf4jnsgd1na2vs0mg"},{"bike_id":"4d87f96f-79ff-4693-941f-b003c0905736","system_id":"levelo_inurba_marseille","lat":43.296226,"lon":5.377153,"is_reserved":false,"is_disabled":false,"rental_uris":{"android":"levelo://app?vid=4d87f96f-79ff-4693-941f-b003c0905736","ios":"levelo://app?vid=4d87f96f-79ff-4693-941f-b003c0905736"},"vehicle_type_id":"4","last_reported":1753902742,"current_range_meters":8000,"station_id":"ce4bgi92rcd13ifvqb90","pricing_plan_id":"cebpf4jnsgd1na2vs0mg"},{"bike_id":"4c3f43f6-ab8a-452e-bdb1-f0660c1720e7","system_id":"levelo_inurba_marseille","lat":43.29712,"lon":5.36617,"is_reserved":false,"is_disabled":false,"rental_uris":{"android":"levelo://app?vid=4c3f43f6-ab8a-452e-bdb1-f0660c1720e7","ios":"levelo://app?vid=4c3f43f6-ab8a-452e-bdb1-f0660c1720e7"},"vehicle_type_id":"4","last_reported":1753902742,"current_range_meters":8000,"station_id":"ce4bgn12rcd13ifvqbt0","pricing_plan_id":"cebpf4jnsgd1na2vs0mg"},{"bike_id":"ca8b1aaf-fc5d-46db-9318-1b4ac3b26bf5","system_id":"levelo_inurba_marseille","lat":43.295288,"lon":5.38547,"is_reserved":false,"is_disabled":false,"rental_uris":{"android":"levelo://app?vid=ca8b1aaf-fc5d-46db-9318-1b4ac3b26bf5","ios":"levelo://app?vid=ca8b1aaf-fc5d-46db-9318-1b4ac3b26bf5"},"vehicle_type_id":"4","last_reported":1753902742,"current_range_meters":8400,"station_id":"","pricing_plan_id":"cebpf4jnsgd1na2vs0mg"},{"bike_id":"ef643d27-8518-4bac-a8aa-c547732d2a80","system_id":"levelo_inurba_marseille","lat":43.2958,"lon":5.376,"is_reserved":false,"is_disabled":false,"rental_uris":{"android":"levelo://app?vid=ef643d27-8518-4bac-a8aa-c547732d2a80","ios":"levelo://app?vid=ef643d27-8518-4bac-a8aa-c547732d2a80"},"vehicle_type_id":"4","last_reported":1753902742,"current_range_meters":8400,"station_id":"","pricing_plan_id":"cebpf4jnsgd1na2vs0mg"},{"bike_id":"e59f31c7-a8de-4795-a381-3cc1c1ab6149","system_id":"levelo_inurba_marseille","lat":43.29581,"lon":5.36739,"is_reserved":false,"is_disabled":false,"rental_uris":{"android":"levelo://app?vid=e59f31c7-a8de-4795-a381-3cc1c1ab6149","ios":"levelo://app?vid=e59f31c7-a8de-4795-a381-3cc1c1ab6149"},"vehicle_type_id":"4","last_reported":1753902742,"current_range_meters":8400,"station_id":"ce4bgph2rcd13ifvqc2g","pricing_plan_id":"cebpf4jnsgd1na2vs0mg"},{"bike_id":"b0f2b2c1-b378-4164-a22b-6eceaa434acc","system_id":"levelo_inurba_marseille","lat":43.29206,"lon":5.42682,"is_reserved":false,"is_disabled":false,"rental_uris":{"android":"levelo://app?vid=b0f2b2c1-b378-4164-a22b-6eceaa434acc","ios":"levelo://app?vid=b0f2b2c1-b378-4164-a22b-6eceaa434acc"},"vehicle_type_id":"4","last_reported":1753902742,"current_range_meters":8400,"station_id":"","pricing_plan_id":"cebpf4jnsgd1na2vs0mg"},{"bike_id":"83effac9-a83d-462d-b4dd-97a82bcb2050","system_id":"levelo_inurba_marseille","lat":43.280815,"lon":5.396626,"is_reserved":false,"is_disabled":true,"rental_uris":{"android":"levelo://app?vid=83effac9-a83d-462d-b4dd-97a82bcb2050","ios":"levelo://app?vid=83effac9-a83d-462d-b4dd-97a82bcb2050"},"vehicle_type_id":"4","last_reported":1753902742,"current_range_meters":8400,"station_id":"","pricing_plan_id":"cebpf4jnsgd1na2vs0mg"},{"bike_id":"3cfdabb4-116c-412f-add6-f1e91f7a0bbf","system_id":"levelo_inurba_marseille","lat":43.299579,"lon":5.384842,"is_reserved":false,"is_disabled":false,"rental_uris":{"android":"levelo://app?vid=3cfdabb4-116c-412f-add6-f1e91f7a0bbf","ios":"levelo://app?vid=3cfdabb4-116c-412f-add6-f1e91f7a0bbf"},"vehicle_type_id":"4","last_reported":1753902742,"current_range_meters":8400,"station_id":"ce4bgop2rcd13ifvqc1g","pricing_plan_id":"cebpf4jnsgd1na2vs0mg"},{"bike_id":"0dc99cab-1546-4588-8ef9-e9c6ae8e0a6f","system_id":"levelo_inurba_marseille","lat":43.23062,"lon":5.35488,"is_reserved":false,"is_disabled":true,"rental_uris":{"android":"levelo://app?vid=0dc99cab-1546-4588-8ef9-e9c6ae8e0a6f","ios":"levelo://app?vid=0dc99cab-1546-4588-8ef9-e9c6ae8e0a6f"},"vehicle_type_id":"4","last_reported":1753902742,"current_range_meters":8400,"station_id":"cpo3342slgdg3j2ifvpg","pricing_plan_id":"cebpf4jnsgd1na2vs0mg"},{"bike_id":"fecf7e07-1d59-4970-b795-185930c4fbba","system_id":"levelo_inurba_marseille","lat":43.29938,"lon":5.36554,"is_reserved":false,"is_disabled":false,"rental_uris":{"android":"levelo://app?vid=fecf7e07-1d59-4970-b795-185930c4fbba","ios":"levelo://app?vid=fecf7e07-1d59-4970-b795-185930c4fbba"},"vehicle_type_id":"4","last_reported":1753902742,"current_range_meters":8800,"station_id":"ce4bgm92rcd13ifvqbr0","pricing_plan_id":"cebpf4jnsgd1na2vs0mg"},{"bike_id":"776ed000-dc19-46be-aa0e-85c4463ced8c","system_id":"levelo_inurba_marseille","lat":43.257263,"lon":5.411106,"is_reserved":false,"is_disabled":false,"rental_uris":{"android":"levelo://app?vid=776ed000-dc19-46be-aa0e-85c4463ced8c","ios":"levelo://app?vid=776ed000-dc19-46be-aa0e-85c4463ced8c"},"vehicle_type_id":"4","last_reported":1753902742,"current_range_meters":8800,"station_id":"ce4bhkp2rcd13ifvqgd0","pricing_plan_id":"cebpf4jnsgd1na2vs0mg"},{"bike_id":"ea017aba-6af6-46ef-88a7-8467708524ee","system_id":"levelo_inurba_marseille","lat":43.211945,"lon":5.350752,"is_reserved":false,"is_disabled":false,"rental_uris":{"android":"levelo://app?vid=ea017aba-6af6-46ef-88a7-8467708524ee","ios":"levelo://app?vid=ea017aba-6af6-46ef-88a7-8467708524ee"},"vehicle_type_id":"4","last_reported":1753902742,"current_range_meters":8800,"station_id":"st_cvj6sg6p6f1abm77japg","pricing_plan_id":"cebpf4jnsgd1na2vs0mg"},{"bike_id":"00de3457-bb26-4f86-be97-d29604933a4d","system_id":"levelo_inurba_marseille","lat":43.28642,"lon":5.37176,"is_reserved":false,"is_disabled":false,"rental_uris":{"android":"levelo://app?vid=00de3457-bb26-4f86-be97-d29604933a4d","ios":"levelo://app?vid=00de3457-bb26-4f86-be97-d29604933a4d"},"vehicle_type_id":"4","last_reported":1753902742,"current_range_meters":8800,"station_id":"","pricing_plan_id":"cebpf4jnsgd1na2vs0mg"},{"bike_id":"0e36fba3-4a0e-495d-884f-00d86bc6564b","system_id":"levelo_inurba_marseille","lat":43.33761,"lon":5.37496,"is_reserved":false,"is_disabled":false,"rental_uris":{"android":"levelo://app?vid=0e36fba3-4a0e-495d-884f-00d86bc6564b","ios":"levelo://app?vid=0e36fba3-4a0e-495d-884f-00d86bc6564b"},"vehicle_type_id":"4","last_reported":1753902742,"current_range_meters":9200,"station_id":"","pricing_plan_id":"cebpf4jnsgd1na2vs0mg"},{"bike_id":"6dc788ab-7c8d-4530-8182-6dce14a4d06a","system_id":"levelo_inurba_marseille","lat":43.25121,"lon":5.4032,"is_reserved":false,"is_disabled":false,"rental_uris":{"android":"levelo://app?vid=6dc788ab-7c8d-4530-8182-6dce14a4d06a","ios":"levelo://app?vid=6dc788ab-7c8d-4530-8182-6dce14a4d06a"},"vehicle_type_id":"4","last_reported":1753902742,"current_range_meters":9200,"station_id":"ce4bhlh2rcd13ifvqgig","pricing_plan_id":"cebpf4jnsgd1na2vs0mg"},{"bike_id":"875e63b9-c2a1-4d3f-b852-db46b42f78b3","system_id":"levelo_inurba_marseille","lat":43.24068,"lon":5.37756,"is_reserved":false,"is_disabled":false,"rental_uris":{"android":"levelo://app?vid=875e63b9-c2a1-4d3f-b852-db46b42f78b3","ios":"levelo://app?vid=875e63b9-c2a1-4d3f-b852-db46b42f78b3"},"vehicle_type_id":"4","last_reported":1753902742,"current_range_meters":9200,"station_id":"ce4bhnp2rcd13ifvqgvg","pricing_plan_id":"cebpf4jnsgd1na2vs0mg"},{"bike_id":"ae0104f2-22ea-41d6-89ea-e55542b9b0b6","system_id":"levelo_inurba_marseille","lat":43.27495,"lon":5.42447,"is_reserved":false,"is_disabled":false,"rental_uris":{"android":"levelo://app?vid=ae0104f2-22ea-41d6-89ea-e55542b9b0b6","ios":"levelo://app?vid=ae0104f2-22ea-41d6-89ea-e55542b9b0b6"},"vehicle_type_id":"4","last_reported":1753902742,"current_range_meters":9200,"station_id":"ce4bhn92rcd13ifvqgrg","pricing_plan_id":"cebpf4jnsgd1na2vs0mg"},{"bike_id":"5c539312-8cb1-4e7d-a699-6344a7af2dbc","system_id":"levelo_inurba_marseille","lat":43.2958,"lon":5.36745,"is_reserved":false,"is_disabled":false,"rental_uris":{"android":"levelo://app?vid=5c539312-8cb1-4e7d-a699-6344a7af2dbc","ios":"levelo://app?vid=5c539312-8cb1-4e7d-a699-6344a7af2dbc"},"vehicle_type_id":"4","last_reported":1753902742,"current_range_meters":9200,"station_id":"ce4bgph2rcd13ifvqc2g","pricing_plan_id":"cebpf4jnsgd1na2vs0mg"},{"bike_id":"991eedc3-747e-465e-a42d-c49b23355959","system_id":"levelo_inurba_marseille","lat":43.31759,"lon":5.39016,"is_reserved":false,"is_disabled":false,"rental_uris":{"android":"levelo://app?vid=991eedc3-747e-465e-a42d-c49b23355959","ios":"levelo://app?vid=991eedc3-747e-465e-a42d-c49b23355959"},"vehicle_type_id":"4","last_reported":1753902742,"current_range_meters":9600,"station_id":"ce4bhqp2rcd13ifvqhng","pricing_plan_id":"cebpf4jnsgd1na2vs0mg"},{"bike_id":"9ec8d8a8-128c-4d7c-bc1c-3b331aa86014","system_id":"levelo_inurba_marseille","lat":43.26033,"lon":5.37546,"is_reserved":false,"is_disabled":false,"rental_uris":{"android":"levelo://app?vid=9ec8d8a8-128c-4d7c-bc1c-3b331aa86014","ios":"levelo://app?vid=9ec8d8a8-128c-4d7c-bc1c-3b331aa86014"},"vehicle_type_id":"4","last_reported":1753902742,"current_range_meters":9600,"station_id":"ce4bhgh2rcd13ifvqfa0","pricing_plan_id":"cebpf4jnsgd1na2vs0mg"},{"bike_id":"de8ca940-4c02-4d6c-b30c-1aa0effdc3ce","system_id":"levelo_inurba_marseille","lat":43.23952,"lon":5.36636,"is_reserved":false,"is_disabled":false,"rental_uris":{"android":"levelo://app?vid=de8ca940-4c02-4d6c-b30c-1aa0effdc3ce","ios":"levelo://app?vid=de8ca940-4c02-4d6c-b30c-1aa0effdc3ce"},"vehicle_type_id":"4","last_reported":1753902742,"current_range_meters":10000,"station_id":"ce4bhi12rcd13ifvqfp0","pricing_plan_id":"cebpf4jnsgd1na2vs0mg"},{"bike_id":"b88c8cc6-9af7-443b-abca-16f4f447aa15","system_id":"levelo_inurba_marseille","lat":43.27495,"lon":5.4245,"is_reserved":false,"is_disabled":false,"rental_uris":{"android":"levelo://app?vid=b88c8cc6-9af7-443b-abca-16f4f447aa15","ios":"levelo://app?vid=b88c8cc6-9af7-443b-abca-16f4f447aa15"},"vehicle_type_id":"4","last_reported":1753902742,"current_range_meters":9600,"station_id":"ce4bhn92rcd13ifvqgrg","pricing_plan_id":"cebpf4jnsgd1na2vs0mg"},{"bike_id":"76d57055-5e57-4c01-b3e4-b6b9acd3fb39","system_id":"levelo_inurba_marseille","lat":43.28618,"lon":5.35107,"is_reserved":false,"is_disabled":false,"rental_uris":{"android":"levelo://app?vid=76d57055-5e57-4c01-b3e4-b6b9acd3fb39","ios":"levelo://app?vid=76d57055-5e57-4c01-b3e4-b6b9acd3fb39"},"vehicle_type_id":"4","last_reported":1753902742,"current_range_meters":10000,"station_id":"ce4bhch2rcd13ifvqeug","pricing_plan_id":"cebpf4jnsgd1na2vs0mg"},{"bike_id":"23aabdf9-deb5-47d7-9c68-1c267bd03505","system_id":"levelo_inurba_marseille","lat":43.29934,"lon":5.36543,"is_reserved":false,"is_disabled":false,"rental_uris":{"android":"levelo://app?vid=23aabdf9-deb5-47d7-9c68-1c267bd03505","ios":"levelo://app?vid=23aabdf9-deb5-47d7-9c68-1c267bd03505"},"vehicle_type_id":"4","last_reported":1753902742,"current_range_meters":10000,"station_id":"ce4bgm92rcd13ifvqbr0","pricing_plan_id":"cebpf4jnsgd1na2vs0mg"},{"bike_id":"a123e3e4-263d-4cdf-a385-b17478a576cc","system_id":"levelo_inurba_marseille","lat":43.33756,"lon":5.37467,"is_reserved":false,"is_disabled":false,"rental_uris":{"android":"levelo://app?vid=a123e3e4-263d-4cdf-a385-b17478a576cc","ios":"levelo://app?vid=a123e3e4-263d-4cdf-a385-b17478a576cc"},"vehicle_type_id":"4","last_reported":1753902742,"current_range_meters":10000,"station_id":"","pricing_plan_id":"cebpf4jnsgd1na2vs0mg"},{"bike_id":"e1376f5c-bc06-44f9-affe-6a267259dee0","system_id":"levelo_inurba_marseille","lat":43.28419,"lon":5.34988,"is_reserved":false,"is_disabled":false,"rental_uris":{"android":"levelo://app?vid=e1376f5c-bc06-44f9-affe-6a267259dee0","ios":"levelo://app?vid=e1376f5c-bc06-44f9-affe-6a267259dee0"},"vehicle_type_id":"4","last_reported":1753902742,"current_range_meters":10000,"station_id":"ce4bhbh2rcd13ifvqepg","pricing_plan_id":"cebpf4jnsgd1na2vs0mg"},{"bike_id":"09b9abec-04dc-4669-97b7-ab52dad51353","system_id":"levelo_inurba_marseille","lat":43.29613,"lon":5.37717,"is_reserved":false,"is_disabled":false,"rental_uris":{"android":"levelo://app?vid=09b9abec-04dc-4669-97b7-ab52dad51353","ios":"levelo://app?vid=09b9abec-04dc-4669-97b7-ab52dad51353"},"vehicle_type_id":"4","last_reported":1753902742,"current_range_meters":9600,"station_id":"ce4bgi92rcd13ifvqb90","pricing_plan_id":"cebpf4jnsgd1na2vs0mg"},{"bike_id":"fb75adb3-6b59-4da3-bfcd-c99cc58faf4b","system_id":"levelo_inurba_marseille","lat":43.31276,"lon":5.40161,"is_reserved":false,"is_disabled":false,"rental_uris":{"android":"levelo://app?vid=fb75adb3-6b59-4da3-bfcd-c99cc58faf4b","ios":"levelo://app?vid=fb75adb3-6b59-4da3-bfcd-c99cc58faf4b"},"vehicle_type_id":"4","last_reported":1753902742,"current_range_meters":9600,"station_id":"ce4bh092rcd13ifvqd30","pricing_plan_id":"cebpf4jnsgd1na2vs0mg"},{"bike_id":"5fc618e0-331d-48d5-9a12-c5f03988e973","system_id":"levelo_inurba_marseille","lat":43.28153,"lon":5.42639,"is_reserved":false,"is_disabled":false,"rental_uris":{"android":"levelo://app?vid=5fc618e0-331d-48d5-9a12-c5f03988e973","ios":"levelo://app?vid=5fc618e0-331d-48d5-9a12-c5f03988e973"},"vehicle_type_id":"4","last_reported":1753902742,"current_range_meters":10000,"station_id":"ce4bhnh2rcd13ifvqgug","pricing_plan_id":"cebpf4jnsgd1na2vs0mg"},{"bike_id":"f8b2f2c6-3403-40e4-b89c-53ff035270cb","system_id":"levelo_inurba_marseille","lat":43.26183,"lon":5.37455,"is_reserved":false,"is_disabled":true,"rental_uris":{"android":"levelo://app?vid=f8b2f2c6-3403-40e4-b89c-53ff035270cb","ios":"levelo://app?vid=f8b2f2c6-3403-40e4-b89c-53ff035270cb"},"vehicle_type_id":"4","last_reported":1753902742,"current_range_meters":10800,"station_id":"ce4bhgp2rcd13ifvqfc0","pricing_plan_id":"cebpf4jnsgd1na2vs0mg"},{"bike_id":"02db7cb1-3bde-4001-9009-b776831133b6","system_id":"levelo_inurba_marseille","lat":43.28422,"lon":5.34984,"is_reserved":false,"is_disabled":true,"rental_uris":{"android":"levelo://app?vid=02db7cb1-3bde-4001-9009-b776831133b6","ios":"levelo://app?vid=02db7cb1-3bde-4001-9009-b776831133b6"},"vehicle_type_id":"4","last_reported":1753902742,"current_range_meters":10800,"station_id":"ce4bhbh2rcd13ifvqepg","pricing_plan_id":"cebpf4jnsgd1na2vs0mg"},{"bike_id":"58d60ef7-501e-48a0-a97f-c0e09ff3aab0","system_id":"levelo_inurba_marseille","lat":43.222792,"lon":5.345958,"is_reserved":false,"is_disabled":false,"rental_uris":{"android":"levelo://app?vid=58d60ef7-501e-48a0-a97f-c0e09ff3aab0","ios":"levelo://app?vid=58d60ef7-501e-48a0-a97f-c0e09ff3aab0"},"vehicle_type_id":"4","last_reported":1753902742,"current_range_meters":10800,"station_id":"ce4bhp92rcd13ifvqhag","pricing_plan_id":"cebpf4jnsgd1na2vs0mg"},{"bike_id":"49a75637-f07e-4d79-a984-922479e19d88","system_id":"levelo_inurba_marseille","lat":43.25823,"lon":5.39436,"is_reserved":false,"is_disabled":false,"rental_uris":{"android":"levelo://app?vid=49a75637-f07e-4d79-a984-922479e19d88","ios":"levelo://app?vid=49a75637-f07e-4d79-a984-922479e19d88"},"vehicle_type_id":"4","last_reported":1753902742,"current_range_meters":10800,"station_id":"ce4bhip2rcd13ifvqft0","pricing_plan_id":"cebpf4jnsgd1na2vs0mg"},{"bike_id":"f129605f-c561-462b-9dd8-38b1fae764e6","system_id":"levelo_inurba_marseille","lat":43.323645,"lon":5.36763,"is_reserved":false,"is_disabled":false,"rental_uris":{"android":"levelo://app?vid=f129605f-c561-462b-9dd8-38b1fae764e6","ios":"levelo://app?vid=f129605f-c561-462b-9dd8-38b1fae764e6"},"vehicle_type_id":"4","last_reported":1753902742,"current_range_meters":10800,"station_id":"ce4bhsh2rcd13ifvqi2g","pricing_plan_id":"cebpf4jnsgd1na2vs0mg"},{"bike_id":"8f41ed9d-1778-4af7-b2ad-fd1607beff4e","system_id":"levelo_inurba_marseille","lat":43.22479,"lon":5.34766,"is_reserved":false,"is_disabled":false,"rental_uris":{"android":"levelo://app?vid=8f41ed9d-1778-4af7-b2ad-fd1607beff4e","ios":"levelo://app?vid=8f41ed9d-1778-4af7-b2ad-fd1607beff4e"},"vehicle_type_id":"4","last_reported":1753902742,"current_range_meters":10800,"station_id":"st_cvj5dfep6f1abm77gieg","pricing_plan_id":"cebpf4jnsgd1na2vs0mg"},{"bike_id":"28451c2c-9877-4a62-a188-53a50586b925","system_id":"levelo_inurba_marseille","lat":43.24162,"lon":5.36385,"is_reserved":false,"is_disabled":false,"rental_uris":{"android":"levelo://app?vid=28451c2c-9877-4a62-a188-53a50586b925","ios":"levelo://app?vid=28451c2c-9877-4a62-a188-53a50586b925"},"vehicle_type_id":"4","last_reported":1753902742,"current_range_meters":10800,"station_id":"cpo36qri1sfpv3e86is0","pricing_plan_id":"cebpf4jnsgd1na2vs0mg"},{"bike_id":"454f5e39-7ba4-4ca5-8916-b651f54da5fb","system_id":"levelo_inurba_marseille","lat":43.289,"lon":5.36639,"is_reserved":false,"is_disabled":false,"rental_uris":{"android":"levelo://app?vid=454f5e39-7ba4-4ca5-8916-b651f54da5fb","ios":"levelo://app?vid=454f5e39-7ba4-4ca5-8916-b651f54da5fb"},"vehicle_type_id":"4","last_reported":1753902742,"current_range_meters":11200,"station_id":"ce4bhap2rcd13ifvqek0","pricing_plan_id":"cebpf4jnsgd1na2vs0mg"},{"bike_id":"946acab8-3ceb-4a26-a302-4b58b28ba085","system_id":"levelo_inurba_marseille","lat":43.31358,"lon":5.38488,"is_reserved":false,"is_disabled":false,"rental_uris":{"android":"levelo://app?vid=946acab8-3ceb-4a26-a302-4b58b28ba085","ios":"levelo://app?vid=946acab8-3ceb-4a26-a302-4b58b28ba085"},"vehicle_type_id":"4","last_reported":1753902742,"current_range_meters":11200,"station_id":"ce4bgt92rcd13ifvqcf0","pricing_plan_id":"cebpf4jnsgd1na2vs0mg"},{"bike_id":"21dd3b2c-9fca-4c83-93ca-966c62dadd82","system_id":"levelo_inurba_marseille","lat":43.287172,"lon":5.379322,"is_reserved":false,"is_disabled":true,"rental_uris":{"android":"levelo://app?vid=21dd3b2c-9fca-4c83-93ca-966c62dadd82","ios":"levelo://app?vid=21dd3b2c-9fca-4c83-93ca-966c62dadd82"},"vehicle_type_id":"4","last_reported":1753902742,"current_range_meters":11200,"station_id":"","pricing_plan_id":"cebpf4jnsgd1na2vs0mg"},{"bike_id":"2b510da9-a2fa-468f-b645-20043ba1b8a3","system_id":"levelo_inurba_marseille","lat":43.300162,"lon":5.370969,"is_reserved":false,"is_disabled":false,"rental_uris":{"android":"levelo://app?vid=2b510da9-a2fa-468f-b645-20043ba1b8a3","ios":"levelo://app?vid=2b510da9-a2fa-468f-b645-20043ba1b8a3"},"vehicle_type_id":"4","last_reported":1753902742,"current_range_meters":11200,"station_id":"ce4bgs12rcd13ifvqcag","pricing_plan_id":"cebpf4jnsgd1na2vs0mg"},{"bike_id":"8c7c9c34-46f4-44b9-a83e-e8bf02735916","system_id":"levelo_inurba_marseille","lat":43.27428,"lon":5.39422,"is_reserved":false,"is_disabled":false,"rental_uris":{"android":"levelo://app?vid=8c7c9c34-46f4-44b9-a83e-e8bf02735916","ios":"levelo://app?vid=8c7c9c34-46f4-44b9-a83e-e8bf02735916"},"vehicle_type_id":"4","last_reported":1753902742,"current_range_meters":10800,"station_id":"ce4bhdp2rcd13ifvqf20","pricing_plan_id":"cebpf4jnsgd1na2vs0mg"},{"bike_id":"056e4f3d-4ab7-42da-9834-2ca05b8a0f52","system_id":"levelo_inurba_marseille","lat":43.31485,"lon":5.3682,"is_reserved":false,"is_disabled":false,"rental_uris":{"android":"levelo://app?vid=056e4f3d-4ab7-42da-9834-2ca05b8a0f52","ios":"levelo://app?vid=056e4f3d-4ab7-42da-9834-2ca05b8a0f52"},"vehicle_type_id":"4","last_reported":1753902742,"current_range_meters":11200,"station_id":"","pricing_plan_id":"cebpf4jnsgd1na2vs0mg"},{"bike_id":"5f714f69-a784-4d28-99a3-8a9ce0bd3c4e","system_id":"levelo_inurba_marseille","lat":43.295983,"lon":5.380953,"is_reserved":false,"is_disabled":false,"rental_uris":{"android":"levelo://app?vid=5f714f69-a784-4d28-99a3-8a9ce0bd3c4e","ios":"levelo://app?vid=5f714f69-a784-4d28-99a3-8a9ce0bd3c4e"},"vehicle_type_id":"4","last_reported":1753902742,"current_range_meters":11200,"station_id":"ce4bgl12rcd13ifvqbo0","pricing_plan_id":"cebpf4jnsgd1na2vs0mg"},{"bike_id":"135ab1ea-fc9a-4785-9240-6bfa3adf7c7c","system_id":"levelo_inurba_marseille","lat":43.32258,"lon":5.36635,"is_reserved":false,"is_disabled":false,"rental_uris":{"android":"levelo://app?vid=135ab1ea-fc9a-4785-9240-6bfa3adf7c7c","ios":"levelo://app?vid=135ab1ea-fc9a-4785-9240-6bfa3adf7c7c"},"vehicle_type_id":"4","last_reported":1753902742,"current_range_meters":11600,"station_id":"","pricing_plan_id":"cebpf4jnsgd1na2vs0mg"},{"bike_id":"887f6f93-0eac-4bcd-a75b-a8c98047a14d","system_id":"levelo_inurba_marseille","lat":43.21134,"lon":5.35141,"is_reserved":false,"is_disabled":false,"rental_uris":{"android":"levelo://app?vid=887f6f93-0eac-4bcd-a75b-a8c98047a14d","ios":"levelo://app?vid=887f6f93-0eac-4bcd-a75b-a8c98047a14d"},"vehicle_type_id":"4","last_reported":1753902742,"current_range_meters":11600,"station_id":"","pricing_plan_id":"cebpf4jnsgd1na2vs0mg"},{"bike_id":"85d95a9a-bae1-4127-a50f-dff98ce29fd5","system_id":"levelo_inurba_marseille","lat":43.32081,"lon":5.37314,"is_reserved":false,"is_disabled":false,"rental_uris":{"android":"levelo://app?vid=85d95a9a-bae1-4127-a50f-dff98ce29fd5","ios":"levelo://app?vid=85d95a9a-bae1-4127-a50f-dff98ce29fd5"},"vehicle_type_id":"4","last_reported":1753902742,"current_range_meters":11600,"station_id":"","pricing_plan_id":"cebpf4jnsgd1na2vs0mg"},{"bike_id":"671701a9-7243-46ba-9df9-fa49b6935265","system_id":"levelo_inurba_marseille","lat":43.25988,"lon":5.37242,"is_reserved":false,"is_disabled":false,"rental_uris":{"android":"levelo://app?vid=671701a9-7243-46ba-9df9-fa49b6935265","ios":"levelo://app?vid=671701a9-7243-46ba-9df9-fa49b6935265"},"vehicle_type_id":"4","last_reported":1753902742,"current_range_meters":11600,"station_id":"","pricing_plan_id":"cebpf4jnsgd1na2vs0mg"},{"bike_id":"43d63219-1aa2-4c91-90fe-88b28ddfbee3","system_id":"levelo_inurba_marseille","lat":43.29017,"lon":5.38143,"is_reserved":false,"is_disabled":true,"rental_uris":{"android":"levelo://app?vid=43d63219-1aa2-4c91-90fe-88b28ddfbee3","ios":"levelo://app?vid=43d63219-1aa2-4c91-90fe-88b28ddfbee3"},"vehicle_type_id":"4","last_reported":1753902742,"current_range_meters":11600,"station_id":"ce4bh4p2rcd13ifvqe1g","pricing_plan_id":"cebpf4jnsgd1na2vs0mg"},{"bike_id":"a6a46ae2-d764-44ee-baf2-a76e49bd9084","system_id":"levelo_inurba_marseille","lat":43.26991,"lon":5.40299,"is_reserved":false,"is_disabled":false,"rental_uris":{"android":"levelo://app?vid=a6a46ae2-d764-44ee-baf2-a76e49bd9084","ios":"levelo://app?vid=a6a46ae2-d764-44ee-baf2-a76e49bd9084"},"vehicle_type_id":"4","last_reported":1753902742,"current_range_meters":11600,"station_id":"","pricing_plan_id":"cebpf4jnsgd1na2vs0mg"},{"bike_id":"90b51048-249f-4bd9-9157-ff771e05aec7","system_id":"levelo_inurba_marseille","lat":43.2958,"lon":5.3674,"is_reserved":false,"is_disabled":false,"rental_uris":{"android":"levelo://app?vid=90b51048-249f-4bd9-9157-ff771e05aec7","ios":"levelo://app?vid=90b51048-249f-4bd9-9157-ff771e05aec7"},"vehicle_type_id":"4","last_reported":1753902742,"current_range_meters":11600,"station_id":"ce4bgph2rcd13ifvqc2g","pricing_plan_id":"cebpf4jnsgd1na2vs0mg"},{"bike_id":"5ff7b424-be72-460e-9279-c80ac3b388ac","system_id":"levelo_inurba_marseille","lat":43.23195,"lon":5.39974,"is_reserved":false,"is_disabled":false,"rental_uris":{"android":"levelo://app?vid=5ff7b424-be72-460e-9279-c80ac3b388ac","ios":"levelo://app?vid=5ff7b424-be72-460e-9279-c80ac3b388ac"},"vehicle_type_id":"4","last_reported":1753902742,"current_range_meters":11600,"station_id":"ce4bhn12rcd13ifvqgqg","pricing_plan_id":"cebpf4jnsgd1na2vs0mg"},{"bike_id":"3d60e95a-8706-4e13-b31f-ac7a913f607a","system_id":"levelo_inurba_marseille","lat":43.22933,"lon":5.35375,"is_reserved":false,"is_disabled":false,"rental_uris":{"android":"levelo://app?vid=3d60e95a-8706-4e13-b31f-ac7a913f607a","ios":"levelo://app?vid=3d60e95a-8706-4e13-b31f-ac7a913f607a"},"vehicle_type_id":"4","last_reported":1753902742,"current_range_meters":12000,"station_id":"cpo3532slgdg3j2ikp40","pricing_plan_id":"cebpf4jnsgd1na2vs0mg"},{"bike_id":"5f2c329e-f2c7-42ad-8f42-e95dfce5b61a","system_id":"levelo_inurba_marseille","lat":43.23006,"lon":5.35543,"is_reserved":false,"is_disabled":false,"rental_uris":{"android":"levelo://app?vid=5f2c329e-f2c7-42ad-8f42-e95dfce5b61a","ios":"levelo://app?vid=5f2c329e-f2c7-42ad-8f42-e95dfce5b61a"},"vehicle_type_id":"4","last_reported":1753902742,"current_range_meters":12000,"station_id":"","pricing_plan_id":"cebpf4jnsgd1na2vs0mg"},{"bike_id":"f10a9d4c-bb74-4cb0-ad08-10e05cfc21d9","system_id":"levelo_inurba_marseille","lat":43.2894,"lon":5.36643,"is_reserved":false,"is_disabled":false,"rental_uris":{"android":"levelo://app?vid=f10a9d4c-bb74-4cb0-ad08-10e05cfc21d9","ios":"levelo://app?vid=f10a9d4c-bb74-4cb0-ad08-10e05cfc21d9"},"vehicle_type_id":"4","last_reported":1753902742,"current_range_meters":12000,"station_id":"ce4bhap2rcd13ifvqek0","pricing_plan_id":"cebpf4jnsgd1na2vs0mg"},{"bike_id":"4e9fef12-5d1e-4cc1-bfe2-5b902ba48544","system_id":"levelo_inurba_marseille","lat":43.25497,"lon":5.37651,"is_reserved":false,"is_disabled":false,"rental_uris":{"android":"levelo://app?vid=4e9fef12-5d1e-4cc1-bfe2-5b902ba48544","ios":"levelo://app?vid=4e9fef12-5d1e-4cc1-bfe2-5b902ba48544"},"vehicle_type_id":"4","last_reported":1753902742,"current_range_meters":12000,"station_id":"ce4bhh12rcd13ifvqff0","pricing_plan_id":"cebpf4jnsgd1na2vs0mg"},{"bike_id":"24ddc855-9db1-447b-8cc7-fb33f85a47fb","system_id":"levelo_inurba_marseille","lat":43.30595,"lon":5.37213,"is_reserved":false,"is_disabled":false,"rental_uris":{"android":"levelo://app?vid=24ddc855-9db1-447b-8cc7-fb33f85a47fb","ios":"levelo://app?vid=24ddc855-9db1-447b-8cc7-fb33f85a47fb"},"vehicle_type_id":"4","last_reported":1753902742,"current_range_meters":12000,"station_id":"ce4bgqh2rcd13ifvqc4g","pricing_plan_id":"cebpf4jnsgd1na2vs0mg"},{"bike_id":"c686771c-e4d6-4ee5-934b-f3ca190b833e","system_id":"levelo_inurba_marseille","lat":43.32765,"lon":5.39204,"is_reserved":false,"is_disabled":false,"rental_uris":{"android":"levelo://app?vid=c686771c-e4d6-4ee5-934b-f3ca190b833e","ios":"levelo://app?vid=c686771c-e4d6-4ee5-934b-f3ca190b833e"},"vehicle_type_id":"4","last_reported":1753902742,"current_range_meters":12000,"station_id":"","pricing_plan_id":"cebpf4jnsgd1na2vs0mg"},{"bike_id":"86ab0dd9-d0b7-4feb-b119-f3a357af7a3c","system_id":"levelo_inurba_marseille","lat":43.2481,"lon":5.37461,"is_reserved":false,"is_disabled":false,"rental_uris":{"android":"levelo://app?vid=86ab0dd9-d0b7-4feb-b119-f3a357af7a3c","ios":"levelo://app?vid=86ab0dd9-d0b7-4feb-b119-f3a357af7a3c"},"vehicle_type_id":"4","last_reported":1753902742,"current_range_meters":12000,"station_id":"ce4bhgh2rcd13ifvqfb0","pricing_plan_id":"cebpf4jnsgd1na2vs0mg"},{"bike_id":"e213ca07-589a-48eb-964b-1d3bb0bd2f28","system_id":"levelo_inurba_marseille","lat":43.29222,"lon":5.36059,"is_reserved":false,"is_disabled":false,"rental_uris":{"android":"levelo://app?vid=e213ca07-589a-48eb-964b-1d3bb0bd2f28","ios":"levelo://app?vid=e213ca07-589a-48eb-964b-1d3bb0bd2f28"},"vehicle_type_id":"4","last_reported":1753902742,"current_range_meters":12000,"station_id":"ce4bhbh2rcd13ifvqeqg","pricing_plan_id":"cebpf4jnsgd1na2vs0mg"},{"bike_id":"59b09e71-bc8f-4a1c-af22-5d1f9e024ad8","system_id":"levelo_inurba_marseille","lat":43.28928,"lon":5.38395,"is_reserved":false,"is_disabled":false,"rental_uris":{"android":"levelo://app?vid=59b09e71-bc8f-4a1c-af22-5d1f9e024ad8","ios":"levelo://app?vid=59b09e71-bc8f-4a1c-af22-5d1f9e024ad8"},"vehicle_type_id":"4","last_reported":1753902742,"current_range_meters":12000,"station_id":"ce4bh612rcd13ifvqe6g","pricing_plan_id":"cebpf4jnsgd1na2vs0mg"},{"bike_id":"5e89c3d6-3c69-4ae2-8c32-b66a6479c5eb","system_id":"levelo_inurba_marseille","lat":43.26775,"lon":5.39421,"is_reserved":false,"is_disabled":true,"rental_uris":{"android":"levelo://app?vid=5e89c3d6-3c69-4ae2-8c32-b66a6479c5eb","ios":"levelo://app?vid=5e89c3d6-3c69-4ae2-8c32-b66a6479c5eb"},"vehicle_type_id":"4","last_reported":1753902742,"current_range_meters":12000,"station_id":"ce4bhh12rcd13ifvqfg0","pricing_plan_id":"cebpf4jnsgd1na2vs0mg"},{"bike_id":"e75d1a8f-599a-44b5-adae-7817d324659e","system_id":"levelo_inurba_marseille","lat":43.29531,"lon":5.38539,"is_reserved":false,"is_disabled":false,"rental_uris":{"android":"levelo://app?vid=e75d1a8f-599a-44b5-adae-7817d324659e","ios":"levelo://app?vid=e75d1a8f-599a-44b5-adae-7817d324659e"},"vehicle_type_id":"4","last_reported":1753902742,"current_range_meters":12400,"station_id":"ce4bgih2rcd13ifvqba0","pricing_plan_id":"cebpf4jnsgd1na2vs0mg"},{"bike_id":"b44d763b-4f92-4731-b76a-85ebcd91acd5","system_id":"levelo_inurba_marseille","lat":43.30183,"lon":5.37131,"is_reserved":false,"is_disabled":false,"rental_uris":{"android":"levelo://app?vid=b44d763b-4f92-4731-b76a-85ebcd91acd5","ios":"levelo://app?vid=b44d763b-4f92-4731-b76a-85ebcd91acd5"},"vehicle_type_id":"4","last_reported":1753902742,"current_range_meters":12400,"station_id":"","pricing_plan_id":"cebpf4jnsgd1na2vs0mg"},{"bike_id":"ae6c8428-e39e-40be-9df7-f418521aa777","system_id":"levelo_inurba_marseille","lat":43.229225,"lon":5.35376,"is_reserved":false,"is_disabled":false,"rental_uris":{"android":"levelo://app?vid=ae6c8428-e39e-40be-9df7-f418521aa777","ios":"levelo://app?vid=ae6c8428-e39e-40be-9df7-f418521aa777"},"vehicle_type_id":"4","last_reported":1753902742,"current_range_meters":12400,"station_id":"cpo3532slgdg3j2ikp40","pricing_plan_id":"cebpf4jnsgd1na2vs0mg"},{"bike_id":"92a9790d-f35f-4c7f-a461-974b54168a9d","system_id":"levelo_inurba_marseille","lat":43.29674,"lon":5.36612,"is_reserved":false,"is_disabled":false,"rental_uris":{"android":"levelo://app?vid=92a9790d-f35f-4c7f-a461-974b54168a9d","ios":"levelo://app?vid=92a9790d-f35f-4c7f-a461-974b54168a9d"},"vehicle_type_id":"4","last_reported":1753902742,"current_range_meters":12400,"station_id":"ce4bgn12rcd13ifvqbt0","pricing_plan_id":"cebpf4jnsgd1na2vs0mg"},{"bike_id":"f1ccfa9e-3c4b-4fae-8ae3-e3cbe6d863f7","system_id":"levelo_inurba_marseille","lat":43.273771,"lon":5.362566,"is_reserved":false,"is_disabled":false,"rental_uris":{"android":"levelo://app?vid=f1ccfa9e-3c4b-4fae-8ae3-e3cbe6d863f7","ios":"levelo://app?vid=f1ccfa9e-3c4b-4fae-8ae3-e3cbe6d863f7"},"vehicle_type_id":"4","last_reported":1753902742,"current_range_meters":12400,"station_id":"ce4bhbh2rcd13ifvqeo0","pricing_plan_id":"cebpf4jnsgd1na2vs0mg"},{"bike_id":"92a47607-8a71-41b8-9ce5-ed98ec6dde1a","system_id":"levelo_inurba_marseille","lat":43.29892,"lon":5.37573,"is_reserved":false,"is_disabled":false,"rental_uris":{"android":"levelo://app?vid=92a47607-8a71-41b8-9ce5-ed98ec6dde1a","ios":"levelo://app?vid=92a47607-8a71-41b8-9ce5-ed98ec6dde1a"},"vehicle_type_id":"4","last_reported":1753902742,"current_range_meters":12400,"station_id":"","pricing_plan_id":"cebpf4jnsgd1na2vs0mg"},{"bike_id":"07371f1d-8373-4562-86d5-2a5b3a0b243a","system_id":"levelo_inurba_marseille","lat":43.29584,"lon":5.37594,"is_reserved":false,"is_disabled":false,"rental_uris":{"android":"levelo://app?vid=07371f1d-8373-4562-86d5-2a5b3a0b243a","ios":"levelo://app?vid=07371f1d-8373-4562-86d5-2a5b3a0b243a"},"vehicle_type_id":"4","last_reported":1753902742,"current_range_meters":12400,"station_id":"","pricing_plan_id":"cebpf4jnsgd1na2vs0mg"},{"bike_id":"674bcb42-7426-4215-afee-c75cb0b44f85","system_id":"levelo_inurba_marseille","lat":43.21736,"lon":5.3461,"is_reserved":false,"is_disabled":false,"rental_uris":{"android":"levelo://app?vid=674bcb42-7426-4215-afee-c75cb0b44f85","ios":"levelo://app?vid=674bcb42-7426-4215-afee-c75cb0b44f85"},"vehicle_type_id":"4","last_reported":1753902742,"current_range_meters":12800,"station_id":"st_cvj6r9ubvosntc0bgbag","pricing_plan_id":"cebpf4jnsgd1na2vs0mg"},{"bike_id":"19295018-235d-4f62-9c12-0203c908e699","system_id":"levelo_inurba_marseille","lat":43.22927,"lon":5.35366,"is_reserved":false,"is_disabled":false,"rental_uris":{"android":"levelo://app?vid=19295018-235d-4f62-9c12-0203c908e699","ios":"levelo://app?vid=19295018-235d-4f62-9c12-0203c908e699"},"vehicle_type_id":"4","last_reported":1753902742,"current_range_meters":12800,"station_id":"cpo3532slgdg3j2ikp40","pricing_plan_id":"cebpf4jnsgd1na2vs0mg"},{"bike_id":"9a96198c-07c7-4b35-8a70-3f8f7bd8f1e5","system_id":"levelo_inurba_marseille","lat":43.33769,"lon":5.37479,"is_reserved":false,"is_disabled":false,"rental_uris":{"android":"levelo://app?vid=9a96198c-07c7-4b35-8a70-3f8f7bd8f1e5","ios":"levelo://app?vid=9a96198c-07c7-4b35-8a70-3f8f7bd8f1e5"},"vehicle_type_id":"4","last_reported":1753902742,"current_range_meters":12800,"station_id":"","pricing_plan_id":"cebpf4jnsgd1na2vs0mg"},{"bike_id":"f3f658f0-d0f5-42fe-9f40-7fc8cff12e61","system_id":"levelo_inurba_marseille","lat":43.29532,"lon":5.38547,"is_reserved":false,"is_disabled":false,"rental_uris":{"android":"levelo://app?vid=f3f658f0-d0f5-42fe-9f40-7fc8cff12e61","ios":"levelo://app?vid=f3f658f0-d0f5-42fe-9f40-7fc8cff12e61"},"vehicle_type_id":"4","last_reported":1753902742,"current_range_meters":12800,"station_id":"ce4bgih2rcd13ifvqba0","pricing_plan_id":"cebpf4jnsgd1na2vs0mg"},{"bike_id":"5bcc0932-58f4-42ae-859c-d56aac2c8456","system_id":"levelo_inurba_marseille","lat":43.24166,"lon":5.36367,"is_reserved":false,"is_disabled":false,"rental_uris":{"android":"levelo://app?vid=5bcc0932-58f4-42ae-859c-d56aac2c8456","ios":"levelo://app?vid=5bcc0932-58f4-42ae-859c-d56aac2c8456"},"vehicle_type_id":"4","last_reported":1753902742,"current_range_meters":12800,"station_id":"cpo36qri1sfpv3e86is0","pricing_plan_id":"cebpf4jnsgd1na2vs0mg"},{"bike_id":"5f72df66-2d68-4c6e-a917-44e1dcfede98","system_id":"levelo_inurba_marseille","lat":43.22912,"lon":5.3539,"is_reserved":false,"is_disabled":false,"rental_uris":{"android":"levelo://app?vid=5f72df66-2d68-4c6e-a917-44e1dcfede98","ios":"levelo://app?vid=5f72df66-2d68-4c6e-a917-44e1dcfede98"},"vehicle_type_id":"4","last_reported":1753902742,"current_range_meters":12800,"station_id":"cpo3532slgdg3j2ikp40","pricing_plan_id":"cebpf4jnsgd1na2vs0mg"},{"bike_id":"a00cade4-ceca-4688-8073-96bb04764297","system_id":"levelo_inurba_marseille","lat":43.29848,"lon":5.36285,"is_reserved":false,"is_disabled":false,"rental_uris":{"android":"levelo://app?vid=a00cade4-ceca-4688-8073-96bb04764297","ios":"levelo://app?vid=a00cade4-ceca-4688-8073-96bb04764297"},"vehicle_type_id":"4","last_reported":1753902742,"current_range_meters":12800,"station_id":"ce4bgpp2rcd13ifvqc3g","pricing_plan_id":"cebpf4jnsgd1na2vs0mg"},{"bike_id":"a05992f6-1f51-4dbf-8921-4ad77bab57e9","system_id":"levelo_inurba_marseille","lat":43.24164,"lon":5.36392,"is_reserved":false,"is_disabled":false,"rental_uris":{"android":"levelo://app?vid=a05992f6-1f51-4dbf-8921-4ad77bab57e9","ios":"levelo://app?vid=a05992f6-1f51-4dbf-8921-4ad77bab57e9"},"vehicle_type_id":"4","last_reported":1753902742,"current_range_meters":12800,"station_id":"cpo36qri1sfpv3e86is0","pricing_plan_id":"cebpf4jnsgd1na2vs0mg"},{"bike_id":"5c9160ef-4dfa-47d2-93ef-2b30f19b283e","system_id":"levelo_inurba_marseille","lat":43.22929,"lon":5.35379,"is_reserved":false,"is_disabled":false,"rental_uris":{"android":"levelo://app?vid=5c9160ef-4dfa-47d2-93ef-2b30f19b283e","ios":"levelo://app?vid=5c9160ef-4dfa-47d2-93ef-2b30f19b283e"},"vehicle_type_id":"4","last_reported":1753902742,"current_range_meters":12800,"station_id":"cpo3532slgdg3j2ikp40","pricing_plan_id":"cebpf4jnsgd1na2vs0mg"},{"bike_id":"39690ec3-3b5f-4089-bc8d-231435bcf61e","system_id":"levelo_inurba_marseille","lat":43.31272,"lon":5.40167,"is_reserved":false,"is_disabled":false,"rental_uris":{"android":"levelo://app?vid=39690ec3-3b5f-4089-bc8d-231435bcf61e","ios":"levelo://app?vid=39690ec3-3b5f-4089-bc8d-231435bcf61e"},"vehicle_type_id":"4","last_reported":1753902742,"current_range_meters":12800,"station_id":"ce4bh092rcd13ifvqd30","pricing_plan_id":"cebpf4jnsgd1na2vs0mg"},{"bike_id":"752fbc70-52db-4369-a475-b1232561d5fd","system_id":"levelo_inurba_marseille","lat":43.297092,"lon":5.36602,"is_reserved":false,"is_disabled":false,"rental_uris":{"android":"levelo://app?vid=752fbc70-52db-4369-a475-b1232561d5fd","ios":"levelo://app?vid=752fbc70-52db-4369-a475-b1232561d5fd"},"vehicle_type_id":"4","last_reported":1753902742,"current_range_meters":13600,"station_id":"ce4bgn12rcd13ifvqbt0","pricing_plan_id":"cebpf4jnsgd1na2vs0mg"},{"bike_id":"258208fd-626e-4fa2-a64c-19fbd71af95f","system_id":"levelo_inurba_marseille","lat":43.30104,"lon":5.39088,"is_reserved":false,"is_disabled":true,"rental_uris":{"android":"levelo://app?vid=258208fd-626e-4fa2-a64c-19fbd71af95f","ios":"levelo://app?vid=258208fd-626e-4fa2-a64c-19fbd71af95f"},"vehicle_type_id":"4","last_reported":1753902742,"current_range_meters":13600,"station_id":"ce4bh192rcd13ifvqdb0","pricing_plan_id":"cebpf4jnsgd1na2vs0mg"},{"bike_id":"97e0cc1c-fa5d-41b9-8b72-3eed848ec1f7","system_id":"levelo_inurba_marseille","lat":43.330295,"lon":5.390706,"is_reserved":false,"is_disabled":false,"rental_uris":{"android":"levelo://app?vid=97e0cc1c-fa5d-41b9-8b72-3eed848ec1f7","ios":"levelo://app?vid=97e0cc1c-fa5d-41b9-8b72-3eed848ec1f7"},"vehicle_type_id":"4","last_reported":1753902742,"current_range_meters":13600,"station_id":"ce4bhr92rcd13ifvqhrg","pricing_plan_id":"cebpf4jnsgd1na2vs0mg"},{"bike_id":"d1dd6b1d-01cc-4069-a242-75c95cf2d531","system_id":"levelo_inurba_marseille","lat":43.302362,"lon":5.395518,"is_reserved":false,"is_disabled":false,"rental_uris":{"android":"levelo://app?vid=d1dd6b1d-01cc-4069-a242-75c95cf2d531","ios":"levelo://app?vid=d1dd6b1d-01cc-4069-a242-75c95cf2d531"},"vehicle_type_id":"4","last_reported":1753902742,"current_range_meters":13600,"station_id":"ce4bh0h2rcd13ifvqd40","pricing_plan_id":"cebpf4jnsgd1na2vs0mg"},{"bike_id":"0143bc07-02f9-46ea-8811-3bf1158d74e2","system_id":"levelo_inurba_marseille","lat":43.2417,"lon":5.36406,"is_reserved":false,"is_disabled":false,"rental_uris":{"android":"levelo://app?vid=0143bc07-02f9-46ea-8811-3bf1158d74e2","ios":"levelo://app?vid=0143bc07-02f9-46ea-8811-3bf1158d74e2"},"vehicle_type_id":"4","last_reported":1753902742,"current_range_meters":13600,"station_id":"cpo36qri1sfpv3e86is0","pricing_plan_id":"cebpf4jnsgd1na2vs0mg"},{"bike_id":"2765387e-09d4-4083-997f-3e694e41fd98","system_id":"levelo_inurba_marseille","lat":43.248128,"lon":5.374589,"is_reserved":false,"is_disabled":false,"rental_uris":{"android":"levelo://app?vid=2765387e-09d4-4083-997f-3e694e41fd98","ios":"levelo://app?vid=2765387e-09d4-4083-997f-3e694e41fd98"},"vehicle_type_id":"4","last_reported":1753902742,"current_range_meters":13600,"station_id":"ce4bhgh2rcd13ifvqfb0","pricing_plan_id":"cebpf4jnsgd1na2vs0mg"},{"bike_id":"3920ee0d-941b-48d8-8ea4-e1dce6e0d9ef","system_id":"levelo_inurba_marseille","lat":43.267823,"lon":5.394191,"is_reserved":false,"is_disabled":false,"rental_uris":{"android":"levelo://app?vid=3920ee0d-941b-48d8-8ea4-e1dce6e0d9ef","ios":"levelo://app?vid=3920ee0d-941b-48d8-8ea4-e1dce6e0d9ef"},"vehicle_type_id":"4","last_reported":1753902742,"current_range_meters":13600,"station_id":"ce4bhhp2rcd13ifvqfm0","pricing_plan_id":"cebpf4jnsgd1na2vs0mg"},{"bike_id":"c7b85f8b-1e48-4928-ba05-a18a7b79e042","system_id":"levelo_inurba_marseille","lat":43.29786,"lon":5.39347,"is_reserved":false,"is_disabled":false,"rental_uris":{"android":"levelo://app?vid=c7b85f8b-1e48-4928-ba05-a18a7b79e042","ios":"levelo://app?vid=c7b85f8b-1e48-4928-ba05-a18a7b79e042"},"vehicle_type_id":"4","last_reported":1753902742,"current_range_meters":13600,"station_id":"chh1huq6cuj3fo74tm60","pricing_plan_id":"cebpf4jnsgd1na2vs0mg"},{"bike_id":"f1b26f93-f42e-49ee-977f-70660299db71","system_id":"levelo_inurba_marseille","lat":43.29591,"lon":5.36723,"is_reserved":false,"is_disabled":false,"rental_uris":{"android":"levelo://app?vid=f1b26f93-f42e-49ee-977f-70660299db71","ios":"levelo://app?vid=f1b26f93-f42e-49ee-977f-70660299db71"},"vehicle_type_id":"4","last_reported":1753902742,"current_range_meters":14000,"station_id":"ce4bgph2rcd13ifvqc2g","pricing_plan_id":"cebpf4jnsgd1na2vs0mg"},{"bike_id":"8b41fe84-a3d2-4814-a45a-0ae21419a239","system_id":"levelo_inurba_marseille","lat":43.27495,"lon":5.42463,"is_reserved":false,"is_disabled":false,"rental_uris":{"android":"levelo://app?vid=8b41fe84-a3d2-4814-a45a-0ae21419a239","ios":"levelo://app?vid=8b41fe84-a3d2-4814-a45a-0ae21419a239"},"vehicle_type_id":"4","last_reported":1753902742,"current_range_meters":14000,"station_id":"ce4bhn92rcd13ifvqgrg","pricing_plan_id":"cebpf4jnsgd1na2vs0mg"},{"bike_id":"7d256236-820a-43cf-ae09-20c40f7f0a6f","system_id":"levelo_inurba_marseille","lat":43.262099,"lon":5.374411,"is_reserved":false,"is_disabled":false,"rental_uris":{"android":"levelo://app?vid=7d256236-820a-43cf-ae09-20c40f7f0a6f","ios":"levelo://app?vid=7d256236-820a-43cf-ae09-20c40f7f0a6f"},"vehicle_type_id":"4","last_reported":1753902742,"current_range_meters":14000,"station_id":"ce4bhgp2rcd13ifvqfc0","pricing_plan_id":"cebpf4jnsgd1na2vs0mg"},{"bike_id":"c4060285-8b2b-439c-829d-a51d23cf0a71","system_id":"levelo_inurba_marseille","lat":43.25488,"lon":5.37644,"is_reserved":false,"is_disabled":false,"rental_uris":{"android":"levelo://app?vid=c4060285-8b2b-439c-829d-a51d23cf0a71","ios":"levelo://app?vid=c4060285-8b2b-439c-829d-a51d23cf0a71"},"vehicle_type_id":"4","last_reported":1753902742,"current_range_meters":14000,"station_id":"ce4bhh12rcd13ifvqff0","pricing_plan_id":"cebpf4jnsgd1na2vs0mg"},{"bike_id":"f9823272-5996-45e6-bb53-a2200c0a4de9","system_id":"levelo_inurba_marseille","lat":43.31072,"lon":5.3835,"is_reserved":false,"is_disabled":false,"rental_uris":{"android":"levelo://app?vid=f9823272-5996-45e6-bb53-a2200c0a4de9","ios":"levelo://app?vid=f9823272-5996-45e6-bb53-a2200c0a4de9"},"vehicle_type_id":"4","last_reported":1753902742,"current_range_meters":14000,"station_id":"ce4bgv92rcd13ifvqcr0","pricing_plan_id":"cebpf4jnsgd1na2vs0mg"},{"bike_id":"0779b31b-e825-4a51-bd94-9e6a40171aff","system_id":"levelo_inurba_marseille","lat":43.26191,"lon":5.37447,"is_reserved":false,"is_disabled":false,"rental_uris":{"android":"levelo://app?vid=0779b31b-e825-4a51-bd94-9e6a40171aff","ios":"levelo://app?vid=0779b31b-e825-4a51-bd94-9e6a40171aff"},"vehicle_type_id":"4","last_reported":1753902742,"current_range_meters":14000,"station_id":"ce4bhgp2rcd13ifvqfc0","pricing_plan_id":"cebpf4jnsgd1na2vs0mg"},{"bike_id":"9cd45665-dde8-4206-abda-65ebee462945","system_id":"levelo_inurba_marseille","lat":43.3088,"lon":5.37186,"is_reserved":false,"is_disabled":false,"rental_uris":{"android":"levelo://app?vid=9cd45665-dde8-4206-abda-65ebee462945","ios":"levelo://app?vid=9cd45665-dde8-4206-abda-65ebee462945"},"vehicle_type_id":"4","last_reported":1753902742,"current_range_meters":14000,"station_id":"ce4bguh2rcd13ifvqckg","pricing_plan_id":"cebpf4jnsgd1na2vs0mg"},{"bike_id":"1a0ca16f-4b93-4052-acd5-440501907ad3","system_id":"levelo_inurba_marseille","lat":43.23203,"lon":5.3555,"is_reserved":false,"is_disabled":false,"rental_uris":{"android":"levelo://app?vid=1a0ca16f-4b93-4052-acd5-440501907ad3","ios":"levelo://app?vid=1a0ca16f-4b93-4052-acd5-440501907ad3"},"vehicle_type_id":"4","last_reported":1753902742,"current_range_meters":14000,"station_id":"ce4bhu92rcd13ifvqi70","pricing_plan_id":"cebpf4jnsgd1na2vs0mg"},{"bike_id":"db83eb00-126a-4166-ae8b-1579738c041a","system_id":"levelo_inurba_marseille","lat":43.280369,"lon":5.36944,"is_reserved":false,"is_disabled":false,"rental_uris":{"android":"levelo://app?vid=db83eb00-126a-4166-ae8b-1579738c041a","ios":"levelo://app?vid=db83eb00-126a-4166-ae8b-1579738c041a"},"vehicle_type_id":"4","last_reported":1753902742,"current_range_meters":14000,"station_id":"ce4bha12rcd13ifvqef0","pricing_plan_id":"cebpf4jnsgd1na2vs0mg"},{"bike_id":"daabd21d-fe72-4bef-9caa-c5886e1b6fe4","system_id":"levelo_inurba_marseille","lat":43.316595,"lon":5.372789,"is_reserved":false,"is_disabled":false,"rental_uris":{"android":"levelo://app?vid=daabd21d-fe72-4bef-9caa-c5886e1b6fe4","ios":"levelo://app?vid=daabd21d-fe72-4bef-9caa-c5886e1b6fe4"},"vehicle_type_id":"4","last_reported":1753902742,"current_range_meters":14000,"station_id":"","pricing_plan_id":"cebpf4jnsgd1na2vs0mg"},{"bike_id":"92d1b695-1582-4bc5-8902-512e73b8e6b0","system_id":"levelo_inurba_marseille","lat":43.23015,"lon":5.35528,"is_reserved":false,"is_disabled":false,"rental_uris":{"android":"levelo://app?vid=92d1b695-1582-4bc5-8902-512e73b8e6b0","ios":"levelo://app?vid=92d1b695-1582-4bc5-8902-512e73b8e6b0"},"vehicle_type_id":"4","last_reported":1753902742,"current_range_meters":14000,"station_id":"","pricing_plan_id":"cebpf4jnsgd1na2vs0mg"},{"bike_id":"807ee3ac-ec42-44be-a33b-e36724ceb7c0","system_id":"levelo_inurba_marseille","lat":43.308,"lon":5.38164,"is_reserved":false,"is_disabled":true,"rental_uris":{"android":"levelo://app?vid=807ee3ac-ec42-44be-a33b-e36724ceb7c0","ios":"levelo://app?vid=807ee3ac-ec42-44be-a33b-e36724ceb7c0"},"vehicle_type_id":"4","last_reported":1753902742,"current_range_meters":14000,"station_id":"ce4bgt12rcd13ifvqce0","pricing_plan_id":"cebpf4jnsgd1na2vs0mg"},{"bike_id":"5b278dd2-034d-43e6-a786-1e15ef04e54d","system_id":"levelo_inurba_marseille","lat":43.28933,"lon":5.36632,"is_reserved":false,"is_disabled":false,"rental_uris":{"android":"levelo://app?vid=5b278dd2-034d-43e6-a786-1e15ef04e54d","ios":"levelo://app?vid=5b278dd2-034d-43e6-a786-1e15ef04e54d"},"vehicle_type_id":"4","last_reported":1753902742,"current_range_meters":14000,"station_id":"ce4bhap2rcd13ifvqek0","pricing_plan_id":"cebpf4jnsgd1na2vs0mg"},{"bike_id":"cf9da824-abcc-4f35-ae06-3f7d02930103","system_id":"levelo_inurba_marseille","lat":43.296054,"lon":5.369603,"is_reserved":false,"is_disabled":false,"rental_uris":{"android":"levelo://app?vid=cf9da824-abcc-4f35-ae06-3f7d02930103","ios":"levelo://app?vid=cf9da824-abcc-4f35-ae06-3f7d02930103"},"vehicle_type_id":"4","last_reported":1753902742,"current_range_meters":14400,"station_id":"ce4bgph2rcd13ifvqc2g","pricing_plan_id":"cebpf4jnsgd1na2vs0mg"},{"bike_id":"9e8d1ac0-4ba8-455f-8105-12cd292e4f18","system_id":"levelo_inurba_marseille","lat":43.29303,"lon":5.37164,"is_reserved":false,"is_disabled":false,"rental_uris":{"android":"levelo://app?vid=9e8d1ac0-4ba8-455f-8105-12cd292e4f18","ios":"levelo://app?vid=9e8d1ac0-4ba8-455f-8105-12cd292e4f18"},"vehicle_type_id":"4","last_reported":1753902742,"current_range_meters":14400,"station_id":"ce4bgh92rcd13ifvqb40","pricing_plan_id":"cebpf4jnsgd1na2vs0mg"},{"bike_id":"f7fbdfea-3538-43ae-a4e5-e83c212349eb","system_id":"levelo_inurba_marseille","lat":43.24069,"lon":5.37765,"is_reserved":false,"is_disabled":false,"rental_uris":{"android":"levelo://app?vid=f7fbdfea-3538-43ae-a4e5-e83c212349eb","ios":"levelo://app?vid=f7fbdfea-3538-43ae-a4e5-e83c212349eb"},"vehicle_type_id":"4","last_reported":1753902742,"current_range_meters":14400,"station_id":"ce4bhnp2rcd13ifvqgvg","pricing_plan_id":"cebpf4jnsgd1na2vs0mg"},{"bike_id":"d1ecc77d-626f-40f5-b975-e8acaa000fea","system_id":"levelo_inurba_marseille","lat":43.25496,"lon":5.37645,"is_reserved":false,"is_disabled":false,"rental_uris":{"android":"levelo://app?vid=d1ecc77d-626f-40f5-b975-e8acaa000fea","ios":"levelo://app?vid=d1ecc77d-626f-40f5-b975-e8acaa000fea"},"vehicle_type_id":"4","last_reported":1753902742,"current_range_meters":14400,"station_id":"ce4bhh12rcd13ifvqff0","pricing_plan_id":"cebpf4jnsgd1na2vs0mg"},{"bike_id":"abf27f6a-1e72-4cb4-a177-28c26e9774ba","system_id":"levelo_inurba_marseille","lat":43.29439,"lon":5.39742,"is_reserved":false,"is_disabled":false,"rental_uris":{"android":"levelo://app?vid=abf27f6a-1e72-4cb4-a177-28c26e9774ba","ios":"levelo://app?vid=abf27f6a-1e72-4cb4-a177-28c26e9774ba"},"vehicle_type_id":"4","last_reported":1753902742,"current_range_meters":14000,"station_id":"ce4bh3h2rcd13ifvqdo0","pricing_plan_id":"cebpf4jnsgd1na2vs0mg"},{"bike_id":"3f8bb2f1-5b95-4cb2-9155-9263547cd32c","system_id":"levelo_inurba_marseille","lat":43.31252,"lon":5.36868,"is_reserved":false,"is_disabled":false,"rental_uris":{"android":"levelo://app?vid=3f8bb2f1-5b95-4cb2-9155-9263547cd32c","ios":"levelo://app?vid=3f8bb2f1-5b95-4cb2-9155-9263547cd32c"},"vehicle_type_id":"4","last_reported":1753902742,"current_range_meters":14400,"station_id":"ce4bgl92rcd13ifvqbq0","pricing_plan_id":"cebpf4jnsgd1na2vs0mg"},{"bike_id":"d6e73d77-7eaf-429e-8e60-c6d22d59faca","system_id":"levelo_inurba_marseille","lat":43.27882,"lon":5.3802,"is_reserved":false,"is_disabled":false,"rental_uris":{"android":"levelo://app?vid=d6e73d77-7eaf-429e-8e60-c6d22d59faca","ios":"levelo://app?vid=d6e73d77-7eaf-429e-8e60-c6d22d59faca"},"vehicle_type_id":"4","last_reported":1753902742,"current_range_meters":14400,"station_id":"ce4bhf92rcd13ifvqf50","pricing_plan_id":"cebpf4jnsgd1na2vs0mg"},{"bike_id":"b9f8dac2-af78-4506-8afa-6ed5f8d8ad07","system_id":"levelo_inurba_marseille","lat":43.297974,"lon":5.381136,"is_reserved":false,"is_disabled":false,"rental_uris":{"android":"levelo://app?vid=b9f8dac2-af78-4506-8afa-6ed5f8d8ad07","ios":"levelo://app?vid=b9f8dac2-af78-4506-8afa-6ed5f8d8ad07"},"vehicle_type_id":"4","last_reported":1753902742,"current_range_meters":14400,"station_id":"ce4bgip2rcd13ifvqbb0","pricing_plan_id":"cebpf4jnsgd1na2vs0mg"},{"bike_id":"2e1bdbd1-042c-4bf4-b623-908b6301c20d","system_id":"levelo_inurba_marseille","lat":43.28135,"lon":5.44213,"is_reserved":false,"is_disabled":false,"rental_uris":{"android":"levelo://app?vid=2e1bdbd1-042c-4bf4-b623-908b6301c20d","ios":"levelo://app?vid=2e1bdbd1-042c-4bf4-b623-908b6301c20d"},"vehicle_type_id":"4","last_reported":1753902742,"current_range_meters":14400,"station_id":"","pricing_plan_id":"cebpf4jnsgd1na2vs0mg"},{"bike_id":"250442d3-3b53-407f-9ac8-941082593a3d","system_id":"levelo_inurba_marseille","lat":43.28702,"lon":5.37388,"is_reserved":false,"is_disabled":false,"rental_uris":{"android":"levelo://app?vid=250442d3-3b53-407f-9ac8-941082593a3d","ios":"levelo://app?vid=250442d3-3b53-407f-9ac8-941082593a3d"},"vehicle_type_id":"4","last_reported":1753902742,"current_range_meters":14400,"station_id":"ce4bh3p2rcd13ifvqdq0","pricing_plan_id":"cebpf4jnsgd1na2vs0mg"},{"bike_id":"0364247d-dbdc-4bc5-b9aa-595e6f511c1e","system_id":"levelo_inurba_marseille","lat":43.301483,"lon":5.370015,"is_reserved":false,"is_disabled":false,"rental_uris":{"android":"levelo://app?vid=0364247d-dbdc-4bc5-b9aa-595e6f511c1e","ios":"levelo://app?vid=0364247d-dbdc-4bc5-b9aa-595e6f511c1e"},"vehicle_type_id":"4","last_reported":1753902742,"current_range_meters":14400,"station_id":"","pricing_plan_id":"cebpf4jnsgd1na2vs0mg"},{"bike_id":"4be81ee8-649a-4128-9c0a-0eb0501b42bf","system_id":"levelo_inurba_marseille","lat":43.31284,"lon":5.40172,"is_reserved":false,"is_disabled":false,"rental_uris":{"android":"levelo://app?vid=4be81ee8-649a-4128-9c0a-0eb0501b42bf","ios":"levelo://app?vid=4be81ee8-649a-4128-9c0a-0eb0501b42bf"},"vehicle_type_id":"4","last_reported":1753902742,"current_range_meters":14400,"station_id":"ce4bh092rcd13ifvqd30","pricing_plan_id":"cebpf4jnsgd1na2vs0mg"},{"bike_id":"b89ad748-f7c1-4685-8c85-3009b186b7d0","system_id":"levelo_inurba_marseille","lat":43.24816,"lon":5.37464,"is_reserved":false,"is_disabled":false,"rental_uris":{"android":"levelo://app?vid=b89ad748-f7c1-4685-8c85-3009b186b7d0","ios":"levelo://app?vid=b89ad748-f7c1-4685-8c85-3009b186b7d0"},"vehicle_type_id":"4","last_reported":1753902742,"current_range_meters":14400,"station_id":"ce4bhgh2rcd13ifvqfb0","pricing_plan_id":"cebpf4jnsgd1na2vs0mg"},{"bike_id":"42def24e-0a17-4aab-b576-3fa28034a480","system_id":"levelo_inurba_marseille","lat":43.28607,"lon":5.3509,"is_reserved":false,"is_disabled":false,"rental_uris":{"android":"levelo://app?vid=42def24e-0a17-4aab-b576-3fa28034a480","ios":"levelo://app?vid=42def24e-0a17-4aab-b576-3fa28034a480"},"vehicle_type_id":"4","last_reported":1753902742,"current_range_meters":14400,"station_id":"ce4bhch2rcd13ifvqeug","pricing_plan_id":"cebpf4jnsgd1na2vs0mg"},{"bike_id":"b8ef02da-6e9a-4fd1-8b9f-3cb7399a8f2f","system_id":"levelo_inurba_marseille","lat":43.26212,"lon":5.3744,"is_reserved":false,"is_disabled":false,"rental_uris":{"android":"levelo://app?vid=b8ef02da-6e9a-4fd1-8b9f-3cb7399a8f2f","ios":"levelo://app?vid=b8ef02da-6e9a-4fd1-8b9f-3cb7399a8f2f"},"vehicle_type_id":"4","last_reported":1753902742,"current_range_meters":14400,"station_id":"ce4bhgp2rcd13ifvqfc0","pricing_plan_id":"cebpf4jnsgd1na2vs0mg"},{"bike_id":"96212761-df84-4222-9c58-df86d033536b","system_id":"levelo_inurba_marseille","lat":43.25044,"lon":5.40373,"is_reserved":false,"is_disabled":false,"rental_uris":{"android":"levelo://app?vid=96212761-df84-4222-9c58-df86d033536b","ios":"levelo://app?vid=96212761-df84-4222-9c58-df86d033536b"},"vehicle_type_id":"4","last_reported":1753902742,"current_range_meters":14800,"station_id":"","pricing_plan_id":"cebpf4jnsgd1na2vs0mg"},{"bike_id":"6590494b-43e7-43e0-b312-c754fd5ea433","system_id":"levelo_inurba_marseille","lat":43.29018,"lon":5.43012,"is_reserved":false,"is_disabled":false,"rental_uris":{"android":"levelo://app?vid=6590494b-43e7-43e0-b312-c754fd5ea433","ios":"levelo://app?vid=6590494b-43e7-43e0-b312-c754fd5ea433"},"vehicle_type_id":"4","last_reported":1753902742,"current_range_meters":14800,"station_id":"","pricing_plan_id":"cebpf4jnsgd1na2vs0mg"},{"bike_id":"0d6a7874-c1a0-4a9f-a797-d1cb341b0d6a","system_id":"levelo_inurba_marseille","lat":43.295551,"lon":5.422932,"is_reserved":false,"is_disabled":false,"rental_uris":{"android":"levelo://app?vid=0d6a7874-c1a0-4a9f-a797-d1cb341b0d6a","ios":"levelo://app?vid=0d6a7874-c1a0-4a9f-a797-d1cb341b0d6a"},"vehicle_type_id":"4","last_reported":1753902742,"current_range_meters":14800,"station_id":"ce4bhph2rcd13ifvqhdg","pricing_plan_id":"cebpf4jnsgd1na2vs0mg"},{"bike_id":"8e5f9ba6-64de-40f9-81af-b4e850bc7b46","system_id":"levelo_inurba_marseille","lat":43.30603,"lon":5.3723,"is_reserved":false,"is_disabled":false,"rental_uris":{"android":"levelo://app?vid=8e5f9ba6-64de-40f9-81af-b4e850bc7b46","ios":"levelo://app?vid=8e5f9ba6-64de-40f9-81af-b4e850bc7b46"},"vehicle_type_id":"4","last_reported":1753902742,"current_range_meters":14400,"station_id":"ce4bgqh2rcd13ifvqc4g","pricing_plan_id":"cebpf4jnsgd1na2vs0mg"},{"bike_id":"cc2d53fc-c922-49ed-97e9-016be6fd2318","system_id":"levelo_inurba_marseille","lat":43.25501,"lon":5.37648,"is_reserved":false,"is_disabled":false,"rental_uris":{"android":"levelo://app?vid=cc2d53fc-c922-49ed-97e9-016be6fd2318","ios":"levelo://app?vid=cc2d53fc-c922-49ed-97e9-016be6fd2318"},"vehicle_type_id":"4","last_reported":1753902742,"current_range_meters":14800,"station_id":"ce4bhh12rcd13ifvqff0","pricing_plan_id":"cebpf4jnsgd1na2vs0mg"},{"bike_id":"2c4400c7-2bd6-4d8f-805d-b1037b3fe518","system_id":"levelo_inurba_marseille","lat":43.22517,"lon":5.34778,"is_reserved":false,"is_disabled":false,"rental_uris":{"android":"levelo://app?vid=2c4400c7-2bd6-4d8f-805d-b1037b3fe518","ios":"levelo://app?vid=2c4400c7-2bd6-4d8f-805d-b1037b3fe518"},"vehicle_type_id":"4","last_reported":1753902742,"current_range_meters":15200,"station_id":"st_cvj5dfep6f1abm77gieg","pricing_plan_id":"cebpf4jnsgd1na2vs0mg"},{"bike_id":"36c11242-6e7f-4d89-97be-c2933f4606a5","system_id":"levelo_inurba_marseille","lat":43.262072,"lon":5.374468,"is_reserved":false,"is_disabled":false,"rental_uris":{"android":"levelo://app?vid=36c11242-6e7f-4d89-97be-c2933f4606a5","ios":"levelo://app?vid=36c11242-6e7f-4d89-97be-c2933f4606a5"},"vehicle_type_id":"4","last_reported":1753902742,"current_range_meters":15200,"station_id":"ce4bhgp2rcd13ifvqfc0","pricing_plan_id":"cebpf4jnsgd1na2vs0mg"},{"bike_id":"d31263e7-4cae-4291-a444-fb1afe4fd71b","system_id":"levelo_inurba_marseille","lat":43.22505,"lon":5.34774,"is_reserved":false,"is_disabled":false,"rental_uris":{"android":"levelo://app?vid=d31263e7-4cae-4291-a444-fb1afe4fd71b","ios":"levelo://app?vid=d31263e7-4cae-4291-a444-fb1afe4fd71b"},"vehicle_type_id":"4","last_reported":1753902742,"current_range_meters":15200,"station_id":"","pricing_plan_id":"cebpf4jnsgd1na2vs0mg"},{"bike_id":"de51aa0b-260c-4c1e-8b5a-1392239894a3","system_id":"levelo_inurba_marseille","lat":43.24088,"lon":5.37752,"is_reserved":false,"is_disabled":false,"rental_uris":{"android":"levelo://app?vid=de51aa0b-260c-4c1e-8b5a-1392239894a3","ios":"levelo://app?vid=de51aa0b-260c-4c1e-8b5a-1392239894a3"},"vehicle_type_id":"4","last_reported":1753902742,"current_range_meters":15200,"station_id":"ce4bhnp2rcd13ifvqgvg","pricing_plan_id":"cebpf4jnsgd1na2vs0mg"},{"bike_id":"8ebf52df-ee0b-4a58-a3a6-6f74e1a260ef","system_id":"levelo_inurba_marseille","lat":43.26028,"lon":5.37537,"is_reserved":false,"is_disabled":false,"rental_uris":{"android":"levelo://app?vid=8ebf52df-ee0b-4a58-a3a6-6f74e1a260ef","ios":"levelo://app?vid=8ebf52df-ee0b-4a58-a3a6-6f74e1a260ef"},"vehicle_type_id":"4","last_reported":1753902742,"current_range_meters":16000,"station_id":"ce4bhgh2rcd13ifvqfa0","pricing_plan_id":"cebpf4jnsgd1na2vs0mg"},{"bike_id":"30d425b9-6532-4584-ae56-a015f4c9f632","system_id":"levelo_inurba_marseille","lat":43.29204,"lon":5.36059,"is_reserved":false,"is_disabled":false,"rental_uris":{"android":"levelo://app?vid=30d425b9-6532-4584-ae56-a015f4c9f632","ios":"levelo://app?vid=30d425b9-6532-4584-ae56-a015f4c9f632"},"vehicle_type_id":"4","last_reported":1753902742,"current_range_meters":16000,"station_id":"ce4bhbh2rcd13ifvqeqg","pricing_plan_id":"cebpf4jnsgd1na2vs0mg"},{"bike_id":"99f600f0-e052-4706-a1d6-b8d652ece3b4","system_id":"levelo_inurba_marseille","lat":43.2417,"lon":5.39717,"is_reserved":false,"is_disabled":false,"rental_uris":{"android":"levelo://app?vid=99f600f0-e052-4706-a1d6-b8d652ece3b4","ios":"levelo://app?vid=99f600f0-e052-4706-a1d6-b8d652ece3b4"},"vehicle_type_id":"4","last_reported":1753902742,"current_range_meters":16000,"station_id":"ce4bhn12rcd13ifvqgpg","pricing_plan_id":"cebpf4jnsgd1na2vs0mg"},{"bike_id":"05899e99-fef8-448a-83e6-2b3ee2967619","system_id":"levelo_inurba_marseille","lat":43.30957,"lon":5.39056,"is_reserved":false,"is_disabled":false,"rental_uris":{"android":"levelo://app?vid=05899e99-fef8-448a-83e6-2b3ee2967619","ios":"levelo://app?vid=05899e99-fef8-448a-83e6-2b3ee2967619"},"vehicle_type_id":"4","last_reported":1753902742,"current_range_meters":16000,"station_id":"ce4bgup2rcd13ifvqco0","pricing_plan_id":"cebpf4jnsgd1na2vs0mg"},{"bike_id":"8a83b29e-fa2d-4dd9-9787-d8d4fe384c2b","system_id":"levelo_inurba_marseille","lat":43.273657,"lon":5.362536,"is_reserved":false,"is_disabled":false,"rental_uris":{"android":"levelo://app?vid=8a83b29e-fa2d-4dd9-9787-d8d4fe384c2b","ios":"levelo://app?vid=8a83b29e-fa2d-4dd9-9787-d8d4fe384c2b"},"vehicle_type_id":"4","last_reported":1753902742,"current_range_meters":16000,"station_id":"ce4bhbh2rcd13ifvqeo0","pricing_plan_id":"cebpf4jnsgd1na2vs0mg"},{"bike_id":"b812e6b6-cfc4-4dbf-8b73-f93c0560ccad","system_id":"levelo_inurba_marseille","lat":43.2749,"lon":5.42452,"is_reserved":false,"is_disabled":false,"rental_uris":{"android":"levelo://app?vid=b812e6b6-cfc4-4dbf-8b73-f93c0560ccad","ios":"levelo://app?vid=b812e6b6-cfc4-4dbf-8b73-f93c0560ccad"},"vehicle_type_id":"4","last_reported":1753902742,"current_range_meters":16000,"station_id":"ce4bhn92rcd13ifvqgrg","pricing_plan_id":"cebpf4jnsgd1na2vs0mg"},{"bike_id":"52aa1d0d-4466-44b5-a116-ec1102c8f422","system_id":"levelo_inurba_marseille","lat":43.32877,"lon":5.36065,"is_reserved":false,"is_disabled":false,"rental_uris":{"android":"levelo://app?vid=52aa1d0d-4466-44b5-a116-ec1102c8f422","ios":"levelo://app?vid=52aa1d0d-4466-44b5-a116-ec1102c8f422"},"vehicle_type_id":"4","last_reported":1753902742,"current_range_meters":16000,"station_id":"","pricing_plan_id":"cebpf4jnsgd1na2vs0mg"},{"bike_id":"46277739-d2e4-4f03-abc5-c33cfa302241","system_id":"levelo_inurba_marseille","lat":43.27072,"lon":5.42273,"is_reserved":false,"is_disabled":false,"rental_uris":{"android":"levelo://app?vid=46277739-d2e4-4f03-abc5-c33cfa302241","ios":"levelo://app?vid=46277739-d2e4-4f03-abc5-c33cfa302241"},"vehicle_type_id":"4","last_reported":1753902742,"current_range_meters":16400,"station_id":"ce4bhk92rcd13ifvqgb0","pricing_plan_id":"cebpf4jnsgd1na2vs0mg"},{"bike_id":"d52809ef-7897-4c5f-9ceb-31038b5b2ca4","system_id":"levelo_inurba_marseille","lat":43.29625,"lon":5.37715,"is_reserved":false,"is_disabled":false,"rental_uris":{"android":"levelo://app?vid=d52809ef-7897-4c5f-9ceb-31038b5b2ca4","ios":"levelo://app?vid=d52809ef-7897-4c5f-9ceb-31038b5b2ca4"},"vehicle_type_id":"4","last_reported":1753902742,"current_range_meters":16400,"station_id":"ce4bgi92rcd13ifvqb90","pricing_plan_id":"cebpf4jnsgd1na2vs0mg"},{"bike_id":"52f7b4c2-8901-468d-9f94-1fb2ed5db5c4","system_id":"levelo_inurba_marseille","lat":43.28712,"lon":5.3738,"is_reserved":false,"is_disabled":false,"rental_uris":{"android":"levelo://app?vid=52f7b4c2-8901-468d-9f94-1fb2ed5db5c4","ios":"levelo://app?vid=52f7b4c2-8901-468d-9f94-1fb2ed5db5c4"},"vehicle_type_id":"4","last_reported":1753902742,"current_range_meters":16400,"station_id":"ce4bh3p2rcd13ifvqdq0","pricing_plan_id":"cebpf4jnsgd1na2vs0mg"},{"bike_id":"1b702b90-5296-4280-be3b-f50f35ba3955","system_id":"levelo_inurba_marseille","lat":43.29846,"lon":5.36277,"is_reserved":false,"is_disabled":false,"rental_uris":{"android":"levelo://app?vid=1b702b90-5296-4280-be3b-f50f35ba3955","ios":"levelo://app?vid=1b702b90-5296-4280-be3b-f50f35ba3955"},"vehicle_type_id":"4","last_reported":1753902742,"current_range_meters":16400,"station_id":"ce4bgpp2rcd13ifvqc3g","pricing_plan_id":"cebpf4jnsgd1na2vs0mg"},{"bike_id":"403ffdf7-512e-47ad-93cd-5181c8d8e15f","system_id":"levelo_inurba_marseille","lat":43.25719,"lon":5.41116,"is_reserved":false,"is_disabled":false,"rental_uris":{"android":"levelo://app?vid=403ffdf7-512e-47ad-93cd-5181c8d8e15f","ios":"levelo://app?vid=403ffdf7-512e-47ad-93cd-5181c8d8e15f"},"vehicle_type_id":"4","last_reported":1753902742,"current_range_meters":16400,"station_id":"ce4bhkp2rcd13ifvqgd0","pricing_plan_id":"cebpf4jnsgd1na2vs0mg"},{"bike_id":"bc4f1342-a6a6-4449-8d0e-adfa22481242","system_id":"levelo_inurba_marseille","lat":43.29581,"lon":5.3671,"is_reserved":false,"is_disabled":false,"rental_uris":{"android":"levelo://app?vid=bc4f1342-a6a6-4449-8d0e-adfa22481242","ios":"levelo://app?vid=bc4f1342-a6a6-4449-8d0e-adfa22481242"},"vehicle_type_id":"4","last_reported":1753902742,"current_range_meters":16000,"station_id":"ce4bgph2rcd13ifvqc2g","pricing_plan_id":"cebpf4jnsgd1na2vs0mg"},{"bike_id":"4af57086-4529-4c8b-b65a-7dca0ff32add","system_id":"levelo_inurba_marseille","lat":43.29268,"lon":5.38448,"is_reserved":false,"is_disabled":false,"rental_uris":{"android":"levelo://app?vid=4af57086-4529-4c8b-b65a-7dca0ff32add","ios":"levelo://app?vid=4af57086-4529-4c8b-b65a-7dca0ff32add"},"vehicle_type_id":"4","last_reported":1753902742,"current_range_meters":16400,"station_id":"ce4bh692rcd13ifvqea0","pricing_plan_id":"cebpf4jnsgd1na2vs0mg"},{"bike_id":"3ecccbf5-c797-45df-95f3-47e3b24c14d9","system_id":"levelo_inurba_marseille","lat":43.29585,"lon":5.36767,"is_reserved":false,"is_disabled":false,"rental_uris":{"android":"levelo://app?vid=3ecccbf5-c797-45df-95f3-47e3b24c14d9","ios":"levelo://app?vid=3ecccbf5-c797-45df-95f3-47e3b24c14d9"},"vehicle_type_id":"4","last_reported":1753902742,"current_range_meters":16400,"station_id":"ce4bgph2rcd13ifvqc2g","pricing_plan_id":"cebpf4jnsgd1na2vs0mg"},{"bike_id":"668e5bdf-b0c3-4a4e-a1d9-0bfd8c37e7ea","system_id":"levelo_inurba_marseille","lat":43.262085,"lon":5.37444,"is_reserved":false,"is_disabled":false,"rental_uris":{"android":"levelo://app?vid=668e5bdf-b0c3-4a4e-a1d9-0bfd8c37e7ea","ios":"levelo://app?vid=668e5bdf-b0c3-4a4e-a1d9-0bfd8c37e7ea"},"vehicle_type_id":"4","last_reported":1753902742,"current_range_meters":16400,"station_id":"ce4bhgp2rcd13ifvqfc0","pricing_plan_id":"cebpf4jnsgd1na2vs0mg"},{"bike_id":"1babe15b-5a65-4956-9965-61d8705f255a","system_id":"levelo_inurba_marseille","lat":43.24165,"lon":5.36409,"is_reserved":false,"is_disabled":false,"rental_uris":{"android":"levelo://app?vid=1babe15b-5a65-4956-9965-61d8705f255a","ios":"levelo://app?vid=1babe15b-5a65-4956-9965-61d8705f255a"},"vehicle_type_id":"4","last_reported":1753902742,"current_range_meters":16400,"station_id":"cpo36qri1sfpv3e86is0","pricing_plan_id":"cebpf4jnsgd1na2vs0mg"},{"bike_id":"b2a2192b-df8c-4d45-b1a5-16b0ee0a0e47","system_id":"levelo_inurba_marseille","lat":43.28036,"lon":5.36943,"is_reserved":false,"is_disabled":false,"rental_uris":{"android":"levelo://app?vid=b2a2192b-df8c-4d45-b1a5-16b0ee0a0e47","ios":"levelo://app?vid=b2a2192b-df8c-4d45-b1a5-16b0ee0a0e47"},"vehicle_type_id":"4","last_reported":1753902742,"current_range_meters":16400,"station_id":"ce4bha12rcd13ifvqef0","pricing_plan_id":"cebpf4jnsgd1na2vs0mg"},{"bike_id":"26f3e927-35d7-4909-a148-f234815b6580","system_id":"levelo_inurba_marseille","lat":43.29581,"lon":5.36741,"is_reserved":false,"is_disabled":false,"rental_uris":{"android":"levelo://app?vid=26f3e927-35d7-4909-a148-f234815b6580","ios":"levelo://app?vid=26f3e927-35d7-4909-a148-f234815b6580"},"vehicle_type_id":"4","last_reported":1753902742,"current_range_meters":16400,"station_id":"ce4bgph2rcd13ifvqc2g","pricing_plan_id":"cebpf4jnsgd1na2vs0mg"},{"bike_id":"0ef53ecc-e8fc-4eb4-86bb-0c31e31162fa","system_id":"levelo_inurba_marseille","lat":43.29776,"lon":5.3934,"is_reserved":false,"is_disabled":false,"rental_uris":{"android":"levelo://app?vid=0ef53ecc-e8fc-4eb4-86bb-0c31e31162fa","ios":"levelo://app?vid=0ef53ecc-e8fc-4eb4-86bb-0c31e31162fa"},"vehicle_type_id":"4","last_reported":1753902742,"current_range_meters":16400,"station_id":"chh1huq6cuj3fo74tm60","pricing_plan_id":"cebpf4jnsgd1na2vs0mg"},{"bike_id":"f605ff71-c624-4936-a518-95ee9acc86fd","system_id":"levelo_inurba_marseille","lat":43.22561,"lon":5.3476,"is_reserved":false,"is_disabled":false,"rental_uris":{"android":"levelo://app?vid=f605ff71-c624-4936-a518-95ee9acc86fd","ios":"levelo://app?vid=f605ff71-c624-4936-a518-95ee9acc86fd"},"vehicle_type_id":"4","last_reported":1753902742,"current_range_meters":16800,"station_id":"st_cvj5dfep6f1abm77gieg","pricing_plan_id":"cebpf4jnsgd1na2vs0mg"},{"bike_id":"9f5fba08-5d1a-4a60-9f27-a4f6e760f703","system_id":"levelo_inurba_marseille","lat":43.32314,"lon":5.36715,"is_reserved":false,"is_disabled":false,"rental_uris":{"android":"levelo://app?vid=9f5fba08-5d1a-4a60-9f27-a4f6e760f703","ios":"levelo://app?vid=9f5fba08-5d1a-4a60-9f27-a4f6e760f703"},"vehicle_type_id":"4","last_reported":1753902742,"current_range_meters":16800,"station_id":"ce4bhsh2rcd13ifvqi2g","pricing_plan_id":"cebpf4jnsgd1na2vs0mg"},{"bike_id":"673e813a-65a6-4c05-a172-1a9991116870","system_id":"levelo_inurba_marseille","lat":43.28111,"lon":5.37861,"is_reserved":false,"is_disabled":false,"rental_uris":{"android":"levelo://app?vid=673e813a-65a6-4c05-a172-1a9991116870","ios":"levelo://app?vid=673e813a-65a6-4c05-a172-1a9991116870"},"vehicle_type_id":"4","last_reported":1753902742,"current_range_meters":16800,"station_id":"ce4bha12rcd13ifvqee0","pricing_plan_id":"cebpf4jnsgd1na2vs0mg"},{"bike_id":"3cecb3be-9781-41f4-9ab1-14f8e6202c32","system_id":"levelo_inurba_marseille","lat":43.22502,"lon":5.34795,"is_reserved":false,"is_disabled":false,"rental_uris":{"android":"levelo://app?vid=3cecb3be-9781-41f4-9ab1-14f8e6202c32","ios":"levelo://app?vid=3cecb3be-9781-41f4-9ab1-14f8e6202c32"},"vehicle_type_id":"4","last_reported":1753902742,"current_range_meters":16800,"station_id":"st_cvj5dfep6f1abm77gieg","pricing_plan_id":"cebpf4jnsgd1na2vs0mg"},{"bike_id":"2093a2b7-8bbc-4356-896c-88cd021ab676","system_id":"levelo_inurba_marseille","lat":43.28611,"lon":5.35104,"is_reserved":false,"is_disabled":false,"rental_uris":{"android":"levelo://app?vid=2093a2b7-8bbc-4356-896c-88cd021ab676","ios":"levelo://app?vid=2093a2b7-8bbc-4356-896c-88cd021ab676"},"vehicle_type_id":"4","last_reported":1753902742,"current_range_meters":16800,"station_id":"ce4bhch2rcd13ifvqeug","pricing_plan_id":"cebpf4jnsgd1na2vs0mg"},{"bike_id":"14fd7157-0914-44b6-a1e0-c64c36f65b93","system_id":"levelo_inurba_marseille","lat":43.24171,"lon":5.36378,"is_reserved":false,"is_disabled":false,"rental_uris":{"android":"levelo://app?vid=14fd7157-0914-44b6-a1e0-c64c36f65b93","ios":"levelo://app?vid=14fd7157-0914-44b6-a1e0-c64c36f65b93"},"vehicle_type_id":"4","last_reported":1753902742,"current_range_meters":16800,"station_id":"cpo36qri1sfpv3e86is0","pricing_plan_id":"cebpf4jnsgd1na2vs0mg"},{"bike_id":"99fcb636-1ff0-49a3-8d5b-39262b618bc6","system_id":"levelo_inurba_marseille","lat":43.23058,"lon":5.35485,"is_reserved":false,"is_disabled":false,"rental_uris":{"android":"levelo://app?vid=99fcb636-1ff0-49a3-8d5b-39262b618bc6","ios":"levelo://app?vid=99fcb636-1ff0-49a3-8d5b-39262b618bc6"},"vehicle_type_id":"4","last_reported":1753902742,"current_range_meters":16800,"station_id":"cpo3342slgdg3j2ifvpg","pricing_plan_id":"cebpf4jnsgd1na2vs0mg"},{"bike_id":"6f945904-e30e-4baa-be01-1bd0424776dc","system_id":"levelo_inurba_marseille","lat":43.23194,"lon":5.35537,"is_reserved":false,"is_disabled":false,"rental_uris":{"android":"levelo://app?vid=6f945904-e30e-4baa-be01-1bd0424776dc","ios":"levelo://app?vid=6f945904-e30e-4baa-be01-1bd0424776dc"},"vehicle_type_id":"4","last_reported":1753902742,"current_range_meters":16800,"station_id":"ce4bhu92rcd13ifvqi70","pricing_plan_id":"cebpf4jnsgd1na2vs0mg"},{"bike_id":"a7261fb3-3501-4a90-8218-faaadadde855","system_id":"levelo_inurba_marseille","lat":43.26194,"lon":5.374458,"is_reserved":false,"is_disabled":false,"rental_uris":{"android":"levelo://app?vid=a7261fb3-3501-4a90-8218-faaadadde855","ios":"levelo://app?vid=a7261fb3-3501-4a90-8218-faaadadde855"},"vehicle_type_id":"4","last_reported":1753902742,"current_range_meters":16800,"station_id":"ce4bhgp2rcd13ifvqfc0","pricing_plan_id":"cebpf4jnsgd1na2vs0mg"},{"bike_id":"39f77fa1-d18d-4894-8888-d3d4cd668fa4","system_id":"levelo_inurba_marseille","lat":43.3136,"lon":5.36711,"is_reserved":false,"is_disabled":false,"rental_uris":{"android":"levelo://app?vid=39f77fa1-d18d-4894-8888-d3d4cd668fa4","ios":"levelo://app?vid=39f77fa1-d18d-4894-8888-d3d4cd668fa4"},"vehicle_type_id":"4","last_reported":1753902742,"current_range_meters":16800,"station_id":"ce4bgr92rcd13ifvqc6g","pricing_plan_id":"cebpf4jnsgd1na2vs0mg"},{"bike_id":"34be742c-6e59-4c4c-a509-950f8293f589","system_id":"levelo_inurba_marseille","lat":43.22928,"lon":5.35372,"is_reserved":false,"is_disabled":false,"rental_uris":{"android":"levelo://app?vid=34be742c-6e59-4c4c-a509-950f8293f589","ios":"levelo://app?vid=34be742c-6e59-4c4c-a509-950f8293f589"},"vehicle_type_id":"4","last_reported":1753902742,"current_range_meters":16800,"station_id":"cpo3532slgdg3j2ikp40","pricing_plan_id":"cebpf4jnsgd1na2vs0mg"},{"bike_id":"6ed8c43b-9998-443f-9d23-67b282b884b5","system_id":"levelo_inurba_marseille","lat":43.25494,"lon":5.37648,"is_reserved":false,"is_disabled":false,"rental_uris":{"android":"levelo://app?vid=6ed8c43b-9998-443f-9d23-67b282b884b5","ios":"levelo://app?vid=6ed8c43b-9998-443f-9d23-67b282b884b5"},"vehicle_type_id":"4","last_reported":1753902742,"current_range_meters":16800,"station_id":"ce4bhh12rcd13ifvqff0","pricing_plan_id":"cebpf4jnsgd1na2vs0mg"},{"bike_id":"af02ffc5-2bd6-48c7-8fab-ecfe8bea9713","system_id":"levelo_inurba_marseille","lat":43.28941,"lon":5.36364,"is_reserved":false,"is_disabled":false,"rental_uris":{"android":"levelo://app?vid=af02ffc5-2bd6-48c7-8fab-ecfe8bea9713","ios":"levelo://app?vid=af02ffc5-2bd6-48c7-8fab-ecfe8bea9713"},"vehicle_type_id":"4","last_reported":1753902742,"current_range_meters":17200,"station_id":"ce4bhc92rcd13ifvqetg","pricing_plan_id":"cebpf4jnsgd1na2vs0mg"},{"bike_id":"2f55d4f4-e017-494b-83ef-a61716d381e4","system_id":"levelo_inurba_marseille","lat":43.2417,"lon":5.36378,"is_reserved":false,"is_disabled":false,"rental_uris":{"android":"levelo://app?vid=2f55d4f4-e017-494b-83ef-a61716d381e4","ios":"levelo://app?vid=2f55d4f4-e017-494b-83ef-a61716d381e4"},"vehicle_type_id":"4","last_reported":1753902742,"current_range_meters":17200,"station_id":"cpo36qri1sfpv3e86is0","pricing_plan_id":"cebpf4jnsgd1na2vs0mg"},{"bike_id":"46327a3a-b112-4747-b636-17ebf6146226","system_id":"levelo_inurba_marseille","lat":43.33773,"lon":5.37472,"is_reserved":false,"is_disabled":false,"rental_uris":{"android":"levelo://app?vid=46327a3a-b112-4747-b636-17ebf6146226","ios":"levelo://app?vid=46327a3a-b112-4747-b636-17ebf6146226"},"vehicle_type_id":"4","last_reported":1753902742,"current_range_meters":17200,"station_id":"","pricing_plan_id":"cebpf4jnsgd1na2vs0mg"},{"bike_id":"296d8804-d67e-4f32-b2e0-218ca7f5762f","system_id":"levelo_inurba_marseille","lat":43.29844,"lon":5.36272,"is_reserved":false,"is_disabled":false,"rental_uris":{"android":"levelo://app?vid=296d8804-d67e-4f32-b2e0-218ca7f5762f","ios":"levelo://app?vid=296d8804-d67e-4f32-b2e0-218ca7f5762f"},"vehicle_type_id":"4","last_reported":1753902742,"current_range_meters":17200,"station_id":"ce4bgpp2rcd13ifvqc3g","pricing_plan_id":"cebpf4jnsgd1na2vs0mg"},{"bike_id":"47e0725d-d06d-48ec-8dea-75a54b526aa0","system_id":"levelo_inurba_marseille","lat":43.260255,"lon":5.375494,"is_reserved":false,"is_disabled":false,"rental_uris":{"android":"levelo://app?vid=47e0725d-d06d-48ec-8dea-75a54b526aa0","ios":"levelo://app?vid=47e0725d-d06d-48ec-8dea-75a54b526aa0"},"vehicle_type_id":"4","last_reported":1753902742,"current_range_meters":17200,"station_id":"ce4bhgh2rcd13ifvqfa0","pricing_plan_id":"cebpf4jnsgd1na2vs0mg"},{"bike_id":"a030ae09-6e44-424a-89e0-ce5f69840465","system_id":"levelo_inurba_marseille","lat":43.21747,"lon":5.34603,"is_reserved":false,"is_disabled":false,"rental_uris":{"android":"levelo://app?vid=a030ae09-6e44-424a-89e0-ce5f69840465","ios":"levelo://app?vid=a030ae09-6e44-424a-89e0-ce5f69840465"},"vehicle_type_id":"4","last_reported":1753902742,"current_range_meters":17200,"station_id":"st_cvj6r9ubvosntc0bgbag","pricing_plan_id":"cebpf4jnsgd1na2vs0mg"},{"bike_id":"38579418-837a-4714-baf2-4117aca1d484","system_id":"levelo_inurba_marseille","lat":43.28959,"lon":5.36384,"is_reserved":false,"is_disabled":false,"rental_uris":{"android":"levelo://app?vid=38579418-837a-4714-baf2-4117aca1d484","ios":"levelo://app?vid=38579418-837a-4714-baf2-4117aca1d484"},"vehicle_type_id":"4","last_reported":1753902742,"current_range_meters":17200,"station_id":"ce4bhc92rcd13ifvqetg","pricing_plan_id":"cebpf4jnsgd1na2vs0mg"},{"bike_id":"350e3c4f-49e3-48a4-973f-127c85f14d8a","system_id":"levelo_inurba_marseille","lat":43.28945,"lon":5.36385,"is_reserved":false,"is_disabled":false,"rental_uris":{"android":"levelo://app?vid=350e3c4f-49e3-48a4-973f-127c85f14d8a","ios":"levelo://app?vid=350e3c4f-49e3-48a4-973f-127c85f14d8a"},"vehicle_type_id":"4","last_reported":1753902742,"current_range_meters":17600,"station_id":"ce4bhc92rcd13ifvqetg","pricing_plan_id":"cebpf4jnsgd1na2vs0mg"},{"bike_id":"ca1a98a3-8071-4552-9e09-70f4095167d6","system_id":"levelo_inurba_marseille","lat":43.265471,"lon":5.372836,"is_reserved":false,"is_disabled":false,"rental_uris":{"android":"levelo://app?vid=ca1a98a3-8071-4552-9e09-70f4095167d6","ios":"levelo://app?vid=ca1a98a3-8071-4552-9e09-70f4095167d6"},"vehicle_type_id":"4","last_reported":1753902742,"current_range_meters":17600,"station_id":"ce4bhg12rcd13ifvqf70","pricing_plan_id":"cebpf4jnsgd1na2vs0mg"},{"bike_id":"c030c601-379c-4085-aba4-38309688deba","system_id":"levelo_inurba_marseille","lat":43.29261,"lon":5.3846,"is_reserved":false,"is_disabled":false,"rental_uris":{"android":"levelo://app?vid=c030c601-379c-4085-aba4-38309688deba","ios":"levelo://app?vid=c030c601-379c-4085-aba4-38309688deba"},"vehicle_type_id":"4","last_reported":1753902742,"current_range_meters":17600,"station_id":"ce4bh692rcd13ifvqea0","pricing_plan_id":"cebpf4jnsgd1na2vs0mg"},{"bike_id":"d8c8a232-0ecf-457d-b06b-2b4b9c18001e","system_id":"levelo_inurba_marseille","lat":43.29896,"lon":5.43674,"is_reserved":false,"is_disabled":false,"rental_uris":{"android":"levelo://app?vid=d8c8a232-0ecf-457d-b06b-2b4b9c18001e","ios":"levelo://app?vid=d8c8a232-0ecf-457d-b06b-2b4b9c18001e"},"vehicle_type_id":"4","last_reported":1753902742,"current_range_meters":17600,"station_id":"ce4bhpp2rcd13ifvqhfg","pricing_plan_id":"cebpf4jnsgd1na2vs0mg"},{"bike_id":"b565b853-9616-4ab3-9cae-8b1d09dd4831","system_id":"levelo_inurba_marseille","lat":43.22504,"lon":5.34777,"is_reserved":false,"is_disabled":false,"rental_uris":{"android":"levelo://app?vid=b565b853-9616-4ab3-9cae-8b1d09dd4831","ios":"levelo://app?vid=b565b853-9616-4ab3-9cae-8b1d09dd4831"},"vehicle_type_id":"4","last_reported":1753902742,"current_range_meters":17600,"station_id":"st_cvj5dfep6f1abm77gieg","pricing_plan_id":"cebpf4jnsgd1na2vs0mg"},{"bike_id":"4f311b95-16d0-4152-9b03-677da880350c","system_id":"levelo_inurba_marseille","lat":43.23953,"lon":5.36628,"is_reserved":false,"is_disabled":false,"rental_uris":{"android":"levelo://app?vid=4f311b95-16d0-4152-9b03-677da880350c","ios":"levelo://app?vid=4f311b95-16d0-4152-9b03-677da880350c"},"vehicle_type_id":"4","last_reported":1753902742,"current_range_meters":17600,"station_id":"ce4bhi12rcd13ifvqfp0","pricing_plan_id":"cebpf4jnsgd1na2vs0mg"},{"bike_id":"11c2c9e9-5775-4b9d-8884-125c2cd4be28","system_id":"levelo_inurba_marseille","lat":43.23023,"lon":5.35558,"is_reserved":false,"is_disabled":false,"rental_uris":{"android":"levelo://app?vid=11c2c9e9-5775-4b9d-8884-125c2cd4be28","ios":"levelo://app?vid=11c2c9e9-5775-4b9d-8884-125c2cd4be28"},"vehicle_type_id":"4","last_reported":1753902742,"current_range_meters":17600,"station_id":"","pricing_plan_id":"cebpf4jnsgd1na2vs0mg"},{"bike_id":"78266a43-3df6-44d8-8066-bdfcc6b292fd","system_id":"levelo_inurba_marseille","lat":43.2894,"lon":5.39625,"is_reserved":false,"is_disabled":false,"rental_uris":{"android":"levelo://app?vid=78266a43-3df6-44d8-8066-bdfcc6b292fd","ios":"levelo://app?vid=78266a43-3df6-44d8-8066-bdfcc6b292fd"},"vehicle_type_id":"4","last_reported":1753902742,"current_range_meters":17600,"station_id":"ce4bh3h2rcd13ifvqdn0","pricing_plan_id":"cebpf4jnsgd1na2vs0mg"},{"bike_id":"20782440-32e2-4e26-a85a-d8b01db73401","system_id":"levelo_inurba_marseille","lat":43.241671,"lon":5.363854,"is_reserved":false,"is_disabled":false,"rental_uris":{"android":"levelo://app?vid=20782440-32e2-4e26-a85a-d8b01db73401","ios":"levelo://app?vid=20782440-32e2-4e26-a85a-d8b01db73401"},"vehicle_type_id":"4","last_reported":1753902742,"current_range_meters":17600,"station_id":"cpo36qri1sfpv3e86is0","pricing_plan_id":"cebpf4jnsgd1na2vs0mg"},{"bike_id":"7edfb43c-948d-4548-998c-fee87c94d1f8","system_id":"levelo_inurba_marseille","lat":43.22503,"lon":5.34782,"is_reserved":false,"is_disabled":false,"rental_uris":{"android":"levelo://app?vid=7edfb43c-948d-4548-998c-fee87c94d1f8","ios":"levelo://app?vid=7edfb43c-948d-4548-998c-fee87c94d1f8"},"vehicle_type_id":"4","last_reported":1753902742,"current_range_meters":17600,"station_id":"st_cvj5dfep6f1abm77gieg","pricing_plan_id":"cebpf4jnsgd1na2vs0mg"},