{"last_updated":1751562706,"ttl":60,"version":"2.2","data":{"bikes":[{"bike_id":"3da29fb8-fc97-44c6-b9ac-31dd456b2fd4","system_id":"levelo_inurba_marseille","lat":43.33771,"lon":5.37424,"is_reserved":false,"is_disabled":true,"rental_uris":{"android":"levelo://app?vid=3da29fb8-fc97-44c6-b9ac-31dd456b2fd4","ios":"levelo://app?vid=3da29fb8-fc97-44c6-b9ac-31dd456b2fd4"},"vehicle_type_id":"4","last_reported":1751562707,"current_range_meters":0,"station_id":"","pricing_plan_id":"cebpf4jnsgd1na2vs0mg"},{"bike_id":"01861ad8-a8d7-4be6-816e-651927c87584","system_id":"levelo_inurba_marseille","lat":43.33751,"lon":5.37456,"is_reserved":false,"is_disabled":true,"rental_uris":{"android":"levelo://app?vid=01861ad8-a8d7-4be6-816e-651927c87584","ios":"levelo://app?vid=01861ad8-a8d7-4be6-816e-651927c87584"},"vehicle_type_id":"4","last_reported":1751562707,"current_range_meters":0,"station_id":"","pricing_plan_id":"cebpf4jnsgd1na2vs0mg"},{"bike_id":"da921d92-526f-401b-95dc-b12109d1091d","system_id":"levelo_inurba_marseille","lat":43.36224,"lon":5.34933,"is_reserved":false,"is_disabled":true,"rental_uris":{"android":"levelo://app?vid=da921d92-526f-401b-95dc-b12109d1091d","ios":"levelo://app?vid=da921d92-526f-401b-95dc-b12109d1091d"},"vehicle_type_id":"4","last_reported":1751562707,"current_range_meters":0,"station_id":"","pricing_plan_id":"cebpf4jnsgd1na2vs0mg"},{"bike_id":"6e5b5a4d-1ee5-4068-9613-fb44ab4d8a9a","system_id":"levelo_inurba_marseille","lat":43.34879,"lon":5.34613,"is_reserved":false,"is_disabled":true,"rental_uris":{"android":"levelo://app?vid=6e5b5a4d-1ee5-4068-9613-fb44ab4d8a9a","ios":"levelo://app?vid=6e5b5a4d-1ee5-4068-9613-fb44ab4d8a9a"},"vehicle_type_id":"4","last_reported":1751562707,"current_range_meters":0,"station_id":"","pricing_plan_id":"cebpf4jnsgd1na2vs0mg"},{"bike_id":"711daaef-62a7-4507-b46e-24f8c3ebc905","system_id":"levelo_inurba_marseille","lat":43.21749,"lon":5.34596,"is_reserved":false,"is_disabled":true,"rental_uris":{"android":"levelo://app?vid=711daaef-62a7-4507-b46e-24f8c3ebc905","ios":"levelo://app?vid=711daaef-62a7-4507-b46e-24f8c3ebc905"},"vehicle_type_id":"4","last_reported":1751562707,"current_range_meters":0,"station_id":"","pricing_plan_id":"cebpf4jnsgd1na2vs0mg"},{"bike_id":"8e365e3c-559a-4ba6-a6c5-4c159e2434fc","system_id":"levelo_inurba_marseille","lat":43.21747,"lon":5.34602,"is_reserved":false,"is_disabled":true,"rental_uris":{"android":"levelo://app?vid=8e365e3c-559a-4ba6-a6c5-4c159e2434fc","ios":"levelo://app?vid=8e365e3c-559a-4ba6-a6c5-4c159e2434fc"},"vehicle_type_id":"4","last_reported":1751562707,"current_range_meters":0,"station_id":"","pricing_plan_id":"cebpf4jnsgd1na2vs0mg"},{"bike_id":"b87537a5-0ef7-4a87-9959-cd0a9fa65894","system_id":"levelo_inurba_marseille","lat":43.29359,"lon":5.3714,"is_reserved":false,"is_disabled":true,"rental_uris":{"android":"levelo://app?vid=b87537a5-0ef7-4a87-9959-cd0a9fa65894","ios":"levelo://app?vid=b87537a5-0ef7-4a87-9959-cd0a9fa65894"},"vehicle_type_id":"4","last_reported":1751562707,"current_range_meters":0,"station_id":"","pricing_plan_id":"cebpf4jnsgd1na2vs0mg"},{"bike_id":"5fe1f33a-ebc4-4182-b521-7ef3eadc1773","system_id":"levelo_inurba_marseille","lat":43.269014,"lon":5.368713,"is_reserved":false,"is_disabled":true,"rental_uris":{"android":"levelo://app?vid=5fe1f33a-ebc4-4182-b521-7ef3eadc1773","ios":"levelo://app?vid=5fe1f33a-ebc4-4182-b521-7ef3eadc1773"},"vehicle_type_id":"4","last_reported":1751562707,"current_range_meters":0,"station_id":"","pricing_plan_id":"cebpf4jnsgd1na2vs0mg"},{"bike_id":"c8bdee6f-2ae9-4b92-95e3-02278f2d6814","system_id":"levelo_inurba_marseille","lat":43.26569,"lon":5.40322,"is_reserved":false,"is_disabled":true,"rental_uris":{"android":"levelo://app?vid=c8bdee6f-2ae9-4b92-95e3-02278f2d6814","ios":"levelo://app?vid=c8bdee6f-2ae9-4b92-95e3-02278f2d6814"},"vehicle_type_id":"4","last_reported":1751562707,"current_range_meters":0,"station_id":"","pricing_plan_id":"cebpf4jnsgd1na2vs0mg"},{"bike_id":"40fcc979-989c-4798-9a30-6189ba53df56","system_id":"levelo_inurba_marseille","lat":43.30288,"lon":5.39197,"is_reserved":false,"is_disabled":true,"rental_uris":{"android":"levelo://app?vid=40fcc979-989c-4798-9a30-6189ba53df56","ios":"levelo://app?vid=40fcc979-989c-4798-9a30-6189ba53df56"},"vehicle_type_id":"4","last_reported":1751562707,"current_range_meters":0,"station_id":"ce4bgkh2rcd13ifvqbk0","pricing_plan_id":"cebpf4jnsgd1na2vs0mg"},{"bike_id":"e28f055a-c16b-4fc7-a968-99f27f6549e3","system_id":"levelo_inurba_marseille","lat":43.30876,"lon":5.39634,"is_reserved":false,"is_disabled":true,"rental_uris":{"android":"levelo://app?vid=e28f055a-c16b-4fc7-a968-99f27f6549e3","ios":"levelo://app?vid=e28f055a-c16b-4fc7-a968-99f27f6549e3"},"vehicle_type_id":"4","last_reported":1751562707,"current_range_meters":0,"station_id":"ce4bh012rcd13ifvqcv0","pricing_plan_id":"cebpf4jnsgd1na2vs0mg"},{"bike_id":"64410bb1-fa8d-4ddd-adc4-49238d01cea7","system_id":"levelo_inurba_marseille","lat":43.29089,"lon":5.37158,"is_reserved":false,"is_disabled":true,"rental_uris":{"android":"levelo://app?vid=64410bb1-fa8d-4ddd-adc4-49238d01cea7","ios":"levelo://app?vid=64410bb1-fa8d-4ddd-adc4-49238d01cea7"},"vehicle_type_id":"4","last_reported":1751562707,"current_range_meters":0,"station_id":"ce4bh5p2rcd13ifvqe4g","pricing_plan_id":"cebpf4jnsgd1na2vs0mg"},{"bike_id":"065245bb-a8e1-431c-bda8-b10cccf0f19e","system_id":"levelo_inurba_marseille","lat":43.290314,"lon":5.375654,"is_reserved":false,"is_disabled":true,"rental_uris":{"android":"levelo://app?vid=065245bb-a8e1-431c-bda8-b10cccf0f19e","ios":"levelo://app?vid=065245bb-a8e1-431c-bda8-b10cccf0f19e"},"vehicle_type_id":"4","last_reported":1751562707,"current_range_meters":0,"station_id":"ce4bh692rcd13ifvqe90","pricing_plan_id":"cebpf4jnsgd1na2vs0mg"},{"bike_id":"f383f62e-c1bb-4282-a457-d609b6657997","system_id":"levelo_inurba_marseille","lat":43.27371,"lon":5.36255,"is_reserved":false,"is_disabled":true,"rental_uris":{"android":"levelo://app?vid=f383f62e-c1bb-4282-a457-d609b6657997","ios":"levelo://app?vid=f383f62e-c1bb-4282-a457-d609b6657997"},"vehicle_type_id":"4","last_reported":1751562707,"current_range_meters":0,"station_id":"ce4bhbh2rcd13ifvqeo0","pricing_plan_id":"cebpf4jnsgd1na2vs0mg"},{"bike_id":"d24e861c-7065-4c6e-9b9a-ff9211276a97","system_id":"levelo_inurba_marseille","lat":43.279874,"lon":5.387428,"is_reserved":false,"is_disabled":true,"rental_uris":{"android":"levelo://app?vid=d24e861c-7065-4c6e-9b9a-ff9211276a97","ios":"levelo://app?vid=d24e861c-7065-4c6e-9b9a-ff9211276a97"},"vehicle_type_id":"4","last_reported":1751562707,"current_range_meters":0,"station_id":"ce4bhg12rcd13ifvqf80","pricing_plan_id":"cebpf4jnsgd1na2vs0mg"},{"bike_id":"4da8cf61-82a7-4fad-bd12-29e05b53f31d","system_id":"levelo_inurba_marseille","lat":43.26208,"lon":5.37444,"is_reserved":false,"is_disabled":true,"rental_uris":{"android":"levelo://app?vid=4da8cf61-82a7-4fad-bd12-29e05b53f31d","ios":"levelo://app?vid=4da8cf61-82a7-4fad-bd12-29e05b53f31d"},"vehicle_type_id":"4","last_reported":1751562707,"current_range_meters":0,"station_id":"ce4bhgp2rcd13ifvqfc0","pricing_plan_id":"cebpf4jnsgd1na2vs0mg"},{"bike_id":"b4fe53d0-4ddb-4e64-a64e-d9e33fd5f328","system_id":"levelo_inurba_marseille","lat":43.27569,"lon":5.38421,"is_reserved":false,"is_disabled":true,"rental_uris":{"android":"levelo://app?vid=b4fe53d0-4ddb-4e64-a64e-d9e33fd5f328","ios":"levelo://app?vid=b4fe53d0-4ddb-4e64-a64e-d9e33fd5f328"},"vehicle_type_id":"4","last_reported":1751562707,"current_range_meters":0,"station_id":"ce4bhh92rcd13ifvqfi0","pricing_plan_id":"cebpf4jnsgd1na2vs0mg"},{"bike_id":"4c79e2e1-45ea-4832-8e70-ca10e408a6d7","system_id":"levelo_inurba_marseille","lat":43.25586,"lon":5.38234,"is_reserved":false,"is_disabled":true,"rental_uris":{"android":"levelo://app?vid=4c79e2e1-45ea-4832-8e70-ca10e408a6d7","ios":"levelo://app?vid=4c79e2e1-45ea-4832-8e70-ca10e408a6d7"},"vehicle_type_id":"4","last_reported":1751562707,"current_range_meters":0,"station_id":"ce4bhih2rcd13ifvqfs0","pricing_plan_id":"cebpf4jnsgd1na2vs0mg"},{"bike_id":"45a36d42-3f75-4451-929c-2980bab85fb7","system_id":"levelo_inurba_marseille","lat":43.231623,"lon":5.437487,"is_reserved":false,"is_disabled":true,"rental_uris":{"android":"levelo://app?vid=45a36d42-3f75-4451-929c-2980bab85fb7","ios":"levelo://app?vid=45a36d42-3f75-4451-929c-2980bab85fb7"},"vehicle_type_id":"4","last_reported":1751562707,"current_range_meters":0,"station_id":"ce4bhmp2rcd13ifvqgog","pricing_plan_id":"cebpf4jnsgd1na2vs0mg"},{"bike_id":"8688f3e3-978b-44f4-8c99-be921e0b5bdf","system_id":"levelo_inurba_marseille","lat":43.27942,"lon":5.41049,"is_reserved":false,"is_disabled":true,"rental_uris":{"android":"levelo://app?vid=8688f3e3-978b-44f4-8c99-be921e0b5bdf","ios":"levelo://app?vid=8688f3e3-978b-44f4-8c99-be921e0b5bdf"},"vehicle_type_id":"4","last_reported":1751562707,"current_range_meters":0,"station_id":"ce4bhnp2rcd13ifvqh0g","pricing_plan_id":"cebpf4jnsgd1na2vs0mg"},{"bike_id":"74048b68-e069-4d0c-8b6b-30443c3a8faa","system_id":"levelo_inurba_marseille","lat":43.32053,"lon":5.41545,"is_reserved":false,"is_disabled":true,"rental_uris":{"android":"levelo://app?vid=74048b68-e069-4d0c-8b6b-30443c3a8faa","ios":"levelo://app?vid=74048b68-e069-4d0c-8b6b-30443c3a8faa"},"vehicle_type_id":"4","last_reported":1751562707,"current_range_meters":0,"station_id":"ce4bhq92rcd13ifvqhkg","pricing_plan_id":"cebpf4jnsgd1na2vs0mg"},{"bike_id":"34525e0e-88eb-4fe8-be83-e19f0f1185d3","system_id":"levelo_inurba_marseille","lat":43.22507,"lon":5.34761,"is_reserved":false,"is_disabled":true,"rental_uris":{"android":"levelo://app?vid=34525e0e-88eb-4fe8-be83-e19f0f1185d3","ios":"levelo://app?vid=34525e0e-88eb-4fe8-be83-e19f0f1185d3"},"vehicle_type_id":"4","last_reported":1751562707,"current_range_meters":0,"station_id":"st_cvj5dfep6f1abm77gieg","pricing_plan_id":"cebpf4jnsgd1na2vs0mg"},{"bike_id":"9795e511-4f68-494d-9846-41f87f5dd923","system_id":"levelo_inurba_marseille","lat":43.22531,"lon":5.34817,"is_reserved":false,"is_disabled":true,"rental_uris":{"android":"levelo://app?vid=9795e511-4f68-494d-9846-41f87f5dd923","ios":"levelo://app?vid=9795e511-4f68-494d-9846-41f87f5dd923"},"vehicle_type_id":"4","last_reported":1751562707,"current_range_meters":0,"station_id":"st_cvj5dfep6f1abm77gieg","pricing_plan_id":"cebpf4jnsgd1na2vs0mg"},{"bike_id":"7750661e-3127-4501-aa76-1d7cb6be5070","system_id":"levelo_inurba_marseille","lat":43.2174,"lon":5.34607,"is_reserved":false,"is_disabled":true,"rental_uris":{"android":"levelo://app?vid=7750661e-3127-4501-aa76-1d7cb6be5070","ios":"levelo://app?vid=7750661e-3127-4501-aa76-1d7cb6be5070"},"vehicle_type_id":"4","last_reported":1751562707,"current_range_meters":0,"station_id":"st_cvj6r9ubvosntc0bgbag","pricing_plan_id":"cebpf4jnsgd1na2vs0mg"},{"bike_id":"4306a1ae-eeb9-49cd-8fa1-5e9550e6ced1","system_id":"levelo_inurba_marseille","lat":43.29534,"lon":5.38536,"is_reserved":false,"is_disabled":true,"rental_uris":{"android":"levelo://app?vid=4306a1ae-eeb9-49cd-8fa1-5e9550e6ced1","ios":"levelo://app?vid=4306a1ae-eeb9-49cd-8fa1-5e9550e6ced1"},"vehicle_type_id":"4","last_reported":1751562707,"current_range_meters":400,"station_id":"ce4bgih2rcd13ifvqba0","pricing_plan_id":"cebpf4jnsgd1na2vs0mg"},{"bike_id":"36e32888-ad9c-4156-ac98-0e2f3780c2a6","system_id":"levelo_inurba_marseille","lat":43.29061,"lon":5.37176,"is_reserved":false,"is_disabled":true,"rental_uris":{"android":"levelo://app?vid=36e32888-ad9c-4156-ac98-0e2f3780c2a6","ios":"levelo://app?vid=36e32888-ad9c-4156-ac98-0e2f3780c2a6"},"vehicle_type_id":"4","last_reported":1751562707,"current_range_meters":400,"station_id":"ce4bh5p2rcd13ifvqe4g","pricing_plan_id":"cebpf4jnsgd1na2vs0mg"},{"bike_id":"652c1320-3ff3-449d-a3db-9779af1db2dd","system_id":"levelo_inurba_marseille","lat":43.27379,"lon":5.3626,"is_reserved":false,"is_disabled":true,"rental_uris":{"android":"levelo://app?vid=652c1320-3ff3-449d-a3db-9779af1db2dd","ios":"levelo://app?vid=652c1320-3ff3-449d-a3db-9779af1db2dd"},"vehicle_type_id":"4","last_reported":1751562707,"current_range_meters":400,"station_id":"ce4bhbh2rcd13ifvqeo0","pricing_plan_id":"cebpf4jnsgd1na2vs0mg"},{"bike_id":"6d360ba4-25a9-4d88-a0be-4cb1e051930e","system_id":"levelo_inurba_marseille","lat":43.26191,"lon":5.37449,"is_reserved":false,"is_disabled":true,"rental_uris":{"android":"levelo://app?vid=6d360ba4-25a9-4d88-a0be-4cb1e051930e","ios":"levelo://app?vid=6d360ba4-25a9-4d88-a0be-4cb1e051930e"},"vehicle_type_id":"4","last_reported":1751562707,"current_range_meters":400,"station_id":"ce4bhgp2rcd13ifvqfc0","pricing_plan_id":"cebpf4jnsgd1na2vs0mg"},{"bike_id":"be77fd35-6557-4d0c-aca9-bd192ed60f05","system_id":"levelo_inurba_marseille","lat":43.26215,"lon":5.37434,"is_reserved":false,"is_disabled":true,"rental_uris":{"android":"levelo://app?vid=be77fd35-6557-4d0c-aca9-bd192ed60f05","ios":"levelo://app?vid=be77fd35-6557-4d0c-aca9-bd192ed60f05"},"vehicle_type_id":"4","last_reported":1751562707,"current_range_meters":400,"station_id":"ce4bhgp2rcd13ifvqfc0","pricing_plan_id":"cebpf4jnsgd1na2vs0mg"},{"bike_id":"31d969f0-9309-412e-a056-a0c52f9dcd5b","system_id":"levelo_inurba_marseille","lat":43.29307,"lon":5.3746,"is_reserved":false,"is_disabled":true,"rental_uris":{"android":"levelo://app?vid=31d969f0-9309-412e-a056-a0c52f9dcd5b","ios":"levelo://app?vid=31d969f0-9309-412e-a056-a0c52f9dcd5b"},"vehicle_type_id":"4","last_reported":1751562707,"current_range_meters":800,"station_id":"ce4bgi12rcd13ifvqb70","pricing_plan_id":"cebpf4jnsgd1na2vs0mg"},{"bike_id":"db38c54a-7260-426f-a91c-3640df29995d","system_id":"levelo_inurba_marseille","lat":43.298645,"lon":5.397313,"is_reserved":false,"is_disabled":true,"rental_uris":{"android":"levelo://app?vid=db38c54a-7260-426f-a91c-3640df29995d","ios":"levelo://app?vid=db38c54a-7260-426f-a91c-3640df29995d"},"vehicle_type_id":"4","last_reported":1751562707,"current_range_meters":800,"station_id":"ce4bh0h2rcd13ifvqd50","pricing_plan_id":"cebpf4jnsgd1na2vs0mg"},{"bike_id":"c8663293-8e48-4bc4-814e-dd51f22964e6","system_id":"levelo_inurba_marseille","lat":43.27377,"lon":5.36251,"is_reserved":false,"is_disabled":true,"rental_uris":{"android":"levelo://app?vid=c8663293-8e48-4bc4-814e-dd51f22964e6","ios":"levelo://app?vid=c8663293-8e48-4bc4-814e-dd51f22964e6"},"vehicle_type_id":"4","last_reported":1751562707,"current_range_meters":800,"station_id":"ce4bhbh2rcd13ifvqeo0","pricing_plan_id":"cebpf4jnsgd1na2vs0mg"},{"bike_id":"96a9974c-afdf-4439-bc2f-10ff5ee408ac","system_id":"levelo_inurba_marseille","lat":43.26957,"lon":5.38636,"is_reserved":false,"is_disabled":true,"rental_uris":{"android":"levelo://app?vid=96a9974c-afdf-4439-bc2f-10ff5ee408ac","ios":"levelo://app?vid=96a9974c-afdf-4439-bc2f-10ff5ee408ac"},"vehicle_type_id":"4","last_reported":1751562707,"current_range_meters":800,"station_id":"ce4bhh92rcd13ifvqfh0","pricing_plan_id":"cebpf4jnsgd1na2vs0mg"},{"bike_id":"bc5dd2b3-3385-463b-a084-678650a16b75","system_id":"levelo_inurba_marseille","lat":43.268446,"lon":5.370804,"is_reserved":false,"is_disabled":true,"rental_uris":{"android":"levelo://app?vid=bc5dd2b3-3385-463b-a084-678650a16b75","ios":"levelo://app?vid=bc5dd2b3-3385-463b-a084-678650a16b75"},"vehicle_type_id":"4","last_reported":1751562707,"current_range_meters":1200,"station_id":"","pricing_plan_id":"cebpf4jnsgd1na2vs0mg"},{"bike_id":"0a185492-26a8-4775-85c2-10610805774a","system_id":"levelo_inurba_marseille","lat":43.27715,"lon":5.43052,"is_reserved":false,"is_disabled":true,"rental_uris":{"android":"levelo://app?vid=0a185492-26a8-4775-85c2-10610805774a","ios":"levelo://app?vid=0a185492-26a8-4775-85c2-10610805774a"},"vehicle_type_id":"4","last_reported":1751562707,"current_range_meters":1200,"station_id":"","pricing_plan_id":"cebpf4jnsgd1na2vs0mg"},{"bike_id":"fdb479f3-5789-49e6-b580-30539d7b46d4","system_id":"levelo_inurba_marseille","lat":43.305383,"lon":5.384223,"is_reserved":false,"is_disabled":true,"rental_uris":{"android":"levelo://app?vid=fdb479f3-5789-49e6-b580-30539d7b46d4","ios":"levelo://app?vid=fdb479f3-5789-49e6-b580-30539d7b46d4"},"vehicle_type_id":"4","last_reported":1751562707,"current_range_meters":1200,"station_id":"ce4bgg92rcd13ifvqb30","pricing_plan_id":"cebpf4jnsgd1na2vs0mg"},{"bike_id":"1d85a705-e915-4cce-8b6d-d759c9f1b778","system_id":"levelo_inurba_marseille","lat":43.28038,"lon":5.36946,"is_reserved":false,"is_disabled":true,"rental_uris":{"android":"levelo://app?vid=1d85a705-e915-4cce-8b6d-d759c9f1b778","ios":"levelo://app?vid=1d85a705-e915-4cce-8b6d-d759c9f1b778"},"vehicle_type_id":"4","last_reported":1751562707,"current_range_meters":1200,"station_id":"ce4bha12rcd13ifvqef0","pricing_plan_id":"cebpf4jnsgd1na2vs0mg"},{"bike_id":"3e814db0-48cb-4c2e-8260-f461a61a5c32","system_id":"levelo_inurba_marseille","lat":43.2886,"lon":5.35846,"is_reserved":false,"is_disabled":true,"rental_uris":{"android":"levelo://app?vid=3e814db0-48cb-4c2e-8260-f461a61a5c32","ios":"levelo://app?vid=3e814db0-48cb-4c2e-8260-f461a61a5c32"},"vehicle_type_id":"4","last_reported":1751562707,"current_range_meters":1200,"station_id":"ce4bhb12rcd13ifvqem0","pricing_plan_id":"cebpf4jnsgd1na2vs0mg"},{"bike_id":"a6d7a0d5-d9ae-4fc1-b44b-2efbae6ccc62","system_id":"levelo_inurba_marseille","lat":43.21752,"lon":5.34599,"is_reserved":false,"is_disabled":true,"rental_uris":{"android":"levelo://app?vid=a6d7a0d5-d9ae-4fc1-b44b-2efbae6ccc62","ios":"levelo://app?vid=a6d7a0d5-d9ae-4fc1-b44b-2efbae6ccc62"},"vehicle_type_id":"4","last_reported":1751562707,"current_range_meters":1600,"station_id":"","pricing_plan_id":"cebpf4jnsgd1na2vs0mg"},{"bike_id":"a0ed0eb4-e380-4b42-b1fc-4ccac0a7ec7e","system_id":"levelo_inurba_marseille","lat":43.30941,"lon":5.39036,"is_reserved":false,"is_disabled":true,"rental_uris":{"android":"levelo://app?vid=a0ed0eb4-e380-4b42-b1fc-4ccac0a7ec7e","ios":"levelo://app?vid=a0ed0eb4-e380-4b42-b1fc-4ccac0a7ec7e"},"vehicle_type_id":"4","last_reported":1751562707,"current_range_meters":1600,"station_id":"ce4bgup2rcd13ifvqco0","pricing_plan_id":"cebpf4jnsgd1na2vs0mg"},{"bike_id":"f07fdfaa-348d-43f0-b3e7-83fcf392621c","system_id":"levelo_inurba_marseille","lat":43.25492,"lon":5.37646,"is_reserved":false,"is_disabled":true,"rental_uris":{"android":"levelo://app?vid=f07fdfaa-348d-43f0-b3e7-83fcf392621c","ios":"levelo://app?vid=f07fdfaa-348d-43f0-b3e7-83fcf392621c"},"vehicle_type_id":"4","last_reported":1751562707,"current_range_meters":1600,"station_id":"ce4bhh12rcd13ifvqff0","pricing_plan_id":"cebpf4jnsgd1na2vs0mg"},{"bike_id":"4cbb709f-957a-4ce9-9ee6-6cbe76aeadf9","system_id":"levelo_inurba_marseille","lat":43.33609,"lon":5.41028,"is_reserved":false,"is_disabled":true,"rental_uris":{"android":"levelo://app?vid=4cbb709f-957a-4ce9-9ee6-6cbe76aeadf9","ios":"levelo://app?vid=4cbb709f-957a-4ce9-9ee6-6cbe76aeadf9"},"vehicle_type_id":"4","last_reported":1751562707,"current_range_meters":1600,"station_id":"ce4bhqh2rcd13ifvqhmg","pricing_plan_id":"cebpf4jnsgd1na2vs0mg"},{"bike_id":"de40dbfb-b5f5-4110-b6cc-dec92dfa18da","system_id":"levelo_inurba_marseille","lat":43.309555,"lon":5.390345,"is_reserved":false,"is_disabled":true,"rental_uris":{"android":"levelo://app?vid=de40dbfb-b5f5-4110-b6cc-dec92dfa18da","ios":"levelo://app?vid=de40dbfb-b5f5-4110-b6cc-dec92dfa18da"},"vehicle_type_id":"4","last_reported":1751562707,"current_range_meters":2000,"station_id":"ce4bgup2rcd13ifvqco0","pricing_plan_id":"cebpf4jnsgd1na2vs0mg"},{"bike_id":"1124beb4-fb85-4ca2-8835-f4462d9eff62","system_id":"levelo_inurba_marseille","lat":43.29211,"lon":5.3606,"is_reserved":false,"is_disabled":true,"rental_uris":{"android":"levelo://app?vid=1124beb4-fb85-4ca2-8835-f4462d9eff62","ios":"levelo://app?vid=1124beb4-fb85-4ca2-8835-f4462d9eff62"},"vehicle_type_id":"4","last_reported":1751562707,"current_range_meters":2000,"station_id":"ce4bhbh2rcd13ifvqeqg","pricing_plan_id":"cebpf4jnsgd1na2vs0mg"},{"bike_id":"b36109ea-30ee-4d83-8e26-db0411374d89","system_id":"levelo_inurba_marseille","lat":43.27829,"lon":5.39206,"is_reserved":false,"is_disabled":true,"rental_uris":{"android":"levelo://app?vid=b36109ea-30ee-4d83-8e26-db0411374d89","ios":"levelo://app?vid=b36109ea-30ee-4d83-8e26-db0411374d89"},"vehicle_type_id":"4","last_reported":1751562707,"current_range_meters":2000,"station_id":"ce4bhjp2rcd13ifvqga0","pricing_plan_id":"cebpf4jnsgd1na2vs0mg"},{"bike_id":"ddcc5ebc-5337-4e64-b589-816b26d30dfc","system_id":"levelo_inurba_marseille","lat":43.231732,"lon":5.399859,"is_reserved":false,"is_disabled":true,"rental_uris":{"android":"levelo://app?vid=ddcc5ebc-5337-4e64-b589-816b26d30dfc","ios":"levelo://app?vid=ddcc5ebc-5337-4e64-b589-816b26d30dfc"},"vehicle_type_id":"4","last_reported":1751562707,"current_range_meters":2000,"station_id":"ce4bhn12rcd13ifvqgqg","pricing_plan_id":"cebpf4jnsgd1na2vs0mg"},{"bike_id":"82fe187f-756c-4548-a7c4-3fc3ac31b7d2","system_id":"levelo_inurba_marseille","lat":43.21747,"lon":5.34589,"is_reserved":false,"is_disabled":true,"rental_uris":{"android":"levelo://app?vid=82fe187f-756c-4548-a7c4-3fc3ac31b7d2","ios":"levelo://app?vid=82fe187f-756c-4548-a7c4-3fc3ac31b7d2"},"vehicle_type_id":"4","last_reported":1751562707,"current_range_meters":2000,"station_id":"st_cvj6r9ubvosntc0bgbag","pricing_plan_id":"cebpf4jnsgd1na2vs0mg"},{"bike_id":"d3d435bf-b323-4553-af7c-76f1fcdde697","system_id":"levelo_inurba_marseille","lat":43.27371,"lon":5.36256,"is_reserved":false,"is_disabled":false,"rental_uris":{"android":"levelo://app?vid=d3d435bf-b323-4553-af7c-76f1fcdde697","ios":"levelo://app?vid=d3d435bf-b323-4553-af7c-76f1fcdde697"},"vehicle_type_id":"4","last_reported":1751562707,"current_range_meters":2800,"station_id":"ce4bhbh2rcd13ifvqeo0","pricing_plan_id":"cebpf4jnsgd1na2vs0mg"},{"bike_id":"adbc811d-dc82-4cb2-93f5-9d415f38fb9c","system_id":"levelo_inurba_marseille","lat":43.29295,"lon":5.37469,"is_reserved":false,"is_disabled":false,"rental_uris":{"android":"levelo://app?vid=adbc811d-dc82-4cb2-93f5-9d415f38fb9c","ios":"levelo://app?vid=adbc811d-dc82-4cb2-93f5-9d415f38fb9c"},"vehicle_type_id":"4","last_reported":1751562707,"current_range_meters":3200,"station_id":"ce4bgi12rcd13ifvqb70","pricing_plan_id":"cebpf4jnsgd1na2vs0mg"},{"bike_id":"076447d8-baa1-4d84-830d-66b72d4695cf","system_id":"levelo_inurba_marseille","lat":43.25014,"lon":5.38933,"is_reserved":false,"is_disabled":false,"rental_uris":{"android":"levelo://app?vid=076447d8-baa1-4d84-830d-66b72d4695cf","ios":"levelo://app?vid=076447d8-baa1-4d84-830d-66b72d4695cf"},"vehicle_type_id":"4","last_reported":1751562707,"current_range_meters":3200,"station_id":"ce4bhgp2rcd13ifvqfd0","pricing_plan_id":"cebpf4jnsgd1na2vs0mg"},{"bike_id":"b1529ab0-d64c-49e0-ab08-7c7094be352e","system_id":"levelo_inurba_marseille","lat":43.28447,"lon":5.39205,"is_reserved":false,"is_disabled":false,"rental_uris":{"android":"levelo://app?vid=b1529ab0-d64c-49e0-ab08-7c7094be352e","ios":"levelo://app?vid=b1529ab0-d64c-49e0-ab08-7c7094be352e"},"vehicle_type_id":"4","last_reported":1751562707,"current_range_meters":3200,"station_id":"ce4bhoh2rcd13ifvqh5g","pricing_plan_id":"cebpf4jnsgd1na2vs0mg"},{"bike_id":"2f312b0c-5834-449a-af39-6f21d07b5748","system_id":"levelo_inurba_marseille","lat":43.21188,"lon":5.3507,"is_reserved":false,"is_disabled":false,"rental_uris":{"android":"levelo://app?vid=2f312b0c-5834-449a-af39-6f21d07b5748","ios":"levelo://app?vid=2f312b0c-5834-449a-af39-6f21d07b5748"},"vehicle_type_id":"4","last_reported":1751562707,"current_range_meters":3200,"station_id":"st_cvj6sg6p6f1abm77japg","pricing_plan_id":"cebpf4jnsgd1na2vs0mg"},{"bike_id":"7bea2075-be34-4810-9d7b-2ba06ba56994","system_id":"levelo_inurba_marseille","lat":43.29035,"lon":5.35918,"is_reserved":false,"is_disabled":false,"rental_uris":{"android":"levelo://app?vid=7bea2075-be34-4810-9d7b-2ba06ba56994","ios":"levelo://app?vid=7bea2075-be34-4810-9d7b-2ba06ba56994"},"vehicle_type_id":"4","last_reported":1751562707,"current_range_meters":3600,"station_id":"ce4bha92rcd13ifvqeg0","pricing_plan_id":"cebpf4jnsgd1na2vs0mg"},{"bike_id":"8becf1b9-b72c-4763-a062-bbd587ae45bf","system_id":"levelo_inurba_marseille","lat":43.32604,"lon":5.42548,"is_reserved":false,"is_disabled":false,"rental_uris":{"android":"levelo://app?vid=8becf1b9-b72c-4763-a062-bbd587ae45bf","ios":"levelo://app?vid=8becf1b9-b72c-4763-a062-bbd587ae45bf"},"vehicle_type_id":"4","last_reported":1751562707,"current_range_meters":4000,"station_id":"","pricing_plan_id":"cebpf4jnsgd1na2vs0mg"},{"bike_id":"3c321008-fe8e-428e-8dfc-8ca4c8220e6a","system_id":"levelo_inurba_marseille","lat":43.30943,"lon":5.3902,"is_reserved":false,"is_disabled":false,"rental_uris":{"android":"levelo://app?vid=3c321008-fe8e-428e-8dfc-8ca4c8220e6a","ios":"levelo://app?vid=3c321008-fe8e-428e-8dfc-8ca4c8220e6a"},"vehicle_type_id":"4","last_reported":1751562707,"current_range_meters":4000,"station_id":"ce4bgup2rcd13ifvqco0","pricing_plan_id":"cebpf4jnsgd1na2vs0mg"},{"bike_id":"fcb3eb32-fce4-4020-9821-660087328e6f","system_id":"levelo_inurba_marseille","lat":43.28616,"lon":5.35111,"is_reserved":false,"is_disabled":false,"rental_uris":{"android":"levelo://app?vid=fcb3eb32-fce4-4020-9821-660087328e6f","ios":"levelo://app?vid=fcb3eb32-fce4-4020-9821-660087328e6f"},"vehicle_type_id":"4","last_reported":1751562707,"current_range_meters":4000,"station_id":"ce4bhch2rcd13ifvqeug","pricing_plan_id":"cebpf4jnsgd1na2vs0mg"},{"bike_id":"9af56e80-a0ba-458c-9a21-252367fea0d1","system_id":"levelo_inurba_marseille","lat":43.25502,"lon":5.37652,"is_reserved":false,"is_disabled":false,"rental_uris":{"android":"levelo://app?vid=9af56e80-a0ba-458c-9a21-252367fea0d1","ios":"levelo://app?vid=9af56e80-a0ba-458c-9a21-252367fea0d1"},"vehicle_type_id":"4","last_reported":1751562707,"current_range_meters":4000,"station_id":"ce4bhh12rcd13ifvqff0","pricing_plan_id":"cebpf4jnsgd1na2vs0mg"},{"bike_id":"f9bb8bf4-d0e1-4180-9c0f-fd2c10744453","system_id":"levelo_inurba_marseille","lat":43.28478,"lon":5.38416,"is_reserved":false,"is_disabled":false,"rental_uris":{"android":"levelo://app?vid=f9bb8bf4-d0e1-4180-9c0f-fd2c10744453","ios":"levelo://app?vid=f9bb8bf4-d0e1-4180-9c0f-fd2c10744453"},"vehicle_type_id":"4","last_reported":1751562707,"current_range_meters":4400,"station_id":"ce4bh512rcd13ifvqe3g","pricing_plan_id":"cebpf4jnsgd1na2vs0mg"},{"bike_id":"4605d1b3-e55d-4b54-89ec-f3e4f39a7782","system_id":"levelo_inurba_marseille","lat":43.2737,"lon":5.36233,"is_reserved":false,"is_disabled":false,"rental_uris":{"android":"levelo://app?vid=4605d1b3-e55d-4b54-89ec-f3e4f39a7782","ios":"levelo://app?vid=4605d1b3-e55d-4b54-89ec-f3e4f39a7782"},"vehicle_type_id":"4","last_reported":1751562707,"current_range_meters":4400,"station_id":"ce4bhbh2rcd13ifvqeo0","pricing_plan_id":"cebpf4jnsgd1na2vs0mg"},{"bike_id":"39637bc7-3640-42e5-8c91-be51e1f42a4f","system_id":"levelo_inurba_marseille","lat":43.27374,"lon":5.36245,"is_reserved":false,"is_disabled":false,"rental_uris":{"android":"levelo://app?vid=39637bc7-3640-42e5-8c91-be51e1f42a4f","ios":"levelo://app?vid=39637bc7-3640-42e5-8c91-be51e1f42a4f"},"vehicle_type_id":"4","last_reported":1751562707,"current_range_meters":4400,"station_id":"ce4bhbh2rcd13ifvqeo0","pricing_plan_id":"cebpf4jnsgd1na2vs0mg"},{"bike_id":"eace4272-f76a-4b78-899f-2d2baf864a0f","system_id":"levelo_inurba_marseille","lat":43.27372,"lon":5.36259,"is_reserved":false,"is_disabled":false,"rental_uris":{"android":"levelo://app?vid=eace4272-f76a-4b78-899f-2d2baf864a0f","ios":"levelo://app?vid=eace4272-f76a-4b78-899f-2d2baf864a0f"},"vehicle_type_id":"4","last_reported":1751562707,"current_range_meters":4800,"station_id":"ce4bhbh2rcd13ifvqeo0","pricing_plan_id":"cebpf4jnsgd1na2vs0mg"},{"bike_id":"af5d1b23-119a-4327-b2c5-1cfd9082f2c6","system_id":"levelo_inurba_marseille","lat":43.26027,"lon":5.37552,"is_reserved":false,"is_disabled":false,"rental_uris":{"android":"levelo://app?vid=af5d1b23-119a-4327-b2c5-1cfd9082f2c6","ios":"levelo://app?vid=af5d1b23-119a-4327-b2c5-1cfd9082f2c6"},"vehicle_type_id":"4","last_reported":1751562707,"current_range_meters":4800,"station_id":"ce4bhgh2rcd13ifvqfa0","pricing_plan_id":"cebpf4jnsgd1na2vs0mg"},{"bike_id":"245f98be-1255-41e4-a879-f5841093ea13","system_id":"levelo_inurba_marseille","lat":43.28726,"lon":5.36084,"is_reserved":false,"is_disabled":false,"rental_uris":{"android":"levelo://app?vid=245f98be-1255-41e4-a879-f5841093ea13","ios":"levelo://app?vid=245f98be-1255-41e4-a879-f5841093ea13"},"vehicle_type_id":"4","last_reported":1751562707,"current_range_meters":4800,"station_id":"cki0cbj6b192h4jlfktg","pricing_plan_id":"cebpf4jnsgd1na2vs0mg"},{"bike_id":"c4a945b2-223d-4ea8-8f0b-0f4df3b72a1d","system_id":"levelo_inurba_marseille","lat":43.33587,"lon":5.40981,"is_reserved":false,"is_disabled":false,"rental_uris":{"android":"levelo://app?vid=c4a945b2-223d-4ea8-8f0b-0f4df3b72a1d","ios":"levelo://app?vid=c4a945b2-223d-4ea8-8f0b-0f4df3b72a1d"},"vehicle_type_id":"4","last_reported":1751562707,"current_range_meters":5600,"station_id":"","pricing_plan_id":"cebpf4jnsgd1na2vs0mg"},{"bike_id":"84f2d850-0b41-46e9-94e3-d7da8fd30a86","system_id":"levelo_inurba_marseille","lat":43.3014,"lon":5.37425,"is_reserved":false,"is_disabled":false,"rental_uris":{"android":"levelo://app?vid=84f2d850-0b41-46e9-94e3-d7da8fd30a86","ios":"levelo://app?vid=84f2d850-0b41-46e9-94e3-d7da8fd30a86"},"vehicle_type_id":"4","last_reported":1751562707,"current_range_meters":5600,"station_id":"ce4bgs92rcd13ifvqcc0","pricing_plan_id":"cebpf4jnsgd1na2vs0mg"},{"bike_id":"c355807d-17ef-4436-b11f-8269a58353c6","system_id":"levelo_inurba_marseille","lat":43.2842,"lon":5.34973,"is_reserved":false,"is_disabled":false,"rental_uris":{"android":"levelo://app?vid=c355807d-17ef-4436-b11f-8269a58353c6","ios":"levelo://app?vid=c355807d-17ef-4436-b11f-8269a58353c6"},"vehicle_type_id":"4","last_reported":1751562707,"current_range_meters":5600,"station_id":"ce4bhbh2rcd13ifvqepg","pricing_plan_id":"cebpf4jnsgd1na2vs0mg"},{"bike_id":"c9fa4155-8cc4-45c7-87f6-6dd44a46d94c","system_id":"levelo_inurba_marseille","lat":43.27904,"lon":5.38011,"is_reserved":false,"is_disabled":false,"rental_uris":{"android":"levelo://app?vid=c9fa4155-8cc4-45c7-87f6-6dd44a46d94c","ios":"levelo://app?vid=c9fa4155-8cc4-45c7-87f6-6dd44a46d94c"},"vehicle_type_id":"4","last_reported":1751562707,"current_range_meters":5600,"station_id":"ce4bhf92rcd13ifvqf50","pricing_plan_id":"cebpf4jnsgd1na2vs0mg"},{"bike_id":"bb93e53c-9b2b-49b5-8e05-caa1c738e307","system_id":"levelo_inurba_marseille","lat":43.30331,"lon":5.40431,"is_reserved":false,"is_disabled":false,"rental_uris":{"android":"levelo://app?vid=bb93e53c-9b2b-49b5-8e05-caa1c738e307","ios":"levelo://app?vid=bb93e53c-9b2b-49b5-8e05-caa1c738e307"},"vehicle_type_id":"4","last_reported":1751562707,"current_range_meters":6000,"station_id":"ce4bh012rcd13ifvqd10","pricing_plan_id":"cebpf4jnsgd1na2vs0mg"},{"bike_id":"c2bdecc1-6a34-4119-bc0e-b9a58d00d33d","system_id":"levelo_inurba_marseille","lat":43.28279,"lon":5.35065,"is_reserved":false,"is_disabled":false,"rental_uris":{"android":"levelo://app?vid=c2bdecc1-6a34-4119-bc0e-b9a58d00d33d","ios":"levelo://app?vid=c2bdecc1-6a34-4119-bc0e-b9a58d00d33d"},"vehicle_type_id":"4","last_reported":1751562707,"current_range_meters":6000,"station_id":"ce4bhbp2rcd13ifvqerg","pricing_plan_id":"cebpf4jnsgd1na2vs0mg"},{"bike_id":"8a73edb3-ac80-4778-9f59-faebcac59ba5","system_id":"levelo_inurba_marseille","lat":43.28614,"lon":5.35107,"is_reserved":false,"is_disabled":false,"rental_uris":{"android":"levelo://app?vid=8a73edb3-ac80-4778-9f59-faebcac59ba5","ios":"levelo://app?vid=8a73edb3-ac80-4778-9f59-faebcac59ba5"},"vehicle_type_id":"4","last_reported":1751562707,"current_range_meters":6000,"station_id":"ce4bhch2rcd13ifvqeug","pricing_plan_id":"cebpf4jnsgd1na2vs0mg"},{"bike_id":"05912f9a-4777-4f65-957b-8aa297e9bee1","system_id":"levelo_inurba_marseille","lat":43.27942,"lon":5.41049,"is_reserved":false,"is_disabled":false,"rental_uris":{"android":"levelo://app?vid=05912f9a-4777-4f65-957b-8aa297e9bee1","ios":"levelo://app?vid=05912f9a-4777-4f65-957b-8aa297e9bee1"},"vehicle_type_id":"4","last_reported":1751562707,"current_range_meters":6000,"station_id":"ce4bhnp2rcd13ifvqh0g","pricing_plan_id":"cebpf4jnsgd1na2vs0mg"},{"bike_id":"8a66890a-a59b-4bef-8e35-490c4eae833b","system_id":"levelo_inurba_marseille","lat":43.225064,"lon":5.347859,"is_reserved":false,"is_disabled":false,"rental_uris":{"android":"levelo://app?vid=8a66890a-a59b-4bef-8e35-490c4eae833b","ios":"levelo://app?vid=8a66890a-a59b-4bef-8e35-490c4eae833b"},"vehicle_type_id":"4","last_reported":1751562707,"current_range_meters":6400,"station_id":"","pricing_plan_id":"cebpf4jnsgd1na2vs0mg"},{"bike_id":"0e39bc76-1f51-40a0-8741-451b9a393449","system_id":"levelo_inurba_marseille","lat":43.30139,"lon":5.37422,"is_reserved":false,"is_disabled":false,"rental_uris":{"android":"levelo://app?vid=0e39bc76-1f51-40a0-8741-451b9a393449","ios":"levelo://app?vid=0e39bc76-1f51-40a0-8741-451b9a393449"},"vehicle_type_id":"4","last_reported":1751562707,"current_range_meters":6400,"station_id":"ce4bgs92rcd13ifvqcc0","pricing_plan_id":"cebpf4jnsgd1na2vs0mg"},{"bike_id":"a338f12c-600f-4597-b78a-96cc13e07464","system_id":"levelo_inurba_marseille","lat":43.28434,"lon":5.34985,"is_reserved":false,"is_disabled":false,"rental_uris":{"android":"levelo://app?vid=a338f12c-600f-4597-b78a-96cc13e07464","ios":"levelo://app?vid=a338f12c-600f-4597-b78a-96cc13e07464"},"vehicle_type_id":"4","last_reported":1751562707,"current_range_meters":6400,"station_id":"ce4bhbh2rcd13ifvqepg","pricing_plan_id":"cebpf4jnsgd1na2vs0mg"},{"bike_id":"3e90d97d-3b59-4009-9372-27a91345d24a","system_id":"levelo_inurba_marseille","lat":43.286186,"lon":5.351095,"is_reserved":false,"is_disabled":false,"rental_uris":{"android":"levelo://app?vid=3e90d97d-3b59-4009-9372-27a91345d24a","ios":"levelo://app?vid=3e90d97d-3b59-4009-9372-27a91345d24a"},"vehicle_type_id":"4","last_reported":1751562707,"current_range_meters":6400,"station_id":"ce4bhch2rcd13ifvqeug","pricing_plan_id":"cebpf4jnsgd1na2vs0mg"},{"bike_id":"46fb17ab-ad15-4484-964a-b2a03f6d9e06","system_id":"levelo_inurba_marseille","lat":43.2861,"lon":5.35103,"is_reserved":false,"is_disabled":false,"rental_uris":{"android":"levelo://app?vid=46fb17ab-ad15-4484-964a-b2a03f6d9e06","ios":"levelo://app?vid=46fb17ab-ad15-4484-964a-b2a03f6d9e06"},"vehicle_type_id":"4","last_reported":1751562707,"current_range_meters":6400,"station_id":"ce4bhch2rcd13ifvqeug","pricing_plan_id":"cebpf4jnsgd1na2vs0mg"},{"bike_id":"63c8040d-57f5-400d-aa1c-a8d432425798","system_id":"levelo_inurba_marseille","lat":43.22931,"lon":5.35375,"is_reserved":false,"is_disabled":false,"rental_uris":{"android":"levelo://app?vid=63c8040d-57f5-400d-aa1c-a8d432425798","ios":"levelo://app?vid=63c8040d-57f5-400d-aa1c-a8d432425798"},"vehicle_type_id":"4","last_reported":1751562707,"current_range_meters":6400,"station_id":"cpo3532slgdg3j2ikp40","pricing_plan_id":"cebpf4jnsgd1na2vs0mg"},{"bike_id":"de3d3d25-7354-49cb-8fa4-5acf1471cb8d","system_id":"levelo_inurba_marseille","lat":43.21198,"lon":5.35062,"is_reserved":false,"is_disabled":false,"rental_uris":{"android":"levelo://app?vid=de3d3d25-7354-49cb-8fa4-5acf1471cb8d","ios":"levelo://app?vid=de3d3d25-7354-49cb-8fa4-5acf1471cb8d"},"vehicle_type_id":"4","last_reported":1751562707,"current_range_meters":6400,"station_id":"st_cvj6sg6p6f1abm77japg","pricing_plan_id":"cebpf4jnsgd1na2vs0mg"},{"bike_id":"05c7b799-9781-4950-8cd4-d185fec2ae95","system_id":"levelo_inurba_marseille","lat":43.21194,"lon":5.35067,"is_reserved":false,"is_disabled":false,"rental_uris":{"android":"levelo://app?vid=05c7b799-9781-4950-8cd4-d185fec2ae95","ios":"levelo://app?vid=05c7b799-9781-4950-8cd4-d185fec2ae95"},"vehicle_type_id":"4","last_reported":1751562707,"current_range_meters":6400,"station_id":"st_cvj6sg6p6f1abm77japg","pricing_plan_id":"cebpf4jnsgd1na2vs0mg"},{"bike_id":"e2f2d015-a385-4ee7-b3f3-b4f045e4e677","system_id":"levelo_inurba_marseille","lat":43.26243,"lon":5.37416,"is_reserved":false,"is_disabled":false,"rental_uris":{"android":"levelo://app?vid=e2f2d015-a385-4ee7-b3f3-b4f045e4e677","ios":"levelo://app?vid=e2f2d015-a385-4ee7-b3f3-b4f045e4e677"},"vehicle_type_id":"4","last_reported":1751562707,"current_range_meters":6800,"station_id":"","pricing_plan_id":"cebpf4jnsgd1na2vs0mg"},{"bike_id":"52fca1e6-8ced-447a-8458-b55088d707ce","system_id":"levelo_inurba_marseille","lat":43.28424,"lon":5.34969,"is_reserved":false,"is_disabled":false,"rental_uris":{"android":"levelo://app?vid=52fca1e6-8ced-447a-8458-b55088d707ce","ios":"levelo://app?vid=52fca1e6-8ced-447a-8458-b55088d707ce"},"vehicle_type_id":"4","last_reported":1751562707,"current_range_meters":6800,"station_id":"ce4bhbh2rcd13ifvqepg","pricing_plan_id":"cebpf4jnsgd1na2vs0mg"},{"bike_id":"05ee7334-3f6f-4486-a8b6-5c962b30bb46","system_id":"levelo_inurba_marseille","lat":43.29546,"lon":5.42277,"is_reserved":false,"is_disabled":false,"rental_uris":{"android":"levelo://app?vid=05ee7334-3f6f-4486-a8b6-5c962b30bb46","ios":"levelo://app?vid=05ee7334-3f6f-4486-a8b6-5c962b30bb46"},"vehicle_type_id":"4","last_reported":1751562707,"current_range_meters":6800,"station_id":"ce4bhph2rcd13ifvqhdg","pricing_plan_id":"cebpf4jnsgd1na2vs0mg"},{"bike_id":"2bdc26b0-a74e-4493-92df-31110edddd1f","system_id":"levelo_inurba_marseille","lat":43.30601,"lon":5.37238,"is_reserved":false,"is_disabled":false,"rental_uris":{"android":"levelo://app?vid=2bdc26b0-a74e-4493-92df-31110edddd1f","ios":"levelo://app?vid=2bdc26b0-a74e-4493-92df-31110edddd1f"},"vehicle_type_id":"4","last_reported":1751562707,"current_range_meters":7200,"station_id":"ce4bgqh2rcd13ifvqc4g","pricing_plan_id":"cebpf4jnsgd1na2vs0mg"},{"bike_id":"5cba1401-2f41-4a26-9e98-1dca1d21751a","system_id":"levelo_inurba_marseille","lat":43.2901,"lon":5.3561,"is_reserved":false,"is_disabled":false,"rental_uris":{"android":"levelo://app?vid=5cba1401-2f41-4a26-9e98-1dca1d21751a","ios":"levelo://app?vid=5cba1401-2f41-4a26-9e98-1dca1d21751a"},"vehicle_type_id":"4","last_reported":1751562707,"current_range_meters":7200,"station_id":"ce4bhb92rcd13ifvqen0","pricing_plan_id":"cebpf4jnsgd1na2vs0mg"},{"bike_id":"d825bc97-2e20-41de-8500-39af6e90c62f","system_id":"levelo_inurba_marseille","lat":43.2758,"lon":5.38422,"is_reserved":false,"is_disabled":false,"rental_uris":{"android":"levelo://app?vid=d825bc97-2e20-41de-8500-39af6e90c62f","ios":"levelo://app?vid=d825bc97-2e20-41de-8500-39af6e90c62f"},"vehicle_type_id":"4","last_reported":1751562707,"current_range_meters":7200,"station_id":"ce4bhh92rcd13ifvqfi0","pricing_plan_id":"cebpf4jnsgd1na2vs0mg"},{"bike_id":"f672995e-5e63-4b12-9dd8-9a25e104ac37","system_id":"levelo_inurba_marseille","lat":43.25578,"lon":5.38225,"is_reserved":false,"is_disabled":false,"rental_uris":{"android":"levelo://app?vid=f672995e-5e63-4b12-9dd8-9a25e104ac37","ios":"levelo://app?vid=f672995e-5e63-4b12-9dd8-9a25e104ac37"},"vehicle_type_id":"4","last_reported":1751562707,"current_range_meters":8000,"station_id":"ce4bhih2rcd13ifvqfs0","pricing_plan_id":"cebpf4jnsgd1na2vs0mg"},{"bike_id":"d46c6061-6e37-4eb5-aa4f-a65f6839f2c8","system_id":"levelo_inurba_marseille","lat":43.28275,"lon":5.35062,"is_reserved":false,"is_disabled":false,"rental_uris":{"android":"levelo://app?vid=d46c6061-6e37-4eb5-aa4f-a65f6839f2c8","ios":"levelo://app?vid=d46c6061-6e37-4eb5-aa4f-a65f6839f2c8"},"vehicle_type_id":"4","last_reported":1751562707,"current_range_meters":8400,"station_id":"ce4bhbp2rcd13ifvqerg","pricing_plan_id":"cebpf4jnsgd1na2vs0mg"},{"bike_id":"ac31760f-bc8c-4829-ae59-52e027e035db","system_id":"levelo_inurba_marseille","lat":43.28609,"lon":5.37065,"is_reserved":false,"is_disabled":false,"rental_uris":{"android":"levelo://app?vid=ac31760f-bc8c-4829-ae59-52e027e035db","ios":"levelo://app?vid=ac31760f-bc8c-4829-ae59-52e027e035db"},"vehicle_type_id":"4","last_reported":1751562707,"current_range_meters":8400,"station_id":"ce4bht12rcd13ifvqi60","pricing_plan_id":"cebpf4jnsgd1na2vs0mg"},{"bike_id":"cc91ddc0-b1de-400f-bc8e-d853fe9ae4b4","system_id":"levelo_inurba_marseille","lat":43.24168,"lon":5.3639,"is_reserved":false,"is_disabled":false,"rental_uris":{"android":"levelo://app?vid=cc91ddc0-b1de-400f-bc8e-d853fe9ae4b4","ios":"levelo://app?vid=cc91ddc0-b1de-400f-bc8e-d853fe9ae4b4"},"vehicle_type_id":"4","last_reported":1751562707,"current_range_meters":8400,"station_id":"cpo36qri1sfpv3e86is0","pricing_plan_id":"cebpf4jnsgd1na2vs0mg"},{"bike_id":"b2e4dfac-d591-49f6-805e-863bc7fdf57a","system_id":"levelo_inurba_marseille","lat":43.295776,"lon":5.375092,"is_reserved":false,"is_disabled":false,"rental_uris":{"android":"levelo://app?vid=b2e4dfac-d591-49f6-805e-863bc7fdf57a","ios":"levelo://app?vid=b2e4dfac-d591-49f6-805e-863bc7fdf57a"},"vehicle_type_id":"4","last_reported":1751562707,"current_range_meters":8800,"station_id":"ce4bgh92rcd13ifvqb50","pricing_plan_id":"cebpf4jnsgd1na2vs0mg"},{"bike_id":"3cc6114a-cec5-49ca-a6ca-96f8022cfaff","system_id":"levelo_inurba_marseille","lat":43.29219,"lon":5.35822,"is_reserved":false,"is_disabled":false,"rental_uris":{"android":"levelo://app?vid=3cc6114a-cec5-49ca-a6ca-96f8022cfaff","ios":"levelo://app?vid=3cc6114a-cec5-49ca-a6ca-96f8022cfaff"},"vehicle_type_id":"4","last_reported":1751562707,"current_range_meters":8800,"station_id":"ce4bhb12rcd13ifvqel0","pricing_plan_id":"cebpf4jnsgd1na2vs0mg"},{"bike_id":"fc1e3d63-4958-4d1c-95e1-eafad4a5496a","system_id":"levelo_inurba_marseille","lat":43.27372,"lon":5.3626,"is_reserved":false,"is_disabled":false,"rental_uris":{"android":"levelo://app?vid=fc1e3d63-4958-4d1c-95e1-eafad4a5496a","ios":"levelo://app?vid=fc1e3d63-4958-4d1c-95e1-eafad4a5496a"},"vehicle_type_id":"4","last_reported":1751562707,"current_range_meters":8800,"station_id":"ce4bhbh2rcd13ifvqeo0","pricing_plan_id":"cebpf4jnsgd1na2vs0mg"},{"bike_id":"0f8c1e38-72c7-4c3b-b044-c07f79b54c4c","system_id":"levelo_inurba_marseille","lat":43.27826,"lon":5.39208,"is_reserved":false,"is_disabled":false,"rental_uris":{"android":"levelo://app?vid=0f8c1e38-72c7-4c3b-b044-c07f79b54c4c","ios":"levelo://app?vid=0f8c1e38-72c7-4c3b-b044-c07f79b54c4c"},"vehicle_type_id":"4","last_reported":1751562707,"current_range_meters":8800,"station_id":"ce4bhjp2rcd13ifvqga0","pricing_plan_id":"cebpf4jnsgd1na2vs0mg"},{"bike_id":"9a7d342a-ff8e-46c4-af1e-6e0519bd67dc","system_id":"levelo_inurba_marseille","lat":43.291433,"lon":5.355899,"is_reserved":false,"is_disabled":false,"rental_uris":{"android":"levelo://app?vid=9a7d342a-ff8e-46c4-af1e-6e0519bd67dc","ios":"levelo://app?vid=9a7d342a-ff8e-46c4-af1e-6e0519bd67dc"},"vehicle_type_id":"4","last_reported":1751562707,"current_range_meters":9200,"station_id":"","pricing_plan_id":"cebpf4jnsgd1na2vs0mg"},{"bike_id":"bf00a211-3496-4df0-8e4e-99767047ca09","system_id":"levelo_inurba_marseille","lat":43.299635,"lon":5.375961,"is_reserved":false,"is_disabled":false,"rental_uris":{"android":"levelo://app?vid=bf00a211-3496-4df0-8e4e-99767047ca09","ios":"levelo://app?vid=bf00a211-3496-4df0-8e4e-99767047ca09"},"vehicle_type_id":"4","last_reported":1751562707,"current_range_meters":9200,"station_id":"","pricing_plan_id":"cebpf4jnsgd1na2vs0mg"},{"bike_id":"1a43afe0-8a19-4189-a294-1ea434f9e02d","system_id":"levelo_inurba_marseille","lat":43.28409,"lon":5.34994,"is_reserved":false,"is_disabled":false,"rental_uris":{"android":"levelo://app?vid=1a43afe0-8a19-4189-a294-1ea434f9e02d","ios":"levelo://app?vid=1a43afe0-8a19-4189-a294-1ea434f9e02d"},"vehicle_type_id":"4","last_reported":1751562707,"current_range_meters":9200,"station_id":"ce4bhbh2rcd13ifvqepg","pricing_plan_id":"cebpf4jnsgd1na2vs0mg"},{"bike_id":"2daec926-cf6a-4897-b995-077bc43c57ec","system_id":"levelo_inurba_marseille","lat":43.286308,"lon":5.350919,"is_reserved":false,"is_disabled":false,"rental_uris":{"android":"levelo://app?vid=2daec926-cf6a-4897-b995-077bc43c57ec","ios":"levelo://app?vid=2daec926-cf6a-4897-b995-077bc43c57ec"},"vehicle_type_id":"4","last_reported":1751562707,"current_range_meters":9200,"station_id":"ce4bhch2rcd13ifvqeug","pricing_plan_id":"cebpf4jnsgd1na2vs0mg"},{"bike_id":"772d4110-8af4-4d4a-bc40-d2829eef26f8","system_id":"levelo_inurba_marseille","lat":43.28613,"lon":5.35107,"is_reserved":false,"is_disabled":false,"rental_uris":{"android":"levelo://app?vid=772d4110-8af4-4d4a-bc40-d2829eef26f8","ios":"levelo://app?vid=772d4110-8af4-4d4a-bc40-d2829eef26f8"},"vehicle_type_id":"4","last_reported":1751562707,"current_range_meters":9200,"station_id":"ce4bhch2rcd13ifvqeug","pricing_plan_id":"cebpf4jnsgd1na2vs0mg"},{"bike_id":"1d2f6f00-fd9e-4f1b-b88e-6f7ccb160d6f","system_id":"levelo_inurba_marseille","lat":43.26031,"lon":5.37546,"is_reserved":false,"is_disabled":false,"rental_uris":{"android":"levelo://app?vid=1d2f6f00-fd9e-4f1b-b88e-6f7ccb160d6f","ios":"levelo://app?vid=1d2f6f00-fd9e-4f1b-b88e-6f7ccb160d6f"},"vehicle_type_id":"4","last_reported":1751562707,"current_range_meters":9200,"station_id":"ce4bhgh2rcd13ifvqfa0","pricing_plan_id":"cebpf4jnsgd1na2vs0mg"},{"bike_id":"1269545e-db22-4872-ac86-22f2eda39e8b","system_id":"levelo_inurba_marseille","lat":43.25586,"lon":5.38254,"is_reserved":false,"is_disabled":false,"rental_uris":{"android":"levelo://app?vid=1269545e-db22-4872-ac86-22f2eda39e8b","ios":"levelo://app?vid=1269545e-db22-4872-ac86-22f2eda39e8b"},"vehicle_type_id":"4","last_reported":1751562707,"current_range_meters":9200,"station_id":"ce4bhih2rcd13ifvqfs0","pricing_plan_id":"cebpf4jnsgd1na2vs0mg"},{"bike_id":"67e370c7-3e0a-4306-80ff-640d5619aac6","system_id":"levelo_inurba_marseille","lat":43.26196,"lon":5.3793,"is_reserved":false,"is_disabled":false,"rental_uris":{"android":"levelo://app?vid=67e370c7-3e0a-4306-80ff-640d5619aac6","ios":"levelo://app?vid=67e370c7-3e0a-4306-80ff-640d5619aac6"},"vehicle_type_id":"4","last_reported":1751562707,"current_range_meters":9200,"station_id":"ce4bhjp2rcd13ifvqg90","pricing_plan_id":"cebpf4jnsgd1na2vs0mg"},{"bike_id":"7f31cae1-9e47-40be-af25-cafa3596a3cd","system_id":"levelo_inurba_marseille","lat":43.25933,"lon":5.40889,"is_reserved":false,"is_disabled":false,"rental_uris":{"android":"levelo://app?vid=7f31cae1-9e47-40be-af25-cafa3596a3cd","ios":"levelo://app?vid=7f31cae1-9e47-40be-af25-cafa3596a3cd"},"vehicle_type_id":"4","last_reported":1751562707,"current_range_meters":9200,"station_id":"ce4bhm92rcd13ifvqglg","pricing_plan_id":"cebpf4jnsgd1na2vs0mg"},{"bike_id":"b44c5f08-ff86-44db-a0f4-3b801f7529e3","system_id":"levelo_inurba_marseille","lat":43.320594,"lon":5.415352,"is_reserved":false,"is_disabled":false,"rental_uris":{"android":"levelo://app?vid=b44c5f08-ff86-44db-a0f4-3b801f7529e3","ios":"levelo://app?vid=b44c5f08-ff86-44db-a0f4-3b801f7529e3"},"vehicle_type_id":"4","last_reported":1751562707,"current_range_meters":9200,"station_id":"ce4bhq92rcd13ifvqhkg","pricing_plan_id":"cebpf4jnsgd1na2vs0mg"},{"bike_id":"22c65f34-5b9a-4ce8-b3b0-5a1a52b259a2","system_id":"levelo_inurba_marseille","lat":43.29712,"lon":5.40197,"is_reserved":false,"is_disabled":false,"rental_uris":{"android":"levelo://app?vid=22c65f34-5b9a-4ce8-b3b0-5a1a52b259a2","ios":"levelo://app?vid=22c65f34-5b9a-4ce8-b3b0-5a1a52b259a2"},"vehicle_type_id":"4","last_reported":1751562707,"current_range_meters":9600,"station_id":"","pricing_plan_id":"cebpf4jnsgd1na2vs0mg"},{"bike_id":"e26ba497-efc7-4420-b8c5-9fa5e27f2ce4","system_id":"levelo_inurba_marseille","lat":43.313487,"lon":5.370755,"is_reserved":false,"is_disabled":false,"rental_uris":{"android":"levelo://app?vid=e26ba497-efc7-4420-b8c5-9fa5e27f2ce4","ios":"levelo://app?vid=e26ba497-efc7-4420-b8c5-9fa5e27f2ce4"},"vehicle_type_id":"4","last_reported":1751562707,"current_range_meters":9600,"station_id":"","pricing_plan_id":"cebpf4jnsgd1na2vs0mg"},{"bike_id":"4399d7c3-f84e-4e37-8732-8ee9261c53e6","system_id":"levelo_inurba_marseille","lat":43.28417,"lon":5.34975,"is_reserved":false,"is_disabled":false,"rental_uris":{"android":"levelo://app?vid=4399d7c3-f84e-4e37-8732-8ee9261c53e6","ios":"levelo://app?vid=4399d7c3-f84e-4e37-8732-8ee9261c53e6"},"vehicle_type_id":"4","last_reported":1751562707,"current_range_meters":9600,"station_id":"ce4bhbh2rcd13ifvqepg","pricing_plan_id":"cebpf4jnsgd1na2vs0mg"},{"bike_id":"97c9fde2-c331-45ed-83dc-a08a72afb211","system_id":"levelo_inurba_marseille","lat":43.255,"lon":5.3765,"is_reserved":false,"is_disabled":false,"rental_uris":{"android":"levelo://app?vid=97c9fde2-c331-45ed-83dc-a08a72afb211","ios":"levelo://app?vid=97c9fde2-c331-45ed-83dc-a08a72afb211"},"vehicle_type_id":"4","last_reported":1751562707,"current_range_meters":9600,"station_id":"ce4bhh12rcd13ifvqff0","pricing_plan_id":"cebpf4jnsgd1na2vs0mg"},{"bike_id":"97772c60-611d-4aff-a906-7a8f8ae8af38","system_id":"levelo_inurba_marseille","lat":43.23193,"lon":5.355518,"is_reserved":false,"is_disabled":false,"rental_uris":{"android":"levelo://app?vid=97772c60-611d-4aff-a906-7a8f8ae8af38","ios":"levelo://app?vid=97772c60-611d-4aff-a906-7a8f8ae8af38"},"vehicle_type_id":"4","last_reported":1751562707,"current_range_meters":9600,"station_id":"ce4bhu92rcd13ifvqi70","pricing_plan_id":"cebpf4jnsgd1na2vs0mg"},{"bike_id":"ef50a132-c502-4afc-a8c2-7de6a0df1152","system_id":"levelo_inurba_marseille","lat":43.225081,"lon":5.34786,"is_reserved":false,"is_disabled":false,"rental_uris":{"android":"levelo://app?vid=ef50a132-c502-4afc-a8c2-7de6a0df1152","ios":"levelo://app?vid=ef50a132-c502-4afc-a8c2-7de6a0df1152"},"vehicle_type_id":"4","last_reported":1751562707,"current_range_meters":9600,"station_id":"st_cvj5dfep6f1abm77gieg","pricing_plan_id":"cebpf4jnsgd1na2vs0mg"},{"bike_id":"bcfd0eda-b9ab-4bec-9ca3-3f2b86617415","system_id":"levelo_inurba_marseille","lat":43.211954,"lon":5.350773,"is_reserved":false,"is_disabled":false,"rental_uris":{"android":"levelo://app?vid=bcfd0eda-b9ab-4bec-9ca3-3f2b86617415","ios":"levelo://app?vid=bcfd0eda-b9ab-4bec-9ca3-3f2b86617415"},"vehicle_type_id":"4","last_reported":1751562707,"current_range_meters":9600,"station_id":"st_cvj6sg6p6f1abm77japg","pricing_plan_id":"cebpf4jnsgd1na2vs0mg"},{"bike_id":"e6e35bac-dfb1-4c33-97b8-f0526a6f2e98","system_id":"levelo_inurba_marseille","lat":43.29264,"lon":5.40898,"is_reserved":false,"is_disabled":false,"rental_uris":{"android":"levelo://app?vid=e6e35bac-dfb1-4c33-97b8-f0526a6f2e98","ios":"levelo://app?vid=e6e35bac-dfb1-4c33-97b8-f0526a6f2e98"},"vehicle_type_id":"4","last_reported":1751562707,"current_range_meters":10000,"station_id":"ce4bh192rcd13ifvqdc0","pricing_plan_id":"cebpf4jnsgd1na2vs0mg"},{"bike_id":"f216fed8-9c3f-49e7-babc-6d21a7a17f13","system_id":"levelo_inurba_marseille","lat":43.27371,"lon":5.36256,"is_reserved":false,"is_disabled":false,"rental_uris":{"android":"levelo://app?vid=f216fed8-9c3f-49e7-babc-6d21a7a17f13","ios":"levelo://app?vid=f216fed8-9c3f-49e7-babc-6d21a7a17f13"},"vehicle_type_id":"4","last_reported":1751562707,"current_range_meters":10000,"station_id":"ce4bhbh2rcd13ifvqeo0","pricing_plan_id":"cebpf4jnsgd1na2vs0mg"},{"bike_id":"e2531913-9310-4566-aef9-35ec0627529a","system_id":"levelo_inurba_marseille","lat":43.2862,"lon":5.35094,"is_reserved":false,"is_disabled":false,"rental_uris":{"android":"levelo://app?vid=e2531913-9310-4566-aef9-35ec0627529a","ios":"levelo://app?vid=e2531913-9310-4566-aef9-35ec0627529a"},"vehicle_type_id":"4","last_reported":1751562707,"current_range_meters":10000,"station_id":"ce4bhch2rcd13ifvqeug","pricing_plan_id":"cebpf4jnsgd1na2vs0mg"},{"bike_id":"c5e689ef-7853-4bce-98a4-08cb7d5f042a","system_id":"levelo_inurba_marseille","lat":43.28613,"lon":5.35108,"is_reserved":false,"is_disabled":false,"rental_uris":{"android":"levelo://app?vid=c5e689ef-7853-4bce-98a4-08cb7d5f042a","ios":"levelo://app?vid=c5e689ef-7853-4bce-98a4-08cb7d5f042a"},"vehicle_type_id":"4","last_reported":1751562707,"current_range_meters":10000,"station_id":"ce4bhch2rcd13ifvqeug","pricing_plan_id":"cebpf4jnsgd1na2vs0mg"},{"bike_id":"c9293dee-2b60-4cda-928a-eced1c723c52","system_id":"levelo_inurba_marseille","lat":43.29008,"lon":5.35611,"is_reserved":false,"is_disabled":false,"rental_uris":{"android":"levelo://app?vid=c9293dee-2b60-4cda-928a-eced1c723c52","ios":"levelo://app?vid=c9293dee-2b60-4cda-928a-eced1c723c52"},"vehicle_type_id":"4","last_reported":1751562707,"current_range_meters":10800,"station_id":"ce4bhb92rcd13ifvqen0","pricing_plan_id":"cebpf4jnsgd1na2vs0mg"},{"bike_id":"65a09e99-6f5f-46e0-b8f3-c288eb195e49","system_id":"levelo_inurba_marseille","lat":43.28421,"lon":5.34993,"is_reserved":false,"is_disabled":false,"rental_uris":{"android":"levelo://app?vid=65a09e99-6f5f-46e0-b8f3-c288eb195e49","ios":"levelo://app?vid=65a09e99-6f5f-46e0-b8f3-c288eb195e49"},"vehicle_type_id":"4","last_reported":1751562707,"current_range_meters":10800,"station_id":"ce4bhbh2rcd13ifvqepg","pricing_plan_id":"cebpf4jnsgd1na2vs0mg"},{"bike_id":"e36eeb04-35cc-4a52-97d7-6ba58bfe555b","system_id":"levelo_inurba_marseille","lat":43.295516,"lon":5.422895,"is_reserved":false,"is_disabled":false,"rental_uris":{"android":"levelo://app?vid=e36eeb04-35cc-4a52-97d7-6ba58bfe555b","ios":"levelo://app?vid=e36eeb04-35cc-4a52-97d7-6ba58bfe555b"},"vehicle_type_id":"4","last_reported":1751562707,"current_range_meters":10800,"station_id":"ce4bhph2rcd13ifvqhdg","pricing_plan_id":"cebpf4jnsgd1na2vs0mg"},{"bike_id":"16a8afe6-e43e-4d1b-a7bd-ed83d113735a","system_id":"levelo_inurba_marseille","lat":43.32436,"lon":5.41185,"is_reserved":false,"is_disabled":false,"rental_uris":{"android":"levelo://app?vid=16a8afe6-e43e-4d1b-a7bd-ed83d113735a","ios":"levelo://app?vid=16a8afe6-e43e-4d1b-a7bd-ed83d113735a"},"vehicle_type_id":"4","last_reported":1751562707,"current_range_meters":11200,"station_id":"","pricing_plan_id":"cebpf4jnsgd1na2vs0mg"},{"bike_id":"13f2b8e5-02d3-4b0c-a2c2-9fd0735a060a","system_id":"levelo_inurba_marseille","lat":43.29047,"lon":5.35905,"is_reserved":false,"is_disabled":false,"rental_uris":{"android":"levelo://app?vid=13f2b8e5-02d3-4b0c-a2c2-9fd0735a060a","ios":"levelo://app?vid=13f2b8e5-02d3-4b0c-a2c2-9fd0735a060a"},"vehicle_type_id":"4","last_reported":1751562707,"current_range_meters":11200,"station_id":"ce4bha92rcd13ifvqeg0","pricing_plan_id":"cebpf4jnsgd1na2vs0mg"},{"bike_id":"c1658b09-1d46-4641-9341-bdc36682757d","system_id":"levelo_inurba_marseille","lat":43.28418,"lon":5.34984,"is_reserved":false,"is_disabled":false,"rental_uris":{"android":"levelo://app?vid=c1658b09-1d46-4641-9341-bdc36682757d","ios":"levelo://app?vid=c1658b09-1d46-4641-9341-bdc36682757d"},"vehicle_type_id":"4","last_reported":1751562707,"current_range_meters":11200,"station_id":"ce4bhbh2rcd13ifvqepg","pricing_plan_id":"cebpf4jnsgd1na2vs0mg"},{"bike_id":"f5406ee3-e896-4c13-932d-8ffb8c43dc34","system_id":"levelo_inurba_marseille","lat":43.241711,"lon":5.363948,"is_reserved":false,"is_disabled":false,"rental_uris":{"android":"levelo://app?vid=f5406ee3-e896-4c13-932d-8ffb8c43dc34","ios":"levelo://app?vid=f5406ee3-e896-4c13-932d-8ffb8c43dc34"},"vehicle_type_id":"4","last_reported":1751562707,"current_range_meters":11200,"station_id":"cpo36qri1sfpv3e86is0","pricing_plan_id":"cebpf4jnsgd1na2vs0mg"},{"bike_id":"beeef72b-2a55-470c-aad5-b5f71ce24900","system_id":"levelo_inurba_marseille","lat":43.27371,"lon":5.36254,"is_reserved":false,"is_disabled":false,"rental_uris":{"android":"levelo://app?vid=beeef72b-2a55-470c-aad5-b5f71ce24900","ios":"levelo://app?vid=beeef72b-2a55-470c-aad5-b5f71ce24900"},"vehicle_type_id":"4","last_reported":1751562707,"current_range_meters":11600,"station_id":"ce4bhbh2rcd13ifvqeo0","pricing_plan_id":"cebpf4jnsgd1na2vs0mg"},{"bike_id":"b1242795-0576-4e4d-a89f-9d7f8310ff08","system_id":"levelo_inurba_marseille","lat":43.24172,"lon":5.36398,"is_reserved":false,"is_disabled":false,"rental_uris":{"android":"levelo://app?vid=b1242795-0576-4e4d-a89f-9d7f8310ff08","ios":"levelo://app?vid=b1242795-0576-4e4d-a89f-9d7f8310ff08"},"vehicle_type_id":"4","last_reported":1751562707,"current_range_meters":11600,"station_id":"cpo36qri1sfpv3e86is0","pricing_plan_id":"cebpf4jnsgd1na2vs0mg"},{"bike_id":"cf9f3b71-0d72-4d74-b48d-55d188c5bf1c","system_id":"levelo_inurba_marseille","lat":43.30887,"lon":5.3964,"is_reserved":false,"is_disabled":false,"rental_uris":{"android":"levelo://app?vid=cf9f3b71-0d72-4d74-b48d-55d188c5bf1c","ios":"levelo://app?vid=cf9f3b71-0d72-4d74-b48d-55d188c5bf1c"},"vehicle_type_id":"4","last_reported":1751562707,"current_range_meters":12000,"station_id":"ce4bh012rcd13ifvqcv0","pricing_plan_id":"cebpf4jnsgd1na2vs0mg"},{"bike_id":"0e030323-4386-4e72-9a0d-0f6a2ff539de","system_id":"levelo_inurba_marseille","lat":43.29614,"lon":5.405563,"is_reserved":false,"is_disabled":false,"rental_uris":{"android":"levelo://app?vid=0e030323-4386-4e72-9a0d-0f6a2ff539de","ios":"levelo://app?vid=0e030323-4386-4e72-9a0d-0f6a2ff539de"},"vehicle_type_id":"4","last_reported":1751562707,"current_range_meters":12000,"station_id":"ce4bh0h2rcd13ifvqd60","pricing_plan_id":"cebpf4jnsgd1na2vs0mg"},{"bike_id":"4d63198b-aa78-4158-bcff-663c788d64bf","system_id":"levelo_inurba_marseille","lat":43.28665,"lon":5.36349,"is_reserved":false,"is_disabled":false,"rental_uris":{"android":"levelo://app?vid=4d63198b-aa78-4158-bcff-663c788d64bf","ios":"levelo://app?vid=4d63198b-aa78-4158-bcff-663c788d64bf"},"vehicle_type_id":"4","last_reported":1751562707,"current_range_meters":12000,"station_id":"ce4bhah2rcd13ifvqej0","pricing_plan_id":"cebpf4jnsgd1na2vs0mg"},{"bike_id":"b7a190bb-0b58-4561-847c-f01ec571983c","system_id":"levelo_inurba_marseille","lat":43.28389,"lon":5.34991,"is_reserved":false,"is_disabled":false,"rental_uris":{"android":"levelo://app?vid=b7a190bb-0b58-4561-847c-f01ec571983c","ios":"levelo://app?vid=b7a190bb-0b58-4561-847c-f01ec571983c"},"vehicle_type_id":"4","last_reported":1751562707,"current_range_meters":12000,"station_id":"ce4bhbh2rcd13ifvqepg","pricing_plan_id":"cebpf4jnsgd1na2vs0mg"},{"bike_id":"9b6f61cf-ce64-4731-818a-39e71d97a4e7","system_id":"levelo_inurba_marseille","lat":43.28422,"lon":5.34977,"is_reserved":false,"is_disabled":false,"rental_uris":{"android":"levelo://app?vid=9b6f61cf-ce64-4731-818a-39e71d97a4e7","ios":"levelo://app?vid=9b6f61cf-ce64-4731-818a-39e71d97a4e7"},"vehicle_type_id":"4","last_reported":1751562707,"current_range_meters":12000,"station_id":"ce4bhbh2rcd13ifvqepg","pricing_plan_id":"cebpf4jnsgd1na2vs0mg"},{"bike_id":"5dc0e370-e5f0-457a-97b1-fa5027dd1f16","system_id":"levelo_inurba_marseille","lat":43.31707,"lon":5.43712,"is_reserved":false,"is_disabled":false,"rental_uris":{"android":"levelo://app?vid=5dc0e370-e5f0-457a-97b1-fa5027dd1f16","ios":"levelo://app?vid=5dc0e370-e5f0-457a-97b1-fa5027dd1f16"},"vehicle_type_id":"4","last_reported":1751562707,"current_range_meters":12000,"station_id":"ce4bhp92rcd13ifvqhcg","pricing_plan_id":"cebpf4jnsgd1na2vs0mg"},{"bike_id":"a588469b-12ca-41c6-8c6f-3f3bda5b7f15","system_id":"levelo_inurba_marseille","lat":43.31535,"lon":5.38413,"is_reserved":false,"is_disabled":false,"rental_uris":{"android":"levelo://app?vid=a588469b-12ca-41c6-8c6f-3f3bda5b7f15","ios":"levelo://app?vid=a588469b-12ca-41c6-8c6f-3f3bda5b7f15"},"vehicle_type_id":"4","last_reported":1751562707,"current_range_meters":12400,"station_id":"","pricing_plan_id":"cebpf4jnsgd1na2vs0mg"},{"bike_id":"867fe204-1963-4fc1-b3dd-0a75f12260f7","system_id":"levelo_inurba_marseille","lat":43.26219,"lon":5.37455,"is_reserved":false,"is_disabled":false,"rental_uris":{"android":"levelo://app?vid=867fe204-1963-4fc1-b3dd-0a75f12260f7","ios":"levelo://app?vid=867fe204-1963-4fc1-b3dd-0a75f12260f7"},"vehicle_type_id":"4","last_reported":1751562707,"current_range_meters":12400,"station_id":"ce4bhgp2rcd13ifvqfc0","pricing_plan_id":"cebpf4jnsgd1na2vs0mg"},{"bike_id":"912d67f3-78e7-48fd-8929-37f0572cfee4","system_id":"levelo_inurba_marseille","lat":43.26379,"lon":5.37412,"is_reserved":false,"is_disabled":false,"rental_uris":{"android":"levelo://app?vid=912d67f3-78e7-48fd-8929-37f0572cfee4","ios":"levelo://app?vid=912d67f3-78e7-48fd-8929-37f0572cfee4"},"vehicle_type_id":"4","last_reported":1751562707,"current_range_meters":12800,"station_id":"","pricing_plan_id":"cebpf4jnsgd1na2vs0mg"},{"bike_id":"ffc4ee84-d1be-4ebc-8ebf-1a1ca37b8401","system_id":"levelo_inurba_marseille","lat":43.3088,"lon":5.37407,"is_reserved":false,"is_disabled":false,"rental_uris":{"android":"levelo://app?vid=ffc4ee84-d1be-4ebc-8ebf-1a1ca37b8401","ios":"levelo://app?vid=ffc4ee84-d1be-4ebc-8ebf-1a1ca37b8401"},"vehicle_type_id":"4","last_reported":1751562707,"current_range_meters":13600,"station_id":"","pricing_plan_id":"cebpf4jnsgd1na2vs0mg"},{"bike_id":"265edeaf-3c1d-4aeb-a6bc-63a5448c11c9","system_id":"levelo_inurba_marseille","lat":43.29931,"lon":5.36536,"is_reserved":false,"is_disabled":false,"rental_uris":{"android":"levelo://app?vid=265edeaf-3c1d-4aeb-a6bc-63a5448c11c9","ios":"levelo://app?vid=265edeaf-3c1d-4aeb-a6bc-63a5448c11c9"},"vehicle_type_id":"4","last_reported":1751562707,"current_range_meters":13600,"station_id":"ce4bgm92rcd13ifvqbr0","pricing_plan_id":"cebpf4jnsgd1na2vs0mg"},{"bike_id":"3b753967-68ac-497d-b237-6eeb00254464","system_id":"levelo_inurba_marseille","lat":43.28423,"lon":5.34992,"is_reserved":false,"is_disabled":false,"rental_uris":{"android":"levelo://app?vid=3b753967-68ac-497d-b237-6eeb00254464","ios":"levelo://app?vid=3b753967-68ac-497d-b237-6eeb00254464"},"vehicle_type_id":"4","last_reported":1751562707,"current_range_meters":13600,"station_id":"ce4bhbh2rcd13ifvqepg","pricing_plan_id":"cebpf4jnsgd1na2vs0mg"},{"bike_id":"8b3755fc-2284-401e-bc3a-14d8474e8e49","system_id":"levelo_inurba_marseille","lat":43.28614,"lon":5.3509,"is_reserved":false,"is_disabled":false,"rental_uris":{"android":"levelo://app?vid=8b3755fc-2284-401e-bc3a-14d8474e8e49","ios":"levelo://app?vid=8b3755fc-2284-401e-bc3a-14d8474e8e49"},"vehicle_type_id":"4","last_reported":1751562707,"current_range_meters":13600,"station_id":"ce4bhch2rcd13ifvqeug","pricing_plan_id":"cebpf4jnsgd1na2vs0mg"},{"bike_id":"862d34ea-5d11-41ad-9334-8836eb92b218","system_id":"levelo_inurba_marseille","lat":43.27325,"lon":5.39073,"is_reserved":false,"is_disabled":false,"rental_uris":{"android":"levelo://app?vid=862d34ea-5d11-41ad-9334-8836eb92b218","ios":"levelo://app?vid=862d34ea-5d11-41ad-9334-8836eb92b218"},"vehicle_type_id":"4","last_reported":1751562707,"current_range_meters":13600,"station_id":"ce4bhgp2rcd13ifvqfe0","pricing_plan_id":"cebpf4jnsgd1na2vs0mg"},{"bike_id":"1a75a1ec-a87a-493d-a59d-140f1e240a24","system_id":"levelo_inurba_marseille","lat":43.23189,"lon":5.35558,"is_reserved":false,"is_disabled":false,"rental_uris":{"android":"levelo://app?vid=1a75a1ec-a87a-493d-a59d-140f1e240a24","ios":"levelo://app?vid=1a75a1ec-a87a-493d-a59d-140f1e240a24"},"vehicle_type_id":"4","last_reported":1751562707,"current_range_meters":13600,"station_id":"ce4bhu92rcd13ifvqi70","pricing_plan_id":"cebpf4jnsgd1na2vs0mg"},{"bike_id":"b21ecda5-58c4-41a6-9a57-ac0033e134b7","system_id":"levelo_inurba_marseille","lat":43.27361,"lon":5.36244,"is_reserved":false,"is_disabled":false,"rental_uris":{"android":"levelo://app?vid=b21ecda5-58c4-41a6-9a57-ac0033e134b7","ios":"levelo://app?vid=b21ecda5-58c4-41a6-9a57-ac0033e134b7"},"vehicle_type_id":"4","last_reported":1751562707,"current_range_meters":14000,"station_id":"ce4bhbh2rcd13ifvqeo0","pricing_plan_id":"cebpf4jnsgd1na2vs0mg"},{"bike_id":"e8a40dfe-e94f-41d4-beae-c06da32310ad","system_id":"levelo_inurba_marseille","lat":43.24176,"lon":5.39724,"is_reserved":false,"is_disabled":false,"rental_uris":{"android":"levelo://app?vid=e8a40dfe-e94f-41d4-beae-c06da32310ad","ios":"levelo://app?vid=e8a40dfe-e94f-41d4-beae-c06da32310ad"},"vehicle_type_id":"4","last_reported":1751562707,"current_range_meters":14000,"station_id":"ce4bhn12rcd13ifvqgpg","pricing_plan_id":"cebpf4jnsgd1na2vs0mg"},{"bike_id":"bc290229-0e6e-4e91-b153-2c4479ac595d","system_id":"levelo_inurba_marseille","lat":43.32349,"lon":5.4061,"is_reserved":false,"is_disabled":false,"rental_uris":{"android":"levelo://app?vid=bc290229-0e6e-4e91-b153-2c4479ac595d","ios":"levelo://app?vid=bc290229-0e6e-4e91-b153-2c4479ac595d"},"vehicle_type_id":"4","last_reported":1751562707,"current_range_meters":14000,"station_id":"ce4bhq92rcd13ifvqhjg","pricing_plan_id":"cebpf4jnsgd1na2vs0mg"},{"bike_id":"0884593c-e6cb-4565-8d12-b550f5f6fdc8","system_id":"levelo_inurba_marseille","lat":43.28617,"lon":5.35102,"is_reserved":false,"is_disabled":false,"rental_uris":{"android":"levelo://app?vid=0884593c-e6cb-4565-8d12-b550f5f6fdc8","ios":"levelo://app?vid=0884593c-e6cb-4565-8d12-b550f5f6fdc8"},"vehicle_type_id":"4","last_reported":1751562707,"current_range_meters":14400,"station_id":"ce4bhch2rcd13ifvqeug","pricing_plan_id":"cebpf4jnsgd1na2vs0mg"},{"bike_id":"ba154a12-11bd-42a5-958a-5992f5d043d1","system_id":"levelo_inurba_marseille","lat":43.30499,"lon":5.37116,"is_reserved":false,"is_disabled":false,"rental_uris":{"android":"levelo://app?vid=ba154a12-11bd-42a5-958a-5992f5d043d1","ios":"levelo://app?vid=ba154a12-11bd-42a5-958a-5992f5d043d1"},"vehicle_type_id":"4","last_reported":1751562707,"current_range_meters":14800,"station_id":"","pricing_plan_id":"cebpf4jnsgd1na2vs0mg"},{"bike_id":"551324b2-c8ea-4a4e-aced-8a64c52e1fd4","system_id":"levelo_inurba_marseille","lat":43.29801,"lon":5.38101,"is_reserved":false,"is_disabled":false,"rental_uris":{"android":"levelo://app?vid=551324b2-c8ea-4a4e-aced-8a64c52e1fd4","ios":"levelo://app?vid=551324b2-c8ea-4a4e-aced-8a64c52e1fd4"},"vehicle_type_id":"4","last_reported":1751562707,"current_range_meters":14800,"station_id":"ce4bgip2rcd13ifvqbb0","pricing_plan_id":"cebpf4jnsgd1na2vs0mg"},{"bike_id":"7937b041-d946-47d9-a1a2-32be52b850e6","system_id":"levelo_inurba_marseille","lat":43.3128,"lon":5.40167,"is_reserved":false,"is_disabled":false,"rental_uris":{"android":"levelo://app?vid=7937b041-d946-47d9-a1a2-32be52b850e6","ios":"levelo://app?vid=7937b041-d946-47d9-a1a2-32be52b850e6"},"vehicle_type_id":"4","last_reported":1751562707,"current_range_meters":14800,"station_id":"ce4bh092rcd13ifvqd30","pricing_plan_id":"cebpf4jnsgd1na2vs0mg"},{"bike_id":"0f192a53-6a80-441f-9705-3495103aea52","system_id":"levelo_inurba_marseille","lat":43.28622,"lon":5.35091,"is_reserved":false,"is_disabled":false,"rental_uris":{"android":"levelo://app?vid=0f192a53-6a80-441f-9705-3495103aea52","ios":"levelo://app?vid=0f192a53-6a80-441f-9705-3495103aea52"},"vehicle_type_id":"4","last_reported":1751562707,"current_range_meters":14800,"station_id":"ce4bhch2rcd13ifvqeug","pricing_plan_id":"cebpf4jnsgd1na2vs0mg"},{"bike_id":"37b84a38-055a-4a6e-a56a-8ff3d0c1b2ec","system_id":"levelo_inurba_marseille","lat":43.211949,"lon":5.350726,"is_reserved":false,"is_disabled":false,"rental_uris":{"android":"levelo://app?vid=37b84a38-055a-4a6e-a56a-8ff3d0c1b2ec","ios":"levelo://app?vid=37b84a38-055a-4a6e-a56a-8ff3d0c1b2ec"},"vehicle_type_id":"4","last_reported":1751562707,"current_range_meters":14800,"station_id":"st_cvj6sg6p6f1abm77japg","pricing_plan_id":"cebpf4jnsgd1na2vs0mg"},{"bike_id":"750de49b-d351-46e6-a8bb-97a6c63101f4","system_id":"levelo_inurba_marseille","lat":43.31073,"lon":5.38351,"is_reserved":false,"is_disabled":false,"rental_uris":{"android":"levelo://app?vid=750de49b-d351-46e6-a8bb-97a6c63101f4","ios":"levelo://app?vid=750de49b-d351-46e6-a8bb-97a6c63101f4"},"vehicle_type_id":"4","last_reported":1751562707,"current_range_meters":15200,"station_id":"ce4bgv92rcd13ifvqcr0","pricing_plan_id":"cebpf4jnsgd1na2vs0mg"},{"bike_id":"59feed20-d168-4ab2-b68e-ce654dfd314d","system_id":"levelo_inurba_marseille","lat":43.29004,"lon":5.35612,"is_reserved":false,"is_disabled":false,"rental_uris":{"android":"levelo://app?vid=59feed20-d168-4ab2-b68e-ce654dfd314d","ios":"levelo://app?vid=59feed20-d168-4ab2-b68e-ce654dfd314d"},"vehicle_type_id":"4","last_reported":1751562707,"current_range_meters":15200,"station_id":"ce4bhb92rcd13ifvqen0","pricing_plan_id":"cebpf4jnsgd1na2vs0mg"},{"bike_id":"44a9443d-3135-4a25-856d-9bda0e293f4a","system_id":"levelo_inurba_marseille","lat":43.284129,"lon":5.349947,"is_reserved":false,"is_disabled":false,"rental_uris":{"android":"levelo://app?vid=44a9443d-3135-4a25-856d-9bda0e293f4a","ios":"levelo://app?vid=44a9443d-3135-4a25-856d-9bda0e293f4a"},"vehicle_type_id":"4","last_reported":1751562707,"current_range_meters":15200,"station_id":"ce4bhbh2rcd13ifvqepg","pricing_plan_id":"cebpf4jnsgd1na2vs0mg"},{"bike_id":"04bdd683-ef64-46f2-a6d7-f7c0ec0fbe85","system_id":"levelo_inurba_marseille","lat":43.28271,"lon":5.35063,"is_reserved":false,"is_disabled":false,"rental_uris":{"android":"levelo://app?vid=04bdd683-ef64-46f2-a6d7-f7c0ec0fbe85","ios":"levelo://app?vid=04bdd683-ef64-46f2-a6d7-f7c0ec0fbe85"},"vehicle_type_id":"4","last_reported":1751562707,"current_range_meters":15200,"station_id":"ce4bhbp2rcd13ifvqerg","pricing_plan_id":"cebpf4jnsgd1na2vs0mg"},{"bike_id":"8782a70b-6704-4dd3-b5e2-01a61e25b164","system_id":"levelo_inurba_marseille","lat":43.27175,"lon":5.40993,"is_reserved":false,"is_disabled":false,"rental_uris":{"android":"levelo://app?vid=8782a70b-6704-4dd3-b5e2-01a61e25b164","ios":"levelo://app?vid=8782a70b-6704-4dd3-b5e2-01a61e25b164"},"vehicle_type_id":"4","last_reported":1751562707,"current_range_meters":15200,"station_id":"ce4bhl12rcd13ifvqgf0","pricing_plan_id":"cebpf4jnsgd1na2vs0mg"},{"bike_id":"4d4995e7-0bba-4ac2-a238-afd84a5e99b5","system_id":"levelo_inurba_marseille","lat":43.304848,"lon":5.398345,"is_reserved":false,"is_disabled":false,"rental_uris":{"android":"levelo://app?vid=4d4995e7-0bba-4ac2-a238-afd84a5e99b5","ios":"levelo://app?vid=4d4995e7-0bba-4ac2-a238-afd84a5e99b5"},"vehicle_type_id":"4","last_reported":1751562707,"current_range_meters":16000,"station_id":"","pricing_plan_id":"cebpf4jnsgd1na2vs0mg"},{"bike_id":"175513bb-dce2-48e2-83c8-1e9f1cb23cd0","system_id":"levelo_inurba_marseille","lat":43.286255,"lon":5.412651,"is_reserved":false,"is_disabled":false,"rental_uris":{"android":"levelo://app?vid=175513bb-dce2-48e2-83c8-1e9f1cb23cd0","ios":"levelo://app?vid=175513bb-dce2-48e2-83c8-1e9f1cb23cd0"},"vehicle_type_id":"4","last_reported":1751562707,"current_range_meters":16000,"station_id":"","pricing_plan_id":"cebpf4jnsgd1na2vs0mg"},{"bike_id":"d6a97fc8-7c5d-4b77-9d38-d22003db8fe5","system_id":"levelo_inurba_marseille","lat":43.34721,"lon":5.36602,"is_reserved":false,"is_disabled":false,"rental_uris":{"android":"levelo://app?vid=d6a97fc8-7c5d-4b77-9d38-d22003db8fe5","ios":"levelo://app?vid=d6a97fc8-7c5d-4b77-9d38-d22003db8fe5"},"vehicle_type_id":"4","last_reported":1751562707,"current_range_meters":16000,"station_id":"","pricing_plan_id":"cebpf4jnsgd1na2vs0mg"},{"bike_id":"1796db83-9477-4642-b571-89e2c004d096","system_id":"levelo_inurba_marseille","lat":43.29305,"lon":5.37465,"is_reserved":false,"is_disabled":false,"rental_uris":{"android":"levelo://app?vid=1796db83-9477-4642-b571-89e2c004d096","ios":"levelo://app?vid=1796db83-9477-4642-b571-89e2c004d096"},"vehicle_type_id":"4","last_reported":1751562707,"current_range_meters":16000,"station_id":"ce4bgi12rcd13ifvqb70","pricing_plan_id":"cebpf4jnsgd1na2vs0mg"},{"bike_id":"e99f07fa-756f-44b5-ba7e-c3bc9046d58c","system_id":"levelo_inurba_marseille","lat":43.28625,"lon":5.35099,"is_reserved":false,"is_disabled":false,"rental_uris":{"android":"levelo://app?vid=e99f07fa-756f-44b5-ba7e-c3bc9046d58c","ios":"levelo://app?vid=e99f07fa-756f-44b5-ba7e-c3bc9046d58c"},"vehicle_type_id":"4","last_reported":1751562707,"current_range_meters":16000,"station_id":"ce4bhch2rcd13ifvqeug","pricing_plan_id":"cebpf4jnsgd1na2vs0mg"},{"bike_id":"db6b4215-49c9-4aef-845e-4d7d939d3d90","system_id":"levelo_inurba_marseille","lat":43.262129,"lon":5.374433,"is_reserved":false,"is_disabled":false,"rental_uris":{"android":"levelo://app?vid=db6b4215-49c9-4aef-845e-4d7d939d3d90","ios":"levelo://app?vid=db6b4215-49c9-4aef-845e-4d7d939d3d90"},"vehicle_type_id":"4","last_reported":1751562707,"current_range_meters":16000,"station_id":"ce4bhgp2rcd13ifvqfc0","pricing_plan_id":"cebpf4jnsgd1na2vs0mg"},{"bike_id":"429fa18c-0d06-4a5d-a9f7-cd69cbe19891","system_id":"levelo_inurba_marseille","lat":43.254886,"lon":5.376524,"is_reserved":false,"is_disabled":false,"rental_uris":{"android":"levelo://app?vid=429fa18c-0d06-4a5d-a9f7-cd69cbe19891","ios":"levelo://app?vid=429fa18c-0d06-4a5d-a9f7-cd69cbe19891"},"vehicle_type_id":"4","last_reported":1751562707,"current_range_meters":16000,"station_id":"ce4bhh12rcd13ifvqff0","pricing_plan_id":"cebpf4jnsgd1na2vs0mg"},{"bike_id":"7c67e7dd-7a7f-426b-9249-641f91643932","system_id":"levelo_inurba_marseille","lat":43.241715,"lon":5.363992,"is_reserved":false,"is_disabled":false,"rental_uris":{"android":"levelo://app?vid=7c67e7dd-7a7f-426b-9249-641f91643932","ios":"levelo://app?vid=7c67e7dd-7a7f-426b-9249-641f91643932"},"vehicle_type_id":"4","last_reported":1751562707,"current_range_meters":16000,"station_id":"cpo36qri1sfpv3e86is0","pricing_plan_id":"cebpf4jnsgd1na2vs0mg"},{"bike_id":"a6715104-7492-4ec6-a996-23050baf8551","system_id":"levelo_inurba_marseille","lat":43.22505,"lon":5.34781,"is_reserved":false,"is_disabled":false,"rental_uris":{"android":"levelo://app?vid=a6715104-7492-4ec6-a996-23050baf8551","ios":"levelo://app?vid=a6715104-7492-4ec6-a996-23050baf8551"},"vehicle_type_id":"4","last_reported":1751562707,"current_range_meters":16000,"station_id":"st_cvj5dfep6f1abm77gieg","pricing_plan_id":"cebpf4jnsgd1na2vs0mg"},{"bike_id":"39865cd7-27d9-477e-99c0-f0ff8dfb8629","system_id":"levelo_inurba_marseille","lat":43.21192,"lon":5.35084,"is_reserved":false,"is_disabled":false,"rental_uris":{"android":"levelo://app?vid=39865cd7-27d9-477e-99c0-f0ff8dfb8629","ios":"levelo://app?vid=39865cd7-27d9-477e-99c0-f0ff8dfb8629"},"vehicle_type_id":"4","last_reported":1751562707,"current_range_meters":16000,"station_id":"st_cvj6sg6p6f1abm77japg","pricing_plan_id":"cebpf4jnsgd1na2vs0mg"},{"bike_id":"0c4b7fdb-b39e-49b3-a2b0-ae3d0f43e89d","system_id":"levelo_inurba_marseille","lat":43.32896,"lon":5.40559,"is_reserved":false,"is_disabled":false,"rental_uris":{"android":"levelo://app?vid=0c4b7fdb-b39e-49b3-a2b0-ae3d0f43e89d","ios":"levelo://app?vid=0c4b7fdb-b39e-49b3-a2b0-ae3d0f43e89d"},"vehicle_type_id":"4","last_reported":1751562707,"current_range_meters":16400,"station_id":"","pricing_plan_id":"cebpf4jnsgd1na2vs0mg"},{"bike_id":"603f229c-09b9-4145-9510-d250a8eff49b","system_id":"levelo_inurba_marseille","lat":43.28614,"lon":5.35097,"is_reserved":false,"is_disabled":false,"rental_uris":{"android":"levelo://app?vid=603f229c-09b9-4145-9510-d250a8eff49b","ios":"levelo://app?vid=603f229c-09b9-4145-9510-d250a8eff49b"},"vehicle_type_id":"4","last_reported":1751562707,"current_range_meters":16400,"station_id":"ce4bhch2rcd13ifvqeug","pricing_plan_id":"cebpf4jnsgd1na2vs0mg"},{"bike_id":"3ebfbf1e-1de9-4bd9-bcac-c8d9947fd3cd","system_id":"levelo_inurba_marseille","lat":43.2621,"lon":5.37442,"is_reserved":false,"is_disabled":false,"rental_uris":{"android":"levelo://app?vid=3ebfbf1e-1de9-4bd9-bcac-c8d9947fd3cd","ios":"levelo://app?vid=3ebfbf1e-1de9-4bd9-bcac-c8d9947fd3cd"},"vehicle_type_id":"4","last_reported":1751562707,"current_range_meters":16400,"station_id":"ce4bhgp2rcd13ifvqfc0","pricing_plan_id":"cebpf4jnsgd1na2vs0mg"},{"bike_id":"2596bf02-4b4e-4a73-96c0-306657fb5dc9","system_id":"levelo_inurba_marseille","lat":43.2621,"lon":5.37433,"is_reserved":false,"is_disabled":false,"rental_uris":{"android":"levelo://app?vid=2596bf02-4b4e-4a73-96c0-306657fb5dc9","ios":"levelo://app?vid=2596bf02-4b4e-4a73-96c0-306657fb5dc9"},"vehicle_type_id":"4","last_reported":1751562707,"current_range_meters":16400,"station_id":"ce4bhgp2rcd13ifvqfc0","pricing_plan_id":"cebpf4jnsgd1na2vs0mg"},{"bike_id":"6ee47da4-9cb7-4584-be45-580a2eecea99","system_id":"levelo_inurba_marseille","lat":43.25527,"lon":5.37617,"is_reserved":false,"is_disabled":false,"rental_uris":{"android":"levelo://app?vid=6ee47da4-9cb7-4584-be45-580a2eecea99","ios":"levelo://app?vid=6ee47da4-9cb7-4584-be45-580a2eecea99"},"vehicle_type_id":"4","last_reported":1751562707,"current_range_meters":16400,"station_id":"ce4bhh12rcd13ifvqff0","pricing_plan_id":"cebpf4jnsgd1na2vs0mg"},{"bike_id":"f11f97b5-0869-4086-b9c0-f1dc87545c82","system_id":"levelo_inurba_marseille","lat":43.23193,"lon":5.35557,"is_reserved":false,"is_disabled":false,"rental_uris":{"android":"levelo://app?vid=f11f97b5-0869-4086-b9c0-f1dc87545c82","ios":"levelo://app?vid=f11f97b5-0869-4086-b9c0-f1dc87545c82"},"vehicle_type_id":"4","last_reported":1751562707,"current_range_meters":16400,"station_id":"ce4bhu92rcd13ifvqi70","pricing_plan_id":"cebpf4jnsgd1na2vs0mg"},{"bike_id":"dfbce5f2-d4be-4fb4-b96e-89f73ba79196","system_id":"levelo_inurba_marseille","lat":43.21188,"lon":5.35073,"is_reserved":false,"is_disabled":false,"rental_uris":{"android":"levelo://app?vid=dfbce5f2-d4be-4fb4-b96e-89f73ba79196","ios":"levelo://app?vid=dfbce5f2-d4be-4fb4-b96e-89f73ba79196"},"vehicle_type_id":"4","last_reported":1751562707,"current_range_meters":16400,"station_id":"st_cvj6sg6p6f1abm77japg","pricing_plan_id":"cebpf4jnsgd1na2vs0mg"},{"bike_id":"7e21e8f2-09c8-4cc5-8113-278ebd23888d","system_id":"levelo_inurba_marseille","lat":43.21213,"lon":5.35136,"is_reserved":false,"is_disabled":false,"rental_uris":{"android":"levelo://app?vid=7e21e8f2-09c8-4cc5-8113-278ebd23888d","ios":"levelo://app?vid=7e21e8f2-09c8-4cc5-8113-278ebd23888d"},"vehicle_type_id":"4","last_reported":1751562707,"current_range_meters":16800,"station_id":"","pricing_plan_id":"cebpf4jnsgd1na2vs0mg"},{"bike_id":"af213e10-6367-4cec-af17-63aa54d97712","system_id":"levelo_inurba_marseille","lat":43.27624,"lon":5.36099,"is_reserved":false,"is_disabled":false,"rental_uris":{"android":"levelo://app?vid=af213e10-6367-4cec-af17-63aa54d97712","ios":"levelo://app?vid=af213e10-6367-4cec-af17-63aa54d97712"},"vehicle_type_id":"4","last_reported":1751562707,"current_range_meters":16800,"station_id":"ce4bgj92rcd13ifvqbe0","pricing_plan_id":"cebpf4jnsgd1na2vs0mg"},{"bike_id":"3355d88b-5280-40fd-a397-528c0238601d","system_id":"levelo_inurba_marseille","lat":43.29007,"lon":5.35609,"is_reserved":false,"is_disabled":false,"rental_uris":{"android":"levelo://app?vid=3355d88b-5280-40fd-a397-528c0238601d","ios":"levelo://app?vid=3355d88b-5280-40fd-a397-528c0238601d"},"vehicle_type_id":"4","last_reported":1751562707,"current_range_meters":16800,"station_id":"ce4bhb92rcd13ifvqen0","pricing_plan_id":"cebpf4jnsgd1na2vs0mg"},{"bike_id":"efd39573-3e62-4943-bd41-7a5e046acff7","system_id":"levelo_inurba_marseille","lat":43.27371,"lon":5.36257,"is_reserved":false,"is_disabled":false,"rental_uris":{"android":"levelo://app?vid=efd39573-3e62-4943-bd41-7a5e046acff7","ios":"levelo://app?vid=efd39573-3e62-4943-bd41-7a5e046acff7"},"vehicle_type_id":"4","last_reported":1751562707,"current_range_meters":16800,"station_id":"ce4bhbh2rcd13ifvqeo0","pricing_plan_id":"cebpf4jnsgd1na2vs0mg"},{"bike_id":"7ab1a795-ce92-4d6c-a196-1a8646dda6f4","system_id":"levelo_inurba_marseille","lat":43.28415,"lon":5.34996,"is_reserved":false,"is_disabled":false,"rental_uris":{"android":"levelo://app?vid=7ab1a795-ce92-4d6c-a196-1a8646dda6f4","ios":"levelo://app?vid=7ab1a795-ce92-4d6c-a196-1a8646dda6f4"},"vehicle_type_id":"4","last_reported":1751562707,"current_range_meters":16800,"station_id":"ce4bhbh2rcd13ifvqepg","pricing_plan_id":"cebpf4jnsgd1na2vs0mg"},{"bike_id":"80a421f9-82c6-43e6-aaa0-88dda18c110c","system_id":"levelo_inurba_marseille","lat":43.2841,"lon":5.35022,"is_reserved":false,"is_disabled":false,"rental_uris":{"android":"levelo://app?vid=80a421f9-82c6-43e6-aaa0-88dda18c110c","ios":"levelo://app?vid=80a421f9-82c6-43e6-aaa0-88dda18c110c"},"vehicle_type_id":"4","last_reported":1751562707,"current_range_meters":16800,"station_id":"ce4bhbh2rcd13ifvqepg","pricing_plan_id":"cebpf4jnsgd1na2vs0mg"},{"bike_id":"1b50997f-5212-4491-b395-e4b2f95c4f50","system_id":"levelo_inurba_marseille","lat":43.29229,"lon":5.36053,"is_reserved":false,"is_disabled":false,"rental_uris":{"android":"levelo://app?vid=1b50997f-5212-4491-b395-e4b2f95c4f50","ios":"levelo://app?vid=1b50997f-5212-4491-b395-e4b2f95c4f50"},"vehicle_type_id":"4","last_reported":1751562707,"current_range_meters":16800,"station_id":"ce4bhbh2rcd13ifvqeqg","pricing_plan_id":"cebpf4jnsgd1na2vs0mg"},{"bike_id":"1a0613e6-306a-4701-8b70-08b76177b33c","system_id":"levelo_inurba_marseille","lat":43.282684,"lon":5.350524,"is_reserved":false,"is_disabled":false,"rental_uris":{"android":"levelo://app?vid=1a0613e6-306a-4701-8b70-08b76177b33c","ios":"levelo://app?vid=1a0613e6-306a-4701-8b70-08b76177b33c"},"vehicle_type_id":"4","last_reported":1751562707,"current_range_meters":16800,"station_id":"ce4bhbp2rcd13ifvqerg","pricing_plan_id":"cebpf4jnsgd1na2vs0mg"},{"bike_id":"510dcfc6-8909-4195-acd9-23ae6a30da7a","system_id":"levelo_inurba_marseille","lat":43.31881,"lon":5.4074,"is_reserved":false,"is_disabled":false,"rental_uris":{"android":"levelo://app?vid=510dcfc6-8909-4195-acd9-23ae6a30da7a","ios":"levelo://app?vid=510dcfc6-8909-4195-acd9-23ae6a30da7a"},"vehicle_type_id":"4","last_reported":1751562707,"current_range_meters":16800,"station_id":"ce4bhq12rcd13ifvqhig","pricing_plan_id":"cebpf4jnsgd1na2vs0mg"},{"bike_id":"0c5e46df-9adb-4aa5-842c-17a1961c0106","system_id":"levelo_inurba_marseille","lat":43.27991,"lon":5.4072,"is_reserved":false,"is_disabled":false,"rental_uris":{"android":"levelo://app?vid=0c5e46df-9adb-4aa5-842c-17a1961c0106","ios":"levelo://app?vid=0c5e46df-9adb-4aa5-842c-17a1961c0106"},"vehicle_type_id":"4","last_reported":1751562707,"current_range_meters":17200,"station_id":"","pricing_plan_id":"cebpf4jnsgd1na2vs0mg"},{"bike_id":"b9fd97ab-e021-4fcd-9658-95eb53a5dddf","system_id":"levelo_inurba_marseille","lat":43.28865,"lon":5.35857,"is_reserved":false,"is_disabled":false,"rental_uris":{"android":"levelo://app?vid=b9fd97ab-e021-4fcd-9658-95eb53a5dddf","ios":"levelo://app?vid=b9fd97ab-e021-4fcd-9658-95eb53a5dddf"},"vehicle_type_id":"4","last_reported":1751562707,"current_range_meters":17200,"station_id":"ce4bhb12rcd13ifvqem0","pricing_plan_id":"cebpf4jnsgd1na2vs0mg"},{"bike_id":"a6d0d81e-60c7-4ce6-9a57-4d95e4081ddb","system_id":"levelo_inurba_marseille","lat":43.29008,"lon":5.35615,"is_reserved":false,"is_disabled":false,"rental_uris":{"android":"levelo://app?vid=a6d0d81e-60c7-4ce6-9a57-4d95e4081ddb","ios":"levelo://app?vid=a6d0d81e-60c7-4ce6-9a57-4d95e4081ddb"},"vehicle_type_id":"4","last_reported":1751562707,"current_range_meters":17200,"station_id":"ce4bhb92rcd13ifvqen0","pricing_plan_id":"cebpf4jnsgd1na2vs0mg"},{"bike_id":"5598d938-8bfc-4250-bd61-6a56a6c0876b","system_id":"levelo_inurba_marseille","lat":43.27377,"lon":5.36262,"is_reserved":false,"is_disabled":false,"rental_uris":{"android":"levelo://app?vid=5598d938-8bfc-4250-bd61-6a56a6c0876b","ios":"levelo://app?vid=5598d938-8bfc-4250-bd61-6a56a6c0876b"},"vehicle_type_id":"4","last_reported":1751562707,"current_range_meters":17200,"station_id":"ce4bhbh2rcd13ifvqeo0","pricing_plan_id":"cebpf4jnsgd1na2vs0mg"},{"bike_id":"8ebe74e9-6cc0-4208-af0e-9e8908d07919","system_id":"levelo_inurba_marseille","lat":43.28418,"lon":5.34978,"is_reserved":false,"is_disabled":false,"rental_uris":{"android":"levelo://app?vid=8ebe74e9-6cc0-4208-af0e-9e8908d07919","ios":"levelo://app?vid=8ebe74e9-6cc0-4208-af0e-9e8908d07919"},"vehicle_type_id":"4","last_reported":1751562707,"current_range_meters":17200,"station_id":"ce4bhbh2rcd13ifvqepg","pricing_plan_id":"cebpf4jnsgd1na2vs0mg"},{"bike_id":"b35c913a-6b27-4cc6-9ebb-fdd74d5d7c59","system_id":"levelo_inurba_marseille","lat":43.284099,"lon":5.350194,"is_reserved":false,"is_disabled":false,"rental_uris":{"android":"levelo://app?vid=b35c913a-6b27-4cc6-9ebb-fdd74d5d7c59","ios":"levelo://app?vid=b35c913a-6b27-4cc6-9ebb-fdd74d5d7c59"},"vehicle_type_id":"4","last_reported":1751562707,"current_range_meters":17200,"station_id":"ce4bhbh2rcd13ifvqepg","pricing_plan_id":"cebpf4jnsgd1na2vs0mg"},{"bike_id":"ca543977-de6c-4cbd-8ef8-1e3b82debe62","system_id":"levelo_inurba_marseille","lat":43.282593,"lon":5.350568,"is_reserved":false,"is_disabled":false,"rental_uris":{"android":"levelo://app?vid=ca543977-de6c-4cbd-8ef8-1e3b82debe62","ios":"levelo://app?vid=ca543977-de6c-4cbd-8ef8-1e3b82debe62"},"vehicle_type_id":"4","last_reported":1751562707,"current_range_meters":17200,"station_id":"ce4bhbp2rcd13ifvqerg","pricing_plan_id":"cebpf4jnsgd1na2vs0mg"},{"bike_id":"f1b8be6b-5160-46cf-8639-5feed5223608","system_id":"levelo_inurba_marseille","lat":43.261907,"lon":5.374413,"is_reserved":false,"is_disabled":false,"rental_uris":{"android":"levelo://app?vid=f1b8be6b-5160-46cf-8639-5feed5223608","ios":"levelo://app?vid=f1b8be6b-5160-46cf-8639-5feed5223608"},"vehicle_type_id":"4","last_reported":1751562707,"current_range_meters":17200,"station_id":"ce4bhgp2rcd13ifvqfc0","pricing_plan_id":"cebpf4jnsgd1na2vs0mg"},{"bike_id":"37cb6ec9-0a4a-4b65-8c68-e3ea2f284a65","system_id":"levelo_inurba_marseille","lat":43.23183,"lon":5.35573,"is_reserved":false,"is_disabled":false,"rental_uris":{"android":"levelo://app?vid=37cb6ec9-0a4a-4b65-8c68-e3ea2f284a65","ios":"levelo://app?vid=37cb6ec9-0a4a-4b65-8c68-e3ea2f284a65"},"vehicle_type_id":"4","last_reported":1751562707,"current_range_meters":17200,"station_id":"ce4bhu92rcd13ifvqi70","pricing_plan_id":"cebpf4jnsgd1na2vs0mg"},{"bike_id":"04e6c422-f573-4b46-85ae-d31c2fc5977b","system_id":"levelo_inurba_marseille","lat":43.241727,"lon":5.363956,"is_reserved":false,"is_disabled":false,"rental_uris":{"android":"levelo://app?vid=04e6c422-f573-4b46-85ae-d31c2fc5977b","ios":"levelo://app?vid=04e6c422-f573-4b46-85ae-d31c2fc5977b"},"vehicle_type_id":"4","last_reported":1751562707,"current_range_meters":17200,"station_id":"cpo36qri1sfpv3e86is0","pricing_plan_id":"cebpf4jnsgd1na2vs0mg"},{"bike_id":"5e197122-e8ec-4f01-b370-6bbfc10c6950","system_id":"levelo_inurba_marseille","lat":43.21206,"lon":5.35055,"is_reserved":false,"is_disabled":false,"rental_uris":{"android":"levelo://app?vid=5e197122-e8ec-4f01-b370-6bbfc10c6950","ios":"levelo://app?vid=5e197122-e8ec-4f01-b370-6bbfc10c6950"},"vehicle_type_id":"4","last_reported":1751562707,"current_range_meters":17200,"station_id":"st_cvj6sg6p6f1abm77japg","pricing_plan_id":"cebpf4jnsgd1na2vs0mg"},{"bike_id":"cc04118e-9312-4bf8-9106-d64e829afbaa","system_id":"levelo_inurba_marseille","lat":43.211966,"lon":5.350725,"is_reserved":false,"is_disabled":false,"rental_uris":{"android":"levelo://app?vid=cc04118e-9312-4bf8-9106-d64e829afbaa","ios":"levelo://app?vid=cc04118e-9312-4bf8-9106-d64e829afbaa"},"vehicle_type_id":"4","last_reported":1751562707,"current_range_meters":17200,"station_id":"st_cvj6sg6p6f1abm77japg","pricing_plan_id":"cebpf4jnsgd1na2vs0mg"},{"bike_id":"1c8ab180-05fd-405f-9922-b2b2c2d5142f","system_id":"levelo_inurba_marseille","lat":43.33763,"lon":5.38151,"is_reserved":false,"is_disabled":false,"rental_uris":{"android":"levelo://app?vid=1c8ab180-05fd-405f-9922-b2b2c2d5142f","ios":"levelo://app?vid=1c8ab180-05fd-405f-9922-b2b2c2d5142f"},"vehicle_type_id":"4","last_reported":1751562707,"current_range_meters":17600,"station_id":"","pricing_plan_id":"cebpf4jnsgd1na2vs0mg"},{"bike_id":"42005a7e-28ea-4bfe-acc0-d7ca3d2a5bf7","system_id":"levelo_inurba_marseille","lat":43.299215,"lon":5.37475,"is_reserved":false,"is_disabled":false,"rental_uris":{"android":"levelo://app?vid=42005a7e-28ea-4bfe-acc0-d7ca3d2a5bf7","ios":"levelo://app?vid=42005a7e-28ea-4bfe-acc0-d7ca3d2a5bf7"},"vehicle_type_id":"4","last_reported":1751562707,"current_range_meters":17600,"station_id":"ce4bgjh2rcd13ifvqbg0","pricing_plan_id":"cebpf4jnsgd1na2vs0mg"},{"bike_id":"755282f0-7421-4ba5-97fd-45a00dd2874a","system_id":"levelo_inurba_marseille","lat":43.2885,"lon":5.39312,"is_reserved":false,"is_disabled":false,"rental_uris":{"android":"levelo://app?vid=755282f0-7421-4ba5-97fd-45a00dd2874a","ios":"levelo://app?vid=755282f0-7421-4ba5-97fd-45a00dd2874a"},"vehicle_type_id":"4","last_reported":1751562707,"current_range_meters":17600,"station_id":"ce4bh2p2rcd13ifvqdi0","pricing_plan_id":"cebpf4jnsgd1na2vs0mg"},{"bike_id":"2c8ea24e-4014-4af2-b1a1-be6a0ac8b957","system_id":"levelo_inurba_marseille","lat":43.28359,"lon":5.38092,"is_reserved":false,"is_disabled":false,"rental_uris":{"android":"levelo://app?vid=2c8ea24e-4014-4af2-b1a1-be6a0ac8b957","ios":"levelo://app?vid=2c8ea24e-4014-4af2-b1a1-be6a0ac8b957"},"vehicle_type_id":"4","last_reported":1751562707,"current_range_meters":17600,"station_id":"ce4bh412rcd13ifvqdr0","pricing_plan_id":"cebpf4jnsgd1na2vs0mg"},{"bike_id":"7a0bf08f-cf06-41ff-8c60-4062a4af9732","system_id":"levelo_inurba_marseille","lat":43.2862,"lon":5.35108,"is_reserved":false,"is_disabled":false,"rental_uris":{"android":"levelo://app?vid=7a0bf08f-cf06-41ff-8c60-4062a4af9732","ios":"levelo://app?vid=7a0bf08f-cf06-41ff-8c60-4062a4af9732"},"vehicle_type_id":"4","last_reported":1751562707,"current_range_meters":17600,"station_id":"ce4bhch2rcd13ifvqeug","pricing_plan_id":"cebpf4jnsgd1na2vs0mg"},{"bike_id":"589d5eda-19de-49b3-b5e8-b78c57a5aee8","system_id":"levelo_inurba_marseille","lat":43.28628,"lon":5.35096,"is_reserved":false,"is_disabled":false,"rental_uris":{"android":"levelo://app?vid=589d5eda-19de-49b3-b5e8-b78c57a5aee8","ios":"levelo://app?vid=589d5eda-19de-49b3-b5e8-b78c57a5aee8"},"vehicle_type_id":"4","last_reported":1751562707,"current_range_meters":17600,"station_id":"ce4bhch2rcd13ifvqeug","pricing_plan_id":"cebpf4jnsgd1na2vs0mg"},{"bike_id":"55aa929b-2db6-4ab6-8121-df233a47781a","system_id":"levelo_inurba_marseille","lat":43.26234,"lon":5.37442,"is_reserved":false,"is_disabled":false,"rental_uris":{"android":"levelo://app?vid=55aa929b-2db6-4ab6-8121-df233a47781a","ios":"levelo://app?vid=55aa929b-2db6-4ab6-8121-df233a47781a"},"vehicle_type_id":"4","last_reported":1751562707,"current_range_meters":17600,"station_id":"ce4bhgp2rcd13ifvqfc0","pricing_plan_id":"cebpf4jnsgd1na2vs0mg"},{"bike_id":"085a9b83-3f84-40f5-9e64-5af9b3d60f63","system_id":"levelo_inurba_marseille","lat":43.298975,"lon":5.436615,"is_reserved":false,"is_disabled":false,"rental_uris":{"android":"levelo://app?vid=085a9b83-3f84-40f5-9e64-5af9b3d60f63","ios":"levelo://app?vid=085a9b83-3f84-40f5-9e64-5af9b3d60f63"},"vehicle_type_id":"4","last_reported":1751562707,"current_range_meters":17600,"station_id":"ce4bhpp2rcd13ifvqhfg","pricing_plan_id":"cebpf4jnsgd1na2vs0mg"},{"bike_id":"5ecbe7d9-b835-47e3-87d6-0fd67017673c","system_id":"levelo_inurba_marseille","lat":43.321092,"lon":5.367713,"is_reserved":false,"is_disabled":false,"rental_uris":{"android":"levelo://app?vid=5ecbe7d9-b835-47e3-87d6-0fd67017673c","ios":"levelo://app?vid=5ecbe7d9-b835-47e3-87d6-0fd67017673c"},"vehicle_type_id":"4","last_reported":1751562707,"current_range_meters":17600,"station_id":"ce4bhrh2rcd13ifvqhug","pricing_plan_id":"cebpf4jnsgd1na2vs0mg"},{"bike_id":"a0962a9b-5031-4998-ac45-a7fe8b578c72","system_id":"levelo_inurba_marseille","lat":43.284163,"lon":5.349794,"is_reserved":false,"is_disabled":false,"rental_uris":{"android":"levelo://app?vid=a0962a9b-5031-4998-ac45-a7fe8b578c72","ios":"levelo://app?vid=a0962a9b-5031-4998-ac45-a7fe8b578c72"},"vehicle_type_id":"4","last_reported":1751562707,"current_range_meters":18000,"station_id":"","pricing_plan_id":"cebpf4jnsgd1na2vs0mg"},{"bike_id":"1481e14a-065f-47bf-8387-dea0d5d886f6","system_id":"levelo_inurba_marseille","lat":43.29002,"lon":5.35614,"is_reserved":false,"is_disabled":false,"rental_uris":{"android":"levelo://app?vid=1481e14a-065f-47bf-8387-dea0d5d886f6","ios":"levelo://app?vid=1481e14a-065f-47bf-8387-dea0d5d886f6"},"vehicle_type_id":"4","last_reported":1751562707,"current_range_meters":18000,"station_id":"ce4bhb92rcd13ifvqen0","pricing_plan_id":"cebpf4jnsgd1na2vs0mg"},{"bike_id":"14ecf157-0e2a-4d14-860f-77ba787d04dc","system_id":"levelo_inurba_marseille","lat":43.28623,"lon":5.35092,"is_reserved":false,"is_disabled":false,"rental_uris":{"android":"levelo://app?vid=14ecf157-0e2a-4d14-860f-77ba787d04dc","ios":"levelo://app?vid=14ecf157-0e2a-4d14-860f-77ba787d04dc"},"vehicle_type_id":"4","last_reported":1751562707,"current_range_meters":18000,"station_id":"ce4bhch2rcd13ifvqeug","pricing_plan_id":"cebpf4jnsgd1na2vs0mg"},{"bike_id":"a0d63ddc-d296-4cd3-9d0a-75462b58515d","system_id":"levelo_inurba_marseille","lat":43.28725,"lon":5.36083,"is_reserved":false,"is_disabled":false,"rental_uris":{"android":"levelo://app?vid=a0d63ddc-d296-4cd3-9d0a-75462b58515d","ios":"levelo://app?vid=a0d63ddc-d296-4cd3-9d0a-75462b58515d"},"vehicle_type_id":"4","last_reported":1751562707,"current_range_meters":18000,"station_id":"cki0cbj6b192h4jlfktg","pricing_plan_id":"cebpf4jnsgd1na2vs0mg"},{"bike_id":"d3bdb41c-8b0a-446d-98af-e6de2988fc13","system_id":"levelo_inurba_marseille","lat":43.22493,"lon":5.3484,"is_reserved":false,"is_disabled":false,"rental_uris":{"android":"levelo://app?vid=d3bdb41c-8b0a-446d-98af-e6de2988fc13","ios":"levelo://app?vid=d3bdb41c-8b0a-446d-98af-e6de2988fc13"},"vehicle_type_id":"4","last_reported":1751562707,"current_range_meters":18000,"station_id":"st_cvj5dfep6f1abm77gieg","pricing_plan_id":"cebpf4jnsgd1na2vs0mg"},{"bike_id":"5f1e5526-9ff8-4075-8194-48a897f058b4","system_id":"levelo_inurba_marseille","lat":43.21193,"lon":5.35067,"is_reserved":false,"is_disabled":false,"rental_uris":{"android":"levelo://app?vid=5f1e5526-9ff8-4075-8194-48a897f058b4","ios":"levelo://app?vid=5f1e5526-9ff8-4075-8194-48a897f058b4"},"vehicle_type_id":"4","last_reported":1751562707,"current_range_meters":18000,"station_id":"st_cvj6sg6p6f1abm77japg","pricing_plan_id":"cebpf4jnsgd1na2vs0mg"},{"bike_id":"e95b98c8-3442-4484-a315-f0460d63a8c9","system_id":"levelo_inurba_marseille","lat":43.282684,"lon":5.350686,"is_reserved":false,"is_disabled":false,"rental_uris":{"android":"levelo://app?vid=e95b98c8-3442-4484-a315-f0460d63a8c9","ios":"levelo://app?vid=e95b98c8-3442-4484-a315-f0460d63a8c9"},"vehicle_type_id":"4","last_reported":1751562707,"current_range_meters":18800,"station_id":"","pricing_plan_id":"cebpf4jnsgd1na2vs0mg"},{"bike_id":"29642250-d3d5-4b31-b991-8592abc384d7","system_id":"levelo_inurba_marseille","lat":43.26032,"lon":5.37565,"is_reserved":false,"is_disabled":false,"rental_uris":{"android":"levelo://app?vid=29642250-d3d5-4b31-b991-8592abc384d7","ios":"levelo://app?vid=29642250-d3d5-4b31-b991-8592abc384d7"},"vehicle_type_id":"4","last_reported":1751562707,"current_range_meters":18800,"station_id":"ce4bhgh2rcd13ifvqfa0","pricing_plan_id":"cebpf4jnsgd1na2vs0mg"},{"bike_id":"860dce1d-be63-4d8d-ac4f-ae4c153bac2c","system_id":"levelo_inurba_marseille","lat":43.27206,"lon":5.39187,"is_reserved":false,"is_disabled":false,"rental_uris":{"android":"levelo://app?vid=860dce1d-be63-4d8d-ac4f-ae4c153bac2c","ios":"levelo://app?vid=860dce1d-be63-4d8d-ac4f-ae4c153bac2c"},"vehicle_type_id":"4","last_reported":1751562707,"current_range_meters":18800,"station_id":"ce4bhhp2rcd13ifvqfm0","pricing_plan_id":"cebpf4jnsgd1na2vs0mg"},{"bike_id":"08e81811-c9ab-430d-a98b-a4424b37dd49","system_id":"levelo_inurba_marseille","lat":43.29565,"lon":5.42293,"is_reserved":false,"is_disabled":false,"rental_uris":{"android":"levelo://app?vid=08e81811-c9ab-430d-a98b-a4424b37dd49","ios":"levelo://app?vid=08e81811-c9ab-430d-a98b-a4424b37dd49"},"vehicle_type_id":"4","last_reported":1751562707,"current_range_meters":18800,"station_id":"ce4bhph2rcd13ifvqhdg","pricing_plan_id":"cebpf4jnsgd1na2vs0mg"},{"bike_id":"f6e6b100-7c6a-47f9-bbe0-7be961240e5b","system_id":"levelo_inurba_marseille","lat":43.320545,"lon":5.415375,"is_reserved":false,"is_disabled":false,"rental_uris":{"android":"levelo://app?vid=f6e6b100-7c6a-47f9-bbe0-7be961240e5b","ios":"levelo://app?vid=f6e6b100-7c6a-47f9-bbe0-7be961240e5b"},"vehicle_type_id":"4","last_reported":1751562707,"current_range_meters":18800,"station_id":"ce4bhq92rcd13ifvqhkg","pricing_plan_id":"cebpf4jnsgd1na2vs0mg"},{"bike_id":"32c0fc37-6823-41d0-9497-8d1eea24742c","system_id":"levelo_inurba_marseille","lat":43.241701,"lon":5.364011,"is_reserved":false,"is_disabled":false,"rental_uris":{"android":"levelo://app?vid=32c0fc37-6823-41d0-9497-8d1eea24742c","ios":"levelo://app?vid=32c0fc37-6823-41d0-9497-8d1eea24742c"},"vehicle_type_id":"4","last_reported":1751562707,"current_range_meters":18800,"station_id":"cpo36qri1sfpv3e86is0","pricing_plan_id":"cebpf4jnsgd1na2vs0mg"},{"bike_id":"ba926bfc-9632-4680-b0ed-32a040d6fb83","system_id":"levelo_inurba_marseille","lat":43.21765,"lon":5.34604,"is_reserved":false,"is_disabled":false,"rental_uris":{"android":"levelo://app?vid=ba926bfc-9632-4680-b0ed-32a040d6fb83","ios":"levelo://app?vid=ba926bfc-9632-4680-b0ed-32a040d6fb83"},"vehicle_type_id":"4","last_reported":1751562707,"current_range_meters":18800,"station_id":"st_cvj6r9ubvosntc0bgbag","pricing_plan_id":"cebpf4jnsgd1na2vs0mg"},{"bike_id":"b13877a6-4825-4d82-b46b-67fa8ad66c5d","system_id":"levelo_inurba_marseille","lat":43.211941,"lon":5.350711,"is_reserved":false,"is_disabled":false,"rental_uris":{"android":"levelo://app?vid=b13877a6-4825-4d82-b46b-67fa8ad66c5d","ios":"levelo://app?vid=b13877a6-4825-4d82-b46b-67fa8ad66c5d"},"vehicle_type_id":"4","last_reported":1751562707,"current_range_meters":18800,"station_id":"st_cvj6sg6p6f1abm77japg","pricing_plan_id":"cebpf4jnsgd1na2vs0mg"},{"bike_id":"7712491c-e18b-4b09-bb79-30880b357c07","system_id":"levelo_inurba_marseille","lat":43.21194,"lon":5.35069,"is_reserved":false,"is_disabled":false,"rental_uris":{"android":"levelo://app?vid=7712491c-e18b-4b09-bb79-30880b357c07","ios":"levelo://app?vid=7712491c-e18b-4b09-bb79-30880b357c07"},"vehicle_type_id":"4","last_reported":1751562707,"current_range_meters":18800,"station_id":"st_cvj6sg6p6f1abm77japg","pricing_plan_id":"cebpf4jnsgd1na2vs0mg"},{"bike_id":"fadb4ada-0d4d-4f39-8db8-6e571198b2d2","system_id":"levelo_inurba_marseille","lat":43.30306,"lon":5.38898,"is_reserved":false,"is_disabled":false,"rental_uris":{"android":"levelo://app?vid=fadb4ada-0d4d-4f39-8db8-6e571198b2d2","ios":"levelo://app?vid=fadb4ada-0d4d-4f39-8db8-6e571198b2d2"},"vehicle_type_id":"4","last_reported":1751562707,"current_range_meters":19200,"station_id":"","pricing_plan_id":"cebpf4jnsgd1na2vs0mg"},{"bike_id":"30285a92-82f9-4c54-b427-286c4ff1a547","system_id":"levelo_inurba_marseille","lat":43.30892,"lon":5.37186,"is_reserved":false,"is_disabled":false,"rental_uris":{"android":"levelo://app?vid=30285a92-82f9-4c54-b427-286c4ff1a547","ios":"levelo://app?vid=30285a92-82f9-4c54-b427-286c4ff1a547"},"vehicle_type_id":"4","last_reported":1751562707,"current_range_meters":19200,"station_id":"ce4bguh2rcd13ifvqckg","pricing_plan_id":"cebpf4jnsgd1na2vs0mg"},{"bike_id":"86f0ea79-5865-49eb-99fd-237c2267d760","system_id":"levelo_inurba_marseille","lat":43.284537,"lon":5.358888,"is_reserved":false,"is_disabled":false,"rental_uris":{"android":"levelo://app?vid=86f0ea79-5865-49eb-99fd-237c2267d760","ios":"levelo://app?vid=86f0ea79-5865-49eb-99fd-237c2267d760"},"vehicle_type_id":"4","last_reported":1751562707,"current_range_meters":19200,"station_id":"ce4bhah2rcd13ifvqei0","pricing_plan_id":"cebpf4jnsgd1na2vs0mg"},{"bike_id":"d6e4beea-9eae-48fa-a170-61b877438408","system_id":"levelo_inurba_marseille","lat":43.28282,"lon":5.35066,"is_reserved":false,"is_disabled":false,"rental_uris":{"android":"levelo://app?vid=d6e4beea-9eae-48fa-a170-61b877438408","ios":"levelo://app?vid=d6e4beea-9eae-48fa-a170-61b877438408"},"vehicle_type_id":"4","last_reported":1751562707,"current_range_meters":19200,"station_id":"ce4bhbp2rcd13ifvqerg","pricing_plan_id":"cebpf4jnsgd1na2vs0mg"},{"bike_id":"eb268dba-16dc-4b4b-af1e-99f8973bd6c3","system_id":"levelo_inurba_marseille","lat":43.26195,"lon":5.37445,"is_reserved":false,"is_disabled":false,"rental_uris":{"android":"levelo://app?vid=eb268dba-16dc-4b4b-af1e-99f8973bd6c3","ios":"levelo://app?vid=eb268dba-16dc-4b4b-af1e-99f8973bd6c3"},"vehicle_type_id":"4","last_reported":1751562707,"current_range_meters":19200,"station_id":"ce4bhgp2rcd13ifvqfc0","pricing_plan_id":"cebpf4jnsgd1na2vs0mg"},{"bike_id":"4b8da722-ee9e-48a4-a5e5-3a8a10364708","system_id":"levelo_inurba_marseille","lat":43.312251,"lon":5.378091,"is_reserved":false,"is_disabled":false,"rental_uris":{"android":"levelo://app?vid=4b8da722-ee9e-48a4-a5e5-3a8a10364708","ios":"levelo://app?vid=4b8da722-ee9e-48a4-a5e5-3a8a10364708"},"vehicle_type_id":"4","last_reported":1751562707,"current_range_meters":19600,"station_id":"","pricing_plan_id":"cebpf4jnsgd1na2vs0mg"},