{"last_updated":1686499653,"ttl":30,"version":"2.2","data":{"bikes":[{"bike_id":"e215e44b-264e-4626-ae88-2d3a12aefe09","system_id":"levelo_inurba_marseille","lat":43.309076,"lon":5.368465,"is_reserved":false,"is_disabled":false,"rental_uris":{"android":"levelo://app?vid=e215e44b-264e-4626-ae88-2d3a12aefe09","ios":"levelo://app?vid=e215e44b-264e-4626-ae88-2d3a12aefe09"},"vehicle_type_id":"4","last_reported":1686499654,"current_range_meters":9200,"station_id":"ce4bgn92rcd13ifvqbvg","pricing_plan_id":"free"},{"bike_id":"726e69fe-0789-44cc-8872-aafade0684ce","system_id":"levelo_inurba_marseille","lat":43.306,"lon":5.36574,"is_reserved":false,"is_disabled":false,"rental_uris":{"android":"levelo://app?vid=726e69fe-0789-44cc-8872-aafade0684ce","ios":"levelo://app?vid=726e69fe-0789-44cc-8872-aafade0684ce"},"vehicle_type_id":"4","last_reported":1686499654,"current_range_meters":4000,"station_id":"","pricing_plan_id":"free"},{"bike_id":"fe12db99-c4e5-4725-b3f2-9d718033cc0c","system_id":"levelo_inurba_marseille","lat":43.305706,"lon":5.365654,"is_reserved":false,"is_disabled":false,"rental_uris":{"android":"levelo://app?vid=fe12db99-c4e5-4725-b3f2-9d718033cc0c","ios":"levelo://app?vid=fe12db99-c4e5-4725-b3f2-9d718033cc0c"},"vehicle_type_id":"4","last_reported":1686499654,"current_range_meters":3200,"station_id":"ce4bgs12rcd13ifvqcag","pricing_plan_id":"free"},{"bike_id":"86f949e5-034b-43c2-b31c-a24a2e990bc9","system_id":"levelo_inurba_marseille","lat":43.30539,"lon":5.36556,"is_reserved":false,"is_disabled":false,"rental_uris":{"android":"levelo://app?vid=86f949e5-034b-43c2-b31c-a24a2e990bc9","ios":"levelo://app?vid=86f949e5-034b-43c2-b31c-a24a2e990bc9"},"vehicle_type_id":"4","last_reported":1686499654,"current_range_meters":0,"station_id":"ce4bgs12rcd13ifvqcag","pricing_plan_id":"free"},{"bike_id":"cd18ccbf-25e0-4270-90e3-3ed6654d38d0","system_id":"levelo_inurba_marseille","lat":43.31551,"lon":5.38008,"is_reserved":false,"is_disabled":false,"rental_uris":{"android":"levelo://app?vid=cd18ccbf-25e0-4270-90e3-3ed6654d38d0","ios":"levelo://app?vid=cd18ccbf-25e0-4270-90e3-3ed6654d38d0"},"vehicle_type_id":"4","last_reported":1686499654,"current_range_meters":0,"station_id":"","pricing_plan_id":"free"},{"bike_id":"ce1b038f-5efc-4138-8f35-f5c7f60763a1","system_id":"levelo_inurba_marseille","lat":43.301939,"lon":5.366286,"is_reserved":false,"is_disabled":false,"rental_uris":{"android":"levelo://app?vid=ce1b038f-5efc-4138-8f35-f5c7f60763a1","ios":"levelo://app?vid=ce1b038f-5efc-4138-8f35-f5c7f60763a1"},"vehicle_type_id":"4","last_reported":1686499654,"current_range_meters":800,"station_id":"ce4bgrh2rcd13ifvqc8g","pricing_plan_id":"free"},{"bike_id":"0a7e2abe-c4fc-44a9-ac07-899f9a130755","system_id":"levelo_inurba_marseille","lat":43.32004,"lon":5.38169,"is_reserved":false,"is_disabled":false,"rental_uris":{"android":"levelo://app?vid=0a7e2abe-c4fc-44a9-ac07-899f9a130755","ios":"levelo://app?vid=0a7e2abe-c4fc-44a9-ac07-899f9a130755"},"vehicle_type_id":"4","last_reported":1686499654,"current_range_meters":10000,"station_id":"ce4bhr12rcd13ifvqhpg","pricing_plan_id":"free"},{"bike_id":"e527b6fd-648b-43f2-985f-780c699b85f4","system_id":"levelo_inurba_marseille","lat":43.298433,"lon":5.362774,"is_reserved":false,"is_disabled":false,"rental_uris":{"android":"levelo://app?vid=e527b6fd-648b-43f2-985f-780c699b85f4","ios":"levelo://app?vid=e527b6fd-648b-43f2-985f-780c699b85f4"},"vehicle_type_id":"4","last_reported":1686499654,"current_range_meters":4400,"station_id":"ce4bgpp2rcd13ifvqc3g","pricing_plan_id":"free"},{"bike_id":"bf8c645a-8706-4c4b-9aba-6591014a5b48","system_id":"levelo_inurba_marseille","lat":43.298433,"lon":5.362774,"is_reserved":false,"is_disabled":false,"rental_uris":{"android":"levelo://app?vid=bf8c645a-8706-4c4b-9aba-6591014a5b48","ios":"levelo://app?vid=bf8c645a-8706-4c4b-9aba-6591014a5b48"},"vehicle_type_id":"4","last_reported":1686499654,"current_range_meters":15200,"station_id":"ce4bgpp2rcd13ifvqc3g","pricing_plan_id":"free"},{"bike_id":"2f60103a-3fcd-4353-8150-c380ed33e2b8","system_id":"levelo_inurba_marseille","lat":43.311722,"lon":5.387247,"is_reserved":false,"is_disabled":false,"rental_uris":{"android":"levelo://app?vid=2f60103a-3fcd-4353-8150-c380ed33e2b8","ios":"levelo://app?vid=2f60103a-3fcd-4353-8150-c380ed33e2b8"},"vehicle_type_id":"4","last_reported":1686499654,"current_range_meters":16800,"station_id":"ce4bgv12rcd13ifvqcp0","pricing_plan_id":"free"},{"bike_id":"e50bb1b2-3481-49f6-8b4d-8ef6b2ed0239","system_id":"levelo_inurba_marseille","lat":43.297794,"lon":5.370888,"is_reserved":false,"is_disabled":false,"rental_uris":{"android":"levelo://app?vid=e50bb1b2-3481-49f6-8b4d-8ef6b2ed0239","ios":"levelo://app?vid=e50bb1b2-3481-49f6-8b4d-8ef6b2ed0239"},"vehicle_type_id":"4","last_reported":1686499654,"current_range_meters":20400,"station_id":"ce4bgop2rcd13ifvqc1g","pricing_plan_id":"free"},{"bike_id":"9a4ae28f-58ee-4290-9ced-a6a0f82ac088","system_id":"levelo_inurba_marseille","lat":43.32822,"lon":5.36684,"is_reserved":false,"is_disabled":false,"rental_uris":{"android":"levelo://app?vid=9a4ae28f-58ee-4290-9ced-a6a0f82ac088","ios":"levelo://app?vid=9a4ae28f-58ee-4290-9ced-a6a0f82ac088"},"vehicle_type_id":"4","last_reported":1686499654,"current_range_meters":5200,"station_id":"ce4bhs92rcd13ifvqi0g","pricing_plan_id":"free"},{"bike_id":"aaa17c1a-6ddd-4549-a65f-dcfa79c9d36f","system_id":"levelo_inurba_marseille","lat":43.328371,"lon":5.366912,"is_reserved":false,"is_disabled":false,"rental_uris":{"android":"levelo://app?vid=aaa17c1a-6ddd-4549-a65f-dcfa79c9d36f","ios":"levelo://app?vid=aaa17c1a-6ddd-4549-a65f-dcfa79c9d36f"},"vehicle_type_id":"4","last_reported":1686499654,"current_range_meters":8800,"station_id":"ce4bhs92rcd13ifvqi0g","pricing_plan_id":"free"},{"bike_id":"7a81dd62-41ef-410d-a540-259195f7e94b","system_id":"levelo_inurba_marseille","lat":43.328371,"lon":5.366912,"is_reserved":false,"is_disabled":false,"rental_uris":{"android":"levelo://app?vid=7a81dd62-41ef-410d-a540-259195f7e94b","ios":"levelo://app?vid=7a81dd62-41ef-410d-a540-259195f7e94b"},"vehicle_type_id":"4","last_reported":1686499654,"current_range_meters":31200,"station_id":"ce4bhs92rcd13ifvqi0g","pricing_plan_id":"free"},{"bike_id":"646e9ad8-7b91-4157-a6bc-9b5f2ad20d49","system_id":"levelo_inurba_marseille","lat":43.328371,"lon":5.366912,"is_reserved":false,"is_disabled":false,"rental_uris":{"android":"levelo://app?vid=646e9ad8-7b91-4157-a6bc-9b5f2ad20d49","ios":"levelo://app?vid=646e9ad8-7b91-4157-a6bc-9b5f2ad20d49"},"vehicle_type_id":"4","last_reported":1686499654,"current_range_meters":2400,"station_id":"ce4bhs92rcd13ifvqi0g","pricing_plan_id":"free"},{"bike_id":"f8650657-4069-42fc-9896-fa7f476afce1","system_id":"levelo_inurba_marseille","lat":43.328371,"lon":5.366912,"is_reserved":false,"is_disabled":false,"rental_uris":{"android":"levelo://app?vid=f8650657-4069-42fc-9896-fa7f476afce1","ios":"levelo://app?vid=f8650657-4069-42fc-9896-fa7f476afce1"},"vehicle_type_id":"4","last_reported":1686499654,"current_range_meters":17200,"station_id":"ce4bhs92rcd13ifvqi0g","pricing_plan_id":"free"},{"bike_id":"87ea2f92-64ea-4b1e-8e28-45a2870686b4","system_id":"levelo_inurba_marseille","lat":43.2968,"lon":5.37291,"is_reserved":false,"is_disabled":false,"rental_uris":{"android":"levelo://app?vid=87ea2f92-64ea-4b1e-8e28-45a2870686b4","ios":"levelo://app?vid=87ea2f92-64ea-4b1e-8e28-45a2870686b4"},"vehicle_type_id":"4","last_reported":1686499654,"current_range_meters":20000,"station_id":"ce4bgk12rcd13ifvqbj0","pricing_plan_id":"free"},{"bike_id":"73cdd660-56b7-4d51-8c21-b83fade25031","system_id":"levelo_inurba_marseille","lat":43.2968,"lon":5.37291,"is_reserved":false,"is_disabled":false,"rental_uris":{"android":"levelo://app?vid=73cdd660-56b7-4d51-8c21-b83fade25031","ios":"levelo://app?vid=73cdd660-56b7-4d51-8c21-b83fade25031"},"vehicle_type_id":"4","last_reported":1686499654,"current_range_meters":26800,"station_id":"ce4bgk12rcd13ifvqbj0","pricing_plan_id":"free"},{"bike_id":"5bf89852-0bf1-42a6-839b-be7a06c49ed8","system_id":"levelo_inurba_marseille","lat":43.29729,"lon":5.37698,"is_reserved":false,"is_disabled":false,"rental_uris":{"android":"levelo://app?vid=5bf89852-0bf1-42a6-839b-be7a06c49ed8","ios":"levelo://app?vid=5bf89852-0bf1-42a6-839b-be7a06c49ed8"},"vehicle_type_id":"4","last_reported":1686499654,"current_range_meters":24000,"station_id":"","pricing_plan_id":"free"},{"bike_id":"9d56b420-a504-4186-8a91-cc0b4122120c","system_id":"levelo_inurba_marseille","lat":43.296921,"lon":5.376579,"is_reserved":false,"is_disabled":false,"rental_uris":{"android":"levelo://app?vid=9d56b420-a504-4186-8a91-cc0b4122120c","ios":"levelo://app?vid=9d56b420-a504-4186-8a91-cc0b4122120c"},"vehicle_type_id":"4","last_reported":1686499654,"current_range_meters":9600,"station_id":"ce4bgkh2rcd13ifvqbl0","pricing_plan_id":"free"},{"bike_id":"aa2e3de5-270e-4802-b2e7-3606ec74e691","system_id":"levelo_inurba_marseille","lat":43.30962,"lon":5.39053,"is_reserved":false,"is_disabled":false,"rental_uris":{"android":"levelo://app?vid=aa2e3de5-270e-4802-b2e7-3606ec74e691","ios":"levelo://app?vid=aa2e3de5-270e-4802-b2e7-3606ec74e691"},"vehicle_type_id":"4","last_reported":1686499654,"current_range_meters":18000,"station_id":"ce4bgup2rcd13ifvqco0","pricing_plan_id":"free"},{"bike_id":"5411dcbc-d852-4cae-a23e-96a34d39cb8d","system_id":"levelo_inurba_marseille","lat":43.295748,"lon":5.37522,"is_reserved":false,"is_disabled":false,"rental_uris":{"android":"levelo://app?vid=5411dcbc-d852-4cae-a23e-96a34d39cb8d","ios":"levelo://app?vid=5411dcbc-d852-4cae-a23e-96a34d39cb8d"},"vehicle_type_id":"4","last_reported":1686499654,"current_range_meters":0,"station_id":"ce4bgh92rcd13ifvqb50","pricing_plan_id":"free"},{"bike_id":"bf21631c-f4b2-4837-8518-e5576955e08a","system_id":"levelo_inurba_marseille","lat":43.296263,"lon":5.377094,"is_reserved":false,"is_disabled":false,"rental_uris":{"android":"levelo://app?vid=bf21631c-f4b2-4837-8518-e5576955e08a","ios":"levelo://app?vid=bf21631c-f4b2-4837-8518-e5576955e08a"},"vehicle_type_id":"4","last_reported":1686499654,"current_range_meters":0,"station_id":"ce4bgi92rcd13ifvqb90","pricing_plan_id":"free"},{"bike_id":"ff791ca7-7335-4537-beb4-35cae2b5411c","system_id":"levelo_inurba_marseille","lat":43.299717,"lon":5.384845,"is_reserved":false,"is_disabled":false,"rental_uris":{"android":"levelo://app?vid=ff791ca7-7335-4537-beb4-35cae2b5411c","ios":"levelo://app?vid=ff791ca7-7335-4537-beb4-35cae2b5411c"},"vehicle_type_id":"4","last_reported":1686499654,"current_range_meters":2800,"station_id":"ce4bgj92rcd13ifvqbd0","pricing_plan_id":"free"},{"bike_id":"1a10afdd-816f-4230-96ad-e07afc80891a","system_id":"levelo_inurba_marseille","lat":43.29425,"lon":5.37401,"is_reserved":false,"is_disabled":false,"rental_uris":{"android":"levelo://app?vid=1a10afdd-816f-4230-96ad-e07afc80891a","ios":"levelo://app?vid=1a10afdd-816f-4230-96ad-e07afc80891a"},"vehicle_type_id":"4","last_reported":1686499654,"current_range_meters":15600,"station_id":"","pricing_plan_id":"free"},{"bike_id":"3c244823-91a3-449a-9c1c-826a89be7b1b","system_id":"levelo_inurba_marseille","lat":43.323667,"lon":5.388847,"is_reserved":false,"is_disabled":false,"rental_uris":{"android":"levelo://app?vid=3c244823-91a3-449a-9c1c-826a89be7b1b","ios":"levelo://app?vid=3c244823-91a3-449a-9c1c-826a89be7b1b"},"vehicle_type_id":"4","last_reported":1686499654,"current_range_meters":12400,"station_id":"ce4bhqp2rcd13ifvqhog","pricing_plan_id":"free"},{"bike_id":"ce703469-987a-4d18-9dd7-0a02529eca8b","system_id":"levelo_inurba_marseille","lat":43.298433,"lon":5.362774,"is_reserved":false,"is_disabled":false,"rental_uris":{"android":"levelo://app?vid=ce703469-987a-4d18-9dd7-0a02529eca8b","ios":"levelo://app?vid=ce703469-987a-4d18-9dd7-0a02529eca8b"},"vehicle_type_id":"4","last_reported":1686499654,"current_range_meters":10400,"station_id":"ce4bgpp2rcd13ifvqc3g","pricing_plan_id":"free"},{"bike_id":"6a683ca1-2c26-4930-bcb4-4a9ebb2636ed","system_id":"levelo_inurba_marseille","lat":43.293009,"lon":5.374584,"is_reserved":false,"is_disabled":false,"rental_uris":{"android":"levelo://app?vid=6a683ca1-2c26-4930-bcb4-4a9ebb2636ed","ios":"levelo://app?vid=6a683ca1-2c26-4930-bcb4-4a9ebb2636ed"},"vehicle_type_id":"4","last_reported":1686499654,"current_range_meters":26800,"station_id":"ce4bgi12rcd13ifvqb70","pricing_plan_id":"free"},{"bike_id":"6c6892e8-43af-45bd-9d76-0255468fbf16","system_id":"levelo_inurba_marseille","lat":43.302992,"lon":5.392136,"is_reserved":false,"is_disabled":false,"rental_uris":{"android":"levelo://app?vid=6c6892e8-43af-45bd-9d76-0255468fbf16","ios":"levelo://app?vid=6c6892e8-43af-45bd-9d76-0255468fbf16"},"vehicle_type_id":"4","last_reported":1686499654,"current_range_meters":0,"station_id":"ce4bgkh2rcd13ifvqbk0","pricing_plan_id":"free"},{"bike_id":"61e4ccfd-dc98-4837-8123-2dfa5e087f42","system_id":"levelo_inurba_marseille","lat":43.293723,"lon":5.378443,"is_reserved":false,"is_disabled":false,"rental_uris":{"android":"levelo://app?vid=61e4ccfd-dc98-4837-8123-2dfa5e087f42","ios":"levelo://app?vid=61e4ccfd-dc98-4837-8123-2dfa5e087f42"},"vehicle_type_id":"4","last_reported":1686499654,"current_range_meters":0,"station_id":"","pricing_plan_id":"free"},{"bike_id":"699ae602-2c91-40ef-a79b-5e77039190cf","system_id":"levelo_inurba_marseille","lat":43.298764,"lon":5.388973,"is_reserved":false,"is_disabled":false,"rental_uris":{"android":"levelo://app?vid=699ae602-2c91-40ef-a79b-5e77039190cf","ios":"levelo://app?vid=699ae602-2c91-40ef-a79b-5e77039190cf"},"vehicle_type_id":"4","last_reported":1686499654,"current_range_meters":0,"station_id":"ce4bh392rcd13ifvqdl0","pricing_plan_id":"free"},{"bike_id":"a294d357-2815-4fab-bb40-bb22d45bf556","system_id":"levelo_inurba_marseille","lat":43.309038,"lon":5.396546,"is_reserved":false,"is_disabled":false,"rental_uris":{"android":"levelo://app?vid=a294d357-2815-4fab-bb40-bb22d45bf556","ios":"levelo://app?vid=a294d357-2815-4fab-bb40-bb22d45bf556"},"vehicle_type_id":"4","last_reported":1686499654,"current_range_meters":0,"station_id":"ce4bh012rcd13ifvqcv0","pricing_plan_id":"free"},{"bike_id":"8607da47-5c8f-4fde-a95c-e6bf0033d2b7","system_id":"levelo_inurba_marseille","lat":43.3022,"lon":5.39468,"is_reserved":false,"is_disabled":false,"rental_uris":{"android":"levelo://app?vid=8607da47-5c8f-4fde-a95c-e6bf0033d2b7","ios":"levelo://app?vid=8607da47-5c8f-4fde-a95c-e6bf0033d2b7"},"vehicle_type_id":"4","last_reported":1686499654,"current_range_meters":20800,"station_id":"ce4bh0p2rcd13ifvqd70","pricing_plan_id":"free"},{"bike_id":"94d85c59-9c18-485c-bf3e-49100124a920","system_id":"levelo_inurba_marseille","lat":43.29049,"lon":5.35914,"is_reserved":false,"is_disabled":false,"rental_uris":{"android":"levelo://app?vid=94d85c59-9c18-485c-bf3e-49100124a920","ios":"levelo://app?vid=94d85c59-9c18-485c-bf3e-49100124a920"},"vehicle_type_id":"4","last_reported":1686499654,"current_range_meters":0,"station_id":"","pricing_plan_id":"free"},{"bike_id":"a98d6b9c-17ba-4611-a91a-93056844b8bb","system_id":"levelo_inurba_marseille","lat":43.289184,"lon":5.366408,"is_reserved":false,"is_disabled":false,"rental_uris":{"android":"levelo://app?vid=a98d6b9c-17ba-4611-a91a-93056844b8bb","ios":"levelo://app?vid=a98d6b9c-17ba-4611-a91a-93056844b8bb"},"vehicle_type_id":"4","last_reported":1686499654,"current_range_meters":11200,"station_id":"ce4bhap2rcd13ifvqek0","pricing_plan_id":"free"},{"bike_id":"c9ed2382-d98c-4db1-a85f-1e095076b8a6","system_id":"levelo_inurba_marseille","lat":43.294032,"lon":5.386342,"is_reserved":false,"is_disabled":false,"rental_uris":{"android":"levelo://app?vid=c9ed2382-d98c-4db1-a85f-1e095076b8a6","ios":"levelo://app?vid=c9ed2382-d98c-4db1-a85f-1e095076b8a6"},"vehicle_type_id":"4","last_reported":1686499654,"current_range_meters":19600,"station_id":"","pricing_plan_id":"free"},{"bike_id":"6a3bbd8a-fb8a-4e23-b098-7101bb90f93e","system_id":"levelo_inurba_marseille","lat":43.290104,"lon":5.356111,"is_reserved":false,"is_disabled":false,"rental_uris":{"android":"levelo://app?vid=6a3bbd8a-fb8a-4e23-b098-7101bb90f93e","ios":"levelo://app?vid=6a3bbd8a-fb8a-4e23-b098-7101bb90f93e"},"vehicle_type_id":"4","last_reported":1686499654,"current_range_meters":1200,"station_id":"ce4bhb92rcd13ifvqen0","pricing_plan_id":"free"},{"bike_id":"e9170bf1-c1d4-4557-956e-3de979f19338","system_id":"levelo_inurba_marseille","lat":43.290057,"lon":5.356213,"is_reserved":false,"is_disabled":false,"rental_uris":{"android":"levelo://app?vid=e9170bf1-c1d4-4557-956e-3de979f19338","ios":"levelo://app?vid=e9170bf1-c1d4-4557-956e-3de979f19338"},"vehicle_type_id":"4","last_reported":1686499654,"current_range_meters":8400,"station_id":"","pricing_plan_id":"free"},{"bike_id":"01b91857-4e57-43ad-b291-bc9326104b69","system_id":"levelo_inurba_marseille","lat":43.290103,"lon":5.356114,"is_reserved":false,"is_disabled":false,"rental_uris":{"android":"levelo://app?vid=01b91857-4e57-43ad-b291-bc9326104b69","ios":"levelo://app?vid=01b91857-4e57-43ad-b291-bc9326104b69"},"vehicle_type_id":"4","last_reported":1686499654,"current_range_meters":5600,"station_id":"ce4bhb92rcd13ifvqen0","pricing_plan_id":"free"},{"bike_id":"c4a70924-50ca-48f6-be6f-388b7cf78ab7","system_id":"levelo_inurba_marseille","lat":43.33046,"lon":5.38923,"is_reserved":false,"is_disabled":false,"rental_uris":{"android":"levelo://app?vid=c4a70924-50ca-48f6-be6f-388b7cf78ab7","ios":"levelo://app?vid=c4a70924-50ca-48f6-be6f-388b7cf78ab7"},"vehicle_type_id":"4","last_reported":1686499654,"current_range_meters":24400,"station_id":"ce4bhr92rcd13ifvqhrg","pricing_plan_id":"free"},{"bike_id":"aa395c0f-2e62-4144-ba9e-1483b5b4deb6","system_id":"levelo_inurba_marseille","lat":43.295169,"lon":5.390426,"is_reserved":false,"is_disabled":false,"rental_uris":{"android":"levelo://app?vid=aa395c0f-2e62-4144-ba9e-1483b5b4deb6","ios":"levelo://app?vid=aa395c0f-2e62-4144-ba9e-1483b5b4deb6"},"vehicle_type_id":"4","last_reported":1686499654,"current_range_meters":24400,"station_id":"ce4bh3p2rcd13ifvqdp0","pricing_plan_id":"free"},{"bike_id":"c0d2b46a-cfb1-4382-bb12-af9052e774a8","system_id":"levelo_inurba_marseille","lat":43.295169,"lon":5.390426,"is_reserved":false,"is_disabled":false,"rental_uris":{"android":"levelo://app?vid=c0d2b46a-cfb1-4382-bb12-af9052e774a8","ios":"levelo://app?vid=c0d2b46a-cfb1-4382-bb12-af9052e774a8"},"vehicle_type_id":"4","last_reported":1686499654,"current_range_meters":0,"station_id":"ce4bh3p2rcd13ifvqdp0","pricing_plan_id":"free"},{"bike_id":"a90f871a-2f8c-4e76-b0a1-c245740e102e","system_id":"levelo_inurba_marseille","lat":43.295169,"lon":5.390426,"is_reserved":false,"is_disabled":false,"rental_uris":{"android":"levelo://app?vid=a90f871a-2f8c-4e76-b0a1-c245740e102e","ios":"levelo://app?vid=a90f871a-2f8c-4e76-b0a1-c245740e102e"},"vehicle_type_id":"4","last_reported":1686499654,"current_range_meters":20400,"station_id":"ce4bh3p2rcd13ifvqdp0","pricing_plan_id":"free"},{"bike_id":"49c7cab1-6b9d-4c9e-bc29-e5d71fab3b8b","system_id":"levelo_inurba_marseille","lat":43.28856,"lon":5.358371,"is_reserved":false,"is_disabled":false,"rental_uris":{"android":"levelo://app?vid=49c7cab1-6b9d-4c9e-bc29-e5d71fab3b8b","ios":"levelo://app?vid=49c7cab1-6b9d-4c9e-bc29-e5d71fab3b8b"},"vehicle_type_id":"4","last_reported":1686499654,"current_range_meters":30000,"station_id":"ce4bhb12rcd13ifvqem0","pricing_plan_id":"free"},{"bike_id":"dc03ba51-5d22-4ed9-b3ed-9499a80f6bd0","system_id":"levelo_inurba_marseille","lat":43.33756,"lon":5.37459,"is_reserved":false,"is_disabled":false,"rental_uris":{"android":"levelo://app?vid=dc03ba51-5d22-4ed9-b3ed-9499a80f6bd0","ios":"levelo://app?vid=dc03ba51-5d22-4ed9-b3ed-9499a80f6bd0"},"vehicle_type_id":"4","last_reported":1686499654,"current_range_meters":30800,"station_id":"","pricing_plan_id":"free"},{"bike_id":"265c0905-166c-408b-8d33-95a8e86424e1","system_id":"levelo_inurba_marseille","lat":43.337582,"lon":5.374483,"is_reserved":false,"is_disabled":false,"rental_uris":{"android":"levelo://app?vid=265c0905-166c-408b-8d33-95a8e86424e1","ios":"levelo://app?vid=265c0905-166c-408b-8d33-95a8e86424e1"},"vehicle_type_id":"4","last_reported":1686499654,"current_range_meters":12000,"station_id":"","pricing_plan_id":"free"},{"bike_id":"fb041ec1-b611-46eb-9d8b-3229cfb3396a","system_id":"levelo_inurba_marseille","lat":43.33768,"lon":5.37459,"is_reserved":false,"is_disabled":false,"rental_uris":{"android":"levelo://app?vid=fb041ec1-b611-46eb-9d8b-3229cfb3396a","ios":"levelo://app?vid=fb041ec1-b611-46eb-9d8b-3229cfb3396a"},"vehicle_type_id":"4","last_reported":1686499654,"current_range_meters":19200,"station_id":"","pricing_plan_id":"free"},{"bike_id":"8b719cf4-72f9-43e3-8783-0434314e34b2","system_id":"levelo_inurba_marseille","lat":43.30642,"lon":5.401031,"is_reserved":false,"is_disabled":false,"rental_uris":{"android":"levelo://app?vid=8b719cf4-72f9-43e3-8783-0434314e34b2","ios":"levelo://app?vid=8b719cf4-72f9-43e3-8783-0434314e34b2"},"vehicle_type_id":"4","last_reported":1686499654,"current_range_meters":13200,"station_id":"ce4bh112rcd13ifvqda0","pricing_plan_id":"free"},{"bike_id":"7b92bb4e-c37f-408a-b8c5-8d9651549545","system_id":"levelo_inurba_marseille","lat":43.33778,"lon":5.37437,"is_reserved":false,"is_disabled":false,"rental_uris":{"android":"levelo://app?vid=7b92bb4e-c37f-408a-b8c5-8d9651549545","ios":"levelo://app?vid=7b92bb4e-c37f-408a-b8c5-8d9651549545"},"vehicle_type_id":"4","last_reported":1686499654,"current_range_meters":20000,"station_id":"","pricing_plan_id":"free"},{"bike_id":"220bb50f-a97f-4c4d-977e-2ccdfd90dfaf","system_id":"levelo_inurba_marseille","lat":43.30135,"lon":5.39861,"is_reserved":false,"is_disabled":false,"rental_uris":{"android":"levelo://app?vid=220bb50f-a97f-4c4d-977e-2ccdfd90dfaf","ios":"levelo://app?vid=220bb50f-a97f-4c4d-977e-2ccdfd90dfaf"},"vehicle_type_id":"4","last_reported":1686499654,"current_range_meters":24800,"station_id":"","pricing_plan_id":"free"},{"bike_id":"4abdf431-1e69-4429-9178-6e1817b57e76","system_id":"levelo_inurba_marseille","lat":43.28707,"lon":5.37392,"is_reserved":false,"is_disabled":false,"rental_uris":{"android":"levelo://app?vid=4abdf431-1e69-4429-9178-6e1817b57e76","ios":"levelo://app?vid=4abdf431-1e69-4429-9178-6e1817b57e76"},"vehicle_type_id":"4","last_reported":1686499654,"current_range_meters":14400,"station_id":"","pricing_plan_id":"free"},{"bike_id":"62f3ac86-0a53-4d19-a0df-f55562b5a7c3","system_id":"levelo_inurba_marseille","lat":43.286591,"lon":5.363346,"is_reserved":false,"is_disabled":false,"rental_uris":{"android":"levelo://app?vid=62f3ac86-0a53-4d19-a0df-f55562b5a7c3","ios":"levelo://app?vid=62f3ac86-0a53-4d19-a0df-f55562b5a7c3"},"vehicle_type_id":"4","last_reported":1686499654,"current_range_meters":14800,"station_id":"ce4bhah2rcd13ifvqej0","pricing_plan_id":"free"},{"bike_id":"a691c2f3-384d-4266-b8ed-96863cf9a1c8","system_id":"levelo_inurba_marseille","lat":43.286593,"lon":5.363346,"is_reserved":false,"is_disabled":false,"rental_uris":{"android":"levelo://app?vid=a691c2f3-384d-4266-b8ed-96863cf9a1c8","ios":"levelo://app?vid=a691c2f3-384d-4266-b8ed-96863cf9a1c8"},"vehicle_type_id":"4","last_reported":1686499654,"current_range_meters":8400,"station_id":"ce4bhah2rcd13ifvqej0","pricing_plan_id":"free"},{"bike_id":"b698159c-d3c4-40a4-86f4-96d033e33dba","system_id":"levelo_inurba_marseille","lat":43.290345,"lon":5.38646,"is_reserved":false,"is_disabled":false,"rental_uris":{"android":"levelo://app?vid=b698159c-d3c4-40a4-86f4-96d033e33dba","ios":"levelo://app?vid=b698159c-d3c4-40a4-86f4-96d033e33dba"},"vehicle_type_id":"4","last_reported":1686499654,"current_range_meters":24800,"station_id":"ce4bh4p2rcd13ifvqe0g","pricing_plan_id":"free"},{"bike_id":"2adcce50-63e5-43c9-a6af-faf81e3d95c0","system_id":"levelo_inurba_marseille","lat":43.302759,"lon":5.400793,"is_reserved":false,"is_disabled":false,"rental_uris":{"android":"levelo://app?vid=2adcce50-63e5-43c9-a6af-faf81e3d95c0","ios":"levelo://app?vid=2adcce50-63e5-43c9-a6af-faf81e3d95c0"},"vehicle_type_id":"4","last_reported":1686499654,"current_range_meters":19200,"station_id":"ce4bgvh2rcd13ifvqcs0","pricing_plan_id":"free"},{"bike_id":"baa87d66-b298-4ec9-8ce7-424fd7e25585","system_id":"levelo_inurba_marseille","lat":43.290345,"lon":5.38646,"is_reserved":false,"is_disabled":false,"rental_uris":{"android":"levelo://app?vid=baa87d66-b298-4ec9-8ce7-424fd7e25585","ios":"levelo://app?vid=baa87d66-b298-4ec9-8ce7-424fd7e25585"},"vehicle_type_id":"4","last_reported":1686499654,"current_range_meters":27600,"station_id":"ce4bh4p2rcd13ifvqe0g","pricing_plan_id":"free"},{"bike_id":"5c7e2eef-69dc-4b9a-b021-00634efce2b4","system_id":"levelo_inurba_marseille","lat":43.290336,"lon":5.386425,"is_reserved":false,"is_disabled":false,"rental_uris":{"android":"levelo://app?vid=5c7e2eef-69dc-4b9a-b021-00634efce2b4","ios":"levelo://app?vid=5c7e2eef-69dc-4b9a-b021-00634efce2b4"},"vehicle_type_id":"4","last_reported":1686499654,"current_range_meters":24400,"station_id":"ce4bh4p2rcd13ifvqe0g","pricing_plan_id":"free"},{"bike_id":"46fc0699-bc6c-4854-9df5-8aac4d3ae2d9","system_id":"levelo_inurba_marseille","lat":43.30257,"lon":5.40083,"is_reserved":false,"is_disabled":false,"rental_uris":{"android":"levelo://app?vid=46fc0699-bc6c-4854-9df5-8aac4d3ae2d9","ios":"levelo://app?vid=46fc0699-bc6c-4854-9df5-8aac4d3ae2d9"},"vehicle_type_id":"4","last_reported":1686499654,"current_range_meters":24800,"station_id":"ce4bgvh2rcd13ifvqcs0","pricing_plan_id":"free"},{"bike_id":"1dd6bb90-e84f-4dc6-9d38-c2c102c620af","system_id":"levelo_inurba_marseille","lat":43.286039,"lon":5.370679,"is_reserved":false,"is_disabled":false,"rental_uris":{"android":"levelo://app?vid=1dd6bb90-e84f-4dc6-9d38-c2c102c620af","ios":"levelo://app?vid=1dd6bb90-e84f-4dc6-9d38-c2c102c620af"},"vehicle_type_id":"4","last_reported":1686499654,"current_range_meters":1200,"station_id":"ce4bht12rcd13ifvqi60","pricing_plan_id":"free"},{"bike_id":"90018442-d96d-4143-92e6-f2ce3b8aeee5","system_id":"levelo_inurba_marseille","lat":43.291994,"lon":5.392907,"is_reserved":false,"is_disabled":false,"rental_uris":{"android":"levelo://app?vid=90018442-d96d-4143-92e6-f2ce3b8aeee5","ios":"levelo://app?vid=90018442-d96d-4143-92e6-f2ce3b8aeee5"},"vehicle_type_id":"4","last_reported":1686499654,"current_range_meters":1600,"station_id":"ce4bh192rcd13ifvqdd0","pricing_plan_id":"free"},{"bike_id":"7d658a7e-496f-4f88-8dbd-c494f53f928b","system_id":"levelo_inurba_marseille","lat":43.29895,"lon":5.40136,"is_reserved":false,"is_disabled":false,"rental_uris":{"android":"levelo://app?vid=7d658a7e-496f-4f88-8dbd-c494f53f928b","ios":"levelo://app?vid=7d658a7e-496f-4f88-8dbd-c494f53f928b"},"vehicle_type_id":"4","last_reported":1686499654,"current_range_meters":3200,"station_id":"","pricing_plan_id":"free"},{"bike_id":"7c233750-7c55-4556-96da-3a71972dd9e8","system_id":"levelo_inurba_marseille","lat":43.295713,"lon":5.399639,"is_reserved":false,"is_disabled":false,"rental_uris":{"android":"levelo://app?vid=7c233750-7c55-4556-96da-3a71972dd9e8","ios":"levelo://app?vid=7c233750-7c55-4556-96da-3a71972dd9e8"},"vehicle_type_id":"4","last_reported":1686499654,"current_range_meters":0,"station_id":"ce4bh312rcd13ifvqdj0","pricing_plan_id":"free"},{"bike_id":"43e890e1-ea60-4738-9cb6-ada7d7cde93f","system_id":"levelo_inurba_marseille","lat":43.295713,"lon":5.399639,"is_reserved":false,"is_disabled":false,"rental_uris":{"android":"levelo://app?vid=43e890e1-ea60-4738-9cb6-ada7d7cde93f","ios":"levelo://app?vid=43e890e1-ea60-4738-9cb6-ada7d7cde93f"},"vehicle_type_id":"4","last_reported":1686499654,"current_range_meters":25200,"station_id":"ce4bh312rcd13ifvqdj0","pricing_plan_id":"free"},{"bike_id":"4aa85aad-36b7-4550-8625-a3b721a66b77","system_id":"levelo_inurba_marseille","lat":43.295713,"lon":5.399639,"is_reserved":false,"is_disabled":false,"rental_uris":{"android":"levelo://app?vid=4aa85aad-36b7-4550-8625-a3b721a66b77","ios":"levelo://app?vid=4aa85aad-36b7-4550-8625-a3b721a66b77"},"vehicle_type_id":"4","last_reported":1686499654,"current_range_meters":18800,"station_id":"ce4bh312rcd13ifvqdj0","pricing_plan_id":"free"},{"bike_id":"a81057f8-b973-4663-9a98-cf44a084d835","system_id":"levelo_inurba_marseille","lat":43.295713,"lon":5.399639,"is_reserved":false,"is_disabled":false,"rental_uris":{"android":"levelo://app?vid=a81057f8-b973-4663-9a98-cf44a084d835","ios":"levelo://app?vid=a81057f8-b973-4663-9a98-cf44a084d835"},"vehicle_type_id":"4","last_reported":1686499654,"current_range_meters":10800,"station_id":"ce4bh312rcd13ifvqdj0","pricing_plan_id":"free"},{"bike_id":"a01757e3-df67-4b12-9ed1-b716c2fa2a4c","system_id":"levelo_inurba_marseille","lat":43.296263,"lon":5.40601,"is_reserved":false,"is_disabled":false,"rental_uris":{"android":"levelo://app?vid=a01757e3-df67-4b12-9ed1-b716c2fa2a4c","ios":"levelo://app?vid=a01757e3-df67-4b12-9ed1-b716c2fa2a4c"},"vehicle_type_id":"4","last_reported":1686499654,"current_range_meters":20400,"station_id":"ce4bh0h2rcd13ifvqd60","pricing_plan_id":"free"},{"bike_id":"53b65baa-2107-4265-91ad-f11e216bc8d0","system_id":"levelo_inurba_marseille","lat":43.286595,"lon":5.386795,"is_reserved":false,"is_disabled":false,"rental_uris":{"android":"levelo://app?vid=53b65baa-2107-4265-91ad-f11e216bc8d0","ios":"levelo://app?vid=53b65baa-2107-4265-91ad-f11e216bc8d0"},"vehicle_type_id":"4","last_reported":1686499654,"current_range_meters":9600,"station_id":"ce4bh492rcd13ifvqdug","pricing_plan_id":"free"},{"bike_id":"94783ff9-d63f-4314-a42f-617e764a1b17","system_id":"levelo_inurba_marseille","lat":43.2853,"lon":5.35047,"is_reserved":false,"is_disabled":false,"rental_uris":{"android":"levelo://app?vid=94783ff9-d63f-4314-a42f-617e764a1b17","ios":"levelo://app?vid=94783ff9-d63f-4314-a42f-617e764a1b17"},"vehicle_type_id":"4","last_reported":1686499654,"current_range_meters":9600,"station_id":"ce4bhbh2rcd13ifvqepg","pricing_plan_id":"free"},{"bike_id":"ae232d39-b160-410f-a53c-e104a0631f2e","system_id":"levelo_inurba_marseille","lat":43.32342,"lon":5.4062,"is_reserved":false,"is_disabled":false,"rental_uris":{"android":"levelo://app?vid=ae232d39-b160-410f-a53c-e104a0631f2e","ios":"levelo://app?vid=ae232d39-b160-410f-a53c-e104a0631f2e"},"vehicle_type_id":"4","last_reported":1686499654,"current_range_meters":30800,"station_id":"ce4bhq92rcd13ifvqhjg","pricing_plan_id":"free"},{"bike_id":"5d501cb1-669d-44db-8610-1e2383559f92","system_id":"levelo_inurba_marseille","lat":43.323464,"lon":5.406297,"is_reserved":false,"is_disabled":false,"rental_uris":{"android":"levelo://app?vid=5d501cb1-669d-44db-8610-1e2383559f92","ios":"levelo://app?vid=5d501cb1-669d-44db-8610-1e2383559f92"},"vehicle_type_id":"4","last_reported":1686499654,"current_range_meters":30000,"station_id":"ce4bhq92rcd13ifvqhjg","pricing_plan_id":"free"},{"bike_id":"7d89e3b5-958d-47f6-80fa-adc2175a1ff9","system_id":"levelo_inurba_marseille","lat":43.32346,"lon":5.40622,"is_reserved":false,"is_disabled":false,"rental_uris":{"android":"levelo://app?vid=7d89e3b5-958d-47f6-80fa-adc2175a1ff9","ios":"levelo://app?vid=7d89e3b5-958d-47f6-80fa-adc2175a1ff9"},"vehicle_type_id":"4","last_reported":1686499654,"current_range_meters":27200,"station_id":"ce4bhq92rcd13ifvqhjg","pricing_plan_id":"free"},{"bike_id":"c0f36b48-d3de-471a-b0f9-e079c3864410","system_id":"levelo_inurba_marseille","lat":43.288497,"lon":5.393089,"is_reserved":false,"is_disabled":false,"rental_uris":{"android":"levelo://app?vid=c0f36b48-d3de-471a-b0f9-e079c3864410","ios":"levelo://app?vid=c0f36b48-d3de-471a-b0f9-e079c3864410"},"vehicle_type_id":"4","last_reported":1686499654,"current_range_meters":24000,"station_id":"ce4bh2p2rcd13ifvqdi0","pricing_plan_id":"free"},{"bike_id":"51312004-48b7-4d83-a079-5c2aab5fbd6e","system_id":"levelo_inurba_marseille","lat":43.29284,"lon":5.40124,"is_reserved":false,"is_disabled":false,"rental_uris":{"android":"levelo://app?vid=51312004-48b7-4d83-a079-5c2aab5fbd6e","ios":"levelo://app?vid=51312004-48b7-4d83-a079-5c2aab5fbd6e"},"vehicle_type_id":"4","last_reported":1686499654,"current_range_meters":24000,"station_id":"ce4bh312rcd13ifvqdk0","pricing_plan_id":"free"},{"bike_id":"0e72c10b-2bde-48c9-9672-00bf1d13e34b","system_id":"levelo_inurba_marseille","lat":43.29283,"lon":5.40123,"is_reserved":false,"is_disabled":false,"rental_uris":{"android":"levelo://app?vid=0e72c10b-2bde-48c9-9672-00bf1d13e34b","ios":"levelo://app?vid=0e72c10b-2bde-48c9-9672-00bf1d13e34b"},"vehicle_type_id":"4","last_reported":1686499654,"current_range_meters":6800,"station_id":"ce4bh312rcd13ifvqdk0","pricing_plan_id":"free"},{"bike_id":"fe2939e5-2cc8-44e5-a033-6fe131a55c2f","system_id":"levelo_inurba_marseille","lat":43.28273,"lon":5.35065,"is_reserved":false,"is_disabled":false,"rental_uris":{"android":"levelo://app?vid=fe2939e5-2cc8-44e5-a033-6fe131a55c2f","ios":"levelo://app?vid=fe2939e5-2cc8-44e5-a033-6fe131a55c2f"},"vehicle_type_id":"4","last_reported":1686499654,"current_range_meters":31200,"station_id":"ce4bhbp2rcd13ifvqerg","pricing_plan_id":"free"},{"bike_id":"03b5e892-678a-490a-b4a6-505cde20f608","system_id":"levelo_inurba_marseille","lat":43.29041,"lon":5.399634,"is_reserved":false,"is_disabled":false,"rental_uris":{"android":"levelo://app?vid=03b5e892-678a-490a-b4a6-505cde20f608","ios":"levelo://app?vid=03b5e892-678a-490a-b4a6-505cde20f608"},"vehicle_type_id":"4","last_reported":1686499654,"current_range_meters":0,"station_id":"ce4bh392rcd13ifvqdm0","pricing_plan_id":"free"},{"bike_id":"f40ea633-c4cc-4641-8f9f-13a2f6887f26","system_id":"levelo_inurba_marseille","lat":43.2811,"lon":5.37847,"is_reserved":false,"is_disabled":false,"rental_uris":{"android":"levelo://app?vid=f40ea633-c4cc-4641-8f9f-13a2f6887f26","ios":"levelo://app?vid=f40ea633-c4cc-4641-8f9f-13a2f6887f26"},"vehicle_type_id":"4","last_reported":1686499654,"current_range_meters":26000,"station_id":"ce4bha12rcd13ifvqee0","pricing_plan_id":"free"},{"bike_id":"700ad3c5-d546-4fd9-9d77-b5fff2912964","system_id":"levelo_inurba_marseille","lat":43.326605,"lon":5.409903,"is_reserved":false,"is_disabled":false,"rental_uris":{"android":"levelo://app?vid=700ad3c5-d546-4fd9-9d77-b5fff2912964","ios":"levelo://app?vid=700ad3c5-d546-4fd9-9d77-b5fff2912964"},"vehicle_type_id":"4","last_reported":1686499654,"current_range_meters":27600,"station_id":"ce4bhpp2rcd13ifvqhgg","pricing_plan_id":"free"},{"bike_id":"78a0e235-0cde-473d-a1c4-1a3d90852a84","system_id":"levelo_inurba_marseille","lat":43.30426,"lon":5.4129,"is_reserved":false,"is_disabled":false,"rental_uris":{"android":"levelo://app?vid=78a0e235-0cde-473d-a1c4-1a3d90852a84","ios":"levelo://app?vid=78a0e235-0cde-473d-a1c4-1a3d90852a84"},"vehicle_type_id":"4","last_reported":1686499654,"current_range_meters":22400,"station_id":"ce4bhop2rcd13ifvqh8g","pricing_plan_id":"free"},{"bike_id":"697a6954-1167-499c-bb16-056dd7ca150e","system_id":"levelo_inurba_marseille","lat":43.279742,"lon":5.38744,"is_reserved":false,"is_disabled":false,"rental_uris":{"android":"levelo://app?vid=697a6954-1167-499c-bb16-056dd7ca150e","ios":"levelo://app?vid=697a6954-1167-499c-bb16-056dd7ca150e"},"vehicle_type_id":"4","last_reported":1686499654,"current_range_meters":11600,"station_id":"ce4bhg12rcd13ifvqf80","pricing_plan_id":"free"},{"bike_id":"8a050a67-489f-4a17-8154-99c72197bd56","system_id":"levelo_inurba_marseille","lat":43.27984,"lon":5.3875,"is_reserved":false,"is_disabled":false,"rental_uris":{"android":"levelo://app?vid=8a050a67-489f-4a17-8154-99c72197bd56","ios":"levelo://app?vid=8a050a67-489f-4a17-8154-99c72197bd56"},"vehicle_type_id":"4","last_reported":1686499654,"current_range_meters":4800,"station_id":"ce4bhg12rcd13ifvqf80","pricing_plan_id":"free"},{"bike_id":"583543eb-b0bf-4785-8b1e-96cd4f7bb70e","system_id":"levelo_inurba_marseille","lat":43.32035,"lon":5.41564,"is_reserved":false,"is_disabled":false,"rental_uris":{"android":"levelo://app?vid=583543eb-b0bf-4785-8b1e-96cd4f7bb70e","ios":"levelo://app?vid=583543eb-b0bf-4785-8b1e-96cd4f7bb70e"},"vehicle_type_id":"4","last_reported":1686499654,"current_range_meters":29200,"station_id":"","pricing_plan_id":"free"},{"bike_id":"c005176f-7b5a-4d30-86f7-b3cb0b32c302","system_id":"levelo_inurba_marseille","lat":43.292571,"lon":5.409107,"is_reserved":false,"is_disabled":false,"rental_uris":{"android":"levelo://app?vid=c005176f-7b5a-4d30-86f7-b3cb0b32c302","ios":"levelo://app?vid=c005176f-7b5a-4d30-86f7-b3cb0b32c302"},"vehicle_type_id":"4","last_reported":1686499654,"current_range_meters":15600,"station_id":"ce4bh192rcd13ifvqdc0","pricing_plan_id":"free"},{"bike_id":"fdf0e218-9d5d-4b0d-bee5-5047061ead7d","system_id":"levelo_inurba_marseille","lat":43.27618,"lon":5.361009,"is_reserved":false,"is_disabled":false,"rental_uris":{"android":"levelo://app?vid=fdf0e218-9d5d-4b0d-bee5-5047061ead7d","ios":"levelo://app?vid=fdf0e218-9d5d-4b0d-bee5-5047061ead7d"},"vehicle_type_id":"4","last_reported":1686499654,"current_range_meters":19200,"station_id":"ce4bgj92rcd13ifvqbe0","pricing_plan_id":"free"},{"bike_id":"4a8dd499-40b4-47ee-b52a-cb3e376cccc9","system_id":"levelo_inurba_marseille","lat":43.27618,"lon":5.361009,"is_reserved":false,"is_disabled":false,"rental_uris":{"android":"levelo://app?vid=4a8dd499-40b4-47ee-b52a-cb3e376cccc9","ios":"levelo://app?vid=4a8dd499-40b4-47ee-b52a-cb3e376cccc9"},"vehicle_type_id":"4","last_reported":1686499654,"current_range_meters":31200,"station_id":"ce4bgj92rcd13ifvqbe0","pricing_plan_id":"free"},{"bike_id":"28b3fb03-12f5-4103-8f5a-2b1bb3987b88","system_id":"levelo_inurba_marseille","lat":43.280784,"lon":5.396622,"is_reserved":false,"is_disabled":false,"rental_uris":{"android":"levelo://app?vid=28b3fb03-12f5-4103-8f5a-2b1bb3987b88","ios":"levelo://app?vid=28b3fb03-12f5-4103-8f5a-2b1bb3987b88"},"vehicle_type_id":"4","last_reported":1686499654,"current_range_meters":2000,"station_id":"ce4bho12rcd13ifvqh2g","pricing_plan_id":"free"},{"bike_id":"22ac40f3-809c-4902-807a-36a02a1ad2dd","system_id":"levelo_inurba_marseille","lat":43.280784,"lon":5.396622,"is_reserved":false,"is_disabled":false,"rental_uris":{"android":"levelo://app?vid=22ac40f3-809c-4902-807a-36a02a1ad2dd","ios":"levelo://app?vid=22ac40f3-809c-4902-807a-36a02a1ad2dd"},"vehicle_type_id":"4","last_reported":1686499654,"current_range_meters":12400,"station_id":"ce4bho12rcd13ifvqh2g","pricing_plan_id":"free"},{"bike_id":"c4bceda4-ba13-4b8d-9d55-3465e7e8d03d","system_id":"levelo_inurba_marseille","lat":43.278401,"lon":5.392152,"is_reserved":false,"is_disabled":false,"rental_uris":{"android":"levelo://app?vid=c4bceda4-ba13-4b8d-9d55-3465e7e8d03d","ios":"levelo://app?vid=c4bceda4-ba13-4b8d-9d55-3465e7e8d03d"},"vehicle_type_id":"4","last_reported":1686499654,"current_range_meters":16400,"station_id":"ce4bhjp2rcd13ifvqga0","pricing_plan_id":"free"},{"bike_id":"671cfe0d-e573-4206-a28b-5f4319a4dc15","system_id":"levelo_inurba_marseille","lat":43.278401,"lon":5.392152,"is_reserved":false,"is_disabled":false,"rental_uris":{"android":"levelo://app?vid=671cfe0d-e573-4206-a28b-5f4319a4dc15","ios":"levelo://app?vid=671cfe0d-e573-4206-a28b-5f4319a4dc15"},"vehicle_type_id":"4","last_reported":1686499654,"current_range_meters":10800,"station_id":"ce4bhjp2rcd13ifvqga0","pricing_plan_id":"free"},{"bike_id":"a4c11bb3-b2c5-457f-8cca-08a8bb65f359","system_id":"levelo_inurba_marseille","lat":43.336134,"lon":5.410341,"is_reserved":false,"is_disabled":false,"rental_uris":{"android":"levelo://app?vid=a4c11bb3-b2c5-457f-8cca-08a8bb65f359","ios":"levelo://app?vid=a4c11bb3-b2c5-457f-8cca-08a8bb65f359"},"vehicle_type_id":"4","last_reported":1686499654,"current_range_meters":20400,"station_id":"ce4bhqh2rcd13ifvqhmg","pricing_plan_id":"free"},{"bike_id":"ab1c2154-bf8f-481e-8c69-704577898caa","system_id":"levelo_inurba_marseille","lat":43.336134,"lon":5.410341,"is_reserved":false,"is_disabled":false,"rental_uris":{"android":"levelo://app?vid=ab1c2154-bf8f-481e-8c69-704577898caa","ios":"levelo://app?vid=ab1c2154-bf8f-481e-8c69-704577898caa"},"vehicle_type_id":"4","last_reported":1686499654,"current_range_meters":31200,"station_id":"ce4bhqh2rcd13ifvqhmg","pricing_plan_id":"free"},{"bike_id":"5aaa7c09-3233-49da-8383-61256d1be86a","system_id":"levelo_inurba_marseille","lat":43.336134,"lon":5.410341,"is_reserved":false,"is_disabled":false,"rental_uris":{"android":"levelo://app?vid=5aaa7c09-3233-49da-8383-61256d1be86a","ios":"levelo://app?vid=5aaa7c09-3233-49da-8383-61256d1be86a"},"vehicle_type_id":"4","last_reported":1686499654,"current_range_meters":29200,"station_id":"ce4bhqh2rcd13ifvqhmg","pricing_plan_id":"free"},{"bike_id":"a7c84142-c1f3-458b-8782-ab31a523d161","system_id":"levelo_inurba_marseille","lat":43.336134,"lon":5.410341,"is_reserved":false,"is_disabled":false,"rental_uris":{"android":"levelo://app?vid=a7c84142-c1f3-458b-8782-ab31a523d161","ios":"levelo://app?vid=a7c84142-c1f3-458b-8782-ab31a523d161"},"vehicle_type_id":"4","last_reported":1686499654,"current_range_meters":30800,"station_id":"ce4bhqh2rcd13ifvqhmg","pricing_plan_id":"free"},{"bike_id":"0d8127f9-d931-4886-ae1d-cc889ece4400","system_id":"levelo_inurba_marseille","lat":43.33608,"lon":5.4104,"is_reserved":false,"is_disabled":false,"rental_uris":{"android":"levelo://app?vid=0d8127f9-d931-4886-ae1d-cc889ece4400","ios":"levelo://app?vid=0d8127f9-d931-4886-ae1d-cc889ece4400"},"vehicle_type_id":"4","last_reported":1686499654,"current_range_meters":22400,"station_id":"ce4bhqh2rcd13ifvqhmg","pricing_plan_id":"free"},{"bike_id":"88c052a7-8558-4211-a65a-f1bcb970cfbf","system_id":"levelo_inurba_marseille","lat":43.336134,"lon":5.410341,"is_reserved":false,"is_disabled":false,"rental_uris":{"android":"levelo://app?vid=88c052a7-8558-4211-a65a-f1bcb970cfbf","ios":"levelo://app?vid=88c052a7-8558-4211-a65a-f1bcb970cfbf"},"vehicle_type_id":"4","last_reported":1686499654,"current_range_meters":12000,"station_id":"ce4bhqh2rcd13ifvqhmg","pricing_plan_id":"free"},{"bike_id":"e7627f2b-13cf-4e1c-a372-a0997a8af56a","system_id":"levelo_inurba_marseille","lat":43.276769,"lon":5.388787,"is_reserved":false,"is_disabled":false,"rental_uris":{"android":"levelo://app?vid=e7627f2b-13cf-4e1c-a372-a0997a8af56a","ios":"levelo://app?vid=e7627f2b-13cf-4e1c-a372-a0997a8af56a"},"vehicle_type_id":"4","last_reported":1686499654,"current_range_meters":7600,"station_id":"ce4bhi12rcd13ifvqfo0","pricing_plan_id":"free"},{"bike_id":"cf4c82b4-c918-4b7d-8ded-77033f0c45b6","system_id":"levelo_inurba_marseille","lat":43.27264,"lon":5.36286,"is_reserved":false,"is_disabled":false,"rental_uris":{"android":"levelo://app?vid=cf4c82b4-c918-4b7d-8ded-77033f0c45b6","ios":"levelo://app?vid=cf4c82b4-c918-4b7d-8ded-77033f0c45b6"},"vehicle_type_id":"4","last_reported":1686499654,"current_range_meters":18400,"station_id":"","pricing_plan_id":"free"},{"bike_id":"8307e498-1831-4a50-a3fc-373ea4cca1b3","system_id":"levelo_inurba_marseille","lat":43.273129,"lon":5.390725,"is_reserved":false,"is_disabled":false,"rental_uris":{"android":"levelo://app?vid=8307e498-1831-4a50-a3fc-373ea4cca1b3","ios":"levelo://app?vid=8307e498-1831-4a50-a3fc-373ea4cca1b3"},"vehicle_type_id":"4","last_reported":1686499654,"current_range_meters":6000,"station_id":"ce4bhgp2rcd13ifvqfe0","pricing_plan_id":"free"},{"bike_id":"5f64a10b-4ada-46d7-bab5-ef6e087a9fe8","system_id":"levelo_inurba_marseille","lat":43.31086,"lon":5.4243,"is_reserved":false,"is_disabled":false,"rental_uris":{"android":"levelo://app?vid=5f64a10b-4ada-46d7-bab5-ef6e087a9fe8","ios":"levelo://app?vid=5f64a10b-4ada-46d7-bab5-ef6e087a9fe8"},"vehicle_type_id":"4","last_reported":1686499654,"current_range_meters":0,"station_id":"ce4bhp92rcd13ifvqhag","pricing_plan_id":"free"},{"bike_id":"c75ec162-0efe-467a-a98a-50133ea5de05","system_id":"levelo_inurba_marseille","lat":43.27614,"lon":5.39489,"is_reserved":false,"is_disabled":false,"rental_uris":{"android":"levelo://app?vid=c75ec162-0efe-467a-a98a-50133ea5de05","ios":"levelo://app?vid=c75ec162-0efe-467a-a98a-50133ea5de05"},"vehicle_type_id":"4","last_reported":1686499654,"current_range_meters":16400,"station_id":"","pricing_plan_id":"free"},{"bike_id":"a3d08516-a1d9-48e0-bdf6-77d75998b7db","system_id":"levelo_inurba_marseille","lat":43.273129,"lon":5.390725,"is_reserved":false,"is_disabled":false,"rental_uris":{"android":"levelo://app?vid=a3d08516-a1d9-48e0-bdf6-77d75998b7db","ios":"levelo://app?vid=a3d08516-a1d9-48e0-bdf6-77d75998b7db"},"vehicle_type_id":"4","last_reported":1686499654,"current_range_meters":800,"station_id":"ce4bhgp2rcd13ifvqfe0","pricing_plan_id":"free"},{"bike_id":"4eadd5b5-1b6e-43ec-bb31-0e0764320a12","system_id":"levelo_inurba_marseille","lat":43.304096,"lon":5.425385,"is_reserved":false,"is_disabled":false,"rental_uris":{"android":"levelo://app?vid=4eadd5b5-1b6e-43ec-bb31-0e0764320a12","ios":"levelo://app?vid=4eadd5b5-1b6e-43ec-bb31-0e0764320a12"},"vehicle_type_id":"4","last_reported":1686499654,"current_range_meters":29600,"station_id":"ce4bhoh2rcd13ifvqh6g","pricing_plan_id":"free"},{"bike_id":"76a1eb4d-86c8-44ab-a25e-f2c8cb8490b7","system_id":"levelo_inurba_marseille","lat":43.30412,"lon":5.42545,"is_reserved":false,"is_disabled":false,"rental_uris":{"android":"levelo://app?vid=76a1eb4d-86c8-44ab-a25e-f2c8cb8490b7","ios":"levelo://app?vid=76a1eb4d-86c8-44ab-a25e-f2c8cb8490b7"},"vehicle_type_id":"4","last_reported":1686499654,"current_range_meters":5600,"station_id":"ce4bhoh2rcd13ifvqh6g","pricing_plan_id":"free"},{"bike_id":"3d16a8f1-d64c-4d04-9f57-acb86dd711bd","system_id":"levelo_inurba_marseille","lat":43.295523,"lon":5.422926,"is_reserved":false,"is_disabled":false,"rental_uris":{"android":"levelo://app?vid=3d16a8f1-d64c-4d04-9f57-acb86dd711bd","ios":"levelo://app?vid=3d16a8f1-d64c-4d04-9f57-acb86dd711bd"},"vehicle_type_id":"4","last_reported":1686499654,"current_range_meters":11600,"station_id":"ce4bhph2rcd13ifvqhdg","pricing_plan_id":"free"},{"bike_id":"ea995902-89b5-4024-b3eb-675fd6111cd7","system_id":"levelo_inurba_marseille","lat":43.29555,"lon":5.42286,"is_reserved":false,"is_disabled":false,"rental_uris":{"android":"levelo://app?vid=ea995902-89b5-4024-b3eb-675fd6111cd7","ios":"levelo://app?vid=ea995902-89b5-4024-b3eb-675fd6111cd7"},"vehicle_type_id":"4","last_reported":1686499654,"current_range_meters":11600,"station_id":"ce4bhph2rcd13ifvqhdg","pricing_plan_id":"free"},{"bike_id":"bdb72037-1ef5-4818-8bcc-53bc59f9f4ed","system_id":"levelo_inurba_marseille","lat":43.29554,"lon":5.42289,"is_reserved":false,"is_disabled":false,"rental_uris":{"android":"levelo://app?vid=bdb72037-1ef5-4818-8bcc-53bc59f9f4ed","ios":"levelo://app?vid=bdb72037-1ef5-4818-8bcc-53bc59f9f4ed"},"vehicle_type_id":"4","last_reported":1686499654,"current_range_meters":0,"station_id":"ce4bhph2rcd13ifvqhdg","pricing_plan_id":"free"},{"bike_id":"7d064474-bedd-4e43-b52a-a8f1d7b36ed9","system_id":"levelo_inurba_marseille","lat":43.27214,"lon":5.39184,"is_reserved":false,"is_disabled":false,"rental_uris":{"android":"levelo://app?vid=7d064474-bedd-4e43-b52a-a8f1d7b36ed9","ios":"levelo://app?vid=7d064474-bedd-4e43-b52a-a8f1d7b36ed9"},"vehicle_type_id":"4","last_reported":1686499654,"current_range_meters":3600,"station_id":"ce4bhhp2rcd13ifvqfm0","pricing_plan_id":"free"},{"bike_id":"2416411d-5edf-45a1-9aac-a4f0ddb2781b","system_id":"levelo_inurba_marseille","lat":43.272116,"lon":5.391747,"is_reserved":false,"is_disabled":false,"rental_uris":{"android":"levelo://app?vid=2416411d-5edf-45a1-9aac-a4f0ddb2781b","ios":"levelo://app?vid=2416411d-5edf-45a1-9aac-a4f0ddb2781b"},"vehicle_type_id":"4","last_reported":1686499654,"current_range_meters":0,"station_id":"ce4bhhp2rcd13ifvqfm0","pricing_plan_id":"free"},{"bike_id":"dca939d8-e718-4738-96e6-b6f4611384e1","system_id":"levelo_inurba_marseille","lat":43.269467,"lon":5.386439,"is_reserved":false,"is_disabled":false,"rental_uris":{"android":"levelo://app?vid=dca939d8-e718-4738-96e6-b6f4611384e1","ios":"levelo://app?vid=dca939d8-e718-4738-96e6-b6f4611384e1"},"vehicle_type_id":"4","last_reported":1686499654,"current_range_meters":29200,"station_id":"ce4bhh92rcd13ifvqfh0","pricing_plan_id":"free"},{"bike_id":"3471ae50-ccae-4728-a94c-24874026d550","system_id":"levelo_inurba_marseille","lat":43.269467,"lon":5.386439,"is_reserved":false,"is_disabled":false,"rental_uris":{"android":"levelo://app?vid=3471ae50-ccae-4728-a94c-24874026d550","ios":"levelo://app?vid=3471ae50-ccae-4728-a94c-24874026d550"},"vehicle_type_id":"4","last_reported":1686499654,"current_range_meters":29600,"station_id":"ce4bhh92rcd13ifvqfh0","pricing_plan_id":"free"},{"bike_id":"697f3393-c3fe-4514-aa67-3a2e55fe872d","system_id":"levelo_inurba_marseille","lat":43.26689,"lon":5.3827,"is_reserved":false,"is_disabled":false,"rental_uris":{"android":"levelo://app?vid=697f3393-c3fe-4514-aa67-3a2e55fe872d","ios":"levelo://app?vid=697f3393-c3fe-4514-aa67-3a2e55fe872d"},"vehicle_type_id":"4","last_reported":1686499654,"current_range_meters":6000,"station_id":"ce4bhg92rcd13ifvqf90","pricing_plan_id":"free"},{"bike_id":"9894d5d3-ef9d-4d32-b26a-b6c7d3993d4f","system_id":"levelo_inurba_marseille","lat":43.2655,"lon":5.37336,"is_reserved":false,"is_disabled":false,"rental_uris":{"android":"levelo://app?vid=9894d5d3-ef9d-4d32-b26a-b6c7d3993d4f","ios":"levelo://app?vid=9894d5d3-ef9d-4d32-b26a-b6c7d3993d4f"},"vehicle_type_id":"4","last_reported":1686499654,"current_range_meters":0,"station_id":"","pricing_plan_id":"free"},{"bike_id":"586eeb48-dce3-47f1-a613-12f9a214b66d","system_id":"levelo_inurba_marseille","lat":43.27996,"lon":5.416624,"is_reserved":false,"is_disabled":false,"rental_uris":{"android":"levelo://app?vid=586eeb48-dce3-47f1-a613-12f9a214b66d","ios":"levelo://app?vid=586eeb48-dce3-47f1-a613-12f9a214b66d"},"vehicle_type_id":"4","last_reported":1686499654,"current_range_meters":13200,"station_id":"ce4bho12rcd13ifvqh1g","pricing_plan_id":"free"},{"bike_id":"3aa4dede-fdf2-4d82-a917-b31d181c74a8","system_id":"levelo_inurba_marseille","lat":43.27996,"lon":5.416624,"is_reserved":false,"is_disabled":false,"rental_uris":{"android":"levelo://app?vid=3aa4dede-fdf2-4d82-a917-b31d181c74a8","ios":"levelo://app?vid=3aa4dede-fdf2-4d82-a917-b31d181c74a8"},"vehicle_type_id":"4","last_reported":1686499654,"current_range_meters":17600,"station_id":"ce4bho12rcd13ifvqh1g","pricing_plan_id":"free"},{"bike_id":"79126985-cbe2-4c91-aec6-b2c0126dc31c","system_id":"levelo_inurba_marseille","lat":43.27991,"lon":5.41669,"is_reserved":false,"is_disabled":false,"rental_uris":{"android":"levelo://app?vid=79126985-cbe2-4c91-aec6-b2c0126dc31c","ios":"levelo://app?vid=79126985-cbe2-4c91-aec6-b2c0126dc31c"},"vehicle_type_id":"4","last_reported":1686499654,"current_range_meters":10800,"station_id":"ce4bho12rcd13ifvqh1g","pricing_plan_id":"free"},{"bike_id":"ae707cdf-d01c-4fbf-9e9f-fdf9670b4ab7","system_id":"levelo_inurba_marseille","lat":43.27989,"lon":5.41671,"is_reserved":false,"is_disabled":false,"rental_uris":{"android":"levelo://app?vid=ae707cdf-d01c-4fbf-9e9f-fdf9670b4ab7","ios":"levelo://app?vid=ae707cdf-d01c-4fbf-9e9f-fdf9670b4ab7"},"vehicle_type_id":"4","last_reported":1686499654,"current_range_meters":1600,"station_id":"ce4bho12rcd13ifvqh1g","pricing_plan_id":"free"},{"bike_id":"f9eeff49-f17a-4155-b7fa-411650003821","system_id":"levelo_inurba_marseille","lat":43.30802,"lon":5.43528,"is_reserved":false,"is_disabled":false,"rental_uris":{"android":"levelo://app?vid=f9eeff49-f17a-4155-b7fa-411650003821","ios":"levelo://app?vid=f9eeff49-f17a-4155-b7fa-411650003821"},"vehicle_type_id":"4","last_reported":1686499654,"current_range_meters":10800,"station_id":"","pricing_plan_id":"free"},{"bike_id":"23482d07-e25f-4dec-b5ee-97f134436432","system_id":"levelo_inurba_marseille","lat":43.265569,"lon":5.390047,"is_reserved":false,"is_disabled":false,"rental_uris":{"android":"levelo://app?vid=23482d07-e25f-4dec-b5ee-97f134436432","ios":"levelo://app?vid=23482d07-e25f-4dec-b5ee-97f134436432"},"vehicle_type_id":"4","last_reported":1686499654,"current_range_meters":1600,"station_id":"ce4bhe12rcd13ifvqf30","pricing_plan_id":"free"},{"bike_id":"91d94c71-8533-4efc-a134-db40f05119ac","system_id":"levelo_inurba_marseille","lat":43.26234,"lon":5.37046,"is_reserved":false,"is_disabled":false,"rental_uris":{"android":"levelo://app?vid=91d94c71-8533-4efc-a134-db40f05119ac","ios":"levelo://app?vid=91d94c71-8533-4efc-a134-db40f05119ac"},"vehicle_type_id":"4","last_reported":1686499654,"current_range_meters":12400,"station_id":"","pricing_plan_id":"free"},{"bike_id":"025c652d-bbb7-4a53-9f16-ed1a6df4b4a6","system_id":"levelo_inurba_marseille","lat":43.33114,"lon":5.43185,"is_reserved":false,"is_disabled":false,"rental_uris":{"android":"levelo://app?vid=025c652d-bbb7-4a53-9f16-ed1a6df4b4a6","ios":"levelo://app?vid=025c652d-bbb7-4a53-9f16-ed1a6df4b4a6"},"vehicle_type_id":"4","last_reported":1686499654,"current_range_meters":17200,"station_id":"","pricing_plan_id":"free"},{"bike_id":"2a843613-41c9-46cd-a008-cadee2d64375","system_id":"levelo_inurba_marseille","lat":43.33115,"lon":5.43191,"is_reserved":false,"is_disabled":false,"rental_uris":{"android":"levelo://app?vid=2a843613-41c9-46cd-a008-cadee2d64375","ios":"levelo://app?vid=2a843613-41c9-46cd-a008-cadee2d64375"},"vehicle_type_id":"4","last_reported":1686499654,"current_range_meters":8400,"station_id":"","pricing_plan_id":"free"},{"bike_id":"f21c3b9d-fc77-47eb-a69f-b4e9397c53b8","system_id":"levelo_inurba_marseille","lat":43.26209,"lon":5.37441,"is_reserved":false,"is_disabled":false,"rental_uris":{"android":"levelo://app?vid=f21c3b9d-fc77-47eb-a69f-b4e9397c53b8","ios":"levelo://app?vid=f21c3b9d-fc77-47eb-a69f-b4e9397c53b8"},"vehicle_type_id":"4","last_reported":1686499654,"current_range_meters":16000,"station_id":"","pricing_plan_id":"free"},{"bike_id":"743f5a1e-cf57-428c-8f90-f7fc1d8fb41e","system_id":"levelo_inurba_marseille","lat":43.261782,"lon":5.374515,"is_reserved":false,"is_disabled":false,"rental_uris":{"android":"levelo://app?vid=743f5a1e-cf57-428c-8f90-f7fc1d8fb41e","ios":"levelo://app?vid=743f5a1e-cf57-428c-8f90-f7fc1d8fb41e"},"vehicle_type_id":"4","last_reported":1686499654,"current_range_meters":23600,"station_id":"ce4bhgp2rcd13ifvqfc0","pricing_plan_id":"free"},{"bike_id":"7ff10563-b3b8-4b05-a00a-67b33e6ac76f","system_id":"levelo_inurba_marseille","lat":43.2619,"lon":5.37449,"is_reserved":false,"is_disabled":false,"rental_uris":{"android":"levelo://app?vid=7ff10563-b3b8-4b05-a00a-67b33e6ac76f","ios":"levelo://app?vid=7ff10563-b3b8-4b05-a00a-67b33e6ac76f"},"vehicle_type_id":"4","last_reported":1686499654,"current_range_meters":2400,"station_id":"ce4bhgp2rcd13ifvqfc0","pricing_plan_id":"free"},{"bike_id":"961f0f67-cfd1-4750-b09c-a3c501990a7b","system_id":"levelo_inurba_marseille","lat":43.26187,"lon":5.37444,"is_reserved":false,"is_disabled":false,"rental_uris":{"android":"levelo://app?vid=961f0f67-cfd1-4750-b09c-a3c501990a7b","ios":"levelo://app?vid=961f0f67-cfd1-4750-b09c-a3c501990a7b"},"vehicle_type_id":"4","last_reported":1686499654,"current_range_meters":21200,"station_id":"ce4bhgp2rcd13ifvqfc0","pricing_plan_id":"free"},{"bike_id":"365ffce0-61ca-43b3-b4ea-80b338c44bd4","system_id":"levelo_inurba_marseille","lat":43.26185,"lon":5.37448,"is_reserved":false,"is_disabled":false,"rental_uris":{"android":"levelo://app?vid=365ffce0-61ca-43b3-b4ea-80b338c44bd4","ios":"levelo://app?vid=365ffce0-61ca-43b3-b4ea-80b338c44bd4"},"vehicle_type_id":"4","last_reported":1686499654,"current_range_meters":16000,"station_id":"ce4bhgp2rcd13ifvqfc0","pricing_plan_id":"free"},{"bike_id":"50b48ede-4cc5-4969-ab1c-1d7a66a273c2","system_id":"levelo_inurba_marseille","lat":43.31713,"lon":5.43706,"is_reserved":false,"is_disabled":false,"rental_uris":{"android":"levelo://app?vid=50b48ede-4cc5-4969-ab1c-1d7a66a273c2","ios":"levelo://app?vid=50b48ede-4cc5-4969-ab1c-1d7a66a273c2"},"vehicle_type_id":"4","last_reported":1686499654,"current_range_meters":29200,"station_id":"ce4bhp92rcd13ifvqhcg","pricing_plan_id":"free"},{"bike_id":"648ab922-3e7e-46f0-8598-19c230000c33","system_id":"levelo_inurba_marseille","lat":43.26198,"lon":5.37934,"is_reserved":false,"is_disabled":false,"rental_uris":{"android":"levelo://app?vid=648ab922-3e7e-46f0-8598-19c230000c33","ios":"levelo://app?vid=648ab922-3e7e-46f0-8598-19c230000c33"},"vehicle_type_id":"4","last_reported":1686499654,"current_range_meters":0,"station_id":"ce4bhjp2rcd13ifvqg90","pricing_plan_id":"free"},{"bike_id":"137570c9-b0b5-48ee-970a-72f80f292371","system_id":"levelo_inurba_marseille","lat":43.26808,"lon":5.40266,"is_reserved":false,"is_disabled":false,"rental_uris":{"android":"levelo://app?vid=137570c9-b0b5-48ee-970a-72f80f292371","ios":"levelo://app?vid=137570c9-b0b5-48ee-970a-72f80f292371"},"vehicle_type_id":"4","last_reported":1686499654,"current_range_meters":8000,"station_id":"ce501612rcd8frsf0b60","pricing_plan_id":"free"},{"bike_id":"09706511-9637-4cfb-a8cf-69d9cc386777","system_id":"levelo_inurba_marseille","lat":43.27924,"lon":5.42275,"is_reserved":false,"is_disabled":false,"rental_uris":{"android":"levelo://app?vid=09706511-9637-4cfb-a8cf-69d9cc386777","ios":"levelo://app?vid=09706511-9637-4cfb-a8cf-69d9cc386777"},"vehicle_type_id":"4","last_reported":1686499654,"current_range_meters":25200,"station_id":"","pricing_plan_id":"free"},{"bike_id":"1e50d4c5-46cf-4d7c-9130-3b1369edbffb","system_id":"levelo_inurba_marseille","lat":43.27918,"lon":5.42275,"is_reserved":false,"is_disabled":false,"rental_uris":{"android":"levelo://app?vid=1e50d4c5-46cf-4d7c-9130-3b1369edbffb","ios":"levelo://app?vid=1e50d4c5-46cf-4d7c-9130-3b1369edbffb"},"vehicle_type_id":"4","last_reported":1686499654,"current_range_meters":15200,"station_id":"","pricing_plan_id":"free"},{"bike_id":"a8758f9b-0351-49f1-ab55-280eb8f3f2b2","system_id":"levelo_inurba_marseille","lat":43.27919,"lon":5.42277,"is_reserved":false,"is_disabled":false,"rental_uris":{"android":"levelo://app?vid=a8758f9b-0351-49f1-ab55-280eb8f3f2b2","ios":"levelo://app?vid=a8758f9b-0351-49f1-ab55-280eb8f3f2b2"},"vehicle_type_id":"4","last_reported":1686499654,"current_range_meters":28800,"station_id":"","pricing_plan_id":"free"},{"bike_id":"acecd038-56ee-410d-881c-ffa02850a176","system_id":"levelo_inurba_marseille","lat":43.27916,"lon":5.42278,"is_reserved":false,"is_disabled":false,"rental_uris":{"android":"levelo://app?vid=acecd038-56ee-410d-881c-ffa02850a176","ios":"levelo://app?vid=acecd038-56ee-410d-881c-ffa02850a176"},"vehicle_type_id":"4","last_reported":1686499654,"current_range_meters":0,"station_id":"","pricing_plan_id":"free"},{"bike_id":"f78a134a-21b7-4615-89d2-52515d855182","system_id":"levelo_inurba_marseille","lat":43.260219,"lon":5.37546,"is_reserved":false,"is_disabled":false,"rental_uris":{"android":"levelo://app?vid=f78a134a-21b7-4615-89d2-52515d855182","ios":"levelo://app?vid=f78a134a-21b7-4615-89d2-52515d855182"},"vehicle_type_id":"4","last_reported":1686499654,"current_range_meters":25600,"station_id":"ce4bhgh2rcd13ifvqfa0","pricing_plan_id":"free"},{"bike_id":"6853ea80-78f9-4825-8105-002e10c67b8f","system_id":"levelo_inurba_marseille","lat":43.33295,"lon":5.43577,"is_reserved":false,"is_disabled":false,"rental_uris":{"android":"levelo://app?vid=6853ea80-78f9-4825-8105-002e10c67b8f","ios":"levelo://app?vid=6853ea80-78f9-4825-8105-002e10c67b8f"},"vehicle_type_id":"4","last_reported":1686499654,"current_range_meters":14400,"station_id":"","pricing_plan_id":"free"},{"bike_id":"94884ab0-a9df-4150-aa7c-32dd012f394a","system_id":"levelo_inurba_marseille","lat":43.2607,"lon":5.393983,"is_reserved":false,"is_disabled":false,"rental_uris":{"android":"levelo://app?vid=94884ab0-a9df-4150-aa7c-32dd012f394a","ios":"levelo://app?vid=94884ab0-a9df-4150-aa7c-32dd012f394a"},"vehicle_type_id":"4","last_reported":1686499654,"current_range_meters":19200,"station_id":"ce4bhh92rcd13ifvqfj0","pricing_plan_id":"free"},{"bike_id":"725509ff-9ded-4b68-8c88-a1a6044fb63d","system_id":"levelo_inurba_marseille","lat":43.260909,"lon":5.397591,"is_reserved":false,"is_disabled":false,"rental_uris":{"android":"levelo://app?vid=725509ff-9ded-4b68-8c88-a1a6044fb63d","ios":"levelo://app?vid=725509ff-9ded-4b68-8c88-a1a6044fb63d"},"vehicle_type_id":"4","last_reported":1686499654,"current_range_meters":31200,"station_id":"ce4bhi12rcd13ifvqfq0","pricing_plan_id":"free"},{"bike_id":"059e7e11-b684-41b7-b73d-a25b9bb85ede","system_id":"levelo_inurba_marseille","lat":43.26087,"lon":5.39769,"is_reserved":false,"is_disabled":false,"rental_uris":{"android":"levelo://app?vid=059e7e11-b684-41b7-b73d-a25b9bb85ede","ios":"levelo://app?vid=059e7e11-b684-41b7-b73d-a25b9bb85ede"},"vehicle_type_id":"4","last_reported":1686499654,"current_range_meters":31200,"station_id":"ce4bhi12rcd13ifvqfq0","pricing_plan_id":"free"},{"bike_id":"1ed5dd8d-1f28-4678-b8a8-b332f870292f","system_id":"levelo_inurba_marseille","lat":43.28282,"lon":5.43479,"is_reserved":false,"is_disabled":false,"rental_uris":{"android":"levelo://app?vid=1ed5dd8d-1f28-4678-b8a8-b332f870292f","ios":"levelo://app?vid=1ed5dd8d-1f28-4678-b8a8-b332f870292f"},"vehicle_type_id":"4","last_reported":1686499654,"current_range_meters":22800,"station_id":"","pricing_plan_id":"free"},{"bike_id":"e38fc6e5-386d-4cd2-b207-9e0e09f35d83","system_id":"levelo_inurba_marseille","lat":43.25583,"lon":5.38228,"is_reserved":false,"is_disabled":false,"rental_uris":{"android":"levelo://app?vid=e38fc6e5-386d-4cd2-b207-9e0e09f35d83","ios":"levelo://app?vid=e38fc6e5-386d-4cd2-b207-9e0e09f35d83"},"vehicle_type_id":"4","last_reported":1686499654,"current_range_meters":0,"station_id":"ce4bhih2rcd13ifvqfs0","pricing_plan_id":"free"},{"bike_id":"a781a343-b241-4f95-ab3c-8b2df648c6cb","system_id":"levelo_inurba_marseille","lat":43.33312,"lon":5.44167,"is_reserved":false,"is_disabled":false,"rental_uris":{"android":"levelo://app?vid=a781a343-b241-4f95-ab3c-8b2df648c6cb","ios":"levelo://app?vid=a781a343-b241-4f95-ab3c-8b2df648c6cb"},"vehicle_type_id":"4","last_reported":1686499654,"current_range_meters":1600,"station_id":"","pricing_plan_id":"free"},{"bike_id":"446acc18-a606-4e46-b69f-1c2863273b4b","system_id":"levelo_inurba_marseille","lat":43.254947,"lon":5.376454,"is_reserved":false,"is_disabled":false,"rental_uris":{"android":"levelo://app?vid=446acc18-a606-4e46-b69f-1c2863273b4b","ios":"levelo://app?vid=446acc18-a606-4e46-b69f-1c2863273b4b"},"vehicle_type_id":"4","last_reported":1686499654,"current_range_meters":27200,"station_id":"ce4bhh12rcd13ifvqff0","pricing_plan_id":"free"},{"bike_id":"cc4b3f24-997a-4d39-b00c-92eb6fde8975","system_id":"levelo_inurba_marseille","lat":43.25499,"lon":5.37648,"is_reserved":false,"is_disabled":false,"rental_uris":{"android":"levelo://app?vid=cc4b3f24-997a-4d39-b00c-92eb6fde8975","ios":"levelo://app?vid=cc4b3f24-997a-4d39-b00c-92eb6fde8975"},"vehicle_type_id":"4","last_reported":1686499654,"current_range_meters":14800,"station_id":"ce4bhh12rcd13ifvqff0","pricing_plan_id":"free"},{"bike_id":"926456a4-683a-4130-825f-e349460ba24e","system_id":"levelo_inurba_marseille","lat":43.27082,"lon":5.42277,"is_reserved":false,"is_disabled":false,"rental_uris":{"android":"levelo://app?vid=926456a4-683a-4130-825f-e349460ba24e","ios":"levelo://app?vid=926456a4-683a-4130-825f-e349460ba24e"},"vehicle_type_id":"4","last_reported":1686499654,"current_range_meters":22400,"station_id":"ce4bhk92rcd13ifvqgb0","pricing_plan_id":"free"},{"bike_id":"16075b60-0e1b-4a77-ac9f-a94facb761d2","system_id":"levelo_inurba_marseille","lat":43.270721,"lon":5.422764,"is_reserved":false,"is_disabled":false,"rental_uris":{"android":"levelo://app?vid=16075b60-0e1b-4a77-ac9f-a94facb761d2","ios":"levelo://app?vid=16075b60-0e1b-4a77-ac9f-a94facb761d2"},"vehicle_type_id":"4","last_reported":1686499654,"current_range_meters":31200,"station_id":"ce4bhk92rcd13ifvqgb0","pricing_plan_id":"free"},{"bike_id":"2a43f8b8-a4e5-4f30-ae08-878947fa7e87","system_id":"levelo_inurba_marseille","lat":43.258658,"lon":5.398935,"is_reserved":false,"is_disabled":false,"rental_uris":{"android":"levelo://app?vid=2a43f8b8-a4e5-4f30-ae08-878947fa7e87","ios":"levelo://app?vid=2a43f8b8-a4e5-4f30-ae08-878947fa7e87"},"vehicle_type_id":"4","last_reported":1686499654,"current_range_meters":31200,"station_id":"ce4bhl92rcd13ifvqghg","pricing_plan_id":"free"},{"bike_id":"56f65b66-14f1-4d56-9b61-c101d7a706dc","system_id":"levelo_inurba_marseille","lat":43.258658,"lon":5.398935,"is_reserved":false,"is_disabled":false,"rental_uris":{"android":"levelo://app?vid=56f65b66-14f1-4d56-9b61-c101d7a706dc","ios":"levelo://app?vid=56f65b66-14f1-4d56-9b61-c101d7a706dc"},"vehicle_type_id":"4","last_reported":1686499654,"current_range_meters":26400,"station_id":"ce4bhl92rcd13ifvqghg","pricing_plan_id":"free"},{"bike_id":"feb77519-92bc-43a4-b4d2-08903179f1f4","system_id":"levelo_inurba_marseille","lat":43.25864,"lon":5.39928,"is_reserved":false,"is_disabled":false,"rental_uris":{"android":"levelo://app?vid=feb77519-92bc-43a4-b4d2-08903179f1f4","ios":"levelo://app?vid=feb77519-92bc-43a4-b4d2-08903179f1f4"},"vehicle_type_id":"4","last_reported":1686499654,"current_range_meters":31200,"station_id":"ce4bhl92rcd13ifvqghg","pricing_plan_id":"free"},{"bike_id":"e7fb3dbe-d307-4c77-9632-b7dd275c7b6b","system_id":"levelo_inurba_marseille","lat":43.25961,"lon":5.40874,"is_reserved":false,"is_disabled":false,"rental_uris":{"android":"levelo://app?vid=e7fb3dbe-d307-4c77-9632-b7dd275c7b6b","ios":"levelo://app?vid=e7fb3dbe-d307-4c77-9632-b7dd275c7b6b"},"vehicle_type_id":"4","last_reported":1686499654,"current_range_meters":6800,"station_id":"","pricing_plan_id":"free"},{"bike_id":"b9cedf8b-1956-4d29-ba11-89190d59ac55","system_id":"levelo_inurba_marseille","lat":43.25938,"lon":5.40908,"is_reserved":false,"is_disabled":false,"rental_uris":{"android":"levelo://app?vid=b9cedf8b-1956-4d29-ba11-89190d59ac55","ios":"levelo://app?vid=b9cedf8b-1956-4d29-ba11-89190d59ac55"},"vehicle_type_id":"4","last_reported":1686499654,"current_range_meters":4400,"station_id":"","pricing_plan_id":"free"},{"bike_id":"694766fa-8191-48dd-ba83-4c991e110a0e","system_id":"levelo_inurba_marseille","lat":43.25936,"lon":5.40913,"is_reserved":false,"is_disabled":false,"rental_uris":{"android":"levelo://app?vid=694766fa-8191-48dd-ba83-4c991e110a0e","ios":"levelo://app?vid=694766fa-8191-48dd-ba83-4c991e110a0e"},"vehicle_type_id":"4","last_reported":1686499654,"current_range_meters":12400,"station_id":"","pricing_plan_id":"free"},{"bike_id":"98d967c2-483d-4851-be6b-25a302a55a5b","system_id":"levelo_inurba_marseille","lat":43.25009,"lon":5.38916,"is_reserved":false,"is_disabled":false,"rental_uris":{"android":"levelo://app?vid=98d967c2-483d-4851-be6b-25a302a55a5b","ios":"levelo://app?vid=98d967c2-483d-4851-be6b-25a302a55a5b"},"vehicle_type_id":"4","last_reported":1686499654,"current_range_meters":31200,"station_id":"ce4bhgp2rcd13ifvqfd0","pricing_plan_id":"free"},{"bike_id":"e0ac868b-45c5-4dd9-98dd-9d78d84f55b8","system_id":"levelo_inurba_marseille","lat":43.250069,"lon":5.389153,"is_reserved":false,"is_disabled":false,"rental_uris":{"android":"levelo://app?vid=e0ac868b-45c5-4dd9-98dd-9d78d84f55b8","ios":"levelo://app?vid=e0ac868b-45c5-4dd9-98dd-9d78d84f55b8"},"vehicle_type_id":"4","last_reported":1686499654,"current_range_meters":31200,"station_id":"ce4bhgp2rcd13ifvqfd0","pricing_plan_id":"free"},{"bike_id":"c4cdbfa5-fea3-4962-aa8a-b9b793d69b08","system_id":"levelo_inurba_marseille","lat":43.25005,"lon":5.38913,"is_reserved":false,"is_disabled":false,"rental_uris":{"android":"levelo://app?vid=c4cdbfa5-fea3-4962-aa8a-b9b793d69b08","ios":"levelo://app?vid=c4cdbfa5-fea3-4962-aa8a-b9b793d69b08"},"vehicle_type_id":"4","last_reported":1686499654,"current_range_meters":16800,"station_id":"ce4bhgp2rcd13ifvqfd0","pricing_plan_id":"free"},{"bike_id":"3acddaeb-01ef-47d1-a75b-564f8db039e5","system_id":"levelo_inurba_marseille","lat":43.24812,"lon":5.3746,"is_reserved":false,"is_disabled":false,"rental_uris":{"android":"levelo://app?vid=3acddaeb-01ef-47d1-a75b-564f8db039e5","ios":"levelo://app?vid=3acddaeb-01ef-47d1-a75b-564f8db039e5"},"vehicle_type_id":"4","last_reported":1686499654,"current_range_meters":0,"station_id":"","pricing_plan_id":"free"},{"bike_id":"099baf80-74d7-49e6-aea5-b7028fc9e19e","system_id":"levelo_inurba_marseille","lat":43.250966,"lon":5.395186,"is_reserved":false,"is_disabled":false,"rental_uris":{"android":"levelo://app?vid=099baf80-74d7-49e6-aea5-b7028fc9e19e","ios":"levelo://app?vid=099baf80-74d7-49e6-aea5-b7028fc9e19e"},"vehicle_type_id":"4","last_reported":1686499654,"current_range_meters":800,"station_id":"ce4bhm12rcd13ifvqgkg","pricing_plan_id":"free"},{"bike_id":"db689da6-d0eb-4e14-82c1-7991ea624c64","system_id":"levelo_inurba_marseille","lat":43.249271,"lon":5.390312,"is_reserved":false,"is_disabled":false,"rental_uris":{"android":"levelo://app?vid=db689da6-d0eb-4e14-82c1-7991ea624c64","ios":"levelo://app?vid=db689da6-d0eb-4e14-82c1-7991ea624c64"},"vehicle_type_id":"4","last_reported":1686499654,"current_range_meters":31200,"station_id":"","pricing_plan_id":"free"},{"bike_id":"b1241c99-7bd9-4366-8774-a9b710a7d2ef","system_id":"levelo_inurba_marseille","lat":43.24693,"lon":5.382096,"is_reserved":false,"is_disabled":false,"rental_uris":{"android":"levelo://app?vid=b1241c99-7bd9-4366-8774-a9b710a7d2ef","ios":"levelo://app?vid=b1241c99-7bd9-4366-8774-a9b710a7d2ef"},"vehicle_type_id":"4","last_reported":1686499654,"current_range_meters":12800,"station_id":"ce4bhih2rcd13ifvqfr0","pricing_plan_id":"free"},{"bike_id":"39d09a88-75a8-433e-8f52-0ea9f4c907d9","system_id":"levelo_inurba_marseille","lat":43.25122,"lon":5.40318,"is_reserved":false,"is_disabled":false,"rental_uris":{"android":"levelo://app?vid=39d09a88-75a8-433e-8f52-0ea9f4c907d9","ios":"levelo://app?vid=39d09a88-75a8-433e-8f52-0ea9f4c907d9"},"vehicle_type_id":"4","last_reported":1686499654,"current_range_meters":10800,"station_id":"ce4bhlh2rcd13ifvqgig","pricing_plan_id":"free"},{"bike_id":"85568c56-0a28-4f3b-9f94-832810e3f402","system_id":"levelo_inurba_marseille","lat":43.24693,"lon":5.382096,"is_reserved":false,"is_disabled":false,"rental_uris":{"android":"levelo://app?vid=85568c56-0a28-4f3b-9f94-832810e3f402","ios":"levelo://app?vid=85568c56-0a28-4f3b-9f94-832810e3f402"},"vehicle_type_id":"4","last_reported":1686499654,"current_range_meters":22800,"station_id":"ce4bhih2rcd13ifvqfr0","pricing_plan_id":"free"},{"bike_id":"29a83b08-b4dd-4f29-b086-49ead4ff527f","system_id":"levelo_inurba_marseille","lat":43.25102,"lon":5.403214,"is_reserved":false,"is_disabled":false,"rental_uris":{"android":"levelo://app?vid=29a83b08-b4dd-4f29-b086-49ead4ff527f","ios":"levelo://app?vid=29a83b08-b4dd-4f29-b086-49ead4ff527f"},"vehicle_type_id":"4","last_reported":1686499654,"current_range_meters":5600,"station_id":"ce4bhlh2rcd13ifvqgig","pricing_plan_id":"free"},{"bike_id":"bb45bd34-e506-4995-8c92-c51cbc9740d4","system_id":"levelo_inurba_marseille","lat":43.246467,"lon":5.388984,"is_reserved":false,"is_disabled":false,"rental_uris":{"android":"levelo://app?vid=bb45bd34-e506-4995-8c92-c51cbc9740d4","ios":"levelo://app?vid=bb45bd34-e506-4995-8c92-c51cbc9740d4"},"vehicle_type_id":"4","last_reported":1686499654,"current_range_meters":27600,"station_id":"ce4bhg12rcd13ifvqf60","pricing_plan_id":"free"},{"bike_id":"c7a0c5ab-7067-4682-b693-b263bb472123","system_id":"levelo_inurba_marseille","lat":43.243884,"lon":5.370737,"is_reserved":false,"is_disabled":false,"rental_uris":{"android":"levelo://app?vid=c7a0c5ab-7067-4682-b693-b263bb472123","ios":"levelo://app?vid=c7a0c5ab-7067-4682-b693-b263bb472123"},"vehicle_type_id":"4","last_reported":1686499654,"current_range_meters":1600,"station_id":"ce4bhhh2rcd13ifvqfk0","pricing_plan_id":"free"},{"bike_id":"92a867ea-f2fd-4957-92a0-2b12884af199","system_id":"levelo_inurba_marseille","lat":43.243884,"lon":5.370736,"is_reserved":false,"is_disabled":false,"rental_uris":{"android":"levelo://app?vid=92a867ea-f2fd-4957-92a0-2b12884af199","ios":"levelo://app?vid=92a867ea-f2fd-4957-92a0-2b12884af199"},"vehicle_type_id":"4","last_reported":1686499654,"current_range_meters":27200,"station_id":"ce4bhhh2rcd13ifvqfk0","pricing_plan_id":"free"},{"bike_id":"f558ea25-6b73-4fe4-bd4b-a52e2017bd40","system_id":"levelo_inurba_marseille","lat":43.245581,"lon":5.395069,"is_reserved":false,"is_disabled":false,"rental_uris":{"android":"levelo://app?vid=f558ea25-6b73-4fe4-bd4b-a52e2017bd40","ios":"levelo://app?vid=f558ea25-6b73-4fe4-bd4b-a52e2017bd40"},"vehicle_type_id":"4","last_reported":1686499654,"current_range_meters":22800,"station_id":"ce4bhlp2rcd13ifvqgjg","pricing_plan_id":"free"},{"bike_id":"bc606c44-d26d-4f36-9603-35d7a2203e7a","system_id":"levelo_inurba_marseille","lat":43.28891,"lon":5.45952,"is_reserved":false,"is_disabled":false,"rental_uris":{"android":"levelo://app?vid=bc606c44-d26d-4f36-9603-35d7a2203e7a","ios":"levelo://app?vid=bc606c44-d26d-4f36-9603-35d7a2203e7a"},"vehicle_type_id":"4","last_reported":1686499654,"current_range_meters":29200,"station_id":"","pricing_plan_id":"free"},{"bike_id":"7e26e302-739d-4478-b9b3-b0a4644ddfd7","system_id":"levelo_inurba_marseille","lat":43.239588,"lon":5.366238,"is_reserved":false,"is_disabled":false,"rental_uris":{"android":"levelo://app?vid=7e26e302-739d-4478-b9b3-b0a4644ddfd7","ios":"levelo://app?vid=7e26e302-739d-4478-b9b3-b0a4644ddfd7"},"vehicle_type_id":"4","last_reported":1686499654,"current_range_meters":6800,"station_id":"ce4bhi12rcd13ifvqfp0","pricing_plan_id":"free"},{"bike_id":"00b39bc3-ffca-428a-b591-38b843d6ca5f","system_id":"levelo_inurba_marseille","lat":43.239588,"lon":5.366238,"is_reserved":false,"is_disabled":false,"rental_uris":{"android":"levelo://app?vid=00b39bc3-ffca-428a-b591-38b843d6ca5f","ios":"levelo://app?vid=00b39bc3-ffca-428a-b591-38b843d6ca5f"},"vehicle_type_id":"4","last_reported":1686499654,"current_range_meters":0,"station_id":"ce4bhi12rcd13ifvqfp0","pricing_plan_id":"free"},{"bike_id":"74623e1a-3db2-4000-a18b-47a7b57e5978","system_id":"levelo_inurba_marseille","lat":43.241782,"lon":5.397261,"is_reserved":false,"is_disabled":false,"rental_uris":{"android":"levelo://app?vid=74623e1a-3db2-4000-a18b-47a7b57e5978","ios":"levelo://app?vid=74623e1a-3db2-4000-a18b-47a7b57e5978"},"vehicle_type_id":"4","last_reported":1686499654,"current_range_meters":12000,"station_id":"ce4bhn12rcd13ifvqgpg","pricing_plan_id":"free"},{"bike_id":"d45c8977-a8b5-463e-a13b-fd45f020be6d","system_id":"levelo_inurba_marseille","lat":43.241782,"lon":5.397261,"is_reserved":false,"is_disabled":false,"rental_uris":{"android":"levelo://app?vid=d45c8977-a8b5-463e-a13b-fd45f020be6d","ios":"levelo://app?vid=d45c8977-a8b5-463e-a13b-fd45f020be6d"},"vehicle_type_id":"4","last_reported":1686499654,"current_range_meters":24400,"station_id":"ce4bhn12rcd13ifvqgpg","pricing_plan_id":"free"},{"bike_id":"bcc5264f-8ccb-481a-a1fb-d58de826a844","system_id":"levelo_inurba_marseille","lat":43.241782,"lon":5.397261,"is_reserved":false,"is_disabled":false,"rental_uris":{"android":"levelo://app?vid=bcc5264f-8ccb-481a-a1fb-d58de826a844","ios":"levelo://app?vid=bcc5264f-8ccb-481a-a1fb-d58de826a844"},"vehicle_type_id":"4","last_reported":1686499654,"current_range_meters":31200,"station_id":"ce4bhn12rcd13ifvqgpg","pricing_plan_id":"free"},{"bike_id":"e71bb5ff-e5ac-44c3-88d5-0ef4355c2094","system_id":"levelo_inurba_marseille","lat":43.241782,"lon":5.397261,"is_reserved":false,"is_disabled":false,"rental_uris":{"android":"levelo://app?vid=e71bb5ff-e5ac-44c3-88d5-0ef4355c2094","ios":"levelo://app?vid=e71bb5ff-e5ac-44c3-88d5-0ef4355c2094"},"vehicle_type_id":"4","last_reported":1686499654,"current_range_meters":31200,"station_id":"ce4bhn12rcd13ifvqgpg","pricing_plan_id":"free"},{"bike_id":"28c5bd78-da24-4556-892a-8edc7ac28867","system_id":"levelo_inurba_marseille","lat":43.241782,"lon":5.397261,"is_reserved":false,"is_disabled":false,"rental_uris":{"android":"levelo://app?vid=28c5bd78-da24-4556-892a-8edc7ac28867","ios":"levelo://app?vid=28c5bd78-da24-4556-892a-8edc7ac28867"},"vehicle_type_id":"4","last_reported":1686499654,"current_range_meters":31200,"station_id":"ce4bhn12rcd13ifvqgpg","pricing_plan_id":"free"},{"bike_id":"3c0d63a1-bf77-4a3b-9def-ae8da33f563f","system_id":"levelo_inurba_marseille","lat":43.23853,"lon":5.3897,"is_reserved":false,"is_disabled":false,"rental_uris":{"android":"levelo://app?vid=3c0d63a1-bf77-4a3b-9def-ae8da33f563f","ios":"levelo://app?vid=3c0d63a1-bf77-4a3b-9def-ae8da33f563f"},"vehicle_type_id":"4","last_reported":1686499654,"current_range_meters":0,"station_id":"","pricing_plan_id":"free"},{"bike_id":"5cea9f86-71f5-474d-abde-e49769fb9031","system_id":"levelo_inurba_marseille","lat":43.23206,"lon":5.35551,"is_reserved":false,"is_disabled":false,"rental_uris":{"android":"levelo://app?vid=5cea9f86-71f5-474d-abde-e49769fb9031","ios":"levelo://app?vid=5cea9f86-71f5-474d-abde-e49769fb9031"},"vehicle_type_id":"4","last_reported":1686499654,"current_range_meters":12400,"station_id":"ce4bhu92rcd13ifvqi70","pricing_plan_id":"free"},{"bike_id":"dde0416b-f486-42b2-ac17-3b443e2af454","system_id":"levelo_inurba_marseille","lat":43.23205,"lon":5.3555,"is_reserved":false,"is_disabled":false,"rental_uris":{"android":"levelo://app?vid=dde0416b-f486-42b2-ac17-3b443e2af454","ios":"levelo://app?vid=dde0416b-f486-42b2-ac17-3b443e2af454"},"vehicle_type_id":"4","last_reported":1686499654,"current_range_meters":9600,"station_id":"ce4bhu92rcd13ifvqi70","pricing_plan_id":"free"},{"bike_id":"fd461ece-557d-4548-8b91-df50aa3975ef","system_id":"levelo_inurba_marseille","lat":43.23203,"lon":5.35543,"is_reserved":false,"is_disabled":false,"rental_uris":{"android":"levelo://app?vid=fd461ece-557d-4548-8b91-df50aa3975ef","ios":"levelo://app?vid=fd461ece-557d-4548-8b91-df50aa3975ef"},"vehicle_type_id":"4","last_reported":1686499654,"current_range_meters":4000,"station_id":"ce4bhu92rcd13ifvqi70","pricing_plan_id":"free"},{"bike_id":"279258d3-47b4-44f2-b399-75258e740fcc","system_id":"levelo_inurba_marseille","lat":43.23201,"lon":5.35551,"is_reserved":false,"is_disabled":false,"rental_uris":{"android":"levelo://app?vid=279258d3-47b4-44f2-b399-75258e740fcc","ios":"levelo://app?vid=279258d3-47b4-44f2-b399-75258e740fcc"},"vehicle_type_id":"4","last_reported":1686499654,"current_range_meters":5600,"station_id":"ce4bhu92rcd13ifvqi70","pricing_plan_id":"free"},{"bike_id":"cc381778-dea5-4908-87ca-22427ede5425","system_id":"levelo_inurba_marseille","lat":43.231919,"lon":5.355532,"is_reserved":false,"is_disabled":false,"rental_uris":{"android":"levelo://app?vid=cc381778-dea5-4908-87ca-22427ede5425","ios":"levelo://app?vid=cc381778-dea5-4908-87ca-22427ede5425"},"vehicle_type_id":"4","last_reported":1686499654,"current_range_meters":18800,"station_id":"ce4bhu92rcd13ifvqi70","pricing_plan_id":"free"},{"bike_id":"7be2b2e9-2059-42fe-bd97-a8fd46d4a03e","system_id":"levelo_inurba_marseille","lat":43.232,"lon":5.35546,"is_reserved":false,"is_disabled":false,"rental_uris":{"android":"levelo://app?vid=7be2b2e9-2059-42fe-bd97-a8fd46d4a03e","ios":"levelo://app?vid=7be2b2e9-2059-42fe-bd97-a8fd46d4a03e"},"vehicle_type_id":"4","last_reported":1686499654,"current_range_meters":5600,"station_id":"ce4bhu92rcd13ifvqi70","pricing_plan_id":"free"},{"bike_id":"e6d5e3cb-8bc5-4292-a23d-f1a7327c7c01","system_id":"levelo_inurba_marseille","lat":43.23199,"lon":5.35553,"is_reserved":false,"is_disabled":false,"rental_uris":{"android":"levelo://app?vid=e6d5e3cb-8bc5-4292-a23d-f1a7327c7c01","ios":"levelo://app?vid=e6d5e3cb-8bc5-4292-a23d-f1a7327c7c01"},"vehicle_type_id":"4","last_reported":1686499654,"current_range_meters":5200,"station_id":"ce4bhu92rcd13ifvqi70","pricing_plan_id":"free"},{"bike_id":"a3b1fd61-1571-411c-b388-e72fbe7f6fbe","system_id":"levelo_inurba_marseille","lat":43.231919,"lon":5.355532,"is_reserved":false,"is_disabled":false,"rental_uris":{"android":"levelo://app?vid=a3b1fd61-1571-411c-b388-e72fbe7f6fbe","ios":"levelo://app?vid=a3b1fd61-1571-411c-b388-e72fbe7f6fbe"},"vehicle_type_id":"4","last_reported":1686499654,"current_range_meters":31200,"station_id":"ce4bhu92rcd13ifvqi70","pricing_plan_id":"free"},{"bike_id":"b5ac985e-e4c4-4cc5-af60-ef6b5b29a7a2","system_id":"levelo_inurba_marseille","lat":43.231982,"lon":5.355543,"is_reserved":false,"is_disabled":false,"rental_uris":{"android":"levelo://app?vid=b5ac985e-e4c4-4cc5-af60-ef6b5b29a7a2","ios":"levelo://app?vid=b5ac985e-e4c4-4cc5-af60-ef6b5b29a7a2"},"vehicle_type_id":"4","last_reported":1686499654,"current_range_meters":800,"station_id":"ce4bhu92rcd13ifvqi70","pricing_plan_id":"free"},{"bike_id":"100c3137-cbc1-4a01-bfcc-e8cde257bd40","system_id":"levelo_inurba_marseille","lat":43.23197,"lon":5.35568,"is_reserved":false,"is_disabled":false,"rental_uris":{"android":"levelo://app?vid=100c3137-cbc1-4a01-bfcc-e8cde257bd40","ios":"levelo://app?vid=100c3137-cbc1-4a01-bfcc-e8cde257bd40"},"vehicle_type_id":"4","last_reported":1686499654,"current_range_meters":31200,"station_id":"ce4bhu92rcd13ifvqi70","pricing_plan_id":"free"},{"bike_id":"267df167-e36f-4295-8715-fc1ce2366e9f","system_id":"levelo_inurba_marseille","lat":43.23198,"lon":5.35554,"is_reserved":false,"is_disabled":false,"rental_uris":{"android":"levelo://app?vid=267df167-e36f-4295-8715-fc1ce2366e9f","ios":"levelo://app?vid=267df167-e36f-4295-8715-fc1ce2366e9f"},"vehicle_type_id":"4","last_reported":1686499654,"current_range_meters":30800,"station_id":"ce4bhu92rcd13ifvqi70","pricing_plan_id":"free"},{"bike_id":"c3dfd794-2204-40d6-b432-1db5bf37b0f7","system_id":"levelo_inurba_marseille","lat":43.231919,"lon":5.355532,"is_reserved":false,"is_disabled":false,"rental_uris":{"android":"levelo://app?vid=c3dfd794-2204-40d6-b432-1db5bf37b0f7","ios":"levelo://app?vid=c3dfd794-2204-40d6-b432-1db5bf37b0f7"},"vehicle_type_id":"4","last_reported":1686499654,"current_range_meters":11200,"station_id":"ce4bhu92rcd13ifvqi70","pricing_plan_id":"free"},{"bike_id":"6ef1dd50-e70a-4c4c-b07e-2b5359c67658","system_id":"levelo_inurba_marseille","lat":43.23197,"lon":5.35559,"is_reserved":false,"is_disabled":false,"rental_uris":{"android":"levelo://app?vid=6ef1dd50-e70a-4c4c-b07e-2b5359c67658","ios":"levelo://app?vid=6ef1dd50-e70a-4c4c-b07e-2b5359c67658"},"vehicle_type_id":"4","last_reported":1686499654,"current_range_meters":13600,"station_id":"ce4bhu92rcd13ifvqi70","pricing_plan_id":"free"},{"bike_id":"54959658-25d6-4f4b-a65c-031bed67b020","system_id":"levelo_inurba_marseille","lat":43.23197,"lon":5.35552,"is_reserved":false,"is_disabled":false,"rental_uris":{"android":"levelo://app?vid=54959658-25d6-4f4b-a65c-031bed67b020","ios":"levelo://app?vid=54959658-25d6-4f4b-a65c-031bed67b020"},"vehicle_type_id":"4","last_reported":1686499654,"current_range_meters":20800,"station_id":"ce4bhu92rcd13ifvqi70","pricing_plan_id":"free"},{"bike_id":"fbf751b4-ceb0-4c98-869c-d272bf4c2551","system_id":"levelo_inurba_marseille","lat":43.231919,"lon":5.355532,"is_reserved":false,"is_disabled":false,"rental_uris":{"android":"levelo://app?vid=fbf751b4-ceb0-4c98-869c-d272bf4c2551","ios":"levelo://app?vid=fbf751b4-ceb0-4c98-869c-d272bf4c2551"},"vehicle_type_id":"4","last_reported":1686499654,"current_range_meters":29200,"station_id":"ce4bhu92rcd13ifvqi70","pricing_plan_id":"free"},{"bike_id":"2333bb78-78be-4391-bf23-67f1cecfe740","system_id":"levelo_inurba_marseille","lat":43.23196,"lon":5.35563,"is_reserved":false,"is_disabled":false,"rental_uris":{"android":"levelo://app?vid=2333bb78-78be-4391-bf23-67f1cecfe740","ios":"levelo://app?vid=2333bb78-78be-4391-bf23-67f1cecfe740"},"vehicle_type_id":"4","last_reported":1686499654,"current_range_meters":20800,"station_id":"ce4bhu92rcd13ifvqi70","pricing_plan_id":"free"},{"bike_id":"4c22d342-8da5-42d6-a820-e3ab8c6b3f35","system_id":"levelo_inurba_marseille","lat":43.23196,"lon":5.35559,"is_reserved":false,"is_disabled":false,"rental_uris":{"android":"levelo://app?vid=4c22d342-8da5-42d6-a820-e3ab8c6b3f35","ios":"levelo://app?vid=4c22d342-8da5-42d6-a820-e3ab8c6b3f35"},"vehicle_type_id":"4","last_reported":1686499654,"current_range_meters":31200,"station_id":"ce4bhu92rcd13ifvqi70","pricing_plan_id":"free"},{"bike_id":"08e2f671-1b1f-4ff1-9a72-65e0539e17de","system_id":"levelo_inurba_marseille","lat":43.23196,"lon":5.35556,"is_reserved":false,"is_disabled":false,"rental_uris":{"android":"levelo://app?vid=08e2f671-1b1f-4ff1-9a72-65e0539e17de","ios":"levelo://app?vid=08e2f671-1b1f-4ff1-9a72-65e0539e17de"},"vehicle_type_id":"4","last_reported":1686499654,"current_range_meters":18400,"station_id":"ce4bhu92rcd13ifvqi70","pricing_plan_id":"free"},{"bike_id":"2b99d44a-c059-4d89-882f-4ad49a88b630","system_id":"levelo_inurba_marseille","lat":43.231919,"lon":5.355532,"is_reserved":false,"is_disabled":false,"rental_uris":{"android":"levelo://app?vid=2b99d44a-c059-4d89-882f-4ad49a88b630","ios":"levelo://app?vid=2b99d44a-c059-4d89-882f-4ad49a88b630"},"vehicle_type_id":"4","last_reported":1686499654,"current_range_meters":18800,"station_id":"ce4bhu92rcd13ifvqi70","pricing_plan_id":"free"},{"bike_id":"d78fc0a0-7d15-4d7a-bf2a-eaa0de0331ba","system_id":"levelo_inurba_marseille","lat":43.23196,"lon":5.3555,"is_reserved":false,"is_disabled":false,"rental_uris":{"android":"levelo://app?vid=d78fc0a0-7d15-4d7a-bf2a-eaa0de0331ba","ios":"levelo://app?vid=d78fc0a0-7d15-4d7a-bf2a-eaa0de0331ba"},"vehicle_type_id":"4","last_reported":1686499654,"current_range_meters":28800,"station_id":"ce4bhu92rcd13ifvqi70","pricing_plan_id":"free"},{"bike_id":"fc77bb9d-dd6b-43ec-b2c1-a446e2d2d7ed","system_id":"levelo_inurba_marseille","lat":43.23195,"lon":5.3556,"is_reserved":false,"is_disabled":false,"rental_uris":{"android":"levelo://app?vid=fc77bb9d-dd6b-43ec-b2c1-a446e2d2d7ed","ios":"levelo://app?vid=fc77bb9d-dd6b-43ec-b2c1-a446e2d2d7ed"},"vehicle_type_id":"4","last_reported":1686499654,"current_range_meters":18000,"station_id":"ce4bhu92rcd13ifvqi70","pricing_plan_id":"free"},{"bike_id":"2b70d0dc-9fe4-4e01-817b-210ad2ba2a30","system_id":"levelo_inurba_marseille","lat":43.23195,"lon":5.35557,"is_reserved":false,"is_disabled":false,"rental_uris":{"android":"levelo://app?vid=2b70d0dc-9fe4-4e01-817b-210ad2ba2a30","ios":"levelo://app?vid=2b70d0dc-9fe4-4e01-817b-210ad2ba2a30"},"vehicle_type_id":"4","last_reported":1686499654,"current_range_meters":17600,"station_id":"ce4bhu92rcd13ifvqi70","pricing_plan_id":"free"},{"bike_id":"7d773e7c-1f29-483c-ac18-c45e48a65b96","system_id":"levelo_inurba_marseille","lat":43.23195,"lon":5.35557,"is_reserved":false,"is_disabled":false,"rental_uris":{"android":"levelo://app?vid=7d773e7c-1f29-483c-ac18-c45e48a65b96","ios":"levelo://app?vid=7d773e7c-1f29-483c-ac18-c45e48a65b96"},"vehicle_type_id":"4","last_reported":1686499654,"current_range_meters":0,"station_id":"ce4bhu92rcd13ifvqi70","pricing_plan_id":"free"},{"bike_id":"cd6c71cd-22ca-4476-943c-f4a89c940760","system_id":"levelo_inurba_marseille","lat":43.23195,"lon":5.35552,"is_reserved":false,"is_disabled":false,"rental_uris":{"android":"levelo://app?vid=cd6c71cd-22ca-4476-943c-f4a89c940760","ios":"levelo://app?vid=cd6c71cd-22ca-4476-943c-f4a89c940760"},"vehicle_type_id":"4","last_reported":1686499654,"current_range_meters":800,"station_id":"ce4bhu92rcd13ifvqi70","pricing_plan_id":"free"},{"bike_id":"8558f2a7-46b2-470d-b739-eb642cdb193d","system_id":"levelo_inurba_marseille","lat":43.23195,"lon":5.35551,"is_reserved":false,"is_disabled":false,"rental_uris":{"android":"levelo://app?vid=8558f2a7-46b2-470d-b739-eb642cdb193d","ios":"levelo://app?vid=8558f2a7-46b2-470d-b739-eb642cdb193d"},"vehicle_type_id":"4","last_reported":1686499654,"current_range_meters":29600,"station_id":"ce4bhu92rcd13ifvqi70","pricing_plan_id":"free"},{"bike_id":"d2a43737-3f69-45cb-8209-cf3330f92627","system_id":"levelo_inurba_marseille","lat":43.23194,"lon":5.35562,"is_reserved":false,"is_disabled":false,"rental_uris":{"android":"levelo://app?vid=d2a43737-3f69-45cb-8209-cf3330f92627","ios":"levelo://app?vid=d2a43737-3f69-45cb-8209-cf3330f92627"},"vehicle_type_id":"4","last_reported":1686499654,"current_range_meters":29200,"station_id":"ce4bhu92rcd13ifvqi70","pricing_plan_id":"free"},{"bike_id":"b028e00d-c3a3-4682-9240-25553554a2ce","system_id":"levelo_inurba_marseille","lat":43.23195,"lon":5.35548,"is_reserved":false,"is_disabled":false,"rental_uris":{"android":"levelo://app?vid=b028e00d-c3a3-4682-9240-25553554a2ce","ios":"levelo://app?vid=b028e00d-c3a3-4682-9240-25553554a2ce"},"vehicle_type_id":"4","last_reported":1686499654,"current_range_meters":29600,"station_id":"ce4bhu92rcd13ifvqi70","pricing_plan_id":"free"},{"bike_id":"f28e50b7-b345-4f33-9fb2-ac05f04d2777","system_id":"levelo_inurba_marseille","lat":43.23195,"lon":5.35548,"is_reserved":false,"is_disabled":false,"rental_uris":{"android":"levelo://app?vid=f28e50b7-b345-4f33-9fb2-ac05f04d2777","ios":"levelo://app?vid=f28e50b7-b345-4f33-9fb2-ac05f04d2777"},"vehicle_type_id":"4","last_reported":1686499654,"current_range_meters":6000,"station_id":"ce4bhu92rcd13ifvqi70","pricing_plan_id":"free"},{"bike_id":"1fb7bdc5-0925-46a0-8331-661129b9e02d","system_id":"levelo_inurba_marseille","lat":43.23195,"lon":5.35545,"is_reserved":false,"is_disabled":false,"rental_uris":{"android":"levelo://app?vid=1fb7bdc5-0925-46a0-8331-661129b9e02d","ios":"levelo://app?vid=1fb7bdc5-0925-46a0-8331-661129b9e02d"},"vehicle_type_id":"4","last_reported":1686499654,"current_range_meters":30400,"station_id":"ce4bhu92rcd13ifvqi70","pricing_plan_id":"free"},{"bike_id":"29f09821-7f3e-4fad-ab59-c47fc4d7337f","system_id":"levelo_inurba_marseille","lat":43.23193,"lon":5.35555,"is_reserved":false,"is_disabled":false,"rental_uris":{"android":"levelo://app?vid=29f09821-7f3e-4fad-ab59-c47fc4d7337f","ios":"levelo://app?vid=29f09821-7f3e-4fad-ab59-c47fc4d7337f"},"vehicle_type_id":"4","last_reported":1686499654,"current_range_meters":14800,"station_id":"ce4bhu92rcd13ifvqi70","pricing_plan_id":"free"},{"bike_id":"d444c686-9026-4af4-9cc9-39bd62c49464","system_id":"levelo_inurba_marseille","lat":43.23193,"lon":5.35552,"is_reserved":false,"is_disabled":false,"rental_uris":{"android":"levelo://app?vid=d444c686-9026-4af4-9cc9-39bd62c49464","ios":"levelo://app?vid=d444c686-9026-4af4-9cc9-39bd62c49464"},"vehicle_type_id":"4","last_reported":1686499654,"current_range_meters":28800,"station_id":"ce4bhu92rcd13ifvqi70","pricing_plan_id":"free"},{"bike_id":"7febacdf-871b-42e7-b9eb-7baf8d764f89","system_id":"levelo_inurba_marseille","lat":43.23193,"lon":5.35551,"is_reserved":false,"is_disabled":false,"rental_uris":{"android":"levelo://app?vid=7febacdf-871b-42e7-b9eb-7baf8d764f89","ios":"levelo://app?vid=7febacdf-871b-42e7-b9eb-7baf8d764f89"},"vehicle_type_id":"4","last_reported":1686499654,"current_range_meters":27600,"station_id":"ce4bhu92rcd13ifvqi70","pricing_plan_id":"free"},{"bike_id":"b21af463-fe12-4b80-aba1-b23b17540203","system_id":"levelo_inurba_marseille","lat":43.23192,"lon":5.35554,"is_reserved":false,"is_disabled":false,"rental_uris":{"android":"levelo://app?vid=b21af463-fe12-4b80-aba1-b23b17540203","ios":"levelo://app?vid=b21af463-fe12-4b80-aba1-b23b17540203"},"vehicle_type_id":"4","last_reported":1686499654,"current_range_meters":28000,"station_id":"ce4bhu92rcd13ifvqi70","pricing_plan_id":"free"},{"bike_id":"f38408c6-bf5e-45a5-95fc-3c3dbc0e0a7a","system_id":"levelo_inurba_marseille","lat":43.23191,"lon":5.35563,"is_reserved":false,"is_disabled":false,"rental_uris":{"android":"levelo://app?vid=f38408c6-bf5e-45a5-95fc-3c3dbc0e0a7a","ios":"levelo://app?vid=f38408c6-bf5e-45a5-95fc-3c3dbc0e0a7a"},"vehicle_type_id":"4","last_reported":1686499654,"current_range_meters":15600,"station_id":"ce4bhu92rcd13ifvqi70","pricing_plan_id":"free"},{"bike_id":"1e9f3293-4af6-45ea-96ac-e8842d02f800","system_id":"levelo_inurba_marseille","lat":43.23192,"lon":5.35547,"is_reserved":false,"is_disabled":false,"rental_uris":{"android":"levelo://app?vid=1e9f3293-4af6-45ea-96ac-e8842d02f800","ios":"levelo://app?vid=1e9f3293-4af6-45ea-96ac-e8842d02f800"},"vehicle_type_id":"4","last_reported":1686499654,"current_range_meters":16000,"station_id":"ce4bhu92rcd13ifvqi70","pricing_plan_id":"free"},{"bike_id":"fe00cb9e-87cf-45d3-9e87-7fd9ae5189a5","system_id":"levelo_inurba_marseille","lat":43.23191,"lon":5.35555,"is_reserved":false,"is_disabled":false,"rental_uris":{"android":"levelo://app?vid=fe00cb9e-87cf-45d3-9e87-7fd9ae5189a5","ios":"levelo://app?vid=fe00cb9e-87cf-45d3-9e87-7fd9ae5189a5"},"vehicle_type_id":"4","last_reported":1686499654,"current_range_meters":800,"station_id":"ce4bhu92rcd13ifvqi70","pricing_plan_id":"free"},{"bike_id":"34ed6d9f-eee4-4ba9-b834-305b1f49116e","system_id":"levelo_inurba_marseille","lat":43.23191,"lon":5.35548,"is_reserved":false,"is_disabled":false,"rental_uris":{"android":"levelo://app?vid=34ed6d9f-eee4-4ba9-b834-305b1f49116e","ios":"levelo://app?vid=34ed6d9f-eee4-4ba9-b834-305b1f49116e"},"vehicle_type_id":"4","last_reported":1686499654,"current_range_meters":31200,"station_id":"ce4bhu92rcd13ifvqi70","pricing_plan_id":"free"},{"bike_id":"71328c9f-50bf-495f-b780-5936f50ce102","system_id":"levelo_inurba_marseille","lat":43.2319,"lon":5.35554,"is_reserved":false,"is_disabled":false,"rental_uris":{"android":"levelo://app?vid=71328c9f-50bf-495f-b780-5936f50ce102","ios":"levelo://app?vid=71328c9f-50bf-495f-b780-5936f50ce102"},"vehicle_type_id":"4","last_reported":1686499654,"current_range_meters":14400,"station_id":"ce4bhu92rcd13ifvqi70","pricing_plan_id":"free"},{"bike_id":"f4055306-ed12-4770-965b-c3500487729e","system_id":"levelo_inurba_marseille","lat":43.23188,"lon":5.35563,"is_reserved":false,"is_disabled":false,"rental_uris":{"android":"levelo://app?vid=f4055306-ed12-4770-965b-c3500487729e","ios":"levelo://app?vid=f4055306-ed12-4770-965b-c3500487729e"},"vehicle_type_id":"4","last_reported":1686499654,"current_range_meters":27600,"station_id":"ce4bhu92rcd13ifvqi70","pricing_plan_id":"free"},{"bike_id":"d8859fd0-5902-4caa-bc16-b2c326076de7","system_id":"levelo_inurba_marseille","lat":43.231794,"lon":5.400052,"is_reserved":false,"is_disabled":false,"rental_uris":{"android":"levelo://app?vid=d8859fd0-5902-4caa-bc16-b2c326076de7","ios":"levelo://app?vid=d8859fd0-5902-4caa-bc16-b2c326076de7"},"vehicle_type_id":"4","last_reported":1686499654,"current_range_meters":23200,"station_id":"ce4bhn12rcd13ifvqgqg","pricing_plan_id":"free"},{"bike_id":"1ce58876-342d-4bde-aa37-6972fcc5fac5","system_id":"levelo_inurba_marseille","lat":43.231793,"lon":5.400044,"is_reserved":false,"is_disabled":false,"rental_uris":{"android":"levelo://app?vid=1ce58876-342d-4bde-aa37-6972fcc5fac5","ios":"levelo://app?vid=1ce58876-342d-4bde-aa37-6972fcc5fac5"},"vehicle_type_id":"4","last_reported":1686499654,"current_range_meters":0,"station_id":"ce4bhn12rcd13ifvqgqg","pricing_plan_id":"free"},{"bike_id":"a24965cc-4502-4409-92c1-4d2a0f2fd6ec","system_id":"levelo_inurba_marseille","lat":43.23142,"lon":5.39936,"is_reserved":false,"is_disabled":false,"rental_uris":{"android":"levelo://app?vid=a24965cc-4502-4409-92c1-4d2a0f2fd6ec","ios":"levelo://app?vid=a24965cc-4502-4409-92c1-4d2a0f2fd6ec"},"vehicle_type_id":"4","last_reported":1686499654,"current_range_meters":18000,"station_id":"","pricing_plan_id":"free"},{"bike_id":"44b277e5-1255-4f62-9a10-c2785c123f7f","system_id":"levelo_inurba_marseille","lat":43.231562,"lon":5.436933,"is_reserved":false,"is_disabled":false,"rental_uris":{"android":"levelo://app?vid=44b277e5-1255-4f62-9a10-c2785c123f7f","ios":"levelo://app?vid=44b277e5-1255-4f62-9a10-c2785c123f7f"},"vehicle_type_id":"4","last_reported":1686499654,"current_range_meters":29600,"station_id":"ce4bhmp2rcd13ifvqgog","pricing_plan_id":"free"},{"bike_id":"020b3b3d-8643-4e8e-a3e2-4ca639e5dfd8","system_id":"levelo_inurba_marseille","lat":43.231551,"lon":5.437264,"is_reserved":false,"is_disabled":false,"rental_uris":{"android":"levelo://app?vid=020b3b3d-8643-4e8e-a3e2-4ca639e5dfd8","ios":"levelo://app?vid=020b3b3d-8643-4e8e-a3e2-4ca639e5dfd8"},"vehicle_type_id":"4","last_reported":1686499654,"current_range_meters":30400,"station_id":"","pricing_plan_id":"free"}]}}