{"last_updated":1758298321,"ttl":60,"version":"2.2","data":{"bikes":[{"bike_id":"d91cd51e-04d7-4bf3-971c-c3c5835d8a90","system_id":"levelo_inurba_marseille","lat":43.30876,"lon":5.39657,"is_reserved":false,"is_disabled":false,"rental_uris":{"android":"levelo://app?vid=d91cd51e-04d7-4bf3-971c-c3c5835d8a90","ios":"levelo://app?vid=d91cd51e-04d7-4bf3-971c-c3c5835d8a90"},"vehicle_type_id":"4","last_reported":1758298321,"current_range_meters":2800,"station_id":"ce4bh012rcd13ifvqcv0","pricing_plan_id":"cebpf4jnsgd1na2vs0mg"},{"bike_id":"8071753d-16c1-425b-b145-560ff2844917","system_id":"levelo_inurba_marseille","lat":43.28988,"lon":5.398,"is_reserved":false,"is_disabled":false,"rental_uris":{"android":"levelo://app?vid=8071753d-16c1-425b-b145-560ff2844917","ios":"levelo://app?vid=8071753d-16c1-425b-b145-560ff2844917"},"vehicle_type_id":"4","last_reported":1758298321,"current_range_meters":2800,"station_id":"","pricing_plan_id":"cebpf4jnsgd1na2vs0mg"},{"bike_id":"7b620830-b309-42b8-9b63-ae50fe913d12","system_id":"levelo_inurba_marseille","lat":43.31274,"lon":5.40173,"is_reserved":false,"is_disabled":false,"rental_uris":{"android":"levelo://app?vid=7b620830-b309-42b8-9b63-ae50fe913d12","ios":"levelo://app?vid=7b620830-b309-42b8-9b63-ae50fe913d12"},"vehicle_type_id":"4","last_reported":1758298321,"current_range_meters":2800,"station_id":"ce4bh092rcd13ifvqd30","pricing_plan_id":"cebpf4jnsgd1na2vs0mg"},{"bike_id":"6250ec7e-fda1-4907-9c23-92ecf2d7e9b4","system_id":"levelo_inurba_marseille","lat":43.286046,"lon":5.351007,"is_reserved":false,"is_disabled":false,"rental_uris":{"android":"levelo://app?vid=6250ec7e-fda1-4907-9c23-92ecf2d7e9b4","ios":"levelo://app?vid=6250ec7e-fda1-4907-9c23-92ecf2d7e9b4"},"vehicle_type_id":"4","last_reported":1758298321,"current_range_meters":2800,"station_id":"ce4bhch2rcd13ifvqeug","pricing_plan_id":"cebpf4jnsgd1na2vs0mg"},{"bike_id":"86127ee7-14e9-448b-a7db-7a172686cb59","system_id":"levelo_inurba_marseille","lat":43.290101,"lon":5.356161,"is_reserved":false,"is_disabled":false,"rental_uris":{"android":"levelo://app?vid=86127ee7-14e9-448b-a7db-7a172686cb59","ios":"levelo://app?vid=86127ee7-14e9-448b-a7db-7a172686cb59"},"vehicle_type_id":"4","last_reported":1758298321,"current_range_meters":2800,"station_id":"ce4bhb92rcd13ifvqen0","pricing_plan_id":"cebpf4jnsgd1na2vs0mg"},{"bike_id":"b2483ccb-8fd2-497f-a9eb-ff2394320dbf","system_id":"levelo_inurba_marseille","lat":43.304147,"lon":5.412873,"is_reserved":false,"is_disabled":false,"rental_uris":{"android":"levelo://app?vid=b2483ccb-8fd2-497f-a9eb-ff2394320dbf","ios":"levelo://app?vid=b2483ccb-8fd2-497f-a9eb-ff2394320dbf"},"vehicle_type_id":"4","last_reported":1758298321,"current_range_meters":2800,"station_id":"ce4bhop2rcd13ifvqh8g","pricing_plan_id":"cebpf4jnsgd1na2vs0mg"},{"bike_id":"24f87727-7b7d-4e65-bde5-a378c4f130b2","system_id":"levelo_inurba_marseille","lat":43.29375,"lon":5.37861,"is_reserved":false,"is_disabled":false,"rental_uris":{"android":"levelo://app?vid=24f87727-7b7d-4e65-bde5-a378c4f130b2","ios":"levelo://app?vid=24f87727-7b7d-4e65-bde5-a378c4f130b2"},"vehicle_type_id":"4","last_reported":1758298321,"current_range_meters":2800,"station_id":"ce4bgjh2rcd13ifvqbf0","pricing_plan_id":"cebpf4jnsgd1na2vs0mg"},{"bike_id":"761cc00d-2af8-415e-8a69-ae1224c8eded","system_id":"levelo_inurba_marseille","lat":43.29572,"lon":5.39971,"is_reserved":false,"is_disabled":false,"rental_uris":{"android":"levelo://app?vid=761cc00d-2af8-415e-8a69-ae1224c8eded","ios":"levelo://app?vid=761cc00d-2af8-415e-8a69-ae1224c8eded"},"vehicle_type_id":"4","last_reported":1758298321,"current_range_meters":2800,"station_id":"ce4bh312rcd13ifvqdj0","pricing_plan_id":"cebpf4jnsgd1na2vs0mg"},{"bike_id":"761f681a-6831-4fad-aee0-f1f59e63bff5","system_id":"levelo_inurba_marseille","lat":43.27559,"lon":5.38432,"is_reserved":false,"is_disabled":false,"rental_uris":{"android":"levelo://app?vid=761f681a-6831-4fad-aee0-f1f59e63bff5","ios":"levelo://app?vid=761f681a-6831-4fad-aee0-f1f59e63bff5"},"vehicle_type_id":"4","last_reported":1758298321,"current_range_meters":2800,"station_id":"ce4bhh92rcd13ifvqfi0","pricing_plan_id":"cebpf4jnsgd1na2vs0mg"},{"bike_id":"8fd5a389-adbf-44bc-97bd-5442e6184136","system_id":"levelo_inurba_marseille","lat":43.28942,"lon":5.38388,"is_reserved":false,"is_disabled":false,"rental_uris":{"android":"levelo://app?vid=8fd5a389-adbf-44bc-97bd-5442e6184136","ios":"levelo://app?vid=8fd5a389-adbf-44bc-97bd-5442e6184136"},"vehicle_type_id":"4","last_reported":1758298321,"current_range_meters":3200,"station_id":"ce4bh612rcd13ifvqe6g","pricing_plan_id":"cebpf4jnsgd1na2vs0mg"},{"bike_id":"83398f1e-e30c-44a0-85c3-1709de8c7031","system_id":"levelo_inurba_marseille","lat":43.23154,"lon":5.43705,"is_reserved":false,"is_disabled":false,"rental_uris":{"android":"levelo://app?vid=83398f1e-e30c-44a0-85c3-1709de8c7031","ios":"levelo://app?vid=83398f1e-e30c-44a0-85c3-1709de8c7031"},"vehicle_type_id":"4","last_reported":1758298321,"current_range_meters":3200,"station_id":"ce4bhmp2rcd13ifvqgog","pricing_plan_id":"cebpf4jnsgd1na2vs0mg"},{"bike_id":"86001647-9c01-4a8e-b886-edc89b5d18df","system_id":"levelo_inurba_marseille","lat":43.23194,"lon":5.35552,"is_reserved":false,"is_disabled":false,"rental_uris":{"android":"levelo://app?vid=86001647-9c01-4a8e-b886-edc89b5d18df","ios":"levelo://app?vid=86001647-9c01-4a8e-b886-edc89b5d18df"},"vehicle_type_id":"4","last_reported":1758298321,"current_range_meters":3200,"station_id":"ce4bhu92rcd13ifvqi70","pricing_plan_id":"cebpf4jnsgd1na2vs0mg"},{"bike_id":"99fe2d7f-2bb4-4af0-a387-219770175db3","system_id":"levelo_inurba_marseille","lat":43.28843,"lon":5.39317,"is_reserved":false,"is_disabled":false,"rental_uris":{"android":"levelo://app?vid=99fe2d7f-2bb4-4af0-a387-219770175db3","ios":"levelo://app?vid=99fe2d7f-2bb4-4af0-a387-219770175db3"},"vehicle_type_id":"4","last_reported":1758298321,"current_range_meters":3200,"station_id":"ce4bh2p2rcd13ifvqdi0","pricing_plan_id":"cebpf4jnsgd1na2vs0mg"},{"bike_id":"f84993e7-e6cc-4597-95d8-b23275270606","system_id":"levelo_inurba_marseille","lat":43.253359,"lon":5.421815,"is_reserved":false,"is_disabled":false,"rental_uris":{"android":"levelo://app?vid=f84993e7-e6cc-4597-95d8-b23275270606","ios":"levelo://app?vid=f84993e7-e6cc-4597-95d8-b23275270606"},"vehicle_type_id":"4","last_reported":1758298321,"current_range_meters":3200,"station_id":"st_d2m65c5bi1j21697t3ng","pricing_plan_id":"cebpf4jnsgd1na2vs0mg"},{"bike_id":"4654391f-dda1-4838-acbd-69208a403f24","system_id":"levelo_inurba_marseille","lat":43.27309,"lon":5.39066,"is_reserved":false,"is_disabled":false,"rental_uris":{"android":"levelo://app?vid=4654391f-dda1-4838-acbd-69208a403f24","ios":"levelo://app?vid=4654391f-dda1-4838-acbd-69208a403f24"},"vehicle_type_id":"4","last_reported":1758298321,"current_range_meters":3200,"station_id":"ce4bhgp2rcd13ifvqfe0","pricing_plan_id":"cebpf4jnsgd1na2vs0mg"},{"bike_id":"5d059d50-4e88-49a7-84b9-dc6d2c12705a","system_id":"levelo_inurba_marseille","lat":43.28403,"lon":5.35007,"is_reserved":false,"is_disabled":false,"rental_uris":{"android":"levelo://app?vid=5d059d50-4e88-49a7-84b9-dc6d2c12705a","ios":"levelo://app?vid=5d059d50-4e88-49a7-84b9-dc6d2c12705a"},"vehicle_type_id":"4","last_reported":1758298321,"current_range_meters":3600,"station_id":"ce4bhbh2rcd13ifvqepg","pricing_plan_id":"cebpf4jnsgd1na2vs0mg"},{"bike_id":"6a8b12d1-6fce-43b9-9abf-29648b2dfb32","system_id":"levelo_inurba_marseille","lat":43.26557,"lon":5.37295,"is_reserved":false,"is_disabled":true,"rental_uris":{"android":"levelo://app?vid=6a8b12d1-6fce-43b9-9abf-29648b2dfb32","ios":"levelo://app?vid=6a8b12d1-6fce-43b9-9abf-29648b2dfb32"},"vehicle_type_id":"4","last_reported":1758298321,"current_range_meters":3600,"station_id":"ce4bhg12rcd13ifvqf70","pricing_plan_id":"cebpf4jnsgd1na2vs0mg"},{"bike_id":"36f2596f-48e2-4196-b5d5-60b2dce929f9","system_id":"levelo_inurba_marseille","lat":43.246572,"lon":5.381644,"is_reserved":false,"is_disabled":false,"rental_uris":{"android":"levelo://app?vid=36f2596f-48e2-4196-b5d5-60b2dce929f9","ios":"levelo://app?vid=36f2596f-48e2-4196-b5d5-60b2dce929f9"},"vehicle_type_id":"4","last_reported":1758298321,"current_range_meters":3600,"station_id":"ce4bhih2rcd13ifvqfr0","pricing_plan_id":"cebpf4jnsgd1na2vs0mg"},{"bike_id":"6943de14-2154-4228-b150-7fb4a2122224","system_id":"levelo_inurba_marseille","lat":43.24071,"lon":5.3776,"is_reserved":false,"is_disabled":false,"rental_uris":{"android":"levelo://app?vid=6943de14-2154-4228-b150-7fb4a2122224","ios":"levelo://app?vid=6943de14-2154-4228-b150-7fb4a2122224"},"vehicle_type_id":"4","last_reported":1758298321,"current_range_meters":3600,"station_id":"ce4bhnp2rcd13ifvqgvg","pricing_plan_id":"cebpf4jnsgd1na2vs0mg"},{"bike_id":"1967a107-a70f-4c8e-bf38-e7c401d2d3b7","system_id":"levelo_inurba_marseille","lat":43.29191,"lon":5.35813,"is_reserved":false,"is_disabled":false,"rental_uris":{"android":"levelo://app?vid=1967a107-a70f-4c8e-bf38-e7c401d2d3b7","ios":"levelo://app?vid=1967a107-a70f-4c8e-bf38-e7c401d2d3b7"},"vehicle_type_id":"4","last_reported":1758298321,"current_range_meters":3600,"station_id":"ce4bhb12rcd13ifvqel0","pricing_plan_id":"cebpf4jnsgd1na2vs0mg"},{"bike_id":"91813328-dbaa-4804-a244-0a2041c8adcb","system_id":"levelo_inurba_marseille","lat":43.337444,"lon":5.374475,"is_reserved":false,"is_disabled":false,"rental_uris":{"android":"levelo://app?vid=91813328-dbaa-4804-a244-0a2041c8adcb","ios":"levelo://app?vid=91813328-dbaa-4804-a244-0a2041c8adcb"},"vehicle_type_id":"4","last_reported":1758298321,"current_range_meters":4000,"station_id":"ce4bh392rcd13ifvqdm0","pricing_plan_id":"cebpf4jnsgd1na2vs0mg"},{"bike_id":"b71208d4-951f-474f-9e77-3845b6eb1465","system_id":"levelo_inurba_marseille","lat":43.282745,"lon":5.350551,"is_reserved":false,"is_disabled":false,"rental_uris":{"android":"levelo://app?vid=b71208d4-951f-474f-9e77-3845b6eb1465","ios":"levelo://app?vid=b71208d4-951f-474f-9e77-3845b6eb1465"},"vehicle_type_id":"4","last_reported":1758298321,"current_range_meters":4000,"station_id":"ce4bhbp2rcd13ifvqerg","pricing_plan_id":"cebpf4jnsgd1na2vs0mg"},{"bike_id":"bdc9dd69-cdc2-4163-a978-e7f7c11e8dc2","system_id":"levelo_inurba_marseille","lat":43.29259,"lon":5.37629,"is_reserved":false,"is_disabled":false,"rental_uris":{"android":"levelo://app?vid=bdc9dd69-cdc2-4163-a978-e7f7c11e8dc2","ios":"levelo://app?vid=bdc9dd69-cdc2-4163-a978-e7f7c11e8dc2"},"vehicle_type_id":"4","last_reported":1758298321,"current_range_meters":4000,"station_id":"ce4bgi12rcd13ifvqb80","pricing_plan_id":"cebpf4jnsgd1na2vs0mg"},{"bike_id":"eaa9e08a-3980-4b36-a628-432b0e7b571b","system_id":"levelo_inurba_marseille","lat":43.28263,"lon":5.35064,"is_reserved":false,"is_disabled":false,"rental_uris":{"android":"levelo://app?vid=eaa9e08a-3980-4b36-a628-432b0e7b571b","ios":"levelo://app?vid=eaa9e08a-3980-4b36-a628-432b0e7b571b"},"vehicle_type_id":"4","last_reported":1758298321,"current_range_meters":4000,"station_id":"ce4bhbp2rcd13ifvqerg","pricing_plan_id":"cebpf4jnsgd1na2vs0mg"},{"bike_id":"f9a27af9-2efd-4e28-ad8d-912443a9436d","system_id":"levelo_inurba_marseille","lat":43.260277,"lon":5.375469,"is_reserved":false,"is_disabled":false,"rental_uris":{"android":"levelo://app?vid=f9a27af9-2efd-4e28-ad8d-912443a9436d","ios":"levelo://app?vid=f9a27af9-2efd-4e28-ad8d-912443a9436d"},"vehicle_type_id":"4","last_reported":1758298321,"current_range_meters":4000,"station_id":"ce4bhgh2rcd13ifvqfa0","pricing_plan_id":"cebpf4jnsgd1na2vs0mg"},{"bike_id":"8dadf911-2eb8-4ba5-b423-c13d8e77e318","system_id":"levelo_inurba_marseille","lat":43.29919,"lon":5.37475,"is_reserved":false,"is_disabled":false,"rental_uris":{"android":"levelo://app?vid=8dadf911-2eb8-4ba5-b423-c13d8e77e318","ios":"levelo://app?vid=8dadf911-2eb8-4ba5-b423-c13d8e77e318"},"vehicle_type_id":"4","last_reported":1758298321,"current_range_meters":4000,"station_id":"ce4bgjh2rcd13ifvqbg0","pricing_plan_id":"cebpf4jnsgd1na2vs0mg"},{"bike_id":"93661107-5d45-4930-b47f-7a0b04869b5d","system_id":"levelo_inurba_marseille","lat":43.28103,"lon":5.37847,"is_reserved":false,"is_disabled":false,"rental_uris":{"android":"levelo://app?vid=93661107-5d45-4930-b47f-7a0b04869b5d","ios":"levelo://app?vid=93661107-5d45-4930-b47f-7a0b04869b5d"},"vehicle_type_id":"4","last_reported":1758298321,"current_range_meters":4400,"station_id":"ce4bha12rcd13ifvqee0","pricing_plan_id":"cebpf4jnsgd1na2vs0mg"},{"bike_id":"7b51a36e-d3c1-400a-a130-b00f35dc0b10","system_id":"levelo_inurba_marseille","lat":43.225343,"lon":5.348357,"is_reserved":false,"is_disabled":false,"rental_uris":{"android":"levelo://app?vid=7b51a36e-d3c1-400a-a130-b00f35dc0b10","ios":"levelo://app?vid=7b51a36e-d3c1-400a-a130-b00f35dc0b10"},"vehicle_type_id":"4","last_reported":1758298321,"current_range_meters":4400,"station_id":"","pricing_plan_id":"cebpf4jnsgd1na2vs0mg"},{"bike_id":"e11587c0-818e-487a-85af-795db4c104b4","system_id":"levelo_inurba_marseille","lat":43.29004,"lon":5.35608,"is_reserved":false,"is_disabled":false,"rental_uris":{"android":"levelo://app?vid=e11587c0-818e-487a-85af-795db4c104b4","ios":"levelo://app?vid=e11587c0-818e-487a-85af-795db4c104b4"},"vehicle_type_id":"4","last_reported":1758298321,"current_range_meters":4400,"station_id":"ce4bhb92rcd13ifvqen0","pricing_plan_id":"cebpf4jnsgd1na2vs0mg"},{"bike_id":"d4e42fed-b7d1-4743-b033-42e94790e119","system_id":"levelo_inurba_marseille","lat":43.24044,"lon":5.37702,"is_reserved":false,"is_disabled":false,"rental_uris":{"android":"levelo://app?vid=d4e42fed-b7d1-4743-b033-42e94790e119","ios":"levelo://app?vid=d4e42fed-b7d1-4743-b033-42e94790e119"},"vehicle_type_id":"4","last_reported":1758298321,"current_range_meters":4800,"station_id":"","pricing_plan_id":"cebpf4jnsgd1na2vs0mg"},{"bike_id":"059c0ba7-1dcb-4f29-8d05-6060640937cc","system_id":"levelo_inurba_marseille","lat":43.31772,"lon":5.36852,"is_reserved":false,"is_disabled":true,"rental_uris":{"android":"levelo://app?vid=059c0ba7-1dcb-4f29-8d05-6060640937cc","ios":"levelo://app?vid=059c0ba7-1dcb-4f29-8d05-6060640937cc"},"vehicle_type_id":"4","last_reported":1758298321,"current_range_meters":4800,"station_id":"","pricing_plan_id":"cebpf4jnsgd1na2vs0mg"},{"bike_id":"7c90c368-9866-49d3-8ffc-f6f793ab9049","system_id":"levelo_inurba_marseille","lat":43.22926,"lon":5.35372,"is_reserved":false,"is_disabled":false,"rental_uris":{"android":"levelo://app?vid=7c90c368-9866-49d3-8ffc-f6f793ab9049","ios":"levelo://app?vid=7c90c368-9866-49d3-8ffc-f6f793ab9049"},"vehicle_type_id":"4","last_reported":1758298321,"current_range_meters":4800,"station_id":"cpo3532slgdg3j2ikp40","pricing_plan_id":"cebpf4jnsgd1na2vs0mg"},{"bike_id":"7918c8ea-f7f4-4157-b837-0cbefe2a77c9","system_id":"levelo_inurba_marseille","lat":43.27519,"lon":5.42453,"is_reserved":false,"is_disabled":true,"rental_uris":{"android":"levelo://app?vid=7918c8ea-f7f4-4157-b837-0cbefe2a77c9","ios":"levelo://app?vid=7918c8ea-f7f4-4157-b837-0cbefe2a77c9"},"vehicle_type_id":"4","last_reported":1758298321,"current_range_meters":4800,"station_id":"ce4bhn92rcd13ifvqgrg","pricing_plan_id":"cebpf4jnsgd1na2vs0mg"},{"bike_id":"f7c00165-7be5-4d72-8149-00f82745d715","system_id":"levelo_inurba_marseille","lat":43.323707,"lon":5.38883,"is_reserved":false,"is_disabled":false,"rental_uris":{"android":"levelo://app?vid=f7c00165-7be5-4d72-8149-00f82745d715","ios":"levelo://app?vid=f7c00165-7be5-4d72-8149-00f82745d715"},"vehicle_type_id":"4","last_reported":1758298321,"current_range_meters":4800,"station_id":"ce4bhqp2rcd13ifvqhog","pricing_plan_id":"cebpf4jnsgd1na2vs0mg"},{"bike_id":"0c7aabb8-00d2-40bc-b1ef-7861e6a8e1ac","system_id":"levelo_inurba_marseille","lat":43.27567,"lon":5.38419,"is_reserved":false,"is_disabled":false,"rental_uris":{"android":"levelo://app?vid=0c7aabb8-00d2-40bc-b1ef-7861e6a8e1ac","ios":"levelo://app?vid=0c7aabb8-00d2-40bc-b1ef-7861e6a8e1ac"},"vehicle_type_id":"4","last_reported":1758298321,"current_range_meters":4800,"station_id":"ce4bhh92rcd13ifvqfi0","pricing_plan_id":"cebpf4jnsgd1na2vs0mg"},{"bike_id":"008c19fc-3914-4134-ba46-573663d7aed4","system_id":"levelo_inurba_marseille","lat":43.28273,"lon":5.35069,"is_reserved":false,"is_disabled":false,"rental_uris":{"android":"levelo://app?vid=008c19fc-3914-4134-ba46-573663d7aed4","ios":"levelo://app?vid=008c19fc-3914-4134-ba46-573663d7aed4"},"vehicle_type_id":"4","last_reported":1758298321,"current_range_meters":4800,"station_id":"ce4bhbp2rcd13ifvqerg","pricing_plan_id":"cebpf4jnsgd1na2vs0mg"},{"bike_id":"45afe5f4-5cbe-49c2-a913-33c967100178","system_id":"levelo_inurba_marseille","lat":43.29776,"lon":5.380931,"is_reserved":false,"is_disabled":false,"rental_uris":{"android":"levelo://app?vid=45afe5f4-5cbe-49c2-a913-33c967100178","ios":"levelo://app?vid=45afe5f4-5cbe-49c2-a913-33c967100178"},"vehicle_type_id":"4","last_reported":1758298321,"current_range_meters":4800,"station_id":"","pricing_plan_id":"cebpf4jnsgd1na2vs0mg"},{"bike_id":"59a30483-24b3-4015-9e24-1471cbb37c31","system_id":"levelo_inurba_marseille","lat":43.27372,"lon":5.36261,"is_reserved":false,"is_disabled":false,"rental_uris":{"android":"levelo://app?vid=59a30483-24b3-4015-9e24-1471cbb37c31","ios":"levelo://app?vid=59a30483-24b3-4015-9e24-1471cbb37c31"},"vehicle_type_id":"4","last_reported":1758298321,"current_range_meters":4800,"station_id":"ce4bhbh2rcd13ifvqeo0","pricing_plan_id":"cebpf4jnsgd1na2vs0mg"},{"bike_id":"19a12efc-132c-4134-b566-e200fff8d888","system_id":"levelo_inurba_marseille","lat":43.28268,"lon":5.35097,"is_reserved":false,"is_disabled":false,"rental_uris":{"android":"levelo://app?vid=19a12efc-132c-4134-b566-e200fff8d888","ios":"levelo://app?vid=19a12efc-132c-4134-b566-e200fff8d888"},"vehicle_type_id":"4","last_reported":1758298321,"current_range_meters":5600,"station_id":"ce4bhbp2rcd13ifvqerg","pricing_plan_id":"cebpf4jnsgd1na2vs0mg"},{"bike_id":"c2e6f3a8-7b7d-45fb-90d9-7512161bfb22","system_id":"levelo_inurba_marseille","lat":43.27961,"lon":5.38745,"is_reserved":false,"is_disabled":false,"rental_uris":{"android":"levelo://app?vid=c2e6f3a8-7b7d-45fb-90d9-7512161bfb22","ios":"levelo://app?vid=c2e6f3a8-7b7d-45fb-90d9-7512161bfb22"},"vehicle_type_id":"4","last_reported":1758298321,"current_range_meters":5600,"station_id":"ce4bhg12rcd13ifvqf80","pricing_plan_id":"cebpf4jnsgd1na2vs0mg"},{"bike_id":"2b7b2ed4-d280-455a-82e0-c7a3b96ba385","system_id":"levelo_inurba_marseille","lat":43.28928,"lon":5.36632,"is_reserved":false,"is_disabled":false,"rental_uris":{"android":"levelo://app?vid=2b7b2ed4-d280-455a-82e0-c7a3b96ba385","ios":"levelo://app?vid=2b7b2ed4-d280-455a-82e0-c7a3b96ba385"},"vehicle_type_id":"4","last_reported":1758298321,"current_range_meters":5600,"station_id":"ce4bhap2rcd13ifvqek0","pricing_plan_id":"cebpf4jnsgd1na2vs0mg"},{"bike_id":"234d8b7d-c969-45e1-864f-3bd5a0459d9c","system_id":"levelo_inurba_marseille","lat":43.28261,"lon":5.35074,"is_reserved":false,"is_disabled":false,"rental_uris":{"android":"levelo://app?vid=234d8b7d-c969-45e1-864f-3bd5a0459d9c","ios":"levelo://app?vid=234d8b7d-c969-45e1-864f-3bd5a0459d9c"},"vehicle_type_id":"4","last_reported":1758298321,"current_range_meters":5600,"station_id":"ce4bhbp2rcd13ifvqerg","pricing_plan_id":"cebpf4jnsgd1na2vs0mg"},{"bike_id":"6e89d1ff-c084-48fc-a2d3-90498832234e","system_id":"levelo_inurba_marseille","lat":43.30713,"lon":5.38056,"is_reserved":false,"is_disabled":false,"rental_uris":{"android":"levelo://app?vid=6e89d1ff-c084-48fc-a2d3-90498832234e","ios":"levelo://app?vid=6e89d1ff-c084-48fc-a2d3-90498832234e"},"vehicle_type_id":"4","last_reported":1758298321,"current_range_meters":6000,"station_id":"","pricing_plan_id":"cebpf4jnsgd1na2vs0mg"},{"bike_id":"ec753155-ece3-46e9-a454-41b891d4be01","system_id":"levelo_inurba_marseille","lat":43.29902,"lon":5.43672,"is_reserved":false,"is_disabled":false,"rental_uris":{"android":"levelo://app?vid=ec753155-ece3-46e9-a454-41b891d4be01","ios":"levelo://app?vid=ec753155-ece3-46e9-a454-41b891d4be01"},"vehicle_type_id":"4","last_reported":1758298321,"current_range_meters":6000,"station_id":"ce4bhpp2rcd13ifvqhfg","pricing_plan_id":"cebpf4jnsgd1na2vs0mg"},{"bike_id":"9963a081-3d47-45c3-9a5f-f912abc0ffc5","system_id":"levelo_inurba_marseille","lat":43.25012,"lon":5.38917,"is_reserved":false,"is_disabled":true,"rental_uris":{"android":"levelo://app?vid=9963a081-3d47-45c3-9a5f-f912abc0ffc5","ios":"levelo://app?vid=9963a081-3d47-45c3-9a5f-f912abc0ffc5"},"vehicle_type_id":"4","last_reported":1758298321,"current_range_meters":6000,"station_id":"ce4bhgp2rcd13ifvqfd0","pricing_plan_id":"cebpf4jnsgd1na2vs0mg"},{"bike_id":"6524b8f0-d033-48cb-aa54-d82fb8ad6a86","system_id":"levelo_inurba_marseille","lat":43.292,"lon":5.39332,"is_reserved":false,"is_disabled":false,"rental_uris":{"android":"levelo://app?vid=6524b8f0-d033-48cb-aa54-d82fb8ad6a86","ios":"levelo://app?vid=6524b8f0-d033-48cb-aa54-d82fb8ad6a86"},"vehicle_type_id":"4","last_reported":1758298321,"current_range_meters":6000,"station_id":"ce4bh192rcd13ifvqdd0","pricing_plan_id":"cebpf4jnsgd1na2vs0mg"},{"bike_id":"7745eab8-3d48-4349-b863-861b7cc7cbd1","system_id":"levelo_inurba_marseille","lat":43.290054,"lon":5.381405,"is_reserved":false,"is_disabled":false,"rental_uris":{"android":"levelo://app?vid=7745eab8-3d48-4349-b863-861b7cc7cbd1","ios":"levelo://app?vid=7745eab8-3d48-4349-b863-861b7cc7cbd1"},"vehicle_type_id":"4","last_reported":1758298321,"current_range_meters":6000,"station_id":"","pricing_plan_id":"cebpf4jnsgd1na2vs0mg"},{"bike_id":"a3ae4adf-5ef2-40fa-8f97-956b600c091f","system_id":"levelo_inurba_marseille","lat":43.28421,"lon":5.34978,"is_reserved":false,"is_disabled":false,"rental_uris":{"android":"levelo://app?vid=a3ae4adf-5ef2-40fa-8f97-956b600c091f","ios":"levelo://app?vid=a3ae4adf-5ef2-40fa-8f97-956b600c091f"},"vehicle_type_id":"4","last_reported":1758298321,"current_range_meters":6400,"station_id":"ce4bhbh2rcd13ifvqepg","pricing_plan_id":"cebpf4jnsgd1na2vs0mg"},{"bike_id":"91d75646-396b-4e35-8c7f-b572fede9fd4","system_id":"levelo_inurba_marseille","lat":43.30792,"lon":5.43526,"is_reserved":false,"is_disabled":false,"rental_uris":{"android":"levelo://app?vid=91d75646-396b-4e35-8c7f-b572fede9fd4","ios":"levelo://app?vid=91d75646-396b-4e35-8c7f-b572fede9fd4"},"vehicle_type_id":"4","last_reported":1758298321,"current_range_meters":6400,"station_id":"ce4bhph2rcd13ifvqheg","pricing_plan_id":"cebpf4jnsgd1na2vs0mg"},{"bike_id":"ccd44948-7c00-492e-b618-36105a29ab8f","system_id":"levelo_inurba_marseille","lat":43.32659,"lon":5.40989,"is_reserved":false,"is_disabled":true,"rental_uris":{"android":"levelo://app?vid=ccd44948-7c00-492e-b618-36105a29ab8f","ios":"levelo://app?vid=ccd44948-7c00-492e-b618-36105a29ab8f"},"vehicle_type_id":"4","last_reported":1758298321,"current_range_meters":6400,"station_id":"ce4bhpp2rcd13ifvqhgg","pricing_plan_id":"cebpf4jnsgd1na2vs0mg"},{"bike_id":"2e610808-905b-4c5c-a5a5-1dd6df177d2d","system_id":"levelo_inurba_marseille","lat":43.2827,"lon":5.35066,"is_reserved":false,"is_disabled":false,"rental_uris":{"android":"levelo://app?vid=2e610808-905b-4c5c-a5a5-1dd6df177d2d","ios":"levelo://app?vid=2e610808-905b-4c5c-a5a5-1dd6df177d2d"},"vehicle_type_id":"4","last_reported":1758298321,"current_range_meters":6400,"station_id":"ce4bhbp2rcd13ifvqerg","pricing_plan_id":"cebpf4jnsgd1na2vs0mg"},{"bike_id":"01097de1-1e78-4b63-baec-11cc592be88c","system_id":"levelo_inurba_marseille","lat":43.3087,"lon":5.39654,"is_reserved":false,"is_disabled":false,"rental_uris":{"android":"levelo://app?vid=01097de1-1e78-4b63-baec-11cc592be88c","ios":"levelo://app?vid=01097de1-1e78-4b63-baec-11cc592be88c"},"vehicle_type_id":"4","last_reported":1758298321,"current_range_meters":6400,"station_id":"ce4bh012rcd13ifvqcv0","pricing_plan_id":"cebpf4jnsgd1na2vs0mg"},{"bike_id":"8264d034-f4c4-422e-a874-d7f9e6a30d9d","system_id":"levelo_inurba_marseille","lat":43.293006,"lon":5.374616,"is_reserved":false,"is_disabled":false,"rental_uris":{"android":"levelo://app?vid=8264d034-f4c4-422e-a874-d7f9e6a30d9d","ios":"levelo://app?vid=8264d034-f4c4-422e-a874-d7f9e6a30d9d"},"vehicle_type_id":"4","last_reported":1758298321,"current_range_meters":6800,"station_id":"ce4bgi12rcd13ifvqb70","pricing_plan_id":"cebpf4jnsgd1na2vs0mg"},{"bike_id":"87303a1d-9450-442e-bf8b-75df58654fc9","system_id":"levelo_inurba_marseille","lat":43.287104,"lon":5.37385,"is_reserved":false,"is_disabled":false,"rental_uris":{"android":"levelo://app?vid=87303a1d-9450-442e-bf8b-75df58654fc9","ios":"levelo://app?vid=87303a1d-9450-442e-bf8b-75df58654fc9"},"vehicle_type_id":"4","last_reported":1758298321,"current_range_meters":6800,"station_id":"ce4bh3p2rcd13ifvqdq0","pricing_plan_id":"cebpf4jnsgd1na2vs0mg"},{"bike_id":"11d60f6e-f505-474f-a6c2-5b8f76486b7b","system_id":"levelo_inurba_marseille","lat":43.28285,"lon":5.3507,"is_reserved":false,"is_disabled":true,"rental_uris":{"android":"levelo://app?vid=11d60f6e-f505-474f-a6c2-5b8f76486b7b","ios":"levelo://app?vid=11d60f6e-f505-474f-a6c2-5b8f76486b7b"},"vehicle_type_id":"4","last_reported":1758298321,"current_range_meters":6800,"station_id":"ce4bhbp2rcd13ifvqerg","pricing_plan_id":"cebpf4jnsgd1na2vs0mg"},{"bike_id":"cf66592a-d8fa-4c6c-9927-5d7a9fef5026","system_id":"levelo_inurba_marseille","lat":43.26213,"lon":5.39722,"is_reserved":false,"is_disabled":false,"rental_uris":{"android":"levelo://app?vid=cf66592a-d8fa-4c6c-9927-5d7a9fef5026","ios":"levelo://app?vid=cf66592a-d8fa-4c6c-9927-5d7a9fef5026"},"vehicle_type_id":"4","last_reported":1758298321,"current_range_meters":6800,"station_id":"","pricing_plan_id":"cebpf4jnsgd1na2vs0mg"},{"bike_id":"7dc3113c-dc9e-470a-9894-4c55605c072b","system_id":"levelo_inurba_marseille","lat":43.253357,"lon":5.421766,"is_reserved":false,"is_disabled":false,"rental_uris":{"android":"levelo://app?vid=7dc3113c-dc9e-470a-9894-4c55605c072b","ios":"levelo://app?vid=7dc3113c-dc9e-470a-9894-4c55605c072b"},"vehicle_type_id":"4","last_reported":1758298321,"current_range_meters":6800,"station_id":"","pricing_plan_id":"cebpf4jnsgd1na2vs0mg"},{"bike_id":"b03963e7-f165-473d-a43d-a68e09ff2d96","system_id":"levelo_inurba_marseille","lat":43.25721,"lon":5.41847,"is_reserved":false,"is_disabled":false,"rental_uris":{"android":"levelo://app?vid=b03963e7-f165-473d-a43d-a68e09ff2d96","ios":"levelo://app?vid=b03963e7-f165-473d-a43d-a68e09ff2d96"},"vehicle_type_id":"4","last_reported":1758298321,"current_range_meters":6800,"station_id":"","pricing_plan_id":"cebpf4jnsgd1na2vs0mg"},{"bike_id":"af59b4ac-7495-4c7a-a2da-87a8de3ffd44","system_id":"levelo_inurba_marseille","lat":43.29183,"lon":5.35828,"is_reserved":false,"is_disabled":false,"rental_uris":{"android":"levelo://app?vid=af59b4ac-7495-4c7a-a2da-87a8de3ffd44","ios":"levelo://app?vid=af59b4ac-7495-4c7a-a2da-87a8de3ffd44"},"vehicle_type_id":"4","last_reported":1758298321,"current_range_meters":7200,"station_id":"ce4bhb12rcd13ifvqel0","pricing_plan_id":"cebpf4jnsgd1na2vs0mg"},{"bike_id":"8d4a2d8b-e558-49ae-b1fa-cbc152fbf9df","system_id":"levelo_inurba_marseille","lat":43.286208,"lon":5.351063,"is_reserved":false,"is_disabled":false,"rental_uris":{"android":"levelo://app?vid=8d4a2d8b-e558-49ae-b1fa-cbc152fbf9df","ios":"levelo://app?vid=8d4a2d8b-e558-49ae-b1fa-cbc152fbf9df"},"vehicle_type_id":"4","last_reported":1758298321,"current_range_meters":7200,"station_id":"ce4bhch2rcd13ifvqeug","pricing_plan_id":"cebpf4jnsgd1na2vs0mg"},{"bike_id":"be0d2bad-35e4-420b-abf9-d5b2d65f4de3","system_id":"levelo_inurba_marseille","lat":43.308891,"lon":5.396578,"is_reserved":false,"is_disabled":false,"rental_uris":{"android":"levelo://app?vid=be0d2bad-35e4-420b-abf9-d5b2d65f4de3","ios":"levelo://app?vid=be0d2bad-35e4-420b-abf9-d5b2d65f4de3"},"vehicle_type_id":"4","last_reported":1758298321,"current_range_meters":7200,"station_id":"ce4bh012rcd13ifvqcv0","pricing_plan_id":"cebpf4jnsgd1na2vs0mg"},{"bike_id":"38c27812-3e5d-43b0-86d1-afda47760cd8","system_id":"levelo_inurba_marseille","lat":43.292758,"lon":5.384308,"is_reserved":false,"is_disabled":false,"rental_uris":{"android":"levelo://app?vid=38c27812-3e5d-43b0-86d1-afda47760cd8","ios":"levelo://app?vid=38c27812-3e5d-43b0-86d1-afda47760cd8"},"vehicle_type_id":"4","last_reported":1758298321,"current_range_meters":8000,"station_id":"ce4bh692rcd13ifvqea0","pricing_plan_id":"cebpf4jnsgd1na2vs0mg"},{"bike_id":"a9fc196f-7758-4644-86b0-fc11e54e9e7a","system_id":"levelo_inurba_marseille","lat":43.26792,"lon":5.39405,"is_reserved":false,"is_disabled":false,"rental_uris":{"android":"levelo://app?vid=a9fc196f-7758-4644-86b0-fc11e54e9e7a","ios":"levelo://app?vid=a9fc196f-7758-4644-86b0-fc11e54e9e7a"},"vehicle_type_id":"4","last_reported":1758298321,"current_range_meters":8000,"station_id":"ce4bhh12rcd13ifvqfg0","pricing_plan_id":"cebpf4jnsgd1na2vs0mg"},{"bike_id":"c844e2c1-1c29-4228-91d0-31eea55afd90","system_id":"levelo_inurba_marseille","lat":43.30324,"lon":5.40426,"is_reserved":false,"is_disabled":false,"rental_uris":{"android":"levelo://app?vid=c844e2c1-1c29-4228-91d0-31eea55afd90","ios":"levelo://app?vid=c844e2c1-1c29-4228-91d0-31eea55afd90"},"vehicle_type_id":"4","last_reported":1758298321,"current_range_meters":8000,"station_id":"ce4bh012rcd13ifvqd10","pricing_plan_id":"cebpf4jnsgd1na2vs0mg"},{"bike_id":"e5ae5275-d5d5-49e3-ad86-0b94643e3552","system_id":"levelo_inurba_marseille","lat":43.28279,"lon":5.35035,"is_reserved":false,"is_disabled":false,"rental_uris":{"android":"levelo://app?vid=e5ae5275-d5d5-49e3-ad86-0b94643e3552","ios":"levelo://app?vid=e5ae5275-d5d5-49e3-ad86-0b94643e3552"},"vehicle_type_id":"4","last_reported":1758298321,"current_range_meters":8000,"station_id":"ce4bhbp2rcd13ifvqerg","pricing_plan_id":"cebpf4jnsgd1na2vs0mg"},{"bike_id":"873f3615-5da3-4035-9561-9e0d9b1ad00d","system_id":"levelo_inurba_marseille","lat":43.26689,"lon":5.38278,"is_reserved":false,"is_disabled":false,"rental_uris":{"android":"levelo://app?vid=873f3615-5da3-4035-9561-9e0d9b1ad00d","ios":"levelo://app?vid=873f3615-5da3-4035-9561-9e0d9b1ad00d"},"vehicle_type_id":"4","last_reported":1758298321,"current_range_meters":8400,"station_id":"ce4bhg92rcd13ifvqf90","pricing_plan_id":"cebpf4jnsgd1na2vs0mg"},{"bike_id":"7f940c2e-be1a-4575-ae92-1d56d2875531","system_id":"levelo_inurba_marseille","lat":43.28594,"lon":5.37106,"is_reserved":false,"is_disabled":false,"rental_uris":{"android":"levelo://app?vid=7f940c2e-be1a-4575-ae92-1d56d2875531","ios":"levelo://app?vid=7f940c2e-be1a-4575-ae92-1d56d2875531"},"vehicle_type_id":"4","last_reported":1758298321,"current_range_meters":8400,"station_id":"ce4bht12rcd13ifvqi60","pricing_plan_id":"cebpf4jnsgd1na2vs0mg"},{"bike_id":"86958b18-6fd2-440e-8a6f-6284963ed49b","system_id":"levelo_inurba_marseille","lat":43.23154,"lon":5.43709,"is_reserved":false,"is_disabled":false,"rental_uris":{"android":"levelo://app?vid=86958b18-6fd2-440e-8a6f-6284963ed49b","ios":"levelo://app?vid=86958b18-6fd2-440e-8a6f-6284963ed49b"},"vehicle_type_id":"4","last_reported":1758298321,"current_range_meters":8400,"station_id":"ce4bhmp2rcd13ifvqgog","pricing_plan_id":"cebpf4jnsgd1na2vs0mg"},{"bike_id":"25dd4f01-5b31-4d88-b5f7-a5cb3351f6cb","system_id":"levelo_inurba_marseille","lat":43.292313,"lon":5.360693,"is_reserved":false,"is_disabled":false,"rental_uris":{"android":"levelo://app?vid=25dd4f01-5b31-4d88-b5f7-a5cb3351f6cb","ios":"levelo://app?vid=25dd4f01-5b31-4d88-b5f7-a5cb3351f6cb"},"vehicle_type_id":"4","last_reported":1758298321,"current_range_meters":8000,"station_id":"ce4bhbh2rcd13ifvqeqg","pricing_plan_id":"cebpf4jnsgd1na2vs0mg"},{"bike_id":"56a4f75d-eaf2-44b4-aa02-4a439b19699b","system_id":"levelo_inurba_marseille","lat":43.337614,"lon":5.374171,"is_reserved":false,"is_disabled":false,"rental_uris":{"android":"levelo://app?vid=56a4f75d-eaf2-44b4-aa02-4a439b19699b","ios":"levelo://app?vid=56a4f75d-eaf2-44b4-aa02-4a439b19699b"},"vehicle_type_id":"4","last_reported":1758298321,"current_range_meters":8400,"station_id":"","pricing_plan_id":"cebpf4jnsgd1na2vs0mg"},{"bike_id":"91b99eb7-08b7-41b1-a174-1dfb4de4983e","system_id":"levelo_inurba_marseille","lat":43.28391,"lon":5.35011,"is_reserved":false,"is_disabled":false,"rental_uris":{"android":"levelo://app?vid=91b99eb7-08b7-41b1-a174-1dfb4de4983e","ios":"levelo://app?vid=91b99eb7-08b7-41b1-a174-1dfb4de4983e"},"vehicle_type_id":"4","last_reported":1758298321,"current_range_meters":8400,"station_id":"ce4bhbh2rcd13ifvqepg","pricing_plan_id":"cebpf4jnsgd1na2vs0mg"},{"bike_id":"f9636a44-11a8-49d6-9b1c-12db7ad64ee3","system_id":"levelo_inurba_marseille","lat":43.24186,"lon":5.39721,"is_reserved":false,"is_disabled":true,"rental_uris":{"android":"levelo://app?vid=f9636a44-11a8-49d6-9b1c-12db7ad64ee3","ios":"levelo://app?vid=f9636a44-11a8-49d6-9b1c-12db7ad64ee3"},"vehicle_type_id":"4","last_reported":1758298321,"current_range_meters":8400,"station_id":"ce4bhn12rcd13ifvqgpg","pricing_plan_id":"cebpf4jnsgd1na2vs0mg"},{"bike_id":"828b8f94-4293-4c49-9424-42c8f759ef6d","system_id":"levelo_inurba_marseille","lat":43.30924,"lon":5.36857,"is_reserved":false,"is_disabled":false,"rental_uris":{"android":"levelo://app?vid=828b8f94-4293-4c49-9424-42c8f759ef6d","ios":"levelo://app?vid=828b8f94-4293-4c49-9424-42c8f759ef6d"},"vehicle_type_id":"4","last_reported":1758298321,"current_range_meters":8800,"station_id":"","pricing_plan_id":"cebpf4jnsgd1na2vs0mg"},{"bike_id":"d2b6f833-75ed-4755-8ee4-9a019d213100","system_id":"levelo_inurba_marseille","lat":43.28263,"lon":5.35064,"is_reserved":false,"is_disabled":false,"rental_uris":{"android":"levelo://app?vid=d2b6f833-75ed-4755-8ee4-9a019d213100","ios":"levelo://app?vid=d2b6f833-75ed-4755-8ee4-9a019d213100"},"vehicle_type_id":"4","last_reported":1758298321,"current_range_meters":8800,"station_id":"ce4bhbp2rcd13ifvqerg","pricing_plan_id":"cebpf4jnsgd1na2vs0mg"},{"bike_id":"1f977bff-d1b4-4bf8-9052-7ce7d6469f2f","system_id":"levelo_inurba_marseille","lat":43.29894,"lon":5.43663,"is_reserved":false,"is_disabled":false,"rental_uris":{"android":"levelo://app?vid=1f977bff-d1b4-4bf8-9052-7ce7d6469f2f","ios":"levelo://app?vid=1f977bff-d1b4-4bf8-9052-7ce7d6469f2f"},"vehicle_type_id":"4","last_reported":1758298321,"current_range_meters":8800,"station_id":"ce4bhpp2rcd13ifvqhfg","pricing_plan_id":"cebpf4jnsgd1na2vs0mg"},{"bike_id":"74910d78-3b91-4ae7-b31e-1f0c1d3bd885","system_id":"levelo_inurba_marseille","lat":43.29197,"lon":5.35803,"is_reserved":false,"is_disabled":false,"rental_uris":{"android":"levelo://app?vid=74910d78-3b91-4ae7-b31e-1f0c1d3bd885","ios":"levelo://app?vid=74910d78-3b91-4ae7-b31e-1f0c1d3bd885"},"vehicle_type_id":"4","last_reported":1758298321,"current_range_meters":8800,"station_id":"ce4bhb12rcd13ifvqel0","pricing_plan_id":"cebpf4jnsgd1na2vs0mg"},{"bike_id":"42323a1a-489c-43cb-90ae-c675b27444d5","system_id":"levelo_inurba_marseille","lat":43.21641,"lon":5.34374,"is_reserved":false,"is_disabled":false,"rental_uris":{"android":"levelo://app?vid=42323a1a-489c-43cb-90ae-c675b27444d5","ios":"levelo://app?vid=42323a1a-489c-43cb-90ae-c675b27444d5"},"vehicle_type_id":"4","last_reported":1758298321,"current_range_meters":8800,"station_id":"","pricing_plan_id":"cebpf4jnsgd1na2vs0mg"},{"bike_id":"48ee43be-fc37-4128-a301-d90f1162fcc7","system_id":"levelo_inurba_marseille","lat":43.25092,"lon":5.3952,"is_reserved":false,"is_disabled":false,"rental_uris":{"android":"levelo://app?vid=48ee43be-fc37-4128-a301-d90f1162fcc7","ios":"levelo://app?vid=48ee43be-fc37-4128-a301-d90f1162fcc7"},"vehicle_type_id":"4","last_reported":1758298321,"current_range_meters":8800,"station_id":"ce4bhm12rcd13ifvqgkg","pricing_plan_id":"cebpf4jnsgd1na2vs0mg"},{"bike_id":"3d670632-7922-4cda-9402-3824eb1c3432","system_id":"levelo_inurba_marseille","lat":43.30626,"lon":5.37191,"is_reserved":false,"is_disabled":false,"rental_uris":{"android":"levelo://app?vid=3d670632-7922-4cda-9402-3824eb1c3432","ios":"levelo://app?vid=3d670632-7922-4cda-9402-3824eb1c3432"},"vehicle_type_id":"4","last_reported":1758298321,"current_range_meters":8800,"station_id":"ce4bgqh2rcd13ifvqc4g","pricing_plan_id":"cebpf4jnsgd1na2vs0mg"},{"bike_id":"4d4be90e-5f9e-414c-8939-6f6eab468eed","system_id":"levelo_inurba_marseille","lat":43.28416,"lon":5.35002,"is_reserved":false,"is_disabled":false,"rental_uris":{"android":"levelo://app?vid=4d4be90e-5f9e-414c-8939-6f6eab468eed","ios":"levelo://app?vid=4d4be90e-5f9e-414c-8939-6f6eab468eed"},"vehicle_type_id":"4","last_reported":1758298321,"current_range_meters":8800,"station_id":"ce4bhbh2rcd13ifvqepg","pricing_plan_id":"cebpf4jnsgd1na2vs0mg"},{"bike_id":"f74ca075-8096-4dbd-9e83-2a1eeab82d26","system_id":"levelo_inurba_marseille","lat":43.28122,"lon":5.35038,"is_reserved":false,"is_disabled":false,"rental_uris":{"android":"levelo://app?vid=f74ca075-8096-4dbd-9e83-2a1eeab82d26","ios":"levelo://app?vid=f74ca075-8096-4dbd-9e83-2a1eeab82d26"},"vehicle_type_id":"4","last_reported":1758298321,"current_range_meters":8800,"station_id":"","pricing_plan_id":"cebpf4jnsgd1na2vs0mg"},{"bike_id":"e1cd47df-5d7b-47a7-8299-9af63975e843","system_id":"levelo_inurba_marseille","lat":43.254964,"lon":5.376487,"is_reserved":false,"is_disabled":false,"rental_uris":{"android":"levelo://app?vid=e1cd47df-5d7b-47a7-8299-9af63975e843","ios":"levelo://app?vid=e1cd47df-5d7b-47a7-8299-9af63975e843"},"vehicle_type_id":"4","last_reported":1758298321,"current_range_meters":9200,"station_id":"ce4bhh12rcd13ifvqff0","pricing_plan_id":"cebpf4jnsgd1na2vs0mg"},{"bike_id":"76bb05c3-4b69-4571-bb1d-ca9780428e37","system_id":"levelo_inurba_marseille","lat":43.29913,"lon":5.37483,"is_reserved":false,"is_disabled":false,"rental_uris":{"android":"levelo://app?vid=76bb05c3-4b69-4571-bb1d-ca9780428e37","ios":"levelo://app?vid=76bb05c3-4b69-4571-bb1d-ca9780428e37"},"vehicle_type_id":"4","last_reported":1758298321,"current_range_meters":9200,"station_id":"ce4bgjh2rcd13ifvqbg0","pricing_plan_id":"cebpf4jnsgd1na2vs0mg"},{"bike_id":"485a2000-be7c-4c31-80ea-909e4ca699d3","system_id":"levelo_inurba_marseille","lat":43.28265,"lon":5.35067,"is_reserved":false,"is_disabled":false,"rental_uris":{"android":"levelo://app?vid=485a2000-be7c-4c31-80ea-909e4ca699d3","ios":"levelo://app?vid=485a2000-be7c-4c31-80ea-909e4ca699d3"},"vehicle_type_id":"4","last_reported":1758298321,"current_range_meters":9200,"station_id":"ce4bhbp2rcd13ifvqerg","pricing_plan_id":"cebpf4jnsgd1na2vs0mg"},{"bike_id":"7cc8afb7-aa9e-471c-ac62-f3f50273db81","system_id":"levelo_inurba_marseille","lat":43.28267,"lon":5.35052,"is_reserved":false,"is_disabled":false,"rental_uris":{"android":"levelo://app?vid=7cc8afb7-aa9e-471c-ac62-f3f50273db81","ios":"levelo://app?vid=7cc8afb7-aa9e-471c-ac62-f3f50273db81"},"vehicle_type_id":"4","last_reported":1758298321,"current_range_meters":9200,"station_id":"ce4bhbp2rcd13ifvqerg","pricing_plan_id":"cebpf4jnsgd1na2vs0mg"},{"bike_id":"97bec432-e727-4dae-b57d-7ee4b46b281e","system_id":"levelo_inurba_marseille","lat":43.23193,"lon":5.35548,"is_reserved":false,"is_disabled":false,"rental_uris":{"android":"levelo://app?vid=97bec432-e727-4dae-b57d-7ee4b46b281e","ios":"levelo://app?vid=97bec432-e727-4dae-b57d-7ee4b46b281e"},"vehicle_type_id":"4","last_reported":1758298321,"current_range_meters":8800,"station_id":"ce4bhu92rcd13ifvqi70","pricing_plan_id":"cebpf4jnsgd1na2vs0mg"},{"bike_id":"efe6334a-0ebf-4be8-8941-b34ab0ebaf7c","system_id":"levelo_inurba_marseille","lat":43.30289,"lon":5.377101,"is_reserved":false,"is_disabled":false,"rental_uris":{"android":"levelo://app?vid=efe6334a-0ebf-4be8-8941-b34ab0ebaf7c","ios":"levelo://app?vid=efe6334a-0ebf-4be8-8941-b34ab0ebaf7c"},"vehicle_type_id":"4","last_reported":1758298321,"current_range_meters":9200,"station_id":"ce4bguh2rcd13ifvqcj0","pricing_plan_id":"cebpf4jnsgd1na2vs0mg"},{"bike_id":"e6f8489d-fe42-4015-a82c-b604c2c8b33e","system_id":"levelo_inurba_marseille","lat":43.29795,"lon":5.36682,"is_reserved":false,"is_disabled":false,"rental_uris":{"android":"levelo://app?vid=e6f8489d-fe42-4015-a82c-b604c2c8b33e","ios":"levelo://app?vid=e6f8489d-fe42-4015-a82c-b604c2c8b33e"},"vehicle_type_id":"4","last_reported":1758298321,"current_range_meters":9200,"station_id":"","pricing_plan_id":"cebpf4jnsgd1na2vs0mg"},{"bike_id":"cad97885-b582-49b2-8b83-0a6c3d079fc6","system_id":"levelo_inurba_marseille","lat":43.297018,"lon":5.365873,"is_reserved":false,"is_disabled":false,"rental_uris":{"android":"levelo://app?vid=cad97885-b582-49b2-8b83-0a6c3d079fc6","ios":"levelo://app?vid=cad97885-b582-49b2-8b83-0a6c3d079fc6"},"vehicle_type_id":"4","last_reported":1758298321,"current_range_meters":9600,"station_id":"ce4bgn12rcd13ifvqbt0","pricing_plan_id":"cebpf4jnsgd1na2vs0mg"},{"bike_id":"a4faa1fd-62ee-404a-aff8-b79ea6b6b5d2","system_id":"levelo_inurba_marseille","lat":43.32986,"lon":5.39245,"is_reserved":false,"is_disabled":false,"rental_uris":{"android":"levelo://app?vid=a4faa1fd-62ee-404a-aff8-b79ea6b6b5d2","ios":"levelo://app?vid=a4faa1fd-62ee-404a-aff8-b79ea6b6b5d2"},"vehicle_type_id":"4","last_reported":1758298321,"current_range_meters":9600,"station_id":"","pricing_plan_id":"cebpf4jnsgd1na2vs0mg"},{"bike_id":"41f43f3b-2dac-4e6b-80ac-153cc5828e10","system_id":"levelo_inurba_marseille","lat":43.27176,"lon":5.41002,"is_reserved":false,"is_disabled":false,"rental_uris":{"android":"levelo://app?vid=41f43f3b-2dac-4e6b-80ac-153cc5828e10","ios":"levelo://app?vid=41f43f3b-2dac-4e6b-80ac-153cc5828e10"},"vehicle_type_id":"4","last_reported":1758298321,"current_range_meters":9600,"station_id":"ce4bhl12rcd13ifvqgf0","pricing_plan_id":"cebpf4jnsgd1na2vs0mg"},{"bike_id":"c03db5d6-931c-41e0-bfa5-6550a106fb99","system_id":"levelo_inurba_marseille","lat":43.23294,"lon":5.36026,"is_reserved":false,"is_disabled":false,"rental_uris":{"android":"levelo://app?vid=c03db5d6-931c-41e0-bfa5-6550a106fb99","ios":"levelo://app?vid=c03db5d6-931c-41e0-bfa5-6550a106fb99"},"vehicle_type_id":"4","last_reported":1758298321,"current_range_meters":9600,"station_id":"","pricing_plan_id":"cebpf4jnsgd1na2vs0mg"},{"bike_id":"af9310be-6d8a-4c9b-a55a-ab0c2dafe976","system_id":"levelo_inurba_marseille","lat":43.299749,"lon":5.384804,"is_reserved":false,"is_disabled":false,"rental_uris":{"android":"levelo://app?vid=af9310be-6d8a-4c9b-a55a-ab0c2dafe976","ios":"levelo://app?vid=af9310be-6d8a-4c9b-a55a-ab0c2dafe976"},"vehicle_type_id":"4","last_reported":1758298321,"current_range_meters":9200,"station_id":"ce4bgj92rcd13ifvqbd0","pricing_plan_id":"cebpf4jnsgd1na2vs0mg"},{"bike_id":"148b429c-efca-4890-b5a2-3e91a0c7a44c","system_id":"levelo_inurba_marseille","lat":43.28423,"lon":5.34988,"is_reserved":false,"is_disabled":false,"rental_uris":{"android":"levelo://app?vid=148b429c-efca-4890-b5a2-3e91a0c7a44c","ios":"levelo://app?vid=148b429c-efca-4890-b5a2-3e91a0c7a44c"},"vehicle_type_id":"4","last_reported":1758298321,"current_range_meters":9600,"station_id":"ce4bhbh2rcd13ifvqepg","pricing_plan_id":"cebpf4jnsgd1na2vs0mg"},{"bike_id":"c33f49c9-1ef2-489b-af20-62e2ce64aaae","system_id":"levelo_inurba_marseille","lat":43.31887,"lon":5.40744,"is_reserved":false,"is_disabled":false,"rental_uris":{"android":"levelo://app?vid=c33f49c9-1ef2-489b-af20-62e2ce64aaae","ios":"levelo://app?vid=c33f49c9-1ef2-489b-af20-62e2ce64aaae"},"vehicle_type_id":"4","last_reported":1758298321,"current_range_meters":9600,"station_id":"ce4bhq12rcd13ifvqhig","pricing_plan_id":"cebpf4jnsgd1na2vs0mg"},{"bike_id":"156bdfcf-d73d-4ff7-8477-6f69f11dd626","system_id":"levelo_inurba_marseille","lat":43.26787,"lon":5.39415,"is_reserved":false,"is_disabled":false,"rental_uris":{"android":"levelo://app?vid=156bdfcf-d73d-4ff7-8477-6f69f11dd626","ios":"levelo://app?vid=156bdfcf-d73d-4ff7-8477-6f69f11dd626"},"vehicle_type_id":"4","last_reported":1758298321,"current_range_meters":10000,"station_id":"ce4bhh12rcd13ifvqfg0","pricing_plan_id":"cebpf4jnsgd1na2vs0mg"},{"bike_id":"e942f984-8fe7-48d1-8f04-3806656b9996","system_id":"levelo_inurba_marseille","lat":43.33617,"lon":5.37917,"is_reserved":false,"is_disabled":false,"rental_uris":{"android":"levelo://app?vid=e942f984-8fe7-48d1-8f04-3806656b9996","ios":"levelo://app?vid=e942f984-8fe7-48d1-8f04-3806656b9996"},"vehicle_type_id":"4","last_reported":1758298321,"current_range_meters":10000,"station_id":"","pricing_plan_id":"cebpf4jnsgd1na2vs0mg"},{"bike_id":"22f0687d-25d3-4094-9c4a-293a61e189a6","system_id":"levelo_inurba_marseille","lat":43.2463,"lon":5.39626,"is_reserved":false,"is_disabled":false,"rental_uris":{"android":"levelo://app?vid=22f0687d-25d3-4094-9c4a-293a61e189a6","ios":"levelo://app?vid=22f0687d-25d3-4094-9c4a-293a61e189a6"},"vehicle_type_id":"4","last_reported":1758298321,"current_range_meters":10000,"station_id":"","pricing_plan_id":"cebpf4jnsgd1na2vs0mg"},{"bike_id":"71cb23ee-ea55-49c2-b6d0-97238b45054c","system_id":"levelo_inurba_marseille","lat":43.3088,"lon":5.39656,"is_reserved":false,"is_disabled":false,"rental_uris":{"android":"levelo://app?vid=71cb23ee-ea55-49c2-b6d0-97238b45054c","ios":"levelo://app?vid=71cb23ee-ea55-49c2-b6d0-97238b45054c"},"vehicle_type_id":"4","last_reported":1758298321,"current_range_meters":10000,"station_id":"ce4bh012rcd13ifvqcv0","pricing_plan_id":"cebpf4jnsgd1na2vs0mg"},{"bike_id":"3e682cf4-5ea7-4563-9004-71435c031ec4","system_id":"levelo_inurba_marseille","lat":43.21192,"lon":5.35074,"is_reserved":false,"is_disabled":true,"rental_uris":{"android":"levelo://app?vid=3e682cf4-5ea7-4563-9004-71435c031ec4","ios":"levelo://app?vid=3e682cf4-5ea7-4563-9004-71435c031ec4"},"vehicle_type_id":"4","last_reported":1758298321,"current_range_meters":10800,"station_id":"st_cvj6sg6p6f1abm77japg","pricing_plan_id":"cebpf4jnsgd1na2vs0mg"},{"bike_id":"41e16db5-0a0f-4bf6-926e-4b73b5a2f1a1","system_id":"levelo_inurba_marseille","lat":43.30932,"lon":5.4014,"is_reserved":false,"is_disabled":false,"rental_uris":{"android":"levelo://app?vid=41e16db5-0a0f-4bf6-926e-4b73b5a2f1a1","ios":"levelo://app?vid=41e16db5-0a0f-4bf6-926e-4b73b5a2f1a1"},"vehicle_type_id":"4","last_reported":1758298321,"current_range_meters":10800,"station_id":"ce4bgvp2rcd13ifvqct0","pricing_plan_id":"cebpf4jnsgd1na2vs0mg"},{"bike_id":"c3897c00-e950-4044-8f08-e0b1f3ccd977","system_id":"levelo_inurba_marseille","lat":43.22932,"lon":5.35376,"is_reserved":false,"is_disabled":true,"rental_uris":{"android":"levelo://app?vid=c3897c00-e950-4044-8f08-e0b1f3ccd977","ios":"levelo://app?vid=c3897c00-e950-4044-8f08-e0b1f3ccd977"},"vehicle_type_id":"4","last_reported":1758298321,"current_range_meters":10800,"station_id":"cpo3532slgdg3j2ikp40","pricing_plan_id":"cebpf4jnsgd1na2vs0mg"},{"bike_id":"f28ef5e6-c58b-4487-8bde-1c74a1afc534","system_id":"levelo_inurba_marseille","lat":43.28994,"lon":5.35619,"is_reserved":false,"is_disabled":false,"rental_uris":{"android":"levelo://app?vid=f28ef5e6-c58b-4487-8bde-1c74a1afc534","ios":"levelo://app?vid=f28ef5e6-c58b-4487-8bde-1c74a1afc534"},"vehicle_type_id":"4","last_reported":1758298321,"current_range_meters":10800,"station_id":"ce4bhb92rcd13ifvqen0","pricing_plan_id":"cebpf4jnsgd1na2vs0mg"},{"bike_id":"0dfc2793-a791-4c6c-abdf-81639fc157eb","system_id":"levelo_inurba_marseille","lat":43.26032,"lon":5.37548,"is_reserved":false,"is_disabled":false,"rental_uris":{"android":"levelo://app?vid=0dfc2793-a791-4c6c-abdf-81639fc157eb","ios":"levelo://app?vid=0dfc2793-a791-4c6c-abdf-81639fc157eb"},"vehicle_type_id":"4","last_reported":1758298321,"current_range_meters":10800,"station_id":"ce4bhgh2rcd13ifvqfa0","pricing_plan_id":"cebpf4jnsgd1na2vs0mg"},{"bike_id":"af17bd5f-bc33-43ed-912f-6dc91604258a","system_id":"levelo_inurba_marseille","lat":43.28415,"lon":5.37526,"is_reserved":false,"is_disabled":false,"rental_uris":{"android":"levelo://app?vid=af17bd5f-bc33-43ed-912f-6dc91604258a","ios":"levelo://app?vid=af17bd5f-bc33-43ed-912f-6dc91604258a"},"vehicle_type_id":"4","last_reported":1758298321,"current_range_meters":10800,"station_id":"ce4bh412rcd13ifvqds0","pricing_plan_id":"cebpf4jnsgd1na2vs0mg"},{"bike_id":"05ca1f8d-77f4-47af-97ef-37340caf672c","system_id":"levelo_inurba_marseille","lat":43.23176,"lon":5.35574,"is_reserved":false,"is_disabled":false,"rental_uris":{"android":"levelo://app?vid=05ca1f8d-77f4-47af-97ef-37340caf672c","ios":"levelo://app?vid=05ca1f8d-77f4-47af-97ef-37340caf672c"},"vehicle_type_id":"4","last_reported":1758298321,"current_range_meters":11200,"station_id":"ce4bhu92rcd13ifvqi70","pricing_plan_id":"cebpf4jnsgd1na2vs0mg"},{"bike_id":"95a62c10-7ca9-4348-809a-c3089ad076d3","system_id":"levelo_inurba_marseille","lat":43.29906,"lon":5.3977,"is_reserved":false,"is_disabled":true,"rental_uris":{"android":"levelo://app?vid=95a62c10-7ca9-4348-809a-c3089ad076d3","ios":"levelo://app?vid=95a62c10-7ca9-4348-809a-c3089ad076d3"},"vehicle_type_id":"4","last_reported":1758298321,"current_range_meters":11200,"station_id":"","pricing_plan_id":"cebpf4jnsgd1na2vs0mg"},{"bike_id":"2cf77ffd-8de9-4e12-b762-f555e7e11696","system_id":"levelo_inurba_marseille","lat":43.28089,"lon":5.39665,"is_reserved":false,"is_disabled":false,"rental_uris":{"android":"levelo://app?vid=2cf77ffd-8de9-4e12-b762-f555e7e11696","ios":"levelo://app?vid=2cf77ffd-8de9-4e12-b762-f555e7e11696"},"vehicle_type_id":"4","last_reported":1758298321,"current_range_meters":11200,"station_id":"ce4bho12rcd13ifvqh2g","pricing_plan_id":"cebpf4jnsgd1na2vs0mg"},{"bike_id":"f9418cc9-c64d-43d9-9060-3aeedd69cdee","system_id":"levelo_inurba_marseille","lat":43.33082,"lon":5.37852,"is_reserved":false,"is_disabled":false,"rental_uris":{"android":"levelo://app?vid=f9418cc9-c64d-43d9-9060-3aeedd69cdee","ios":"levelo://app?vid=f9418cc9-c64d-43d9-9060-3aeedd69cdee"},"vehicle_type_id":"4","last_reported":1758298321,"current_range_meters":11200,"station_id":"","pricing_plan_id":"cebpf4jnsgd1na2vs0mg"},{"bike_id":"8adb4681-0dd4-4226-b213-31fe660d556e","system_id":"levelo_inurba_marseille","lat":43.29898,"lon":5.43676,"is_reserved":false,"is_disabled":false,"rental_uris":{"android":"levelo://app?vid=8adb4681-0dd4-4226-b213-31fe660d556e","ios":"levelo://app?vid=8adb4681-0dd4-4226-b213-31fe660d556e"},"vehicle_type_id":"4","last_reported":1758298321,"current_range_meters":11200,"station_id":"ce4bhpp2rcd13ifvqhfg","pricing_plan_id":"cebpf4jnsgd1na2vs0mg"},{"bike_id":"cc48539f-3363-44f7-9041-3eea5291a9db","system_id":"levelo_inurba_marseille","lat":43.21183,"lon":5.35076,"is_reserved":false,"is_disabled":true,"rental_uris":{"android":"levelo://app?vid=cc48539f-3363-44f7-9041-3eea5291a9db","ios":"levelo://app?vid=cc48539f-3363-44f7-9041-3eea5291a9db"},"vehicle_type_id":"4","last_reported":1758298321,"current_range_meters":11200,"station_id":"st_cvj6sg6p6f1abm77japg","pricing_plan_id":"cebpf4jnsgd1na2vs0mg"},{"bike_id":"b84790f2-d37c-4d0d-ab0f-96c860398dc5","system_id":"levelo_inurba_marseille","lat":43.28575,"lon":5.395,"is_reserved":false,"is_disabled":false,"rental_uris":{"android":"levelo://app?vid=b84790f2-d37c-4d0d-ab0f-96c860398dc5","ios":"levelo://app?vid=b84790f2-d37c-4d0d-ab0f-96c860398dc5"},"vehicle_type_id":"4","last_reported":1758298321,"current_range_meters":11600,"station_id":"ce4bh292rcd13ifvqdg0","pricing_plan_id":"cebpf4jnsgd1na2vs0mg"},{"bike_id":"d5928ddf-0267-4868-95a5-2257412c56f7","system_id":"levelo_inurba_marseille","lat":43.28612,"lon":5.35101,"is_reserved":false,"is_disabled":false,"rental_uris":{"android":"levelo://app?vid=d5928ddf-0267-4868-95a5-2257412c56f7","ios":"levelo://app?vid=d5928ddf-0267-4868-95a5-2257412c56f7"},"vehicle_type_id":"4","last_reported":1758298321,"current_range_meters":11600,"station_id":"ce4bhch2rcd13ifvqeug","pricing_plan_id":"cebpf4jnsgd1na2vs0mg"},{"bike_id":"fb78ea42-e26f-45b3-a617-d3474b811b72","system_id":"levelo_inurba_marseille","lat":43.29898,"lon":5.37908,"is_reserved":false,"is_disabled":false,"rental_uris":{"android":"levelo://app?vid=fb78ea42-e26f-45b3-a617-d3474b811b72","ios":"levelo://app?vid=fb78ea42-e26f-45b3-a617-d3474b811b72"},"vehicle_type_id":"4","last_reported":1758298321,"current_range_meters":11600,"station_id":"","pricing_plan_id":"cebpf4jnsgd1na2vs0mg"},{"bike_id":"49283ac9-2dd2-4b52-a48d-103791ef37df","system_id":"levelo_inurba_marseille","lat":43.27072,"lon":5.42283,"is_reserved":false,"is_disabled":false,"rental_uris":{"android":"levelo://app?vid=49283ac9-2dd2-4b52-a48d-103791ef37df","ios":"levelo://app?vid=49283ac9-2dd2-4b52-a48d-103791ef37df"},"vehicle_type_id":"4","last_reported":1758298321,"current_range_meters":11600,"station_id":"ce4bhk92rcd13ifvqgb0","pricing_plan_id":"cebpf4jnsgd1na2vs0mg"},{"bike_id":"bb0131bb-8e30-427c-b453-ac2ef32d82ca","system_id":"levelo_inurba_marseille","lat":43.31997,"lon":5.3816,"is_reserved":false,"is_disabled":false,"rental_uris":{"android":"levelo://app?vid=bb0131bb-8e30-427c-b453-ac2ef32d82ca","ios":"levelo://app?vid=bb0131bb-8e30-427c-b453-ac2ef32d82ca"},"vehicle_type_id":"4","last_reported":1758298321,"current_range_meters":11600,"station_id":"ce4bhr12rcd13ifvqhpg","pricing_plan_id":"cebpf4jnsgd1na2vs0mg"},{"bike_id":"129693f1-bec1-405c-a566-241911c46a01","system_id":"levelo_inurba_marseille","lat":43.27982,"lon":5.36529,"is_reserved":false,"is_disabled":false,"rental_uris":{"android":"levelo://app?vid=129693f1-bec1-405c-a566-241911c46a01","ios":"levelo://app?vid=129693f1-bec1-405c-a566-241911c46a01"},"vehicle_type_id":"4","last_reported":1758298321,"current_range_meters":11600,"station_id":"","pricing_plan_id":"cebpf4jnsgd1na2vs0mg"},{"bike_id":"1bb1c0fb-825b-48e0-a4d0-b86ad6b4f3ef","system_id":"levelo_inurba_marseille","lat":43.26027,"lon":5.3755,"is_reserved":false,"is_disabled":false,"rental_uris":{"android":"levelo://app?vid=1bb1c0fb-825b-48e0-a4d0-b86ad6b4f3ef","ios":"levelo://app?vid=1bb1c0fb-825b-48e0-a4d0-b86ad6b4f3ef"},"vehicle_type_id":"4","last_reported":1758298321,"current_range_meters":11600,"station_id":"ce4bhgh2rcd13ifvqfa0","pricing_plan_id":"cebpf4jnsgd1na2vs0mg"},{"bike_id":"c627b34a-8e81-4438-af3b-4fd0aab1c160","system_id":"levelo_inurba_marseille","lat":43.29591,"lon":5.36054,"is_reserved":false,"is_disabled":false,"rental_uris":{"android":"levelo://app?vid=c627b34a-8e81-4438-af3b-4fd0aab1c160","ios":"levelo://app?vid=c627b34a-8e81-4438-af3b-4fd0aab1c160"},"vehicle_type_id":"4","last_reported":1758298321,"current_range_meters":11600,"station_id":"","pricing_plan_id":"cebpf4jnsgd1na2vs0mg"},{"bike_id":"cddee078-3b31-4c10-a6ed-97ab38be1d2f","system_id":"levelo_inurba_marseille","lat":43.3126,"lon":5.40172,"is_reserved":false,"is_disabled":false,"rental_uris":{"android":"levelo://app?vid=cddee078-3b31-4c10-a6ed-97ab38be1d2f","ios":"levelo://app?vid=cddee078-3b31-4c10-a6ed-97ab38be1d2f"},"vehicle_type_id":"4","last_reported":1758298321,"current_range_meters":11600,"station_id":"ce4bh092rcd13ifvqd30","pricing_plan_id":"cebpf4jnsgd1na2vs0mg"},{"bike_id":"0dcf0249-ce0b-424f-bcf0-34d556c01cf0","system_id":"levelo_inurba_marseille","lat":43.26028,"lon":5.37551,"is_reserved":false,"is_disabled":false,"rental_uris":{"android":"levelo://app?vid=0dcf0249-ce0b-424f-bcf0-34d556c01cf0","ios":"levelo://app?vid=0dcf0249-ce0b-424f-bcf0-34d556c01cf0"},"vehicle_type_id":"4","last_reported":1758298321,"current_range_meters":11600,"station_id":"ce4bhgh2rcd13ifvqfa0","pricing_plan_id":"cebpf4jnsgd1na2vs0mg"},{"bike_id":"74af45e8-68ad-402d-9309-9c11252e3c46","system_id":"levelo_inurba_marseille","lat":43.25484,"lon":5.37661,"is_reserved":false,"is_disabled":false,"rental_uris":{"android":"levelo://app?vid=74af45e8-68ad-402d-9309-9c11252e3c46","ios":"levelo://app?vid=74af45e8-68ad-402d-9309-9c11252e3c46"},"vehicle_type_id":"4","last_reported":1758298321,"current_range_meters":12000,"station_id":"ce4bhh12rcd13ifvqff0","pricing_plan_id":"cebpf4jnsgd1na2vs0mg"},{"bike_id":"039a64f5-6a93-4dd3-bbc4-b253600b71e6","system_id":"levelo_inurba_marseille","lat":43.2293,"lon":5.35377,"is_reserved":false,"is_disabled":false,"rental_uris":{"android":"levelo://app?vid=039a64f5-6a93-4dd3-bbc4-b253600b71e6","ios":"levelo://app?vid=039a64f5-6a93-4dd3-bbc4-b253600b71e6"},"vehicle_type_id":"4","last_reported":1758298321,"current_range_meters":12000,"station_id":"cpo3532slgdg3j2ikp40","pricing_plan_id":"cebpf4jnsgd1na2vs0mg"},{"bike_id":"c944c002-80c2-4ce0-afa9-3028cddd7005","system_id":"levelo_inurba_marseille","lat":43.31076,"lon":5.42434,"is_reserved":false,"is_disabled":false,"rental_uris":{"android":"levelo://app?vid=c944c002-80c2-4ce0-afa9-3028cddd7005","ios":"levelo://app?vid=c944c002-80c2-4ce0-afa9-3028cddd7005"},"vehicle_type_id":"4","last_reported":1758298321,"current_range_meters":12400,"station_id":"ce4bhp92rcd13ifvqhag","pricing_plan_id":"cebpf4jnsgd1na2vs0mg"},{"bike_id":"9b9f6315-958e-4e43-8771-5ee5f050185e","system_id":"levelo_inurba_marseille","lat":43.2481,"lon":5.3746,"is_reserved":false,"is_disabled":true,"rental_uris":{"android":"levelo://app?vid=9b9f6315-958e-4e43-8771-5ee5f050185e","ios":"levelo://app?vid=9b9f6315-958e-4e43-8771-5ee5f050185e"},"vehicle_type_id":"4","last_reported":1758298321,"current_range_meters":12400,"station_id":"ce4bhgh2rcd13ifvqfb0","pricing_plan_id":"cebpf4jnsgd1na2vs0mg"},{"bike_id":"af3a9b08-acb0-4398-b9c1-4d14de384455","system_id":"levelo_inurba_marseille","lat":43.24162,"lon":5.36409,"is_reserved":false,"is_disabled":false,"rental_uris":{"android":"levelo://app?vid=af3a9b08-acb0-4398-b9c1-4d14de384455","ios":"levelo://app?vid=af3a9b08-acb0-4398-b9c1-4d14de384455"},"vehicle_type_id":"4","last_reported":1758298321,"current_range_meters":12400,"station_id":"cpo36qri1sfpv3e86is0","pricing_plan_id":"cebpf4jnsgd1na2vs0mg"},{"bike_id":"bf6e6d27-c09e-4725-9fbc-20073fd5a515","system_id":"levelo_inurba_marseille","lat":43.289376,"lon":5.396214,"is_reserved":false,"is_disabled":false,"rental_uris":{"android":"levelo://app?vid=bf6e6d27-c09e-4725-9fbc-20073fd5a515","ios":"levelo://app?vid=bf6e6d27-c09e-4725-9fbc-20073fd5a515"},"vehicle_type_id":"4","last_reported":1758298321,"current_range_meters":12400,"station_id":"","pricing_plan_id":"cebpf4jnsgd1na2vs0mg"},{"bike_id":"0960e3dd-c358-4474-bd10-8223758e1f6b","system_id":"levelo_inurba_marseille","lat":43.296996,"lon":5.376855,"is_reserved":false,"is_disabled":false,"rental_uris":{"android":"levelo://app?vid=0960e3dd-c358-4474-bd10-8223758e1f6b","ios":"levelo://app?vid=0960e3dd-c358-4474-bd10-8223758e1f6b"},"vehicle_type_id":"4","last_reported":1758298321,"current_range_meters":12400,"station_id":"","pricing_plan_id":"cebpf4jnsgd1na2vs0mg"},{"bike_id":"ab5ce061-1e72-42f1-9909-279a87455997","system_id":"levelo_inurba_marseille","lat":43.25588,"lon":5.38233,"is_reserved":false,"is_disabled":false,"rental_uris":{"android":"levelo://app?vid=ab5ce061-1e72-42f1-9909-279a87455997","ios":"levelo://app?vid=ab5ce061-1e72-42f1-9909-279a87455997"},"vehicle_type_id":"4","last_reported":1758298321,"current_range_meters":12400,"station_id":"ce4bhih2rcd13ifvqfs0","pricing_plan_id":"cebpf4jnsgd1na2vs0mg"},{"bike_id":"acf7c173-9f43-4dee-b318-f1cf65dd7004","system_id":"levelo_inurba_marseille","lat":43.29092,"lon":5.38111,"is_reserved":false,"is_disabled":false,"rental_uris":{"android":"levelo://app?vid=acf7c173-9f43-4dee-b318-f1cf65dd7004","ios":"levelo://app?vid=acf7c173-9f43-4dee-b318-f1cf65dd7004"},"vehicle_type_id":"4","last_reported":1758298321,"current_range_meters":12400,"station_id":"ce4bh512rcd13ifvqe2g","pricing_plan_id":"cebpf4jnsgd1na2vs0mg"},{"bike_id":"d903c3d1-61dd-45f7-b748-3a7ff47b4cc7","system_id":"levelo_inurba_marseille","lat":43.24806,"lon":5.3746,"is_reserved":false,"is_disabled":false,"rental_uris":{"android":"levelo://app?vid=d903c3d1-61dd-45f7-b748-3a7ff47b4cc7","ios":"levelo://app?vid=d903c3d1-61dd-45f7-b748-3a7ff47b4cc7"},"vehicle_type_id":"4","last_reported":1758298321,"current_range_meters":12800,"station_id":"ce4bhgh2rcd13ifvqfb0","pricing_plan_id":"cebpf4jnsgd1na2vs0mg"},{"bike_id":"15fabd94-0607-409f-b21c-8ca6489d37f7","system_id":"levelo_inurba_marseille","lat":43.23193,"lon":5.35555,"is_reserved":false,"is_disabled":false,"rental_uris":{"android":"levelo://app?vid=15fabd94-0607-409f-b21c-8ca6489d37f7","ios":"levelo://app?vid=15fabd94-0607-409f-b21c-8ca6489d37f7"},"vehicle_type_id":"4","last_reported":1758298321,"current_range_meters":12800,"station_id":"ce4bhu92rcd13ifvqi70","pricing_plan_id":"cebpf4jnsgd1na2vs0mg"},{"bike_id":"429859ec-8929-40d9-a925-c2532f773680","system_id":"levelo_inurba_marseille","lat":43.290185,"lon":5.356189,"is_reserved":false,"is_disabled":false,"rental_uris":{"android":"levelo://app?vid=429859ec-8929-40d9-a925-c2532f773680","ios":"levelo://app?vid=429859ec-8929-40d9-a925-c2532f773680"},"vehicle_type_id":"4","last_reported":1758298321,"current_range_meters":12800,"station_id":"ce4bhb92rcd13ifvqen0","pricing_plan_id":"cebpf4jnsgd1na2vs0mg"},{"bike_id":"efa265dd-5c03-4f9b-bd02-9d7c45ef22aa","system_id":"levelo_inurba_marseille","lat":43.299653,"lon":5.385049,"is_reserved":false,"is_disabled":false,"rental_uris":{"android":"levelo://app?vid=efa265dd-5c03-4f9b-bd02-9d7c45ef22aa","ios":"levelo://app?vid=efa265dd-5c03-4f9b-bd02-9d7c45ef22aa"},"vehicle_type_id":"4","last_reported":1758298321,"current_range_meters":12800,"station_id":"ce4bgt12rcd13ifvqce0","pricing_plan_id":"cebpf4jnsgd1na2vs0mg"},{"bike_id":"28cd6176-5fce-489e-a8d4-781d0b69f5d8","system_id":"levelo_inurba_marseille","lat":43.28401,"lon":5.35,"is_reserved":false,"is_disabled":false,"rental_uris":{"android":"levelo://app?vid=28cd6176-5fce-489e-a8d4-781d0b69f5d8","ios":"levelo://app?vid=28cd6176-5fce-489e-a8d4-781d0b69f5d8"},"vehicle_type_id":"4","last_reported":1758298321,"current_range_meters":12800,"station_id":"ce4bhbh2rcd13ifvqepg","pricing_plan_id":"cebpf4jnsgd1na2vs0mg"},{"bike_id":"4e5c2e97-6c61-4332-9672-f5a53881b0d1","system_id":"levelo_inurba_marseille","lat":43.28469,"lon":5.35883,"is_reserved":false,"is_disabled":false,"rental_uris":{"android":"levelo://app?vid=4e5c2e97-6c61-4332-9672-f5a53881b0d1","ios":"levelo://app?vid=4e5c2e97-6c61-4332-9672-f5a53881b0d1"},"vehicle_type_id":"4","last_reported":1758298321,"current_range_meters":13600,"station_id":"ce4bhah2rcd13ifvqei0","pricing_plan_id":"cebpf4jnsgd1na2vs0mg"},{"bike_id":"f8c0bbc1-8615-4475-b6ab-c661064c1be4","system_id":"levelo_inurba_marseille","lat":43.28268,"lon":5.35079,"is_reserved":false,"is_disabled":false,"rental_uris":{"android":"levelo://app?vid=f8c0bbc1-8615-4475-b6ab-c661064c1be4","ios":"levelo://app?vid=f8c0bbc1-8615-4475-b6ab-c661064c1be4"},"vehicle_type_id":"4","last_reported":1758298321,"current_range_meters":13600,"station_id":"ce4bhbp2rcd13ifvqerg","pricing_plan_id":"cebpf4jnsgd1na2vs0mg"},{"bike_id":"6dc49f8f-31b8-485c-b489-e3fd253e6676","system_id":"levelo_inurba_marseille","lat":43.333009,"lon":5.410255,"is_reserved":false,"is_disabled":true,"rental_uris":{"android":"levelo://app?vid=6dc49f8f-31b8-485c-b489-e3fd253e6676","ios":"levelo://app?vid=6dc49f8f-31b8-485c-b489-e3fd253e6676"},"vehicle_type_id":"4","last_reported":1758298321,"current_range_meters":13600,"station_id":"","pricing_plan_id":"cebpf4jnsgd1na2vs0mg"},{"bike_id":"ba73a0c5-b454-41bf-8048-e7c16024e13b","system_id":"levelo_inurba_marseille","lat":43.24173,"lon":5.364,"is_reserved":false,"is_disabled":false,"rental_uris":{"android":"levelo://app?vid=ba73a0c5-b454-41bf-8048-e7c16024e13b","ios":"levelo://app?vid=ba73a0c5-b454-41bf-8048-e7c16024e13b"},"vehicle_type_id":"4","last_reported":1758298321,"current_range_meters":13600,"station_id":"cpo36qri1sfpv3e86is0","pricing_plan_id":"cebpf4jnsgd1na2vs0mg"},{"bike_id":"2d451c7b-cc83-474c-b2f4-9e5abfc44532","system_id":"levelo_inurba_marseille","lat":43.28271,"lon":5.35071,"is_reserved":false,"is_disabled":false,"rental_uris":{"android":"levelo://app?vid=2d451c7b-cc83-474c-b2f4-9e5abfc44532","ios":"levelo://app?vid=2d451c7b-cc83-474c-b2f4-9e5abfc44532"},"vehicle_type_id":"4","last_reported":1758298321,"current_range_meters":13600,"station_id":"ce4bhbp2rcd13ifvqerg","pricing_plan_id":"cebpf4jnsgd1na2vs0mg"},{"bike_id":"e003d13a-a726-430a-9c80-86456f122d19","system_id":"levelo_inurba_marseille","lat":43.2439,"lon":5.37063,"is_reserved":false,"is_disabled":false,"rental_uris":{"android":"levelo://app?vid=e003d13a-a726-430a-9c80-86456f122d19","ios":"levelo://app?vid=e003d13a-a726-430a-9c80-86456f122d19"},"vehicle_type_id":"4","last_reported":1758298321,"current_range_meters":13600,"station_id":"ce4bhhh2rcd13ifvqfk0","pricing_plan_id":"cebpf4jnsgd1na2vs0mg"},{"bike_id":"39f2ef3b-6cc3-4d82-bad0-e8366b3330f4","system_id":"levelo_inurba_marseille","lat":43.28253,"lon":5.35083,"is_reserved":false,"is_disabled":false,"rental_uris":{"android":"levelo://app?vid=39f2ef3b-6cc3-4d82-bad0-e8366b3330f4","ios":"levelo://app?vid=39f2ef3b-6cc3-4d82-bad0-e8366b3330f4"},"vehicle_type_id":"4","last_reported":1758298321,"current_range_meters":13600,"station_id":"ce4bhbp2rcd13ifvqerg","pricing_plan_id":"cebpf4jnsgd1na2vs0mg"},{"bike_id":"67eb8721-b3b8-4086-9ffc-60ca7e1b0555","system_id":"levelo_inurba_marseille","lat":43.28411,"lon":5.3499,"is_reserved":false,"is_disabled":false,"rental_uris":{"android":"levelo://app?vid=67eb8721-b3b8-4086-9ffc-60ca7e1b0555","ios":"levelo://app?vid=67eb8721-b3b8-4086-9ffc-60ca7e1b0555"},"vehicle_type_id":"4","last_reported":1758298321,"current_range_meters":13600,"station_id":"ce4bhbh2rcd13ifvqepg","pricing_plan_id":"cebpf4jnsgd1na2vs0mg"},{"bike_id":"931664d9-a1f9-4b23-9426-5b3082bf7d09","system_id":"levelo_inurba_marseille","lat":43.30929,"lon":5.40129,"is_reserved":false,"is_disabled":true,"rental_uris":{"android":"levelo://app?vid=931664d9-a1f9-4b23-9426-5b3082bf7d09","ios":"levelo://app?vid=931664d9-a1f9-4b23-9426-5b3082bf7d09"},"vehicle_type_id":"4","last_reported":1758298321,"current_range_meters":14000,"station_id":"ce4bgvp2rcd13ifvqct0","pricing_plan_id":"cebpf4jnsgd1na2vs0mg"},{"bike_id":"e0fa618d-316c-40f0-84a4-361066b627a3","system_id":"levelo_inurba_marseille","lat":43.21746,"lon":5.34603,"is_reserved":false,"is_disabled":true,"rental_uris":{"android":"levelo://app?vid=e0fa618d-316c-40f0-84a4-361066b627a3","ios":"levelo://app?vid=e0fa618d-316c-40f0-84a4-361066b627a3"},"vehicle_type_id":"4","last_reported":1758298321,"current_range_meters":14000,"station_id":"st_cvj6r9ubvosntc0bgbag","pricing_plan_id":"cebpf4jnsgd1na2vs0mg"},{"bike_id":"8567d325-283f-47be-9365-0684ef6b2f04","system_id":"levelo_inurba_marseille","lat":43.24806,"lon":5.37455,"is_reserved":false,"is_disabled":false,"rental_uris":{"android":"levelo://app?vid=8567d325-283f-47be-9365-0684ef6b2f04","ios":"levelo://app?vid=8567d325-283f-47be-9365-0684ef6b2f04"},"vehicle_type_id":"4","last_reported":1758298321,"current_range_meters":14000,"station_id":"ce4bhgh2rcd13ifvqfb0","pricing_plan_id":"cebpf4jnsgd1na2vs0mg"},{"bike_id":"898c5cd2-4e4c-4a8d-9b64-81976758fc9a","system_id":"levelo_inurba_marseille","lat":43.28041,"lon":5.36944,"is_reserved":false,"is_disabled":false,"rental_uris":{"android":"levelo://app?vid=898c5cd2-4e4c-4a8d-9b64-81976758fc9a","ios":"levelo://app?vid=898c5cd2-4e4c-4a8d-9b64-81976758fc9a"},"vehicle_type_id":"4","last_reported":1758298321,"current_range_meters":14000,"station_id":"ce4bha12rcd13ifvqef0","pricing_plan_id":"cebpf4jnsgd1na2vs0mg"},{"bike_id":"9c0693b2-33f4-40d9-85fa-754a770a9d54","system_id":"levelo_inurba_marseille","lat":43.295188,"lon":5.390328,"is_reserved":false,"is_disabled":false,"rental_uris":{"android":"levelo://app?vid=9c0693b2-33f4-40d9-85fa-754a770a9d54","ios":"levelo://app?vid=9c0693b2-33f4-40d9-85fa-754a770a9d54"},"vehicle_type_id":"4","last_reported":1758298321,"current_range_meters":14000,"station_id":"ce4bh312rcd13ifvqdj0","pricing_plan_id":"cebpf4jnsgd1na2vs0mg"},{"bike_id":"14b96fb6-92a9-424e-8cc0-471c8607efcf","system_id":"levelo_inurba_marseille","lat":43.28275,"lon":5.35067,"is_reserved":false,"is_disabled":false,"rental_uris":{"android":"levelo://app?vid=14b96fb6-92a9-424e-8cc0-471c8607efcf","ios":"levelo://app?vid=14b96fb6-92a9-424e-8cc0-471c8607efcf"},"vehicle_type_id":"4","last_reported":1758298321,"current_range_meters":14400,"station_id":"ce4bhbp2rcd13ifvqerg","pricing_plan_id":"cebpf4jnsgd1na2vs0mg"},{"bike_id":"3f5e9678-cbd7-42e0-a9d9-d6426f396cb1","system_id":"levelo_inurba_marseille","lat":43.28451,"lon":5.35882,"is_reserved":false,"is_disabled":false,"rental_uris":{"android":"levelo://app?vid=3f5e9678-cbd7-42e0-a9d9-d6426f396cb1","ios":"levelo://app?vid=3f5e9678-cbd7-42e0-a9d9-d6426f396cb1"},"vehicle_type_id":"4","last_reported":1758298321,"current_range_meters":14400,"station_id":"ce4bhah2rcd13ifvqei0","pricing_plan_id":"cebpf4jnsgd1na2vs0mg"},{"bike_id":"ae82ef14-958e-42fb-9056-adf28084632d","system_id":"levelo_inurba_marseille","lat":43.2841,"lon":5.34987,"is_reserved":false,"is_disabled":false,"rental_uris":{"android":"levelo://app?vid=ae82ef14-958e-42fb-9056-adf28084632d","ios":"levelo://app?vid=ae82ef14-958e-42fb-9056-adf28084632d"},"vehicle_type_id":"4","last_reported":1758298321,"current_range_meters":14400,"station_id":"ce4bhbh2rcd13ifvqepg","pricing_plan_id":"cebpf4jnsgd1na2vs0mg"},{"bike_id":"518eef5b-9e3c-4b06-94a9-56e70af9d262","system_id":"levelo_inurba_marseille","lat":43.30813,"lon":5.38126,"is_reserved":false,"is_disabled":true,"rental_uris":{"android":"levelo://app?vid=518eef5b-9e3c-4b06-94a9-56e70af9d262","ios":"levelo://app?vid=518eef5b-9e3c-4b06-94a9-56e70af9d262"},"vehicle_type_id":"4","last_reported":1758298321,"current_range_meters":14400,"station_id":"ce4bgt12rcd13ifvqce0","pricing_plan_id":"cebpf4jnsgd1na2vs0mg"},{"bike_id":"f85a8c4d-f9d0-4136-9b57-8bfb28db950c","system_id":"levelo_inurba_marseille","lat":43.31894,"lon":5.37427,"is_reserved":false,"is_disabled":false,"rental_uris":{"android":"levelo://app?vid=f85a8c4d-f9d0-4136-9b57-8bfb28db950c","ios":"levelo://app?vid=f85a8c4d-f9d0-4136-9b57-8bfb28db950c"},"vehicle_type_id":"4","last_reported":1758298321,"current_range_meters":14800,"station_id":"","pricing_plan_id":"cebpf4jnsgd1na2vs0mg"},{"bike_id":"15056272-9948-4fb8-8a3f-0dce85d9f376","system_id":"levelo_inurba_marseille","lat":43.27825,"lon":5.39199,"is_reserved":false,"is_disabled":true,"rental_uris":{"android":"levelo://app?vid=15056272-9948-4fb8-8a3f-0dce85d9f376","ios":"levelo://app?vid=15056272-9948-4fb8-8a3f-0dce85d9f376"},"vehicle_type_id":"4","last_reported":1758298321,"current_range_meters":14800,"station_id":"ce4bhjp2rcd13ifvqga0","pricing_plan_id":"cebpf4jnsgd1na2vs0mg"},{"bike_id":"f650b0a3-b3f6-43de-942b-37eeeb269151","system_id":"levelo_inurba_marseille","lat":43.282618,"lon":5.350895,"is_reserved":false,"is_disabled":false,"rental_uris":{"android":"levelo://app?vid=f650b0a3-b3f6-43de-942b-37eeeb269151","ios":"levelo://app?vid=f650b0a3-b3f6-43de-942b-37eeeb269151"},"vehicle_type_id":"4","last_reported":1758298321,"current_range_meters":14800,"station_id":"ce4bhbp2rcd13ifvqerg","pricing_plan_id":"cebpf4jnsgd1na2vs0mg"},{"bike_id":"673db122-6da2-4392-b249-aa2716c67b63","system_id":"levelo_inurba_marseille","lat":43.28406,"lon":5.34987,"is_reserved":false,"is_disabled":false,"rental_uris":{"android":"levelo://app?vid=673db122-6da2-4392-b249-aa2716c67b63","ios":"levelo://app?vid=673db122-6da2-4392-b249-aa2716c67b63"},"vehicle_type_id":"4","last_reported":1758298321,"current_range_meters":14800,"station_id":"ce4bhbh2rcd13ifvqepg","pricing_plan_id":"cebpf4jnsgd1na2vs0mg"},{"bike_id":"f398f244-1247-4018-b40f-ccfc5e158d32","system_id":"levelo_inurba_marseille","lat":43.295564,"lon":5.422917,"is_reserved":false,"is_disabled":false,"rental_uris":{"android":"levelo://app?vid=f398f244-1247-4018-b40f-ccfc5e158d32","ios":"levelo://app?vid=f398f244-1247-4018-b40f-ccfc5e158d32"},"vehicle_type_id":"4","last_reported":1758298321,"current_range_meters":14400,"station_id":"ce4bhph2rcd13ifvqhdg","pricing_plan_id":"cebpf4jnsgd1na2vs0mg"},{"bike_id":"291b4e3e-56d6-44b9-8d7c-6ba733401415","system_id":"levelo_inurba_marseille","lat":43.24166,"lon":5.36391,"is_reserved":false,"is_disabled":false,"rental_uris":{"android":"levelo://app?vid=291b4e3e-56d6-44b9-8d7c-6ba733401415","ios":"levelo://app?vid=291b4e3e-56d6-44b9-8d7c-6ba733401415"},"vehicle_type_id":"4","last_reported":1758298321,"current_range_meters":14800,"station_id":"cpo36qri1sfpv3e86is0","pricing_plan_id":"cebpf4jnsgd1na2vs0mg"},{"bike_id":"438ead59-de14-4fa0-a61d-03a70a4122ae","system_id":"levelo_inurba_marseille","lat":43.9728,"lon":4.89136,"is_reserved":false,"is_disabled":true,"rental_uris":{"android":"levelo://app?vid=438ead59-de14-4fa0-a61d-03a70a4122ae","ios":"levelo://app?vid=438ead59-de14-4fa0-a61d-03a70a4122ae"},"vehicle_type_id":"4","last_reported":1758298321,"current_range_meters":14800,"station_id":"","pricing_plan_id":"cebpf4jnsgd1na2vs0mg"},{"bike_id":"9c0f2481-0a64-4644-b565-d9a7928dbf2e","system_id":"levelo_inurba_marseille","lat":43.28274,"lon":5.35063,"is_reserved":false,"is_disabled":false,"rental_uris":{"android":"levelo://app?vid=9c0f2481-0a64-4644-b565-d9a7928dbf2e","ios":"levelo://app?vid=9c0f2481-0a64-4644-b565-d9a7928dbf2e"},"vehicle_type_id":"4","last_reported":1758298321,"current_range_meters":14800,"station_id":"ce4bhbp2rcd13ifvqerg","pricing_plan_id":"cebpf4jnsgd1na2vs0mg"},{"bike_id":"1b5ea510-769f-469a-9456-e945a5c66079","system_id":"levelo_inurba_marseille","lat":43.31758,"lon":5.39019,"is_reserved":false,"is_disabled":false,"rental_uris":{"android":"levelo://app?vid=1b5ea510-769f-469a-9456-e945a5c66079","ios":"levelo://app?vid=1b5ea510-769f-469a-9456-e945a5c66079"},"vehicle_type_id":"4","last_reported":1758298321,"current_range_meters":14800,"station_id":"ce4bhqp2rcd13ifvqhng","pricing_plan_id":"cebpf4jnsgd1na2vs0mg"},{"bike_id":"0a91236f-3a15-4b6d-a509-a1195dbb4ab4","system_id":"levelo_inurba_marseille","lat":43.29094,"lon":5.38129,"is_reserved":false,"is_disabled":false,"rental_uris":{"android":"levelo://app?vid=0a91236f-3a15-4b6d-a509-a1195dbb4ab4","ios":"levelo://app?vid=0a91236f-3a15-4b6d-a509-a1195dbb4ab4"},"vehicle_type_id":"4","last_reported":1758298321,"current_range_meters":15200,"station_id":"ce4bh512rcd13ifvqe2g","pricing_plan_id":"cebpf4jnsgd1na2vs0mg"},{"bike_id":"0e84bab3-811d-41d9-a3ac-b1d35251d7b6","system_id":"levelo_inurba_marseille","lat":43.28402,"lon":5.34997,"is_reserved":false,"is_disabled":false,"rental_uris":{"android":"levelo://app?vid=0e84bab3-811d-41d9-a3ac-b1d35251d7b6","ios":"levelo://app?vid=0e84bab3-811d-41d9-a3ac-b1d35251d7b6"},"vehicle_type_id":"4","last_reported":1758298321,"current_range_meters":15200,"station_id":"ce4bhbh2rcd13ifvqepg","pricing_plan_id":"cebpf4jnsgd1na2vs0mg"},{"bike_id":"f8a8d198-a51f-4253-9b09-3175e6cf93b5","system_id":"levelo_inurba_marseille","lat":43.31755,"lon":5.3902,"is_reserved":false,"is_disabled":false,"rental_uris":{"android":"levelo://app?vid=f8a8d198-a51f-4253-9b09-3175e6cf93b5","ios":"levelo://app?vid=f8a8d198-a51f-4253-9b09-3175e6cf93b5"},"vehicle_type_id":"4","last_reported":1758298321,"current_range_meters":15200,"station_id":"ce4bhqp2rcd13ifvqhng","pricing_plan_id":"cebpf4jnsgd1na2vs0mg"},{"bike_id":"42b46ba0-bd13-42e8-ac75-ca3852a798cf","system_id":"levelo_inurba_marseille","lat":43.31269,"lon":5.40173,"is_reserved":false,"is_disabled":false,"rental_uris":{"android":"levelo://app?vid=42b46ba0-bd13-42e8-ac75-ca3852a798cf","ios":"levelo://app?vid=42b46ba0-bd13-42e8-ac75-ca3852a798cf"},"vehicle_type_id":"4","last_reported":1758298321,"current_range_meters":15200,"station_id":"ce4bh092rcd13ifvqd30","pricing_plan_id":"cebpf4jnsgd1na2vs0mg"},{"bike_id":"3c70ac7d-f6f1-4b32-a730-a5dfc2e234bf","system_id":"levelo_inurba_marseille","lat":43.29273,"lon":5.37623,"is_reserved":false,"is_disabled":true,"rental_uris":{"android":"levelo://app?vid=3c70ac7d-f6f1-4b32-a730-a5dfc2e234bf","ios":"levelo://app?vid=3c70ac7d-f6f1-4b32-a730-a5dfc2e234bf"},"vehicle_type_id":"4","last_reported":1758298321,"current_range_meters":15200,"station_id":"ce4bgi12rcd13ifvqb80","pricing_plan_id":"cebpf4jnsgd1na2vs0mg"},{"bike_id":"1ff4276d-0676-457e-a296-ef52b250093a","system_id":"levelo_inurba_marseille","lat":43.29273,"lon":5.38439,"is_reserved":false,"is_disabled":false,"rental_uris":{"android":"levelo://app?vid=1ff4276d-0676-457e-a296-ef52b250093a","ios":"levelo://app?vid=1ff4276d-0676-457e-a296-ef52b250093a"},"vehicle_type_id":"4","last_reported":1758298321,"current_range_meters":15200,"station_id":"ce4bh692rcd13ifvqea0","pricing_plan_id":"cebpf4jnsgd1na2vs0mg"},{"bike_id":"e8d54df5-c4c1-4b1d-8011-6225bc73f6f6","system_id":"levelo_inurba_marseille","lat":43.28602,"lon":5.37047,"is_reserved":false,"is_disabled":false,"rental_uris":{"android":"levelo://app?vid=e8d54df5-c4c1-4b1d-8011-6225bc73f6f6","ios":"levelo://app?vid=e8d54df5-c4c1-4b1d-8011-6225bc73f6f6"},"vehicle_type_id":"4","last_reported":1758298321,"current_range_meters":15200,"station_id":"ce4bht12rcd13ifvqi60","pricing_plan_id":"cebpf4jnsgd1na2vs0mg"},{"bike_id":"d1995176-b744-4adc-b2a9-9e1115e70f7b","system_id":"levelo_inurba_marseille","lat":43.23199,"lon":5.35537,"is_reserved":false,"is_disabled":false,"rental_uris":{"android":"levelo://app?vid=d1995176-b744-4adc-b2a9-9e1115e70f7b","ios":"levelo://app?vid=d1995176-b744-4adc-b2a9-9e1115e70f7b"},"vehicle_type_id":"4","last_reported":1758298321,"current_range_meters":15200,"station_id":"ce4bhu92rcd13ifvqi70","pricing_plan_id":"cebpf4jnsgd1na2vs0mg"},{"bike_id":"cbd2fdad-48f6-4707-8d8d-e2d8568ac704","system_id":"levelo_inurba_marseille","lat":43.30794,"lon":5.43528,"is_reserved":false,"is_disabled":false,"rental_uris":{"android":"levelo://app?vid=cbd2fdad-48f6-4707-8d8d-e2d8568ac704","ios":"levelo://app?vid=cbd2fdad-48f6-4707-8d8d-e2d8568ac704"},"vehicle_type_id":"4","last_reported":1758298321,"current_range_meters":14800,"station_id":"ce4bhph2rcd13ifvqheg","pricing_plan_id":"cebpf4jnsgd1na2vs0mg"},{"bike_id":"5ee5ed8e-e382-49b5-a1cd-4debf6217c67","system_id":"levelo_inurba_marseille","lat":43.28616,"lon":5.35104,"is_reserved":false,"is_disabled":false,"rental_uris":{"android":"levelo://app?vid=5ee5ed8e-e382-49b5-a1cd-4debf6217c67","ios":"levelo://app?vid=5ee5ed8e-e382-49b5-a1cd-4debf6217c67"},"vehicle_type_id":"4","last_reported":1758298321,"current_range_meters":15200,"station_id":"ce4bhch2rcd13ifvqeug","pricing_plan_id":"cebpf4jnsgd1na2vs0mg"},{"bike_id":"c4706891-6ce1-4440-91ff-a3ecf2ff007e","system_id":"levelo_inurba_marseille","lat":43.26374,"lon":5.40075,"is_reserved":false,"is_disabled":false,"rental_uris":{"android":"levelo://app?vid=c4706891-6ce1-4440-91ff-a3ecf2ff007e","ios":"levelo://app?vid=c4706891-6ce1-4440-91ff-a3ecf2ff007e"},"vehicle_type_id":"4","last_reported":1758298321,"current_range_meters":16000,"station_id":"","pricing_plan_id":"cebpf4jnsgd1na2vs0mg"},{"bike_id":"06ca1591-70af-417a-b0f9-6cbcc65d5248","system_id":"levelo_inurba_marseille","lat":43.28622,"lon":5.35109,"is_reserved":false,"is_disabled":false,"rental_uris":{"android":"levelo://app?vid=06ca1591-70af-417a-b0f9-6cbcc65d5248","ios":"levelo://app?vid=06ca1591-70af-417a-b0f9-6cbcc65d5248"},"vehicle_type_id":"4","last_reported":1758298321,"current_range_meters":16000,"station_id":"ce4bhch2rcd13ifvqeug","pricing_plan_id":"cebpf4jnsgd1na2vs0mg"},{"bike_id":"dccefeab-758e-4850-a415-f18571ed0a71","system_id":"levelo_inurba_marseille","lat":43.29521,"lon":5.38552,"is_reserved":false,"is_disabled":true,"rental_uris":{"android":"levelo://app?vid=dccefeab-758e-4850-a415-f18571ed0a71","ios":"levelo://app?vid=dccefeab-758e-4850-a415-f18571ed0a71"},"vehicle_type_id":"4","last_reported":1758298321,"current_range_meters":16000,"station_id":"ce4bgih2rcd13ifvqba0","pricing_plan_id":"cebpf4jnsgd1na2vs0mg"},{"bike_id":"4199a78e-e024-4aa0-add5-bfe6d6531bc4","system_id":"levelo_inurba_marseille","lat":43.24167,"lon":5.36397,"is_reserved":false,"is_disabled":false,"rental_uris":{"android":"levelo://app?vid=4199a78e-e024-4aa0-add5-bfe6d6531bc4","ios":"levelo://app?vid=4199a78e-e024-4aa0-add5-bfe6d6531bc4"},"vehicle_type_id":"4","last_reported":1758298321,"current_range_meters":16400,"station_id":"cpo36qri1sfpv3e86is0","pricing_plan_id":"cebpf4jnsgd1na2vs0mg"},{"bike_id":"df0199ee-ab4f-48ab-bbe9-404b970e49dc","system_id":"levelo_inurba_marseille","lat":43.29043,"lon":5.37144,"is_reserved":false,"is_disabled":true,"rental_uris":{"android":"levelo://app?vid=df0199ee-ab4f-48ab-bbe9-404b970e49dc","ios":"levelo://app?vid=df0199ee-ab4f-48ab-bbe9-404b970e49dc"},"vehicle_type_id":"4","last_reported":1758298321,"current_range_meters":16400,"station_id":"ce4bh5p2rcd13ifvqe4g","pricing_plan_id":"cebpf4jnsgd1na2vs0mg"},{"bike_id":"8b3c1bb1-e3a1-43a9-8904-bfd6e05d3085","system_id":"levelo_inurba_marseille","lat":43.28271,"lon":5.35061,"is_reserved":false,"is_disabled":false,"rental_uris":{"android":"levelo://app?vid=8b3c1bb1-e3a1-43a9-8904-bfd6e05d3085","ios":"levelo://app?vid=8b3c1bb1-e3a1-43a9-8904-bfd6e05d3085"},"vehicle_type_id":"4","last_reported":1758298321,"current_range_meters":16400,"station_id":"ce4bhbp2rcd13ifvqerg","pricing_plan_id":"cebpf4jnsgd1na2vs0mg"},{"bike_id":"835975a0-27c7-47e7-bc1c-b8ba0b505127","system_id":"levelo_inurba_marseille","lat":43.32557,"lon":5.37785,"is_reserved":false,"is_disabled":false,"rental_uris":{"android":"levelo://app?vid=835975a0-27c7-47e7-bc1c-b8ba0b505127","ios":"levelo://app?vid=835975a0-27c7-47e7-bc1c-b8ba0b505127"},"vehicle_type_id":"4","last_reported":1758298321,"current_range_meters":16400,"station_id":"","pricing_plan_id":"cebpf4jnsgd1na2vs0mg"},{"bike_id":"f5a04ce9-0473-47d4-93f5-3947ea0dd49e","system_id":"levelo_inurba_marseille","lat":43.23182,"lon":5.39992,"is_reserved":false,"is_disabled":false,"rental_uris":{"android":"levelo://app?vid=f5a04ce9-0473-47d4-93f5-3947ea0dd49e","ios":"levelo://app?vid=f5a04ce9-0473-47d4-93f5-3947ea0dd49e"},"vehicle_type_id":"4","last_reported":1758298321,"current_range_meters":16400,"station_id":"ce4bhn12rcd13ifvqgqg","pricing_plan_id":"cebpf4jnsgd1na2vs0mg"},{"bike_id":"23fac069-01cc-45b6-b24d-e676fd2da16a","system_id":"levelo_inurba_marseille","lat":43.29272,"lon":5.36847,"is_reserved":false,"is_disabled":true,"rental_uris":{"android":"levelo://app?vid=23fac069-01cc-45b6-b24d-e676fd2da16a","ios":"levelo://app?vid=23fac069-01cc-45b6-b24d-e676fd2da16a"},"vehicle_type_id":"4","last_reported":1758298321,"current_range_meters":16400,"station_id":"ce4bhbp2rcd13ifvqesg","pricing_plan_id":"cebpf4jnsgd1na2vs0mg"},{"bike_id":"96507329-2880-46a8-8381-94c43398d8e1","system_id":"levelo_inurba_marseille","lat":43.32112,"lon":5.36775,"is_reserved":false,"is_disabled":false,"rental_uris":{"android":"levelo://app?vid=96507329-2880-46a8-8381-94c43398d8e1","ios":"levelo://app?vid=96507329-2880-46a8-8381-94c43398d8e1"},"vehicle_type_id":"4","last_reported":1758298321,"current_range_meters":16800,"station_id":"ce4bhrh2rcd13ifvqhug","pricing_plan_id":"cebpf4jnsgd1na2vs0mg"},{"bike_id":"7f1be994-af2d-4c9a-807a-220e9a43367d","system_id":"levelo_inurba_marseille","lat":43.22927,"lon":5.35385,"is_reserved":false,"is_disabled":false,"rental_uris":{"android":"levelo://app?vid=7f1be994-af2d-4c9a-807a-220e9a43367d","ios":"levelo://app?vid=7f1be994-af2d-4c9a-807a-220e9a43367d"},"vehicle_type_id":"4","last_reported":1758298321,"current_range_meters":16800,"station_id":"cpo3532slgdg3j2ikp40","pricing_plan_id":"cebpf4jnsgd1na2vs0mg"},{"bike_id":"0f6197a8-4048-440a-88e3-520c1bb0fb40","system_id":"levelo_inurba_marseille","lat":43.28461,"lon":5.35897,"is_reserved":false,"is_disabled":false,"rental_uris":{"android":"levelo://app?vid=0f6197a8-4048-440a-88e3-520c1bb0fb40","ios":"levelo://app?vid=0f6197a8-4048-440a-88e3-520c1bb0fb40"},"vehicle_type_id":"4","last_reported":1758298321,"current_range_meters":16800,"station_id":"ce4bhah2rcd13ifvqei0","pricing_plan_id":"cebpf4jnsgd1na2vs0mg"},{"bike_id":"a1a12c71-6d96-4648-a25f-8df642a6dc66","system_id":"levelo_inurba_marseille","lat":43.28475,"lon":5.38436,"is_reserved":false,"is_disabled":true,"rental_uris":{"android":"levelo://app?vid=a1a12c71-6d96-4648-a25f-8df642a6dc66","ios":"levelo://app?vid=a1a12c71-6d96-4648-a25f-8df642a6dc66"},"vehicle_type_id":"4","last_reported":1758298321,"current_range_meters":16800,"station_id":"ce4bh512rcd13ifvqe3g","pricing_plan_id":"cebpf4jnsgd1na2vs0mg"},{"bike_id":"9419ed86-7e04-49ed-9879-7b0739ad0b2d","system_id":"levelo_inurba_marseille","lat":43.28263,"lon":5.35071,"is_reserved":false,"is_disabled":false,"rental_uris":{"android":"levelo://app?vid=9419ed86-7e04-49ed-9879-7b0739ad0b2d","ios":"levelo://app?vid=9419ed86-7e04-49ed-9879-7b0739ad0b2d"},"vehicle_type_id":"4","last_reported":1758298321,"current_range_meters":16800,"station_id":"ce4bhbp2rcd13ifvqerg","pricing_plan_id":"cebpf4jnsgd1na2vs0mg"},{"bike_id":"fa2fa98e-9787-4ef8-9e32-5c34fed2749f","system_id":"levelo_inurba_marseille","lat":43.3009,"lon":5.39068,"is_reserved":false,"is_disabled":false,"rental_uris":{"android":"levelo://app?vid=fa2fa98e-9787-4ef8-9e32-5c34fed2749f","ios":"levelo://app?vid=fa2fa98e-9787-4ef8-9e32-5c34fed2749f"},"vehicle_type_id":"4","last_reported":1758298321,"current_range_meters":16800,"station_id":"ce4bh192rcd13ifvqdb0","pricing_plan_id":"cebpf4jnsgd1na2vs0mg"},{"bike_id":"59a45dc2-4996-486b-bc88-a28f733c08e7","system_id":"levelo_inurba_marseille","lat":43.24169,"lon":5.3639,"is_reserved":false,"is_disabled":false,"rental_uris":{"android":"levelo://app?vid=59a45dc2-4996-486b-bc88-a28f733c08e7","ios":"levelo://app?vid=59a45dc2-4996-486b-bc88-a28f733c08e7"},"vehicle_type_id":"4","last_reported":1758298321,"current_range_meters":16800,"station_id":"cpo36qri1sfpv3e86is0","pricing_plan_id":"cebpf4jnsgd1na2vs0mg"},{"bike_id":"d6c89c9a-3320-4011-9b93-2f7cda6594d6","system_id":"levelo_inurba_marseille","lat":43.28355,"lon":5.38105,"is_reserved":false,"is_disabled":false,"rental_uris":{"android":"levelo://app?vid=d6c89c9a-3320-4011-9b93-2f7cda6594d6","ios":"levelo://app?vid=d6c89c9a-3320-4011-9b93-2f7cda6594d6"},"vehicle_type_id":"4","last_reported":1758298321,"current_range_meters":16800,"station_id":"ce4bh412rcd13ifvqdr0","pricing_plan_id":"cebpf4jnsgd1na2vs0mg"},{"bike_id":"968f25b2-4c38-40e5-97a7-154be1858fc9","system_id":"levelo_inurba_marseille","lat":43.28464,"lon":5.3589,"is_reserved":false,"is_disabled":false,"rental_uris":{"android":"levelo://app?vid=968f25b2-4c38-40e5-97a7-154be1858fc9","ios":"levelo://app?vid=968f25b2-4c38-40e5-97a7-154be1858fc9"},"vehicle_type_id":"4","last_reported":1758298321,"current_range_meters":16800,"station_id":"ce4bhah2rcd13ifvqei0","pricing_plan_id":"cebpf4jnsgd1na2vs0mg"},{"bike_id":"254350d2-b0f8-4739-ae4d-2a5e62b990aa","system_id":"levelo_inurba_marseille","lat":43.28731,"lon":5.3609,"is_reserved":false,"is_disabled":false,"rental_uris":{"android":"levelo://app?vid=254350d2-b0f8-4739-ae4d-2a5e62b990aa","ios":"levelo://app?vid=254350d2-b0f8-4739-ae4d-2a5e62b990aa"},"vehicle_type_id":"4","last_reported":1758298321,"current_range_meters":16800,"station_id":"cki0cbj6b192h4jlfktg","pricing_plan_id":"cebpf4jnsgd1na2vs0mg"},{"bike_id":"43d57fd4-047e-4ac8-97e5-ec9b96239472","system_id":"levelo_inurba_marseille","lat":43.32846,"lon":5.39108,"is_reserved":false,"is_disabled":false,"rental_uris":{"android":"levelo://app?vid=43d57fd4-047e-4ac8-97e5-ec9b96239472","ios":"levelo://app?vid=43d57fd4-047e-4ac8-97e5-ec9b96239472"},"vehicle_type_id":"4","last_reported":1758298321,"current_range_meters":16800,"station_id":"","pricing_plan_id":"cebpf4jnsgd1na2vs0mg"},{"bike_id":"611b4c0f-8a57-40c2-8596-f4fc60fa1bc2","system_id":"levelo_inurba_marseille","lat":43.27368,"lon":5.36268,"is_reserved":false,"is_disabled":false,"rental_uris":{"android":"levelo://app?vid=611b4c0f-8a57-40c2-8596-f4fc60fa1bc2","ios":"levelo://app?vid=611b4c0f-8a57-40c2-8596-f4fc60fa1bc2"},"vehicle_type_id":"4","last_reported":1758298321,"current_range_meters":17200,"station_id":"ce4bhbh2rcd13ifvqeo0","pricing_plan_id":"cebpf4jnsgd1na2vs0mg"},{"bike_id":"6d15127c-e53e-455a-813c-343ca728bcb4","system_id":"levelo_inurba_marseille","lat":43.27811,"lon":5.40716,"is_reserved":false,"is_disabled":false,"rental_uris":{"android":"levelo://app?vid=6d15127c-e53e-455a-813c-343ca728bcb4","ios":"levelo://app?vid=6d15127c-e53e-455a-813c-343ca728bcb4"},"vehicle_type_id":"4","last_reported":1758298321,"current_range_meters":17200,"station_id":"ce4bhnh2rcd13ifvqgtg","pricing_plan_id":"cebpf4jnsgd1na2vs0mg"},{"bike_id":"29a4247c-829a-43e0-aab6-67a03dd26c4e","system_id":"levelo_inurba_marseille","lat":43.30812,"lon":5.36913,"is_reserved":false,"is_disabled":false,"rental_uris":{"android":"levelo://app?vid=29a4247c-829a-43e0-aab6-67a03dd26c4e","ios":"levelo://app?vid=29a4247c-829a-43e0-aab6-67a03dd26c4e"},"vehicle_type_id":"4","last_reported":1758298321,"current_range_meters":17200,"station_id":"","pricing_plan_id":"cebpf4jnsgd1na2vs0mg"},{"bike_id":"37d5e9bc-fc8e-4b6d-acf5-986445da0611","system_id":"levelo_inurba_marseille","lat":43.29262,"lon":5.38432,"is_reserved":false,"is_disabled":false,"rental_uris":{"android":"levelo://app?vid=37d5e9bc-fc8e-4b6d-acf5-986445da0611","ios":"levelo://app?vid=37d5e9bc-fc8e-4b6d-acf5-986445da0611"},"vehicle_type_id":"4","last_reported":1758298321,"current_range_meters":17200,"station_id":"ce4bh692rcd13ifvqea0","pricing_plan_id":"cebpf4jnsgd1na2vs0mg"},{"bike_id":"8e86fe12-b2d6-4764-9720-31f5ab462b7b","system_id":"levelo_inurba_marseille","lat":43.22571,"lon":5.41611,"is_reserved":false,"is_disabled":false,"rental_uris":{"android":"levelo://app?vid=8e86fe12-b2d6-4764-9720-31f5ab462b7b","ios":"levelo://app?vid=8e86fe12-b2d6-4764-9720-31f5ab462b7b"},"vehicle_type_id":"4","last_reported":1758298321,"current_range_meters":17200,"station_id":"st_d2o4gvlbi1j2169b742g","pricing_plan_id":"cebpf4jnsgd1na2vs0mg"},{"bike_id":"46bb0d16-d452-4e67-8ebb-7c6f5e89c56e","system_id":"levelo_inurba_marseille","lat":43.2827,"lon":5.35082,"is_reserved":false,"is_disabled":false,"rental_uris":{"android":"levelo://app?vid=46bb0d16-d452-4e67-8ebb-7c6f5e89c56e","ios":"levelo://app?vid=46bb0d16-d452-4e67-8ebb-7c6f5e89c56e"},"vehicle_type_id":"4","last_reported":1758298321,"current_range_meters":17200,"station_id":"ce4bhbp2rcd13ifvqerg","pricing_plan_id":"cebpf4jnsgd1na2vs0mg"},{"bike_id":"af0490b6-c1c9-4895-8a15-568d23e0a730","system_id":"levelo_inurba_marseille","lat":43.28077,"lon":5.40787,"is_reserved":false,"is_disabled":false,"rental_uris":{"android":"levelo://app?vid=af0490b6-c1c9-4895-8a15-568d23e0a730","ios":"levelo://app?vid=af0490b6-c1c9-4895-8a15-568d23e0a730"},"vehicle_type_id":"4","last_reported":1758298321,"current_range_meters":17200,"station_id":"","pricing_plan_id":"cebpf4jnsgd1na2vs0mg"},{"bike_id":"287c6a61-ec62-4484-8205-963a3ae55804","system_id":"levelo_inurba_marseille","lat":43.27957,"lon":5.41054,"is_reserved":false,"is_disabled":false,"rental_uris":{"android":"levelo://app?vid=287c6a61-ec62-4484-8205-963a3ae55804","ios":"levelo://app?vid=287c6a61-ec62-4484-8205-963a3ae55804"},"vehicle_type_id":"4","last_reported":1758298321,"current_range_meters":17200,"station_id":"ce4bhnp2rcd13ifvqh0g","pricing_plan_id":"cebpf4jnsgd1na2vs0mg"},{"bike_id":"de23f2a2-fd73-4652-a94a-28ffed57e47f","system_id":"levelo_inurba_marseille","lat":43.28265,"lon":5.35075,"is_reserved":false,"is_disabled":false,"rental_uris":{"android":"levelo://app?vid=de23f2a2-fd73-4652-a94a-28ffed57e47f","ios":"levelo://app?vid=de23f2a2-fd73-4652-a94a-28ffed57e47f"},"vehicle_type_id":"4","last_reported":1758298321,"current_range_meters":17200,"station_id":"ce4bhbp2rcd13ifvqerg","pricing_plan_id":"cebpf4jnsgd1na2vs0mg"},{"bike_id":"30279a9d-e63a-446d-b6bf-61f4c5913911","system_id":"levelo_inurba_marseille","lat":43.28412,"lon":5.34991,"is_reserved":false,"is_disabled":false,"rental_uris":{"android":"levelo://app?vid=30279a9d-e63a-446d-b6bf-61f4c5913911","ios":"levelo://app?vid=30279a9d-e63a-446d-b6bf-61f4c5913911"},"vehicle_type_id":"4","last_reported":1758298321,"current_range_meters":17200,"station_id":"ce4bhbh2rcd13ifvqepg","pricing_plan_id":"cebpf4jnsgd1na2vs0mg"},{"bike_id":"4a1c2a0f-afa2-4a0f-8ff8-e65b6d436bb5","system_id":"levelo_inurba_marseille","lat":43.31994,"lon":5.38166,"is_reserved":false,"is_disabled":false,"rental_uris":{"android":"levelo://app?vid=4a1c2a0f-afa2-4a0f-8ff8-e65b6d436bb5","ios":"levelo://app?vid=4a1c2a0f-afa2-4a0f-8ff8-e65b6d436bb5"},"vehicle_type_id":"4","last_reported":1758298321,"current_range_meters":17200,"station_id":"ce4bhr12rcd13ifvqhpg","pricing_plan_id":"cebpf4jnsgd1na2vs0mg"},{"bike_id":"c786e427-7788-4318-bb49-09e7f4106b52","system_id":"levelo_inurba_marseille","lat":43.23178,"lon":5.39991,"is_reserved":false,"is_disabled":false,"rental_uris":{"android":"levelo://app?vid=c786e427-7788-4318-bb49-09e7f4106b52","ios":"levelo://app?vid=c786e427-7788-4318-bb49-09e7f4106b52"},"vehicle_type_id":"4","last_reported":1758298321,"current_range_meters":17200,"station_id":"ce4bhn12rcd13ifvqgqg","pricing_plan_id":"cebpf4jnsgd1na2vs0mg"},{"bike_id":"ac0467b9-9f22-4187-b484-50de3ac635c3","system_id":"levelo_inurba_marseille","lat":43.28416,"lon":5.35001,"is_reserved":false,"is_disabled":false,"rental_uris":{"android":"levelo://app?vid=ac0467b9-9f22-4187-b484-50de3ac635c3","ios":"levelo://app?vid=ac0467b9-9f22-4187-b484-50de3ac635c3"},"vehicle_type_id":"4","last_reported":1758298321,"current_range_meters":17600,"station_id":"ce4bhbh2rcd13ifvqepg","pricing_plan_id":"cebpf4jnsgd1na2vs0mg"},{"bike_id":"b810ec46-97ab-4356-95f9-0c9d02506d5a","system_id":"levelo_inurba_marseille","lat":43.24458,"lon":5.39039,"is_reserved":false,"is_disabled":false,"rental_uris":{"android":"levelo://app?vid=b810ec46-97ab-4356-95f9-0c9d02506d5a","ios":"levelo://app?vid=b810ec46-97ab-4356-95f9-0c9d02506d5a"},"vehicle_type_id":"4","last_reported":1758298321,"current_range_meters":17600,"station_id":"","pricing_plan_id":"cebpf4jnsgd1na2vs0mg"},{"bike_id":"2633e7b4-e05e-4239-9caf-e23989ad5ba7","system_id":"levelo_inurba_marseille","lat":43.26063,"lon":5.39396,"is_reserved":false,"is_disabled":false,"rental_uris":{"android":"levelo://app?vid=2633e7b4-e05e-4239-9caf-e23989ad5ba7","ios":"levelo://app?vid=2633e7b4-e05e-4239-9caf-e23989ad5ba7"},"vehicle_type_id":"4","last_reported":1758298321,"current_range_meters":17600,"station_id":"ce4bhh92rcd13ifvqfj0","pricing_plan_id":"cebpf4jnsgd1na2vs0mg"},{"bike_id":"a39d9ed2-e3fd-4798-be8b-cab5659100d6","system_id":"levelo_inurba_marseille","lat":43.28852,"lon":5.39316,"is_reserved":false,"is_disabled":false,"rental_uris":{"android":"levelo://app?vid=a39d9ed2-e3fd-4798-be8b-cab5659100d6","ios":"levelo://app?vid=a39d9ed2-e3fd-4798-be8b-cab5659100d6"},"vehicle_type_id":"4","last_reported":1758298321,"current_range_meters":17600,"station_id":"ce4bh2p2rcd13ifvqdi0","pricing_plan_id":"cebpf4jnsgd1na2vs0mg"},{"bike_id":"13eb3edd-9f60-4741-ac45-2e7c3cc7d73c","system_id":"levelo_inurba_marseille","lat":43.2842,"lon":5.34992,"is_reserved":false,"is_disabled":false,"rental_uris":{"android":"levelo://app?vid=13eb3edd-9f60-4741-ac45-2e7c3cc7d73c","ios":"levelo://app?vid=13eb3edd-9f60-4741-ac45-2e7c3cc7d73c"},"vehicle_type_id":"4","last_reported":1758298321,"current_range_meters":17600,"station_id":"ce4bhbh2rcd13ifvqepg","pricing_plan_id":"cebpf4jnsgd1na2vs0mg"},{"bike_id":"a9743bb2-1568-4e16-927e-acd26159a665","system_id":"levelo_inurba_marseille","lat":43.28274,"lon":5.35082,"is_reserved":false,"is_disabled":false,"rental_uris":{"android":"levelo://app?vid=a9743bb2-1568-4e16-927e-acd26159a665","ios":"levelo://app?vid=a9743bb2-1568-4e16-927e-acd26159a665"},"vehicle_type_id":"4","last_reported":1758298321,"current_range_meters":17600,"station_id":"ce4bhbp2rcd13ifvqerg","pricing_plan_id":"cebpf4jnsgd1na2vs0mg"},{"bike_id":"92fcd53f-6854-4cc0-8454-b3a9b71f0daa","system_id":"levelo_inurba_marseille","lat":43.28413,"lon":5.34943,"is_reserved":false,"is_disabled":false,"rental_uris":{"android":"levelo://app?vid=92fcd53f-6854-4cc0-8454-b3a9b71f0daa","ios":"levelo://app?vid=92fcd53f-6854-4cc0-8454-b3a9b71f0daa"},"vehicle_type_id":"4","last_reported":1758298321,"current_range_meters":17600,"station_id":"ce4bhbh2rcd13ifvqepg","pricing_plan_id":"cebpf4jnsgd1na2vs0mg"},{"bike_id":"05ca0aa0-5596-4971-a0c3-94e65df6bd50","system_id":"levelo_inurba_marseille","lat":43.22556,"lon":5.41634,"is_reserved":false,"is_disabled":false,"rental_uris":{"android":"levelo://app?vid=05ca0aa0-5596-4971-a0c3-94e65df6bd50","ios":"levelo://app?vid=05ca0aa0-5596-4971-a0c3-94e65df6bd50"},"vehicle_type_id":"4","last_reported":1758298321,"current_range_meters":17600,"station_id":"st_d2o4gvlbi1j2169b742g","pricing_plan_id":"cebpf4jnsgd1na2vs0mg"},{"bike_id":"55d1bc08-fd54-4a82-afc7-2adcaa7b1c4e","system_id":"levelo_inurba_marseille","lat":43.30015,"lon":5.37719,"is_reserved":false,"is_disabled":false,"rental_uris":{"android":"levelo://app?vid=55d1bc08-fd54-4a82-afc7-2adcaa7b1c4e","ios":"levelo://app?vid=55d1bc08-fd54-4a82-afc7-2adcaa7b1c4e"},"vehicle_type_id":"4","last_reported":1758298321,"current_range_meters":17600,"station_id":"","pricing_plan_id":"cebpf4jnsgd1na2vs0mg"},{"bike_id":"22cf9918-7a74-4ab9-8ad7-3504dd295a24","system_id":"levelo_inurba_marseille","lat":43.26557,"lon":5.37287,"is_reserved":false,"is_disabled":false,"rental_uris":{"android":"levelo://app?vid=22cf9918-7a74-4ab9-8ad7-3504dd295a24","ios":"levelo://app?vid=22cf9918-7a74-4ab9-8ad7-3504dd295a24"},"vehicle_type_id":"4","last_reported":1758298321,"current_range_meters":17600,"station_id":"ce4bhg12rcd13ifvqf70","pricing_plan_id":"cebpf4jnsgd1na2vs0mg"},{"bike_id":"0f7caa9f-1d1a-40d7-9b4a-2f8720e63681","system_id":"levelo_inurba_marseille","lat":43.30864,"lon":5.37543,"is_reserved":false,"is_disabled":false,"rental_uris":{"android":"levelo://app?vid=0f7caa9f-1d1a-40d7-9b4a-2f8720e63681","ios":"levelo://app?vid=0f7caa9f-1d1a-40d7-9b4a-2f8720e63681"},"vehicle_type_id":"4","last_reported":1758298321,"current_range_meters":18000,"station_id":"","pricing_plan_id":"cebpf4jnsgd1na2vs0mg"},{"bike_id":"442b1a44-239a-4883-bba8-d5640783fbd4","system_id":"levelo_inurba_marseille","lat":43.295258,"lon":5.385395,"is_reserved":false,"is_disabled":false,"rental_uris":{"android":"levelo://app?vid=442b1a44-239a-4883-bba8-d5640783fbd4","ios":"levelo://app?vid=442b1a44-239a-4883-bba8-d5640783fbd4"},"vehicle_type_id":"4","last_reported":1758298321,"current_range_meters":18000,"station_id":"ce4bgih2rcd13ifvqba0","pricing_plan_id":"cebpf4jnsgd1na2vs0mg"},{"bike_id":"2a00cb84-e9e6-4781-804d-0494d7480777","system_id":"levelo_inurba_marseille","lat":43.22566,"lon":5.41637,"is_reserved":false,"is_disabled":false,"rental_uris":{"android":"levelo://app?vid=2a00cb84-e9e6-4781-804d-0494d7480777","ios":"levelo://app?vid=2a00cb84-e9e6-4781-804d-0494d7480777"},"vehicle_type_id":"4","last_reported":1758298321,"current_range_meters":18800,"station_id":"st_d2o4gvlbi1j2169b742g","pricing_plan_id":"cebpf4jnsgd1na2vs0mg"},{"bike_id":"2c734c36-442f-468e-ab47-e34ad5183e32","system_id":"levelo_inurba_marseille","lat":43.25772,"lon":5.41047,"is_reserved":false,"is_disabled":false,"rental_uris":{"android":"levelo://app?vid=2c734c36-442f-468e-ab47-e34ad5183e32","ios":"levelo://app?vid=2c734c36-442f-468e-ab47-e34ad5183e32"},"vehicle_type_id":"4","last_reported":1758298321,"current_range_meters":18800,"station_id":"","pricing_plan_id":"cebpf4jnsgd1na2vs0mg"},{"bike_id":"0ff89bb8-a182-4cf4-948b-0c26dfb92750","system_id":"levelo_inurba_marseille","lat":43.29519,"lon":5.37502,"is_reserved":false,"is_disabled":false,"rental_uris":{"android":"levelo://app?vid=0ff89bb8-a182-4cf4-948b-0c26dfb92750","ios":"levelo://app?vid=0ff89bb8-a182-4cf4-948b-0c26dfb92750"},"vehicle_type_id":"4","last_reported":1758298321,"current_range_meters":18800,"station_id":"ce4bgkp2rcd13ifvqbmg","pricing_plan_id":"cebpf4jnsgd1na2vs0mg"},{"bike_id":"40847c7b-6921-4437-9239-af2638162524","system_id":"levelo_inurba_marseille","lat":43.2418,"lon":5.36373,"is_reserved":false,"is_disabled":false,"rental_uris":{"android":"levelo://app?vid=40847c7b-6921-4437-9239-af2638162524","ios":"levelo://app?vid=40847c7b-6921-4437-9239-af2638162524"},"vehicle_type_id":"4","last_reported":1758298321,"current_range_meters":18800,"station_id":"cpo36qri1sfpv3e86is0","pricing_plan_id":"cebpf4jnsgd1na2vs0mg"},{"bike_id":"59ec2cea-9edc-47b6-9a5d-d07aaed533e6","system_id":"levelo_inurba_marseille","lat":43.30808,"lon":5.43538,"is_reserved":false,"is_disabled":false,"rental_uris":{"android":"levelo://app?vid=59ec2cea-9edc-47b6-9a5d-d07aaed533e6","ios":"levelo://app?vid=59ec2cea-9edc-47b6-9a5d-d07aaed533e6"},"vehicle_type_id":"4","last_reported":1758298321,"current_range_meters":18800,"station_id":"ce4bhph2rcd13ifvqheg","pricing_plan_id":"cebpf4jnsgd1na2vs0mg"},