{"last_updated":1766268597,"ttl":60,"version":"2.2","data":{"bikes":[{"bike_id":"ff5be584-3612-4fde-bb6e-5a7ee21a6392","system_id":"levelo_inurba_marseille","lat":43.26578,"lon":5.39031,"is_reserved":false,"is_disabled":false,"rental_uris":{"android":"levelo://app?vid=ff5be584-3612-4fde-bb6e-5a7ee21a6392","ios":"levelo://app?vid=ff5be584-3612-4fde-bb6e-5a7ee21a6392"},"vehicle_type_id":"4","last_reported":1766268598,"current_range_meters":2800,"station_id":"ce4bhe12rcd13ifvqf30","pricing_plan_id":"cebpf4jnsgd1na2vs0mg"},{"bike_id":"7522a76b-0df5-443d-b29c-07bb753b21cf","system_id":"levelo_inurba_marseille","lat":43.25115,"lon":5.40316,"is_reserved":false,"is_disabled":false,"rental_uris":{"android":"levelo://app?vid=7522a76b-0df5-443d-b29c-07bb753b21cf","ios":"levelo://app?vid=7522a76b-0df5-443d-b29c-07bb753b21cf"},"vehicle_type_id":"4","last_reported":1766268598,"current_range_meters":3200,"station_id":"ce4bhlh2rcd13ifvqgig","pricing_plan_id":"cebpf4jnsgd1na2vs0mg"},{"bike_id":"b19a39a4-a540-41bb-aa39-26597e83a950","system_id":"levelo_inurba_marseille","lat":43.26231,"lon":5.40452,"is_reserved":false,"is_disabled":false,"rental_uris":{"android":"levelo://app?vid=b19a39a4-a540-41bb-aa39-26597e83a950","ios":"levelo://app?vid=b19a39a4-a540-41bb-aa39-26597e83a950"},"vehicle_type_id":"4","last_reported":1766268598,"current_range_meters":3200,"station_id":"ce4bhmh2rcd13ifvqgmg","pricing_plan_id":"cebpf4jnsgd1na2vs0mg"},{"bike_id":"f3a4c2fd-c27a-4ca6-bbe5-3949d2a88808","system_id":"levelo_inurba_marseille","lat":43.28582,"lon":5.4299,"is_reserved":false,"is_disabled":false,"rental_uris":{"android":"levelo://app?vid=f3a4c2fd-c27a-4ca6-bbe5-3949d2a88808","ios":"levelo://app?vid=f3a4c2fd-c27a-4ca6-bbe5-3949d2a88808"},"vehicle_type_id":"4","last_reported":1766268598,"current_range_meters":3200,"station_id":"","pricing_plan_id":"cebpf4jnsgd1na2vs0mg"},{"bike_id":"8559ea30-7f47-4576-888c-fa2cee6975d6","system_id":"levelo_inurba_marseille","lat":43.319037,"lon":5.407357,"is_reserved":false,"is_disabled":false,"rental_uris":{"android":"levelo://app?vid=8559ea30-7f47-4576-888c-fa2cee6975d6","ios":"levelo://app?vid=8559ea30-7f47-4576-888c-fa2cee6975d6"},"vehicle_type_id":"4","last_reported":1766268598,"current_range_meters":4400,"station_id":"ce4bhq12rcd13ifvqhig","pricing_plan_id":"cebpf4jnsgd1na2vs0mg"},{"bike_id":"33adfdc1-1eee-42e7-ad62-43e312b86b79","system_id":"levelo_inurba_marseille","lat":43.24805,"lon":5.37454,"is_reserved":false,"is_disabled":false,"rental_uris":{"android":"levelo://app?vid=33adfdc1-1eee-42e7-ad62-43e312b86b79","ios":"levelo://app?vid=33adfdc1-1eee-42e7-ad62-43e312b86b79"},"vehicle_type_id":"4","last_reported":1766268598,"current_range_meters":4400,"station_id":"ce4bhgh2rcd13ifvqfb0","pricing_plan_id":"cebpf4jnsgd1na2vs0mg"},{"bike_id":"48e30a46-3a61-4ed5-93c8-2b0ee8661bac","system_id":"levelo_inurba_marseille","lat":43.29817,"lon":5.37788,"is_reserved":false,"is_disabled":false,"rental_uris":{"android":"levelo://app?vid=48e30a46-3a61-4ed5-93c8-2b0ee8661bac","ios":"levelo://app?vid=48e30a46-3a61-4ed5-93c8-2b0ee8661bac"},"vehicle_type_id":"4","last_reported":1766268598,"current_range_meters":4400,"station_id":"","pricing_plan_id":"cebpf4jnsgd1na2vs0mg"},{"bike_id":"d06fc2bf-3878-459e-98a3-673413f06ef4","system_id":"levelo_inurba_marseille","lat":43.288422,"lon":5.393135,"is_reserved":false,"is_disabled":false,"rental_uris":{"android":"levelo://app?vid=d06fc2bf-3878-459e-98a3-673413f06ef4","ios":"levelo://app?vid=d06fc2bf-3878-459e-98a3-673413f06ef4"},"vehicle_type_id":"4","last_reported":1766268598,"current_range_meters":4800,"station_id":"ce4bh2p2rcd13ifvqdi0","pricing_plan_id":"cebpf4jnsgd1na2vs0mg"},{"bike_id":"4f670ef7-d05e-4f82-901e-0f96bfb6d318","system_id":"levelo_inurba_marseille","lat":43.341406,"lon":5.409163,"is_reserved":false,"is_disabled":false,"rental_uris":{"android":"levelo://app?vid=4f670ef7-d05e-4f82-901e-0f96bfb6d318","ios":"levelo://app?vid=4f670ef7-d05e-4f82-901e-0f96bfb6d318"},"vehicle_type_id":"4","last_reported":1766268598,"current_range_meters":4800,"station_id":"ce4bhqh2rcd13ifvqhlg","pricing_plan_id":"cebpf4jnsgd1na2vs0mg"},{"bike_id":"700442f5-a082-454e-8bc7-ab3bbb77bfce","system_id":"levelo_inurba_marseille","lat":43.266536,"lon":5.374494,"is_reserved":false,"is_disabled":false,"rental_uris":{"android":"levelo://app?vid=700442f5-a082-454e-8bc7-ab3bbb77bfce","ios":"levelo://app?vid=700442f5-a082-454e-8bc7-ab3bbb77bfce"},"vehicle_type_id":"4","last_reported":1766268598,"current_range_meters":4800,"station_id":"","pricing_plan_id":"cebpf4jnsgd1na2vs0mg"},{"bike_id":"81ce12bb-d913-4e95-82bb-d4b0088cf271","system_id":"levelo_inurba_marseille","lat":43.24458,"lon":5.42533,"is_reserved":false,"is_disabled":false,"rental_uris":{"android":"levelo://app?vid=81ce12bb-d913-4e95-82bb-d4b0088cf271","ios":"levelo://app?vid=81ce12bb-d913-4e95-82bb-d4b0088cf271"},"vehicle_type_id":"4","last_reported":1766268598,"current_range_meters":4800,"station_id":"st_d4a3vfp97mjs738cd8kg","pricing_plan_id":"cebpf4jnsgd1na2vs0mg"},{"bike_id":"7d87a31a-0a93-4cb4-9a4b-f31579590510","system_id":"levelo_inurba_marseille","lat":43.31058,"lon":5.37166,"is_reserved":false,"is_disabled":false,"rental_uris":{"android":"levelo://app?vid=7d87a31a-0a93-4cb4-9a4b-f31579590510","ios":"levelo://app?vid=7d87a31a-0a93-4cb4-9a4b-f31579590510"},"vehicle_type_id":"4","last_reported":1766268598,"current_range_meters":5600,"station_id":"st_d4kl2rp97mjs73e7tdfg","pricing_plan_id":"cebpf4jnsgd1na2vs0mg"},{"bike_id":"33e5d832-7e55-4714-838a-424020bfdb4a","system_id":"levelo_inurba_marseille","lat":43.26547,"lon":5.37275,"is_reserved":false,"is_disabled":false,"rental_uris":{"android":"levelo://app?vid=33e5d832-7e55-4714-838a-424020bfdb4a","ios":"levelo://app?vid=33e5d832-7e55-4714-838a-424020bfdb4a"},"vehicle_type_id":"4","last_reported":1766268598,"current_range_meters":5600,"station_id":"ce4bhg12rcd13ifvqf70","pricing_plan_id":"cebpf4jnsgd1na2vs0mg"},{"bike_id":"27e6ea58-5ccf-4902-ad2a-71b7ca4e77a1","system_id":"levelo_inurba_marseille","lat":43.28867,"lon":5.42512,"is_reserved":false,"is_disabled":false,"rental_uris":{"android":"levelo://app?vid=27e6ea58-5ccf-4902-ad2a-71b7ca4e77a1","ios":"levelo://app?vid=27e6ea58-5ccf-4902-ad2a-71b7ca4e77a1"},"vehicle_type_id":"4","last_reported":1766268598,"current_range_meters":5600,"station_id":"st_d3b462108ojc7389ooeg","pricing_plan_id":"cebpf4jnsgd1na2vs0mg"},{"bike_id":"aeea8b8f-7017-4851-8498-538a913c28ac","system_id":"levelo_inurba_marseille","lat":43.29619,"lon":5.37733,"is_reserved":false,"is_disabled":false,"rental_uris":{"android":"levelo://app?vid=aeea8b8f-7017-4851-8498-538a913c28ac","ios":"levelo://app?vid=aeea8b8f-7017-4851-8498-538a913c28ac"},"vehicle_type_id":"4","last_reported":1766268598,"current_range_meters":6000,"station_id":"ce4bgi92rcd13ifvqb90","pricing_plan_id":"cebpf4jnsgd1na2vs0mg"},{"bike_id":"b5886127-b6bc-4587-b360-2b2112050a2c","system_id":"levelo_inurba_marseille","lat":43.225654,"lon":5.416284,"is_reserved":false,"is_disabled":false,"rental_uris":{"android":"levelo://app?vid=b5886127-b6bc-4587-b360-2b2112050a2c","ios":"levelo://app?vid=b5886127-b6bc-4587-b360-2b2112050a2c"},"vehicle_type_id":"4","last_reported":1766268598,"current_range_meters":6000,"station_id":"st_d2o4gvlbi1j2169b742g","pricing_plan_id":"cebpf4jnsgd1na2vs0mg"},{"bike_id":"128f68df-e6c8-471d-bf6e-3a9c347712de","system_id":"levelo_inurba_marseille","lat":43.29234,"lon":5.40898,"is_reserved":false,"is_disabled":false,"rental_uris":{"android":"levelo://app?vid=128f68df-e6c8-471d-bf6e-3a9c347712de","ios":"levelo://app?vid=128f68df-e6c8-471d-bf6e-3a9c347712de"},"vehicle_type_id":"4","last_reported":1766268598,"current_range_meters":6400,"station_id":"ce4bh192rcd13ifvqdc0","pricing_plan_id":"cebpf4jnsgd1na2vs0mg"},{"bike_id":"26c78947-38c8-4fe2-9c04-b54c7806b0ba","system_id":"levelo_inurba_marseille","lat":43.27383,"lon":5.36252,"is_reserved":false,"is_disabled":true,"rental_uris":{"android":"levelo://app?vid=26c78947-38c8-4fe2-9c04-b54c7806b0ba","ios":"levelo://app?vid=26c78947-38c8-4fe2-9c04-b54c7806b0ba"},"vehicle_type_id":"4","last_reported":1766268598,"current_range_meters":6400,"station_id":"ce4bhbh2rcd13ifvqeo0","pricing_plan_id":"cebpf4jnsgd1na2vs0mg"},{"bike_id":"24eb8ade-a521-4b6d-9df6-e437ddc2ffd4","system_id":"levelo_inurba_marseille","lat":43.337444,"lon":5.374475,"is_reserved":false,"is_disabled":false,"rental_uris":{"android":"levelo://app?vid=24eb8ade-a521-4b6d-9df6-e437ddc2ffd4","ios":"levelo://app?vid=24eb8ade-a521-4b6d-9df6-e437ddc2ffd4"},"vehicle_type_id":"4","last_reported":1766268598,"current_range_meters":6400,"station_id":"","pricing_plan_id":"cebpf4jnsgd1na2vs0mg"},{"bike_id":"65871220-0f41-45cc-b8dc-df99a009b3be","system_id":"levelo_inurba_marseille","lat":43.23154,"lon":5.43714,"is_reserved":false,"is_disabled":false,"rental_uris":{"android":"levelo://app?vid=65871220-0f41-45cc-b8dc-df99a009b3be","ios":"levelo://app?vid=65871220-0f41-45cc-b8dc-df99a009b3be"},"vehicle_type_id":"4","last_reported":1766268598,"current_range_meters":6400,"station_id":"ce4bhmp2rcd13ifvqgog","pricing_plan_id":"cebpf4jnsgd1na2vs0mg"},{"bike_id":"d575c171-89a1-4c01-8b87-47a21f717456","system_id":"levelo_inurba_marseille","lat":43.2706,"lon":5.40257,"is_reserved":false,"is_disabled":false,"rental_uris":{"android":"levelo://app?vid=d575c171-89a1-4c01-8b87-47a21f717456","ios":"levelo://app?vid=d575c171-89a1-4c01-8b87-47a21f717456"},"vehicle_type_id":"4","last_reported":1766268598,"current_range_meters":6400,"station_id":"ce4bhk92rcd13ifvqgc0","pricing_plan_id":"cebpf4jnsgd1na2vs0mg"},{"bike_id":"fcd75001-1344-42ec-a013-2f4c6240ace8","system_id":"levelo_inurba_marseille","lat":43.29781,"lon":5.38634,"is_reserved":false,"is_disabled":false,"rental_uris":{"android":"levelo://app?vid=fcd75001-1344-42ec-a013-2f4c6240ace8","ios":"levelo://app?vid=fcd75001-1344-42ec-a013-2f4c6240ace8"},"vehicle_type_id":"4","last_reported":1766268598,"current_range_meters":6800,"station_id":"","pricing_plan_id":"cebpf4jnsgd1na2vs0mg"},{"bike_id":"48b1c36d-e729-4258-b2bc-f38ad2371c31","system_id":"levelo_inurba_marseille","lat":43.31481,"lon":5.37305,"is_reserved":false,"is_disabled":false,"rental_uris":{"android":"levelo://app?vid=48b1c36d-e729-4258-b2bc-f38ad2371c31","ios":"levelo://app?vid=48b1c36d-e729-4258-b2bc-f38ad2371c31"},"vehicle_type_id":"4","last_reported":1766268598,"current_range_meters":6800,"station_id":"ce4bgt12rcd13ifvqcd0","pricing_plan_id":"cebpf4jnsgd1na2vs0mg"},{"bike_id":"c6032a2b-4943-4c7f-b1cf-9eaafb4de658","system_id":"levelo_inurba_marseille","lat":43.26194,"lon":5.37449,"is_reserved":false,"is_disabled":false,"rental_uris":{"android":"levelo://app?vid=c6032a2b-4943-4c7f-b1cf-9eaafb4de658","ios":"levelo://app?vid=c6032a2b-4943-4c7f-b1cf-9eaafb4de658"},"vehicle_type_id":"4","last_reported":1766268598,"current_range_meters":7200,"station_id":"ce4bhgp2rcd13ifvqfc0","pricing_plan_id":"cebpf4jnsgd1na2vs0mg"},{"bike_id":"a17bf767-a9a0-42e7-a852-47a245ee1ba5","system_id":"levelo_inurba_marseille","lat":43.26567,"lon":5.38979,"is_reserved":false,"is_disabled":false,"rental_uris":{"android":"levelo://app?vid=a17bf767-a9a0-42e7-a852-47a245ee1ba5","ios":"levelo://app?vid=a17bf767-a9a0-42e7-a852-47a245ee1ba5"},"vehicle_type_id":"4","last_reported":1766268598,"current_range_meters":7200,"station_id":"ce4bhe12rcd13ifvqf30","pricing_plan_id":"cebpf4jnsgd1na2vs0mg"},{"bike_id":"207776d7-b88e-48a6-b74f-2b1aae5e54c7","system_id":"levelo_inurba_marseille","lat":43.268961,"lon":5.387159,"is_reserved":false,"is_disabled":true,"rental_uris":{"android":"levelo://app?vid=207776d7-b88e-48a6-b74f-2b1aae5e54c7","ios":"levelo://app?vid=207776d7-b88e-48a6-b74f-2b1aae5e54c7"},"vehicle_type_id":"4","last_reported":1766268598,"current_range_meters":7200,"station_id":"","pricing_plan_id":"cebpf4jnsgd1na2vs0mg"},{"bike_id":"dbe31581-fd1d-4ba7-a937-426bbfa93fe5","system_id":"levelo_inurba_marseille","lat":43.30931,"lon":5.40139,"is_reserved":false,"is_disabled":false,"rental_uris":{"android":"levelo://app?vid=dbe31581-fd1d-4ba7-a937-426bbfa93fe5","ios":"levelo://app?vid=dbe31581-fd1d-4ba7-a937-426bbfa93fe5"},"vehicle_type_id":"4","last_reported":1766268598,"current_range_meters":7200,"station_id":"ce4bgvp2rcd13ifvqct0","pricing_plan_id":"cebpf4jnsgd1na2vs0mg"},{"bike_id":"7905ae8d-cc82-4f8d-9146-9561edff9060","system_id":"levelo_inurba_marseille","lat":43.29519,"lon":5.37493,"is_reserved":false,"is_disabled":false,"rental_uris":{"android":"levelo://app?vid=7905ae8d-cc82-4f8d-9146-9561edff9060","ios":"levelo://app?vid=7905ae8d-cc82-4f8d-9146-9561edff9060"},"vehicle_type_id":"4","last_reported":1766268598,"current_range_meters":7200,"station_id":"ce4bgkp2rcd13ifvqbmg","pricing_plan_id":"cebpf4jnsgd1na2vs0mg"},{"bike_id":"e473bd1d-bff8-4fb5-a794-d58a75d9821a","system_id":"levelo_inurba_marseille","lat":43.25337,"lon":5.42173,"is_reserved":false,"is_disabled":true,"rental_uris":{"android":"levelo://app?vid=e473bd1d-bff8-4fb5-a794-d58a75d9821a","ios":"levelo://app?vid=e473bd1d-bff8-4fb5-a794-d58a75d9821a"},"vehicle_type_id":"4","last_reported":1766268598,"current_range_meters":7200,"station_id":"st_d2m65c5bi1j21697t3ng","pricing_plan_id":"cebpf4jnsgd1na2vs0mg"},{"bike_id":"518e84e9-852b-4b3d-973e-04a6d92fe8dd","system_id":"levelo_inurba_marseille","lat":43.23212,"lon":5.39975,"is_reserved":false,"is_disabled":false,"rental_uris":{"android":"levelo://app?vid=518e84e9-852b-4b3d-973e-04a6d92fe8dd","ios":"levelo://app?vid=518e84e9-852b-4b3d-973e-04a6d92fe8dd"},"vehicle_type_id":"4","last_reported":1766268598,"current_range_meters":7200,"station_id":"ce4bhn12rcd13ifvqgqg","pricing_plan_id":"cebpf4jnsgd1na2vs0mg"},{"bike_id":"6ec9a6be-eed9-4adb-a34f-9a64c85ea37b","system_id":"levelo_inurba_marseille","lat":43.30635,"lon":5.37569,"is_reserved":false,"is_disabled":false,"rental_uris":{"android":"levelo://app?vid=6ec9a6be-eed9-4adb-a34f-9a64c85ea37b","ios":"levelo://app?vid=6ec9a6be-eed9-4adb-a34f-9a64c85ea37b"},"vehicle_type_id":"4","last_reported":1766268598,"current_range_meters":7200,"station_id":"","pricing_plan_id":"cebpf4jnsgd1na2vs0mg"},{"bike_id":"1ede3a76-a6bc-41e8-8052-ae7adc8eca33","system_id":"levelo_inurba_marseille","lat":43.246467,"lon":5.388904,"is_reserved":false,"is_disabled":false,"rental_uris":{"android":"levelo://app?vid=1ede3a76-a6bc-41e8-8052-ae7adc8eca33","ios":"levelo://app?vid=1ede3a76-a6bc-41e8-8052-ae7adc8eca33"},"vehicle_type_id":"4","last_reported":1766268598,"current_range_meters":7200,"station_id":"ce4bhg12rcd13ifvqf60","pricing_plan_id":"cebpf4jnsgd1na2vs0mg"},{"bike_id":"8ddf5f0b-8638-4227-b0ee-efe27c023df6","system_id":"levelo_inurba_marseille","lat":43.308014,"lon":5.381433,"is_reserved":false,"is_disabled":true,"rental_uris":{"android":"levelo://app?vid=8ddf5f0b-8638-4227-b0ee-efe27c023df6","ios":"levelo://app?vid=8ddf5f0b-8638-4227-b0ee-efe27c023df6"},"vehicle_type_id":"4","last_reported":1766268598,"current_range_meters":8000,"station_id":"ce4bgjp2rcd13ifvqbh0","pricing_plan_id":"cebpf4jnsgd1na2vs0mg"},{"bike_id":"657677ff-bd0f-45b9-a985-0cee09b5fde2","system_id":"levelo_inurba_marseille","lat":43.31713,"lon":5.43702,"is_reserved":false,"is_disabled":false,"rental_uris":{"android":"levelo://app?vid=657677ff-bd0f-45b9-a985-0cee09b5fde2","ios":"levelo://app?vid=657677ff-bd0f-45b9-a985-0cee09b5fde2"},"vehicle_type_id":"4","last_reported":1766268598,"current_range_meters":8000,"station_id":"ce4bhp92rcd13ifvqhcg","pricing_plan_id":"cebpf4jnsgd1na2vs0mg"},{"bike_id":"538a2746-f60c-40bb-a9a4-46b37073187c","system_id":"levelo_inurba_marseille","lat":43.24476,"lon":5.42539,"is_reserved":false,"is_disabled":false,"rental_uris":{"android":"levelo://app?vid=538a2746-f60c-40bb-a9a4-46b37073187c","ios":"levelo://app?vid=538a2746-f60c-40bb-a9a4-46b37073187c"},"vehicle_type_id":"4","last_reported":1766268598,"current_range_meters":8000,"station_id":"st_d4a3vfp97mjs738cd8kg","pricing_plan_id":"cebpf4jnsgd1na2vs0mg"},{"bike_id":"756cfcf3-5558-464d-b053-d2a93dd5b90b","system_id":"levelo_inurba_marseille","lat":43.26553,"lon":5.37287,"is_reserved":false,"is_disabled":false,"rental_uris":{"android":"levelo://app?vid=756cfcf3-5558-464d-b053-d2a93dd5b90b","ios":"levelo://app?vid=756cfcf3-5558-464d-b053-d2a93dd5b90b"},"vehicle_type_id":"4","last_reported":1766268598,"current_range_meters":8000,"station_id":"ce4bhg12rcd13ifvqf70","pricing_plan_id":"cebpf4jnsgd1na2vs0mg"},{"bike_id":"12138612-a604-48fa-aed1-618503ec37b2","system_id":"levelo_inurba_marseille","lat":43.26197,"lon":5.39771,"is_reserved":false,"is_disabled":false,"rental_uris":{"android":"levelo://app?vid=12138612-a604-48fa-aed1-618503ec37b2","ios":"levelo://app?vid=12138612-a604-48fa-aed1-618503ec37b2"},"vehicle_type_id":"4","last_reported":1766268598,"current_range_meters":8000,"station_id":"","pricing_plan_id":"cebpf4jnsgd1na2vs0mg"},{"bike_id":"e8dd9a23-40ca-4a2c-b67e-70223bfef021","system_id":"levelo_inurba_marseille","lat":43.26501,"lon":5.39534,"is_reserved":false,"is_disabled":false,"rental_uris":{"android":"levelo://app?vid=e8dd9a23-40ca-4a2c-b67e-70223bfef021","ios":"levelo://app?vid=e8dd9a23-40ca-4a2c-b67e-70223bfef021"},"vehicle_type_id":"4","last_reported":1766268598,"current_range_meters":8400,"station_id":"ce4bhi12rcd13ifvqfq0","pricing_plan_id":"cebpf4jnsgd1na2vs0mg"},{"bike_id":"3fbe86d6-50aa-4dbb-b535-cf846f212f8d","system_id":"levelo_inurba_marseille","lat":43.21189,"lon":5.35069,"is_reserved":false,"is_disabled":false,"rental_uris":{"android":"levelo://app?vid=3fbe86d6-50aa-4dbb-b535-cf846f212f8d","ios":"levelo://app?vid=3fbe86d6-50aa-4dbb-b535-cf846f212f8d"},"vehicle_type_id":"4","last_reported":1766268598,"current_range_meters":8400,"station_id":"st_cvj6sg6p6f1abm77japg","pricing_plan_id":"cebpf4jnsgd1na2vs0mg"},{"bike_id":"f1c6ef30-df40-4531-b632-19b3b8de3f93","system_id":"levelo_inurba_marseille","lat":43.337444,"lon":5.374475,"is_reserved":false,"is_disabled":false,"rental_uris":{"android":"levelo://app?vid=f1c6ef30-df40-4531-b632-19b3b8de3f93","ios":"levelo://app?vid=f1c6ef30-df40-4531-b632-19b3b8de3f93"},"vehicle_type_id":"4","last_reported":1766268598,"current_range_meters":8400,"station_id":"","pricing_plan_id":"cebpf4jnsgd1na2vs0mg"},{"bike_id":"2a3b243a-916c-48a8-bebe-654e69af826e","system_id":"levelo_inurba_marseille","lat":43.24806,"lon":5.37453,"is_reserved":false,"is_disabled":false,"rental_uris":{"android":"levelo://app?vid=2a3b243a-916c-48a8-bebe-654e69af826e","ios":"levelo://app?vid=2a3b243a-916c-48a8-bebe-654e69af826e"},"vehicle_type_id":"4","last_reported":1766268598,"current_range_meters":8400,"station_id":"ce4bhgh2rcd13ifvqfb0","pricing_plan_id":"cebpf4jnsgd1na2vs0mg"},{"bike_id":"342831ac-e927-49d6-8b43-22fa72e5bef8","system_id":"levelo_inurba_marseille","lat":43.28006,"lon":5.38723,"is_reserved":false,"is_disabled":false,"rental_uris":{"android":"levelo://app?vid=342831ac-e927-49d6-8b43-22fa72e5bef8","ios":"levelo://app?vid=342831ac-e927-49d6-8b43-22fa72e5bef8"},"vehicle_type_id":"4","last_reported":1766268598,"current_range_meters":8400,"station_id":"ce4bhg12rcd13ifvqf80","pricing_plan_id":"cebpf4jnsgd1na2vs0mg"},{"bike_id":"2774eca9-c878-4033-8514-2330fd47f167","system_id":"levelo_inurba_marseille","lat":43.2848,"lon":5.48406,"is_reserved":false,"is_disabled":false,"rental_uris":{"android":"levelo://app?vid=2774eca9-c878-4033-8514-2330fd47f167","ios":"levelo://app?vid=2774eca9-c878-4033-8514-2330fd47f167"},"vehicle_type_id":"4","last_reported":1766268598,"current_range_meters":8400,"station_id":"","pricing_plan_id":"cebpf4jnsgd1na2vs0mg"},{"bike_id":"58c74df8-5e75-45d0-b47f-a582d0387946","system_id":"levelo_inurba_marseille","lat":43.24192,"lon":5.39724,"is_reserved":false,"is_disabled":false,"rental_uris":{"android":"levelo://app?vid=58c74df8-5e75-45d0-b47f-a582d0387946","ios":"levelo://app?vid=58c74df8-5e75-45d0-b47f-a582d0387946"},"vehicle_type_id":"4","last_reported":1766268598,"current_range_meters":8400,"station_id":"ce4bhn12rcd13ifvqgpg","pricing_plan_id":"cebpf4jnsgd1na2vs0mg"},{"bike_id":"3d8062de-4bd0-49c7-86a6-7bf3b5df4845","system_id":"levelo_inurba_marseille","lat":43.28482,"lon":5.48394,"is_reserved":false,"is_disabled":false,"rental_uris":{"android":"levelo://app?vid=3d8062de-4bd0-49c7-86a6-7bf3b5df4845","ios":"levelo://app?vid=3d8062de-4bd0-49c7-86a6-7bf3b5df4845"},"vehicle_type_id":"4","last_reported":1766268598,"current_range_meters":8400,"station_id":"st_d3svhcjqgbts73a3dn0g","pricing_plan_id":"cebpf4jnsgd1na2vs0mg"},{"bike_id":"59aab69d-aa14-4a71-8d9b-0aa143ba58f2","system_id":"levelo_inurba_marseille","lat":43.28522,"lon":5.44095,"is_reserved":false,"is_disabled":false,"rental_uris":{"android":"levelo://app?vid=59aab69d-aa14-4a71-8d9b-0aa143ba58f2","ios":"levelo://app?vid=59aab69d-aa14-4a71-8d9b-0aa143ba58f2"},"vehicle_type_id":"4","last_reported":1766268598,"current_range_meters":8400,"station_id":"st_d3j3df2ikq2c7380ej80","pricing_plan_id":"cebpf4jnsgd1na2vs0mg"},{"bike_id":"1111ad6d-61dc-46ac-aba7-b8a215b0ce39","system_id":"levelo_inurba_marseille","lat":43.30604,"lon":5.372295,"is_reserved":false,"is_disabled":false,"rental_uris":{"android":"levelo://app?vid=1111ad6d-61dc-46ac-aba7-b8a215b0ce39","ios":"levelo://app?vid=1111ad6d-61dc-46ac-aba7-b8a215b0ce39"},"vehicle_type_id":"4","last_reported":1766268598,"current_range_meters":8400,"station_id":"ce4bgqh2rcd13ifvqc4g","pricing_plan_id":"cebpf4jnsgd1na2vs0mg"},{"bike_id":"7253e438-cc08-4cbc-80e3-117e38665b59","system_id":"levelo_inurba_marseille","lat":43.21189,"lon":5.35073,"is_reserved":false,"is_disabled":false,"rental_uris":{"android":"levelo://app?vid=7253e438-cc08-4cbc-80e3-117e38665b59","ios":"levelo://app?vid=7253e438-cc08-4cbc-80e3-117e38665b59"},"vehicle_type_id":"4","last_reported":1766268598,"current_range_meters":8400,"station_id":"st_cvj6sg6p6f1abm77japg","pricing_plan_id":"cebpf4jnsgd1na2vs0mg"},{"bike_id":"73ea5843-7a81-4a25-8c8a-00e4123c94e5","system_id":"levelo_inurba_marseille","lat":43.257095,"lon":5.411066,"is_reserved":false,"is_disabled":false,"rental_uris":{"android":"levelo://app?vid=73ea5843-7a81-4a25-8c8a-00e4123c94e5","ios":"levelo://app?vid=73ea5843-7a81-4a25-8c8a-00e4123c94e5"},"vehicle_type_id":"4","last_reported":1766268598,"current_range_meters":8800,"station_id":"ce4bhkp2rcd13ifvqgd0","pricing_plan_id":"cebpf4jnsgd1na2vs0mg"},{"bike_id":"025bcf3c-9127-4e0c-b7ed-8709d35ce958","system_id":"levelo_inurba_marseille","lat":43.31752,"lon":5.37221,"is_reserved":false,"is_disabled":false,"rental_uris":{"android":"levelo://app?vid=025bcf3c-9127-4e0c-b7ed-8709d35ce958","ios":"levelo://app?vid=025bcf3c-9127-4e0c-b7ed-8709d35ce958"},"vehicle_type_id":"4","last_reported":1766268598,"current_range_meters":8800,"station_id":"","pricing_plan_id":"cebpf4jnsgd1na2vs0mg"},{"bike_id":"bbe6d64f-2cb1-409d-ba24-ff27de876e43","system_id":"levelo_inurba_marseille","lat":43.28539,"lon":5.44114,"is_reserved":false,"is_disabled":false,"rental_uris":{"android":"levelo://app?vid=bbe6d64f-2cb1-409d-ba24-ff27de876e43","ios":"levelo://app?vid=bbe6d64f-2cb1-409d-ba24-ff27de876e43"},"vehicle_type_id":"4","last_reported":1766268598,"current_range_meters":8800,"station_id":"st_d3j3df2ikq2c7380ej80","pricing_plan_id":"cebpf4jnsgd1na2vs0mg"},{"bike_id":"88a153a7-6bbc-40e9-b470-24b7da72ce66","system_id":"levelo_inurba_marseille","lat":43.3095,"lon":5.39028,"is_reserved":false,"is_disabled":false,"rental_uris":{"android":"levelo://app?vid=88a153a7-6bbc-40e9-b470-24b7da72ce66","ios":"levelo://app?vid=88a153a7-6bbc-40e9-b470-24b7da72ce66"},"vehicle_type_id":"4","last_reported":1766268598,"current_range_meters":8800,"station_id":"ce4bgup2rcd13ifvqco0","pricing_plan_id":"cebpf4jnsgd1na2vs0mg"},{"bike_id":"99ad97c1-5a83-4b1c-9cf1-08492f7d7210","system_id":"levelo_inurba_marseille","lat":43.29249,"lon":5.409,"is_reserved":false,"is_disabled":false,"rental_uris":{"android":"levelo://app?vid=99ad97c1-5a83-4b1c-9cf1-08492f7d7210","ios":"levelo://app?vid=99ad97c1-5a83-4b1c-9cf1-08492f7d7210"},"vehicle_type_id":"4","last_reported":1766268598,"current_range_meters":8800,"station_id":"ce4bh192rcd13ifvqdc0","pricing_plan_id":"cebpf4jnsgd1na2vs0mg"},{"bike_id":"bcb638ec-1f7a-45bb-913f-62a7a0a453a1","system_id":"levelo_inurba_marseille","lat":43.29835,"lon":5.38574,"is_reserved":false,"is_disabled":false,"rental_uris":{"android":"levelo://app?vid=bcb638ec-1f7a-45bb-913f-62a7a0a453a1","ios":"levelo://app?vid=bcb638ec-1f7a-45bb-913f-62a7a0a453a1"},"vehicle_type_id":"4","last_reported":1766268598,"current_range_meters":8800,"station_id":"","pricing_plan_id":"cebpf4jnsgd1na2vs0mg"},{"bike_id":"16cbd352-d293-4a94-96f0-eea08a192136","system_id":"levelo_inurba_marseille","lat":43.26451,"lon":5.39079,"is_reserved":false,"is_disabled":false,"rental_uris":{"android":"levelo://app?vid=16cbd352-d293-4a94-96f0-eea08a192136","ios":"levelo://app?vid=16cbd352-d293-4a94-96f0-eea08a192136"},"vehicle_type_id":"4","last_reported":1766268598,"current_range_meters":8800,"station_id":"","pricing_plan_id":"cebpf4jnsgd1na2vs0mg"},{"bike_id":"ad96ab35-147e-4b00-8b43-b29c4d85a4c0","system_id":"levelo_inurba_marseille","lat":43.29666,"lon":5.36953,"is_reserved":false,"is_disabled":false,"rental_uris":{"android":"levelo://app?vid=ad96ab35-147e-4b00-8b43-b29c4d85a4c0","ios":"levelo://app?vid=ad96ab35-147e-4b00-8b43-b29c4d85a4c0"},"vehicle_type_id":"4","last_reported":1766268598,"current_range_meters":8800,"station_id":"","pricing_plan_id":"cebpf4jnsgd1na2vs0mg"},{"bike_id":"156e61f2-3d75-4260-9924-a8b3ec92c21b","system_id":"levelo_inurba_marseille","lat":43.2256,"lon":5.41649,"is_reserved":false,"is_disabled":true,"rental_uris":{"android":"levelo://app?vid=156e61f2-3d75-4260-9924-a8b3ec92c21b","ios":"levelo://app?vid=156e61f2-3d75-4260-9924-a8b3ec92c21b"},"vehicle_type_id":"4","last_reported":1766268598,"current_range_meters":8800,"station_id":"st_d2o4gvlbi1j2169b742g","pricing_plan_id":"cebpf4jnsgd1na2vs0mg"},{"bike_id":"4269b526-3cce-4989-9e56-f0e31decc13e","system_id":"levelo_inurba_marseille","lat":43.29621,"lon":5.40564,"is_reserved":false,"is_disabled":false,"rental_uris":{"android":"levelo://app?vid=4269b526-3cce-4989-9e56-f0e31decc13e","ios":"levelo://app?vid=4269b526-3cce-4989-9e56-f0e31decc13e"},"vehicle_type_id":"4","last_reported":1766268598,"current_range_meters":8800,"station_id":"ce4bh0h2rcd13ifvqd60","pricing_plan_id":"cebpf4jnsgd1na2vs0mg"},{"bike_id":"c17847cb-cceb-4757-8be0-520b0ce14b95","system_id":"levelo_inurba_marseille","lat":43.27686,"lon":5.38922,"is_reserved":false,"is_disabled":false,"rental_uris":{"android":"levelo://app?vid=c17847cb-cceb-4757-8be0-520b0ce14b95","ios":"levelo://app?vid=c17847cb-cceb-4757-8be0-520b0ce14b95"},"vehicle_type_id":"4","last_reported":1766268598,"current_range_meters":8800,"station_id":"ce4bhi12rcd13ifvqfo0","pricing_plan_id":"cebpf4jnsgd1na2vs0mg"},{"bike_id":"3082ab75-2c15-422b-9739-f0cf65236f2d","system_id":"levelo_inurba_marseille","lat":43.24669,"lon":5.38117,"is_reserved":false,"is_disabled":false,"rental_uris":{"android":"levelo://app?vid=3082ab75-2c15-422b-9739-f0cf65236f2d","ios":"levelo://app?vid=3082ab75-2c15-422b-9739-f0cf65236f2d"},"vehicle_type_id":"4","last_reported":1766268598,"current_range_meters":8800,"station_id":"ce4bhih2rcd13ifvqfr0","pricing_plan_id":"cebpf4jnsgd1na2vs0mg"},{"bike_id":"a155df3e-4b60-4af2-bb99-ef9672812592","system_id":"levelo_inurba_marseille","lat":43.31173,"lon":5.38145,"is_reserved":false,"is_disabled":false,"rental_uris":{"android":"levelo://app?vid=a155df3e-4b60-4af2-bb99-ef9672812592","ios":"levelo://app?vid=a155df3e-4b60-4af2-bb99-ef9672812592"},"vehicle_type_id":"4","last_reported":1766268598,"current_range_meters":8800,"station_id":"","pricing_plan_id":"cebpf4jnsgd1na2vs0mg"},{"bike_id":"8daeb442-0857-4d15-8ca1-8a6230a3d836","system_id":"levelo_inurba_marseille","lat":43.28021,"lon":5.36942,"is_reserved":false,"is_disabled":false,"rental_uris":{"android":"levelo://app?vid=8daeb442-0857-4d15-8ca1-8a6230a3d836","ios":"levelo://app?vid=8daeb442-0857-4d15-8ca1-8a6230a3d836"},"vehicle_type_id":"4","last_reported":1766268598,"current_range_meters":9200,"station_id":"ce4bha12rcd13ifvqef0","pricing_plan_id":"cebpf4jnsgd1na2vs0mg"},{"bike_id":"af1f9193-90aa-4f34-b2c4-fb0bbaea183c","system_id":"levelo_inurba_marseille","lat":43.28479,"lon":5.48404,"is_reserved":false,"is_disabled":false,"rental_uris":{"android":"levelo://app?vid=af1f9193-90aa-4f34-b2c4-fb0bbaea183c","ios":"levelo://app?vid=af1f9193-90aa-4f34-b2c4-fb0bbaea183c"},"vehicle_type_id":"4","last_reported":1766268598,"current_range_meters":9200,"station_id":"st_d3svhcjqgbts73a3dn0g","pricing_plan_id":"cebpf4jnsgd1na2vs0mg"},{"bike_id":"f5f39ef6-41ea-4c20-9495-a6314c50823c","system_id":"levelo_inurba_marseille","lat":43.29962,"lon":5.41316,"is_reserved":false,"is_disabled":false,"rental_uris":{"android":"levelo://app?vid=f5f39ef6-41ea-4c20-9495-a6314c50823c","ios":"levelo://app?vid=f5f39ef6-41ea-4c20-9495-a6314c50823c"},"vehicle_type_id":"4","last_reported":1766268598,"current_range_meters":9200,"station_id":"ce4bhp12rcd13ifvqh9g","pricing_plan_id":"cebpf4jnsgd1na2vs0mg"},{"bike_id":"8d1f60d4-40f8-45ca-90ee-933bb4634a75","system_id":"levelo_inurba_marseille","lat":43.22562,"lon":5.41627,"is_reserved":false,"is_disabled":false,"rental_uris":{"android":"levelo://app?vid=8d1f60d4-40f8-45ca-90ee-933bb4634a75","ios":"levelo://app?vid=8d1f60d4-40f8-45ca-90ee-933bb4634a75"},"vehicle_type_id":"4","last_reported":1766268598,"current_range_meters":9200,"station_id":"st_d2o4gvlbi1j2169b742g","pricing_plan_id":"cebpf4jnsgd1na2vs0mg"},{"bike_id":"9b5a730d-e0e9-4daf-9138-8878ba912514","system_id":"levelo_inurba_marseille","lat":43.25879,"lon":5.39904,"is_reserved":false,"is_disabled":false,"rental_uris":{"android":"levelo://app?vid=9b5a730d-e0e9-4daf-9138-8878ba912514","ios":"levelo://app?vid=9b5a730d-e0e9-4daf-9138-8878ba912514"},"vehicle_type_id":"4","last_reported":1766268598,"current_range_meters":9200,"station_id":"ce4bhl92rcd13ifvqghg","pricing_plan_id":"cebpf4jnsgd1na2vs0mg"},{"bike_id":"7739d4c4-d3c5-4b12-85f7-d9ca49150e66","system_id":"levelo_inurba_marseille","lat":43.31064,"lon":5.38345,"is_reserved":false,"is_disabled":false,"rental_uris":{"android":"levelo://app?vid=7739d4c4-d3c5-4b12-85f7-d9ca49150e66","ios":"levelo://app?vid=7739d4c4-d3c5-4b12-85f7-d9ca49150e66"},"vehicle_type_id":"4","last_reported":1766268598,"current_range_meters":9600,"station_id":"ce4bgv92rcd13ifvqcr0","pricing_plan_id":"cebpf4jnsgd1na2vs0mg"},{"bike_id":"b93ee6cd-d46b-4d33-8313-23684a41a56c","system_id":"levelo_inurba_marseille","lat":43.237835,"lon":5.366328,"is_reserved":false,"is_disabled":false,"rental_uris":{"android":"levelo://app?vid=b93ee6cd-d46b-4d33-8313-23684a41a56c","ios":"levelo://app?vid=b93ee6cd-d46b-4d33-8313-23684a41a56c"},"vehicle_type_id":"4","last_reported":1766268598,"current_range_meters":9600,"station_id":"st_d3nk18o9ro0c73en2l3g","pricing_plan_id":"cebpf4jnsgd1na2vs0mg"},{"bike_id":"84a13453-0f5f-4f33-9b64-a2eb4f5a448d","system_id":"levelo_inurba_marseille","lat":43.27188,"lon":5.40986,"is_reserved":false,"is_disabled":false,"rental_uris":{"android":"levelo://app?vid=84a13453-0f5f-4f33-9b64-a2eb4f5a448d","ios":"levelo://app?vid=84a13453-0f5f-4f33-9b64-a2eb4f5a448d"},"vehicle_type_id":"4","last_reported":1766268598,"current_range_meters":9600,"station_id":"ce4bhl12rcd13ifvqgf0","pricing_plan_id":"cebpf4jnsgd1na2vs0mg"},{"bike_id":"13510b18-4a9b-47d0-a954-6d7cdc2c118c","system_id":"levelo_inurba_marseille","lat":43.28483,"lon":5.48388,"is_reserved":false,"is_disabled":false,"rental_uris":{"android":"levelo://app?vid=13510b18-4a9b-47d0-a954-6d7cdc2c118c","ios":"levelo://app?vid=13510b18-4a9b-47d0-a954-6d7cdc2c118c"},"vehicle_type_id":"4","last_reported":1766268598,"current_range_meters":9600,"station_id":"","pricing_plan_id":"cebpf4jnsgd1na2vs0mg"},{"bike_id":"07258fed-d711-469a-96e8-45309a3e88eb","system_id":"levelo_inurba_marseille","lat":43.27071,"lon":5.39929,"is_reserved":false,"is_disabled":false,"rental_uris":{"android":"levelo://app?vid=07258fed-d711-469a-96e8-45309a3e88eb","ios":"levelo://app?vid=07258fed-d711-469a-96e8-45309a3e88eb"},"vehicle_type_id":"4","last_reported":1766268598,"current_range_meters":9600,"station_id":"st_d2m65c5bi1j21697t3ng","pricing_plan_id":"cebpf4jnsgd1na2vs0mg"},{"bike_id":"73278cb8-eff4-493e-bb3c-f3c420880d0d","system_id":"levelo_inurba_marseille","lat":43.26577,"lon":5.3902,"is_reserved":false,"is_disabled":false,"rental_uris":{"android":"levelo://app?vid=73278cb8-eff4-493e-bb3c-f3c420880d0d","ios":"levelo://app?vid=73278cb8-eff4-493e-bb3c-f3c420880d0d"},"vehicle_type_id":"4","last_reported":1766268598,"current_range_meters":9600,"station_id":"ce4bhe12rcd13ifvqf30","pricing_plan_id":"cebpf4jnsgd1na2vs0mg"},{"bike_id":"3e0bbc55-72f2-4117-8163-1e6612b1714f","system_id":"levelo_inurba_marseille","lat":43.27065,"lon":5.4227,"is_reserved":false,"is_disabled":false,"rental_uris":{"android":"levelo://app?vid=3e0bbc55-72f2-4117-8163-1e6612b1714f","ios":"levelo://app?vid=3e0bbc55-72f2-4117-8163-1e6612b1714f"},"vehicle_type_id":"4","last_reported":1766268598,"current_range_meters":9600,"station_id":"ce4bhk92rcd13ifvqgb0","pricing_plan_id":"cebpf4jnsgd1na2vs0mg"},{"bike_id":"b66e6001-42b2-4cd7-9e7b-84f8964d6c17","system_id":"levelo_inurba_marseille","lat":43.3248,"lon":5.38283,"is_reserved":false,"is_disabled":false,"rental_uris":{"android":"levelo://app?vid=b66e6001-42b2-4cd7-9e7b-84f8964d6c17","ios":"levelo://app?vid=b66e6001-42b2-4cd7-9e7b-84f8964d6c17"},"vehicle_type_id":"4","last_reported":1766268598,"current_range_meters":9600,"station_id":"st_d4asgbiv49dc73anf9m0","pricing_plan_id":"cebpf4jnsgd1na2vs0mg"},{"bike_id":"e690c867-6f92-4878-bff7-a3243322d024","system_id":"levelo_inurba_marseille","lat":43.29482,"lon":5.4276,"is_reserved":false,"is_disabled":false,"rental_uris":{"android":"levelo://app?vid=e690c867-6f92-4878-bff7-a3243322d024","ios":"levelo://app?vid=e690c867-6f92-4878-bff7-a3243322d024"},"vehicle_type_id":"4","last_reported":1766268598,"current_range_meters":9600,"station_id":"","pricing_plan_id":"cebpf4jnsgd1na2vs0mg"},{"bike_id":"5ea35be9-90f0-45b8-858d-d5f7cd3fb810","system_id":"levelo_inurba_marseille","lat":43.321045,"lon":5.367685,"is_reserved":false,"is_disabled":false,"rental_uris":{"android":"levelo://app?vid=5ea35be9-90f0-45b8-858d-d5f7cd3fb810","ios":"levelo://app?vid=5ea35be9-90f0-45b8-858d-d5f7cd3fb810"},"vehicle_type_id":"4","last_reported":1766268598,"current_range_meters":9600,"station_id":"ce4bhrh2rcd13ifvqhug","pricing_plan_id":"cebpf4jnsgd1na2vs0mg"},{"bike_id":"270a1c42-4d2a-4a5c-a685-dea661a7064b","system_id":"levelo_inurba_marseille","lat":43.28736,"lon":5.400279,"is_reserved":false,"is_disabled":false,"rental_uris":{"android":"levelo://app?vid=270a1c42-4d2a-4a5c-a685-dea661a7064b","ios":"levelo://app?vid=270a1c42-4d2a-4a5c-a685-dea661a7064b"},"vehicle_type_id":"4","last_reported":1766268598,"current_range_meters":9600,"station_id":"ce4bho92rcd13ifvqh3g","pricing_plan_id":"cebpf4jnsgd1na2vs0mg"},{"bike_id":"4f2bc6c6-d63f-4e59-bdbf-91760def261d","system_id":"levelo_inurba_marseille","lat":43.28523,"lon":5.44101,"is_reserved":false,"is_disabled":false,"rental_uris":{"android":"levelo://app?vid=4f2bc6c6-d63f-4e59-bdbf-91760def261d","ios":"levelo://app?vid=4f2bc6c6-d63f-4e59-bdbf-91760def261d"},"vehicle_type_id":"4","last_reported":1766268598,"current_range_meters":9600,"station_id":"st_d3j3df2ikq2c7380ej80","pricing_plan_id":"cebpf4jnsgd1na2vs0mg"},{"bike_id":"90dac6f2-4e58-4623-b929-4f8d06ec1c31","system_id":"levelo_inurba_marseille","lat":43.28507,"lon":5.42615,"is_reserved":false,"is_disabled":false,"rental_uris":{"android":"levelo://app?vid=90dac6f2-4e58-4623-b929-4f8d06ec1c31","ios":"levelo://app?vid=90dac6f2-4e58-4623-b929-4f8d06ec1c31"},"vehicle_type_id":"4","last_reported":1766268598,"current_range_meters":10000,"station_id":"","pricing_plan_id":"cebpf4jnsgd1na2vs0mg"},{"bike_id":"3c6e115a-4e88-4ff0-a629-f9b030c94498","system_id":"levelo_inurba_marseille","lat":43.24662,"lon":5.38175,"is_reserved":false,"is_disabled":true,"rental_uris":{"android":"levelo://app?vid=3c6e115a-4e88-4ff0-a629-f9b030c94498","ios":"levelo://app?vid=3c6e115a-4e88-4ff0-a629-f9b030c94498"},"vehicle_type_id":"4","last_reported":1766268598,"current_range_meters":10000,"station_id":"ce4bhih2rcd13ifvqfr0","pricing_plan_id":"cebpf4jnsgd1na2vs0mg"},{"bike_id":"9288dce9-f7b9-4348-89e0-817fc8bdda7b","system_id":"levelo_inurba_marseille","lat":43.29593,"lon":5.37494,"is_reserved":false,"is_disabled":false,"rental_uris":{"android":"levelo://app?vid=9288dce9-f7b9-4348-89e0-817fc8bdda7b","ios":"levelo://app?vid=9288dce9-f7b9-4348-89e0-817fc8bdda7b"},"vehicle_type_id":"4","last_reported":1766268598,"current_range_meters":10000,"station_id":"ce4bgh92rcd13ifvqb50","pricing_plan_id":"cebpf4jnsgd1na2vs0mg"},{"bike_id":"d333f5c5-54f8-4cf5-940a-bb6a2ed8e5fd","system_id":"levelo_inurba_marseille","lat":43.30565,"lon":5.37617,"is_reserved":false,"is_disabled":false,"rental_uris":{"android":"levelo://app?vid=d333f5c5-54f8-4cf5-940a-bb6a2ed8e5fd","ios":"levelo://app?vid=d333f5c5-54f8-4cf5-940a-bb6a2ed8e5fd"},"vehicle_type_id":"4","last_reported":1766268598,"current_range_meters":10000,"station_id":"","pricing_plan_id":"cebpf4jnsgd1na2vs0mg"},{"bike_id":"4e862937-5d2b-4731-940c-e34997464ee9","system_id":"levelo_inurba_marseille","lat":43.28346,"lon":5.381,"is_reserved":false,"is_disabled":false,"rental_uris":{"android":"levelo://app?vid=4e862937-5d2b-4731-940c-e34997464ee9","ios":"levelo://app?vid=4e862937-5d2b-4731-940c-e34997464ee9"},"vehicle_type_id":"4","last_reported":1766268598,"current_range_meters":10000,"station_id":"ce4bh412rcd13ifvqdr0","pricing_plan_id":"cebpf4jnsgd1na2vs0mg"},{"bike_id":"27a47652-5b73-453a-bdee-e320839f1eec","system_id":"levelo_inurba_marseille","lat":43.27324,"lon":5.39115,"is_reserved":false,"is_disabled":false,"rental_uris":{"android":"levelo://app?vid=27a47652-5b73-453a-bdee-e320839f1eec","ios":"levelo://app?vid=27a47652-5b73-453a-bdee-e320839f1eec"},"vehicle_type_id":"4","last_reported":1766268598,"current_range_meters":10000,"station_id":"ce4bhgp2rcd13ifvqfe0","pricing_plan_id":"cebpf4jnsgd1na2vs0mg"},{"bike_id":"628a75f3-7312-4f05-a812-11eaca59fded","system_id":"levelo_inurba_marseille","lat":43.28461,"lon":5.38573,"is_reserved":false,"is_disabled":false,"rental_uris":{"android":"levelo://app?vid=628a75f3-7312-4f05-a812-11eaca59fded","ios":"levelo://app?vid=628a75f3-7312-4f05-a812-11eaca59fded"},"vehicle_type_id":"4","last_reported":1766268598,"current_range_meters":10000,"station_id":"ce4bh8p2rcd13ifvqeb0","pricing_plan_id":"cebpf4jnsgd1na2vs0mg"},{"bike_id":"c84b8e47-5802-4c21-b1cc-1df47c4f26c2","system_id":"levelo_inurba_marseille","lat":43.28473,"lon":5.48386,"is_reserved":false,"is_disabled":false,"rental_uris":{"android":"levelo://app?vid=c84b8e47-5802-4c21-b1cc-1df47c4f26c2","ios":"levelo://app?vid=c84b8e47-5802-4c21-b1cc-1df47c4f26c2"},"vehicle_type_id":"4","last_reported":1766268598,"current_range_meters":10000,"station_id":"","pricing_plan_id":"cebpf4jnsgd1na2vs0mg"},{"bike_id":"693daa65-f98e-49a9-8cb7-de40b16ccdc7","system_id":"levelo_inurba_marseille","lat":43.22571,"lon":5.41636,"is_reserved":false,"is_disabled":false,"rental_uris":{"android":"levelo://app?vid=693daa65-f98e-49a9-8cb7-de40b16ccdc7","ios":"levelo://app?vid=693daa65-f98e-49a9-8cb7-de40b16ccdc7"},"vehicle_type_id":"4","last_reported":1766268598,"current_range_meters":10000,"station_id":"st_d2o4gvlbi1j2169b742g","pricing_plan_id":"cebpf4jnsgd1na2vs0mg"},{"bike_id":"2a0b8521-e8c2-435f-ac2a-f305f0065e9f","system_id":"levelo_inurba_marseille","lat":43.211949,"lon":5.35067,"is_reserved":false,"is_disabled":false,"rental_uris":{"android":"levelo://app?vid=2a0b8521-e8c2-435f-ac2a-f305f0065e9f","ios":"levelo://app?vid=2a0b8521-e8c2-435f-ac2a-f305f0065e9f"},"vehicle_type_id":"4","last_reported":1766268598,"current_range_meters":10800,"station_id":"","pricing_plan_id":"cebpf4jnsgd1na2vs0mg"},{"bike_id":"1a399a16-62ed-47ae-ba1c-654e7762c033","system_id":"levelo_inurba_marseille","lat":43.30019,"lon":5.37959,"is_reserved":false,"is_disabled":false,"rental_uris":{"android":"levelo://app?vid=1a399a16-62ed-47ae-ba1c-654e7762c033","ios":"levelo://app?vid=1a399a16-62ed-47ae-ba1c-654e7762c033"},"vehicle_type_id":"4","last_reported":1766268598,"current_range_meters":10800,"station_id":"","pricing_plan_id":"cebpf4jnsgd1na2vs0mg"},{"bike_id":"40009ca7-653c-4ec5-9d63-44cc85c4497a","system_id":"levelo_inurba_marseille","lat":43.29521,"lon":5.37505,"is_reserved":false,"is_disabled":false,"rental_uris":{"android":"levelo://app?vid=40009ca7-653c-4ec5-9d63-44cc85c4497a","ios":"levelo://app?vid=40009ca7-653c-4ec5-9d63-44cc85c4497a"},"vehicle_type_id":"4","last_reported":1766268598,"current_range_meters":10800,"station_id":"ce4bgkp2rcd13ifvqbmg","pricing_plan_id":"cebpf4jnsgd1na2vs0mg"},{"bike_id":"355853da-93f2-4192-945c-727c46e64804","system_id":"levelo_inurba_marseille","lat":43.23944,"lon":5.39763,"is_reserved":false,"is_disabled":false,"rental_uris":{"android":"levelo://app?vid=355853da-93f2-4192-945c-727c46e64804","ios":"levelo://app?vid=355853da-93f2-4192-945c-727c46e64804"},"vehicle_type_id":"4","last_reported":1766268598,"current_range_meters":10800,"station_id":"","pricing_plan_id":"cebpf4jnsgd1na2vs0mg"},{"bike_id":"6321fe57-59f4-4d15-83e3-f64320476ab2","system_id":"levelo_inurba_marseille","lat":43.21197,"lon":5.35075,"is_reserved":false,"is_disabled":false,"rental_uris":{"android":"levelo://app?vid=6321fe57-59f4-4d15-83e3-f64320476ab2","ios":"levelo://app?vid=6321fe57-59f4-4d15-83e3-f64320476ab2"},"vehicle_type_id":"4","last_reported":1766268598,"current_range_meters":10800,"station_id":"st_cvj6sg6p6f1abm77japg","pricing_plan_id":"cebpf4jnsgd1na2vs0mg"},{"bike_id":"8946ed89-1084-41ac-9051-51993bcbdd4f","system_id":"levelo_inurba_marseille","lat":43.29576,"lon":5.37502,"is_reserved":false,"is_disabled":false,"rental_uris":{"android":"levelo://app?vid=8946ed89-1084-41ac-9051-51993bcbdd4f","ios":"levelo://app?vid=8946ed89-1084-41ac-9051-51993bcbdd4f"},"vehicle_type_id":"4","last_reported":1766268598,"current_range_meters":10800,"station_id":"ce4bgh92rcd13ifvqb50","pricing_plan_id":"cebpf4jnsgd1na2vs0mg"},{"bike_id":"5cdf0c26-71fe-4230-ab4f-b50d47db508a","system_id":"levelo_inurba_marseille","lat":43.30117,"lon":5.39754,"is_reserved":false,"is_disabled":false,"rental_uris":{"android":"levelo://app?vid=5cdf0c26-71fe-4230-ab4f-b50d47db508a","ios":"levelo://app?vid=5cdf0c26-71fe-4230-ab4f-b50d47db508a"},"vehicle_type_id":"4","last_reported":1766268598,"current_range_meters":10800,"station_id":"","pricing_plan_id":"cebpf4jnsgd1na2vs0mg"},{"bike_id":"11072089-4b46-418b-8a56-7ed3428c06cc","system_id":"levelo_inurba_marseille","lat":43.30736,"lon":5.37107,"is_reserved":false,"is_disabled":false,"rental_uris":{"android":"levelo://app?vid=11072089-4b46-418b-8a56-7ed3428c06cc","ios":"levelo://app?vid=11072089-4b46-418b-8a56-7ed3428c06cc"},"vehicle_type_id":"4","last_reported":1766268598,"current_range_meters":10800,"station_id":"","pricing_plan_id":"cebpf4jnsgd1na2vs0mg"},{"bike_id":"70571eb3-1ed9-45b8-b88d-a5d69fb4688a","system_id":"levelo_inurba_marseille","lat":43.24665,"lon":5.38149,"is_reserved":false,"is_disabled":false,"rental_uris":{"android":"levelo://app?vid=70571eb3-1ed9-45b8-b88d-a5d69fb4688a","ios":"levelo://app?vid=70571eb3-1ed9-45b8-b88d-a5d69fb4688a"},"vehicle_type_id":"4","last_reported":1766268598,"current_range_meters":10800,"station_id":"ce4bhih2rcd13ifvqfr0","pricing_plan_id":"cebpf4jnsgd1na2vs0mg"},{"bike_id":"98c040ff-ac12-4358-bded-c79cb9358db9","system_id":"levelo_inurba_marseille","lat":43.31721,"lon":5.42397,"is_reserved":false,"is_disabled":false,"rental_uris":{"android":"levelo://app?vid=98c040ff-ac12-4358-bded-c79cb9358db9","ios":"levelo://app?vid=98c040ff-ac12-4358-bded-c79cb9358db9"},"vehicle_type_id":"4","last_reported":1766268598,"current_range_meters":10800,"station_id":"ce4bhp92rcd13ifvqhbg","pricing_plan_id":"cebpf4jnsgd1na2vs0mg"},{"bike_id":"de4957ca-9c93-409a-ae9b-9b8d86479fcf","system_id":"levelo_inurba_marseille","lat":43.29537,"lon":5.37486,"is_reserved":false,"is_disabled":false,"rental_uris":{"android":"levelo://app?vid=de4957ca-9c93-409a-ae9b-9b8d86479fcf","ios":"levelo://app?vid=de4957ca-9c93-409a-ae9b-9b8d86479fcf"},"vehicle_type_id":"4","last_reported":1766268598,"current_range_meters":11200,"station_id":"ce4bgkp2rcd13ifvqbmg","pricing_plan_id":"cebpf4jnsgd1na2vs0mg"},{"bike_id":"e23c6908-1148-4542-b6eb-bf0b95251a99","system_id":"levelo_inurba_marseille","lat":43.29511,"lon":5.37521,"is_reserved":false,"is_disabled":false,"rental_uris":{"android":"levelo://app?vid=e23c6908-1148-4542-b6eb-bf0b95251a99","ios":"levelo://app?vid=e23c6908-1148-4542-b6eb-bf0b95251a99"},"vehicle_type_id":"4","last_reported":1766268598,"current_range_meters":11200,"station_id":"ce4bgkp2rcd13ifvqbmg","pricing_plan_id":"cebpf4jnsgd1na2vs0mg"},{"bike_id":"50a7fbb1-9181-42ff-87f3-dc8546bb94f6","system_id":"levelo_inurba_marseille","lat":43.26571,"lon":5.39009,"is_reserved":false,"is_disabled":false,"rental_uris":{"android":"levelo://app?vid=50a7fbb1-9181-42ff-87f3-dc8546bb94f6","ios":"levelo://app?vid=50a7fbb1-9181-42ff-87f3-dc8546bb94f6"},"vehicle_type_id":"4","last_reported":1766268598,"current_range_meters":11200,"station_id":"ce4bhe12rcd13ifvqf30","pricing_plan_id":"cebpf4jnsgd1na2vs0mg"},{"bike_id":"06fae415-f45a-47d1-81b6-79d818bb9da0","system_id":"levelo_inurba_marseille","lat":43.29561,"lon":5.37506,"is_reserved":false,"is_disabled":false,"rental_uris":{"android":"levelo://app?vid=06fae415-f45a-47d1-81b6-79d818bb9da0","ios":"levelo://app?vid=06fae415-f45a-47d1-81b6-79d818bb9da0"},"vehicle_type_id":"4","last_reported":1766268598,"current_range_meters":11200,"station_id":"ce4bgh92rcd13ifvqb50","pricing_plan_id":"cebpf4jnsgd1na2vs0mg"},{"bike_id":"e34de377-5e3f-4ed9-87a5-527091617ac5","system_id":"levelo_inurba_marseille","lat":43.29524,"lon":5.37503,"is_reserved":false,"is_disabled":false,"rental_uris":{"android":"levelo://app?vid=e34de377-5e3f-4ed9-87a5-527091617ac5","ios":"levelo://app?vid=e34de377-5e3f-4ed9-87a5-527091617ac5"},"vehicle_type_id":"4","last_reported":1766268598,"current_range_meters":11200,"station_id":"ce4bgkp2rcd13ifvqbmg","pricing_plan_id":"cebpf4jnsgd1na2vs0mg"},{"bike_id":"88faa14e-1a0a-4d67-8915-3eda7601efcf","system_id":"levelo_inurba_marseille","lat":43.211876,"lon":5.35069,"is_reserved":false,"is_disabled":false,"rental_uris":{"android":"levelo://app?vid=88faa14e-1a0a-4d67-8915-3eda7601efcf","ios":"levelo://app?vid=88faa14e-1a0a-4d67-8915-3eda7601efcf"},"vehicle_type_id":"4","last_reported":1766268598,"current_range_meters":11200,"station_id":"st_cvj6sg6p6f1abm77japg","pricing_plan_id":"cebpf4jnsgd1na2vs0mg"},{"bike_id":"effef805-7463-4e91-a7b6-16717010e31a","system_id":"levelo_inurba_marseille","lat":43.29266,"lon":5.40902,"is_reserved":false,"is_disabled":false,"rental_uris":{"android":"levelo://app?vid=effef805-7463-4e91-a7b6-16717010e31a","ios":"levelo://app?vid=effef805-7463-4e91-a7b6-16717010e31a"},"vehicle_type_id":"4","last_reported":1766268598,"current_range_meters":11200,"station_id":"ce4bh192rcd13ifvqdc0","pricing_plan_id":"cebpf4jnsgd1na2vs0mg"},{"bike_id":"1ee90a12-7a1e-409c-9dd8-37f1efbbbffd","system_id":"levelo_inurba_marseille","lat":43.23787,"lon":5.36627,"is_reserved":false,"is_disabled":false,"rental_uris":{"android":"levelo://app?vid=1ee90a12-7a1e-409c-9dd8-37f1efbbbffd","ios":"levelo://app?vid=1ee90a12-7a1e-409c-9dd8-37f1efbbbffd"},"vehicle_type_id":"4","last_reported":1766268598,"current_range_meters":11200,"station_id":"st_d3nk18o9ro0c73en2l3g","pricing_plan_id":"cebpf4jnsgd1na2vs0mg"},{"bike_id":"220aff5d-2c09-4121-a94f-34ba8ddd6f6f","system_id":"levelo_inurba_marseille","lat":43.2854,"lon":5.44097,"is_reserved":false,"is_disabled":false,"rental_uris":{"android":"levelo://app?vid=220aff5d-2c09-4121-a94f-34ba8ddd6f6f","ios":"levelo://app?vid=220aff5d-2c09-4121-a94f-34ba8ddd6f6f"},"vehicle_type_id":"4","last_reported":1766268598,"current_range_meters":11200,"station_id":"st_d3j3df2ikq2c7380ej80","pricing_plan_id":"cebpf4jnsgd1na2vs0mg"},{"bike_id":"85f80c36-b01d-4148-8a0f-5ed00798dda8","system_id":"levelo_inurba_marseille","lat":43.30066,"lon":5.36522,"is_reserved":false,"is_disabled":false,"rental_uris":{"android":"levelo://app?vid=85f80c36-b01d-4148-8a0f-5ed00798dda8","ios":"levelo://app?vid=85f80c36-b01d-4148-8a0f-5ed00798dda8"},"vehicle_type_id":"4","last_reported":1766268598,"current_range_meters":11200,"station_id":"","pricing_plan_id":"cebpf4jnsgd1na2vs0mg"},{"bike_id":"f247771e-2838-4c74-9387-68cb8feccb4e","system_id":"levelo_inurba_marseille","lat":43.28585,"lon":5.40457,"is_reserved":false,"is_disabled":false,"rental_uris":{"android":"levelo://app?vid=f247771e-2838-4c74-9387-68cb8feccb4e","ios":"levelo://app?vid=f247771e-2838-4c74-9387-68cb8feccb4e"},"vehicle_type_id":"4","last_reported":1766268598,"current_range_meters":11200,"station_id":"","pricing_plan_id":"cebpf4jnsgd1na2vs0mg"},{"bike_id":"167ff5eb-f7ec-4a9a-a389-047000be67d8","system_id":"levelo_inurba_marseille","lat":43.281721,"lon":5.426342,"is_reserved":false,"is_disabled":false,"rental_uris":{"android":"levelo://app?vid=167ff5eb-f7ec-4a9a-a389-047000be67d8","ios":"levelo://app?vid=167ff5eb-f7ec-4a9a-a389-047000be67d8"},"vehicle_type_id":"4","last_reported":1766268598,"current_range_meters":11600,"station_id":"ce4bhnh2rcd13ifvqgug","pricing_plan_id":"cebpf4jnsgd1na2vs0mg"},{"bike_id":"b7e8a2cf-8551-45bd-a474-430e2d79f4e7","system_id":"levelo_inurba_marseille","lat":43.29278,"lon":5.3845,"is_reserved":false,"is_disabled":false,"rental_uris":{"android":"levelo://app?vid=b7e8a2cf-8551-45bd-a474-430e2d79f4e7","ios":"levelo://app?vid=b7e8a2cf-8551-45bd-a474-430e2d79f4e7"},"vehicle_type_id":"4","last_reported":1766268598,"current_range_meters":11600,"station_id":"ce4bh692rcd13ifvqea0","pricing_plan_id":"cebpf4jnsgd1na2vs0mg"},{"bike_id":"00a29bb1-88ca-440d-9219-07d673c689ed","system_id":"levelo_inurba_marseille","lat":43.29755,"lon":5.38479,"is_reserved":false,"is_disabled":false,"rental_uris":{"android":"levelo://app?vid=00a29bb1-88ca-440d-9219-07d673c689ed","ios":"levelo://app?vid=00a29bb1-88ca-440d-9219-07d673c689ed"},"vehicle_type_id":"4","last_reported":1766268598,"current_range_meters":11600,"station_id":"","pricing_plan_id":"cebpf4jnsgd1na2vs0mg"},{"bike_id":"9d21dcb0-ce26-48db-a303-317550439f40","system_id":"levelo_inurba_marseille","lat":43.28489,"lon":5.48395,"is_reserved":false,"is_disabled":false,"rental_uris":{"android":"levelo://app?vid=9d21dcb0-ce26-48db-a303-317550439f40","ios":"levelo://app?vid=9d21dcb0-ce26-48db-a303-317550439f40"},"vehicle_type_id":"4","last_reported":1766268598,"current_range_meters":11600,"station_id":"st_d3svhcjqgbts73a3dn0g","pricing_plan_id":"cebpf4jnsgd1na2vs0mg"},{"bike_id":"7003f313-702d-4b1e-9579-528ba4d56198","system_id":"levelo_inurba_marseille","lat":43.30164,"lon":5.38085,"is_reserved":false,"is_disabled":false,"rental_uris":{"android":"levelo://app?vid=7003f313-702d-4b1e-9579-528ba4d56198","ios":"levelo://app?vid=7003f313-702d-4b1e-9579-528ba4d56198"},"vehicle_type_id":"4","last_reported":1766268598,"current_range_meters":12000,"station_id":"ce4bgjp2rcd13ifvqbh0","pricing_plan_id":"cebpf4jnsgd1na2vs0mg"},{"bike_id":"c0fb8cc1-ebe9-4001-a3ec-0d3fc87db3d9","system_id":"levelo_inurba_marseille","lat":43.34377,"lon":5.35493,"is_reserved":false,"is_disabled":false,"rental_uris":{"android":"levelo://app?vid=c0fb8cc1-ebe9-4001-a3ec-0d3fc87db3d9","ios":"levelo://app?vid=c0fb8cc1-ebe9-4001-a3ec-0d3fc87db3d9"},"vehicle_type_id":"4","last_reported":1766268598,"current_range_meters":12000,"station_id":"","pricing_plan_id":"cebpf4jnsgd1na2vs0mg"},{"bike_id":"1297d7d4-6788-43a1-ac73-4fb6d116076e","system_id":"levelo_inurba_marseille","lat":43.29551,"lon":5.37507,"is_reserved":false,"is_disabled":true,"rental_uris":{"android":"levelo://app?vid=1297d7d4-6788-43a1-ac73-4fb6d116076e","ios":"levelo://app?vid=1297d7d4-6788-43a1-ac73-4fb6d116076e"},"vehicle_type_id":"4","last_reported":1766268598,"current_range_meters":12000,"station_id":"ce4bgkp2rcd13ifvqbmg","pricing_plan_id":"cebpf4jnsgd1na2vs0mg"},{"bike_id":"fc16fa3f-3425-4b7f-a6ba-68ebea003e5c","system_id":"levelo_inurba_marseille","lat":43.2694,"lon":5.38894,"is_reserved":false,"is_disabled":false,"rental_uris":{"android":"levelo://app?vid=fc16fa3f-3425-4b7f-a6ba-68ebea003e5c","ios":"levelo://app?vid=fc16fa3f-3425-4b7f-a6ba-68ebea003e5c"},"vehicle_type_id":"4","last_reported":1766268598,"current_range_meters":12000,"station_id":"ce4bhhh2rcd13ifvqfl0","pricing_plan_id":"cebpf4jnsgd1na2vs0mg"},{"bike_id":"0c9b32cb-982e-4cfb-8098-15bfb9c320f6","system_id":"levelo_inurba_marseille","lat":43.2928,"lon":5.36861,"is_reserved":false,"is_disabled":false,"rental_uris":{"android":"levelo://app?vid=0c9b32cb-982e-4cfb-8098-15bfb9c320f6","ios":"levelo://app?vid=0c9b32cb-982e-4cfb-8098-15bfb9c320f6"},"vehicle_type_id":"4","last_reported":1766268598,"current_range_meters":12000,"station_id":"ce4bhbp2rcd13ifvqesg","pricing_plan_id":"cebpf4jnsgd1na2vs0mg"},{"bike_id":"5c4c256b-e0f5-4c24-aeb9-e03ccfe0d2bf","system_id":"levelo_inurba_marseille","lat":43.28524,"lon":5.44107,"is_reserved":false,"is_disabled":false,"rental_uris":{"android":"levelo://app?vid=5c4c256b-e0f5-4c24-aeb9-e03ccfe0d2bf","ios":"levelo://app?vid=5c4c256b-e0f5-4c24-aeb9-e03ccfe0d2bf"},"vehicle_type_id":"4","last_reported":1766268598,"current_range_meters":12000,"station_id":"st_d3j3df2ikq2c7380ej80","pricing_plan_id":"cebpf4jnsgd1na2vs0mg"},{"bike_id":"49b32667-a5b9-4886-84eb-14582b80721d","system_id":"levelo_inurba_marseille","lat":43.29782,"lon":5.37702,"is_reserved":false,"is_disabled":false,"rental_uris":{"android":"levelo://app?vid=49b32667-a5b9-4886-84eb-14582b80721d","ios":"levelo://app?vid=49b32667-a5b9-4886-84eb-14582b80721d"},"vehicle_type_id":"4","last_reported":1766268598,"current_range_meters":12000,"station_id":"","pricing_plan_id":"cebpf4jnsgd1na2vs0mg"},{"bike_id":"f74f690a-ab44-4e9f-8a36-1702c27f53fd","system_id":"levelo_inurba_marseille","lat":43.29649,"lon":5.37038,"is_reserved":false,"is_disabled":false,"rental_uris":{"android":"levelo://app?vid=f74f690a-ab44-4e9f-8a36-1702c27f53fd","ios":"levelo://app?vid=f74f690a-ab44-4e9f-8a36-1702c27f53fd"},"vehicle_type_id":"4","last_reported":1766268598,"current_range_meters":12000,"station_id":"","pricing_plan_id":"cebpf4jnsgd1na2vs0mg"},{"bike_id":"ae4ab178-3f59-414c-83e6-d26a131c1826","system_id":"levelo_inurba_marseille","lat":43.24183,"lon":5.39714,"is_reserved":false,"is_disabled":false,"rental_uris":{"android":"levelo://app?vid=ae4ab178-3f59-414c-83e6-d26a131c1826","ios":"levelo://app?vid=ae4ab178-3f59-414c-83e6-d26a131c1826"},"vehicle_type_id":"4","last_reported":1766268598,"current_range_meters":12000,"station_id":"ce4bhn12rcd13ifvqgpg","pricing_plan_id":"cebpf4jnsgd1na2vs0mg"},{"bike_id":"1d59c8cd-3c47-4f17-bb9c-ea7786b6a748","system_id":"levelo_inurba_marseille","lat":43.26215,"lon":5.3744,"is_reserved":false,"is_disabled":false,"rental_uris":{"android":"levelo://app?vid=1d59c8cd-3c47-4f17-bb9c-ea7786b6a748","ios":"levelo://app?vid=1d59c8cd-3c47-4f17-bb9c-ea7786b6a748"},"vehicle_type_id":"4","last_reported":1766268598,"current_range_meters":12000,"station_id":"ce4bhgp2rcd13ifvqfc0","pricing_plan_id":"cebpf4jnsgd1na2vs0mg"},{"bike_id":"5046e52c-2d03-4dab-83b5-0d9b216c15bd","system_id":"levelo_inurba_marseille","lat":43.30798,"lon":5.36953,"is_reserved":false,"is_disabled":false,"rental_uris":{"android":"levelo://app?vid=5046e52c-2d03-4dab-83b5-0d9b216c15bd","ios":"levelo://app?vid=5046e52c-2d03-4dab-83b5-0d9b216c15bd"},"vehicle_type_id":"4","last_reported":1766268598,"current_range_meters":12400,"station_id":"","pricing_plan_id":"cebpf4jnsgd1na2vs0mg"},{"bike_id":"b5c37b4c-5839-4b87-9c4d-cd6cceb26ce3","system_id":"levelo_inurba_marseille","lat":43.29277,"lon":5.36845,"is_reserved":false,"is_disabled":false,"rental_uris":{"android":"levelo://app?vid=b5c37b4c-5839-4b87-9c4d-cd6cceb26ce3","ios":"levelo://app?vid=b5c37b4c-5839-4b87-9c4d-cd6cceb26ce3"},"vehicle_type_id":"4","last_reported":1766268598,"current_range_meters":12400,"station_id":"ce4bhbp2rcd13ifvqesg","pricing_plan_id":"cebpf4jnsgd1na2vs0mg"},{"bike_id":"894b07af-2d2b-4e6f-add6-20e2189c2168","system_id":"levelo_inurba_marseille","lat":43.26947,"lon":5.38636,"is_reserved":false,"is_disabled":false,"rental_uris":{"android":"levelo://app?vid=894b07af-2d2b-4e6f-add6-20e2189c2168","ios":"levelo://app?vid=894b07af-2d2b-4e6f-add6-20e2189c2168"},"vehicle_type_id":"4","last_reported":1766268598,"current_range_meters":12400,"station_id":"ce4bhh92rcd13ifvqfh0","pricing_plan_id":"cebpf4jnsgd1na2vs0mg"},{"bike_id":"d01ec793-06fb-4573-b715-d4896f093342","system_id":"levelo_inurba_marseille","lat":43.26227,"lon":5.40447,"is_reserved":false,"is_disabled":false,"rental_uris":{"android":"levelo://app?vid=d01ec793-06fb-4573-b715-d4896f093342","ios":"levelo://app?vid=d01ec793-06fb-4573-b715-d4896f093342"},"vehicle_type_id":"4","last_reported":1766268598,"current_range_meters":12400,"station_id":"ce4bhmh2rcd13ifvqgmg","pricing_plan_id":"cebpf4jnsgd1na2vs0mg"},{"bike_id":"ad0e6a04-3b09-4140-bf70-c35215b562e2","system_id":"levelo_inurba_marseille","lat":43.258203,"lon":5.394623,"is_reserved":false,"is_disabled":false,"rental_uris":{"android":"levelo://app?vid=ad0e6a04-3b09-4140-bf70-c35215b562e2","ios":"levelo://app?vid=ad0e6a04-3b09-4140-bf70-c35215b562e2"},"vehicle_type_id":"4","last_reported":1766268598,"current_range_meters":12400,"station_id":"ce4bhip2rcd13ifvqft0","pricing_plan_id":"cebpf4jnsgd1na2vs0mg"},{"bike_id":"2bbc71c7-bd58-41dd-b1bc-322a7159a69f","system_id":"levelo_inurba_marseille","lat":43.30157,"lon":5.38101,"is_reserved":false,"is_disabled":false,"rental_uris":{"android":"levelo://app?vid=2bbc71c7-bd58-41dd-b1bc-322a7159a69f","ios":"levelo://app?vid=2bbc71c7-bd58-41dd-b1bc-322a7159a69f"},"vehicle_type_id":"4","last_reported":1766268598,"current_range_meters":12800,"station_id":"ce4bgjp2rcd13ifvqbh0","pricing_plan_id":"cebpf4jnsgd1na2vs0mg"},{"bike_id":"785156da-0593-4b75-94f6-e2ccbbaee3ef","system_id":"levelo_inurba_marseille","lat":43.27432,"lon":5.39411,"is_reserved":false,"is_disabled":false,"rental_uris":{"android":"levelo://app?vid=785156da-0593-4b75-94f6-e2ccbbaee3ef","ios":"levelo://app?vid=785156da-0593-4b75-94f6-e2ccbbaee3ef"},"vehicle_type_id":"4","last_reported":1766268598,"current_range_meters":12800,"station_id":"ce4bhdp2rcd13ifvqf20","pricing_plan_id":"cebpf4jnsgd1na2vs0mg"},{"bike_id":"a816a533-743b-403e-b809-a1210d5790d5","system_id":"levelo_inurba_marseille","lat":43.30261,"lon":5.40077,"is_reserved":false,"is_disabled":false,"rental_uris":{"android":"levelo://app?vid=a816a533-743b-403e-b809-a1210d5790d5","ios":"levelo://app?vid=a816a533-743b-403e-b809-a1210d5790d5"},"vehicle_type_id":"4","last_reported":1766268598,"current_range_meters":12800,"station_id":"ce4bgvh2rcd13ifvqcs0","pricing_plan_id":"cebpf4jnsgd1na2vs0mg"},{"bike_id":"611bb42d-81f1-42fc-b832-157e5dfb6bb7","system_id":"levelo_inurba_marseille","lat":43.28527,"lon":5.4409,"is_reserved":false,"is_disabled":false,"rental_uris":{"android":"levelo://app?vid=611bb42d-81f1-42fc-b832-157e5dfb6bb7","ios":"levelo://app?vid=611bb42d-81f1-42fc-b832-157e5dfb6bb7"},"vehicle_type_id":"4","last_reported":1766268598,"current_range_meters":12800,"station_id":"st_d3j3df2ikq2c7380ej80","pricing_plan_id":"cebpf4jnsgd1na2vs0mg"},{"bike_id":"49302437-6f32-4b67-a486-ae28561da399","system_id":"levelo_inurba_marseille","lat":43.27988,"lon":5.41657,"is_reserved":false,"is_disabled":false,"rental_uris":{"android":"levelo://app?vid=49302437-6f32-4b67-a486-ae28561da399","ios":"levelo://app?vid=49302437-6f32-4b67-a486-ae28561da399"},"vehicle_type_id":"4","last_reported":1766268598,"current_range_meters":12800,"station_id":"ce4bho12rcd13ifvqh1g","pricing_plan_id":"cebpf4jnsgd1na2vs0mg"},{"bike_id":"788c94de-1a40-4861-940f-f8c6403d139b","system_id":"levelo_inurba_marseille","lat":43.24799,"lon":5.37464,"is_reserved":false,"is_disabled":false,"rental_uris":{"android":"levelo://app?vid=788c94de-1a40-4861-940f-f8c6403d139b","ios":"levelo://app?vid=788c94de-1a40-4861-940f-f8c6403d139b"},"vehicle_type_id":"4","last_reported":1766268598,"current_range_meters":12800,"station_id":"ce4bhgh2rcd13ifvqfb0","pricing_plan_id":"cebpf4jnsgd1na2vs0mg"},{"bike_id":"455016d2-5fbf-4a3e-85ba-1e7337979a51","system_id":"levelo_inurba_marseille","lat":43.23774,"lon":5.36632,"is_reserved":false,"is_disabled":false,"rental_uris":{"android":"levelo://app?vid=455016d2-5fbf-4a3e-85ba-1e7337979a51","ios":"levelo://app?vid=455016d2-5fbf-4a3e-85ba-1e7337979a51"},"vehicle_type_id":"4","last_reported":1766268598,"current_range_meters":12800,"station_id":"st_d3nk18o9ro0c73en2l3g","pricing_plan_id":"cebpf4jnsgd1na2vs0mg"},{"bike_id":"a51e64e5-17d3-4723-8db9-2a9d672a879c","system_id":"levelo_inurba_marseille","lat":43.293056,"lon":5.374623,"is_reserved":false,"is_disabled":false,"rental_uris":{"android":"levelo://app?vid=a51e64e5-17d3-4723-8db9-2a9d672a879c","ios":"levelo://app?vid=a51e64e5-17d3-4723-8db9-2a9d672a879c"},"vehicle_type_id":"4","last_reported":1766268598,"current_range_meters":12800,"station_id":"","pricing_plan_id":"cebpf4jnsgd1na2vs0mg"},{"bike_id":"0f5a8291-9fc2-4f45-864d-513ec0d61577","system_id":"levelo_inurba_marseille","lat":43.336034,"lon":5.410377,"is_reserved":false,"is_disabled":false,"rental_uris":{"android":"levelo://app?vid=0f5a8291-9fc2-4f45-864d-513ec0d61577","ios":"levelo://app?vid=0f5a8291-9fc2-4f45-864d-513ec0d61577"},"vehicle_type_id":"4","last_reported":1766268598,"current_range_meters":12800,"station_id":"ce4bhqh2rcd13ifvqhmg","pricing_plan_id":"cebpf4jnsgd1na2vs0mg"},{"bike_id":"e1e0c5d5-d1ff-4328-abce-0032e41eb0b8","system_id":"levelo_inurba_marseille","lat":43.2463,"lon":5.43143,"is_reserved":false,"is_disabled":false,"rental_uris":{"android":"levelo://app?vid=e1e0c5d5-d1ff-4328-abce-0032e41eb0b8","ios":"levelo://app?vid=e1e0c5d5-d1ff-4328-abce-0032e41eb0b8"},"vehicle_type_id":"4","last_reported":1766268598,"current_range_meters":13600,"station_id":"st_d2m6c4gdas8pm72e190g","pricing_plan_id":"cebpf4jnsgd1na2vs0mg"},{"bike_id":"2bede430-4250-4bb5-9cc1-2011ee04070d","system_id":"levelo_inurba_marseille","lat":43.28478,"lon":5.48388,"is_reserved":false,"is_disabled":false,"rental_uris":{"android":"levelo://app?vid=2bede430-4250-4bb5-9cc1-2011ee04070d","ios":"levelo://app?vid=2bede430-4250-4bb5-9cc1-2011ee04070d"},"vehicle_type_id":"4","last_reported":1766268598,"current_range_meters":13600,"station_id":"","pricing_plan_id":"cebpf4jnsgd1na2vs0mg"},{"bike_id":"ade91ab6-5e8a-4de3-9d82-ea6f467f1576","system_id":"levelo_inurba_marseille","lat":43.22925,"lon":5.3538,"is_reserved":false,"is_disabled":false,"rental_uris":{"android":"levelo://app?vid=ade91ab6-5e8a-4de3-9d82-ea6f467f1576","ios":"levelo://app?vid=ade91ab6-5e8a-4de3-9d82-ea6f467f1576"},"vehicle_type_id":"4","last_reported":1766268598,"current_range_meters":13600,"station_id":"cpo3532slgdg3j2ikp40","pricing_plan_id":"cebpf4jnsgd1na2vs0mg"},{"bike_id":"ae6c1aeb-ea56-4930-8ca5-97f00c057268","system_id":"levelo_inurba_marseille","lat":43.25012,"lon":5.38941,"is_reserved":false,"is_disabled":false,"rental_uris":{"android":"levelo://app?vid=ae6c1aeb-ea56-4930-8ca5-97f00c057268","ios":"levelo://app?vid=ae6c1aeb-ea56-4930-8ca5-97f00c057268"},"vehicle_type_id":"4","last_reported":1766268598,"current_range_meters":13600,"station_id":"ce4bhgp2rcd13ifvqfd0","pricing_plan_id":"cebpf4jnsgd1na2vs0mg"},{"bike_id":"4e1eaa01-92d5-42d2-a4a1-f6cfed668de1","system_id":"levelo_inurba_marseille","lat":43.29021,"lon":5.3812,"is_reserved":false,"is_disabled":false,"rental_uris":{"android":"levelo://app?vid=4e1eaa01-92d5-42d2-a4a1-f6cfed668de1","ios":"levelo://app?vid=4e1eaa01-92d5-42d2-a4a1-f6cfed668de1"},"vehicle_type_id":"4","last_reported":1766268598,"current_range_meters":13600,"station_id":"ce4bh4p2rcd13ifvqe1g","pricing_plan_id":"cebpf4jnsgd1na2vs0mg"},{"bike_id":"2b865b81-8e0b-44c8-9263-6925783afa45","system_id":"levelo_inurba_marseille","lat":43.26219,"lon":5.37444,"is_reserved":false,"is_disabled":false,"rental_uris":{"android":"levelo://app?vid=2b865b81-8e0b-44c8-9263-6925783afa45","ios":"levelo://app?vid=2b865b81-8e0b-44c8-9263-6925783afa45"},"vehicle_type_id":"4","last_reported":1766268598,"current_range_meters":13600,"station_id":"ce4bhgp2rcd13ifvqfc0","pricing_plan_id":"cebpf4jnsgd1na2vs0mg"},{"bike_id":"7a709ab5-44f1-4190-add0-08bfe5af389c","system_id":"levelo_inurba_marseille","lat":43.30914,"lon":5.36881,"is_reserved":false,"is_disabled":false,"rental_uris":{"android":"levelo://app?vid=7a709ab5-44f1-4190-add0-08bfe5af389c","ios":"levelo://app?vid=7a709ab5-44f1-4190-add0-08bfe5af389c"},"vehicle_type_id":"4","last_reported":1766268598,"current_range_meters":13600,"station_id":"ce4bgn92rcd13ifvqbvg","pricing_plan_id":"cebpf4jnsgd1na2vs0mg"},{"bike_id":"47e71075-f656-4b13-8792-aa5444f16493","system_id":"levelo_inurba_marseille","lat":43.29845,"lon":5.36273,"is_reserved":false,"is_disabled":false,"rental_uris":{"android":"levelo://app?vid=47e71075-f656-4b13-8792-aa5444f16493","ios":"levelo://app?vid=47e71075-f656-4b13-8792-aa5444f16493"},"vehicle_type_id":"4","last_reported":1766268598,"current_range_meters":14000,"station_id":"ce4bgpp2rcd13ifvqc3g","pricing_plan_id":"cebpf4jnsgd1na2vs0mg"},{"bike_id":"99ee623e-1ed3-495d-9b61-e64f7da0e97b","system_id":"levelo_inurba_marseille","lat":43.29655,"lon":5.37831,"is_reserved":false,"is_disabled":false,"rental_uris":{"android":"levelo://app?vid=99ee623e-1ed3-495d-9b61-e64f7da0e97b","ios":"levelo://app?vid=99ee623e-1ed3-495d-9b61-e64f7da0e97b"},"vehicle_type_id":"4","last_reported":1766268598,"current_range_meters":14000,"station_id":"","pricing_plan_id":"cebpf4jnsgd1na2vs0mg"},{"bike_id":"be6edca5-cbaf-425d-ba3c-7981181dd2c6","system_id":"levelo_inurba_marseille","lat":43.283626,"lon":5.386419,"is_reserved":false,"is_disabled":true,"rental_uris":{"android":"levelo://app?vid=be6edca5-cbaf-425d-ba3c-7981181dd2c6","ios":"levelo://app?vid=be6edca5-cbaf-425d-ba3c-7981181dd2c6"},"vehicle_type_id":"4","last_reported":1766268598,"current_range_meters":14000,"station_id":"ce4bhi12rcd13ifvqfo0","pricing_plan_id":"cebpf4jnsgd1na2vs0mg"},{"bike_id":"a4fe11a2-c8ef-410f-82d6-4d5df9f7093b","system_id":"levelo_inurba_marseille","lat":43.29728,"lon":5.37686,"is_reserved":false,"is_disabled":false,"rental_uris":{"android":"levelo://app?vid=a4fe11a2-c8ef-410f-82d6-4d5df9f7093b","ios":"levelo://app?vid=a4fe11a2-c8ef-410f-82d6-4d5df9f7093b"},"vehicle_type_id":"4","last_reported":1766268598,"current_range_meters":14000,"station_id":"ce4bgkh2rcd13ifvqbl0","pricing_plan_id":"cebpf4jnsgd1na2vs0mg"},{"bike_id":"d3745d99-4fde-41ec-9e15-69dba5804aed","system_id":"levelo_inurba_marseille","lat":43.29004,"lon":5.35606,"is_reserved":false,"is_disabled":false,"rental_uris":{"android":"levelo://app?vid=d3745d99-4fde-41ec-9e15-69dba5804aed","ios":"levelo://app?vid=d3745d99-4fde-41ec-9e15-69dba5804aed"},"vehicle_type_id":"4","last_reported":1766268598,"current_range_meters":14000,"station_id":"ce4bhb92rcd13ifvqen0","pricing_plan_id":"cebpf4jnsgd1na2vs0mg"},{"bike_id":"b10736c8-adbb-4f3b-a5fb-3eb6348e9431","system_id":"levelo_inurba_marseille","lat":43.29971,"lon":5.38499,"is_reserved":false,"is_disabled":false,"rental_uris":{"android":"levelo://app?vid=b10736c8-adbb-4f3b-a5fb-3eb6348e9431","ios":"levelo://app?vid=b10736c8-adbb-4f3b-a5fb-3eb6348e9431"},"vehicle_type_id":"4","last_reported":1766268598,"current_range_meters":14000,"station_id":"ce4bgj92rcd13ifvqbd0","pricing_plan_id":"cebpf4jnsgd1na2vs0mg"},{"bike_id":"45030eb7-ebe1-45f5-a637-9fc36ad5d96f","system_id":"levelo_inurba_marseille","lat":43.26687,"lon":5.38262,"is_reserved":false,"is_disabled":false,"rental_uris":{"android":"levelo://app?vid=45030eb7-ebe1-45f5-a637-9fc36ad5d96f","ios":"levelo://app?vid=45030eb7-ebe1-45f5-a637-9fc36ad5d96f"},"vehicle_type_id":"4","last_reported":1766268598,"current_range_meters":14400,"station_id":"ce4bhg92rcd13ifvqf90","pricing_plan_id":"cebpf4jnsgd1na2vs0mg"},{"bike_id":"44692cea-5bbf-4044-9d9f-905140fec479","system_id":"levelo_inurba_marseille","lat":43.3125,"lon":5.37774,"is_reserved":false,"is_disabled":false,"rental_uris":{"android":"levelo://app?vid=44692cea-5bbf-4044-9d9f-905140fec479","ios":"levelo://app?vid=44692cea-5bbf-4044-9d9f-905140fec479"},"vehicle_type_id":"4","last_reported":1766268598,"current_range_meters":14400,"station_id":"","pricing_plan_id":"cebpf4jnsgd1na2vs0mg"},{"bike_id":"6db15b44-c71e-4c85-a753-8a2b73b2590b","system_id":"levelo_inurba_marseille","lat":43.2944,"lon":5.39753,"is_reserved":false,"is_disabled":false,"rental_uris":{"android":"levelo://app?vid=6db15b44-c71e-4c85-a753-8a2b73b2590b","ios":"levelo://app?vid=6db15b44-c71e-4c85-a753-8a2b73b2590b"},"vehicle_type_id":"4","last_reported":1766268598,"current_range_meters":14400,"station_id":"ce4bh3h2rcd13ifvqdo0","pricing_plan_id":"cebpf4jnsgd1na2vs0mg"},{"bike_id":"dd7ef2c6-9ea5-42de-9251-3297dcc42309","system_id":"levelo_inurba_marseille","lat":43.24959,"lon":5.40491,"is_reserved":false,"is_disabled":false,"rental_uris":{"android":"levelo://app?vid=dd7ef2c6-9ea5-42de-9251-3297dcc42309","ios":"levelo://app?vid=dd7ef2c6-9ea5-42de-9251-3297dcc42309"},"vehicle_type_id":"4","last_reported":1766268598,"current_range_meters":14800,"station_id":"st_d2ngiaodas8pm72gd1h0","pricing_plan_id":"cebpf4jnsgd1na2vs0mg"},{"bike_id":"7a2810d9-a7a2-4f55-a626-e3338912c6bf","system_id":"levelo_inurba_marseille","lat":43.337586,"lon":5.3749,"is_reserved":false,"is_disabled":false,"rental_uris":{"android":"levelo://app?vid=7a2810d9-a7a2-4f55-a626-e3338912c6bf","ios":"levelo://app?vid=7a2810d9-a7a2-4f55-a626-e3338912c6bf"},"vehicle_type_id":"4","last_reported":1766268598,"current_range_meters":14800,"station_id":"","pricing_plan_id":"cebpf4jnsgd1na2vs0mg"},{"bike_id":"674911cf-1cfd-40f1-9e5e-f3941e7b6fc6","system_id":"levelo_inurba_marseille","lat":43.337444,"lon":5.374475,"is_reserved":false,"is_disabled":false,"rental_uris":{"android":"levelo://app?vid=674911cf-1cfd-40f1-9e5e-f3941e7b6fc6","ios":"levelo://app?vid=674911cf-1cfd-40f1-9e5e-f3941e7b6fc6"},"vehicle_type_id":"4","last_reported":1766268598,"current_range_meters":14800,"station_id":"","pricing_plan_id":"cebpf4jnsgd1na2vs0mg"},{"bike_id":"bfef6781-c6ff-4dab-bab5-e62c0ef633b0","system_id":"levelo_inurba_marseille","lat":43.30884,"lon":5.37193,"is_reserved":false,"is_disabled":false,"rental_uris":{"android":"levelo://app?vid=bfef6781-c6ff-4dab-bab5-e62c0ef633b0","ios":"levelo://app?vid=bfef6781-c6ff-4dab-bab5-e62c0ef633b0"},"vehicle_type_id":"4","last_reported":1766268598,"current_range_meters":14800,"station_id":"ce4bguh2rcd13ifvqckg","pricing_plan_id":"cebpf4jnsgd1na2vs0mg"},{"bike_id":"6c8e8f42-d745-4468-a186-046bf57622ae","system_id":"levelo_inurba_marseille","lat":43.30216,"lon":5.36436,"is_reserved":false,"is_disabled":false,"rental_uris":{"android":"levelo://app?vid=6c8e8f42-d745-4468-a186-046bf57622ae","ios":"levelo://app?vid=6c8e8f42-d745-4468-a186-046bf57622ae"},"vehicle_type_id":"4","last_reported":1766268598,"current_range_meters":14800,"station_id":"","pricing_plan_id":"cebpf4jnsgd1na2vs0mg"},{"bike_id":"515b1067-c9f1-499f-828f-2aace95d367e","system_id":"levelo_inurba_marseille","lat":43.270703,"lon":5.422826,"is_reserved":false,"is_disabled":false,"rental_uris":{"android":"levelo://app?vid=515b1067-c9f1-499f-828f-2aace95d367e","ios":"levelo://app?vid=515b1067-c9f1-499f-828f-2aace95d367e"},"vehicle_type_id":"4","last_reported":1766268598,"current_range_meters":14800,"station_id":"ce4bhk92rcd13ifvqgb0","pricing_plan_id":"cebpf4jnsgd1na2vs0mg"},{"bike_id":"2c46c7a5-389f-47fc-8086-ed2504307f23","system_id":"levelo_inurba_marseille","lat":43.27952,"lon":5.41051,"is_reserved":false,"is_disabled":false,"rental_uris":{"android":"levelo://app?vid=2c46c7a5-389f-47fc-8086-ed2504307f23","ios":"levelo://app?vid=2c46c7a5-389f-47fc-8086-ed2504307f23"},"vehicle_type_id":"4","last_reported":1766268598,"current_range_meters":14800,"station_id":"ce4bhnp2rcd13ifvqh0g","pricing_plan_id":"cebpf4jnsgd1na2vs0mg"},{"bike_id":"5086247d-11ba-46e6-ab2f-482a8af85bcc","system_id":"levelo_inurba_marseille","lat":43.28035,"lon":5.3508,"is_reserved":false,"is_disabled":false,"rental_uris":{"android":"levelo://app?vid=5086247d-11ba-46e6-ab2f-482a8af85bcc","ios":"levelo://app?vid=5086247d-11ba-46e6-ab2f-482a8af85bcc"},"vehicle_type_id":"4","last_reported":1766268598,"current_range_meters":14800,"station_id":"","pricing_plan_id":"cebpf4jnsgd1na2vs0mg"},{"bike_id":"c0723a55-d0d0-493e-a4c5-9479bcaeff93","system_id":"levelo_inurba_marseille","lat":43.28482,"lon":5.48383,"is_reserved":false,"is_disabled":false,"rental_uris":{"android":"levelo://app?vid=c0723a55-d0d0-493e-a4c5-9479bcaeff93","ios":"levelo://app?vid=c0723a55-d0d0-493e-a4c5-9479bcaeff93"},"vehicle_type_id":"4","last_reported":1766268598,"current_range_meters":14800,"station_id":"st_d3svhcjqgbts73a3dn0g","pricing_plan_id":"cebpf4jnsgd1na2vs0mg"},{"bike_id":"7779a310-72f4-4850-9ca4-aaa217a589d2","system_id":"levelo_inurba_marseille","lat":43.337444,"lon":5.374475,"is_reserved":false,"is_disabled":false,"rental_uris":{"android":"levelo://app?vid=7779a310-72f4-4850-9ca4-aaa217a589d2","ios":"levelo://app?vid=7779a310-72f4-4850-9ca4-aaa217a589d2"},"vehicle_type_id":"4","last_reported":1766268598,"current_range_meters":14800,"station_id":"","pricing_plan_id":"cebpf4jnsgd1na2vs0mg"},{"bike_id":"8766adf0-02c7-46c7-8f9b-cb605ad4e72a","system_id":"levelo_inurba_marseille","lat":43.24998,"lon":5.38929,"is_reserved":false,"is_disabled":false,"rental_uris":{"android":"levelo://app?vid=8766adf0-02c7-46c7-8f9b-cb605ad4e72a","ios":"levelo://app?vid=8766adf0-02c7-46c7-8f9b-cb605ad4e72a"},"vehicle_type_id":"4","last_reported":1766268598,"current_range_meters":14800,"station_id":"ce4bhgp2rcd13ifvqfd0","pricing_plan_id":"cebpf4jnsgd1na2vs0mg"},{"bike_id":"7ba6afa4-4815-4934-b3c6-1118dce67bcd","system_id":"levelo_inurba_marseille","lat":43.269551,"lon":5.402103,"is_reserved":false,"is_disabled":false,"rental_uris":{"android":"levelo://app?vid=7ba6afa4-4815-4934-b3c6-1118dce67bcd","ios":"levelo://app?vid=7ba6afa4-4815-4934-b3c6-1118dce67bcd"},"vehicle_type_id":"4","last_reported":1766268598,"current_range_meters":14800,"station_id":"cjm6bp8fraef2m0cb0m0","pricing_plan_id":"cebpf4jnsgd1na2vs0mg"},{"bike_id":"e28c1a95-2b8b-49d6-bb4e-2f66c032c7cb","system_id":"levelo_inurba_marseille","lat":43.290205,"lon":5.38134,"is_reserved":false,"is_disabled":false,"rental_uris":{"android":"levelo://app?vid=e28c1a95-2b8b-49d6-bb4e-2f66c032c7cb","ios":"levelo://app?vid=e28c1a95-2b8b-49d6-bb4e-2f66c032c7cb"},"vehicle_type_id":"4","last_reported":1766268598,"current_range_meters":15200,"station_id":"ce4bh4p2rcd13ifvqe1g","pricing_plan_id":"cebpf4jnsgd1na2vs0mg"},{"bike_id":"50e991f6-2d38-438c-8336-363253871f9a","system_id":"levelo_inurba_marseille","lat":43.31274,"lon":5.3778,"is_reserved":false,"is_disabled":false,"rental_uris":{"android":"levelo://app?vid=50e991f6-2d38-438c-8336-363253871f9a","ios":"levelo://app?vid=50e991f6-2d38-438c-8336-363253871f9a"},"vehicle_type_id":"4","last_reported":1766268598,"current_range_meters":15200,"station_id":"","pricing_plan_id":"cebpf4jnsgd1na2vs0mg"},{"bike_id":"b07e4d74-f66b-44ab-948c-0f49d351d05f","system_id":"levelo_inurba_marseille","lat":43.24628,"lon":5.43144,"is_reserved":false,"is_disabled":false,"rental_uris":{"android":"levelo://app?vid=b07e4d74-f66b-44ab-948c-0f49d351d05f","ios":"levelo://app?vid=b07e4d74-f66b-44ab-948c-0f49d351d05f"},"vehicle_type_id":"4","last_reported":1766268598,"current_range_meters":15200,"station_id":"st_d2m6c4gdas8pm72e190g","pricing_plan_id":"cebpf4jnsgd1na2vs0mg"},{"bike_id":"d7ecbadb-8a49-41dd-ba3e-a720de1f5d21","system_id":"levelo_inurba_marseille","lat":43.293682,"lon":5.378352,"is_reserved":false,"is_disabled":false,"rental_uris":{"android":"levelo://app?vid=d7ecbadb-8a49-41dd-ba3e-a720de1f5d21","ios":"levelo://app?vid=d7ecbadb-8a49-41dd-ba3e-a720de1f5d21"},"vehicle_type_id":"4","last_reported":1766268598,"current_range_meters":15200,"station_id":"ce4bgjh2rcd13ifvqbf0","pricing_plan_id":"cebpf4jnsgd1na2vs0mg"},{"bike_id":"6e93bb3f-8639-49ad-a1bd-672303861f12","system_id":"levelo_inurba_marseille","lat":43.23786,"lon":5.36634,"is_reserved":false,"is_disabled":false,"rental_uris":{"android":"levelo://app?vid=6e93bb3f-8639-49ad-a1bd-672303861f12","ios":"levelo://app?vid=6e93bb3f-8639-49ad-a1bd-672303861f12"},"vehicle_type_id":"4","last_reported":1766268598,"current_range_meters":15200,"station_id":"st_d3nk18o9ro0c73en2l3g","pricing_plan_id":"cebpf4jnsgd1na2vs0mg"},{"bike_id":"76f79886-294d-415d-8b82-2fbc097f7959","system_id":"levelo_inurba_marseille","lat":43.309413,"lon":5.390264,"is_reserved":false,"is_disabled":false,"rental_uris":{"android":"levelo://app?vid=76f79886-294d-415d-8b82-2fbc097f7959","ios":"levelo://app?vid=76f79886-294d-415d-8b82-2fbc097f7959"},"vehicle_type_id":"4","last_reported":1766268598,"current_range_meters":15200,"station_id":"ce4bgup2rcd13ifvqco0","pricing_plan_id":"cebpf4jnsgd1na2vs0mg"},{"bike_id":"70125e1e-2e2f-4154-aec8-6770631e1df3","system_id":"levelo_inurba_marseille","lat":43.31706,"lon":5.43709,"is_reserved":false,"is_disabled":false,"rental_uris":{"android":"levelo://app?vid=70125e1e-2e2f-4154-aec8-6770631e1df3","ios":"levelo://app?vid=70125e1e-2e2f-4154-aec8-6770631e1df3"},"vehicle_type_id":"4","last_reported":1766268598,"current_range_meters":15200,"station_id":"ce4bhp92rcd13ifvqhcg","pricing_plan_id":"cebpf4jnsgd1na2vs0mg"},{"bike_id":"0099fb35-d431-499d-8b9f-4d4c24c64983","system_id":"levelo_inurba_marseille","lat":43.30594,"lon":5.3934,"is_reserved":false,"is_disabled":false,"rental_uris":{"android":"levelo://app?vid=0099fb35-d431-499d-8b9f-4d4c24c64983","ios":"levelo://app?vid=0099fb35-d431-499d-8b9f-4d4c24c64983"},"vehicle_type_id":"4","last_reported":1766268598,"current_range_meters":15200,"station_id":"ce4bh0p2rcd13ifvqd80","pricing_plan_id":"cebpf4jnsgd1na2vs0mg"},{"bike_id":"83fed173-7580-46e0-b352-0d4e3f32a3b6","system_id":"levelo_inurba_marseille","lat":43.30784,"lon":5.3689,"is_reserved":false,"is_disabled":false,"rental_uris":{"android":"levelo://app?vid=83fed173-7580-46e0-b352-0d4e3f32a3b6","ios":"levelo://app?vid=83fed173-7580-46e0-b352-0d4e3f32a3b6"},"vehicle_type_id":"4","last_reported":1766268598,"current_range_meters":15200,"station_id":"","pricing_plan_id":"cebpf4jnsgd1na2vs0mg"},{"bike_id":"6670ebf0-d4f3-491c-9b45-9d960673e300","system_id":"levelo_inurba_marseille","lat":43.29526,"lon":5.37519,"is_reserved":false,"is_disabled":false,"rental_uris":{"android":"levelo://app?vid=6670ebf0-d4f3-491c-9b45-9d960673e300","ios":"levelo://app?vid=6670ebf0-d4f3-491c-9b45-9d960673e300"},"vehicle_type_id":"4","last_reported":1766268598,"current_range_meters":15200,"station_id":"ce4bgkp2rcd13ifvqbmg","pricing_plan_id":"cebpf4jnsgd1na2vs0mg"},{"bike_id":"6597be24-d4f1-46cd-aa3b-724f814a91d3","system_id":"levelo_inurba_marseille","lat":43.28617,"lon":5.35096,"is_reserved":false,"is_disabled":false,"rental_uris":{"android":"levelo://app?vid=6597be24-d4f1-46cd-aa3b-724f814a91d3","ios":"levelo://app?vid=6597be24-d4f1-46cd-aa3b-724f814a91d3"},"vehicle_type_id":"4","last_reported":1766268598,"current_range_meters":15200,"station_id":"","pricing_plan_id":"cebpf4jnsgd1na2vs0mg"},{"bike_id":"b5a81ca2-8cba-49e4-bb2c-fd3f55667448","system_id":"levelo_inurba_marseille","lat":43.29947,"lon":5.38559,"is_reserved":false,"is_disabled":false,"rental_uris":{"android":"levelo://app?vid=b5a81ca2-8cba-49e4-bb2c-fd3f55667448","ios":"levelo://app?vid=b5a81ca2-8cba-49e4-bb2c-fd3f55667448"},"vehicle_type_id":"4","last_reported":1766268598,"current_range_meters":15200,"station_id":"","pricing_plan_id":"cebpf4jnsgd1na2vs0mg"},{"bike_id":"bd217906-e5bf-44f0-bb95-365f8a696fe5","system_id":"levelo_inurba_marseille","lat":43.28104,"lon":5.3787,"is_reserved":false,"is_disabled":false,"rental_uris":{"android":"levelo://app?vid=bd217906-e5bf-44f0-bb95-365f8a696fe5","ios":"levelo://app?vid=bd217906-e5bf-44f0-bb95-365f8a696fe5"},"vehicle_type_id":"4","last_reported":1766268598,"current_range_meters":16000,"station_id":"ce4bha12rcd13ifvqee0","pricing_plan_id":"cebpf4jnsgd1na2vs0mg"},{"bike_id":"a7f5e564-2da3-4d4c-812e-fef42f417be1","system_id":"levelo_inurba_marseille","lat":43.211974,"lon":5.350667,"is_reserved":false,"is_disabled":false,"rental_uris":{"android":"levelo://app?vid=a7f5e564-2da3-4d4c-812e-fef42f417be1","ios":"levelo://app?vid=a7f5e564-2da3-4d4c-812e-fef42f417be1"},"vehicle_type_id":"4","last_reported":1766268598,"current_range_meters":16000,"station_id":"st_cvj6sg6p6f1abm77japg","pricing_plan_id":"cebpf4jnsgd1na2vs0mg"},{"bike_id":"fb013f92-0f19-4aed-b06a-8f8f12c01541","system_id":"levelo_inurba_marseille","lat":43.27869,"lon":5.37794,"is_reserved":false,"is_disabled":false,"rental_uris":{"android":"levelo://app?vid=fb013f92-0f19-4aed-b06a-8f8f12c01541","ios":"levelo://app?vid=fb013f92-0f19-4aed-b06a-8f8f12c01541"},"vehicle_type_id":"4","last_reported":1766268598,"current_range_meters":16000,"station_id":"","pricing_plan_id":"cebpf4jnsgd1na2vs0mg"},{"bike_id":"6cb2ec26-e982-42f0-bb3f-f14852fb7a12","system_id":"levelo_inurba_marseille","lat":43.2119,"lon":5.35075,"is_reserved":false,"is_disabled":false,"rental_uris":{"android":"levelo://app?vid=6cb2ec26-e982-42f0-bb3f-f14852fb7a12","ios":"levelo://app?vid=6cb2ec26-e982-42f0-bb3f-f14852fb7a12"},"vehicle_type_id":"4","last_reported":1766268598,"current_range_meters":16000,"station_id":"st_cvj6sg6p6f1abm77japg","pricing_plan_id":"cebpf4jnsgd1na2vs0mg"},{"bike_id":"1cbde4c5-fa7c-44c3-ad99-3818ee3aa1f8","system_id":"levelo_inurba_marseille","lat":43.24804,"lon":5.3745,"is_reserved":false,"is_disabled":false,"rental_uris":{"android":"levelo://app?vid=1cbde4c5-fa7c-44c3-ad99-3818ee3aa1f8","ios":"levelo://app?vid=1cbde4c5-fa7c-44c3-ad99-3818ee3aa1f8"},"vehicle_type_id":"4","last_reported":1766268598,"current_range_meters":16000,"station_id":"ce4bhgh2rcd13ifvqfb0","pricing_plan_id":"cebpf4jnsgd1na2vs0mg"},{"bike_id":"f3d87c50-b9fe-49b6-a8fd-e7b9bab8389f","system_id":"levelo_inurba_marseille","lat":43.261928,"lon":5.374438,"is_reserved":false,"is_disabled":false,"rental_uris":{"android":"levelo://app?vid=f3d87c50-b9fe-49b6-a8fd-e7b9bab8389f","ios":"levelo://app?vid=f3d87c50-b9fe-49b6-a8fd-e7b9bab8389f"},"vehicle_type_id":"4","last_reported":1766268598,"current_range_meters":16000,"station_id":"ce4bhgp2rcd13ifvqfc0","pricing_plan_id":"cebpf4jnsgd1na2vs0mg"},{"bike_id":"82047f2c-bcd9-4a30-9130-942816beee94","system_id":"levelo_inurba_marseille","lat":43.30494,"lon":5.40205,"is_reserved":false,"is_disabled":false,"rental_uris":{"android":"levelo://app?vid=82047f2c-bcd9-4a30-9130-942816beee94","ios":"levelo://app?vid=82047f2c-bcd9-4a30-9130-942816beee94"},"vehicle_type_id":"4","last_reported":1766268598,"current_range_meters":16000,"station_id":"","pricing_plan_id":"cebpf4jnsgd1na2vs0mg"},{"bike_id":"27891e4a-590f-4d7f-bcc8-98aaaa481c67","system_id":"levelo_inurba_marseille","lat":43.301483,"lon":5.380955,"is_reserved":false,"is_disabled":false,"rental_uris":{"android":"levelo://app?vid=27891e4a-590f-4d7f-bcc8-98aaaa481c67","ios":"levelo://app?vid=27891e4a-590f-4d7f-bcc8-98aaaa481c67"},"vehicle_type_id":"4","last_reported":1766268598,"current_range_meters":16000,"station_id":"","pricing_plan_id":"cebpf4jnsgd1na2vs0mg"},{"bike_id":"dde7cf0f-2c76-4ae5-9ee1-31a7efeb28b7","system_id":"levelo_inurba_marseille","lat":43.30611,"lon":5.37219,"is_reserved":false,"is_disabled":false,"rental_uris":{"android":"levelo://app?vid=dde7cf0f-2c76-4ae5-9ee1-31a7efeb28b7","ios":"levelo://app?vid=dde7cf0f-2c76-4ae5-9ee1-31a7efeb28b7"},"vehicle_type_id":"4","last_reported":1766268598,"current_range_meters":16000,"station_id":"ce4bgqh2rcd13ifvqc4g","pricing_plan_id":"cebpf4jnsgd1na2vs0mg"},{"bike_id":"99a5a60e-8801-4075-94f7-395b265625f3","system_id":"levelo_inurba_marseille","lat":43.243891,"lon":5.370587,"is_reserved":false,"is_disabled":false,"rental_uris":{"android":"levelo://app?vid=99a5a60e-8801-4075-94f7-395b265625f3","ios":"levelo://app?vid=99a5a60e-8801-4075-94f7-395b265625f3"},"vehicle_type_id":"4","last_reported":1766268598,"current_range_meters":16400,"station_id":"ce4bhhh2rcd13ifvqfk0","pricing_plan_id":"cebpf4jnsgd1na2vs0mg"},{"bike_id":"07133655-8962-479a-8b04-1bfc0cd5e39d","system_id":"levelo_inurba_marseille","lat":43.295363,"lon":5.385356,"is_reserved":false,"is_disabled":false,"rental_uris":{"android":"levelo://app?vid=07133655-8962-479a-8b04-1bfc0cd5e39d","ios":"levelo://app?vid=07133655-8962-479a-8b04-1bfc0cd5e39d"},"vehicle_type_id":"4","last_reported":1766268598,"current_range_meters":16400,"station_id":"ce4bgih2rcd13ifvqba0","pricing_plan_id":"cebpf4jnsgd1na2vs0mg"},{"bike_id":"d68ed98b-c66a-449c-9ac8-3252bc889a91","system_id":"levelo_inurba_marseille","lat":43.313551,"lon":5.384916,"is_reserved":false,"is_disabled":false,"rental_uris":{"android":"levelo://app?vid=d68ed98b-c66a-449c-9ac8-3252bc889a91","ios":"levelo://app?vid=d68ed98b-c66a-449c-9ac8-3252bc889a91"},"vehicle_type_id":"4","last_reported":1766268598,"current_range_meters":16400,"station_id":"","pricing_plan_id":"cebpf4jnsgd1na2vs0mg"},{"bike_id":"84706bb4-c72f-4577-a7d9-07ec2707a2c7","system_id":"levelo_inurba_marseille","lat":43.29612,"lon":5.37723,"is_reserved":false,"is_disabled":false,"rental_uris":{"android":"levelo://app?vid=84706bb4-c72f-4577-a7d9-07ec2707a2c7","ios":"levelo://app?vid=84706bb4-c72f-4577-a7d9-07ec2707a2c7"},"vehicle_type_id":"4","last_reported":1766268598,"current_range_meters":16400,"station_id":"ce4bgi92rcd13ifvqb90","pricing_plan_id":"cebpf4jnsgd1na2vs0mg"},{"bike_id":"3c5d7678-a6b4-4f08-8d63-3149a72a8b72","system_id":"levelo_inurba_marseille","lat":43.29611,"lon":5.37723,"is_reserved":false,"is_disabled":false,"rental_uris":{"android":"levelo://app?vid=3c5d7678-a6b4-4f08-8d63-3149a72a8b72","ios":"levelo://app?vid=3c5d7678-a6b4-4f08-8d63-3149a72a8b72"},"vehicle_type_id":"4","last_reported":1766268598,"current_range_meters":16400,"station_id":"ce4bgi92rcd13ifvqb90","pricing_plan_id":"cebpf4jnsgd1na2vs0mg"},{"bike_id":"67bf8f90-a5df-42e7-b267-9ae66edff758","system_id":"levelo_inurba_marseille","lat":43.30488,"lon":5.37668,"is_reserved":false,"is_disabled":false,"rental_uris":{"android":"levelo://app?vid=67bf8f90-a5df-42e7-b267-9ae66edff758","ios":"levelo://app?vid=67bf8f90-a5df-42e7-b267-9ae66edff758"},"vehicle_type_id":"4","last_reported":1766268598,"current_range_meters":16400,"station_id":"","pricing_plan_id":"cebpf4jnsgd1na2vs0mg"},{"bike_id":"dff177be-90f2-4b86-b2b4-4e6401756b69","system_id":"levelo_inurba_marseille","lat":43.30301,"lon":5.3691,"is_reserved":false,"is_disabled":false,"rental_uris":{"android":"levelo://app?vid=dff177be-90f2-4b86-b2b4-4e6401756b69","ios":"levelo://app?vid=dff177be-90f2-4b86-b2b4-4e6401756b69"},"vehicle_type_id":"4","last_reported":1766268598,"current_range_meters":16400,"station_id":"ce4bgqh2rcd13ifvqc5g","pricing_plan_id":"cebpf4jnsgd1na2vs0mg"},{"bike_id":"d1521c4e-58f6-475d-b5ac-44accab8e9a0","system_id":"levelo_inurba_marseille","lat":43.2928,"lon":5.36845,"is_reserved":false,"is_disabled":false,"rental_uris":{"android":"levelo://app?vid=d1521c4e-58f6-475d-b5ac-44accab8e9a0","ios":"levelo://app?vid=d1521c4e-58f6-475d-b5ac-44accab8e9a0"},"vehicle_type_id":"4","last_reported":1766268598,"current_range_meters":16400,"station_id":"ce4bhbp2rcd13ifvqesg","pricing_plan_id":"cebpf4jnsgd1na2vs0mg"},{"bike_id":"8f5fb37d-f6aa-4e41-bf60-fb296f028ec9","system_id":"levelo_inurba_marseille","lat":43.299748,"lon":5.384835,"is_reserved":false,"is_disabled":false,"rental_uris":{"android":"levelo://app?vid=8f5fb37d-f6aa-4e41-bf60-fb296f028ec9","ios":"levelo://app?vid=8f5fb37d-f6aa-4e41-bf60-fb296f028ec9"},"vehicle_type_id":"4","last_reported":1766268598,"current_range_meters":16400,"station_id":"ce4bgj92rcd13ifvqbd0","pricing_plan_id":"cebpf4jnsgd1na2vs0mg"},{"bike_id":"8ba31c15-1d10-4003-88df-8c9563504b49","system_id":"levelo_inurba_marseille","lat":43.23159,"lon":5.43681,"is_reserved":false,"is_disabled":true,"rental_uris":{"android":"levelo://app?vid=8ba31c15-1d10-4003-88df-8c9563504b49","ios":"levelo://app?vid=8ba31c15-1d10-4003-88df-8c9563504b49"},"vehicle_type_id":"4","last_reported":1766268598,"current_range_meters":16400,"station_id":"ce4bhmp2rcd13ifvqgog","pricing_plan_id":"cebpf4jnsgd1na2vs0mg"},{"bike_id":"70da76fc-ab09-4547-98e4-ca4d04180e54","system_id":"levelo_inurba_marseille","lat":43.21193,"lon":5.3508,"is_reserved":false,"is_disabled":false,"rental_uris":{"android":"levelo://app?vid=70da76fc-ab09-4547-98e4-ca4d04180e54","ios":"levelo://app?vid=70da76fc-ab09-4547-98e4-ca4d04180e54"},"vehicle_type_id":"4","last_reported":1766268598,"current_range_meters":16400,"station_id":"","pricing_plan_id":"cebpf4jnsgd1na2vs0mg"},{"bike_id":"ef26096b-b73a-40cf-b6be-60ca3412b3f7","system_id":"levelo_inurba_marseille","lat":43.26681,"lon":5.38272,"is_reserved":false,"is_disabled":false,"rental_uris":{"android":"levelo://app?vid=ef26096b-b73a-40cf-b6be-60ca3412b3f7","ios":"levelo://app?vid=ef26096b-b73a-40cf-b6be-60ca3412b3f7"},"vehicle_type_id":"4","last_reported":1766268598,"current_range_meters":16800,"station_id":"ce4bhg92rcd13ifvqf90","pricing_plan_id":"cebpf4jnsgd1na2vs0mg"},{"bike_id":"07579ac0-495c-4a66-811e-e4c1c65c7294","system_id":"levelo_inurba_marseille","lat":43.29257,"lon":5.38445,"is_reserved":false,"is_disabled":true,"rental_uris":{"android":"levelo://app?vid=07579ac0-495c-4a66-811e-e4c1c65c7294","ios":"levelo://app?vid=07579ac0-495c-4a66-811e-e4c1c65c7294"},"vehicle_type_id":"4","last_reported":1766268598,"current_range_meters":16800,"station_id":"ce4bh692rcd13ifvqea0","pricing_plan_id":"cebpf4jnsgd1na2vs0mg"},{"bike_id":"25f61d59-0651-420c-a60f-211a74ce5b02","system_id":"levelo_inurba_marseille","lat":43.30139,"lon":5.37402,"is_reserved":false,"is_disabled":false,"rental_uris":{"android":"levelo://app?vid=25f61d59-0651-420c-a60f-211a74ce5b02","ios":"levelo://app?vid=25f61d59-0651-420c-a60f-211a74ce5b02"},"vehicle_type_id":"4","last_reported":1766268598,"current_range_meters":16800,"station_id":"ce4bgs92rcd13ifvqcc0","pricing_plan_id":"cebpf4jnsgd1na2vs0mg"},{"bike_id":"d07dc22c-a864-4104-81e7-c60339403064","system_id":"levelo_inurba_marseille","lat":43.298509,"lon":5.378879,"is_reserved":false,"is_disabled":false,"rental_uris":{"android":"levelo://app?vid=d07dc22c-a864-4104-81e7-c60339403064","ios":"levelo://app?vid=d07dc22c-a864-4104-81e7-c60339403064"},"vehicle_type_id":"4","last_reported":1766268598,"current_range_meters":16800,"station_id":"","pricing_plan_id":"cebpf4jnsgd1na2vs0mg"},{"bike_id":"07d24866-4176-4d4d-b0a1-808def6d3c19","system_id":"levelo_inurba_marseille","lat":43.29613,"lon":5.37722,"is_reserved":false,"is_disabled":false,"rental_uris":{"android":"levelo://app?vid=07d24866-4176-4d4d-b0a1-808def6d3c19","ios":"levelo://app?vid=07d24866-4176-4d4d-b0a1-808def6d3c19"},"vehicle_type_id":"4","last_reported":1766268598,"current_range_meters":16800,"station_id":"ce4bgi92rcd13ifvqb90","pricing_plan_id":"cebpf4jnsgd1na2vs0mg"},{"bike_id":"77883377-18b7-4f45-91c7-8639da31acdf","system_id":"levelo_inurba_marseille","lat":43.2953,"lon":5.38557,"is_reserved":false,"is_disabled":false,"rental_uris":{"android":"levelo://app?vid=77883377-18b7-4f45-91c7-8639da31acdf","ios":"levelo://app?vid=77883377-18b7-4f45-91c7-8639da31acdf"},"vehicle_type_id":"4","last_reported":1766268598,"current_range_meters":16800,"station_id":"ce4bgih2rcd13ifvqba0","pricing_plan_id":"cebpf4jnsgd1na2vs0mg"},{"bike_id":"6b6e4e5e-8798-4d58-b5d7-35ecff83853f","system_id":"levelo_inurba_marseille","lat":43.295279,"lon":5.385416,"is_reserved":false,"is_disabled":false,"rental_uris":{"android":"levelo://app?vid=6b6e4e5e-8798-4d58-b5d7-35ecff83853f","ios":"levelo://app?vid=6b6e4e5e-8798-4d58-b5d7-35ecff83853f"},"vehicle_type_id":"4","last_reported":1766268598,"current_range_meters":16800,"station_id":"ce4bgih2rcd13ifvqba0","pricing_plan_id":"cebpf4jnsgd1na2vs0mg"},{"bike_id":"80e5704f-ad4a-47fa-8434-b81adbddb3a7","system_id":"levelo_inurba_marseille","lat":43.27946,"lon":5.41043,"is_reserved":false,"is_disabled":true,"rental_uris":{"android":"levelo://app?vid=80e5704f-ad4a-47fa-8434-b81adbddb3a7","ios":"levelo://app?vid=80e5704f-ad4a-47fa-8434-b81adbddb3a7"},"vehicle_type_id":"4","last_reported":1766268598,"current_range_meters":16800,"station_id":"ce4bhnp2rcd13ifvqh0g","pricing_plan_id":"cebpf4jnsgd1na2vs0mg"},{"bike_id":"518415e0-5bf2-4be1-8c24-540b4bf4f660","system_id":"levelo_inurba_marseille","lat":43.26231,"lon":5.38814,"is_reserved":false,"is_disabled":false,"rental_uris":{"android":"levelo://app?vid=518415e0-5bf2-4be1-8c24-540b4bf4f660","ios":"levelo://app?vid=518415e0-5bf2-4be1-8c24-540b4bf4f660"},"vehicle_type_id":"4","last_reported":1766268598,"current_range_meters":16800,"station_id":"","pricing_plan_id":"cebpf4jnsgd1na2vs0mg"},{"bike_id":"9af2ac6d-d85c-4788-bf06-adad39a822f2","system_id":"levelo_inurba_marseille","lat":43.31708,"lon":5.43701,"is_reserved":false,"is_disabled":false,"rental_uris":{"android":"levelo://app?vid=9af2ac6d-d85c-4788-bf06-adad39a822f2","ios":"levelo://app?vid=9af2ac6d-d85c-4788-bf06-adad39a822f2"},"vehicle_type_id":"4","last_reported":1766268598,"current_range_meters":16800,"station_id":"ce4bhp92rcd13ifvqhcg","pricing_plan_id":"cebpf4jnsgd1na2vs0mg"},{"bike_id":"5a7977d5-62bf-4aae-a846-33896bd40b77","system_id":"levelo_inurba_marseille","lat":43.28166,"lon":5.42662,"is_reserved":false,"is_disabled":false,"rental_uris":{"android":"levelo://app?vid=5a7977d5-62bf-4aae-a846-33896bd40b77","ios":"levelo://app?vid=5a7977d5-62bf-4aae-a846-33896bd40b77"},"vehicle_type_id":"4","last_reported":1766268598,"current_range_meters":16800,"station_id":"ce4bhnh2rcd13ifvqgug","pricing_plan_id":"cebpf4jnsgd1na2vs0mg"},{"bike_id":"420c94e4-2076-4344-8b9c-a1f1ccf29cf0","system_id":"levelo_inurba_marseille","lat":43.24166,"lon":5.39737,"is_reserved":false,"is_disabled":false,"rental_uris":{"android":"levelo://app?vid=420c94e4-2076-4344-8b9c-a1f1ccf29cf0","ios":"levelo://app?vid=420c94e4-2076-4344-8b9c-a1f1ccf29cf0"},"vehicle_type_id":"4","last_reported":1766268598,"current_range_meters":16800,"station_id":"ce4bhn12rcd13ifvqgpg","pricing_plan_id":"cebpf4jnsgd1na2vs0mg"},{"bike_id":"613aa483-6735-4d5b-b3c9-46a25f449617","system_id":"levelo_inurba_marseille","lat":43.29191,"lon":5.39569,"is_reserved":false,"is_disabled":false,"rental_uris":{"android":"levelo://app?vid=613aa483-6735-4d5b-b3c9-46a25f449617","ios":"levelo://app?vid=613aa483-6735-4d5b-b3c9-46a25f449617"},"vehicle_type_id":"4","last_reported":1766268598,"current_range_meters":16800,"station_id":"","pricing_plan_id":"cebpf4jnsgd1na2vs0mg"},{"bike_id":"82346fc6-f14c-4b79-a51d-6cd57c1a713e","system_id":"levelo_inurba_marseille","lat":43.28486,"lon":5.3844,"is_reserved":false,"is_disabled":true,"rental_uris":{"android":"levelo://app?vid=82346fc6-f14c-4b79-a51d-6cd57c1a713e","ios":"levelo://app?vid=82346fc6-f14c-4b79-a51d-6cd57c1a713e"},"vehicle_type_id":"4","last_reported":1766268598,"current_range_meters":16800,"station_id":"ce4bh512rcd13ifvqe3g","pricing_plan_id":"cebpf4jnsgd1na2vs0mg"},{"bike_id":"a36e7c84-e0c4-4500-b803-5f14e9165738","system_id":"levelo_inurba_marseille","lat":43.24665,"lon":5.38162,"is_reserved":false,"is_disabled":false,"rental_uris":{"android":"levelo://app?vid=a36e7c84-e0c4-4500-b803-5f14e9165738","ios":"levelo://app?vid=a36e7c84-e0c4-4500-b803-5f14e9165738"},"vehicle_type_id":"4","last_reported":1766268598,"current_range_meters":16800,"station_id":"ce4bhih2rcd13ifvqfr0","pricing_plan_id":"cebpf4jnsgd1na2vs0mg"},{"bike_id":"2222d618-c8ea-4138-addb-8d2109b7e703","system_id":"levelo_inurba_marseille","lat":43.3209,"lon":5.36808,"is_reserved":false,"is_disabled":false,"rental_uris":{"android":"levelo://app?vid=2222d618-c8ea-4138-addb-8d2109b7e703","ios":"levelo://app?vid=2222d618-c8ea-4138-addb-8d2109b7e703"},"vehicle_type_id":"4","last_reported":1766268598,"current_range_meters":16800,"station_id":"ce4bhrh2rcd13ifvqhug","pricing_plan_id":"cebpf4jnsgd1na2vs0mg"},{"bike_id":"581635b5-e68d-4f40-83c6-74a19430c8c1","system_id":"levelo_inurba_marseille","lat":43.309541,"lon":5.368989,"is_reserved":false,"is_disabled":false,"rental_uris":{"android":"levelo://app?vid=581635b5-e68d-4f40-83c6-74a19430c8c1","ios":"levelo://app?vid=581635b5-e68d-4f40-83c6-74a19430c8c1"},"vehicle_type_id":"4","last_reported":1766268598,"current_range_meters":16800,"station_id":"","pricing_plan_id":"cebpf4jnsgd1na2vs0mg"},{"bike_id":"ca37cb69-caf0-4537-bd47-3dee4e8b6d8a","system_id":"levelo_inurba_marseille","lat":43.286,"lon":5.35158,"is_reserved":false,"is_disabled":false,"rental_uris":{"android":"levelo://app?vid=ca37cb69-caf0-4537-bd47-3dee4e8b6d8a","ios":"levelo://app?vid=ca37cb69-caf0-4537-bd47-3dee4e8b6d8a"},"vehicle_type_id":"4","last_reported":1766268598,"current_range_meters":16800,"station_id":"ce4bhch2rcd13ifvqeug","pricing_plan_id":"cebpf4jnsgd1na2vs0mg"},{"bike_id":"290dfe38-df29-457f-bfea-231893313a48","system_id":"levelo_inurba_marseille","lat":43.26574,"lon":5.3899,"is_reserved":false,"is_disabled":false,"rental_uris":{"android":"levelo://app?vid=290dfe38-df29-457f-bfea-231893313a48","ios":"levelo://app?vid=290dfe38-df29-457f-bfea-231893313a48"},"vehicle_type_id":"4","last_reported":1766268598,"current_range_meters":16800,"station_id":"ce4bhe12rcd13ifvqf30","pricing_plan_id":"cebpf4jnsgd1na2vs0mg"},{"bike_id":"84e8160e-7a95-4599-b89e-3ea4d55aeecc","system_id":"levelo_inurba_marseille","lat":43.29232,"lon":5.41268,"is_reserved":false,"is_disabled":false,"rental_uris":{"android":"levelo://app?vid=84e8160e-7a95-4599-b89e-3ea4d55aeecc","ios":"levelo://app?vid=84e8160e-7a95-4599-b89e-3ea4d55aeecc"},"vehicle_type_id":"4","last_reported":1766268598,"current_range_meters":16800,"station_id":"","pricing_plan_id":"cebpf4jnsgd1na2vs0mg"},{"bike_id":"c5920621-74bb-4fb2-bdc3-b54a5d3d65f0","system_id":"levelo_inurba_marseille","lat":43.27946,"lon":5.41056,"is_reserved":false,"is_disabled":false,"rental_uris":{"android":"levelo://app?vid=c5920621-74bb-4fb2-bdc3-b54a5d3d65f0","ios":"levelo://app?vid=c5920621-74bb-4fb2-bdc3-b54a5d3d65f0"},"vehicle_type_id":"4","last_reported":1766268598,"current_range_meters":16800,"station_id":"ce4bhnp2rcd13ifvqh0g","pricing_plan_id":"cebpf4jnsgd1na2vs0mg"},{"bike_id":"2fda15d0-a6ef-4d8e-9c3f-6c588efb6ad3","system_id":"levelo_inurba_marseille","lat":43.23789,"lon":5.36623,"is_reserved":false,"is_disabled":false,"rental_uris":{"android":"levelo://app?vid=2fda15d0-a6ef-4d8e-9c3f-6c588efb6ad3","ios":"levelo://app?vid=2fda15d0-a6ef-4d8e-9c3f-6c588efb6ad3"},"vehicle_type_id":"4","last_reported":1766268598,"current_range_meters":17200,"station_id":"st_d3nk18o9ro0c73en2l3g","pricing_plan_id":"cebpf4jnsgd1na2vs0mg"},{"bike_id":"6989fe41-8785-4a84-947e-d51845f3ddd8","system_id":"levelo_inurba_marseille","lat":43.22924,"lon":5.35374,"is_reserved":false,"is_disabled":true,"rental_uris":{"android":"levelo://app?vid=6989fe41-8785-4a84-947e-d51845f3ddd8","ios":"levelo://app?vid=6989fe41-8785-4a84-947e-d51845f3ddd8"},"vehicle_type_id":"4","last_reported":1766268598,"current_range_meters":17200,"station_id":"cpo3532slgdg3j2ikp40","pricing_plan_id":"cebpf4jnsgd1na2vs0mg"},{"bike_id":"af0fd840-4057-40ec-af7b-0a5a1d58bbd1","system_id":"levelo_inurba_marseille","lat":43.30468,"lon":5.37887,"is_reserved":false,"is_disabled":true,"rental_uris":{"android":"levelo://app?vid=af0fd840-4057-40ec-af7b-0a5a1d58bbd1","ios":"levelo://app?vid=af0fd840-4057-40ec-af7b-0a5a1d58bbd1"},"vehicle_type_id":"4","last_reported":1766268598,"current_range_meters":17200,"station_id":"ce4bgup2rcd13ifvqcn0","pricing_plan_id":"cebpf4jnsgd1na2vs0mg"},{"bike_id":"8717bdf4-d118-48a6-a236-cee725ff60d0","system_id":"levelo_inurba_marseille","lat":43.295349,"lon":5.375,"is_reserved":false,"is_disabled":false,"rental_uris":{"android":"levelo://app?vid=8717bdf4-d118-48a6-a236-cee725ff60d0","ios":"levelo://app?vid=8717bdf4-d118-48a6-a236-cee725ff60d0"},"vehicle_type_id":"4","last_reported":1766268598,"current_range_meters":17200,"station_id":"ce4bgkp2rcd13ifvqbmg","pricing_plan_id":"cebpf4jnsgd1na2vs0mg"},