{"last_updated":1726675901,"ttl":30,"version":"2.2","data":{"bikes":[{"bike_id":"43a0a796-7ba2-4e53-9974-00d47c10791c","system_id":"levelo_inurba_marseille","lat":43.27497,"lon":5.42444,"is_reserved":false,"is_disabled":false,"rental_uris":{"android":"levelo://app?vid=43a0a796-7ba2-4e53-9974-00d47c10791c","ios":"levelo://app?vid=43a0a796-7ba2-4e53-9974-00d47c10791c"},"vehicle_type_id":"4","last_reported":1726675901,"current_range_meters":39200,"station_id":"ce4bhn92rcd13ifvqgrg","pricing_plan_id":"cebpf4jnsgd1na2vs0mg"},{"bike_id":"48ef9c00-50ea-47e4-8d6f-bb75aae922a5","system_id":"levelo_inurba_marseille","lat":43.28665,"lon":5.38678,"is_reserved":false,"is_disabled":false,"rental_uris":{"android":"levelo://app?vid=48ef9c00-50ea-47e4-8d6f-bb75aae922a5","ios":"levelo://app?vid=48ef9c00-50ea-47e4-8d6f-bb75aae922a5"},"vehicle_type_id":"4","last_reported":1726675901,"current_range_meters":16000,"station_id":"ce4bh492rcd13ifvqdug","pricing_plan_id":"cebpf4jnsgd1na2vs0mg"},{"bike_id":"2366fe9e-51d2-421f-9c2d-0b90c009e297","system_id":"levelo_inurba_marseille","lat":43.312139,"lon":5.368481,"is_reserved":false,"is_disabled":false,"rental_uris":{"android":"levelo://app?vid=2366fe9e-51d2-421f-9c2d-0b90c009e297","ios":"levelo://app?vid=2366fe9e-51d2-421f-9c2d-0b90c009e297"},"vehicle_type_id":"4","last_reported":1726675901,"current_range_meters":24800,"station_id":"ce4bhhh2rcd13ifvqfl0","pricing_plan_id":"cebpf4jnsgd1na2vs0mg"},{"bike_id":"43176770-eaee-4996-86c7-d408161e4ce6","system_id":"levelo_inurba_marseille","lat":43.29896,"lon":5.43665,"is_reserved":false,"is_disabled":false,"rental_uris":{"android":"levelo://app?vid=43176770-eaee-4996-86c7-d408161e4ce6","ios":"levelo://app?vid=43176770-eaee-4996-86c7-d408161e4ce6"},"vehicle_type_id":"4","last_reported":1726675901,"current_range_meters":37600,"station_id":"ce4bhpp2rcd13ifvqhfg","pricing_plan_id":"cebpf4jnsgd1na2vs0mg"},{"bike_id":"03dee432-dfe3-4c18-82c6-1afed147ace4","system_id":"levelo_inurba_marseille","lat":43.311676,"lon":5.387183,"is_reserved":false,"is_disabled":false,"rental_uris":{"android":"levelo://app?vid=03dee432-dfe3-4c18-82c6-1afed147ace4","ios":"levelo://app?vid=03dee432-dfe3-4c18-82c6-1afed147ace4"},"vehicle_type_id":"4","last_reported":1726675901,"current_range_meters":38000,"station_id":"ce4bgv12rcd13ifvqcp0","pricing_plan_id":"cebpf4jnsgd1na2vs0mg"},{"bike_id":"035d5067-9e2c-488d-a6cb-70024d22634e","system_id":"levelo_inurba_marseille","lat":43.30474,"lon":5.37909,"is_reserved":false,"is_disabled":false,"rental_uris":{"android":"levelo://app?vid=035d5067-9e2c-488d-a6cb-70024d22634e","ios":"levelo://app?vid=035d5067-9e2c-488d-a6cb-70024d22634e"},"vehicle_type_id":"4","last_reported":1726675901,"current_range_meters":16400,"station_id":"ce4bgup2rcd13ifvqcn0","pricing_plan_id":"cebpf4jnsgd1na2vs0mg"},{"bike_id":"e532fd53-ad12-4848-82ea-70ac934c1c37","system_id":"levelo_inurba_marseille","lat":43.337444,"lon":5.374475,"is_reserved":false,"is_disabled":false,"rental_uris":{"android":"levelo://app?vid=e532fd53-ad12-4848-82ea-70ac934c1c37","ios":"levelo://app?vid=e532fd53-ad12-4848-82ea-70ac934c1c37"},"vehicle_type_id":"4","last_reported":1726675901,"current_range_meters":19600,"station_id":"","pricing_plan_id":"cebpf4jnsgd1na2vs0mg"},{"bike_id":"caf94c9d-b69b-4de1-b7bf-ff6afeb2f7fb","system_id":"levelo_inurba_marseille","lat":43.28458,"lon":5.35875,"is_reserved":false,"is_disabled":false,"rental_uris":{"android":"levelo://app?vid=caf94c9d-b69b-4de1-b7bf-ff6afeb2f7fb","ios":"levelo://app?vid=caf94c9d-b69b-4de1-b7bf-ff6afeb2f7fb"},"vehicle_type_id":"4","last_reported":1726675901,"current_range_meters":32400,"station_id":"ce4bhah2rcd13ifvqei0","pricing_plan_id":"cebpf4jnsgd1na2vs0mg"},{"bike_id":"405065a4-7a30-4120-87c9-02ac486a28fd","system_id":"levelo_inurba_marseille","lat":43.27813,"lon":5.4071,"is_reserved":false,"is_disabled":false,"rental_uris":{"android":"levelo://app?vid=405065a4-7a30-4120-87c9-02ac486a28fd","ios":"levelo://app?vid=405065a4-7a30-4120-87c9-02ac486a28fd"},"vehicle_type_id":"4","last_reported":1726675901,"current_range_meters":14400,"station_id":"ce4bhnh2rcd13ifvqgtg","pricing_plan_id":"cebpf4jnsgd1na2vs0mg"},{"bike_id":"b85ffb90-0455-41ad-954b-cc8a08e9bd21","system_id":"levelo_inurba_marseille","lat":43.29713,"lon":5.36607,"is_reserved":false,"is_disabled":false,"rental_uris":{"android":"levelo://app?vid=b85ffb90-0455-41ad-954b-cc8a08e9bd21","ios":"levelo://app?vid=b85ffb90-0455-41ad-954b-cc8a08e9bd21"},"vehicle_type_id":"4","last_reported":1726675901,"current_range_meters":38800,"station_id":"ce4bgn12rcd13ifvqbt0","pricing_plan_id":"cebpf4jnsgd1na2vs0mg"},{"bike_id":"4e871cbb-8554-40d4-8be2-dd07b4559d20","system_id":"levelo_inurba_marseille","lat":43.28615,"lon":5.35102,"is_reserved":false,"is_disabled":false,"rental_uris":{"android":"levelo://app?vid=4e871cbb-8554-40d4-8be2-dd07b4559d20","ios":"levelo://app?vid=4e871cbb-8554-40d4-8be2-dd07b4559d20"},"vehicle_type_id":"4","last_reported":1726675901,"current_range_meters":8400,"station_id":"ce4bhch2rcd13ifvqeug","pricing_plan_id":"cebpf4jnsgd1na2vs0mg"},{"bike_id":"e9a2d1c9-a200-4702-a609-7ef33d141abf","system_id":"levelo_inurba_marseille","lat":43.2841,"lon":5.37522,"is_reserved":false,"is_disabled":false,"rental_uris":{"android":"levelo://app?vid=e9a2d1c9-a200-4702-a609-7ef33d141abf","ios":"levelo://app?vid=e9a2d1c9-a200-4702-a609-7ef33d141abf"},"vehicle_type_id":"4","last_reported":1726675901,"current_range_meters":37600,"station_id":"ce4bh412rcd13ifvqds0","pricing_plan_id":"cebpf4jnsgd1na2vs0mg"},{"bike_id":"04791491-cea4-4386-94bc-f4e67088940d","system_id":"levelo_inurba_marseille","lat":43.295222,"lon":5.39025,"is_reserved":false,"is_disabled":false,"rental_uris":{"android":"levelo://app?vid=04791491-cea4-4386-94bc-f4e67088940d","ios":"levelo://app?vid=04791491-cea4-4386-94bc-f4e67088940d"},"vehicle_type_id":"4","last_reported":1726675901,"current_range_meters":36000,"station_id":"ce4bh3p2rcd13ifvqdp0","pricing_plan_id":"cebpf4jnsgd1na2vs0mg"},{"bike_id":"1990f9ed-b0a9-4db5-8aa8-97b4d764c0af","system_id":"levelo_inurba_marseille","lat":43.26685,"lon":5.38273,"is_reserved":false,"is_disabled":false,"rental_uris":{"android":"levelo://app?vid=1990f9ed-b0a9-4db5-8aa8-97b4d764c0af","ios":"levelo://app?vid=1990f9ed-b0a9-4db5-8aa8-97b4d764c0af"},"vehicle_type_id":"4","last_reported":1726675901,"current_range_meters":38800,"station_id":"ce4bhg92rcd13ifvqf90","pricing_plan_id":"cebpf4jnsgd1na2vs0mg"},{"bike_id":"c8b16021-ad4f-4c1b-80b1-7d1b9c811227","system_id":"levelo_inurba_marseille","lat":43.32361,"lon":5.3888,"is_reserved":false,"is_disabled":false,"rental_uris":{"android":"levelo://app?vid=c8b16021-ad4f-4c1b-80b1-7d1b9c811227","ios":"levelo://app?vid=c8b16021-ad4f-4c1b-80b1-7d1b9c811227"},"vehicle_type_id":"4","last_reported":1726675901,"current_range_meters":9600,"station_id":"ce4bhqp2rcd13ifvqhog","pricing_plan_id":"cebpf4jnsgd1na2vs0mg"},{"bike_id":"734aa74e-b926-4042-9aab-1e80809573f6","system_id":"levelo_inurba_marseille","lat":43.28158,"lon":5.40479,"is_reserved":false,"is_disabled":false,"rental_uris":{"android":"levelo://app?vid=734aa74e-b926-4042-9aab-1e80809573f6","ios":"levelo://app?vid=734aa74e-b926-4042-9aab-1e80809573f6"},"vehicle_type_id":"4","last_reported":1726675901,"current_range_meters":27200,"station_id":"","pricing_plan_id":"cebpf4jnsgd1na2vs0mg"},{"bike_id":"506a28f7-0798-49e4-b38f-f0bb95dda86f","system_id":"levelo_inurba_marseille","lat":43.32478,"lon":5.36571,"is_reserved":false,"is_disabled":false,"rental_uris":{"android":"levelo://app?vid=506a28f7-0798-49e4-b38f-f0bb95dda86f","ios":"levelo://app?vid=506a28f7-0798-49e4-b38f-f0bb95dda86f"},"vehicle_type_id":"4","last_reported":1726675901,"current_range_meters":34000,"station_id":"ce4bhs12rcd13ifvqhvg","pricing_plan_id":"cebpf4jnsgd1na2vs0mg"},{"bike_id":"f5f32e6f-2550-40d1-b992-73b9865b254f","system_id":"levelo_inurba_marseille","lat":43.26805,"lon":5.4008,"is_reserved":false,"is_disabled":false,"rental_uris":{"android":"levelo://app?vid=f5f32e6f-2550-40d1-b992-73b9865b254f","ios":"levelo://app?vid=f5f32e6f-2550-40d1-b992-73b9865b254f"},"vehicle_type_id":"4","last_reported":1726675901,"current_range_meters":8800,"station_id":"ce501612rcd8frsf0b60","pricing_plan_id":"cebpf4jnsgd1na2vs0mg"},{"bike_id":"90d40abe-b095-4f0b-8811-2a51c6549295","system_id":"levelo_inurba_marseille","lat":43.26057,"lon":5.39397,"is_reserved":false,"is_disabled":false,"rental_uris":{"android":"levelo://app?vid=90d40abe-b095-4f0b-8811-2a51c6549295","ios":"levelo://app?vid=90d40abe-b095-4f0b-8811-2a51c6549295"},"vehicle_type_id":"4","last_reported":1726675901,"current_range_meters":38000,"station_id":"ce4bhh92rcd13ifvqfj0","pricing_plan_id":"cebpf4jnsgd1na2vs0mg"},{"bike_id":"d6bd025f-f1ce-4907-8e7e-8d27b089110b","system_id":"levelo_inurba_marseille","lat":43.30648,"lon":5.40082,"is_reserved":false,"is_disabled":false,"rental_uris":{"android":"levelo://app?vid=d6bd025f-f1ce-4907-8e7e-8d27b089110b","ios":"levelo://app?vid=d6bd025f-f1ce-4907-8e7e-8d27b089110b"},"vehicle_type_id":"4","last_reported":1726675901,"current_range_meters":30400,"station_id":"ce4bh112rcd13ifvqda0","pricing_plan_id":"cebpf4jnsgd1na2vs0mg"},{"bike_id":"5c20a958-d490-41db-84a7-f9730ee7ce03","system_id":"levelo_inurba_marseille","lat":43.2957,"lon":5.39966,"is_reserved":false,"is_disabled":false,"rental_uris":{"android":"levelo://app?vid=5c20a958-d490-41db-84a7-f9730ee7ce03","ios":"levelo://app?vid=5c20a958-d490-41db-84a7-f9730ee7ce03"},"vehicle_type_id":"4","last_reported":1726675901,"current_range_meters":24000,"station_id":"ce4bh312rcd13ifvqdj0","pricing_plan_id":"cebpf4jnsgd1na2vs0mg"},{"bike_id":"dd4986dd-aa5e-4f13-a284-7ab7916a53e7","system_id":"levelo_inurba_marseille","lat":43.29261,"lon":5.3845,"is_reserved":false,"is_disabled":false,"rental_uris":{"android":"levelo://app?vid=dd4986dd-aa5e-4f13-a284-7ab7916a53e7","ios":"levelo://app?vid=dd4986dd-aa5e-4f13-a284-7ab7916a53e7"},"vehicle_type_id":"4","last_reported":1726675901,"current_range_meters":31200,"station_id":"ce4bh692rcd13ifvqea0","pricing_plan_id":"cebpf4jnsgd1na2vs0mg"},{"bike_id":"3219537e-a96e-44ff-b65a-d55caf5ddd5e","system_id":"levelo_inurba_marseille","lat":43.31329,"lon":5.39686,"is_reserved":false,"is_disabled":false,"rental_uris":{"android":"levelo://app?vid=3219537e-a96e-44ff-b65a-d55caf5ddd5e","ios":"levelo://app?vid=3219537e-a96e-44ff-b65a-d55caf5ddd5e"},"vehicle_type_id":"4","last_reported":1726675901,"current_range_meters":30000,"station_id":"ce4bgvp2rcd13ifvqcu0","pricing_plan_id":"cebpf4jnsgd1na2vs0mg"},{"bike_id":"c2667222-5d26-4d9c-a938-761c480fe584","system_id":"levelo_inurba_marseille","lat":43.33026,"lon":5.39036,"is_reserved":false,"is_disabled":false,"rental_uris":{"android":"levelo://app?vid=c2667222-5d26-4d9c-a938-761c480fe584","ios":"levelo://app?vid=c2667222-5d26-4d9c-a938-761c480fe584"},"vehicle_type_id":"4","last_reported":1726675901,"current_range_meters":9600,"station_id":"ce4bhr92rcd13ifvqhrg","pricing_plan_id":"cebpf4jnsgd1na2vs0mg"},{"bike_id":"aed6cbe4-6d99-4ad7-8a0c-d2c4d91e8e39","system_id":"levelo_inurba_marseille","lat":43.290264,"lon":5.386454,"is_reserved":false,"is_disabled":false,"rental_uris":{"android":"levelo://app?vid=aed6cbe4-6d99-4ad7-8a0c-d2c4d91e8e39","ios":"levelo://app?vid=aed6cbe4-6d99-4ad7-8a0c-d2c4d91e8e39"},"vehicle_type_id":"4","last_reported":1726675901,"current_range_meters":38400,"station_id":"ce4bh4p2rcd13ifvqe0g","pricing_plan_id":"cebpf4jnsgd1na2vs0mg"},{"bike_id":"f983feed-8e80-4bcd-a3a8-3f33f26b379a","system_id":"levelo_inurba_marseille","lat":43.28656,"lon":5.36354,"is_reserved":false,"is_disabled":false,"rental_uris":{"android":"levelo://app?vid=f983feed-8e80-4bcd-a3a8-3f33f26b379a","ios":"levelo://app?vid=f983feed-8e80-4bcd-a3a8-3f33f26b379a"},"vehicle_type_id":"4","last_reported":1726675901,"current_range_meters":6800,"station_id":"ce4bhah2rcd13ifvqej0","pricing_plan_id":"cebpf4jnsgd1na2vs0mg"},{"bike_id":"02ade3cf-0f1c-482b-9180-c7c4e1d10e08","system_id":"levelo_inurba_marseille","lat":43.29697,"lon":5.36617,"is_reserved":false,"is_disabled":false,"rental_uris":{"android":"levelo://app?vid=02ade3cf-0f1c-482b-9180-c7c4e1d10e08","ios":"levelo://app?vid=02ade3cf-0f1c-482b-9180-c7c4e1d10e08"},"vehicle_type_id":"4","last_reported":1726675901,"current_range_meters":12400,"station_id":"ce4bgn12rcd13ifvqbt0","pricing_plan_id":"cebpf4jnsgd1na2vs0mg"},{"bike_id":"851763ca-be74-43bb-b598-9f61909113b9","system_id":"levelo_inurba_marseille","lat":43.25822,"lon":5.39439,"is_reserved":false,"is_disabled":false,"rental_uris":{"android":"levelo://app?vid=851763ca-be74-43bb-b598-9f61909113b9","ios":"levelo://app?vid=851763ca-be74-43bb-b598-9f61909113b9"},"vehicle_type_id":"4","last_reported":1726675901,"current_range_meters":33600,"station_id":"ce4bhip2rcd13ifvqft0","pricing_plan_id":"cebpf4jnsgd1na2vs0mg"},{"bike_id":"8fa5cd82-7a09-4387-9eab-6bccfd93b193","system_id":"levelo_inurba_marseille","lat":43.29578,"lon":5.37499,"is_reserved":false,"is_disabled":false,"rental_uris":{"android":"levelo://app?vid=8fa5cd82-7a09-4387-9eab-6bccfd93b193","ios":"levelo://app?vid=8fa5cd82-7a09-4387-9eab-6bccfd93b193"},"vehicle_type_id":"4","last_reported":1726675901,"current_range_meters":38800,"station_id":"ce4bgh92rcd13ifvqb50","pricing_plan_id":"cebpf4jnsgd1na2vs0mg"},{"bike_id":"12758dff-7cfc-4206-a0e1-e36f3bcce0da","system_id":"levelo_inurba_marseille","lat":43.26824,"lon":5.41237,"is_reserved":false,"is_disabled":false,"rental_uris":{"android":"levelo://app?vid=12758dff-7cfc-4206-a0e1-e36f3bcce0da","ios":"levelo://app?vid=12758dff-7cfc-4206-a0e1-e36f3bcce0da"},"vehicle_type_id":"4","last_reported":1726675901,"current_range_meters":26000,"station_id":"","pricing_plan_id":"cebpf4jnsgd1na2vs0mg"},{"bike_id":"27bf158c-2e6b-4346-a041-6dc560d703a5","system_id":"levelo_inurba_marseille","lat":43.29091,"lon":5.38125,"is_reserved":false,"is_disabled":false,"rental_uris":{"android":"levelo://app?vid=27bf158c-2e6b-4346-a041-6dc560d703a5","ios":"levelo://app?vid=27bf158c-2e6b-4346-a041-6dc560d703a5"},"vehicle_type_id":"4","last_reported":1726675901,"current_range_meters":8000,"station_id":"ce4bh512rcd13ifvqe2g","pricing_plan_id":"cebpf4jnsgd1na2vs0mg"},{"bike_id":"9164327b-0f2f-44eb-8261-d687677dd5bb","system_id":"levelo_inurba_marseille","lat":43.254916,"lon":5.376507,"is_reserved":false,"is_disabled":false,"rental_uris":{"android":"levelo://app?vid=9164327b-0f2f-44eb-8261-d687677dd5bb","ios":"levelo://app?vid=9164327b-0f2f-44eb-8261-d687677dd5bb"},"vehicle_type_id":"4","last_reported":1726675901,"current_range_meters":9200,"station_id":"ce4bhh12rcd13ifvqff0","pricing_plan_id":"cebpf4jnsgd1na2vs0mg"},{"bike_id":"b9cb4c6e-dcde-446e-b8b4-d7850a978090","system_id":"levelo_inurba_marseille","lat":43.28851,"lon":5.35844,"is_reserved":false,"is_disabled":false,"rental_uris":{"android":"levelo://app?vid=b9cb4c6e-dcde-446e-b8b4-d7850a978090","ios":"levelo://app?vid=b9cb4c6e-dcde-446e-b8b4-d7850a978090"},"vehicle_type_id":"4","last_reported":1726675901,"current_range_meters":6400,"station_id":"ce4bhb12rcd13ifvqem0","pricing_plan_id":"cebpf4jnsgd1na2vs0mg"},{"bike_id":"08f6582c-9da1-4909-8411-4042d983d1a8","system_id":"levelo_inurba_marseille","lat":43.28705,"lon":5.37402,"is_reserved":false,"is_disabled":false,"rental_uris":{"android":"levelo://app?vid=08f6582c-9da1-4909-8411-4042d983d1a8","ios":"levelo://app?vid=08f6582c-9da1-4909-8411-4042d983d1a8"},"vehicle_type_id":"4","last_reported":1726675901,"current_range_meters":22400,"station_id":"ce4bh3p2rcd13ifvqdq0","pricing_plan_id":"cebpf4jnsgd1na2vs0mg"},{"bike_id":"f73cab25-e77c-47a3-8def-b8875f74ecae","system_id":"levelo_inurba_marseille","lat":43.27846,"lon":5.39205,"is_reserved":false,"is_disabled":false,"rental_uris":{"android":"levelo://app?vid=f73cab25-e77c-47a3-8def-b8875f74ecae","ios":"levelo://app?vid=f73cab25-e77c-47a3-8def-b8875f74ecae"},"vehicle_type_id":"4","last_reported":1726675901,"current_range_meters":12400,"station_id":"ce4bhjp2rcd13ifvqga0","pricing_plan_id":"cebpf4jnsgd1na2vs0mg"},{"bike_id":"08b316cd-03e2-4b7c-b1a7-741e22afcb69","system_id":"levelo_inurba_marseille","lat":43.28726,"lon":5.36077,"is_reserved":false,"is_disabled":false,"rental_uris":{"android":"levelo://app?vid=08b316cd-03e2-4b7c-b1a7-741e22afcb69","ios":"levelo://app?vid=08b316cd-03e2-4b7c-b1a7-741e22afcb69"},"vehicle_type_id":"4","last_reported":1726675901,"current_range_meters":26000,"station_id":"cki0cbj6b192h4jlfktg","pricing_plan_id":"cebpf4jnsgd1na2vs0mg"},{"bike_id":"12786986-13b8-41fb-ae69-e4b8d87cbe8b","system_id":"levelo_inurba_marseille","lat":43.28727,"lon":5.36081,"is_reserved":false,"is_disabled":false,"rental_uris":{"android":"levelo://app?vid=12786986-13b8-41fb-ae69-e4b8d87cbe8b","ios":"levelo://app?vid=12786986-13b8-41fb-ae69-e4b8d87cbe8b"},"vehicle_type_id":"4","last_reported":1726675901,"current_range_meters":32800,"station_id":"cki0cbj6b192h4jlfktg","pricing_plan_id":"cebpf4jnsgd1na2vs0mg"},{"bike_id":"c7f93bf2-2b30-4c5c-aa72-447b3f4a28ea","system_id":"levelo_inurba_marseille","lat":43.29897,"lon":5.43659,"is_reserved":false,"is_disabled":false,"rental_uris":{"android":"levelo://app?vid=c7f93bf2-2b30-4c5c-aa72-447b3f4a28ea","ios":"levelo://app?vid=c7f93bf2-2b30-4c5c-aa72-447b3f4a28ea"},"vehicle_type_id":"4","last_reported":1726675901,"current_range_meters":3200,"station_id":"ce4bhpp2rcd13ifvqhfg","pricing_plan_id":"cebpf4jnsgd1na2vs0mg"},{"bike_id":"ccb1bac7-1efa-4a55-9f02-caa637336fc9","system_id":"levelo_inurba_marseille","lat":43.241699,"lon":5.363981,"is_reserved":false,"is_disabled":false,"rental_uris":{"android":"levelo://app?vid=ccb1bac7-1efa-4a55-9f02-caa637336fc9","ios":"levelo://app?vid=ccb1bac7-1efa-4a55-9f02-caa637336fc9"},"vehicle_type_id":"4","last_reported":1726675901,"current_range_meters":20800,"station_id":"ce4bgi12rcd13ifvqb70","pricing_plan_id":"cebpf4jnsgd1na2vs0mg"},{"bike_id":"f62c9cc3-57d8-428a-8e2b-d0c1f14897b1","system_id":"levelo_inurba_marseille","lat":43.294453,"lon":5.397494,"is_reserved":false,"is_disabled":false,"rental_uris":{"android":"levelo://app?vid=f62c9cc3-57d8-428a-8e2b-d0c1f14897b1","ios":"levelo://app?vid=f62c9cc3-57d8-428a-8e2b-d0c1f14897b1"},"vehicle_type_id":"4","last_reported":1726675901,"current_range_meters":18800,"station_id":"ce4bh112rcd13ifvqd90","pricing_plan_id":"cebpf4jnsgd1na2vs0mg"},{"bike_id":"096f29f8-3b34-4fac-afbc-13bacdbf7f7f","system_id":"levelo_inurba_marseille","lat":43.29448,"lon":5.39748,"is_reserved":false,"is_disabled":false,"rental_uris":{"android":"levelo://app?vid=096f29f8-3b34-4fac-afbc-13bacdbf7f7f","ios":"levelo://app?vid=096f29f8-3b34-4fac-afbc-13bacdbf7f7f"},"vehicle_type_id":"4","last_reported":1726675901,"current_range_meters":20800,"station_id":"ce4bh3h2rcd13ifvqdo0","pricing_plan_id":"cebpf4jnsgd1na2vs0mg"},{"bike_id":"80d1eb54-6334-4c2f-a160-7e4b5cb79537","system_id":"levelo_inurba_marseille","lat":43.29959,"lon":5.41322,"is_reserved":false,"is_disabled":false,"rental_uris":{"android":"levelo://app?vid=80d1eb54-6334-4c2f-a160-7e4b5cb79537","ios":"levelo://app?vid=80d1eb54-6334-4c2f-a160-7e4b5cb79537"},"vehicle_type_id":"4","last_reported":1726675901,"current_range_meters":34000,"station_id":"ce4bhp12rcd13ifvqh9g","pricing_plan_id":"cebpf4jnsgd1na2vs0mg"},{"bike_id":"02f42f49-ea35-4c46-8cfb-e08cef580a55","system_id":"levelo_inurba_marseille","lat":43.29259,"lon":5.38436,"is_reserved":false,"is_disabled":false,"rental_uris":{"android":"levelo://app?vid=02f42f49-ea35-4c46-8cfb-e08cef580a55","ios":"levelo://app?vid=02f42f49-ea35-4c46-8cfb-e08cef580a55"},"vehicle_type_id":"4","last_reported":1726675901,"current_range_meters":30400,"station_id":"ce4bh692rcd13ifvqea0","pricing_plan_id":"cebpf4jnsgd1na2vs0mg"},{"bike_id":"0423a9d7-e824-40a2-9716-17bfc1ca3ded","system_id":"levelo_inurba_marseille","lat":43.27959,"lon":5.38721,"is_reserved":false,"is_disabled":false,"rental_uris":{"android":"levelo://app?vid=0423a9d7-e824-40a2-9716-17bfc1ca3ded","ios":"levelo://app?vid=0423a9d7-e824-40a2-9716-17bfc1ca3ded"},"vehicle_type_id":"4","last_reported":1726675901,"current_range_meters":30800,"station_id":"ce4bhg12rcd13ifvqf80","pricing_plan_id":"cebpf4jnsgd1na2vs0mg"},{"bike_id":"43805cbb-bd17-4b97-9950-dc0f503d26b8","system_id":"levelo_inurba_marseille","lat":43.323639,"lon":5.388814,"is_reserved":false,"is_disabled":false,"rental_uris":{"android":"levelo://app?vid=43805cbb-bd17-4b97-9950-dc0f503d26b8","ios":"levelo://app?vid=43805cbb-bd17-4b97-9950-dc0f503d26b8"},"vehicle_type_id":"4","last_reported":1726675901,"current_range_meters":21600,"station_id":"ce4bgt12rcd13ifvqcd0","pricing_plan_id":"cebpf4jnsgd1na2vs0mg"},{"bike_id":"857aa914-fcb7-449f-8d8c-1d449fbc7713","system_id":"levelo_inurba_marseille","lat":43.2857,"lon":5.39502,"is_reserved":false,"is_disabled":false,"rental_uris":{"android":"levelo://app?vid=857aa914-fcb7-449f-8d8c-1d449fbc7713","ios":"levelo://app?vid=857aa914-fcb7-449f-8d8c-1d449fbc7713"},"vehicle_type_id":"4","last_reported":1726675901,"current_range_meters":16400,"station_id":"ce4bh292rcd13ifvqdg0","pricing_plan_id":"cebpf4jnsgd1na2vs0mg"},{"bike_id":"5d78b308-9505-4ed0-832a-dc6eb31a5971","system_id":"levelo_inurba_marseille","lat":43.25579,"lon":5.38234,"is_reserved":false,"is_disabled":false,"rental_uris":{"android":"levelo://app?vid=5d78b308-9505-4ed0-832a-dc6eb31a5971","ios":"levelo://app?vid=5d78b308-9505-4ed0-832a-dc6eb31a5971"},"vehicle_type_id":"4","last_reported":1726675901,"current_range_meters":26000,"station_id":"ce4bhih2rcd13ifvqfs0","pricing_plan_id":"cebpf4jnsgd1na2vs0mg"},{"bike_id":"2e2254f6-d3ed-4277-af5f-ee204e464f40","system_id":"levelo_inurba_marseille","lat":43.29949,"lon":5.41318,"is_reserved":false,"is_disabled":false,"rental_uris":{"android":"levelo://app?vid=2e2254f6-d3ed-4277-af5f-ee204e464f40","ios":"levelo://app?vid=2e2254f6-d3ed-4277-af5f-ee204e464f40"},"vehicle_type_id":"4","last_reported":1726675901,"current_range_meters":34800,"station_id":"ce4bhp12rcd13ifvqh9g","pricing_plan_id":"cebpf4jnsgd1na2vs0mg"},{"bike_id":"14fa29d2-7879-481f-9150-79898026268e","system_id":"levelo_inurba_marseille","lat":43.29197,"lon":5.35795,"is_reserved":false,"is_disabled":false,"rental_uris":{"android":"levelo://app?vid=14fa29d2-7879-481f-9150-79898026268e","ios":"levelo://app?vid=14fa29d2-7879-481f-9150-79898026268e"},"vehicle_type_id":"4","last_reported":1726675901,"current_range_meters":36800,"station_id":"ce4bhb12rcd13ifvqel0","pricing_plan_id":"cebpf4jnsgd1na2vs0mg"},{"bike_id":"1e9e187c-a9c2-4f8a-aad9-34ccc4beb9ad","system_id":"levelo_inurba_marseille","lat":43.29279,"lon":5.36843,"is_reserved":false,"is_disabled":false,"rental_uris":{"android":"levelo://app?vid=1e9e187c-a9c2-4f8a-aad9-34ccc4beb9ad","ios":"levelo://app?vid=1e9e187c-a9c2-4f8a-aad9-34ccc4beb9ad"},"vehicle_type_id":"4","last_reported":1726675901,"current_range_meters":14800,"station_id":"ce4bhbp2rcd13ifvqesg","pricing_plan_id":"cebpf4jnsgd1na2vs0mg"},{"bike_id":"c74a4a30-87c1-4ba9-a7cc-946d85700373","system_id":"levelo_inurba_marseille","lat":43.32365,"lon":5.3888,"is_reserved":false,"is_disabled":false,"rental_uris":{"android":"levelo://app?vid=c74a4a30-87c1-4ba9-a7cc-946d85700373","ios":"levelo://app?vid=c74a4a30-87c1-4ba9-a7cc-946d85700373"},"vehicle_type_id":"4","last_reported":1726675901,"current_range_meters":36400,"station_id":"ce4bhqp2rcd13ifvqhog","pricing_plan_id":"cebpf4jnsgd1na2vs0mg"},{"bike_id":"98bf5441-fc4c-417c-9a29-c8adbc09b12d","system_id":"levelo_inurba_marseille","lat":43.28462,"lon":5.35887,"is_reserved":false,"is_disabled":false,"rental_uris":{"android":"levelo://app?vid=98bf5441-fc4c-417c-9a29-c8adbc09b12d","ios":"levelo://app?vid=98bf5441-fc4c-417c-9a29-c8adbc09b12d"},"vehicle_type_id":"4","last_reported":1726675901,"current_range_meters":14000,"station_id":"ce4bhah2rcd13ifvqei0","pricing_plan_id":"cebpf4jnsgd1na2vs0mg"},{"bike_id":"6d09728b-5668-44d7-8c17-1e5cf991767c","system_id":"levelo_inurba_marseille","lat":43.28442,"lon":5.39199,"is_reserved":false,"is_disabled":false,"rental_uris":{"android":"levelo://app?vid=6d09728b-5668-44d7-8c17-1e5cf991767c","ios":"levelo://app?vid=6d09728b-5668-44d7-8c17-1e5cf991767c"},"vehicle_type_id":"4","last_reported":1726675901,"current_range_meters":18000,"station_id":"ce4bhoh2rcd13ifvqh5g","pricing_plan_id":"cebpf4jnsgd1na2vs0mg"},{"bike_id":"6060d9d4-f5b6-4c07-9bc7-735cfd14061c","system_id":"levelo_inurba_marseille","lat":43.27618,"lon":5.36106,"is_reserved":false,"is_disabled":false,"rental_uris":{"android":"levelo://app?vid=6060d9d4-f5b6-4c07-9bc7-735cfd14061c","ios":"levelo://app?vid=6060d9d4-f5b6-4c07-9bc7-735cfd14061c"},"vehicle_type_id":"4","last_reported":1726675901,"current_range_meters":28000,"station_id":"ce4bgj92rcd13ifvqbe0","pricing_plan_id":"cebpf4jnsgd1na2vs0mg"},{"bike_id":"fa77e604-95b4-476d-a30f-499c3aaf710d","system_id":"levelo_inurba_marseille","lat":43.3372,"lon":5.39187,"is_reserved":false,"is_disabled":false,"rental_uris":{"android":"levelo://app?vid=fa77e604-95b4-476d-a30f-499c3aaf710d","ios":"levelo://app?vid=fa77e604-95b4-476d-a30f-499c3aaf710d"},"vehicle_type_id":"4","last_reported":1726675901,"current_range_meters":11600,"station_id":"ce4bhr92rcd13ifvqhsg","pricing_plan_id":"cebpf4jnsgd1na2vs0mg"},{"bike_id":"d35e1a72-b703-49bc-bba6-f5de9c5fd6a8","system_id":"levelo_inurba_marseille","lat":43.33024,"lon":5.39035,"is_reserved":false,"is_disabled":false,"rental_uris":{"android":"levelo://app?vid=d35e1a72-b703-49bc-bba6-f5de9c5fd6a8","ios":"levelo://app?vid=d35e1a72-b703-49bc-bba6-f5de9c5fd6a8"},"vehicle_type_id":"4","last_reported":1726675901,"current_range_meters":24000,"station_id":"ce4bhr92rcd13ifvqhrg","pricing_plan_id":"cebpf4jnsgd1na2vs0mg"},{"bike_id":"3ff457be-9d48-4bdf-9713-b8b04c79ced6","system_id":"levelo_inurba_marseille","lat":43.30432,"lon":5.38886,"is_reserved":false,"is_disabled":false,"rental_uris":{"android":"levelo://app?vid=3ff457be-9d48-4bdf-9713-b8b04c79ced6","ios":"levelo://app?vid=3ff457be-9d48-4bdf-9713-b8b04c79ced6"},"vehicle_type_id":"4","last_reported":1726675901,"current_range_meters":18800,"station_id":"ce4bgk12rcd13ifvqbi0","pricing_plan_id":"cebpf4jnsgd1na2vs0mg"},{"bike_id":"5304ed70-fad3-470c-b0c3-63f08a2a0a36","system_id":"levelo_inurba_marseille","lat":43.31322,"lon":5.39693,"is_reserved":false,"is_disabled":false,"rental_uris":{"android":"levelo://app?vid=5304ed70-fad3-470c-b0c3-63f08a2a0a36","ios":"levelo://app?vid=5304ed70-fad3-470c-b0c3-63f08a2a0a36"},"vehicle_type_id":"4","last_reported":1726675901,"current_range_meters":18800,"station_id":"ce4bgvp2rcd13ifvqcu0","pricing_plan_id":"cebpf4jnsgd1na2vs0mg"},{"bike_id":"9f42b693-28f2-46e0-9ce0-fc3ec68255b1","system_id":"levelo_inurba_marseille","lat":43.32366,"lon":5.38881,"is_reserved":false,"is_disabled":false,"rental_uris":{"android":"levelo://app?vid=9f42b693-28f2-46e0-9ce0-fc3ec68255b1","ios":"levelo://app?vid=9f42b693-28f2-46e0-9ce0-fc3ec68255b1"},"vehicle_type_id":"4","last_reported":1726675901,"current_range_meters":11600,"station_id":"ce4bhqp2rcd13ifvqhog","pricing_plan_id":"cebpf4jnsgd1na2vs0mg"},{"bike_id":"5c06f781-e501-4c22-83b4-84b8bd29c15f","system_id":"levelo_inurba_marseille","lat":43.28348,"lon":5.38097,"is_reserved":false,"is_disabled":false,"rental_uris":{"android":"levelo://app?vid=5c06f781-e501-4c22-83b4-84b8bd29c15f","ios":"levelo://app?vid=5c06f781-e501-4c22-83b4-84b8bd29c15f"},"vehicle_type_id":"4","last_reported":1726675901,"current_range_meters":17200,"station_id":"ce4bh412rcd13ifvqdr0","pricing_plan_id":"cebpf4jnsgd1na2vs0mg"},{"bike_id":"1d7380bc-f6a9-4388-9188-755564b0eec4","system_id":"levelo_inurba_marseille","lat":43.241669,"lon":5.363875,"is_reserved":false,"is_disabled":false,"rental_uris":{"android":"levelo://app?vid=1d7380bc-f6a9-4388-9188-755564b0eec4","ios":"levelo://app?vid=1d7380bc-f6a9-4388-9188-755564b0eec4"},"vehicle_type_id":"4","last_reported":1726675901,"current_range_meters":25600,"station_id":"cpo36qri1sfpv3e86is0","pricing_plan_id":"cebpf4jnsgd1na2vs0mg"},{"bike_id":"22a6f055-2daf-43d3-9d5b-ee860d8f4e45","system_id":"levelo_inurba_marseille","lat":43.2737,"lon":5.36257,"is_reserved":false,"is_disabled":false,"rental_uris":{"android":"levelo://app?vid=22a6f055-2daf-43d3-9d5b-ee860d8f4e45","ios":"levelo://app?vid=22a6f055-2daf-43d3-9d5b-ee860d8f4e45"},"vehicle_type_id":"4","last_reported":1726675901,"current_range_meters":35200,"station_id":"ce4bhbh2rcd13ifvqeo0","pricing_plan_id":"cebpf4jnsgd1na2vs0mg"},{"bike_id":"a26dfee8-7625-4c2d-930d-b081c4ff529f","system_id":"levelo_inurba_marseille","lat":43.28101,"lon":5.3783,"is_reserved":false,"is_disabled":false,"rental_uris":{"android":"levelo://app?vid=a26dfee8-7625-4c2d-930d-b081c4ff529f","ios":"levelo://app?vid=a26dfee8-7625-4c2d-930d-b081c4ff529f"},"vehicle_type_id":"4","last_reported":1726675901,"current_range_meters":6800,"station_id":"ce4bha12rcd13ifvqee0","pricing_plan_id":"cebpf4jnsgd1na2vs0mg"},{"bike_id":"c62f1230-0a2f-4249-a200-adcef78073a6","system_id":"levelo_inurba_marseille","lat":43.22932,"lon":5.35373,"is_reserved":false,"is_disabled":false,"rental_uris":{"android":"levelo://app?vid=c62f1230-0a2f-4249-a200-adcef78073a6","ios":"levelo://app?vid=c62f1230-0a2f-4249-a200-adcef78073a6"},"vehicle_type_id":"4","last_reported":1726675901,"current_range_meters":38800,"station_id":"cpo3532slgdg3j2ikp40","pricing_plan_id":"cebpf4jnsgd1na2vs0mg"},{"bike_id":"3170da5e-66a9-442e-8fbf-885594b0c22a","system_id":"levelo_inurba_marseille","lat":43.31725,"lon":5.4239,"is_reserved":false,"is_disabled":false,"rental_uris":{"android":"levelo://app?vid=3170da5e-66a9-442e-8fbf-885594b0c22a","ios":"levelo://app?vid=3170da5e-66a9-442e-8fbf-885594b0c22a"},"vehicle_type_id":"4","last_reported":1726675901,"current_range_meters":19600,"station_id":"ce4bhp92rcd13ifvqhbg","pricing_plan_id":"cebpf4jnsgd1na2vs0mg"},{"bike_id":"b645ac77-0d58-4fa9-8ad3-947af8bdb1d9","system_id":"levelo_inurba_marseille","lat":43.299,"lon":5.43667,"is_reserved":false,"is_disabled":false,"rental_uris":{"android":"levelo://app?vid=b645ac77-0d58-4fa9-8ad3-947af8bdb1d9","ios":"levelo://app?vid=b645ac77-0d58-4fa9-8ad3-947af8bdb1d9"},"vehicle_type_id":"4","last_reported":1726675901,"current_range_meters":18000,"station_id":"ce4bhpp2rcd13ifvqhfg","pricing_plan_id":"cebpf4jnsgd1na2vs0mg"},{"bike_id":"7ecc2ccc-a1e1-400c-a107-7895d5613aab","system_id":"levelo_inurba_marseille","lat":43.27424,"lon":5.39425,"is_reserved":false,"is_disabled":false,"rental_uris":{"android":"levelo://app?vid=7ecc2ccc-a1e1-400c-a107-7895d5613aab","ios":"levelo://app?vid=7ecc2ccc-a1e1-400c-a107-7895d5613aab"},"vehicle_type_id":"4","last_reported":1726675901,"current_range_meters":2000,"station_id":"ce4bhdp2rcd13ifvqf20","pricing_plan_id":"cebpf4jnsgd1na2vs0mg"},{"bike_id":"9b931c10-052a-41ca-af8d-8f0edd896e09","system_id":"levelo_inurba_marseille","lat":43.31126,"lon":5.37749,"is_reserved":false,"is_disabled":false,"rental_uris":{"android":"levelo://app?vid=9b931c10-052a-41ca-af8d-8f0edd896e09","ios":"levelo://app?vid=9b931c10-052a-41ca-af8d-8f0edd896e09"},"vehicle_type_id":"4","last_reported":1726675901,"current_range_meters":38800,"station_id":"ce4bgt92rcd13ifvqcg0","pricing_plan_id":"cebpf4jnsgd1na2vs0mg"},{"bike_id":"1d00a262-fc97-4d57-8d30-d6c727e548a2","system_id":"levelo_inurba_marseille","lat":43.24071,"lon":5.37763,"is_reserved":false,"is_disabled":false,"rental_uris":{"android":"levelo://app?vid=1d00a262-fc97-4d57-8d30-d6c727e548a2","ios":"levelo://app?vid=1d00a262-fc97-4d57-8d30-d6c727e548a2"},"vehicle_type_id":"4","last_reported":1726675901,"current_range_meters":16800,"station_id":"ce4bhnp2rcd13ifvqgvg","pricing_plan_id":"cebpf4jnsgd1na2vs0mg"},{"bike_id":"55fed244-caf4-46e6-99fc-fcd916ddb5b7","system_id":"levelo_inurba_marseille","lat":43.23206,"lon":5.35537,"is_reserved":false,"is_disabled":false,"rental_uris":{"android":"levelo://app?vid=55fed244-caf4-46e6-99fc-fcd916ddb5b7","ios":"levelo://app?vid=55fed244-caf4-46e6-99fc-fcd916ddb5b7"},"vehicle_type_id":"4","last_reported":1726675901,"current_range_meters":24400,"station_id":"ce4bhu92rcd13ifvqi70","pricing_plan_id":"cebpf4jnsgd1na2vs0mg"},{"bike_id":"3f7da9c1-e887-441d-8808-9e98153d4023","system_id":"levelo_inurba_marseille","lat":43.28613,"lon":5.35101,"is_reserved":false,"is_disabled":false,"rental_uris":{"android":"levelo://app?vid=3f7da9c1-e887-441d-8808-9e98153d4023","ios":"levelo://app?vid=3f7da9c1-e887-441d-8808-9e98153d4023"},"vehicle_type_id":"4","last_reported":1726675901,"current_range_meters":8000,"station_id":"ce4bhch2rcd13ifvqeug","pricing_plan_id":"cebpf4jnsgd1na2vs0mg"},{"bike_id":"8ceb5aea-b40e-4dad-98b0-1dcabb72c74a","system_id":"levelo_inurba_marseille","lat":43.30099,"lon":5.39964,"is_reserved":false,"is_disabled":false,"rental_uris":{"android":"levelo://app?vid=8ceb5aea-b40e-4dad-98b0-1dcabb72c74a","ios":"levelo://app?vid=8ceb5aea-b40e-4dad-98b0-1dcabb72c74a"},"vehicle_type_id":"4","last_reported":1726675901,"current_range_meters":25600,"station_id":"","pricing_plan_id":"cebpf4jnsgd1na2vs0mg"},{"bike_id":"677498c9-746b-4650-9a8e-2c7479635944","system_id":"levelo_inurba_marseille","lat":43.33023,"lon":5.39047,"is_reserved":false,"is_disabled":false,"rental_uris":{"android":"levelo://app?vid=677498c9-746b-4650-9a8e-2c7479635944","ios":"levelo://app?vid=677498c9-746b-4650-9a8e-2c7479635944"},"vehicle_type_id":"4","last_reported":1726675901,"current_range_meters":14000,"station_id":"ce4bhr92rcd13ifvqhrg","pricing_plan_id":"cebpf4jnsgd1na2vs0mg"},{"bike_id":"d365b34d-e27c-4e80-bccc-d8d2286fae48","system_id":"levelo_inurba_marseille","lat":43.279964,"lon":5.416553,"is_reserved":false,"is_disabled":false,"rental_uris":{"android":"levelo://app?vid=d365b34d-e27c-4e80-bccc-d8d2286fae48","ios":"levelo://app?vid=d365b34d-e27c-4e80-bccc-d8d2286fae48"},"vehicle_type_id":"4","last_reported":1726675901,"current_range_meters":26800,"station_id":"ce4bho12rcd13ifvqh1g","pricing_plan_id":"cebpf4jnsgd1na2vs0mg"},{"bike_id":"552272b0-5dfb-4ea5-9957-18ce521587e6","system_id":"levelo_inurba_marseille","lat":43.28425,"lon":5.3498,"is_reserved":false,"is_disabled":false,"rental_uris":{"android":"levelo://app?vid=552272b0-5dfb-4ea5-9957-18ce521587e6","ios":"levelo://app?vid=552272b0-5dfb-4ea5-9957-18ce521587e6"},"vehicle_type_id":"4","last_reported":1726675901,"current_range_meters":14000,"station_id":"ce4bhbh2rcd13ifvqepg","pricing_plan_id":"cebpf4jnsgd1na2vs0mg"},{"bike_id":"f5ddcaf2-4df3-4791-8314-9ff825829baa","system_id":"levelo_inurba_marseille","lat":43.28458,"lon":5.35885,"is_reserved":false,"is_disabled":false,"rental_uris":{"android":"levelo://app?vid=f5ddcaf2-4df3-4791-8314-9ff825829baa","ios":"levelo://app?vid=f5ddcaf2-4df3-4791-8314-9ff825829baa"},"vehicle_type_id":"4","last_reported":1726675901,"current_range_meters":28000,"station_id":"ce4bhah2rcd13ifvqei0","pricing_plan_id":"cebpf4jnsgd1na2vs0mg"},{"bike_id":"31d2085d-0546-4f42-bc88-11024ff36d0e","system_id":"levelo_inurba_marseille","lat":43.24385,"lon":5.37056,"is_reserved":false,"is_disabled":false,"rental_uris":{"android":"levelo://app?vid=31d2085d-0546-4f42-bc88-11024ff36d0e","ios":"levelo://app?vid=31d2085d-0546-4f42-bc88-11024ff36d0e"},"vehicle_type_id":"4","last_reported":1726675901,"current_range_meters":25200,"station_id":"ce4bhhh2rcd13ifvqfk0","pricing_plan_id":"cebpf4jnsgd1na2vs0mg"},{"bike_id":"0f64cac9-1c98-44fb-906b-4ae44047ae4e","system_id":"levelo_inurba_marseille","lat":43.33023,"lon":5.39034,"is_reserved":false,"is_disabled":false,"rental_uris":{"android":"levelo://app?vid=0f64cac9-1c98-44fb-906b-4ae44047ae4e","ios":"levelo://app?vid=0f64cac9-1c98-44fb-906b-4ae44047ae4e"},"vehicle_type_id":"4","last_reported":1726675901,"current_range_meters":24400,"station_id":"ce4bhr92rcd13ifvqhrg","pricing_plan_id":"cebpf4jnsgd1na2vs0mg"},{"bike_id":"ca9a9c6d-5a2e-4fe2-9a37-7ad4579c5b25","system_id":"levelo_inurba_marseille","lat":43.32367,"lon":5.38881,"is_reserved":false,"is_disabled":false,"rental_uris":{"android":"levelo://app?vid=ca9a9c6d-5a2e-4fe2-9a37-7ad4579c5b25","ios":"levelo://app?vid=ca9a9c6d-5a2e-4fe2-9a37-7ad4579c5b25"},"vehicle_type_id":"4","last_reported":1726675901,"current_range_meters":24800,"station_id":"ce4bhqp2rcd13ifvqhog","pricing_plan_id":"cebpf4jnsgd1na2vs0mg"},{"bike_id":"52611d4a-81ec-4c7e-a96b-db35c40fd6a3","system_id":"levelo_inurba_marseille","lat":43.24071,"lon":5.3776,"is_reserved":false,"is_disabled":false,"rental_uris":{"android":"levelo://app?vid=52611d4a-81ec-4c7e-a96b-db35c40fd6a3","ios":"levelo://app?vid=52611d4a-81ec-4c7e-a96b-db35c40fd6a3"},"vehicle_type_id":"4","last_reported":1726675901,"current_range_meters":23200,"station_id":"ce4bhnp2rcd13ifvqgvg","pricing_plan_id":"cebpf4jnsgd1na2vs0mg"},{"bike_id":"99684f50-b398-427b-a4e9-7ca0a0382c79","system_id":"levelo_inurba_marseille","lat":43.23192,"lon":5.35546,"is_reserved":false,"is_disabled":false,"rental_uris":{"android":"levelo://app?vid=99684f50-b398-427b-a4e9-7ca0a0382c79","ios":"levelo://app?vid=99684f50-b398-427b-a4e9-7ca0a0382c79"},"vehicle_type_id":"4","last_reported":1726675901,"current_range_meters":38800,"station_id":"ce4bhu92rcd13ifvqi70","pricing_plan_id":"cebpf4jnsgd1na2vs0mg"},{"bike_id":"3221b643-15e8-4ad9-ad2a-a82e4e9277be","system_id":"levelo_inurba_marseille","lat":43.25589,"lon":5.38226,"is_reserved":false,"is_disabled":false,"rental_uris":{"android":"levelo://app?vid=3221b643-15e8-4ad9-ad2a-a82e4e9277be","ios":"levelo://app?vid=3221b643-15e8-4ad9-ad2a-a82e4e9277be"},"vehicle_type_id":"4","last_reported":1726675901,"current_range_meters":4400,"station_id":"ce4bhih2rcd13ifvqfs0","pricing_plan_id":"cebpf4jnsgd1na2vs0mg"},{"bike_id":"2b714e73-49f8-4f26-bb6d-7d72ce23aabc","system_id":"levelo_inurba_marseille","lat":43.23051,"lon":5.35491,"is_reserved":false,"is_disabled":false,"rental_uris":{"android":"levelo://app?vid=2b714e73-49f8-4f26-bb6d-7d72ce23aabc","ios":"levelo://app?vid=2b714e73-49f8-4f26-bb6d-7d72ce23aabc"},"vehicle_type_id":"4","last_reported":1726675901,"current_range_meters":7200,"station_id":"cpo3342slgdg3j2ifvpg","pricing_plan_id":"cebpf4jnsgd1na2vs0mg"},{"bike_id":"2ccebc4a-179e-44ac-b002-abf4ab3e65c3","system_id":"levelo_inurba_marseille","lat":43.28658,"lon":5.36342,"is_reserved":false,"is_disabled":false,"rental_uris":{"android":"levelo://app?vid=2ccebc4a-179e-44ac-b002-abf4ab3e65c3","ios":"levelo://app?vid=2ccebc4a-179e-44ac-b002-abf4ab3e65c3"},"vehicle_type_id":"4","last_reported":1726675901,"current_range_meters":30000,"station_id":"ce4bhah2rcd13ifvqej0","pricing_plan_id":"cebpf4jnsgd1na2vs0mg"},{"bike_id":"b2e6a86e-57f4-43f0-a8e2-88aef095b7ec","system_id":"levelo_inurba_marseille","lat":43.26565,"lon":5.38996,"is_reserved":false,"is_disabled":false,"rental_uris":{"android":"levelo://app?vid=b2e6a86e-57f4-43f0-a8e2-88aef095b7ec","ios":"levelo://app?vid=b2e6a86e-57f4-43f0-a8e2-88aef095b7ec"},"vehicle_type_id":"4","last_reported":1726675901,"current_range_meters":18800,"station_id":"ce4bhe12rcd13ifvqf30","pricing_plan_id":"cebpf4jnsgd1na2vs0mg"},{"bike_id":"a68a57b0-2826-4ceb-af35-24eaf8b0a814","system_id":"levelo_inurba_marseille","lat":43.26575,"lon":5.39007,"is_reserved":false,"is_disabled":false,"rental_uris":{"android":"levelo://app?vid=a68a57b0-2826-4ceb-af35-24eaf8b0a814","ios":"levelo://app?vid=a68a57b0-2826-4ceb-af35-24eaf8b0a814"},"vehicle_type_id":"4","last_reported":1726675901,"current_range_meters":25200,"station_id":"ce4bhe12rcd13ifvqf30","pricing_plan_id":"cebpf4jnsgd1na2vs0mg"},{"bike_id":"aa0f4d8a-2e3c-4efb-8db3-1be84b2b20a8","system_id":"levelo_inurba_marseille","lat":43.28937,"lon":5.38392,"is_reserved":false,"is_disabled":false,"rental_uris":{"android":"levelo://app?vid=aa0f4d8a-2e3c-4efb-8db3-1be84b2b20a8","ios":"levelo://app?vid=aa0f4d8a-2e3c-4efb-8db3-1be84b2b20a8"},"vehicle_type_id":"4","last_reported":1726675901,"current_range_meters":10800,"station_id":"ce4bh612rcd13ifvqe6g","pricing_plan_id":"cebpf4jnsgd1na2vs0mg"},{"bike_id":"7b1fa1e3-2d10-46ed-9d74-95e18bd1f72d","system_id":"levelo_inurba_marseille","lat":43.24546,"lon":5.39519,"is_reserved":false,"is_disabled":false,"rental_uris":{"android":"levelo://app?vid=7b1fa1e3-2d10-46ed-9d74-95e18bd1f72d","ios":"levelo://app?vid=7b1fa1e3-2d10-46ed-9d74-95e18bd1f72d"},"vehicle_type_id":"4","last_reported":1726675901,"current_range_meters":20800,"station_id":"ce4bhlp2rcd13ifvqgjg","pricing_plan_id":"cebpf4jnsgd1na2vs0mg"},{"bike_id":"89cd13c5-f19f-428e-b0d4-c55416cee4e8","system_id":"levelo_inurba_marseille","lat":43.28273,"lon":5.35073,"is_reserved":false,"is_disabled":false,"rental_uris":{"android":"levelo://app?vid=89cd13c5-f19f-428e-b0d4-c55416cee4e8","ios":"levelo://app?vid=89cd13c5-f19f-428e-b0d4-c55416cee4e8"},"vehicle_type_id":"4","last_reported":1726675901,"current_range_meters":17200,"station_id":"ce4bhbp2rcd13ifvqerg","pricing_plan_id":"cebpf4jnsgd1na2vs0mg"},{"bike_id":"3e034926-5539-4480-9686-77673b0cd3d6","system_id":"levelo_inurba_marseille","lat":43.28707,"lon":5.37388,"is_reserved":false,"is_disabled":false,"rental_uris":{"android":"levelo://app?vid=3e034926-5539-4480-9686-77673b0cd3d6","ios":"levelo://app?vid=3e034926-5539-4480-9686-77673b0cd3d6"},"vehicle_type_id":"4","last_reported":1726675901,"current_range_meters":39200,"station_id":"ce4bh3p2rcd13ifvqdq0","pricing_plan_id":"cebpf4jnsgd1na2vs0mg"},{"bike_id":"c7b475da-a875-468f-b533-29b877a3c0f2","system_id":"levelo_inurba_marseille","lat":43.303035,"lon":5.392178,"is_reserved":false,"is_disabled":false,"rental_uris":{"android":"levelo://app?vid=c7b475da-a875-468f-b533-29b877a3c0f2","ios":"levelo://app?vid=c7b475da-a875-468f-b533-29b877a3c0f2"},"vehicle_type_id":"4","last_reported":1726675901,"current_range_meters":6400,"station_id":"ce4bgkh2rcd13ifvqbk0","pricing_plan_id":"cebpf4jnsgd1na2vs0mg"},{"bike_id":"02c639a4-fe62-499a-a69a-f474d98d7667","system_id":"levelo_inurba_marseille","lat":43.28457,"lon":5.35896,"is_reserved":false,"is_disabled":false,"rental_uris":{"android":"levelo://app?vid=02c639a4-fe62-499a-a69a-f474d98d7667","ios":"levelo://app?vid=02c639a4-fe62-499a-a69a-f474d98d7667"},"vehicle_type_id":"4","last_reported":1726675901,"current_range_meters":4800,"station_id":"ce4bhah2rcd13ifvqei0","pricing_plan_id":"cebpf4jnsgd1na2vs0mg"},{"bike_id":"6dd17a2f-59bb-4453-859d-2c09ab795824","system_id":"levelo_inurba_marseille","lat":43.33021,"lon":5.39039,"is_reserved":false,"is_disabled":false,"rental_uris":{"android":"levelo://app?vid=6dd17a2f-59bb-4453-859d-2c09ab795824","ios":"levelo://app?vid=6dd17a2f-59bb-4453-859d-2c09ab795824"},"vehicle_type_id":"4","last_reported":1726675901,"current_range_meters":24400,"station_id":"ce4bhr92rcd13ifvqhrg","pricing_plan_id":"cebpf4jnsgd1na2vs0mg"},{"bike_id":"fc460f01-b83d-4356-aa85-bef65ed83ff4","system_id":"levelo_inurba_marseille","lat":43.2893,"lon":5.38391,"is_reserved":false,"is_disabled":false,"rental_uris":{"android":"levelo://app?vid=fc460f01-b83d-4356-aa85-bef65ed83ff4","ios":"levelo://app?vid=fc460f01-b83d-4356-aa85-bef65ed83ff4"},"vehicle_type_id":"4","last_reported":1726675901,"current_range_meters":24800,"station_id":"ce4bh612rcd13ifvqe6g","pricing_plan_id":"cebpf4jnsgd1na2vs0mg"},{"bike_id":"a134b8f6-0745-464b-91af-a1b4d377229f","system_id":"levelo_inurba_marseille","lat":43.29528,"lon":5.38538,"is_reserved":false,"is_disabled":false,"rental_uris":{"android":"levelo://app?vid=a134b8f6-0745-464b-91af-a1b4d377229f","ios":"levelo://app?vid=a134b8f6-0745-464b-91af-a1b4d377229f"},"vehicle_type_id":"4","last_reported":1726675901,"current_range_meters":15200,"station_id":"ce4bgih2rcd13ifvqba0","pricing_plan_id":"cebpf4jnsgd1na2vs0mg"},{"bike_id":"fc2c37fd-b30e-4e49-9975-3233bf5effda","system_id":"levelo_inurba_marseille","lat":43.32271,"lon":5.38276,"is_reserved":false,"is_disabled":false,"rental_uris":{"android":"levelo://app?vid=fc2c37fd-b30e-4e49-9975-3233bf5effda","ios":"levelo://app?vid=fc2c37fd-b30e-4e49-9975-3233bf5effda"},"vehicle_type_id":"4","last_reported":1726675901,"current_range_meters":30800,"station_id":"ce4bhr12rcd13ifvqhqg","pricing_plan_id":"cebpf4jnsgd1na2vs0mg"},{"bike_id":"0cd2f6ee-b520-4c00-9b65-ed65032462f6","system_id":"levelo_inurba_marseille","lat":43.28151,"lon":5.4264,"is_reserved":false,"is_disabled":false,"rental_uris":{"android":"levelo://app?vid=0cd2f6ee-b520-4c00-9b65-ed65032462f6","ios":"levelo://app?vid=0cd2f6ee-b520-4c00-9b65-ed65032462f6"},"vehicle_type_id":"4","last_reported":1726675901,"current_range_meters":8000,"station_id":"ce4bhnh2rcd13ifvqgug","pricing_plan_id":"cebpf4jnsgd1na2vs0mg"},{"bike_id":"2bbefab9-30ad-4a19-912d-5611a30a1e7c","system_id":"levelo_inurba_marseille","lat":43.30807,"lon":5.38153,"is_reserved":false,"is_disabled":false,"rental_uris":{"android":"levelo://app?vid=2bbefab9-30ad-4a19-912d-5611a30a1e7c","ios":"levelo://app?vid=2bbefab9-30ad-4a19-912d-5611a30a1e7c"},"vehicle_type_id":"4","last_reported":1726675901,"current_range_meters":25600,"station_id":"ce4bgt12rcd13ifvqce0","pricing_plan_id":"cebpf4jnsgd1na2vs0mg"},{"bike_id":"db5bed51-afb9-4548-98e9-7b7ae226c501","system_id":"levelo_inurba_marseille","lat":43.337444,"lon":5.374475,"is_reserved":false,"is_disabled":false,"rental_uris":{"android":"levelo://app?vid=db5bed51-afb9-4548-98e9-7b7ae226c501","ios":"levelo://app?vid=db5bed51-afb9-4548-98e9-7b7ae226c501"},"vehicle_type_id":"4","last_reported":1726675901,"current_range_meters":37600,"station_id":"","pricing_plan_id":"cebpf4jnsgd1na2vs0mg"},{"bike_id":"1df803c1-4b90-4d16-94c6-ea92b2825874","system_id":"levelo_inurba_marseille","lat":43.30944,"lon":5.39031,"is_reserved":false,"is_disabled":false,"rental_uris":{"android":"levelo://app?vid=1df803c1-4b90-4d16-94c6-ea92b2825874","ios":"levelo://app?vid=1df803c1-4b90-4d16-94c6-ea92b2825874"},"vehicle_type_id":"4","last_reported":1726675901,"current_range_meters":32000,"station_id":"ce4bgup2rcd13ifvqco0","pricing_plan_id":"cebpf4jnsgd1na2vs0mg"},{"bike_id":"8e40b356-3a94-4fbb-9e57-54be69e3c817","system_id":"levelo_inurba_marseille","lat":43.25495,"lon":5.37646,"is_reserved":false,"is_disabled":false,"rental_uris":{"android":"levelo://app?vid=8e40b356-3a94-4fbb-9e57-54be69e3c817","ios":"levelo://app?vid=8e40b356-3a94-4fbb-9e57-54be69e3c817"},"vehicle_type_id":"4","last_reported":1726675901,"current_range_meters":38800,"station_id":"ce4bhh12rcd13ifvqff0","pricing_plan_id":"cebpf4jnsgd1na2vs0mg"},{"bike_id":"41f520a1-cbc1-4a5a-ba62-5d2cceced580","system_id":"levelo_inurba_marseille","lat":43.28726,"lon":5.36076,"is_reserved":false,"is_disabled":false,"rental_uris":{"android":"levelo://app?vid=41f520a1-cbc1-4a5a-ba62-5d2cceced580","ios":"levelo://app?vid=41f520a1-cbc1-4a5a-ba62-5d2cceced580"},"vehicle_type_id":"4","last_reported":1726675901,"current_range_meters":26800,"station_id":"cki0cbj6b192h4jlfktg","pricing_plan_id":"cebpf4jnsgd1na2vs0mg"},{"bike_id":"9b7c75ae-fd61-4a01-adb6-a6de6a950813","system_id":"levelo_inurba_marseille","lat":43.27571,"lon":5.38423,"is_reserved":false,"is_disabled":false,"rental_uris":{"android":"levelo://app?vid=9b7c75ae-fd61-4a01-adb6-a6de6a950813","ios":"levelo://app?vid=9b7c75ae-fd61-4a01-adb6-a6de6a950813"},"vehicle_type_id":"4","last_reported":1726675901,"current_range_meters":39200,"station_id":"ce4bhh92rcd13ifvqfi0","pricing_plan_id":"cebpf4jnsgd1na2vs0mg"},{"bike_id":"d06834b6-14ec-477c-92f7-a04b5630a0da","system_id":"levelo_inurba_marseille","lat":43.26553,"lon":5.37286,"is_reserved":false,"is_disabled":false,"rental_uris":{"android":"levelo://app?vid=d06834b6-14ec-477c-92f7-a04b5630a0da","ios":"levelo://app?vid=d06834b6-14ec-477c-92f7-a04b5630a0da"},"vehicle_type_id":"4","last_reported":1726675901,"current_range_meters":9200,"station_id":"ce4bhg12rcd13ifvqf70","pricing_plan_id":"cebpf4jnsgd1na2vs0mg"},{"bike_id":"5c62c15c-9ef1-465f-9dcc-f797bf988619","system_id":"levelo_inurba_marseille","lat":43.289337,"lon":5.366436,"is_reserved":false,"is_disabled":false,"rental_uris":{"android":"levelo://app?vid=5c62c15c-9ef1-465f-9dcc-f797bf988619","ios":"levelo://app?vid=5c62c15c-9ef1-465f-9dcc-f797bf988619"},"vehicle_type_id":"4","last_reported":1726675901,"current_range_meters":8000,"station_id":"ce4bhap2rcd13ifvqek0","pricing_plan_id":"cebpf4jnsgd1na2vs0mg"},{"bike_id":"7ef4e496-808b-4c92-826e-e5574264c40c","system_id":"levelo_inurba_marseille","lat":43.299782,"lon":5.384848,"is_reserved":false,"is_disabled":false,"rental_uris":{"android":"levelo://app?vid=7ef4e496-808b-4c92-826e-e5574264c40c","ios":"levelo://app?vid=7ef4e496-808b-4c92-826e-e5574264c40c"},"vehicle_type_id":"4","last_reported":1726675901,"current_range_meters":36800,"station_id":"ce4bgj92rcd13ifvqbd0","pricing_plan_id":"cebpf4jnsgd1na2vs0mg"},{"bike_id":"b5b2d683-a994-42cd-b990-b20770abba70","system_id":"levelo_inurba_marseille","lat":43.29914,"lon":5.37487,"is_reserved":false,"is_disabled":false,"rental_uris":{"android":"levelo://app?vid=b5b2d683-a994-42cd-b990-b20770abba70","ios":"levelo://app?vid=b5b2d683-a994-42cd-b990-b20770abba70"},"vehicle_type_id":"4","last_reported":1726675901,"current_range_meters":5600,"station_id":"ce4bgjh2rcd13ifvqbg0","pricing_plan_id":"cebpf4jnsgd1na2vs0mg"},{"bike_id":"58014cc6-4f39-4119-a8a0-cdc0e2507820","system_id":"levelo_inurba_marseille","lat":43.32284,"lon":5.38272,"is_reserved":false,"is_disabled":false,"rental_uris":{"android":"levelo://app?vid=58014cc6-4f39-4119-a8a0-cdc0e2507820","ios":"levelo://app?vid=58014cc6-4f39-4119-a8a0-cdc0e2507820"},"vehicle_type_id":"4","last_reported":1726675901,"current_range_meters":39200,"station_id":"ce4bhr12rcd13ifvqhqg","pricing_plan_id":"cebpf4jnsgd1na2vs0mg"},{"bike_id":"1c219e82-f605-4680-83ac-dc548f7f7aed","system_id":"levelo_inurba_marseille","lat":43.31112,"lon":5.37764,"is_reserved":false,"is_disabled":false,"rental_uris":{"android":"levelo://app?vid=1c219e82-f605-4680-83ac-dc548f7f7aed","ios":"levelo://app?vid=1c219e82-f605-4680-83ac-dc548f7f7aed"},"vehicle_type_id":"4","last_reported":1726675901,"current_range_meters":38800,"station_id":"ce4bgt92rcd13ifvqcg0","pricing_plan_id":"cebpf4jnsgd1na2vs0mg"},{"bike_id":"e7a810e1-1fb0-400f-a4a6-5dcf733fef19","system_id":"levelo_inurba_marseille","lat":43.28931,"lon":5.38389,"is_reserved":false,"is_disabled":false,"rental_uris":{"android":"levelo://app?vid=e7a810e1-1fb0-400f-a4a6-5dcf733fef19","ios":"levelo://app?vid=e7a810e1-1fb0-400f-a4a6-5dcf733fef19"},"vehicle_type_id":"4","last_reported":1726675901,"current_range_meters":6000,"station_id":"ce4bh612rcd13ifvqe6g","pricing_plan_id":"cebpf4jnsgd1na2vs0mg"},{"bike_id":"67101e27-2fdd-4e84-bdf7-495c619879ab","system_id":"levelo_inurba_marseille","lat":43.31993,"lon":5.38149,"is_reserved":false,"is_disabled":false,"rental_uris":{"android":"levelo://app?vid=67101e27-2fdd-4e84-bdf7-495c619879ab","ios":"levelo://app?vid=67101e27-2fdd-4e84-bdf7-495c619879ab"},"vehicle_type_id":"4","last_reported":1726675901,"current_range_meters":14000,"station_id":"ce4bhr12rcd13ifvqhpg","pricing_plan_id":"cebpf4jnsgd1na2vs0mg"},{"bike_id":"a85cec6f-dc66-4d7e-a15f-f4f23c7ef6b3","system_id":"levelo_inurba_marseille","lat":43.30887,"lon":5.39607,"is_reserved":false,"is_disabled":false,"rental_uris":{"android":"levelo://app?vid=a85cec6f-dc66-4d7e-a15f-f4f23c7ef6b3","ios":"levelo://app?vid=a85cec6f-dc66-4d7e-a15f-f4f23c7ef6b3"},"vehicle_type_id":"4","last_reported":1726675901,"current_range_meters":9600,"station_id":"ce4bh012rcd13ifvqcv0","pricing_plan_id":"cebpf4jnsgd1na2vs0mg"},{"bike_id":"9de036c4-decb-465b-a775-32e663a8924f","system_id":"levelo_inurba_marseille","lat":43.33025,"lon":5.39034,"is_reserved":false,"is_disabled":false,"rental_uris":{"android":"levelo://app?vid=9de036c4-decb-465b-a775-32e663a8924f","ios":"levelo://app?vid=9de036c4-decb-465b-a775-32e663a8924f"},"vehicle_type_id":"4","last_reported":1726675901,"current_range_meters":33600,"station_id":"ce4bhr92rcd13ifvqhrg","pricing_plan_id":"cebpf4jnsgd1na2vs0mg"},{"bike_id":"10867295-ac0b-4fe8-8295-869ab5f0a5c9","system_id":"levelo_inurba_marseille","lat":43.28154,"lon":5.42637,"is_reserved":false,"is_disabled":false,"rental_uris":{"android":"levelo://app?vid=10867295-ac0b-4fe8-8295-869ab5f0a5c9","ios":"levelo://app?vid=10867295-ac0b-4fe8-8295-869ab5f0a5c9"},"vehicle_type_id":"4","last_reported":1726675901,"current_range_meters":12400,"station_id":"ce4bhnh2rcd13ifvqgug","pricing_plan_id":"cebpf4jnsgd1na2vs0mg"},{"bike_id":"4dbae61b-f414-4aa5-b14e-c4434ce4ffed","system_id":"levelo_inurba_marseille","lat":43.28614,"lon":5.35098,"is_reserved":false,"is_disabled":false,"rental_uris":{"android":"levelo://app?vid=4dbae61b-f414-4aa5-b14e-c4434ce4ffed","ios":"levelo://app?vid=4dbae61b-f414-4aa5-b14e-c4434ce4ffed"},"vehicle_type_id":"4","last_reported":1726675901,"current_range_meters":9600,"station_id":"ce4bhch2rcd13ifvqeug","pricing_plan_id":"cebpf4jnsgd1na2vs0mg"},{"bike_id":"cee6c8df-c86c-4c67-bff0-7e076fbdf3dd","system_id":"levelo_inurba_marseille","lat":43.30428,"lon":5.38888,"is_reserved":false,"is_disabled":false,"rental_uris":{"android":"levelo://app?vid=cee6c8df-c86c-4c67-bff0-7e076fbdf3dd","ios":"levelo://app?vid=cee6c8df-c86c-4c67-bff0-7e076fbdf3dd"},"vehicle_type_id":"4","last_reported":1726675901,"current_range_meters":30400,"station_id":"ce4bgk12rcd13ifvqbi0","pricing_plan_id":"cebpf4jnsgd1na2vs0mg"},{"bike_id":"cbaf03bf-0340-4293-a424-18d0ef0b595f","system_id":"levelo_inurba_marseille","lat":43.29899,"lon":5.43666,"is_reserved":false,"is_disabled":false,"rental_uris":{"android":"levelo://app?vid=cbaf03bf-0340-4293-a424-18d0ef0b595f","ios":"levelo://app?vid=cbaf03bf-0340-4293-a424-18d0ef0b595f"},"vehicle_type_id":"4","last_reported":1726675901,"current_range_meters":15200,"station_id":"ce4bhpp2rcd13ifvqhfg","pricing_plan_id":"cebpf4jnsgd1na2vs0mg"},{"bike_id":"d0fc61d1-7fab-4a57-ba4e-64fa512d0e95","system_id":"levelo_inurba_marseille","lat":43.26488,"lon":5.3954,"is_reserved":false,"is_disabled":false,"rental_uris":{"android":"levelo://app?vid=d0fc61d1-7fab-4a57-ba4e-64fa512d0e95","ios":"levelo://app?vid=d0fc61d1-7fab-4a57-ba4e-64fa512d0e95"},"vehicle_type_id":"4","last_reported":1726675901,"current_range_meters":25600,"station_id":"ce4bhi12rcd13ifvqfq0","pricing_plan_id":"cebpf4jnsgd1na2vs0mg"},{"bike_id":"6e00666a-f02f-4580-a990-0531883c2cb7","system_id":"levelo_inurba_marseille","lat":43.29895,"lon":5.43663,"is_reserved":false,"is_disabled":false,"rental_uris":{"android":"levelo://app?vid=6e00666a-f02f-4580-a990-0531883c2cb7","ios":"levelo://app?vid=6e00666a-f02f-4580-a990-0531883c2cb7"},"vehicle_type_id":"4","last_reported":1726675901,"current_range_meters":6000,"station_id":"ce4bhpp2rcd13ifvqhfg","pricing_plan_id":"cebpf4jnsgd1na2vs0mg"},{"bike_id":"7d54046c-3cf1-4344-8137-17101feedbd5","system_id":"levelo_inurba_marseille","lat":43.32288,"lon":5.38274,"is_reserved":false,"is_disabled":false,"rental_uris":{"android":"levelo://app?vid=7d54046c-3cf1-4344-8137-17101feedbd5","ios":"levelo://app?vid=7d54046c-3cf1-4344-8137-17101feedbd5"},"vehicle_type_id":"4","last_reported":1726675901,"current_range_meters":5600,"station_id":"ce4bhr12rcd13ifvqhqg","pricing_plan_id":"cebpf4jnsgd1na2vs0mg"},{"bike_id":"fa2e946d-01fe-4bb4-a2b0-55af60a0bcec","system_id":"levelo_inurba_marseille","lat":43.33727,"lon":5.39178,"is_reserved":false,"is_disabled":false,"rental_uris":{"android":"levelo://app?vid=fa2e946d-01fe-4bb4-a2b0-55af60a0bcec","ios":"levelo://app?vid=fa2e946d-01fe-4bb4-a2b0-55af60a0bcec"},"vehicle_type_id":"4","last_reported":1726675901,"current_range_meters":38800,"station_id":"ce4bhr92rcd13ifvqhsg","pricing_plan_id":"cebpf4jnsgd1na2vs0mg"},{"bike_id":"d9bd2bea-05ce-4c3c-9da2-5d57f3aa7abb","system_id":"levelo_inurba_marseille","lat":43.29272,"lon":5.38427,"is_reserved":false,"is_disabled":false,"rental_uris":{"android":"levelo://app?vid=d9bd2bea-05ce-4c3c-9da2-5d57f3aa7abb","ios":"levelo://app?vid=d9bd2bea-05ce-4c3c-9da2-5d57f3aa7abb"},"vehicle_type_id":"4","last_reported":1726675901,"current_range_meters":12800,"station_id":"ce4bh692rcd13ifvqea0","pricing_plan_id":"cebpf4jnsgd1na2vs0mg"},{"bike_id":"6f7db8fe-a7a6-476b-bc80-ea47954ba1af","system_id":"levelo_inurba_marseille","lat":43.29909,"lon":5.38131,"is_reserved":false,"is_disabled":false,"rental_uris":{"android":"levelo://app?vid=6f7db8fe-a7a6-476b-bc80-ea47954ba1af","ios":"levelo://app?vid=6f7db8fe-a7a6-476b-bc80-ea47954ba1af"},"vehicle_type_id":"4","last_reported":1726675901,"current_range_meters":26000,"station_id":"ce4bgj12rcd13ifvqbc0","pricing_plan_id":"cebpf4jnsgd1na2vs0mg"},{"bike_id":"9bab72b9-9e35-43e6-b604-8461741c17c4","system_id":"levelo_inurba_marseille","lat":43.28612,"lon":5.35101,"is_reserved":false,"is_disabled":false,"rental_uris":{"android":"levelo://app?vid=9bab72b9-9e35-43e6-b604-8461741c17c4","ios":"levelo://app?vid=9bab72b9-9e35-43e6-b604-8461741c17c4"},"vehicle_type_id":"4","last_reported":1726675901,"current_range_meters":37600,"station_id":"ce4bhch2rcd13ifvqeug","pricing_plan_id":"cebpf4jnsgd1na2vs0mg"},{"bike_id":"328d45f9-980e-4811-97c0-47d761861509","system_id":"levelo_inurba_marseille","lat":43.29847,"lon":5.37836,"is_reserved":false,"is_disabled":false,"rental_uris":{"android":"levelo://app?vid=328d45f9-980e-4811-97c0-47d761861509","ios":"levelo://app?vid=328d45f9-980e-4811-97c0-47d761861509"},"vehicle_type_id":"4","last_reported":1726675901,"current_range_meters":10000,"station_id":"ce4bgkh2rcd13ifvqbl0","pricing_plan_id":"cebpf4jnsgd1na2vs0mg"},{"bike_id":"94e1f554-a851-42f4-9051-6a304f4d513d","system_id":"levelo_inurba_marseille","lat":43.29605,"lon":5.37732,"is_reserved":false,"is_disabled":false,"rental_uris":{"android":"levelo://app?vid=94e1f554-a851-42f4-9051-6a304f4d513d","ios":"levelo://app?vid=94e1f554-a851-42f4-9051-6a304f4d513d"},"vehicle_type_id":"4","last_reported":1726675901,"current_range_meters":23200,"station_id":"ce4bgi92rcd13ifvqb90","pricing_plan_id":"cebpf4jnsgd1na2vs0mg"},{"bike_id":"fa690805-233a-4a70-a9f3-33f1b67cdb1f","system_id":"levelo_inurba_marseille","lat":43.32287,"lon":5.38263,"is_reserved":false,"is_disabled":false,"rental_uris":{"android":"levelo://app?vid=fa690805-233a-4a70-a9f3-33f1b67cdb1f","ios":"levelo://app?vid=fa690805-233a-4a70-a9f3-33f1b67cdb1f"},"vehicle_type_id":"4","last_reported":1726675901,"current_range_meters":27600,"station_id":"ce4bhr12rcd13ifvqhqg","pricing_plan_id":"cebpf4jnsgd1na2vs0mg"},{"bike_id":"28d5bbb7-3139-4f1e-81e6-2336472deedc","system_id":"levelo_inurba_marseille","lat":43.26495,"lon":5.39533,"is_reserved":false,"is_disabled":false,"rental_uris":{"android":"levelo://app?vid=28d5bbb7-3139-4f1e-81e6-2336472deedc","ios":"levelo://app?vid=28d5bbb7-3139-4f1e-81e6-2336472deedc"},"vehicle_type_id":"4","last_reported":1726675901,"current_range_meters":20000,"station_id":"ce4bhi12rcd13ifvqfq0","pricing_plan_id":"cebpf4jnsgd1na2vs0mg"},{"bike_id":"8b608b96-fedf-4511-8d4b-09bad2606e1a","system_id":"levelo_inurba_marseille","lat":43.2772,"lon":5.41126,"is_reserved":false,"is_disabled":false,"rental_uris":{"android":"levelo://app?vid=8b608b96-fedf-4511-8d4b-09bad2606e1a","ios":"levelo://app?vid=8b608b96-fedf-4511-8d4b-09bad2606e1a"},"vehicle_type_id":"4","last_reported":1726675901,"current_range_meters":4000,"station_id":"","pricing_plan_id":"cebpf4jnsgd1na2vs0mg"},{"bike_id":"088c6073-b655-4c09-8db1-ea96c20f65e6","system_id":"levelo_inurba_marseille","lat":43.29879,"lon":5.38903,"is_reserved":false,"is_disabled":false,"rental_uris":{"android":"levelo://app?vid=088c6073-b655-4c09-8db1-ea96c20f65e6","ios":"levelo://app?vid=088c6073-b655-4c09-8db1-ea96c20f65e6"},"vehicle_type_id":"4","last_reported":1726675901,"current_range_meters":25200,"station_id":"ce4bh392rcd13ifvqdl0","pricing_plan_id":"cebpf4jnsgd1na2vs0mg"},{"bike_id":"cd551fb8-d52f-43c6-8540-2450eef1836d","system_id":"levelo_inurba_marseille","lat":43.28707,"lon":5.39986,"is_reserved":false,"is_disabled":false,"rental_uris":{"android":"levelo://app?vid=cd551fb8-d52f-43c6-8540-2450eef1836d","ios":"levelo://app?vid=cd551fb8-d52f-43c6-8540-2450eef1836d"},"vehicle_type_id":"4","last_reported":1726675901,"current_range_meters":20400,"station_id":"ce4bho92rcd13ifvqh3g","pricing_plan_id":"cebpf4jnsgd1na2vs0mg"},{"bike_id":"6edb816a-92a5-4f41-8e56-b17aa4886ebb","system_id":"levelo_inurba_marseille","lat":43.31277,"lon":5.40177,"is_reserved":false,"is_disabled":false,"rental_uris":{"android":"levelo://app?vid=6edb816a-92a5-4f41-8e56-b17aa4886ebb","ios":"levelo://app?vid=6edb816a-92a5-4f41-8e56-b17aa4886ebb"},"vehicle_type_id":"4","last_reported":1726675901,"current_range_meters":19200,"station_id":"ce4bh092rcd13ifvqd30","pricing_plan_id":"cebpf4jnsgd1na2vs0mg"},{"bike_id":"d9ededd7-874f-40c1-a1c7-58f91639f7bc","system_id":"levelo_inurba_marseille","lat":43.292572,"lon":5.38448,"is_reserved":false,"is_disabled":false,"rental_uris":{"android":"levelo://app?vid=d9ededd7-874f-40c1-a1c7-58f91639f7bc","ios":"levelo://app?vid=d9ededd7-874f-40c1-a1c7-58f91639f7bc"},"vehicle_type_id":"4","last_reported":1726675901,"current_range_meters":6800,"station_id":"ce4bh692rcd13ifvqea0","pricing_plan_id":"cebpf4jnsgd1na2vs0mg"},{"bike_id":"b967daab-7616-4728-8340-9fd969963eb4","system_id":"levelo_inurba_marseille","lat":43.28427,"lon":5.34981,"is_reserved":false,"is_disabled":false,"rental_uris":{"android":"levelo://app?vid=b967daab-7616-4728-8340-9fd969963eb4","ios":"levelo://app?vid=b967daab-7616-4728-8340-9fd969963eb4"},"vehicle_type_id":"4","last_reported":1726675901,"current_range_meters":33600,"station_id":"ce4bhbh2rcd13ifvqepg","pricing_plan_id":"cebpf4jnsgd1na2vs0mg"},{"bike_id":"64eddaba-05c9-4e8f-a098-9eceebba9223","system_id":"levelo_inurba_marseille","lat":43.28539,"lon":5.37476,"is_reserved":false,"is_disabled":false,"rental_uris":{"android":"levelo://app?vid=64eddaba-05c9-4e8f-a098-9eceebba9223","ios":"levelo://app?vid=64eddaba-05c9-4e8f-a098-9eceebba9223"},"vehicle_type_id":"4","last_reported":1726675901,"current_range_meters":29600,"station_id":"","pricing_plan_id":"cebpf4jnsgd1na2vs0mg"},{"bike_id":"7723f8b5-28ba-4c14-a8c6-7ab2a47f9035","system_id":"levelo_inurba_marseille","lat":43.27573,"lon":5.38426,"is_reserved":false,"is_disabled":false,"rental_uris":{"android":"levelo://app?vid=7723f8b5-28ba-4c14-a8c6-7ab2a47f9035","ios":"levelo://app?vid=7723f8b5-28ba-4c14-a8c6-7ab2a47f9035"},"vehicle_type_id":"4","last_reported":1726675901,"current_range_meters":38800,"station_id":"ce4bhh92rcd13ifvqfi0","pricing_plan_id":"cebpf4jnsgd1na2vs0mg"},{"bike_id":"ae1b8181-6110-41fe-8058-3339ea1e1296","system_id":"levelo_inurba_marseille","lat":43.29706,"lon":5.36614,"is_reserved":false,"is_disabled":false,"rental_uris":{"android":"levelo://app?vid=ae1b8181-6110-41fe-8058-3339ea1e1296","ios":"levelo://app?vid=ae1b8181-6110-41fe-8058-3339ea1e1296"},"vehicle_type_id":"4","last_reported":1726675901,"current_range_meters":22400,"station_id":"ce4bgn12rcd13ifvqbt0","pricing_plan_id":"cebpf4jnsgd1na2vs0mg"},{"bike_id":"2446c597-b0ce-461d-8ade-4a07e27f0c83","system_id":"levelo_inurba_marseille","lat":43.32482,"lon":5.36563,"is_reserved":false,"is_disabled":false,"rental_uris":{"android":"levelo://app?vid=2446c597-b0ce-461d-8ade-4a07e27f0c83","ios":"levelo://app?vid=2446c597-b0ce-461d-8ade-4a07e27f0c83"},"vehicle_type_id":"4","last_reported":1726675901,"current_range_meters":39200,"station_id":"ce4bhs12rcd13ifvqhvg","pricing_plan_id":"cebpf4jnsgd1na2vs0mg"},{"bike_id":"e91bed92-e3cd-48e5-99e5-9ad706a45252","system_id":"levelo_inurba_marseille","lat":43.30926,"lon":5.40146,"is_reserved":false,"is_disabled":false,"rental_uris":{"android":"levelo://app?vid=e91bed92-e3cd-48e5-99e5-9ad706a45252","ios":"levelo://app?vid=e91bed92-e3cd-48e5-99e5-9ad706a45252"},"vehicle_type_id":"4","last_reported":1726675901,"current_range_meters":6800,"station_id":"ce4bgvp2rcd13ifvqct0","pricing_plan_id":"cebpf4jnsgd1na2vs0mg"},{"bike_id":"f2741cbb-baf6-48ac-9ab9-e4a2519206f1","system_id":"levelo_inurba_marseille","lat":43.2873,"lon":5.36078,"is_reserved":false,"is_disabled":false,"rental_uris":{"android":"levelo://app?vid=f2741cbb-baf6-48ac-9ab9-e4a2519206f1","ios":"levelo://app?vid=f2741cbb-baf6-48ac-9ab9-e4a2519206f1"},"vehicle_type_id":"4","last_reported":1726675901,"current_range_meters":9200,"station_id":"cki0cbj6b192h4jlfktg","pricing_plan_id":"cebpf4jnsgd1na2vs0mg"},{"bike_id":"b7130cd3-7dfe-4c6e-bce1-a547d654000b","system_id":"levelo_inurba_marseille","lat":43.33027,"lon":5.3904,"is_reserved":false,"is_disabled":false,"rental_uris":{"android":"levelo://app?vid=b7130cd3-7dfe-4c6e-bce1-a547d654000b","ios":"levelo://app?vid=b7130cd3-7dfe-4c6e-bce1-a547d654000b"},"vehicle_type_id":"4","last_reported":1726675901,"current_range_meters":21600,"station_id":"ce4bhr92rcd13ifvqhrg","pricing_plan_id":"cebpf4jnsgd1na2vs0mg"},{"bike_id":"897b04d3-b639-47d0-b7b0-f6fd26139ec9","system_id":"levelo_inurba_marseille","lat":43.2695,"lon":5.40242,"is_reserved":false,"is_disabled":false,"rental_uris":{"android":"levelo://app?vid=897b04d3-b639-47d0-b7b0-f6fd26139ec9","ios":"levelo://app?vid=897b04d3-b639-47d0-b7b0-f6fd26139ec9"},"vehicle_type_id":"4","last_reported":1726675901,"current_range_meters":14800,"station_id":"cjm6bp8fraef2m0cb0m0","pricing_plan_id":"cebpf4jnsgd1na2vs0mg"},{"bike_id":"c2c9a555-6ec8-4b92-b33e-073571605c93","system_id":"levelo_inurba_marseille","lat":43.23194,"lon":5.35552,"is_reserved":false,"is_disabled":false,"rental_uris":{"android":"levelo://app?vid=c2c9a555-6ec8-4b92-b33e-073571605c93","ios":"levelo://app?vid=c2c9a555-6ec8-4b92-b33e-073571605c93"},"vehicle_type_id":"4","last_reported":1726675901,"current_range_meters":36800,"station_id":"ce4bhu92rcd13ifvqi70","pricing_plan_id":"cebpf4jnsgd1na2vs0mg"},{"bike_id":"5d3a0d6a-2e1a-43b2-8a24-7a66ed7b9baf","system_id":"levelo_inurba_marseille","lat":43.27366,"lon":5.36255,"is_reserved":false,"is_disabled":false,"rental_uris":{"android":"levelo://app?vid=5d3a0d6a-2e1a-43b2-8a24-7a66ed7b9baf","ios":"levelo://app?vid=5d3a0d6a-2e1a-43b2-8a24-7a66ed7b9baf"},"vehicle_type_id":"4","last_reported":1726675901,"current_range_meters":38800,"station_id":"ce4bhbh2rcd13ifvqeo0","pricing_plan_id":"cebpf4jnsgd1na2vs0mg"},{"bike_id":"27109f1d-8ca1-4ba1-8193-7ca41a45028e","system_id":"levelo_inurba_marseille","lat":43.26682,"lon":5.38273,"is_reserved":false,"is_disabled":false,"rental_uris":{"android":"levelo://app?vid=27109f1d-8ca1-4ba1-8193-7ca41a45028e","ios":"levelo://app?vid=27109f1d-8ca1-4ba1-8193-7ca41a45028e"},"vehicle_type_id":"4","last_reported":1726675901,"current_range_meters":28800,"station_id":"ce4bhg92rcd13ifvqf90","pricing_plan_id":"cebpf4jnsgd1na2vs0mg"},{"bike_id":"e5ce120e-f189-4882-876a-d185220bcf95","system_id":"levelo_inurba_marseille","lat":43.3302,"lon":5.39049,"is_reserved":false,"is_disabled":false,"rental_uris":{"android":"levelo://app?vid=e5ce120e-f189-4882-876a-d185220bcf95","ios":"levelo://app?vid=e5ce120e-f189-4882-876a-d185220bcf95"},"vehicle_type_id":"4","last_reported":1726675901,"current_range_meters":9600,"station_id":"ce4bhr92rcd13ifvqhrg","pricing_plan_id":"cebpf4jnsgd1na2vs0mg"},{"bike_id":"0a3283f9-1885-4d53-8177-f8e3517fc853","system_id":"levelo_inurba_marseille","lat":43.28912,"lon":5.3781,"is_reserved":false,"is_disabled":false,"rental_uris":{"android":"levelo://app?vid=0a3283f9-1885-4d53-8177-f8e3517fc853","ios":"levelo://app?vid=0a3283f9-1885-4d53-8177-f8e3517fc853"},"vehicle_type_id":"4","last_reported":1726675901,"current_range_meters":28400,"station_id":"","pricing_plan_id":"cebpf4jnsgd1na2vs0mg"},{"bike_id":"6f387a41-1a28-4619-ac86-26875678b81b","system_id":"levelo_inurba_marseille","lat":43.29899,"lon":5.43668,"is_reserved":false,"is_disabled":false,"rental_uris":{"android":"levelo://app?vid=6f387a41-1a28-4619-ac86-26875678b81b","ios":"levelo://app?vid=6f387a41-1a28-4619-ac86-26875678b81b"},"vehicle_type_id":"4","last_reported":1726675901,"current_range_meters":14400,"station_id":"ce4bhpp2rcd13ifvqhfg","pricing_plan_id":"cebpf4jnsgd1na2vs0mg"},{"bike_id":"426811f5-0b22-40dd-8ab4-a5bcbf4f25dd","system_id":"levelo_inurba_marseille","lat":43.33023,"lon":5.39039,"is_reserved":false,"is_disabled":false,"rental_uris":{"android":"levelo://app?vid=426811f5-0b22-40dd-8ab4-a5bcbf4f25dd","ios":"levelo://app?vid=426811f5-0b22-40dd-8ab4-a5bcbf4f25dd"},"vehicle_type_id":"4","last_reported":1726675901,"current_range_meters":38800,"station_id":"ce4bhr92rcd13ifvqhrg","pricing_plan_id":"cebpf4jnsgd1na2vs0mg"},{"bike_id":"66075e51-c532-41b2-837a-c8514ef0a0cb","system_id":"levelo_inurba_marseille","lat":43.25729,"lon":5.41109,"is_reserved":false,"is_disabled":false,"rental_uris":{"android":"levelo://app?vid=66075e51-c532-41b2-837a-c8514ef0a0cb","ios":"levelo://app?vid=66075e51-c532-41b2-837a-c8514ef0a0cb"},"vehicle_type_id":"4","last_reported":1726675901,"current_range_meters":6800,"station_id":"ce4bhkp2rcd13ifvqgd0","pricing_plan_id":"cebpf4jnsgd1na2vs0mg"},{"bike_id":"f72d1cce-c853-46e0-86a9-bc4592dc2fca","system_id":"levelo_inurba_marseille","lat":43.31123,"lon":5.37759,"is_reserved":false,"is_disabled":false,"rental_uris":{"android":"levelo://app?vid=f72d1cce-c853-46e0-86a9-bc4592dc2fca","ios":"levelo://app?vid=f72d1cce-c853-46e0-86a9-bc4592dc2fca"},"vehicle_type_id":"4","last_reported":1726675901,"current_range_meters":38800,"station_id":"ce4bgt92rcd13ifvqcg0","pricing_plan_id":"cebpf4jnsgd1na2vs0mg"},{"bike_id":"5ab24690-db5b-4fc8-95d0-bbca224817ea","system_id":"levelo_inurba_marseille","lat":43.32362,"lon":5.38884,"is_reserved":false,"is_disabled":false,"rental_uris":{"android":"levelo://app?vid=5ab24690-db5b-4fc8-95d0-bbca224817ea","ios":"levelo://app?vid=5ab24690-db5b-4fc8-95d0-bbca224817ea"},"vehicle_type_id":"4","last_reported":1726675901,"current_range_meters":18800,"station_id":"ce4bhqp2rcd13ifvqhog","pricing_plan_id":"cebpf4jnsgd1na2vs0mg"},{"bike_id":"88068615-8377-4919-a422-c6e9bcaa3ab4","system_id":"levelo_inurba_marseille","lat":43.32289,"lon":5.38265,"is_reserved":false,"is_disabled":false,"rental_uris":{"android":"levelo://app?vid=88068615-8377-4919-a422-c6e9bcaa3ab4","ios":"levelo://app?vid=88068615-8377-4919-a422-c6e9bcaa3ab4"},"vehicle_type_id":"4","last_reported":1726675901,"current_range_meters":39200,"station_id":"ce4bhr12rcd13ifvqhqg","pricing_plan_id":"cebpf4jnsgd1na2vs0mg"},{"bike_id":"0652cd64-4253-405f-bfc9-12c443ec5a06","system_id":"levelo_inurba_marseille","lat":43.286678,"lon":5.363377,"is_reserved":false,"is_disabled":false,"rental_uris":{"android":"levelo://app?vid=0652cd64-4253-405f-bfc9-12c443ec5a06","ios":"levelo://app?vid=0652cd64-4253-405f-bfc9-12c443ec5a06"},"vehicle_type_id":"4","last_reported":1726675901,"current_range_meters":38400,"station_id":"ce4bhah2rcd13ifvqej0","pricing_plan_id":"cebpf4jnsgd1na2vs0mg"},{"bike_id":"7c63adda-4228-4ba2-907a-ce1df8b3266e","system_id":"levelo_inurba_marseille","lat":43.337444,"lon":5.374475,"is_reserved":false,"is_disabled":false,"rental_uris":{"android":"levelo://app?vid=7c63adda-4228-4ba2-907a-ce1df8b3266e","ios":"levelo://app?vid=7c63adda-4228-4ba2-907a-ce1df8b3266e"},"vehicle_type_id":"4","last_reported":1726675901,"current_range_meters":32000,"station_id":"","pricing_plan_id":"cebpf4jnsgd1na2vs0mg"},{"bike_id":"658d3857-5392-40db-8c2f-b15258b78e2b","system_id":"levelo_inurba_marseille","lat":43.28154,"lon":5.42648,"is_reserved":false,"is_disabled":false,"rental_uris":{"android":"levelo://app?vid=658d3857-5392-40db-8c2f-b15258b78e2b","ios":"levelo://app?vid=658d3857-5392-40db-8c2f-b15258b78e2b"},"vehicle_type_id":"4","last_reported":1726675901,"current_range_meters":27200,"station_id":"ce4bhnh2rcd13ifvqgug","pricing_plan_id":"cebpf4jnsgd1na2vs0mg"},{"bike_id":"63d0120a-e544-4a2e-90d5-a311bb8b3b37","system_id":"levelo_inurba_marseille","lat":43.31995,"lon":5.38149,"is_reserved":false,"is_disabled":false,"rental_uris":{"android":"levelo://app?vid=63d0120a-e544-4a2e-90d5-a311bb8b3b37","ios":"levelo://app?vid=63d0120a-e544-4a2e-90d5-a311bb8b3b37"},"vehicle_type_id":"4","last_reported":1726675901,"current_range_meters":9600,"station_id":"ce4bhr12rcd13ifvqhpg","pricing_plan_id":"cebpf4jnsgd1na2vs0mg"},{"bike_id":"406e2465-ea7b-45d8-9062-022ac91b38bb","system_id":"levelo_inurba_marseille","lat":43.29522,"lon":5.39034,"is_reserved":false,"is_disabled":false,"rental_uris":{"android":"levelo://app?vid=406e2465-ea7b-45d8-9062-022ac91b38bb","ios":"levelo://app?vid=406e2465-ea7b-45d8-9062-022ac91b38bb"},"vehicle_type_id":"4","last_reported":1726675901,"current_range_meters":30000,"station_id":"ce4bh3p2rcd13ifvqdp0","pricing_plan_id":"cebpf4jnsgd1na2vs0mg"},{"bike_id":"cb612164-ef29-4863-8347-b66b3d45f902","system_id":"levelo_inurba_marseille","lat":43.3199,"lon":5.38137,"is_reserved":false,"is_disabled":false,"rental_uris":{"android":"levelo://app?vid=cb612164-ef29-4863-8347-b66b3d45f902","ios":"levelo://app?vid=cb612164-ef29-4863-8347-b66b3d45f902"},"vehicle_type_id":"4","last_reported":1726675901,"current_range_meters":17600,"station_id":"ce4bhr12rcd13ifvqhpg","pricing_plan_id":"cebpf4jnsgd1na2vs0mg"},{"bike_id":"076efa1f-ce25-4781-99df-3bdd12cc166d","system_id":"levelo_inurba_marseille","lat":43.2926,"lon":5.38444,"is_reserved":false,"is_disabled":false,"rental_uris":{"android":"levelo://app?vid=076efa1f-ce25-4781-99df-3bdd12cc166d","ios":"levelo://app?vid=076efa1f-ce25-4781-99df-3bdd12cc166d"},"vehicle_type_id":"4","last_reported":1726675901,"current_range_meters":8000,"station_id":"ce4bh692rcd13ifvqea0","pricing_plan_id":"cebpf4jnsgd1na2vs0mg"},{"bike_id":"68abef3d-49dd-43b2-b584-df05e0835af6","system_id":"levelo_inurba_marseille","lat":43.2933,"lon":5.4116,"is_reserved":false,"is_disabled":false,"rental_uris":{"android":"levelo://app?vid=68abef3d-49dd-43b2-b584-df05e0835af6","ios":"levelo://app?vid=68abef3d-49dd-43b2-b584-df05e0835af6"},"vehicle_type_id":"4","last_reported":1726675901,"current_range_meters":16800,"station_id":"ce4bh192rcd13ifvqdc0","pricing_plan_id":"cebpf4jnsgd1na2vs0mg"},{"bike_id":"54c4b673-8997-4cdf-8ae0-04093bcc7431","system_id":"levelo_inurba_marseille","lat":43.29269,"lon":5.3845,"is_reserved":false,"is_disabled":false,"rental_uris":{"android":"levelo://app?vid=54c4b673-8997-4cdf-8ae0-04093bcc7431","ios":"levelo://app?vid=54c4b673-8997-4cdf-8ae0-04093bcc7431"},"vehicle_type_id":"4","last_reported":1726675901,"current_range_meters":24400,"station_id":"ce4bh692rcd13ifvqea0","pricing_plan_id":"cebpf4jnsgd1na2vs0mg"},{"bike_id":"b9c7ddc1-b448-4c85-bc7c-2659b305a3e5","system_id":"levelo_inurba_marseille","lat":43.31276,"lon":5.40167,"is_reserved":false,"is_disabled":false,"rental_uris":{"android":"levelo://app?vid=b9c7ddc1-b448-4c85-bc7c-2659b305a3e5","ios":"levelo://app?vid=b9c7ddc1-b448-4c85-bc7c-2659b305a3e5"},"vehicle_type_id":"4","last_reported":1726675901,"current_range_meters":38400,"station_id":"ce4bh092rcd13ifvqd30","pricing_plan_id":"cebpf4jnsgd1na2vs0mg"},{"bike_id":"76af19c5-d978-43b1-bcaa-23c21ed37469","system_id":"levelo_inurba_marseille","lat":43.290205,"lon":5.386512,"is_reserved":false,"is_disabled":false,"rental_uris":{"android":"levelo://app?vid=76af19c5-d978-43b1-bcaa-23c21ed37469","ios":"levelo://app?vid=76af19c5-d978-43b1-bcaa-23c21ed37469"},"vehicle_type_id":"4","last_reported":1726675901,"current_range_meters":25200,"station_id":"ce4bh4p2rcd13ifvqe0g","pricing_plan_id":"cebpf4jnsgd1na2vs0mg"},{"bike_id":"6e5c5df7-aa4b-4c6c-bed8-64e1807c6e69","system_id":"levelo_inurba_marseille","lat":43.292,"lon":5.39327,"is_reserved":false,"is_disabled":false,"rental_uris":{"android":"levelo://app?vid=6e5c5df7-aa4b-4c6c-bed8-64e1807c6e69","ios":"levelo://app?vid=6e5c5df7-aa4b-4c6c-bed8-64e1807c6e69"},"vehicle_type_id":"4","last_reported":1726675901,"current_range_meters":32400,"station_id":"ce4bh192rcd13ifvqdd0","pricing_plan_id":"cebpf4jnsgd1na2vs0mg"},{"bike_id":"3b07cc32-2f58-4a9a-9849-eec19dc82afd","system_id":"levelo_inurba_marseille","lat":43.28453,"lon":5.3589,"is_reserved":false,"is_disabled":false,"rental_uris":{"android":"levelo://app?vid=3b07cc32-2f58-4a9a-9849-eec19dc82afd","ios":"levelo://app?vid=3b07cc32-2f58-4a9a-9849-eec19dc82afd"},"vehicle_type_id":"4","last_reported":1726675901,"current_range_meters":20400,"station_id":"ce4bhah2rcd13ifvqei0","pricing_plan_id":"cebpf4jnsgd1na2vs0mg"},{"bike_id":"b2d80a0a-0909-4592-8a00-62fbbab09557","system_id":"levelo_inurba_marseille","lat":43.28412,"lon":5.37508,"is_reserved":false,"is_disabled":false,"rental_uris":{"android":"levelo://app?vid=b2d80a0a-0909-4592-8a00-62fbbab09557","ios":"levelo://app?vid=b2d80a0a-0909-4592-8a00-62fbbab09557"},"vehicle_type_id":"4","last_reported":1726675901,"current_range_meters":17200,"station_id":"ce4bh412rcd13ifvqds0","pricing_plan_id":"cebpf4jnsgd1na2vs0mg"},{"bike_id":"fda7280b-d87f-4b27-abd7-084e7dd20d80","system_id":"levelo_inurba_marseille","lat":43.26944,"lon":5.40249,"is_reserved":false,"is_disabled":false,"rental_uris":{"android":"levelo://app?vid=fda7280b-d87f-4b27-abd7-084e7dd20d80","ios":"levelo://app?vid=fda7280b-d87f-4b27-abd7-084e7dd20d80"},"vehicle_type_id":"4","last_reported":1726675901,"current_range_meters":25600,"station_id":"cjm6bp8fraef2m0cb0m0","pricing_plan_id":"cebpf4jnsgd1na2vs0mg"},{"bike_id":"293108b2-bed3-427c-8787-b9b0ca10e789","system_id":"levelo_inurba_marseille","lat":43.27425,"lon":5.39414,"is_reserved":false,"is_disabled":false,"rental_uris":{"android":"levelo://app?vid=293108b2-bed3-427c-8787-b9b0ca10e789","ios":"levelo://app?vid=293108b2-bed3-427c-8787-b9b0ca10e789"},"vehicle_type_id":"4","last_reported":1726675901,"current_range_meters":28000,"station_id":"ce4bhdp2rcd13ifvqf20","pricing_plan_id":"cebpf4jnsgd1na2vs0mg"},{"bike_id":"4c034b9f-cbab-4e04-b5bc-ee83cd01a53c","system_id":"levelo_inurba_marseille","lat":43.32287,"lon":5.38266,"is_reserved":false,"is_disabled":false,"rental_uris":{"android":"levelo://app?vid=4c034b9f-cbab-4e04-b5bc-ee83cd01a53c","ios":"levelo://app?vid=4c034b9f-cbab-4e04-b5bc-ee83cd01a53c"},"vehicle_type_id":"4","last_reported":1726675901,"current_range_meters":38800,"station_id":"ce4bhr12rcd13ifvqhqg","pricing_plan_id":"cebpf4jnsgd1na2vs0mg"},{"bike_id":"2bac6b95-c690-4ab2-b52d-9cb898650d90","system_id":"levelo_inurba_marseille","lat":43.32362,"lon":5.38872,"is_reserved":false,"is_disabled":false,"rental_uris":{"android":"levelo://app?vid=2bac6b95-c690-4ab2-b52d-9cb898650d90","ios":"levelo://app?vid=2bac6b95-c690-4ab2-b52d-9cb898650d90"},"vehicle_type_id":"4","last_reported":1726675901,"current_range_meters":21600,"station_id":"ce4bhqp2rcd13ifvqhog","pricing_plan_id":"cebpf4jnsgd1na2vs0mg"},{"bike_id":"9143e261-b7de-48de-a21b-2d03e75d19c7","system_id":"levelo_inurba_marseille","lat":43.30326,"lon":5.40435,"is_reserved":false,"is_disabled":false,"rental_uris":{"android":"levelo://app?vid=9143e261-b7de-48de-a21b-2d03e75d19c7","ios":"levelo://app?vid=9143e261-b7de-48de-a21b-2d03e75d19c7"},"vehicle_type_id":"4","last_reported":1726675901,"current_range_meters":17200,"station_id":"ce4bh012rcd13ifvqd10","pricing_plan_id":"cebpf4jnsgd1na2vs0mg"},{"bike_id":"84aee0b0-3a3b-4aaa-93d3-7796e532006f","system_id":"levelo_inurba_marseille","lat":43.30265,"lon":5.400786,"is_reserved":false,"is_disabled":false,"rental_uris":{"android":"levelo://app?vid=84aee0b0-3a3b-4aaa-93d3-7796e532006f","ios":"levelo://app?vid=84aee0b0-3a3b-4aaa-93d3-7796e532006f"},"vehicle_type_id":"4","last_reported":1726675901,"current_range_meters":20800,"station_id":"ce4bh0p2rcd13ifvqd80","pricing_plan_id":"cebpf4jnsgd1na2vs0mg"},{"bike_id":"813cba3d-6854-46ea-8a7c-68e9ebf38eb1","system_id":"levelo_inurba_marseille","lat":43.31713,"lon":5.37706,"is_reserved":false,"is_disabled":false,"rental_uris":{"android":"levelo://app?vid=813cba3d-6854-46ea-8a7c-68e9ebf38eb1","ios":"levelo://app?vid=813cba3d-6854-46ea-8a7c-68e9ebf38eb1"},"vehicle_type_id":"4","last_reported":1726675901,"current_range_meters":30000,"station_id":"ce4bgth2rcd13ifvqch0","pricing_plan_id":"cebpf4jnsgd1na2vs0mg"},{"bike_id":"a26722f9-2a63-428f-8619-5ac1a332c164","system_id":"levelo_inurba_marseille","lat":43.27996,"lon":5.4166,"is_reserved":false,"is_disabled":false,"rental_uris":{"android":"levelo://app?vid=a26722f9-2a63-428f-8619-5ac1a332c164","ios":"levelo://app?vid=a26722f9-2a63-428f-8619-5ac1a332c164"},"vehicle_type_id":"4","last_reported":1726675901,"current_range_meters":24400,"station_id":"ce4bho12rcd13ifvqh1g","pricing_plan_id":"cebpf4jnsgd1na2vs0mg"},{"bike_id":"000e4495-6e0e-4dfb-9b01-5b8a60aff697","system_id":"levelo_inurba_marseille","lat":43.285736,"lon":5.394957,"is_reserved":false,"is_disabled":false,"rental_uris":{"android":"levelo://app?vid=000e4495-6e0e-4dfb-9b01-5b8a60aff697","ios":"levelo://app?vid=000e4495-6e0e-4dfb-9b01-5b8a60aff697"},"vehicle_type_id":"4","last_reported":1726675901,"current_range_meters":16000,"station_id":"ce4bh292rcd13ifvqdg0","pricing_plan_id":"cebpf4jnsgd1na2vs0mg"},{"bike_id":"e234c845-4fe7-4b15-83e2-2059d7489c62","system_id":"levelo_inurba_marseille","lat":43.3237,"lon":5.38884,"is_reserved":false,"is_disabled":false,"rental_uris":{"android":"levelo://app?vid=e234c845-4fe7-4b15-83e2-2059d7489c62","ios":"levelo://app?vid=e234c845-4fe7-4b15-83e2-2059d7489c62"},"vehicle_type_id":"4","last_reported":1726675901,"current_range_meters":25200,"station_id":"ce4bhqp2rcd13ifvqhog","pricing_plan_id":"cebpf4jnsgd1na2vs0mg"},{"bike_id":"2edcac6f-84f0-4ae5-b1b5-6cd208b0b333","system_id":"levelo_inurba_marseille","lat":43.311734,"lon":5.387143,"is_reserved":false,"is_disabled":false,"rental_uris":{"android":"levelo://app?vid=2edcac6f-84f0-4ae5-b1b5-6cd208b0b333","ios":"levelo://app?vid=2edcac6f-84f0-4ae5-b1b5-6cd208b0b333"},"vehicle_type_id":"4","last_reported":1726675901,"current_range_meters":30800,"station_id":"ce4bgv12rcd13ifvqcp0","pricing_plan_id":"cebpf4jnsgd1na2vs0mg"},{"bike_id":"0dc588cc-3a24-4b27-997f-10c4da3f5346","system_id":"levelo_inurba_marseille","lat":43.25821,"lon":5.39435,"is_reserved":false,"is_disabled":false,"rental_uris":{"android":"levelo://app?vid=0dc588cc-3a24-4b27-997f-10c4da3f5346","ios":"levelo://app?vid=0dc588cc-3a24-4b27-997f-10c4da3f5346"},"vehicle_type_id":"4","last_reported":1726675901,"current_range_meters":28000,"station_id":"ce4bhip2rcd13ifvqft0","pricing_plan_id":"cebpf4jnsgd1na2vs0mg"},{"bike_id":"6bedcf11-4d43-4c66-91c6-e449b83705c5","system_id":"levelo_inurba_marseille","lat":43.29069,"lon":5.37164,"is_reserved":false,"is_disabled":false,"rental_uris":{"android":"levelo://app?vid=6bedcf11-4d43-4c66-91c6-e449b83705c5","ios":"levelo://app?vid=6bedcf11-4d43-4c66-91c6-e449b83705c5"},"vehicle_type_id":"4","last_reported":1726675901,"current_range_meters":4000,"station_id":"ce4bh5p2rcd13ifvqe4g","pricing_plan_id":"cebpf4jnsgd1na2vs0mg"},{"bike_id":"43a9d9ef-a239-49af-a831-ea621a90d19e","system_id":"levelo_inurba_marseille","lat":43.31709,"lon":5.37735,"is_reserved":false,"is_disabled":false,"rental_uris":{"android":"levelo://app?vid=43a9d9ef-a239-49af-a831-ea621a90d19e","ios":"levelo://app?vid=43a9d9ef-a239-49af-a831-ea621a90d19e"},"vehicle_type_id":"4","last_reported":1726675901,"current_range_meters":12800,"station_id":"ce4bgth2rcd13ifvqch0","pricing_plan_id":"cebpf4jnsgd1na2vs0mg"},{"bike_id":"7ed691ad-cf2e-4278-8166-adc7971f7075","system_id":"levelo_inurba_marseille","lat":43.33022,"lon":5.39039,"is_reserved":false,"is_disabled":false,"rental_uris":{"android":"levelo://app?vid=7ed691ad-cf2e-4278-8166-adc7971f7075","ios":"levelo://app?vid=7ed691ad-cf2e-4278-8166-adc7971f7075"},"vehicle_type_id":"4","last_reported":1726675901,"current_range_meters":17600,"station_id":"ce4bhr92rcd13ifvqhrg","pricing_plan_id":"cebpf4jnsgd1na2vs0mg"},{"bike_id":"dea472fc-9b74-4a28-90fa-a84fb925f1a7","system_id":"levelo_inurba_marseille","lat":43.29271,"lon":5.38449,"is_reserved":false,"is_disabled":false,"rental_uris":{"android":"levelo://app?vid=dea472fc-9b74-4a28-90fa-a84fb925f1a7","ios":"levelo://app?vid=dea472fc-9b74-4a28-90fa-a84fb925f1a7"},"vehicle_type_id":"4","last_reported":1726675901,"current_range_meters":6800,"station_id":"ce4bh692rcd13ifvqea0","pricing_plan_id":"cebpf4jnsgd1na2vs0mg"},{"bike_id":"be822533-1d0f-4931-a4c7-1f827249a72e","system_id":"levelo_inurba_marseille","lat":43.25102,"lon":5.4032,"is_reserved":false,"is_disabled":false,"rental_uris":{"android":"levelo://app?vid=be822533-1d0f-4931-a4c7-1f827249a72e","ios":"levelo://app?vid=be822533-1d0f-4931-a4c7-1f827249a72e"},"vehicle_type_id":"4","last_reported":1726675901,"current_range_meters":10800,"station_id":"ce4bhlh2rcd13ifvqgig","pricing_plan_id":"cebpf4jnsgd1na2vs0mg"},{"bike_id":"8748475d-1f7c-4dba-b00f-383c860c35fe","system_id":"levelo_inurba_marseille","lat":43.25092,"lon":5.39519,"is_reserved":false,"is_disabled":false,"rental_uris":{"android":"levelo://app?vid=8748475d-1f7c-4dba-b00f-383c860c35fe","ios":"levelo://app?vid=8748475d-1f7c-4dba-b00f-383c860c35fe"},"vehicle_type_id":"4","last_reported":1726675901,"current_range_meters":24000,"station_id":"ce4bhm12rcd13ifvqgkg","pricing_plan_id":"cebpf4jnsgd1na2vs0mg"},{"bike_id":"0448aa7f-4827-4a44-9668-a768f1dbe323","system_id":"levelo_inurba_marseille","lat":43.310608,"lon":5.383493,"is_reserved":false,"is_disabled":false,"rental_uris":{"android":"levelo://app?vid=0448aa7f-4827-4a44-9668-a768f1dbe323","ios":"levelo://app?vid=0448aa7f-4827-4a44-9668-a768f1dbe323"},"vehicle_type_id":"4","last_reported":1726675901,"current_range_meters":38800,"station_id":"ce4bgv92rcd13ifvqcr0","pricing_plan_id":"cebpf4jnsgd1na2vs0mg"},{"bike_id":"c188c88a-6218-4830-9a80-0cef3bfaff00","system_id":"levelo_inurba_marseille","lat":43.29278,"lon":5.40116,"is_reserved":false,"is_disabled":false,"rental_uris":{"android":"levelo://app?vid=c188c88a-6218-4830-9a80-0cef3bfaff00","ios":"levelo://app?vid=c188c88a-6218-4830-9a80-0cef3bfaff00"},"vehicle_type_id":"4","last_reported":1726675901,"current_range_meters":39200,"station_id":"ce4bh312rcd13ifvqdk0","pricing_plan_id":"cebpf4jnsgd1na2vs0mg"},{"bike_id":"86a99ef0-1924-43e2-b02f-8aea85ddc15a","system_id":"levelo_inurba_marseille","lat":43.30205,"lon":5.39469,"is_reserved":false,"is_disabled":false,"rental_uris":{"android":"levelo://app?vid=86a99ef0-1924-43e2-b02f-8aea85ddc15a","ios":"levelo://app?vid=86a99ef0-1924-43e2-b02f-8aea85ddc15a"},"vehicle_type_id":"4","last_reported":1726675901,"current_range_meters":21600,"station_id":"ce4bh312rcd13ifvqdj0","pricing_plan_id":"cebpf4jnsgd1na2vs0mg"},{"bike_id":"14b631c3-4285-4a23-9dd9-ff4ca0b5ed7b","system_id":"levelo_inurba_marseille","lat":43.29577,"lon":5.39953,"is_reserved":false,"is_disabled":false,"rental_uris":{"android":"levelo://app?vid=14b631c3-4285-4a23-9dd9-ff4ca0b5ed7b","ios":"levelo://app?vid=14b631c3-4285-4a23-9dd9-ff4ca0b5ed7b"},"vehicle_type_id":"4","last_reported":1726675901,"current_range_meters":30000,"station_id":"ce4bh312rcd13ifvqdj0","pricing_plan_id":"cebpf4jnsgd1na2vs0mg"},{"bike_id":"57cd801f-708a-4874-8eb5-e062f57eaeca","system_id":"levelo_inurba_marseille","lat":43.299652,"lon":5.384838,"is_reserved":false,"is_disabled":false,"rental_uris":{"android":"levelo://app?vid=57cd801f-708a-4874-8eb5-e062f57eaeca","ios":"levelo://app?vid=57cd801f-708a-4874-8eb5-e062f57eaeca"},"vehicle_type_id":"4","last_reported":1726675901,"current_range_meters":38400,"station_id":"ce4bgj92rcd13ifvqbd0","pricing_plan_id":"cebpf4jnsgd1na2vs0mg"},{"bike_id":"c9a6bb9c-3b18-4c4f-90a7-fc4f20ab5e61","system_id":"levelo_inurba_marseille","lat":43.29552,"lon":5.42289,"is_reserved":false,"is_disabled":false,"rental_uris":{"android":"levelo://app?vid=c9a6bb9c-3b18-4c4f-90a7-fc4f20ab5e61","ios":"levelo://app?vid=c9a6bb9c-3b18-4c4f-90a7-fc4f20ab5e61"},"vehicle_type_id":"4","last_reported":1726675901,"current_range_meters":9600,"station_id":"ce4bhph2rcd13ifvqhdg","pricing_plan_id":"cebpf4jnsgd1na2vs0mg"},{"bike_id":"976a21c8-3361-48e5-8d3b-b3d9ed8996e8","system_id":"levelo_inurba_marseille","lat":43.251066,"lon":5.403155,"is_reserved":false,"is_disabled":false,"rental_uris":{"android":"levelo://app?vid=976a21c8-3361-48e5-8d3b-b3d9ed8996e8","ios":"levelo://app?vid=976a21c8-3361-48e5-8d3b-b3d9ed8996e8"},"vehicle_type_id":"4","last_reported":1726675901,"current_range_meters":8000,"station_id":"ce4bhlh2rcd13ifvqgig","pricing_plan_id":"cebpf4jnsgd1na2vs0mg"},{"bike_id":"2ff5b201-c826-4aa1-a4fd-c7b72c32ffe1","system_id":"levelo_inurba_marseille","lat":43.33024,"lon":5.39034,"is_reserved":false,"is_disabled":false,"rental_uris":{"android":"levelo://app?vid=2ff5b201-c826-4aa1-a4fd-c7b72c32ffe1","ios":"levelo://app?vid=2ff5b201-c826-4aa1-a4fd-c7b72c32ffe1"},"vehicle_type_id":"4","last_reported":1726675901,"current_range_meters":17200,"station_id":"ce4bhr92rcd13ifvqhrg","pricing_plan_id":"cebpf4jnsgd1na2vs0mg"},{"bike_id":"a8e21bd2-453b-4164-957a-0430c84b810e","system_id":"levelo_inurba_marseille","lat":43.287476,"lon":5.377129,"is_reserved":false,"is_disabled":false,"rental_uris":{"android":"levelo://app?vid=a8e21bd2-453b-4164-957a-0430c84b810e","ios":"levelo://app?vid=a8e21bd2-453b-4164-957a-0430c84b810e"},"vehicle_type_id":"4","last_reported":1726675901,"current_range_meters":11600,"station_id":"","pricing_plan_id":"cebpf4jnsgd1na2vs0mg"},{"bike_id":"b7cfc2db-13fe-4c8a-8400-5a475e5f6b91","system_id":"levelo_inurba_marseille","lat":43.29522,"lon":5.39403,"is_reserved":false,"is_disabled":false,"rental_uris":{"android":"levelo://app?vid=b7cfc2db-13fe-4c8a-8400-5a475e5f6b91","ios":"levelo://app?vid=b7cfc2db-13fe-4c8a-8400-5a475e5f6b91"},"vehicle_type_id":"4","last_reported":1726675901,"current_range_meters":27200,"station_id":"ce4bh292rcd13ifvqdf0","pricing_plan_id":"cebpf4jnsgd1na2vs0mg"},{"bike_id":"bc7d858b-a201-4dbf-9828-d2e796a2b4a0","system_id":"levelo_inurba_marseille","lat":43.27071,"lon":5.42279,"is_reserved":false,"is_disabled":false,"rental_uris":{"android":"levelo://app?vid=bc7d858b-a201-4dbf-9828-d2e796a2b4a0","ios":"levelo://app?vid=bc7d858b-a201-4dbf-9828-d2e796a2b4a0"},"vehicle_type_id":"4","last_reported":1726675901,"current_range_meters":29600,"station_id":"ce4bhk92rcd13ifvqgb0","pricing_plan_id":"cebpf4jnsgd1na2vs0mg"},{"bike_id":"cb5a2dc9-cab3-4640-8d42-10a7bb06f7db","system_id":"levelo_inurba_marseille","lat":43.23192,"lon":5.35542,"is_reserved":false,"is_disabled":false,"rental_uris":{"android":"levelo://app?vid=cb5a2dc9-cab3-4640-8d42-10a7bb06f7db","ios":"levelo://app?vid=cb5a2dc9-cab3-4640-8d42-10a7bb06f7db"},"vehicle_type_id":"4","last_reported":1726675901,"current_range_meters":7200,"station_id":"ce4bhu92rcd13ifvqi70","pricing_plan_id":"cebpf4jnsgd1na2vs0mg"},{"bike_id":"00e84f20-f10a-4201-a25a-c6dc6e027080","system_id":"levelo_inurba_marseille","lat":43.30589,"lon":5.39361,"is_reserved":false,"is_disabled":false,"rental_uris":{"android":"levelo://app?vid=00e84f20-f10a-4201-a25a-c6dc6e027080","ios":"levelo://app?vid=00e84f20-f10a-4201-a25a-c6dc6e027080"},"vehicle_type_id":"4","last_reported":1726675901,"current_range_meters":39200,"station_id":"ce4bh0p2rcd13ifvqd80","pricing_plan_id":"cebpf4jnsgd1na2vs0mg"},{"bike_id":"329ff33b-ef9d-43f8-b8d7-b6998a068bc3","system_id":"levelo_inurba_marseille","lat":43.25189,"lon":5.37548,"is_reserved":false,"is_disabled":false,"rental_uris":{"android":"levelo://app?vid=329ff33b-ef9d-43f8-b8d7-b6998a068bc3","ios":"levelo://app?vid=329ff33b-ef9d-43f8-b8d7-b6998a068bc3"},"vehicle_type_id":"4","last_reported":1726675901,"current_range_meters":22800,"station_id":"ce4bhgh2rcd13ifvqfb0","pricing_plan_id":"cebpf4jnsgd1na2vs0mg"},{"bike_id":"1ae8fd51-bc4a-4c49-8ca8-8477c7b1c10a","system_id":"levelo_inurba_marseille","lat":43.28615,"lon":5.35103,"is_reserved":false,"is_disabled":false,"rental_uris":{"android":"levelo://app?vid=1ae8fd51-bc4a-4c49-8ca8-8477c7b1c10a","ios":"levelo://app?vid=1ae8fd51-bc4a-4c49-8ca8-8477c7b1c10a"},"vehicle_type_id":"4","last_reported":1726675901,"current_range_meters":34000,"station_id":"ce4bhch2rcd13ifvqeug","pricing_plan_id":"cebpf4jnsgd1na2vs0mg"},{"bike_id":"ca5d64c0-3deb-46b2-ab9c-770ee68983e4","system_id":"levelo_inurba_marseille","lat":43.28156,"lon":5.42635,"is_reserved":false,"is_disabled":false,"rental_uris":{"android":"levelo://app?vid=ca5d64c0-3deb-46b2-ab9c-770ee68983e4","ios":"levelo://app?vid=ca5d64c0-3deb-46b2-ab9c-770ee68983e4"},"vehicle_type_id":"4","last_reported":1726675901,"current_range_meters":17200,"station_id":"ce4bhnh2rcd13ifvqgug","pricing_plan_id":"cebpf4jnsgd1na2vs0mg"},{"bike_id":"3e45baa7-c72d-4e77-9e1d-c47e5a491f87","system_id":"levelo_inurba_marseille","lat":43.29898,"lon":5.43664,"is_reserved":false,"is_disabled":false,"rental_uris":{"android":"levelo://app?vid=3e45baa7-c72d-4e77-9e1d-c47e5a491f87","ios":"levelo://app?vid=3e45baa7-c72d-4e77-9e1d-c47e5a491f87"},"vehicle_type_id":"4","last_reported":1726675901,"current_range_meters":24800,"station_id":"ce4bhpp2rcd13ifvqhfg","pricing_plan_id":"cebpf4jnsgd1na2vs0mg"},{"bike_id":"81c9ac87-aead-44c2-9ab5-2dc348d9f29d","system_id":"levelo_inurba_marseille","lat":43.32487,"lon":5.36558,"is_reserved":false,"is_disabled":false,"rental_uris":{"android":"levelo://app?vid=81c9ac87-aead-44c2-9ab5-2dc348d9f29d","ios":"levelo://app?vid=81c9ac87-aead-44c2-9ab5-2dc348d9f29d"},"vehicle_type_id":"4","last_reported":1726675901,"current_range_meters":38800,"station_id":"ce4bhs12rcd13ifvqhvg","pricing_plan_id":"cebpf4jnsgd1na2vs0mg"},{"bike_id":"8bfb24de-09a0-4373-93f9-a5f65d646a22","system_id":"levelo_inurba_marseille","lat":43.279179,"lon":5.380181,"is_reserved":false,"is_disabled":false,"rental_uris":{"android":"levelo://app?vid=8bfb24de-09a0-4373-93f9-a5f65d646a22","ios":"levelo://app?vid=8bfb24de-09a0-4373-93f9-a5f65d646a22"},"vehicle_type_id":"4","last_reported":1726675901,"current_range_meters":20400,"station_id":"ce4bhf92rcd13ifvqf50","pricing_plan_id":"cebpf4jnsgd1na2vs0mg"},{"bike_id":"5c1a95b9-951f-4c31-9716-31514fa18728","system_id":"levelo_inurba_marseille","lat":43.25088,"lon":5.39518,"is_reserved":false,"is_disabled":false,"rental_uris":{"android":"levelo://app?vid=5c1a95b9-951f-4c31-9716-31514fa18728","ios":"levelo://app?vid=5c1a95b9-951f-4c31-9716-31514fa18728"},"vehicle_type_id":"4","last_reported":1726675901,"current_range_meters":37600,"station_id":"ce4bhm12rcd13ifvqgkg","pricing_plan_id":"cebpf4jnsgd1na2vs0mg"},{"bike_id":"439a4f59-b911-4c8c-8426-cf03860e87aa","system_id":"levelo_inurba_marseille","lat":43.33026,"lon":5.39035,"is_reserved":false,"is_disabled":false,"rental_uris":{"android":"levelo://app?vid=439a4f59-b911-4c8c-8426-cf03860e87aa","ios":"levelo://app?vid=439a4f59-b911-4c8c-8426-cf03860e87aa"},"vehicle_type_id":"4","last_reported":1726675901,"current_range_meters":8000,"station_id":"ce4bhr92rcd13ifvqhrg","pricing_plan_id":"cebpf4jnsgd1na2vs0mg"},{"bike_id":"c8957bd1-c683-4e5f-ba97-6e41bf6e469d","system_id":"levelo_inurba_marseille","lat":43.31988,"lon":5.38138,"is_reserved":false,"is_disabled":false,"rental_uris":{"android":"levelo://app?vid=c8957bd1-c683-4e5f-ba97-6e41bf6e469d","ios":"levelo://app?vid=c8957bd1-c683-4e5f-ba97-6e41bf6e469d"},"vehicle_type_id":"4","last_reported":1726675901,"current_range_meters":38800,"station_id":"ce4bhr12rcd13ifvqhpg","pricing_plan_id":"cebpf4jnsgd1na2vs0mg"},{"bike_id":"320d5ac8-4179-40ca-9bb9-594718116533","system_id":"levelo_inurba_marseille","lat":43.283722,"lon":5.386239,"is_reserved":false,"is_disabled":false,"rental_uris":{"android":"levelo://app?vid=320d5ac8-4179-40ca-9bb9-594718116533","ios":"levelo://app?vid=320d5ac8-4179-40ca-9bb9-594718116533"},"vehicle_type_id":"4","last_reported":1726675901,"current_range_meters":6000,"station_id":"ce4bh492rcd13ifvqdvg","pricing_plan_id":"cebpf4jnsgd1na2vs0mg"},{"bike_id":"66788cf3-81ef-4be9-83f5-f6b3b297aa00","system_id":"levelo_inurba_marseille","lat":43.29259,"lon":5.40907,"is_reserved":false,"is_disabled":false,"rental_uris":{"android":"levelo://app?vid=66788cf3-81ef-4be9-83f5-f6b3b297aa00","ios":"levelo://app?vid=66788cf3-81ef-4be9-83f5-f6b3b297aa00"},"vehicle_type_id":"4","last_reported":1726675901,"current_range_meters":9600,"station_id":"ce4bh192rcd13ifvqdc0","pricing_plan_id":"cebpf4jnsgd1na2vs0mg"},{"bike_id":"8fca62e1-5dcc-4423-b68d-b567eb57ebe9","system_id":"levelo_inurba_marseille","lat":43.31118,"lon":5.37766,"is_reserved":false,"is_disabled":false,"rental_uris":{"android":"levelo://app?vid=8fca62e1-5dcc-4423-b68d-b567eb57ebe9","ios":"levelo://app?vid=8fca62e1-5dcc-4423-b68d-b567eb57ebe9"},"vehicle_type_id":"4","last_reported":1726675901,"current_range_meters":30800,"station_id":"ce4bgt92rcd13ifvqcg0","pricing_plan_id":"cebpf4jnsgd1na2vs0mg"},{"bike_id":"7822c71c-cc85-4ed9-8982-aac3bae56d15","system_id":"levelo_inurba_marseille","lat":43.28156,"lon":5.42642,"is_reserved":false,"is_disabled":false,"rental_uris":{"android":"levelo://app?vid=7822c71c-cc85-4ed9-8982-aac3bae56d15","ios":"levelo://app?vid=7822c71c-cc85-4ed9-8982-aac3bae56d15"},"vehicle_type_id":"4","last_reported":1726675901,"current_range_meters":30800,"station_id":"ce4bhnh2rcd13ifvqgug","pricing_plan_id":"cebpf4jnsgd1na2vs0mg"},{"bike_id":"dfda05b9-b03c-4b05-a837-f3341dac839f","system_id":"levelo_inurba_marseille","lat":43.29266,"lon":5.3844,"is_reserved":false,"is_disabled":false,"rental_uris":{"android":"levelo://app?vid=dfda05b9-b03c-4b05-a837-f3341dac839f","ios":"levelo://app?vid=dfda05b9-b03c-4b05-a837-f3341dac839f"},"vehicle_type_id":"4","last_reported":1726675901,"current_range_meters":29600,"station_id":"ce4bh692rcd13ifvqea0","pricing_plan_id":"cebpf4jnsgd1na2vs0mg"},{"bike_id":"6afb1833-b713-4cf6-a817-53a93431e2e7","system_id":"levelo_inurba_marseille","lat":43.29898,"lon":5.43666,"is_reserved":false,"is_disabled":false,"rental_uris":{"android":"levelo://app?vid=6afb1833-b713-4cf6-a817-53a93431e2e7","ios":"levelo://app?vid=6afb1833-b713-4cf6-a817-53a93431e2e7"},"vehicle_type_id":"4","last_reported":1726675901,"current_range_meters":36400,"station_id":"ce4bhpp2rcd13ifvqhfg","pricing_plan_id":"cebpf4jnsgd1na2vs0mg"},{"bike_id":"96703663-0ec7-4ef3-958e-888d8ddde005","system_id":"levelo_inurba_marseille","lat":43.27968,"lon":5.38738,"is_reserved":false,"is_disabled":false,"rental_uris":{"android":"levelo://app?vid=96703663-0ec7-4ef3-958e-888d8ddde005","ios":"levelo://app?vid=96703663-0ec7-4ef3-958e-888d8ddde005"},"vehicle_type_id":"4","last_reported":1726675901,"current_range_meters":7200,"station_id":"ce4bhf92rcd13ifvqf50","pricing_plan_id":"cebpf4jnsgd1na2vs0mg"},{"bike_id":"42863243-0ca9-4dba-9dde-9a5dfd97159b","system_id":"levelo_inurba_marseille","lat":43.334045,"lon":5.43174,"is_reserved":false,"is_disabled":false,"rental_uris":{"android":"levelo://app?vid=42863243-0ca9-4dba-9dde-9a5dfd97159b","ios":"levelo://app?vid=42863243-0ca9-4dba-9dde-9a5dfd97159b"},"vehicle_type_id":"4","last_reported":1726675901,"current_range_meters":4400,"station_id":"ce4bhq12rcd13ifvqhhg","pricing_plan_id":"cebpf4jnsgd1na2vs0mg"},{"bike_id":"7d65213c-6d40-4c7f-9686-672c7fe3fe5a","system_id":"levelo_inurba_marseille","lat":43.27322,"lon":5.39083,"is_reserved":false,"is_disabled":false,"rental_uris":{"android":"levelo://app?vid=7d65213c-6d40-4c7f-9686-672c7fe3fe5a","ios":"levelo://app?vid=7d65213c-6d40-4c7f-9686-672c7fe3fe5a"},"vehicle_type_id":"4","last_reported":1726675901,"current_range_meters":28000,"station_id":"ce4bhgp2rcd13ifvqfe0","pricing_plan_id":"cebpf4jnsgd1na2vs0mg"},{"bike_id":"9f6c2770-4850-4f2e-a3f5-0670540edd42","system_id":"levelo_inurba_marseille","lat":43.24647,"lon":5.38892,"is_reserved":false,"is_disabled":false,"rental_uris":{"android":"levelo://app?vid=9f6c2770-4850-4f2e-a3f5-0670540edd42","ios":"levelo://app?vid=9f6c2770-4850-4f2e-a3f5-0670540edd42"},"vehicle_type_id":"4","last_reported":1726675901,"current_range_meters":30000,"station_id":"ce4bhg12rcd13ifvqf60","pricing_plan_id":"cebpf4jnsgd1na2vs0mg"},{"bike_id":"17d2d899-a087-47cb-a5ac-e6d278854635","system_id":"levelo_inurba_marseille","lat":43.28723,"lon":5.37939,"is_reserved":false,"is_disabled":false,"rental_uris":{"android":"levelo://app?vid=17d2d899-a087-47cb-a5ac-e6d278854635","ios":"levelo://app?vid=17d2d899-a087-47cb-a5ac-e6d278854635"},"vehicle_type_id":"4","last_reported":1726675901,"current_range_meters":20800,"station_id":"ce4bh9p2rcd13ifvqec0","pricing_plan_id":"cebpf4jnsgd1na2vs0mg"},{"bike_id":"257bbdd4-fe5f-4649-b3ad-30c7cb355a28","system_id":"levelo_inurba_marseille","lat":43.28705,"lon":5.37379,"is_reserved":false,"is_disabled":false,"rental_uris":{"android":"levelo://app?vid=257bbdd4-fe5f-4649-b3ad-30c7cb355a28","ios":"levelo://app?vid=257bbdd4-fe5f-4649-b3ad-30c7cb355a28"},"vehicle_type_id":"4","last_reported":1726675901,"current_range_meters":8400,"station_id":"ce4bh3p2rcd13ifvqdq0","pricing_plan_id":"cebpf4jnsgd1na2vs0mg"},