{"last_updated":1692295710,"ttl":30,"version":"2.2","data":{"bikes":[{"bike_id":"ccea2d19-ee8f-4586-9d0a-377da5268ab4","system_id":"levelo_inurba_marseille","lat":43.30903,"lon":5.36844,"is_reserved":false,"is_disabled":false,"rental_uris":{"android":"levelo://app?vid=ccea2d19-ee8f-4586-9d0a-377da5268ab4","ios":"levelo://app?vid=ccea2d19-ee8f-4586-9d0a-377da5268ab4"},"vehicle_type_id":"4","last_reported":1692295711,"current_range_meters":20400,"station_id":"ce4bgn92rcd13ifvqbvg","pricing_plan_id":"free"},{"bike_id":"a904af8e-e60f-4783-a85b-8eca0b69ce63","system_id":"levelo_inurba_marseille","lat":43.30587,"lon":5.36532,"is_reserved":false,"is_disabled":false,"rental_uris":{"android":"levelo://app?vid=a904af8e-e60f-4783-a85b-8eca0b69ce63","ios":"levelo://app?vid=a904af8e-e60f-4783-a85b-8eca0b69ce63"},"vehicle_type_id":"4","last_reported":1692295711,"current_range_meters":2000,"station_id":"","pricing_plan_id":"free"},{"bike_id":"9fbe6e18-d192-44c2-98b5-cafb68b41aa4","system_id":"levelo_inurba_marseille","lat":43.3054,"lon":5.36523,"is_reserved":false,"is_disabled":false,"rental_uris":{"android":"levelo://app?vid=9fbe6e18-d192-44c2-98b5-cafb68b41aa4","ios":"levelo://app?vid=9fbe6e18-d192-44c2-98b5-cafb68b41aa4"},"vehicle_type_id":"4","last_reported":1692295711,"current_range_meters":20000,"station_id":"ce4bgs12rcd13ifvqcag","pricing_plan_id":"free"},{"bike_id":"386ed8e3-b71e-4f68-86af-202c5b76503e","system_id":"levelo_inurba_marseille","lat":43.305989,"lon":5.37225,"is_reserved":false,"is_disabled":false,"rental_uris":{"android":"levelo://app?vid=386ed8e3-b71e-4f68-86af-202c5b76503e","ios":"levelo://app?vid=386ed8e3-b71e-4f68-86af-202c5b76503e"},"vehicle_type_id":"4","last_reported":1692295711,"current_range_meters":31200,"station_id":"ce4bgqh2rcd13ifvqc4g","pricing_plan_id":"free"},{"bike_id":"d0076539-a442-4354-abec-73540a6a870c","system_id":"levelo_inurba_marseille","lat":43.311131,"lon":5.377651,"is_reserved":false,"is_disabled":false,"rental_uris":{"android":"levelo://app?vid=d0076539-a442-4354-abec-73540a6a870c","ios":"levelo://app?vid=d0076539-a442-4354-abec-73540a6a870c"},"vehicle_type_id":"4","last_reported":1692295711,"current_range_meters":12000,"station_id":"ce4bgt92rcd13ifvqcg0","pricing_plan_id":"free"},{"bike_id":"7bbef9ad-d701-4aec-8232-ffe6de53e95d","system_id":"levelo_inurba_marseille","lat":43.311131,"lon":5.377651,"is_reserved":false,"is_disabled":false,"rental_uris":{"android":"levelo://app?vid=7bbef9ad-d701-4aec-8232-ffe6de53e95d","ios":"levelo://app?vid=7bbef9ad-d701-4aec-8232-ffe6de53e95d"},"vehicle_type_id":"4","last_reported":1692295711,"current_range_meters":0,"station_id":"ce4bgt92rcd13ifvqcg0","pricing_plan_id":"free"},{"bike_id":"5b4179ce-3a67-4ba0-a5cb-0b2a5ea9a894","system_id":"levelo_inurba_marseille","lat":43.311131,"lon":5.377651,"is_reserved":false,"is_disabled":false,"rental_uris":{"android":"levelo://app?vid=5b4179ce-3a67-4ba0-a5cb-0b2a5ea9a894","ios":"levelo://app?vid=5b4179ce-3a67-4ba0-a5cb-0b2a5ea9a894"},"vehicle_type_id":"4","last_reported":1692295711,"current_range_meters":19600,"station_id":"ce4bgt92rcd13ifvqcg0","pricing_plan_id":"free"},{"bike_id":"1d0f0a43-76ce-4375-a3aa-29bf47521cec","system_id":"levelo_inurba_marseille","lat":43.317075,"lon":5.377367,"is_reserved":false,"is_disabled":false,"rental_uris":{"android":"levelo://app?vid=1d0f0a43-76ce-4375-a3aa-29bf47521cec","ios":"levelo://app?vid=1d0f0a43-76ce-4375-a3aa-29bf47521cec"},"vehicle_type_id":"4","last_reported":1692295711,"current_range_meters":20000,"station_id":"ce4bgth2rcd13ifvqch0","pricing_plan_id":"free"},{"bike_id":"abe02008-48b9-4a39-a492-745d55fbe8f7","system_id":"levelo_inurba_marseille","lat":43.3171,"lon":5.37749,"is_reserved":false,"is_disabled":false,"rental_uris":{"android":"levelo://app?vid=abe02008-48b9-4a39-a492-745d55fbe8f7","ios":"levelo://app?vid=abe02008-48b9-4a39-a492-745d55fbe8f7"},"vehicle_type_id":"4","last_reported":1692295711,"current_range_meters":19200,"station_id":"ce4bgth2rcd13ifvqch0","pricing_plan_id":"free"},{"bike_id":"a4ea0fac-f9e3-4c41-ab7c-aecbf3ccd389","system_id":"levelo_inurba_marseille","lat":43.317075,"lon":5.377367,"is_reserved":false,"is_disabled":false,"rental_uris":{"android":"levelo://app?vid=a4ea0fac-f9e3-4c41-ab7c-aecbf3ccd389","ios":"levelo://app?vid=a4ea0fac-f9e3-4c41-ab7c-aecbf3ccd389"},"vehicle_type_id":"4","last_reported":1692295711,"current_range_meters":28400,"station_id":"ce4bgth2rcd13ifvqch0","pricing_plan_id":"free"},{"bike_id":"0b9d39af-a586-41e6-9875-992368bab1e5","system_id":"levelo_inurba_marseille","lat":43.31535,"lon":5.38019,"is_reserved":false,"is_disabled":false,"rental_uris":{"android":"levelo://app?vid=0b9d39af-a586-41e6-9875-992368bab1e5","ios":"levelo://app?vid=0b9d39af-a586-41e6-9875-992368bab1e5"},"vehicle_type_id":"4","last_reported":1692295711,"current_range_meters":29200,"station_id":"ce4bhsp2rcd13ifvqi50","pricing_plan_id":"free"},{"bike_id":"b0d24aa5-9183-4394-b9e6-529e7d21441c","system_id":"levelo_inurba_marseille","lat":43.3154,"lon":5.3802,"is_reserved":false,"is_disabled":false,"rental_uris":{"android":"levelo://app?vid=b0d24aa5-9183-4394-b9e6-529e7d21441c","ios":"levelo://app?vid=b0d24aa5-9183-4394-b9e6-529e7d21441c"},"vehicle_type_id":"4","last_reported":1692295711,"current_range_meters":0,"station_id":"ce4bhsp2rcd13ifvqi50","pricing_plan_id":"free"},{"bike_id":"f11f593b-f726-4d67-941a-59a3a9062f71","system_id":"levelo_inurba_marseille","lat":43.31538,"lon":5.38031,"is_reserved":false,"is_disabled":false,"rental_uris":{"android":"levelo://app?vid=f11f593b-f726-4d67-941a-59a3a9062f71","ios":"levelo://app?vid=f11f593b-f726-4d67-941a-59a3a9062f71"},"vehicle_type_id":"4","last_reported":1692295711,"current_range_meters":29600,"station_id":"ce4bhsp2rcd13ifvqi50","pricing_plan_id":"free"},{"bike_id":"54004dd5-a87c-4c2d-aec9-93cf55b6de7f","system_id":"levelo_inurba_marseille","lat":43.324208,"lon":5.365596,"is_reserved":false,"is_disabled":false,"rental_uris":{"android":"levelo://app?vid=54004dd5-a87c-4c2d-aec9-93cf55b6de7f","ios":"levelo://app?vid=54004dd5-a87c-4c2d-aec9-93cf55b6de7f"},"vehicle_type_id":"4","last_reported":1692295711,"current_range_meters":18000,"station_id":"ce4bhs92rcd13ifvqi0g","pricing_plan_id":"free"},{"bike_id":"2bc3d7f8-9f07-403a-9e85-acfe2bc19416","system_id":"levelo_inurba_marseille","lat":43.302784,"lon":5.377158,"is_reserved":false,"is_disabled":false,"rental_uris":{"android":"levelo://app?vid=2bc3d7f8-9f07-403a-9e85-acfe2bc19416","ios":"levelo://app?vid=2bc3d7f8-9f07-403a-9e85-acfe2bc19416"},"vehicle_type_id":"4","last_reported":1692295711,"current_range_meters":21200,"station_id":"ce4bguh2rcd13ifvqcj0","pricing_plan_id":"free"},{"bike_id":"eadfa1f5-720f-405e-8be4-023bd3aaa15d","system_id":"levelo_inurba_marseille","lat":43.302784,"lon":5.377158,"is_reserved":false,"is_disabled":false,"rental_uris":{"android":"levelo://app?vid=eadfa1f5-720f-405e-8be4-023bd3aaa15d","ios":"levelo://app?vid=eadfa1f5-720f-405e-8be4-023bd3aaa15d"},"vehicle_type_id":"4","last_reported":1692295711,"current_range_meters":16400,"station_id":"ce4bguh2rcd13ifvqcj0","pricing_plan_id":"free"},{"bike_id":"e69c5082-a8ee-4751-830d-70bcd5617be4","system_id":"levelo_inurba_marseille","lat":43.302784,"lon":5.377158,"is_reserved":false,"is_disabled":false,"rental_uris":{"android":"levelo://app?vid=e69c5082-a8ee-4751-830d-70bcd5617be4","ios":"levelo://app?vid=e69c5082-a8ee-4751-830d-70bcd5617be4"},"vehicle_type_id":"4","last_reported":1692295711,"current_range_meters":13200,"station_id":"ce4bguh2rcd13ifvqcj0","pricing_plan_id":"free"},{"bike_id":"ddc131a7-6b81-4282-b6d4-bb9e72b66f33","system_id":"levelo_inurba_marseille","lat":43.302784,"lon":5.377158,"is_reserved":false,"is_disabled":false,"rental_uris":{"android":"levelo://app?vid=ddc131a7-6b81-4282-b6d4-bb9e72b66f33","ios":"levelo://app?vid=ddc131a7-6b81-4282-b6d4-bb9e72b66f33"},"vehicle_type_id":"4","last_reported":1692295711,"current_range_meters":2000,"station_id":"ce4bguh2rcd13ifvqcj0","pricing_plan_id":"free"},{"bike_id":"8edc98e9-ff68-4abb-9aed-439fc370eb1d","system_id":"levelo_inurba_marseille","lat":43.31986,"lon":5.38143,"is_reserved":false,"is_disabled":false,"rental_uris":{"android":"levelo://app?vid=8edc98e9-ff68-4abb-9aed-439fc370eb1d","ios":"levelo://app?vid=8edc98e9-ff68-4abb-9aed-439fc370eb1d"},"vehicle_type_id":"4","last_reported":1692295711,"current_range_meters":11200,"station_id":"ce4bhr12rcd13ifvqhpg","pricing_plan_id":"free"},{"bike_id":"b328d323-4e49-4e11-8d47-6f47f1998c64","system_id":"levelo_inurba_marseille","lat":43.31991,"lon":5.38142,"is_reserved":false,"is_disabled":false,"rental_uris":{"android":"levelo://app?vid=b328d323-4e49-4e11-8d47-6f47f1998c64","ios":"levelo://app?vid=b328d323-4e49-4e11-8d47-6f47f1998c64"},"vehicle_type_id":"4","last_reported":1692295711,"current_range_meters":26400,"station_id":"ce4bhr12rcd13ifvqhpg","pricing_plan_id":"free"},{"bike_id":"0199fadd-d0a9-4074-adc4-86b80fffb7d6","system_id":"levelo_inurba_marseille","lat":43.319935,"lon":5.381699,"is_reserved":false,"is_disabled":false,"rental_uris":{"android":"levelo://app?vid=0199fadd-d0a9-4074-adc4-86b80fffb7d6","ios":"levelo://app?vid=0199fadd-d0a9-4074-adc4-86b80fffb7d6"},"vehicle_type_id":"4","last_reported":1692295711,"current_range_meters":30400,"station_id":"ce4bhr12rcd13ifvqhpg","pricing_plan_id":"free"},{"bike_id":"7b3c0e6e-bbe2-4c88-aaa1-69c07e9b139a","system_id":"levelo_inurba_marseille","lat":43.319935,"lon":5.381699,"is_reserved":false,"is_disabled":false,"rental_uris":{"android":"levelo://app?vid=7b3c0e6e-bbe2-4c88-aaa1-69c07e9b139a","ios":"levelo://app?vid=7b3c0e6e-bbe2-4c88-aaa1-69c07e9b139a"},"vehicle_type_id":"4","last_reported":1692295711,"current_range_meters":17600,"station_id":"ce4bhr12rcd13ifvqhpg","pricing_plan_id":"free"},{"bike_id":"0148741c-a4fa-4d3e-8ab1-45692b8afebc","system_id":"levelo_inurba_marseille","lat":43.319935,"lon":5.381699,"is_reserved":false,"is_disabled":false,"rental_uris":{"android":"levelo://app?vid=0148741c-a4fa-4d3e-8ab1-45692b8afebc","ios":"levelo://app?vid=0148741c-a4fa-4d3e-8ab1-45692b8afebc"},"vehicle_type_id":"4","last_reported":1692295711,"current_range_meters":400,"station_id":"ce4bhr12rcd13ifvqhpg","pricing_plan_id":"free"},{"bike_id":"c0af49d0-1d38-4ac7-95d7-4530f1cff152","system_id":"levelo_inurba_marseille","lat":43.313571,"lon":5.384829,"is_reserved":false,"is_disabled":false,"rental_uris":{"android":"levelo://app?vid=c0af49d0-1d38-4ac7-95d7-4530f1cff152","ios":"levelo://app?vid=c0af49d0-1d38-4ac7-95d7-4530f1cff152"},"vehicle_type_id":"4","last_reported":1692295711,"current_range_meters":14000,"station_id":"ce4bgt92rcd13ifvqcf0","pricing_plan_id":"free"},{"bike_id":"5613ce6a-04e8-45c0-a991-53d7d8bacc92","system_id":"levelo_inurba_marseille","lat":43.305364,"lon":5.384119,"is_reserved":false,"is_disabled":false,"rental_uris":{"android":"levelo://app?vid=5613ce6a-04e8-45c0-a991-53d7d8bacc92","ios":"levelo://app?vid=5613ce6a-04e8-45c0-a991-53d7d8bacc92"},"vehicle_type_id":"4","last_reported":1692295711,"current_range_meters":30000,"station_id":"ce4bgg92rcd13ifvqb30","pricing_plan_id":"free"},{"bike_id":"77357bbe-63f4-4a71-8d37-0ba572bee780","system_id":"levelo_inurba_marseille","lat":43.298433,"lon":5.362774,"is_reserved":false,"is_disabled":false,"rental_uris":{"android":"levelo://app?vid=77357bbe-63f4-4a71-8d37-0ba572bee780","ios":"levelo://app?vid=77357bbe-63f4-4a71-8d37-0ba572bee780"},"vehicle_type_id":"4","last_reported":1692295711,"current_range_meters":400,"station_id":"ce4bgpp2rcd13ifvqc3g","pricing_plan_id":"free"},{"bike_id":"cb9ad0ea-bf1b-4de6-944a-8c4d9e20f653","system_id":"levelo_inurba_marseille","lat":43.298433,"lon":5.362774,"is_reserved":false,"is_disabled":false,"rental_uris":{"android":"levelo://app?vid=cb9ad0ea-bf1b-4de6-944a-8c4d9e20f653","ios":"levelo://app?vid=cb9ad0ea-bf1b-4de6-944a-8c4d9e20f653"},"vehicle_type_id":"4","last_reported":1692295711,"current_range_meters":26800,"station_id":"ce4bgpp2rcd13ifvqc3g","pricing_plan_id":"free"},{"bike_id":"6a311fd8-cad8-457f-ab66-0afb392f7722","system_id":"levelo_inurba_marseille","lat":43.298433,"lon":5.362774,"is_reserved":false,"is_disabled":false,"rental_uris":{"android":"levelo://app?vid=6a311fd8-cad8-457f-ab66-0afb392f7722","ios":"levelo://app?vid=6a311fd8-cad8-457f-ab66-0afb392f7722"},"vehicle_type_id":"4","last_reported":1692295711,"current_range_meters":400,"station_id":"ce4bgpp2rcd13ifvqc3g","pricing_plan_id":"free"},{"bike_id":"b8afe51c-79e4-48a7-b274-1f1954012c56","system_id":"levelo_inurba_marseille","lat":43.311722,"lon":5.387247,"is_reserved":false,"is_disabled":false,"rental_uris":{"android":"levelo://app?vid=b8afe51c-79e4-48a7-b274-1f1954012c56","ios":"levelo://app?vid=b8afe51c-79e4-48a7-b274-1f1954012c56"},"vehicle_type_id":"4","last_reported":1692295711,"current_range_meters":22800,"station_id":"ce4bgv12rcd13ifvqcp0","pricing_plan_id":"free"},{"bike_id":"67c43f86-fcb6-41cc-8957-c0d7033c94b6","system_id":"levelo_inurba_marseille","lat":43.322872,"lon":5.382756,"is_reserved":false,"is_disabled":false,"rental_uris":{"android":"levelo://app?vid=67c43f86-fcb6-41cc-8957-c0d7033c94b6","ios":"levelo://app?vid=67c43f86-fcb6-41cc-8957-c0d7033c94b6"},"vehicle_type_id":"4","last_reported":1692295711,"current_range_meters":27200,"station_id":"ce4bhr12rcd13ifvqhqg","pricing_plan_id":"free"},{"bike_id":"5b5c8cae-b425-4976-9ba8-5ae205664d6b","system_id":"levelo_inurba_marseille","lat":43.32285,"lon":5.38262,"is_reserved":false,"is_disabled":false,"rental_uris":{"android":"levelo://app?vid=5b5c8cae-b425-4976-9ba8-5ae205664d6b","ios":"levelo://app?vid=5b5c8cae-b425-4976-9ba8-5ae205664d6b"},"vehicle_type_id":"4","last_reported":1692295711,"current_range_meters":28000,"station_id":"ce4bhr12rcd13ifvqhqg","pricing_plan_id":"free"},{"bike_id":"673200d6-9c00-4797-bd65-06254571f6fe","system_id":"levelo_inurba_marseille","lat":43.3229,"lon":5.38262,"is_reserved":false,"is_disabled":false,"rental_uris":{"android":"levelo://app?vid=673200d6-9c00-4797-bd65-06254571f6fe","ios":"levelo://app?vid=673200d6-9c00-4797-bd65-06254571f6fe"},"vehicle_type_id":"4","last_reported":1692295711,"current_range_meters":31200,"station_id":"ce4bhr12rcd13ifvqhqg","pricing_plan_id":"free"},{"bike_id":"2655ed25-ff91-44e2-9350-639e39275cf7","system_id":"levelo_inurba_marseille","lat":43.32287,"lon":5.38268,"is_reserved":false,"is_disabled":false,"rental_uris":{"android":"levelo://app?vid=2655ed25-ff91-44e2-9350-639e39275cf7","ios":"levelo://app?vid=2655ed25-ff91-44e2-9350-639e39275cf7"},"vehicle_type_id":"4","last_reported":1692295711,"current_range_meters":30400,"station_id":"ce4bhr12rcd13ifvqhqg","pricing_plan_id":"free"},{"bike_id":"2b488fa5-6690-49f1-8674-7d2969f31eb4","system_id":"levelo_inurba_marseille","lat":43.322872,"lon":5.382756,"is_reserved":false,"is_disabled":false,"rental_uris":{"android":"levelo://app?vid=2b488fa5-6690-49f1-8674-7d2969f31eb4","ios":"levelo://app?vid=2b488fa5-6690-49f1-8674-7d2969f31eb4"},"vehicle_type_id":"4","last_reported":1692295711,"current_range_meters":21200,"station_id":"ce4bhr12rcd13ifvqhqg","pricing_plan_id":"free"},{"bike_id":"4ea834d1-267f-41ec-b789-6c09255ff5cc","system_id":"levelo_inurba_marseille","lat":43.32288,"lon":5.38269,"is_reserved":false,"is_disabled":false,"rental_uris":{"android":"levelo://app?vid=4ea834d1-267f-41ec-b789-6c09255ff5cc","ios":"levelo://app?vid=4ea834d1-267f-41ec-b789-6c09255ff5cc"},"vehicle_type_id":"4","last_reported":1692295711,"current_range_meters":28400,"station_id":"ce4bhr12rcd13ifvqhqg","pricing_plan_id":"free"},{"bike_id":"5f91fc7d-0833-4a7c-a0d8-21ec0ad5455a","system_id":"levelo_inurba_marseille","lat":43.32294,"lon":5.38262,"is_reserved":false,"is_disabled":false,"rental_uris":{"android":"levelo://app?vid=5f91fc7d-0833-4a7c-a0d8-21ec0ad5455a","ios":"levelo://app?vid=5f91fc7d-0833-4a7c-a0d8-21ec0ad5455a"},"vehicle_type_id":"4","last_reported":1692295711,"current_range_meters":29600,"station_id":"ce4bhr12rcd13ifvqhqg","pricing_plan_id":"free"},{"bike_id":"20066552-063e-4d3e-9e10-e0e8a6d2c838","system_id":"levelo_inurba_marseille","lat":43.322872,"lon":5.382756,"is_reserved":false,"is_disabled":false,"rental_uris":{"android":"levelo://app?vid=20066552-063e-4d3e-9e10-e0e8a6d2c838","ios":"levelo://app?vid=20066552-063e-4d3e-9e10-e0e8a6d2c838"},"vehicle_type_id":"4","last_reported":1692295711,"current_range_meters":10800,"station_id":"ce4bhr12rcd13ifvqhqg","pricing_plan_id":"free"},{"bike_id":"15120a69-1dc0-488d-b5dc-3813b3f3db2b","system_id":"levelo_inurba_marseille","lat":43.3229,"lon":5.38274,"is_reserved":false,"is_disabled":false,"rental_uris":{"android":"levelo://app?vid=15120a69-1dc0-488d-b5dc-3813b3f3db2b","ios":"levelo://app?vid=15120a69-1dc0-488d-b5dc-3813b3f3db2b"},"vehicle_type_id":"4","last_reported":1692295711,"current_range_meters":6400,"station_id":"ce4bhr12rcd13ifvqhqg","pricing_plan_id":"free"},{"bike_id":"a1f7b084-f437-4e0c-8b20-334f54c48d59","system_id":"levelo_inurba_marseille","lat":43.322872,"lon":5.382756,"is_reserved":false,"is_disabled":false,"rental_uris":{"android":"levelo://app?vid=a1f7b084-f437-4e0c-8b20-334f54c48d59","ios":"levelo://app?vid=a1f7b084-f437-4e0c-8b20-334f54c48d59"},"vehicle_type_id":"4","last_reported":1692295711,"current_range_meters":27200,"station_id":"ce4bhr12rcd13ifvqhqg","pricing_plan_id":"free"},{"bike_id":"b9784bc4-a1f4-4e7b-a996-3746dcc4c656","system_id":"levelo_inurba_marseille","lat":43.32288,"lon":5.38279,"is_reserved":false,"is_disabled":false,"rental_uris":{"android":"levelo://app?vid=b9784bc4-a1f4-4e7b-a996-3746dcc4c656","ios":"levelo://app?vid=b9784bc4-a1f4-4e7b-a996-3746dcc4c656"},"vehicle_type_id":"4","last_reported":1692295711,"current_range_meters":18800,"station_id":"ce4bhr12rcd13ifvqhqg","pricing_plan_id":"free"},{"bike_id":"71ebd10a-ba59-46f1-8364-4c1d1ca6dbfe","system_id":"levelo_inurba_marseille","lat":43.32825,"lon":5.36675,"is_reserved":false,"is_disabled":false,"rental_uris":{"android":"levelo://app?vid=71ebd10a-ba59-46f1-8364-4c1d1ca6dbfe","ios":"levelo://app?vid=71ebd10a-ba59-46f1-8364-4c1d1ca6dbfe"},"vehicle_type_id":"4","last_reported":1692295711,"current_range_meters":8800,"station_id":"ce4bhs92rcd13ifvqi0g","pricing_plan_id":"free"},{"bike_id":"2cacf4ba-30f0-4f40-92af-cee799fe4c0c","system_id":"levelo_inurba_marseille","lat":43.328371,"lon":5.366909,"is_reserved":false,"is_disabled":false,"rental_uris":{"android":"levelo://app?vid=2cacf4ba-30f0-4f40-92af-cee799fe4c0c","ios":"levelo://app?vid=2cacf4ba-30f0-4f40-92af-cee799fe4c0c"},"vehicle_type_id":"4","last_reported":1692295711,"current_range_meters":22400,"station_id":"ce4bhs92rcd13ifvqi0g","pricing_plan_id":"free"},{"bike_id":"3dc8ddfd-e386-4774-938c-dc3a7b25274a","system_id":"levelo_inurba_marseille","lat":43.32828,"lon":5.36679,"is_reserved":false,"is_disabled":false,"rental_uris":{"android":"levelo://app?vid=3dc8ddfd-e386-4774-938c-dc3a7b25274a","ios":"levelo://app?vid=3dc8ddfd-e386-4774-938c-dc3a7b25274a"},"vehicle_type_id":"4","last_reported":1692295711,"current_range_meters":13200,"station_id":"ce4bhs92rcd13ifvqi0g","pricing_plan_id":"free"},{"bike_id":"4ed96fad-2e51-49a2-879d-e8c05ef80263","system_id":"levelo_inurba_marseille","lat":43.328371,"lon":5.366909,"is_reserved":false,"is_disabled":false,"rental_uris":{"android":"levelo://app?vid=4ed96fad-2e51-49a2-879d-e8c05ef80263","ios":"levelo://app?vid=4ed96fad-2e51-49a2-879d-e8c05ef80263"},"vehicle_type_id":"4","last_reported":1692295711,"current_range_meters":9600,"station_id":"ce4bhs92rcd13ifvqi0g","pricing_plan_id":"free"},{"bike_id":"c84822bd-f81b-4f6c-9edf-3a63395bc23a","system_id":"levelo_inurba_marseille","lat":43.32831,"lon":5.36686,"is_reserved":false,"is_disabled":false,"rental_uris":{"android":"levelo://app?vid=c84822bd-f81b-4f6c-9edf-3a63395bc23a","ios":"levelo://app?vid=c84822bd-f81b-4f6c-9edf-3a63395bc23a"},"vehicle_type_id":"4","last_reported":1692295711,"current_range_meters":9200,"station_id":"ce4bhs92rcd13ifvqi0g","pricing_plan_id":"free"},{"bike_id":"56504123-b8fe-479c-b20d-811167e44a23","system_id":"levelo_inurba_marseille","lat":43.328371,"lon":5.366909,"is_reserved":false,"is_disabled":false,"rental_uris":{"android":"levelo://app?vid=56504123-b8fe-479c-b20d-811167e44a23","ios":"levelo://app?vid=56504123-b8fe-479c-b20d-811167e44a23"},"vehicle_type_id":"4","last_reported":1692295711,"current_range_meters":14400,"station_id":"ce4bhs92rcd13ifvqi0g","pricing_plan_id":"free"},{"bike_id":"dd789220-e7b5-42c1-b9dc-dc4243148021","system_id":"levelo_inurba_marseille","lat":43.297163,"lon":5.365866,"is_reserved":false,"is_disabled":false,"rental_uris":{"android":"levelo://app?vid=dd789220-e7b5-42c1-b9dc-dc4243148021","ios":"levelo://app?vid=dd789220-e7b5-42c1-b9dc-dc4243148021"},"vehicle_type_id":"4","last_reported":1692295711,"current_range_meters":31600,"station_id":"ce4bgn12rcd13ifvqbt0","pricing_plan_id":"free"},{"bike_id":"5f8a6ca0-5dfe-4c06-929a-c1030bd48d99","system_id":"levelo_inurba_marseille","lat":43.32838,"lon":5.36683,"is_reserved":false,"is_disabled":false,"rental_uris":{"android":"levelo://app?vid=5f8a6ca0-5dfe-4c06-929a-c1030bd48d99","ios":"levelo://app?vid=5f8a6ca0-5dfe-4c06-929a-c1030bd48d99"},"vehicle_type_id":"4","last_reported":1692295711,"current_range_meters":9600,"station_id":"ce4bhs92rcd13ifvqi0g","pricing_plan_id":"free"},{"bike_id":"86561dc6-7cc9-4121-b562-07815bb86384","system_id":"levelo_inurba_marseille","lat":43.29706,"lon":5.36607,"is_reserved":false,"is_disabled":false,"rental_uris":{"android":"levelo://app?vid=86561dc6-7cc9-4121-b562-07815bb86384","ios":"levelo://app?vid=86561dc6-7cc9-4121-b562-07815bb86384"},"vehicle_type_id":"4","last_reported":1692295711,"current_range_meters":400,"station_id":"","pricing_plan_id":"free"},{"bike_id":"87ea1322-6725-4334-b431-1d19180a15de","system_id":"levelo_inurba_marseille","lat":43.297163,"lon":5.365866,"is_reserved":false,"is_disabled":false,"rental_uris":{"android":"levelo://app?vid=87ea1322-6725-4334-b431-1d19180a15de","ios":"levelo://app?vid=87ea1322-6725-4334-b431-1d19180a15de"},"vehicle_type_id":"4","last_reported":1692295711,"current_range_meters":0,"station_id":"ce4bgn12rcd13ifvqbt0","pricing_plan_id":"free"},{"bike_id":"d3139180-8ba9-4c91-b6e4-8baae3c22113","system_id":"levelo_inurba_marseille","lat":43.296131,"lon":5.370773,"is_reserved":false,"is_disabled":false,"rental_uris":{"android":"levelo://app?vid=d3139180-8ba9-4c91-b6e4-8baae3c22113","ios":"levelo://app?vid=d3139180-8ba9-4c91-b6e4-8baae3c22113"},"vehicle_type_id":"4","last_reported":1692295711,"current_range_meters":31200,"station_id":"ce4bgnh2rcd13ifvqc0g","pricing_plan_id":"free"},{"bike_id":"52d5af07-2fed-46d6-978b-c448de99b28d","system_id":"levelo_inurba_marseille","lat":43.29623,"lon":5.37149,"is_reserved":false,"is_disabled":false,"rental_uris":{"android":"levelo://app?vid=52d5af07-2fed-46d6-978b-c448de99b28d","ios":"levelo://app?vid=52d5af07-2fed-46d6-978b-c448de99b28d"},"vehicle_type_id":"4","last_reported":1692295711,"current_range_meters":0,"station_id":"","pricing_plan_id":"free"},{"bike_id":"bb155e93-116e-494a-9911-2df351c7dae8","system_id":"levelo_inurba_marseille","lat":43.296131,"lon":5.370791,"is_reserved":false,"is_disabled":false,"rental_uris":{"android":"levelo://app?vid=bb155e93-116e-494a-9911-2df351c7dae8","ios":"levelo://app?vid=bb155e93-116e-494a-9911-2df351c7dae8"},"vehicle_type_id":"4","last_reported":1692295711,"current_range_meters":30400,"station_id":"ce4bgnh2rcd13ifvqc0g","pricing_plan_id":"free"},{"bike_id":"0ef2d1d4-91db-438f-bc70-fe0086e712c8","system_id":"levelo_inurba_marseille","lat":43.296131,"lon":5.370773,"is_reserved":false,"is_disabled":false,"rental_uris":{"android":"levelo://app?vid=0ef2d1d4-91db-438f-bc70-fe0086e712c8","ios":"levelo://app?vid=0ef2d1d4-91db-438f-bc70-fe0086e712c8"},"vehicle_type_id":"4","last_reported":1692295711,"current_range_meters":9200,"station_id":"ce4bgnh2rcd13ifvqc0g","pricing_plan_id":"free"},{"bike_id":"1fbe870c-fdd3-4dc1-8f1d-4cadaf73a346","system_id":"levelo_inurba_marseille","lat":43.296131,"lon":5.370773,"is_reserved":false,"is_disabled":false,"rental_uris":{"android":"levelo://app?vid=1fbe870c-fdd3-4dc1-8f1d-4cadaf73a346","ios":"levelo://app?vid=1fbe870c-fdd3-4dc1-8f1d-4cadaf73a346"},"vehicle_type_id":"4","last_reported":1692295711,"current_range_meters":17200,"station_id":"ce4bgnh2rcd13ifvqc0g","pricing_plan_id":"free"},{"bike_id":"effe3adb-c26d-4dd7-87b8-031a86d8d045","system_id":"levelo_inurba_marseille","lat":43.29725,"lon":5.37679,"is_reserved":false,"is_disabled":false,"rental_uris":{"android":"levelo://app?vid=effe3adb-c26d-4dd7-87b8-031a86d8d045","ios":"levelo://app?vid=effe3adb-c26d-4dd7-87b8-031a86d8d045"},"vehicle_type_id":"4","last_reported":1692295711,"current_range_meters":31600,"station_id":"ce4bgkh2rcd13ifvqbl0","pricing_plan_id":"free"},{"bike_id":"23772252-ed32-4ea4-a0a5-e58f33ca7302","system_id":"levelo_inurba_marseille","lat":43.309589,"lon":5.390258,"is_reserved":false,"is_disabled":false,"rental_uris":{"android":"levelo://app?vid=23772252-ed32-4ea4-a0a5-e58f33ca7302","ios":"levelo://app?vid=23772252-ed32-4ea4-a0a5-e58f33ca7302"},"vehicle_type_id":"4","last_reported":1692295711,"current_range_meters":14800,"station_id":"ce4bgup2rcd13ifvqco0","pricing_plan_id":"free"},{"bike_id":"f92c7037-151c-44d6-9184-05299e0b84c1","system_id":"levelo_inurba_marseille","lat":43.299028,"lon":5.381509,"is_reserved":false,"is_disabled":false,"rental_uris":{"android":"levelo://app?vid=f92c7037-151c-44d6-9184-05299e0b84c1","ios":"levelo://app?vid=f92c7037-151c-44d6-9184-05299e0b84c1"},"vehicle_type_id":"4","last_reported":1692295711,"current_range_meters":26000,"station_id":"ce4bgj12rcd13ifvqbc0","pricing_plan_id":"free"},{"bike_id":"6cfd9973-98a9-4d35-b2ff-fa3eeede5474","system_id":"levelo_inurba_marseille","lat":43.29708,"lon":5.37696,"is_reserved":false,"is_disabled":false,"rental_uris":{"android":"levelo://app?vid=6cfd9973-98a9-4d35-b2ff-fa3eeede5474","ios":"levelo://app?vid=6cfd9973-98a9-4d35-b2ff-fa3eeede5474"},"vehicle_type_id":"4","last_reported":1692295711,"current_range_meters":22400,"station_id":"","pricing_plan_id":"free"},{"bike_id":"1ff2de43-09ec-4d92-b75e-08b007be86b2","system_id":"levelo_inurba_marseille","lat":43.317557,"lon":5.390173,"is_reserved":false,"is_disabled":false,"rental_uris":{"android":"levelo://app?vid=1ff2de43-09ec-4d92-b75e-08b007be86b2","ios":"levelo://app?vid=1ff2de43-09ec-4d92-b75e-08b007be86b2"},"vehicle_type_id":"4","last_reported":1692295711,"current_range_meters":25200,"station_id":"ce4bhqp2rcd13ifvqhng","pricing_plan_id":"free"},{"bike_id":"b9a855a0-d9d8-4782-943a-840cbcde0bb8","system_id":"levelo_inurba_marseille","lat":43.31767,"lon":5.39008,"is_reserved":false,"is_disabled":false,"rental_uris":{"android":"levelo://app?vid=b9a855a0-d9d8-4782-943a-840cbcde0bb8","ios":"levelo://app?vid=b9a855a0-d9d8-4782-943a-840cbcde0bb8"},"vehicle_type_id":"4","last_reported":1692295711,"current_range_meters":17200,"station_id":"ce4bhqp2rcd13ifvqhng","pricing_plan_id":"free"},{"bike_id":"3c6b2445-8c43-4148-a53b-b5776ba3fd4d","system_id":"levelo_inurba_marseille","lat":43.298037,"lon":5.381066,"is_reserved":false,"is_disabled":false,"rental_uris":{"android":"levelo://app?vid=3c6b2445-8c43-4148-a53b-b5776ba3fd4d","ios":"levelo://app?vid=3c6b2445-8c43-4148-a53b-b5776ba3fd4d"},"vehicle_type_id":"4","last_reported":1692295711,"current_range_meters":19200,"station_id":"ce4bgip2rcd13ifvqbb0","pricing_plan_id":"free"},{"bike_id":"3d1b7d97-8aef-4c59-8a9b-544fcb469803","system_id":"levelo_inurba_marseille","lat":43.298037,"lon":5.381066,"is_reserved":false,"is_disabled":false,"rental_uris":{"android":"levelo://app?vid=3d1b7d97-8aef-4c59-8a9b-544fcb469803","ios":"levelo://app?vid=3d1b7d97-8aef-4c59-8a9b-544fcb469803"},"vehicle_type_id":"4","last_reported":1692295711,"current_range_meters":30400,"station_id":"ce4bgip2rcd13ifvqbb0","pricing_plan_id":"free"},{"bike_id":"9fa206a9-cfc0-43cb-87c5-e512d569a278","system_id":"levelo_inurba_marseille","lat":43.298037,"lon":5.381066,"is_reserved":false,"is_disabled":false,"rental_uris":{"android":"levelo://app?vid=9fa206a9-cfc0-43cb-87c5-e512d569a278","ios":"levelo://app?vid=9fa206a9-cfc0-43cb-87c5-e512d569a278"},"vehicle_type_id":"4","last_reported":1692295711,"current_range_meters":9600,"station_id":"ce4bgip2rcd13ifvqbb0","pricing_plan_id":"free"},{"bike_id":"5a3eda74-fc74-44b0-872c-6b1a5569a86d","system_id":"levelo_inurba_marseille","lat":43.29796,"lon":5.38095,"is_reserved":false,"is_disabled":false,"rental_uris":{"android":"levelo://app?vid=5a3eda74-fc74-44b0-872c-6b1a5569a86d","ios":"levelo://app?vid=5a3eda74-fc74-44b0-872c-6b1a5569a86d"},"vehicle_type_id":"4","last_reported":1692295711,"current_range_meters":4400,"station_id":"","pricing_plan_id":"free"},{"bike_id":"a4df99ce-0488-49dd-a888-94686f562e88","system_id":"levelo_inurba_marseille","lat":43.295748,"lon":5.37522,"is_reserved":false,"is_disabled":false,"rental_uris":{"android":"levelo://app?vid=a4df99ce-0488-49dd-a888-94686f562e88","ios":"levelo://app?vid=a4df99ce-0488-49dd-a888-94686f562e88"},"vehicle_type_id":"4","last_reported":1692295711,"current_range_meters":27600,"station_id":"ce4bgh92rcd13ifvqb50","pricing_plan_id":"free"},{"bike_id":"e7a4d2a7-29a6-42ee-9f84-a9069712dd18","system_id":"levelo_inurba_marseille","lat":43.299707,"lon":5.384859,"is_reserved":false,"is_disabled":false,"rental_uris":{"android":"levelo://app?vid=e7a4d2a7-29a6-42ee-9f84-a9069712dd18","ios":"levelo://app?vid=e7a4d2a7-29a6-42ee-9f84-a9069712dd18"},"vehicle_type_id":"4","last_reported":1692295711,"current_range_meters":1200,"station_id":"ce4bgj92rcd13ifvqbd0","pricing_plan_id":"free"},{"bike_id":"60d7a431-9f13-40c0-8d11-b06fc3955d8e","system_id":"levelo_inurba_marseille","lat":43.29984,"lon":5.38495,"is_reserved":false,"is_disabled":false,"rental_uris":{"android":"levelo://app?vid=60d7a431-9f13-40c0-8d11-b06fc3955d8e","ios":"levelo://app?vid=60d7a431-9f13-40c0-8d11-b06fc3955d8e"},"vehicle_type_id":"4","last_reported":1692295711,"current_range_meters":11600,"station_id":"ce4bgj92rcd13ifvqbd0","pricing_plan_id":"free"},{"bike_id":"29970c01-9f99-47a0-9cd0-87c13846b358","system_id":"levelo_inurba_marseille","lat":43.299707,"lon":5.384859,"is_reserved":false,"is_disabled":false,"rental_uris":{"android":"levelo://app?vid=29970c01-9f99-47a0-9cd0-87c13846b358","ios":"levelo://app?vid=29970c01-9f99-47a0-9cd0-87c13846b358"},"vehicle_type_id":"4","last_reported":1692295711,"current_range_meters":7600,"station_id":"ce4bgj92rcd13ifvqbd0","pricing_plan_id":"free"},{"bike_id":"afd7994c-e444-4771-8bbc-0b2ab26b881f","system_id":"levelo_inurba_marseille","lat":43.299707,"lon":5.384859,"is_reserved":false,"is_disabled":false,"rental_uris":{"android":"levelo://app?vid=afd7994c-e444-4771-8bbc-0b2ab26b881f","ios":"levelo://app?vid=afd7994c-e444-4771-8bbc-0b2ab26b881f"},"vehicle_type_id":"4","last_reported":1692295711,"current_range_meters":13600,"station_id":"ce4bgj92rcd13ifvqbd0","pricing_plan_id":"free"},{"bike_id":"38953ee2-68d0-4a31-8b7a-2b8a21464363","system_id":"levelo_inurba_marseille","lat":43.299707,"lon":5.384859,"is_reserved":false,"is_disabled":false,"rental_uris":{"android":"levelo://app?vid=38953ee2-68d0-4a31-8b7a-2b8a21464363","ios":"levelo://app?vid=38953ee2-68d0-4a31-8b7a-2b8a21464363"},"vehicle_type_id":"4","last_reported":1692295711,"current_range_meters":11200,"station_id":"ce4bgj92rcd13ifvqbd0","pricing_plan_id":"free"},{"bike_id":"5ed6d1bd-e7df-43c4-a20f-6f29b20c82f7","system_id":"levelo_inurba_marseille","lat":43.29972,"lon":5.38489,"is_reserved":false,"is_disabled":false,"rental_uris":{"android":"levelo://app?vid=5ed6d1bd-e7df-43c4-a20f-6f29b20c82f7","ios":"levelo://app?vid=5ed6d1bd-e7df-43c4-a20f-6f29b20c82f7"},"vehicle_type_id":"4","last_reported":1692295711,"current_range_meters":24800,"station_id":"","pricing_plan_id":"free"},{"bike_id":"a6abbb6b-ff44-49c1-be4c-e6e894f49da9","system_id":"levelo_inurba_marseille","lat":43.29971,"lon":5.38492,"is_reserved":false,"is_disabled":false,"rental_uris":{"android":"levelo://app?vid=a6abbb6b-ff44-49c1-be4c-e6e894f49da9","ios":"levelo://app?vid=a6abbb6b-ff44-49c1-be4c-e6e894f49da9"},"vehicle_type_id":"4","last_reported":1692295711,"current_range_meters":13600,"station_id":"ce4bgj92rcd13ifvqbd0","pricing_plan_id":"free"},{"bike_id":"41211202-068a-447a-a6f2-53fd34d5e66b","system_id":"levelo_inurba_marseille","lat":43.30119,"lon":5.38749,"is_reserved":false,"is_disabled":false,"rental_uris":{"android":"levelo://app?vid=41211202-068a-447a-a6f2-53fd34d5e66b","ios":"levelo://app?vid=41211202-068a-447a-a6f2-53fd34d5e66b"},"vehicle_type_id":"4","last_reported":1692295711,"current_range_meters":2800,"station_id":"","pricing_plan_id":"free"},{"bike_id":"4314cd19-09e7-4af1-900a-88512d095e20","system_id":"levelo_inurba_marseille","lat":43.32365,"lon":5.38874,"is_reserved":false,"is_disabled":false,"rental_uris":{"android":"levelo://app?vid=4314cd19-09e7-4af1-900a-88512d095e20","ios":"levelo://app?vid=4314cd19-09e7-4af1-900a-88512d095e20"},"vehicle_type_id":"4","last_reported":1692295711,"current_range_meters":16800,"station_id":"ce4bhqp2rcd13ifvqhog","pricing_plan_id":"free"},{"bike_id":"450b6384-3b45-4695-a86b-848539f6da31","system_id":"levelo_inurba_marseille","lat":43.32362,"lon":5.3888,"is_reserved":false,"is_disabled":false,"rental_uris":{"android":"levelo://app?vid=450b6384-3b45-4695-a86b-848539f6da31","ios":"levelo://app?vid=450b6384-3b45-4695-a86b-848539f6da31"},"vehicle_type_id":"4","last_reported":1692295711,"current_range_meters":18400,"station_id":"ce4bhqp2rcd13ifvqhog","pricing_plan_id":"free"},{"bike_id":"32a579f4-a77e-4089-9137-3fc22c8afa17","system_id":"levelo_inurba_marseille","lat":43.32364,"lon":5.38879,"is_reserved":false,"is_disabled":false,"rental_uris":{"android":"levelo://app?vid=32a579f4-a77e-4089-9137-3fc22c8afa17","ios":"levelo://app?vid=32a579f4-a77e-4089-9137-3fc22c8afa17"},"vehicle_type_id":"4","last_reported":1692295711,"current_range_meters":25200,"station_id":"ce4bhqp2rcd13ifvqhog","pricing_plan_id":"free"},{"bike_id":"55f08f4d-333e-4077-9882-16e72e12ddbf","system_id":"levelo_inurba_marseille","lat":43.32367,"lon":5.38877,"is_reserved":false,"is_disabled":false,"rental_uris":{"android":"levelo://app?vid=55f08f4d-333e-4077-9882-16e72e12ddbf","ios":"levelo://app?vid=55f08f4d-333e-4077-9882-16e72e12ddbf"},"vehicle_type_id":"4","last_reported":1692295711,"current_range_meters":14000,"station_id":"ce4bhqp2rcd13ifvqhog","pricing_plan_id":"free"},{"bike_id":"493070c9-f70b-4b47-b30c-92320f3520ef","system_id":"levelo_inurba_marseille","lat":43.32367,"lon":5.38878,"is_reserved":false,"is_disabled":false,"rental_uris":{"android":"levelo://app?vid=493070c9-f70b-4b47-b30c-92320f3520ef","ios":"levelo://app?vid=493070c9-f70b-4b47-b30c-92320f3520ef"},"vehicle_type_id":"4","last_reported":1692295711,"current_range_meters":3200,"station_id":"ce4bhqp2rcd13ifvqhog","pricing_plan_id":"free"},{"bike_id":"1b5c2691-bd33-46db-b85d-232fc0684773","system_id":"levelo_inurba_marseille","lat":43.32365,"lon":5.38881,"is_reserved":false,"is_disabled":false,"rental_uris":{"android":"levelo://app?vid=1b5c2691-bd33-46db-b85d-232fc0684773","ios":"levelo://app?vid=1b5c2691-bd33-46db-b85d-232fc0684773"},"vehicle_type_id":"4","last_reported":1692295711,"current_range_meters":27200,"station_id":"ce4bhqp2rcd13ifvqhog","pricing_plan_id":"free"},{"bike_id":"6b6cba89-d2b8-44bb-8454-5df08cf65f67","system_id":"levelo_inurba_marseille","lat":43.32368,"lon":5.38879,"is_reserved":false,"is_disabled":false,"rental_uris":{"android":"levelo://app?vid=6b6cba89-d2b8-44bb-8454-5df08cf65f67","ios":"levelo://app?vid=6b6cba89-d2b8-44bb-8454-5df08cf65f67"},"vehicle_type_id":"4","last_reported":1692295711,"current_range_meters":22000,"station_id":"ce4bhqp2rcd13ifvqhog","pricing_plan_id":"free"},{"bike_id":"63396931-3c86-400b-9cfa-e42c81141461","system_id":"levelo_inurba_marseille","lat":43.32368,"lon":5.3888,"is_reserved":false,"is_disabled":false,"rental_uris":{"android":"levelo://app?vid=63396931-3c86-400b-9cfa-e42c81141461","ios":"levelo://app?vid=63396931-3c86-400b-9cfa-e42c81141461"},"vehicle_type_id":"4","last_reported":1692295711,"current_range_meters":18800,"station_id":"ce4bhqp2rcd13ifvqhog","pricing_plan_id":"free"},{"bike_id":"5deca036-ea7a-461b-9966-cca000531f2a","system_id":"levelo_inurba_marseille","lat":43.32367,"lon":5.388836,"is_reserved":false,"is_disabled":false,"rental_uris":{"android":"levelo://app?vid=5deca036-ea7a-461b-9966-cca000531f2a","ios":"levelo://app?vid=5deca036-ea7a-461b-9966-cca000531f2a"},"vehicle_type_id":"4","last_reported":1692295711,"current_range_meters":24400,"station_id":"ce4bhqp2rcd13ifvqhog","pricing_plan_id":"free"},{"bike_id":"cbffe489-c68c-4e68-b63d-cbf52cd3cc48","system_id":"levelo_inurba_marseille","lat":43.32365,"lon":5.38886,"is_reserved":false,"is_disabled":false,"rental_uris":{"android":"levelo://app?vid=cbffe489-c68c-4e68-b63d-cbf52cd3cc48","ios":"levelo://app?vid=cbffe489-c68c-4e68-b63d-cbf52cd3cc48"},"vehicle_type_id":"4","last_reported":1692295711,"current_range_meters":29200,"station_id":"ce4bhqp2rcd13ifvqhog","pricing_plan_id":"free"},{"bike_id":"810e5c4e-cfbd-4fb4-b6d8-02289cde4c80","system_id":"levelo_inurba_marseille","lat":43.32367,"lon":5.388836,"is_reserved":false,"is_disabled":false,"rental_uris":{"android":"levelo://app?vid=810e5c4e-cfbd-4fb4-b6d8-02289cde4c80","ios":"levelo://app?vid=810e5c4e-cfbd-4fb4-b6d8-02289cde4c80"},"vehicle_type_id":"4","last_reported":1692295711,"current_range_meters":21600,"station_id":"ce4bhqp2rcd13ifvqhog","pricing_plan_id":"free"},{"bike_id":"8eeb1049-b3eb-4b20-ab1f-7e19a52992fe","system_id":"levelo_inurba_marseille","lat":43.292749,"lon":5.368398,"is_reserved":false,"is_disabled":false,"rental_uris":{"android":"levelo://app?vid=8eeb1049-b3eb-4b20-ab1f-7e19a52992fe","ios":"levelo://app?vid=8eeb1049-b3eb-4b20-ab1f-7e19a52992fe"},"vehicle_type_id":"4","last_reported":1692295711,"current_range_meters":1200,"station_id":"ce4bhbp2rcd13ifvqesg","pricing_plan_id":"free"},{"bike_id":"bed4c4ff-b30a-468e-94bc-52c2090ddbac","system_id":"levelo_inurba_marseille","lat":43.293009,"lon":5.374584,"is_reserved":false,"is_disabled":false,"rental_uris":{"android":"levelo://app?vid=bed4c4ff-b30a-468e-94bc-52c2090ddbac","ios":"levelo://app?vid=bed4c4ff-b30a-468e-94bc-52c2090ddbac"},"vehicle_type_id":"4","last_reported":1692295711,"current_range_meters":30800,"station_id":"ce4bgi12rcd13ifvqb70","pricing_plan_id":"free"},{"bike_id":"38fef587-7cc5-4800-b069-87b8f296a10a","system_id":"levelo_inurba_marseille","lat":43.293009,"lon":5.374584,"is_reserved":false,"is_disabled":false,"rental_uris":{"android":"levelo://app?vid=38fef587-7cc5-4800-b069-87b8f296a10a","ios":"levelo://app?vid=38fef587-7cc5-4800-b069-87b8f296a10a"},"vehicle_type_id":"4","last_reported":1692295711,"current_range_meters":31200,"station_id":"ce4bgi12rcd13ifvqb70","pricing_plan_id":"free"},{"bike_id":"b4ddc978-fc4e-455f-8267-2a8a74f31cbd","system_id":"levelo_inurba_marseille","lat":43.2936,"lon":5.37835,"is_reserved":false,"is_disabled":false,"rental_uris":{"android":"levelo://app?vid=b4ddc978-fc4e-455f-8267-2a8a74f31cbd","ios":"levelo://app?vid=b4ddc978-fc4e-455f-8267-2a8a74f31cbd"},"vehicle_type_id":"4","last_reported":1692295711,"current_range_meters":1600,"station_id":"ce4bgjh2rcd13ifvqbf0","pricing_plan_id":"free"},{"bike_id":"0b4117e4-f810-49d2-adc0-934e3bb0cb8a","system_id":"levelo_inurba_marseille","lat":43.30085,"lon":5.390856,"is_reserved":false,"is_disabled":false,"rental_uris":{"android":"levelo://app?vid=0b4117e4-f810-49d2-adc0-934e3bb0cb8a","ios":"levelo://app?vid=0b4117e4-f810-49d2-adc0-934e3bb0cb8a"},"vehicle_type_id":"4","last_reported":1692295711,"current_range_meters":8800,"station_id":"ce4bh192rcd13ifvqdb0","pricing_plan_id":"free"},{"bike_id":"ad72a876-369b-40af-bcb1-4d6f66ffd2f4","system_id":"levelo_inurba_marseille","lat":43.292311,"lon":5.360731,"is_reserved":false,"is_disabled":false,"rental_uris":{"android":"levelo://app?vid=ad72a876-369b-40af-bcb1-4d6f66ffd2f4","ios":"levelo://app?vid=ad72a876-369b-40af-bcb1-4d6f66ffd2f4"},"vehicle_type_id":"4","last_reported":1692295711,"current_range_meters":10400,"station_id":"ce4bhbh2rcd13ifvqeqg","pricing_plan_id":"free"},{"bike_id":"c7ee3cb1-db50-4978-90e3-6d82773b0c32","system_id":"levelo_inurba_marseille","lat":43.231562,"lon":5.436933,"is_reserved":false,"is_disabled":false,"rental_uris":{"android":"levelo://app?vid=c7ee3cb1-db50-4978-90e3-6d82773b0c32","ios":"levelo://app?vid=c7ee3cb1-db50-4978-90e3-6d82773b0c32"},"vehicle_type_id":"4","last_reported":1692295711,"current_range_meters":31200,"station_id":"ce4bhmp2rcd13ifvqgog","pricing_plan_id":"free"},{"bike_id":"9f9da1bf-b178-40bf-9a29-56851ba112d3","system_id":"levelo_inurba_marseille","lat":43.305994,"lon":5.393687,"is_reserved":false,"is_disabled":false,"rental_uris":{"android":"levelo://app?vid=9f9da1bf-b178-40bf-9a29-56851ba112d3","ios":"levelo://app?vid=9f9da1bf-b178-40bf-9a29-56851ba112d3"},"vehicle_type_id":"4","last_reported":1692295711,"current_range_meters":3600,"station_id":"ce4bh0p2rcd13ifvqd80","pricing_plan_id":"free"},{"bike_id":"a863b590-3ec4-464c-8602-006fa81a3d3f","system_id":"levelo_inurba_marseille","lat":43.291994,"lon":5.357886,"is_reserved":false,"is_disabled":false,"rental_uris":{"android":"levelo://app?vid=a863b590-3ec4-464c-8602-006fa81a3d3f","ios":"levelo://app?vid=a863b590-3ec4-464c-8602-006fa81a3d3f"},"vehicle_type_id":"4","last_reported":1692295711,"current_range_meters":14000,"station_id":"ce4bhb12rcd13ifvqel0","pricing_plan_id":"free"},{"bike_id":"55446b50-0939-4406-904c-f34271435a98","system_id":"levelo_inurba_marseille","lat":43.291994,"lon":5.357886,"is_reserved":false,"is_disabled":false,"rental_uris":{"android":"levelo://app?vid=55446b50-0939-4406-904c-f34271435a98","ios":"levelo://app?vid=55446b50-0939-4406-904c-f34271435a98"},"vehicle_type_id":"4","last_reported":1692295711,"current_range_meters":2000,"station_id":"ce4bhb12rcd13ifvqel0","pricing_plan_id":"free"},{"bike_id":"c6a53511-8382-44ff-a0c2-abef0bdcc3f1","system_id":"levelo_inurba_marseille","lat":43.30884,"lon":5.3965,"is_reserved":false,"is_disabled":false,"rental_uris":{"android":"levelo://app?vid=c6a53511-8382-44ff-a0c2-abef0bdcc3f1","ios":"levelo://app?vid=c6a53511-8382-44ff-a0c2-abef0bdcc3f1"},"vehicle_type_id":"4","last_reported":1692295711,"current_range_meters":2800,"station_id":"ce4bh012rcd13ifvqcv0","pricing_plan_id":"free"},{"bike_id":"889f6220-c234-4c19-8020-bc2f2d271280","system_id":"levelo_inurba_marseille","lat":43.30886,"lon":5.39651,"is_reserved":false,"is_disabled":false,"rental_uris":{"android":"levelo://app?vid=889f6220-c234-4c19-8020-bc2f2d271280","ios":"levelo://app?vid=889f6220-c234-4c19-8020-bc2f2d271280"},"vehicle_type_id":"4","last_reported":1692295711,"current_range_meters":3200,"station_id":"ce4bh012rcd13ifvqcv0","pricing_plan_id":"free"},{"bike_id":"0b137d7c-4cfd-41eb-93d6-5655ae031dd9","system_id":"levelo_inurba_marseille","lat":43.309038,"lon":5.396546,"is_reserved":false,"is_disabled":false,"rental_uris":{"android":"levelo://app?vid=0b137d7c-4cfd-41eb-93d6-5655ae031dd9","ios":"levelo://app?vid=0b137d7c-4cfd-41eb-93d6-5655ae031dd9"},"vehicle_type_id":"4","last_reported":1692295711,"current_range_meters":14400,"station_id":"ce4bh012rcd13ifvqcv0","pricing_plan_id":"free"},{"bike_id":"063e6424-6644-4b0d-93f9-58aabea99911","system_id":"levelo_inurba_marseille","lat":43.309038,"lon":5.396546,"is_reserved":false,"is_disabled":false,"rental_uris":{"android":"levelo://app?vid=063e6424-6644-4b0d-93f9-58aabea99911","ios":"levelo://app?vid=063e6424-6644-4b0d-93f9-58aabea99911"},"vehicle_type_id":"4","last_reported":1692295711,"current_range_meters":1200,"station_id":"ce4bh012rcd13ifvqcv0","pricing_plan_id":"free"},{"bike_id":"55a5c5d2-c777-479a-b403-fa33d8729524","system_id":"levelo_inurba_marseille","lat":43.289184,"lon":5.366408,"is_reserved":false,"is_disabled":false,"rental_uris":{"android":"levelo://app?vid=55a5c5d2-c777-479a-b403-fa33d8729524","ios":"levelo://app?vid=55a5c5d2-c777-479a-b403-fa33d8729524"},"vehicle_type_id":"4","last_reported":1692295711,"current_range_meters":4800,"station_id":"ce4bhap2rcd13ifvqek0","pricing_plan_id":"free"},{"bike_id":"43b7297c-5da0-4b86-821c-b10dfd2b4617","system_id":"levelo_inurba_marseille","lat":43.302124,"lon":5.394726,"is_reserved":false,"is_disabled":false,"rental_uris":{"android":"levelo://app?vid=43b7297c-5da0-4b86-821c-b10dfd2b4617","ios":"levelo://app?vid=43b7297c-5da0-4b86-821c-b10dfd2b4617"},"vehicle_type_id":"4","last_reported":1692295711,"current_range_meters":21600,"station_id":"","pricing_plan_id":"free"},{"bike_id":"27159e67-733d-4284-8424-7917c0f10ac1","system_id":"levelo_inurba_marseille","lat":43.294153,"lon":5.386305,"is_reserved":false,"is_disabled":false,"rental_uris":{"android":"levelo://app?vid=27159e67-733d-4284-8424-7917c0f10ac1","ios":"levelo://app?vid=27159e67-733d-4284-8424-7917c0f10ac1"},"vehicle_type_id":"4","last_reported":1692295711,"current_range_meters":30000,"station_id":"ce4bh2h2rcd13ifvqdh0","pricing_plan_id":"free"},{"bike_id":"a7e66736-1e98-4471-bcb1-7bd959408f4e","system_id":"levelo_inurba_marseille","lat":43.294153,"lon":5.386305,"is_reserved":false,"is_disabled":false,"rental_uris":{"android":"levelo://app?vid=a7e66736-1e98-4471-bcb1-7bd959408f4e","ios":"levelo://app?vid=a7e66736-1e98-4471-bcb1-7bd959408f4e"},"vehicle_type_id":"4","last_reported":1692295711,"current_range_meters":28400,"station_id":"ce4bh2h2rcd13ifvqdh0","pricing_plan_id":"free"},{"bike_id":"3133b808-a924-4b70-98a6-16ee26e8ea07","system_id":"levelo_inurba_marseille","lat":43.294153,"lon":5.386305,"is_reserved":false,"is_disabled":false,"rental_uris":{"android":"levelo://app?vid=3133b808-a924-4b70-98a6-16ee26e8ea07","ios":"levelo://app?vid=3133b808-a924-4b70-98a6-16ee26e8ea07"},"vehicle_type_id":"4","last_reported":1692295711,"current_range_meters":0,"station_id":"ce4bh2h2rcd13ifvqdh0","pricing_plan_id":"free"},{"bike_id":"5fe456ed-9dca-408f-96ae-ce9c3c4ce6ef","system_id":"levelo_inurba_marseille","lat":43.294153,"lon":5.386305,"is_reserved":false,"is_disabled":false,"rental_uris":{"android":"levelo://app?vid=5fe456ed-9dca-408f-96ae-ce9c3c4ce6ef","ios":"levelo://app?vid=5fe456ed-9dca-408f-96ae-ce9c3c4ce6ef"},"vehicle_type_id":"4","last_reported":1692295711,"current_range_meters":1200,"station_id":"ce4bh2h2rcd13ifvqdh0","pricing_plan_id":"free"},{"bike_id":"ad0a609d-8802-40a6-8356-2d8de5e14ee8","system_id":"levelo_inurba_marseille","lat":43.294153,"lon":5.386305,"is_reserved":false,"is_disabled":false,"rental_uris":{"android":"levelo://app?vid=ad0a609d-8802-40a6-8356-2d8de5e14ee8","ios":"levelo://app?vid=ad0a609d-8802-40a6-8356-2d8de5e14ee8"},"vehicle_type_id":"4","last_reported":1692295711,"current_range_meters":0,"station_id":"ce4bh2h2rcd13ifvqdh0","pricing_plan_id":"free"},{"bike_id":"624651aa-3aef-4079-9c4c-ba85eb006eaf","system_id":"levelo_inurba_marseille","lat":43.294153,"lon":5.386305,"is_reserved":false,"is_disabled":false,"rental_uris":{"android":"levelo://app?vid=624651aa-3aef-4079-9c4c-ba85eb006eaf","ios":"levelo://app?vid=624651aa-3aef-4079-9c4c-ba85eb006eaf"},"vehicle_type_id":"4","last_reported":1692295711,"current_range_meters":2800,"station_id":"ce4bh2h2rcd13ifvqdh0","pricing_plan_id":"free"},{"bike_id":"a4ee33a9-e43b-48a9-980c-36758c664f57","system_id":"levelo_inurba_marseille","lat":43.29416,"lon":5.38618,"is_reserved":false,"is_disabled":false,"rental_uris":{"android":"levelo://app?vid=a4ee33a9-e43b-48a9-980c-36758c664f57","ios":"levelo://app?vid=a4ee33a9-e43b-48a9-980c-36758c664f57"},"vehicle_type_id":"4","last_reported":1692295711,"current_range_meters":14800,"station_id":"","pricing_plan_id":"free"},{"bike_id":"633b422b-2281-482e-8a2f-53896466d2a7","system_id":"levelo_inurba_marseille","lat":43.294153,"lon":5.386305,"is_reserved":false,"is_disabled":false,"rental_uris":{"android":"levelo://app?vid=633b422b-2281-482e-8a2f-53896466d2a7","ios":"levelo://app?vid=633b422b-2281-482e-8a2f-53896466d2a7"},"vehicle_type_id":"4","last_reported":1692295711,"current_range_meters":3600,"station_id":"ce4bh2h2rcd13ifvqdh0","pricing_plan_id":"free"},{"bike_id":"216973df-e600-480e-95bf-2e63657fe976","system_id":"levelo_inurba_marseille","lat":43.294153,"lon":5.386305,"is_reserved":false,"is_disabled":false,"rental_uris":{"android":"levelo://app?vid=216973df-e600-480e-95bf-2e63657fe976","ios":"levelo://app?vid=216973df-e600-480e-95bf-2e63657fe976"},"vehicle_type_id":"4","last_reported":1692295711,"current_range_meters":26400,"station_id":"ce4bh2h2rcd13ifvqdh0","pricing_plan_id":"free"},{"bike_id":"b62184b7-eb1c-4ea3-afd5-e8bafda333bf","system_id":"levelo_inurba_marseille","lat":43.289184,"lon":5.366408,"is_reserved":false,"is_disabled":false,"rental_uris":{"android":"levelo://app?vid=b62184b7-eb1c-4ea3-afd5-e8bafda333bf","ios":"levelo://app?vid=b62184b7-eb1c-4ea3-afd5-e8bafda333bf"},"vehicle_type_id":"4","last_reported":1692295711,"current_range_meters":8800,"station_id":"ce4bhap2rcd13ifvqek0","pricing_plan_id":"free"},{"bike_id":"930b3ec8-39c8-45e7-bf9d-3ee451f5577c","system_id":"levelo_inurba_marseille","lat":43.231562,"lon":5.436933,"is_reserved":false,"is_disabled":false,"rental_uris":{"android":"levelo://app?vid=930b3ec8-39c8-45e7-bf9d-3ee451f5577c","ios":"levelo://app?vid=930b3ec8-39c8-45e7-bf9d-3ee451f5577c"},"vehicle_type_id":"4","last_reported":1692295711,"current_range_meters":4400,"station_id":"ce4bhmp2rcd13ifvqgog","pricing_plan_id":"free"},{"bike_id":"be005e4f-d207-40fd-bd99-241d744b2797","system_id":"levelo_inurba_marseille","lat":43.33039,"lon":5.38915,"is_reserved":false,"is_disabled":false,"rental_uris":{"android":"levelo://app?vid=be005e4f-d207-40fd-bd99-241d744b2797","ios":"levelo://app?vid=be005e4f-d207-40fd-bd99-241d744b2797"},"vehicle_type_id":"4","last_reported":1692295711,"current_range_meters":10800,"station_id":"ce4bhr92rcd13ifvqhrg","pricing_plan_id":"free"},{"bike_id":"859ece1b-eaf2-4429-915d-1d151e169e7f","system_id":"levelo_inurba_marseille","lat":43.33037,"lon":5.3892,"is_reserved":false,"is_disabled":false,"rental_uris":{"android":"levelo://app?vid=859ece1b-eaf2-4429-915d-1d151e169e7f","ios":"levelo://app?vid=859ece1b-eaf2-4429-915d-1d151e169e7f"},"vehicle_type_id":"4","last_reported":1692295711,"current_range_meters":13600,"station_id":"ce4bhr92rcd13ifvqhrg","pricing_plan_id":"free"},{"bike_id":"d4ad8918-8ab6-4278-b772-6948b5c39e1d","system_id":"levelo_inurba_marseille","lat":43.330442,"lon":5.389148,"is_reserved":false,"is_disabled":false,"rental_uris":{"android":"levelo://app?vid=d4ad8918-8ab6-4278-b772-6948b5c39e1d","ios":"levelo://app?vid=d4ad8918-8ab6-4278-b772-6948b5c39e1d"},"vehicle_type_id":"4","last_reported":1692295711,"current_range_meters":16400,"station_id":"ce4bhr92rcd13ifvqhrg","pricing_plan_id":"free"},{"bike_id":"887fe8db-aa91-4cfe-bbdb-b6f88aa94e15","system_id":"levelo_inurba_marseille","lat":43.33042,"lon":5.38916,"is_reserved":false,"is_disabled":false,"rental_uris":{"android":"levelo://app?vid=887fe8db-aa91-4cfe-bbdb-b6f88aa94e15","ios":"levelo://app?vid=887fe8db-aa91-4cfe-bbdb-b6f88aa94e15"},"vehicle_type_id":"4","last_reported":1692295711,"current_range_meters":10400,"station_id":"ce4bhr92rcd13ifvqhrg","pricing_plan_id":"free"},{"bike_id":"6af087b0-510c-46e1-bc03-dbade140f1ed","system_id":"levelo_inurba_marseille","lat":43.33044,"lon":5.38921,"is_reserved":false,"is_disabled":false,"rental_uris":{"android":"levelo://app?vid=6af087b0-510c-46e1-bc03-dbade140f1ed","ios":"levelo://app?vid=6af087b0-510c-46e1-bc03-dbade140f1ed"},"vehicle_type_id":"4","last_reported":1692295711,"current_range_meters":20800,"station_id":"ce4bhr92rcd13ifvqhrg","pricing_plan_id":"free"},{"bike_id":"78f1a325-e5b4-4a72-bb0e-b29d3285ba24","system_id":"levelo_inurba_marseille","lat":43.29006,"lon":5.35607,"is_reserved":false,"is_disabled":false,"rental_uris":{"android":"levelo://app?vid=78f1a325-e5b4-4a72-bb0e-b29d3285ba24","ios":"levelo://app?vid=78f1a325-e5b4-4a72-bb0e-b29d3285ba24"},"vehicle_type_id":"4","last_reported":1692295711,"current_range_meters":31200,"station_id":"ce4bhb92rcd13ifvqen0","pricing_plan_id":"free"},{"bike_id":"82cbf3b8-51b6-4ea2-b455-b54b3ce633cb","system_id":"levelo_inurba_marseille","lat":43.290104,"lon":5.356111,"is_reserved":false,"is_disabled":false,"rental_uris":{"android":"levelo://app?vid=82cbf3b8-51b6-4ea2-b455-b54b3ce633cb","ios":"levelo://app?vid=82cbf3b8-51b6-4ea2-b455-b54b3ce633cb"},"vehicle_type_id":"4","last_reported":1692295711,"current_range_meters":20800,"station_id":"ce4bhb92rcd13ifvqen0","pricing_plan_id":"free"},{"bike_id":"b811b4e8-378d-4172-bfec-6c853567f166","system_id":"levelo_inurba_marseille","lat":43.29,"lon":5.3561,"is_reserved":false,"is_disabled":false,"rental_uris":{"android":"levelo://app?vid=b811b4e8-378d-4172-bfec-6c853567f166","ios":"levelo://app?vid=b811b4e8-378d-4172-bfec-6c853567f166"},"vehicle_type_id":"4","last_reported":1692295711,"current_range_meters":18800,"station_id":"ce4bhb92rcd13ifvqen0","pricing_plan_id":"free"},{"bike_id":"47b79cd4-33b3-4d7b-b6cc-ac7f9addfbda","system_id":"levelo_inurba_marseille","lat":43.290103,"lon":5.356114,"is_reserved":false,"is_disabled":false,"rental_uris":{"android":"levelo://app?vid=47b79cd4-33b3-4d7b-b6cc-ac7f9addfbda","ios":"levelo://app?vid=47b79cd4-33b3-4d7b-b6cc-ac7f9addfbda"},"vehicle_type_id":"4","last_reported":1692295711,"current_range_meters":5200,"station_id":"ce4bhb92rcd13ifvqen0","pricing_plan_id":"free"},{"bike_id":"b8935011-1e8e-4f7e-88a9-17af843072d2","system_id":"levelo_inurba_marseille","lat":43.29107,"lon":5.38139,"is_reserved":false,"is_disabled":false,"rental_uris":{"android":"levelo://app?vid=b8935011-1e8e-4f7e-88a9-17af843072d2","ios":"levelo://app?vid=b8935011-1e8e-4f7e-88a9-17af843072d2"},"vehicle_type_id":"4","last_reported":1692295711,"current_range_meters":6400,"station_id":"ce4bh512rcd13ifvqe2g","pricing_plan_id":"free"},{"bike_id":"0daf8812-f0ef-4727-b860-ac4c10311a19","system_id":"levelo_inurba_marseille","lat":43.28856,"lon":5.358371,"is_reserved":false,"is_disabled":false,"rental_uris":{"android":"levelo://app?vid=0daf8812-f0ef-4727-b860-ac4c10311a19","ios":"levelo://app?vid=0daf8812-f0ef-4727-b860-ac4c10311a19"},"vehicle_type_id":"4","last_reported":1692295711,"current_range_meters":20400,"station_id":"ce4bhb12rcd13ifvqem0","pricing_plan_id":"free"},{"bike_id":"86b1c357-8b13-4217-a8cb-559265c177ff","system_id":"levelo_inurba_marseille","lat":43.33741,"lon":5.37466,"is_reserved":false,"is_disabled":false,"rental_uris":{"android":"levelo://app?vid=86b1c357-8b13-4217-a8cb-559265c177ff","ios":"levelo://app?vid=86b1c357-8b13-4217-a8cb-559265c177ff"},"vehicle_type_id":"4","last_reported":1692295711,"current_range_meters":28000,"station_id":"","pricing_plan_id":"free"},{"bike_id":"af780357-a8f8-4cbd-a818-396599dd4299","system_id":"levelo_inurba_marseille","lat":43.33757,"lon":5.37439,"is_reserved":false,"is_disabled":false,"rental_uris":{"android":"levelo://app?vid=af780357-a8f8-4cbd-a818-396599dd4299","ios":"levelo://app?vid=af780357-a8f8-4cbd-a818-396599dd4299"},"vehicle_type_id":"4","last_reported":1692295711,"current_range_meters":20400,"station_id":"","pricing_plan_id":"free"},{"bike_id":"f1a999d0-6cce-4b52-97e7-5d117e4a0a20","system_id":"levelo_inurba_marseille","lat":43.33762,"lon":5.37442,"is_reserved":false,"is_disabled":false,"rental_uris":{"android":"levelo://app?vid=f1a999d0-6cce-4b52-97e7-5d117e4a0a20","ios":"levelo://app?vid=f1a999d0-6cce-4b52-97e7-5d117e4a0a20"},"vehicle_type_id":"4","last_reported":1692295711,"current_range_meters":30000,"station_id":"","pricing_plan_id":"free"},{"bike_id":"4e223b6f-3c25-48b2-bf29-64fb04ae9c60","system_id":"levelo_inurba_marseille","lat":43.33767,"lon":5.37428,"is_reserved":false,"is_disabled":false,"rental_uris":{"android":"levelo://app?vid=4e223b6f-3c25-48b2-bf29-64fb04ae9c60","ios":"levelo://app?vid=4e223b6f-3c25-48b2-bf29-64fb04ae9c60"},"vehicle_type_id":"4","last_reported":1692295711,"current_range_meters":28400,"station_id":"","pricing_plan_id":"free"},{"bike_id":"c4a235df-342a-4bbd-b37f-c926d17fe4ab","system_id":"levelo_inurba_marseille","lat":43.30641,"lon":5.40088,"is_reserved":false,"is_disabled":false,"rental_uris":{"android":"levelo://app?vid=c4a235df-342a-4bbd-b37f-c926d17fe4ab","ios":"levelo://app?vid=c4a235df-342a-4bbd-b37f-c926d17fe4ab"},"vehicle_type_id":"4","last_reported":1692295711,"current_range_meters":0,"station_id":"ce4bh112rcd13ifvqda0","pricing_plan_id":"free"},{"bike_id":"ebb8dc4e-3c6a-4965-9b5c-a9aafc9d3144","system_id":"levelo_inurba_marseille","lat":43.30636,"lon":5.40088,"is_reserved":false,"is_disabled":false,"rental_uris":{"android":"levelo://app?vid=ebb8dc4e-3c6a-4965-9b5c-a9aafc9d3144","ios":"levelo://app?vid=ebb8dc4e-3c6a-4965-9b5c-a9aafc9d3144"},"vehicle_type_id":"4","last_reported":1692295711,"current_range_meters":24000,"station_id":"ce4bh112rcd13ifvqda0","pricing_plan_id":"free"},{"bike_id":"cb1a0bd7-275c-4b2e-bebf-8cd3ffa21839","system_id":"levelo_inurba_marseille","lat":43.30645,"lon":5.40098,"is_reserved":false,"is_disabled":false,"rental_uris":{"android":"levelo://app?vid=cb1a0bd7-275c-4b2e-bebf-8cd3ffa21839","ios":"levelo://app?vid=cb1a0bd7-275c-4b2e-bebf-8cd3ffa21839"},"vehicle_type_id":"4","last_reported":1692295711,"current_range_meters":13200,"station_id":"ce4bh112rcd13ifvqda0","pricing_plan_id":"free"},{"bike_id":"d0d853e4-f639-443d-a081-df536a8d915d","system_id":"levelo_inurba_marseille","lat":43.30574,"lon":5.40072,"is_reserved":false,"is_disabled":false,"rental_uris":{"android":"levelo://app?vid=d0d853e4-f639-443d-a081-df536a8d915d","ios":"levelo://app?vid=d0d853e4-f639-443d-a081-df536a8d915d"},"vehicle_type_id":"4","last_reported":1692295711,"current_range_meters":14800,"station_id":"","pricing_plan_id":"free"},{"bike_id":"c8e36187-835d-4ae5-a596-75160776a381","system_id":"levelo_inurba_marseille","lat":43.33766,"lon":5.37494,"is_reserved":false,"is_disabled":false,"rental_uris":{"android":"levelo://app?vid=c8e36187-835d-4ae5-a596-75160776a381","ios":"levelo://app?vid=c8e36187-835d-4ae5-a596-75160776a381"},"vehicle_type_id":"4","last_reported":1692295711,"current_range_meters":28800,"station_id":"","pricing_plan_id":"free"},{"bike_id":"7ea589d5-bbaf-4744-9469-1288c7af423e","system_id":"levelo_inurba_marseille","lat":43.301117,"lon":5.398795,"is_reserved":false,"is_disabled":false,"rental_uris":{"android":"levelo://app?vid=7ea589d5-bbaf-4744-9469-1288c7af423e","ios":"levelo://app?vid=7ea589d5-bbaf-4744-9469-1288c7af423e"},"vehicle_type_id":"4","last_reported":1692295711,"current_range_meters":8000,"station_id":"ce4bh0h2rcd13ifvqd40","pricing_plan_id":"free"},{"bike_id":"a2eca6fd-7e46-4b1a-8da7-fbd18304dfb1","system_id":"levelo_inurba_marseille","lat":43.301117,"lon":5.398795,"is_reserved":false,"is_disabled":false,"rental_uris":{"android":"levelo://app?vid=a2eca6fd-7e46-4b1a-8da7-fbd18304dfb1","ios":"levelo://app?vid=a2eca6fd-7e46-4b1a-8da7-fbd18304dfb1"},"vehicle_type_id":"4","last_reported":1692295711,"current_range_meters":17200,"station_id":"ce4bh0h2rcd13ifvqd40","pricing_plan_id":"free"},{"bike_id":"1e126659-35b8-4f15-b320-1978fe9fc804","system_id":"levelo_inurba_marseille","lat":43.301117,"lon":5.398795,"is_reserved":false,"is_disabled":false,"rental_uris":{"android":"levelo://app?vid=1e126659-35b8-4f15-b320-1978fe9fc804","ios":"levelo://app?vid=1e126659-35b8-4f15-b320-1978fe9fc804"},"vehicle_type_id":"4","last_reported":1692295711,"current_range_meters":2400,"station_id":"ce4bh0h2rcd13ifvqd40","pricing_plan_id":"free"},{"bike_id":"bcd03c18-17c6-4f17-abcd-3618fb097e44","system_id":"levelo_inurba_marseille","lat":43.301117,"lon":5.398795,"is_reserved":false,"is_disabled":false,"rental_uris":{"android":"levelo://app?vid=bcd03c18-17c6-4f17-abcd-3618fb097e44","ios":"levelo://app?vid=bcd03c18-17c6-4f17-abcd-3618fb097e44"},"vehicle_type_id":"4","last_reported":1692295711,"current_range_meters":8800,"station_id":"ce4bh0h2rcd13ifvqd40","pricing_plan_id":"free"},{"bike_id":"cdabd7a0-e5cc-4274-bda3-d33759a8cdb4","system_id":"levelo_inurba_marseille","lat":43.286961,"lon":5.373785,"is_reserved":false,"is_disabled":false,"rental_uris":{"android":"levelo://app?vid=cdabd7a0-e5cc-4274-bda3-d33759a8cdb4","ios":"levelo://app?vid=cdabd7a0-e5cc-4274-bda3-d33759a8cdb4"},"vehicle_type_id":"4","last_reported":1692295711,"current_range_meters":10400,"station_id":"ce4bh3p2rcd13ifvqdq0","pricing_plan_id":"free"},{"bike_id":"8033a711-4285-4521-8ae3-c281cc141c5f","system_id":"levelo_inurba_marseille","lat":43.28705,"lon":5.3738,"is_reserved":false,"is_disabled":false,"rental_uris":{"android":"levelo://app?vid=8033a711-4285-4521-8ae3-c281cc141c5f","ios":"levelo://app?vid=8033a711-4285-4521-8ae3-c281cc141c5f"},"vehicle_type_id":"4","last_reported":1692295711,"current_range_meters":800,"station_id":"ce4bh3p2rcd13ifvqdq0","pricing_plan_id":"free"},{"bike_id":"aa18735b-a009-493a-a8ad-923628302ac4","system_id":"levelo_inurba_marseille","lat":43.286961,"lon":5.373785,"is_reserved":false,"is_disabled":false,"rental_uris":{"android":"levelo://app?vid=aa18735b-a009-493a-a8ad-923628302ac4","ios":"levelo://app?vid=aa18735b-a009-493a-a8ad-923628302ac4"},"vehicle_type_id":"4","last_reported":1692295711,"current_range_meters":25200,"station_id":"ce4bh3p2rcd13ifvqdq0","pricing_plan_id":"free"},{"bike_id":"75199276-b705-4ad7-b6a9-49aeaa84628a","system_id":"levelo_inurba_marseille","lat":43.286591,"lon":5.363346,"is_reserved":false,"is_disabled":false,"rental_uris":{"android":"levelo://app?vid=75199276-b705-4ad7-b6a9-49aeaa84628a","ios":"levelo://app?vid=75199276-b705-4ad7-b6a9-49aeaa84628a"},"vehicle_type_id":"4","last_reported":1692295711,"current_range_meters":31200,"station_id":"ce4bhah2rcd13ifvqej0","pricing_plan_id":"free"},{"bike_id":"3759ae33-f4af-4f5e-a2e5-f8d9325ff32f","system_id":"levelo_inurba_marseille","lat":43.28701,"lon":5.37381,"is_reserved":false,"is_disabled":false,"rental_uris":{"android":"levelo://app?vid=3759ae33-f4af-4f5e-a2e5-f8d9325ff32f","ios":"levelo://app?vid=3759ae33-f4af-4f5e-a2e5-f8d9325ff32f"},"vehicle_type_id":"4","last_reported":1692295711,"current_range_meters":10800,"station_id":"ce4bh3p2rcd13ifvqdq0","pricing_plan_id":"free"},{"bike_id":"2c42c531-17f1-4eb9-9dcb-0adf0663d7a2","system_id":"levelo_inurba_marseille","lat":43.28701,"lon":5.37381,"is_reserved":false,"is_disabled":false,"rental_uris":{"android":"levelo://app?vid=2c42c531-17f1-4eb9-9dcb-0adf0663d7a2","ios":"levelo://app?vid=2c42c531-17f1-4eb9-9dcb-0adf0663d7a2"},"vehicle_type_id":"4","last_reported":1692295711,"current_range_meters":28000,"station_id":"","pricing_plan_id":"free"},{"bike_id":"12c23d11-ea55-48b8-a6e4-3b171b8682b5","system_id":"levelo_inurba_marseille","lat":43.287,"lon":5.37383,"is_reserved":false,"is_disabled":false,"rental_uris":{"android":"levelo://app?vid=12c23d11-ea55-48b8-a6e4-3b171b8682b5","ios":"levelo://app?vid=12c23d11-ea55-48b8-a6e4-3b171b8682b5"},"vehicle_type_id":"4","last_reported":1692295711,"current_range_meters":19600,"station_id":"ce4bh3p2rcd13ifvqdq0","pricing_plan_id":"free"},{"bike_id":"b45b27dd-e5a1-423a-b02c-cc6a4bd4d2ba","system_id":"levelo_inurba_marseille","lat":43.286961,"lon":5.373785,"is_reserved":false,"is_disabled":false,"rental_uris":{"android":"levelo://app?vid=b45b27dd-e5a1-423a-b02c-cc6a4bd4d2ba","ios":"levelo://app?vid=b45b27dd-e5a1-423a-b02c-cc6a4bd4d2ba"},"vehicle_type_id":"4","last_reported":1692295711,"current_range_meters":31200,"station_id":"ce4bh3p2rcd13ifvqdq0","pricing_plan_id":"free"},{"bike_id":"a90868c7-0b31-4293-bec8-10a9a33ebe31","system_id":"levelo_inurba_marseille","lat":43.28695,"lon":5.3739,"is_reserved":false,"is_disabled":false,"rental_uris":{"android":"levelo://app?vid=a90868c7-0b31-4293-bec8-10a9a33ebe31","ios":"levelo://app?vid=a90868c7-0b31-4293-bec8-10a9a33ebe31"},"vehicle_type_id":"4","last_reported":1692295711,"current_range_meters":26000,"station_id":"ce4bh3p2rcd13ifvqdq0","pricing_plan_id":"free"},{"bike_id":"503bfee5-23d6-4702-8d7f-98e46b1e39b7","system_id":"levelo_inurba_marseille","lat":43.286961,"lon":5.373785,"is_reserved":false,"is_disabled":false,"rental_uris":{"android":"levelo://app?vid=503bfee5-23d6-4702-8d7f-98e46b1e39b7","ios":"levelo://app?vid=503bfee5-23d6-4702-8d7f-98e46b1e39b7"},"vehicle_type_id":"4","last_reported":1692295711,"current_range_meters":1600,"station_id":"ce4bh3p2rcd13ifvqdq0","pricing_plan_id":"free"},{"bike_id":"6e214e9b-d831-4a55-96a5-e74a4bbef6a7","system_id":"levelo_inurba_marseille","lat":43.295194,"lon":5.39397,"is_reserved":false,"is_disabled":false,"rental_uris":{"android":"levelo://app?vid=6e214e9b-d831-4a55-96a5-e74a4bbef6a7","ios":"levelo://app?vid=6e214e9b-d831-4a55-96a5-e74a4bbef6a7"},"vehicle_type_id":"4","last_reported":1692295711,"current_range_meters":3600,"station_id":"ce4bh292rcd13ifvqdf0","pricing_plan_id":"free"},{"bike_id":"fa278297-fe53-46eb-a019-c701df0137ce","system_id":"levelo_inurba_marseille","lat":43.302759,"lon":5.400793,"is_reserved":false,"is_disabled":false,"rental_uris":{"android":"levelo://app?vid=fa278297-fe53-46eb-a019-c701df0137ce","ios":"levelo://app?vid=fa278297-fe53-46eb-a019-c701df0137ce"},"vehicle_type_id":"4","last_reported":1692295711,"current_range_meters":23600,"station_id":"ce4bgvh2rcd13ifvqcs0","pricing_plan_id":"free"},{"bike_id":"061ae568-a13d-4f27-8c7e-f88b53116853","system_id":"levelo_inurba_marseille","lat":43.302759,"lon":5.400793,"is_reserved":false,"is_disabled":false,"rental_uris":{"android":"levelo://app?vid=061ae568-a13d-4f27-8c7e-f88b53116853","ios":"levelo://app?vid=061ae568-a13d-4f27-8c7e-f88b53116853"},"vehicle_type_id":"4","last_reported":1692295711,"current_range_meters":2800,"station_id":"ce4bgvh2rcd13ifvqcs0","pricing_plan_id":"free"},{"bike_id":"42cc2d8b-9adc-401d-898a-5c4bf4ebe205","system_id":"levelo_inurba_marseille","lat":43.302759,"lon":5.400793,"is_reserved":false,"is_disabled":false,"rental_uris":{"android":"levelo://app?vid=42cc2d8b-9adc-401d-898a-5c4bf4ebe205","ios":"levelo://app?vid=42cc2d8b-9adc-401d-898a-5c4bf4ebe205"},"vehicle_type_id":"4","last_reported":1692295711,"current_range_meters":4400,"station_id":"ce4bgvh2rcd13ifvqcs0","pricing_plan_id":"free"},{"bike_id":"624b6f88-5b4d-4818-b397-82b114fa10e3","system_id":"levelo_inurba_marseille","lat":43.302759,"lon":5.400793,"is_reserved":false,"is_disabled":false,"rental_uris":{"android":"levelo://app?vid=624b6f88-5b4d-4818-b397-82b114fa10e3","ios":"levelo://app?vid=624b6f88-5b4d-4818-b397-82b114fa10e3"},"vehicle_type_id":"4","last_reported":1692295711,"current_range_meters":11200,"station_id":"ce4bgvh2rcd13ifvqcs0","pricing_plan_id":"free"},{"bike_id":"a4ebdbfd-c725-4cd2-802d-477eee0dc82e","system_id":"levelo_inurba_marseille","lat":43.286039,"lon":5.370679,"is_reserved":false,"is_disabled":false,"rental_uris":{"android":"levelo://app?vid=a4ebdbfd-c725-4cd2-802d-477eee0dc82e","ios":"levelo://app?vid=a4ebdbfd-c725-4cd2-802d-477eee0dc82e"},"vehicle_type_id":"4","last_reported":1692295711,"current_range_meters":8000,"station_id":"ce4bht12rcd13ifvqi60","pricing_plan_id":"free"},{"bike_id":"912f8d4c-9efe-4fa0-8449-87a7e3ffff47","system_id":"levelo_inurba_marseille","lat":43.286039,"lon":5.370681,"is_reserved":false,"is_disabled":false,"rental_uris":{"android":"levelo://app?vid=912f8d4c-9efe-4fa0-8449-87a7e3ffff47","ios":"levelo://app?vid=912f8d4c-9efe-4fa0-8449-87a7e3ffff47"},"vehicle_type_id":"4","last_reported":1692295711,"current_range_meters":0,"station_id":"ce4bht12rcd13ifvqi60","pricing_plan_id":"free"},{"bike_id":"98a011c1-2409-4376-92ca-d91a3806a92e","system_id":"levelo_inurba_marseille","lat":43.286039,"lon":5.370681,"is_reserved":false,"is_disabled":false,"rental_uris":{"android":"levelo://app?vid=98a011c1-2409-4376-92ca-d91a3806a92e","ios":"levelo://app?vid=98a011c1-2409-4376-92ca-d91a3806a92e"},"vehicle_type_id":"4","last_reported":1692295711,"current_range_meters":18800,"station_id":"ce4bht12rcd13ifvqi60","pricing_plan_id":"free"},{"bike_id":"861b4182-2c69-4300-acbb-cc6187b7042c","system_id":"levelo_inurba_marseille","lat":43.31643,"lon":5.40432,"is_reserved":false,"is_disabled":false,"rental_uris":{"android":"levelo://app?vid=861b4182-2c69-4300-acbb-cc6187b7042c","ios":"levelo://app?vid=861b4182-2c69-4300-acbb-cc6187b7042c"},"vehicle_type_id":"4","last_reported":1692295711,"current_range_meters":13200,"station_id":"ce4bh012rcd13ifvqd00","pricing_plan_id":"free"},{"bike_id":"7da9e437-1e79-4b5f-9ab0-65254ac17dd7","system_id":"levelo_inurba_marseille","lat":43.31646,"lon":5.4044,"is_reserved":false,"is_disabled":false,"rental_uris":{"android":"levelo://app?vid=7da9e437-1e79-4b5f-9ab0-65254ac17dd7","ios":"levelo://app?vid=7da9e437-1e79-4b5f-9ab0-65254ac17dd7"},"vehicle_type_id":"4","last_reported":1692295711,"current_range_meters":9600,"station_id":"ce4bh012rcd13ifvqd00","pricing_plan_id":"free"},{"bike_id":"d226bec2-8864-4390-b7ae-368be35f77a7","system_id":"levelo_inurba_marseille","lat":43.28703,"lon":5.35204,"is_reserved":false,"is_disabled":false,"rental_uris":{"android":"levelo://app?vid=d226bec2-8864-4390-b7ae-368be35f77a7","ios":"levelo://app?vid=d226bec2-8864-4390-b7ae-368be35f77a7"},"vehicle_type_id":"4","last_reported":1692295711,"current_range_meters":5600,"station_id":"","pricing_plan_id":"free"},{"bike_id":"12520fe6-caaa-4ae9-b980-8d1f15f512cf","system_id":"levelo_inurba_marseille","lat":43.28468,"lon":5.358716,"is_reserved":false,"is_disabled":false,"rental_uris":{"android":"levelo://app?vid=12520fe6-caaa-4ae9-b980-8d1f15f512cf","ios":"levelo://app?vid=12520fe6-caaa-4ae9-b980-8d1f15f512cf"},"vehicle_type_id":"4","last_reported":1692295711,"current_range_meters":16000,"station_id":"ce4bhah2rcd13ifvqei0","pricing_plan_id":"free"},{"bike_id":"7449df42-fb34-444b-a663-facfa6ac7fdb","system_id":"levelo_inurba_marseille","lat":43.285856,"lon":5.350771,"is_reserved":false,"is_disabled":false,"rental_uris":{"android":"levelo://app?vid=7449df42-fb34-444b-a663-facfa6ac7fdb","ios":"levelo://app?vid=7449df42-fb34-444b-a663-facfa6ac7fdb"},"vehicle_type_id":"4","last_reported":1692295711,"current_range_meters":19600,"station_id":"ce4bhch2rcd13ifvqeug","pricing_plan_id":"free"},{"bike_id":"82976ab9-59db-41db-8a95-9510829f4b63","system_id":"levelo_inurba_marseille","lat":43.286175,"lon":5.351049,"is_reserved":false,"is_disabled":false,"rental_uris":{"android":"levelo://app?vid=82976ab9-59db-41db-8a95-9510829f4b63","ios":"levelo://app?vid=82976ab9-59db-41db-8a95-9510829f4b63"},"vehicle_type_id":"4","last_reported":1692295711,"current_range_meters":21200,"station_id":"ce4bhch2rcd13ifvqeug","pricing_plan_id":"free"},{"bike_id":"f87b421a-d277-46d7-97df-70d6dadca7cb","system_id":"levelo_inurba_marseille","lat":43.28619,"lon":5.351,"is_reserved":false,"is_disabled":false,"rental_uris":{"android":"levelo://app?vid=f87b421a-d277-46d7-97df-70d6dadca7cb","ios":"levelo://app?vid=f87b421a-d277-46d7-97df-70d6dadca7cb"},"vehicle_type_id":"4","last_reported":1692295711,"current_range_meters":28400,"station_id":"ce4bhch2rcd13ifvqeug","pricing_plan_id":"free"},{"bike_id":"b688a6fd-3953-4966-a3eb-d3dc51ac0bc7","system_id":"levelo_inurba_marseille","lat":43.28614,"lon":5.35104,"is_reserved":false,"is_disabled":false,"rental_uris":{"android":"levelo://app?vid=b688a6fd-3953-4966-a3eb-d3dc51ac0bc7","ios":"levelo://app?vid=b688a6fd-3953-4966-a3eb-d3dc51ac0bc7"},"vehicle_type_id":"4","last_reported":1692295711,"current_range_meters":5600,"station_id":"ce4bhch2rcd13ifvqeug","pricing_plan_id":"free"},{"bike_id":"3da9383c-5183-4890-a3e6-3854bcd39f8c","system_id":"levelo_inurba_marseille","lat":43.28613,"lon":5.35104,"is_reserved":false,"is_disabled":false,"rental_uris":{"android":"levelo://app?vid=3da9383c-5183-4890-a3e6-3854bcd39f8c","ios":"levelo://app?vid=3da9383c-5183-4890-a3e6-3854bcd39f8c"},"vehicle_type_id":"4","last_reported":1692295711,"current_range_meters":2000,"station_id":"ce4bhch2rcd13ifvqeug","pricing_plan_id":"free"},{"bike_id":"35eec3a1-aa54-4990-8eb4-78e6c0dd24d0","system_id":"levelo_inurba_marseille","lat":43.285856,"lon":5.350771,"is_reserved":false,"is_disabled":false,"rental_uris":{"android":"levelo://app?vid=35eec3a1-aa54-4990-8eb4-78e6c0dd24d0","ios":"levelo://app?vid=35eec3a1-aa54-4990-8eb4-78e6c0dd24d0"},"vehicle_type_id":"4","last_reported":1692295711,"current_range_meters":13200,"station_id":"ce4bhch2rcd13ifvqeug","pricing_plan_id":"free"},{"bike_id":"774cc09e-c12f-4a76-afcd-6675af8e063c","system_id":"levelo_inurba_marseille","lat":43.285848,"lon":5.350787,"is_reserved":false,"is_disabled":false,"rental_uris":{"android":"levelo://app?vid=774cc09e-c12f-4a76-afcd-6675af8e063c","ios":"levelo://app?vid=774cc09e-c12f-4a76-afcd-6675af8e063c"},"vehicle_type_id":"4","last_reported":1692295711,"current_range_meters":28000,"station_id":"ce4bhch2rcd13ifvqeug","pricing_plan_id":"free"},{"bike_id":"7fbe37eb-3e16-42fd-8e07-a6ff328c4025","system_id":"levelo_inurba_marseille","lat":43.28415,"lon":5.37522,"is_reserved":false,"is_disabled":false,"rental_uris":{"android":"levelo://app?vid=7fbe37eb-3e16-42fd-8e07-a6ff328c4025","ios":"levelo://app?vid=7fbe37eb-3e16-42fd-8e07-a6ff328c4025"},"vehicle_type_id":"4","last_reported":1692295711,"current_range_meters":27600,"station_id":"ce4bh412rcd13ifvqds0","pricing_plan_id":"free"},{"bike_id":"c70c6e7d-8b61-47c3-bb73-3c2e98bb5ad9","system_id":"levelo_inurba_marseille","lat":43.295713,"lon":5.399639,"is_reserved":false,"is_disabled":false,"rental_uris":{"android":"levelo://app?vid=c70c6e7d-8b61-47c3-bb73-3c2e98bb5ad9","ios":"levelo://app?vid=c70c6e7d-8b61-47c3-bb73-3c2e98bb5ad9"},"vehicle_type_id":"4","last_reported":1692295711,"current_range_meters":30800,"station_id":"ce4bh312rcd13ifvqdj0","pricing_plan_id":"free"},{"bike_id":"6749502a-0e4b-45ed-a69e-3055a5eb0a40","system_id":"levelo_inurba_marseille","lat":43.319179,"lon":5.407725,"is_reserved":false,"is_disabled":false,"rental_uris":{"android":"levelo://app?vid=6749502a-0e4b-45ed-a69e-3055a5eb0a40","ios":"levelo://app?vid=6749502a-0e4b-45ed-a69e-3055a5eb0a40"},"vehicle_type_id":"4","last_reported":1692295711,"current_range_meters":18800,"station_id":"ce4bhq12rcd13ifvqhig","pricing_plan_id":"free"},{"bike_id":"6fb36002-bc24-427c-a16e-585470e55deb","system_id":"levelo_inurba_marseille","lat":43.3259,"lon":5.40438,"is_reserved":false,"is_disabled":false,"rental_uris":{"android":"levelo://app?vid=6fb36002-bc24-427c-a16e-585470e55deb","ios":"levelo://app?vid=6fb36002-bc24-427c-a16e-585470e55deb"},"vehicle_type_id":"4","last_reported":1692295711,"current_range_meters":21600,"station_id":"","pricing_plan_id":"free"},{"bike_id":"c7f55b38-f91b-41fb-a480-21b4dec7e541","system_id":"levelo_inurba_marseille","lat":43.33714,"lon":5.39174,"is_reserved":false,"is_disabled":false,"rental_uris":{"android":"levelo://app?vid=c7f55b38-f91b-41fb-a480-21b4dec7e541","ios":"levelo://app?vid=c7f55b38-f91b-41fb-a480-21b4dec7e541"},"vehicle_type_id":"4","last_reported":1692295711,"current_range_meters":15600,"station_id":"ce4bhr92rcd13ifvqhsg","pricing_plan_id":"free"},{"bike_id":"5998f81c-1eca-456a-a4d5-b95c154b11b7","system_id":"levelo_inurba_marseille","lat":43.33721,"lon":5.39177,"is_reserved":false,"is_disabled":false,"rental_uris":{"android":"levelo://app?vid=5998f81c-1eca-456a-a4d5-b95c154b11b7","ios":"levelo://app?vid=5998f81c-1eca-456a-a4d5-b95c154b11b7"},"vehicle_type_id":"4","last_reported":1692295711,"current_range_meters":20000,"station_id":"ce4bhr92rcd13ifvqhsg","pricing_plan_id":"free"},{"bike_id":"89086dc9-0ce2-4ae4-a0b1-2294601012d7","system_id":"levelo_inurba_marseille","lat":43.337168,"lon":5.391825,"is_reserved":false,"is_disabled":false,"rental_uris":{"android":"levelo://app?vid=89086dc9-0ce2-4ae4-a0b1-2294601012d7","ios":"levelo://app?vid=89086dc9-0ce2-4ae4-a0b1-2294601012d7"},"vehicle_type_id":"4","last_reported":1692295711,"current_range_meters":31200,"station_id":"ce4bhr92rcd13ifvqhsg","pricing_plan_id":"free"},{"bike_id":"85edd6fb-c834-4dae-9ec1-95d5b7abaecd","system_id":"levelo_inurba_marseille","lat":43.33727,"lon":5.39184,"is_reserved":false,"is_disabled":false,"rental_uris":{"android":"levelo://app?vid=85edd6fb-c834-4dae-9ec1-95d5b7abaecd","ios":"levelo://app?vid=85edd6fb-c834-4dae-9ec1-95d5b7abaecd"},"vehicle_type_id":"4","last_reported":1692295711,"current_range_meters":28400,"station_id":"ce4bhr92rcd13ifvqhsg","pricing_plan_id":"free"},{"bike_id":"476cd7b5-612d-4b02-be80-aeb0d05297f3","system_id":"levelo_inurba_marseille","lat":43.337295,"lon":5.391806,"is_reserved":false,"is_disabled":false,"rental_uris":{"android":"levelo://app?vid=476cd7b5-612d-4b02-be80-aeb0d05297f3","ios":"levelo://app?vid=476cd7b5-612d-4b02-be80-aeb0d05297f3"},"vehicle_type_id":"4","last_reported":1692295711,"current_range_meters":31200,"station_id":"ce4bhr92rcd13ifvqhsg","pricing_plan_id":"free"},{"bike_id":"ea40413c-7c2f-4273-aab4-6a724e79b1ba","system_id":"levelo_inurba_marseille","lat":43.33717,"lon":5.391857,"is_reserved":false,"is_disabled":false,"rental_uris":{"android":"levelo://app?vid=ea40413c-7c2f-4273-aab4-6a724e79b1ba","ios":"levelo://app?vid=ea40413c-7c2f-4273-aab4-6a724e79b1ba"},"vehicle_type_id":"4","last_reported":1692295711,"current_range_meters":31200,"station_id":"ce4bhr92rcd13ifvqhsg","pricing_plan_id":"free"},{"bike_id":"f6375ec0-4f1d-47c6-91ac-8f9e093e062b","system_id":"levelo_inurba_marseille","lat":43.33728,"lon":5.39192,"is_reserved":false,"is_disabled":false,"rental_uris":{"android":"levelo://app?vid=f6375ec0-4f1d-47c6-91ac-8f9e093e062b","ios":"levelo://app?vid=f6375ec0-4f1d-47c6-91ac-8f9e093e062b"},"vehicle_type_id":"4","last_reported":1692295711,"current_range_meters":11200,"station_id":"ce4bhr92rcd13ifvqhsg","pricing_plan_id":"free"},{"bike_id":"e82e2e4b-eeba-459d-9089-7a1fe57b1565","system_id":"levelo_inurba_marseille","lat":43.337342,"lon":5.391889,"is_reserved":false,"is_disabled":false,"rental_uris":{"android":"levelo://app?vid=e82e2e4b-eeba-459d-9089-7a1fe57b1565","ios":"levelo://app?vid=e82e2e4b-eeba-459d-9089-7a1fe57b1565"},"vehicle_type_id":"4","last_reported":1692295711,"current_range_meters":31600,"station_id":"ce4bhr92rcd13ifvqhsg","pricing_plan_id":"free"},{"bike_id":"23f5f11c-1631-4826-9b70-90ab56e6e026","system_id":"levelo_inurba_marseille","lat":43.32386,"lon":5.40642,"is_reserved":false,"is_disabled":false,"rental_uris":{"android":"levelo://app?vid=23f5f11c-1631-4826-9b70-90ab56e6e026","ios":"levelo://app?vid=23f5f11c-1631-4826-9b70-90ab56e6e026"},"vehicle_type_id":"4","last_reported":1692295711,"current_range_meters":12000,"station_id":"ce4bhq92rcd13ifvqhjg","pricing_plan_id":"free"},{"bike_id":"08df17e5-e7d6-4c7e-9a2f-8c6fb281c502","system_id":"levelo_inurba_marseille","lat":43.288497,"lon":5.393089,"is_reserved":false,"is_disabled":false,"rental_uris":{"android":"levelo://app?vid=08df17e5-e7d6-4c7e-9a2f-8c6fb281c502","ios":"levelo://app?vid=08df17e5-e7d6-4c7e-9a2f-8c6fb281c502"},"vehicle_type_id":"4","last_reported":1692295711,"current_range_meters":19600,"station_id":"ce4bh2p2rcd13ifvqdi0","pricing_plan_id":"free"},{"bike_id":"bd743d34-5ff7-411d-b766-7a5b6c043f46","system_id":"levelo_inurba_marseille","lat":43.28428,"lon":5.34984,"is_reserved":false,"is_disabled":false,"rental_uris":{"android":"levelo://app?vid=bd743d34-5ff7-411d-b766-7a5b6c043f46","ios":"levelo://app?vid=bd743d34-5ff7-411d-b766-7a5b6c043f46"},"vehicle_type_id":"4","last_reported":1692295711,"current_range_meters":31200,"station_id":"ce4bhbh2rcd13ifvqepg","pricing_plan_id":"free"},{"bike_id":"331019f0-8d9b-4495-902e-e17800881071","system_id":"levelo_inurba_marseille","lat":43.28424,"lon":5.34984,"is_reserved":false,"is_disabled":false,"rental_uris":{"android":"levelo://app?vid=331019f0-8d9b-4495-902e-e17800881071","ios":"levelo://app?vid=331019f0-8d9b-4495-902e-e17800881071"},"vehicle_type_id":"4","last_reported":1692295711,"current_range_meters":31200,"station_id":"ce4bhbh2rcd13ifvqepg","pricing_plan_id":"free"},{"bike_id":"f704bdb8-52df-467e-86ce-acd6aa01d9b1","system_id":"levelo_inurba_marseille","lat":43.284217,"lon":5.349697,"is_reserved":false,"is_disabled":false,"rental_uris":{"android":"levelo://app?vid=f704bdb8-52df-467e-86ce-acd6aa01d9b1","ios":"levelo://app?vid=f704bdb8-52df-467e-86ce-acd6aa01d9b1"},"vehicle_type_id":"4","last_reported":1692295711,"current_range_meters":13600,"station_id":"ce4bhbh2rcd13ifvqepg","pricing_plan_id":"free"},{"bike_id":"d555677b-461d-4738-b6ea-00631708d3a3","system_id":"levelo_inurba_marseille","lat":43.284217,"lon":5.349697,"is_reserved":false,"is_disabled":false,"rental_uris":{"android":"levelo://app?vid=d555677b-461d-4738-b6ea-00631708d3a3","ios":"levelo://app?vid=d555677b-461d-4738-b6ea-00631708d3a3"},"vehicle_type_id":"4","last_reported":1692295711,"current_range_meters":5200,"station_id":"ce4bhbh2rcd13ifvqepg","pricing_plan_id":"free"},{"bike_id":"876c1bf9-e03d-47fa-ac41-ef9b75a9d322","system_id":"levelo_inurba_marseille","lat":43.284217,"lon":5.349697,"is_reserved":false,"is_disabled":false,"rental_uris":{"android":"levelo://app?vid=876c1bf9-e03d-47fa-ac41-ef9b75a9d322","ios":"levelo://app?vid=876c1bf9-e03d-47fa-ac41-ef9b75a9d322"},"vehicle_type_id":"4","last_reported":1692295711,"current_range_meters":13200,"station_id":"ce4bhbh2rcd13ifvqepg","pricing_plan_id":"free"},{"bike_id":"70f380d3-c0b0-4a24-8908-bbc42c7be717","system_id":"levelo_inurba_marseille","lat":43.28417,"lon":5.34973,"is_reserved":false,"is_disabled":false,"rental_uris":{"android":"levelo://app?vid=70f380d3-c0b0-4a24-8908-bbc42c7be717","ios":"levelo://app?vid=70f380d3-c0b0-4a24-8908-bbc42c7be717"},"vehicle_type_id":"4","last_reported":1692295711,"current_range_meters":6800,"station_id":"ce4bhbh2rcd13ifvqepg","pricing_plan_id":"free"},{"bike_id":"30370716-dfc7-40fb-a6e0-9053d1ccac11","system_id":"levelo_inurba_marseille","lat":43.284217,"lon":5.349697,"is_reserved":false,"is_disabled":false,"rental_uris":{"android":"levelo://app?vid=30370716-dfc7-40fb-a6e0-9053d1ccac11","ios":"levelo://app?vid=30370716-dfc7-40fb-a6e0-9053d1ccac11"},"vehicle_type_id":"4","last_reported":1692295711,"current_range_meters":18000,"station_id":"ce4bhbh2rcd13ifvqepg","pricing_plan_id":"free"},{"bike_id":"ee3d01d9-3b5b-4eb6-b523-97b04631dbf9","system_id":"levelo_inurba_marseille","lat":43.28415,"lon":5.34977,"is_reserved":false,"is_disabled":false,"rental_uris":{"android":"levelo://app?vid=ee3d01d9-3b5b-4eb6-b523-97b04631dbf9","ios":"levelo://app?vid=ee3d01d9-3b5b-4eb6-b523-97b04631dbf9"},"vehicle_type_id":"4","last_reported":1692295711,"current_range_meters":23200,"station_id":"ce4bhbh2rcd13ifvqepg","pricing_plan_id":"free"},{"bike_id":"9000ce1a-8890-4ecd-90c9-d52e4df686db","system_id":"levelo_inurba_marseille","lat":43.289338,"lon":5.396258,"is_reserved":false,"is_disabled":false,"rental_uris":{"android":"levelo://app?vid=9000ce1a-8890-4ecd-90c9-d52e4df686db","ios":"levelo://app?vid=9000ce1a-8890-4ecd-90c9-d52e4df686db"},"vehicle_type_id":"4","last_reported":1692295711,"current_range_meters":26800,"station_id":"ce4bh3h2rcd13ifvqdn0","pricing_plan_id":"free"},{"bike_id":"5cec26ac-344f-432b-af34-450b75305b9b","system_id":"levelo_inurba_marseille","lat":43.292724,"lon":5.401131,"is_reserved":false,"is_disabled":false,"rental_uris":{"android":"levelo://app?vid=5cec26ac-344f-432b-af34-450b75305b9b","ios":"levelo://app?vid=5cec26ac-344f-432b-af34-450b75305b9b"},"vehicle_type_id":"4","last_reported":1692295711,"current_range_meters":31200,"station_id":"ce4bh312rcd13ifvqdk0","pricing_plan_id":"free"},{"bike_id":"32915e10-bcbe-45de-b365-179c5d0dec0e","system_id":"levelo_inurba_marseille","lat":43.282744,"lon":5.350533,"is_reserved":false,"is_disabled":false,"rental_uris":{"android":"levelo://app?vid=32915e10-bcbe-45de-b365-179c5d0dec0e","ios":"levelo://app?vid=32915e10-bcbe-45de-b365-179c5d0dec0e"},"vehicle_type_id":"4","last_reported":1692295711,"current_range_meters":0,"station_id":"ce4bhbp2rcd13ifvqerg","pricing_plan_id":"free"},{"bike_id":"fa5de876-d0c5-458c-b538-4cf2352f3fc0","system_id":"levelo_inurba_marseille","lat":43.28049,"lon":5.36944,"is_reserved":false,"is_disabled":false,"rental_uris":{"android":"levelo://app?vid=fa5de876-d0c5-458c-b538-4cf2352f3fc0","ios":"levelo://app?vid=fa5de876-d0c5-458c-b538-4cf2352f3fc0"},"vehicle_type_id":"4","last_reported":1692295711,"current_range_meters":0,"station_id":"ce4bha12rcd13ifvqef0","pricing_plan_id":"free"},{"bike_id":"d597d148-68cf-4f33-b08c-776092769bdb","system_id":"levelo_inurba_marseille","lat":43.282744,"lon":5.350533,"is_reserved":false,"is_disabled":false,"rental_uris":{"android":"levelo://app?vid=d597d148-68cf-4f33-b08c-776092769bdb","ios":"levelo://app?vid=d597d148-68cf-4f33-b08c-776092769bdb"},"vehicle_type_id":"4","last_reported":1692295711,"current_range_meters":16800,"station_id":"ce4bhbp2rcd13ifvqerg","pricing_plan_id":"free"},{"bike_id":"f16167c2-dd82-4014-bcf5-5646d0f0bd40","system_id":"levelo_inurba_marseille","lat":43.28042,"lon":5.36937,"is_reserved":false,"is_disabled":false,"rental_uris":{"android":"levelo://app?vid=f16167c2-dd82-4014-bcf5-5646d0f0bd40","ios":"levelo://app?vid=f16167c2-dd82-4014-bcf5-5646d0f0bd40"},"vehicle_type_id":"4","last_reported":1692295711,"current_range_meters":2400,"station_id":"ce4bha12rcd13ifvqef0","pricing_plan_id":"free"},{"bike_id":"88940920-727e-47f8-bee6-24feedff1167","system_id":"levelo_inurba_marseille","lat":43.28263,"lon":5.35043,"is_reserved":false,"is_disabled":false,"rental_uris":{"android":"levelo://app?vid=88940920-727e-47f8-bee6-24feedff1167","ios":"levelo://app?vid=88940920-727e-47f8-bee6-24feedff1167"},"vehicle_type_id":"4","last_reported":1692295711,"current_range_meters":30400,"station_id":"ce4bhbp2rcd13ifvqerg","pricing_plan_id":"free"},{"bike_id":"1769560b-32f4-4936-bd12-05881d738867","system_id":"levelo_inurba_marseille","lat":43.28035,"lon":5.36935,"is_reserved":false,"is_disabled":false,"rental_uris":{"android":"levelo://app?vid=1769560b-32f4-4936-bd12-05881d738867","ios":"levelo://app?vid=1769560b-32f4-4936-bd12-05881d738867"},"vehicle_type_id":"4","last_reported":1692295711,"current_range_meters":22400,"station_id":"ce4bha12rcd13ifvqef0","pricing_plan_id":"free"},{"bike_id":"dd671001-4f9b-45ef-9499-d5e5314ad37e","system_id":"levelo_inurba_marseille","lat":43.28032,"lon":5.36938,"is_reserved":false,"is_disabled":false,"rental_uris":{"android":"levelo://app?vid=dd671001-4f9b-45ef-9499-d5e5314ad37e","ios":"levelo://app?vid=dd671001-4f9b-45ef-9499-d5e5314ad37e"},"vehicle_type_id":"4","last_reported":1692295711,"current_range_meters":25600,"station_id":"ce4bha12rcd13ifvqef0","pricing_plan_id":"free"},{"bike_id":"ce447952-fdf3-4639-99a9-5988994becdc","system_id":"levelo_inurba_marseille","lat":43.280382,"lon":5.369291,"is_reserved":false,"is_disabled":false,"rental_uris":{"android":"levelo://app?vid=ce447952-fdf3-4639-99a9-5988994becdc","ios":"levelo://app?vid=ce447952-fdf3-4639-99a9-5988994becdc"},"vehicle_type_id":"4","last_reported":1692295711,"current_range_meters":21200,"station_id":"ce4bha12rcd13ifvqef0","pricing_plan_id":"free"},{"bike_id":"8a2829f1-cef4-4dfb-b35f-e736a7ad20a2","system_id":"levelo_inurba_marseille","lat":43.280382,"lon":5.369291,"is_reserved":false,"is_disabled":false,"rental_uris":{"android":"levelo://app?vid=8a2829f1-cef4-4dfb-b35f-e736a7ad20a2","ios":"levelo://app?vid=8a2829f1-cef4-4dfb-b35f-e736a7ad20a2"},"vehicle_type_id":"4","last_reported":1692295711,"current_range_meters":31200,"station_id":"ce4bha12rcd13ifvqef0","pricing_plan_id":"free"},{"bike_id":"eb8e4c4f-5fc5-4007-ab2b-231fad0dc17c","system_id":"levelo_inurba_marseille","lat":43.290412,"lon":5.399633,"is_reserved":false,"is_disabled":false,"rental_uris":{"android":"levelo://app?vid=eb8e4c4f-5fc5-4007-ab2b-231fad0dc17c","ios":"levelo://app?vid=eb8e4c4f-5fc5-4007-ab2b-231fad0dc17c"},"vehicle_type_id":"4","last_reported":1692295711,"current_range_meters":31200,"station_id":"ce4bh392rcd13ifvqdm0","pricing_plan_id":"free"},{"bike_id":"0ffaeb00-80ee-4cd7-b39e-d1ac7ab96dbc","system_id":"levelo_inurba_marseille","lat":43.281007,"lon":5.378284,"is_reserved":false,"is_disabled":false,"rental_uris":{"android":"levelo://app?vid=0ffaeb00-80ee-4cd7-b39e-d1ac7ab96dbc","ios":"levelo://app?vid=0ffaeb00-80ee-4cd7-b39e-d1ac7ab96dbc"},"vehicle_type_id":"4","last_reported":1692295711,"current_range_meters":29200,"station_id":"ce4bha12rcd13ifvqee0","pricing_plan_id":"free"},{"bike_id":"6e05e6e7-b700-4128-b669-80bed79ea6d2","system_id":"levelo_inurba_marseille","lat":43.28095,"lon":5.37832,"is_reserved":false,"is_disabled":false,"rental_uris":{"android":"levelo://app?vid=6e05e6e7-b700-4128-b669-80bed79ea6d2","ios":"levelo://app?vid=6e05e6e7-b700-4128-b669-80bed79ea6d2"},"vehicle_type_id":"4","last_reported":1692295711,"current_range_meters":20400,"station_id":"ce4bha12rcd13ifvqee0","pricing_plan_id":"free"},{"bike_id":"c3954704-bda4-4ce8-b6de-0e880ad20b7a","system_id":"levelo_inurba_marseille","lat":43.28575,"lon":5.39496,"is_reserved":false,"is_disabled":false,"rental_uris":{"android":"levelo://app?vid=c3954704-bda4-4ce8-b6de-0e880ad20b7a","ios":"levelo://app?vid=c3954704-bda4-4ce8-b6de-0e880ad20b7a"},"vehicle_type_id":"4","last_reported":1692295711,"current_range_meters":29600,"station_id":"","pricing_plan_id":"free"},{"bike_id":"9f795ffb-4338-426a-a60a-aeeb93e51ca5","system_id":"levelo_inurba_marseille","lat":43.28573,"lon":5.39495,"is_reserved":false,"is_disabled":false,"rental_uris":{"android":"levelo://app?vid=9f795ffb-4338-426a-a60a-aeeb93e51ca5","ios":"levelo://app?vid=9f795ffb-4338-426a-a60a-aeeb93e51ca5"},"vehicle_type_id":"4","last_reported":1692295711,"current_range_meters":12800,"station_id":"ce4bh292rcd13ifvqdg0","pricing_plan_id":"free"},{"bike_id":"ddf47611-a183-42b8-9a4f-1054f7edaa9a","system_id":"levelo_inurba_marseille","lat":43.28573,"lon":5.394992,"is_reserved":false,"is_disabled":false,"rental_uris":{"android":"levelo://app?vid=ddf47611-a183-42b8-9a4f-1054f7edaa9a","ios":"levelo://app?vid=ddf47611-a183-42b8-9a4f-1054f7edaa9a"},"vehicle_type_id":"4","last_reported":1692295711,"current_range_meters":1600,"station_id":"ce4bh292rcd13ifvqdg0","pricing_plan_id":"free"},{"bike_id":"7f0c38d0-63db-4297-a7b4-2c1fdccbfd87","system_id":"levelo_inurba_marseille","lat":43.32656,"lon":5.40957,"is_reserved":false,"is_disabled":false,"rental_uris":{"android":"levelo://app?vid=7f0c38d0-63db-4297-a7b4-2c1fdccbfd87","ios":"levelo://app?vid=7f0c38d0-63db-4297-a7b4-2c1fdccbfd87"},"vehicle_type_id":"4","last_reported":1692295711,"current_range_meters":800,"station_id":"ce4bhpp2rcd13ifvqhgg","pricing_plan_id":"free"},{"bike_id":"1407a0f8-a7a8-4cd2-beac-ab58c875583a","system_id":"levelo_inurba_marseille","lat":43.326605,"lon":5.409903,"is_reserved":false,"is_disabled":false,"rental_uris":{"android":"levelo://app?vid=1407a0f8-a7a8-4cd2-beac-ab58c875583a","ios":"levelo://app?vid=1407a0f8-a7a8-4cd2-beac-ab58c875583a"},"vehicle_type_id":"4","last_reported":1692295711,"current_range_meters":18800,"station_id":"ce4bhpp2rcd13ifvqhgg","pricing_plan_id":"free"},{"bike_id":"2286f568-900f-41eb-833c-aa0b4582699d","system_id":"levelo_inurba_marseille","lat":43.32652,"lon":5.40988,"is_reserved":false,"is_disabled":false,"rental_uris":{"android":"levelo://app?vid=2286f568-900f-41eb-833c-aa0b4582699d","ios":"levelo://app?vid=2286f568-900f-41eb-833c-aa0b4582699d"},"vehicle_type_id":"4","last_reported":1692295711,"current_range_meters":13200,"station_id":"ce4bhpp2rcd13ifvqhgg","pricing_plan_id":"free"},{"bike_id":"c7ae5a27-c3f2-41a0-9f26-2aa40ec32666","system_id":"levelo_inurba_marseille","lat":43.32661,"lon":5.40985,"is_reserved":false,"is_disabled":false,"rental_uris":{"android":"levelo://app?vid=c7ae5a27-c3f2-41a0-9f26-2aa40ec32666","ios":"levelo://app?vid=c7ae5a27-c3f2-41a0-9f26-2aa40ec32666"},"vehicle_type_id":"4","last_reported":1692295711,"current_range_meters":12400,"station_id":"ce4bhpp2rcd13ifvqhgg","pricing_plan_id":"free"},{"bike_id":"d62ee2a0-a6e5-4ab4-b891-22976d49f044","system_id":"levelo_inurba_marseille","lat":43.32661,"lon":5.40986,"is_reserved":false,"is_disabled":false,"rental_uris":{"android":"levelo://app?vid=d62ee2a0-a6e5-4ab4-b891-22976d49f044","ios":"levelo://app?vid=d62ee2a0-a6e5-4ab4-b891-22976d49f044"},"vehicle_type_id":"4","last_reported":1692295711,"current_range_meters":29600,"station_id":"ce4bhpp2rcd13ifvqhgg","pricing_plan_id":"free"},{"bike_id":"e3b70ec0-cd6c-4c04-a66a-2934995b5b73","system_id":"levelo_inurba_marseille","lat":43.32658,"lon":5.40988,"is_reserved":false,"is_disabled":false,"rental_uris":{"android":"levelo://app?vid=e3b70ec0-cd6c-4c04-a66a-2934995b5b73","ios":"levelo://app?vid=e3b70ec0-cd6c-4c04-a66a-2934995b5b73"},"vehicle_type_id":"4","last_reported":1692295711,"current_range_meters":7600,"station_id":"ce4bhpp2rcd13ifvqhgg","pricing_plan_id":"free"},{"bike_id":"4d9fcdc1-04eb-4c51-aff2-25b65acc154a","system_id":"levelo_inurba_marseille","lat":43.279087,"lon":5.380114,"is_reserved":false,"is_disabled":false,"rental_uris":{"android":"levelo://app?vid=4d9fcdc1-04eb-4c51-aff2-25b65acc154a","ios":"levelo://app?vid=4d9fcdc1-04eb-4c51-aff2-25b65acc154a"},"vehicle_type_id":"4","last_reported":1692295711,"current_range_meters":21200,"station_id":"ce4bhf92rcd13ifvqf50","pricing_plan_id":"free"},{"bike_id":"51386668-010a-4311-a51a-05ebff515ce8","system_id":"levelo_inurba_marseille","lat":43.279087,"lon":5.380114,"is_reserved":false,"is_disabled":false,"rental_uris":{"android":"levelo://app?vid=51386668-010a-4311-a51a-05ebff515ce8","ios":"levelo://app?vid=51386668-010a-4311-a51a-05ebff515ce8"},"vehicle_type_id":"4","last_reported":1692295711,"current_range_meters":14400,"station_id":"ce4bhf92rcd13ifvqf50","pricing_plan_id":"free"},{"bike_id":"15971d06-a6e6-416b-b5f8-c71c88f0d9b1","system_id":"levelo_inurba_marseille","lat":43.287154,"lon":5.399979,"is_reserved":false,"is_disabled":false,"rental_uris":{"android":"levelo://app?vid=15971d06-a6e6-416b-b5f8-c71c88f0d9b1","ios":"levelo://app?vid=15971d06-a6e6-416b-b5f8-c71c88f0d9b1"},"vehicle_type_id":"4","last_reported":1692295711,"current_range_meters":0,"station_id":"ce4bho92rcd13ifvqh3g","pricing_plan_id":"free"},{"bike_id":"929eaaec-c545-4d36-a325-0adc049c836a","system_id":"levelo_inurba_marseille","lat":43.320045,"lon":5.415046,"is_reserved":false,"is_disabled":false,"rental_uris":{"android":"levelo://app?vid=929eaaec-c545-4d36-a325-0adc049c836a","ios":"levelo://app?vid=929eaaec-c545-4d36-a325-0adc049c836a"},"vehicle_type_id":"4","last_reported":1692295711,"current_range_meters":24400,"station_id":"ce4bhq92rcd13ifvqhkg","pricing_plan_id":"free"},{"bike_id":"ca6a2bc8-61df-4593-a031-d982158e608e","system_id":"levelo_inurba_marseille","lat":43.320045,"lon":5.415048,"is_reserved":false,"is_disabled":false,"rental_uris":{"android":"levelo://app?vid=ca6a2bc8-61df-4593-a031-d982158e608e","ios":"levelo://app?vid=ca6a2bc8-61df-4593-a031-d982158e608e"},"vehicle_type_id":"4","last_reported":1692295711,"current_range_meters":8400,"station_id":"ce4bhq92rcd13ifvqhkg","pricing_plan_id":"free"},{"bike_id":"94a157d9-9250-4d0b-8153-0f3144dae506","system_id":"levelo_inurba_marseille","lat":43.320045,"lon":5.415046,"is_reserved":false,"is_disabled":false,"rental_uris":{"android":"levelo://app?vid=94a157d9-9250-4d0b-8153-0f3144dae506","ios":"levelo://app?vid=94a157d9-9250-4d0b-8153-0f3144dae506"},"vehicle_type_id":"4","last_reported":1692295711,"current_range_meters":31200,"station_id":"ce4bhq92rcd13ifvqhkg","pricing_plan_id":"free"},{"bike_id":"0359190f-5cc3-4c24-b76a-9c819bae3bc2","system_id":"levelo_inurba_marseille","lat":43.320045,"lon":5.415046,"is_reserved":false,"is_disabled":false,"rental_uris":{"android":"levelo://app?vid=0359190f-5cc3-4c24-b76a-9c819bae3bc2","ios":"levelo://app?vid=0359190f-5cc3-4c24-b76a-9c819bae3bc2"},"vehicle_type_id":"4","last_reported":1692295711,"current_range_meters":22000,"station_id":"ce4bhq92rcd13ifvqhkg","pricing_plan_id":"free"},{"bike_id":"2434e57a-8baf-4c7d-8a82-542a3bf37bb2","system_id":"levelo_inurba_marseille","lat":43.320045,"lon":5.415048,"is_reserved":false,"is_disabled":false,"rental_uris":{"android":"levelo://app?vid=2434e57a-8baf-4c7d-8a82-542a3bf37bb2","ios":"levelo://app?vid=2434e57a-8baf-4c7d-8a82-542a3bf37bb2"},"vehicle_type_id":"4","last_reported":1692295711,"current_range_meters":23600,"station_id":"ce4bhq92rcd13ifvqhkg","pricing_plan_id":"free"},{"bike_id":"c327718a-8fe6-4791-a349-aba0f8f94e82","system_id":"levelo_inurba_marseille","lat":43.27969,"lon":5.38711,"is_reserved":false,"is_disabled":false,"rental_uris":{"android":"levelo://app?vid=c327718a-8fe6-4791-a349-aba0f8f94e82","ios":"levelo://app?vid=c327718a-8fe6-4791-a349-aba0f8f94e82"},"vehicle_type_id":"4","last_reported":1692295711,"current_range_meters":27600,"station_id":"ce4bhg12rcd13ifvqf80","pricing_plan_id":"free"},{"bike_id":"888653f4-1048-483d-8c94-d16dc2c6a332","system_id":"levelo_inurba_marseille","lat":43.27626,"lon":5.36111,"is_reserved":false,"is_disabled":false,"rental_uris":{"android":"levelo://app?vid=888653f4-1048-483d-8c94-d16dc2c6a332","ios":"levelo://app?vid=888653f4-1048-483d-8c94-d16dc2c6a332"},"vehicle_type_id":"4","last_reported":1692295711,"current_range_meters":6800,"station_id":"ce4bgj92rcd13ifvqbe0","pricing_plan_id":"free"},{"bike_id":"a63739e2-74ba-4241-b03b-75000fbc4a0c","system_id":"levelo_inurba_marseille","lat":43.27618,"lon":5.361009,"is_reserved":false,"is_disabled":false,"rental_uris":{"android":"levelo://app?vid=a63739e2-74ba-4241-b03b-75000fbc4a0c","ios":"levelo://app?vid=a63739e2-74ba-4241-b03b-75000fbc4a0c"},"vehicle_type_id":"4","last_reported":1692295711,"current_range_meters":28800,"station_id":"ce4bgj92rcd13ifvqbe0","pricing_plan_id":"free"},{"bike_id":"75001701-ed95-4c4f-ae0f-256296c20192","system_id":"levelo_inurba_marseille","lat":43.32545,"lon":5.41437,"is_reserved":false,"is_disabled":false,"rental_uris":{"android":"levelo://app?vid=75001701-ed95-4c4f-ae0f-256296c20192","ios":"levelo://app?vid=75001701-ed95-4c4f-ae0f-256296c20192"},"vehicle_type_id":"4","last_reported":1692295711,"current_range_meters":27200,"station_id":"ce4bhq12rcd13ifvqhhg","pricing_plan_id":"free"},{"bike_id":"af4b42d4-dec3-42cd-9ba4-e4845e13fbae","system_id":"levelo_inurba_marseille","lat":43.2762,"lon":5.3611,"is_reserved":false,"is_disabled":false,"rental_uris":{"android":"levelo://app?vid=af4b42d4-dec3-42cd-9ba4-e4845e13fbae","ios":"levelo://app?vid=af4b42d4-dec3-42cd-9ba4-e4845e13fbae"},"vehicle_type_id":"4","last_reported":1692295711,"current_range_meters":1600,"station_id":"ce4bgj92rcd13ifvqbe0","pricing_plan_id":"free"},{"bike_id":"454b0b4f-dc87-4e03-ac2a-cf0617f16bff","system_id":"levelo_inurba_marseille","lat":43.325233,"lon":5.414318,"is_reserved":false,"is_disabled":false,"rental_uris":{"android":"levelo://app?vid=454b0b4f-dc87-4e03-ac2a-cf0617f16bff","ios":"levelo://app?vid=454b0b4f-dc87-4e03-ac2a-cf0617f16bff"},"vehicle_type_id":"4","last_reported":1692295711,"current_range_meters":31200,"station_id":"ce4bhq12rcd13ifvqhhg","pricing_plan_id":"free"},{"bike_id":"f7894b0c-3972-4e6c-b9f2-f407c235c466","system_id":"levelo_inurba_marseille","lat":43.3254,"lon":5.41444,"is_reserved":false,"is_disabled":false,"rental_uris":{"android":"levelo://app?vid=f7894b0c-3972-4e6c-b9f2-f407c235c466","ios":"levelo://app?vid=f7894b0c-3972-4e6c-b9f2-f407c235c466"},"vehicle_type_id":"4","last_reported":1692295711,"current_range_meters":12400,"station_id":"ce4bhq12rcd13ifvqhhg","pricing_plan_id":"free"},{"bike_id":"e981660e-dee5-445f-8b41-c7bab5adbf55","system_id":"levelo_inurba_marseille","lat":43.32545,"lon":5.41443,"is_reserved":false,"is_disabled":false,"rental_uris":{"android":"levelo://app?vid=e981660e-dee5-445f-8b41-c7bab5adbf55","ios":"levelo://app?vid=e981660e-dee5-445f-8b41-c7bab5adbf55"},"vehicle_type_id":"4","last_reported":1692295711,"current_range_meters":13200,"station_id":"ce4bhq12rcd13ifvqhhg","pricing_plan_id":"free"},{"bike_id":"fb75b0dc-b7ef-4c5d-9fff-ba63e9728994","system_id":"levelo_inurba_marseille","lat":43.325233,"lon":5.414318,"is_reserved":false,"is_disabled":false,"rental_uris":{"android":"levelo://app?vid=fb75b0dc-b7ef-4c5d-9fff-ba63e9728994","ios":"levelo://app?vid=fb75b0dc-b7ef-4c5d-9fff-ba63e9728994"},"vehicle_type_id":"4","last_reported":1692295711,"current_range_meters":28400,"station_id":"ce4bhq12rcd13ifvqhhg","pricing_plan_id":"free"},