{"last_updated":1680041193,"ttl":30,"version":"2.2","data":{"bikes":[{"bike_id":"91bf36f1-f86e-441a-9658-06b9d1b0ac71","system_id":"levelo_inurba_marseille","lat":43.312463,"lon":5.368123,"is_reserved":false,"is_disabled":false,"rental_uris":{"android":"levelo://app?vid=91bf36f1-f86e-441a-9658-06b9d1b0ac71","ios":"levelo://app?vid=91bf36f1-f86e-441a-9658-06b9d1b0ac71"},"vehicle_type_id":"4","last_reported":1680041194,"current_range_meters":2400,"station_id":"ce4bgl92rcd13ifvqbq0","pricing_plan_id":"free"},{"bike_id":"63926500-847f-4ac9-8f2c-636c8b11ce90","system_id":"levelo_inurba_marseille","lat":43.314811,"lon":5.373103,"is_reserved":false,"is_disabled":false,"rental_uris":{"android":"levelo://app?vid=63926500-847f-4ac9-8f2c-636c8b11ce90","ios":"levelo://app?vid=63926500-847f-4ac9-8f2c-636c8b11ce90"},"vehicle_type_id":"4","last_reported":1680041194,"current_range_meters":800,"station_id":"ce4bgt12rcd13ifvqcd0","pricing_plan_id":"free"},{"bike_id":"ac646941-e27d-4624-8c7f-2037508bcec3","system_id":"levelo_inurba_marseille","lat":43.30889,"lon":5.37195,"is_reserved":false,"is_disabled":false,"rental_uris":{"android":"levelo://app?vid=ac646941-e27d-4624-8c7f-2037508bcec3","ios":"levelo://app?vid=ac646941-e27d-4624-8c7f-2037508bcec3"},"vehicle_type_id":"4","last_reported":1680041194,"current_range_meters":0,"station_id":"","pricing_plan_id":"free"},{"bike_id":"67b970a0-4a1a-4b80-bf0a-28093471211b","system_id":"levelo_inurba_marseille","lat":43.308961,"lon":5.372052,"is_reserved":false,"is_disabled":false,"rental_uris":{"android":"levelo://app?vid=67b970a0-4a1a-4b80-bf0a-28093471211b","ios":"levelo://app?vid=67b970a0-4a1a-4b80-bf0a-28093471211b"},"vehicle_type_id":"4","last_reported":1680041194,"current_range_meters":13200,"station_id":"","pricing_plan_id":"free"},{"bike_id":"a955af64-544d-4f99-8331-801f19d84af1","system_id":"levelo_inurba_marseille","lat":43.307663,"lon":5.372272,"is_reserved":false,"is_disabled":false,"rental_uris":{"android":"levelo://app?vid=a955af64-544d-4f99-8331-801f19d84af1","ios":"levelo://app?vid=a955af64-544d-4f99-8331-801f19d84af1"},"vehicle_type_id":"4","last_reported":1680041194,"current_range_meters":24400,"station_id":"","pricing_plan_id":"free"},{"bike_id":"342d7e96-255d-4245-a386-fa08f1328871","system_id":"levelo_inurba_marseille","lat":43.305989,"lon":5.37225,"is_reserved":false,"is_disabled":false,"rental_uris":{"android":"levelo://app?vid=342d7e96-255d-4245-a386-fa08f1328871","ios":"levelo://app?vid=342d7e96-255d-4245-a386-fa08f1328871"},"vehicle_type_id":"4","last_reported":1680041194,"current_range_meters":20400,"station_id":"ce4bgqh2rcd13ifvqc4g","pricing_plan_id":"free"},{"bike_id":"1e05fb77-3245-4239-898c-676e433f3db1","system_id":"levelo_inurba_marseille","lat":43.305989,"lon":5.37225,"is_reserved":false,"is_disabled":false,"rental_uris":{"android":"levelo://app?vid=1e05fb77-3245-4239-898c-676e433f3db1","ios":"levelo://app?vid=1e05fb77-3245-4239-898c-676e433f3db1"},"vehicle_type_id":"4","last_reported":1680041194,"current_range_meters":24400,"station_id":"ce4bgqh2rcd13ifvqc4g","pricing_plan_id":"free"},{"bike_id":"9fc5c022-bc2e-4909-af04-960983e5e6c6","system_id":"levelo_inurba_marseille","lat":43.305989,"lon":5.37225,"is_reserved":false,"is_disabled":false,"rental_uris":{"android":"levelo://app?vid=9fc5c022-bc2e-4909-af04-960983e5e6c6","ios":"levelo://app?vid=9fc5c022-bc2e-4909-af04-960983e5e6c6"},"vehicle_type_id":"4","last_reported":1680041194,"current_range_meters":8800,"station_id":"ce4bgqh2rcd13ifvqc4g","pricing_plan_id":"free"},{"bike_id":"da36b960-7bd2-47e4-b6e6-08a704121632","system_id":"levelo_inurba_marseille","lat":43.305989,"lon":5.37225,"is_reserved":false,"is_disabled":false,"rental_uris":{"android":"levelo://app?vid=da36b960-7bd2-47e4-b6e6-08a704121632","ios":"levelo://app?vid=da36b960-7bd2-47e4-b6e6-08a704121632"},"vehicle_type_id":"4","last_reported":1680041194,"current_range_meters":10800,"station_id":"ce4bgqh2rcd13ifvqc4g","pricing_plan_id":"free"},{"bike_id":"85184c1c-c461-4f77-afe8-8e01dbdee478","system_id":"levelo_inurba_marseille","lat":43.305989,"lon":5.37225,"is_reserved":false,"is_disabled":false,"rental_uris":{"android":"levelo://app?vid=85184c1c-c461-4f77-afe8-8e01dbdee478","ios":"levelo://app?vid=85184c1c-c461-4f77-afe8-8e01dbdee478"},"vehicle_type_id":"4","last_reported":1680041194,"current_range_meters":22000,"station_id":"ce4bgqh2rcd13ifvqc4g","pricing_plan_id":"free"},{"bike_id":"bf473e12-53cd-4823-bded-9b22dde1034a","system_id":"levelo_inurba_marseille","lat":43.305989,"lon":5.37225,"is_reserved":false,"is_disabled":false,"rental_uris":{"android":"levelo://app?vid=bf473e12-53cd-4823-bded-9b22dde1034a","ios":"levelo://app?vid=bf473e12-53cd-4823-bded-9b22dde1034a"},"vehicle_type_id":"4","last_reported":1680041194,"current_range_meters":26400,"station_id":"ce4bgqh2rcd13ifvqc4g","pricing_plan_id":"free"},{"bike_id":"00ec660b-516c-4614-9e7e-868029728f39","system_id":"levelo_inurba_marseille","lat":43.305989,"lon":5.37225,"is_reserved":false,"is_disabled":false,"rental_uris":{"android":"levelo://app?vid=00ec660b-516c-4614-9e7e-868029728f39","ios":"levelo://app?vid=00ec660b-516c-4614-9e7e-868029728f39"},"vehicle_type_id":"4","last_reported":1680041194,"current_range_meters":5200,"station_id":"ce4bgqh2rcd13ifvqc4g","pricing_plan_id":"free"},{"bike_id":"adb76e98-5dd3-4cf4-bf86-72bb3c617726","system_id":"levelo_inurba_marseille","lat":43.310482,"lon":5.377457,"is_reserved":false,"is_disabled":false,"rental_uris":{"android":"levelo://app?vid=adb76e98-5dd3-4cf4-bf86-72bb3c617726","ios":"levelo://app?vid=adb76e98-5dd3-4cf4-bf86-72bb3c617726"},"vehicle_type_id":"4","last_reported":1680041194,"current_range_meters":0,"station_id":"","pricing_plan_id":"free"},{"bike_id":"f24cabc5-11a1-4761-8067-959ade1a1112","system_id":"levelo_inurba_marseille","lat":43.317,"lon":5.37759,"is_reserved":false,"is_disabled":false,"rental_uris":{"android":"levelo://app?vid=f24cabc5-11a1-4761-8067-959ade1a1112","ios":"levelo://app?vid=f24cabc5-11a1-4761-8067-959ade1a1112"},"vehicle_type_id":"4","last_reported":1680041194,"current_range_meters":2400,"station_id":"","pricing_plan_id":"free"},{"bike_id":"9bf0cb1d-fa46-4d38-8911-eca78389a18e","system_id":"levelo_inurba_marseille","lat":43.317075,"lon":5.377367,"is_reserved":false,"is_disabled":false,"rental_uris":{"android":"levelo://app?vid=9bf0cb1d-fa46-4d38-8911-eca78389a18e","ios":"levelo://app?vid=9bf0cb1d-fa46-4d38-8911-eca78389a18e"},"vehicle_type_id":"4","last_reported":1680041194,"current_range_meters":26400,"station_id":"ce4bgth2rcd13ifvqch0","pricing_plan_id":"free"},{"bike_id":"60f58b3b-c240-46bc-9513-38e9981f9bba","system_id":"levelo_inurba_marseille","lat":43.30736,"lon":5.37854,"is_reserved":false,"is_disabled":false,"rental_uris":{"android":"levelo://app?vid=60f58b3b-c240-46bc-9513-38e9981f9bba","ios":"levelo://app?vid=60f58b3b-c240-46bc-9513-38e9981f9bba"},"vehicle_type_id":"4","last_reported":1680041194,"current_range_meters":8400,"station_id":"","pricing_plan_id":"free"},{"bike_id":"dc7006a9-da8a-4370-a6b9-ad64c17425d1","system_id":"levelo_inurba_marseille","lat":43.315277,"lon":5.38037,"is_reserved":false,"is_disabled":false,"rental_uris":{"android":"levelo://app?vid=dc7006a9-da8a-4370-a6b9-ad64c17425d1","ios":"levelo://app?vid=dc7006a9-da8a-4370-a6b9-ad64c17425d1"},"vehicle_type_id":"4","last_reported":1680041194,"current_range_meters":1600,"station_id":"","pricing_plan_id":"free"},{"bike_id":"fe43e75b-4a18-411f-80fd-d53792f53645","system_id":"levelo_inurba_marseille","lat":43.308727,"lon":5.379703,"is_reserved":false,"is_disabled":false,"rental_uris":{"android":"levelo://app?vid=fe43e75b-4a18-411f-80fd-d53792f53645","ios":"levelo://app?vid=fe43e75b-4a18-411f-80fd-d53792f53645"},"vehicle_type_id":"4","last_reported":1680041194,"current_range_meters":0,"station_id":"","pricing_plan_id":"free"},{"bike_id":"295fc33f-eaf2-4897-bcee-be4e4f4673d7","system_id":"levelo_inurba_marseille","lat":43.301939,"lon":5.366286,"is_reserved":false,"is_disabled":false,"rental_uris":{"android":"levelo://app?vid=295fc33f-eaf2-4897-bcee-be4e4f4673d7","ios":"levelo://app?vid=295fc33f-eaf2-4897-bcee-be4e4f4673d7"},"vehicle_type_id":"4","last_reported":1680041194,"current_range_meters":13200,"station_id":"ce4bgrh2rcd13ifvqc8g","pricing_plan_id":"free"},{"bike_id":"2f05aee0-2f0e-4649-9ae1-25f27ae0df60","system_id":"levelo_inurba_marseille","lat":43.308,"lon":5.38149,"is_reserved":false,"is_disabled":false,"rental_uris":{"android":"levelo://app?vid=2f05aee0-2f0e-4649-9ae1-25f27ae0df60","ios":"levelo://app?vid=2f05aee0-2f0e-4649-9ae1-25f27ae0df60"},"vehicle_type_id":"4","last_reported":1680041194,"current_range_meters":4000,"station_id":"ce4bgt12rcd13ifvqce0","pricing_plan_id":"free"},{"bike_id":"6097851a-f849-4fdc-91ea-51a6c68a550c","system_id":"levelo_inurba_marseille","lat":43.314811,"lon":5.373103,"is_reserved":false,"is_disabled":false,"rental_uris":{"android":"levelo://app?vid=6097851a-f849-4fdc-91ea-51a6c68a550c","ios":"levelo://app?vid=6097851a-f849-4fdc-91ea-51a6c68a550c"},"vehicle_type_id":"4","last_reported":1680041194,"current_range_meters":0,"station_id":"ce4bgt12rcd13ifvqcd0","pricing_plan_id":"free"},{"bike_id":"c4f44354-5683-4d64-840b-ef4dedb3d0d8","system_id":"levelo_inurba_marseille","lat":43.314811,"lon":5.373103,"is_reserved":false,"is_disabled":false,"rental_uris":{"android":"levelo://app?vid=c4f44354-5683-4d64-840b-ef4dedb3d0d8","ios":"levelo://app?vid=c4f44354-5683-4d64-840b-ef4dedb3d0d8"},"vehicle_type_id":"4","last_reported":1680041194,"current_range_meters":8400,"station_id":"ce4bgt12rcd13ifvqcd0","pricing_plan_id":"free"},{"bike_id":"e4a5f3b5-4d66-42ef-b1a6-e362c0670fd5","system_id":"levelo_inurba_marseille","lat":43.314811,"lon":5.373103,"is_reserved":false,"is_disabled":false,"rental_uris":{"android":"levelo://app?vid=e4a5f3b5-4d66-42ef-b1a6-e362c0670fd5","ios":"levelo://app?vid=e4a5f3b5-4d66-42ef-b1a6-e362c0670fd5"},"vehicle_type_id":"4","last_reported":1680041194,"current_range_meters":12000,"station_id":"ce4bgt12rcd13ifvqcd0","pricing_plan_id":"free"},{"bike_id":"b04ad87a-5346-45ac-a90b-6c5104f42ad0","system_id":"levelo_inurba_marseille","lat":43.304606,"lon":5.379026,"is_reserved":false,"is_disabled":false,"rental_uris":{"android":"levelo://app?vid=b04ad87a-5346-45ac-a90b-6c5104f42ad0","ios":"levelo://app?vid=b04ad87a-5346-45ac-a90b-6c5104f42ad0"},"vehicle_type_id":"4","last_reported":1680041194,"current_range_meters":1600,"station_id":"ce4bgup2rcd13ifvqcn0","pricing_plan_id":"free"},{"bike_id":"55b0bfdf-da9f-4575-936f-8d1297f4e945","system_id":"levelo_inurba_marseille","lat":43.304606,"lon":5.379026,"is_reserved":false,"is_disabled":false,"rental_uris":{"android":"levelo://app?vid=55b0bfdf-da9f-4575-936f-8d1297f4e945","ios":"levelo://app?vid=55b0bfdf-da9f-4575-936f-8d1297f4e945"},"vehicle_type_id":"4","last_reported":1680041194,"current_range_meters":28000,"station_id":"ce4bgup2rcd13ifvqcn0","pricing_plan_id":"free"},{"bike_id":"10e98293-e8d8-4a02-9590-428b1acac8cc","system_id":"levelo_inurba_marseille","lat":43.30141,"lon":5.37419,"is_reserved":false,"is_disabled":false,"rental_uris":{"android":"levelo://app?vid=10e98293-e8d8-4a02-9590-428b1acac8cc","ios":"levelo://app?vid=10e98293-e8d8-4a02-9590-428b1acac8cc"},"vehicle_type_id":"4","last_reported":1680041194,"current_range_meters":10000,"station_id":"ce4bgs92rcd13ifvqcc0","pricing_plan_id":"free"},{"bike_id":"e7039546-bda1-430f-b4b5-34977126aa68","system_id":"levelo_inurba_marseille","lat":43.30141,"lon":5.37423,"is_reserved":false,"is_disabled":false,"rental_uris":{"android":"levelo://app?vid=e7039546-bda1-430f-b4b5-34977126aa68","ios":"levelo://app?vid=e7039546-bda1-430f-b4b5-34977126aa68"},"vehicle_type_id":"4","last_reported":1680041194,"current_range_meters":14800,"station_id":"ce4bgs92rcd13ifvqcc0","pricing_plan_id":"free"},{"bike_id":"7f0f873c-df0f-4ff1-8a4c-6f11deacc8a6","system_id":"levelo_inurba_marseille","lat":43.30137,"lon":5.37424,"is_reserved":false,"is_disabled":false,"rental_uris":{"android":"levelo://app?vid=7f0f873c-df0f-4ff1-8a4c-6f11deacc8a6","ios":"levelo://app?vid=7f0f873c-df0f-4ff1-8a4c-6f11deacc8a6"},"vehicle_type_id":"4","last_reported":1680041194,"current_range_meters":19600,"station_id":"ce4bgs92rcd13ifvqcc0","pricing_plan_id":"free"},{"bike_id":"f71a4641-3f0d-49e8-b910-5f99607903bf","system_id":"levelo_inurba_marseille","lat":43.300163,"lon":5.365613,"is_reserved":false,"is_disabled":false,"rental_uris":{"android":"levelo://app?vid=f71a4641-3f0d-49e8-b910-5f99607903bf","ios":"levelo://app?vid=f71a4641-3f0d-49e8-b910-5f99607903bf"},"vehicle_type_id":"4","last_reported":1680041194,"current_range_meters":2000,"station_id":"","pricing_plan_id":"free"},{"bike_id":"1337abf8-cd3c-4904-b0aa-cf005dc2fdef","system_id":"levelo_inurba_marseille","lat":43.31632,"lon":5.383675,"is_reserved":false,"is_disabled":false,"rental_uris":{"android":"levelo://app?vid=1337abf8-cd3c-4904-b0aa-cf005dc2fdef","ios":"levelo://app?vid=1337abf8-cd3c-4904-b0aa-cf005dc2fdef"},"vehicle_type_id":"4","last_reported":1680041194,"current_range_meters":20400,"station_id":"ce4bgt92rcd13ifvqcf0","pricing_plan_id":"free"},{"bike_id":"5198e277-e71a-47fa-8f49-e322f12d3fa2","system_id":"levelo_inurba_marseille","lat":43.313571,"lon":5.384829,"is_reserved":false,"is_disabled":false,"rental_uris":{"android":"levelo://app?vid=5198e277-e71a-47fa-8f49-e322f12d3fa2","ios":"levelo://app?vid=5198e277-e71a-47fa-8f49-e322f12d3fa2"},"vehicle_type_id":"4","last_reported":1680041194,"current_range_meters":18400,"station_id":"ce4bgt92rcd13ifvqcf0","pricing_plan_id":"free"},{"bike_id":"8501d529-8945-405a-95ba-d9d204ae4f34","system_id":"levelo_inurba_marseille","lat":43.31364,"lon":5.38495,"is_reserved":false,"is_disabled":false,"rental_uris":{"android":"levelo://app?vid=8501d529-8945-405a-95ba-d9d204ae4f34","ios":"levelo://app?vid=8501d529-8945-405a-95ba-d9d204ae4f34"},"vehicle_type_id":"4","last_reported":1680041194,"current_range_meters":28000,"station_id":"ce4bgt92rcd13ifvqcf0","pricing_plan_id":"free"},{"bike_id":"1af28ebf-c25c-4d75-b21e-496573e8d138","system_id":"levelo_inurba_marseille","lat":43.313571,"lon":5.384829,"is_reserved":false,"is_disabled":false,"rental_uris":{"android":"levelo://app?vid=1af28ebf-c25c-4d75-b21e-496573e8d138","ios":"levelo://app?vid=1af28ebf-c25c-4d75-b21e-496573e8d138"},"vehicle_type_id":"4","last_reported":1680041194,"current_range_meters":5200,"station_id":"ce4bgt92rcd13ifvqcf0","pricing_plan_id":"free"},{"bike_id":"bae0f128-bdde-4705-8860-250778bfd39d","system_id":"levelo_inurba_marseille","lat":43.29855,"lon":5.36284,"is_reserved":false,"is_disabled":false,"rental_uris":{"android":"levelo://app?vid=bae0f128-bdde-4705-8860-250778bfd39d","ios":"levelo://app?vid=bae0f128-bdde-4705-8860-250778bfd39d"},"vehicle_type_id":"4","last_reported":1680041194,"current_range_meters":27200,"station_id":"ce4bgpp2rcd13ifvqc3g","pricing_plan_id":"free"},{"bike_id":"b283e8e9-1c98-4ffd-978b-49e5cd7e097e","system_id":"levelo_inurba_marseille","lat":43.305364,"lon":5.384119,"is_reserved":false,"is_disabled":false,"rental_uris":{"android":"levelo://app?vid=b283e8e9-1c98-4ffd-978b-49e5cd7e097e","ios":"levelo://app?vid=b283e8e9-1c98-4ffd-978b-49e5cd7e097e"},"vehicle_type_id":"4","last_reported":1680041194,"current_range_meters":20400,"station_id":"ce4bgg92rcd13ifvqb30","pricing_plan_id":"free"},{"bike_id":"89107e7b-65b2-452e-aea3-58167acf1ca0","system_id":"levelo_inurba_marseille","lat":43.298433,"lon":5.362774,"is_reserved":false,"is_disabled":false,"rental_uris":{"android":"levelo://app?vid=89107e7b-65b2-452e-aea3-58167acf1ca0","ios":"levelo://app?vid=89107e7b-65b2-452e-aea3-58167acf1ca0"},"vehicle_type_id":"4","last_reported":1680041194,"current_range_meters":5200,"station_id":"ce4bgpp2rcd13ifvqc3g","pricing_plan_id":"free"},{"bike_id":"283a7773-6b97-4de2-ae46-c99163a71ec9","system_id":"levelo_inurba_marseille","lat":43.298433,"lon":5.362774,"is_reserved":false,"is_disabled":false,"rental_uris":{"android":"levelo://app?vid=283a7773-6b97-4de2-ae46-c99163a71ec9","ios":"levelo://app?vid=283a7773-6b97-4de2-ae46-c99163a71ec9"},"vehicle_type_id":"4","last_reported":1680041194,"current_range_meters":22400,"station_id":"ce4bgpp2rcd13ifvqc3g","pricing_plan_id":"free"},{"bike_id":"7008bf26-6a47-4d2e-ae36-b113f25b6822","system_id":"levelo_inurba_marseille","lat":43.311722,"lon":5.387247,"is_reserved":false,"is_disabled":false,"rental_uris":{"android":"levelo://app?vid=7008bf26-6a47-4d2e-ae36-b113f25b6822","ios":"levelo://app?vid=7008bf26-6a47-4d2e-ae36-b113f25b6822"},"vehicle_type_id":"4","last_reported":1680041194,"current_range_meters":28400,"station_id":"ce4bgv12rcd13ifvqcp0","pricing_plan_id":"free"},{"bike_id":"20315f5c-bfad-4df0-890d-26edda9fd490","system_id":"levelo_inurba_marseille","lat":43.311722,"lon":5.387247,"is_reserved":false,"is_disabled":false,"rental_uris":{"android":"levelo://app?vid=20315f5c-bfad-4df0-890d-26edda9fd490","ios":"levelo://app?vid=20315f5c-bfad-4df0-890d-26edda9fd490"},"vehicle_type_id":"4","last_reported":1680041194,"current_range_meters":27600,"station_id":"ce4bgv12rcd13ifvqcp0","pricing_plan_id":"free"},{"bike_id":"4e804258-aecd-45fd-9853-cae2d3f96738","system_id":"levelo_inurba_marseille","lat":43.3283,"lon":5.36691,"is_reserved":false,"is_disabled":false,"rental_uris":{"android":"levelo://app?vid=4e804258-aecd-45fd-9853-cae2d3f96738","ios":"levelo://app?vid=4e804258-aecd-45fd-9853-cae2d3f96738"},"vehicle_type_id":"4","last_reported":1680041194,"current_range_meters":24400,"station_id":"ce4bhs92rcd13ifvqi0g","pricing_plan_id":"free"},{"bike_id":"2b119e54-d288-4b14-a67b-428c53707e03","system_id":"levelo_inurba_marseille","lat":43.32832,"lon":5.366881,"is_reserved":false,"is_disabled":false,"rental_uris":{"android":"levelo://app?vid=2b119e54-d288-4b14-a67b-428c53707e03","ios":"levelo://app?vid=2b119e54-d288-4b14-a67b-428c53707e03"},"vehicle_type_id":"4","last_reported":1680041194,"current_range_meters":0,"station_id":"","pricing_plan_id":"free"},{"bike_id":"d6e60081-ecfe-4778-bd4c-35c891152c09","system_id":"levelo_inurba_marseille","lat":43.29573,"lon":5.367355,"is_reserved":false,"is_disabled":false,"rental_uris":{"android":"levelo://app?vid=d6e60081-ecfe-4778-bd4c-35c891152c09","ios":"levelo://app?vid=d6e60081-ecfe-4778-bd4c-35c891152c09"},"vehicle_type_id":"4","last_reported":1680041194,"current_range_meters":29600,"station_id":"ce4bgph2rcd13ifvqc2g","pricing_plan_id":"free"},{"bike_id":"7c7f0310-83c6-406a-82eb-f7e0b4fd32c8","system_id":"levelo_inurba_marseille","lat":43.296131,"lon":5.370791,"is_reserved":false,"is_disabled":false,"rental_uris":{"android":"levelo://app?vid=7c7f0310-83c6-406a-82eb-f7e0b4fd32c8","ios":"levelo://app?vid=7c7f0310-83c6-406a-82eb-f7e0b4fd32c8"},"vehicle_type_id":"4","last_reported":1680041194,"current_range_meters":7200,"station_id":"ce4bgnh2rcd13ifvqc0g","pricing_plan_id":"free"},{"bike_id":"2a2fda19-8689-4a9d-a78f-1e64b47991f8","system_id":"levelo_inurba_marseille","lat":43.296129,"lon":5.370777,"is_reserved":false,"is_disabled":false,"rental_uris":{"android":"levelo://app?vid=2a2fda19-8689-4a9d-a78f-1e64b47991f8","ios":"levelo://app?vid=2a2fda19-8689-4a9d-a78f-1e64b47991f8"},"vehicle_type_id":"4","last_reported":1680041194,"current_range_meters":7600,"station_id":"ce4bgnh2rcd13ifvqc0g","pricing_plan_id":"free"},{"bike_id":"782319ef-a096-43c9-bf89-9fa487a86e08","system_id":"levelo_inurba_marseille","lat":43.29573,"lon":5.367355,"is_reserved":false,"is_disabled":false,"rental_uris":{"android":"levelo://app?vid=782319ef-a096-43c9-bf89-9fa487a86e08","ios":"levelo://app?vid=782319ef-a096-43c9-bf89-9fa487a86e08"},"vehicle_type_id":"4","last_reported":1680041194,"current_range_meters":8400,"station_id":"ce4bgph2rcd13ifvqc2g","pricing_plan_id":"free"},{"bike_id":"72c120a6-5e95-4714-8ded-1e7f249f07d4","system_id":"levelo_inurba_marseille","lat":43.29573,"lon":5.367355,"is_reserved":false,"is_disabled":false,"rental_uris":{"android":"levelo://app?vid=72c120a6-5e95-4714-8ded-1e7f249f07d4","ios":"levelo://app?vid=72c120a6-5e95-4714-8ded-1e7f249f07d4"},"vehicle_type_id":"4","last_reported":1680041194,"current_range_meters":30800,"station_id":"ce4bgph2rcd13ifvqc2g","pricing_plan_id":"free"},{"bike_id":"509b95d8-9383-4b0f-8601-025a466ada3b","system_id":"levelo_inurba_marseille","lat":43.29584,"lon":5.36744,"is_reserved":false,"is_disabled":false,"rental_uris":{"android":"levelo://app?vid=509b95d8-9383-4b0f-8601-025a466ada3b","ios":"levelo://app?vid=509b95d8-9383-4b0f-8601-025a466ada3b"},"vehicle_type_id":"4","last_reported":1680041194,"current_range_meters":29600,"station_id":"ce4bgph2rcd13ifvqc2g","pricing_plan_id":"free"},{"bike_id":"a280d791-030a-484c-9967-dac448780396","system_id":"levelo_inurba_marseille","lat":43.296131,"lon":5.370791,"is_reserved":false,"is_disabled":false,"rental_uris":{"android":"levelo://app?vid=a280d791-030a-484c-9967-dac448780396","ios":"levelo://app?vid=a280d791-030a-484c-9967-dac448780396"},"vehicle_type_id":"4","last_reported":1680041194,"current_range_meters":4000,"station_id":"ce4bgnh2rcd13ifvqc0g","pricing_plan_id":"free"},{"bike_id":"9254cbe8-72ce-46bf-99dc-638124988422","system_id":"levelo_inurba_marseille","lat":43.29573,"lon":5.367355,"is_reserved":false,"is_disabled":false,"rental_uris":{"android":"levelo://app?vid=9254cbe8-72ce-46bf-99dc-638124988422","ios":"levelo://app?vid=9254cbe8-72ce-46bf-99dc-638124988422"},"vehicle_type_id":"4","last_reported":1680041194,"current_range_meters":31200,"station_id":"ce4bgph2rcd13ifvqc2g","pricing_plan_id":"free"},{"bike_id":"5b896a3b-dc3b-4c69-baf6-816df0b158b6","system_id":"levelo_inurba_marseille","lat":43.299028,"lon":5.381509,"is_reserved":false,"is_disabled":false,"rental_uris":{"android":"levelo://app?vid=5b896a3b-dc3b-4c69-baf6-816df0b158b6","ios":"levelo://app?vid=5b896a3b-dc3b-4c69-baf6-816df0b158b6"},"vehicle_type_id":"4","last_reported":1680041194,"current_range_meters":9600,"station_id":"ce4bgj12rcd13ifvqbc0","pricing_plan_id":"free"},{"bike_id":"f487097e-4cf0-4b39-8138-db20ece025ac","system_id":"levelo_inurba_marseille","lat":43.309589,"lon":5.390258,"is_reserved":false,"is_disabled":false,"rental_uris":{"android":"levelo://app?vid=f487097e-4cf0-4b39-8138-db20ece025ac","ios":"levelo://app?vid=f487097e-4cf0-4b39-8138-db20ece025ac"},"vehicle_type_id":"4","last_reported":1680041194,"current_range_meters":25600,"station_id":"ce4bgup2rcd13ifvqco0","pricing_plan_id":"free"},{"bike_id":"1225195f-45ff-4438-b1c6-1d98d68ff908","system_id":"levelo_inurba_marseille","lat":43.309589,"lon":5.390258,"is_reserved":false,"is_disabled":false,"rental_uris":{"android":"levelo://app?vid=1225195f-45ff-4438-b1c6-1d98d68ff908","ios":"levelo://app?vid=1225195f-45ff-4438-b1c6-1d98d68ff908"},"vehicle_type_id":"4","last_reported":1680041194,"current_range_meters":18400,"station_id":"ce4bgup2rcd13ifvqco0","pricing_plan_id":"free"},{"bike_id":"899efe37-1289-4eb0-beeb-e7a3ab55331d","system_id":"levelo_inurba_marseille","lat":43.317557,"lon":5.390072,"is_reserved":false,"is_disabled":false,"rental_uris":{"android":"levelo://app?vid=899efe37-1289-4eb0-beeb-e7a3ab55331d","ios":"levelo://app?vid=899efe37-1289-4eb0-beeb-e7a3ab55331d"},"vehicle_type_id":"4","last_reported":1680041194,"current_range_meters":13600,"station_id":"","pricing_plan_id":"free"},{"bike_id":"d1ad5ec2-897b-4960-a7d4-ab4e0645ffff","system_id":"levelo_inurba_marseille","lat":43.317557,"lon":5.390173,"is_reserved":false,"is_disabled":false,"rental_uris":{"android":"levelo://app?vid=d1ad5ec2-897b-4960-a7d4-ab4e0645ffff","ios":"levelo://app?vid=d1ad5ec2-897b-4960-a7d4-ab4e0645ffff"},"vehicle_type_id":"4","last_reported":1680041194,"current_range_meters":0,"station_id":"ce4bhqp2rcd13ifvqhng","pricing_plan_id":"free"},{"bike_id":"72728d2e-90e4-4fda-9846-53c3cd7420e6","system_id":"levelo_inurba_marseille","lat":43.298037,"lon":5.381066,"is_reserved":false,"is_disabled":false,"rental_uris":{"android":"levelo://app?vid=72728d2e-90e4-4fda-9846-53c3cd7420e6","ios":"levelo://app?vid=72728d2e-90e4-4fda-9846-53c3cd7420e6"},"vehicle_type_id":"4","last_reported":1680041194,"current_range_meters":11600,"station_id":"ce4bgip2rcd13ifvqbb0","pricing_plan_id":"free"},{"bike_id":"33fe018d-146a-4b7a-baab-97ec88c1c25f","system_id":"levelo_inurba_marseille","lat":43.301763,"lon":5.386333,"is_reserved":false,"is_disabled":false,"rental_uris":{"android":"levelo://app?vid=33fe018d-146a-4b7a-baab-97ec88c1c25f","ios":"levelo://app?vid=33fe018d-146a-4b7a-baab-97ec88c1c25f"},"vehicle_type_id":"4","last_reported":1680041194,"current_range_meters":800,"station_id":"","pricing_plan_id":"free"},{"bike_id":"ef8b451d-155f-4aec-be9d-a7604e8a58d4","system_id":"levelo_inurba_marseille","lat":43.297894,"lon":5.381066,"is_reserved":false,"is_disabled":false,"rental_uris":{"android":"levelo://app?vid=ef8b451d-155f-4aec-be9d-a7604e8a58d4","ios":"levelo://app?vid=ef8b451d-155f-4aec-be9d-a7604e8a58d4"},"vehicle_type_id":"4","last_reported":1680041194,"current_range_meters":0,"station_id":"ce4bgip2rcd13ifvqbb0","pricing_plan_id":"free"},{"bike_id":"cc187947-94d4-4b51-ab64-ac7fec16561f","system_id":"levelo_inurba_marseille","lat":43.304278,"lon":5.388868,"is_reserved":false,"is_disabled":false,"rental_uris":{"android":"levelo://app?vid=cc187947-94d4-4b51-ab64-ac7fec16561f","ios":"levelo://app?vid=cc187947-94d4-4b51-ab64-ac7fec16561f"},"vehicle_type_id":"4","last_reported":1680041194,"current_range_meters":1600,"station_id":"ce4bgk12rcd13ifvqbi0","pricing_plan_id":"free"},{"bike_id":"760bc403-bb63-4a8b-a353-32668727365a","system_id":"levelo_inurba_marseille","lat":43.304278,"lon":5.388868,"is_reserved":false,"is_disabled":false,"rental_uris":{"android":"levelo://app?vid=760bc403-bb63-4a8b-a353-32668727365a","ios":"levelo://app?vid=760bc403-bb63-4a8b-a353-32668727365a"},"vehicle_type_id":"4","last_reported":1680041194,"current_range_meters":5200,"station_id":"ce4bgk12rcd13ifvqbi0","pricing_plan_id":"free"},{"bike_id":"79ce6a8d-3272-461d-8535-a1b6513defa6","system_id":"levelo_inurba_marseille","lat":43.295748,"lon":5.37522,"is_reserved":false,"is_disabled":false,"rental_uris":{"android":"levelo://app?vid=79ce6a8d-3272-461d-8535-a1b6513defa6","ios":"levelo://app?vid=79ce6a8d-3272-461d-8535-a1b6513defa6"},"vehicle_type_id":"4","last_reported":1680041194,"current_range_meters":4000,"station_id":"ce4bgh92rcd13ifvqb50","pricing_plan_id":"free"},{"bike_id":"ccb8efdf-d668-406b-be29-a2a28d9d43fa","system_id":"levelo_inurba_marseille","lat":43.295748,"lon":5.37522,"is_reserved":false,"is_disabled":false,"rental_uris":{"android":"levelo://app?vid=ccb8efdf-d668-406b-be29-a2a28d9d43fa","ios":"levelo://app?vid=ccb8efdf-d668-406b-be29-a2a28d9d43fa"},"vehicle_type_id":"4","last_reported":1680041194,"current_range_meters":29600,"station_id":"ce4bgh92rcd13ifvqb50","pricing_plan_id":"free"},{"bike_id":"243a8d38-3c63-4274-8b8f-ae7c90b44422","system_id":"levelo_inurba_marseille","lat":43.32543,"lon":5.38521,"is_reserved":false,"is_disabled":false,"rental_uris":{"android":"levelo://app?vid=243a8d38-3c63-4274-8b8f-ae7c90b44422","ios":"levelo://app?vid=243a8d38-3c63-4274-8b8f-ae7c90b44422"},"vehicle_type_id":"4","last_reported":1680041194,"current_range_meters":6800,"station_id":"","pricing_plan_id":"free"},{"bike_id":"7ae05f50-7adb-446d-b631-f35bc97e1ab9","system_id":"levelo_inurba_marseille","lat":43.323839,"lon":5.387131,"is_reserved":false,"is_disabled":false,"rental_uris":{"android":"levelo://app?vid=7ae05f50-7adb-446d-b631-f35bc97e1ab9","ios":"levelo://app?vid=7ae05f50-7adb-446d-b631-f35bc97e1ab9"},"vehicle_type_id":"4","last_reported":1680041194,"current_range_meters":20000,"station_id":"ce4bhqp2rcd13ifvqhog","pricing_plan_id":"free"},{"bike_id":"5686ddc5-b0be-4149-a0de-d8c36b37017c","system_id":"levelo_inurba_marseille","lat":43.299707,"lon":5.384859,"is_reserved":false,"is_disabled":false,"rental_uris":{"android":"levelo://app?vid=5686ddc5-b0be-4149-a0de-d8c36b37017c","ios":"levelo://app?vid=5686ddc5-b0be-4149-a0de-d8c36b37017c"},"vehicle_type_id":"4","last_reported":1680041194,"current_range_meters":800,"station_id":"ce4bgj92rcd13ifvqbd0","pricing_plan_id":"free"},{"bike_id":"1d2fe368-72c5-4b3d-8406-eac44d2be429","system_id":"levelo_inurba_marseille","lat":43.32544,"lon":5.38535,"is_reserved":false,"is_disabled":false,"rental_uris":{"android":"levelo://app?vid=1d2fe368-72c5-4b3d-8406-eac44d2be429","ios":"levelo://app?vid=1d2fe368-72c5-4b3d-8406-eac44d2be429"},"vehicle_type_id":"4","last_reported":1680041194,"current_range_meters":7200,"station_id":"","pricing_plan_id":"free"},{"bike_id":"6224a806-a5bc-4cf0-a81d-37d249d93393","system_id":"levelo_inurba_marseille","lat":43.29968,"lon":5.38494,"is_reserved":false,"is_disabled":false,"rental_uris":{"android":"levelo://app?vid=6224a806-a5bc-4cf0-a81d-37d249d93393","ios":"levelo://app?vid=6224a806-a5bc-4cf0-a81d-37d249d93393"},"vehicle_type_id":"4","last_reported":1680041194,"current_range_meters":22000,"station_id":"ce4bgj92rcd13ifvqbd0","pricing_plan_id":"free"},{"bike_id":"de5eb769-6a4c-49c1-b439-5069e412e396","system_id":"levelo_inurba_marseille","lat":43.32367,"lon":5.388836,"is_reserved":false,"is_disabled":false,"rental_uris":{"android":"levelo://app?vid=de5eb769-6a4c-49c1-b439-5069e412e396","ios":"levelo://app?vid=de5eb769-6a4c-49c1-b439-5069e412e396"},"vehicle_type_id":"4","last_reported":1680041194,"current_range_meters":14800,"station_id":"ce4bhqp2rcd13ifvqhog","pricing_plan_id":"free"},{"bike_id":"e6dab259-74cb-4e9d-98f6-aa9b785060a3","system_id":"levelo_inurba_marseille","lat":43.32367,"lon":5.38883,"is_reserved":false,"is_disabled":false,"rental_uris":{"android":"levelo://app?vid=e6dab259-74cb-4e9d-98f6-aa9b785060a3","ios":"levelo://app?vid=e6dab259-74cb-4e9d-98f6-aa9b785060a3"},"vehicle_type_id":"4","last_reported":1680041194,"current_range_meters":0,"station_id":"ce4bhqp2rcd13ifvqhog","pricing_plan_id":"free"},{"bike_id":"9ae787ec-d96b-428d-b353-a256dd860f47","system_id":"levelo_inurba_marseille","lat":43.32367,"lon":5.38885,"is_reserved":false,"is_disabled":false,"rental_uris":{"android":"levelo://app?vid=9ae787ec-d96b-428d-b353-a256dd860f47","ios":"levelo://app?vid=9ae787ec-d96b-428d-b353-a256dd860f47"},"vehicle_type_id":"4","last_reported":1680041194,"current_range_meters":12000,"station_id":"ce4bhqp2rcd13ifvqhog","pricing_plan_id":"free"},{"bike_id":"8de46b6f-d0a4-4d5f-8ff3-13df3e9af253","system_id":"levelo_inurba_marseille","lat":43.32365,"lon":5.38888,"is_reserved":false,"is_disabled":false,"rental_uris":{"android":"levelo://app?vid=8de46b6f-d0a4-4d5f-8ff3-13df3e9af253","ios":"levelo://app?vid=8de46b6f-d0a4-4d5f-8ff3-13df3e9af253"},"vehicle_type_id":"4","last_reported":1680041194,"current_range_meters":0,"station_id":"ce4bhqp2rcd13ifvqhog","pricing_plan_id":"free"},{"bike_id":"4aa711dc-758c-4040-9a36-c00116a8176b","system_id":"levelo_inurba_marseille","lat":43.3237,"lon":5.38888,"is_reserved":false,"is_disabled":false,"rental_uris":{"android":"levelo://app?vid=4aa711dc-758c-4040-9a36-c00116a8176b","ios":"levelo://app?vid=4aa711dc-758c-4040-9a36-c00116a8176b"},"vehicle_type_id":"4","last_reported":1680041194,"current_range_meters":0,"station_id":"ce4bhqp2rcd13ifvqhog","pricing_plan_id":"free"},{"bike_id":"00b7fc8c-99a4-4d47-bd0f-a38239bd18ca","system_id":"levelo_inurba_marseille","lat":43.3303,"lon":5.37972,"is_reserved":false,"is_disabled":false,"rental_uris":{"android":"levelo://app?vid=00b7fc8c-99a4-4d47-bd0f-a38239bd18ca","ios":"levelo://app?vid=00b7fc8c-99a4-4d47-bd0f-a38239bd18ca"},"vehicle_type_id":"4","last_reported":1680041194,"current_range_meters":0,"station_id":"","pricing_plan_id":"free"},{"bike_id":"1485c2fe-fb9f-4e24-afcf-1fd0b6b5624e","system_id":"levelo_inurba_marseille","lat":43.318565,"lon":5.394676,"is_reserved":false,"is_disabled":false,"rental_uris":{"android":"levelo://app?vid=1485c2fe-fb9f-4e24-afcf-1fd0b6b5624e","ios":"levelo://app?vid=1485c2fe-fb9f-4e24-afcf-1fd0b6b5624e"},"vehicle_type_id":"4","last_reported":1680041194,"current_range_meters":0,"station_id":"","pricing_plan_id":"free"},{"bike_id":"3174f7f0-4640-45f7-943b-b26e79625027","system_id":"levelo_inurba_marseille","lat":43.29174,"lon":5.37045,"is_reserved":false,"is_disabled":false,"rental_uris":{"android":"levelo://app?vid=3174f7f0-4640-45f7-943b-b26e79625027","ios":"levelo://app?vid=3174f7f0-4640-45f7-943b-b26e79625027"},"vehicle_type_id":"4","last_reported":1680041194,"current_range_meters":0,"station_id":"","pricing_plan_id":"free"},{"bike_id":"1af3079f-d5da-4849-9274-25208d52dc17","system_id":"levelo_inurba_marseille","lat":43.291671,"lon":5.371575,"is_reserved":false,"is_disabled":false,"rental_uris":{"android":"levelo://app?vid=1af3079f-d5da-4849-9274-25208d52dc17","ios":"levelo://app?vid=1af3079f-d5da-4849-9274-25208d52dc17"},"vehicle_type_id":"4","last_reported":1680041194,"current_range_meters":27200,"station_id":"ce4bha92rcd13ifvqeh0","pricing_plan_id":"free"},{"bike_id":"5f243783-b14b-42a0-b66f-eab14eade3bb","system_id":"levelo_inurba_marseille","lat":43.291675,"lon":5.371583,"is_reserved":false,"is_disabled":false,"rental_uris":{"android":"levelo://app?vid=5f243783-b14b-42a0-b66f-eab14eade3bb","ios":"levelo://app?vid=5f243783-b14b-42a0-b66f-eab14eade3bb"},"vehicle_type_id":"4","last_reported":1680041194,"current_range_meters":28000,"station_id":"ce4bha92rcd13ifvqeh0","pricing_plan_id":"free"},{"bike_id":"823855c0-2636-433b-acb3-44d3b55d839f","system_id":"levelo_inurba_marseille","lat":43.291671,"lon":5.371575,"is_reserved":false,"is_disabled":false,"rental_uris":{"android":"levelo://app?vid=823855c0-2636-433b-acb3-44d3b55d839f","ios":"levelo://app?vid=823855c0-2636-433b-acb3-44d3b55d839f"},"vehicle_type_id":"4","last_reported":1680041194,"current_range_meters":30000,"station_id":"ce4bha92rcd13ifvqeh0","pricing_plan_id":"free"},{"bike_id":"c40514cf-faf6-4d5b-abcf-38ef2e1b209c","system_id":"levelo_inurba_marseille","lat":43.291675,"lon":5.371583,"is_reserved":false,"is_disabled":false,"rental_uris":{"android":"levelo://app?vid=c40514cf-faf6-4d5b-abcf-38ef2e1b209c","ios":"levelo://app?vid=c40514cf-faf6-4d5b-abcf-38ef2e1b209c"},"vehicle_type_id":"4","last_reported":1680041194,"current_range_meters":25600,"station_id":"ce4bha92rcd13ifvqeh0","pricing_plan_id":"free"},{"bike_id":"fad4b5db-b7a4-4774-a03d-a3221c6e81bc","system_id":"levelo_inurba_marseille","lat":43.291675,"lon":5.371583,"is_reserved":false,"is_disabled":false,"rental_uris":{"android":"levelo://app?vid=fad4b5db-b7a4-4774-a03d-a3221c6e81bc","ios":"levelo://app?vid=fad4b5db-b7a4-4774-a03d-a3221c6e81bc"},"vehicle_type_id":"4","last_reported":1680041194,"current_range_meters":23600,"station_id":"ce4bha92rcd13ifvqeh0","pricing_plan_id":"free"},{"bike_id":"4c3cc9fe-fd09-4072-8e75-089ac1611889","system_id":"levelo_inurba_marseille","lat":43.291671,"lon":5.371575,"is_reserved":false,"is_disabled":false,"rental_uris":{"android":"levelo://app?vid=4c3cc9fe-fd09-4072-8e75-089ac1611889","ios":"levelo://app?vid=4c3cc9fe-fd09-4072-8e75-089ac1611889"},"vehicle_type_id":"4","last_reported":1680041194,"current_range_meters":0,"station_id":"ce4bha92rcd13ifvqeh0","pricing_plan_id":"free"},{"bike_id":"4c10b534-e21d-498f-89ba-8f1e6357b1be","system_id":"levelo_inurba_marseille","lat":43.291663,"lon":5.37153,"is_reserved":false,"is_disabled":false,"rental_uris":{"android":"levelo://app?vid=4c10b534-e21d-498f-89ba-8f1e6357b1be","ios":"levelo://app?vid=4c10b534-e21d-498f-89ba-8f1e6357b1be"},"vehicle_type_id":"4","last_reported":1680041194,"current_range_meters":25200,"station_id":"","pricing_plan_id":"free"},{"bike_id":"92b249e7-5d02-4135-80b1-91e849b7f5d9","system_id":"levelo_inurba_marseille","lat":43.291671,"lon":5.371575,"is_reserved":false,"is_disabled":false,"rental_uris":{"android":"levelo://app?vid=92b249e7-5d02-4135-80b1-91e849b7f5d9","ios":"levelo://app?vid=92b249e7-5d02-4135-80b1-91e849b7f5d9"},"vehicle_type_id":"4","last_reported":1680041194,"current_range_meters":28800,"station_id":"ce4bha92rcd13ifvqeh0","pricing_plan_id":"free"},{"bike_id":"da111f45-42e1-4058-8824-86abacdf43a2","system_id":"levelo_inurba_marseille","lat":43.313291,"lon":5.396838,"is_reserved":false,"is_disabled":false,"rental_uris":{"android":"levelo://app?vid=da111f45-42e1-4058-8824-86abacdf43a2","ios":"levelo://app?vid=da111f45-42e1-4058-8824-86abacdf43a2"},"vehicle_type_id":"4","last_reported":1680041194,"current_range_meters":22800,"station_id":"ce4bgvp2rcd13ifvqcu0","pricing_plan_id":"free"},{"bike_id":"667e50ec-bbf5-4dda-9a7e-eb0924dc0215","system_id":"levelo_inurba_marseille","lat":43.305994,"lon":5.393687,"is_reserved":false,"is_disabled":false,"rental_uris":{"android":"levelo://app?vid=667e50ec-bbf5-4dda-9a7e-eb0924dc0215","ios":"levelo://app?vid=667e50ec-bbf5-4dda-9a7e-eb0924dc0215"},"vehicle_type_id":"4","last_reported":1680041194,"current_range_meters":11600,"station_id":"ce4bh0p2rcd13ifvqd80","pricing_plan_id":"free"},{"bike_id":"731021ae-53b2-41ee-90a2-d047967ac621","system_id":"levelo_inurba_marseille","lat":43.313291,"lon":5.396838,"is_reserved":false,"is_disabled":false,"rental_uris":{"android":"levelo://app?vid=731021ae-53b2-41ee-90a2-d047967ac621","ios":"levelo://app?vid=731021ae-53b2-41ee-90a2-d047967ac621"},"vehicle_type_id":"4","last_reported":1680041194,"current_range_meters":12800,"station_id":"ce4bgvp2rcd13ifvqcu0","pricing_plan_id":"free"},{"bike_id":"8154e34d-0c92-4d28-9b06-95e025fdb257","system_id":"levelo_inurba_marseille","lat":43.305994,"lon":5.393687,"is_reserved":false,"is_disabled":false,"rental_uris":{"android":"levelo://app?vid=8154e34d-0c92-4d28-9b06-95e025fdb257","ios":"levelo://app?vid=8154e34d-0c92-4d28-9b06-95e025fdb257"},"vehicle_type_id":"4","last_reported":1680041194,"current_range_meters":8400,"station_id":"ce4bh0p2rcd13ifvqd80","pricing_plan_id":"free"},{"bike_id":"0000d995-82a4-420e-aa88-759b18f0a12d","system_id":"levelo_inurba_marseille","lat":43.305994,"lon":5.393687,"is_reserved":false,"is_disabled":false,"rental_uris":{"android":"levelo://app?vid=0000d995-82a4-420e-aa88-759b18f0a12d","ios":"levelo://app?vid=0000d995-82a4-420e-aa88-759b18f0a12d"},"vehicle_type_id":"4","last_reported":1680041194,"current_range_meters":6400,"station_id":"ce4bh0p2rcd13ifvqd80","pricing_plan_id":"free"},{"bike_id":"fbe56185-74df-4450-be16-cee917a48feb","system_id":"levelo_inurba_marseille","lat":43.305994,"lon":5.393687,"is_reserved":false,"is_disabled":false,"rental_uris":{"android":"levelo://app?vid=fbe56185-74df-4450-be16-cee917a48feb","ios":"levelo://app?vid=fbe56185-74df-4450-be16-cee917a48feb"},"vehicle_type_id":"4","last_reported":1680041194,"current_range_meters":0,"station_id":"ce4bh0p2rcd13ifvqd80","pricing_plan_id":"free"},{"bike_id":"d7d07013-ff52-4805-9dc5-09f5f270f04f","system_id":"levelo_inurba_marseille","lat":43.313291,"lon":5.396838,"is_reserved":false,"is_disabled":false,"rental_uris":{"android":"levelo://app?vid=d7d07013-ff52-4805-9dc5-09f5f270f04f","ios":"levelo://app?vid=d7d07013-ff52-4805-9dc5-09f5f270f04f"},"vehicle_type_id":"4","last_reported":1680041194,"current_range_meters":13200,"station_id":"ce4bgvp2rcd13ifvqcu0","pricing_plan_id":"free"},{"bike_id":"22da8fa5-e2e3-4be3-b71e-f0a3d19cdeab","system_id":"levelo_inurba_marseille","lat":43.305994,"lon":5.393687,"is_reserved":false,"is_disabled":false,"rental_uris":{"android":"levelo://app?vid=22da8fa5-e2e3-4be3-b71e-f0a3d19cdeab","ios":"levelo://app?vid=22da8fa5-e2e3-4be3-b71e-f0a3d19cdeab"},"vehicle_type_id":"4","last_reported":1680041194,"current_range_meters":6000,"station_id":"ce4bh0p2rcd13ifvqd80","pricing_plan_id":"free"},{"bike_id":"dd297b01-6d5f-4ccc-8f3f-e74cf80c3bf0","system_id":"levelo_inurba_marseille","lat":43.29538,"lon":5.38546,"is_reserved":false,"is_disabled":false,"rental_uris":{"android":"levelo://app?vid=dd297b01-6d5f-4ccc-8f3f-e74cf80c3bf0","ios":"levelo://app?vid=dd297b01-6d5f-4ccc-8f3f-e74cf80c3bf0"},"vehicle_type_id":"4","last_reported":1680041194,"current_range_meters":0,"station_id":"ce4bgih2rcd13ifvqba0","pricing_plan_id":"free"},{"bike_id":"95a5761f-1a7d-47e8-b770-17b98f3baed4","system_id":"levelo_inurba_marseille","lat":43.29079,"lon":5.371757,"is_reserved":false,"is_disabled":false,"rental_uris":{"android":"levelo://app?vid=95a5761f-1a7d-47e8-b770-17b98f3baed4","ios":"levelo://app?vid=95a5761f-1a7d-47e8-b770-17b98f3baed4"},"vehicle_type_id":"4","last_reported":1680041194,"current_range_meters":0,"station_id":"ce4bh5p2rcd13ifvqe4g","pricing_plan_id":"free"},{"bike_id":"8b2b88a5-86cf-4c30-b0e8-c88460a42c8d","system_id":"levelo_inurba_marseille","lat":43.32258,"lon":5.39446,"is_reserved":false,"is_disabled":false,"rental_uris":{"android":"levelo://app?vid=8b2b88a5-86cf-4c30-b0e8-c88460a42c8d","ios":"levelo://app?vid=8b2b88a5-86cf-4c30-b0e8-c88460a42c8d"},"vehicle_type_id":"4","last_reported":1680041194,"current_range_meters":0,"station_id":"","pricing_plan_id":"free"},{"bike_id":"81f13f39-15a2-4b04-80ce-d2ef0737188a","system_id":"levelo_inurba_marseille","lat":43.302008,"lon":5.394694,"is_reserved":false,"is_disabled":false,"rental_uris":{"android":"levelo://app?vid=81f13f39-15a2-4b04-80ce-d2ef0737188a","ios":"levelo://app?vid=81f13f39-15a2-4b04-80ce-d2ef0737188a"},"vehicle_type_id":"4","last_reported":1680041194,"current_range_meters":1600,"station_id":"ce4bh0p2rcd13ifvqd70","pricing_plan_id":"free"},{"bike_id":"6bc82903-5752-452d-a512-27f2969af4a1","system_id":"levelo_inurba_marseille","lat":43.302008,"lon":5.394694,"is_reserved":false,"is_disabled":false,"rental_uris":{"android":"levelo://app?vid=6bc82903-5752-452d-a512-27f2969af4a1","ios":"levelo://app?vid=6bc82903-5752-452d-a512-27f2969af4a1"},"vehicle_type_id":"4","last_reported":1680041194,"current_range_meters":6000,"station_id":"ce4bh0p2rcd13ifvqd70","pricing_plan_id":"free"},{"bike_id":"2ca5d338-7f89-4c55-b06d-8f7415fe7695","system_id":"levelo_inurba_marseille","lat":43.324733,"lon":5.393777,"is_reserved":false,"is_disabled":false,"rental_uris":{"android":"levelo://app?vid=2ca5d338-7f89-4c55-b06d-8f7415fe7695","ios":"levelo://app?vid=2ca5d338-7f89-4c55-b06d-8f7415fe7695"},"vehicle_type_id":"4","last_reported":1680041194,"current_range_meters":0,"station_id":"","pricing_plan_id":"free"},{"bike_id":"ee832b54-20eb-4407-94ec-91f18ce142e2","system_id":"levelo_inurba_marseille","lat":43.290624,"lon":5.359245,"is_reserved":false,"is_disabled":false,"rental_uris":{"android":"levelo://app?vid=ee832b54-20eb-4407-94ec-91f18ce142e2","ios":"levelo://app?vid=ee832b54-20eb-4407-94ec-91f18ce142e2"},"vehicle_type_id":"4","last_reported":1680041194,"current_range_meters":25200,"station_id":"ce4bha92rcd13ifvqeg0","pricing_plan_id":"free"},{"bike_id":"3190887d-b05e-4b28-a5f6-fd87a014f770","system_id":"levelo_inurba_marseille","lat":43.290624,"lon":5.359245,"is_reserved":false,"is_disabled":false,"rental_uris":{"android":"levelo://app?vid=3190887d-b05e-4b28-a5f6-fd87a014f770","ios":"levelo://app?vid=3190887d-b05e-4b28-a5f6-fd87a014f770"},"vehicle_type_id":"4","last_reported":1680041194,"current_range_meters":15200,"station_id":"ce4bha92rcd13ifvqeg0","pricing_plan_id":"free"},{"bike_id":"d9130fe2-9390-4f28-bb4d-b421cac64226","system_id":"levelo_inurba_marseille","lat":43.294203,"lon":5.386317,"is_reserved":false,"is_disabled":false,"rental_uris":{"android":"levelo://app?vid=d9130fe2-9390-4f28-bb4d-b421cac64226","ios":"levelo://app?vid=d9130fe2-9390-4f28-bb4d-b421cac64226"},"vehicle_type_id":"4","last_reported":1680041194,"current_range_meters":0,"station_id":"ce4bh2h2rcd13ifvqdh0","pricing_plan_id":"free"},{"bike_id":"e93a61e4-7d90-4c58-9534-5af3abb6330e","system_id":"levelo_inurba_marseille","lat":43.290327,"lon":5.375711,"is_reserved":false,"is_disabled":false,"rental_uris":{"android":"levelo://app?vid=e93a61e4-7d90-4c58-9534-5af3abb6330e","ios":"levelo://app?vid=e93a61e4-7d90-4c58-9534-5af3abb6330e"},"vehicle_type_id":"4","last_reported":1680041194,"current_range_meters":4000,"station_id":"ce4bh692rcd13ifvqe90","pricing_plan_id":"free"},{"bike_id":"97467c82-9caf-41f5-9d90-85e32a7ac500","system_id":"levelo_inurba_marseille","lat":43.329629,"lon":5.3893,"is_reserved":false,"is_disabled":false,"rental_uris":{"android":"levelo://app?vid=97467c82-9caf-41f5-9d90-85e32a7ac500","ios":"levelo://app?vid=97467c82-9caf-41f5-9d90-85e32a7ac500"},"vehicle_type_id":"4","last_reported":1680041194,"current_range_meters":14400,"station_id":"ce4bhr92rcd13ifvqhrg","pricing_plan_id":"free"},{"bike_id":"ab4539c2-b289-4ea3-bfac-2bfae6937dc7","system_id":"levelo_inurba_marseille","lat":43.292644,"lon":5.384257,"is_reserved":false,"is_disabled":false,"rental_uris":{"android":"levelo://app?vid=ab4539c2-b289-4ea3-bfac-2bfae6937dc7","ios":"levelo://app?vid=ab4539c2-b289-4ea3-bfac-2bfae6937dc7"},"vehicle_type_id":"4","last_reported":1680041194,"current_range_meters":4000,"station_id":"ce4bh692rcd13ifvqea0","pricing_plan_id":"free"},{"bike_id":"9679c26f-5947-49da-bf08-f37324cf2cd3","system_id":"levelo_inurba_marseille","lat":43.3304,"lon":5.38918,"is_reserved":false,"is_disabled":false,"rental_uris":{"android":"levelo://app?vid=9679c26f-5947-49da-bf08-f37324cf2cd3","ios":"levelo://app?vid=9679c26f-5947-49da-bf08-f37324cf2cd3"},"vehicle_type_id":"4","last_reported":1680041194,"current_range_meters":16000,"station_id":"ce4bhr92rcd13ifvqhrg","pricing_plan_id":"free"},{"bike_id":"ac8ce200-6567-417b-b5ee-2c36bf904f9f","system_id":"levelo_inurba_marseille","lat":43.33041,"lon":5.38919,"is_reserved":false,"is_disabled":false,"rental_uris":{"android":"levelo://app?vid=ac8ce200-6567-417b-b5ee-2c36bf904f9f","ios":"levelo://app?vid=ac8ce200-6567-417b-b5ee-2c36bf904f9f"},"vehicle_type_id":"4","last_reported":1680041194,"current_range_meters":3200,"station_id":"ce4bhr92rcd13ifvqhrg","pricing_plan_id":"free"},{"bike_id":"7e7e85a1-e099-48c5-80de-fccc82f2515b","system_id":"levelo_inurba_marseille","lat":43.290104,"lon":5.356111,"is_reserved":false,"is_disabled":false,"rental_uris":{"android":"levelo://app?vid=7e7e85a1-e099-48c5-80de-fccc82f2515b","ios":"levelo://app?vid=7e7e85a1-e099-48c5-80de-fccc82f2515b"},"vehicle_type_id":"4","last_reported":1680041194,"current_range_meters":0,"station_id":"ce4bhb92rcd13ifvqen0","pricing_plan_id":"free"},{"bike_id":"e414d4e1-0e32-48b2-a861-6208ac0066e7","system_id":"levelo_inurba_marseille","lat":43.288935,"lon":5.361244,"is_reserved":false,"is_disabled":false,"rental_uris":{"android":"levelo://app?vid=e414d4e1-0e32-48b2-a861-6208ac0066e7","ios":"levelo://app?vid=e414d4e1-0e32-48b2-a861-6208ac0066e7"},"vehicle_type_id":"4","last_reported":1680041194,"current_range_meters":0,"station_id":"","pricing_plan_id":"free"},{"bike_id":"059020e5-f196-4f54-98d4-932901c32840","system_id":"levelo_inurba_marseille","lat":43.309314,"lon":5.400459,"is_reserved":false,"is_disabled":false,"rental_uris":{"android":"levelo://app?vid=059020e5-f196-4f54-98d4-932901c32840","ios":"levelo://app?vid=059020e5-f196-4f54-98d4-932901c32840"},"vehicle_type_id":"4","last_reported":1680041194,"current_range_meters":4800,"station_id":"","pricing_plan_id":"free"},{"bike_id":"33a5e539-725f-4fb5-90aa-7131e8172af7","system_id":"levelo_inurba_marseille","lat":43.311722,"lon":5.387247,"is_reserved":false,"is_disabled":false,"rental_uris":{"android":"levelo://app?vid=33a5e539-725f-4fb5-90aa-7131e8172af7","ios":"levelo://app?vid=33a5e539-725f-4fb5-90aa-7131e8172af7"},"vehicle_type_id":"4","last_reported":1680041194,"current_range_meters":30400,"station_id":"ce4bgv12rcd13ifvqcp0","pricing_plan_id":"free"},{"bike_id":"c8fe4d8b-87cd-4220-8940-56a509b6f9d7","system_id":"levelo_inurba_marseille","lat":43.28856,"lon":5.358371,"is_reserved":false,"is_disabled":false,"rental_uris":{"android":"levelo://app?vid=c8fe4d8b-87cd-4220-8940-56a509b6f9d7","ios":"levelo://app?vid=c8fe4d8b-87cd-4220-8940-56a509b6f9d7"},"vehicle_type_id":"4","last_reported":1680041194,"current_range_meters":3600,"station_id":"ce4bhb12rcd13ifvqem0","pricing_plan_id":"free"},{"bike_id":"a3c9e2fc-6494-4869-9880-70c070ba3ed4","system_id":"levelo_inurba_marseille","lat":43.298681,"lon":5.397225,"is_reserved":false,"is_disabled":false,"rental_uris":{"android":"levelo://app?vid=a3c9e2fc-6494-4869-9880-70c070ba3ed4","ios":"levelo://app?vid=a3c9e2fc-6494-4869-9880-70c070ba3ed4"},"vehicle_type_id":"4","last_reported":1680041194,"current_range_meters":18400,"station_id":"ce4bh0h2rcd13ifvqd50","pricing_plan_id":"free"},{"bike_id":"d877c72d-773b-4a24-99a9-fb8c6907191c","system_id":"levelo_inurba_marseille","lat":43.28856,"lon":5.358371,"is_reserved":false,"is_disabled":false,"rental_uris":{"android":"levelo://app?vid=d877c72d-773b-4a24-99a9-fb8c6907191c","ios":"levelo://app?vid=d877c72d-773b-4a24-99a9-fb8c6907191c"},"vehicle_type_id":"4","last_reported":1680041194,"current_range_meters":20400,"station_id":"ce4bhb12rcd13ifvqem0","pricing_plan_id":"free"},{"bike_id":"3c7242ff-416f-4ffc-833e-d047dcfa3f64","system_id":"levelo_inurba_marseille","lat":43.30648,"lon":5.40085,"is_reserved":false,"is_disabled":false,"rental_uris":{"android":"levelo://app?vid=3c7242ff-416f-4ffc-833e-d047dcfa3f64","ios":"levelo://app?vid=3c7242ff-416f-4ffc-833e-d047dcfa3f64"},"vehicle_type_id":"4","last_reported":1680041194,"current_range_meters":4400,"station_id":"ce4bh112rcd13ifvqda0","pricing_plan_id":"free"},{"bike_id":"3570c6da-91cc-4f45-9a64-f22212af68f9","system_id":"levelo_inurba_marseille","lat":43.306477,"lon":5.400857,"is_reserved":false,"is_disabled":false,"rental_uris":{"android":"levelo://app?vid=3570c6da-91cc-4f45-9a64-f22212af68f9","ios":"levelo://app?vid=3570c6da-91cc-4f45-9a64-f22212af68f9"},"vehicle_type_id":"4","last_reported":1680041194,"current_range_meters":3200,"station_id":"ce4bh112rcd13ifvqda0","pricing_plan_id":"free"},{"bike_id":"31b59277-9fed-4e7e-90a8-48d2b36d0bbd","system_id":"levelo_inurba_marseille","lat":43.30652,"lon":5.40089,"is_reserved":false,"is_disabled":false,"rental_uris":{"android":"levelo://app?vid=31b59277-9fed-4e7e-90a8-48d2b36d0bbd","ios":"levelo://app?vid=31b59277-9fed-4e7e-90a8-48d2b36d0bbd"},"vehicle_type_id":"4","last_reported":1680041194,"current_range_meters":0,"station_id":"ce4bh112rcd13ifvqda0","pricing_plan_id":"free"},{"bike_id":"59729148-862c-459f-ad1a-5a86b78c22bf","system_id":"levelo_inurba_marseille","lat":43.30642,"lon":5.401031,"is_reserved":false,"is_disabled":false,"rental_uris":{"android":"levelo://app?vid=59729148-862c-459f-ad1a-5a86b78c22bf","ios":"levelo://app?vid=59729148-862c-459f-ad1a-5a86b78c22bf"},"vehicle_type_id":"4","last_reported":1680041194,"current_range_meters":23600,"station_id":"ce4bh112rcd13ifvqda0","pricing_plan_id":"free"},{"bike_id":"52a22c7b-4df7-4553-b771-a7863dba9dfb","system_id":"levelo_inurba_marseille","lat":43.306453,"lon":5.40096,"is_reserved":false,"is_disabled":false,"rental_uris":{"android":"levelo://app?vid=52a22c7b-4df7-4553-b771-a7863dba9dfb","ios":"levelo://app?vid=52a22c7b-4df7-4553-b771-a7863dba9dfb"},"vehicle_type_id":"4","last_reported":1680041194,"current_range_meters":5200,"station_id":"ce4bh112rcd13ifvqda0","pricing_plan_id":"free"},{"bike_id":"cd8082d5-7b45-416b-b236-e9742a1eed48","system_id":"levelo_inurba_marseille","lat":43.33787,"lon":5.37457,"is_reserved":false,"is_disabled":false,"rental_uris":{"android":"levelo://app?vid=cd8082d5-7b45-416b-b236-e9742a1eed48","ios":"levelo://app?vid=cd8082d5-7b45-416b-b236-e9742a1eed48"},"vehicle_type_id":"4","last_reported":1680041194,"current_range_meters":19600,"station_id":"","pricing_plan_id":"free"},{"bike_id":"76f12ce9-7fbb-4bfe-b514-956a747d875c","system_id":"levelo_inurba_marseille","lat":43.301117,"lon":5.398795,"is_reserved":false,"is_disabled":false,"rental_uris":{"android":"levelo://app?vid=76f12ce9-7fbb-4bfe-b514-956a747d875c","ios":"levelo://app?vid=76f12ce9-7fbb-4bfe-b514-956a747d875c"},"vehicle_type_id":"4","last_reported":1680041194,"current_range_meters":3200,"station_id":"ce4bh0h2rcd13ifvqd40","pricing_plan_id":"free"},{"bike_id":"2bfa0214-7004-4090-a1ba-719ed6f83b5e","system_id":"levelo_inurba_marseille","lat":43.301335,"lon":5.39872,"is_reserved":false,"is_disabled":false,"rental_uris":{"android":"levelo://app?vid=2bfa0214-7004-4090-a1ba-719ed6f83b5e","ios":"levelo://app?vid=2bfa0214-7004-4090-a1ba-719ed6f83b5e"},"vehicle_type_id":"4","last_reported":1680041194,"current_range_meters":2400,"station_id":"","pricing_plan_id":"free"},{"bike_id":"6c850492-2aef-4196-b346-043c9458ace7","system_id":"levelo_inurba_marseille","lat":43.286673,"lon":5.363505,"is_reserved":false,"is_disabled":false,"rental_uris":{"android":"levelo://app?vid=6c850492-2aef-4196-b346-043c9458ace7","ios":"levelo://app?vid=6c850492-2aef-4196-b346-043c9458ace7"},"vehicle_type_id":"4","last_reported":1680041194,"current_range_meters":4800,"station_id":"","pricing_plan_id":"free"},{"bike_id":"ee2800d0-194d-4686-ae83-8ac7d67dabcc","system_id":"levelo_inurba_marseille","lat":43.286591,"lon":5.363346,"is_reserved":false,"is_disabled":false,"rental_uris":{"android":"levelo://app?vid=ee2800d0-194d-4686-ae83-8ac7d67dabcc","ios":"levelo://app?vid=ee2800d0-194d-4686-ae83-8ac7d67dabcc"},"vehicle_type_id":"4","last_reported":1680041194,"current_range_meters":16400,"station_id":"ce4bhah2rcd13ifvqej0","pricing_plan_id":"free"},{"bike_id":"04b1bb82-eae6-4623-aeaf-c9ab46fefab7","system_id":"levelo_inurba_marseille","lat":43.295295,"lon":5.394,"is_reserved":false,"is_disabled":false,"rental_uris":{"android":"levelo://app?vid=04b1bb82-eae6-4623-aeaf-c9ab46fefab7","ios":"levelo://app?vid=04b1bb82-eae6-4623-aeaf-c9ab46fefab7"},"vehicle_type_id":"4","last_reported":1680041194,"current_range_meters":10000,"station_id":"ce4bh292rcd13ifvqdf0","pricing_plan_id":"free"},{"bike_id":"792f5952-24a8-4dc6-b5cb-1a9af7dcce87","system_id":"levelo_inurba_marseille","lat":43.295246,"lon":5.393964,"is_reserved":false,"is_disabled":false,"rental_uris":{"android":"levelo://app?vid=792f5952-24a8-4dc6-b5cb-1a9af7dcce87","ios":"levelo://app?vid=792f5952-24a8-4dc6-b5cb-1a9af7dcce87"},"vehicle_type_id":"4","last_reported":1680041194,"current_range_meters":30400,"station_id":"ce4bh212rcd13ifvqde0","pricing_plan_id":"free"},{"bike_id":"c5d2a3d1-e80f-453f-adf8-636516dcf3cf","system_id":"levelo_inurba_marseille","lat":43.29524,"lon":5.39398,"is_reserved":false,"is_disabled":false,"rental_uris":{"android":"levelo://app?vid=c5d2a3d1-e80f-453f-adf8-636516dcf3cf","ios":"levelo://app?vid=c5d2a3d1-e80f-453f-adf8-636516dcf3cf"},"vehicle_type_id":"4","last_reported":1680041194,"current_range_meters":29200,"station_id":"ce4bh212rcd13ifvqde0","pricing_plan_id":"free"},{"bike_id":"97e8cc54-236c-48c3-85fc-4958acbe51da","system_id":"levelo_inurba_marseille","lat":43.295237,"lon":5.393993,"is_reserved":false,"is_disabled":false,"rental_uris":{"android":"levelo://app?vid=97e8cc54-236c-48c3-85fc-4958acbe51da","ios":"levelo://app?vid=97e8cc54-236c-48c3-85fc-4958acbe51da"},"vehicle_type_id":"4","last_reported":1680041194,"current_range_meters":0,"station_id":"ce4bh292rcd13ifvqdf0","pricing_plan_id":"free"},{"bike_id":"5a2b64d1-7ce3-4217-b5b3-f2cfb098f4aa","system_id":"levelo_inurba_marseille","lat":43.29522,"lon":5.3941,"is_reserved":false,"is_disabled":false,"rental_uris":{"android":"levelo://app?vid=5a2b64d1-7ce3-4217-b5b3-f2cfb098f4aa","ios":"levelo://app?vid=5a2b64d1-7ce3-4217-b5b3-f2cfb098f4aa"},"vehicle_type_id":"4","last_reported":1680041194,"current_range_meters":30400,"station_id":"ce4bh212rcd13ifvqde0","pricing_plan_id":"free"},{"bike_id":"a3ecb705-5efc-4f98-bfdb-0cfeb0d75630","system_id":"levelo_inurba_marseille","lat":43.31382,"lon":5.403315,"is_reserved":false,"is_disabled":false,"rental_uris":{"android":"levelo://app?vid=a3ecb705-5efc-4f98-bfdb-0cfeb0d75630","ios":"levelo://app?vid=a3ecb705-5efc-4f98-bfdb-0cfeb0d75630"},"vehicle_type_id":"4","last_reported":1680041194,"current_range_meters":0,"station_id":"","pricing_plan_id":"free"},{"bike_id":"96cfeb5c-f278-483a-8c3e-00879aabbf93","system_id":"levelo_inurba_marseille","lat":43.29026,"lon":5.38634,"is_reserved":false,"is_disabled":false,"rental_uris":{"android":"levelo://app?vid=96cfeb5c-f278-483a-8c3e-00879aabbf93","ios":"levelo://app?vid=96cfeb5c-f278-483a-8c3e-00879aabbf93"},"vehicle_type_id":"4","last_reported":1680041194,"current_range_meters":1600,"station_id":"","pricing_plan_id":"free"},{"bike_id":"1681bf55-07ee-4958-a806-d166c75bd119","system_id":"levelo_inurba_marseille","lat":43.302759,"lon":5.400793,"is_reserved":false,"is_disabled":false,"rental_uris":{"android":"levelo://app?vid=1681bf55-07ee-4958-a806-d166c75bd119","ios":"levelo://app?vid=1681bf55-07ee-4958-a806-d166c75bd119"},"vehicle_type_id":"4","last_reported":1680041194,"current_range_meters":22000,"station_id":"ce4bgvh2rcd13ifvqcs0","pricing_plan_id":"free"},{"bike_id":"4576bc86-6d7c-4610-9ada-b48114d92e5b","system_id":"levelo_inurba_marseille","lat":43.302759,"lon":5.400793,"is_reserved":false,"is_disabled":false,"rental_uris":{"android":"levelo://app?vid=4576bc86-6d7c-4610-9ada-b48114d92e5b","ios":"levelo://app?vid=4576bc86-6d7c-4610-9ada-b48114d92e5b"},"vehicle_type_id":"4","last_reported":1680041194,"current_range_meters":24800,"station_id":"ce4bgvh2rcd13ifvqcs0","pricing_plan_id":"free"},{"bike_id":"85c77667-4b3a-44e6-a8bc-a024a0cb8e11","system_id":"levelo_inurba_marseille","lat":43.31641,"lon":5.40436,"is_reserved":false,"is_disabled":false,"rental_uris":{"android":"levelo://app?vid=85c77667-4b3a-44e6-a8bc-a024a0cb8e11","ios":"levelo://app?vid=85c77667-4b3a-44e6-a8bc-a024a0cb8e11"},"vehicle_type_id":"4","last_reported":1680041194,"current_range_meters":0,"station_id":"ce4bh012rcd13ifvqd00","pricing_plan_id":"free"},{"bike_id":"cfd12dcd-a2ad-4340-be79-d60aeea1529d","system_id":"levelo_inurba_marseille","lat":43.3282,"lon":5.39881,"is_reserved":false,"is_disabled":false,"rental_uris":{"android":"levelo://app?vid=cfd12dcd-a2ad-4340-be79-d60aeea1529d","ios":"levelo://app?vid=cfd12dcd-a2ad-4340-be79-d60aeea1529d"},"vehicle_type_id":"4","last_reported":1680041194,"current_range_meters":14000,"station_id":"","pricing_plan_id":"free"},{"bike_id":"64a8b445-e7a3-4a67-ad76-104573668e37","system_id":"levelo_inurba_marseille","lat":43.2957,"lon":5.39751,"is_reserved":false,"is_disabled":false,"rental_uris":{"android":"levelo://app?vid=64a8b445-e7a3-4a67-ad76-104573668e37","ios":"levelo://app?vid=64a8b445-e7a3-4a67-ad76-104573668e37"},"vehicle_type_id":"4","last_reported":1680041194,"current_range_meters":22000,"station_id":"","pricing_plan_id":"free"},{"bike_id":"9142f70f-2032-43fd-9b53-ffc7da4e84c7","system_id":"levelo_inurba_marseille","lat":43.331283,"lon":5.396133,"is_reserved":false,"is_disabled":false,"rental_uris":{"android":"levelo://app?vid=9142f70f-2032-43fd-9b53-ffc7da4e84c7","ios":"levelo://app?vid=9142f70f-2032-43fd-9b53-ffc7da4e84c7"},"vehicle_type_id":"4","last_reported":1680041194,"current_range_meters":11600,"station_id":"","pricing_plan_id":"free"},{"bike_id":"ae3f612d-4398-48ab-8b8a-68560e5ae358","system_id":"levelo_inurba_marseille","lat":43.284534,"lon":5.358662,"is_reserved":false,"is_disabled":false,"rental_uris":{"android":"levelo://app?vid=ae3f612d-4398-48ab-8b8a-68560e5ae358","ios":"levelo://app?vid=ae3f612d-4398-48ab-8b8a-68560e5ae358"},"vehicle_type_id":"4","last_reported":1680041194,"current_range_meters":27200,"station_id":"ce4bhah2rcd13ifvqei0","pricing_plan_id":"free"},{"bike_id":"bfa77bbe-fe5b-4382-b6ab-8d4872fc9c46","system_id":"levelo_inurba_marseille","lat":43.284534,"lon":5.358662,"is_reserved":false,"is_disabled":false,"rental_uris":{"android":"levelo://app?vid=bfa77bbe-fe5b-4382-b6ab-8d4872fc9c46","ios":"levelo://app?vid=bfa77bbe-fe5b-4382-b6ab-8d4872fc9c46"},"vehicle_type_id":"4","last_reported":1680041194,"current_range_meters":19600,"station_id":"ce4bhah2rcd13ifvqei0","pricing_plan_id":"free"},{"bike_id":"892a779c-d6c3-4a0a-a36a-02eaa0830521","system_id":"levelo_inurba_marseille","lat":43.284534,"lon":5.358662,"is_reserved":false,"is_disabled":false,"rental_uris":{"android":"levelo://app?vid=892a779c-d6c3-4a0a-a36a-02eaa0830521","ios":"levelo://app?vid=892a779c-d6c3-4a0a-a36a-02eaa0830521"},"vehicle_type_id":"4","last_reported":1680041194,"current_range_meters":12800,"station_id":"ce4bhah2rcd13ifvqei0","pricing_plan_id":"free"},{"bike_id":"c3a48a8a-1fba-41eb-8308-f2c2dc6797e9","system_id":"levelo_inurba_marseille","lat":43.284534,"lon":5.358662,"is_reserved":false,"is_disabled":false,"rental_uris":{"android":"levelo://app?vid=c3a48a8a-1fba-41eb-8308-f2c2dc6797e9","ios":"levelo://app?vid=c3a48a8a-1fba-41eb-8308-f2c2dc6797e9"},"vehicle_type_id":"4","last_reported":1680041194,"current_range_meters":0,"station_id":"ce4bhah2rcd13ifvqei0","pricing_plan_id":"free"},{"bike_id":"ca66d98d-1474-4c93-b818-b4511da6f577","system_id":"levelo_inurba_marseille","lat":43.284534,"lon":5.358662,"is_reserved":false,"is_disabled":false,"rental_uris":{"android":"levelo://app?vid=ca66d98d-1474-4c93-b818-b4511da6f577","ios":"levelo://app?vid=ca66d98d-1474-4c93-b818-b4511da6f577"},"vehicle_type_id":"4","last_reported":1680041194,"current_range_meters":10400,"station_id":"ce4bhah2rcd13ifvqei0","pricing_plan_id":"free"},{"bike_id":"77e914a1-b457-423a-9148-5384cff78a69","system_id":"levelo_inurba_marseille","lat":43.284534,"lon":5.358662,"is_reserved":false,"is_disabled":false,"rental_uris":{"android":"levelo://app?vid=77e914a1-b457-423a-9148-5384cff78a69","ios":"levelo://app?vid=77e914a1-b457-423a-9148-5384cff78a69"},"vehicle_type_id":"4","last_reported":1680041194,"current_range_meters":26000,"station_id":"ce4bhah2rcd13ifvqei0","pricing_plan_id":"free"},{"bike_id":"c7e43945-7bf4-4423-954e-e4b3e7e3f0e5","system_id":"levelo_inurba_marseille","lat":43.284534,"lon":5.358662,"is_reserved":false,"is_disabled":false,"rental_uris":{"android":"levelo://app?vid=c7e43945-7bf4-4423-954e-e4b3e7e3f0e5","ios":"levelo://app?vid=c7e43945-7bf4-4423-954e-e4b3e7e3f0e5"},"vehicle_type_id":"4","last_reported":1680041194,"current_range_meters":26000,"station_id":"ce4bhah2rcd13ifvqei0","pricing_plan_id":"free"},{"bike_id":"ce135675-ea12-4912-b51a-50a1009d8a22","system_id":"levelo_inurba_marseille","lat":43.295713,"lon":5.399639,"is_reserved":false,"is_disabled":false,"rental_uris":{"android":"levelo://app?vid=ce135675-ea12-4912-b51a-50a1009d8a22","ios":"levelo://app?vid=ce135675-ea12-4912-b51a-50a1009d8a22"},"vehicle_type_id":"4","last_reported":1680041194,"current_range_meters":6400,"station_id":"ce4bh312rcd13ifvqdj0","pricing_plan_id":"free"},{"bike_id":"48d45170-38bb-4c72-9100-f2c8f2f64bb9","system_id":"levelo_inurba_marseille","lat":43.28674,"lon":5.386607,"is_reserved":false,"is_disabled":false,"rental_uris":{"android":"levelo://app?vid=48d45170-38bb-4c72-9100-f2c8f2f64bb9","ios":"levelo://app?vid=48d45170-38bb-4c72-9100-f2c8f2f64bb9"},"vehicle_type_id":"4","last_reported":1680041194,"current_range_meters":26000,"station_id":"ce4bh492rcd13ifvqdug","pricing_plan_id":"free"},{"bike_id":"ad1b833e-01ee-4d41-9a58-c24781f520f0","system_id":"levelo_inurba_marseille","lat":43.30369,"lon":5.40669,"is_reserved":false,"is_disabled":false,"rental_uris":{"android":"levelo://app?vid=ad1b833e-01ee-4d41-9a58-c24781f520f0","ios":"levelo://app?vid=ad1b833e-01ee-4d41-9a58-c24781f520f0"},"vehicle_type_id":"4","last_reported":1680041194,"current_range_meters":0,"station_id":"","pricing_plan_id":"free"},{"bike_id":"0660563c-c1e6-4dfa-86e9-22d7c751ff69","system_id":"levelo_inurba_marseille","lat":43.337168,"lon":5.391825,"is_reserved":false,"is_disabled":false,"rental_uris":{"android":"levelo://app?vid=0660563c-c1e6-4dfa-86e9-22d7c751ff69","ios":"levelo://app?vid=0660563c-c1e6-4dfa-86e9-22d7c751ff69"},"vehicle_type_id":"4","last_reported":1680041194,"current_range_meters":28800,"station_id":"ce4bhr92rcd13ifvqhsg","pricing_plan_id":"free"},{"bike_id":"e4bd6f1d-db3c-48fd-8f36-d579e4bf0d8a","system_id":"levelo_inurba_marseille","lat":43.323464,"lon":5.406297,"is_reserved":false,"is_disabled":false,"rental_uris":{"android":"levelo://app?vid=e4bd6f1d-db3c-48fd-8f36-d579e4bf0d8a","ios":"levelo://app?vid=e4bd6f1d-db3c-48fd-8f36-d579e4bf0d8a"},"vehicle_type_id":"4","last_reported":1680041194,"current_range_meters":13200,"station_id":"ce4bhq92rcd13ifvqhjg","pricing_plan_id":"free"},{"bike_id":"d043d1ec-6efd-4585-a5c8-7cd1582efd59","system_id":"levelo_inurba_marseille","lat":43.28476,"lon":5.38402,"is_reserved":false,"is_disabled":false,"rental_uris":{"android":"levelo://app?vid=d043d1ec-6efd-4585-a5c8-7cd1582efd59","ios":"levelo://app?vid=d043d1ec-6efd-4585-a5c8-7cd1582efd59"},"vehicle_type_id":"4","last_reported":1680041194,"current_range_meters":1200,"station_id":"ce4bh512rcd13ifvqe3g","pricing_plan_id":"free"},{"bike_id":"fbd72931-42dc-46f5-a3ab-b5f710b46f5f","system_id":"levelo_inurba_marseille","lat":43.33916,"lon":5.390595,"is_reserved":false,"is_disabled":false,"rental_uris":{"android":"levelo://app?vid=fbd72931-42dc-46f5-a3ab-b5f710b46f5f","ios":"levelo://app?vid=fbd72931-42dc-46f5-a3ab-b5f710b46f5f"},"vehicle_type_id":"4","last_reported":1680041194,"current_range_meters":5600,"station_id":"","pricing_plan_id":"free"},{"bike_id":"73a36ec7-e652-4a10-9c2a-41bd4e88d0dd","system_id":"levelo_inurba_marseille","lat":43.289363,"lon":5.396322,"is_reserved":false,"is_disabled":false,"rental_uris":{"android":"levelo://app?vid=73a36ec7-e652-4a10-9c2a-41bd4e88d0dd","ios":"levelo://app?vid=73a36ec7-e652-4a10-9c2a-41bd4e88d0dd"},"vehicle_type_id":"4","last_reported":1680041194,"current_range_meters":29600,"station_id":"ce4bh3h2rcd13ifvqdn0","pricing_plan_id":"free"},{"bike_id":"6036a893-f0f3-42de-a372-0050ac15d26c","system_id":"levelo_inurba_marseille","lat":43.289363,"lon":5.396322,"is_reserved":false,"is_disabled":false,"rental_uris":{"android":"levelo://app?vid=6036a893-f0f3-42de-a372-0050ac15d26c","ios":"levelo://app?vid=6036a893-f0f3-42de-a372-0050ac15d26c"},"vehicle_type_id":"4","last_reported":1680041194,"current_range_meters":6800,"station_id":"ce4bh3h2rcd13ifvqdn0","pricing_plan_id":"free"},{"bike_id":"c2551477-aa6c-4b4f-a1d2-ee0e13a57d74","system_id":"levelo_inurba_marseille","lat":43.282744,"lon":5.350533,"is_reserved":false,"is_disabled":false,"rental_uris":{"android":"levelo://app?vid=c2551477-aa6c-4b4f-a1d2-ee0e13a57d74","ios":"levelo://app?vid=c2551477-aa6c-4b4f-a1d2-ee0e13a57d74"},"vehicle_type_id":"4","last_reported":1680041194,"current_range_meters":5600,"station_id":"ce4bhbp2rcd13ifvqerg","pricing_plan_id":"free"},{"bike_id":"e586c356-dd74-48f3-9989-44c517178a65","system_id":"levelo_inurba_marseille","lat":43.282754,"lon":5.350519,"is_reserved":false,"is_disabled":false,"rental_uris":{"android":"levelo://app?vid=e586c356-dd74-48f3-9989-44c517178a65","ios":"levelo://app?vid=e586c356-dd74-48f3-9989-44c517178a65"},"vehicle_type_id":"4","last_reported":1680041194,"current_range_meters":25200,"station_id":"ce4bhbp2rcd13ifvqerg","pricing_plan_id":"free"},{"bike_id":"6d47ca0e-5d75-4603-a03f-43e308b75e6b","system_id":"levelo_inurba_marseille","lat":43.282744,"lon":5.350533,"is_reserved":false,"is_disabled":false,"rental_uris":{"android":"levelo://app?vid=6d47ca0e-5d75-4603-a03f-43e308b75e6b","ios":"levelo://app?vid=6d47ca0e-5d75-4603-a03f-43e308b75e6b"},"vehicle_type_id":"4","last_reported":1680041194,"current_range_meters":28400,"station_id":"ce4bhbp2rcd13ifvqerg","pricing_plan_id":"free"},{"bike_id":"4af851ba-6cb1-4500-8280-dedc338b8b68","system_id":"levelo_inurba_marseille","lat":43.283502,"lon":5.386471,"is_reserved":false,"is_disabled":false,"rental_uris":{"android":"levelo://app?vid=4af851ba-6cb1-4500-8280-dedc338b8b68","ios":"levelo://app?vid=4af851ba-6cb1-4500-8280-dedc338b8b68"},"vehicle_type_id":"4","last_reported":1680041194,"current_range_meters":0,"station_id":"ce4bh492rcd13ifvqdvg","pricing_plan_id":"free"},{"bike_id":"fccaa225-242d-4821-ab59-afc53949156e","system_id":"levelo_inurba_marseille","lat":43.290412,"lon":5.399633,"is_reserved":false,"is_disabled":false,"rental_uris":{"android":"levelo://app?vid=fccaa225-242d-4821-ab59-afc53949156e","ios":"levelo://app?vid=fccaa225-242d-4821-ab59-afc53949156e"},"vehicle_type_id":"4","last_reported":1680041194,"current_range_meters":18800,"station_id":"ce4bh392rcd13ifvqdm0","pricing_plan_id":"free"},{"bike_id":"af6be41b-0087-41c2-8f1f-dcbabefe8f4f","system_id":"levelo_inurba_marseille","lat":43.296263,"lon":5.40601,"is_reserved":false,"is_disabled":false,"rental_uris":{"android":"levelo://app?vid=af6be41b-0087-41c2-8f1f-dcbabefe8f4f","ios":"levelo://app?vid=af6be41b-0087-41c2-8f1f-dcbabefe8f4f"},"vehicle_type_id":"4","last_reported":1680041194,"current_range_meters":0,"station_id":"ce4bh0h2rcd13ifvqd60","pricing_plan_id":"free"},{"bike_id":"a94a1611-fab5-4e91-ab47-6155b17db06c","system_id":"levelo_inurba_marseille","lat":43.304188,"lon":5.412904,"is_reserved":false,"is_disabled":false,"rental_uris":{"android":"levelo://app?vid=a94a1611-fab5-4e91-ab47-6155b17db06c","ios":"levelo://app?vid=a94a1611-fab5-4e91-ab47-6155b17db06c"},"vehicle_type_id":"4","last_reported":1680041194,"current_range_meters":3600,"station_id":"ce4bhop2rcd13ifvqh8g","pricing_plan_id":"free"},{"bike_id":"774c29a5-49b7-4a62-ae46-17a8d30cc82f","system_id":"levelo_inurba_marseille","lat":43.286778,"lon":5.39985,"is_reserved":false,"is_disabled":false,"rental_uris":{"android":"levelo://app?vid=774c29a5-49b7-4a62-ae46-17a8d30cc82f","ios":"levelo://app?vid=774c29a5-49b7-4a62-ae46-17a8d30cc82f"},"vehicle_type_id":"4","last_reported":1680041194,"current_range_meters":20400,"station_id":"ce4bho92rcd13ifvqh3g","pricing_plan_id":"free"},{"bike_id":"517f377b-8b12-4b9d-88d4-dca89ed6f3be","system_id":"levelo_inurba_marseille","lat":43.279742,"lon":5.38744,"is_reserved":false,"is_disabled":false,"rental_uris":{"android":"levelo://app?vid=517f377b-8b12-4b9d-88d4-dca89ed6f3be","ios":"levelo://app?vid=517f377b-8b12-4b9d-88d4-dca89ed6f3be"},"vehicle_type_id":"4","last_reported":1680041194,"current_range_meters":8800,"station_id":"ce4bhg12rcd13ifvqf80","pricing_plan_id":"free"},{"bike_id":"aba687dc-9138-4451-a687-d92065f4c79d","system_id":"levelo_inurba_marseille","lat":43.292571,"lon":5.409107,"is_reserved":false,"is_disabled":false,"rental_uris":{"android":"levelo://app?vid=aba687dc-9138-4451-a687-d92065f4c79d","ios":"levelo://app?vid=aba687dc-9138-4451-a687-d92065f4c79d"},"vehicle_type_id":"4","last_reported":1680041194,"current_range_meters":2000,"station_id":"ce4bh192rcd13ifvqdc0","pricing_plan_id":"free"},{"bike_id":"16677563-1510-439a-8c11-0e39db62dbf0","system_id":"levelo_inurba_marseille","lat":43.292571,"lon":5.409107,"is_reserved":false,"is_disabled":false,"rental_uris":{"android":"levelo://app?vid=16677563-1510-439a-8c11-0e39db62dbf0","ios":"levelo://app?vid=16677563-1510-439a-8c11-0e39db62dbf0"},"vehicle_type_id":"4","last_reported":1680041194,"current_range_meters":2800,"station_id":"ce4bh192rcd13ifvqdc0","pricing_plan_id":"free"},{"bike_id":"ad7fce49-956c-4f46-9f9e-e82a61bc4ce4","system_id":"levelo_inurba_marseille","lat":43.292571,"lon":5.409107,"is_reserved":false,"is_disabled":false,"rental_uris":{"android":"levelo://app?vid=ad7fce49-956c-4f46-9f9e-e82a61bc4ce4","ios":"levelo://app?vid=ad7fce49-956c-4f46-9f9e-e82a61bc4ce4"},"vehicle_type_id":"4","last_reported":1680041194,"current_range_meters":400,"station_id":"ce4bh192rcd13ifvqdc0","pricing_plan_id":"free"},{"bike_id":"0a42e3df-6779-478e-95a2-f1cb1ad6fdb3","system_id":"levelo_inurba_marseille","lat":43.292571,"lon":5.409107,"is_reserved":false,"is_disabled":false,"rental_uris":{"android":"levelo://app?vid=0a42e3df-6779-478e-95a2-f1cb1ad6fdb3","ios":"levelo://app?vid=0a42e3df-6779-478e-95a2-f1cb1ad6fdb3"},"vehicle_type_id":"4","last_reported":1680041194,"current_range_meters":0,"station_id":"ce4bh192rcd13ifvqdc0","pricing_plan_id":"free"},{"bike_id":"909bc94a-597b-46fa-b56d-6fc227313e29","system_id":"levelo_inurba_marseille","lat":43.28089,"lon":5.396503,"is_reserved":false,"is_disabled":false,"rental_uris":{"android":"levelo://app?vid=909bc94a-597b-46fa-b56d-6fc227313e29","ios":"levelo://app?vid=909bc94a-597b-46fa-b56d-6fc227313e29"},"vehicle_type_id":"4","last_reported":1680041194,"current_range_meters":0,"station_id":"ce4bho12rcd13ifvqh2g","pricing_plan_id":"free"},{"bike_id":"0c7b7273-1425-482b-83b5-b88e82662f1a","system_id":"levelo_inurba_marseille","lat":43.28076,"lon":5.39647,"is_reserved":false,"is_disabled":false,"rental_uris":{"android":"levelo://app?vid=0c7b7273-1425-482b-83b5-b88e82662f1a","ios":"levelo://app?vid=0c7b7273-1425-482b-83b5-b88e82662f1a"},"vehicle_type_id":"4","last_reported":1680041194,"current_range_meters":7200,"station_id":"ce4bho12rcd13ifvqh2g","pricing_plan_id":"free"},{"bike_id":"5db60180-7117-4d8e-9c6b-c88a2e9c566e","system_id":"levelo_inurba_marseille","lat":43.28074,"lon":5.39649,"is_reserved":false,"is_disabled":false,"rental_uris":{"android":"levelo://app?vid=5db60180-7117-4d8e-9c6b-c88a2e9c566e","ios":"levelo://app?vid=5db60180-7117-4d8e-9c6b-c88a2e9c566e"},"vehicle_type_id":"4","last_reported":1680041194,"current_range_meters":2400,"station_id":"ce4bho12rcd13ifvqh2g","pricing_plan_id":"free"},{"bike_id":"af206f67-7526-4cda-a776-3903b5d893a4","system_id":"levelo_inurba_marseille","lat":43.280778,"lon":5.396603,"is_reserved":false,"is_disabled":false,"rental_uris":{"android":"levelo://app?vid=af206f67-7526-4cda-a776-3903b5d893a4","ios":"levelo://app?vid=af206f67-7526-4cda-a776-3903b5d893a4"},"vehicle_type_id":"4","last_reported":1680041194,"current_range_meters":0,"station_id":"ce4bho12rcd13ifvqh2g","pricing_plan_id":"free"},{"bike_id":"f0feca1b-3a24-48a3-88c5-3a7ea326e6e8","system_id":"levelo_inurba_marseille","lat":43.28073,"lon":5.396522,"is_reserved":false,"is_disabled":false,"rental_uris":{"android":"levelo://app?vid=f0feca1b-3a24-48a3-88c5-3a7ea326e6e8","ios":"levelo://app?vid=f0feca1b-3a24-48a3-88c5-3a7ea326e6e8"},"vehicle_type_id":"4","last_reported":1680041194,"current_range_meters":0,"station_id":"","pricing_plan_id":"free"},{"bike_id":"06592389-6c51-4aae-9b6b-aec8b5094ab3","system_id":"levelo_inurba_marseille","lat":43.273613,"lon":5.362705,"is_reserved":false,"is_disabled":false,"rental_uris":{"android":"levelo://app?vid=06592389-6c51-4aae-9b6b-aec8b5094ab3","ios":"levelo://app?vid=06592389-6c51-4aae-9b6b-aec8b5094ab3"},"vehicle_type_id":"4","last_reported":1680041194,"current_range_meters":4800,"station_id":"ce4bhbh2rcd13ifvqeo0","pricing_plan_id":"free"},{"bike_id":"ebab65fb-520b-42d2-b271-d1305ab29a9d","system_id":"levelo_inurba_marseille","lat":43.336143,"lon":5.41014,"is_reserved":false,"is_disabled":false,"rental_uris":{"android":"levelo://app?vid=ebab65fb-520b-42d2-b271-d1305ab29a9d","ios":"levelo://app?vid=ebab65fb-520b-42d2-b271-d1305ab29a9d"},"vehicle_type_id":"4","last_reported":1680041194,"current_range_meters":5600,"station_id":"ce4bhqh2rcd13ifvqhmg","pricing_plan_id":"free"},{"bike_id":"04256ce2-795b-4ae5-b82f-7a5b7fae1b2f","system_id":"levelo_inurba_marseille","lat":43.33612,"lon":5.410321,"is_reserved":false,"is_disabled":false,"rental_uris":{"android":"levelo://app?vid=04256ce2-795b-4ae5-b82f-7a5b7fae1b2f","ios":"levelo://app?vid=04256ce2-795b-4ae5-b82f-7a5b7fae1b2f"},"vehicle_type_id":"4","last_reported":1680041194,"current_range_meters":4400,"station_id":"ce4bhqh2rcd13ifvqhmg","pricing_plan_id":"free"},{"bike_id":"7680c93c-1dd4-4252-9ee9-f5ad4aa4bc18","system_id":"levelo_inurba_marseille","lat":43.33612,"lon":5.410321,"is_reserved":false,"is_disabled":false,"rental_uris":{"android":"levelo://app?vid=7680c93c-1dd4-4252-9ee9-f5ad4aa4bc18","ios":"levelo://app?vid=7680c93c-1dd4-4252-9ee9-f5ad4aa4bc18"},"vehicle_type_id":"4","last_reported":1680041194,"current_range_meters":800,"station_id":"ce4bhqh2rcd13ifvqhmg","pricing_plan_id":"free"},{"bike_id":"a68f4357-58c7-4ecf-a761-a82281d1ee3e","system_id":"levelo_inurba_marseille","lat":43.33612,"lon":5.410321,"is_reserved":false,"is_disabled":false,"rental_uris":{"android":"levelo://app?vid=a68f4357-58c7-4ecf-a761-a82281d1ee3e","ios":"levelo://app?vid=a68f4357-58c7-4ecf-a761-a82281d1ee3e"},"vehicle_type_id":"4","last_reported":1680041194,"current_range_meters":18400,"station_id":"ce4bhqh2rcd13ifvqhmg","pricing_plan_id":"free"},{"bike_id":"df0518fe-e6b6-4ce9-bb2b-a2b178f437ae","system_id":"levelo_inurba_marseille","lat":43.33612,"lon":5.410321,"is_reserved":false,"is_disabled":false,"rental_uris":{"android":"levelo://app?vid=df0518fe-e6b6-4ce9-bb2b-a2b178f437ae","ios":"levelo://app?vid=df0518fe-e6b6-4ce9-bb2b-a2b178f437ae"},"vehicle_type_id":"4","last_reported":1680041194,"current_range_meters":19200,"station_id":"ce4bhqh2rcd13ifvqhmg","pricing_plan_id":"free"},{"bike_id":"c6328f09-8fb5-4609-978f-84472fb3532f","system_id":"levelo_inurba_marseille","lat":43.336134,"lon":5.410341,"is_reserved":false,"is_disabled":false,"rental_uris":{"android":"levelo://app?vid=c6328f09-8fb5-4609-978f-84472fb3532f","ios":"levelo://app?vid=c6328f09-8fb5-4609-978f-84472fb3532f"},"vehicle_type_id":"4","last_reported":1680041194,"current_range_meters":14000,"station_id":"ce4bhqh2rcd13ifvqhmg","pricing_plan_id":"free"},{"bike_id":"97f97c69-269d-4cf8-951d-a86ecbe1a362","system_id":"levelo_inurba_marseille","lat":43.281138,"lon":5.405869,"is_reserved":false,"is_disabled":false,"rental_uris":{"android":"levelo://app?vid=97f97c69-269d-4cf8-951d-a86ecbe1a362","ios":"levelo://app?vid=97f97c69-269d-4cf8-951d-a86ecbe1a362"},"vehicle_type_id":"4","last_reported":1680041194,"current_range_meters":0,"station_id":"","pricing_plan_id":"free"},{"bike_id":"c5f7240b-eae1-4a61-ad10-697f4f3173db","system_id":"levelo_inurba_marseille","lat":43.295523,"lon":5.422926,"is_reserved":false,"is_disabled":false,"rental_uris":{"android":"levelo://app?vid=c5f7240b-eae1-4a61-ad10-697f4f3173db","ios":"levelo://app?vid=c5f7240b-eae1-4a61-ad10-697f4f3173db"},"vehicle_type_id":"4","last_reported":1680041194,"current_range_meters":0,"station_id":"ce4bhph2rcd13ifvqhdg","pricing_plan_id":"free"},{"bike_id":"f49b1c55-97fc-4e58-8beb-a8a4da66610a","system_id":"levelo_inurba_marseille","lat":43.278128,"lon":5.407195,"is_reserved":false,"is_disabled":false,"rental_uris":{"android":"levelo://app?vid=f49b1c55-97fc-4e58-8beb-a8a4da66610a","ios":"levelo://app?vid=f49b1c55-97fc-4e58-8beb-a8a4da66610a"},"vehicle_type_id":"4","last_reported":1680041194,"current_range_meters":400,"station_id":"ce4bhnh2rcd13ifvqgtg","pricing_plan_id":"free"},{"bike_id":"233b0a2c-655a-4677-967c-c5c27864fe82","system_id":"levelo_inurba_marseille","lat":43.278128,"lon":5.407195,"is_reserved":false,"is_disabled":false,"rental_uris":{"android":"levelo://app?vid=233b0a2c-655a-4677-967c-c5c27864fe82","ios":"levelo://app?vid=233b0a2c-655a-4677-967c-c5c27864fe82"},"vehicle_type_id":"4","last_reported":1680041194,"current_range_meters":2800,"station_id":"ce4bhnh2rcd13ifvqgtg","pricing_plan_id":"free"},{"bike_id":"bcd334cb-3323-49aa-82ec-ef7afc9fbba8","system_id":"levelo_inurba_marseille","lat":43.278128,"lon":5.407195,"is_reserved":false,"is_disabled":false,"rental_uris":{"android":"levelo://app?vid=bcd334cb-3323-49aa-82ec-ef7afc9fbba8","ios":"levelo://app?vid=bcd334cb-3323-49aa-82ec-ef7afc9fbba8"},"vehicle_type_id":"4","last_reported":1680041194,"current_range_meters":14800,"station_id":"ce4bhnh2rcd13ifvqgtg","pricing_plan_id":"free"},{"bike_id":"7c94abc4-9cbf-4e22-82d5-019e1fe8b719","system_id":"levelo_inurba_marseille","lat":43.278128,"lon":5.407195,"is_reserved":false,"is_disabled":false,"rental_uris":{"android":"levelo://app?vid=7c94abc4-9cbf-4e22-82d5-019e1fe8b719","ios":"levelo://app?vid=7c94abc4-9cbf-4e22-82d5-019e1fe8b719"},"vehicle_type_id":"4","last_reported":1680041194,"current_range_meters":23200,"station_id":"ce4bhnh2rcd13ifvqgtg","pricing_plan_id":"free"},{"bike_id":"bc90b8b8-51b1-4436-9940-3390487863a5","system_id":"levelo_inurba_marseille","lat":43.337853,"lon":5.421117,"is_reserved":false,"is_disabled":false,"rental_uris":{"android":"levelo://app?vid=bc90b8b8-51b1-4436-9940-3390487863a5","ios":"levelo://app?vid=bc90b8b8-51b1-4436-9940-3390487863a5"},"vehicle_type_id":"4","last_reported":1680041194,"current_range_meters":21200,"station_id":"","pricing_plan_id":"free"},{"bike_id":"fb637e46-1d14-4e9d-a18f-cebc00e46a64","system_id":"levelo_inurba_marseille","lat":43.265714,"lon":5.372891,"is_reserved":false,"is_disabled":false,"rental_uris":{"android":"levelo://app?vid=fb637e46-1d14-4e9d-a18f-cebc00e46a64","ios":"levelo://app?vid=fb637e46-1d14-4e9d-a18f-cebc00e46a64"},"vehicle_type_id":"4","last_reported":1680041194,"current_range_meters":2000,"station_id":"ce4bhg12rcd13ifvqf70","pricing_plan_id":"free"},{"bike_id":"2384823c-8550-4bce-800d-f77a7ce90590","system_id":"levelo_inurba_marseille","lat":43.265714,"lon":5.372891,"is_reserved":false,"is_disabled":false,"rental_uris":{"android":"levelo://app?vid=2384823c-8550-4bce-800d-f77a7ce90590","ios":"levelo://app?vid=2384823c-8550-4bce-800d-f77a7ce90590"},"vehicle_type_id":"4","last_reported":1680041194,"current_range_meters":0,"station_id":"ce4bhg12rcd13ifvqf70","pricing_plan_id":"free"},{"bike_id":"e4a64bf9-b120-42e3-af06-225c56c3d472","system_id":"levelo_inurba_marseille","lat":43.26681,"lon":5.382694,"is_reserved":false,"is_disabled":false,"rental_uris":{"android":"levelo://app?vid=e4a64bf9-b120-42e3-af06-225c56c3d472","ios":"levelo://app?vid=e4a64bf9-b120-42e3-af06-225c56c3d472"},"vehicle_type_id":"4","last_reported":1680041194,"current_range_meters":11200,"station_id":"ce4bhg92rcd13ifvqf90","pricing_plan_id":"free"},{"bike_id":"9fd3eb7f-2fbb-4dea-a664-fecee8aee6ec","system_id":"levelo_inurba_marseille","lat":43.265714,"lon":5.372891,"is_reserved":false,"is_disabled":false,"rental_uris":{"android":"levelo://app?vid=9fd3eb7f-2fbb-4dea-a664-fecee8aee6ec","ios":"levelo://app?vid=9fd3eb7f-2fbb-4dea-a664-fecee8aee6ec"},"vehicle_type_id":"4","last_reported":1680041194,"current_range_meters":20000,"station_id":"ce4bhg12rcd13ifvqf70","pricing_plan_id":"free"},{"bike_id":"0eabcbfd-c652-4d03-a8bb-dbd872d7e1c0","system_id":"levelo_inurba_marseille","lat":43.27996,"lon":5.416624,"is_reserved":false,"is_disabled":false,"rental_uris":{"android":"levelo://app?vid=0eabcbfd-c652-4d03-a8bb-dbd872d7e1c0","ios":"levelo://app?vid=0eabcbfd-c652-4d03-a8bb-dbd872d7e1c0"},"vehicle_type_id":"4","last_reported":1680041194,"current_range_meters":6800,"station_id":"ce4bho12rcd13ifvqh1g","pricing_plan_id":"free"},{"bike_id":"8caaea2d-e876-4521-a86b-1380d447f138","system_id":"levelo_inurba_marseille","lat":43.27997,"lon":5.41666,"is_reserved":false,"is_disabled":false,"rental_uris":{"android":"levelo://app?vid=8caaea2d-e876-4521-a86b-1380d447f138","ios":"levelo://app?vid=8caaea2d-e876-4521-a86b-1380d447f138"},"vehicle_type_id":"4","last_reported":1680041194,"current_range_meters":22400,"station_id":"ce4bho12rcd13ifvqh1g","pricing_plan_id":"free"},{"bike_id":"4d0819d1-d6e0-4e9d-b2d8-2cf071752457","system_id":"levelo_inurba_marseille","lat":43.27996,"lon":5.416624,"is_reserved":false,"is_disabled":false,"rental_uris":{"android":"levelo://app?vid=4d0819d1-d6e0-4e9d-b2d8-2cf071752457","ios":"levelo://app?vid=4d0819d1-d6e0-4e9d-b2d8-2cf071752457"},"vehicle_type_id":"4","last_reported":1680041194,"current_range_meters":22000,"station_id":"ce4bho12rcd13ifvqh1g","pricing_plan_id":"free"},{"bike_id":"98bb969b-f1df-4b55-a774-243cc3dc337e","system_id":"levelo_inurba_marseille","lat":43.308051,"lon":5.43527,"is_reserved":false,"is_disabled":false,"rental_uris":{"android":"levelo://app?vid=98bb969b-f1df-4b55-a774-243cc3dc337e","ios":"levelo://app?vid=98bb969b-f1df-4b55-a774-243cc3dc337e"},"vehicle_type_id":"4","last_reported":1680041194,"current_range_meters":0,"station_id":"ce4bhph2rcd13ifvqheg","pricing_plan_id":"free"},{"bike_id":"31d8e0c6-eff0-4da7-ac22-753790a4e179","system_id":"levelo_inurba_marseille","lat":43.265569,"lon":5.390047,"is_reserved":false,"is_disabled":false,"rental_uris":{"android":"levelo://app?vid=31d8e0c6-eff0-4da7-ac22-753790a4e179","ios":"levelo://app?vid=31d8e0c6-eff0-4da7-ac22-753790a4e179"},"vehicle_type_id":"4","last_reported":1680041194,"current_range_meters":0,"station_id":"ce4bhe12rcd13ifvqf30","pricing_plan_id":"free"},{"bike_id":"f13bd51b-a028-4fb4-b86c-77762f567c65","system_id":"levelo_inurba_marseille","lat":43.308051,"lon":5.43527,"is_reserved":false,"is_disabled":false,"rental_uris":{"android":"levelo://app?vid=f13bd51b-a028-4fb4-b86c-77762f567c65","ios":"levelo://app?vid=f13bd51b-a028-4fb4-b86c-77762f567c65"},"vehicle_type_id":"4","last_reported":1680041194,"current_range_meters":0,"station_id":"ce4bhph2rcd13ifvqheg","pricing_plan_id":"free"},{"bike_id":"54d1d814-ded6-4d65-adc0-6ebd1325a2b4","system_id":"levelo_inurba_marseille","lat":43.331864,"lon":5.431794,"is_reserved":false,"is_disabled":false,"rental_uris":{"android":"levelo://app?vid=54d1d814-ded6-4d65-adc0-6ebd1325a2b4","ios":"levelo://app?vid=54d1d814-ded6-4d65-adc0-6ebd1325a2b4"},"vehicle_type_id":"4","last_reported":1680041194,"current_range_meters":0,"station_id":"","pricing_plan_id":"free"},{"bike_id":"efc32f60-42df-47ca-aba6-85b9c8c4894b","system_id":"levelo_inurba_marseille","lat":43.261782,"lon":5.374515,"is_reserved":false,"is_disabled":false,"rental_uris":{"android":"levelo://app?vid=efc32f60-42df-47ca-aba6-85b9c8c4894b","ios":"levelo://app?vid=efc32f60-42df-47ca-aba6-85b9c8c4894b"},"vehicle_type_id":"4","last_reported":1680041194,"current_range_meters":5600,"station_id":"ce4bhgp2rcd13ifvqfc0","pricing_plan_id":"free"},{"bike_id":"00442b8e-2855-498d-b1cc-68c1fd467902","system_id":"levelo_inurba_marseille","lat":43.29897,"lon":5.43675,"is_reserved":false,"is_disabled":false,"rental_uris":{"android":"levelo://app?vid=00442b8e-2855-498d-b1cc-68c1fd467902","ios":"levelo://app?vid=00442b8e-2855-498d-b1cc-68c1fd467902"},"vehicle_type_id":"4","last_reported":1680041194,"current_range_meters":5600,"station_id":"","pricing_plan_id":"free"},{"bike_id":"f893f892-fb8d-40e7-8122-2697cffa37d6","system_id":"levelo_inurba_marseille","lat":43.26657,"lon":5.40714,"is_reserved":false,"is_disabled":false,"rental_uris":{"android":"levelo://app?vid=f893f892-fb8d-40e7-8122-2697cffa37d6","ios":"levelo://app?vid=f893f892-fb8d-40e7-8122-2697cffa37d6"},"vehicle_type_id":"4","last_reported":1680041194,"current_range_meters":4000,"station_id":"","pricing_plan_id":"free"},{"bike_id":"c4fcd08b-6f8a-4453-aad8-5bca80548f92","system_id":"levelo_inurba_marseille","lat":43.2607,"lon":5.393983,"is_reserved":false,"is_disabled":false,"rental_uris":{"android":"levelo://app?vid=c4fcd08b-6f8a-4453-aad8-5bca80548f92","ios":"levelo://app?vid=c4fcd08b-6f8a-4453-aad8-5bca80548f92"},"vehicle_type_id":"4","last_reported":1680041194,"current_range_meters":18000,"station_id":"ce4bhh92rcd13ifvqfj0","pricing_plan_id":"free"},{"bike_id":"3c194ce8-78a7-45e0-9c7b-e62dc7390c58","system_id":"levelo_inurba_marseille","lat":43.260909,"lon":5.397591,"is_reserved":false,"is_disabled":false,"rental_uris":{"android":"levelo://app?vid=3c194ce8-78a7-45e0-9c7b-e62dc7390c58","ios":"levelo://app?vid=3c194ce8-78a7-45e0-9c7b-e62dc7390c58"},"vehicle_type_id":"4","last_reported":1680041194,"current_range_meters":8800,"station_id":"ce4bhi12rcd13ifvqfq0","pricing_plan_id":"free"},{"bike_id":"203328ce-06fb-4d3a-8e6f-0a295d6977b6","system_id":"levelo_inurba_marseille","lat":43.255756,"lon":5.382303,"is_reserved":false,"is_disabled":false,"rental_uris":{"android":"levelo://app?vid=203328ce-06fb-4d3a-8e6f-0a295d6977b6","ios":"levelo://app?vid=203328ce-06fb-4d3a-8e6f-0a295d6977b6"},"vehicle_type_id":"4","last_reported":1680041194,"current_range_meters":12400,"station_id":"ce4bhih2rcd13ifvqfs0","pricing_plan_id":"free"},{"bike_id":"2043f004-c08d-4dc9-ab10-145a9e240bb1","system_id":"levelo_inurba_marseille","lat":43.254947,"lon":5.376454,"is_reserved":false,"is_disabled":false,"rental_uris":{"android":"levelo://app?vid=2043f004-c08d-4dc9-ab10-145a9e240bb1","ios":"levelo://app?vid=2043f004-c08d-4dc9-ab10-145a9e240bb1"},"vehicle_type_id":"4","last_reported":1680041194,"current_range_meters":400,"station_id":"ce4bhh12rcd13ifvqff0","pricing_plan_id":"free"},{"bike_id":"a1d19498-3ddd-469e-bbf5-dfe3fc057b83","system_id":"levelo_inurba_marseille","lat":43.2479,"lon":5.374457,"is_reserved":false,"is_disabled":false,"rental_uris":{"android":"levelo://app?vid=a1d19498-3ddd-469e-bbf5-dfe3fc057b83","ios":"levelo://app?vid=a1d19498-3ddd-469e-bbf5-dfe3fc057b83"},"vehicle_type_id":"4","last_reported":1680041194,"current_range_meters":0,"station_id":"ce4bhgh2rcd13ifvqfb0","pricing_plan_id":"free"},{"bike_id":"0de94945-7361-4e6d-a1bf-c2ca450212ba","system_id":"levelo_inurba_marseille","lat":43.250966,"lon":5.395186,"is_reserved":false,"is_disabled":false,"rental_uris":{"android":"levelo://app?vid=0de94945-7361-4e6d-a1bf-c2ca450212ba","ios":"levelo://app?vid=0de94945-7361-4e6d-a1bf-c2ca450212ba"},"vehicle_type_id":"4","last_reported":1680041194,"current_range_meters":13200,"station_id":"ce4bhm12rcd13ifvqgkg","pricing_plan_id":"free"},{"bike_id":"2b81eace-d525-4803-88bc-8453c52ee702","system_id":"levelo_inurba_marseille","lat":43.24693,"lon":5.382096,"is_reserved":false,"is_disabled":false,"rental_uris":{"android":"levelo://app?vid=2b81eace-d525-4803-88bc-8453c52ee702","ios":"levelo://app?vid=2b81eace-d525-4803-88bc-8453c52ee702"},"vehicle_type_id":"4","last_reported":1680041194,"current_range_meters":4800,"station_id":"ce4bhih2rcd13ifvqfr0","pricing_plan_id":"free"},{"bike_id":"0b3c8d01-91ce-43a3-996f-e71c9972a988","system_id":"levelo_inurba_marseille","lat":43.24665,"lon":5.38171,"is_reserved":false,"is_disabled":false,"rental_uris":{"android":"levelo://app?vid=0b3c8d01-91ce-43a3-996f-e71c9972a988","ios":"levelo://app?vid=0b3c8d01-91ce-43a3-996f-e71c9972a988"},"vehicle_type_id":"4","last_reported":1680041194,"current_range_meters":22800,"station_id":"","pricing_plan_id":"free"},{"bike_id":"ec1b8557-5fa8-4080-8b95-1b6765b1dd52","system_id":"levelo_inurba_marseille","lat":43.24693,"lon":5.382096,"is_reserved":false,"is_disabled":false,"rental_uris":{"android":"levelo://app?vid=ec1b8557-5fa8-4080-8b95-1b6765b1dd52","ios":"levelo://app?vid=ec1b8557-5fa8-4080-8b95-1b6765b1dd52"},"vehicle_type_id":"4","last_reported":1680041194,"current_range_meters":21600,"station_id":"ce4bhih2rcd13ifvqfr0","pricing_plan_id":"free"},{"bike_id":"707837b0-4efa-4a1f-a91b-648b3e7aa2e6","system_id":"levelo_inurba_marseille","lat":43.25102,"lon":5.403214,"is_reserved":false,"is_disabled":false,"rental_uris":{"android":"levelo://app?vid=707837b0-4efa-4a1f-a91b-648b3e7aa2e6","ios":"levelo://app?vid=707837b0-4efa-4a1f-a91b-648b3e7aa2e6"},"vehicle_type_id":"4","last_reported":1680041194,"current_range_meters":5200,"station_id":"ce4bhlh2rcd13ifvqgig","pricing_plan_id":"free"},{"bike_id":"91f43979-2c3c-443d-a41a-1371be7a07f7","system_id":"levelo_inurba_marseille","lat":43.24693,"lon":5.382096,"is_reserved":false,"is_disabled":false,"rental_uris":{"android":"levelo://app?vid=91f43979-2c3c-443d-a41a-1371be7a07f7","ios":"levelo://app?vid=91f43979-2c3c-443d-a41a-1371be7a07f7"},"vehicle_type_id":"4","last_reported":1680041194,"current_range_meters":30400,"station_id":"ce4bhih2rcd13ifvqfr0","pricing_plan_id":"free"},{"bike_id":"55119b5c-4d41-4ba5-842e-3c87100bcc53","system_id":"levelo_inurba_marseille","lat":43.25102,"lon":5.403214,"is_reserved":false,"is_disabled":false,"rental_uris":{"android":"levelo://app?vid=55119b5c-4d41-4ba5-842e-3c87100bcc53","ios":"levelo://app?vid=55119b5c-4d41-4ba5-842e-3c87100bcc53"},"vehicle_type_id":"4","last_reported":1680041194,"current_range_meters":25200,"station_id":"ce4bhlh2rcd13ifvqgig","pricing_plan_id":"free"},{"bike_id":"fc92be33-edce-4d6e-a86f-7f38a82160b7","system_id":"levelo_inurba_marseille","lat":43.25102,"lon":5.403214,"is_reserved":false,"is_disabled":false,"rental_uris":{"android":"levelo://app?vid=fc92be33-edce-4d6e-a86f-7f38a82160b7","ios":"levelo://app?vid=fc92be33-edce-4d6e-a86f-7f38a82160b7"},"vehicle_type_id":"4","last_reported":1680041194,"current_range_meters":0,"station_id":"ce4bhlh2rcd13ifvqgig","pricing_plan_id":"free"},{"bike_id":"d3cc1b7a-658b-4f08-84db-811e4a8ea45a","system_id":"levelo_inurba_marseille","lat":43.246548,"lon":5.388946,"is_reserved":false,"is_disabled":false,"rental_uris":{"android":"levelo://app?vid=d3cc1b7a-658b-4f08-84db-811e4a8ea45a","ios":"levelo://app?vid=d3cc1b7a-658b-4f08-84db-811e4a8ea45a"},"vehicle_type_id":"4","last_reported":1680041194,"current_range_meters":1200,"station_id":"ce4bhg12rcd13ifvqf60","pricing_plan_id":"free"},{"bike_id":"fbec3828-cbd0-49fa-935c-81cf478cc93f","system_id":"levelo_inurba_marseille","lat":43.286285,"lon":5.458487,"is_reserved":false,"is_disabled":false,"rental_uris":{"android":"levelo://app?vid=fbec3828-cbd0-49fa-935c-81cf478cc93f","ios":"levelo://app?vid=fbec3828-cbd0-49fa-935c-81cf478cc93f"},"vehicle_type_id":"4","last_reported":1680041194,"current_range_meters":15200,"station_id":"","pricing_plan_id":"free"},{"bike_id":"deb93e1a-b526-4ebd-8776-a721e3cc956f","system_id":"levelo_inurba_marseille","lat":43.240623,"lon":5.377642,"is_reserved":false,"is_disabled":false,"rental_uris":{"android":"levelo://app?vid=deb93e1a-b526-4ebd-8776-a721e3cc956f","ios":"levelo://app?vid=deb93e1a-b526-4ebd-8776-a721e3cc956f"},"vehicle_type_id":"4","last_reported":1680041194,"current_range_meters":18000,"station_id":"ce4bhnp2rcd13ifvqgvg","pricing_plan_id":"free"},{"bike_id":"05f3c963-d1ff-44a2-9612-6df0ca710114","system_id":"levelo_inurba_marseille","lat":43.240623,"lon":5.377642,"is_reserved":false,"is_disabled":false,"rental_uris":{"android":"levelo://app?vid=05f3c963-d1ff-44a2-9612-6df0ca710114","ios":"levelo://app?vid=05f3c963-d1ff-44a2-9612-6df0ca710114"},"vehicle_type_id":"4","last_reported":1680041194,"current_range_meters":3200,"station_id":"ce4bhnp2rcd13ifvqgvg","pricing_plan_id":"free"},{"bike_id":"693208fc-4aee-4f99-86a0-e58961bcddce","system_id":"levelo_inurba_marseille","lat":43.240623,"lon":5.377642,"is_reserved":false,"is_disabled":false,"rental_uris":{"android":"levelo://app?vid=693208fc-4aee-4f99-86a0-e58961bcddce","ios":"levelo://app?vid=693208fc-4aee-4f99-86a0-e58961bcddce"},"vehicle_type_id":"4","last_reported":1680041194,"current_range_meters":2400,"station_id":"ce4bhnp2rcd13ifvqgvg","pricing_plan_id":"free"},{"bike_id":"0d3938eb-7144-4021-b49c-ef93725462bf","system_id":"levelo_inurba_marseille","lat":43.240623,"lon":5.377642,"is_reserved":false,"is_disabled":false,"rental_uris":{"android":"levelo://app?vid=0d3938eb-7144-4021-b49c-ef93725462bf","ios":"levelo://app?vid=0d3938eb-7144-4021-b49c-ef93725462bf"},"vehicle_type_id":"4","last_reported":1680041194,"current_range_meters":0,"station_id":"ce4bhnp2rcd13ifvqgvg","pricing_plan_id":"free"},{"bike_id":"956ed279-d97a-4e4f-99b5-5be240a77449","system_id":"levelo_inurba_marseille","lat":43.240623,"lon":5.377642,"is_reserved":false,"is_disabled":false,"rental_uris":{"android":"levelo://app?vid=956ed279-d97a-4e4f-99b5-5be240a77449","ios":"levelo://app?vid=956ed279-d97a-4e4f-99b5-5be240a77449"},"vehicle_type_id":"4","last_reported":1680041194,"current_range_meters":12000,"station_id":"ce4bhnp2rcd13ifvqgvg","pricing_plan_id":"free"},{"bike_id":"d85067be-331a-4730-8cc0-d151e3cb52b5","system_id":"levelo_inurba_marseille","lat":43.239588,"lon":5.36628,"is_reserved":false,"is_disabled":false,"rental_uris":{"android":"levelo://app?vid=d85067be-331a-4730-8cc0-d151e3cb52b5","ios":"levelo://app?vid=d85067be-331a-4730-8cc0-d151e3cb52b5"},"vehicle_type_id":"4","last_reported":1680041194,"current_range_meters":800,"station_id":"ce4bhi12rcd13ifvqfp0","pricing_plan_id":"free"},{"bike_id":"169dad92-7fff-4eef-9af3-ca67f1843622","system_id":"levelo_inurba_marseille","lat":43.23958,"lon":5.366383,"is_reserved":false,"is_disabled":false,"rental_uris":{"android":"levelo://app?vid=169dad92-7fff-4eef-9af3-ca67f1843622","ios":"levelo://app?vid=169dad92-7fff-4eef-9af3-ca67f1843622"},"vehicle_type_id":"4","last_reported":1680041194,"current_range_meters":2800,"station_id":"ce4bhi12rcd13ifvqfp0","pricing_plan_id":"free"},{"bike_id":"bc126bff-078a-434d-b04b-b1ee3cef5a29","system_id":"levelo_inurba_marseille","lat":43.243833,"lon":5.403008,"is_reserved":false,"is_disabled":false,"rental_uris":{"android":"levelo://app?vid=bc126bff-078a-434d-b04b-b1ee3cef5a29","ios":"levelo://app?vid=bc126bff-078a-434d-b04b-b1ee3cef5a29"},"vehicle_type_id":"4","last_reported":1680041194,"current_range_meters":1600,"station_id":"","pricing_plan_id":"free"},{"bike_id":"afa32105-5409-41a9-b0fe-d2fac594821b","system_id":"levelo_inurba_marseille","lat":43.288083,"lon":5.466353,"is_reserved":false,"is_disabled":false,"rental_uris":{"android":"levelo://app?vid=afa32105-5409-41a9-b0fe-d2fac594821b","ios":"levelo://app?vid=afa32105-5409-41a9-b0fe-d2fac594821b"},"vehicle_type_id":"4","last_reported":1680041194,"current_range_meters":0,"station_id":"","pricing_plan_id":"free"},{"bike_id":"15ca304b-77d2-4187-b0d4-f1676325e7d3","system_id":"levelo_inurba_marseille","lat":43.231919,"lon":5.355532,"is_reserved":false,"is_disabled":false,"rental_uris":{"android":"levelo://app?vid=15ca304b-77d2-4187-b0d4-f1676325e7d3","ios":"levelo://app?vid=15ca304b-77d2-4187-b0d4-f1676325e7d3"},"vehicle_type_id":"4","last_reported":1680041194,"current_range_meters":12400,"station_id":"ce4bhu92rcd13ifvqi70","pricing_plan_id":"free"},{"bike_id":"19eeff66-4e69-4de8-806b-b8f9ed601c34","system_id":"levelo_inurba_marseille","lat":43.231923,"lon":5.355545,"is_reserved":false,"is_disabled":false,"rental_uris":{"android":"levelo://app?vid=19eeff66-4e69-4de8-806b-b8f9ed601c34","ios":"levelo://app?vid=19eeff66-4e69-4de8-806b-b8f9ed601c34"},"vehicle_type_id":"4","last_reported":1680041194,"current_range_meters":31600,"station_id":"ce4bhu92rcd13ifvqi70","pricing_plan_id":"free"},{"bike_id":"3632e2f2-29ed-47dd-983e-4fb384027bf3","system_id":"levelo_inurba_marseille","lat":43.231923,"lon":5.355545,"is_reserved":false,"is_disabled":false,"rental_uris":{"android":"levelo://app?vid=3632e2f2-29ed-47dd-983e-4fb384027bf3","ios":"levelo://app?vid=3632e2f2-29ed-47dd-983e-4fb384027bf3"},"vehicle_type_id":"4","last_reported":1680041194,"current_range_meters":28000,"station_id":"ce4bhu92rcd13ifvqi70","pricing_plan_id":"free"},{"bike_id":"8f9acbac-87f4-4f83-8544-4862dc7c30bd","system_id":"levelo_inurba_marseille","lat":43.231923,"lon":5.355545,"is_reserved":false,"is_disabled":false,"rental_uris":{"android":"levelo://app?vid=8f9acbac-87f4-4f83-8544-4862dc7c30bd","ios":"levelo://app?vid=8f9acbac-87f4-4f83-8544-4862dc7c30bd"},"vehicle_type_id":"4","last_reported":1680041194,"current_range_meters":23600,"station_id":"ce4bhu92rcd13ifvqi70","pricing_plan_id":"free"},{"bike_id":"e4f8c274-36d7-4111-80af-756b54d4a4ef","system_id":"levelo_inurba_marseille","lat":43.231923,"lon":5.355545,"is_reserved":false,"is_disabled":false,"rental_uris":{"android":"levelo://app?vid=e4f8c274-36d7-4111-80af-756b54d4a4ef","ios":"levelo://app?vid=e4f8c274-36d7-4111-80af-756b54d4a4ef"},"vehicle_type_id":"4","last_reported":1680041194,"current_range_meters":31600,"station_id":"ce4bhu92rcd13ifvqi70","pricing_plan_id":"free"}]}}