{"last_updated":1750972182,"ttl":60,"version":"2.2","data":{"bikes":[{"bike_id":"3da29fb8-fc97-44c6-b9ac-31dd456b2fd4","system_id":"levelo_inurba_marseille","lat":43.33771,"lon":5.37424,"is_reserved":false,"is_disabled":true,"rental_uris":{"android":"levelo://app?vid=3da29fb8-fc97-44c6-b9ac-31dd456b2fd4","ios":"levelo://app?vid=3da29fb8-fc97-44c6-b9ac-31dd456b2fd4"},"vehicle_type_id":"4","last_reported":1750972182,"current_range_meters":0,"station_id":"","pricing_plan_id":"cebpf4jnsgd1na2vs0mg"},{"bike_id":"01861ad8-a8d7-4be6-816e-651927c87584","system_id":"levelo_inurba_marseille","lat":43.33751,"lon":5.37456,"is_reserved":false,"is_disabled":true,"rental_uris":{"android":"levelo://app?vid=01861ad8-a8d7-4be6-816e-651927c87584","ios":"levelo://app?vid=01861ad8-a8d7-4be6-816e-651927c87584"},"vehicle_type_id":"4","last_reported":1750972182,"current_range_meters":0,"station_id":"","pricing_plan_id":"cebpf4jnsgd1na2vs0mg"},{"bike_id":"307719d8-858f-4aa2-9777-bb1fd3e52674","system_id":"levelo_inurba_marseille","lat":43.26218,"lon":5.37047,"is_reserved":false,"is_disabled":true,"rental_uris":{"android":"levelo://app?vid=307719d8-858f-4aa2-9777-bb1fd3e52674","ios":"levelo://app?vid=307719d8-858f-4aa2-9777-bb1fd3e52674"},"vehicle_type_id":"4","last_reported":1750972182,"current_range_meters":0,"station_id":"","pricing_plan_id":"cebpf4jnsgd1na2vs0mg"},{"bike_id":"a147e67d-e0b1-425e-bbda-ae9524df353e","system_id":"levelo_inurba_marseille","lat":43.337541,"lon":5.374577,"is_reserved":false,"is_disabled":true,"rental_uris":{"android":"levelo://app?vid=a147e67d-e0b1-425e-bbda-ae9524df353e","ios":"levelo://app?vid=a147e67d-e0b1-425e-bbda-ae9524df353e"},"vehicle_type_id":"4","last_reported":1750972182,"current_range_meters":0,"station_id":"","pricing_plan_id":"cebpf4jnsgd1na2vs0mg"},{"bike_id":"4d064f95-6dcb-4234-9e98-7c70fbb74351","system_id":"levelo_inurba_marseille","lat":43.337444,"lon":5.374475,"is_reserved":false,"is_disabled":true,"rental_uris":{"android":"levelo://app?vid=4d064f95-6dcb-4234-9e98-7c70fbb74351","ios":"levelo://app?vid=4d064f95-6dcb-4234-9e98-7c70fbb74351"},"vehicle_type_id":"4","last_reported":1750972182,"current_range_meters":0,"station_id":"","pricing_plan_id":"cebpf4jnsgd1na2vs0mg"},{"bike_id":"cbe60da3-dee9-49b6-8842-f709fd596d1b","system_id":"levelo_inurba_marseille","lat":43.29698,"lon":5.37701,"is_reserved":false,"is_disabled":true,"rental_uris":{"android":"levelo://app?vid=cbe60da3-dee9-49b6-8842-f709fd596d1b","ios":"levelo://app?vid=cbe60da3-dee9-49b6-8842-f709fd596d1b"},"vehicle_type_id":"4","last_reported":1750972182,"current_range_meters":0,"station_id":"","pricing_plan_id":"cebpf4jnsgd1na2vs0mg"},{"bike_id":"06b961c7-f3ce-4c1c-a618-db74d23ebaea","system_id":"levelo_inurba_marseille","lat":43.28876,"lon":5.37869,"is_reserved":false,"is_disabled":true,"rental_uris":{"android":"levelo://app?vid=06b961c7-f3ce-4c1c-a618-db74d23ebaea","ios":"levelo://app?vid=06b961c7-f3ce-4c1c-a618-db74d23ebaea"},"vehicle_type_id":"4","last_reported":1750972182,"current_range_meters":0,"station_id":"","pricing_plan_id":"cebpf4jnsgd1na2vs0mg"},{"bike_id":"d6609b4f-333b-43c1-9ebe-8726f5e76e88","system_id":"levelo_inurba_marseille","lat":43.337444,"lon":5.374475,"is_reserved":false,"is_disabled":true,"rental_uris":{"android":"levelo://app?vid=d6609b4f-333b-43c1-9ebe-8726f5e76e88","ios":"levelo://app?vid=d6609b4f-333b-43c1-9ebe-8726f5e76e88"},"vehicle_type_id":"4","last_reported":1750972182,"current_range_meters":0,"station_id":"","pricing_plan_id":"cebpf4jnsgd1na2vs0mg"},{"bike_id":"3583f331-6c0b-49be-9913-9dde300034d9","system_id":"levelo_inurba_marseille","lat":43.246343,"lon":5.402013,"is_reserved":false,"is_disabled":true,"rental_uris":{"android":"levelo://app?vid=3583f331-6c0b-49be-9913-9dde300034d9","ios":"levelo://app?vid=3583f331-6c0b-49be-9913-9dde300034d9"},"vehicle_type_id":"4","last_reported":1750972182,"current_range_meters":0,"station_id":"","pricing_plan_id":"cebpf4jnsgd1na2vs0mg"},{"bike_id":"b17b6606-336a-4606-9b65-af139c49de26","system_id":"levelo_inurba_marseille","lat":43.25684,"lon":5.4268,"is_reserved":false,"is_disabled":true,"rental_uris":{"android":"levelo://app?vid=b17b6606-336a-4606-9b65-af139c49de26","ios":"levelo://app?vid=b17b6606-336a-4606-9b65-af139c49de26"},"vehicle_type_id":"4","last_reported":1750972182,"current_range_meters":0,"station_id":"","pricing_plan_id":"cebpf4jnsgd1na2vs0mg"},{"bike_id":"9d3724b1-0dc8-4689-9d6a-55005a9503cb","system_id":"levelo_inurba_marseille","lat":43.28607,"lon":5.42823,"is_reserved":false,"is_disabled":true,"rental_uris":{"android":"levelo://app?vid=9d3724b1-0dc8-4689-9d6a-55005a9503cb","ios":"levelo://app?vid=9d3724b1-0dc8-4689-9d6a-55005a9503cb"},"vehicle_type_id":"4","last_reported":1750972182,"current_range_meters":0,"station_id":"","pricing_plan_id":"cebpf4jnsgd1na2vs0mg"},{"bike_id":"479aa0bd-0750-43c9-a904-e911c8e7fc23","system_id":"levelo_inurba_marseille","lat":43.311462,"lon":5.382868,"is_reserved":false,"is_disabled":true,"rental_uris":{"android":"levelo://app?vid=479aa0bd-0750-43c9-a904-e911c8e7fc23","ios":"levelo://app?vid=479aa0bd-0750-43c9-a904-e911c8e7fc23"},"vehicle_type_id":"4","last_reported":1750972182,"current_range_meters":0,"station_id":"","pricing_plan_id":"cebpf4jnsgd1na2vs0mg"},{"bike_id":"77a1c230-cdad-4fe2-8ee7-52f0b5ad7442","system_id":"levelo_inurba_marseille","lat":43.29925,"lon":5.38351,"is_reserved":false,"is_disabled":true,"rental_uris":{"android":"levelo://app?vid=77a1c230-cdad-4fe2-8ee7-52f0b5ad7442","ios":"levelo://app?vid=77a1c230-cdad-4fe2-8ee7-52f0b5ad7442"},"vehicle_type_id":"4","last_reported":1750972182,"current_range_meters":0,"station_id":"","pricing_plan_id":"cebpf4jnsgd1na2vs0mg"},{"bike_id":"75b4dd3d-6c33-4cea-b284-21a35aac4b1f","system_id":"levelo_inurba_marseille","lat":43.29358,"lon":5.3883,"is_reserved":false,"is_disabled":true,"rental_uris":{"android":"levelo://app?vid=75b4dd3d-6c33-4cea-b284-21a35aac4b1f","ios":"levelo://app?vid=75b4dd3d-6c33-4cea-b284-21a35aac4b1f"},"vehicle_type_id":"4","last_reported":1750972182,"current_range_meters":0,"station_id":"","pricing_plan_id":"cebpf4jnsgd1na2vs0mg"},{"bike_id":"7299ed14-119b-4315-a5d1-2899ad782ac7","system_id":"levelo_inurba_marseille","lat":43.293,"lon":5.37174,"is_reserved":false,"is_disabled":true,"rental_uris":{"android":"levelo://app?vid=7299ed14-119b-4315-a5d1-2899ad782ac7","ios":"levelo://app?vid=7299ed14-119b-4315-a5d1-2899ad782ac7"},"vehicle_type_id":"4","last_reported":1750972182,"current_range_meters":0,"station_id":"ce4bgh92rcd13ifvqb40","pricing_plan_id":"cebpf4jnsgd1na2vs0mg"},{"bike_id":"6aeca325-d2a8-4eb5-97a2-b0dc2f823dc3","system_id":"levelo_inurba_marseille","lat":43.286133,"lon":5.351107,"is_reserved":false,"is_disabled":true,"rental_uris":{"android":"levelo://app?vid=6aeca325-d2a8-4eb5-97a2-b0dc2f823dc3","ios":"levelo://app?vid=6aeca325-d2a8-4eb5-97a2-b0dc2f823dc3"},"vehicle_type_id":"4","last_reported":1750972182,"current_range_meters":0,"station_id":"ce4bgih2rcd13ifvqba0","pricing_plan_id":"cebpf4jnsgd1na2vs0mg"},{"bike_id":"9b65e8d8-bee9-41a6-91f7-45cf48463e06","system_id":"levelo_inurba_marseille","lat":43.29592,"lon":5.38094,"is_reserved":false,"is_disabled":true,"rental_uris":{"android":"levelo://app?vid=9b65e8d8-bee9-41a6-91f7-45cf48463e06","ios":"levelo://app?vid=9b65e8d8-bee9-41a6-91f7-45cf48463e06"},"vehicle_type_id":"4","last_reported":1750972182,"current_range_meters":0,"station_id":"ce4bgl12rcd13ifvqbo0","pricing_plan_id":"cebpf4jnsgd1na2vs0mg"},{"bike_id":"79bf4da0-05ec-4b61-b034-b3a8b163f2e8","system_id":"levelo_inurba_marseille","lat":43.309339,"lon":5.401404,"is_reserved":false,"is_disabled":true,"rental_uris":{"android":"levelo://app?vid=79bf4da0-05ec-4b61-b034-b3a8b163f2e8","ios":"levelo://app?vid=79bf4da0-05ec-4b61-b034-b3a8b163f2e8"},"vehicle_type_id":"4","last_reported":1750972182,"current_range_meters":0,"station_id":"ce4bgvp2rcd13ifvqct0","pricing_plan_id":"cebpf4jnsgd1na2vs0mg"},{"bike_id":"bf08c2e8-3547-4379-ae5d-2969709c777a","system_id":"levelo_inurba_marseille","lat":43.27201,"lon":5.39188,"is_reserved":false,"is_disabled":true,"rental_uris":{"android":"levelo://app?vid=bf08c2e8-3547-4379-ae5d-2969709c777a","ios":"levelo://app?vid=bf08c2e8-3547-4379-ae5d-2969709c777a"},"vehicle_type_id":"4","last_reported":1750972182,"current_range_meters":0,"station_id":"ce4bhhp2rcd13ifvqfm0","pricing_plan_id":"cebpf4jnsgd1na2vs0mg"},{"bike_id":"01ad2112-1a6e-4e87-a406-3d7338c4ea8c","system_id":"levelo_inurba_marseille","lat":43.23135,"lon":5.43706,"is_reserved":false,"is_disabled":true,"rental_uris":{"android":"levelo://app?vid=01ad2112-1a6e-4e87-a406-3d7338c4ea8c","ios":"levelo://app?vid=01ad2112-1a6e-4e87-a406-3d7338c4ea8c"},"vehicle_type_id":"4","last_reported":1750972182,"current_range_meters":0,"station_id":"ce4bhmp2rcd13ifvqgog","pricing_plan_id":"cebpf4jnsgd1na2vs0mg"},{"bike_id":"a0286920-9c36-4d76-ae41-ba4030c6df1e","system_id":"levelo_inurba_marseille","lat":43.29554,"lon":5.42296,"is_reserved":false,"is_disabled":true,"rental_uris":{"android":"levelo://app?vid=a0286920-9c36-4d76-ae41-ba4030c6df1e","ios":"levelo://app?vid=a0286920-9c36-4d76-ae41-ba4030c6df1e"},"vehicle_type_id":"4","last_reported":1750972182,"current_range_meters":0,"station_id":"ce4bhph2rcd13ifvqhdg","pricing_plan_id":"cebpf4jnsgd1na2vs0mg"},{"bike_id":"f2660228-09cd-4ffe-a032-a626d9b96654","system_id":"levelo_inurba_marseille","lat":43.32654,"lon":5.4099,"is_reserved":false,"is_disabled":true,"rental_uris":{"android":"levelo://app?vid=f2660228-09cd-4ffe-a032-a626d9b96654","ios":"levelo://app?vid=f2660228-09cd-4ffe-a032-a626d9b96654"},"vehicle_type_id":"4","last_reported":1750972182,"current_range_meters":0,"station_id":"ce4bhpp2rcd13ifvqhgg","pricing_plan_id":"cebpf4jnsgd1na2vs0mg"},{"bike_id":"0528dc5b-3961-4824-a4d5-b8c72f4dd7e3","system_id":"levelo_inurba_marseille","lat":43.32659,"lon":5.40991,"is_reserved":false,"is_disabled":true,"rental_uris":{"android":"levelo://app?vid=0528dc5b-3961-4824-a4d5-b8c72f4dd7e3","ios":"levelo://app?vid=0528dc5b-3961-4824-a4d5-b8c72f4dd7e3"},"vehicle_type_id":"4","last_reported":1750972182,"current_range_meters":0,"station_id":"ce4bhpp2rcd13ifvqhgg","pricing_plan_id":"cebpf4jnsgd1na2vs0mg"},{"bike_id":"5a3dab73-c126-4de6-a97f-f9ca71f0b35f","system_id":"levelo_inurba_marseille","lat":43.21744,"lon":5.34607,"is_reserved":false,"is_disabled":true,"rental_uris":{"android":"levelo://app?vid=5a3dab73-c126-4de6-a97f-f9ca71f0b35f","ios":"levelo://app?vid=5a3dab73-c126-4de6-a97f-f9ca71f0b35f"},"vehicle_type_id":"4","last_reported":1750972182,"current_range_meters":0,"station_id":"st_cvj6r9ubvosntc0bgbag","pricing_plan_id":"cebpf4jnsgd1na2vs0mg"},{"bike_id":"cdb687b2-0322-480a-b17b-d5f5160446f9","system_id":"levelo_inurba_marseille","lat":43.21749,"lon":5.34602,"is_reserved":false,"is_disabled":true,"rental_uris":{"android":"levelo://app?vid=cdb687b2-0322-480a-b17b-d5f5160446f9","ios":"levelo://app?vid=cdb687b2-0322-480a-b17b-d5f5160446f9"},"vehicle_type_id":"4","last_reported":1750972182,"current_range_meters":0,"station_id":"st_cvj6r9ubvosntc0bgbag","pricing_plan_id":"cebpf4jnsgd1na2vs0mg"},{"bike_id":"2ae278c9-8939-43b6-ae64-1735e91cccaf","system_id":"levelo_inurba_marseille","lat":43.21187,"lon":5.35066,"is_reserved":false,"is_disabled":true,"rental_uris":{"android":"levelo://app?vid=2ae278c9-8939-43b6-ae64-1735e91cccaf","ios":"levelo://app?vid=2ae278c9-8939-43b6-ae64-1735e91cccaf"},"vehicle_type_id":"4","last_reported":1750972182,"current_range_meters":0,"station_id":"st_cvj6sg6p6f1abm77japg","pricing_plan_id":"cebpf4jnsgd1na2vs0mg"},{"bike_id":"bf027107-0fe5-47a2-8fef-6473f83bb647","system_id":"levelo_inurba_marseille","lat":43.329467,"lon":5.363783,"is_reserved":false,"is_disabled":true,"rental_uris":{"android":"levelo://app?vid=bf027107-0fe5-47a2-8fef-6473f83bb647","ios":"levelo://app?vid=bf027107-0fe5-47a2-8fef-6473f83bb647"},"vehicle_type_id":"4","last_reported":1750972182,"current_range_meters":400,"station_id":"","pricing_plan_id":"cebpf4jnsgd1na2vs0mg"},{"bike_id":"9a37c0a8-f37a-4bc6-aeba-e0d736fbaf24","system_id":"levelo_inurba_marseille","lat":43.27988,"lon":5.40013,"is_reserved":false,"is_disabled":true,"rental_uris":{"android":"levelo://app?vid=9a37c0a8-f37a-4bc6-aeba-e0d736fbaf24","ios":"levelo://app?vid=9a37c0a8-f37a-4bc6-aeba-e0d736fbaf24"},"vehicle_type_id":"4","last_reported":1750972182,"current_range_meters":400,"station_id":"ce4bho92rcd13ifvqh4g","pricing_plan_id":"cebpf4jnsgd1na2vs0mg"},{"bike_id":"9fadf070-1086-4b7b-a999-d69cb737ac07","system_id":"levelo_inurba_marseille","lat":43.21734,"lon":5.34587,"is_reserved":false,"is_disabled":true,"rental_uris":{"android":"levelo://app?vid=9fadf070-1086-4b7b-a999-d69cb737ac07","ios":"levelo://app?vid=9fadf070-1086-4b7b-a999-d69cb737ac07"},"vehicle_type_id":"4","last_reported":1750972182,"current_range_meters":400,"station_id":"st_cvj6r9ubvosntc0bgbag","pricing_plan_id":"cebpf4jnsgd1na2vs0mg"},{"bike_id":"c87aa68b-e8ba-464c-81a0-e29c953093b2","system_id":"levelo_inurba_marseille","lat":43.31276,"lon":5.40163,"is_reserved":false,"is_disabled":true,"rental_uris":{"android":"levelo://app?vid=c87aa68b-e8ba-464c-81a0-e29c953093b2","ios":"levelo://app?vid=c87aa68b-e8ba-464c-81a0-e29c953093b2"},"vehicle_type_id":"4","last_reported":1750972182,"current_range_meters":800,"station_id":"ce4bh092rcd13ifvqd30","pricing_plan_id":"cebpf4jnsgd1na2vs0mg"},{"bike_id":"15436551-b6a9-4542-9559-c99f98d9398e","system_id":"levelo_inurba_marseille","lat":43.27967,"lon":5.38748,"is_reserved":false,"is_disabled":true,"rental_uris":{"android":"levelo://app?vid=15436551-b6a9-4542-9559-c99f98d9398e","ios":"levelo://app?vid=15436551-b6a9-4542-9559-c99f98d9398e"},"vehicle_type_id":"4","last_reported":1750972182,"current_range_meters":800,"station_id":"ce4bhg12rcd13ifvqf80","pricing_plan_id":"cebpf4jnsgd1na2vs0mg"},{"bike_id":"c9801033-9603-4a59-a863-0b3c432ac761","system_id":"levelo_inurba_marseille","lat":43.30935,"lon":5.40157,"is_reserved":false,"is_disabled":true,"rental_uris":{"android":"levelo://app?vid=c9801033-9603-4a59-a863-0b3c432ac761","ios":"levelo://app?vid=c9801033-9603-4a59-a863-0b3c432ac761"},"vehicle_type_id":"4","last_reported":1750972182,"current_range_meters":1200,"station_id":"ce4bgvp2rcd13ifvqct0","pricing_plan_id":"cebpf4jnsgd1na2vs0mg"},{"bike_id":"719ce08e-d893-455d-b38d-348d9bc76c2e","system_id":"levelo_inurba_marseille","lat":43.3064,"lon":5.40102,"is_reserved":false,"is_disabled":true,"rental_uris":{"android":"levelo://app?vid=719ce08e-d893-455d-b38d-348d9bc76c2e","ios":"levelo://app?vid=719ce08e-d893-455d-b38d-348d9bc76c2e"},"vehicle_type_id":"4","last_reported":1750972182,"current_range_meters":1200,"station_id":"ce4bh112rcd13ifvqda0","pricing_plan_id":"cebpf4jnsgd1na2vs0mg"},{"bike_id":"50993933-846b-4c94-b493-1dbd48dd80b8","system_id":"levelo_inurba_marseille","lat":43.28696,"lon":5.39983,"is_reserved":false,"is_disabled":true,"rental_uris":{"android":"levelo://app?vid=50993933-846b-4c94-b493-1dbd48dd80b8","ios":"levelo://app?vid=50993933-846b-4c94-b493-1dbd48dd80b8"},"vehicle_type_id":"4","last_reported":1750972182,"current_range_meters":1200,"station_id":"ce4bho92rcd13ifvqh3g","pricing_plan_id":"cebpf4jnsgd1na2vs0mg"},{"bike_id":"62a043ae-4ff4-42cc-a69e-1f8dbade9708","system_id":"levelo_inurba_marseille","lat":43.29259,"lon":5.3844,"is_reserved":false,"is_disabled":true,"rental_uris":{"android":"levelo://app?vid=62a043ae-4ff4-42cc-a69e-1f8dbade9708","ios":"levelo://app?vid=62a043ae-4ff4-42cc-a69e-1f8dbade9708"},"vehicle_type_id":"4","last_reported":1750972182,"current_range_meters":1600,"station_id":"ce4bh692rcd13ifvqea0","pricing_plan_id":"cebpf4jnsgd1na2vs0mg"},{"bike_id":"6f09bf9e-dee7-439e-a1c0-eff50821761c","system_id":"levelo_inurba_marseille","lat":43.22918,"lon":5.35393,"is_reserved":false,"is_disabled":true,"rental_uris":{"android":"levelo://app?vid=6f09bf9e-dee7-439e-a1c0-eff50821761c","ios":"levelo://app?vid=6f09bf9e-dee7-439e-a1c0-eff50821761c"},"vehicle_type_id":"4","last_reported":1750972182,"current_range_meters":1600,"station_id":"cpo3532slgdg3j2ikp40","pricing_plan_id":"cebpf4jnsgd1na2vs0mg"},{"bike_id":"a86d2f9f-83d8-4f17-8422-d08e982c4a2a","system_id":"levelo_inurba_marseille","lat":43.2974,"lon":5.44862,"is_reserved":false,"is_disabled":true,"rental_uris":{"android":"levelo://app?vid=a86d2f9f-83d8-4f17-8422-d08e982c4a2a","ios":"levelo://app?vid=a86d2f9f-83d8-4f17-8422-d08e982c4a2a"},"vehicle_type_id":"4","last_reported":1750972182,"current_range_meters":2000,"station_id":"","pricing_plan_id":"cebpf4jnsgd1na2vs0mg"},{"bike_id":"c6306f6e-66f8-4ad2-ac86-0aacefde8a83","system_id":"levelo_inurba_marseille","lat":43.29565,"lon":5.39962,"is_reserved":false,"is_disabled":true,"rental_uris":{"android":"levelo://app?vid=c6306f6e-66f8-4ad2-ac86-0aacefde8a83","ios":"levelo://app?vid=c6306f6e-66f8-4ad2-ac86-0aacefde8a83"},"vehicle_type_id":"4","last_reported":1750972182,"current_range_meters":2000,"station_id":"ce4bh312rcd13ifvqdj0","pricing_plan_id":"cebpf4jnsgd1na2vs0mg"},{"bike_id":"416de835-3513-46c0-8a39-0e5dfe584dc3","system_id":"levelo_inurba_marseille","lat":43.29038,"lon":5.37568,"is_reserved":false,"is_disabled":false,"rental_uris":{"android":"levelo://app?vid=416de835-3513-46c0-8a39-0e5dfe584dc3","ios":"levelo://app?vid=416de835-3513-46c0-8a39-0e5dfe584dc3"},"vehicle_type_id":"4","last_reported":1750972182,"current_range_meters":2000,"station_id":"ce4bh692rcd13ifvqe90","pricing_plan_id":"cebpf4jnsgd1na2vs0mg"},{"bike_id":"1b6e6296-7a22-4b48-8d5c-11cd9c5414c8","system_id":"levelo_inurba_marseille","lat":43.25498,"lon":5.37647,"is_reserved":false,"is_disabled":true,"rental_uris":{"android":"levelo://app?vid=1b6e6296-7a22-4b48-8d5c-11cd9c5414c8","ios":"levelo://app?vid=1b6e6296-7a22-4b48-8d5c-11cd9c5414c8"},"vehicle_type_id":"4","last_reported":1750972182,"current_range_meters":2000,"station_id":"ce4bhh12rcd13ifvqff0","pricing_plan_id":"cebpf4jnsgd1na2vs0mg"},{"bike_id":"853079a9-0ebd-4082-a8d5-b6193dad2603","system_id":"levelo_inurba_marseille","lat":43.25102,"lon":5.40324,"is_reserved":false,"is_disabled":false,"rental_uris":{"android":"levelo://app?vid=853079a9-0ebd-4082-a8d5-b6193dad2603","ios":"levelo://app?vid=853079a9-0ebd-4082-a8d5-b6193dad2603"},"vehicle_type_id":"4","last_reported":1750972182,"current_range_meters":2800,"station_id":"ce4bhlh2rcd13ifvqgig","pricing_plan_id":"cebpf4jnsgd1na2vs0mg"},{"bike_id":"8de0bc2c-4aba-46a3-b128-c331b025e73f","system_id":"levelo_inurba_marseille","lat":43.32363,"lon":5.38885,"is_reserved":false,"is_disabled":false,"rental_uris":{"android":"levelo://app?vid=8de0bc2c-4aba-46a3-b128-c331b025e73f","ios":"levelo://app?vid=8de0bc2c-4aba-46a3-b128-c331b025e73f"},"vehicle_type_id":"4","last_reported":1750972182,"current_range_meters":2800,"station_id":"ce4bhqp2rcd13ifvqhog","pricing_plan_id":"cebpf4jnsgd1na2vs0mg"},{"bike_id":"c4be5697-0e14-4684-a3eb-f14a47a2c28e","system_id":"levelo_inurba_marseille","lat":43.30265,"lon":5.39687,"is_reserved":false,"is_disabled":false,"rental_uris":{"android":"levelo://app?vid=c4be5697-0e14-4684-a3eb-f14a47a2c28e","ios":"levelo://app?vid=c4be5697-0e14-4684-a3eb-f14a47a2c28e"},"vehicle_type_id":"4","last_reported":1750972182,"current_range_meters":3200,"station_id":"ce4bgvp2rcd13ifvqct0","pricing_plan_id":"cebpf4jnsgd1na2vs0mg"},{"bike_id":"67a5051a-b32e-408a-8389-c22b54eb81f6","system_id":"levelo_inurba_marseille","lat":43.33025,"lon":5.45593,"is_reserved":false,"is_disabled":false,"rental_uris":{"android":"levelo://app?vid=67a5051a-b32e-408a-8389-c22b54eb81f6","ios":"levelo://app?vid=67a5051a-b32e-408a-8389-c22b54eb81f6"},"vehicle_type_id":"4","last_reported":1750972182,"current_range_meters":3600,"station_id":"","pricing_plan_id":"cebpf4jnsgd1na2vs0mg"},{"bike_id":"ddcdf67d-95b5-46d2-a8d8-c929cc712801","system_id":"levelo_inurba_marseille","lat":43.25035,"lon":5.389392,"is_reserved":false,"is_disabled":false,"rental_uris":{"android":"levelo://app?vid=ddcdf67d-95b5-46d2-a8d8-c929cc712801","ios":"levelo://app?vid=ddcdf67d-95b5-46d2-a8d8-c929cc712801"},"vehicle_type_id":"4","last_reported":1750972182,"current_range_meters":3600,"station_id":"ce4bhgp2rcd13ifvqfd0","pricing_plan_id":"cebpf4jnsgd1na2vs0mg"},{"bike_id":"abefe74e-6dc2-41d7-961e-4abd4ee5410d","system_id":"levelo_inurba_marseille","lat":43.29572,"lon":5.3854,"is_reserved":false,"is_disabled":false,"rental_uris":{"android":"levelo://app?vid=abefe74e-6dc2-41d7-961e-4abd4ee5410d","ios":"levelo://app?vid=abefe74e-6dc2-41d7-961e-4abd4ee5410d"},"vehicle_type_id":"4","last_reported":1750972182,"current_range_meters":4000,"station_id":"ce4bgih2rcd13ifvqba0","pricing_plan_id":"cebpf4jnsgd1na2vs0mg"},{"bike_id":"ca8db6d1-f8fc-4855-8744-7f2916d8c68a","system_id":"levelo_inurba_marseille","lat":43.3088,"lon":5.39663,"is_reserved":false,"is_disabled":false,"rental_uris":{"android":"levelo://app?vid=ca8db6d1-f8fc-4855-8744-7f2916d8c68a","ios":"levelo://app?vid=ca8db6d1-f8fc-4855-8744-7f2916d8c68a"},"vehicle_type_id":"4","last_reported":1750972182,"current_range_meters":4000,"station_id":"ce4bh012rcd13ifvqcv0","pricing_plan_id":"cebpf4jnsgd1na2vs0mg"},{"bike_id":"3cc2b7a4-4e92-4497-b01c-1cafde17f89a","system_id":"levelo_inurba_marseille","lat":43.30272,"lon":5.39681,"is_reserved":false,"is_disabled":false,"rental_uris":{"android":"levelo://app?vid=3cc2b7a4-4e92-4497-b01c-1cafde17f89a","ios":"levelo://app?vid=3cc2b7a4-4e92-4497-b01c-1cafde17f89a"},"vehicle_type_id":"4","last_reported":1750972182,"current_range_meters":4000,"station_id":"ce4bh112rcd13ifvqda0","pricing_plan_id":"cebpf4jnsgd1na2vs0mg"},{"bike_id":"bffc675e-77ea-41ab-a724-75c5764b829b","system_id":"levelo_inurba_marseille","lat":43.28348,"lon":5.381018,"is_reserved":false,"is_disabled":false,"rental_uris":{"android":"levelo://app?vid=bffc675e-77ea-41ab-a724-75c5764b829b","ios":"levelo://app?vid=bffc675e-77ea-41ab-a724-75c5764b829b"},"vehicle_type_id":"4","last_reported":1750972182,"current_range_meters":4400,"station_id":"ce4bh412rcd13ifvqdr0","pricing_plan_id":"cebpf4jnsgd1na2vs0mg"},{"bike_id":"e2bd4354-e4ab-4b68-8de7-1601b81ebf49","system_id":"levelo_inurba_marseille","lat":43.31675,"lon":5.40463,"is_reserved":false,"is_disabled":false,"rental_uris":{"android":"levelo://app?vid=e2bd4354-e4ab-4b68-8de7-1601b81ebf49","ios":"levelo://app?vid=e2bd4354-e4ab-4b68-8de7-1601b81ebf49"},"vehicle_type_id":"4","last_reported":1750972182,"current_range_meters":4800,"station_id":"ce4bh012rcd13ifvqd00","pricing_plan_id":"cebpf4jnsgd1na2vs0mg"},{"bike_id":"5d4b462c-f6da-4d12-bac8-e5e901de0ab4","system_id":"levelo_inurba_marseille","lat":43.27418,"lon":5.39424,"is_reserved":false,"is_disabled":false,"rental_uris":{"android":"levelo://app?vid=5d4b462c-f6da-4d12-bac8-e5e901de0ab4","ios":"levelo://app?vid=5d4b462c-f6da-4d12-bac8-e5e901de0ab4"},"vehicle_type_id":"4","last_reported":1750972182,"current_range_meters":4800,"station_id":"ce4bhdp2rcd13ifvqf20","pricing_plan_id":"cebpf4jnsgd1na2vs0mg"},{"bike_id":"bb00a85b-4582-4e3c-9632-a945ae08d2ee","system_id":"levelo_inurba_marseille","lat":43.306368,"lon":5.400947,"is_reserved":false,"is_disabled":false,"rental_uris":{"android":"levelo://app?vid=bb00a85b-4582-4e3c-9632-a945ae08d2ee","ios":"levelo://app?vid=bb00a85b-4582-4e3c-9632-a945ae08d2ee"},"vehicle_type_id":"4","last_reported":1750972182,"current_range_meters":6000,"station_id":"ce4bh112rcd13ifvqda0","pricing_plan_id":"cebpf4jnsgd1na2vs0mg"},{"bike_id":"d04a093c-8750-480a-bce7-26367429ac47","system_id":"levelo_inurba_marseille","lat":43.31522,"lon":5.38041,"is_reserved":false,"is_disabled":false,"rental_uris":{"android":"levelo://app?vid=d04a093c-8750-480a-bce7-26367429ac47","ios":"levelo://app?vid=d04a093c-8750-480a-bce7-26367429ac47"},"vehicle_type_id":"4","last_reported":1750972182,"current_range_meters":6400,"station_id":"ce4bhsp2rcd13ifvqi50","pricing_plan_id":"cebpf4jnsgd1na2vs0mg"},{"bike_id":"26a14eba-87a9-47b8-9607-30bd0042d428","system_id":"levelo_inurba_marseille","lat":43.31474,"lon":5.39429,"is_reserved":false,"is_disabled":false,"rental_uris":{"android":"levelo://app?vid=26a14eba-87a9-47b8-9607-30bd0042d428","ios":"levelo://app?vid=26a14eba-87a9-47b8-9607-30bd0042d428"},"vehicle_type_id":"4","last_reported":1750972182,"current_range_meters":6800,"station_id":"","pricing_plan_id":"cebpf4jnsgd1na2vs0mg"},{"bike_id":"af112b62-19de-41d4-b8d7-e14d0172315d","system_id":"levelo_inurba_marseille","lat":43.32677,"lon":5.39272,"is_reserved":false,"is_disabled":false,"rental_uris":{"android":"levelo://app?vid=af112b62-19de-41d4-b8d7-e14d0172315d","ios":"levelo://app?vid=af112b62-19de-41d4-b8d7-e14d0172315d"},"vehicle_type_id":"4","last_reported":1750972182,"current_range_meters":6800,"station_id":"","pricing_plan_id":"cebpf4jnsgd1na2vs0mg"},{"bike_id":"2b6591c7-1228-4ff6-a92b-3cfce55aaa3f","system_id":"levelo_inurba_marseille","lat":43.31269,"lon":5.4017,"is_reserved":false,"is_disabled":false,"rental_uris":{"android":"levelo://app?vid=2b6591c7-1228-4ff6-a92b-3cfce55aaa3f","ios":"levelo://app?vid=2b6591c7-1228-4ff6-a92b-3cfce55aaa3f"},"vehicle_type_id":"4","last_reported":1750972182,"current_range_meters":6800,"station_id":"ce4bh092rcd13ifvqd30","pricing_plan_id":"cebpf4jnsgd1na2vs0mg"},{"bike_id":"822c3d8e-7184-4f1f-ba5b-0fb7d2af56c7","system_id":"levelo_inurba_marseille","lat":43.30803,"lon":5.43521,"is_reserved":false,"is_disabled":false,"rental_uris":{"android":"levelo://app?vid=822c3d8e-7184-4f1f-ba5b-0fb7d2af56c7","ios":"levelo://app?vid=822c3d8e-7184-4f1f-ba5b-0fb7d2af56c7"},"vehicle_type_id":"4","last_reported":1750972182,"current_range_meters":6800,"station_id":"ce4bhph2rcd13ifvqheg","pricing_plan_id":"cebpf4jnsgd1na2vs0mg"},{"bike_id":"ffcd8813-36b8-43e0-a09c-be564129c646","system_id":"levelo_inurba_marseille","lat":43.31993,"lon":5.38166,"is_reserved":false,"is_disabled":false,"rental_uris":{"android":"levelo://app?vid=ffcd8813-36b8-43e0-a09c-be564129c646","ios":"levelo://app?vid=ffcd8813-36b8-43e0-a09c-be564129c646"},"vehicle_type_id":"4","last_reported":1750972182,"current_range_meters":7200,"station_id":"ce4bhr12rcd13ifvqhpg","pricing_plan_id":"cebpf4jnsgd1na2vs0mg"},{"bike_id":"1660ab5f-be30-4254-bfd3-66325e779c35","system_id":"levelo_inurba_marseille","lat":43.322861,"lon":5.406456,"is_reserved":false,"is_disabled":false,"rental_uris":{"android":"levelo://app?vid=1660ab5f-be30-4254-bfd3-66325e779c35","ios":"levelo://app?vid=1660ab5f-be30-4254-bfd3-66325e779c35"},"vehicle_type_id":"4","last_reported":1750972182,"current_range_meters":8000,"station_id":"","pricing_plan_id":"cebpf4jnsgd1na2vs0mg"},{"bike_id":"8e125c28-c189-48d4-8043-69bb7ccd7c7a","system_id":"levelo_inurba_marseille","lat":43.30246,"lon":5.400729,"is_reserved":false,"is_disabled":false,"rental_uris":{"android":"levelo://app?vid=8e125c28-c189-48d4-8043-69bb7ccd7c7a","ios":"levelo://app?vid=8e125c28-c189-48d4-8043-69bb7ccd7c7a"},"vehicle_type_id":"4","last_reported":1750972182,"current_range_meters":8000,"station_id":"ce4bgvh2rcd13ifvqcs0","pricing_plan_id":"cebpf4jnsgd1na2vs0mg"},{"bike_id":"f5b5dd12-7b47-4a89-bf2e-615cdb78bc34","system_id":"levelo_inurba_marseille","lat":43.28697,"lon":5.39982,"is_reserved":false,"is_disabled":false,"rental_uris":{"android":"levelo://app?vid=f5b5dd12-7b47-4a89-bf2e-615cdb78bc34","ios":"levelo://app?vid=f5b5dd12-7b47-4a89-bf2e-615cdb78bc34"},"vehicle_type_id":"4","last_reported":1750972182,"current_range_meters":8000,"station_id":"ce4bho92rcd13ifvqh3g","pricing_plan_id":"cebpf4jnsgd1na2vs0mg"},{"bike_id":"84cbc78c-464a-4826-a662-a254a051373d","system_id":"levelo_inurba_marseille","lat":43.28436,"lon":5.39168,"is_reserved":false,"is_disabled":false,"rental_uris":{"android":"levelo://app?vid=84cbc78c-464a-4826-a662-a254a051373d","ios":"levelo://app?vid=84cbc78c-464a-4826-a662-a254a051373d"},"vehicle_type_id":"4","last_reported":1750972182,"current_range_meters":8000,"station_id":"ce4bhoh2rcd13ifvqh5g","pricing_plan_id":"cebpf4jnsgd1na2vs0mg"},{"bike_id":"76c54267-26a1-4151-ae2e-697c5e09fc54","system_id":"levelo_inurba_marseille","lat":43.24164,"lon":5.36401,"is_reserved":false,"is_disabled":false,"rental_uris":{"android":"levelo://app?vid=76c54267-26a1-4151-ae2e-697c5e09fc54","ios":"levelo://app?vid=76c54267-26a1-4151-ae2e-697c5e09fc54"},"vehicle_type_id":"4","last_reported":1750972182,"current_range_meters":8000,"station_id":"cpo36qri1sfpv3e86is0","pricing_plan_id":"cebpf4jnsgd1na2vs0mg"},{"bike_id":"f15a2dd8-3329-4647-87f1-16eee51cf672","system_id":"levelo_inurba_marseille","lat":43.30537,"lon":5.38434,"is_reserved":false,"is_disabled":false,"rental_uris":{"android":"levelo://app?vid=f15a2dd8-3329-4647-87f1-16eee51cf672","ios":"levelo://app?vid=f15a2dd8-3329-4647-87f1-16eee51cf672"},"vehicle_type_id":"4","last_reported":1750972182,"current_range_meters":8400,"station_id":"ce4bgg92rcd13ifvqb30","pricing_plan_id":"cebpf4jnsgd1na2vs0mg"},{"bike_id":"540b4430-6fc9-42b2-807a-270611bd5bf3","system_id":"levelo_inurba_marseille","lat":43.298,"lon":5.38103,"is_reserved":false,"is_disabled":false,"rental_uris":{"android":"levelo://app?vid=540b4430-6fc9-42b2-807a-270611bd5bf3","ios":"levelo://app?vid=540b4430-6fc9-42b2-807a-270611bd5bf3"},"vehicle_type_id":"4","last_reported":1750972182,"current_range_meters":8400,"station_id":"ce4bgip2rcd13ifvqbb0","pricing_plan_id":"cebpf4jnsgd1na2vs0mg"},{"bike_id":"ce910408-90db-4915-bb26-b50f5efff9f1","system_id":"levelo_inurba_marseille","lat":43.30635,"lon":5.40088,"is_reserved":false,"is_disabled":false,"rental_uris":{"android":"levelo://app?vid=ce910408-90db-4915-bb26-b50f5efff9f1","ios":"levelo://app?vid=ce910408-90db-4915-bb26-b50f5efff9f1"},"vehicle_type_id":"4","last_reported":1750972182,"current_range_meters":8400,"station_id":"ce4bh112rcd13ifvqda0","pricing_plan_id":"cebpf4jnsgd1na2vs0mg"},{"bike_id":"cb5d7d40-f10d-4096-9f01-065c387b9019","system_id":"levelo_inurba_marseille","lat":43.29093,"lon":5.3813,"is_reserved":false,"is_disabled":false,"rental_uris":{"android":"levelo://app?vid=cb5d7d40-f10d-4096-9f01-065c387b9019","ios":"levelo://app?vid=cb5d7d40-f10d-4096-9f01-065c387b9019"},"vehicle_type_id":"4","last_reported":1750972182,"current_range_meters":8400,"station_id":"ce4bh512rcd13ifvqe2g","pricing_plan_id":"cebpf4jnsgd1na2vs0mg"},{"bike_id":"56f2e370-c9f2-438d-adec-01540115fdaf","system_id":"levelo_inurba_marseille","lat":43.297768,"lon":5.393367,"is_reserved":false,"is_disabled":false,"rental_uris":{"android":"levelo://app?vid=56f2e370-c9f2-438d-adec-01540115fdaf","ios":"levelo://app?vid=56f2e370-c9f2-438d-adec-01540115fdaf"},"vehicle_type_id":"4","last_reported":1750972182,"current_range_meters":8400,"station_id":"chh1huq6cuj3fo74tm60","pricing_plan_id":"cebpf4jnsgd1na2vs0mg"},{"bike_id":"5308ba91-0229-4512-8db3-c9d8a5e4c818","system_id":"levelo_inurba_marseille","lat":43.28723,"lon":5.36083,"is_reserved":false,"is_disabled":false,"rental_uris":{"android":"levelo://app?vid=5308ba91-0229-4512-8db3-c9d8a5e4c818","ios":"levelo://app?vid=5308ba91-0229-4512-8db3-c9d8a5e4c818"},"vehicle_type_id":"4","last_reported":1750972182,"current_range_meters":8400,"station_id":"cki0cbj6b192h4jlfktg","pricing_plan_id":"cebpf4jnsgd1na2vs0mg"},{"bike_id":"e2f5b300-4a63-4778-aada-c29a8a0ea1e8","system_id":"levelo_inurba_marseille","lat":43.32599,"lon":5.38945,"is_reserved":false,"is_disabled":false,"rental_uris":{"android":"levelo://app?vid=e2f5b300-4a63-4778-aada-c29a8a0ea1e8","ios":"levelo://app?vid=e2f5b300-4a63-4778-aada-c29a8a0ea1e8"},"vehicle_type_id":"4","last_reported":1750972182,"current_range_meters":8800,"station_id":"","pricing_plan_id":"cebpf4jnsgd1na2vs0mg"},{"bike_id":"ce774a04-a4be-4eca-a30f-78eb921955bd","system_id":"levelo_inurba_marseille","lat":43.33869,"lon":5.35558,"is_reserved":false,"is_disabled":false,"rental_uris":{"android":"levelo://app?vid=ce774a04-a4be-4eca-a30f-78eb921955bd","ios":"levelo://app?vid=ce774a04-a4be-4eca-a30f-78eb921955bd"},"vehicle_type_id":"4","last_reported":1750972182,"current_range_meters":8800,"station_id":"","pricing_plan_id":"cebpf4jnsgd1na2vs0mg"},{"bike_id":"4edbee88-c893-4693-9e88-2a0cf4418998","system_id":"levelo_inurba_marseille","lat":43.31164,"lon":5.3871,"is_reserved":false,"is_disabled":false,"rental_uris":{"android":"levelo://app?vid=4edbee88-c893-4693-9e88-2a0cf4418998","ios":"levelo://app?vid=4edbee88-c893-4693-9e88-2a0cf4418998"},"vehicle_type_id":"4","last_reported":1750972182,"current_range_meters":8800,"station_id":"ce4bgv12rcd13ifvqcp0","pricing_plan_id":"cebpf4jnsgd1na2vs0mg"},{"bike_id":"16fb1fcd-b08b-415c-ab39-352691d85c3c","system_id":"levelo_inurba_marseille","lat":43.2602,"lon":5.37556,"is_reserved":false,"is_disabled":false,"rental_uris":{"android":"levelo://app?vid=16fb1fcd-b08b-415c-ab39-352691d85c3c","ios":"levelo://app?vid=16fb1fcd-b08b-415c-ab39-352691d85c3c"},"vehicle_type_id":"4","last_reported":1750972182,"current_range_meters":8800,"station_id":"ce4bhgh2rcd13ifvqfa0","pricing_plan_id":"cebpf4jnsgd1na2vs0mg"},{"bike_id":"6b7cfd75-9f46-4bac-9a61-7ed145f17214","system_id":"levelo_inurba_marseille","lat":43.32277,"lon":5.38216,"is_reserved":false,"is_disabled":false,"rental_uris":{"android":"levelo://app?vid=6b7cfd75-9f46-4bac-9a61-7ed145f17214","ios":"levelo://app?vid=6b7cfd75-9f46-4bac-9a61-7ed145f17214"},"vehicle_type_id":"4","last_reported":1750972182,"current_range_meters":8800,"station_id":"ce4bhr12rcd13ifvqhqg","pricing_plan_id":"cebpf4jnsgd1na2vs0mg"},{"bike_id":"9a333930-ad02-43be-b131-a3d57109bc12","system_id":"levelo_inurba_marseille","lat":43.313449,"lon":5.374724,"is_reserved":false,"is_disabled":false,"rental_uris":{"android":"levelo://app?vid=9a333930-ad02-43be-b131-a3d57109bc12","ios":"levelo://app?vid=9a333930-ad02-43be-b131-a3d57109bc12"},"vehicle_type_id":"4","last_reported":1750972182,"current_range_meters":9200,"station_id":"ce4bh012rcd13ifvqcv0","pricing_plan_id":"cebpf4jnsgd1na2vs0mg"},{"bike_id":"412d4809-94d1-46f1-806f-d5f5d62c1c5b","system_id":"levelo_inurba_marseille","lat":43.2466,"lon":5.38146,"is_reserved":false,"is_disabled":false,"rental_uris":{"android":"levelo://app?vid=412d4809-94d1-46f1-806f-d5f5d62c1c5b","ios":"levelo://app?vid=412d4809-94d1-46f1-806f-d5f5d62c1c5b"},"vehicle_type_id":"4","last_reported":1750972182,"current_range_meters":9200,"station_id":"ce4bhih2rcd13ifvqfr0","pricing_plan_id":"cebpf4jnsgd1na2vs0mg"},{"bike_id":"f6ea66d9-a120-487c-a0ab-bdad67c4b5bb","system_id":"levelo_inurba_marseille","lat":43.21746,"lon":5.34607,"is_reserved":false,"is_disabled":false,"rental_uris":{"android":"levelo://app?vid=f6ea66d9-a120-487c-a0ab-bdad67c4b5bb","ios":"levelo://app?vid=f6ea66d9-a120-487c-a0ab-bdad67c4b5bb"},"vehicle_type_id":"4","last_reported":1750972182,"current_range_meters":9200,"station_id":"st_cvj6r9ubvosntc0bgbag","pricing_plan_id":"cebpf4jnsgd1na2vs0mg"},{"bike_id":"c2c527ba-9dd8-4a83-be9e-0afea16feae6","system_id":"levelo_inurba_marseille","lat":43.288515,"lon":5.393295,"is_reserved":false,"is_disabled":false,"rental_uris":{"android":"levelo://app?vid=c2c527ba-9dd8-4a83-be9e-0afea16feae6","ios":"levelo://app?vid=c2c527ba-9dd8-4a83-be9e-0afea16feae6"},"vehicle_type_id":"4","last_reported":1750972182,"current_range_meters":9600,"station_id":"ce4bh2p2rcd13ifvqdi0","pricing_plan_id":"cebpf4jnsgd1na2vs0mg"},{"bike_id":"f47876d7-9c85-474e-92c5-7a242e08b67c","system_id":"levelo_inurba_marseille","lat":43.30555,"lon":5.37543,"is_reserved":false,"is_disabled":false,"rental_uris":{"android":"levelo://app?vid=f47876d7-9c85-474e-92c5-7a242e08b67c","ios":"levelo://app?vid=f47876d7-9c85-474e-92c5-7a242e08b67c"},"vehicle_type_id":"4","last_reported":1750972182,"current_range_meters":10000,"station_id":"","pricing_plan_id":"cebpf4jnsgd1na2vs0mg"},{"bike_id":"a9d25cad-d480-4c75-aec5-3969f1a4e6c7","system_id":"levelo_inurba_marseille","lat":43.32943,"lon":5.38989,"is_reserved":false,"is_disabled":false,"rental_uris":{"android":"levelo://app?vid=a9d25cad-d480-4c75-aec5-3969f1a4e6c7","ios":"levelo://app?vid=a9d25cad-d480-4c75-aec5-3969f1a4e6c7"},"vehicle_type_id":"4","last_reported":1750972182,"current_range_meters":10000,"station_id":"","pricing_plan_id":"cebpf4jnsgd1na2vs0mg"},{"bike_id":"a5924985-3843-4e33-83f0-d185289b96bf","system_id":"levelo_inurba_marseille","lat":43.31317,"lon":5.39692,"is_reserved":false,"is_disabled":false,"rental_uris":{"android":"levelo://app?vid=a5924985-3843-4e33-83f0-d185289b96bf","ios":"levelo://app?vid=a5924985-3843-4e33-83f0-d185289b96bf"},"vehicle_type_id":"4","last_reported":1750972182,"current_range_meters":10000,"station_id":"ce4bgvp2rcd13ifvqcu0","pricing_plan_id":"cebpf4jnsgd1na2vs0mg"},{"bike_id":"ea5ed12b-b026-45ee-b722-7114df736de0","system_id":"levelo_inurba_marseille","lat":43.28095,"lon":5.37833,"is_reserved":false,"is_disabled":false,"rental_uris":{"android":"levelo://app?vid=ea5ed12b-b026-45ee-b722-7114df736de0","ios":"levelo://app?vid=ea5ed12b-b026-45ee-b722-7114df736de0"},"vehicle_type_id":"4","last_reported":1750972182,"current_range_meters":10000,"station_id":"ce4bha12rcd13ifvqee0","pricing_plan_id":"cebpf4jnsgd1na2vs0mg"},{"bike_id":"2a1b6331-d27f-4c02-917e-0c21dda0fde8","system_id":"levelo_inurba_marseille","lat":43.307995,"lon":5.381639,"is_reserved":false,"is_disabled":false,"rental_uris":{"android":"levelo://app?vid=2a1b6331-d27f-4c02-917e-0c21dda0fde8","ios":"levelo://app?vid=2a1b6331-d27f-4c02-917e-0c21dda0fde8"},"vehicle_type_id":"4","last_reported":1750972182,"current_range_meters":10800,"station_id":"ce4bgt12rcd13ifvqce0","pricing_plan_id":"cebpf4jnsgd1na2vs0mg"},{"bike_id":"0a332c85-debe-444e-85fe-3802f0819fb1","system_id":"levelo_inurba_marseille","lat":43.29265,"lon":5.38453,"is_reserved":false,"is_disabled":false,"rental_uris":{"android":"levelo://app?vid=0a332c85-debe-444e-85fe-3802f0819fb1","ios":"levelo://app?vid=0a332c85-debe-444e-85fe-3802f0819fb1"},"vehicle_type_id":"4","last_reported":1750972182,"current_range_meters":10800,"station_id":"ce4bh692rcd13ifvqea0","pricing_plan_id":"cebpf4jnsgd1na2vs0mg"},{"bike_id":"20e862bb-3fc5-44c7-9d80-0e8bcceac300","system_id":"levelo_inurba_marseille","lat":43.28418,"lon":5.34996,"is_reserved":false,"is_disabled":false,"rental_uris":{"android":"levelo://app?vid=20e862bb-3fc5-44c7-9d80-0e8bcceac300","ios":"levelo://app?vid=20e862bb-3fc5-44c7-9d80-0e8bcceac300"},"vehicle_type_id":"4","last_reported":1750972182,"current_range_meters":10800,"station_id":"ce4bhbh2rcd13ifvqepg","pricing_plan_id":"cebpf4jnsgd1na2vs0mg"},{"bike_id":"b2f65b77-6c4d-463a-b12d-03ec0ed31397","system_id":"levelo_inurba_marseille","lat":43.21749,"lon":5.34617,"is_reserved":false,"is_disabled":false,"rental_uris":{"android":"levelo://app?vid=b2f65b77-6c4d-463a-b12d-03ec0ed31397","ios":"levelo://app?vid=b2f65b77-6c4d-463a-b12d-03ec0ed31397"},"vehicle_type_id":"4","last_reported":1750972182,"current_range_meters":10800,"station_id":"st_cvj6r9ubvosntc0bgbag","pricing_plan_id":"cebpf4jnsgd1na2vs0mg"},{"bike_id":"94e84186-d780-461a-b647-8d1cf3f036ad","system_id":"levelo_inurba_marseille","lat":43.317027,"lon":5.377401,"is_reserved":false,"is_disabled":false,"rental_uris":{"android":"levelo://app?vid=94e84186-d780-461a-b647-8d1cf3f036ad","ios":"levelo://app?vid=94e84186-d780-461a-b647-8d1cf3f036ad"},"vehicle_type_id":"4","last_reported":1750972182,"current_range_meters":11200,"station_id":"ce4bgth2rcd13ifvqch0","pricing_plan_id":"cebpf4jnsgd1na2vs0mg"},{"bike_id":"386633ec-c8ba-49b6-a248-f8f94b4b062c","system_id":"levelo_inurba_marseille","lat":43.2926,"lon":5.38453,"is_reserved":false,"is_disabled":false,"rental_uris":{"android":"levelo://app?vid=386633ec-c8ba-49b6-a248-f8f94b4b062c","ios":"levelo://app?vid=386633ec-c8ba-49b6-a248-f8f94b4b062c"},"vehicle_type_id":"4","last_reported":1750972182,"current_range_meters":11200,"station_id":"ce4bh692rcd13ifvqea0","pricing_plan_id":"cebpf4jnsgd1na2vs0mg"},{"bike_id":"5d97ba86-e06d-4a4a-8b00-a18d8279549a","system_id":"levelo_inurba_marseille","lat":43.28421,"lon":5.34981,"is_reserved":false,"is_disabled":false,"rental_uris":{"android":"levelo://app?vid=5d97ba86-e06d-4a4a-8b00-a18d8279549a","ios":"levelo://app?vid=5d97ba86-e06d-4a4a-8b00-a18d8279549a"},"vehicle_type_id":"4","last_reported":1750972182,"current_range_meters":11200,"station_id":"ce4bhbh2rcd13ifvqepg","pricing_plan_id":"cebpf4jnsgd1na2vs0mg"},{"bike_id":"cf00e87f-5d77-4083-9486-27fbc78c5847","system_id":"levelo_inurba_marseille","lat":43.33604,"lon":5.40972,"is_reserved":false,"is_disabled":false,"rental_uris":{"android":"levelo://app?vid=cf00e87f-5d77-4083-9486-27fbc78c5847","ios":"levelo://app?vid=cf00e87f-5d77-4083-9486-27fbc78c5847"},"vehicle_type_id":"4","last_reported":1750972182,"current_range_meters":11200,"station_id":"ce4bhqh2rcd13ifvqhmg","pricing_plan_id":"cebpf4jnsgd1na2vs0mg"},{"bike_id":"69a9b7bf-69b2-47a2-8bc4-bb00821e8199","system_id":"levelo_inurba_marseille","lat":43.2118,"lon":5.35073,"is_reserved":false,"is_disabled":false,"rental_uris":{"android":"levelo://app?vid=69a9b7bf-69b2-47a2-8bc4-bb00821e8199","ios":"levelo://app?vid=69a9b7bf-69b2-47a2-8bc4-bb00821e8199"},"vehicle_type_id":"4","last_reported":1750972182,"current_range_meters":11200,"station_id":"st_cvj6sg6p6f1abm77japg","pricing_plan_id":"cebpf4jnsgd1na2vs0mg"},{"bike_id":"aafcbe36-e9fd-4bc9-82f1-7239d7a443a6","system_id":"levelo_inurba_marseille","lat":43.30887,"lon":5.39659,"is_reserved":false,"is_disabled":false,"rental_uris":{"android":"levelo://app?vid=aafcbe36-e9fd-4bc9-82f1-7239d7a443a6","ios":"levelo://app?vid=aafcbe36-e9fd-4bc9-82f1-7239d7a443a6"},"vehicle_type_id":"4","last_reported":1750972182,"current_range_meters":11600,"station_id":"ce4bh012rcd13ifvqcv0","pricing_plan_id":"cebpf4jnsgd1na2vs0mg"},{"bike_id":"1ac36b5f-11f8-402a-838f-c7e094c037f3","system_id":"levelo_inurba_marseille","lat":43.30129,"lon":5.3986,"is_reserved":false,"is_disabled":false,"rental_uris":{"android":"levelo://app?vid=1ac36b5f-11f8-402a-838f-c7e094c037f3","ios":"levelo://app?vid=1ac36b5f-11f8-402a-838f-c7e094c037f3"},"vehicle_type_id":"4","last_reported":1750972182,"current_range_meters":11600,"station_id":"ce4bh0h2rcd13ifvqd40","pricing_plan_id":"cebpf4jnsgd1na2vs0mg"},{"bike_id":"f3e3a564-ce37-49ce-b2fc-1f09d5c9ff09","system_id":"levelo_inurba_marseille","lat":43.31989,"lon":5.38163,"is_reserved":false,"is_disabled":false,"rental_uris":{"android":"levelo://app?vid=f3e3a564-ce37-49ce-b2fc-1f09d5c9ff09","ios":"levelo://app?vid=f3e3a564-ce37-49ce-b2fc-1f09d5c9ff09"},"vehicle_type_id":"4","last_reported":1750972182,"current_range_meters":11600,"station_id":"ce4bhr12rcd13ifvqhpg","pricing_plan_id":"cebpf4jnsgd1na2vs0mg"},{"bike_id":"c65cf773-4af5-4807-915f-fef9071dede4","system_id":"levelo_inurba_marseille","lat":43.2319,"lon":5.35554,"is_reserved":false,"is_disabled":false,"rental_uris":{"android":"levelo://app?vid=c65cf773-4af5-4807-915f-fef9071dede4","ios":"levelo://app?vid=c65cf773-4af5-4807-915f-fef9071dede4"},"vehicle_type_id":"4","last_reported":1750972182,"current_range_meters":11600,"station_id":"ce4bhu92rcd13ifvqi70","pricing_plan_id":"cebpf4jnsgd1na2vs0mg"},{"bike_id":"0b802332-183e-41d2-9ce0-5808eba85f0f","system_id":"levelo_inurba_marseille","lat":43.28414,"lon":5.3498,"is_reserved":false,"is_disabled":false,"rental_uris":{"android":"levelo://app?vid=0b802332-183e-41d2-9ce0-5808eba85f0f","ios":"levelo://app?vid=0b802332-183e-41d2-9ce0-5808eba85f0f"},"vehicle_type_id":"4","last_reported":1750972182,"current_range_meters":12000,"station_id":"ce4bhbh2rcd13ifvqepg","pricing_plan_id":"cebpf4jnsgd1na2vs0mg"},{"bike_id":"389e5bf0-822c-4c63-8bef-b4c36fb35920","system_id":"levelo_inurba_marseille","lat":43.27952,"lon":5.38769,"is_reserved":false,"is_disabled":false,"rental_uris":{"android":"levelo://app?vid=389e5bf0-822c-4c63-8bef-b4c36fb35920","ios":"levelo://app?vid=389e5bf0-822c-4c63-8bef-b4c36fb35920"},"vehicle_type_id":"4","last_reported":1750972182,"current_range_meters":12000,"station_id":"ce4bhg12rcd13ifvqf80","pricing_plan_id":"cebpf4jnsgd1na2vs0mg"},{"bike_id":"3dc92d04-76dd-40d3-ad89-66a28e99d499","system_id":"levelo_inurba_marseille","lat":43.26937,"lon":5.40255,"is_reserved":false,"is_disabled":false,"rental_uris":{"android":"levelo://app?vid=3dc92d04-76dd-40d3-ad89-66a28e99d499","ios":"levelo://app?vid=3dc92d04-76dd-40d3-ad89-66a28e99d499"},"vehicle_type_id":"4","last_reported":1750972182,"current_range_meters":12000,"station_id":"cjm6bp8fraef2m0cb0m0","pricing_plan_id":"cebpf4jnsgd1na2vs0mg"},{"bike_id":"4b8da722-ee9e-48a4-a5e5-3a8a10364708","system_id":"levelo_inurba_marseille","lat":43.312263,"lon":5.378116,"is_reserved":false,"is_disabled":false,"rental_uris":{"android":"levelo://app?vid=4b8da722-ee9e-48a4-a5e5-3a8a10364708","ios":"levelo://app?vid=4b8da722-ee9e-48a4-a5e5-3a8a10364708"},"vehicle_type_id":"4","last_reported":1750972182,"current_range_meters":12400,"station_id":"","pricing_plan_id":"cebpf4jnsgd1na2vs0mg"},{"bike_id":"38ee6c99-ed1c-4320-bb3c-b1d717388b30","system_id":"levelo_inurba_marseille","lat":43.22948,"lon":5.35404,"is_reserved":false,"is_disabled":false,"rental_uris":{"android":"levelo://app?vid=38ee6c99-ed1c-4320-bb3c-b1d717388b30","ios":"levelo://app?vid=38ee6c99-ed1c-4320-bb3c-b1d717388b30"},"vehicle_type_id":"4","last_reported":1750972182,"current_range_meters":12400,"station_id":"cpo3532slgdg3j2ikp40","pricing_plan_id":"cebpf4jnsgd1na2vs0mg"},{"bike_id":"de60e805-7bd8-435a-bebf-a7fd31081690","system_id":"levelo_inurba_marseille","lat":43.26571,"lon":5.390084,"is_reserved":false,"is_disabled":false,"rental_uris":{"android":"levelo://app?vid=de60e805-7bd8-435a-bebf-a7fd31081690","ios":"levelo://app?vid=de60e805-7bd8-435a-bebf-a7fd31081690"},"vehicle_type_id":"4","last_reported":1750972182,"current_range_meters":12800,"station_id":"ce4bhlp2rcd13ifvqgjg","pricing_plan_id":"cebpf4jnsgd1na2vs0mg"},{"bike_id":"d2541864-294e-4fa8-8ed4-da3902bb58d5","system_id":"levelo_inurba_marseille","lat":43.22909,"lon":5.35367,"is_reserved":false,"is_disabled":false,"rental_uris":{"android":"levelo://app?vid=d2541864-294e-4fa8-8ed4-da3902bb58d5","ios":"levelo://app?vid=d2541864-294e-4fa8-8ed4-da3902bb58d5"},"vehicle_type_id":"4","last_reported":1750972182,"current_range_meters":12800,"station_id":"cpo3532slgdg3j2ikp40","pricing_plan_id":"cebpf4jnsgd1na2vs0mg"},{"bike_id":"6e333cad-8154-4d5d-9ce4-405ad8359f75","system_id":"levelo_inurba_marseille","lat":43.22928,"lon":5.35377,"is_reserved":false,"is_disabled":false,"rental_uris":{"android":"levelo://app?vid=6e333cad-8154-4d5d-9ce4-405ad8359f75","ios":"levelo://app?vid=6e333cad-8154-4d5d-9ce4-405ad8359f75"},"vehicle_type_id":"4","last_reported":1750972182,"current_range_meters":12800,"station_id":"cpo3532slgdg3j2ikp40","pricing_plan_id":"cebpf4jnsgd1na2vs0mg"},{"bike_id":"86ebd8a7-7d30-43b6-953e-6107b0f77710","system_id":"levelo_inurba_marseille","lat":43.33436,"lon":5.40039,"is_reserved":false,"is_disabled":false,"rental_uris":{"android":"levelo://app?vid=86ebd8a7-7d30-43b6-953e-6107b0f77710","ios":"levelo://app?vid=86ebd8a7-7d30-43b6-953e-6107b0f77710"},"vehicle_type_id":"4","last_reported":1750972182,"current_range_meters":13600,"station_id":"","pricing_plan_id":"cebpf4jnsgd1na2vs0mg"},{"bike_id":"9414a24b-569a-4c42-8996-c47ba043fb38","system_id":"levelo_inurba_marseille","lat":43.29256,"lon":5.40903,"is_reserved":false,"is_disabled":false,"rental_uris":{"android":"levelo://app?vid=9414a24b-569a-4c42-8996-c47ba043fb38","ios":"levelo://app?vid=9414a24b-569a-4c42-8996-c47ba043fb38"},"vehicle_type_id":"4","last_reported":1750972182,"current_range_meters":13600,"station_id":"ce4bh192rcd13ifvqdc0","pricing_plan_id":"cebpf4jnsgd1na2vs0mg"},{"bike_id":"695543fd-e251-4bd7-b67e-2781fc01dcef","system_id":"levelo_inurba_marseille","lat":43.28851,"lon":5.35844,"is_reserved":false,"is_disabled":false,"rental_uris":{"android":"levelo://app?vid=695543fd-e251-4bd7-b67e-2781fc01dcef","ios":"levelo://app?vid=695543fd-e251-4bd7-b67e-2781fc01dcef"},"vehicle_type_id":"4","last_reported":1750972182,"current_range_meters":13600,"station_id":"ce4bhb12rcd13ifvqem0","pricing_plan_id":"cebpf4jnsgd1na2vs0mg"},{"bike_id":"d7479aa3-ac15-4d60-b907-70a0bfb7dd09","system_id":"levelo_inurba_marseille","lat":43.28409,"lon":5.34966,"is_reserved":false,"is_disabled":false,"rental_uris":{"android":"levelo://app?vid=d7479aa3-ac15-4d60-b907-70a0bfb7dd09","ios":"levelo://app?vid=d7479aa3-ac15-4d60-b907-70a0bfb7dd09"},"vehicle_type_id":"4","last_reported":1750972182,"current_range_meters":13600,"station_id":"ce4bhbh2rcd13ifvqepg","pricing_plan_id":"cebpf4jnsgd1na2vs0mg"},{"bike_id":"3f5fc64c-6a6a-42f1-80eb-1a5d89851add","system_id":"levelo_inurba_marseille","lat":43.26929,"lon":5.38918,"is_reserved":false,"is_disabled":false,"rental_uris":{"android":"levelo://app?vid=3f5fc64c-6a6a-42f1-80eb-1a5d89851add","ios":"levelo://app?vid=3f5fc64c-6a6a-42f1-80eb-1a5d89851add"},"vehicle_type_id":"4","last_reported":1750972182,"current_range_meters":13600,"station_id":"ce4bhhh2rcd13ifvqfl0","pricing_plan_id":"cebpf4jnsgd1na2vs0mg"},{"bike_id":"c8e6ab1e-a41b-4246-b78a-9e20b3b7e354","system_id":"levelo_inurba_marseille","lat":43.24666,"lon":5.3815,"is_reserved":false,"is_disabled":false,"rental_uris":{"android":"levelo://app?vid=c8e6ab1e-a41b-4246-b78a-9e20b3b7e354","ios":"levelo://app?vid=c8e6ab1e-a41b-4246-b78a-9e20b3b7e354"},"vehicle_type_id":"4","last_reported":1750972182,"current_range_meters":13600,"station_id":"ce4bhih2rcd13ifvqfr0","pricing_plan_id":"cebpf4jnsgd1na2vs0mg"},{"bike_id":"0c98df0e-1e80-4ea8-9508-66a58d15bbf0","system_id":"levelo_inurba_marseille","lat":43.29963,"lon":5.41309,"is_reserved":false,"is_disabled":false,"rental_uris":{"android":"levelo://app?vid=0c98df0e-1e80-4ea8-9508-66a58d15bbf0","ios":"levelo://app?vid=0c98df0e-1e80-4ea8-9508-66a58d15bbf0"},"vehicle_type_id":"4","last_reported":1750972182,"current_range_meters":13600,"station_id":"ce4bhp12rcd13ifvqh9g","pricing_plan_id":"cebpf4jnsgd1na2vs0mg"},{"bike_id":"b1d03786-5b68-4101-aa48-d4f852cd4c7d","system_id":"levelo_inurba_marseille","lat":43.28847,"lon":5.39308,"is_reserved":false,"is_disabled":false,"rental_uris":{"android":"levelo://app?vid=b1d03786-5b68-4101-aa48-d4f852cd4c7d","ios":"levelo://app?vid=b1d03786-5b68-4101-aa48-d4f852cd4c7d"},"vehicle_type_id":"4","last_reported":1750972182,"current_range_meters":14000,"station_id":"ce4bh2p2rcd13ifvqdi0","pricing_plan_id":"cebpf4jnsgd1na2vs0mg"},{"bike_id":"277d6f3a-b9b5-4d88-bf0d-6c597782848e","system_id":"levelo_inurba_marseille","lat":43.23197,"lon":5.35533,"is_reserved":false,"is_disabled":false,"rental_uris":{"android":"levelo://app?vid=277d6f3a-b9b5-4d88-bf0d-6c597782848e","ios":"levelo://app?vid=277d6f3a-b9b5-4d88-bf0d-6c597782848e"},"vehicle_type_id":"4","last_reported":1750972182,"current_range_meters":14000,"station_id":"ce4bhu92rcd13ifvqi70","pricing_plan_id":"cebpf4jnsgd1na2vs0mg"},{"bike_id":"093ff621-d606-420e-a44f-6585f047f5b8","system_id":"levelo_inurba_marseille","lat":43.305969,"lon":5.372437,"is_reserved":false,"is_disabled":false,"rental_uris":{"android":"levelo://app?vid=093ff621-d606-420e-a44f-6585f047f5b8","ios":"levelo://app?vid=093ff621-d606-420e-a44f-6585f047f5b8"},"vehicle_type_id":"4","last_reported":1750972182,"current_range_meters":14400,"station_id":"ce4bgqh2rcd13ifvqc4g","pricing_plan_id":"cebpf4jnsgd1na2vs0mg"},{"bike_id":"c824e0fb-2d2b-47af-aa50-554b5934cca2","system_id":"levelo_inurba_marseille","lat":43.29511,"lon":5.39394,"is_reserved":false,"is_disabled":false,"rental_uris":{"android":"levelo://app?vid=c824e0fb-2d2b-47af-aa50-554b5934cca2","ios":"levelo://app?vid=c824e0fb-2d2b-47af-aa50-554b5934cca2"},"vehicle_type_id":"4","last_reported":1750972182,"current_range_meters":14400,"station_id":"ce4bh292rcd13ifvqdf0","pricing_plan_id":"cebpf4jnsgd1na2vs0mg"},{"bike_id":"7a6d7990-86a0-44ed-9847-a3f1e456c5af","system_id":"levelo_inurba_marseille","lat":43.284172,"lon":5.349917,"is_reserved":false,"is_disabled":false,"rental_uris":{"android":"levelo://app?vid=7a6d7990-86a0-44ed-9847-a3f1e456c5af","ios":"levelo://app?vid=7a6d7990-86a0-44ed-9847-a3f1e456c5af"},"vehicle_type_id":"4","last_reported":1750972182,"current_range_meters":14400,"station_id":"ce4bhbh2rcd13ifvqepg","pricing_plan_id":"cebpf4jnsgd1na2vs0mg"},{"bike_id":"b8dea0e9-78e2-4ca8-a802-0183e0b37436","system_id":"levelo_inurba_marseille","lat":43.27837,"lon":5.39214,"is_reserved":false,"is_disabled":false,"rental_uris":{"android":"levelo://app?vid=b8dea0e9-78e2-4ca8-a802-0183e0b37436","ios":"levelo://app?vid=b8dea0e9-78e2-4ca8-a802-0183e0b37436"},"vehicle_type_id":"4","last_reported":1750972182,"current_range_meters":14400,"station_id":"ce4bhjp2rcd13ifvqga0","pricing_plan_id":"cebpf4jnsgd1na2vs0mg"},{"bike_id":"ab875138-c754-4b3b-82d7-2da5a11b45cf","system_id":"levelo_inurba_marseille","lat":43.21764,"lon":5.34568,"is_reserved":false,"is_disabled":false,"rental_uris":{"android":"levelo://app?vid=ab875138-c754-4b3b-82d7-2da5a11b45cf","ios":"levelo://app?vid=ab875138-c754-4b3b-82d7-2da5a11b45cf"},"vehicle_type_id":"4","last_reported":1750972182,"current_range_meters":14400,"station_id":"st_cvj6r9ubvosntc0bgbag","pricing_plan_id":"cebpf4jnsgd1na2vs0mg"},{"bike_id":"8c5147ad-2962-4633-8f13-d4b9c1c64e78","system_id":"levelo_inurba_marseille","lat":43.295023,"lon":5.394135,"is_reserved":false,"is_disabled":false,"rental_uris":{"android":"levelo://app?vid=8c5147ad-2962-4633-8f13-d4b9c1c64e78","ios":"levelo://app?vid=8c5147ad-2962-4633-8f13-d4b9c1c64e78"},"vehicle_type_id":"4","last_reported":1750972182,"current_range_meters":14800,"station_id":"ce4bh292rcd13ifvqdf0","pricing_plan_id":"cebpf4jnsgd1na2vs0mg"},{"bike_id":"8d44ab41-620c-4a90-9a9d-9ac0a9dc8527","system_id":"levelo_inurba_marseille","lat":43.28706,"lon":5.39985,"is_reserved":false,"is_disabled":false,"rental_uris":{"android":"levelo://app?vid=8d44ab41-620c-4a90-9a9d-9ac0a9dc8527","ios":"levelo://app?vid=8d44ab41-620c-4a90-9a9d-9ac0a9dc8527"},"vehicle_type_id":"4","last_reported":1750972182,"current_range_meters":14800,"station_id":"ce4bho92rcd13ifvqh3g","pricing_plan_id":"cebpf4jnsgd1na2vs0mg"},{"bike_id":"3fda70df-e1b8-4091-b66f-211bb0339eb3","system_id":"levelo_inurba_marseille","lat":43.23195,"lon":5.35538,"is_reserved":false,"is_disabled":false,"rental_uris":{"android":"levelo://app?vid=3fda70df-e1b8-4091-b66f-211bb0339eb3","ios":"levelo://app?vid=3fda70df-e1b8-4091-b66f-211bb0339eb3"},"vehicle_type_id":"4","last_reported":1750972182,"current_range_meters":14800,"station_id":"ce4bhu92rcd13ifvqi70","pricing_plan_id":"cebpf4jnsgd1na2vs0mg"},{"bike_id":"f4b94c45-7091-401c-8f54-f05d8872c9bb","system_id":"levelo_inurba_marseille","lat":43.3086,"lon":5.39666,"is_reserved":false,"is_disabled":false,"rental_uris":{"android":"levelo://app?vid=f4b94c45-7091-401c-8f54-f05d8872c9bb","ios":"levelo://app?vid=f4b94c45-7091-401c-8f54-f05d8872c9bb"},"vehicle_type_id":"4","last_reported":1750972182,"current_range_meters":15200,"station_id":"","pricing_plan_id":"cebpf4jnsgd1na2vs0mg"},{"bike_id":"dc95bf94-76a5-4623-a5e5-92b4927c9b7e","system_id":"levelo_inurba_marseille","lat":43.28406,"lon":5.37504,"is_reserved":false,"is_disabled":false,"rental_uris":{"android":"levelo://app?vid=dc95bf94-76a5-4623-a5e5-92b4927c9b7e","ios":"levelo://app?vid=dc95bf94-76a5-4623-a5e5-92b4927c9b7e"},"vehicle_type_id":"4","last_reported":1750972182,"current_range_meters":15200,"station_id":"ce4bh412rcd13ifvqds0","pricing_plan_id":"cebpf4jnsgd1na2vs0mg"},{"bike_id":"c332db64-ad95-4808-b020-5943948d3097","system_id":"levelo_inurba_marseille","lat":43.28364,"lon":5.3863,"is_reserved":false,"is_disabled":false,"rental_uris":{"android":"levelo://app?vid=c332db64-ad95-4808-b020-5943948d3097","ios":"levelo://app?vid=c332db64-ad95-4808-b020-5943948d3097"},"vehicle_type_id":"4","last_reported":1750972182,"current_range_meters":15200,"station_id":"ce4bh492rcd13ifvqdvg","pricing_plan_id":"cebpf4jnsgd1na2vs0mg"},{"bike_id":"348936c8-7c8d-4b8a-988e-b0a979920804","system_id":"levelo_inurba_marseille","lat":43.21191,"lon":5.35073,"is_reserved":false,"is_disabled":false,"rental_uris":{"android":"levelo://app?vid=348936c8-7c8d-4b8a-988e-b0a979920804","ios":"levelo://app?vid=348936c8-7c8d-4b8a-988e-b0a979920804"},"vehicle_type_id":"4","last_reported":1750972182,"current_range_meters":15200,"station_id":"st_cvj6sg6p6f1abm77japg","pricing_plan_id":"cebpf4jnsgd1na2vs0mg"},{"bike_id":"6f923103-95c7-4178-9a7f-07111b96b1be","system_id":"levelo_inurba_marseille","lat":43.29191,"lon":5.40081,"is_reserved":false,"is_disabled":false,"rental_uris":{"android":"levelo://app?vid=6f923103-95c7-4178-9a7f-07111b96b1be","ios":"levelo://app?vid=6f923103-95c7-4178-9a7f-07111b96b1be"},"vehicle_type_id":"4","last_reported":1750972182,"current_range_meters":16000,"station_id":"","pricing_plan_id":"cebpf4jnsgd1na2vs0mg"},{"bike_id":"f1ff4f78-6d1b-435f-8777-a24085f5b111","system_id":"levelo_inurba_marseille","lat":43.23132,"lon":5.35571,"is_reserved":false,"is_disabled":false,"rental_uris":{"android":"levelo://app?vid=f1ff4f78-6d1b-435f-8777-a24085f5b111","ios":"levelo://app?vid=f1ff4f78-6d1b-435f-8777-a24085f5b111"},"vehicle_type_id":"4","last_reported":1750972182,"current_range_meters":16000,"station_id":"","pricing_plan_id":"cebpf4jnsgd1na2vs0mg"},{"bike_id":"991337fd-282c-49a6-b9c9-be3bf04d5319","system_id":"levelo_inurba_marseille","lat":43.30136,"lon":5.38768,"is_reserved":false,"is_disabled":false,"rental_uris":{"android":"levelo://app?vid=991337fd-282c-49a6-b9c9-be3bf04d5319","ios":"levelo://app?vid=991337fd-282c-49a6-b9c9-be3bf04d5319"},"vehicle_type_id":"4","last_reported":1750972182,"current_range_meters":16000,"station_id":"ce4bghh2rcd13ifvqb60","pricing_plan_id":"cebpf4jnsgd1na2vs0mg"},{"bike_id":"5a3f6a69-5135-4cc1-8adb-0d6ba2617fb3","system_id":"levelo_inurba_marseille","lat":43.31688,"lon":5.40506,"is_reserved":false,"is_disabled":false,"rental_uris":{"android":"levelo://app?vid=5a3f6a69-5135-4cc1-8adb-0d6ba2617fb3","ios":"levelo://app?vid=5a3f6a69-5135-4cc1-8adb-0d6ba2617fb3"},"vehicle_type_id":"4","last_reported":1750972182,"current_range_meters":16000,"station_id":"ce4bh012rcd13ifvqd00","pricing_plan_id":"cebpf4jnsgd1na2vs0mg"},{"bike_id":"e2422e3d-4127-400a-989c-fe37339beeef","system_id":"levelo_inurba_marseille","lat":43.28669,"lon":5.38669,"is_reserved":false,"is_disabled":false,"rental_uris":{"android":"levelo://app?vid=e2422e3d-4127-400a-989c-fe37339beeef","ios":"levelo://app?vid=e2422e3d-4127-400a-989c-fe37339beeef"},"vehicle_type_id":"4","last_reported":1750972182,"current_range_meters":16000,"station_id":"ce4bh492rcd13ifvqdug","pricing_plan_id":"cebpf4jnsgd1na2vs0mg"},{"bike_id":"b63e95f3-d855-4047-88fd-16268116827f","system_id":"levelo_inurba_marseille","lat":43.27974,"lon":5.38752,"is_reserved":false,"is_disabled":false,"rental_uris":{"android":"levelo://app?vid=b63e95f3-d855-4047-88fd-16268116827f","ios":"levelo://app?vid=b63e95f3-d855-4047-88fd-16268116827f"},"vehicle_type_id":"4","last_reported":1750972182,"current_range_meters":16000,"station_id":"ce4bhg12rcd13ifvqf80","pricing_plan_id":"cebpf4jnsgd1na2vs0mg"},{"bike_id":"33987ea1-f8ea-4f53-92b7-011c83206d5b","system_id":"levelo_inurba_marseille","lat":43.2407,"lon":5.3776,"is_reserved":false,"is_disabled":false,"rental_uris":{"android":"levelo://app?vid=33987ea1-f8ea-4f53-92b7-011c83206d5b","ios":"levelo://app?vid=33987ea1-f8ea-4f53-92b7-011c83206d5b"},"vehicle_type_id":"4","last_reported":1750972182,"current_range_meters":16000,"station_id":"ce4bhnp2rcd13ifvqgvg","pricing_plan_id":"cebpf4jnsgd1na2vs0mg"},{"bike_id":"415f7382-f2b8-467c-a70e-e22e4c99b6f8","system_id":"levelo_inurba_marseille","lat":43.24062,"lon":5.3774,"is_reserved":false,"is_disabled":false,"rental_uris":{"android":"levelo://app?vid=415f7382-f2b8-467c-a70e-e22e4c99b6f8","ios":"levelo://app?vid=415f7382-f2b8-467c-a70e-e22e4c99b6f8"},"vehicle_type_id":"4","last_reported":1750972182,"current_range_meters":16000,"station_id":"ce4bhnp2rcd13ifvqgvg","pricing_plan_id":"cebpf4jnsgd1na2vs0mg"},{"bike_id":"b8954a9f-7ce8-456c-a0b7-ca33c9473361","system_id":"levelo_inurba_marseille","lat":43.31997,"lon":5.38164,"is_reserved":false,"is_disabled":false,"rental_uris":{"android":"levelo://app?vid=b8954a9f-7ce8-456c-a0b7-ca33c9473361","ios":"levelo://app?vid=b8954a9f-7ce8-456c-a0b7-ca33c9473361"},"vehicle_type_id":"4","last_reported":1750972182,"current_range_meters":16000,"station_id":"ce4bhr12rcd13ifvqhpg","pricing_plan_id":"cebpf4jnsgd1na2vs0mg"},{"bike_id":"23bbf6f5-3303-4a8a-81da-20b5be420bc5","system_id":"levelo_inurba_marseille","lat":43.282092,"lon":5.390558,"is_reserved":false,"is_disabled":false,"rental_uris":{"android":"levelo://app?vid=23bbf6f5-3303-4a8a-81da-20b5be420bc5","ios":"levelo://app?vid=23bbf6f5-3303-4a8a-81da-20b5be420bc5"},"vehicle_type_id":"4","last_reported":1750972182,"current_range_meters":16400,"station_id":"","pricing_plan_id":"cebpf4jnsgd1na2vs0mg"},{"bike_id":"dfe532c2-ab25-41e2-bff6-6c0a163d6d6f","system_id":"levelo_inurba_marseille","lat":43.30927,"lon":5.4015,"is_reserved":false,"is_disabled":false,"rental_uris":{"android":"levelo://app?vid=dfe532c2-ab25-41e2-bff6-6c0a163d6d6f","ios":"levelo://app?vid=dfe532c2-ab25-41e2-bff6-6c0a163d6d6f"},"vehicle_type_id":"4","last_reported":1750972182,"current_range_meters":16400,"station_id":"ce4bgvp2rcd13ifvqct0","pricing_plan_id":"cebpf4jnsgd1na2vs0mg"},{"bike_id":"c7095e65-72e6-4907-9ffb-bdd6027da7f5","system_id":"levelo_inurba_marseille","lat":43.2937,"lon":5.3726,"is_reserved":false,"is_disabled":false,"rental_uris":{"android":"levelo://app?vid=c7095e65-72e6-4907-9ffb-bdd6027da7f5","ios":"levelo://app?vid=c7095e65-72e6-4907-9ffb-bdd6027da7f5"},"vehicle_type_id":"4","last_reported":1750972182,"current_range_meters":16400,"station_id":"ce4bh092rcd13ifvqd20","pricing_plan_id":"cebpf4jnsgd1na2vs0mg"},{"bike_id":"2f8b738b-481f-4936-83de-c62a2fc49423","system_id":"levelo_inurba_marseille","lat":43.29518,"lon":5.39397,"is_reserved":false,"is_disabled":false,"rental_uris":{"android":"levelo://app?vid=2f8b738b-481f-4936-83de-c62a2fc49423","ios":"levelo://app?vid=2f8b738b-481f-4936-83de-c62a2fc49423"},"vehicle_type_id":"4","last_reported":1750972182,"current_range_meters":16400,"station_id":"ce4bh292rcd13ifvqdf0","pricing_plan_id":"cebpf4jnsgd1na2vs0mg"},{"bike_id":"328220c7-1c81-4437-9e99-e4ce490b06ca","system_id":"levelo_inurba_marseille","lat":43.29597,"lon":5.38104,"is_reserved":false,"is_disabled":false,"rental_uris":{"android":"levelo://app?vid=328220c7-1c81-4437-9e99-e4ce490b06ca","ios":"levelo://app?vid=328220c7-1c81-4437-9e99-e4ce490b06ca"},"vehicle_type_id":"4","last_reported":1750972182,"current_range_meters":16800,"station_id":"ce4bgl12rcd13ifvqbo0","pricing_plan_id":"cebpf4jnsgd1na2vs0mg"},{"bike_id":"a19b7f87-0cfc-4a7c-9cf5-d54d9aa6961a","system_id":"levelo_inurba_marseille","lat":43.29444,"lon":5.39746,"is_reserved":false,"is_disabled":false,"rental_uris":{"android":"levelo://app?vid=a19b7f87-0cfc-4a7c-9cf5-d54d9aa6961a","ios":"levelo://app?vid=a19b7f87-0cfc-4a7c-9cf5-d54d9aa6961a"},"vehicle_type_id":"4","last_reported":1750972182,"current_range_meters":16800,"station_id":"ce4bh3h2rcd13ifvqdo0","pricing_plan_id":"cebpf4jnsgd1na2vs0mg"},{"bike_id":"de9bfc90-1ea1-4e7a-a64b-3acd74367471","system_id":"levelo_inurba_marseille","lat":43.28418,"lon":5.35002,"is_reserved":false,"is_disabled":false,"rental_uris":{"android":"levelo://app?vid=de9bfc90-1ea1-4e7a-a64b-3acd74367471","ios":"levelo://app?vid=de9bfc90-1ea1-4e7a-a64b-3acd74367471"},"vehicle_type_id":"4","last_reported":1750972182,"current_range_meters":16800,"station_id":"ce4bhbh2rcd13ifvqepg","pricing_plan_id":"cebpf4jnsgd1na2vs0mg"},{"bike_id":"85a12ec0-1040-4892-8303-aa2f82ba8dcf","system_id":"levelo_inurba_marseille","lat":43.32653,"lon":5.40997,"is_reserved":false,"is_disabled":false,"rental_uris":{"android":"levelo://app?vid=85a12ec0-1040-4892-8303-aa2f82ba8dcf","ios":"levelo://app?vid=85a12ec0-1040-4892-8303-aa2f82ba8dcf"},"vehicle_type_id":"4","last_reported":1750972182,"current_range_meters":16800,"station_id":"ce4bhpp2rcd13ifvqhgg","pricing_plan_id":"cebpf4jnsgd1na2vs0mg"},{"bike_id":"40b19a43-7568-4070-8cfa-6d78b27578ba","system_id":"levelo_inurba_marseille","lat":43.254751,"lon":5.3765,"is_reserved":false,"is_disabled":false,"rental_uris":{"android":"levelo://app?vid=40b19a43-7568-4070-8cfa-6d78b27578ba","ios":"levelo://app?vid=40b19a43-7568-4070-8cfa-6d78b27578ba"},"vehicle_type_id":"4","last_reported":1750972182,"current_range_meters":17200,"station_id":"ce4bhh12rcd13ifvqff0","pricing_plan_id":"cebpf4jnsgd1na2vs0mg"},{"bike_id":"1c98163d-e490-4a24-b7ed-df6fa2121827","system_id":"levelo_inurba_marseille","lat":43.23178,"lon":5.39987,"is_reserved":false,"is_disabled":false,"rental_uris":{"android":"levelo://app?vid=1c98163d-e490-4a24-b7ed-df6fa2121827","ios":"levelo://app?vid=1c98163d-e490-4a24-b7ed-df6fa2121827"},"vehicle_type_id":"4","last_reported":1750972182,"current_range_meters":17200,"station_id":"ce4bhn12rcd13ifvqgqg","pricing_plan_id":"cebpf4jnsgd1na2vs0mg"},{"bike_id":"f8f58f0f-5396-4a84-a3cf-38d5d16b5ec7","system_id":"levelo_inurba_marseille","lat":43.28609,"lon":5.37068,"is_reserved":false,"is_disabled":false,"rental_uris":{"android":"levelo://app?vid=f8f58f0f-5396-4a84-a3cf-38d5d16b5ec7","ios":"levelo://app?vid=f8f58f0f-5396-4a84-a3cf-38d5d16b5ec7"},"vehicle_type_id":"4","last_reported":1750972182,"current_range_meters":17200,"station_id":"ce4bht12rcd13ifvqi60","pricing_plan_id":"cebpf4jnsgd1na2vs0mg"},{"bike_id":"d25c92ba-9c07-4124-b372-b971bba7515e","system_id":"levelo_inurba_marseille","lat":43.250004,"lon":5.389368,"is_reserved":false,"is_disabled":false,"rental_uris":{"android":"levelo://app?vid=d25c92ba-9c07-4124-b372-b971bba7515e","ios":"levelo://app?vid=d25c92ba-9c07-4124-b372-b971bba7515e"},"vehicle_type_id":"4","last_reported":1750972182,"current_range_meters":17600,"station_id":"","pricing_plan_id":"cebpf4jnsgd1na2vs0mg"},{"bike_id":"74231885-b807-4d20-9e11-09b0be87011e","system_id":"levelo_inurba_marseille","lat":43.30247,"lon":5.40083,"is_reserved":false,"is_disabled":false,"rental_uris":{"android":"levelo://app?vid=74231885-b807-4d20-9e11-09b0be87011e","ios":"levelo://app?vid=74231885-b807-4d20-9e11-09b0be87011e"},"vehicle_type_id":"4","last_reported":1750972182,"current_range_meters":17600,"station_id":"ce4bgvh2rcd13ifvqcs0","pricing_plan_id":"cebpf4jnsgd1na2vs0mg"},{"bike_id":"00d0a05b-ef9b-46e4-b086-7829d4fdf53f","system_id":"levelo_inurba_marseille","lat":43.29519,"lon":5.39403,"is_reserved":false,"is_disabled":false,"rental_uris":{"android":"levelo://app?vid=00d0a05b-ef9b-46e4-b086-7829d4fdf53f","ios":"levelo://app?vid=00d0a05b-ef9b-46e4-b086-7829d4fdf53f"},"vehicle_type_id":"4","last_reported":1750972182,"current_range_meters":17600,"station_id":"ce4bh292rcd13ifvqdf0","pricing_plan_id":"cebpf4jnsgd1na2vs0mg"},{"bike_id":"a788843a-f92b-48da-8330-c14b3fe86254","system_id":"levelo_inurba_marseille","lat":43.28447,"lon":5.34995,"is_reserved":false,"is_disabled":false,"rental_uris":{"android":"levelo://app?vid=a788843a-f92b-48da-8330-c14b3fe86254","ios":"levelo://app?vid=a788843a-f92b-48da-8330-c14b3fe86254"},"vehicle_type_id":"4","last_reported":1750972182,"current_range_meters":17600,"station_id":"ce4bhbh2rcd13ifvqepg","pricing_plan_id":"cebpf4jnsgd1na2vs0mg"},{"bike_id":"b670c318-5520-4fcf-bf0f-267e72db97a8","system_id":"levelo_inurba_marseille","lat":43.217555,"lon":5.34597,"is_reserved":false,"is_disabled":false,"rental_uris":{"android":"levelo://app?vid=b670c318-5520-4fcf-bf0f-267e72db97a8","ios":"levelo://app?vid=b670c318-5520-4fcf-bf0f-267e72db97a8"},"vehicle_type_id":"4","last_reported":1750972182,"current_range_meters":17600,"station_id":"st_cvj6r9ubvosntc0bgbag","pricing_plan_id":"cebpf4jnsgd1na2vs0mg"},{"bike_id":"a9bbe24e-0f65-448a-9238-9137355149d6","system_id":"levelo_inurba_marseille","lat":43.30139,"lon":5.37422,"is_reserved":false,"is_disabled":false,"rental_uris":{"android":"levelo://app?vid=a9bbe24e-0f65-448a-9238-9137355149d6","ios":"levelo://app?vid=a9bbe24e-0f65-448a-9238-9137355149d6"},"vehicle_type_id":"4","last_reported":1750972182,"current_range_meters":18000,"station_id":"ce4bgs92rcd13ifvqcc0","pricing_plan_id":"cebpf4jnsgd1na2vs0mg"},{"bike_id":"87139e29-fda6-4191-bd12-6fc5a1824215","system_id":"levelo_inurba_marseille","lat":43.29416,"lon":5.38613,"is_reserved":false,"is_disabled":false,"rental_uris":{"android":"levelo://app?vid=87139e29-fda6-4191-bd12-6fc5a1824215","ios":"levelo://app?vid=87139e29-fda6-4191-bd12-6fc5a1824215"},"vehicle_type_id":"4","last_reported":1750972182,"current_range_meters":18000,"station_id":"ce4bh2h2rcd13ifvqdh0","pricing_plan_id":"cebpf4jnsgd1na2vs0mg"},{"bike_id":"654ba625-3df0-4851-90be-54372d14df64","system_id":"levelo_inurba_marseille","lat":43.28482,"lon":5.38429,"is_reserved":false,"is_disabled":false,"rental_uris":{"android":"levelo://app?vid=654ba625-3df0-4851-90be-54372d14df64","ios":"levelo://app?vid=654ba625-3df0-4851-90be-54372d14df64"},"vehicle_type_id":"4","last_reported":1750972182,"current_range_meters":18000,"station_id":"ce4bh512rcd13ifvqe3g","pricing_plan_id":"cebpf4jnsgd1na2vs0mg"},{"bike_id":"7cdab114-5660-4171-9a30-f1d789408f90","system_id":"levelo_inurba_marseille","lat":43.262274,"lon":5.404563,"is_reserved":false,"is_disabled":false,"rental_uris":{"android":"levelo://app?vid=7cdab114-5660-4171-9a30-f1d789408f90","ios":"levelo://app?vid=7cdab114-5660-4171-9a30-f1d789408f90"},"vehicle_type_id":"4","last_reported":1750972182,"current_range_meters":18000,"station_id":"ce4bhlp2rcd13ifvqgjg","pricing_plan_id":"cebpf4jnsgd1na2vs0mg"},{"bike_id":"59ddddb7-7ec9-4967-b1b9-dfe72f864225","system_id":"levelo_inurba_marseille","lat":43.24162,"lon":5.36402,"is_reserved":false,"is_disabled":false,"rental_uris":{"android":"levelo://app?vid=59ddddb7-7ec9-4967-b1b9-dfe72f864225","ios":"levelo://app?vid=59ddddb7-7ec9-4967-b1b9-dfe72f864225"},"vehicle_type_id":"4","last_reported":1750972182,"current_range_meters":18000,"station_id":"cpo36qri1sfpv3e86is0","pricing_plan_id":"cebpf4jnsgd1na2vs0mg"},{"bike_id":"facfcf93-ab85-4d16-b148-8bc9369e6f17","system_id":"levelo_inurba_marseille","lat":43.21188,"lon":5.35094,"is_reserved":false,"is_disabled":false,"rental_uris":{"android":"levelo://app?vid=facfcf93-ab85-4d16-b148-8bc9369e6f17","ios":"levelo://app?vid=facfcf93-ab85-4d16-b148-8bc9369e6f17"},"vehicle_type_id":"4","last_reported":1750972182,"current_range_meters":18000,"station_id":"st_cvj6sg6p6f1abm77japg","pricing_plan_id":"cebpf4jnsgd1na2vs0mg"},{"bike_id":"6da1c7c4-0feb-46fc-9e22-68ea2be110fd","system_id":"levelo_inurba_marseille","lat":43.2866,"lon":5.36352,"is_reserved":false,"is_disabled":false,"rental_uris":{"android":"levelo://app?vid=6da1c7c4-0feb-46fc-9e22-68ea2be110fd","ios":"levelo://app?vid=6da1c7c4-0feb-46fc-9e22-68ea2be110fd"},"vehicle_type_id":"4","last_reported":1750972182,"current_range_meters":18800,"station_id":"ce4bhah2rcd13ifvqej0","pricing_plan_id":"cebpf4jnsgd1na2vs0mg"},{"bike_id":"264b093a-318b-4a61-88cf-40a8ba7dd6dc","system_id":"levelo_inurba_marseille","lat":43.28429,"lon":5.34944,"is_reserved":false,"is_disabled":false,"rental_uris":{"android":"levelo://app?vid=264b093a-318b-4a61-88cf-40a8ba7dd6dc","ios":"levelo://app?vid=264b093a-318b-4a61-88cf-40a8ba7dd6dc"},"vehicle_type_id":"4","last_reported":1750972182,"current_range_meters":18800,"station_id":"ce4bhbh2rcd13ifvqepg","pricing_plan_id":"cebpf4jnsgd1na2vs0mg"},{"bike_id":"dfcfd309-3075-404f-9a6c-0b1b2be404c6","system_id":"levelo_inurba_marseille","lat":43.24815,"lon":5.37452,"is_reserved":false,"is_disabled":false,"rental_uris":{"android":"levelo://app?vid=dfcfd309-3075-404f-9a6c-0b1b2be404c6","ios":"levelo://app?vid=dfcfd309-3075-404f-9a6c-0b1b2be404c6"},"vehicle_type_id":"4","last_reported":1750972182,"current_range_meters":18800,"station_id":"ce4bhgh2rcd13ifvqfb0","pricing_plan_id":"cebpf4jnsgd1na2vs0mg"},{"bike_id":"e6194cd4-fe6d-4004-8321-acc2650bdec3","system_id":"levelo_inurba_marseille","lat":43.26437,"lon":5.39606,"is_reserved":false,"is_disabled":false,"rental_uris":{"android":"levelo://app?vid=e6194cd4-fe6d-4004-8321-acc2650bdec3","ios":"levelo://app?vid=e6194cd4-fe6d-4004-8321-acc2650bdec3"},"vehicle_type_id":"4","last_reported":1750972182,"current_range_meters":18800,"station_id":"ce4bhi12rcd13ifvqfq0","pricing_plan_id":"cebpf4jnsgd1na2vs0mg"},{"bike_id":"f0057ca2-de2d-4464-8902-068dc3677e00","system_id":"levelo_inurba_marseille","lat":43.21209,"lon":5.35086,"is_reserved":false,"is_disabled":false,"rental_uris":{"android":"levelo://app?vid=f0057ca2-de2d-4464-8902-068dc3677e00","ios":"levelo://app?vid=f0057ca2-de2d-4464-8902-068dc3677e00"},"vehicle_type_id":"4","last_reported":1750972182,"current_range_meters":18800,"station_id":"st_cvj6sg6p6f1abm77japg","pricing_plan_id":"cebpf4jnsgd1na2vs0mg"},{"bike_id":"e6ce70f7-9138-485c-a4db-2c9174614cff","system_id":"levelo_inurba_marseille","lat":43.317806,"lon":5.368334,"is_reserved":false,"is_disabled":false,"rental_uris":{"android":"levelo://app?vid=e6ce70f7-9138-485c-a4db-2c9174614cff","ios":"levelo://app?vid=e6ce70f7-9138-485c-a4db-2c9174614cff"},"vehicle_type_id":"4","last_reported":1750972182,"current_range_meters":19200,"station_id":"","pricing_plan_id":"cebpf4jnsgd1na2vs0mg"},{"bike_id":"2ee1f750-9538-461a-b442-f4322641199e","system_id":"levelo_inurba_marseille","lat":43.30248,"lon":5.3868,"is_reserved":false,"is_disabled":false,"rental_uris":{"android":"levelo://app?vid=2ee1f750-9538-461a-b442-f4322641199e","ios":"levelo://app?vid=2ee1f750-9538-461a-b442-f4322641199e"},"vehicle_type_id":"4","last_reported":1750972182,"current_range_meters":19200,"station_id":"ce4bghh2rcd13ifvqb60","pricing_plan_id":"cebpf4jnsgd1na2vs0mg"},{"bike_id":"652c3774-8f9b-4cee-979a-58d1e20a925c","system_id":"levelo_inurba_marseille","lat":43.293773,"lon":5.378568,"is_reserved":false,"is_disabled":false,"rental_uris":{"android":"levelo://app?vid=652c3774-8f9b-4cee-979a-58d1e20a925c","ios":"levelo://app?vid=652c3774-8f9b-4cee-979a-58d1e20a925c"},"vehicle_type_id":"4","last_reported":1750972182,"current_range_meters":19200,"station_id":"ce4bgjh2rcd13ifvqbf0","pricing_plan_id":"cebpf4jnsgd1na2vs0mg"},{"bike_id":"20e76df2-82f1-4ede-8df6-8a360eb91ec4","system_id":"levelo_inurba_marseille","lat":43.2957,"lon":5.39969,"is_reserved":false,"is_disabled":false,"rental_uris":{"android":"levelo://app?vid=20e76df2-82f1-4ede-8df6-8a360eb91ec4","ios":"levelo://app?vid=20e76df2-82f1-4ede-8df6-8a360eb91ec4"},"vehicle_type_id":"4","last_reported":1750972182,"current_range_meters":19200,"station_id":"ce4bh312rcd13ifvqdj0","pricing_plan_id":"cebpf4jnsgd1na2vs0mg"},{"bike_id":"7a33e2e8-1ba0-454b-bfae-1c0c4e233ff3","system_id":"levelo_inurba_marseille","lat":43.28432,"lon":5.34985,"is_reserved":false,"is_disabled":false,"rental_uris":{"android":"levelo://app?vid=7a33e2e8-1ba0-454b-bfae-1c0c4e233ff3","ios":"levelo://app?vid=7a33e2e8-1ba0-454b-bfae-1c0c4e233ff3"},"vehicle_type_id":"4","last_reported":1750972182,"current_range_meters":19200,"station_id":"ce4bhbh2rcd13ifvqepg","pricing_plan_id":"cebpf4jnsgd1na2vs0mg"},{"bike_id":"40f650c9-5344-4e4d-b167-1a164905047a","system_id":"levelo_inurba_marseille","lat":43.28407,"lon":5.34995,"is_reserved":false,"is_disabled":false,"rental_uris":{"android":"levelo://app?vid=40f650c9-5344-4e4d-b167-1a164905047a","ios":"levelo://app?vid=40f650c9-5344-4e4d-b167-1a164905047a"},"vehicle_type_id":"4","last_reported":1750972182,"current_range_meters":19200,"station_id":"ce4bhbh2rcd13ifvqepg","pricing_plan_id":"cebpf4jnsgd1na2vs0mg"},{"bike_id":"081887b4-dfcc-46a3-aed0-0c988239ffe3","system_id":"levelo_inurba_marseille","lat":43.32352,"lon":5.40604,"is_reserved":false,"is_disabled":false,"rental_uris":{"android":"levelo://app?vid=081887b4-dfcc-46a3-aed0-0c988239ffe3","ios":"levelo://app?vid=081887b4-dfcc-46a3-aed0-0c988239ffe3"},"vehicle_type_id":"4","last_reported":1750972182,"current_range_meters":19200,"station_id":"ce4bhq92rcd13ifvqhjg","pricing_plan_id":"cebpf4jnsgd1na2vs0mg"},{"bike_id":"935c8062-ae25-46e0-901d-4b81929b99b7","system_id":"levelo_inurba_marseille","lat":43.21747,"lon":5.346,"is_reserved":false,"is_disabled":false,"rental_uris":{"android":"levelo://app?vid=935c8062-ae25-46e0-901d-4b81929b99b7","ios":"levelo://app?vid=935c8062-ae25-46e0-901d-4b81929b99b7"},"vehicle_type_id":"4","last_reported":1750972182,"current_range_meters":19200,"station_id":"st_cvj6r9ubvosntc0bgbag","pricing_plan_id":"cebpf4jnsgd1na2vs0mg"},{"bike_id":"68ba553f-21c6-4e54-95b0-38cf227ee3c9","system_id":"levelo_inurba_marseille","lat":43.262281,"lon":5.401635,"is_reserved":false,"is_disabled":false,"rental_uris":{"android":"levelo://app?vid=68ba553f-21c6-4e54-95b0-38cf227ee3c9","ios":"levelo://app?vid=68ba553f-21c6-4e54-95b0-38cf227ee3c9"},"vehicle_type_id":"4","last_reported":1750972182,"current_range_meters":19600,"station_id":"","pricing_plan_id":"cebpf4jnsgd1na2vs0mg"},{"bike_id":"c8b1c686-a3f3-44b1-81e6-333d479614af","system_id":"levelo_inurba_marseille","lat":43.295091,"lon":5.374402,"is_reserved":false,"is_disabled":false,"rental_uris":{"android":"levelo://app?vid=c8b1c686-a3f3-44b1-81e6-333d479614af","ios":"levelo://app?vid=c8b1c686-a3f3-44b1-81e6-333d479614af"},"vehicle_type_id":"4","last_reported":1750972182,"current_range_meters":19600,"station_id":"","pricing_plan_id":"cebpf4jnsgd1na2vs0mg"},{"bike_id":"038c8709-8098-4fbd-a59b-bad58e679901","system_id":"levelo_inurba_marseille","lat":43.31347,"lon":5.38509,"is_reserved":false,"is_disabled":false,"rental_uris":{"android":"levelo://app?vid=038c8709-8098-4fbd-a59b-bad58e679901","ios":"levelo://app?vid=038c8709-8098-4fbd-a59b-bad58e679901"},"vehicle_type_id":"4","last_reported":1750972182,"current_range_meters":19600,"station_id":"ce4bgt92rcd13ifvqcf0","pricing_plan_id":"cebpf4jnsgd1na2vs0mg"},{"bike_id":"1855dd4a-60ba-4c7e-a68f-e15aa8ad335d","system_id":"levelo_inurba_marseille","lat":43.29029,"lon":5.39969,"is_reserved":false,"is_disabled":false,"rental_uris":{"android":"levelo://app?vid=1855dd4a-60ba-4c7e-a68f-e15aa8ad335d","ios":"levelo://app?vid=1855dd4a-60ba-4c7e-a68f-e15aa8ad335d"},"vehicle_type_id":"4","last_reported":1750972182,"current_range_meters":19600,"station_id":"ce4bh392rcd13ifvqdm0","pricing_plan_id":"cebpf4jnsgd1na2vs0mg"},{"bike_id":"8d585218-ff11-4004-8628-76987dab7934","system_id":"levelo_inurba_marseille","lat":43.28409,"lon":5.37524,"is_reserved":false,"is_disabled":false,"rental_uris":{"android":"levelo://app?vid=8d585218-ff11-4004-8628-76987dab7934","ios":"levelo://app?vid=8d585218-ff11-4004-8628-76987dab7934"},"vehicle_type_id":"4","last_reported":1750972182,"current_range_meters":19600,"station_id":"ce4bh412rcd13ifvqds0","pricing_plan_id":"cebpf4jnsgd1na2vs0mg"},{"bike_id":"1dfa25c1-ebae-401e-a1f9-715217338e3b","system_id":"levelo_inurba_marseille","lat":43.25584,"lon":5.38229,"is_reserved":false,"is_disabled":false,"rental_uris":{"android":"levelo://app?vid=1dfa25c1-ebae-401e-a1f9-715217338e3b","ios":"levelo://app?vid=1dfa25c1-ebae-401e-a1f9-715217338e3b"},"vehicle_type_id":"4","last_reported":1750972182,"current_range_meters":19600,"station_id":"ce4bhih2rcd13ifvqfs0","pricing_plan_id":"cebpf4jnsgd1na2vs0mg"},{"bike_id":"57d6eb9e-33e5-482e-9465-914c364d7397","system_id":"levelo_inurba_marseille","lat":43.32267,"lon":5.38284,"is_reserved":false,"is_disabled":false,"rental_uris":{"android":"levelo://app?vid=57d6eb9e-33e5-482e-9465-914c364d7397","ios":"levelo://app?vid=57d6eb9e-33e5-482e-9465-914c364d7397"},"vehicle_type_id":"4","last_reported":1750972182,"current_range_meters":19600,"station_id":"ce4bhr12rcd13ifvqhqg","pricing_plan_id":"cebpf4jnsgd1na2vs0mg"},{"bike_id":"815201a7-dbbe-4827-ab77-bd49f80ea5ee","system_id":"levelo_inurba_marseille","lat":43.29738,"lon":5.46019,"is_reserved":false,"is_disabled":false,"rental_uris":{"android":"levelo://app?vid=815201a7-dbbe-4827-ab77-bd49f80ea5ee","ios":"levelo://app?vid=815201a7-dbbe-4827-ab77-bd49f80ea5ee"},"vehicle_type_id":"4","last_reported":1750972182,"current_range_meters":20000,"station_id":"","pricing_plan_id":"cebpf4jnsgd1na2vs0mg"},{"bike_id":"dfeb2f37-d4b8-4b4a-8ca9-7f4a0ca0eb88","system_id":"levelo_inurba_marseille","lat":43.299631,"lon":5.384935,"is_reserved":false,"is_disabled":false,"rental_uris":{"android":"levelo://app?vid=dfeb2f37-d4b8-4b4a-8ca9-7f4a0ca0eb88","ios":"levelo://app?vid=dfeb2f37-d4b8-4b4a-8ca9-7f4a0ca0eb88"},"vehicle_type_id":"4","last_reported":1750972182,"current_range_meters":20000,"station_id":"ce4bgj92rcd13ifvqbd0","pricing_plan_id":"cebpf4jnsgd1na2vs0mg"},{"bike_id":"258935ee-3e62-4f78-b84c-0f409a77ac96","system_id":"levelo_inurba_marseille","lat":43.31265,"lon":5.40175,"is_reserved":false,"is_disabled":false,"rental_uris":{"android":"levelo://app?vid=258935ee-3e62-4f78-b84c-0f409a77ac96","ios":"levelo://app?vid=258935ee-3e62-4f78-b84c-0f409a77ac96"},"vehicle_type_id":"4","last_reported":1750972182,"current_range_meters":20000,"station_id":"ce4bh092rcd13ifvqd30","pricing_plan_id":"cebpf4jnsgd1na2vs0mg"},{"bike_id":"94d4705c-ca53-4e90-900a-15e2a65f553f","system_id":"levelo_inurba_marseille","lat":43.292625,"lon":5.384461,"is_reserved":false,"is_disabled":false,"rental_uris":{"android":"levelo://app?vid=94d4705c-ca53-4e90-900a-15e2a65f553f","ios":"levelo://app?vid=94d4705c-ca53-4e90-900a-15e2a65f553f"},"vehicle_type_id":"4","last_reported":1750972182,"current_range_meters":20000,"station_id":"ce4bh192rcd13ifvqdc0","pricing_plan_id":"cebpf4jnsgd1na2vs0mg"},{"bike_id":"e9575ccb-5c6c-4193-afc3-a72466ed7a3e","system_id":"levelo_inurba_marseille","lat":43.284429,"lon":5.358329,"is_reserved":false,"is_disabled":false,"rental_uris":{"android":"levelo://app?vid=e9575ccb-5c6c-4193-afc3-a72466ed7a3e","ios":"levelo://app?vid=e9575ccb-5c6c-4193-afc3-a72466ed7a3e"},"vehicle_type_id":"4","last_reported":1750972182,"current_range_meters":20000,"station_id":"ce4bhah2rcd13ifvqei0","pricing_plan_id":"cebpf4jnsgd1na2vs0mg"},{"bike_id":"f554c35e-94de-41b6-a9ed-abbf87f4b668","system_id":"levelo_inurba_marseille","lat":43.28424,"lon":5.34984,"is_reserved":false,"is_disabled":false,"rental_uris":{"android":"levelo://app?vid=f554c35e-94de-41b6-a9ed-abbf87f4b668","ios":"levelo://app?vid=f554c35e-94de-41b6-a9ed-abbf87f4b668"},"vehicle_type_id":"4","last_reported":1750972182,"current_range_meters":20000,"station_id":"ce4bhbh2rcd13ifvqepg","pricing_plan_id":"cebpf4jnsgd1na2vs0mg"},{"bike_id":"37243060-4231-4916-9fed-fa7e9205f858","system_id":"levelo_inurba_marseille","lat":43.24654,"lon":5.38156,"is_reserved":false,"is_disabled":false,"rental_uris":{"android":"levelo://app?vid=37243060-4231-4916-9fed-fa7e9205f858","ios":"levelo://app?vid=37243060-4231-4916-9fed-fa7e9205f858"},"vehicle_type_id":"4","last_reported":1750972182,"current_range_meters":20000,"station_id":"ce4bhih2rcd13ifvqfr0","pricing_plan_id":"cebpf4jnsgd1na2vs0mg"},{"bike_id":"55d0d284-c38e-4482-a78d-e1e71f090550","system_id":"levelo_inurba_marseille","lat":43.305308,"lon":5.365456,"is_reserved":false,"is_disabled":false,"rental_uris":{"android":"levelo://app?vid=55d0d284-c38e-4482-a78d-e1e71f090550","ios":"levelo://app?vid=55d0d284-c38e-4482-a78d-e1e71f090550"},"vehicle_type_id":"4","last_reported":1750972182,"current_range_meters":20400,"station_id":"ce4bgs12rcd13ifvqcag","pricing_plan_id":"cebpf4jnsgd1na2vs0mg"},{"bike_id":"a9c09d63-3dd9-4c3b-a4f0-03d7c76b221f","system_id":"levelo_inurba_marseille","lat":43.3059,"lon":5.39359,"is_reserved":false,"is_disabled":false,"rental_uris":{"android":"levelo://app?vid=a9c09d63-3dd9-4c3b-a4f0-03d7c76b221f","ios":"levelo://app?vid=a9c09d63-3dd9-4c3b-a4f0-03d7c76b221f"},"vehicle_type_id":"4","last_reported":1750972182,"current_range_meters":20400,"station_id":"ce4bh0p2rcd13ifvqd80","pricing_plan_id":"cebpf4jnsgd1na2vs0mg"},{"bike_id":"d34cb698-8668-4e78-a53c-abe4e74ce13c","system_id":"levelo_inurba_marseille","lat":43.2953,"lon":5.39398,"is_reserved":false,"is_disabled":false,"rental_uris":{"android":"levelo://app?vid=d34cb698-8668-4e78-a53c-abe4e74ce13c","ios":"levelo://app?vid=d34cb698-8668-4e78-a53c-abe4e74ce13c"},"vehicle_type_id":"4","last_reported":1750972182,"current_range_meters":20400,"station_id":"ce4bh292rcd13ifvqdf0","pricing_plan_id":"cebpf4jnsgd1na2vs0mg"},{"bike_id":"06cac583-9fa7-4dae-9061-944fc86d6229","system_id":"levelo_inurba_marseille","lat":43.23176,"lon":5.35547,"is_reserved":false,"is_disabled":false,"rental_uris":{"android":"levelo://app?vid=06cac583-9fa7-4dae-9061-944fc86d6229","ios":"levelo://app?vid=06cac583-9fa7-4dae-9061-944fc86d6229"},"vehicle_type_id":"4","last_reported":1750972182,"current_range_meters":20400,"station_id":"ce4bhu92rcd13ifvqi70","pricing_plan_id":"cebpf4jnsgd1na2vs0mg"},{"bike_id":"aae56a9a-521d-483f-a5b1-dfc6e73c09f9","system_id":"levelo_inurba_marseille","lat":43.29582,"lon":5.38102,"is_reserved":false,"is_disabled":false,"rental_uris":{"android":"levelo://app?vid=aae56a9a-521d-483f-a5b1-dfc6e73c09f9","ios":"levelo://app?vid=aae56a9a-521d-483f-a5b1-dfc6e73c09f9"},"vehicle_type_id":"4","last_reported":1750972182,"current_range_meters":20800,"station_id":"ce4bgl12rcd13ifvqbo0","pricing_plan_id":"cebpf4jnsgd1na2vs0mg"},{"bike_id":"ff955ae5-0ad9-4529-8abb-0f1183467e84","system_id":"levelo_inurba_marseille","lat":43.292513,"lon":5.409053,"is_reserved":false,"is_disabled":false,"rental_uris":{"android":"levelo://app?vid=ff955ae5-0ad9-4529-8abb-0f1183467e84","ios":"levelo://app?vid=ff955ae5-0ad9-4529-8abb-0f1183467e84"},"vehicle_type_id":"4","last_reported":1750972182,"current_range_meters":20800,"station_id":"ce4bh192rcd13ifvqdc0","pricing_plan_id":"cebpf4jnsgd1na2vs0mg"},{"bike_id":"19a41864-0d67-4a68-8c18-51499d7f439c","system_id":"levelo_inurba_marseille","lat":43.28391,"lon":5.34977,"is_reserved":false,"is_disabled":false,"rental_uris":{"android":"levelo://app?vid=19a41864-0d67-4a68-8c18-51499d7f439c","ios":"levelo://app?vid=19a41864-0d67-4a68-8c18-51499d7f439c"},"vehicle_type_id":"4","last_reported":1750972182,"current_range_meters":20800,"station_id":"ce4bhbh2rcd13ifvqepg","pricing_plan_id":"cebpf4jnsgd1na2vs0mg"},{"bike_id":"51b3d41f-0ee1-4dc4-aa6b-4ad9e68d10b4","system_id":"levelo_inurba_marseille","lat":43.28703,"lon":5.39985,"is_reserved":false,"is_disabled":false,"rental_uris":{"android":"levelo://app?vid=51b3d41f-0ee1-4dc4-aa6b-4ad9e68d10b4","ios":"levelo://app?vid=51b3d41f-0ee1-4dc4-aa6b-4ad9e68d10b4"},"vehicle_type_id":"4","last_reported":1750972182,"current_range_meters":20800,"station_id":"ce4bho92rcd13ifvqh3g","pricing_plan_id":"cebpf4jnsgd1na2vs0mg"},{"bike_id":"0dc37102-f68f-4544-b263-c696b934bf37","system_id":"levelo_inurba_marseille","lat":43.29531,"lon":5.38532,"is_reserved":false,"is_disabled":false,"rental_uris":{"android":"levelo://app?vid=0dc37102-f68f-4544-b263-c696b934bf37","ios":"levelo://app?vid=0dc37102-f68f-4544-b263-c696b934bf37"},"vehicle_type_id":"4","last_reported":1750972182,"current_range_meters":21600,"station_id":"ce4bgih2rcd13ifvqba0","pricing_plan_id":"cebpf4jnsgd1na2vs0mg"},{"bike_id":"db963a97-7d44-4954-90b1-d745aa65e54b","system_id":"levelo_inurba_marseille","lat":43.29251,"lon":5.40901,"is_reserved":false,"is_disabled":false,"rental_uris":{"android":"levelo://app?vid=db963a97-7d44-4954-90b1-d745aa65e54b","ios":"levelo://app?vid=db963a97-7d44-4954-90b1-d745aa65e54b"},"vehicle_type_id":"4","last_reported":1750972182,"current_range_meters":21600,"station_id":"ce4bh192rcd13ifvqdc0","pricing_plan_id":"cebpf4jnsgd1na2vs0mg"},{"bike_id":"0b6bc6a3-d5f0-4287-9d50-a26da3952b9b","system_id":"levelo_inurba_marseille","lat":43.28843,"lon":5.3932,"is_reserved":false,"is_disabled":false,"rental_uris":{"android":"levelo://app?vid=0b6bc6a3-d5f0-4287-9d50-a26da3952b9b","ios":"levelo://app?vid=0b6bc6a3-d5f0-4287-9d50-a26da3952b9b"},"vehicle_type_id":"4","last_reported":1750972182,"current_range_meters":21600,"station_id":"ce4bh2p2rcd13ifvqdi0","pricing_plan_id":"cebpf4jnsgd1na2vs0mg"},{"bike_id":"20e1a8a9-ce68-4bd5-bcbd-f85638a9b0c6","system_id":"levelo_inurba_marseille","lat":43.28663,"lon":5.36345,"is_reserved":false,"is_disabled":false,"rental_uris":{"android":"levelo://app?vid=20e1a8a9-ce68-4bd5-bcbd-f85638a9b0c6","ios":"levelo://app?vid=20e1a8a9-ce68-4bd5-bcbd-f85638a9b0c6"},"vehicle_type_id":"4","last_reported":1750972182,"current_range_meters":21600,"station_id":"ce4bhah2rcd13ifvqej0","pricing_plan_id":"cebpf4jnsgd1na2vs0mg"},{"bike_id":"26c2712f-df7b-4a31-a30b-5c970953bd38","system_id":"levelo_inurba_marseille","lat":43.32652,"lon":5.40994,"is_reserved":false,"is_disabled":false,"rental_uris":{"android":"levelo://app?vid=26c2712f-df7b-4a31-a30b-5c970953bd38","ios":"levelo://app?vid=26c2712f-df7b-4a31-a30b-5c970953bd38"},"vehicle_type_id":"4","last_reported":1750972182,"current_range_meters":21600,"station_id":"ce4bhpp2rcd13ifvqhgg","pricing_plan_id":"cebpf4jnsgd1na2vs0mg"},{"bike_id":"12c7fc9f-7c7b-4185-9b2f-badd0c17e36b","system_id":"levelo_inurba_marseille","lat":43.24712,"lon":5.37441,"is_reserved":false,"is_disabled":false,"rental_uris":{"android":"levelo://app?vid=12c7fc9f-7c7b-4185-9b2f-badd0c17e36b","ios":"levelo://app?vid=12c7fc9f-7c7b-4185-9b2f-badd0c17e36b"},"vehicle_type_id":"4","last_reported":1750972182,"current_range_meters":22000,"station_id":"","pricing_plan_id":"cebpf4jnsgd1na2vs0mg"},{"bike_id":"a3181171-dc54-4c19-a521-0260c7c17cbe","system_id":"levelo_inurba_marseille","lat":43.290373,"lon":5.399665,"is_reserved":false,"is_disabled":false,"rental_uris":{"android":"levelo://app?vid=a3181171-dc54-4c19-a521-0260c7c17cbe","ios":"levelo://app?vid=a3181171-dc54-4c19-a521-0260c7c17cbe"},"vehicle_type_id":"4","last_reported":1750972182,"current_range_meters":22000,"station_id":"ce4bh392rcd13ifvqdm0","pricing_plan_id":"cebpf4jnsgd1na2vs0mg"},{"bike_id":"c1b4ebb8-d7ad-4776-896d-78e5843d7518","system_id":"levelo_inurba_marseille","lat":43.28457,"lon":5.35891,"is_reserved":false,"is_disabled":false,"rental_uris":{"android":"levelo://app?vid=c1b4ebb8-d7ad-4776-896d-78e5843d7518","ios":"levelo://app?vid=c1b4ebb8-d7ad-4776-896d-78e5843d7518"},"vehicle_type_id":"4","last_reported":1750972182,"current_range_meters":22000,"station_id":"ce4bhah2rcd13ifvqei0","pricing_plan_id":"cebpf4jnsgd1na2vs0mg"},{"bike_id":"12400afc-169c-44c7-94c8-6a8fed4c0902","system_id":"levelo_inurba_marseille","lat":43.28417,"lon":5.34989,"is_reserved":false,"is_disabled":false,"rental_uris":{"android":"levelo://app?vid=12400afc-169c-44c7-94c8-6a8fed4c0902","ios":"levelo://app?vid=12400afc-169c-44c7-94c8-6a8fed4c0902"},"vehicle_type_id":"4","last_reported":1750972182,"current_range_meters":22000,"station_id":"ce4bhbh2rcd13ifvqepg","pricing_plan_id":"cebpf4jnsgd1na2vs0mg"},{"bike_id":"a3678f4f-4b49-4ff2-9023-4219e7d70da4","system_id":"levelo_inurba_marseille","lat":43.24663,"lon":5.38158,"is_reserved":false,"is_disabled":false,"rental_uris":{"android":"levelo://app?vid=a3678f4f-4b49-4ff2-9023-4219e7d70da4","ios":"levelo://app?vid=a3678f4f-4b49-4ff2-9023-4219e7d70da4"},"vehicle_type_id":"4","last_reported":1750972182,"current_range_meters":22000,"station_id":"ce4bhih2rcd13ifvqfr0","pricing_plan_id":"cebpf4jnsgd1na2vs0mg"},{"bike_id":"14e8ef37-e834-4d76-9946-e98f7a083a2f","system_id":"levelo_inurba_marseille","lat":43.21179,"lon":5.35088,"is_reserved":false,"is_disabled":false,"rental_uris":{"android":"levelo://app?vid=14e8ef37-e834-4d76-9946-e98f7a083a2f","ios":"levelo://app?vid=14e8ef37-e834-4d76-9946-e98f7a083a2f"},"vehicle_type_id":"4","last_reported":1750972182,"current_range_meters":22000,"station_id":"st_cvj6sg6p6f1abm77japg","pricing_plan_id":"cebpf4jnsgd1na2vs0mg"},{"bike_id":"c98e1740-077b-45c7-aea3-39c3c8d07fc2","system_id":"levelo_inurba_marseille","lat":43.282837,"lon":5.373946,"is_reserved":false,"is_disabled":false,"rental_uris":{"android":"levelo://app?vid=c98e1740-077b-45c7-aea3-39c3c8d07fc2","ios":"levelo://app?vid=c98e1740-077b-45c7-aea3-39c3c8d07fc2"},"vehicle_type_id":"4","last_reported":1750972182,"current_range_meters":22400,"station_id":"","pricing_plan_id":"cebpf4jnsgd1na2vs0mg"},{"bike_id":"450c3863-59c3-4a7b-ae7c-30b746b532f0","system_id":"levelo_inurba_marseille","lat":43.29257,"lon":5.37623,"is_reserved":false,"is_disabled":false,"rental_uris":{"android":"levelo://app?vid=450c3863-59c3-4a7b-ae7c-30b746b532f0","ios":"levelo://app?vid=450c3863-59c3-4a7b-ae7c-30b746b532f0"},"vehicle_type_id":"4","last_reported":1750972182,"current_range_meters":22400,"station_id":"ce4bgi12rcd13ifvqb80","pricing_plan_id":"cebpf4jnsgd1na2vs0mg"},{"bike_id":"8137daaf-68b2-4ece-9cd8-e4da285a8488","system_id":"levelo_inurba_marseille","lat":43.30437,"lon":5.389219,"is_reserved":false,"is_disabled":false,"rental_uris":{"android":"levelo://app?vid=8137daaf-68b2-4ece-9cd8-e4da285a8488","ios":"levelo://app?vid=8137daaf-68b2-4ece-9cd8-e4da285a8488"},"vehicle_type_id":"4","last_reported":1750972182,"current_range_meters":22400,"station_id":"ce4bgk12rcd13ifvqbi0","pricing_plan_id":"cebpf4jnsgd1na2vs0mg"},{"bike_id":"80359f9c-e43d-467b-a1a3-728b8ebc2eb8","system_id":"levelo_inurba_marseille","lat":43.31264,"lon":5.40173,"is_reserved":false,"is_disabled":false,"rental_uris":{"android":"levelo://app?vid=80359f9c-e43d-467b-a1a3-728b8ebc2eb8","ios":"levelo://app?vid=80359f9c-e43d-467b-a1a3-728b8ebc2eb8"},"vehicle_type_id":"4","last_reported":1750972182,"current_range_meters":22400,"station_id":"ce4bh092rcd13ifvqd30","pricing_plan_id":"cebpf4jnsgd1na2vs0mg"},{"bike_id":"c624dfe4-dd74-4342-a3d6-8ba0ddcb3928","system_id":"levelo_inurba_marseille","lat":43.30205,"lon":5.39475,"is_reserved":false,"is_disabled":false,"rental_uris":{"android":"levelo://app?vid=c624dfe4-dd74-4342-a3d6-8ba0ddcb3928","ios":"levelo://app?vid=c624dfe4-dd74-4342-a3d6-8ba0ddcb3928"},"vehicle_type_id":"4","last_reported":1750972182,"current_range_meters":22400,"station_id":"ce4bh0p2rcd13ifvqd70","pricing_plan_id":"cebpf4jnsgd1na2vs0mg"},{"bike_id":"b93b21ea-3e56-45b0-a9c3-04f99bc74461","system_id":"levelo_inurba_marseille","lat":43.305977,"lon":5.393583,"is_reserved":false,"is_disabled":false,"rental_uris":{"android":"levelo://app?vid=b93b21ea-3e56-45b0-a9c3-04f99bc74461","ios":"levelo://app?vid=b93b21ea-3e56-45b0-a9c3-04f99bc74461"},"vehicle_type_id":"4","last_reported":1750972182,"current_range_meters":22400,"station_id":"ce4bh0p2rcd13ifvqd80","pricing_plan_id":"cebpf4jnsgd1na2vs0mg"},{"bike_id":"5f0762c7-4e24-4be8-85d9-834f0c56ffa6","system_id":"levelo_inurba_marseille","lat":43.30429,"lon":5.38885,"is_reserved":false,"is_disabled":false,"rental_uris":{"android":"levelo://app?vid=5f0762c7-4e24-4be8-85d9-834f0c56ffa6","ios":"levelo://app?vid=5f0762c7-4e24-4be8-85d9-834f0c56ffa6"},"vehicle_type_id":"4","last_reported":1750972182,"current_range_meters":22800,"station_id":"ce4bgk12rcd13ifvqbi0","pricing_plan_id":"cebpf4jnsgd1na2vs0mg"},{"bike_id":"79b53029-a615-4916-9813-ceb99341369a","system_id":"levelo_inurba_marseille","lat":43.306047,"lon":5.393404,"is_reserved":false,"is_disabled":false,"rental_uris":{"android":"levelo://app?vid=79b53029-a615-4916-9813-ceb99341369a","ios":"levelo://app?vid=79b53029-a615-4916-9813-ceb99341369a"},"vehicle_type_id":"4","last_reported":1750972182,"current_range_meters":22800,"station_id":"ce4bh0p2rcd13ifvqd80","pricing_plan_id":"cebpf4jnsgd1na2vs0mg"},{"bike_id":"bf0bd02c-a923-46ce-b640-6068cf24c51a","system_id":"levelo_inurba_marseille","lat":43.28484,"lon":5.38427,"is_reserved":false,"is_disabled":false,"rental_uris":{"android":"levelo://app?vid=bf0bd02c-a923-46ce-b640-6068cf24c51a","ios":"levelo://app?vid=bf0bd02c-a923-46ce-b640-6068cf24c51a"},"vehicle_type_id":"4","last_reported":1750972182,"current_range_meters":22800,"station_id":"ce4bh512rcd13ifvqe3g","pricing_plan_id":"cebpf4jnsgd1na2vs0mg"},{"bike_id":"33431be2-1640-422d-b49c-12db89638ce2","system_id":"levelo_inurba_marseille","lat":43.28415,"lon":5.34964,"is_reserved":false,"is_disabled":false,"rental_uris":{"android":"levelo://app?vid=33431be2-1640-422d-b49c-12db89638ce2","ios":"levelo://app?vid=33431be2-1640-422d-b49c-12db89638ce2"},"vehicle_type_id":"4","last_reported":1750972182,"current_range_meters":22800,"station_id":"ce4bhbh2rcd13ifvqepg","pricing_plan_id":"cebpf4jnsgd1na2vs0mg"},{"bike_id":"a7883090-0e10-4075-944b-a3cca54bc544","system_id":"levelo_inurba_marseille","lat":43.22507,"lon":5.34761,"is_reserved":false,"is_disabled":false,"rental_uris":{"android":"levelo://app?vid=a7883090-0e10-4075-944b-a3cca54bc544","ios":"levelo://app?vid=a7883090-0e10-4075-944b-a3cca54bc544"},"vehicle_type_id":"4","last_reported":1750972182,"current_range_meters":22800,"station_id":"st_cvj5dfep6f1abm77gieg","pricing_plan_id":"cebpf4jnsgd1na2vs0mg"},{"bike_id":"0c803610-f6e9-41d4-936d-0b433fa62796","system_id":"levelo_inurba_marseille","lat":43.30193,"lon":5.37838,"is_reserved":false,"is_disabled":false,"rental_uris":{"android":"levelo://app?vid=0c803610-f6e9-41d4-936d-0b433fa62796","ios":"levelo://app?vid=0c803610-f6e9-41d4-936d-0b433fa62796"},"vehicle_type_id":"4","last_reported":1750972182,"current_range_meters":23200,"station_id":"","pricing_plan_id":"cebpf4jnsgd1na2vs0mg"},{"bike_id":"1d1b6597-1f8d-4397-affd-b081f7925e67","system_id":"levelo_inurba_marseille","lat":43.30429,"lon":5.38895,"is_reserved":false,"is_disabled":false,"rental_uris":{"android":"levelo://app?vid=1d1b6597-1f8d-4397-affd-b081f7925e67","ios":"levelo://app?vid=1d1b6597-1f8d-4397-affd-b081f7925e67"},"vehicle_type_id":"4","last_reported":1750972182,"current_range_meters":23200,"station_id":"ce4bgk12rcd13ifvqbi0","pricing_plan_id":"cebpf4jnsgd1na2vs0mg"},{"bike_id":"cf427266-81c6-42bf-ac82-209291374bf8","system_id":"levelo_inurba_marseille","lat":43.30794,"lon":5.38159,"is_reserved":false,"is_disabled":false,"rental_uris":{"android":"levelo://app?vid=cf427266-81c6-42bf-ac82-209291374bf8","ios":"levelo://app?vid=cf427266-81c6-42bf-ac82-209291374bf8"},"vehicle_type_id":"4","last_reported":1750972182,"current_range_meters":23200,"station_id":"ce4bgt12rcd13ifvqce0","pricing_plan_id":"cebpf4jnsgd1na2vs0mg"},{"bike_id":"0fae3c4d-2331-4e4c-afb9-1074e0ef3f8a","system_id":"levelo_inurba_marseille","lat":43.29794,"lon":5.40401,"is_reserved":false,"is_disabled":false,"rental_uris":{"android":"levelo://app?vid=0fae3c4d-2331-4e4c-afb9-1074e0ef3f8a","ios":"levelo://app?vid=0fae3c4d-2331-4e4c-afb9-1074e0ef3f8a"},"vehicle_type_id":"4","last_reported":1750972182,"current_range_meters":23200,"station_id":"ce4bh112rcd13ifvqd90","pricing_plan_id":"cebpf4jnsgd1na2vs0mg"},{"bike_id":"2d5a127f-0db4-47ac-833e-b2944fb2e29b","system_id":"levelo_inurba_marseille","lat":43.24659,"lon":5.38147,"is_reserved":false,"is_disabled":false,"rental_uris":{"android":"levelo://app?vid=2d5a127f-0db4-47ac-833e-b2944fb2e29b","ios":"levelo://app?vid=2d5a127f-0db4-47ac-833e-b2944fb2e29b"},"vehicle_type_id":"4","last_reported":1750972182,"current_range_meters":23200,"station_id":"ce4bhih2rcd13ifvqfr0","pricing_plan_id":"cebpf4jnsgd1na2vs0mg"},{"bike_id":"57e6c124-2581-4280-b9a4-bd45cb48546e","system_id":"levelo_inurba_marseille","lat":43.31458,"lon":5.36866,"is_reserved":false,"is_disabled":false,"rental_uris":{"android":"levelo://app?vid=57e6c124-2581-4280-b9a4-bd45cb48546e","ios":"levelo://app?vid=57e6c124-2581-4280-b9a4-bd45cb48546e"},"vehicle_type_id":"4","last_reported":1750972182,"current_range_meters":24000,"station_id":"","pricing_plan_id":"cebpf4jnsgd1na2vs0mg"},{"bike_id":"9ce8df51-3218-43bf-a28a-3c6b39d446c2","system_id":"levelo_inurba_marseille","lat":43.30341,"lon":5.43497,"is_reserved":false,"is_disabled":false,"rental_uris":{"android":"levelo://app?vid=9ce8df51-3218-43bf-a28a-3c6b39d446c2","ios":"levelo://app?vid=9ce8df51-3218-43bf-a28a-3c6b39d446c2"},"vehicle_type_id":"4","last_reported":1750972182,"current_range_meters":24000,"station_id":"","pricing_plan_id":"cebpf4jnsgd1na2vs0mg"},{"bike_id":"25389509-0511-4092-ab4d-2145b105ab18","system_id":"levelo_inurba_marseille","lat":43.255005,"lon":5.376488,"is_reserved":false,"is_disabled":false,"rental_uris":{"android":"levelo://app?vid=25389509-0511-4092-ab4d-2145b105ab18","ios":"levelo://app?vid=25389509-0511-4092-ab4d-2145b105ab18"},"vehicle_type_id":"4","last_reported":1750972182,"current_range_meters":24000,"station_id":"","pricing_plan_id":"cebpf4jnsgd1na2vs0mg"},{"bike_id":"c2c6c99a-7a0f-42fb-a5cd-4f03f220fc28","system_id":"levelo_inurba_marseille","lat":43.312585,"lon":5.368699,"is_reserved":false,"is_disabled":false,"rental_uris":{"android":"levelo://app?vid=c2c6c99a-7a0f-42fb-a5cd-4f03f220fc28","ios":"levelo://app?vid=c2c6c99a-7a0f-42fb-a5cd-4f03f220fc28"},