{"last_updated":1739539002,"ttl":60,"version":"2.2","data":{"bikes":[{"bike_id":"b73d4a7d-494a-4490-bb91-a503ace0a774","system_id":"levelo_inurba_marseille","lat":43.29028,"lon":5.38624,"is_reserved":false,"is_disabled":false,"rental_uris":{"android":"levelo://app?vid=b73d4a7d-494a-4490-bb91-a503ace0a774","ios":"levelo://app?vid=b73d4a7d-494a-4490-bb91-a503ace0a774"},"vehicle_type_id":"4","last_reported":1739539002,"current_range_meters":36400,"station_id":"ce4bh4p2rcd13ifvqe0g","pricing_plan_id":"cebpf4jnsgd1na2vs0mg"},{"bike_id":"23c37aa2-d86d-4e05-ba0a-9558b2f6ea2e","system_id":"levelo_inurba_marseille","lat":43.25929,"lon":5.40886,"is_reserved":false,"is_disabled":false,"rental_uris":{"android":"levelo://app?vid=23c37aa2-d86d-4e05-ba0a-9558b2f6ea2e","ios":"levelo://app?vid=23c37aa2-d86d-4e05-ba0a-9558b2f6ea2e"},"vehicle_type_id":"4","last_reported":1739539002,"current_range_meters":35600,"station_id":"ce4bhm92rcd13ifvqglg","pricing_plan_id":"cebpf4jnsgd1na2vs0mg"},{"bike_id":"949af87f-7e3c-4d66-a1f0-5f63abc4d26d","system_id":"levelo_inurba_marseille","lat":43.27817,"lon":5.4071,"is_reserved":false,"is_disabled":false,"rental_uris":{"android":"levelo://app?vid=949af87f-7e3c-4d66-a1f0-5f63abc4d26d","ios":"levelo://app?vid=949af87f-7e3c-4d66-a1f0-5f63abc4d26d"},"vehicle_type_id":"4","last_reported":1739539002,"current_range_meters":32000,"station_id":"ce4bhnh2rcd13ifvqgtg","pricing_plan_id":"cebpf4jnsgd1na2vs0mg"},{"bike_id":"fabe0dc0-e9b8-4510-811e-856b5cccb082","system_id":"levelo_inurba_marseille","lat":43.255075,"lon":5.3766,"is_reserved":false,"is_disabled":false,"rental_uris":{"android":"levelo://app?vid=fabe0dc0-e9b8-4510-811e-856b5cccb082","ios":"levelo://app?vid=fabe0dc0-e9b8-4510-811e-856b5cccb082"},"vehicle_type_id":"4","last_reported":1739539002,"current_range_meters":38800,"station_id":"ce4bhh12rcd13ifvqff0","pricing_plan_id":"cebpf4jnsgd1na2vs0mg"},{"bike_id":"cd714e86-e094-4bf2-a979-d547de203cd5","system_id":"levelo_inurba_marseille","lat":43.27171,"lon":5.40994,"is_reserved":false,"is_disabled":false,"rental_uris":{"android":"levelo://app?vid=cd714e86-e094-4bf2-a979-d547de203cd5","ios":"levelo://app?vid=cd714e86-e094-4bf2-a979-d547de203cd5"},"vehicle_type_id":"4","last_reported":1739539002,"current_range_meters":17200,"station_id":"ce4bhl12rcd13ifvqgf0","pricing_plan_id":"cebpf4jnsgd1na2vs0mg"},{"bike_id":"1d4165b9-e8af-42e7-8e88-54a0f84b4f26","system_id":"levelo_inurba_marseille","lat":43.23194,"lon":5.39972,"is_reserved":false,"is_disabled":false,"rental_uris":{"android":"levelo://app?vid=1d4165b9-e8af-42e7-8e88-54a0f84b4f26","ios":"levelo://app?vid=1d4165b9-e8af-42e7-8e88-54a0f84b4f26"},"vehicle_type_id":"4","last_reported":1739539002,"current_range_meters":30000,"station_id":"ce4bhn12rcd13ifvqgqg","pricing_plan_id":"cebpf4jnsgd1na2vs0mg"},{"bike_id":"2c55c208-b82c-483a-b4de-f1557a794637","system_id":"levelo_inurba_marseille","lat":43.25016,"lon":5.38927,"is_reserved":false,"is_disabled":false,"rental_uris":{"android":"levelo://app?vid=2c55c208-b82c-483a-b4de-f1557a794637","ios":"levelo://app?vid=2c55c208-b82c-483a-b4de-f1557a794637"},"vehicle_type_id":"4","last_reported":1739539002,"current_range_meters":6800,"station_id":"ce4bhgp2rcd13ifvqfd0","pricing_plan_id":"cebpf4jnsgd1na2vs0mg"},{"bike_id":"19ac27da-d8f8-45e9-b203-5317b59568e5","system_id":"levelo_inurba_marseille","lat":43.30285,"lon":5.36841,"is_reserved":false,"is_disabled":false,"rental_uris":{"android":"levelo://app?vid=19ac27da-d8f8-45e9-b203-5317b59568e5","ios":"levelo://app?vid=19ac27da-d8f8-45e9-b203-5317b59568e5"},"vehicle_type_id":"4","last_reported":1739539002,"current_range_meters":24800,"station_id":"ce4bgqh2rcd13ifvqc5g","pricing_plan_id":"cebpf4jnsgd1na2vs0mg"},{"bike_id":"3d55dfbc-79dc-4a16-8c46-cf49fec8982e","system_id":"levelo_inurba_marseille","lat":43.24384,"lon":5.37077,"is_reserved":false,"is_disabled":false,"rental_uris":{"android":"levelo://app?vid=3d55dfbc-79dc-4a16-8c46-cf49fec8982e","ios":"levelo://app?vid=3d55dfbc-79dc-4a16-8c46-cf49fec8982e"},"vehicle_type_id":"4","last_reported":1739539002,"current_range_meters":38800,"station_id":"ce4bhhh2rcd13ifvqfk0","pricing_plan_id":"cebpf4jnsgd1na2vs0mg"},{"bike_id":"4a5a576f-6857-456e-b036-0c78da2a173e","system_id":"levelo_inurba_marseille","lat":43.29576,"lon":5.3996,"is_reserved":false,"is_disabled":true,"rental_uris":{"android":"levelo://app?vid=4a5a576f-6857-456e-b036-0c78da2a173e","ios":"levelo://app?vid=4a5a576f-6857-456e-b036-0c78da2a173e"},"vehicle_type_id":"4","last_reported":1739539002,"current_range_meters":0,"station_id":"ce4bh312rcd13ifvqdj0","pricing_plan_id":"cebpf4jnsgd1na2vs0mg"},{"bike_id":"4a00f16a-6866-49ba-bb84-66c078a8cb6f","system_id":"levelo_inurba_marseille","lat":43.29614,"lon":5.37724,"is_reserved":false,"is_disabled":false,"rental_uris":{"android":"levelo://app?vid=4a00f16a-6866-49ba-bb84-66c078a8cb6f","ios":"levelo://app?vid=4a00f16a-6866-49ba-bb84-66c078a8cb6f"},"vehicle_type_id":"4","last_reported":1739539002,"current_range_meters":34800,"station_id":"ce4bgi92rcd13ifvqb90","pricing_plan_id":"cebpf4jnsgd1na2vs0mg"},{"bike_id":"c74f8124-73dc-4bd8-a98e-9fa42c510bc4","system_id":"levelo_inurba_marseille","lat":43.2319,"lon":5.39979,"is_reserved":false,"is_disabled":false,"rental_uris":{"android":"levelo://app?vid=c74f8124-73dc-4bd8-a98e-9fa42c510bc4","ios":"levelo://app?vid=c74f8124-73dc-4bd8-a98e-9fa42c510bc4"},"vehicle_type_id":"4","last_reported":1739539002,"current_range_meters":28800,"station_id":"ce4bhn12rcd13ifvqgqg","pricing_plan_id":"cebpf4jnsgd1na2vs0mg"},{"bike_id":"eace11fc-366d-49db-ab9f-2f957d528477","system_id":"levelo_inurba_marseille","lat":43.25505,"lon":5.37641,"is_reserved":false,"is_disabled":false,"rental_uris":{"android":"levelo://app?vid=eace11fc-366d-49db-ab9f-2f957d528477","ios":"levelo://app?vid=eace11fc-366d-49db-ab9f-2f957d528477"},"vehicle_type_id":"4","last_reported":1739539002,"current_range_meters":35600,"station_id":"ce4bhh12rcd13ifvqff0","pricing_plan_id":"cebpf4jnsgd1na2vs0mg"},{"bike_id":"6b42f4f1-2360-420a-81a5-fa8f868ac30d","system_id":"levelo_inurba_marseille","lat":43.27284,"lon":5.3904,"is_reserved":false,"is_disabled":false,"rental_uris":{"android":"levelo://app?vid=6b42f4f1-2360-420a-81a5-fa8f868ac30d","ios":"levelo://app?vid=6b42f4f1-2360-420a-81a5-fa8f868ac30d"},"vehicle_type_id":"4","last_reported":1739539002,"current_range_meters":37600,"station_id":"ce4bhgp2rcd13ifvqfe0","pricing_plan_id":"cebpf4jnsgd1na2vs0mg"},{"bike_id":"4ee55552-0275-42b8-91f9-9d48a7f28d50","system_id":"levelo_inurba_marseille","lat":43.29883,"lon":5.38913,"is_reserved":false,"is_disabled":false,"rental_uris":{"android":"levelo://app?vid=4ee55552-0275-42b8-91f9-9d48a7f28d50","ios":"levelo://app?vid=4ee55552-0275-42b8-91f9-9d48a7f28d50"},"vehicle_type_id":"4","last_reported":1739539002,"current_range_meters":24000,"station_id":"ce4bh392rcd13ifvqdl0","pricing_plan_id":"cebpf4jnsgd1na2vs0mg"},{"bike_id":"ba77fd33-6cc6-445a-8b03-7ebaecce0f36","system_id":"levelo_inurba_marseille","lat":43.30248,"lon":5.40075,"is_reserved":false,"is_disabled":false,"rental_uris":{"android":"levelo://app?vid=ba77fd33-6cc6-445a-8b03-7ebaecce0f36","ios":"levelo://app?vid=ba77fd33-6cc6-445a-8b03-7ebaecce0f36"},"vehicle_type_id":"4","last_reported":1739539002,"current_range_meters":38800,"station_id":"ce4bgvh2rcd13ifvqcs0","pricing_plan_id":"cebpf4jnsgd1na2vs0mg"},{"bike_id":"cf4e5f1e-3e26-4a4a-b26d-dc78c55c9c34","system_id":"levelo_inurba_marseille","lat":43.30366,"lon":5.37603,"is_reserved":false,"is_disabled":false,"rental_uris":{"android":"levelo://app?vid=cf4e5f1e-3e26-4a4a-b26d-dc78c55c9c34","ios":"levelo://app?vid=cf4e5f1e-3e26-4a4a-b26d-dc78c55c9c34"},"vehicle_type_id":"4","last_reported":1739539002,"current_range_meters":32800,"station_id":"","pricing_plan_id":"cebpf4jnsgd1na2vs0mg"},{"bike_id":"b34c6303-752a-46a1-93ad-ddbc991e20b6","system_id":"levelo_inurba_marseille","lat":43.23071,"lon":5.35492,"is_reserved":false,"is_disabled":false,"rental_uris":{"android":"levelo://app?vid=b34c6303-752a-46a1-93ad-ddbc991e20b6","ios":"levelo://app?vid=b34c6303-752a-46a1-93ad-ddbc991e20b6"},"vehicle_type_id":"4","last_reported":1739539002,"current_range_meters":4800,"station_id":"cpo3342slgdg3j2ifvpg","pricing_plan_id":"cebpf4jnsgd1na2vs0mg"},{"bike_id":"e2dd2144-631e-4fb6-8efc-dc9e00f38b38","system_id":"levelo_inurba_marseille","lat":43.30142,"lon":5.37411,"is_reserved":false,"is_disabled":false,"rental_uris":{"android":"levelo://app?vid=e2dd2144-631e-4fb6-8efc-dc9e00f38b38","ios":"levelo://app?vid=e2dd2144-631e-4fb6-8efc-dc9e00f38b38"},"vehicle_type_id":"4","last_reported":1739539002,"current_range_meters":37600,"station_id":"ce4bgs92rcd13ifvqcc0","pricing_plan_id":"cebpf4jnsgd1na2vs0mg"},{"bike_id":"a6d22002-9977-46ab-96b3-9865bfd1ef0e","system_id":"levelo_inurba_marseille","lat":43.32489,"lon":5.36556,"is_reserved":false,"is_disabled":false,"rental_uris":{"android":"levelo://app?vid=a6d22002-9977-46ab-96b3-9865bfd1ef0e","ios":"levelo://app?vid=a6d22002-9977-46ab-96b3-9865bfd1ef0e"},"vehicle_type_id":"4","last_reported":1739539002,"current_range_meters":39200,"station_id":"ce4bhs12rcd13ifvqhvg","pricing_plan_id":"cebpf4jnsgd1na2vs0mg"},{"bike_id":"cf6cf15d-6d9e-4a07-8560-7848bf1f722a","system_id":"levelo_inurba_marseille","lat":43.33609,"lon":5.41031,"is_reserved":false,"is_disabled":false,"rental_uris":{"android":"levelo://app?vid=cf6cf15d-6d9e-4a07-8560-7848bf1f722a","ios":"levelo://app?vid=cf6cf15d-6d9e-4a07-8560-7848bf1f722a"},"vehicle_type_id":"4","last_reported":1739539002,"current_range_meters":20000,"station_id":"ce4bhqh2rcd13ifvqhmg","pricing_plan_id":"cebpf4jnsgd1na2vs0mg"},{"bike_id":"2103d830-e4e6-4cb2-b340-70559a08c4cf","system_id":"levelo_inurba_marseille","lat":43.27433,"lon":5.3941,"is_reserved":false,"is_disabled":true,"rental_uris":{"android":"levelo://app?vid=2103d830-e4e6-4cb2-b340-70559a08c4cf","ios":"levelo://app?vid=2103d830-e4e6-4cb2-b340-70559a08c4cf"},"vehicle_type_id":"4","last_reported":1739539002,"current_range_meters":38800,"station_id":"ce4bhdp2rcd13ifvqf20","pricing_plan_id":"cebpf4jnsgd1na2vs0mg"},{"bike_id":"b6f750ae-49e3-4fbe-8716-c5d0717de58d","system_id":"levelo_inurba_marseille","lat":43.3062,"lon":5.37198,"is_reserved":false,"is_disabled":false,"rental_uris":{"android":"levelo://app?vid=b6f750ae-49e3-4fbe-8716-c5d0717de58d","ios":"levelo://app?vid=b6f750ae-49e3-4fbe-8716-c5d0717de58d"},"vehicle_type_id":"4","last_reported":1739539002,"current_range_meters":22800,"station_id":"ce4bgqh2rcd13ifvqc4g","pricing_plan_id":"cebpf4jnsgd1na2vs0mg"},{"bike_id":"db0c59a5-e36c-460d-a199-b553cfb8a418","system_id":"levelo_inurba_marseille","lat":43.27825,"lon":5.40708,"is_reserved":false,"is_disabled":false,"rental_uris":{"android":"levelo://app?vid=db0c59a5-e36c-460d-a199-b553cfb8a418","ios":"levelo://app?vid=db0c59a5-e36c-460d-a199-b553cfb8a418"},"vehicle_type_id":"4","last_reported":1739539002,"current_range_meters":31200,"station_id":"ce4bhnh2rcd13ifvqgtg","pricing_plan_id":"cebpf4jnsgd1na2vs0mg"},{"bike_id":"97571266-8f52-4f77-b22c-80589efa64ab","system_id":"levelo_inurba_marseille","lat":43.3176,"lon":5.39008,"is_reserved":false,"is_disabled":false,"rental_uris":{"android":"levelo://app?vid=97571266-8f52-4f77-b22c-80589efa64ab","ios":"levelo://app?vid=97571266-8f52-4f77-b22c-80589efa64ab"},"vehicle_type_id":"4","last_reported":1739539002,"current_range_meters":38000,"station_id":"ce4bhqp2rcd13ifvqhng","pricing_plan_id":"cebpf4jnsgd1na2vs0mg"},{"bike_id":"5b94872e-e8e0-48b1-a4f8-764a45f452f2","system_id":"levelo_inurba_marseille","lat":43.30533,"lon":5.36699,"is_reserved":false,"is_disabled":false,"rental_uris":{"android":"levelo://app?vid=5b94872e-e8e0-48b1-a4f8-764a45f452f2","ios":"levelo://app?vid=5b94872e-e8e0-48b1-a4f8-764a45f452f2"},"vehicle_type_id":"4","last_reported":1739539002,"current_range_meters":38800,"station_id":"ce4bgrp2rcd13ifvqc9g","pricing_plan_id":"cebpf4jnsgd1na2vs0mg"},{"bike_id":"170bdf87-3d17-4c6f-af53-8615e4d565af","system_id":"levelo_inurba_marseille","lat":43.29534,"lon":5.37528,"is_reserved":false,"is_disabled":false,"rental_uris":{"android":"levelo://app?vid=170bdf87-3d17-4c6f-af53-8615e4d565af","ios":"levelo://app?vid=170bdf87-3d17-4c6f-af53-8615e4d565af"},"vehicle_type_id":"4","last_reported":1739539002,"current_range_meters":38000,"station_id":"ce4bgkp2rcd13ifvqbmg","pricing_plan_id":"cebpf4jnsgd1na2vs0mg"},{"bike_id":"6997aaac-b58e-4c77-bed8-5a51d5766710","system_id":"levelo_inurba_marseille","lat":43.29008,"lon":5.39931,"is_reserved":false,"is_disabled":false,"rental_uris":{"android":"levelo://app?vid=6997aaac-b58e-4c77-bed8-5a51d5766710","ios":"levelo://app?vid=6997aaac-b58e-4c77-bed8-5a51d5766710"},"vehicle_type_id":"4","last_reported":1739539002,"current_range_meters":22800,"station_id":"ce4bh392rcd13ifvqdm0","pricing_plan_id":"cebpf4jnsgd1na2vs0mg"},{"bike_id":"fb9dfa09-3d2f-4781-b8cd-e624f89d8963","system_id":"levelo_inurba_marseille","lat":43.34146,"lon":5.40908,"is_reserved":false,"is_disabled":false,"rental_uris":{"android":"levelo://app?vid=fb9dfa09-3d2f-4781-b8cd-e624f89d8963","ios":"levelo://app?vid=fb9dfa09-3d2f-4781-b8cd-e624f89d8963"},"vehicle_type_id":"4","last_reported":1739539002,"current_range_meters":36400,"station_id":"ce4bhqh2rcd13ifvqhlg","pricing_plan_id":"cebpf4jnsgd1na2vs0mg"},{"bike_id":"77199d23-32e6-4212-95ff-7ee9972b2938","system_id":"levelo_inurba_marseille","lat":43.26707,"lon":5.38279,"is_reserved":false,"is_disabled":false,"rental_uris":{"android":"levelo://app?vid=77199d23-32e6-4212-95ff-7ee9972b2938","ios":"levelo://app?vid=77199d23-32e6-4212-95ff-7ee9972b2938"},"vehicle_type_id":"4","last_reported":1739539002,"current_range_meters":6800,"station_id":"ce4bhg92rcd13ifvqf90","pricing_plan_id":"cebpf4jnsgd1na2vs0mg"},{"bike_id":"ca2b0724-d99b-47e2-b01b-e36943c9425f","system_id":"levelo_inurba_marseille","lat":43.23961,"lon":5.36633,"is_reserved":false,"is_disabled":false,"rental_uris":{"android":"levelo://app?vid=ca2b0724-d99b-47e2-b01b-e36943c9425f","ios":"levelo://app?vid=ca2b0724-d99b-47e2-b01b-e36943c9425f"},"vehicle_type_id":"4","last_reported":1739539002,"current_range_meters":24400,"station_id":"ce4bhi12rcd13ifvqfp0","pricing_plan_id":"cebpf4jnsgd1na2vs0mg"},{"bike_id":"9b898cad-f5db-4fb8-913c-220a0f3a23d0","system_id":"levelo_inurba_marseille","lat":43.28348,"lon":5.38102,"is_reserved":false,"is_disabled":false,"rental_uris":{"android":"levelo://app?vid=9b898cad-f5db-4fb8-913c-220a0f3a23d0","ios":"levelo://app?vid=9b898cad-f5db-4fb8-913c-220a0f3a23d0"},"vehicle_type_id":"4","last_reported":1739539002,"current_range_meters":24800,"station_id":"ce4bh412rcd13ifvqdr0","pricing_plan_id":"cebpf4jnsgd1na2vs0mg"},{"bike_id":"8810c5ca-48ab-4f5e-8177-ae6a3a565963","system_id":"levelo_inurba_marseille","lat":43.30135,"lon":5.37396,"is_reserved":false,"is_disabled":false,"rental_uris":{"android":"levelo://app?vid=8810c5ca-48ab-4f5e-8177-ae6a3a565963","ios":"levelo://app?vid=8810c5ca-48ab-4f5e-8177-ae6a3a565963"},"vehicle_type_id":"4","last_reported":1739539002,"current_range_meters":38400,"station_id":"ce4bgs92rcd13ifvqcc0","pricing_plan_id":"cebpf4jnsgd1na2vs0mg"},{"bike_id":"f92e748a-9f9b-4e54-8084-07e33515f3d5","system_id":"levelo_inurba_marseille","lat":43.270641,"lon":5.393448,"is_reserved":false,"is_disabled":true,"rental_uris":{"android":"levelo://app?vid=f92e748a-9f9b-4e54-8084-07e33515f3d5","ios":"levelo://app?vid=f92e748a-9f9b-4e54-8084-07e33515f3d5"},"vehicle_type_id":"4","last_reported":1739539002,"current_range_meters":0,"station_id":"","pricing_plan_id":"cebpf4jnsgd1na2vs0mg"},{"bike_id":"7634e086-f6e0-474c-af09-9f19e7449c6e","system_id":"levelo_inurba_marseille","lat":43.2692,"lon":5.40268,"is_reserved":false,"is_disabled":false,"rental_uris":{"android":"levelo://app?vid=7634e086-f6e0-474c-af09-9f19e7449c6e","ios":"levelo://app?vid=7634e086-f6e0-474c-af09-9f19e7449c6e"},"vehicle_type_id":"4","last_reported":1739539002,"current_range_meters":10000,"station_id":"cjm6bp8fraef2m0cb0m0","pricing_plan_id":"cebpf4jnsgd1na2vs0mg"},{"bike_id":"704ec19d-e7c0-4858-a423-dcfa560220a5","system_id":"levelo_inurba_marseille","lat":43.23207,"lon":5.39968,"is_reserved":false,"is_disabled":false,"rental_uris":{"android":"levelo://app?vid=704ec19d-e7c0-4858-a423-dcfa560220a5","ios":"levelo://app?vid=704ec19d-e7c0-4858-a423-dcfa560220a5"},"vehicle_type_id":"4","last_reported":1739539002,"current_range_meters":33600,"station_id":"ce4bhn12rcd13ifvqgqg","pricing_plan_id":"cebpf4jnsgd1na2vs0mg"},{"bike_id":"5c31f567-3052-407e-90e7-b0ad6252e100","system_id":"levelo_inurba_marseille","lat":43.30141,"lon":5.39884,"is_reserved":false,"is_disabled":true,"rental_uris":{"android":"levelo://app?vid=5c31f567-3052-407e-90e7-b0ad6252e100","ios":"levelo://app?vid=5c31f567-3052-407e-90e7-b0ad6252e100"},"vehicle_type_id":"4","last_reported":1739539002,"current_range_meters":38800,"station_id":"ce4bh0h2rcd13ifvqd40","pricing_plan_id":"cebpf4jnsgd1na2vs0mg"},{"bike_id":"3b65282a-f1d0-4275-aeb0-d72b1002d850","system_id":"levelo_inurba_marseille","lat":43.3014,"lon":5.37419,"is_reserved":false,"is_disabled":false,"rental_uris":{"android":"levelo://app?vid=3b65282a-f1d0-4275-aeb0-d72b1002d850","ios":"levelo://app?vid=3b65282a-f1d0-4275-aeb0-d72b1002d850"},"vehicle_type_id":"4","last_reported":1739539002,"current_range_meters":39200,"station_id":"ce4bgs92rcd13ifvqcc0","pricing_plan_id":"cebpf4jnsgd1na2vs0mg"},{"bike_id":"5a0d5cc6-053a-4b78-95a5-1949fda914bd","system_id":"levelo_inurba_marseille","lat":43.29039,"lon":5.39979,"is_reserved":false,"is_disabled":false,"rental_uris":{"android":"levelo://app?vid=5a0d5cc6-053a-4b78-95a5-1949fda914bd","ios":"levelo://app?vid=5a0d5cc6-053a-4b78-95a5-1949fda914bd"},"vehicle_type_id":"4","last_reported":1739539002,"current_range_meters":36000,"station_id":"ce4bh392rcd13ifvqdm0","pricing_plan_id":"cebpf4jnsgd1na2vs0mg"},{"bike_id":"58836e88-62a7-4a05-b6a4-1f3dfd000953","system_id":"levelo_inurba_marseille","lat":43.27619,"lon":5.36114,"is_reserved":false,"is_disabled":false,"rental_uris":{"android":"levelo://app?vid=58836e88-62a7-4a05-b6a4-1f3dfd000953","ios":"levelo://app?vid=58836e88-62a7-4a05-b6a4-1f3dfd000953"},"vehicle_type_id":"4","last_reported":1739539002,"current_range_meters":9200,"station_id":"ce4bgj92rcd13ifvqbe0","pricing_plan_id":"cebpf4jnsgd1na2vs0mg"},{"bike_id":"9cf8e6d9-67b8-441b-8ab4-08ef8560d2b0","system_id":"levelo_inurba_marseille","lat":43.33514,"lon":5.35585,"is_reserved":false,"is_disabled":true,"rental_uris":{"android":"levelo://app?vid=9cf8e6d9-67b8-441b-8ab4-08ef8560d2b0","ios":"levelo://app?vid=9cf8e6d9-67b8-441b-8ab4-08ef8560d2b0"},"vehicle_type_id":"4","last_reported":1739539002,"current_range_meters":0,"station_id":"","pricing_plan_id":"cebpf4jnsgd1na2vs0mg"},{"bike_id":"0b8828fb-bf18-4d96-8c4f-d797f9591c5c","system_id":"levelo_inurba_marseille","lat":43.29966,"lon":5.41321,"is_reserved":false,"is_disabled":false,"rental_uris":{"android":"levelo://app?vid=0b8828fb-bf18-4d96-8c4f-d797f9591c5c","ios":"levelo://app?vid=0b8828fb-bf18-4d96-8c4f-d797f9591c5c"},"vehicle_type_id":"4","last_reported":1739539002,"current_range_meters":38000,"station_id":"ce4bhp12rcd13ifvqh9g","pricing_plan_id":"cebpf4jnsgd1na2vs0mg"},{"bike_id":"2c48ff90-037d-4332-be30-c6a93d1c5594","system_id":"levelo_inurba_marseille","lat":43.26503,"lon":5.39547,"is_reserved":false,"is_disabled":false,"rental_uris":{"android":"levelo://app?vid=2c48ff90-037d-4332-be30-c6a93d1c5594","ios":"levelo://app?vid=2c48ff90-037d-4332-be30-c6a93d1c5594"},"vehicle_type_id":"4","last_reported":1739539002,"current_range_meters":33600,"station_id":"ce4bhi12rcd13ifvqfq0","pricing_plan_id":"cebpf4jnsgd1na2vs0mg"},{"bike_id":"6279f888-1d4b-4ebb-b3f2-c7248902b00f","system_id":"levelo_inurba_marseille","lat":43.254925,"lon":5.376604,"is_reserved":false,"is_disabled":false,"rental_uris":{"android":"levelo://app?vid=6279f888-1d4b-4ebb-b3f2-c7248902b00f","ios":"levelo://app?vid=6279f888-1d4b-4ebb-b3f2-c7248902b00f"},"vehicle_type_id":"4","last_reported":1739539002,"current_range_meters":17200,"station_id":"ce4bhh12rcd13ifvqff0","pricing_plan_id":"cebpf4jnsgd1na2vs0mg"},{"bike_id":"9b830a51-acd7-456e-8054-0034a62a06ba","system_id":"levelo_inurba_marseille","lat":43.32106,"lon":5.3675,"is_reserved":false,"is_disabled":false,"rental_uris":{"android":"levelo://app?vid=9b830a51-acd7-456e-8054-0034a62a06ba","ios":"levelo://app?vid=9b830a51-acd7-456e-8054-0034a62a06ba"},"vehicle_type_id":"4","last_reported":1739539002,"current_range_meters":30400,"station_id":"ce4bhrh2rcd13ifvqhug","pricing_plan_id":"cebpf4jnsgd1na2vs0mg"},{"bike_id":"2b39e138-29d5-424b-a9b1-8fe8e03fc52b","system_id":"levelo_inurba_marseille","lat":43.29257,"lon":5.40125,"is_reserved":false,"is_disabled":false,"rental_uris":{"android":"levelo://app?vid=2b39e138-29d5-424b-a9b1-8fe8e03fc52b","ios":"levelo://app?vid=2b39e138-29d5-424b-a9b1-8fe8e03fc52b"},"vehicle_type_id":"4","last_reported":1739539002,"current_range_meters":25600,"station_id":"ce4bh312rcd13ifvqdk0","pricing_plan_id":"cebpf4jnsgd1na2vs0mg"},{"bike_id":"6325645e-69a7-4669-ba80-2d681afae85c","system_id":"levelo_inurba_marseille","lat":43.26923,"lon":5.38888,"is_reserved":false,"is_disabled":false,"rental_uris":{"android":"levelo://app?vid=6325645e-69a7-4669-ba80-2d681afae85c","ios":"levelo://app?vid=6325645e-69a7-4669-ba80-2d681afae85c"},"vehicle_type_id":"4","last_reported":1739539002,"current_range_meters":36400,"station_id":"ce4bhhh2rcd13ifvqfl0","pricing_plan_id":"cebpf4jnsgd1na2vs0mg"},{"bike_id":"5331815e-d681-4b27-b5a1-b85b4077dc7b","system_id":"levelo_inurba_marseille","lat":43.34144,"lon":5.40897,"is_reserved":false,"is_disabled":false,"rental_uris":{"android":"levelo://app?vid=5331815e-d681-4b27-b5a1-b85b4077dc7b","ios":"levelo://app?vid=5331815e-d681-4b27-b5a1-b85b4077dc7b"},"vehicle_type_id":"4","last_reported":1739539002,"current_range_meters":32000,"station_id":"ce4bhqh2rcd13ifvqhlg","pricing_plan_id":"cebpf4jnsgd1na2vs0mg"},{"bike_id":"664d76f3-2330-49c1-b8cd-3a65def29597","system_id":"levelo_inurba_marseille","lat":43.29035,"lon":5.37564,"is_reserved":false,"is_disabled":false,"rental_uris":{"android":"levelo://app?vid=664d76f3-2330-49c1-b8cd-3a65def29597","ios":"levelo://app?vid=664d76f3-2330-49c1-b8cd-3a65def29597"},"vehicle_type_id":"4","last_reported":1739539002,"current_range_meters":35200,"station_id":"ce4bh692rcd13ifvqe90","pricing_plan_id":"cebpf4jnsgd1na2vs0mg"},{"bike_id":"b90fe5da-280b-47ae-a567-441ecfe5186d","system_id":"levelo_inurba_marseille","lat":43.27842,"lon":5.39216,"is_reserved":false,"is_disabled":false,"rental_uris":{"android":"levelo://app?vid=b90fe5da-280b-47ae-a567-441ecfe5186d","ios":"levelo://app?vid=b90fe5da-280b-47ae-a567-441ecfe5186d"},"vehicle_type_id":"4","last_reported":1739539002,"current_range_meters":38800,"station_id":"ce4bhjp2rcd13ifvqga0","pricing_plan_id":"cebpf4jnsgd1na2vs0mg"},{"bike_id":"51ab7186-5043-4bed-baca-73708608a302","system_id":"levelo_inurba_marseille","lat":43.29584,"lon":5.37026,"is_reserved":false,"is_disabled":true,"rental_uris":{"android":"levelo://app?vid=51ab7186-5043-4bed-baca-73708608a302","ios":"levelo://app?vid=51ab7186-5043-4bed-baca-73708608a302"},"vehicle_type_id":"4","last_reported":1739539002,"current_range_meters":0,"station_id":"","pricing_plan_id":"cebpf4jnsgd1na2vs0mg"},{"bike_id":"ec90184e-fc78-41d7-ba71-28f8166549c1","system_id":"levelo_inurba_marseille","lat":43.312206,"lon":5.368604,"is_reserved":false,"is_disabled":false,"rental_uris":{"android":"levelo://app?vid=ec90184e-fc78-41d7-ba71-28f8166549c1","ios":"levelo://app?vid=ec90184e-fc78-41d7-ba71-28f8166549c1"},"vehicle_type_id":"4","last_reported":1739539002,"current_range_meters":28400,"station_id":"ce4bgl92rcd13ifvqbq0","pricing_plan_id":"cebpf4jnsgd1na2vs0mg"},{"bike_id":"91196369-53ac-41cb-92db-b0c69c2f0200","system_id":"levelo_inurba_marseille","lat":43.30523,"lon":5.36727,"is_reserved":false,"is_disabled":false,"rental_uris":{"android":"levelo://app?vid=91196369-53ac-41cb-92db-b0c69c2f0200","ios":"levelo://app?vid=91196369-53ac-41cb-92db-b0c69c2f0200"},"vehicle_type_id":"4","last_reported":1739539002,"current_range_meters":2800,"station_id":"ce4bgrp2rcd13ifvqc9g","pricing_plan_id":"cebpf4jnsgd1na2vs0mg"},{"bike_id":"d3fc5f7e-9983-4343-a9af-f36df7d45f29","system_id":"levelo_inurba_marseille","lat":43.23185,"lon":5.3998,"is_reserved":false,"is_disabled":false,"rental_uris":{"android":"levelo://app?vid=d3fc5f7e-9983-4343-a9af-f36df7d45f29","ios":"levelo://app?vid=d3fc5f7e-9983-4343-a9af-f36df7d45f29"},"vehicle_type_id":"4","last_reported":1739539002,"current_range_meters":19600,"station_id":"ce4bhn12rcd13ifvqgqg","pricing_plan_id":"cebpf4jnsgd1na2vs0mg"},{"bike_id":"8ccf86da-18a2-43db-a334-ba2902c1d90c","system_id":"levelo_inurba_marseille","lat":43.2743,"lon":5.39424,"is_reserved":false,"is_disabled":false,"rental_uris":{"android":"levelo://app?vid=8ccf86da-18a2-43db-a334-ba2902c1d90c","ios":"levelo://app?vid=8ccf86da-18a2-43db-a334-ba2902c1d90c"},"vehicle_type_id":"4","last_reported":1739539002,"current_range_meters":36400,"station_id":"ce4bhdp2rcd13ifvqf20","pricing_plan_id":"cebpf4jnsgd1na2vs0mg"},{"bike_id":"3726052c-435c-4e9a-97b4-6741247fd797","system_id":"levelo_inurba_marseille","lat":43.2842,"lon":5.3499,"is_reserved":false,"is_disabled":false,"rental_uris":{"android":"levelo://app?vid=3726052c-435c-4e9a-97b4-6741247fd797","ios":"levelo://app?vid=3726052c-435c-4e9a-97b4-6741247fd797"},"vehicle_type_id":"4","last_reported":1739539002,"current_range_meters":32800,"station_id":"ce4bhbh2rcd13ifvqepg","pricing_plan_id":"cebpf4jnsgd1na2vs0mg"},{"bike_id":"a957ceea-f9ee-4522-a714-0b9b1ae52161","system_id":"levelo_inurba_marseille","lat":43.27066,"lon":5.40294,"is_reserved":false,"is_disabled":false,"rental_uris":{"android":"levelo://app?vid=a957ceea-f9ee-4522-a714-0b9b1ae52161","ios":"levelo://app?vid=a957ceea-f9ee-4522-a714-0b9b1ae52161"},"vehicle_type_id":"4","last_reported":1739539002,"current_range_meters":32000,"station_id":"ce4bhk92rcd13ifvqgc0","pricing_plan_id":"cebpf4jnsgd1na2vs0mg"},{"bike_id":"d4250fe0-40a1-4a17-b21a-dd2222060ec1","system_id":"levelo_inurba_marseille","lat":43.24066,"lon":5.37761,"is_reserved":false,"is_disabled":false,"rental_uris":{"android":"levelo://app?vid=d4250fe0-40a1-4a17-b21a-dd2222060ec1","ios":"levelo://app?vid=d4250fe0-40a1-4a17-b21a-dd2222060ec1"},"vehicle_type_id":"4","last_reported":1739539002,"current_range_meters":24800,"station_id":"ce4bhnp2rcd13ifvqgvg","pricing_plan_id":"cebpf4jnsgd1na2vs0mg"},{"bike_id":"c40e2cb9-b89c-4dbd-956b-535ef79f1d37","system_id":"levelo_inurba_marseille","lat":43.24812,"lon":5.37457,"is_reserved":false,"is_disabled":false,"rental_uris":{"android":"levelo://app?vid=c40e2cb9-b89c-4dbd-956b-535ef79f1d37","ios":"levelo://app?vid=c40e2cb9-b89c-4dbd-956b-535ef79f1d37"},"vehicle_type_id":"4","last_reported":1739539002,"current_range_meters":28000,"station_id":"ce4bhgh2rcd13ifvqfb0","pricing_plan_id":"cebpf4jnsgd1na2vs0mg"},{"bike_id":"87ca7809-d97f-4887-849b-ad9b5c1f247b","system_id":"levelo_inurba_marseille","lat":43.29023,"lon":5.38638,"is_reserved":false,"is_disabled":false,"rental_uris":{"android":"levelo://app?vid=87ca7809-d97f-4887-849b-ad9b5c1f247b","ios":"levelo://app?vid=87ca7809-d97f-4887-849b-ad9b5c1f247b"},"vehicle_type_id":"4","last_reported":1739539002,"current_range_meters":31200,"station_id":"ce4bh4p2rcd13ifvqe0g","pricing_plan_id":"cebpf4jnsgd1na2vs0mg"},{"bike_id":"24f066ed-96fc-400a-8097-8aa15d926f47","system_id":"levelo_inurba_marseille","lat":43.33042,"lon":5.39049,"is_reserved":false,"is_disabled":false,"rental_uris":{"android":"levelo://app?vid=24f066ed-96fc-400a-8097-8aa15d926f47","ios":"levelo://app?vid=24f066ed-96fc-400a-8097-8aa15d926f47"},"vehicle_type_id":"4","last_reported":1739539002,"current_range_meters":37600,"station_id":"ce4bhr92rcd13ifvqhrg","pricing_plan_id":"cebpf4jnsgd1na2vs0mg"},{"bike_id":"1fa82dc6-47d4-4356-bbca-393bf4461726","system_id":"levelo_inurba_marseille","lat":43.23984,"lon":5.36622,"is_reserved":false,"is_disabled":false,"rental_uris":{"android":"levelo://app?vid=1fa82dc6-47d4-4356-bbca-393bf4461726","ios":"levelo://app?vid=1fa82dc6-47d4-4356-bbca-393bf4461726"},"vehicle_type_id":"4","last_reported":1739539002,"current_range_meters":36800,"station_id":"ce4bhi12rcd13ifvqfp0","pricing_plan_id":"cebpf4jnsgd1na2vs0mg"},{"bike_id":"709b678b-bb0b-444a-8fef-a3f5bfff6d35","system_id":"levelo_inurba_marseille","lat":43.309,"lon":5.36849,"is_reserved":false,"is_disabled":false,"rental_uris":{"android":"levelo://app?vid=709b678b-bb0b-444a-8fef-a3f5bfff6d35","ios":"levelo://app?vid=709b678b-bb0b-444a-8fef-a3f5bfff6d35"},"vehicle_type_id":"4","last_reported":1739539002,"current_range_meters":28000,"station_id":"ce4bgn92rcd13ifvqbvg","pricing_plan_id":"cebpf4jnsgd1na2vs0mg"},{"bike_id":"253607fc-4377-43e1-b6dd-8140cee1226f","system_id":"levelo_inurba_marseille","lat":43.23155,"lon":5.43714,"is_reserved":false,"is_disabled":false,"rental_uris":{"android":"levelo://app?vid=253607fc-4377-43e1-b6dd-8140cee1226f","ios":"levelo://app?vid=253607fc-4377-43e1-b6dd-8140cee1226f"},"vehicle_type_id":"4","last_reported":1739539002,"current_range_meters":10800,"station_id":"ce4bhmp2rcd13ifvqgog","pricing_plan_id":"cebpf4jnsgd1na2vs0mg"},{"bike_id":"2c9c57ef-929c-405c-9304-3c7204914b97","system_id":"levelo_inurba_marseille","lat":43.23971,"lon":5.36638,"is_reserved":false,"is_disabled":false,"rental_uris":{"android":"levelo://app?vid=2c9c57ef-929c-405c-9304-3c7204914b97","ios":"levelo://app?vid=2c9c57ef-929c-405c-9304-3c7204914b97"},"vehicle_type_id":"4","last_reported":1739539002,"current_range_meters":20400,"station_id":"ce4bhi12rcd13ifvqfp0","pricing_plan_id":"cebpf4jnsgd1na2vs0mg"},{"bike_id":"0bd1a399-2480-469c-91cd-e64288e63568","system_id":"levelo_inurba_marseille","lat":43.30344,"lon":5.41858,"is_reserved":false,"is_disabled":false,"rental_uris":{"android":"levelo://app?vid=0bd1a399-2480-469c-91cd-e64288e63568","ios":"levelo://app?vid=0bd1a399-2480-469c-91cd-e64288e63568"},"vehicle_type_id":"4","last_reported":1739539002,"current_range_meters":38800,"station_id":"ce4bhop2rcd13ifvqh7g","pricing_plan_id":"cebpf4jnsgd1na2vs0mg"},{"bike_id":"b3a77cbe-d0a6-47fd-91c2-80b9ae411941","system_id":"levelo_inurba_marseille","lat":43.30786,"lon":5.37635,"is_reserved":false,"is_disabled":false,"rental_uris":{"android":"levelo://app?vid=b3a77cbe-d0a6-47fd-91c2-80b9ae411941","ios":"levelo://app?vid=b3a77cbe-d0a6-47fd-91c2-80b9ae411941"},"vehicle_type_id":"4","last_reported":1739539002,"current_range_meters":37600,"station_id":"ce4bgv92rcd13ifvqcq0","pricing_plan_id":"cebpf4jnsgd1na2vs0mg"},{"bike_id":"923fd563-d42a-4425-b6c1-9fd447476fef","system_id":"levelo_inurba_marseille","lat":43.25003,"lon":5.3892,"is_reserved":false,"is_disabled":false,"rental_uris":{"android":"levelo://app?vid=923fd563-d42a-4425-b6c1-9fd447476fef","ios":"levelo://app?vid=923fd563-d42a-4425-b6c1-9fd447476fef"},"vehicle_type_id":"4","last_reported":1739539002,"current_range_meters":28400,"station_id":"ce4bhgp2rcd13ifvqfd0","pricing_plan_id":"cebpf4jnsgd1na2vs0mg"},{"bike_id":"69901931-b51c-453f-987f-21137ab8ac55","system_id":"levelo_inurba_marseille","lat":43.26964,"lon":5.40281,"is_reserved":false,"is_disabled":false,"rental_uris":{"android":"levelo://app?vid=69901931-b51c-453f-987f-21137ab8ac55","ios":"levelo://app?vid=69901931-b51c-453f-987f-21137ab8ac55"},"vehicle_type_id":"4","last_reported":1739539002,"current_range_meters":28400,"station_id":"cjm6bp8fraef2m0cb0m0","pricing_plan_id":"cebpf4jnsgd1na2vs0mg"},{"bike_id":"ed6f7751-ed71-4a1a-a105-7d1d3dca09fe","system_id":"levelo_inurba_marseille","lat":43.29167,"lon":5.37157,"is_reserved":false,"is_disabled":false,"rental_uris":{"android":"levelo://app?vid=ed6f7751-ed71-4a1a-a105-7d1d3dca09fe","ios":"levelo://app?vid=ed6f7751-ed71-4a1a-a105-7d1d3dca09fe"},"vehicle_type_id":"4","last_reported":1739539002,"current_range_meters":35600,"station_id":"ce4bha92rcd13ifvqeh0","pricing_plan_id":"cebpf4jnsgd1na2vs0mg"},{"bike_id":"4e38e6f3-e043-461b-aa1f-d9795ea6cb7d","system_id":"levelo_inurba_marseille","lat":43.28158,"lon":5.42649,"is_reserved":false,"is_disabled":false,"rental_uris":{"android":"levelo://app?vid=4e38e6f3-e043-461b-aa1f-d9795ea6cb7d","ios":"levelo://app?vid=4e38e6f3-e043-461b-aa1f-d9795ea6cb7d"},"vehicle_type_id":"4","last_reported":1739539002,"current_range_meters":22400,"station_id":"ce4bhnh2rcd13ifvqgug","pricing_plan_id":"cebpf4jnsgd1na2vs0mg"},{"bike_id":"cb2c880d-6099-4e99-b126-5db2ed775e84","system_id":"levelo_inurba_marseille","lat":43.25036,"lon":5.38926,"is_reserved":false,"is_disabled":false,"rental_uris":{"android":"levelo://app?vid=cb2c880d-6099-4e99-b126-5db2ed775e84","ios":"levelo://app?vid=cb2c880d-6099-4e99-b126-5db2ed775e84"},"vehicle_type_id":"4","last_reported":1739539002,"current_range_meters":38800,"station_id":"ce4bhgp2rcd13ifvqfd0","pricing_plan_id":"cebpf4jnsgd1na2vs0mg"},{"bike_id":"49fa15bb-24fd-418e-972a-73184b9029cb","system_id":"levelo_inurba_marseille","lat":43.29891,"lon":5.43658,"is_reserved":false,"is_disabled":false,"rental_uris":{"android":"levelo://app?vid=49fa15bb-24fd-418e-972a-73184b9029cb","ios":"levelo://app?vid=49fa15bb-24fd-418e-972a-73184b9029cb"},"vehicle_type_id":"4","last_reported":1739539002,"current_range_meters":6800,"station_id":"ce4bhpp2rcd13ifvqhfg","pricing_plan_id":"cebpf4jnsgd1na2vs0mg"},{"bike_id":"0bac78cd-cffa-48d5-be63-532390e5daf7","system_id":"levelo_inurba_marseille","lat":43.28161,"lon":5.42649,"is_reserved":false,"is_disabled":false,"rental_uris":{"android":"levelo://app?vid=0bac78cd-cffa-48d5-be63-532390e5daf7","ios":"levelo://app?vid=0bac78cd-cffa-48d5-be63-532390e5daf7"},"vehicle_type_id":"4","last_reported":1739539002,"current_range_meters":30000,"station_id":"ce4bhnh2rcd13ifvqgug","pricing_plan_id":"cebpf4jnsgd1na2vs0mg"},{"bike_id":"aa549b11-6f09-4b58-a41e-3b0c3ae19515","system_id":"levelo_inurba_marseille","lat":43.3018,"lon":5.36618,"is_reserved":false,"is_disabled":false,"rental_uris":{"android":"levelo://app?vid=aa549b11-6f09-4b58-a41e-3b0c3ae19515","ios":"levelo://app?vid=aa549b11-6f09-4b58-a41e-3b0c3ae19515"},"vehicle_type_id":"4","last_reported":1739539002,"current_range_meters":22400,"station_id":"ce4bgrh2rcd13ifvqc8g","pricing_plan_id":"cebpf4jnsgd1na2vs0mg"},{"bike_id":"facad81e-9d59-44d1-8075-663fcbf07364","system_id":"levelo_inurba_marseille","lat":43.24815,"lon":5.37458,"is_reserved":false,"is_disabled":false,"rental_uris":{"android":"levelo://app?vid=facad81e-9d59-44d1-8075-663fcbf07364","ios":"levelo://app?vid=facad81e-9d59-44d1-8075-663fcbf07364"},"vehicle_type_id":"4","last_reported":1739539002,"current_range_meters":36400,"station_id":"ce4bhgh2rcd13ifvqfb0","pricing_plan_id":"cebpf4jnsgd1na2vs0mg"},{"bike_id":"0c9f491e-2c2e-4a66-985f-4b2dd1fa46b1","system_id":"levelo_inurba_marseille","lat":43.30283,"lon":5.37681,"is_reserved":false,"is_disabled":false,"rental_uris":{"android":"levelo://app?vid=0c9f491e-2c2e-4a66-985f-4b2dd1fa46b1","ios":"levelo://app?vid=0c9f491e-2c2e-4a66-985f-4b2dd1fa46b1"},"vehicle_type_id":"4","last_reported":1739539002,"current_range_meters":38800,"station_id":"ce4bguh2rcd13ifvqcj0","pricing_plan_id":"cebpf4jnsgd1na2vs0mg"},{"bike_id":"f7722aa8-7dbb-40b4-8785-faf5a2e7b631","system_id":"levelo_inurba_marseille","lat":43.25007,"lon":5.38903,"is_reserved":false,"is_disabled":false,"rental_uris":{"android":"levelo://app?vid=f7722aa8-7dbb-40b4-8785-faf5a2e7b631","ios":"levelo://app?vid=f7722aa8-7dbb-40b4-8785-faf5a2e7b631"},"vehicle_type_id":"4","last_reported":1739539002,"current_range_meters":38800,"station_id":"ce4bhgp2rcd13ifvqfd0","pricing_plan_id":"cebpf4jnsgd1na2vs0mg"},{"bike_id":"ec496d4a-c31a-4f2c-947b-b17f6dc6b31a","system_id":"levelo_inurba_marseille","lat":43.25002,"lon":5.38935,"is_reserved":false,"is_disabled":false,"rental_uris":{"android":"levelo://app?vid=ec496d4a-c31a-4f2c-947b-b17f6dc6b31a","ios":"levelo://app?vid=ec496d4a-c31a-4f2c-947b-b17f6dc6b31a"},"vehicle_type_id":"4","last_reported":1739539002,"current_range_meters":38800,"station_id":"ce4bhgp2rcd13ifvqfd0","pricing_plan_id":"cebpf4jnsgd1na2vs0mg"},{"bike_id":"6fca0150-25d1-4efa-845f-3c63f11d5320","system_id":"levelo_inurba_marseille","lat":43.30546,"lon":5.36707,"is_reserved":false,"is_disabled":false,"rental_uris":{"android":"levelo://app?vid=6fca0150-25d1-4efa-845f-3c63f11d5320","ios":"levelo://app?vid=6fca0150-25d1-4efa-845f-3c63f11d5320"},"vehicle_type_id":"4","last_reported":1739539002,"current_range_meters":27200,"station_id":"ce4bgrp2rcd13ifvqc9g","pricing_plan_id":"cebpf4jnsgd1na2vs0mg"},{"bike_id":"9f08b9dc-26be-418e-ae0a-fc8f2d7d84a9","system_id":"levelo_inurba_marseille","lat":43.27833,"lon":5.39196,"is_reserved":false,"is_disabled":false,"rental_uris":{"android":"levelo://app?vid=9f08b9dc-26be-418e-ae0a-fc8f2d7d84a9","ios":"levelo://app?vid=9f08b9dc-26be-418e-ae0a-fc8f2d7d84a9"},"vehicle_type_id":"4","last_reported":1739539002,"current_range_meters":18800,"station_id":"ce4bhjp2rcd13ifvqga0","pricing_plan_id":"cebpf4jnsgd1na2vs0mg"},{"bike_id":"6ecff250-f5fe-4dc7-9938-b0106307792e","system_id":"levelo_inurba_marseille","lat":43.34138,"lon":5.40908,"is_reserved":false,"is_disabled":false,"rental_uris":{"android":"levelo://app?vid=6ecff250-f5fe-4dc7-9938-b0106307792e","ios":"levelo://app?vid=6ecff250-f5fe-4dc7-9938-b0106307792e"},"vehicle_type_id":"4","last_reported":1739539002,"current_range_meters":31200,"station_id":"ce4bhqh2rcd13ifvqhlg","pricing_plan_id":"cebpf4jnsgd1na2vs0mg"},{"bike_id":"23849fcd-4bc4-44f6-8337-e9a9a16fe0e7","system_id":"levelo_inurba_marseille","lat":43.29742,"lon":5.47958,"is_reserved":false,"is_disabled":false,"rental_uris":{"android":"levelo://app?vid=23849fcd-4bc4-44f6-8337-e9a9a16fe0e7","ios":"levelo://app?vid=23849fcd-4bc4-44f6-8337-e9a9a16fe0e7"},"vehicle_type_id":"4","last_reported":1739539002,"current_range_meters":3200,"station_id":"","pricing_plan_id":"cebpf4jnsgd1na2vs0mg"},{"bike_id":"95ae2a22-aed7-4d28-b9ea-dca74e26051e","system_id":"levelo_inurba_marseille","lat":43.30916,"lon":5.36862,"is_reserved":false,"is_disabled":false,"rental_uris":{"android":"levelo://app?vid=95ae2a22-aed7-4d28-b9ea-dca74e26051e","ios":"levelo://app?vid=95ae2a22-aed7-4d28-b9ea-dca74e26051e"},"vehicle_type_id":"4","last_reported":1739539002,"current_range_meters":37600,"station_id":"ce4bgn92rcd13ifvqbvg","pricing_plan_id":"cebpf4jnsgd1na2vs0mg"},{"bike_id":"df5c6f93-89ab-46f7-8475-ae5d3f33d709","system_id":"levelo_inurba_marseille","lat":43.30426,"lon":5.39747,"is_reserved":false,"is_disabled":false,"rental_uris":{"android":"levelo://app?vid=df5c6f93-89ab-46f7-8475-ae5d3f33d709","ios":"levelo://app?vid=df5c6f93-89ab-46f7-8475-ae5d3f33d709"},"vehicle_type_id":"4","last_reported":1739539002,"current_range_meters":24000,"station_id":"ce4bh092rcd13ifvqd20","pricing_plan_id":"cebpf4jnsgd1na2vs0mg"},{"bike_id":"c2aa14d2-4753-4dc9-bb5a-61ca66704834","system_id":"levelo_inurba_marseille","lat":43.2928,"lon":5.37485,"is_reserved":false,"is_disabled":false,"rental_uris":{"android":"levelo://app?vid=c2aa14d2-4753-4dc9-bb5a-61ca66704834","ios":"levelo://app?vid=c2aa14d2-4753-4dc9-bb5a-61ca66704834"},"vehicle_type_id":"4","last_reported":1739539002,"current_range_meters":29600,"station_id":"ce4bgi12rcd13ifvqb70","pricing_plan_id":"cebpf4jnsgd1na2vs0mg"},{"bike_id":"8efb54af-be93-4407-88d4-1b826e6fa566","system_id":"levelo_inurba_marseille","lat":43.26804,"lon":5.40272,"is_reserved":false,"is_disabled":false,"rental_uris":{"android":"levelo://app?vid=8efb54af-be93-4407-88d4-1b826e6fa566","ios":"levelo://app?vid=8efb54af-be93-4407-88d4-1b826e6fa566"},"vehicle_type_id":"4","last_reported":1739539002,"current_range_meters":6400,"station_id":"ce501612rcd8frsf0b60","pricing_plan_id":"cebpf4jnsgd1na2vs0mg"},{"bike_id":"d1b7e7c3-d876-4585-aa93-a701646b8c19","system_id":"levelo_inurba_marseille","lat":43.23192,"lon":5.39983,"is_reserved":false,"is_disabled":false,"rental_uris":{"android":"levelo://app?vid=d1b7e7c3-d876-4585-aa93-a701646b8c19","ios":"levelo://app?vid=d1b7e7c3-d876-4585-aa93-a701646b8c19"},"vehicle_type_id":"4","last_reported":1739539002,"current_range_meters":34000,"station_id":"ce4bhn12rcd13ifvqgqg","pricing_plan_id":"cebpf4jnsgd1na2vs0mg"},{"bike_id":"f4819c25-3e00-41ce-8105-106f04d74119","system_id":"levelo_inurba_marseille","lat":43.25565,"lon":5.38229,"is_reserved":false,"is_disabled":true,"rental_uris":{"android":"levelo://app?vid=f4819c25-3e00-41ce-8105-106f04d74119","ios":"levelo://app?vid=f4819c25-3e00-41ce-8105-106f04d74119"},"vehicle_type_id":"4","last_reported":1739539002,"current_range_meters":0,"station_id":"ce4bhih2rcd13ifvqfs0","pricing_plan_id":"cebpf4jnsgd1na2vs0mg"},{"bike_id":"0654ea6f-23d6-45e7-95d1-9acdb05bffd0","system_id":"levelo_inurba_marseille","lat":43.27425,"lon":5.39419,"is_reserved":false,"is_disabled":false,"rental_uris":{"android":"levelo://app?vid=0654ea6f-23d6-45e7-95d1-9acdb05bffd0","ios":"levelo://app?vid=0654ea6f-23d6-45e7-95d1-9acdb05bffd0"},"vehicle_type_id":"4","last_reported":1739539002,"current_range_meters":37600,"station_id":"ce4bhdp2rcd13ifvqf20","pricing_plan_id":"cebpf4jnsgd1na2vs0mg"},{"bike_id":"9e14a459-ea3f-4c8d-b681-ddd390ee11dc","system_id":"levelo_inurba_marseille","lat":43.30157,"lon":5.38071,"is_reserved":false,"is_disabled":false,"rental_uris":{"android":"levelo://app?vid=9e14a459-ea3f-4c8d-b681-ddd390ee11dc","ios":"levelo://app?vid=9e14a459-ea3f-4c8d-b681-ddd390ee11dc"},"vehicle_type_id":"4","last_reported":1739539002,"current_range_meters":22400,"station_id":"ce4bgjp2rcd13ifvqbh0","pricing_plan_id":"cebpf4jnsgd1na2vs0mg"},{"bike_id":"fe4ae645-9c06-4a2e-a487-3337dce925fc","system_id":"levelo_inurba_marseille","lat":43.29298,"lon":5.37464,"is_reserved":false,"is_disabled":false,"rental_uris":{"android":"levelo://app?vid=fe4ae645-9c06-4a2e-a487-3337dce925fc","ios":"levelo://app?vid=fe4ae645-9c06-4a2e-a487-3337dce925fc"},"vehicle_type_id":"4","last_reported":1739539002,"current_range_meters":37600,"station_id":"ce4bgi12rcd13ifvqb70","pricing_plan_id":"cebpf4jnsgd1na2vs0mg"},{"bike_id":"432ba3cb-3109-40bf-a2b8-5045499f1ffa","system_id":"levelo_inurba_marseille","lat":43.2904,"lon":5.40189,"is_reserved":false,"is_disabled":false,"rental_uris":{"android":"levelo://app?vid=432ba3cb-3109-40bf-a2b8-5045499f1ffa","ios":"levelo://app?vid=432ba3cb-3109-40bf-a2b8-5045499f1ffa"},"vehicle_type_id":"4","last_reported":1739539002,"current_range_meters":17200,"station_id":"ce4bh392rcd13ifvqdm0","pricing_plan_id":"cebpf4jnsgd1na2vs0mg"},{"bike_id":"f15bad65-c5b9-42b7-b7c5-c51a0090707c","system_id":"levelo_inurba_marseille","lat":43.27913,"lon":5.39576,"is_reserved":false,"is_disabled":false,"rental_uris":{"android":"levelo://app?vid=f15bad65-c5b9-42b7-b7c5-c51a0090707c","ios":"levelo://app?vid=f15bad65-c5b9-42b7-b7c5-c51a0090707c"},"vehicle_type_id":"4","last_reported":1739539002,"current_range_meters":7200,"station_id":"ce4bhf92rcd13ifvqf40","pricing_plan_id":"cebpf4jnsgd1na2vs0mg"},{"bike_id":"03eba1d0-92c1-4e6e-a4d0-7c546f2439c0","system_id":"levelo_inurba_marseille","lat":43.337444,"lon":5.374475,"is_reserved":false,"is_disabled":true,"rental_uris":{"android":"levelo://app?vid=03eba1d0-92c1-4e6e-a4d0-7c546f2439c0","ios":"levelo://app?vid=03eba1d0-92c1-4e6e-a4d0-7c546f2439c0"},"vehicle_type_id":"4","last_reported":1739539002,"current_range_meters":0,"station_id":"","pricing_plan_id":"cebpf4jnsgd1na2vs0mg"},{"bike_id":"b96e94c3-a3eb-4ad2-9f92-61f235faea99","system_id":"levelo_inurba_marseille","lat":43.27206,"lon":5.39181,"is_reserved":false,"is_disabled":false,"rental_uris":{"android":"levelo://app?vid=b96e94c3-a3eb-4ad2-9f92-61f235faea99","ios":"levelo://app?vid=b96e94c3-a3eb-4ad2-9f92-61f235faea99"},"vehicle_type_id":"4","last_reported":1739539002,"current_range_meters":29600,"station_id":"ce4bhhp2rcd13ifvqfm0","pricing_plan_id":"cebpf4jnsgd1na2vs0mg"},{"bike_id":"ace34ffd-44df-41f7-90a6-92039b1ec78a","system_id":"levelo_inurba_marseille","lat":43.2769,"lon":5.38908,"is_reserved":false,"is_disabled":false,"rental_uris":{"android":"levelo://app?vid=ace34ffd-44df-41f7-90a6-92039b1ec78a","ios":"levelo://app?vid=ace34ffd-44df-41f7-90a6-92039b1ec78a"},"vehicle_type_id":"4","last_reported":1739539002,"current_range_meters":38800,"station_id":"ce4bhi12rcd13ifvqfo0","pricing_plan_id":"cebpf4jnsgd1na2vs0mg"},{"bike_id":"2649783d-c2b9-404f-bb47-a20d46c391e8","system_id":"levelo_inurba_marseille","lat":43.25001,"lon":5.38927,"is_reserved":false,"is_disabled":false,"rental_uris":{"android":"levelo://app?vid=2649783d-c2b9-404f-bb47-a20d46c391e8","ios":"levelo://app?vid=2649783d-c2b9-404f-bb47-a20d46c391e8"},"vehicle_type_id":"4","last_reported":1739539002,"current_range_meters":37600,"station_id":"ce4bhgp2rcd13ifvqfd0","pricing_plan_id":"cebpf4jnsgd1na2vs0mg"},{"bike_id":"9192f7da-07ce-4941-97f7-270efa9071fe","system_id":"levelo_inurba_marseille","lat":43.25584,"lon":5.38215,"is_reserved":false,"is_disabled":false,"rental_uris":{"android":"levelo://app?vid=9192f7da-07ce-4941-97f7-270efa9071fe","ios":"levelo://app?vid=9192f7da-07ce-4941-97f7-270efa9071fe"},"vehicle_type_id":"4","last_reported":1739539002,"current_range_meters":14400,"station_id":"ce4bhih2rcd13ifvqfs0","pricing_plan_id":"cebpf4jnsgd1na2vs0mg"},{"bike_id":"5016e875-414a-41bd-8f00-6a5845e39ba6","system_id":"levelo_inurba_marseille","lat":43.3081,"lon":5.43531,"is_reserved":false,"is_disabled":false,"rental_uris":{"android":"levelo://app?vid=5016e875-414a-41bd-8f00-6a5845e39ba6","ios":"levelo://app?vid=5016e875-414a-41bd-8f00-6a5845e39ba6"},"vehicle_type_id":"4","last_reported":1739539002,"current_range_meters":34800,"station_id":"ce4bhph2rcd13ifvqheg","pricing_plan_id":"cebpf4jnsgd1na2vs0mg"},{"bike_id":"30de131f-9495-4eb1-9061-cdce8ac5d64c","system_id":"levelo_inurba_marseille","lat":43.27964,"lon":5.38717,"is_reserved":false,"is_disabled":false,"rental_uris":{"android":"levelo://app?vid=30de131f-9495-4eb1-9061-cdce8ac5d64c","ios":"levelo://app?vid=30de131f-9495-4eb1-9061-cdce8ac5d64c"},"vehicle_type_id":"4","last_reported":1739539002,"current_range_meters":20000,"station_id":"ce4bhg12rcd13ifvqf80","pricing_plan_id":"cebpf4jnsgd1na2vs0mg"},{"bike_id":"79283deb-fc03-4769-aa2c-fc684820baf8","system_id":"levelo_inurba_marseille","lat":43.28428,"lon":5.3752,"is_reserved":false,"is_disabled":false,"rental_uris":{"android":"levelo://app?vid=79283deb-fc03-4769-aa2c-fc684820baf8","ios":"levelo://app?vid=79283deb-fc03-4769-aa2c-fc684820baf8"},"vehicle_type_id":"4","last_reported":1739539002,"current_range_meters":29600,"station_id":"ce4bh412rcd13ifvqds0","pricing_plan_id":"cebpf4jnsgd1na2vs0mg"},{"bike_id":"db4f80bb-9106-4b57-9781-23c16951baf1","system_id":"levelo_inurba_marseille","lat":43.31078,"lon":5.3836,"is_reserved":false,"is_disabled":true,"rental_uris":{"android":"levelo://app?vid=db4f80bb-9106-4b57-9781-23c16951baf1","ios":"levelo://app?vid=db4f80bb-9106-4b57-9781-23c16951baf1"},"vehicle_type_id":"4","last_reported":1739539002,"current_range_meters":400,"station_id":"ce4bgv92rcd13ifvqcr0","pricing_plan_id":"cebpf4jnsgd1na2vs0mg"},{"bike_id":"78b3b244-f24d-4543-a87d-c62470b1c8d7","system_id":"levelo_inurba_marseille","lat":43.23973,"lon":5.36627,"is_reserved":false,"is_disabled":false,"rental_uris":{"android":"levelo://app?vid=78b3b244-f24d-4543-a87d-c62470b1c8d7","ios":"levelo://app?vid=78b3b244-f24d-4543-a87d-c62470b1c8d7"},"vehicle_type_id":"4","last_reported":1739539002,"current_range_meters":17600,"station_id":"ce4bhi12rcd13ifvqfp0","pricing_plan_id":"cebpf4jnsgd1na2vs0mg"},{"bike_id":"1df839a8-bbf3-48a5-aa8b-c302eb7b048e","system_id":"levelo_inurba_marseille","lat":43.26505,"lon":5.39544,"is_reserved":false,"is_disabled":false,"rental_uris":{"android":"levelo://app?vid=1df839a8-bbf3-48a5-aa8b-c302eb7b048e","ios":"levelo://app?vid=1df839a8-bbf3-48a5-aa8b-c302eb7b048e"},"vehicle_type_id":"4","last_reported":1739539002,"current_range_meters":32000,"station_id":"ce4bhi12rcd13ifvqfq0","pricing_plan_id":"cebpf4jnsgd1na2vs0mg"},{"bike_id":"ae73faa4-9a8d-4d3e-93a0-8990949a054b","system_id":"levelo_inurba_marseille","lat":43.30148,"lon":5.38077,"is_reserved":false,"is_disabled":false,"rental_uris":{"android":"levelo://app?vid=ae73faa4-9a8d-4d3e-93a0-8990949a054b","ios":"levelo://app?vid=ae73faa4-9a8d-4d3e-93a0-8990949a054b"},"vehicle_type_id":"4","last_reported":1739539002,"current_range_meters":18800,"station_id":"ce4bgjp2rcd13ifvqbh0","pricing_plan_id":"cebpf4jnsgd1na2vs0mg"},{"bike_id":"bd1fbd17-5ecd-4c2a-9290-d1ffd1a70214","system_id":"levelo_inurba_marseille","lat":43.29564,"lon":5.42271,"is_reserved":false,"is_disabled":false,"rental_uris":{"android":"levelo://app?vid=bd1fbd17-5ecd-4c2a-9290-d1ffd1a70214","ios":"levelo://app?vid=bd1fbd17-5ecd-4c2a-9290-d1ffd1a70214"},"vehicle_type_id":"4","last_reported":1739539002,"current_range_meters":36800,"station_id":"ce4bhph2rcd13ifvqhdg","pricing_plan_id":"cebpf4jnsgd1na2vs0mg"},{"bike_id":"492e558b-0ce5-4984-b6b1-1d33f225a96b","system_id":"levelo_inurba_marseille","lat":43.24174,"lon":5.36409,"is_reserved":false,"is_disabled":false,"rental_uris":{"android":"levelo://app?vid=492e558b-0ce5-4984-b6b1-1d33f225a96b","ios":"levelo://app?vid=492e558b-0ce5-4984-b6b1-1d33f225a96b"},"vehicle_type_id":"4","last_reported":1739539002,"current_range_meters":37600,"station_id":"cpo36qri1sfpv3e86is0","pricing_plan_id":"cebpf4jnsgd1na2vs0mg"},{"bike_id":"8e7ffc47-222f-48a5-8360-69fa1d6df853","system_id":"levelo_inurba_marseille","lat":43.27059,"lon":5.40275,"is_reserved":false,"is_disabled":false,"rental_uris":{"android":"levelo://app?vid=8e7ffc47-222f-48a5-8360-69fa1d6df853","ios":"levelo://app?vid=8e7ffc47-222f-48a5-8360-69fa1d6df853"},"vehicle_type_id":"4","last_reported":1739539002,"current_range_meters":6000,"station_id":"ce4bhk92rcd13ifvqgc0","pricing_plan_id":"cebpf4jnsgd1na2vs0mg"},{"bike_id":"d43b36e6-07cc-462c-a6ce-50fb42be3607","system_id":"levelo_inurba_marseille","lat":43.29268,"lon":5.36857,"is_reserved":false,"is_disabled":false,"rental_uris":{"android":"levelo://app?vid=d43b36e6-07cc-462c-a6ce-50fb42be3607","ios":"levelo://app?vid=d43b36e6-07cc-462c-a6ce-50fb42be3607"},"vehicle_type_id":"4","last_reported":1739539002,"current_range_meters":36400,"station_id":"ce4bhbp2rcd13ifvqesg","pricing_plan_id":"cebpf4jnsgd1na2vs0mg"},{"bike_id":"53e65d51-dfc7-47c2-8757-53654bf6fbf2","system_id":"levelo_inurba_marseille","lat":43.29577,"lon":5.37493,"is_reserved":false,"is_disabled":false,"rental_uris":{"android":"levelo://app?vid=53e65d51-dfc7-47c2-8757-53654bf6fbf2","ios":"levelo://app?vid=53e65d51-dfc7-47c2-8757-53654bf6fbf2"},"vehicle_type_id":"4","last_reported":1739539002,"current_range_meters":34800,"station_id":"ce4bgh92rcd13ifvqb50","pricing_plan_id":"cebpf4jnsgd1na2vs0mg"},{"bike_id":"accf3bd8-f603-4328-912e-224c65fe96cf","system_id":"levelo_inurba_marseille","lat":43.279324,"lon":5.407096,"is_reserved":false,"is_disabled":false,"rental_uris":{"android":"levelo://app?vid=accf3bd8-f603-4328-912e-224c65fe96cf","ios":"levelo://app?vid=accf3bd8-f603-4328-912e-224c65fe96cf"},"vehicle_type_id":"4","last_reported":1739539002,"current_range_meters":14400,"station_id":"","pricing_plan_id":"cebpf4jnsgd1na2vs0mg"},{"bike_id":"3e364230-e791-4719-a976-7d1bf64b79a1","system_id":"levelo_inurba_marseille","lat":43.31258,"lon":5.36871,"is_reserved":false,"is_disabled":false,"rental_uris":{"android":"levelo://app?vid=3e364230-e791-4719-a976-7d1bf64b79a1","ios":"levelo://app?vid=3e364230-e791-4719-a976-7d1bf64b79a1"},"vehicle_type_id":"4","last_reported":1739539002,"current_range_meters":38800,"station_id":"ce4bgl92rcd13ifvqbq0","pricing_plan_id":"cebpf4jnsgd1na2vs0mg"},{"bike_id":"ff489825-db76-49d3-aa98-c1c0aaa6bdad","system_id":"levelo_inurba_marseille","lat":43.292287,"lon":5.36672,"is_reserved":false,"is_disabled":false,"rental_uris":{"android":"levelo://app?vid=ff489825-db76-49d3-aa98-c1c0aaa6bdad","ios":"levelo://app?vid=ff489825-db76-49d3-aa98-c1c0aaa6bdad"},"vehicle_type_id":"4","last_reported":1739539002,"current_range_meters":6800,"station_id":"","pricing_plan_id":"cebpf4jnsgd1na2vs0mg"},{"bike_id":"a4727277-3ae4-421a-a53f-26067348c27b","system_id":"levelo_inurba_marseille","lat":43.30435,"lon":5.38881,"is_reserved":false,"is_disabled":false,"rental_uris":{"android":"levelo://app?vid=a4727277-3ae4-421a-a53f-26067348c27b","ios":"levelo://app?vid=a4727277-3ae4-421a-a53f-26067348c27b"},"vehicle_type_id":"4","last_reported":1739539002,"current_range_meters":20800,"station_id":"ce4bgk12rcd13ifvqbi0","pricing_plan_id":"cebpf4jnsgd1na2vs0mg"},{"bike_id":"bb45e6ab-956b-45d2-9cff-3b77ddfcb704","system_id":"levelo_inurba_marseille","lat":43.28267,"lon":5.35063,"is_reserved":false,"is_disabled":false,"rental_uris":{"android":"levelo://app?vid=bb45e6ab-956b-45d2-9cff-3b77ddfcb704","ios":"levelo://app?vid=bb45e6ab-956b-45d2-9cff-3b77ddfcb704"},"vehicle_type_id":"4","last_reported":1739539002,"current_range_meters":29600,"station_id":"ce4bhbp2rcd13ifvqerg","pricing_plan_id":"cebpf4jnsgd1na2vs0mg"},{"bike_id":"1f20f252-6887-45f2-9881-8e93e6f221d0","system_id":"levelo_inurba_marseille","lat":43.26208,"lon":5.37895,"is_reserved":false,"is_disabled":false,"rental_uris":{"android":"levelo://app?vid=1f20f252-6887-45f2-9881-8e93e6f221d0","ios":"levelo://app?vid=1f20f252-6887-45f2-9881-8e93e6f221d0"},"vehicle_type_id":"4","last_reported":1739539002,"current_range_meters":38800,"station_id":"ce4bhjp2rcd13ifvqg90","pricing_plan_id":"cebpf4jnsgd1na2vs0mg"},{"bike_id":"682ed679-a90e-4387-91b2-96dee3f3ed99","system_id":"levelo_inurba_marseille","lat":43.25835,"lon":5.39416,"is_reserved":false,"is_disabled":false,"rental_uris":{"android":"levelo://app?vid=682ed679-a90e-4387-91b2-96dee3f3ed99","ios":"levelo://app?vid=682ed679-a90e-4387-91b2-96dee3f3ed99"},"vehicle_type_id":"4","last_reported":1739539002,"current_range_meters":3200,"station_id":"ce4bhip2rcd13ifvqft0","pricing_plan_id":"cebpf4jnsgd1na2vs0mg"},{"bike_id":"bfdbbba7-8491-41e1-b30b-f771cfcddb86","system_id":"levelo_inurba_marseille","lat":43.30542,"lon":5.36547,"is_reserved":false,"is_disabled":false,"rental_uris":{"android":"levelo://app?vid=bfdbbba7-8491-41e1-b30b-f771cfcddb86","ios":"levelo://app?vid=bfdbbba7-8491-41e1-b30b-f771cfcddb86"},"vehicle_type_id":"4","last_reported":1739539002,"current_range_meters":31200,"station_id":"ce4bgs12rcd13ifvqcag","pricing_plan_id":"cebpf4jnsgd1na2vs0mg"},{"bike_id":"64827720-c2e5-4d81-bfed-1c4da7e9a69c","system_id":"levelo_inurba_marseille","lat":43.26493,"lon":5.39542,"is_reserved":false,"is_disabled":false,"rental_uris":{"android":"levelo://app?vid=64827720-c2e5-4d81-bfed-1c4da7e9a69c","ios":"levelo://app?vid=64827720-c2e5-4d81-bfed-1c4da7e9a69c"},"vehicle_type_id":"4","last_reported":1739539002,"current_range_meters":19200,"station_id":"ce4bhi12rcd13ifvqfq0","pricing_plan_id":"cebpf4jnsgd1na2vs0mg"},{"bike_id":"31e2eb6c-3600-4621-8e7d-bfb653464c0b","system_id":"levelo_inurba_marseille","lat":43.31073,"lon":5.38358,"is_reserved":false,"is_disabled":false,"rental_uris":{"android":"levelo://app?vid=31e2eb6c-3600-4621-8e7d-bfb653464c0b","ios":"levelo://app?vid=31e2eb6c-3600-4621-8e7d-bfb653464c0b"},"vehicle_type_id":"4","last_reported":1739539002,"current_range_meters":13600,"station_id":"ce4bgv92rcd13ifvqcr0","pricing_plan_id":"cebpf4jnsgd1na2vs0mg"},{"bike_id":"6138bdc7-964d-4156-8ccb-a970dcea6ce3","system_id":"levelo_inurba_marseille","lat":43.30551,"lon":5.36529,"is_reserved":false,"is_disabled":false,"rental_uris":{"android":"levelo://app?vid=6138bdc7-964d-4156-8ccb-a970dcea6ce3","ios":"levelo://app?vid=6138bdc7-964d-4156-8ccb-a970dcea6ce3"},"vehicle_type_id":"4","last_reported":1739539002,"current_range_meters":31200,"station_id":"ce4bgs12rcd13ifvqcag","pricing_plan_id":"cebpf4jnsgd1na2vs0mg"},{"bike_id":"6fc7235b-f0a6-4bf5-aed0-5b9b2d472961","system_id":"levelo_inurba_marseille","lat":43.30536,"lon":5.36694,"is_reserved":false,"is_disabled":false,"rental_uris":{"android":"levelo://app?vid=6fc7235b-f0a6-4bf5-aed0-5b9b2d472961","ios":"levelo://app?vid=6fc7235b-f0a6-4bf5-aed0-5b9b2d472961"},"vehicle_type_id":"4","last_reported":1739539002,"current_range_meters":38000,"station_id":"ce4bgrp2rcd13ifvqc9g","pricing_plan_id":"cebpf4jnsgd1na2vs0mg"},{"bike_id":"5429a055-5c17-4863-ac08-ee7234bc7af8","system_id":"levelo_inurba_marseille","lat":43.32269,"lon":5.36832,"is_reserved":false,"is_disabled":false,"rental_uris":{"android":"levelo://app?vid=5429a055-5c17-4863-ac08-ee7234bc7af8","ios":"levelo://app?vid=5429a055-5c17-4863-ac08-ee7234bc7af8"},"vehicle_type_id":"4","last_reported":1739539002,"current_range_meters":36800,"station_id":"","pricing_plan_id":"cebpf4jnsgd1na2vs0mg"},{"bike_id":"1955166a-1167-4670-8c53-c50159104419","system_id":"levelo_inurba_marseille","lat":43.2961,"lon":5.38085,"is_reserved":false,"is_disabled":false,"rental_uris":{"android":"levelo://app?vid=1955166a-1167-4670-8c53-c50159104419","ios":"levelo://app?vid=1955166a-1167-4670-8c53-c50159104419"},"vehicle_type_id":"4","last_reported":1739539002,"current_range_meters":22800,"station_id":"ce4bgl12rcd13ifvqbo0","pricing_plan_id":"cebpf4jnsgd1na2vs0mg"},{"bike_id":"6c54bd98-99ce-4c61-b914-dd19c3edf238","system_id":"levelo_inurba_marseille","lat":43.2481,"lon":5.37446,"is_reserved":false,"is_disabled":false,"rental_uris":{"android":"levelo://app?vid=6c54bd98-99ce-4c61-b914-dd19c3edf238","ios":"levelo://app?vid=6c54bd98-99ce-4c61-b914-dd19c3edf238"},"vehicle_type_id":"4","last_reported":1739539002,"current_range_meters":38800,"station_id":"ce4bhgh2rcd13ifvqfb0","pricing_plan_id":"cebpf4jnsgd1na2vs0mg"},{"bike_id":"859c79c3-9c5b-47b3-94ad-94355d1f1457","system_id":"levelo_inurba_marseille","lat":43.24409,"lon":5.37034,"is_reserved":false,"is_disabled":false,"rental_uris":{"android":"levelo://app?vid=859c79c3-9c5b-47b3-94ad-94355d1f1457","ios":"levelo://app?vid=859c79c3-9c5b-47b3-94ad-94355d1f1457"},"vehicle_type_id":"4","last_reported":1739539002,"current_range_meters":12400,"station_id":"ce4bhhh2rcd13ifvqfk0","pricing_plan_id":"cebpf4jnsgd1na2vs0mg"},{"bike_id":"e2ea3bb9-e561-4f8d-990c-05301e7d84b3","system_id":"levelo_inurba_marseille","lat":43.3054,"lon":5.38427,"is_reserved":false,"is_disabled":false,"rental_uris":{"android":"levelo://app?vid=e2ea3bb9-e561-4f8d-990c-05301e7d84b3","ios":"levelo://app?vid=e2ea3bb9-e561-4f8d-990c-05301e7d84b3"},"vehicle_type_id":"4","last_reported":1739539002,"current_range_meters":6400,"station_id":"ce4bgg92rcd13ifvqb30","pricing_plan_id":"cebpf4jnsgd1na2vs0mg"},{"bike_id":"93b2bead-6d7d-47b0-acbc-2c4d6703f671","system_id":"levelo_inurba_marseille","lat":43.29846,"lon":5.3628,"is_reserved":false,"is_disabled":false,"rental_uris":{"android":"levelo://app?vid=93b2bead-6d7d-47b0-acbc-2c4d6703f671","ios":"levelo://app?vid=93b2bead-6d7d-47b0-acbc-2c4d6703f671"},"vehicle_type_id":"4","last_reported":1739539002,"current_range_meters":32400,"station_id":"ce4bgpp2rcd13ifvqc3g","pricing_plan_id":"cebpf4jnsgd1na2vs0mg"},{"bike_id":"c9b3dfe5-db4b-4f89-8848-36650c305632","system_id":"levelo_inurba_marseille","lat":43.30913,"lon":5.36835,"is_reserved":false,"is_disabled":false,"rental_uris":{"android":"levelo://app?vid=c9b3dfe5-db4b-4f89-8848-36650c305632","ios":"levelo://app?vid=c9b3dfe5-db4b-4f89-8848-36650c305632"},"vehicle_type_id":"4","last_reported":1739539002,"current_range_meters":23200,"station_id":"ce4bgn92rcd13ifvqbvg","pricing_plan_id":"cebpf4jnsgd1na2vs0mg"},{"bike_id":"295f0d34-7578-4260-a71b-c3a0a61c113b","system_id":"levelo_inurba_marseille","lat":43.32653,"lon":5.40993,"is_reserved":false,"is_disabled":false,"rental_uris":{"android":"levelo://app?vid=295f0d34-7578-4260-a71b-c3a0a61c113b","ios":"levelo://app?vid=295f0d34-7578-4260-a71b-c3a0a61c113b"},"vehicle_type_id":"4","last_reported":1739539002,"current_range_meters":38800,"station_id":"ce4bhpp2rcd13ifvqhgg","pricing_plan_id":"cebpf4jnsgd1na2vs0mg"},{"bike_id":"105bddd1-b447-429c-8941-32a0468f5380","system_id":"levelo_inurba_marseille","lat":43.28349,"lon":5.38114,"is_reserved":false,"is_disabled":false,"rental_uris":{"android":"levelo://app?vid=105bddd1-b447-429c-8941-32a0468f5380","ios":"levelo://app?vid=105bddd1-b447-429c-8941-32a0468f5380"},"vehicle_type_id":"4","last_reported":1739539002,"current_range_meters":29600,"station_id":"ce4bh412rcd13ifvqdr0","pricing_plan_id":"cebpf4jnsgd1na2vs0mg"},{"bike_id":"3e8a72e9-7838-4f87-8a4c-629d225f5004","system_id":"levelo_inurba_marseille","lat":43.29009,"lon":5.35611,"is_reserved":false,"is_disabled":false,"rental_uris":{"android":"levelo://app?vid=3e8a72e9-7838-4f87-8a4c-629d225f5004","ios":"levelo://app?vid=3e8a72e9-7838-4f87-8a4c-629d225f5004"},"vehicle_type_id":"4","last_reported":1739539002,"current_range_meters":8800,"station_id":"ce4bhb92rcd13ifvqen0","pricing_plan_id":"cebpf4jnsgd1na2vs0mg"},{"bike_id":"fd20bddc-d49d-41f9-a9c1-d3d9b04f7a45","system_id":"levelo_inurba_marseille","lat":43.31163,"lon":5.36799,"is_reserved":false,"is_disabled":false,"rental_uris":{"android":"levelo://app?vid=fd20bddc-d49d-41f9-a9c1-d3d9b04f7a45","ios":"levelo://app?vid=fd20bddc-d49d-41f9-a9c1-d3d9b04f7a45"},"vehicle_type_id":"4","last_reported":1739539002,"current_range_meters":38800,"station_id":"ce4bgl92rcd13ifvqbq0","pricing_plan_id":"cebpf4jnsgd1na2vs0mg"},{"bike_id":"c9364e2c-25d0-40f5-a3f5-7367be0c3ee4","system_id":"levelo_inurba_marseille","lat":43.28616,"lon":5.35103,"is_reserved":false,"is_disabled":false,"rental_uris":{"android":"levelo://app?vid=c9364e2c-25d0-40f5-a3f5-7367be0c3ee4","ios":"levelo://app?vid=c9364e2c-25d0-40f5-a3f5-7367be0c3ee4"},"vehicle_type_id":"4","last_reported":1739539002,"current_range_meters":33600,"station_id":"ce4bhch2rcd13ifvqeug","pricing_plan_id":"cebpf4jnsgd1na2vs0mg"},{"bike_id":"30a0387a-b4f9-4e4b-9234-535a916f7f58","system_id":"levelo_inurba_marseille","lat":43.26208,"lon":5.37929,"is_reserved":false,"is_disabled":false,"rental_uris":{"android":"levelo://app?vid=30a0387a-b4f9-4e4b-9234-535a916f7f58","ios":"levelo://app?vid=30a0387a-b4f9-4e4b-9234-535a916f7f58"},"vehicle_type_id":"4","last_reported":1739539002,"current_range_meters":3600,"station_id":"ce4bhjp2rcd13ifvqg90","pricing_plan_id":"cebpf4jnsgd1na2vs0mg"},{"bike_id":"dc7e8a01-ed84-454a-81c2-a72d8c495598","system_id":"levelo_inurba_marseille","lat":43.24998,"lon":5.38931,"is_reserved":false,"is_disabled":false,"rental_uris":{"android":"levelo://app?vid=dc7e8a01-ed84-454a-81c2-a72d8c495598","ios":"levelo://app?vid=dc7e8a01-ed84-454a-81c2-a72d8c495598"},"vehicle_type_id":"4","last_reported":1739539002,"current_range_meters":4800,"station_id":"ce4bhgp2rcd13ifvqfd0","pricing_plan_id":"cebpf4jnsgd1na2vs0mg"},{"bike_id":"9fe907ee-be20-4d9f-97d2-4d173f819e3b","system_id":"levelo_inurba_marseille","lat":43.29612,"lon":5.37155,"is_reserved":false,"is_disabled":false,"rental_uris":{"android":"levelo://app?vid=9fe907ee-be20-4d9f-97d2-4d173f819e3b","ios":"levelo://app?vid=9fe907ee-be20-4d9f-97d2-4d173f819e3b"},"vehicle_type_id":"4","last_reported":1739539002,"current_range_meters":8000,"station_id":"ce4bgnh2rcd13ifvqc0g","pricing_plan_id":"cebpf4jnsgd1na2vs0mg"},{"bike_id":"d6f38d8d-bb5a-4b27-b5d4-6029f0946ece","system_id":"levelo_inurba_marseille","lat":43.2747,"lon":5.4352,"is_reserved":false,"is_disabled":false,"rental_uris":{"android":"levelo://app?vid=d6f38d8d-bb5a-4b27-b5d4-6029f0946ece","ios":"levelo://app?vid=d6f38d8d-bb5a-4b27-b5d4-6029f0946ece"},"vehicle_type_id":"4","last_reported":1739539002,"current_range_meters":8400,"station_id":"","pricing_plan_id":"cebpf4jnsgd1na2vs0mg"},{"bike_id":"a8cb174b-a028-4d1e-9d57-786b91606ee0","system_id":"levelo_inurba_marseille","lat":43.27203,"lon":5.40989,"is_reserved":false,"is_disabled":false,"rental_uris":{"android":"levelo://app?vid=a8cb174b-a028-4d1e-9d57-786b91606ee0","ios":"levelo://app?vid=a8cb174b-a028-4d1e-9d57-786b91606ee0"},"vehicle_type_id":"4","last_reported":1739539002,"current_range_meters":24400,"station_id":"ce4bhl12rcd13ifvqgf0","pricing_plan_id":"cebpf4jnsgd1na2vs0mg"},{"bike_id":"a78f0b43-971e-4b07-b8b2-1510427b6271","system_id":"levelo_inurba_marseille","lat":43.3014,"lon":5.37425,"is_reserved":false,"is_disabled":false,"rental_uris":{"android":"levelo://app?vid=a78f0b43-971e-4b07-b8b2-1510427b6271","ios":"levelo://app?vid=a78f0b43-971e-4b07-b8b2-1510427b6271"},"vehicle_type_id":"4","last_reported":1739539002,"current_range_meters":5600,"station_id":"ce4bgs92rcd13ifvqcc0","pricing_plan_id":"cebpf4jnsgd1na2vs0mg"},{"bike_id":"eb74081f-8035-495f-a073-abb8444b5eb2","system_id":"levelo_inurba_marseille","lat":43.239587,"lon":5.366307,"is_reserved":false,"is_disabled":false,"rental_uris":{"android":"levelo://app?vid=eb74081f-8035-495f-a073-abb8444b5eb2","ios":"levelo://app?vid=eb74081f-8035-495f-a073-abb8444b5eb2"},"vehicle_type_id":"4","last_reported":1739539002,"current_range_meters":36400,"station_id":"ce4bhi12rcd13ifvqfp0","pricing_plan_id":"cebpf4jnsgd1na2vs0mg"},{"bike_id":"e103375e-2969-40df-823a-e17faf1e7759","system_id":"levelo_inurba_marseille","lat":43.2957,"lon":5.3752,"is_reserved":false,"is_disabled":false,"rental_uris":{"android":"levelo://app?vid=e103375e-2969-40df-823a-e17faf1e7759","ios":"levelo://app?vid=e103375e-2969-40df-823a-e17faf1e7759"},"vehicle_type_id":"4","last_reported":1739539002,"current_range_meters":38800,"station_id":"ce4bgh92rcd13ifvqb50","pricing_plan_id":"cebpf4jnsgd1na2vs0mg"},{"bike_id":"d55a9866-f32d-4ff7-8223-0b3fcd8e3341","system_id":"levelo_inurba_marseille","lat":43.3248,"lon":5.36589,"is_reserved":false,"is_disabled":false,"rental_uris":{"android":"levelo://app?vid=d55a9866-f32d-4ff7-8223-0b3fcd8e3341","ios":"levelo://app?vid=d55a9866-f32d-4ff7-8223-0b3fcd8e3341"},"vehicle_type_id":"4","last_reported":1739539002,"current_range_meters":30400,"station_id":"ce4bhs12rcd13ifvqhvg","pricing_plan_id":"cebpf4jnsgd1na2vs0mg"},{"bike_id":"6e58a69c-2a4e-4c49-840d-6e728a603acb","system_id":"levelo_inurba_marseille","lat":43.23074,"lon":5.35486,"is_reserved":false,"is_disabled":false,"rental_uris":{"android":"levelo://app?vid=6e58a69c-2a4e-4c49-840d-6e728a603acb","ios":"levelo://app?vid=6e58a69c-2a4e-4c49-840d-6e728a603acb"},"vehicle_type_id":"4","last_reported":1739539002,"current_range_meters":36800,"station_id":"cpo3342slgdg3j2ifvpg","pricing_plan_id":"cebpf4jnsgd1na2vs0mg"},{"bike_id":"bac1ce9a-935c-4598-8f5d-5e5fde99cd5a","system_id":"levelo_inurba_marseille","lat":43.25115,"lon":5.40322,"is_reserved":false,"is_disabled":false,"rental_uris":{"android":"levelo://app?vid=bac1ce9a-935c-4598-8f5d-5e5fde99cd5a","ios":"levelo://app?vid=bac1ce9a-935c-4598-8f5d-5e5fde99cd5a"},"vehicle_type_id":"4","last_reported":1739539002,"current_range_meters":9600,"station_id":"ce4bhlh2rcd13ifvqgig","pricing_plan_id":"cebpf4jnsgd1na2vs0mg"},{"bike_id":"c127aaac-4087-4ce8-89f8-269c7bcff411","system_id":"levelo_inurba_marseille","lat":43.26033,"lon":5.37548,"is_reserved":false,"is_disabled":false,"rental_uris":{"android":"levelo://app?vid=c127aaac-4087-4ce8-89f8-269c7bcff411","ios":"levelo://app?vid=c127aaac-4087-4ce8-89f8-269c7bcff411"},"vehicle_type_id":"4","last_reported":1739539002,"current_range_meters":25600,"station_id":"ce4bhgh2rcd13ifvqfa0","pricing_plan_id":"cebpf4jnsgd1na2vs0mg"},{"bike_id":"f10bbcd9-527d-4ed8-aa14-b1723fa1e0af","system_id":"levelo_inurba_marseille","lat":43.24997,"lon":5.38938,"is_reserved":false,"is_disabled":false,"rental_uris":{"android":"levelo://app?vid=f10bbcd9-527d-4ed8-aa14-b1723fa1e0af","ios":"levelo://app?vid=f10bbcd9-527d-4ed8-aa14-b1723fa1e0af"},"vehicle_type_id":"4","last_reported":1739539002,"current_range_meters":24400,"station_id":"ce4bhgp2rcd13ifvqfd0","pricing_plan_id":"cebpf4jnsgd1na2vs0mg"},{"bike_id":"8afc87c0-1fce-4e30-bf68-d14746764f12","system_id":"levelo_inurba_marseille","lat":43.31287,"lon":5.36859,"is_reserved":false,"is_disabled":false,"rental_uris":{"android":"levelo://app?vid=8afc87c0-1fce-4e30-bf68-d14746764f12","ios":"levelo://app?vid=8afc87c0-1fce-4e30-bf68-d14746764f12"},"vehicle_type_id":"4","last_reported":1739539002,"current_range_meters":38800,"station_id":"ce4bgl92rcd13ifvqbq0","pricing_plan_id":"cebpf4jnsgd1na2vs0mg"},{"bike_id":"4450d397-c7c4-4c68-aed9-fa811598c082","system_id":"levelo_inurba_marseille","lat":43.32533,"lon":5.36473,"is_reserved":false,"is_disabled":false,"rental_uris":{"android":"levelo://app?vid=4450d397-c7c4-4c68-aed9-fa811598c082","ios":"levelo://app?vid=4450d397-c7c4-4c68-aed9-fa811598c082"},"vehicle_type_id":"4","last_reported":1739539002,"current_range_meters":30400,"station_id":"","pricing_plan_id":"cebpf4jnsgd1na2vs0mg"},{"bike_id":"3bc32949-5704-4209-8d6f-78a742f0e2a8","system_id":"levelo_inurba_marseille","lat":43.31173,"lon":5.38709,"is_reserved":false,"is_disabled":false,"rental_uris":{"android":"levelo://app?vid=3bc32949-5704-4209-8d6f-78a742f0e2a8","ios":"levelo://app?vid=3bc32949-5704-4209-8d6f-78a742f0e2a8"},"vehicle_type_id":"4","last_reported":1739539002,"current_range_meters":20000,"station_id":"ce4bgv12rcd13ifvqcp0","pricing_plan_id":"cebpf4jnsgd1na2vs0mg"},{"bike_id":"ce1adda1-33d4-455c-8b95-6fde8c6286e8","system_id":"levelo_inurba_marseille","lat":43.28891,"lon":5.3587,"is_reserved":false,"is_disabled":false,"rental_uris":{"android":"levelo://app?vid=ce1adda1-33d4-455c-8b95-6fde8c6286e8","ios":"levelo://app?vid=ce1adda1-33d4-455c-8b95-6fde8c6286e8"},"vehicle_type_id":"4","last_reported":1739539002,"current_range_meters":38800,"station_id":"ce4bhb12rcd13ifvqem0","pricing_plan_id":"cebpf4jnsgd1na2vs0mg"},{"bike_id":"36ac1b33-f00e-4eb9-b212-c06976f935f5","system_id":"levelo_inurba_marseille","lat":43.27671,"lon":5.38905,"is_reserved":false,"is_disabled":false,"rental_uris":{"android":"levelo://app?vid=36ac1b33-f00e-4eb9-b212-c06976f935f5","ios":"levelo://app?vid=36ac1b33-f00e-4eb9-b212-c06976f935f5"},"vehicle_type_id":"4","last_reported":1739539002,"current_range_meters":30400,"station_id":"ce4bhi12rcd13ifvqfo0","pricing_plan_id":"cebpf4jnsgd1na2vs0mg"},{"bike_id":"67fb0345-8e61-456a-b864-f19dbba85e32","system_id":"levelo_inurba_marseille","lat":43.27835,"lon":5.40719,"is_reserved":false,"is_disabled":false,"rental_uris":{"android":"levelo://app?vid=67fb0345-8e61-456a-b864-f19dbba85e32","ios":"levelo://app?vid=67fb0345-8e61-456a-b864-f19dbba85e32"},"vehicle_type_id":"4","last_reported":1739539002,"current_range_meters":12800,"station_id":"ce4bhnh2rcd13ifvqgtg","pricing_plan_id":"cebpf4jnsgd1na2vs0mg"},{"bike_id":"6b656e81-a99f-458b-b133-2509327cf097","system_id":"levelo_inurba_marseille","lat":43.28299,"lon":5.36072,"is_reserved":false,"is_disabled":false,"rental_uris":{"android":"levelo://app?vid=6b656e81-a99f-458b-b133-2509327cf097","ios":"levelo://app?vid=6b656e81-a99f-458b-b133-2509327cf097"},"vehicle_type_id":"4","last_reported":1739539002,"current_range_meters":14000,"station_id":"","pricing_plan_id":"cebpf4jnsgd1na2vs0mg"},{"bike_id":"fb27585c-d37a-46e8-9dff-7cf672c65eab","system_id":"levelo_inurba_marseille","lat":43.3014,"lon":5.37408,"is_reserved":false,"is_disabled":false,"rental_uris":{"android":"levelo://app?vid=fb27585c-d37a-46e8-9dff-7cf672c65eab","ios":"levelo://app?vid=fb27585c-d37a-46e8-9dff-7cf672c65eab"},"vehicle_type_id":"4","last_reported":1739539002,"current_range_meters":25200,"station_id":"ce4bgs92rcd13ifvqcc0","pricing_plan_id":"cebpf4jnsgd1na2vs0mg"},{"bike_id":"b64cb318-9a9d-45df-b9e1-d16ce258851f","system_id":"levelo_inurba_marseille","lat":43.28166,"lon":5.42621,"is_reserved":false,"is_disabled":true,"rental_uris":{"android":"levelo://app?vid=b64cb318-9a9d-45df-b9e1-d16ce258851f","ios":"levelo://app?vid=b64cb318-9a9d-45df-b9e1-d16ce258851f"},"vehicle_type_id":"4","last_reported":1739539002,"current_range_meters":1200,"station_id":"ce4bhnh2rcd13ifvqgug","pricing_plan_id":"cebpf4jnsgd1na2vs0mg"},{"bike_id":"77c8b1ec-f5c0-4293-827a-c8e3c2f6a9bd","system_id":"levelo_inurba_marseille","lat":43.30934,"lon":5.4014,"is_reserved":false,"is_disabled":false,"rental_uris":{"android":"levelo://app?vid=77c8b1ec-f5c0-4293-827a-c8e3c2f6a9bd","ios":"levelo://app?vid=77c8b1ec-f5c0-4293-827a-c8e3c2f6a9bd"},"vehicle_type_id":"4","last_reported":1739539002,"current_range_meters":17600,"station_id":"ce4bgvp2rcd13ifvqct0","pricing_plan_id":"cebpf4jnsgd1na2vs0mg"},{"bike_id":"e37e3851-2ffa-40ab-a685-f0087f097083","system_id":"levelo_inurba_marseille","lat":43.26697,"lon":5.38273,"is_reserved":false,"is_disabled":true,"rental_uris":{"android":"levelo://app?vid=e37e3851-2ffa-40ab-a685-f0087f097083","ios":"levelo://app?vid=e37e3851-2ffa-40ab-a685-f0087f097083"},"vehicle_type_id":"4","last_reported":1739539002,"current_range_meters":30800,"station_id":"ce4bhg92rcd13ifvqf90","pricing_plan_id":"cebpf4jnsgd1na2vs0mg"},{"bike_id":"f8257504-a063-43b5-a92d-0d990299e875","system_id":"levelo_inurba_marseille","lat":43.33017,"lon":5.39026,"is_reserved":false,"is_disabled":false,"rental_uris":{"android":"levelo://app?vid=f8257504-a063-43b5-a92d-0d990299e875","ios":"levelo://app?vid=f8257504-a063-43b5-a92d-0d990299e875"},"vehicle_type_id":"4","last_reported":1739539002,"current_range_meters":33600,"station_id":"ce4bhr92rcd13ifvqhrg","pricing_plan_id":"cebpf4jnsgd1na2vs0mg"},{"bike_id":"587e653a-9aae-4178-8364-556423f1fc22","system_id":"levelo_inurba_marseille","lat":43.31232,"lon":5.36868,"is_reserved":false,"is_disabled":false,"rental_uris":{"android":"levelo://app?vid=587e653a-9aae-4178-8364-556423f1fc22","ios":"levelo://app?vid=587e653a-9aae-4178-8364-556423f1fc22"},"vehicle_type_id":"4","last_reported":1739539002,"current_range_meters":24800,"station_id":"ce4bgl92rcd13ifvqbq0","pricing_plan_id":"cebpf4jnsgd1na2vs0mg"},{"bike_id":"62862006-05b4-4c32-b74d-3d73ca0f3a49","system_id":"levelo_inurba_marseille","lat":43.29493,"lon":5.36395,"is_reserved":false,"is_disabled":true,"rental_uris":{"android":"levelo://app?vid=62862006-05b4-4c32-b74d-3d73ca0f3a49","ios":"levelo://app?vid=62862006-05b4-4c32-b74d-3d73ca0f3a49"},"vehicle_type_id":"4","last_reported":1739539002,"current_range_meters":26800,"station_id":"","pricing_plan_id":"cebpf4jnsgd1na2vs0mg"},{"bike_id":"6b6c98e6-54ce-4c6c-9ece-da9fcd78818d","system_id":"levelo_inurba_marseille","lat":43.287032,"lon":5.373798,"is_reserved":false,"is_disabled":false,"rental_uris":{"android":"levelo://app?vid=6b6c98e6-54ce-4c6c-9ece-da9fcd78818d","ios":"levelo://app?vid=6b6c98e6-54ce-4c6c-9ece-da9fcd78818d"},"vehicle_type_id":"4","last_reported":1739539002,"current_range_meters":38400,"station_id":"ce4bh3p2rcd13ifvqdq0","pricing_plan_id":"cebpf4jnsgd1na2vs0mg"},{"bike_id":"63dcde03-1c93-4b06-98de-c17e2e2a1b80","system_id":"levelo_inurba_marseille","lat":43.30366,"lon":5.41875,"is_reserved":false,"is_disabled":false,"rental_uris":{"android":"levelo://app?vid=63dcde03-1c93-4b06-98de-c17e2e2a1b80","ios":"levelo://app?vid=63dcde03-1c93-4b06-98de-c17e2e2a1b80"},"vehicle_type_id":"4","last_reported":1739539002,"current_range_meters":39200,"station_id":"ce4bhop2rcd13ifvqh7g","pricing_plan_id":"cebpf4jnsgd1na2vs0mg"},{"bike_id":"139b1821-818d-400b-8b0a-fe12116d1527","system_id":"levelo_inurba_marseille","lat":43.29299,"lon":5.37466,"is_reserved":false,"is_disabled":false,"rental_uris":{"android":"levelo://app?vid=139b1821-818d-400b-8b0a-fe12116d1527","ios":"levelo://app?vid=139b1821-818d-400b-8b0a-fe12116d1527"},"vehicle_type_id":"4","last_reported":1739539002,"current_range_meters":33200,"station_id":"ce4bgi12rcd13ifvqb70","pricing_plan_id":"cebpf4jnsgd1na2vs0mg"},{"bike_id":"adc5789e-11de-4053-b1c1-d27094fe8570","system_id":"levelo_inurba_marseille","lat":43.29792,"lon":5.38102,"is_reserved":false,"is_disabled":false,"rental_uris":{"android":"levelo://app?vid=adc5789e-11de-4053-b1c1-d27094fe8570","ios":"levelo://app?vid=adc5789e-11de-4053-b1c1-d27094fe8570"},"vehicle_type_id":"4","last_reported":1739539002,"current_range_meters":18000,"station_id":"ce4bgip2rcd13ifvqbb0","pricing_plan_id":"cebpf4jnsgd1na2vs0mg"},{"bike_id":"31a85c5f-b405-4e7f-bedd-5a07b953362e","system_id":"levelo_inurba_marseille","lat":43.30895,"lon":5.3967,"is_reserved":false,"is_disabled":false,"rental_uris":{"android":"levelo://app?vid=31a85c5f-b405-4e7f-bedd-5a07b953362e","ios":"levelo://app?vid=31a85c5f-b405-4e7f-bedd-5a07b953362e"},"vehicle_type_id":"4","last_reported":1739539002,"current_range_meters":20400,"station_id":"ce4bh012rcd13ifvqcv0","pricing_plan_id":"cebpf4jnsgd1na2vs0mg"},{"bike_id":"ab2c451b-0b6f-4b68-a053-2964eea0fd18","system_id":"levelo_inurba_marseille","lat":43.28838,"lon":5.39313,"is_reserved":false,"is_disabled":false,"rental_uris":{"android":"levelo://app?vid=ab2c451b-0b6f-4b68-a053-2964eea0fd18","ios":"levelo://app?vid=ab2c451b-0b6f-4b68-a053-2964eea0fd18"},"vehicle_type_id":"4","last_reported":1739539002,"current_range_meters":22000,"station_id":"ce4bh2p2rcd13ifvqdi0","pricing_plan_id":"cebpf4jnsgd1na2vs0mg"},{"bike_id":"e031351b-efdb-4640-8255-b69e1640bbff","system_id":"levelo_inurba_marseille","lat":43.24163,"lon":5.36394,"is_reserved":false,"is_disabled":false,"rental_uris":{"android":"levelo://app?vid=e031351b-efdb-4640-8255-b69e1640bbff","ios":"levelo://app?vid=e031351b-efdb-4640-8255-b69e1640bbff"},"vehicle_type_id":"4","last_reported":1739539002,"current_range_meters":34000,"station_id":"cpo36qri1sfpv3e86is0","pricing_plan_id":"cebpf4jnsgd1na2vs0mg"},{"bike_id":"e9f11eaf-e630-4af6-b92e-f960f7592e9a","system_id":"levelo_inurba_marseille","lat":43.29623,"lon":5.37712,"is_reserved":false,"is_disabled":false,"rental_uris":{"android":"levelo://app?vid=e9f11eaf-e630-4af6-b92e-f960f7592e9a","ios":"levelo://app?vid=e9f11eaf-e630-4af6-b92e-f960f7592e9a"},"vehicle_type_id":"4","last_reported":1739539002,"current_range_meters":12400,"station_id":"ce4bgi92rcd13ifvqb90","pricing_plan_id":"cebpf4jnsgd1na2vs0mg"},{"bike_id":"469ec595-d539-44ce-b5e7-b970dbdf72ba","system_id":"levelo_inurba_marseille","lat":43.32082,"lon":5.41547,"is_reserved":false,"is_disabled":false,"rental_uris":{"android":"levelo://app?vid=469ec595-d539-44ce-b5e7-b970dbdf72ba","ios":"levelo://app?vid=469ec595-d539-44ce-b5e7-b970dbdf72ba"},"vehicle_type_id":"4","last_reported":1739539002,"current_range_meters":39200,"station_id":"ce4bhq92rcd13ifvqhkg","pricing_plan_id":"cebpf4jnsgd1na2vs0mg"},{"bike_id":"ee566f3d-0e78-4ced-ac1b-e3b33c18e89e","system_id":"levelo_inurba_marseille","lat":43.243922,"lon":5.370544,"is_reserved":false,"is_disabled":false,"rental_uris":{"android":"levelo://app?vid=ee566f3d-0e78-4ced-ac1b-e3b33c18e89e","ios":"levelo://app?vid=ee566f3d-0e78-4ced-ac1b-e3b33c18e89e"},"vehicle_type_id":"4","last_reported":1739539002,"current_range_meters":17600,"station_id":"ce4bhhh2rcd13ifvqfk0","pricing_plan_id":"cebpf4jnsgd1na2vs0mg"},{"bike_id":"da7f2fae-5747-45f2-981c-2899a6e7dc68","system_id":"levelo_inurba_marseille","lat":43.25602,"lon":5.38278,"is_reserved":false,"is_disabled":false,"rental_uris":{"android":"levelo://app?vid=da7f2fae-5747-45f2-981c-2899a6e7dc68","ios":"levelo://app?vid=da7f2fae-5747-45f2-981c-2899a6e7dc68"},"vehicle_type_id":"4","last_reported":1739539002,"current_range_meters":25600,"station_id":"ce4bhih2rcd13ifvqfs0","pricing_plan_id":"cebpf4jnsgd1na2vs0mg"},{"bike_id":"fe2f6787-4ebb-4359-8526-74fd6a592b79","system_id":"levelo_inurba_marseille","lat":43.26934,"lon":5.38922,"is_reserved":false,"is_disabled":false,"rental_uris":{"android":"levelo://app?vid=fe2f6787-4ebb-4359-8526-74fd6a592b79","ios":"levelo://app?vid=fe2f6787-4ebb-4359-8526-74fd6a592b79"},"vehicle_type_id":"4","last_reported":1739539002,"current_range_meters":12000,"station_id":"ce4bhhh2rcd13ifvqfl0","pricing_plan_id":"cebpf4jnsgd1na2vs0mg"},{"bike_id":"c640fc38-e54b-4af1-92ad-d2c50e20e738","system_id":"levelo_inurba_marseille","lat":43.24991,"lon":5.38945,"is_reserved":false,"is_disabled":false,"rental_uris":{"android":"levelo://app?vid=c640fc38-e54b-4af1-92ad-d2c50e20e738","ios":"levelo://app?vid=c640fc38-e54b-4af1-92ad-d2c50e20e738"},"vehicle_type_id":"4","last_reported":1739539002,"current_range_meters":38800,"station_id":"ce4bhgp2rcd13ifvqfd0","pricing_plan_id":"cebpf4jnsgd1na2vs0mg"},{"bike_id":"5befaa08-25a5-49bd-afcd-8980db8935aa","system_id":"levelo_inurba_marseille","lat":43.29972,"lon":5.37177,"is_reserved":false,"is_disabled":false,"rental_uris":{"android":"levelo://app?vid=5befaa08-25a5-49bd-afcd-8980db8935aa","ios":"levelo://app?vid=5befaa08-25a5-49bd-afcd-8980db8935aa"},"vehicle_type_id":"4","last_reported":1739539002,"current_range_meters":38800,"station_id":"ce4bgr92rcd13ifvqc7g","pricing_plan_id":"cebpf4jnsgd1na2vs0mg"},{"bike_id":"d2390134-cb0a-4e75-9b5a-5182f3230d9e","system_id":"levelo_inurba_marseille","lat":43.30156,"lon":5.37411,"is_reserved":false,"is_disabled":false,"rental_uris":{"android":"levelo://app?vid=d2390134-cb0a-4e75-9b5a-5182f3230d9e","ios":"levelo://app?vid=d2390134-cb0a-4e75-9b5a-5182f3230d9e"},"vehicle_type_id":"4","last_reported":1739539002,"current_range_meters":39200,"station_id":"ce4bgs92rcd13ifvqcc0","pricing_plan_id":"cebpf4jnsgd1na2vs0mg"},{"bike_id":"2924424d-634e-4af5-8f50-3da5a42450ed","system_id":"levelo_inurba_marseille","lat":43.29562,"lon":5.37507,"is_reserved":false,"is_disabled":false,"rental_uris":{"android":"levelo://app?vid=2924424d-634e-4af5-8f50-3da5a42450ed","ios":"levelo://app?vid=2924424d-634e-4af5-8f50-3da5a42450ed"},"vehicle_type_id":"4","last_reported":1739539002,"current_range_meters":33200,"station_id":"ce4bgkp2rcd13ifvqbmg","pricing_plan_id":"cebpf4jnsgd1na2vs0mg"},{"bike_id":"1d58e8a2-89cc-4ff7-86bb-66320105d9ba","system_id":"levelo_inurba_marseille","lat":43.27805,"lon":5.40709,"is_reserved":false,"is_disabled":false,"rental_uris":{"android":"levelo://app?vid=1d58e8a2-89cc-4ff7-86bb-66320105d9ba","ios":"levelo://app?vid=1d58e8a2-89cc-4ff7-86bb-66320105d9ba"},"vehicle_type_id":"4","last_reported":1739539002,"current_range_meters":38800,"station_id":"ce4bhnh2rcd13ifvqgtg","pricing_plan_id":"cebpf4jnsgd1na2vs0mg"},{"bike_id":"523cf9ea-40e8-4b12-b781-d7a3dab4dcd0","system_id":"levelo_inurba_marseille","lat":43.30161,"lon":5.38081,"is_reserved":false,"is_disabled":false,"rental_uris":{"android":"levelo://app?vid=523cf9ea-40e8-4b12-b781-d7a3dab4dcd0","ios":"levelo://app?vid=523cf9ea-40e8-4b12-b781-d7a3dab4dcd0"},"vehicle_type_id":"4","last_reported":1739539002,"current_range_meters":30800,"station_id":"ce4bgjp2rcd13ifvqbh0","pricing_plan_id":"cebpf4jnsgd1na2vs0mg"},{"bike_id":"841237f9-4828-433b-96af-b0e65c63577e","system_id":"levelo_inurba_marseille","lat":43.30907,"lon":5.36844,"is_reserved":false,"is_disabled":false,"rental_uris":{"android":"levelo://app?vid=841237f9-4828-433b-96af-b0e65c63577e","ios":"levelo://app?vid=841237f9-4828-433b-96af-b0e65c63577e"},"vehicle_type_id":"4","last_reported":1739539002,"current_range_meters":36800,"station_id":"ce4bgn92rcd13ifvqbvg","pricing_plan_id":"cebpf4jnsgd1na2vs0mg"},{"bike_id":"c6d1a7d2-ee8f-4a00-a534-fb7da15e633b","system_id":"levelo_inurba_marseille","lat":43.29303,"lon":5.37459,"is_reserved":false,"is_disabled":true,"rental_uris":{"android":"levelo://app?vid=c6d1a7d2-ee8f-4a00-a534-fb7da15e633b","ios":"levelo://app?vid=c6d1a7d2-ee8f-4a00-a534-fb7da15e633b"},"vehicle_type_id":"4","last_reported":1739539002,"current_range_meters":0,"station_id":"ce4bgi12rcd13ifvqb70","pricing_plan_id":"cebpf4jnsgd1na2vs0mg"},{"bike_id":"170d2661-6fd4-416a-bed8-edf435474169","system_id":"levelo_inurba_marseille","lat":43.24074,"lon":5.37748,"is_reserved":false,"is_disabled":false,"rental_uris":{"android":"levelo://app?vid=170d2661-6fd4-416a-bed8-edf435474169","ios":"levelo://app?vid=170d2661-6fd4-416a-bed8-edf435474169"},"vehicle_type_id":"4","last_reported":1739539002,"current_range_meters":31200,"station_id":"ce4bhnp2rcd13ifvqgvg","pricing_plan_id":"cebpf4jnsgd1na2vs0mg"},{"bike_id":"e5ef80dd-4702-46bb-bfde-5dd61590a716","system_id":"levelo_inurba_marseille","lat":43.29274,"lon":5.40904,"is_reserved":false,"is_disabled":false,"rental_uris":{"android":"levelo://app?vid=e5ef80dd-4702-46bb-bfde-5dd61590a716","ios":"levelo://app?vid=e5ef80dd-4702-46bb-bfde-5dd61590a716"},"vehicle_type_id":"4","last_reported":1739539002,"current_range_meters":36800,"station_id":"ce4bh192rcd13ifvqdc0","pricing_plan_id":"cebpf4jnsgd1na2vs0mg"},{"bike_id":"a0f3b484-b0e7-4ed2-8c7c-86fc1fec1e14","system_id":"levelo_inurba_marseille","lat":43.301757,"lon":5.366105,"is_reserved":false,"is_disabled":false,"rental_uris":{"android":"levelo://app?vid=a0f3b484-b0e7-4ed2-8c7c-86fc1fec1e14","ios":"levelo://app?vid=a0f3b484-b0e7-4ed2-8c7c-86fc1fec1e14"},"vehicle_type_id":"4","last_reported":1739539002,"current_range_meters":36000,"station_id":"ce4bgrh2rcd13ifvqc8g","pricing_plan_id":"cebpf4jnsgd1na2vs0mg"},{"bike_id":"351e2369-279c-485b-a2c1-023f7d60c956","system_id":"levelo_inurba_marseille","lat":43.29004,"lon":5.35615,"is_reserved":false,"is_disabled":false,"rental_uris":{"android":"levelo://app?vid=351e2369-279c-485b-a2c1-023f7d60c956","ios":"levelo://app?vid=351e2369-279c-485b-a2c1-023f7d60c956"},"vehicle_type_id":"4","last_reported":1739539002,"current_range_meters":32400,"station_id":"ce4bhb92rcd13ifvqen0","pricing_plan_id":"cebpf4jnsgd1na2vs0mg"},{"bike_id":"85d5fd6e-fe8b-4df5-b8c3-cebff5983a35","system_id":"levelo_inurba_marseille","lat":43.28673,"lon":5.35159,"is_reserved":false,"is_disabled":false,"rental_uris":{"android":"levelo://app?vid=85d5fd6e-fe8b-4df5-b8c3-cebff5983a35","ios":"levelo://app?vid=85d5fd6e-fe8b-4df5-b8c3-cebff5983a35"},"vehicle_type_id":"4","last_reported":1739539002,"current_range_meters":16000,"station_id":"ce4bhch2rcd13ifvqeug","pricing_plan_id":"cebpf4jnsgd1na2vs0mg"},{"bike_id":"d416e95d-a967-4111-8f22-5cff311f8b65","system_id":"levelo_inurba_marseille","lat":43.30202,"lon":5.39472,"is_reserved":false,"is_disabled":true,"rental_uris":{"android":"levelo://app?vid=d416e95d-a967-4111-8f22-5cff311f8b65","ios":"levelo://app?vid=d416e95d-a967-4111-8f22-5cff311f8b65"},"vehicle_type_id":"4","last_reported":1739539002,"current_range_meters":400,"station_id":"ce4bh0p2rcd13ifvqd70","pricing_plan_id":"cebpf4jnsgd1na2vs0mg"},{"bike_id":"38b617ea-546f-4c40-9269-e35c0123c09c","system_id":"levelo_inurba_marseille","lat":43.30435,"lon":5.39743,"is_reserved":false,"is_disabled":false,"rental_uris":{"android":"levelo://app?vid=38b617ea-546f-4c40-9269-e35c0123c09c","ios":"levelo://app?vid=38b617ea-546f-4c40-9269-e35c0123c09c"},"vehicle_type_id":"4","last_reported":1739539002,"current_range_meters":31200,"station_id":"ce4bh092rcd13ifvqd20","pricing_plan_id":"cebpf4jnsgd1na2vs0mg"},{"bike_id":"34871b78-7c6b-4a45-854a-a794af1498d9","system_id":"levelo_inurba_marseille","lat":43.26678,"lon":5.38243,"is_reserved":false,"is_disabled":true,"rental_uris":{"android":"levelo://app?vid=34871b78-7c6b-4a45-854a-a794af1498d9","ios":"levelo://app?vid=34871b78-7c6b-4a45-854a-a794af1498d9"},"vehicle_type_id":"4","last_reported":1739539002,"current_range_meters":1600,"station_id":"ce4bhg92rcd13ifvqf90","pricing_plan_id":"cebpf4jnsgd1na2vs0mg"},{"bike_id":"90d6b28b-d2ff-499b-949c-5a4f2ff008b1","system_id":"levelo_inurba_marseille","lat":43.24395,"lon":5.37035,"is_reserved":false,"is_disabled":false,"rental_uris":{"android":"levelo://app?vid=90d6b28b-d2ff-499b-949c-5a4f2ff008b1","ios":"levelo://app?vid=90d6b28b-d2ff-499b-949c-5a4f2ff008b1"},"vehicle_type_id":"4","last_reported":1739539002,"current_range_meters":38800,"station_id":"ce4bhhh2rcd13ifvqfk0","pricing_plan_id":"cebpf4jnsgd1na2vs0mg"},{"bike_id":"34141518-2329-4810-b031-afbbcd35d40a","system_id":"levelo_inurba_marseille","lat":43.25915,"lon":5.4087,"is_reserved":false,"is_disabled":false,"rental_uris":{"android":"levelo://app?vid=34141518-2329-4810-b031-afbbcd35d40a","ios":"levelo://app?vid=34141518-2329-4810-b031-afbbcd35d40a"},"vehicle_type_id":"4","last_reported":1739539002,"current_range_meters":30800,"station_id":"ce4bhm92rcd13ifvqglg","pricing_plan_id":"cebpf4jnsgd1na2vs0mg"},{"bike_id":"c1665b9a-8804-49fb-a2e7-87ab5bdd8b6d","system_id":"levelo_inurba_marseille","lat":43.33732,"lon":5.39155,"is_reserved":false,"is_disabled":false,"rental_uris":{"android":"levelo://app?vid=c1665b9a-8804-49fb-a2e7-87ab5bdd8b6d","ios":"levelo://app?vid=c1665b9a-8804-49fb-a2e7-87ab5bdd8b6d"},"vehicle_type_id":"4","last_reported":1739539002,"current_range_meters":37600,"station_id":"ce4bhr92rcd13ifvqhsg","pricing_plan_id":"cebpf4jnsgd1na2vs0mg"},{"bike_id":"9849b2fc-a95b-422f-a196-d18f8dddc31b","system_id":"levelo_inurba_marseille","lat":43.29226,"lon":5.36062,"is_reserved":false,"is_disabled":false,"rental_uris":{"android":"levelo://app?vid=9849b2fc-a95b-422f-a196-d18f8dddc31b","ios":"levelo://app?vid=9849b2fc-a95b-422f-a196-d18f8dddc31b"},"vehicle_type_id":"4","last_reported":1739539002,"current_range_meters":19200,"station_id":"ce4bhbh2rcd13ifvqeqg","pricing_plan_id":"cebpf4jnsgd1na2vs0mg"},{"bike_id":"58ca8d36-3abf-4f9b-bf3f-e62ed0e7a978","system_id":"levelo_inurba_marseille","lat":43.23993,"lon":5.36608,"is_reserved":false,"is_disabled":false,"rental_uris":{"android":"levelo://app?vid=58ca8d36-3abf-4f9b-bf3f-e62ed0e7a978","ios":"levelo://app?vid=58ca8d36-3abf-4f9b-bf3f-e62ed0e7a978"},"vehicle_type_id":"4","last_reported":1739539002,"current_range_meters":38800,"station_id":"ce4bhi12rcd13ifvqfp0","pricing_plan_id":"cebpf4jnsgd1na2vs0mg"},{"bike_id":"57469eb7-78e0-40b4-9953-5ca256ee3dc2","system_id":"levelo_inurba_marseille","lat":43.29636,"lon":5.3717,"is_reserved":false,"is_disabled":false,"rental_uris":{"android":"levelo://app?vid=57469eb7-78e0-40b4-9953-5ca256ee3dc2","ios":"levelo://app?vid=57469eb7-78e0-40b4-9953-5ca256ee3dc2"},"vehicle_type_id":"4","last_reported":1739539002,"current_range_meters":38000,"station_id":"ce4bgnh2rcd13ifvqc0g","pricing_plan_id":"cebpf4jnsgd1na2vs0mg"},{"bike_id":"1fe4fc41-3ba8-411f-85f4-acf1ab827466","system_id":"levelo_inurba_marseille","lat":43.28871,"lon":5.39309,"is_reserved":false,"is_disabled":true,"rental_uris":{"android":"levelo://app?vid=1fe4fc41-3ba8-411f-85f4-acf1ab827466","ios":"levelo://app?vid=1fe4fc41-3ba8-411f-85f4-acf1ab827466"},"vehicle_type_id":"4","last_reported":1739539002,"current_range_meters":33600,"station_id":"ce4bh2p2rcd13ifvqdi0","pricing_plan_id":"cebpf4jnsgd1na2vs0mg"},{"bike_id":"318f54ce-be01-47d6-829a-f493e582e806","system_id":"levelo_inurba_marseille","lat":43.32102,"lon":5.36768,"is_reserved":false,"is_disabled":true,"rental_uris":{"android":"levelo://app?vid=318f54ce-be01-47d6-829a-f493e582e806","ios":"levelo://app?vid=318f54ce-be01-47d6-829a-f493e582e806"},"vehicle_type_id":"4","last_reported":1739539002,"current_range_meters":0,"station_id":"ce4bhrh2rcd13ifvqhug","pricing_plan_id":"cebpf4jnsgd1na2vs0mg"},{"bike_id":"b5b69693-be9f-4836-bece-50ddc51d43f0","system_id":"levelo_inurba_marseille","lat":43.30704,"lon":5.37365,"is_reserved":false,"is_disabled":false,"rental_uris":{"android":"levelo://app?vid=b5b69693-be9f-4836-bece-50ddc51d43f0","ios":"levelo://app?vid=b5b69693-be9f-4836-bece-50ddc51d43f0"},"vehicle_type_id":"4","last_reported":1739539002,"current_range_meters":17600,"station_id":"","pricing_plan_id":"cebpf4jnsgd1na2vs0mg"},{"bike_id":"d157203c-3a5b-4bbc-9638-6eefce740d5e","system_id":"levelo_inurba_marseille","lat":43.23184,"lon":5.35535,"is_reserved":false,"is_disabled":false,"rental_uris":{"android":"levelo://app?vid=d157203c-3a5b-4bbc-9638-6eefce740d5e","ios":"levelo://app?vid=d157203c-3a5b-4bbc-9638-6eefce740d5e"},"vehicle_type_id":"4","last_reported":1739539002,"current_range_meters":28000,"station_id":"ce4bhu92rcd13ifvqi70","pricing_plan_id":"cebpf4jnsgd1na2vs0mg"},{"bike_id":"78d5db11-1ddc-4faf-b1eb-abd3360d86f8","system_id":"levelo_inurba_marseille","lat":43.29043,"lon":5.39941,"is_reserved":false,"is_disabled":true,"rental_uris":{"android":"levelo://app?vid=78d5db11-1ddc-4faf-b1eb-abd3360d86f8","ios":"levelo://app?vid=78d5db11-1ddc-4faf-b1eb-abd3360d86f8"},"vehicle_type_id":"4","last_reported":1739539002,"current_range_meters":28000,"station_id":"ce4bh392rcd13ifvqdm0","pricing_plan_id":"cebpf4jnsgd1na2vs0mg"},{"bike_id":"f41e77b6-5d36-41ad-894b-04e7efc7e804","system_id":"levelo_inurba_marseille","lat":43.29613,"lon":5.37718,"is_reserved":false,"is_disabled":false,"rental_uris":{"android":"levelo://app?vid=f41e77b6-5d36-41ad-894b-04e7efc7e804","ios":"levelo://app?vid=f41e77b6-5d36-41ad-894b-04e7efc7e804"},"vehicle_type_id":"4","last_reported":1739539002,"current_range_meters":34800,"station_id":"ce4bgi92rcd13ifvqb90","pricing_plan_id":"cebpf4jnsgd1na2vs0mg"},{"bike_id":"d14f78a9-c7c9-43bb-abf5-91fb9ec14c52","system_id":"levelo_inurba_marseille","lat":43.30463,"lon":5.37902,"is_reserved":false,"is_disabled":false,"rental_uris":{"android":"levelo://app?vid=d14f78a9-c7c9-43bb-abf5-91fb9ec14c52","ios":"levelo://app?vid=d14f78a9-c7c9-43bb-abf5-91fb9ec14c52"},"vehicle_type_id":"4","last_reported":1739539002,"current_range_meters":27200,"station_id":"ce4bgup2rcd13ifvqcn0","pricing_plan_id":"cebpf4jnsgd1na2vs0mg"},{"bike_id":"74a9f2cd-231b-46ca-b15c-632533777a7c","system_id":"levelo_inurba_marseille","lat":43.30524,"lon":5.36534,"is_reserved":false,"is_disabled":false,"rental_uris":{"android":"levelo://app?vid=74a9f2cd-231b-46ca-b15c-632533777a7c","ios":"levelo://app?vid=74a9f2cd-231b-46ca-b15c-632533777a7c"},"vehicle_type_id":"4","last_reported":1739539002,"current_range_meters":38800,"station_id":"ce4bgs12rcd13ifvqcag","pricing_plan_id":"cebpf4jnsgd1na2vs0mg"},{"bike_id":"ed18e02e-9a0b-4b35-a5c1-08cba19fb750","system_id":"levelo_inurba_marseille","lat":43.24647,"lon":5.38895,"is_reserved":false,"is_disabled":false,"rental_uris":{"android":"levelo://app?vid=ed18e02e-9a0b-4b35-a5c1-08cba19fb750","ios":"levelo://app?vid=ed18e02e-9a0b-4b35-a5c1-08cba19fb750"},"vehicle_type_id":"4","last_reported":1739539002,"current_range_meters":38800,"station_id":"ce4bhg12rcd13ifvqf60","pricing_plan_id":"cebpf4jnsgd1na2vs0mg"},{"bike_id":"d80860fa-7cf7-4ae7-befb-26e8065381a1","system_id":"levelo_inurba_marseille","lat":43.23204,"lon":5.35537,"is_reserved":false,"is_disabled":false,"rental_uris":{"android":"levelo://app?vid=d80860fa-7cf7-4ae7-befb-26e8065381a1","ios":"levelo://app?vid=d80860fa-7cf7-4ae7-befb-26e8065381a1"},"vehicle_type_id":"4","last_reported":1739539002,"current_range_meters":26800,"station_id":"ce4bhu92rcd13ifvqi70","pricing_plan_id":"cebpf4jnsgd1na2vs0mg"},{"bike_id":"10d9cc3d-d363-427b-ad15-7535dc8cf089","system_id":"levelo_inurba_marseille","lat":43.31895,"lon":5.40737,"is_reserved":false,"is_disabled":false,"rental_uris":{"android":"levelo://app?vid=10d9cc3d-d363-427b-ad15-7535dc8cf089","ios":"levelo://app?vid=10d9cc3d-d363-427b-ad15-7535dc8cf089"},"vehicle_type_id":"4","last_reported":1739539002,"current_range_meters":37600,"station_id":"ce4bhq12rcd13ifvqhig","pricing_plan_id":"cebpf4jnsgd1na2vs0mg"},{"bike_id":"11733695-546a-43ce-954a-35fe111c66a8","system_id":"levelo_inurba_marseille","lat":43.30888,"lon":5.39657,"is_reserved":false,"is_disabled":false,"rental_uris":{"android":"levelo://app?vid=11733695-546a-43ce-954a-35fe111c66a8","ios":"levelo://app?vid=11733695-546a-43ce-954a-35fe111c66a8"},"vehicle_type_id":"4","last_reported":1739539002,"current_range_meters":24800,"station_id":"ce4bh012rcd13ifvqcv0","pricing_plan_id":"cebpf4jnsgd1na2vs0mg"},{"bike_id":"36015fd9-700d-4e75-bcce-b20f4d459c36","system_id":"levelo_inurba_marseille","lat":43.28861,"lon":5.35863,"is_reserved":false,"is_disabled":false,"rental_uris":{"android":"levelo://app?vid=36015fd9-700d-4e75-bcce-b20f4d459c36","ios":"levelo://app?vid=36015fd9-700d-4e75-bcce-b20f4d459c36"},"vehicle_type_id":"4","last_reported":1739539002,"current_range_meters":14000,"station_id":"ce4bhb12rcd13ifvqem0","pricing_plan_id":"cebpf4jnsgd1na2vs0mg"},{"bike_id":"0ff1d49d-c917-430a-abfe-4e644e685ed8","system_id":"levelo_inurba_marseille","lat":43.24181,"lon":5.39726,"is_reserved":false,"is_disabled":false,"rental_uris":{"android":"levelo://app?vid=0ff1d49d-c917-430a-abfe-4e644e685ed8","ios":"levelo://app?vid=0ff1d49d-c917-430a-abfe-4e644e685ed8"},"vehicle_type_id":"4","last_reported":1739539002,"current_range_meters":14000,"station_id":"ce4bhn12rcd13ifvqgpg","pricing_plan_id":"cebpf4jnsgd1na2vs0mg"},{"bike_id":"c78501ca-7dfb-4cf7-b4a0-458f72b8657b","system_id":"levelo_inurba_marseille","lat":43.31733,"lon":5.42374,"is_reserved":false,"is_disabled":false,"rental_uris":{"android":"levelo://app?vid=c78501ca-7dfb-4cf7-b4a0-458f72b8657b","ios":"levelo://app?vid=c78501ca-7dfb-4cf7-b4a0-458f72b8657b"},"vehicle_type_id":"4","last_reported":1739539002,"current_range_meters":6800,"station_id":"ce4bhp92rcd13ifvqhbg","pricing_plan_id":"cebpf4jnsgd1na2vs0mg"},{"bike_id":"0ee71362-4954-4798-b9b4-e154a15cc75e","system_id":"levelo_inurba_marseille","lat":43.32389,"lon":5.40599,"is_reserved":false,"is_disabled":false,"rental_uris":{"android":"levelo://app?vid=0ee71362-4954-4798-b9b4-e154a15cc75e","ios":"levelo://app?vid=0ee71362-4954-4798-b9b4-e154a15cc75e"},"vehicle_type_id":"4","last_reported":1739539002,"current_range_meters":38400,"station_id":"ce4bhq92rcd13ifvqhjg","pricing_plan_id":"cebpf4jnsgd1na2vs0mg"},{"bike_id":"fbc84812-d995-4511-8639-24c7389d7a68","system_id":"levelo_inurba_marseille","lat":43.30158,"lon":5.38101,"is_reserved":false,"is_disabled":false,"rental_uris":{"android":"levelo://app?vid=fbc84812-d995-4511-8639-24c7389d7a68","ios":"levelo://app?vid=fbc84812-d995-4511-8639-24c7389d7a68"},"vehicle_type_id":"4","last_reported":1739539002,"current_range_meters":38800,"station_id":"ce4bgjp2rcd13ifvqbh0","pricing_plan_id":"cebpf4jnsgd1na2vs0mg"},{"bike_id":"aac40c63-61e5-417a-94b2-1b694e57377c","system_id":"levelo_inurba_marseille","lat":43.28343,"lon":5.381,"is_reserved":false,"is_disabled":false,"rental_uris":{"android":"levelo://app?vid=aac40c63-61e5-417a-94b2-1b694e57377c","ios":"levelo://app?vid=aac40c63-61e5-417a-94b2-1b694e57377c"},"vehicle_type_id":"4","last_reported":1739539002,"current_range_meters":38000,"station_id":"ce4bh412rcd13ifvqdr0","pricing_plan_id":"cebpf4jnsgd1na2vs0mg"},{"bike_id":"a091ca7b-0bc9-4cb5-9a58-0f8968a37fed","system_id":"levelo_inurba_marseille","lat":43.27825,"lon":5.40714,"is_reserved":false,"is_disabled":false,"rental_uris":{"android":"levelo://app?vid=a091ca7b-0bc9-4cb5-9a58-0f8968a37fed","ios":"levelo://app?vid=a091ca7b-0bc9-4cb5-9a58-0f8968a37fed"},"vehicle_type_id":"4","last_reported":1739539002,"current_range_meters":38800,"station_id":"ce4bhnh2rcd13ifvqgtg","pricing_plan_id":"cebpf4jnsgd1na2vs0mg"},{"bike_id":"43750bb5-2ba3-4b22-aaa5-eedbb0dcf430","system_id":"levelo_inurba_marseille","lat":43.25821,"lon":5.3943,"is_reserved":false,"is_disabled":false,"rental_uris":{"android":"levelo://app?vid=43750bb5-2ba3-4b22-aaa5-eedbb0dcf430","ios":"levelo://app?vid=43750bb5-2ba3-4b22-aaa5-eedbb0dcf430"},"vehicle_type_id":"4","last_reported":1739539002,"current_range_meters":28400,"station_id":"ce4bhip2rcd13ifvqft0","pricing_plan_id":"cebpf4jnsgd1na2vs0mg"},{"bike_id":"8123ff5f-770e-4a6c-9aed-bd54217ef041","system_id":"levelo_inurba_marseille","lat":43.30362,"lon":5.41879,"is_reserved":false,"is_disabled":false,"rental_uris":{"android":"levelo://app?vid=8123ff5f-770e-4a6c-9aed-bd54217ef041","ios":"levelo://app?vid=8123ff5f-770e-4a6c-9aed-bd54217ef041"},"vehicle_type_id":"4","last_reported":1739539002,"current_range_meters":39200,"station_id":"ce4bhop2rcd13ifvqh7g","pricing_plan_id":"cebpf4jnsgd1na2vs0mg"},{"bike_id":"7324a39c-46eb-4274-9bc8-c87c280daa98","system_id":"levelo_inurba_marseille","lat":43.255774,"lon":5.382407,"is_reserved":false,"is_disabled":false,"rental_uris":{"android":"levelo://app?vid=7324a39c-46eb-4274-9bc8-c87c280daa98","ios":"levelo://app?vid=7324a39c-46eb-4274-9bc8-c87c280daa98"},"vehicle_type_id":"4","last_reported":1739539002,"current_range_meters":3600,"station_id":"ce4bhih2rcd13ifvqfs0","pricing_plan_id":"cebpf4jnsgd1na2vs0mg"},{"bike_id":"282637b0-2012-46b3-878f-49d42c338c2f","system_id":"levelo_inurba_marseille","lat":43.24089,"lon":5.37722,"is_reserved":false,"is_disabled":false,"rental_uris":{"android":"levelo://app?vid=282637b0-2012-46b3-878f-49d42c338c2f","ios":"levelo://app?vid=282637b0-2012-46b3-878f-49d42c338c2f"},"vehicle_type_id":"4","last_reported":1739539002,"current_range_meters":28800,"station_id":"ce4bhnp2rcd13ifvqgvg","pricing_plan_id":"cebpf4jnsgd1na2vs0mg"},