{"last_updated":1741371143,"ttl":60,"version":"2.2","data":{"bikes":[{"bike_id":"277b3d5e-da8d-4945-9cfa-0b51ca49b049","system_id":"levelo_inurba_marseille","lat":43.30352,"lon":5.41877,"is_reserved":false,"is_disabled":false,"rental_uris":{"android":"levelo://app?vid=277b3d5e-da8d-4945-9cfa-0b51ca49b049","ios":"levelo://app?vid=277b3d5e-da8d-4945-9cfa-0b51ca49b049"},"vehicle_type_id":"4","last_reported":1741371143,"current_range_meters":2800,"station_id":"ce4bhop2rcd13ifvqh7g","pricing_plan_id":"cebpf4jnsgd1na2vs0mg"},{"bike_id":"40e2e695-d552-4542-901f-9cd18e8de670","system_id":"levelo_inurba_marseille","lat":43.2668,"lon":5.38267,"is_reserved":false,"is_disabled":true,"rental_uris":{"android":"levelo://app?vid=40e2e695-d552-4542-901f-9cd18e8de670","ios":"levelo://app?vid=40e2e695-d552-4542-901f-9cd18e8de670"},"vehicle_type_id":"4","last_reported":1741371143,"current_range_meters":2800,"station_id":"ce4bhg92rcd13ifvqf90","pricing_plan_id":"cebpf4jnsgd1na2vs0mg"},{"bike_id":"f64ced73-8c35-4a49-a588-759fd92d1118","system_id":"levelo_inurba_marseille","lat":43.292114,"lon":5.401263,"is_reserved":false,"is_disabled":false,"rental_uris":{"android":"levelo://app?vid=f64ced73-8c35-4a49-a588-759fd92d1118","ios":"levelo://app?vid=f64ced73-8c35-4a49-a588-759fd92d1118"},"vehicle_type_id":"4","last_reported":1741371143,"current_range_meters":2800,"station_id":"ce4bh312rcd13ifvqdk0","pricing_plan_id":"cebpf4jnsgd1na2vs0mg"},{"bike_id":"94ae2d2c-7224-440b-ab78-492852db7165","system_id":"levelo_inurba_marseille","lat":43.30885,"lon":5.39605,"is_reserved":false,"is_disabled":false,"rental_uris":{"android":"levelo://app?vid=94ae2d2c-7224-440b-ab78-492852db7165","ios":"levelo://app?vid=94ae2d2c-7224-440b-ab78-492852db7165"},"vehicle_type_id":"4","last_reported":1741371143,"current_range_meters":3200,"station_id":"ce4bh012rcd13ifvqcv0","pricing_plan_id":"cebpf4jnsgd1na2vs0mg"},{"bike_id":"7061927b-4e39-4689-a701-21ccfdf43f14","system_id":"levelo_inurba_marseille","lat":43.29,"lon":5.37297,"is_reserved":false,"is_disabled":false,"rental_uris":{"android":"levelo://app?vid=7061927b-4e39-4689-a701-21ccfdf43f14","ios":"levelo://app?vid=7061927b-4e39-4689-a701-21ccfdf43f14"},"vehicle_type_id":"4","last_reported":1741371143,"current_range_meters":3200,"station_id":"ce4bha92rcd13ifvqeg0","pricing_plan_id":"cebpf4jnsgd1na2vs0mg"},{"bike_id":"8fe4a22f-271e-49d2-8dad-df42765351a7","system_id":"levelo_inurba_marseille","lat":43.30803,"lon":5.38139,"is_reserved":false,"is_disabled":false,"rental_uris":{"android":"levelo://app?vid=8fe4a22f-271e-49d2-8dad-df42765351a7","ios":"levelo://app?vid=8fe4a22f-271e-49d2-8dad-df42765351a7"},"vehicle_type_id":"4","last_reported":1741371143,"current_range_meters":3600,"station_id":"ce4bgt12rcd13ifvqce0","pricing_plan_id":"cebpf4jnsgd1na2vs0mg"},{"bike_id":"84fd8a9d-d33c-4402-bbe4-001e62a7f660","system_id":"levelo_inurba_marseille","lat":43.26649,"lon":5.39852,"is_reserved":false,"is_disabled":false,"rental_uris":{"android":"levelo://app?vid=84fd8a9d-d33c-4402-bbe4-001e62a7f660","ios":"levelo://app?vid=84fd8a9d-d33c-4402-bbe4-001e62a7f660"},"vehicle_type_id":"4","last_reported":1741371143,"current_range_meters":3600,"station_id":"","pricing_plan_id":"cebpf4jnsgd1na2vs0mg"},{"bike_id":"215a01e2-9c1c-45bf-a69c-7a5458c1fe75","system_id":"levelo_inurba_marseille","lat":43.28072,"lon":5.39652,"is_reserved":false,"is_disabled":false,"rental_uris":{"android":"levelo://app?vid=215a01e2-9c1c-45bf-a69c-7a5458c1fe75","ios":"levelo://app?vid=215a01e2-9c1c-45bf-a69c-7a5458c1fe75"},"vehicle_type_id":"4","last_reported":1741371143,"current_range_meters":3600,"station_id":"ce4bho12rcd13ifvqh2g","pricing_plan_id":"cebpf4jnsgd1na2vs0mg"},{"bike_id":"9dc4def2-7446-4b36-a0a9-c04d67808926","system_id":"levelo_inurba_marseille","lat":43.27906,"lon":5.38001,"is_reserved":false,"is_disabled":false,"rental_uris":{"android":"levelo://app?vid=9dc4def2-7446-4b36-a0a9-c04d67808926","ios":"levelo://app?vid=9dc4def2-7446-4b36-a0a9-c04d67808926"},"vehicle_type_id":"4","last_reported":1741371143,"current_range_meters":4000,"station_id":"ce4bhf92rcd13ifvqf50","pricing_plan_id":"cebpf4jnsgd1na2vs0mg"},{"bike_id":"6273898f-2dc0-44b7-b292-8144120a19a1","system_id":"levelo_inurba_marseille","lat":43.30249,"lon":5.400481,"is_reserved":false,"is_disabled":false,"rental_uris":{"android":"levelo://app?vid=6273898f-2dc0-44b7-b292-8144120a19a1","ios":"levelo://app?vid=6273898f-2dc0-44b7-b292-8144120a19a1"},"vehicle_type_id":"4","last_reported":1741371143,"current_range_meters":4000,"station_id":"ce4bgvh2rcd13ifvqcs0","pricing_plan_id":"cebpf4jnsgd1na2vs0mg"},{"bike_id":"d572b633-d5af-4df0-87b8-0a5b1819b02b","system_id":"levelo_inurba_marseille","lat":43.24173,"lon":5.39747,"is_reserved":false,"is_disabled":true,"rental_uris":{"android":"levelo://app?vid=d572b633-d5af-4df0-87b8-0a5b1819b02b","ios":"levelo://app?vid=d572b633-d5af-4df0-87b8-0a5b1819b02b"},"vehicle_type_id":"4","last_reported":1741371143,"current_range_meters":4000,"station_id":"ce4bhn12rcd13ifvqgpg","pricing_plan_id":"cebpf4jnsgd1na2vs0mg"},{"bike_id":"baa5138b-675e-4066-b360-742935d6b1cc","system_id":"levelo_inurba_marseille","lat":43.31067,"lon":5.3835,"is_reserved":false,"is_disabled":false,"rental_uris":{"android":"levelo://app?vid=baa5138b-675e-4066-b360-742935d6b1cc","ios":"levelo://app?vid=baa5138b-675e-4066-b360-742935d6b1cc"},"vehicle_type_id":"4","last_reported":1741371143,"current_range_meters":4000,"station_id":"ce4bgv92rcd13ifvqcr0","pricing_plan_id":"cebpf4jnsgd1na2vs0mg"},{"bike_id":"f89793be-e610-414b-9cf8-fdca31ce9a2e","system_id":"levelo_inurba_marseille","lat":43.30242,"lon":5.40071,"is_reserved":false,"is_disabled":false,"rental_uris":{"android":"levelo://app?vid=f89793be-e610-414b-9cf8-fdca31ce9a2e","ios":"levelo://app?vid=f89793be-e610-414b-9cf8-fdca31ce9a2e"},"vehicle_type_id":"4","last_reported":1741371143,"current_range_meters":4000,"station_id":"ce4bgvh2rcd13ifvqcs0","pricing_plan_id":"cebpf4jnsgd1na2vs0mg"},{"bike_id":"500c0943-0339-4325-8d40-021782539575","system_id":"levelo_inurba_marseille","lat":43.30144,"lon":5.3987,"is_reserved":false,"is_disabled":false,"rental_uris":{"android":"levelo://app?vid=500c0943-0339-4325-8d40-021782539575","ios":"levelo://app?vid=500c0943-0339-4325-8d40-021782539575"},"vehicle_type_id":"4","last_reported":1741371143,"current_range_meters":4000,"station_id":"ce4bh0h2rcd13ifvqd40","pricing_plan_id":"cebpf4jnsgd1na2vs0mg"},{"bike_id":"fcf59ebe-0a45-497f-9eec-10a62b55845c","system_id":"levelo_inurba_marseille","lat":43.27918,"lon":5.39593,"is_reserved":false,"is_disabled":false,"rental_uris":{"android":"levelo://app?vid=fcf59ebe-0a45-497f-9eec-10a62b55845c","ios":"levelo://app?vid=fcf59ebe-0a45-497f-9eec-10a62b55845c"},"vehicle_type_id":"4","last_reported":1741371143,"current_range_meters":4000,"station_id":"ce4bhf92rcd13ifvqf40","pricing_plan_id":"cebpf4jnsgd1na2vs0mg"},{"bike_id":"de10dad3-cc48-400a-922c-cca5bf1a3a20","system_id":"levelo_inurba_marseille","lat":43.29938,"lon":5.38831,"is_reserved":false,"is_disabled":true,"rental_uris":{"android":"levelo://app?vid=de10dad3-cc48-400a-922c-cca5bf1a3a20","ios":"levelo://app?vid=de10dad3-cc48-400a-922c-cca5bf1a3a20"},"vehicle_type_id":"4","last_reported":1741371143,"current_range_meters":4400,"station_id":"","pricing_plan_id":"cebpf4jnsgd1na2vs0mg"},{"bike_id":"7b732374-e870-44a7-9377-8fc6f8d5046f","system_id":"levelo_inurba_marseille","lat":43.29161,"lon":5.3715,"is_reserved":false,"is_disabled":false,"rental_uris":{"android":"levelo://app?vid=7b732374-e870-44a7-9377-8fc6f8d5046f","ios":"levelo://app?vid=7b732374-e870-44a7-9377-8fc6f8d5046f"},"vehicle_type_id":"4","last_reported":1741371143,"current_range_meters":4400,"station_id":"ce4bha92rcd13ifvqeh0","pricing_plan_id":"cebpf4jnsgd1na2vs0mg"},{"bike_id":"cb212aaf-7aa6-4c9b-a828-1f8ec59ed7d2","system_id":"levelo_inurba_marseille","lat":43.28402,"lon":5.3751,"is_reserved":false,"is_disabled":false,"rental_uris":{"android":"levelo://app?vid=cb212aaf-7aa6-4c9b-a828-1f8ec59ed7d2","ios":"levelo://app?vid=cb212aaf-7aa6-4c9b-a828-1f8ec59ed7d2"},"vehicle_type_id":"4","last_reported":1741371143,"current_range_meters":4400,"station_id":"ce4bh412rcd13ifvqds0","pricing_plan_id":"cebpf4jnsgd1na2vs0mg"},{"bike_id":"e5a502d0-4124-42b0-b083-0c5c5e872a40","system_id":"levelo_inurba_marseille","lat":43.28605,"lon":5.37062,"is_reserved":false,"is_disabled":false,"rental_uris":{"android":"levelo://app?vid=e5a502d0-4124-42b0-b083-0c5c5e872a40","ios":"levelo://app?vid=e5a502d0-4124-42b0-b083-0c5c5e872a40"},"vehicle_type_id":"4","last_reported":1741371143,"current_range_meters":4400,"station_id":"ce4bht12rcd13ifvqi60","pricing_plan_id":"cebpf4jnsgd1na2vs0mg"},{"bike_id":"48b32f1b-e803-4f2b-97c6-8a27e7254d6e","system_id":"levelo_inurba_marseille","lat":43.28474,"lon":5.38427,"is_reserved":false,"is_disabled":false,"rental_uris":{"android":"levelo://app?vid=48b32f1b-e803-4f2b-97c6-8a27e7254d6e","ios":"levelo://app?vid=48b32f1b-e803-4f2b-97c6-8a27e7254d6e"},"vehicle_type_id":"4","last_reported":1741371143,"current_range_meters":4400,"station_id":"ce4bh512rcd13ifvqe3g","pricing_plan_id":"cebpf4jnsgd1na2vs0mg"},{"bike_id":"7b6541bd-56cb-40c0-9c58-77626a99bc9d","system_id":"levelo_inurba_marseille","lat":43.3064,"lon":5.40101,"is_reserved":false,"is_disabled":false,"rental_uris":{"android":"levelo://app?vid=7b6541bd-56cb-40c0-9c58-77626a99bc9d","ios":"levelo://app?vid=7b6541bd-56cb-40c0-9c58-77626a99bc9d"},"vehicle_type_id":"4","last_reported":1741371143,"current_range_meters":4800,"station_id":"ce4bh112rcd13ifvqda0","pricing_plan_id":"cebpf4jnsgd1na2vs0mg"},{"bike_id":"a8b86ac1-aac4-4383-b2a3-2ff1569013a0","system_id":"levelo_inurba_marseille","lat":43.29311,"lon":5.3718,"is_reserved":false,"is_disabled":false,"rental_uris":{"android":"levelo://app?vid=a8b86ac1-aac4-4383-b2a3-2ff1569013a0","ios":"levelo://app?vid=a8b86ac1-aac4-4383-b2a3-2ff1569013a0"},"vehicle_type_id":"4","last_reported":1741371143,"current_range_meters":4800,"station_id":"ce4bgh92rcd13ifvqb40","pricing_plan_id":"cebpf4jnsgd1na2vs0mg"},{"bike_id":"c4adb641-b65e-4129-a593-28e50778aa58","system_id":"levelo_inurba_marseille","lat":43.32664,"lon":5.40998,"is_reserved":false,"is_disabled":false,"rental_uris":{"android":"levelo://app?vid=c4adb641-b65e-4129-a593-28e50778aa58","ios":"levelo://app?vid=c4adb641-b65e-4129-a593-28e50778aa58"},"vehicle_type_id":"4","last_reported":1741371143,"current_range_meters":4800,"station_id":"ce4bhpp2rcd13ifvqhgg","pricing_plan_id":"cebpf4jnsgd1na2vs0mg"},{"bike_id":"c574f2cd-14ab-465a-8237-e9e551af029d","system_id":"levelo_inurba_marseille","lat":43.29539,"lon":5.38542,"is_reserved":false,"is_disabled":false,"rental_uris":{"android":"levelo://app?vid=c574f2cd-14ab-465a-8237-e9e551af029d","ios":"levelo://app?vid=c574f2cd-14ab-465a-8237-e9e551af029d"},"vehicle_type_id":"4","last_reported":1741371143,"current_range_meters":4800,"station_id":"ce4bgih2rcd13ifvqba0","pricing_plan_id":"cebpf4jnsgd1na2vs0mg"},{"bike_id":"a213b810-1a65-4ea4-bc68-678af02bbf0d","system_id":"levelo_inurba_marseille","lat":43.26214,"lon":5.37441,"is_reserved":false,"is_disabled":false,"rental_uris":{"android":"levelo://app?vid=a213b810-1a65-4ea4-bc68-678af02bbf0d","ios":"levelo://app?vid=a213b810-1a65-4ea4-bc68-678af02bbf0d"},"vehicle_type_id":"4","last_reported":1741371143,"current_range_meters":4800,"station_id":"ce4bhgp2rcd13ifvqfc0","pricing_plan_id":"cebpf4jnsgd1na2vs0mg"},{"bike_id":"123f8afb-923c-432e-8bfc-ef571681cb7d","system_id":"levelo_inurba_marseille","lat":43.28856,"lon":5.39332,"is_reserved":false,"is_disabled":false,"rental_uris":{"android":"levelo://app?vid=123f8afb-923c-432e-8bfc-ef571681cb7d","ios":"levelo://app?vid=123f8afb-923c-432e-8bfc-ef571681cb7d"},"vehicle_type_id":"4","last_reported":1741371143,"current_range_meters":4800,"station_id":"ce4bh2p2rcd13ifvqdi0","pricing_plan_id":"cebpf4jnsgd1na2vs0mg"},{"bike_id":"863e1d1e-9e8f-4c68-aa8a-cbf316623492","system_id":"levelo_inurba_marseille","lat":43.28458,"lon":5.3589,"is_reserved":false,"is_disabled":false,"rental_uris":{"android":"levelo://app?vid=863e1d1e-9e8f-4c68-aa8a-cbf316623492","ios":"levelo://app?vid=863e1d1e-9e8f-4c68-aa8a-cbf316623492"},"vehicle_type_id":"4","last_reported":1741371143,"current_range_meters":5600,"station_id":"ce4bhah2rcd13ifvqei0","pricing_plan_id":"cebpf4jnsgd1na2vs0mg"},{"bike_id":"cb47043e-2b36-4398-963d-22088496551a","system_id":"levelo_inurba_marseille","lat":43.31759,"lon":5.39015,"is_reserved":false,"is_disabled":true,"rental_uris":{"android":"levelo://app?vid=cb47043e-2b36-4398-963d-22088496551a","ios":"levelo://app?vid=cb47043e-2b36-4398-963d-22088496551a"},"vehicle_type_id":"4","last_reported":1741371143,"current_range_meters":5600,"station_id":"ce4bhqp2rcd13ifvqhng","pricing_plan_id":"cebpf4jnsgd1na2vs0mg"},{"bike_id":"41680e51-3458-42e0-91ff-f8c0fa5aa0e9","system_id":"levelo_inurba_marseille","lat":43.30414,"lon":5.41289,"is_reserved":false,"is_disabled":false,"rental_uris":{"android":"levelo://app?vid=41680e51-3458-42e0-91ff-f8c0fa5aa0e9","ios":"levelo://app?vid=41680e51-3458-42e0-91ff-f8c0fa5aa0e9"},"vehicle_type_id":"4","last_reported":1741371143,"current_range_meters":5600,"station_id":"ce4bhop2rcd13ifvqh8g","pricing_plan_id":"cebpf4jnsgd1na2vs0mg"},{"bike_id":"5592a39d-d676-4084-9cf8-862a42ee8951","system_id":"levelo_inurba_marseille","lat":43.29606,"lon":5.37739,"is_reserved":false,"is_disabled":false,"rental_uris":{"android":"levelo://app?vid=5592a39d-d676-4084-9cf8-862a42ee8951","ios":"levelo://app?vid=5592a39d-d676-4084-9cf8-862a42ee8951"},"vehicle_type_id":"4","last_reported":1741371143,"current_range_meters":5600,"station_id":"ce4bgi92rcd13ifvqb90","pricing_plan_id":"cebpf4jnsgd1na2vs0mg"},{"bike_id":"5879d78a-4c42-44dd-8a7e-f418ace4b675","system_id":"levelo_inurba_marseille","lat":43.30789,"lon":5.37646,"is_reserved":false,"is_disabled":false,"rental_uris":{"android":"levelo://app?vid=5879d78a-4c42-44dd-8a7e-f418ace4b675","ios":"levelo://app?vid=5879d78a-4c42-44dd-8a7e-f418ace4b675"},"vehicle_type_id":"4","last_reported":1741371143,"current_range_meters":6000,"station_id":"ce4bgv92rcd13ifvqcq0","pricing_plan_id":"cebpf4jnsgd1na2vs0mg"},{"bike_id":"c11e3687-d22e-4767-b261-fc1a049251e9","system_id":"levelo_inurba_marseille","lat":43.31326,"lon":5.39695,"is_reserved":false,"is_disabled":false,"rental_uris":{"android":"levelo://app?vid=c11e3687-d22e-4767-b261-fc1a049251e9","ios":"levelo://app?vid=c11e3687-d22e-4767-b261-fc1a049251e9"},"vehicle_type_id":"4","last_reported":1741371143,"current_range_meters":9600,"station_id":"ce4bgvp2rcd13ifvqcu0","pricing_plan_id":"cebpf4jnsgd1na2vs0mg"},{"bike_id":"d93bdeca-d0ff-402c-a1ae-de5375476d11","system_id":"levelo_inurba_marseille","lat":43.28227,"lon":5.40285,"is_reserved":false,"is_disabled":true,"rental_uris":{"android":"levelo://app?vid=d93bdeca-d0ff-402c-a1ae-de5375476d11","ios":"levelo://app?vid=d93bdeca-d0ff-402c-a1ae-de5375476d11"},"vehicle_type_id":"4","last_reported":1741371143,"current_range_meters":6000,"station_id":"","pricing_plan_id":"cebpf4jnsgd1na2vs0mg"},{"bike_id":"b07c4be7-37f0-43e8-bebe-a558d3ccbbad","system_id":"levelo_inurba_marseille","lat":43.24176,"lon":5.39749,"is_reserved":false,"is_disabled":false,"rental_uris":{"android":"levelo://app?vid=b07c4be7-37f0-43e8-bebe-a558d3ccbbad","ios":"levelo://app?vid=b07c4be7-37f0-43e8-bebe-a558d3ccbbad"},"vehicle_type_id":"4","last_reported":1741371143,"current_range_meters":6000,"station_id":"ce4bhn12rcd13ifvqgpg","pricing_plan_id":"cebpf4jnsgd1na2vs0mg"},{"bike_id":"7f1905bf-da4d-4f13-af14-c5d46804e585","system_id":"levelo_inurba_marseille","lat":43.23191,"lon":5.35551,"is_reserved":false,"is_disabled":false,"rental_uris":{"android":"levelo://app?vid=7f1905bf-da4d-4f13-af14-c5d46804e585","ios":"levelo://app?vid=7f1905bf-da4d-4f13-af14-c5d46804e585"},"vehicle_type_id":"4","last_reported":1741371143,"current_range_meters":6000,"station_id":"ce4bhu92rcd13ifvqi70","pricing_plan_id":"cebpf4jnsgd1na2vs0mg"},{"bike_id":"d97b34a5-4a9d-4d9c-b55f-b72c9be6ca47","system_id":"levelo_inurba_marseille","lat":43.25109,"lon":5.40347,"is_reserved":false,"is_disabled":true,"rental_uris":{"android":"levelo://app?vid=d97b34a5-4a9d-4d9c-b55f-b72c9be6ca47","ios":"levelo://app?vid=d97b34a5-4a9d-4d9c-b55f-b72c9be6ca47"},"vehicle_type_id":"4","last_reported":1741371143,"current_range_meters":6000,"station_id":"ce4bhlh2rcd13ifvqgig","pricing_plan_id":"cebpf4jnsgd1na2vs0mg"},{"bike_id":"6c8bea24-6e7d-4d8e-ab9b-45c96754faec","system_id":"levelo_inurba_marseille","lat":43.3062,"lon":5.4007,"is_reserved":false,"is_disabled":false,"rental_uris":{"android":"levelo://app?vid=6c8bea24-6e7d-4d8e-ab9b-45c96754faec","ios":"levelo://app?vid=6c8bea24-6e7d-4d8e-ab9b-45c96754faec"},"vehicle_type_id":"4","last_reported":1741371143,"current_range_meters":6000,"station_id":"ce4bh112rcd13ifvqda0","pricing_plan_id":"cebpf4jnsgd1na2vs0mg"},{"bike_id":"68cbf913-36c8-4e1f-9d5a-64ae28c66bf8","system_id":"levelo_inurba_marseille","lat":43.28275,"lon":5.35053,"is_reserved":false,"is_disabled":false,"rental_uris":{"android":"levelo://app?vid=68cbf913-36c8-4e1f-9d5a-64ae28c66bf8","ios":"levelo://app?vid=68cbf913-36c8-4e1f-9d5a-64ae28c66bf8"},"vehicle_type_id":"4","last_reported":1741371143,"current_range_meters":8400,"station_id":"ce4bhbp2rcd13ifvqerg","pricing_plan_id":"cebpf4jnsgd1na2vs0mg"},{"bike_id":"922965ec-ad3d-4bcd-8626-3511bd86109a","system_id":"levelo_inurba_marseille","lat":43.2314,"lon":5.39922,"is_reserved":false,"is_disabled":false,"rental_uris":{"android":"levelo://app?vid=922965ec-ad3d-4bcd-8626-3511bd86109a","ios":"levelo://app?vid=922965ec-ad3d-4bcd-8626-3511bd86109a"},"vehicle_type_id":"4","last_reported":1741371143,"current_range_meters":6000,"station_id":"","pricing_plan_id":"cebpf4jnsgd1na2vs0mg"},{"bike_id":"9bfe4e82-241b-4620-b471-d226beb88b23","system_id":"levelo_inurba_marseille","lat":43.22932,"lon":5.35376,"is_reserved":false,"is_disabled":false,"rental_uris":{"android":"levelo://app?vid=9bfe4e82-241b-4620-b471-d226beb88b23","ios":"levelo://app?vid=9bfe4e82-241b-4620-b471-d226beb88b23"},"vehicle_type_id":"4","last_reported":1741371143,"current_range_meters":6000,"station_id":"cpo3532slgdg3j2ikp40","pricing_plan_id":"cebpf4jnsgd1na2vs0mg"},{"bike_id":"f88a6cd9-f001-46b4-8023-0ed8105ce083","system_id":"levelo_inurba_marseille","lat":43.28032,"lon":5.36943,"is_reserved":false,"is_disabled":false,"rental_uris":{"android":"levelo://app?vid=f88a6cd9-f001-46b4-8023-0ed8105ce083","ios":"levelo://app?vid=f88a6cd9-f001-46b4-8023-0ed8105ce083"},"vehicle_type_id":"4","last_reported":1741371143,"current_range_meters":6400,"station_id":"ce4bha12rcd13ifvqef0","pricing_plan_id":"cebpf4jnsgd1na2vs0mg"},{"bike_id":"f7a85f1b-5528-4bd4-98d9-a65f1b6b8628","system_id":"levelo_inurba_marseille","lat":43.28921,"lon":5.35442,"is_reserved":false,"is_disabled":false,"rental_uris":{"android":"levelo://app?vid=f7a85f1b-5528-4bd4-98d9-a65f1b6b8628","ios":"levelo://app?vid=f7a85f1b-5528-4bd4-98d9-a65f1b6b8628"},"vehicle_type_id":"4","last_reported":1741371143,"current_range_meters":6400,"station_id":"","pricing_plan_id":"cebpf4jnsgd1na2vs0mg"},{"bike_id":"01fd6840-d8be-4b5e-9ba7-0ed0dbe54f06","system_id":"levelo_inurba_marseille","lat":43.23197,"lon":5.35549,"is_reserved":false,"is_disabled":false,"rental_uris":{"android":"levelo://app?vid=01fd6840-d8be-4b5e-9ba7-0ed0dbe54f06","ios":"levelo://app?vid=01fd6840-d8be-4b5e-9ba7-0ed0dbe54f06"},"vehicle_type_id":"4","last_reported":1741371143,"current_range_meters":6400,"station_id":"ce4bhu92rcd13ifvqi70","pricing_plan_id":"cebpf4jnsgd1na2vs0mg"},{"bike_id":"b59eb22c-5f6d-4457-a67c-b4a4ff6e6d11","system_id":"levelo_inurba_marseille","lat":43.28608,"lon":5.37063,"is_reserved":false,"is_disabled":false,"rental_uris":{"android":"levelo://app?vid=b59eb22c-5f6d-4457-a67c-b4a4ff6e6d11","ios":"levelo://app?vid=b59eb22c-5f6d-4457-a67c-b4a4ff6e6d11"},"vehicle_type_id":"4","last_reported":1741371143,"current_range_meters":6400,"station_id":"ce4bht12rcd13ifvqi60","pricing_plan_id":"cebpf4jnsgd1na2vs0mg"},{"bike_id":"889d7428-72ab-4419-a062-e45cc2e946b0","system_id":"levelo_inurba_marseille","lat":43.31328,"lon":5.39697,"is_reserved":false,"is_disabled":false,"rental_uris":{"android":"levelo://app?vid=889d7428-72ab-4419-a062-e45cc2e946b0","ios":"levelo://app?vid=889d7428-72ab-4419-a062-e45cc2e946b0"},"vehicle_type_id":"4","last_reported":1741371143,"current_range_meters":6400,"station_id":"ce4bgvp2rcd13ifvqcu0","pricing_plan_id":"cebpf4jnsgd1na2vs0mg"},{"bike_id":"75e1cbe2-90e8-418b-b7e1-a65914e53d9e","system_id":"levelo_inurba_marseille","lat":43.28614,"lon":5.35095,"is_reserved":false,"is_disabled":false,"rental_uris":{"android":"levelo://app?vid=75e1cbe2-90e8-418b-b7e1-a65914e53d9e","ios":"levelo://app?vid=75e1cbe2-90e8-418b-b7e1-a65914e53d9e"},"vehicle_type_id":"4","last_reported":1741371143,"current_range_meters":6400,"station_id":"ce4bhch2rcd13ifvqeug","pricing_plan_id":"cebpf4jnsgd1na2vs0mg"},{"bike_id":"1b34c58c-f011-43f3-baac-47c6cf7523c0","system_id":"levelo_inurba_marseille","lat":43.29917,"lon":5.43646,"is_reserved":false,"is_disabled":false,"rental_uris":{"android":"levelo://app?vid=1b34c58c-f011-43f3-baac-47c6cf7523c0","ios":"levelo://app?vid=1b34c58c-f011-43f3-baac-47c6cf7523c0"},"vehicle_type_id":"4","last_reported":1741371143,"current_range_meters":6800,"station_id":"ce4bhpp2rcd13ifvqhfg","pricing_plan_id":"cebpf4jnsgd1na2vs0mg"},{"bike_id":"08d460bf-2e5c-441f-90da-1993b8ac2292","system_id":"levelo_inurba_marseille","lat":43.30137,"lon":5.38781,"is_reserved":false,"is_disabled":false,"rental_uris":{"android":"levelo://app?vid=08d460bf-2e5c-441f-90da-1993b8ac2292","ios":"levelo://app?vid=08d460bf-2e5c-441f-90da-1993b8ac2292"},"vehicle_type_id":"4","last_reported":1741371143,"current_range_meters":6400,"station_id":"ce4bghh2rcd13ifvqb60","pricing_plan_id":"cebpf4jnsgd1na2vs0mg"},{"bike_id":"60a26526-babf-4498-96f9-dacdc4cc71ee","system_id":"levelo_inurba_marseille","lat":43.31483,"lon":5.37308,"is_reserved":false,"is_disabled":false,"rental_uris":{"android":"levelo://app?vid=60a26526-babf-4498-96f9-dacdc4cc71ee","ios":"levelo://app?vid=60a26526-babf-4498-96f9-dacdc4cc71ee"},"vehicle_type_id":"4","last_reported":1741371143,"current_range_meters":6800,"station_id":"ce4bgt12rcd13ifvqcd0","pricing_plan_id":"cebpf4jnsgd1na2vs0mg"},{"bike_id":"e1a3d094-fd5a-4b0e-b3fd-06c39e7f4f48","system_id":"levelo_inurba_marseille","lat":43.32854,"lon":5.39107,"is_reserved":false,"is_disabled":false,"rental_uris":{"android":"levelo://app?vid=e1a3d094-fd5a-4b0e-b3fd-06c39e7f4f48","ios":"levelo://app?vid=e1a3d094-fd5a-4b0e-b3fd-06c39e7f4f48"},"vehicle_type_id":"4","last_reported":1741371143,"current_range_meters":6800,"station_id":"","pricing_plan_id":"cebpf4jnsgd1na2vs0mg"},{"bike_id":"9111e1ed-cd2e-4160-9099-c7a889c7238f","system_id":"levelo_inurba_marseille","lat":43.299741,"lon":5.384993,"is_reserved":false,"is_disabled":false,"rental_uris":{"android":"levelo://app?vid=9111e1ed-cd2e-4160-9099-c7a889c7238f","ios":"levelo://app?vid=9111e1ed-cd2e-4160-9099-c7a889c7238f"},"vehicle_type_id":"4","last_reported":1741371143,"current_range_meters":6400,"station_id":"ce4bgj92rcd13ifvqbd0","pricing_plan_id":"cebpf4jnsgd1na2vs0mg"},{"bike_id":"c5d9a748-fb84-4751-9008-dc4467d9ed9a","system_id":"levelo_inurba_marseille","lat":43.23187,"lon":5.35559,"is_reserved":false,"is_disabled":false,"rental_uris":{"android":"levelo://app?vid=c5d9a748-fb84-4751-9008-dc4467d9ed9a","ios":"levelo://app?vid=c5d9a748-fb84-4751-9008-dc4467d9ed9a"},"vehicle_type_id":"4","last_reported":1741371143,"current_range_meters":6800,"station_id":"ce4bhu92rcd13ifvqi70","pricing_plan_id":"cebpf4jnsgd1na2vs0mg"},{"bike_id":"48e7526a-5c77-4204-ac03-45de61d9315f","system_id":"levelo_inurba_marseille","lat":43.32345,"lon":5.3889,"is_reserved":false,"is_disabled":false,"rental_uris":{"android":"levelo://app?vid=48e7526a-5c77-4204-ac03-45de61d9315f","ios":"levelo://app?vid=48e7526a-5c77-4204-ac03-45de61d9315f"},"vehicle_type_id":"4","last_reported":1741371143,"current_range_meters":6800,"station_id":"ce4bhqp2rcd13ifvqhog","pricing_plan_id":"cebpf4jnsgd1na2vs0mg"},{"bike_id":"24df224d-ffa5-472e-acc0-380979001d96","system_id":"levelo_inurba_marseille","lat":43.25726,"lon":5.41117,"is_reserved":false,"is_disabled":false,"rental_uris":{"android":"levelo://app?vid=24df224d-ffa5-472e-acc0-380979001d96","ios":"levelo://app?vid=24df224d-ffa5-472e-acc0-380979001d96"},"vehicle_type_id":"4","last_reported":1741371143,"current_range_meters":6800,"station_id":"ce4bhkp2rcd13ifvqgd0","pricing_plan_id":"cebpf4jnsgd1na2vs0mg"},{"bike_id":"99e36b03-8a61-4028-92fa-909f701d8a2b","system_id":"levelo_inurba_marseille","lat":43.29416,"lon":5.38638,"is_reserved":false,"is_disabled":false,"rental_uris":{"android":"levelo://app?vid=99e36b03-8a61-4028-92fa-909f701d8a2b","ios":"levelo://app?vid=99e36b03-8a61-4028-92fa-909f701d8a2b"},"vehicle_type_id":"4","last_reported":1741371143,"current_range_meters":6800,"station_id":"ce4bh2h2rcd13ifvqdh0","pricing_plan_id":"cebpf4jnsgd1na2vs0mg"},{"bike_id":"92462f0a-3577-4be7-9561-3cae3d326c4c","system_id":"levelo_inurba_marseille","lat":43.2511,"lon":5.40307,"is_reserved":false,"is_disabled":false,"rental_uris":{"android":"levelo://app?vid=92462f0a-3577-4be7-9561-3cae3d326c4c","ios":"levelo://app?vid=92462f0a-3577-4be7-9561-3cae3d326c4c"},"vehicle_type_id":"4","last_reported":1741371143,"current_range_meters":6800,"station_id":"ce4bhlh2rcd13ifvqgig","pricing_plan_id":"cebpf4jnsgd1na2vs0mg"},{"bike_id":"529ec5b0-059f-4166-a870-9c8cda945e81","system_id":"levelo_inurba_marseille","lat":43.29231,"lon":5.36088,"is_reserved":false,"is_disabled":false,"rental_uris":{"android":"levelo://app?vid=529ec5b0-059f-4166-a870-9c8cda945e81","ios":"levelo://app?vid=529ec5b0-059f-4166-a870-9c8cda945e81"},"vehicle_type_id":"4","last_reported":1741371143,"current_range_meters":9200,"station_id":"ce4bhbh2rcd13ifvqeqg","pricing_plan_id":"cebpf4jnsgd1na2vs0mg"},{"bike_id":"40e0142a-b178-432c-95f1-ff6d7257b80e","system_id":"levelo_inurba_marseille","lat":43.24066,"lon":5.37733,"is_reserved":false,"is_disabled":false,"rental_uris":{"android":"levelo://app?vid=40e0142a-b178-432c-95f1-ff6d7257b80e","ios":"levelo://app?vid=40e0142a-b178-432c-95f1-ff6d7257b80e"},"vehicle_type_id":"4","last_reported":1741371143,"current_range_meters":6800,"station_id":"ce4bhnp2rcd13ifvqgvg","pricing_plan_id":"cebpf4jnsgd1na2vs0mg"},{"bike_id":"2c4d9606-fa65-4213-8e28-7b8e0b47fabc","system_id":"levelo_inurba_marseille","lat":43.28613,"lon":5.37069,"is_reserved":false,"is_disabled":false,"rental_uris":{"android":"levelo://app?vid=2c4d9606-fa65-4213-8e28-7b8e0b47fabc","ios":"levelo://app?vid=2c4d9606-fa65-4213-8e28-7b8e0b47fabc"},"vehicle_type_id":"4","last_reported":1741371143,"current_range_meters":7200,"station_id":"ce4bht12rcd13ifvqi60","pricing_plan_id":"cebpf4jnsgd1na2vs0mg"},{"bike_id":"a010df3e-cde9-4d88-a127-45d016c7f864","system_id":"levelo_inurba_marseille","lat":43.24547,"lon":5.39519,"is_reserved":false,"is_disabled":false,"rental_uris":{"android":"levelo://app?vid=a010df3e-cde9-4d88-a127-45d016c7f864","ios":"levelo://app?vid=a010df3e-cde9-4d88-a127-45d016c7f864"},"vehicle_type_id":"4","last_reported":1741371143,"current_range_meters":7200,"station_id":"ce4bhlp2rcd13ifvqgjg","pricing_plan_id":"cebpf4jnsgd1na2vs0mg"},{"bike_id":"d547444e-3663-41db-be4d-6d3d23776322","system_id":"levelo_inurba_marseille","lat":43.3015,"lon":5.39879,"is_reserved":false,"is_disabled":false,"rental_uris":{"android":"levelo://app?vid=d547444e-3663-41db-be4d-6d3d23776322","ios":"levelo://app?vid=d547444e-3663-41db-be4d-6d3d23776322"},"vehicle_type_id":"4","last_reported":1741371143,"current_range_meters":7200,"station_id":"ce4bh0h2rcd13ifvqd40","pricing_plan_id":"cebpf4jnsgd1na2vs0mg"},{"bike_id":"96547684-48f1-4542-9661-9e8b0db62001","system_id":"levelo_inurba_marseille","lat":43.26205,"lon":5.37927,"is_reserved":false,"is_disabled":false,"rental_uris":{"android":"levelo://app?vid=96547684-48f1-4542-9661-9e8b0db62001","ios":"levelo://app?vid=96547684-48f1-4542-9661-9e8b0db62001"},"vehicle_type_id":"4","last_reported":1741371143,"current_range_meters":7200,"station_id":"ce4bhjp2rcd13ifvqg90","pricing_plan_id":"cebpf4jnsgd1na2vs0mg"},{"bike_id":"b3efa482-ba88-41b4-9fa2-130aeb426a3b","system_id":"levelo_inurba_marseille","lat":43.28036,"lon":5.36947,"is_reserved":false,"is_disabled":false,"rental_uris":{"android":"levelo://app?vid=b3efa482-ba88-41b4-9fa2-130aeb426a3b","ios":"levelo://app?vid=b3efa482-ba88-41b4-9fa2-130aeb426a3b"},"vehicle_type_id":"4","last_reported":1741371143,"current_range_meters":7200,"station_id":"ce4bha12rcd13ifvqef0","pricing_plan_id":"cebpf4jnsgd1na2vs0mg"},{"bike_id":"e136a4a4-c587-4a71-906d-68825e61be7f","system_id":"levelo_inurba_marseille","lat":43.2816,"lon":5.42636,"is_reserved":false,"is_disabled":false,"rental_uris":{"android":"levelo://app?vid=e136a4a4-c587-4a71-906d-68825e61be7f","ios":"levelo://app?vid=e136a4a4-c587-4a71-906d-68825e61be7f"},"vehicle_type_id":"4","last_reported":1741371143,"current_range_meters":6800,"station_id":"ce4bhnh2rcd13ifvqgug","pricing_plan_id":"cebpf4jnsgd1na2vs0mg"},{"bike_id":"5ece6216-c140-461a-8332-f5b985568faf","system_id":"levelo_inurba_marseille","lat":43.279612,"lon":5.38713,"is_reserved":false,"is_disabled":true,"rental_uris":{"android":"levelo://app?vid=5ece6216-c140-461a-8332-f5b985568faf","ios":"levelo://app?vid=5ece6216-c140-461a-8332-f5b985568faf"},"vehicle_type_id":"4","last_reported":1741371143,"current_range_meters":7200,"station_id":"ce4bhg12rcd13ifvqf80","pricing_plan_id":"cebpf4jnsgd1na2vs0mg"},{"bike_id":"d1a04e20-19f5-45d1-a934-cffa32d5513e","system_id":"levelo_inurba_marseille","lat":43.2786,"lon":5.35435,"is_reserved":false,"is_disabled":false,"rental_uris":{"android":"levelo://app?vid=d1a04e20-19f5-45d1-a934-cffa32d5513e","ios":"levelo://app?vid=d1a04e20-19f5-45d1-a934-cffa32d5513e"},"vehicle_type_id":"4","last_reported":1741371143,"current_range_meters":8000,"station_id":"","pricing_plan_id":"cebpf4jnsgd1na2vs0mg"},{"bike_id":"143b74fc-ab7b-4910-8495-ffc1ad22971d","system_id":"levelo_inurba_marseille","lat":43.2502,"lon":5.38936,"is_reserved":false,"is_disabled":true,"rental_uris":{"android":"levelo://app?vid=143b74fc-ab7b-4910-8495-ffc1ad22971d","ios":"levelo://app?vid=143b74fc-ab7b-4910-8495-ffc1ad22971d"},"vehicle_type_id":"4","last_reported":1741371143,"current_range_meters":8000,"station_id":"ce4bhgp2rcd13ifvqfd0","pricing_plan_id":"cebpf4jnsgd1na2vs0mg"},{"bike_id":"3c73c54d-0db7-4140-bd51-9210912bbca4","system_id":"levelo_inurba_marseille","lat":43.26054,"lon":5.39396,"is_reserved":false,"is_disabled":false,"rental_uris":{"android":"levelo://app?vid=3c73c54d-0db7-4140-bd51-9210912bbca4","ios":"levelo://app?vid=3c73c54d-0db7-4140-bd51-9210912bbca4"},"vehicle_type_id":"4","last_reported":1741371143,"current_range_meters":8000,"station_id":"ce4bhh92rcd13ifvqfj0","pricing_plan_id":"cebpf4jnsgd1na2vs0mg"},{"bike_id":"357f6b0d-7429-4870-b5b1-c540923d954d","system_id":"levelo_inurba_marseille","lat":43.23063,"lon":5.35491,"is_reserved":false,"is_disabled":false,"rental_uris":{"android":"levelo://app?vid=357f6b0d-7429-4870-b5b1-c540923d954d","ios":"levelo://app?vid=357f6b0d-7429-4870-b5b1-c540923d954d"},"vehicle_type_id":"4","last_reported":1741371143,"current_range_meters":8000,"station_id":"cpo3342slgdg3j2ifvpg","pricing_plan_id":"cebpf4jnsgd1na2vs0mg"},{"bike_id":"cf2921b4-2f50-4b9c-82d6-e966eaba93c2","system_id":"levelo_inurba_marseille","lat":43.28426,"lon":5.34993,"is_reserved":false,"is_disabled":false,"rental_uris":{"android":"levelo://app?vid=cf2921b4-2f50-4b9c-82d6-e966eaba93c2","ios":"levelo://app?vid=cf2921b4-2f50-4b9c-82d6-e966eaba93c2"},"vehicle_type_id":"4","last_reported":1741371143,"current_range_meters":8000,"station_id":"ce4bhbh2rcd13ifvqepg","pricing_plan_id":"cebpf4jnsgd1na2vs0mg"},{"bike_id":"465ace59-16ae-4e55-aeb7-fc0626dd84fc","system_id":"levelo_inurba_marseille","lat":43.27911,"lon":5.39572,"is_reserved":false,"is_disabled":false,"rental_uris":{"android":"levelo://app?vid=465ace59-16ae-4e55-aeb7-fc0626dd84fc","ios":"levelo://app?vid=465ace59-16ae-4e55-aeb7-fc0626dd84fc"},"vehicle_type_id":"4","last_reported":1741371143,"current_range_meters":8000,"station_id":"ce4bhf92rcd13ifvqf40","pricing_plan_id":"cebpf4jnsgd1na2vs0mg"},{"bike_id":"7b417520-7ee3-46cc-aa33-ff42173ae616","system_id":"levelo_inurba_marseille","lat":43.28699,"lon":5.38656,"is_reserved":false,"is_disabled":false,"rental_uris":{"android":"levelo://app?vid=7b417520-7ee3-46cc-aa33-ff42173ae616","ios":"levelo://app?vid=7b417520-7ee3-46cc-aa33-ff42173ae616"},"vehicle_type_id":"4","last_reported":1741371143,"current_range_meters":8000,"station_id":"ce4bh492rcd13ifvqdug","pricing_plan_id":"cebpf4jnsgd1na2vs0mg"},{"bike_id":"d5c546c1-3138-45dd-ba71-00465e20affa","system_id":"levelo_inurba_marseille","lat":43.27943,"lon":5.4105,"is_reserved":false,"is_disabled":false,"rental_uris":{"android":"levelo://app?vid=d5c546c1-3138-45dd-ba71-00465e20affa","ios":"levelo://app?vid=d5c546c1-3138-45dd-ba71-00465e20affa"},"vehicle_type_id":"4","last_reported":1741371143,"current_range_meters":8000,"station_id":"ce4bhnp2rcd13ifvqh0g","pricing_plan_id":"cebpf4jnsgd1na2vs0mg"},{"bike_id":"903d9235-3e9c-41c2-842d-53ac41a587b4","system_id":"levelo_inurba_marseille","lat":43.29604,"lon":5.38104,"is_reserved":false,"is_disabled":false,"rental_uris":{"android":"levelo://app?vid=903d9235-3e9c-41c2-842d-53ac41a587b4","ios":"levelo://app?vid=903d9235-3e9c-41c2-842d-53ac41a587b4"},"vehicle_type_id":"4","last_reported":1741371143,"current_range_meters":8000,"station_id":"ce4bgl12rcd13ifvqbo0","pricing_plan_id":"cebpf4jnsgd1na2vs0mg"},{"bike_id":"dc06feb6-6c0c-4ce0-8bf3-6f377a951202","system_id":"levelo_inurba_marseille","lat":43.29798,"lon":5.3809,"is_reserved":false,"is_disabled":false,"rental_uris":{"android":"levelo://app?vid=dc06feb6-6c0c-4ce0-8bf3-6f377a951202","ios":"levelo://app?vid=dc06feb6-6c0c-4ce0-8bf3-6f377a951202"},"vehicle_type_id":"4","last_reported":1741371143,"current_range_meters":8000,"station_id":"ce4bgip2rcd13ifvqbb0","pricing_plan_id":"cebpf4jnsgd1na2vs0mg"},{"bike_id":"35130f87-b313-43ca-86df-0e44026654c1","system_id":"levelo_inurba_marseille","lat":43.30809,"lon":5.38028,"is_reserved":false,"is_disabled":false,"rental_uris":{"android":"levelo://app?vid=35130f87-b313-43ca-86df-0e44026654c1","ios":"levelo://app?vid=35130f87-b313-43ca-86df-0e44026654c1"},"vehicle_type_id":"4","last_reported":1741371143,"current_range_meters":8400,"station_id":"","pricing_plan_id":"cebpf4jnsgd1na2vs0mg"},{"bike_id":"55f1a346-655d-4ceb-961f-e11c032b07e0","system_id":"levelo_inurba_marseille","lat":43.32684,"lon":5.4028,"is_reserved":false,"is_disabled":false,"rental_uris":{"android":"levelo://app?vid=55f1a346-655d-4ceb-961f-e11c032b07e0","ios":"levelo://app?vid=55f1a346-655d-4ceb-961f-e11c032b07e0"},"vehicle_type_id":"4","last_reported":1741371143,"current_range_meters":8400,"station_id":"","pricing_plan_id":"cebpf4jnsgd1na2vs0mg"},{"bike_id":"331519e8-7952-478f-b99b-6050fa7fa4d9","system_id":"levelo_inurba_marseille","lat":43.280792,"lon":5.396569,"is_reserved":false,"is_disabled":false,"rental_uris":{"android":"levelo://app?vid=331519e8-7952-478f-b99b-6050fa7fa4d9","ios":"levelo://app?vid=331519e8-7952-478f-b99b-6050fa7fa4d9"},"vehicle_type_id":"4","last_reported":1741371143,"current_range_meters":11600,"station_id":"ce4bho12rcd13ifvqh2g","pricing_plan_id":"cebpf4jnsgd1na2vs0mg"},{"bike_id":"abdd9151-a438-4ce2-9b74-a6a7478d3a72","system_id":"levelo_inurba_marseille","lat":43.2678,"lon":5.39419,"is_reserved":false,"is_disabled":false,"rental_uris":{"android":"levelo://app?vid=abdd9151-a438-4ce2-9b74-a6a7478d3a72","ios":"levelo://app?vid=abdd9151-a438-4ce2-9b74-a6a7478d3a72"},"vehicle_type_id":"4","last_reported":1741371143,"current_range_meters":6800,"station_id":"ce4bhh12rcd13ifvqfg0","pricing_plan_id":"cebpf4jnsgd1na2vs0mg"},{"bike_id":"28437508-fa41-4054-b93c-b2fb98fbe78d","system_id":"levelo_inurba_marseille","lat":43.27902,"lon":5.38004,"is_reserved":false,"is_disabled":false,"rental_uris":{"android":"levelo://app?vid=28437508-fa41-4054-b93c-b2fb98fbe78d","ios":"levelo://app?vid=28437508-fa41-4054-b93c-b2fb98fbe78d"},"vehicle_type_id":"4","last_reported":1741371143,"current_range_meters":8400,"station_id":"ce4bhf92rcd13ifvqf50","pricing_plan_id":"cebpf4jnsgd1na2vs0mg"},{"bike_id":"31aa513d-a6f0-45d3-9f83-3cfc0eb30cb8","system_id":"levelo_inurba_marseille","lat":43.29235,"lon":5.3719,"is_reserved":false,"is_disabled":false,"rental_uris":{"android":"levelo://app?vid=31aa513d-a6f0-45d3-9f83-3cfc0eb30cb8","ios":"levelo://app?vid=31aa513d-a6f0-45d3-9f83-3cfc0eb30cb8"},"vehicle_type_id":"4","last_reported":1741371143,"current_range_meters":8400,"station_id":"","pricing_plan_id":"cebpf4jnsgd1na2vs0mg"},{"bike_id":"94b9c5d8-0bda-44f7-8169-1c91c8b60425","system_id":"levelo_inurba_marseille","lat":43.31999,"lon":5.38157,"is_reserved":false,"is_disabled":false,"rental_uris":{"android":"levelo://app?vid=94b9c5d8-0bda-44f7-8169-1c91c8b60425","ios":"levelo://app?vid=94b9c5d8-0bda-44f7-8169-1c91c8b60425"},"vehicle_type_id":"4","last_reported":1741371143,"current_range_meters":8400,"station_id":"ce4bhr12rcd13ifvqhpg","pricing_plan_id":"cebpf4jnsgd1na2vs0mg"},{"bike_id":"4bdee50d-2e91-412c-88e0-7d9617916e2e","system_id":"levelo_inurba_marseille","lat":43.29255,"lon":5.38445,"is_reserved":false,"is_disabled":false,"rental_uris":{"android":"levelo://app?vid=4bdee50d-2e91-412c-88e0-7d9617916e2e","ios":"levelo://app?vid=4bdee50d-2e91-412c-88e0-7d9617916e2e"},"vehicle_type_id":"4","last_reported":1741371143,"current_range_meters":8800,"station_id":"ce4bh692rcd13ifvqea0","pricing_plan_id":"cebpf4jnsgd1na2vs0mg"},{"bike_id":"b95dd646-5a74-40f2-8093-79aec350c7cb","system_id":"levelo_inurba_marseille","lat":43.29202,"lon":5.35807,"is_reserved":false,"is_disabled":false,"rental_uris":{"android":"levelo://app?vid=b95dd646-5a74-40f2-8093-79aec350c7cb","ios":"levelo://app?vid=b95dd646-5a74-40f2-8093-79aec350c7cb"},"vehicle_type_id":"4","last_reported":1741371143,"current_range_meters":5600,"station_id":"ce4bhb12rcd13ifvqel0","pricing_plan_id":"cebpf4jnsgd1na2vs0mg"},{"bike_id":"b2cada68-d22d-4962-a15a-eab832155af1","system_id":"levelo_inurba_marseille","lat":43.31328,"lon":5.39686,"is_reserved":false,"is_disabled":false,"rental_uris":{"android":"levelo://app?vid=b2cada68-d22d-4962-a15a-eab832155af1","ios":"levelo://app?vid=b2cada68-d22d-4962-a15a-eab832155af1"},"vehicle_type_id":"4","last_reported":1741371143,"current_range_meters":8800,"station_id":"ce4bgvp2rcd13ifvqcu0","pricing_plan_id":"cebpf4jnsgd1na2vs0mg"},{"bike_id":"a8346857-aeb5-446d-a7c0-256440b8c5b2","system_id":"levelo_inurba_marseille","lat":43.27948,"lon":5.41053,"is_reserved":false,"is_disabled":false,"rental_uris":{"android":"levelo://app?vid=a8346857-aeb5-446d-a7c0-256440b8c5b2","ios":"levelo://app?vid=a8346857-aeb5-446d-a7c0-256440b8c5b2"},"vehicle_type_id":"4","last_reported":1741371143,"current_range_meters":8800,"station_id":"ce4bhnp2rcd13ifvqh0g","pricing_plan_id":"cebpf4jnsgd1na2vs0mg"},{"bike_id":"bb77ae62-b9e3-4432-a093-6f832168f9bd","system_id":"levelo_inurba_marseille","lat":43.32336,"lon":5.40618,"is_reserved":false,"is_disabled":false,"rental_uris":{"android":"levelo://app?vid=bb77ae62-b9e3-4432-a093-6f832168f9bd","ios":"levelo://app?vid=bb77ae62-b9e3-4432-a093-6f832168f9bd"},"vehicle_type_id":"4","last_reported":1741371143,"current_range_meters":8800,"station_id":"ce4bhq92rcd13ifvqhjg","pricing_plan_id":"cebpf4jnsgd1na2vs0mg"},{"bike_id":"b4f01b10-b690-4897-b8b2-04082375f3aa","system_id":"levelo_inurba_marseille","lat":43.28267,"lon":5.35067,"is_reserved":false,"is_disabled":false,"rental_uris":{"android":"levelo://app?vid=b4f01b10-b690-4897-b8b2-04082375f3aa","ios":"levelo://app?vid=b4f01b10-b690-4897-b8b2-04082375f3aa"},"vehicle_type_id":"4","last_reported":1741371143,"current_range_meters":8800,"station_id":"ce4bhbp2rcd13ifvqerg","pricing_plan_id":"cebpf4jnsgd1na2vs0mg"},{"bike_id":"d4a9750a-59e8-4f93-9e66-85db54d2ab05","system_id":"levelo_inurba_marseille","lat":43.29529,"lon":5.39412,"is_reserved":false,"is_disabled":false,"rental_uris":{"android":"levelo://app?vid=d4a9750a-59e8-4f93-9e66-85db54d2ab05","ios":"levelo://app?vid=d4a9750a-59e8-4f93-9e66-85db54d2ab05"},"vehicle_type_id":"4","last_reported":1741371143,"current_range_meters":9200,"station_id":"ce4bh292rcd13ifvqdf0","pricing_plan_id":"cebpf4jnsgd1na2vs0mg"},{"bike_id":"50cf34e3-a6c8-4a39-8bb3-c72bf0329907","system_id":"levelo_inurba_marseille","lat":43.31117,"lon":5.37782,"is_reserved":false,"is_disabled":false,"rental_uris":{"android":"levelo://app?vid=50cf34e3-a6c8-4a39-8bb3-c72bf0329907","ios":"levelo://app?vid=50cf34e3-a6c8-4a39-8bb3-c72bf0329907"},"vehicle_type_id":"4","last_reported":1741371143,"current_range_meters":9200,"station_id":"ce4bgt92rcd13ifvqcg0","pricing_plan_id":"cebpf4jnsgd1na2vs0mg"},{"bike_id":"aa5b6260-4848-4bed-9a65-5bb2d0afbed8","system_id":"levelo_inurba_marseille","lat":43.23186,"lon":5.39999,"is_reserved":false,"is_disabled":false,"rental_uris":{"android":"levelo://app?vid=aa5b6260-4848-4bed-9a65-5bb2d0afbed8","ios":"levelo://app?vid=aa5b6260-4848-4bed-9a65-5bb2d0afbed8"},"vehicle_type_id":"4","last_reported":1741371143,"current_range_meters":9200,"station_id":"ce4bhn12rcd13ifvqgqg","pricing_plan_id":"cebpf4jnsgd1na2vs0mg"},{"bike_id":"d30a9064-1439-4708-a478-dc3a50886051","system_id":"levelo_inurba_marseille","lat":43.33023,"lon":5.39045,"is_reserved":false,"is_disabled":false,"rental_uris":{"android":"levelo://app?vid=d30a9064-1439-4708-a478-dc3a50886051","ios":"levelo://app?vid=d30a9064-1439-4708-a478-dc3a50886051"},"vehicle_type_id":"4","last_reported":1741371143,"current_range_meters":12400,"station_id":"ce4bhr92rcd13ifvqhrg","pricing_plan_id":"cebpf4jnsgd1na2vs0mg"},{"bike_id":"328a29fd-0ccd-46b2-b2ae-6b262b6e6e08","system_id":"levelo_inurba_marseille","lat":43.30211,"lon":5.39485,"is_reserved":false,"is_disabled":false,"rental_uris":{"android":"levelo://app?vid=328a29fd-0ccd-46b2-b2ae-6b262b6e6e08","ios":"levelo://app?vid=328a29fd-0ccd-46b2-b2ae-6b262b6e6e08"},"vehicle_type_id":"4","last_reported":1741371143,"current_range_meters":9200,"station_id":"ce4bh0p2rcd13ifvqd70","pricing_plan_id":"cebpf4jnsgd1na2vs0mg"},{"bike_id":"463b9074-6aac-4a77-ae8e-a16fdc8c74e2","system_id":"levelo_inurba_marseille","lat":43.319,"lon":5.40741,"is_reserved":false,"is_disabled":false,"rental_uris":{"android":"levelo://app?vid=463b9074-6aac-4a77-ae8e-a16fdc8c74e2","ios":"levelo://app?vid=463b9074-6aac-4a77-ae8e-a16fdc8c74e2"},"vehicle_type_id":"4","last_reported":1741371143,"current_range_meters":9200,"station_id":"ce4bhq12rcd13ifvqhig","pricing_plan_id":"cebpf4jnsgd1na2vs0mg"},{"bike_id":"8feb7cbc-36dc-40dc-997e-c5537e06e7db","system_id":"levelo_inurba_marseille","lat":43.22928,"lon":5.35372,"is_reserved":false,"is_disabled":false,"rental_uris":{"android":"levelo://app?vid=8feb7cbc-36dc-40dc-997e-c5537e06e7db","ios":"levelo://app?vid=8feb7cbc-36dc-40dc-997e-c5537e06e7db"},"vehicle_type_id":"4","last_reported":1741371143,"current_range_meters":9200,"station_id":"cpo3532slgdg3j2ikp40","pricing_plan_id":"cebpf4jnsgd1na2vs0mg"},{"bike_id":"61326590-e205-4342-a8ea-169bef771815","system_id":"levelo_inurba_marseille","lat":43.25869,"lon":5.39898,"is_reserved":false,"is_disabled":false,"rental_uris":{"android":"levelo://app?vid=61326590-e205-4342-a8ea-169bef771815","ios":"levelo://app?vid=61326590-e205-4342-a8ea-169bef771815"},"vehicle_type_id":"4","last_reported":1741371143,"current_range_meters":9200,"station_id":"ce4bhl92rcd13ifvqghg","pricing_plan_id":"cebpf4jnsgd1na2vs0mg"},{"bike_id":"663f3557-f510-479b-85e5-127eaab2ab7a","system_id":"levelo_inurba_marseille","lat":43.30885,"lon":5.39655,"is_reserved":false,"is_disabled":false,"rental_uris":{"android":"levelo://app?vid=663f3557-f510-479b-85e5-127eaab2ab7a","ios":"levelo://app?vid=663f3557-f510-479b-85e5-127eaab2ab7a"},"vehicle_type_id":"4","last_reported":1741371143,"current_range_meters":12400,"station_id":"ce4bh012rcd13ifvqcv0","pricing_plan_id":"cebpf4jnsgd1na2vs0mg"},{"bike_id":"9e0e6e41-5cde-4abe-bae4-412154965118","system_id":"levelo_inurba_marseille","lat":43.239705,"lon":5.366337,"is_reserved":false,"is_disabled":false,"rental_uris":{"android":"levelo://app?vid=9e0e6e41-5cde-4abe-bae4-412154965118","ios":"levelo://app?vid=9e0e6e41-5cde-4abe-bae4-412154965118"},"vehicle_type_id":"4","last_reported":1741371143,"current_range_meters":9600,"station_id":"ce4bhi12rcd13ifvqfp0","pricing_plan_id":"cebpf4jnsgd1na2vs0mg"},{"bike_id":"88a4d10a-fd5b-410e-8326-c4b9db491026","system_id":"levelo_inurba_marseille","lat":43.30134,"lon":5.39836,"is_reserved":false,"is_disabled":false,"rental_uris":{"android":"levelo://app?vid=88a4d10a-fd5b-410e-8326-c4b9db491026","ios":"levelo://app?vid=88a4d10a-fd5b-410e-8326-c4b9db491026"},"vehicle_type_id":"4","last_reported":1741371143,"current_range_meters":9600,"station_id":"ce4bh0h2rcd13ifvqd40","pricing_plan_id":"cebpf4jnsgd1na2vs0mg"},{"bike_id":"1379bbf6-914f-47cf-967e-245e8d5e38f1","system_id":"levelo_inurba_marseille","lat":43.31759,"lon":5.3902,"is_reserved":false,"is_disabled":false,"rental_uris":{"android":"levelo://app?vid=1379bbf6-914f-47cf-967e-245e8d5e38f1","ios":"levelo://app?vid=1379bbf6-914f-47cf-967e-245e8d5e38f1"},"vehicle_type_id":"4","last_reported":1741371143,"current_range_meters":9600,"station_id":"ce4bhqp2rcd13ifvqhng","pricing_plan_id":"cebpf4jnsgd1na2vs0mg"},{"bike_id":"887723e2-e938-4a66-922b-e2d485708eea","system_id":"levelo_inurba_marseille","lat":43.29885,"lon":5.38908,"is_reserved":false,"is_disabled":false,"rental_uris":{"android":"levelo://app?vid=887723e2-e938-4a66-922b-e2d485708eea","ios":"levelo://app?vid=887723e2-e938-4a66-922b-e2d485708eea"},"vehicle_type_id":"4","last_reported":1741371143,"current_range_meters":9600,"station_id":"ce4bh392rcd13ifvqdl0","pricing_plan_id":"cebpf4jnsgd1na2vs0mg"},{"bike_id":"e4b7e3ae-7116-4270-88a8-190c0075c866","system_id":"levelo_inurba_marseille","lat":43.32062,"lon":5.41569,"is_reserved":false,"is_disabled":false,"rental_uris":{"android":"levelo://app?vid=e4b7e3ae-7116-4270-88a8-190c0075c866","ios":"levelo://app?vid=e4b7e3ae-7116-4270-88a8-190c0075c866"},"vehicle_type_id":"4","last_reported":1741371143,"current_range_meters":9600,"station_id":"ce4bhq92rcd13ifvqhkg","pricing_plan_id":"cebpf4jnsgd1na2vs0mg"},{"bike_id":"66ebfb7b-ac8b-457d-a9ff-4c38b7936689","system_id":"levelo_inurba_marseille","lat":43.24808,"lon":5.37461,"is_reserved":false,"is_disabled":false,"rental_uris":{"android":"levelo://app?vid=66ebfb7b-ac8b-457d-a9ff-4c38b7936689","ios":"levelo://app?vid=66ebfb7b-ac8b-457d-a9ff-4c38b7936689"},"vehicle_type_id":"4","last_reported":1741371143,"current_range_meters":9600,"station_id":"ce4bhgh2rcd13ifvqfb0","pricing_plan_id":"cebpf4jnsgd1na2vs0mg"},{"bike_id":"431037b5-a5d3-4f7c-a082-acb5bd2f7940","system_id":"levelo_inurba_marseille","lat":43.23061,"lon":5.3549,"is_reserved":false,"is_disabled":false,"rental_uris":{"android":"levelo://app?vid=431037b5-a5d3-4f7c-a082-acb5bd2f7940","ios":"levelo://app?vid=431037b5-a5d3-4f7c-a082-acb5bd2f7940"},"vehicle_type_id":"4","last_reported":1741371143,"current_range_meters":9600,"station_id":"cpo3342slgdg3j2ifvpg","pricing_plan_id":"cebpf4jnsgd1na2vs0mg"},{"bike_id":"42323b44-4776-4993-88db-08c90d643018","system_id":"levelo_inurba_marseille","lat":43.30076,"lon":5.37666,"is_reserved":false,"is_disabled":false,"rental_uris":{"android":"levelo://app?vid=42323b44-4776-4993-88db-08c90d643018","ios":"levelo://app?vid=42323b44-4776-4993-88db-08c90d643018"},"vehicle_type_id":"4","last_reported":1741371143,"current_range_meters":9600,"station_id":"","pricing_plan_id":"cebpf4jnsgd1na2vs0mg"},{"bike_id":"1985de69-4189-40f4-9538-09d348e1aeff","system_id":"levelo_inurba_marseille","lat":43.29467,"lon":5.38932,"is_reserved":false,"is_disabled":false,"rental_uris":{"android":"levelo://app?vid=1985de69-4189-40f4-9538-09d348e1aeff","ios":"levelo://app?vid=1985de69-4189-40f4-9538-09d348e1aeff"},"vehicle_type_id":"4","last_reported":1741371143,"current_range_meters":9600,"station_id":"","pricing_plan_id":"cebpf4jnsgd1na2vs0mg"},{"bike_id":"7fad3a18-9422-44c9-a496-b3d3f9d1e635","system_id":"levelo_inurba_marseille","lat":43.31065,"lon":5.38352,"is_reserved":false,"is_disabled":false,"rental_uris":{"android":"levelo://app?vid=7fad3a18-9422-44c9-a496-b3d3f9d1e635","ios":"levelo://app?vid=7fad3a18-9422-44c9-a496-b3d3f9d1e635"},"vehicle_type_id":"4","last_reported":1741371143,"current_range_meters":9600,"station_id":"ce4bgv92rcd13ifvqcr0","pricing_plan_id":"cebpf4jnsgd1na2vs0mg"},{"bike_id":"9da935d0-0941-44db-bb4f-7f7e582bd3d3","system_id":"levelo_inurba_marseille","lat":43.24153,"lon":5.3641,"is_reserved":false,"is_disabled":false,"rental_uris":{"android":"levelo://app?vid=9da935d0-0941-44db-bb4f-7f7e582bd3d3","ios":"levelo://app?vid=9da935d0-0941-44db-bb4f-7f7e582bd3d3"},"vehicle_type_id":"4","last_reported":1741371143,"current_range_meters":10000,"station_id":"cpo36qri1sfpv3e86is0","pricing_plan_id":"cebpf4jnsgd1na2vs0mg"},{"bike_id":"d9c98cfe-70b6-4be5-b062-e7163acecce1","system_id":"levelo_inurba_marseille","lat":43.29278,"lon":5.37449,"is_reserved":false,"is_disabled":false,"rental_uris":{"android":"levelo://app?vid=d9c98cfe-70b6-4be5-b062-e7163acecce1","ios":"levelo://app?vid=d9c98cfe-70b6-4be5-b062-e7163acecce1"},"vehicle_type_id":"4","last_reported":1741371143,"current_range_meters":10000,"station_id":"ce4bgi12rcd13ifvqb70","pricing_plan_id":"cebpf4jnsgd1na2vs0mg"},{"bike_id":"5a69a9bd-a80d-4ce4-b5c8-bec3b60b93e6","system_id":"levelo_inurba_marseille","lat":43.28993,"lon":5.36667,"is_reserved":false,"is_disabled":false,"rental_uris":{"android":"levelo://app?vid=5a69a9bd-a80d-4ce4-b5c8-bec3b60b93e6","ios":"levelo://app?vid=5a69a9bd-a80d-4ce4-b5c8-bec3b60b93e6"},"vehicle_type_id":"4","last_reported":1741371143,"current_range_meters":10000,"station_id":"","pricing_plan_id":"cebpf4jnsgd1na2vs0mg"},{"bike_id":"702d5521-5b54-4416-95c7-850fcb872c65","system_id":"levelo_inurba_marseille","lat":43.29074,"lon":5.37178,"is_reserved":false,"is_disabled":false,"rental_uris":{"android":"levelo://app?vid=702d5521-5b54-4416-95c7-850fcb872c65","ios":"levelo://app?vid=702d5521-5b54-4416-95c7-850fcb872c65"},"vehicle_type_id":"4","last_reported":1741371143,"current_range_meters":9600,"station_id":"ce4bh5p2rcd13ifvqe4g","pricing_plan_id":"cebpf4jnsgd1na2vs0mg"},{"bike_id":"daa48c53-c5de-46aa-94fc-655cbd710c8c","system_id":"levelo_inurba_marseille","lat":43.22923,"lon":5.35369,"is_reserved":false,"is_disabled":false,"rental_uris":{"android":"levelo://app?vid=daa48c53-c5de-46aa-94fc-655cbd710c8c","ios":"levelo://app?vid=daa48c53-c5de-46aa-94fc-655cbd710c8c"},"vehicle_type_id":"4","last_reported":1741371143,"current_range_meters":10000,"station_id":"cpo3532slgdg3j2ikp40","pricing_plan_id":"cebpf4jnsgd1na2vs0mg"},{"bike_id":"a8254080-ec5a-41e9-a690-6e5a90fd9269","system_id":"levelo_inurba_marseille","lat":43.31076,"lon":5.38366,"is_reserved":false,"is_disabled":false,"rental_uris":{"android":"levelo://app?vid=a8254080-ec5a-41e9-a690-6e5a90fd9269","ios":"levelo://app?vid=a8254080-ec5a-41e9-a690-6e5a90fd9269"},"vehicle_type_id":"4","last_reported":1741371143,"current_range_meters":10800,"station_id":"ce4bgv92rcd13ifvqcr0","pricing_plan_id":"cebpf4jnsgd1na2vs0mg"},{"bike_id":"846b1e8d-11c0-44f2-be9e-3d28774bf3b5","system_id":"levelo_inurba_marseille","lat":43.30789,"lon":5.38141,"is_reserved":false,"is_disabled":false,"rental_uris":{"android":"levelo://app?vid=846b1e8d-11c0-44f2-be9e-3d28774bf3b5","ios":"levelo://app?vid=846b1e8d-11c0-44f2-be9e-3d28774bf3b5"},"vehicle_type_id":"4","last_reported":1741371143,"current_range_meters":11600,"station_id":"ce4bgt12rcd13ifvqce0","pricing_plan_id":"cebpf4jnsgd1na2vs0mg"},{"bike_id":"b341c54c-6111-4d2e-a438-fee64f722f87","system_id":"levelo_inurba_marseille","lat":43.29428,"lon":5.38616,"is_reserved":false,"is_disabled":false,"rental_uris":{"android":"levelo://app?vid=b341c54c-6111-4d2e-a438-fee64f722f87","ios":"levelo://app?vid=b341c54c-6111-4d2e-a438-fee64f722f87"},"vehicle_type_id":"4","last_reported":1741371143,"current_range_meters":10800,"station_id":"ce4bh2h2rcd13ifvqdh0","pricing_plan_id":"cebpf4jnsgd1na2vs0mg"},{"bike_id":"3949e300-2dbd-4203-aa58-eef0b1b0c774","system_id":"levelo_inurba_marseille","lat":43.33764,"lon":5.37434,"is_reserved":false,"is_disabled":false,"rental_uris":{"android":"levelo://app?vid=3949e300-2dbd-4203-aa58-eef0b1b0c774","ios":"levelo://app?vid=3949e300-2dbd-4203-aa58-eef0b1b0c774"},"vehicle_type_id":"4","last_reported":1741371143,"current_range_meters":10800,"station_id":"","pricing_plan_id":"cebpf4jnsgd1na2vs0mg"},{"bike_id":"435b8807-e764-49a8-bb09-6f17b5942ba5","system_id":"levelo_inurba_marseille","lat":43.29983,"lon":5.3849,"is_reserved":false,"is_disabled":false,"rental_uris":{"android":"levelo://app?vid=435b8807-e764-49a8-bb09-6f17b5942ba5","ios":"levelo://app?vid=435b8807-e764-49a8-bb09-6f17b5942ba5"},"vehicle_type_id":"4","last_reported":1741371143,"current_range_meters":10800,"station_id":"ce4bgj92rcd13ifvqbd0","pricing_plan_id":"cebpf4jnsgd1na2vs0mg"},{"bike_id":"7b62c62b-d961-49e1-afe1-b0b21a291801","system_id":"levelo_inurba_marseille","lat":43.27861,"lon":5.41748,"is_reserved":false,"is_disabled":true,"rental_uris":{"android":"levelo://app?vid=7b62c62b-d961-49e1-afe1-b0b21a291801","ios":"levelo://app?vid=7b62c62b-d961-49e1-afe1-b0b21a291801"},"vehicle_type_id":"4","last_reported":1741371143,"current_range_meters":10800,"station_id":"","pricing_plan_id":"cebpf4jnsgd1na2vs0mg"},{"bike_id":"8d4928e0-5b6b-4c63-92e5-15dc18de6c1d","system_id":"levelo_inurba_marseille","lat":43.330053,"lon":5.390487,"is_reserved":false,"is_disabled":false,"rental_uris":{"android":"levelo://app?vid=8d4928e0-5b6b-4c63-92e5-15dc18de6c1d","ios":"levelo://app?vid=8d4928e0-5b6b-4c63-92e5-15dc18de6c1d"},"vehicle_type_id":"4","last_reported":1741371143,"current_range_meters":10800,"station_id":"ce4bhr92rcd13ifvqhrg","pricing_plan_id":"cebpf4jnsgd1na2vs0mg"},{"bike_id":"9d9387ab-5eb9-4689-bb96-b2a076439581","system_id":"levelo_inurba_marseille","lat":43.28098,"lon":5.39872,"is_reserved":false,"is_disabled":false,"rental_uris":{"android":"levelo://app?vid=9d9387ab-5eb9-4689-bb96-b2a076439581","ios":"levelo://app?vid=9d9387ab-5eb9-4689-bb96-b2a076439581"},"vehicle_type_id":"4","last_reported":1741371143,"current_range_meters":10800,"station_id":"","pricing_plan_id":"cebpf4jnsgd1na2vs0mg"},{"bike_id":"7577c2df-8005-47f5-8b7b-decfbeddad06","system_id":"levelo_inurba_marseille","lat":43.30651,"lon":5.40102,"is_reserved":false,"is_disabled":false,"rental_uris":{"android":"levelo://app?vid=7577c2df-8005-47f5-8b7b-decfbeddad06","ios":"levelo://app?vid=7577c2df-8005-47f5-8b7b-decfbeddad06"},"vehicle_type_id":"4","last_reported":1741371143,"current_range_meters":10800,"station_id":"ce4bh112rcd13ifvqda0","pricing_plan_id":"cebpf4jnsgd1na2vs0mg"},{"bike_id":"99372ffb-1d51-4014-a68c-53b2b424f35b","system_id":"levelo_inurba_marseille","lat":43.2318,"lon":5.39996,"is_reserved":false,"is_disabled":false,"rental_uris":{"android":"levelo://app?vid=99372ffb-1d51-4014-a68c-53b2b424f35b","ios":"levelo://app?vid=99372ffb-1d51-4014-a68c-53b2b424f35b"},"vehicle_type_id":"4","last_reported":1741371143,"current_range_meters":11200,"station_id":"ce4bhn12rcd13ifvqgqg","pricing_plan_id":"cebpf4jnsgd1na2vs0mg"},{"bike_id":"db7cd95b-0159-457d-aa08-f78ad0493427","system_id":"levelo_inurba_marseille","lat":43.32345,"lon":5.38895,"is_reserved":false,"is_disabled":false,"rental_uris":{"android":"levelo://app?vid=db7cd95b-0159-457d-aa08-f78ad0493427","ios":"levelo://app?vid=db7cd95b-0159-457d-aa08-f78ad0493427"},"vehicle_type_id":"4","last_reported":1741371143,"current_range_meters":11200,"station_id":"ce4bhqp2rcd13ifvqhog","pricing_plan_id":"cebpf4jnsgd1na2vs0mg"},{"bike_id":"19c8b75d-9df4-4881-b1af-4bce9fab1c19","system_id":"levelo_inurba_marseille","lat":43.29531,"lon":5.39408,"is_reserved":false,"is_disabled":false,"rental_uris":{"android":"levelo://app?vid=19c8b75d-9df4-4881-b1af-4bce9fab1c19","ios":"levelo://app?vid=19c8b75d-9df4-4881-b1af-4bce9fab1c19"},"vehicle_type_id":"4","last_reported":1741371143,"current_range_meters":11200,"station_id":"ce4bh292rcd13ifvqdf0","pricing_plan_id":"cebpf4jnsgd1na2vs0mg"},{"bike_id":"1ee01f7e-72ca-448a-bce4-8c62e74b5019","system_id":"levelo_inurba_marseille","lat":43.2796,"lon":5.41017,"is_reserved":false,"is_disabled":false,"rental_uris":{"android":"levelo://app?vid=1ee01f7e-72ca-448a-bce4-8c62e74b5019","ios":"levelo://app?vid=1ee01f7e-72ca-448a-bce4-8c62e74b5019"},"vehicle_type_id":"4","last_reported":1741371143,"current_range_meters":11200,"station_id":"ce4bhnp2rcd13ifvqh0g","pricing_plan_id":"cebpf4jnsgd1na2vs0mg"},{"bike_id":"d5dbd70e-fc57-4547-949f-9630a7eae03a","system_id":"levelo_inurba_marseille","lat":43.30887,"lon":5.37193,"is_reserved":false,"is_disabled":false,"rental_uris":{"android":"levelo://app?vid=d5dbd70e-fc57-4547-949f-9630a7eae03a","ios":"levelo://app?vid=d5dbd70e-fc57-4547-949f-9630a7eae03a"},"vehicle_type_id":"4","last_reported":1741371143,"current_range_meters":11600,"station_id":"ce4bguh2rcd13ifvqckg","pricing_plan_id":"cebpf4jnsgd1na2vs0mg"},{"bike_id":"8eb914a9-ff5d-4570-b3c7-176ed1240b84","system_id":"levelo_inurba_marseille","lat":43.296403,"lon":5.375798,"is_reserved":false,"is_disabled":false,"rental_uris":{"android":"levelo://app?vid=8eb914a9-ff5d-4570-b3c7-176ed1240b84","ios":"levelo://app?vid=8eb914a9-ff5d-4570-b3c7-176ed1240b84"},"vehicle_type_id":"4","last_reported":1741371143,"current_range_meters":10800,"station_id":"ce4bhap2rcd13ifvqek0","pricing_plan_id":"cebpf4jnsgd1na2vs0mg"},{"bike_id":"7b3ef521-00f4-43dc-a155-363c43797826","system_id":"levelo_inurba_marseille","lat":43.27965,"lon":5.38744,"is_reserved":false,"is_disabled":false,"rental_uris":{"android":"levelo://app?vid=7b3ef521-00f4-43dc-a155-363c43797826","ios":"levelo://app?vid=7b3ef521-00f4-43dc-a155-363c43797826"},"vehicle_type_id":"4","last_reported":1741371143,"current_range_meters":11600,"station_id":"ce4bhg12rcd13ifvqf80","pricing_plan_id":"cebpf4jnsgd1na2vs0mg"},{"bike_id":"e6472cf0-0ad7-491d-9b42-ba9a1b7210e2","system_id":"levelo_inurba_marseille","lat":43.29896,"lon":5.43685,"is_reserved":false,"is_disabled":false,"rental_uris":{"android":"levelo://app?vid=e6472cf0-0ad7-491d-9b42-ba9a1b7210e2","ios":"levelo://app?vid=e6472cf0-0ad7-491d-9b42-ba9a1b7210e2"},"vehicle_type_id":"4","last_reported":1741371143,"current_range_meters":12000,"station_id":"ce4bhpp2rcd13ifvqhfg","pricing_plan_id":"cebpf4jnsgd1na2vs0mg"},{"bike_id":"c0a44601-40f2-43af-a819-13fdba1c4502","system_id":"levelo_inurba_marseille","lat":43.25723,"lon":5.41109,"is_reserved":false,"is_disabled":false,"rental_uris":{"android":"levelo://app?vid=c0a44601-40f2-43af-a819-13fdba1c4502","ios":"levelo://app?vid=c0a44601-40f2-43af-a819-13fdba1c4502"},"vehicle_type_id":"4","last_reported":1741371143,"current_range_meters":12000,"station_id":"ce4bhkp2rcd13ifvqgd0","pricing_plan_id":"cebpf4jnsgd1na2vs0mg"},{"bike_id":"e685070e-a3d7-4590-a7c1-48c6b9e0f27c","system_id":"levelo_inurba_marseille","lat":43.31472,"lon":5.37377,"is_reserved":false,"is_disabled":false,"rental_uris":{"android":"levelo://app?vid=e685070e-a3d7-4590-a7c1-48c6b9e0f27c","ios":"levelo://app?vid=e685070e-a3d7-4590-a7c1-48c6b9e0f27c"},"vehicle_type_id":"4","last_reported":1741371143,"current_range_meters":12000,"station_id":"","pricing_plan_id":"cebpf4jnsgd1na2vs0mg"},{"bike_id":"0e674cb4-f37d-4bd5-aaff-7ec953d386c6","system_id":"levelo_inurba_marseille","lat":43.2417,"lon":5.36397,"is_reserved":false,"is_disabled":false,"rental_uris":{"android":"levelo://app?vid=0e674cb4-f37d-4bd5-aaff-7ec953d386c6","ios":"levelo://app?vid=0e674cb4-f37d-4bd5-aaff-7ec953d386c6"},"vehicle_type_id":"4","last_reported":1741371143,"current_range_meters":12000,"station_id":"cpo36qri1sfpv3e86is0","pricing_plan_id":"cebpf4jnsgd1na2vs0mg"},{"bike_id":"df6f241c-f70b-4e31-8690-8115dbb02281","system_id":"levelo_inurba_marseille","lat":43.29288,"lon":5.37474,"is_reserved":false,"is_disabled":false,"rental_uris":{"android":"levelo://app?vid=df6f241c-f70b-4e31-8690-8115dbb02281","ios":"levelo://app?vid=df6f241c-f70b-4e31-8690-8115dbb02281"},"vehicle_type_id":"4","last_reported":1741371143,"current_range_meters":12800,"station_id":"ce4bgi12rcd13ifvqb70","pricing_plan_id":"cebpf4jnsgd1na2vs0mg"},{"bike_id":"93ee5eb5-bc07-4fa4-84ef-fcef721c938d","system_id":"levelo_inurba_marseille","lat":43.28273,"lon":5.35074,"is_reserved":false,"is_disabled":false,"rental_uris":{"android":"levelo://app?vid=93ee5eb5-bc07-4fa4-84ef-fcef721c938d","ios":"levelo://app?vid=93ee5eb5-bc07-4fa4-84ef-fcef721c938d"},"vehicle_type_id":"4","last_reported":1741371143,"current_range_meters":12400,"station_id":"ce4bhbp2rcd13ifvqerg","pricing_plan_id":"cebpf4jnsgd1na2vs0mg"},{"bike_id":"b1210f3a-c7f4-4482-b30a-f6576eacc631","system_id":"levelo_inurba_marseille","lat":43.27989,"lon":5.41657,"is_reserved":false,"is_disabled":false,"rental_uris":{"android":"levelo://app?vid=b1210f3a-c7f4-4482-b30a-f6576eacc631","ios":"levelo://app?vid=b1210f3a-c7f4-4482-b30a-f6576eacc631"},"vehicle_type_id":"4","last_reported":1741371143,"current_range_meters":12400,"station_id":"ce4bho12rcd13ifvqh1g","pricing_plan_id":"cebpf4jnsgd1na2vs0mg"},{"bike_id":"da7b6f5b-f109-4caf-a2a4-3da3e33fadea","system_id":"levelo_inurba_marseille","lat":43.29227,"lon":5.36053,"is_reserved":false,"is_disabled":false,"rental_uris":{"android":"levelo://app?vid=da7b6f5b-f109-4caf-a2a4-3da3e33fadea","ios":"levelo://app?vid=da7b6f5b-f109-4caf-a2a4-3da3e33fadea"},"vehicle_type_id":"4","last_reported":1741371143,"current_range_meters":12400,"station_id":"ce4bhbh2rcd13ifvqeqg","pricing_plan_id":"cebpf4jnsgd1na2vs0mg"},{"bike_id":"f06ad962-3ddf-4a62-92e8-209d90c48510","system_id":"levelo_inurba_marseille","lat":43.28934,"lon":5.36635,"is_reserved":false,"is_disabled":false,"rental_uris":{"android":"levelo://app?vid=f06ad962-3ddf-4a62-92e8-209d90c48510","ios":"levelo://app?vid=f06ad962-3ddf-4a62-92e8-209d90c48510"},"vehicle_type_id":"4","last_reported":1741371143,"current_range_meters":12400,"station_id":"ce4bhap2rcd13ifvqek0","pricing_plan_id":"cebpf4jnsgd1na2vs0mg"},{"bike_id":"54954614-0ac5-41d2-8a16-307c508cf4e1","system_id":"levelo_inurba_marseille","lat":43.33022,"lon":5.39062,"is_reserved":false,"is_disabled":false,"rental_uris":{"android":"levelo://app?vid=54954614-0ac5-41d2-8a16-307c508cf4e1","ios":"levelo://app?vid=54954614-0ac5-41d2-8a16-307c508cf4e1"},"vehicle_type_id":"4","last_reported":1741371143,"current_range_meters":12400,"station_id":"ce4bhr92rcd13ifvqhrg","pricing_plan_id":"cebpf4jnsgd1na2vs0mg"},{"bike_id":"7f902285-5215-4987-acb7-a3fe0186127c","system_id":"levelo_inurba_marseille","lat":43.28697,"lon":5.3738,"is_reserved":false,"is_disabled":false,"rental_uris":{"android":"levelo://app?vid=7f902285-5215-4987-acb7-a3fe0186127c","ios":"levelo://app?vid=7f902285-5215-4987-acb7-a3fe0186127c"},"vehicle_type_id":"4","last_reported":1741371143,"current_range_meters":12400,"station_id":"ce4bh3p2rcd13ifvqdq0","pricing_plan_id":"cebpf4jnsgd1na2vs0mg"},{"bike_id":"17bb57f7-be01-4309-999c-1115b3a1edab","system_id":"levelo_inurba_marseille","lat":43.29541,"lon":5.38546,"is_reserved":false,"is_disabled":false,"rental_uris":{"android":"levelo://app?vid=17bb57f7-be01-4309-999c-1115b3a1edab","ios":"levelo://app?vid=17bb57f7-be01-4309-999c-1115b3a1edab"},"vehicle_type_id":"4","last_reported":1741371143,"current_range_meters":12400,"station_id":"ce4bgih2rcd13ifvqba0","pricing_plan_id":"cebpf4jnsgd1na2vs0mg"},{"bike_id":"6b5ed41a-b047-49ed-b2eb-95dc3f5a273e","system_id":"levelo_inurba_marseille","lat":43.2988,"lon":5.39737,"is_reserved":false,"is_disabled":false,"rental_uris":{"android":"levelo://app?vid=6b5ed41a-b047-49ed-b2eb-95dc3f5a273e","ios":"levelo://app?vid=6b5ed41a-b047-49ed-b2eb-95dc3f5a273e"},"vehicle_type_id":"4","last_reported":1741371143,"current_range_meters":12800,"station_id":"ce4bh0h2rcd13ifvqd50","pricing_plan_id":"cebpf4jnsgd1na2vs0mg"},{"bike_id":"7372ba19-4949-453e-a20c-490c28817add","system_id":"levelo_inurba_marseille","lat":43.33773,"lon":5.37431,"is_reserved":false,"is_disabled":false,"rental_uris":{"android":"levelo://app?vid=7372ba19-4949-453e-a20c-490c28817add","ios":"levelo://app?vid=7372ba19-4949-453e-a20c-490c28817add"},"vehicle_type_id":"4","last_reported":1741371143,"current_range_meters":12800,"station_id":"","pricing_plan_id":"cebpf4jnsgd1na2vs0mg"},{"bike_id":"f84dac07-aebc-4c91-86d5-a770501ab7d9","system_id":"levelo_inurba_marseille","lat":43.29522,"lon":5.39051,"is_reserved":false,"is_disabled":false,"rental_uris":{"android":"levelo://app?vid=f84dac07-aebc-4c91-86d5-a770501ab7d9","ios":"levelo://app?vid=f84dac07-aebc-4c91-86d5-a770501ab7d9"},"vehicle_type_id":"4","last_reported":1741371143,"current_range_meters":12800,"station_id":"ce4bh3p2rcd13ifvqdp0","pricing_plan_id":"cebpf4jnsgd1na2vs0mg"},{"bike_id":"e524bcef-a391-41b2-bad2-673eae53ea51","system_id":"levelo_inurba_marseille","lat":43.3169,"lon":5.43698,"is_reserved":false,"is_disabled":false,"rental_uris":{"android":"levelo://app?vid=e524bcef-a391-41b2-bad2-673eae53ea51","ios":"levelo://app?vid=e524bcef-a391-41b2-bad2-673eae53ea51"},"vehicle_type_id":"4","last_reported":1741371143,"current_range_meters":12800,"station_id":"ce4bhp92rcd13ifvqhcg","pricing_plan_id":"cebpf4jnsgd1na2vs0mg"},{"bike_id":"42168c6f-35a5-43f2-8ef8-61a75051262d","system_id":"levelo_inurba_marseille","lat":43.281509,"lon":5.426367,"is_reserved":false,"is_disabled":true,"rental_uris":{"android":"levelo://app?vid=42168c6f-35a5-43f2-8ef8-61a75051262d","ios":"levelo://app?vid=42168c6f-35a5-43f2-8ef8-61a75051262d"},"vehicle_type_id":"4","last_reported":1741371143,"current_range_meters":12800,"station_id":"ce4bhnh2rcd13ifvqgug","pricing_plan_id":"cebpf4jnsgd1na2vs0mg"},{"bike_id":"aa3e3a16-afe5-420f-af3b-2d2ca38cab15","system_id":"levelo_inurba_marseille","lat":43.258186,"lon":5.394545,"is_reserved":false,"is_disabled":false,"rental_uris":{"android":"levelo://app?vid=aa3e3a16-afe5-420f-af3b-2d2ca38cab15","ios":"levelo://app?vid=aa3e3a16-afe5-420f-af3b-2d2ca38cab15"},"vehicle_type_id":"4","last_reported":1741371143,"current_range_meters":12400,"station_id":"ce4bhip2rcd13ifvqft0","pricing_plan_id":"cebpf4jnsgd1na2vs0mg"},{"bike_id":"86c7589b-99e4-4f2b-8bce-c44933cad914","system_id":"levelo_inurba_marseille","lat":43.23192,"lon":5.35549,"is_reserved":false,"is_disabled":false,"rental_uris":{"android":"levelo://app?vid=86c7589b-99e4-4f2b-8bce-c44933cad914","ios":"levelo://app?vid=86c7589b-99e4-4f2b-8bce-c44933cad914"},"vehicle_type_id":"4","last_reported":1741371143,"current_range_meters":12800,"station_id":"ce4bhu92rcd13ifvqi70","pricing_plan_id":"cebpf4jnsgd1na2vs0mg"},{"bike_id":"a90387eb-ea20-4006-a44b-a52330e5a618","system_id":"levelo_inurba_marseille","lat":43.29003,"lon":5.35611,"is_reserved":false,"is_disabled":false,"rental_uris":{"android":"levelo://app?vid=a90387eb-ea20-4006-a44b-a52330e5a618","ios":"levelo://app?vid=a90387eb-ea20-4006-a44b-a52330e5a618"},"vehicle_type_id":"4","last_reported":1741371143,"current_range_meters":12800,"station_id":"ce4bhb92rcd13ifvqen0","pricing_plan_id":"cebpf4jnsgd1na2vs0mg"},{"bike_id":"df394045-16c7-4cda-9137-bbed06becb57","system_id":"levelo_inurba_marseille","lat":43.26226,"lon":5.40459,"is_reserved":false,"is_disabled":false,"rental_uris":{"android":"levelo://app?vid=df394045-16c7-4cda-9137-bbed06becb57","ios":"levelo://app?vid=df394045-16c7-4cda-9137-bbed06becb57"},"vehicle_type_id":"4","last_reported":1741371143,"current_range_meters":12800,"station_id":"ce4bhmh2rcd13ifvqgmg","pricing_plan_id":"cebpf4jnsgd1na2vs0mg"},{"bike_id":"dac09d9e-9ab6-4c54-8fe2-7fcfc9203869","system_id":"levelo_inurba_marseille","lat":43.26552,"lon":5.37314,"is_reserved":false,"is_disabled":true,"rental_uris":{"android":"levelo://app?vid=dac09d9e-9ab6-4c54-8fe2-7fcfc9203869","ios":"levelo://app?vid=dac09d9e-9ab6-4c54-8fe2-7fcfc9203869"},"vehicle_type_id":"4","last_reported":1741371143,"current_range_meters":12800,"station_id":"ce4bhg12rcd13ifvqf70","pricing_plan_id":"cebpf4jnsgd1na2vs0mg"},{"bike_id":"d30fa9cd-12f6-47e8-93d4-f3251c64196c","system_id":"levelo_inurba_marseille","lat":43.27944,"lon":5.4104,"is_reserved":false,"is_disabled":false,"rental_uris":{"android":"levelo://app?vid=d30fa9cd-12f6-47e8-93d4-f3251c64196c","ios":"levelo://app?vid=d30fa9cd-12f6-47e8-93d4-f3251c64196c"},"vehicle_type_id":"4","last_reported":1741371143,"current_range_meters":12800,"station_id":"ce4bhnp2rcd13ifvqh0g","pricing_plan_id":"cebpf4jnsgd1na2vs0mg"},{"bike_id":"a026d81c-b403-439a-97f0-4b17e8384823","system_id":"levelo_inurba_marseille","lat":43.2901,"lon":5.35608,"is_reserved":false,"is_disabled":false,"rental_uris":{"android":"levelo://app?vid=a026d81c-b403-439a-97f0-4b17e8384823","ios":"levelo://app?vid=a026d81c-b403-439a-97f0-4b17e8384823"},"vehicle_type_id":"4","last_reported":1741371143,"current_range_meters":13600,"station_id":"ce4bhb92rcd13ifvqen0","pricing_plan_id":"cebpf4jnsgd1na2vs0mg"},{"bike_id":"078c81bc-2c7a-4523-a07a-c6568ba489f7","system_id":"levelo_inurba_marseille","lat":43.27915,"lon":5.37997,"is_reserved":false,"is_disabled":false,"rental_uris":{"android":"levelo://app?vid=078c81bc-2c7a-4523-a07a-c6568ba489f7","ios":"levelo://app?vid=078c81bc-2c7a-4523-a07a-c6568ba489f7"},"vehicle_type_id":"4","last_reported":1741371143,"current_range_meters":13600,"station_id":"ce4bhf92rcd13ifvqf50","pricing_plan_id":"cebpf4jnsgd1na2vs0mg"},{"bike_id":"a8d7c7b8-0f55-4ba4-964d-9094ea291c61","system_id":"levelo_inurba_marseille","lat":43.27831,"lon":5.39211,"is_reserved":false,"is_disabled":false,"rental_uris":{"android":"levelo://app?vid=a8d7c7b8-0f55-4ba4-964d-9094ea291c61","ios":"levelo://app?vid=a8d7c7b8-0f55-4ba4-964d-9094ea291c61"},"vehicle_type_id":"4","last_reported":1741371143,"current_range_meters":13600,"station_id":"ce4bhjp2rcd13ifvqga0","pricing_plan_id":"cebpf4jnsgd1na2vs0mg"},{"bike_id":"27b4a116-990a-4f6a-8142-7f1232aa6cb1","system_id":"levelo_inurba_marseille","lat":43.301933,"lon":5.366208,"is_reserved":false,"is_disabled":false,"rental_uris":{"android":"levelo://app?vid=27b4a116-990a-4f6a-8142-7f1232aa6cb1","ios":"levelo://app?vid=27b4a116-990a-4f6a-8142-7f1232aa6cb1"},"vehicle_type_id":"4","last_reported":1741371143,"current_range_meters":14000,"station_id":"ce4bgrh2rcd13ifvqc8g","pricing_plan_id":"cebpf4jnsgd1na2vs0mg"},{"bike_id":"4f508b50-1e3d-40c5-be77-1e6495edbe07","system_id":"levelo_inurba_marseille","lat":43.25722,"lon":5.41137,"is_reserved":false,"is_disabled":false,"rental_uris":{"android":"levelo://app?vid=4f508b50-1e3d-40c5-be77-1e6495edbe07","ios":"levelo://app?vid=4f508b50-1e3d-40c5-be77-1e6495edbe07"},"vehicle_type_id":"4","last_reported":1741371143,"current_range_meters":14000,"station_id":"ce4bhkp2rcd13ifvqgd0","pricing_plan_id":"cebpf4jnsgd1na2vs0mg"},{"bike_id":"a38a4d0e-c320-4f59-9ce3-93476a72f630","system_id":"levelo_inurba_marseille","lat":43.30781,"lon":5.37655,"is_reserved":false,"is_disabled":false,"rental_uris":{"android":"levelo://app?vid=a38a4d0e-c320-4f59-9ce3-93476a72f630","ios":"levelo://app?vid=a38a4d0e-c320-4f59-9ce3-93476a72f630"},"vehicle_type_id":"4","last_reported":1741371143,"current_range_meters":13600,"station_id":"ce4bgv92rcd13ifvqcq0","pricing_plan_id":"cebpf4jnsgd1na2vs0mg"},{"bike_id":"117576de-ea7a-4e20-89ce-191a1398e64d","system_id":"levelo_inurba_marseille","lat":43.23189,"lon":5.40005,"is_reserved":false,"is_disabled":false,"rental_uris":{"android":"levelo://app?vid=117576de-ea7a-4e20-89ce-191a1398e64d","ios":"levelo://app?vid=117576de-ea7a-4e20-89ce-191a1398e64d"},"vehicle_type_id":"4","last_reported":1741371143,"current_range_meters":14000,"station_id":"ce4bhn12rcd13ifvqgqg","pricing_plan_id":"cebpf4jnsgd1na2vs0mg"},{"bike_id":"7e60b09d-959c-4d55-a820-f3270555724f","system_id":"levelo_inurba_marseille","lat":43.28614,"lon":5.35106,"is_reserved":false,"is_disabled":false,"rental_uris":{"android":"levelo://app?vid=7e60b09d-959c-4d55-a820-f3270555724f","ios":"levelo://app?vid=7e60b09d-959c-4d55-a820-f3270555724f"},"vehicle_type_id":"4","last_reported":1741371143,"current_range_meters":14000,"station_id":"ce4bhch2rcd13ifvqeug","pricing_plan_id":"cebpf4jnsgd1na2vs0mg"},{"bike_id":"db1c7047-7b9f-4b56-96ef-3b289cb537df","system_id":"levelo_inurba_marseille","lat":43.30836,"lon":5.37409,"is_reserved":false,"is_disabled":false,"rental_uris":{"android":"levelo://app?vid=db1c7047-7b9f-4b56-96ef-3b289cb537df","ios":"levelo://app?vid=db1c7047-7b9f-4b56-96ef-3b289cb537df"},"vehicle_type_id":"4","last_reported":1741371143,"current_range_meters":14000,"station_id":"","pricing_plan_id":"cebpf4jnsgd1na2vs0mg"},{"bike_id":"b54292f7-ba5a-4ca2-851d-b34190bdf4a8","system_id":"levelo_inurba_marseille","lat":43.3302,"lon":5.39042,"is_reserved":false,"is_disabled":false,"rental_uris":{"android":"levelo://app?vid=b54292f7-ba5a-4ca2-851d-b34190bdf4a8","ios":"levelo://app?vid=b54292f7-ba5a-4ca2-851d-b34190bdf4a8"},"vehicle_type_id":"4","last_reported":1741371143,"current_range_meters":14000,"station_id":"ce4bhr92rcd13ifvqhrg","pricing_plan_id":"cebpf4jnsgd1na2vs0mg"},{"bike_id":"e65ac79c-1d2b-453d-8802-8f27ef91ecf3","system_id":"levelo_inurba_marseille","lat":43.29536,"lon":5.394,"is_reserved":false,"is_disabled":false,"rental_uris":{"android":"levelo://app?vid=e65ac79c-1d2b-453d-8802-8f27ef91ecf3","ios":"levelo://app?vid=e65ac79c-1d2b-453d-8802-8f27ef91ecf3"},"vehicle_type_id":"4","last_reported":1741371143,"current_range_meters":14000,"station_id":"ce4bh292rcd13ifvqdf0","pricing_plan_id":"cebpf4jnsgd1na2vs0mg"},{"bike_id":"fe9241c5-933b-46b1-9c9a-3059642a1840","system_id":"levelo_inurba_marseille","lat":43.30884,"lon":5.39657,"is_reserved":false,"is_disabled":false,"rental_uris":{"android":"levelo://app?vid=fe9241c5-933b-46b1-9c9a-3059642a1840","ios":"levelo://app?vid=fe9241c5-933b-46b1-9c9a-3059642a1840"},"vehicle_type_id":"4","last_reported":1741371143,"current_range_meters":14000,"station_id":"ce4bh012rcd13ifvqcv0","pricing_plan_id":"cebpf4jnsgd1na2vs0mg"},{"bike_id":"f479a6d1-3cb4-4f96-b97e-51428b8374e3","system_id":"levelo_inurba_marseille","lat":43.28458,"lon":5.3588,"is_reserved":false,"is_disabled":false,"rental_uris":{"android":"levelo://app?vid=f479a6d1-3cb4-4f96-b97e-51428b8374e3","ios":"levelo://app?vid=f479a6d1-3cb4-4f96-b97e-51428b8374e3"},"vehicle_type_id":"4","last_reported":1741371143,"current_range_meters":14000,"station_id":"ce4bhah2rcd13ifvqei0","pricing_plan_id":"cebpf4jnsgd1na2vs0mg"},{"bike_id":"9b8789be-c150-4679-b8ba-e1d5e4639da2","system_id":"levelo_inurba_marseille","lat":43.25714,"lon":5.4112,"is_reserved":false,"is_disabled":false,"rental_uris":{"android":"levelo://app?vid=9b8789be-c150-4679-b8ba-e1d5e4639da2","ios":"levelo://app?vid=9b8789be-c150-4679-b8ba-e1d5e4639da2"},"vehicle_type_id":"4","last_reported":1741371143,"current_range_meters":14000,"station_id":"ce4bhkp2rcd13ifvqgd0","pricing_plan_id":"cebpf4jnsgd1na2vs0mg"},{"bike_id":"947226a8-e75b-4353-8c91-81ffc8ee8d46","system_id":"levelo_inurba_marseille","lat":43.27814,"lon":5.40714,"is_reserved":false,"is_disabled":false,"rental_uris":{"android":"levelo://app?vid=947226a8-e75b-4353-8c91-81ffc8ee8d46","ios":"levelo://app?vid=947226a8-e75b-4353-8c91-81ffc8ee8d46"},"vehicle_type_id":"4","last_reported":1741371143,"current_range_meters":14000,"station_id":"ce4bhnh2rcd13ifvqgtg","pricing_plan_id":"cebpf4jnsgd1na2vs0mg"},{"bike_id":"75bdcf83-5140-440b-9e92-976e7b768fc9","system_id":"levelo_inurba_marseille","lat":43.297738,"lon":5.370128,"is_reserved":false,"is_disabled":false,"rental_uris":{"android":"levelo://app?vid=75bdcf83-5140-440b-9e92-976e7b768fc9","ios":"levelo://app?vid=75bdcf83-5140-440b-9e92-976e7b768fc9"},"vehicle_type_id":"4","last_reported":1741371143,"current_range_meters":14000,"station_id":"","pricing_plan_id":"cebpf4jnsgd1na2vs0mg"},{"bike_id":"b1e189d2-cc2d-4bbc-9210-3d18e5683801","system_id":"levelo_inurba_marseille","lat":43.2694,"lon":5.40259,"is_reserved":false,"is_disabled":true,"rental_uris":{"android":"levelo://app?vid=b1e189d2-cc2d-4bbc-9210-3d18e5683801","ios":"levelo://app?vid=b1e189d2-cc2d-4bbc-9210-3d18e5683801"},"vehicle_type_id":"4","last_reported":1741371143,"current_range_meters":14400,"station_id":"cjm6bp8fraef2m0cb0m0","pricing_plan_id":"cebpf4jnsgd1na2vs0mg"},{"bike_id":"d5f0fb4b-5f84-4386-97b2-6aeb188a24f0","system_id":"levelo_inurba_marseille","lat":43.29963,"lon":5.38501,"is_reserved":false,"is_disabled":false,"rental_uris":{"android":"levelo://app?vid=d5f0fb4b-5f84-4386-97b2-6aeb188a24f0","ios":"levelo://app?vid=d5f0fb4b-5f84-4386-97b2-6aeb188a24f0"},"vehicle_type_id":"4","last_reported":1741371143,"current_range_meters":14400,"station_id":"ce4bgj92rcd13ifvqbd0","pricing_plan_id":"cebpf4jnsgd1na2vs0mg"},{"bike_id":"0fd008c8-315d-46da-8aad-5c8882c9f37c","system_id":"levelo_inurba_marseille","lat":43.30448,"lon":5.38882,"is_reserved":false,"is_disabled":false,"rental_uris":{"android":"levelo://app?vid=0fd008c8-315d-46da-8aad-5c8882c9f37c","ios":"levelo://app?vid=0fd008c8-315d-46da-8aad-5c8882c9f37c"},"vehicle_type_id":"4","last_reported":1741371143,"current_range_meters":14400,"station_id":"ce4bgk12rcd13ifvqbi0","pricing_plan_id":"cebpf4jnsgd1na2vs0mg"},{"bike_id":"1dfcf2cb-5204-4eb5-b6d3-eb69472d1ac2","system_id":"levelo_inurba_marseille","lat":43.24648,"lon":5.3889,"is_reserved":false,"is_disabled":false,"rental_uris":{"android":"levelo://app?vid=1dfcf2cb-5204-4eb5-b6d3-eb69472d1ac2","ios":"levelo://app?vid=1dfcf2cb-5204-4eb5-b6d3-eb69472d1ac2"},"vehicle_type_id":"4","last_reported":1741371143,"current_range_meters":14400,"station_id":"ce4bhg12rcd13ifvqf60","pricing_plan_id":"cebpf4jnsgd1na2vs0mg"},{"bike_id":"5bd5543a-b8bd-406d-a576-25383b497704","system_id":"levelo_inurba_marseille","lat":43.30789,"lon":5.37643,"is_reserved":false,"is_disabled":false,"rental_uris":{"android":"levelo://app?vid=5bd5543a-b8bd-406d-a576-25383b497704","ios":"levelo://app?vid=5bd5543a-b8bd-406d-a576-25383b497704"},"vehicle_type_id":"4","last_reported":1741371143,"current_range_meters":14000,"station_id":"ce4bgv92rcd13ifvqcq0","pricing_plan_id":"cebpf4jnsgd1na2vs0mg"},{"bike_id":"ff50a4b6-6db9-463a-ae58-e81e789e96f6","system_id":"levelo_inurba_marseille","lat":43.30802,"lon":5.3816,"is_reserved":false,"is_disabled":false,"rental_uris":{"android":"levelo://app?vid=ff50a4b6-6db9-463a-ae58-e81e789e96f6","ios":"levelo://app?vid=ff50a4b6-6db9-463a-ae58-e81e789e96f6"},"vehicle_type_id":"4","last_reported":1741371143,"current_range_meters":14000,"station_id":"ce4bgt12rcd13ifvqce0","pricing_plan_id":"cebpf4jnsgd1na2vs0mg"},{"bike_id":"92d9d0f8-7484-4f2d-a542-70ea05b36384","system_id":"levelo_inurba_marseille","lat":43.28459,"lon":5.35895,"is_reserved":false,"is_disabled":false,"rental_uris":{"android":"levelo://app?vid=92d9d0f8-7484-4f2d-a542-70ea05b36384","ios":"levelo://app?vid=92d9d0f8-7484-4f2d-a542-70ea05b36384"},"vehicle_type_id":"4","last_reported":1741371143,"current_range_meters":15200,"station_id":"ce4bhah2rcd13ifvqei0","pricing_plan_id":"cebpf4jnsgd1na2vs0mg"},{"bike_id":"d15888b3-84cd-42f5-8973-07174fa936f9","system_id":"levelo_inurba_marseille","lat":43.31476,"lon":5.37357,"is_reserved":false,"is_disabled":false,"rental_uris":{"android":"levelo://app?vid=d15888b3-84cd-42f5-8973-07174fa936f9","ios":"levelo://app?vid=d15888b3-84cd-42f5-8973-07174fa936f9"},"vehicle_type_id":"4","last_reported":1741371143,"current_range_meters":14800,"station_id":"ce4bgt12rcd13ifvqcd0","pricing_plan_id":"cebpf4jnsgd1na2vs0mg"},{"bike_id":"49620539-ea34-4881-86a4-cc0fb796b44b","system_id":"levelo_inurba_marseille","lat":43.25731,"lon":5.41104,"is_reserved":false,"is_disabled":false,"rental_uris":{"android":"levelo://app?vid=49620539-ea34-4881-86a4-cc0fb796b44b","ios":"levelo://app?vid=49620539-ea34-4881-86a4-cc0fb796b44b"},"vehicle_type_id":"4","last_reported":1741371143,"current_range_meters":14800,"station_id":"ce4bhkp2rcd13ifvqgd0","pricing_plan_id":"cebpf4jnsgd1na2vs0mg"},{"bike_id":"260ce03f-bf0e-4bf3-bc84-79ac812ccfed","system_id":"levelo_inurba_marseille","lat":43.29511,"lon":5.39411,"is_reserved":false,"is_disabled":false,"rental_uris":{"android":"levelo://app?vid=260ce03f-bf0e-4bf3-bc84-79ac812ccfed","ios":"levelo://app?vid=260ce03f-bf0e-4bf3-bc84-79ac812ccfed"},"vehicle_type_id":"4","last_reported":1741371143,"current_range_meters":15200,"station_id":"ce4bh292rcd13ifvqdf0","pricing_plan_id":"cebpf4jnsgd1na2vs0mg"},{"bike_id":"7a8959cf-cba4-472b-a67f-21d9d3e5e3a1","system_id":"levelo_inurba_marseille","lat":43.24393,"lon":5.43798,"is_reserved":false,"is_disabled":false,"rental_uris":{"android":"levelo://app?vid=7a8959cf-cba4-472b-a67f-21d9d3e5e3a1","ios":"levelo://app?vid=7a8959cf-cba4-472b-a67f-21d9d3e5e3a1"},"vehicle_type_id":"4","last_reported":1741371143,"current_range_meters":15200,"station_id":"","pricing_plan_id":"cebpf4jnsgd1na2vs0mg"},{"bike_id":"fbff65a7-8839-4196-9afc-1014a4eaa6f6","system_id":"levelo_inurba_marseille","lat":43.3024,"lon":5.40054,"is_reserved":false,"is_disabled":false,"rental_uris":{"android":"levelo://app?vid=fbff65a7-8839-4196-9afc-1014a4eaa6f6","ios":"levelo://app?vid=fbff65a7-8839-4196-9afc-1014a4eaa6f6"},"vehicle_type_id":"4","last_reported":1741371143,"current_range_meters":15200,"station_id":"ce4bgvh2rcd13ifvqcs0","pricing_plan_id":"cebpf4jnsgd1na2vs0mg"},{"bike_id":"533448b2-5021-4369-bc77-44099548c898","system_id":"levelo_inurba_marseille","lat":43.2902,"lon":5.38633,"is_reserved":false,"is_disabled":false,"rental_uris":{"android":"levelo://app?vid=533448b2-5021-4369-bc77-44099548c898","ios":"levelo://app?vid=533448b2-5021-4369-bc77-44099548c898"},"vehicle_type_id":"4","last_reported":1741371143,"current_range_meters":16000,"station_id":"ce4bh4p2rcd13ifvqe0g","pricing_plan_id":"cebpf4jnsgd1na2vs0mg"},{"bike_id":"686611a2-e927-4b19-a15b-c790570fe152","system_id":"levelo_inurba_marseille","lat":43.29265,"lon":5.37623,"is_reserved":false,"is_disabled":false,"rental_uris":{"android":"levelo://app?vid=686611a2-e927-4b19-a15b-c790570fe152","ios":"levelo://app?vid=686611a2-e927-4b19-a15b-c790570fe152"},"vehicle_type_id":"4","last_reported":1741371143,"current_range_meters":15200,"station_id":"ce4bgi12rcd13ifvqb80","pricing_plan_id":"cebpf4jnsgd1na2vs0mg"},{"bike_id":"b1785bcf-3ef3-4a5e-ac74-6f87f982a4e7","system_id":"levelo_inurba_marseille","lat":43.2846,"lon":5.38552,"is_reserved":false,"is_disabled":false,"rental_uris":{"android":"levelo://app?vid=b1785bcf-3ef3-4a5e-ac74-6f87f982a4e7","ios":"levelo://app?vid=b1785bcf-3ef3-4a5e-ac74-6f87f982a4e7"},"vehicle_type_id":"4","last_reported":1741371143,"current_range_meters":15200,"station_id":"ce4bh8p2rcd13ifvqeb0","pricing_plan_id":"cebpf4jnsgd1na2vs0mg"},{"bike_id":"d60ef17d-dc9f-4661-969d-853809899c5b","system_id":"levelo_inurba_marseille","lat":43.31362,"lon":5.38489,"is_reserved":false,"is_disabled":false,"rental_uris":{"android":"levelo://app?vid=d60ef17d-dc9f-4661-969d-853809899c5b","ios":"levelo://app?vid=d60ef17d-dc9f-4661-969d-853809899c5b"},"vehicle_type_id":"4","last_reported":1741371143,"current_range_meters":15200,"station_id":"ce4bgt92rcd13ifvqcf0","pricing_plan_id":"cebpf4jnsgd1na2vs0mg"},{"bike_id":"a9a57597-0a95-4920-829b-32941beb65f6","system_id":"levelo_inurba_marseille","lat":43.25725,"lon":5.41113,"is_reserved":false,"is_disabled":false,"rental_uris":{"android":"levelo://app?vid=a9a57597-0a95-4920-829b-32941beb65f6","ios":"levelo://app?vid=a9a57597-0a95-4920-829b-32941beb65f6"},"vehicle_type_id":"4","last_reported":1741371143,"current_range_meters":14800,"station_id":"ce4bhkp2rcd13ifvqgd0","pricing_plan_id":"cebpf4jnsgd1na2vs0mg"},{"bike_id":"ee150268-f312-4336-b777-8f0e67f01bf0","system_id":"levelo_inurba_marseille","lat":43.30545,"lon":5.38437,"is_reserved":false,"is_disabled":false,"rental_uris":{"android":"levelo://app?vid=ee150268-f312-4336-b777-8f0e67f01bf0","ios":"levelo://app?vid=ee150268-f312-4336-b777-8f0e67f01bf0"},"vehicle_type_id":"4","last_reported":1741371143,"current_range_meters":14800,"station_id":"ce4bgg92rcd13ifvqb30","pricing_plan_id":"cebpf4jnsgd1na2vs0mg"},{"bike_id":"ac548875-e8d0-4488-8429-c5c379b94fea","system_id":"levelo_inurba_marseille","lat":43.23201,"lon":5.39999,"is_reserved":false,"is_disabled":false,"rental_uris":{"android":"levelo://app?vid=ac548875-e8d0-4488-8429-c5c379b94fea","ios":"levelo://app?vid=ac548875-e8d0-4488-8429-c5c379b94fea"},"vehicle_type_id":"4","last_reported":1741371143,"current_range_meters":16000,"station_id":"ce4bhn12rcd13ifvqgqg","pricing_plan_id":"cebpf4jnsgd1na2vs0mg"},{"bike_id":"8e43052e-86ee-431c-a3c5-7b2cafc0c661","system_id":"levelo_inurba_marseille","lat":43.2731,"lon":5.391,"is_reserved":false,"is_disabled":true,"rental_uris":{"android":"levelo://app?vid=8e43052e-86ee-431c-a3c5-7b2cafc0c661","ios":"levelo://app?vid=8e43052e-86ee-431c-a3c5-7b2cafc0c661"},"vehicle_type_id":"4","last_reported":1741371143,"current_range_meters":16000,"station_id":"ce4bhgp2rcd13ifvqfe0","pricing_plan_id":"cebpf4jnsgd1na2vs0mg"},{"bike_id":"b2c2514d-58df-4080-9acc-0a3325c87525","system_id":"levelo_inurba_marseille","lat":43.3236,"lon":5.36757,"is_reserved":false,"is_disabled":false,"rental_uris":{"android":"levelo://app?vid=b2c2514d-58df-4080-9acc-0a3325c87525","ios":"levelo://app?vid=b2c2514d-58df-4080-9acc-0a3325c87525"},"vehicle_type_id":"4","last_reported":1741371143,"current_range_meters":16000,"station_id":"ce4bhsh2rcd13ifvqi2g","pricing_plan_id":"cebpf4jnsgd1na2vs0mg"},{"bike_id":"28dad648-5059-471d-87f2-788a51e34f9d","system_id":"levelo_inurba_marseille","lat":43.30126,"lon":5.39877,"is_reserved":false,"is_disabled":false,"rental_uris":{"android":"levelo://app?vid=28dad648-5059-471d-87f2-788a51e34f9d","ios":"levelo://app?vid=28dad648-5059-471d-87f2-788a51e34f9d"},"vehicle_type_id":"4","last_reported":1741371143,"current_range_meters":16000,"station_id":"ce4bh0h2rcd13ifvqd40","pricing_plan_id":"cebpf4jnsgd1na2vs0mg"},{"bike_id":"86198ee2-ebe4-4c56-b4e8-ac1a0f851f7a","system_id":"levelo_inurba_marseille","lat":43.29228,"lon":5.36063,"is_reserved":false,"is_disabled":false,"rental_uris":{"android":"levelo://app?vid=86198ee2-ebe4-4c56-b4e8-ac1a0f851f7a","ios":"levelo://app?vid=86198ee2-ebe4-4c56-b4e8-ac1a0f851f7a"},"vehicle_type_id":"4","last_reported":1741371143,"current_range_meters":16000,"station_id":"ce4bhbh2rcd13ifvqeqg","pricing_plan_id":"cebpf4jnsgd1na2vs0mg"},{"bike_id":"a731bfa6-90a7-45ad-8b50-396462eb731e","system_id":"levelo_inurba_marseille","lat":43.30123,"lon":5.38788,"is_reserved":false,"is_disabled":false,"rental_uris":{"android":"levelo://app?vid=a731bfa6-90a7-45ad-8b50-396462eb731e","ios":"levelo://app?vid=a731bfa6-90a7-45ad-8b50-396462eb731e"},"vehicle_type_id":"4","last_reported":1741371143,"current_range_meters":16000,"station_id":"ce4bghh2rcd13ifvqb60","pricing_plan_id":"cebpf4jnsgd1na2vs0mg"},{"bike_id":"373cc7b1-d97d-40d5-a223-cc42be680000","system_id":"levelo_inurba_marseille","lat":43.28362,"lon":5.38625,"is_reserved":false,"is_disabled":false,"rental_uris":{"android":"levelo://app?vid=373cc7b1-d97d-40d5-a223-cc42be680000","ios":"levelo://app?vid=373cc7b1-d97d-40d5-a223-cc42be680000"},"vehicle_type_id":"4","last_reported":1741371143,"current_range_meters":15200,"station_id":"ce4bh492rcd13ifvqdvg","pricing_plan_id":"cebpf4jnsgd1na2vs0mg"},{"bike_id":"0060b278-6ef3-4276-8239-434d82472bcd","system_id":"levelo_inurba_marseille","lat":43.29314,"lon":5.37461,"is_reserved":false,"is_disabled":false,"rental_uris":{"android":"levelo://app?vid=0060b278-6ef3-4276-8239-434d82472bcd","ios":"levelo://app?vid=0060b278-6ef3-4276-8239-434d82472bcd"},"vehicle_type_id":"4","last_reported":1741371143,"current_range_meters":16000,"station_id":"ce4bgi12rcd13ifvqb70","pricing_plan_id":"cebpf4jnsgd1na2vs0mg"},{"bike_id":"4cefc6a0-32b3-4534-89c9-68474cabe368","system_id":"levelo_inurba_marseille","lat":43.3091,"lon":5.36849,"is_reserved":false,"is_disabled":false,"rental_uris":{"android":"levelo://app?vid=4cefc6a0-32b3-4534-89c9-68474cabe368","ios":"levelo://app?vid=4cefc6a0-32b3-4534-89c9-68474cabe368"},"vehicle_type_id":"4","last_reported":1741371143,"current_range_meters":16000,"station_id":"ce4bgn92rcd13ifvqbvg","pricing_plan_id":"cebpf4jnsgd1na2vs0mg"},{"bike_id":"1d183dc3-b1f3-41c3-bb8a-094f8bc1d4d6","system_id":"levelo_inurba_marseille","lat":43.2758,"lon":5.38441,"is_reserved":false,"is_disabled":false,"rental_uris":{"android":"levelo://app?vid=1d183dc3-b1f3-41c3-bb8a-094f8bc1d4d6","ios":"levelo://app?vid=1d183dc3-b1f3-41c3-bb8a-094f8bc1d4d6"},"vehicle_type_id":"4","last_reported":1741371143,"current_range_meters":16400,"station_id":"ce4bhh92rcd13ifvqfi0","pricing_plan_id":"cebpf4jnsgd1na2vs0mg"},{"bike_id":"388ea826-f5fa-4632-a530-45d13cc0a769","system_id":"levelo_inurba_marseille","lat":43.23185,"lon":5.40006,"is_reserved":false,"is_disabled":false,"rental_uris":{"android":"levelo://app?vid=388ea826-f5fa-4632-a530-45d13cc0a769","ios":"levelo://app?vid=388ea826-f5fa-4632-a530-45d13cc0a769"},"vehicle_type_id":"4","last_reported":1741371143,"current_range_meters":16400,"station_id":"ce4bhn12rcd13ifvqgqg","pricing_plan_id":"cebpf4jnsgd1na2vs0mg"},{"bike_id":"87474ef9-8d91-49f3-9a67-227c230c1333","system_id":"levelo_inurba_marseille","lat":43.28666,"lon":5.38691,"is_reserved":false,"is_disabled":false,"rental_uris":{"android":"levelo://app?vid=87474ef9-8d91-49f3-9a67-227c230c1333","ios":"levelo://app?vid=87474ef9-8d91-49f3-9a67-227c230c1333"},"vehicle_type_id":"4","last_reported":1741371143,"current_range_meters":16400,"station_id":"ce4bh492rcd13ifvqdug","pricing_plan_id":"cebpf4jnsgd1na2vs0mg"},{"bike_id":"6f1347c5-ed73-4af7-890d-1633d13b2eab","system_id":"levelo_inurba_marseille","lat":43.30471,"lon":5.36725,"is_reserved":false,"is_disabled":false,"rental_uris":{"android":"levelo://app?vid=6f1347c5-ed73-4af7-890d-1633d13b2eab","ios":"levelo://app?vid=6f1347c5-ed73-4af7-890d-1633d13b2eab"},"vehicle_type_id":"4","last_reported":1741371143,"current_range_meters":16400,"station_id":"","pricing_plan_id":"cebpf4jnsgd1na2vs0mg"},{"bike_id":"e46660c4-f3f2-422e-be78-5712b850582a","system_id":"levelo_inurba_marseille","lat":43.29879,"lon":5.38902,"is_reserved":false,"is_disabled":false,"rental_uris":{"android":"levelo://app?vid=e46660c4-f3f2-422e-be78-5712b850582a","ios":"levelo://app?vid=e46660c4-f3f2-422e-be78-5712b850582a"},"vehicle_type_id":"4","last_reported":1741371143,"current_range_meters":16400,"station_id":"ce4bh392rcd13ifvqdl0","pricing_plan_id":"cebpf4jnsgd1na2vs0mg"},{"bike_id":"c4440271-3fcf-4ba1-a76e-05e2a3eefe6d","system_id":"levelo_inurba_marseille","lat":43.29874,"lon":5.38121,"is_reserved":false,"is_disabled":true,"rental_uris":{"android":"levelo://app?vid=c4440271-3fcf-4ba1-a76e-05e2a3eefe6d","ios":"levelo://app?vid=c4440271-3fcf-4ba1-a76e-05e2a3eefe6d"},"vehicle_type_id":"4","last_reported":1741371143,"current_range_meters":16400,"station_id":"ce4bgj12rcd13ifvqbc0","pricing_plan_id":"cebpf4jnsgd1na2vs0mg"},{"bike_id":"1ff664cb-f378-4a6c-b3c1-b47ee25a2174","system_id":"levelo_inurba_marseille","lat":43.32353,"lon":5.38873,"is_reserved":false,"is_disabled":false,"rental_uris":{"android":"levelo://app?vid=1ff664cb-f378-4a6c-b3c1-b47ee25a2174","ios":"levelo://app?vid=1ff664cb-f378-4a6c-b3c1-b47ee25a2174"},"vehicle_type_id":"4","last_reported":1741371143,"current_range_meters":16400,"station_id":"ce4bhqp2rcd13ifvqhog","pricing_plan_id":"cebpf4jnsgd1na2vs0mg"},{"bike_id":"65d2271a-97b5-4913-95aa-cf77a293f0eb","system_id":"levelo_inurba_marseille","lat":43.2603,"lon":5.37562,"is_reserved":false,"is_disabled":false,"rental_uris":{"android":"levelo://app?vid=65d2271a-97b5-4913-95aa-cf77a293f0eb","ios":"levelo://app?vid=65d2271a-97b5-4913-95aa-cf77a293f0eb"},"vehicle_type_id":"4","last_reported":1741371143,"current_range_meters":16400,"station_id":"ce4bhgh2rcd13ifvqfa0","pricing_plan_id":"cebpf4jnsgd1na2vs0mg"},{"bike_id":"b2c95450-e312-4714-9203-cd9201069bd9","system_id":"levelo_inurba_marseille","lat":43.29418,"lon":5.38634,"is_reserved":false,"is_disabled":false,"rental_uris":{"android":"levelo://app?vid=b2c95450-e312-4714-9203-cd9201069bd9","ios":"levelo://app?vid=b2c95450-e312-4714-9203-cd9201069bd9"},"vehicle_type_id":"4","last_reported":1741371143,"current_range_meters":16000,"station_id":"ce4bh2h2rcd13ifvqdh0","pricing_plan_id":"cebpf4jnsgd1na2vs0mg"},{"bike_id":"acdf82d1-3589-439a-9e3f-cee4cd3bfa0c","system_id":"levelo_inurba_marseille","lat":43.2946,"lon":5.39746,"is_reserved":false,"is_disabled":false,"rental_uris":{"android":"levelo://app?vid=acdf82d1-3589-439a-9e3f-cee4cd3bfa0c","ios":"levelo://app?vid=acdf82d1-3589-439a-9e3f-cee4cd3bfa0c"},"vehicle_type_id":"4","last_reported":1741371143,"current_range_meters":16000,"station_id":"ce4bh3h2rcd13ifvqdo0","pricing_plan_id":"cebpf4jnsgd1na2vs0mg"},{"bike_id":"95936caa-1f4e-46e1-af83-370d03622e59","system_id":"levelo_inurba_marseille","lat":43.30112,"lon":5.39081,"is_reserved":false,"is_disabled":true,"rental_uris":{"android":"levelo://app?vid=95936caa-1f4e-46e1-af83-370d03622e59","ios":"levelo://app?vid=95936caa-1f4e-46e1-af83-370d03622e59"},"vehicle_type_id":"4","last_reported":1741371143,"current_range_meters":16400,"station_id":"ce4bh192rcd13ifvqdb0","pricing_plan_id":"cebpf4jnsgd1na2vs0mg"},{"bike_id":"a3220548-d642-4000-86b7-e3f602fcc8a8","system_id":"levelo_inurba_marseille","lat":43.31496,"lon":5.37309,"is_reserved":false,"is_disabled":false,"rental_uris":{"android":"levelo://app?vid=a3220548-d642-4000-86b7-e3f602fcc8a8","ios":"levelo://app?vid=a3220548-d642-4000-86b7-e3f602fcc8a8"},"vehicle_type_id":"4","last_reported":1741371143,"current_range_meters":18000,"station_id":"ce4bgt12rcd13ifvqcd0","pricing_plan_id":"cebpf4jnsgd1na2vs0mg"},{"bike_id":"cbc52a4d-b1a3-4bdf-8ed7-d851e16ba8f2","system_id":"levelo_inurba_marseille","lat":43.2768,"lon":5.38945,"is_reserved":false,"is_disabled":true,"rental_uris":{"android":"levelo://app?vid=cbc52a4d-b1a3-4bdf-8ed7-d851e16ba8f2","ios":"levelo://app?vid=cbc52a4d-b1a3-4bdf-8ed7-d851e16ba8f2"},"vehicle_type_id":"4","last_reported":1741371143,"current_range_meters":16800,"station_id":"ce4bhi12rcd13ifvqfo0","pricing_plan_id":"cebpf4jnsgd1na2vs0mg"},{"bike_id":"fbf804d7-6c73-46e9-abdb-acb74deb6dc4","system_id":"levelo_inurba_marseille","lat":43.23061,"lon":5.35503,"is_reserved":false,"is_disabled":false,"rental_uris":{"android":"levelo://app?vid=fbf804d7-6c73-46e9-abdb-acb74deb6dc4","ios":"levelo://app?vid=fbf804d7-6c73-46e9-abdb-acb74deb6dc4"},"vehicle_type_id":"4","last_reported":1741371143,"current_range_meters":16800,"station_id":"cpo3342slgdg3j2ifvpg","pricing_plan_id":"cebpf4jnsgd1na2vs0mg"},{"bike_id":"d8e43a9c-0191-42ab-90ee-b35523d1ec43","system_id":"levelo_inurba_marseille","lat":43.2942,"lon":5.38629,"is_reserved":false,"is_disabled":false,"rental_uris":{"android":"levelo://app?vid=d8e43a9c-0191-42ab-90ee-b35523d1ec43","ios":"levelo://app?vid=d8e43a9c-0191-42ab-90ee-b35523d1ec43"},"vehicle_type_id":"4","last_reported":1741371143,"current_range_meters":16800,"station_id":"ce4bh2h2rcd13ifvqdh0","pricing_plan_id":"cebpf4jnsgd1na2vs0mg"},{"bike_id":"ca1ac6f9-8304-441d-b17f-201bcc008dae","system_id":"levelo_inurba_marseille","lat":43.34367,"lon":5.39911,"is_reserved":false,"is_disabled":false,"rental_uris":{"android":"levelo://app?vid=ca1ac6f9-8304-441d-b17f-201bcc008dae","ios":"levelo://app?vid=ca1ac6f9-8304-441d-b17f-201bcc008dae"},"vehicle_type_id":"4","last_reported":1741371143,"current_range_meters":16800,"station_id":"","pricing_plan_id":"cebpf4jnsgd1na2vs0mg"},{"bike_id":"83062571-2b19-41e1-a49a-379f4e4c96ec","system_id":"levelo_inurba_marseille","lat":43.31329,"lon":5.39698,"is_reserved":false,"is_disabled":false,"rental_uris":{"android":"levelo://app?vid=83062571-2b19-41e1-a49a-379f4e4c96ec","ios":"levelo://app?vid=83062571-2b19-41e1-a49a-379f4e4c96ec"},"vehicle_type_id":"4","last_reported":1741371143,"current_range_meters":16800,"station_id":"ce4bgvp2rcd13ifvqcu0","pricing_plan_id":"cebpf4jnsgd1na2vs0mg"},{"bike_id":"c1c412b3-ae23-45ab-894a-fe5b494cc9e6","system_id":"levelo_inurba_marseille","lat":43.23191,"lon":5.35559,"is_reserved":false,"is_disabled":false,"rental_uris":{"android":"levelo://app?vid=c1c412b3-ae23-45ab-894a-fe5b494cc9e6","ios":"levelo://app?vid=c1c412b3-ae23-45ab-894a-fe5b494cc9e6"},"vehicle_type_id":"4","last_reported":1741371143,"current_range_meters":16800,"station_id":"ce4bhu92rcd13ifvqi70","pricing_plan_id":"cebpf4jnsgd1na2vs0mg"},{"bike_id":"f792590d-bde2-4e6e-8be9-986a710bb7f1","system_id":"levelo_inurba_marseille","lat":43.29908,"lon":5.3833,"is_reserved":false,"is_disabled":false,"rental_uris":{"android":"levelo://app?vid=f792590d-bde2-4e6e-8be9-986a710bb7f1","ios":"levelo://app?vid=f792590d-bde2-4e6e-8be9-986a710bb7f1"},"vehicle_type_id":"4","last_reported":1741371143,"current_range_meters":16800,"station_id":"","pricing_plan_id":"cebpf4jnsgd1na2vs0mg"},{"bike_id":"21a97c5e-42a1-42dc-8f0b-c09a56ace1b8","system_id":"levelo_inurba_marseille","lat":43.30369,"lon":5.42478,"is_reserved":false,"is_disabled":true,"rental_uris":{"android":"levelo://app?vid=21a97c5e-42a1-42dc-8f0b-c09a56ace1b8","ios":"levelo://app?vid=21a97c5e-42a1-42dc-8f0b-c09a56ace1b8"},"vehicle_type_id":"4","last_reported":1741371143,"current_range_meters":16800,"station_id":"","pricing_plan_id":"cebpf4jnsgd1na2vs0mg"},{"bike_id":"12a5028c-ec0e-442b-ad06-3a2993aea614","system_id":"levelo_inurba_marseille","lat":43.29544,"lon":5.3855,"is_reserved":false,"is_disabled":false,"rental_uris":{"android":"levelo://app?vid=12a5028c-ec0e-442b-ad06-3a2993aea614","ios":"levelo://app?vid=12a5028c-ec0e-442b-ad06-3a2993aea614"},"vehicle_type_id":"4","last_reported":1741371143,"current_range_meters":16800,"station_id":"ce4bgih2rcd13ifvqba0","pricing_plan_id":"cebpf4jnsgd1na2vs0mg"},{"bike_id":"aab8f1a5-a6c4-4be0-bade-049bb8bea0e1","system_id":"levelo_inurba_marseille","lat":43.29899,"lon":5.4367,"is_reserved":false,"is_disabled":false,"rental_uris":{"android":"levelo://app?vid=aab8f1a5-a6c4-4be0-bade-049bb8bea0e1","ios":"levelo://app?vid=aab8f1a5-a6c4-4be0-bade-049bb8bea0e1"},"vehicle_type_id":"4","last_reported":1741371143,"current_range_meters":16800,"station_id":"ce4bhpp2rcd13ifvqhfg","pricing_plan_id":"cebpf4jnsgd1na2vs0mg"},{"bike_id":"1242d3a2-6d90-43fa-bd23-ca4e608a73a5","system_id":"levelo_inurba_marseille","lat":43.25577,"lon":5.382404,"is_reserved":false,"is_disabled":false,"rental_uris":{"android":"levelo://app?vid=1242d3a2-6d90-43fa-bd23-ca4e608a73a5","ios":"levelo://app?vid=1242d3a2-6d90-43fa-bd23-ca4e608a73a5"},"vehicle_type_id":"4","last_reported":1741371143,"current_range_meters":17200,"station_id":"ce4bhih2rcd13ifvqfs0","pricing_plan_id":"cebpf4jnsgd1na2vs0mg"},{"bike_id":"454540d5-da27-47b7-8461-29bd8dc664b9","system_id":"levelo_inurba_marseille","lat":43.31074,"lon":5.38356,"is_reserved":false,"is_disabled":false,"rental_uris":{"android":"levelo://app?vid=454540d5-da27-47b7-8461-29bd8dc664b9","ios":"levelo://app?vid=454540d5-da27-47b7-8461-29bd8dc664b9"},"vehicle_type_id":"4","last_reported":1741371143,"current_range_meters":17200,"station_id":"ce4bgv92rcd13ifvqcr0","pricing_plan_id":"cebpf4jnsgd1na2vs0mg"},{"bike_id":"77782171-3130-478a-8dda-8e03630a8690","system_id":"levelo_inurba_marseille","lat":43.30936,"lon":5.40142,"is_reserved":false,"is_disabled":false,"rental_uris":{"android":"levelo://app?vid=77782171-3130-478a-8dda-8e03630a8690","ios":"levelo://app?vid=77782171-3130-478a-8dda-8e03630a8690"},"vehicle_type_id":"4","last_reported":1741371143,"current_range_meters":17200,"station_id":"ce4bgvp2rcd13ifvqct0","pricing_plan_id":"cebpf4jnsgd1na2vs0mg"},{"bike_id":"cb7f463d-7d50-4468-8d03-1f241f41eb08","system_id":"levelo_inurba_marseille","lat":43.29255,"lon":5.40915,"is_reserved":false,"is_disabled":false,"rental_uris":{"android":"levelo://app?vid=cb7f463d-7d50-4468-8d03-1f241f41eb08","ios":"levelo://app?vid=cb7f463d-7d50-4468-8d03-1f241f41eb08"},"vehicle_type_id":"4","last_reported":1741371143,"current_range_meters":17200,"station_id":"ce4bh192rcd13ifvqdc0","pricing_plan_id":"cebpf4jnsgd1na2vs0mg"},