{"last_updated":1753510548,"ttl":60,"version":"2.2","data":{"bikes":[{"bike_id":"c0b55300-152b-4f73-a728-2ace4117580b","system_id":"levelo_inurba_marseille","lat":43.23963,"lon":5.36633,"is_reserved":false,"is_disabled":false,"rental_uris":{"android":"levelo://app?vid=c0b55300-152b-4f73-a728-2ace4117580b","ios":"levelo://app?vid=c0b55300-152b-4f73-a728-2ace4117580b"},"vehicle_type_id":"4","last_reported":1753510548,"current_range_meters":2800,"station_id":"ce4bhi12rcd13ifvqfp0","pricing_plan_id":"cebpf4jnsgd1na2vs0mg"},{"bike_id":"c9fff41b-bf0f-431c-bc12-201d7ebbc101","system_id":"levelo_inurba_marseille","lat":43.3089,"lon":5.39644,"is_reserved":false,"is_disabled":false,"rental_uris":{"android":"levelo://app?vid=c9fff41b-bf0f-431c-bc12-201d7ebbc101","ios":"levelo://app?vid=c9fff41b-bf0f-431c-bc12-201d7ebbc101"},"vehicle_type_id":"4","last_reported":1753510548,"current_range_meters":2800,"station_id":"ce4bh012rcd13ifvqcv0","pricing_plan_id":"cebpf4jnsgd1na2vs0mg"},{"bike_id":"d87b56f9-aec8-4c18-8340-d7aba9319bde","system_id":"levelo_inurba_marseille","lat":43.27593,"lon":5.39652,"is_reserved":false,"is_disabled":false,"rental_uris":{"android":"levelo://app?vid=d87b56f9-aec8-4c18-8340-d7aba9319bde","ios":"levelo://app?vid=d87b56f9-aec8-4c18-8340-d7aba9319bde"},"vehicle_type_id":"4","last_reported":1753510548,"current_range_meters":3600,"station_id":"","pricing_plan_id":"cebpf4jnsgd1na2vs0mg"},{"bike_id":"88713064-73b6-47c5-8baf-21f8c90f1d38","system_id":"levelo_inurba_marseille","lat":43.30686,"lon":5.38161,"is_reserved":false,"is_disabled":false,"rental_uris":{"android":"levelo://app?vid=88713064-73b6-47c5-8baf-21f8c90f1d38","ios":"levelo://app?vid=88713064-73b6-47c5-8baf-21f8c90f1d38"},"vehicle_type_id":"4","last_reported":1753510548,"current_range_meters":3200,"station_id":"","pricing_plan_id":"cebpf4jnsgd1na2vs0mg"},{"bike_id":"d6e67ec9-36a2-4615-bfd1-7c7dad1d0674","system_id":"levelo_inurba_marseille","lat":43.22487,"lon":5.34762,"is_reserved":false,"is_disabled":false,"rental_uris":{"android":"levelo://app?vid=d6e67ec9-36a2-4615-bfd1-7c7dad1d0674","ios":"levelo://app?vid=d6e67ec9-36a2-4615-bfd1-7c7dad1d0674"},"vehicle_type_id":"4","last_reported":1753510548,"current_range_meters":3200,"station_id":"st_cvj5dfep6f1abm77gieg","pricing_plan_id":"cebpf4jnsgd1na2vs0mg"},{"bike_id":"1964664b-ec88-4fe7-ab3a-fc6cc1add8f9","system_id":"levelo_inurba_marseille","lat":43.32342,"lon":5.406163,"is_reserved":false,"is_disabled":false,"rental_uris":{"android":"levelo://app?vid=1964664b-ec88-4fe7-ab3a-fc6cc1add8f9","ios":"levelo://app?vid=1964664b-ec88-4fe7-ab3a-fc6cc1add8f9"},"vehicle_type_id":"4","last_reported":1753510548,"current_range_meters":3200,"station_id":"ce4bhq92rcd13ifvqhjg","pricing_plan_id":"cebpf4jnsgd1na2vs0mg"},{"bike_id":"329aaba8-e959-45ba-932d-356c40c54d03","system_id":"levelo_inurba_marseille","lat":43.288617,"lon":5.393175,"is_reserved":false,"is_disabled":false,"rental_uris":{"android":"levelo://app?vid=329aaba8-e959-45ba-932d-356c40c54d03","ios":"levelo://app?vid=329aaba8-e959-45ba-932d-356c40c54d03"},"vehicle_type_id":"4","last_reported":1753510548,"current_range_meters":3200,"station_id":"ce4bh2p2rcd13ifvqdi0","pricing_plan_id":"cebpf4jnsgd1na2vs0mg"},{"bike_id":"85244870-de2e-4268-95b7-c2ed15b3c6be","system_id":"levelo_inurba_marseille","lat":43.298535,"lon":5.368153,"is_reserved":false,"is_disabled":false,"rental_uris":{"android":"levelo://app?vid=85244870-de2e-4268-95b7-c2ed15b3c6be","ios":"levelo://app?vid=85244870-de2e-4268-95b7-c2ed15b3c6be"},"vehicle_type_id":"4","last_reported":1753510548,"current_range_meters":3600,"station_id":"ce4bgr92rcd13ifvqc7g","pricing_plan_id":"cebpf4jnsgd1na2vs0mg"},{"bike_id":"c84d04af-88b1-453c-aaf4-b1c7066b5697","system_id":"levelo_inurba_marseille","lat":43.28621,"lon":5.35086,"is_reserved":false,"is_disabled":false,"rental_uris":{"android":"levelo://app?vid=c84d04af-88b1-453c-aaf4-b1c7066b5697","ios":"levelo://app?vid=c84d04af-88b1-453c-aaf4-b1c7066b5697"},"vehicle_type_id":"4","last_reported":1753510548,"current_range_meters":3600,"station_id":"ce4bhch2rcd13ifvqeug","pricing_plan_id":"cebpf4jnsgd1na2vs0mg"},{"bike_id":"3a0a42e3-cf86-4fae-a622-e6df6877a375","system_id":"levelo_inurba_marseille","lat":43.31065,"lon":5.38347,"is_reserved":false,"is_disabled":false,"rental_uris":{"android":"levelo://app?vid=3a0a42e3-cf86-4fae-a622-e6df6877a375","ios":"levelo://app?vid=3a0a42e3-cf86-4fae-a622-e6df6877a375"},"vehicle_type_id":"4","last_reported":1753510548,"current_range_meters":3600,"station_id":"ce4bgv92rcd13ifvqcr0","pricing_plan_id":"cebpf4jnsgd1na2vs0mg"},{"bike_id":"e87eec36-9502-45ce-a1b1-4233167cde1e","system_id":"levelo_inurba_marseille","lat":43.27918,"lon":5.39595,"is_reserved":false,"is_disabled":true,"rental_uris":{"android":"levelo://app?vid=e87eec36-9502-45ce-a1b1-4233167cde1e","ios":"levelo://app?vid=e87eec36-9502-45ce-a1b1-4233167cde1e"},"vehicle_type_id":"4","last_reported":1753510548,"current_range_meters":3600,"station_id":"ce4bhf92rcd13ifvqf40","pricing_plan_id":"cebpf4jnsgd1na2vs0mg"},{"bike_id":"fd4ba70a-7bfa-434e-8564-04bf25cc9f63","system_id":"levelo_inurba_marseille","lat":43.28103,"lon":5.44103,"is_reserved":false,"is_disabled":false,"rental_uris":{"android":"levelo://app?vid=fd4ba70a-7bfa-434e-8564-04bf25cc9f63","ios":"levelo://app?vid=fd4ba70a-7bfa-434e-8564-04bf25cc9f63"},"vehicle_type_id":"4","last_reported":1753510548,"current_range_meters":4000,"station_id":"","pricing_plan_id":"cebpf4jnsgd1na2vs0mg"},{"bike_id":"7b8f0b84-b522-44ab-860c-924f0c398730","system_id":"levelo_inurba_marseille","lat":43.28153,"lon":5.42611,"is_reserved":false,"is_disabled":true,"rental_uris":{"android":"levelo://app?vid=7b8f0b84-b522-44ab-860c-924f0c398730","ios":"levelo://app?vid=7b8f0b84-b522-44ab-860c-924f0c398730"},"vehicle_type_id":"4","last_reported":1753510548,"current_range_meters":4400,"station_id":"ce4bhnh2rcd13ifvqgug","pricing_plan_id":"cebpf4jnsgd1na2vs0mg"},{"bike_id":"c7b92aee-e283-4928-8200-8fb47d23f351","system_id":"levelo_inurba_marseille","lat":43.28201,"lon":5.44326,"is_reserved":false,"is_disabled":false,"rental_uris":{"android":"levelo://app?vid=c7b92aee-e283-4928-8200-8fb47d23f351","ios":"levelo://app?vid=c7b92aee-e283-4928-8200-8fb47d23f351"},"vehicle_type_id":"4","last_reported":1753510548,"current_range_meters":4800,"station_id":"","pricing_plan_id":"cebpf4jnsgd1na2vs0mg"},{"bike_id":"e19cd9bd-8f1f-4909-a624-5af678243303","system_id":"levelo_inurba_marseille","lat":43.290557,"lon":5.398755,"is_reserved":false,"is_disabled":false,"rental_uris":{"android":"levelo://app?vid=e19cd9bd-8f1f-4909-a624-5af678243303","ios":"levelo://app?vid=e19cd9bd-8f1f-4909-a624-5af678243303"},"vehicle_type_id":"4","last_reported":1753510548,"current_range_meters":4800,"station_id":"","pricing_plan_id":"cebpf4jnsgd1na2vs0mg"},{"bike_id":"ad541dd1-1ce7-426c-9e19-c9e5271d6456","system_id":"levelo_inurba_marseille","lat":43.30387,"lon":5.42475,"is_reserved":false,"is_disabled":false,"rental_uris":{"android":"levelo://app?vid=ad541dd1-1ce7-426c-9e19-c9e5271d6456","ios":"levelo://app?vid=ad541dd1-1ce7-426c-9e19-c9e5271d6456"},"vehicle_type_id":"4","last_reported":1753510548,"current_range_meters":4800,"station_id":"ce4bhoh2rcd13ifvqh6g","pricing_plan_id":"cebpf4jnsgd1na2vs0mg"},{"bike_id":"54589962-84f0-4b56-9509-3e862ef4b926","system_id":"levelo_inurba_marseille","lat":43.26201,"lon":5.37931,"is_reserved":false,"is_disabled":false,"rental_uris":{"android":"levelo://app?vid=54589962-84f0-4b56-9509-3e862ef4b926","ios":"levelo://app?vid=54589962-84f0-4b56-9509-3e862ef4b926"},"vehicle_type_id":"4","last_reported":1753510548,"current_range_meters":4400,"station_id":"ce4bhjp2rcd13ifvqg90","pricing_plan_id":"cebpf4jnsgd1na2vs0mg"},{"bike_id":"b93c0803-f824-4cb7-a4ed-57da1403b68e","system_id":"levelo_inurba_marseille","lat":43.325583,"lon":5.379059,"is_reserved":false,"is_disabled":true,"rental_uris":{"android":"levelo://app?vid=b93c0803-f824-4cb7-a4ed-57da1403b68e","ios":"levelo://app?vid=b93c0803-f824-4cb7-a4ed-57da1403b68e"},"vehicle_type_id":"4","last_reported":1753510548,"current_range_meters":5600,"station_id":"","pricing_plan_id":"cebpf4jnsgd1na2vs0mg"},{"bike_id":"49a25020-c17f-426d-a295-c677da1110b3","system_id":"levelo_inurba_marseille","lat":43.262133,"lon":5.374397,"is_reserved":false,"is_disabled":false,"rental_uris":{"android":"levelo://app?vid=49a25020-c17f-426d-a295-c677da1110b3","ios":"levelo://app?vid=49a25020-c17f-426d-a295-c677da1110b3"},"vehicle_type_id":"4","last_reported":1753510548,"current_range_meters":5600,"station_id":"ce4bhgp2rcd13ifvqfc0","pricing_plan_id":"cebpf4jnsgd1na2vs0mg"},{"bike_id":"51979a68-a8cc-400e-b7b9-cd8004031e65","system_id":"levelo_inurba_marseille","lat":43.22537,"lon":5.34778,"is_reserved":false,"is_disabled":false,"rental_uris":{"android":"levelo://app?vid=51979a68-a8cc-400e-b7b9-cd8004031e65","ios":"levelo://app?vid=51979a68-a8cc-400e-b7b9-cd8004031e65"},"vehicle_type_id":"4","last_reported":1753510548,"current_range_meters":5600,"station_id":"st_cvj5dfep6f1abm77gieg","pricing_plan_id":"cebpf4jnsgd1na2vs0mg"},{"bike_id":"1e831606-6e16-47f8-b3af-71272dba83e0","system_id":"levelo_inurba_marseille","lat":43.28944,"lon":5.36616,"is_reserved":false,"is_disabled":false,"rental_uris":{"android":"levelo://app?vid=1e831606-6e16-47f8-b3af-71272dba83e0","ios":"levelo://app?vid=1e831606-6e16-47f8-b3af-71272dba83e0"},"vehicle_type_id":"4","last_reported":1753510548,"current_range_meters":6000,"station_id":"ce4bhap2rcd13ifvqek0","pricing_plan_id":"cebpf4jnsgd1na2vs0mg"},{"bike_id":"65fabc23-cf2a-4ca8-a868-9941476ce202","system_id":"levelo_inurba_marseille","lat":43.23613,"lon":5.36177,"is_reserved":false,"is_disabled":false,"rental_uris":{"android":"levelo://app?vid=65fabc23-cf2a-4ca8-a868-9941476ce202","ios":"levelo://app?vid=65fabc23-cf2a-4ca8-a868-9941476ce202"},"vehicle_type_id":"4","last_reported":1753510548,"current_range_meters":6000,"station_id":"","pricing_plan_id":"cebpf4jnsgd1na2vs0mg"},{"bike_id":"9b65ff34-eaf1-48b9-b780-7b72a753f296","system_id":"levelo_inurba_marseille","lat":43.27926,"lon":5.39574,"is_reserved":false,"is_disabled":false,"rental_uris":{"android":"levelo://app?vid=9b65ff34-eaf1-48b9-b780-7b72a753f296","ios":"levelo://app?vid=9b65ff34-eaf1-48b9-b780-7b72a753f296"},"vehicle_type_id":"4","last_reported":1753510548,"current_range_meters":6000,"station_id":"ce4bhf92rcd13ifvqf40","pricing_plan_id":"cebpf4jnsgd1na2vs0mg"},{"bike_id":"e70559ae-5a8c-43f8-bbb1-225754f274f0","system_id":"levelo_inurba_marseille","lat":43.25002,"lon":5.38928,"is_reserved":false,"is_disabled":true,"rental_uris":{"android":"levelo://app?vid=e70559ae-5a8c-43f8-bbb1-225754f274f0","ios":"levelo://app?vid=e70559ae-5a8c-43f8-bbb1-225754f274f0"},"vehicle_type_id":"4","last_reported":1753510548,"current_range_meters":6400,"station_id":"ce4bhgp2rcd13ifvqfd0","pricing_plan_id":"cebpf4jnsgd1na2vs0mg"},{"bike_id":"b2d9b512-461e-4c22-8160-83c7cfb0cdf8","system_id":"levelo_inurba_marseille","lat":43.27964,"lon":5.41062,"is_reserved":false,"is_disabled":true,"rental_uris":{"android":"levelo://app?vid=b2d9b512-461e-4c22-8160-83c7cfb0cdf8","ios":"levelo://app?vid=b2d9b512-461e-4c22-8160-83c7cfb0cdf8"},"vehicle_type_id":"4","last_reported":1753510548,"current_range_meters":6400,"station_id":"ce4bhnp2rcd13ifvqh0g","pricing_plan_id":"cebpf4jnsgd1na2vs0mg"},{"bike_id":"532bfd20-ded9-455a-bd78-ae5a649a80b8","system_id":"levelo_inurba_marseille","lat":43.30772,"lon":5.38159,"is_reserved":false,"is_disabled":false,"rental_uris":{"android":"levelo://app?vid=532bfd20-ded9-455a-bd78-ae5a649a80b8","ios":"levelo://app?vid=532bfd20-ded9-455a-bd78-ae5a649a80b8"},"vehicle_type_id":"4","last_reported":1753510548,"current_range_meters":6400,"station_id":"ce4bgt12rcd13ifvqce0","pricing_plan_id":"cebpf4jnsgd1na2vs0mg"},{"bike_id":"f28d2bb9-4217-4196-a573-ba6f4c172497","system_id":"levelo_inurba_marseille","lat":43.281635,"lon":5.361083,"is_reserved":false,"is_disabled":false,"rental_uris":{"android":"levelo://app?vid=f28d2bb9-4217-4196-a573-ba6f4c172497","ios":"levelo://app?vid=f28d2bb9-4217-4196-a573-ba6f4c172497"},"vehicle_type_id":"4","last_reported":1753510548,"current_range_meters":6400,"station_id":"","pricing_plan_id":"cebpf4jnsgd1na2vs0mg"},{"bike_id":"c341a747-ec18-47bc-8512-a86a147bb06f","system_id":"levelo_inurba_marseille","lat":43.287237,"lon":5.399939,"is_reserved":false,"is_disabled":false,"rental_uris":{"android":"levelo://app?vid=c341a747-ec18-47bc-8512-a86a147bb06f","ios":"levelo://app?vid=c341a747-ec18-47bc-8512-a86a147bb06f"},"vehicle_type_id":"4","last_reported":1753510548,"current_range_meters":6400,"station_id":"ce4bhbh2rcd13ifvqeo0","pricing_plan_id":"cebpf4jnsgd1na2vs0mg"},{"bike_id":"6f8510cb-e3c3-422b-8a9e-e94f7e59a282","system_id":"levelo_inurba_marseille","lat":43.24085,"lon":5.37719,"is_reserved":false,"is_disabled":false,"rental_uris":{"android":"levelo://app?vid=6f8510cb-e3c3-422b-8a9e-e94f7e59a282","ios":"levelo://app?vid=6f8510cb-e3c3-422b-8a9e-e94f7e59a282"},"vehicle_type_id":"4","last_reported":1753510548,"current_range_meters":6400,"station_id":"ce4bhnp2rcd13ifvqgvg","pricing_plan_id":"cebpf4jnsgd1na2vs0mg"},{"bike_id":"882618bf-6e93-4d61-a549-27a6fac31a49","system_id":"levelo_inurba_marseille","lat":43.28483,"lon":5.38416,"is_reserved":false,"is_disabled":false,"rental_uris":{"android":"levelo://app?vid=882618bf-6e93-4d61-a549-27a6fac31a49","ios":"levelo://app?vid=882618bf-6e93-4d61-a549-27a6fac31a49"},"vehicle_type_id":"4","last_reported":1753510548,"current_range_meters":6400,"station_id":"ce4bh512rcd13ifvqe3g","pricing_plan_id":"cebpf4jnsgd1na2vs0mg"},{"bike_id":"c69c3c3b-3e63-40ef-96fd-3e7db0cc9eb8","system_id":"levelo_inurba_marseille","lat":43.3015,"lon":5.38073,"is_reserved":false,"is_disabled":false,"rental_uris":{"android":"levelo://app?vid=c69c3c3b-3e63-40ef-96fd-3e7db0cc9eb8","ios":"levelo://app?vid=c69c3c3b-3e63-40ef-96fd-3e7db0cc9eb8"},"vehicle_type_id":"4","last_reported":1753510548,"current_range_meters":6800,"station_id":"ce4bgjp2rcd13ifvqbh0","pricing_plan_id":"cebpf4jnsgd1na2vs0mg"},{"bike_id":"7114f9ac-bb73-405f-8484-83c076343ba9","system_id":"levelo_inurba_marseille","lat":43.29628,"lon":5.37736,"is_reserved":false,"is_disabled":false,"rental_uris":{"android":"levelo://app?vid=7114f9ac-bb73-405f-8484-83c076343ba9","ios":"levelo://app?vid=7114f9ac-bb73-405f-8484-83c076343ba9"},"vehicle_type_id":"4","last_reported":1753510548,"current_range_meters":7200,"station_id":"ce4bgi92rcd13ifvqb90","pricing_plan_id":"cebpf4jnsgd1na2vs0mg"},{"bike_id":"4c031d5d-a330-4c62-a1b0-aa7e93bb7a9a","system_id":"levelo_inurba_marseille","lat":43.29198,"lon":5.40021,"is_reserved":false,"is_disabled":false,"rental_uris":{"android":"levelo://app?vid=4c031d5d-a330-4c62-a1b0-aa7e93bb7a9a","ios":"levelo://app?vid=4c031d5d-a330-4c62-a1b0-aa7e93bb7a9a"},"vehicle_type_id":"4","last_reported":1753510548,"current_range_meters":7200,"station_id":"","pricing_plan_id":"cebpf4jnsgd1na2vs0mg"},{"bike_id":"04aa5f40-dcf4-48c8-b153-089426eae692","system_id":"levelo_inurba_marseille","lat":43.30132,"lon":5.39858,"is_reserved":false,"is_disabled":false,"rental_uris":{"android":"levelo://app?vid=04aa5f40-dcf4-48c8-b153-089426eae692","ios":"levelo://app?vid=04aa5f40-dcf4-48c8-b153-089426eae692"},"vehicle_type_id":"4","last_reported":1753510548,"current_range_meters":7200,"station_id":"ce4bh0h2rcd13ifvqd40","pricing_plan_id":"cebpf4jnsgd1na2vs0mg"},{"bike_id":"1eeb9152-887a-431b-965f-bc8cff57a561","system_id":"levelo_inurba_marseille","lat":43.29562,"lon":5.39971,"is_reserved":false,"is_disabled":false,"rental_uris":{"android":"levelo://app?vid=1eeb9152-887a-431b-965f-bc8cff57a561","ios":"levelo://app?vid=1eeb9152-887a-431b-965f-bc8cff57a561"},"vehicle_type_id":"4","last_reported":1753510548,"current_range_meters":7200,"station_id":"ce4bh312rcd13ifvqdj0","pricing_plan_id":"cebpf4jnsgd1na2vs0mg"},{"bike_id":"79731e34-e0c5-4fad-be4c-a79fac89bc09","system_id":"levelo_inurba_marseille","lat":43.28684,"lon":5.38672,"is_reserved":false,"is_disabled":true,"rental_uris":{"android":"levelo://app?vid=79731e34-e0c5-4fad-be4c-a79fac89bc09","ios":"levelo://app?vid=79731e34-e0c5-4fad-be4c-a79fac89bc09"},"vehicle_type_id":"4","last_reported":1753510548,"current_range_meters":8000,"station_id":"ce4bh492rcd13ifvqdug","pricing_plan_id":"cebpf4jnsgd1na2vs0mg"},{"bike_id":"ab18ad8f-5eb3-4500-abe1-f62e948a9104","system_id":"levelo_inurba_marseille","lat":43.22492,"lon":5.34791,"is_reserved":false,"is_disabled":false,"rental_uris":{"android":"levelo://app?vid=ab18ad8f-5eb3-4500-abe1-f62e948a9104","ios":"levelo://app?vid=ab18ad8f-5eb3-4500-abe1-f62e948a9104"},"vehicle_type_id":"4","last_reported":1753510548,"current_range_meters":8000,"station_id":"st_cvj5dfep6f1abm77gieg","pricing_plan_id":"cebpf4jnsgd1na2vs0mg"},{"bike_id":"5b94eff9-2e0f-4c0e-b3f6-ab7ca2eca31a","system_id":"levelo_inurba_marseille","lat":43.273812,"lon":5.362562,"is_reserved":false,"is_disabled":false,"rental_uris":{"android":"levelo://app?vid=5b94eff9-2e0f-4c0e-b3f6-ab7ca2eca31a","ios":"levelo://app?vid=5b94eff9-2e0f-4c0e-b3f6-ab7ca2eca31a"},"vehicle_type_id":"4","last_reported":1753510548,"current_range_meters":8000,"station_id":"ce4bhbh2rcd13ifvqeo0","pricing_plan_id":"cebpf4jnsgd1na2vs0mg"},{"bike_id":"b213d83d-cd34-418c-924c-1a8970fdd817","system_id":"levelo_inurba_marseille","lat":43.30134,"lon":5.37407,"is_reserved":false,"is_disabled":true,"rental_uris":{"android":"levelo://app?vid=b213d83d-cd34-418c-924c-1a8970fdd817","ios":"levelo://app?vid=b213d83d-cd34-418c-924c-1a8970fdd817"},"vehicle_type_id":"4","last_reported":1753510548,"current_range_meters":8000,"station_id":"ce4bgs92rcd13ifvqcc0","pricing_plan_id":"cebpf4jnsgd1na2vs0mg"},{"bike_id":"ac7f3c2f-452c-4620-beb4-96f9c8da3434","system_id":"levelo_inurba_marseille","lat":43.306066,"lon":5.385317,"is_reserved":false,"is_disabled":false,"rental_uris":{"android":"levelo://app?vid=ac7f3c2f-452c-4620-beb4-96f9c8da3434","ios":"levelo://app?vid=ac7f3c2f-452c-4620-beb4-96f9c8da3434"},"vehicle_type_id":"4","last_reported":1753510548,"current_range_meters":8000,"station_id":"","pricing_plan_id":"cebpf4jnsgd1na2vs0mg"},{"bike_id":"c332dd65-e309-4522-9e19-3f557a659a6f","system_id":"levelo_inurba_marseille","lat":43.30324,"lon":5.39043,"is_reserved":false,"is_disabled":false,"rental_uris":{"android":"levelo://app?vid=c332dd65-e309-4522-9e19-3f557a659a6f","ios":"levelo://app?vid=c332dd65-e309-4522-9e19-3f557a659a6f"},"vehicle_type_id":"4","last_reported":1753510548,"current_range_meters":8000,"station_id":"","pricing_plan_id":"cebpf4jnsgd1na2vs0mg"},{"bike_id":"89dcea3a-f7f7-44b2-9d2c-a3300861829d","system_id":"levelo_inurba_marseille","lat":43.27848,"lon":5.39738,"is_reserved":false,"is_disabled":false,"rental_uris":{"android":"levelo://app?vid=89dcea3a-f7f7-44b2-9d2c-a3300861829d","ios":"levelo://app?vid=89dcea3a-f7f7-44b2-9d2c-a3300861829d"},"vehicle_type_id":"4","last_reported":1753510548,"current_range_meters":8000,"station_id":"","pricing_plan_id":"cebpf4jnsgd1na2vs0mg"},{"bike_id":"3d93678c-a81c-4620-984f-403438ac187e","system_id":"levelo_inurba_marseille","lat":43.27906,"lon":5.42753,"is_reserved":false,"is_disabled":false,"rental_uris":{"android":"levelo://app?vid=3d93678c-a81c-4620-984f-403438ac187e","ios":"levelo://app?vid=3d93678c-a81c-4620-984f-403438ac187e"},"vehicle_type_id":"4","last_reported":1753510548,"current_range_meters":8000,"station_id":"","pricing_plan_id":"cebpf4jnsgd1na2vs0mg"},{"bike_id":"a1676a90-aeae-4e28-8472-3e88e730a66f","system_id":"levelo_inurba_marseille","lat":43.29036,"lon":5.43951,"is_reserved":false,"is_disabled":false,"rental_uris":{"android":"levelo://app?vid=a1676a90-aeae-4e28-8472-3e88e730a66f","ios":"levelo://app?vid=a1676a90-aeae-4e28-8472-3e88e730a66f"},"vehicle_type_id":"4","last_reported":1753510548,"current_range_meters":8400,"station_id":"","pricing_plan_id":"cebpf4jnsgd1na2vs0mg"},{"bike_id":"1c31f24b-2b9e-48c3-b103-bffd32b92420","system_id":"levelo_inurba_marseille","lat":43.33514,"lon":5.40871,"is_reserved":false,"is_disabled":false,"rental_uris":{"android":"levelo://app?vid=1c31f24b-2b9e-48c3-b103-bffd32b92420","ios":"levelo://app?vid=1c31f24b-2b9e-48c3-b103-bffd32b92420"},"vehicle_type_id":"4","last_reported":1753510548,"current_range_meters":8400,"station_id":"","pricing_plan_id":"cebpf4jnsgd1na2vs0mg"},{"bike_id":"882edace-b3e9-4cfe-a280-b53465db17be","system_id":"levelo_inurba_marseille","lat":43.24095,"lon":5.36318,"is_reserved":false,"is_disabled":false,"rental_uris":{"android":"levelo://app?vid=882edace-b3e9-4cfe-a280-b53465db17be","ios":"levelo://app?vid=882edace-b3e9-4cfe-a280-b53465db17be"},"vehicle_type_id":"4","last_reported":1753510548,"current_range_meters":8400,"station_id":"","pricing_plan_id":"cebpf4jnsgd1na2vs0mg"},{"bike_id":"f7623b57-5f88-4ef7-8535-1d8b44f90d27","system_id":"levelo_inurba_marseille","lat":43.225,"lon":5.34766,"is_reserved":false,"is_disabled":false,"rental_uris":{"android":"levelo://app?vid=f7623b57-5f88-4ef7-8535-1d8b44f90d27","ios":"levelo://app?vid=f7623b57-5f88-4ef7-8535-1d8b44f90d27"},"vehicle_type_id":"4","last_reported":1753510548,"current_range_meters":8400,"station_id":"","pricing_plan_id":"cebpf4jnsgd1na2vs0mg"},{"bike_id":"ff30a5ee-0e9d-4bfa-a593-c7beaf9df463","system_id":"levelo_inurba_marseille","lat":43.33534,"lon":5.362132,"is_reserved":false,"is_disabled":false,"rental_uris":{"android":"levelo://app?vid=ff30a5ee-0e9d-4bfa-a593-c7beaf9df463","ios":"levelo://app?vid=ff30a5ee-0e9d-4bfa-a593-c7beaf9df463"},"vehicle_type_id":"4","last_reported":1753510548,"current_range_meters":8400,"station_id":"","pricing_plan_id":"cebpf4jnsgd1na2vs0mg"},{"bike_id":"8fac8bbe-56f2-42ca-b5ad-5a86db3e8a5f","system_id":"levelo_inurba_marseille","lat":43.29527,"lon":5.38531,"is_reserved":false,"is_disabled":false,"rental_uris":{"android":"levelo://app?vid=8fac8bbe-56f2-42ca-b5ad-5a86db3e8a5f","ios":"levelo://app?vid=8fac8bbe-56f2-42ca-b5ad-5a86db3e8a5f"},"vehicle_type_id":"4","last_reported":1753510548,"current_range_meters":8000,"station_id":"ce4bgih2rcd13ifvqba0","pricing_plan_id":"cebpf4jnsgd1na2vs0mg"},{"bike_id":"282bf4fa-8dd0-4bb6-bfb4-61e17c78e838","system_id":"levelo_inurba_marseille","lat":43.3023,"lon":5.40038,"is_reserved":false,"is_disabled":false,"rental_uris":{"android":"levelo://app?vid=282bf4fa-8dd0-4bb6-bfb4-61e17c78e838","ios":"levelo://app?vid=282bf4fa-8dd0-4bb6-bfb4-61e17c78e838"},"vehicle_type_id":"4","last_reported":1753510548,"current_range_meters":8400,"station_id":"ce4bgvh2rcd13ifvqcs0","pricing_plan_id":"cebpf4jnsgd1na2vs0mg"},{"bike_id":"22a390ae-8984-4017-8fa8-3175df5e7f16","system_id":"levelo_inurba_marseille","lat":43.30236,"lon":5.4003,"is_reserved":false,"is_disabled":false,"rental_uris":{"android":"levelo://app?vid=22a390ae-8984-4017-8fa8-3175df5e7f16","ios":"levelo://app?vid=22a390ae-8984-4017-8fa8-3175df5e7f16"},"vehicle_type_id":"4","last_reported":1753510548,"current_range_meters":8400,"station_id":"ce4bgvh2rcd13ifvqcs0","pricing_plan_id":"cebpf4jnsgd1na2vs0mg"},{"bike_id":"6bb2ef45-92d7-483c-9633-db7367ddc00d","system_id":"levelo_inurba_marseille","lat":43.3024,"lon":5.40042,"is_reserved":false,"is_disabled":false,"rental_uris":{"android":"levelo://app?vid=6bb2ef45-92d7-483c-9633-db7367ddc00d","ios":"levelo://app?vid=6bb2ef45-92d7-483c-9633-db7367ddc00d"},"vehicle_type_id":"4","last_reported":1753510548,"current_range_meters":8400,"station_id":"","pricing_plan_id":"cebpf4jnsgd1na2vs0mg"},{"bike_id":"5e996369-86ae-4816-8750-239b0e998170","system_id":"levelo_inurba_marseille","lat":43.217423,"lon":5.346002,"is_reserved":false,"is_disabled":false,"rental_uris":{"android":"levelo://app?vid=5e996369-86ae-4816-8750-239b0e998170","ios":"levelo://app?vid=5e996369-86ae-4816-8750-239b0e998170"},"vehicle_type_id":"4","last_reported":1753510548,"current_range_meters":8800,"station_id":"st_cvj6r9ubvosntc0bgbag","pricing_plan_id":"cebpf4jnsgd1na2vs0mg"},{"bike_id":"2cb156e7-0dd6-4356-8f3a-8a5ea9426834","system_id":"levelo_inurba_marseille","lat":43.28724,"lon":5.37922,"is_reserved":false,"is_disabled":false,"rental_uris":{"android":"levelo://app?vid=2cb156e7-0dd6-4356-8f3a-8a5ea9426834","ios":"levelo://app?vid=2cb156e7-0dd6-4356-8f3a-8a5ea9426834"},"vehicle_type_id":"4","last_reported":1753510548,"current_range_meters":8800,"station_id":"ce4bh9p2rcd13ifvqec0","pricing_plan_id":"cebpf4jnsgd1na2vs0mg"},{"bike_id":"0a467843-20e6-48a1-a37e-0cfb95eec7c2","system_id":"levelo_inurba_marseille","lat":43.29895,"lon":5.39732,"is_reserved":false,"is_disabled":false,"rental_uris":{"android":"levelo://app?vid=0a467843-20e6-48a1-a37e-0cfb95eec7c2","ios":"levelo://app?vid=0a467843-20e6-48a1-a37e-0cfb95eec7c2"},"vehicle_type_id":"4","last_reported":1753510548,"current_range_meters":8800,"station_id":"ce4bh0h2rcd13ifvqd50","pricing_plan_id":"cebpf4jnsgd1na2vs0mg"},{"bike_id":"7d09ca65-31b4-4f39-8e17-9dd292a03570","system_id":"levelo_inurba_marseille","lat":43.283555,"lon":5.381238,"is_reserved":false,"is_disabled":false,"rental_uris":{"android":"levelo://app?vid=7d09ca65-31b4-4f39-8e17-9dd292a03570","ios":"levelo://app?vid=7d09ca65-31b4-4f39-8e17-9dd292a03570"},"vehicle_type_id":"4","last_reported":1753510548,"current_range_meters":8800,"station_id":"ce4bh412rcd13ifvqdr0","pricing_plan_id":"cebpf4jnsgd1na2vs0mg"},{"bike_id":"0939eecf-ab8e-4e0f-8dde-ab5f40cfd3cc","system_id":"levelo_inurba_marseille","lat":43.28411,"lon":5.34979,"is_reserved":false,"is_disabled":true,"rental_uris":{"android":"levelo://app?vid=0939eecf-ab8e-4e0f-8dde-ab5f40cfd3cc","ios":"levelo://app?vid=0939eecf-ab8e-4e0f-8dde-ab5f40cfd3cc"},"vehicle_type_id":"4","last_reported":1753510548,"current_range_meters":8800,"station_id":"ce4bhbh2rcd13ifvqepg","pricing_plan_id":"cebpf4jnsgd1na2vs0mg"},{"bike_id":"a2ccbf76-8c1a-4aef-814f-db130f867270","system_id":"levelo_inurba_marseille","lat":43.30955,"lon":5.3739,"is_reserved":false,"is_disabled":false,"rental_uris":{"android":"levelo://app?vid=a2ccbf76-8c1a-4aef-814f-db130f867270","ios":"levelo://app?vid=a2ccbf76-8c1a-4aef-814f-db130f867270"},"vehicle_type_id":"4","last_reported":1753510548,"current_range_meters":8800,"station_id":"","pricing_plan_id":"cebpf4jnsgd1na2vs0mg"},{"bike_id":"c8dc9712-a045-4d70-989b-83ececa57361","system_id":"levelo_inurba_marseille","lat":43.28467,"lon":5.38392,"is_reserved":false,"is_disabled":false,"rental_uris":{"android":"levelo://app?vid=c8dc9712-a045-4d70-989b-83ececa57361","ios":"levelo://app?vid=c8dc9712-a045-4d70-989b-83ececa57361"},"vehicle_type_id":"4","last_reported":1753510548,"current_range_meters":9200,"station_id":"ce4bh512rcd13ifvqe3g","pricing_plan_id":"cebpf4jnsgd1na2vs0mg"},{"bike_id":"903350dd-ee3e-4369-8601-96805ce0d468","system_id":"levelo_inurba_marseille","lat":43.30971,"lon":5.38991,"is_reserved":false,"is_disabled":true,"rental_uris":{"android":"levelo://app?vid=903350dd-ee3e-4369-8601-96805ce0d468","ios":"levelo://app?vid=903350dd-ee3e-4369-8601-96805ce0d468"},"vehicle_type_id":"4","last_reported":1753510548,"current_range_meters":9200,"station_id":"ce4bgup2rcd13ifvqco0","pricing_plan_id":"cebpf4jnsgd1na2vs0mg"},{"bike_id":"177981dd-3c05-4e3c-9a69-f569b35b5310","system_id":"levelo_inurba_marseille","lat":43.24531,"lon":5.39564,"is_reserved":false,"is_disabled":false,"rental_uris":{"android":"levelo://app?vid=177981dd-3c05-4e3c-9a69-f569b35b5310","ios":"levelo://app?vid=177981dd-3c05-4e3c-9a69-f569b35b5310"},"vehicle_type_id":"4","last_reported":1753510548,"current_range_meters":9200,"station_id":"","pricing_plan_id":"cebpf4jnsgd1na2vs0mg"},{"bike_id":"96539dd0-0f96-4ac5-b9b3-14b233b89122","system_id":"levelo_inurba_marseille","lat":43.28711,"lon":5.39981,"is_reserved":false,"is_disabled":false,"rental_uris":{"android":"levelo://app?vid=96539dd0-0f96-4ac5-b9b3-14b233b89122","ios":"levelo://app?vid=96539dd0-0f96-4ac5-b9b3-14b233b89122"},"vehicle_type_id":"4","last_reported":1753510548,"current_range_meters":9200,"station_id":"ce4bho92rcd13ifvqh3g","pricing_plan_id":"cebpf4jnsgd1na2vs0mg"},{"bike_id":"2e791062-9e6a-4a1a-9c40-edf913003214","system_id":"levelo_inurba_marseille","lat":43.3234,"lon":5.40612,"is_reserved":false,"is_disabled":false,"rental_uris":{"android":"levelo://app?vid=2e791062-9e6a-4a1a-9c40-edf913003214","ios":"levelo://app?vid=2e791062-9e6a-4a1a-9c40-edf913003214"},"vehicle_type_id":"4","last_reported":1753510548,"current_range_meters":9200,"station_id":"ce4bhq92rcd13ifvqhjg","pricing_plan_id":"cebpf4jnsgd1na2vs0mg"},{"bike_id":"35ee41ab-1155-4c5d-a3ff-d1e05b86be8c","system_id":"levelo_inurba_marseille","lat":43.31073,"lon":5.40098,"is_reserved":false,"is_disabled":true,"rental_uris":{"android":"levelo://app?vid=35ee41ab-1155-4c5d-a3ff-d1e05b86be8c","ios":"levelo://app?vid=35ee41ab-1155-4c5d-a3ff-d1e05b86be8c"},"vehicle_type_id":"4","last_reported":1753510548,"current_range_meters":9200,"station_id":"","pricing_plan_id":"cebpf4jnsgd1na2vs0mg"},{"bike_id":"a584cfdb-f629-459d-b402-910f31fabb73","system_id":"levelo_inurba_marseille","lat":43.2319,"lon":5.39981,"is_reserved":false,"is_disabled":false,"rental_uris":{"android":"levelo://app?vid=a584cfdb-f629-459d-b402-910f31fabb73","ios":"levelo://app?vid=a584cfdb-f629-459d-b402-910f31fabb73"},"vehicle_type_id":"4","last_reported":1753510548,"current_range_meters":9600,"station_id":"ce4bhn12rcd13ifvqgqg","pricing_plan_id":"cebpf4jnsgd1na2vs0mg"},{"bike_id":"5ab7798c-0e5a-445a-baf5-2e9bea2306a1","system_id":"levelo_inurba_marseille","lat":43.29285,"lon":5.40131,"is_reserved":false,"is_disabled":false,"rental_uris":{"android":"levelo://app?vid=5ab7798c-0e5a-445a-baf5-2e9bea2306a1","ios":"levelo://app?vid=5ab7798c-0e5a-445a-baf5-2e9bea2306a1"},"vehicle_type_id":"4","last_reported":1753510548,"current_range_meters":9600,"station_id":"ce4bh312rcd13ifvqdk0","pricing_plan_id":"cebpf4jnsgd1na2vs0mg"},{"bike_id":"3de4c8b4-a250-4819-8f42-2ecf8c45b170","system_id":"levelo_inurba_marseille","lat":43.29865,"lon":5.39764,"is_reserved":false,"is_disabled":false,"rental_uris":{"android":"levelo://app?vid=3de4c8b4-a250-4819-8f42-2ecf8c45b170","ios":"levelo://app?vid=3de4c8b4-a250-4819-8f42-2ecf8c45b170"},"vehicle_type_id":"4","last_reported":1753510548,"current_range_meters":9600,"station_id":"ce4bh0h2rcd13ifvqd50","pricing_plan_id":"cebpf4jnsgd1na2vs0mg"},{"bike_id":"f844a339-7d37-4629-b9b3-2ab886c95711","system_id":"levelo_inurba_marseille","lat":43.25858,"lon":5.39916,"is_reserved":false,"is_disabled":true,"rental_uris":{"android":"levelo://app?vid=f844a339-7d37-4629-b9b3-2ab886c95711","ios":"levelo://app?vid=f844a339-7d37-4629-b9b3-2ab886c95711"},"vehicle_type_id":"4","last_reported":1753510548,"current_range_meters":9600,"station_id":"ce4bhl92rcd13ifvqghg","pricing_plan_id":"cebpf4jnsgd1na2vs0mg"},{"bike_id":"ec4fa9d4-db41-46cb-b998-edaa5e537b9c","system_id":"levelo_inurba_marseille","lat":43.32285,"lon":5.38282,"is_reserved":false,"is_disabled":false,"rental_uris":{"android":"levelo://app?vid=ec4fa9d4-db41-46cb-b998-edaa5e537b9c","ios":"levelo://app?vid=ec4fa9d4-db41-46cb-b998-edaa5e537b9c"},"vehicle_type_id":"4","last_reported":1753510548,"current_range_meters":9600,"station_id":"ce4bhr12rcd13ifvqhqg","pricing_plan_id":"cebpf4jnsgd1na2vs0mg"},{"bike_id":"b9f11d66-ba59-425d-8545-b398c9bf8052","system_id":"levelo_inurba_marseille","lat":43.30532,"lon":5.38417,"is_reserved":false,"is_disabled":false,"rental_uris":{"android":"levelo://app?vid=b9f11d66-ba59-425d-8545-b398c9bf8052","ios":"levelo://app?vid=b9f11d66-ba59-425d-8545-b398c9bf8052"},"vehicle_type_id":"4","last_reported":1753510548,"current_range_meters":9600,"station_id":"ce4bgg92rcd13ifvqb30","pricing_plan_id":"cebpf4jnsgd1na2vs0mg"},{"bike_id":"2e8e7fa4-47bc-4567-b903-96abfb4fdf66","system_id":"levelo_inurba_marseille","lat":43.292732,"lon":5.445979,"is_reserved":false,"is_disabled":false,"rental_uris":{"android":"levelo://app?vid=2e8e7fa4-47bc-4567-b903-96abfb4fdf66","ios":"levelo://app?vid=2e8e7fa4-47bc-4567-b903-96abfb4fdf66"},"vehicle_type_id":"4","last_reported":1753510548,"current_range_meters":9600,"station_id":"","pricing_plan_id":"cebpf4jnsgd1na2vs0mg"},{"bike_id":"490fd0a3-3ae2-4135-acff-5c94025f5f04","system_id":"levelo_inurba_marseille","lat":43.279128,"lon":5.39579,"is_reserved":false,"is_disabled":true,"rental_uris":{"android":"levelo://app?vid=490fd0a3-3ae2-4135-acff-5c94025f5f04","ios":"levelo://app?vid=490fd0a3-3ae2-4135-acff-5c94025f5f04"},"vehicle_type_id":"4","last_reported":1753510548,"current_range_meters":9600,"station_id":"ce4bhf92rcd13ifvqf40","pricing_plan_id":"cebpf4jnsgd1na2vs0mg"},{"bike_id":"04d6cdd5-5582-46ca-8f5a-f546962f07c6","system_id":"levelo_inurba_marseille","lat":43.28885,"lon":5.37861,"is_reserved":false,"is_disabled":false,"rental_uris":{"android":"levelo://app?vid=04d6cdd5-5582-46ca-8f5a-f546962f07c6","ios":"levelo://app?vid=04d6cdd5-5582-46ca-8f5a-f546962f07c6"},"vehicle_type_id":"4","last_reported":1753510548,"current_range_meters":9600,"station_id":"","pricing_plan_id":"cebpf4jnsgd1na2vs0mg"},{"bike_id":"6755382c-76dd-4587-baf5-a4b43a86610a","system_id":"levelo_inurba_marseille","lat":43.240809,"lon":5.377587,"is_reserved":false,"is_disabled":false,"rental_uris":{"android":"levelo://app?vid=6755382c-76dd-4587-baf5-a4b43a86610a","ios":"levelo://app?vid=6755382c-76dd-4587-baf5-a4b43a86610a"},"vehicle_type_id":"4","last_reported":1753510548,"current_range_meters":9600,"station_id":"ce4bhnp2rcd13ifvqgvg","pricing_plan_id":"cebpf4jnsgd1na2vs0mg"},{"bike_id":"8cbb8f7f-9095-4ea2-b7c0-3cb05502a868","system_id":"levelo_inurba_marseille","lat":43.288875,"lon":5.371216,"is_reserved":false,"is_disabled":false,"rental_uris":{"android":"levelo://app?vid=8cbb8f7f-9095-4ea2-b7c0-3cb05502a868","ios":"levelo://app?vid=8cbb8f7f-9095-4ea2-b7c0-3cb05502a868"},"vehicle_type_id":"4","last_reported":1753510548,"current_range_meters":9600,"station_id":"","pricing_plan_id":"cebpf4jnsgd1na2vs0mg"},{"bike_id":"5440a182-b760-4205-92c8-d9ab0a9c67c8","system_id":"levelo_inurba_marseille","lat":43.2842,"lon":5.34971,"is_reserved":false,"is_disabled":false,"rental_uris":{"android":"levelo://app?vid=5440a182-b760-4205-92c8-d9ab0a9c67c8","ios":"levelo://app?vid=5440a182-b760-4205-92c8-d9ab0a9c67c8"},"vehicle_type_id":"4","last_reported":1753510548,"current_range_meters":10000,"station_id":"ce4bhbh2rcd13ifvqepg","pricing_plan_id":"cebpf4jnsgd1na2vs0mg"},{"bike_id":"f1215a87-34bc-492a-af0e-45637cb2773e","system_id":"levelo_inurba_marseille","lat":43.292509,"lon":5.409085,"is_reserved":false,"is_disabled":false,"rental_uris":{"android":"levelo://app?vid=f1215a87-34bc-492a-af0e-45637cb2773e","ios":"levelo://app?vid=f1215a87-34bc-492a-af0e-45637cb2773e"},"vehicle_type_id":"4","last_reported":1753510548,"current_range_meters":10000,"station_id":"ce4bh192rcd13ifvqdc0","pricing_plan_id":"cebpf4jnsgd1na2vs0mg"},{"bike_id":"078febbd-6d49-4abf-8b46-d33f87f8da46","system_id":"levelo_inurba_marseille","lat":43.25452,"lon":5.38007,"is_reserved":false,"is_disabled":false,"rental_uris":{"android":"levelo://app?vid=078febbd-6d49-4abf-8b46-d33f87f8da46","ios":"levelo://app?vid=078febbd-6d49-4abf-8b46-d33f87f8da46"},"vehicle_type_id":"4","last_reported":1753510548,"current_range_meters":10000,"station_id":"","pricing_plan_id":"cebpf4jnsgd1na2vs0mg"},{"bike_id":"378521b9-2f88-49b6-9620-86cb628eab29","system_id":"levelo_inurba_marseille","lat":43.27177,"lon":5.40994,"is_reserved":false,"is_disabled":false,"rental_uris":{"android":"levelo://app?vid=378521b9-2f88-49b6-9620-86cb628eab29","ios":"levelo://app?vid=378521b9-2f88-49b6-9620-86cb628eab29"},"vehicle_type_id":"4","last_reported":1753510548,"current_range_meters":10000,"station_id":"ce4bhl12rcd13ifvqgf0","pricing_plan_id":"cebpf4jnsgd1na2vs0mg"},{"bike_id":"591fb768-7e78-4b54-88b5-e73a5af76b19","system_id":"levelo_inurba_marseille","lat":43.22923,"lon":5.35367,"is_reserved":false,"is_disabled":false,"rental_uris":{"android":"levelo://app?vid=591fb768-7e78-4b54-88b5-e73a5af76b19","ios":"levelo://app?vid=591fb768-7e78-4b54-88b5-e73a5af76b19"},"vehicle_type_id":"4","last_reported":1753510548,"current_range_meters":10000,"station_id":"cpo3532slgdg3j2ikp40","pricing_plan_id":"cebpf4jnsgd1na2vs0mg"},{"bike_id":"ccca3042-9358-40fc-ac03-e327e01c225f","system_id":"levelo_inurba_marseille","lat":43.23303,"lon":5.36106,"is_reserved":false,"is_disabled":false,"rental_uris":{"android":"levelo://app?vid=ccca3042-9358-40fc-ac03-e327e01c225f","ios":"levelo://app?vid=ccca3042-9358-40fc-ac03-e327e01c225f"},"vehicle_type_id":"4","last_reported":1753510548,"current_range_meters":10000,"station_id":"","pricing_plan_id":"cebpf4jnsgd1na2vs0mg"},{"bike_id":"c017b4de-074c-46ed-bc0a-5b7912813135","system_id":"levelo_inurba_marseille","lat":43.261002,"lon":5.372545,"is_reserved":false,"is_disabled":false,"rental_uris":{"android":"levelo://app?vid=c017b4de-074c-46ed-bc0a-5b7912813135","ios":"levelo://app?vid=c017b4de-074c-46ed-bc0a-5b7912813135"},"vehicle_type_id":"4","last_reported":1753510548,"current_range_meters":10000,"station_id":"","pricing_plan_id":"cebpf4jnsgd1na2vs0mg"},{"bike_id":"4e6e6044-20e5-44fc-87b5-2b41e2616d90","system_id":"levelo_inurba_marseille","lat":43.30116,"lon":5.39868,"is_reserved":false,"is_disabled":true,"rental_uris":{"android":"levelo://app?vid=4e6e6044-20e5-44fc-87b5-2b41e2616d90","ios":"levelo://app?vid=4e6e6044-20e5-44fc-87b5-2b41e2616d90"},"vehicle_type_id":"4","last_reported":1753510548,"current_range_meters":10000,"station_id":"ce4bh0h2rcd13ifvqd40","pricing_plan_id":"cebpf4jnsgd1na2vs0mg"},{"bike_id":"421db1c8-c66c-4175-82a7-0ee065df7ba2","system_id":"levelo_inurba_marseille","lat":43.27078,"lon":5.40268,"is_reserved":false,"is_disabled":false,"rental_uris":{"android":"levelo://app?vid=421db1c8-c66c-4175-82a7-0ee065df7ba2","ios":"levelo://app?vid=421db1c8-c66c-4175-82a7-0ee065df7ba2"},"vehicle_type_id":"4","last_reported":1753510548,"current_range_meters":10800,"station_id":"ce4bhk92rcd13ifvqgc0","pricing_plan_id":"cebpf4jnsgd1na2vs0mg"},{"bike_id":"773b48d4-858e-46f9-8819-6029f415d049","system_id":"levelo_inurba_marseille","lat":43.31257,"lon":5.36856,"is_reserved":false,"is_disabled":true,"rental_uris":{"android":"levelo://app?vid=773b48d4-858e-46f9-8819-6029f415d049","ios":"levelo://app?vid=773b48d4-858e-46f9-8819-6029f415d049"},"vehicle_type_id":"4","last_reported":1753510548,"current_range_meters":10800,"station_id":"ce4bgl92rcd13ifvqbq0","pricing_plan_id":"cebpf4jnsgd1na2vs0mg"},{"bike_id":"a3fe9995-2e3e-423b-9540-429a92fa997e","system_id":"levelo_inurba_marseille","lat":43.301667,"lon":5.372265,"is_reserved":false,"is_disabled":false,"rental_uris":{"android":"levelo://app?vid=a3fe9995-2e3e-423b-9540-429a92fa997e","ios":"levelo://app?vid=a3fe9995-2e3e-423b-9540-429a92fa997e"},"vehicle_type_id":"4","last_reported":1753510548,"current_range_meters":10800,"station_id":"","pricing_plan_id":"cebpf4jnsgd1na2vs0mg"},{"bike_id":"c54b8f05-7913-4da3-ae76-4264f55e6528","system_id":"levelo_inurba_marseille","lat":43.313566,"lon":5.38491,"is_reserved":false,"is_disabled":false,"rental_uris":{"android":"levelo://app?vid=c54b8f05-7913-4da3-ae76-4264f55e6528","ios":"levelo://app?vid=c54b8f05-7913-4da3-ae76-4264f55e6528"},"vehicle_type_id":"4","last_reported":1753510548,"current_range_meters":10800,"station_id":"ce4bgt92rcd13ifvqcf0","pricing_plan_id":"cebpf4jnsgd1na2vs0mg"},{"bike_id":"14290dc3-0ecb-4c09-bf2e-6db4a8e35188","system_id":"levelo_inurba_marseille","lat":43.243994,"lon":5.370574,"is_reserved":false,"is_disabled":false,"rental_uris":{"android":"levelo://app?vid=14290dc3-0ecb-4c09-bf2e-6db4a8e35188","ios":"levelo://app?vid=14290dc3-0ecb-4c09-bf2e-6db4a8e35188"},"vehicle_type_id":"4","last_reported":1753510548,"current_range_meters":10800,"station_id":"ce4bhhh2rcd13ifvqfk0","pricing_plan_id":"cebpf4jnsgd1na2vs0mg"},{"bike_id":"44dd49d0-ee46-43b9-9770-ee74a62ddcb7","system_id":"levelo_inurba_marseille","lat":43.31065,"lon":5.38323,"is_reserved":false,"is_disabled":false,"rental_uris":{"android":"levelo://app?vid=44dd49d0-ee46-43b9-9770-ee74a62ddcb7","ios":"levelo://app?vid=44dd49d0-ee46-43b9-9770-ee74a62ddcb7"},"vehicle_type_id":"4","last_reported":1753510548,"current_range_meters":11200,"station_id":"ce4bgv92rcd13ifvqcr0","pricing_plan_id":"cebpf4jnsgd1na2vs0mg"},{"bike_id":"bf5dc847-8618-43ac-89c5-509d432811df","system_id":"levelo_inurba_marseille","lat":43.28707,"lon":5.37377,"is_reserved":false,"is_disabled":false,"rental_uris":{"android":"levelo://app?vid=bf5dc847-8618-43ac-89c5-509d432811df","ios":"levelo://app?vid=bf5dc847-8618-43ac-89c5-509d432811df"},"vehicle_type_id":"4","last_reported":1753510548,"current_range_meters":11200,"station_id":"ce4bh3p2rcd13ifvqdq0","pricing_plan_id":"cebpf4jnsgd1na2vs0mg"},{"bike_id":"4878cf6d-5d8c-46c7-9c7f-8504713d84db","system_id":"levelo_inurba_marseille","lat":43.31067,"lon":5.38341,"is_reserved":false,"is_disabled":false,"rental_uris":{"android":"levelo://app?vid=4878cf6d-5d8c-46c7-9c7f-8504713d84db","ios":"levelo://app?vid=4878cf6d-5d8c-46c7-9c7f-8504713d84db"},"vehicle_type_id":"4","last_reported":1753510548,"current_range_meters":11200,"station_id":"ce4bgv92rcd13ifvqcr0","pricing_plan_id":"cebpf4jnsgd1na2vs0mg"},{"bike_id":"080898b1-d9d2-40ed-bb41-b1a8dde1f5a9","system_id":"levelo_inurba_marseille","lat":43.285774,"lon":5.367579,"is_reserved":false,"is_disabled":false,"rental_uris":{"android":"levelo://app?vid=080898b1-d9d2-40ed-bb41-b1a8dde1f5a9","ios":"levelo://app?vid=080898b1-d9d2-40ed-bb41-b1a8dde1f5a9"},"vehicle_type_id":"4","last_reported":1753510548,"current_range_meters":11200,"station_id":"","pricing_plan_id":"cebpf4jnsgd1na2vs0mg"},{"bike_id":"06efbd2a-fcca-4784-aa74-70f8fdbdc82d","system_id":"levelo_inurba_marseille","lat":43.29258,"lon":5.36827,"is_reserved":false,"is_disabled":true,"rental_uris":{"android":"levelo://app?vid=06efbd2a-fcca-4784-aa74-70f8fdbdc82d","ios":"levelo://app?vid=06efbd2a-fcca-4784-aa74-70f8fdbdc82d"},"vehicle_type_id":"4","last_reported":1753510548,"current_range_meters":11200,"station_id":"ce4bhbp2rcd13ifvqesg","pricing_plan_id":"cebpf4jnsgd1na2vs0mg"},{"bike_id":"9bb32344-605b-44ea-aa2a-94e1b611494e","system_id":"levelo_inurba_marseille","lat":43.2439,"lon":5.3706,"is_reserved":false,"is_disabled":false,"rental_uris":{"android":"levelo://app?vid=9bb32344-605b-44ea-aa2a-94e1b611494e","ios":"levelo://app?vid=9bb32344-605b-44ea-aa2a-94e1b611494e"},"vehicle_type_id":"4","last_reported":1753510548,"current_range_meters":11200,"station_id":"ce4bhhh2rcd13ifvqfk0","pricing_plan_id":"cebpf4jnsgd1na2vs0mg"},{"bike_id":"02eb341a-2c80-41b7-af00-aee86e209066","system_id":"levelo_inurba_marseille","lat":43.30802,"lon":5.38154,"is_reserved":false,"is_disabled":false,"rental_uris":{"android":"levelo://app?vid=02eb341a-2c80-41b7-af00-aee86e209066","ios":"levelo://app?vid=02eb341a-2c80-41b7-af00-aee86e209066"},"vehicle_type_id":"4","last_reported":1753510548,"current_range_meters":11600,"station_id":"ce4bgt12rcd13ifvqce0","pricing_plan_id":"cebpf4jnsgd1na2vs0mg"},{"bike_id":"43cf4049-15dd-4e8c-88a8-61cd8dc10bf5","system_id":"levelo_inurba_marseille","lat":43.33248,"lon":5.37923,"is_reserved":false,"is_disabled":false,"rental_uris":{"android":"levelo://app?vid=43cf4049-15dd-4e8c-88a8-61cd8dc10bf5","ios":"levelo://app?vid=43cf4049-15dd-4e8c-88a8-61cd8dc10bf5"},"vehicle_type_id":"4","last_reported":1753510548,"current_range_meters":11600,"station_id":"","pricing_plan_id":"cebpf4jnsgd1na2vs0mg"},{"bike_id":"eeeb9218-8042-4cbd-95a4-0834de564d28","system_id":"levelo_inurba_marseille","lat":43.21734,"lon":5.34599,"is_reserved":false,"is_disabled":false,"rental_uris":{"android":"levelo://app?vid=eeeb9218-8042-4cbd-95a4-0834de564d28","ios":"levelo://app?vid=eeeb9218-8042-4cbd-95a4-0834de564d28"},"vehicle_type_id":"4","last_reported":1753510548,"current_range_meters":11600,"station_id":"st_cvj6r9ubvosntc0bgbag","pricing_plan_id":"cebpf4jnsgd1na2vs0mg"},{"bike_id":"37edb889-f2b1-4e0e-9841-76c4a3c5c0ae","system_id":"levelo_inurba_marseille","lat":43.31063,"lon":5.3835,"is_reserved":false,"is_disabled":false,"rental_uris":{"android":"levelo://app?vid=37edb889-f2b1-4e0e-9841-76c4a3c5c0ae","ios":"levelo://app?vid=37edb889-f2b1-4e0e-9841-76c4a3c5c0ae"},"vehicle_type_id":"4","last_reported":1753510548,"current_range_meters":11600,"station_id":"ce4bgv92rcd13ifvqcr0","pricing_plan_id":"cebpf4jnsgd1na2vs0mg"},{"bike_id":"2aaf9e53-3f16-42db-8c23-6f1eb4773524","system_id":"levelo_inurba_marseille","lat":43.28416,"lon":5.34971,"is_reserved":false,"is_disabled":false,"rental_uris":{"android":"levelo://app?vid=2aaf9e53-3f16-42db-8c23-6f1eb4773524","ios":"levelo://app?vid=2aaf9e53-3f16-42db-8c23-6f1eb4773524"},"vehicle_type_id":"4","last_reported":1753510548,"current_range_meters":12000,"station_id":"ce4bhbh2rcd13ifvqepg","pricing_plan_id":"cebpf4jnsgd1na2vs0mg"},{"bike_id":"22dca147-1260-44d8-822d-d9d1d50cce31","system_id":"levelo_inurba_marseille","lat":43.27473,"lon":5.39568,"is_reserved":false,"is_disabled":false,"rental_uris":{"android":"levelo://app?vid=22dca147-1260-44d8-822d-d9d1d50cce31","ios":"levelo://app?vid=22dca147-1260-44d8-822d-d9d1d50cce31"},"vehicle_type_id":"4","last_reported":1753510548,"current_range_meters":12000,"station_id":"","pricing_plan_id":"cebpf4jnsgd1na2vs0mg"},{"bike_id":"3fbae197-eaaa-4b47-a1f5-bd8d87ea25e8","system_id":"levelo_inurba_marseille","lat":43.29621,"lon":5.37716,"is_reserved":false,"is_disabled":false,"rental_uris":{"android":"levelo://app?vid=3fbae197-eaaa-4b47-a1f5-bd8d87ea25e8","ios":"levelo://app?vid=3fbae197-eaaa-4b47-a1f5-bd8d87ea25e8"},"vehicle_type_id":"4","last_reported":1753510548,"current_range_meters":11600,"station_id":"ce4bgi92rcd13ifvqb90","pricing_plan_id":"cebpf4jnsgd1na2vs0mg"},{"bike_id":"21a22bc7-65fe-4b97-a005-517b211a0b98","system_id":"levelo_inurba_marseille","lat":43.23054,"lon":5.354927,"is_reserved":false,"is_disabled":false,"rental_uris":{"android":"levelo://app?vid=21a22bc7-65fe-4b97-a005-517b211a0b98","ios":"levelo://app?vid=21a22bc7-65fe-4b97-a005-517b211a0b98"},"vehicle_type_id":"4","last_reported":1753510548,"current_range_meters":12000,"station_id":"cpo3342slgdg3j2ifvpg","pricing_plan_id":"cebpf4jnsgd1na2vs0mg"},{"bike_id":"520b4f98-60fb-49a4-b66e-a1051615bd51","system_id":"levelo_inurba_marseille","lat":43.310728,"lon":5.383544,"is_reserved":false,"is_disabled":false,"rental_uris":{"android":"levelo://app?vid=520b4f98-60fb-49a4-b66e-a1051615bd51","ios":"levelo://app?vid=520b4f98-60fb-49a4-b66e-a1051615bd51"},"vehicle_type_id":"4","last_reported":1753510548,"current_range_meters":12000,"station_id":"ce4bgv92rcd13ifvqcr0","pricing_plan_id":"cebpf4jnsgd1na2vs0mg"},{"bike_id":"127b6b72-bfb2-485f-b579-b67c1ffbea0b","system_id":"levelo_inurba_marseille","lat":43.290311,"lon":5.399895,"is_reserved":false,"is_disabled":false,"rental_uris":{"android":"levelo://app?vid=127b6b72-bfb2-485f-b579-b67c1ffbea0b","ios":"levelo://app?vid=127b6b72-bfb2-485f-b579-b67c1ffbea0b"},"vehicle_type_id":"4","last_reported":1753510548,"current_range_meters":12000,"station_id":"ce4bh392rcd13ifvqdm0","pricing_plan_id":"cebpf4jnsgd1na2vs0mg"},{"bike_id":"812d5501-ea65-4715-aa4b-8239dd8992be","system_id":"levelo_inurba_marseille","lat":43.26191,"lon":5.37458,"is_reserved":false,"is_disabled":true,"rental_uris":{"android":"levelo://app?vid=812d5501-ea65-4715-aa4b-8239dd8992be","ios":"levelo://app?vid=812d5501-ea65-4715-aa4b-8239dd8992be"},"vehicle_type_id":"4","last_reported":1753510548,"current_range_meters":12000,"station_id":"ce4bhgp2rcd13ifvqfc0","pricing_plan_id":"cebpf4jnsgd1na2vs0mg"},{"bike_id":"74a6c46a-cd6b-4e06-b682-8d62c709965c","system_id":"levelo_inurba_marseille","lat":43.27211,"lon":5.39169,"is_reserved":false,"is_disabled":false,"rental_uris":{"android":"levelo://app?vid=74a6c46a-cd6b-4e06-b682-8d62c709965c","ios":"levelo://app?vid=74a6c46a-cd6b-4e06-b682-8d62c709965c"},"vehicle_type_id":"4","last_reported":1753510548,"current_range_meters":12400,"station_id":"ce4bhhp2rcd13ifvqfm0","pricing_plan_id":"cebpf4jnsgd1na2vs0mg"},{"bike_id":"2c1451e1-d7ce-43b9-aa82-426ee8261907","system_id":"levelo_inurba_marseille","lat":43.3104,"lon":5.38374,"is_reserved":false,"is_disabled":false,"rental_uris":{"android":"levelo://app?vid=2c1451e1-d7ce-43b9-aa82-426ee8261907","ios":"levelo://app?vid=2c1451e1-d7ce-43b9-aa82-426ee8261907"},"vehicle_type_id":"4","last_reported":1753510548,"current_range_meters":12400,"station_id":"ce4bgv92rcd13ifvqcr0","pricing_plan_id":"cebpf4jnsgd1na2vs0mg"},{"bike_id":"436fe95d-b330-48c3-93df-d3c7001c90c1","system_id":"levelo_inurba_marseille","lat":43.29914,"lon":5.39734,"is_reserved":false,"is_disabled":false,"rental_uris":{"android":"levelo://app?vid=436fe95d-b330-48c3-93df-d3c7001c90c1","ios":"levelo://app?vid=436fe95d-b330-48c3-93df-d3c7001c90c1"},"vehicle_type_id":"4","last_reported":1753510548,"current_range_meters":12400,"station_id":"","pricing_plan_id":"cebpf4jnsgd1na2vs0mg"},{"bike_id":"d79b409f-ca1b-43df-9348-1c6665f1fc25","system_id":"levelo_inurba_marseille","lat":43.22502,"lon":5.34772,"is_reserved":false,"is_disabled":false,"rental_uris":{"android":"levelo://app?vid=d79b409f-ca1b-43df-9348-1c6665f1fc25","ios":"levelo://app?vid=d79b409f-ca1b-43df-9348-1c6665f1fc25"},"vehicle_type_id":"4","last_reported":1753510548,"current_range_meters":12800,"station_id":"st_cvj5dfep6f1abm77gieg","pricing_plan_id":"cebpf4jnsgd1na2vs0mg"},{"bike_id":"970ce0d9-2c80-445a-b6ab-c8eb3acdf2c4","system_id":"levelo_inurba_marseille","lat":43.26224,"lon":5.4047,"is_reserved":false,"is_disabled":false,"rental_uris":{"android":"levelo://app?vid=970ce0d9-2c80-445a-b6ab-c8eb3acdf2c4","ios":"levelo://app?vid=970ce0d9-2c80-445a-b6ab-c8eb3acdf2c4"},"vehicle_type_id":"4","last_reported":1753510548,"current_range_meters":12800,"station_id":"ce4bhmh2rcd13ifvqgmg","pricing_plan_id":"cebpf4jnsgd1na2vs0mg"},{"bike_id":"0bc56010-a9cb-4aa1-82bf-7037a5fac629","system_id":"levelo_inurba_marseille","lat":43.26784,"lon":5.39416,"is_reserved":false,"is_disabled":false,"rental_uris":{"android":"levelo://app?vid=0bc56010-a9cb-4aa1-82bf-7037a5fac629","ios":"levelo://app?vid=0bc56010-a9cb-4aa1-82bf-7037a5fac629"},"vehicle_type_id":"4","last_reported":1753510548,"current_range_meters":12400,"station_id":"ce4bhh12rcd13ifvqfg0","pricing_plan_id":"cebpf4jnsgd1na2vs0mg"},{"bike_id":"c58eefdf-cf11-4962-93d9-3a4a1f3bdf88","system_id":"levelo_inurba_marseille","lat":43.284158,"lon":5.375295,"is_reserved":false,"is_disabled":false,"rental_uris":{"android":"levelo://app?vid=c58eefdf-cf11-4962-93d9-3a4a1f3bdf88","ios":"levelo://app?vid=c58eefdf-cf11-4962-93d9-3a4a1f3bdf88"},"vehicle_type_id":"4","last_reported":1753510548,"current_range_meters":12800,"station_id":"ce4bh412rcd13ifvqds0","pricing_plan_id":"cebpf4jnsgd1na2vs0mg"},{"bike_id":"76ebd0a1-d396-429b-a5c8-74dea23960d0","system_id":"levelo_inurba_marseille","lat":43.28936,"lon":5.39622,"is_reserved":false,"is_disabled":false,"rental_uris":{"android":"levelo://app?vid=76ebd0a1-d396-429b-a5c8-74dea23960d0","ios":"levelo://app?vid=76ebd0a1-d396-429b-a5c8-74dea23960d0"},"vehicle_type_id":"4","last_reported":1753510548,"current_range_meters":12400,"station_id":"ce4bh3h2rcd13ifvqdn0","pricing_plan_id":"cebpf4jnsgd1na2vs0mg"},{"bike_id":"de99b14c-9afd-4bdd-bc56-50354c110c3d","system_id":"levelo_inurba_marseille","lat":43.25467,"lon":5.37687,"is_reserved":false,"is_disabled":false,"rental_uris":{"android":"levelo://app?vid=de99b14c-9afd-4bdd-bc56-50354c110c3d","ios":"levelo://app?vid=de99b14c-9afd-4bdd-bc56-50354c110c3d"},"vehicle_type_id":"4","last_reported":1753510548,"current_range_meters":13600,"station_id":"","pricing_plan_id":"cebpf4jnsgd1na2vs0mg"},{"bike_id":"a7928c20-e426-4d56-be6c-24e8cea40a03","system_id":"levelo_inurba_marseille","lat":43.28665,"lon":5.36345,"is_reserved":false,"is_disabled":false,"rental_uris":{"android":"levelo://app?vid=a7928c20-e426-4d56-be6c-24e8cea40a03","ios":"levelo://app?vid=a7928c20-e426-4d56-be6c-24e8cea40a03"},"vehicle_type_id":"4","last_reported":1753510548,"current_range_meters":13600,"station_id":"ce4bhah2rcd13ifvqej0","pricing_plan_id":"cebpf4jnsgd1na2vs0mg"},{"bike_id":"7528e0ee-3254-4380-8007-ffef61e356ca","system_id":"levelo_inurba_marseille","lat":43.2656,"lon":5.37292,"is_reserved":false,"is_disabled":false,"rental_uris":{"android":"levelo://app?vid=7528e0ee-3254-4380-8007-ffef61e356ca","ios":"levelo://app?vid=7528e0ee-3254-4380-8007-ffef61e356ca"},"vehicle_type_id":"4","last_reported":1753510548,"current_range_meters":13600,"station_id":"ce4bhg12rcd13ifvqf70","pricing_plan_id":"cebpf4jnsgd1na2vs0mg"},{"bike_id":"c26f1b4d-11e7-4aaa-8fd1-0c8a6e22bd7c","system_id":"levelo_inurba_marseille","lat":43.30126,"lon":5.38776,"is_reserved":false,"is_disabled":false,"rental_uris":{"android":"levelo://app?vid=c26f1b4d-11e7-4aaa-8fd1-0c8a6e22bd7c","ios":"levelo://app?vid=c26f1b4d-11e7-4aaa-8fd1-0c8a6e22bd7c"},"vehicle_type_id":"4","last_reported":1753510548,"current_range_meters":13600,"station_id":"ce4bghh2rcd13ifvqb60","pricing_plan_id":"cebpf4jnsgd1na2vs0mg"},{"bike_id":"ec74f06a-40dc-4c39-a0cb-57d6f568a4e5","system_id":"levelo_inurba_marseille","lat":43.229303,"lon":5.353854,"is_reserved":false,"is_disabled":false,"rental_uris":{"android":"levelo://app?vid=ec74f06a-40dc-4c39-a0cb-57d6f568a4e5","ios":"levelo://app?vid=ec74f06a-40dc-4c39-a0cb-57d6f568a4e5"},"vehicle_type_id":"4","last_reported":1753510548,"current_range_meters":13600,"station_id":"cpo3532slgdg3j2ikp40","pricing_plan_id":"cebpf4jnsgd1na2vs0mg"},{"bike_id":"0574be29-517b-4942-b3cc-ba6b7cf9246f","system_id":"levelo_inurba_marseille","lat":43.28412,"lon":5.3752,"is_reserved":false,"is_disabled":false,"rental_uris":{"android":"levelo://app?vid=0574be29-517b-4942-b3cc-ba6b7cf9246f","ios":"levelo://app?vid=0574be29-517b-4942-b3cc-ba6b7cf9246f"},"vehicle_type_id":"4","last_reported":1753510548,"current_range_meters":13600,"station_id":"ce4bh412rcd13ifvqds0","pricing_plan_id":"cebpf4jnsgd1na2vs0mg"},{"bike_id":"7a64d612-4388-48bc-a34a-633b0c2a913b","system_id":"levelo_inurba_marseille","lat":43.29037,"lon":5.39947,"is_reserved":false,"is_disabled":false,"rental_uris":{"android":"levelo://app?vid=7a64d612-4388-48bc-a34a-633b0c2a913b","ios":"levelo://app?vid=7a64d612-4388-48bc-a34a-633b0c2a913b"},"vehicle_type_id":"4","last_reported":1753510548,"current_range_meters":13600,"station_id":"ce4bh392rcd13ifvqdm0","pricing_plan_id":"cebpf4jnsgd1na2vs0mg"},{"bike_id":"6ab0b13c-2ff1-417a-acfd-489d6800d4c9","system_id":"levelo_inurba_marseille","lat":43.27368,"lon":5.36223,"is_reserved":false,"is_disabled":true,"rental_uris":{"android":"levelo://app?vid=6ab0b13c-2ff1-417a-acfd-489d6800d4c9","ios":"levelo://app?vid=6ab0b13c-2ff1-417a-acfd-489d6800d4c9"},"vehicle_type_id":"4","last_reported":1753510548,"current_range_meters":13600,"station_id":"ce4bhbh2rcd13ifvqeo0","pricing_plan_id":"cebpf4jnsgd1na2vs0mg"},{"bike_id":"f2c0d178-a474-46a0-b002-379a7a30c411","system_id":"levelo_inurba_marseille","lat":43.2941,"lon":5.37583,"is_reserved":false,"is_disabled":false,"rental_uris":{"android":"levelo://app?vid=f2c0d178-a474-46a0-b002-379a7a30c411","ios":"levelo://app?vid=f2c0d178-a474-46a0-b002-379a7a30c411"},"vehicle_type_id":"4","last_reported":1753510548,"current_range_meters":14000,"station_id":"","pricing_plan_id":"cebpf4jnsgd1na2vs0mg"},{"bike_id":"7beabfe9-90b9-4879-9d59-b7cae8ca3b4c","system_id":"levelo_inurba_marseille","lat":43.287147,"lon":5.373913,"is_reserved":false,"is_disabled":false,"rental_uris":{"android":"levelo://app?vid=7beabfe9-90b9-4879-9d59-b7cae8ca3b4c","ios":"levelo://app?vid=7beabfe9-90b9-4879-9d59-b7cae8ca3b4c"},"vehicle_type_id":"4","last_reported":1753510548,"current_range_meters":14000,"station_id":"ce4bh3p2rcd13ifvqdq0","pricing_plan_id":"cebpf4jnsgd1na2vs0mg"},{"bike_id":"847b44c9-efab-4746-8937-dcebf1206fff","system_id":"levelo_inurba_marseille","lat":43.26193,"lon":5.37446,"is_reserved":false,"is_disabled":false,"rental_uris":{"android":"levelo://app?vid=847b44c9-efab-4746-8937-dcebf1206fff","ios":"levelo://app?vid=847b44c9-efab-4746-8937-dcebf1206fff"},"vehicle_type_id":"4","last_reported":1753510548,"current_range_meters":14000,"station_id":"ce4bhgp2rcd13ifvqfc0","pricing_plan_id":"cebpf4jnsgd1na2vs0mg"},{"bike_id":"97dad215-8898-4a4b-bb79-9cb61af4dc64","system_id":"levelo_inurba_marseille","lat":43.29926,"lon":5.36341,"is_reserved":false,"is_disabled":false,"rental_uris":{"android":"levelo://app?vid=97dad215-8898-4a4b-bb79-9cb61af4dc64","ios":"levelo://app?vid=97dad215-8898-4a4b-bb79-9cb61af4dc64"},"vehicle_type_id":"4","last_reported":1753510548,"current_range_meters":14000,"station_id":"","pricing_plan_id":"cebpf4jnsgd1na2vs0mg"},{"bike_id":"cdd229ea-c762-465a-a1a8-dc511ddf636c","system_id":"levelo_inurba_marseille","lat":43.29875,"lon":5.39722,"is_reserved":false,"is_disabled":false,"rental_uris":{"android":"levelo://app?vid=cdd229ea-c762-465a-a1a8-dc511ddf636c","ios":"levelo://app?vid=cdd229ea-c762-465a-a1a8-dc511ddf636c"},"vehicle_type_id":"4","last_reported":1753510548,"current_range_meters":14000,"station_id":"ce4bh0h2rcd13ifvqd50","pricing_plan_id":"cebpf4jnsgd1na2vs0mg"},{"bike_id":"aa632672-07c4-406e-a279-ed15c5fe82b0","system_id":"levelo_inurba_marseille","lat":43.30807,"lon":5.38148,"is_reserved":false,"is_disabled":false,"rental_uris":{"android":"levelo://app?vid=aa632672-07c4-406e-a279-ed15c5fe82b0","ios":"levelo://app?vid=aa632672-07c4-406e-a279-ed15c5fe82b0"},"vehicle_type_id":"4","last_reported":1753510548,"current_range_meters":14000,"station_id":"ce4bgt12rcd13ifvqce0","pricing_plan_id":"cebpf4jnsgd1na2vs0mg"},{"bike_id":"57755280-973c-4ff3-9c25-8f15e2c5b510","system_id":"levelo_inurba_marseille","lat":43.31872,"lon":5.37373,"is_reserved":false,"is_disabled":false,"rental_uris":{"android":"levelo://app?vid=57755280-973c-4ff3-9c25-8f15e2c5b510","ios":"levelo://app?vid=57755280-973c-4ff3-9c25-8f15e2c5b510"},"vehicle_type_id":"4","last_reported":1753510548,"current_range_meters":14000,"station_id":"","pricing_plan_id":"cebpf4jnsgd1na2vs0mg"},{"bike_id":"09b7f600-cb1e-4ea0-adc2-9c3dcb778794","system_id":"levelo_inurba_marseille","lat":43.22495,"lon":5.34802,"is_reserved":false,"is_disabled":false,"rental_uris":{"android":"levelo://app?vid=09b7f600-cb1e-4ea0-adc2-9c3dcb778794","ios":"levelo://app?vid=09b7f600-cb1e-4ea0-adc2-9c3dcb778794"},"vehicle_type_id":"4","last_reported":1753510548,"current_range_meters":14400,"station_id":"st_cvj5dfep6f1abm77gieg","pricing_plan_id":"cebpf4jnsgd1na2vs0mg"},{"bike_id":"7f7a4770-cb44-4cbe-afee-f7531a238fa9","system_id":"levelo_inurba_marseille","lat":43.225059,"lon":5.347842,"is_reserved":false,"is_disabled":false,"rental_uris":{"android":"levelo://app?vid=7f7a4770-cb44-4cbe-afee-f7531a238fa9","ios":"levelo://app?vid=7f7a4770-cb44-4cbe-afee-f7531a238fa9"},"vehicle_type_id":"4","last_reported":1753510548,"current_range_meters":14400,"station_id":"st_cvj5dfep6f1abm77gieg","pricing_plan_id":"cebpf4jnsgd1na2vs0mg"},{"bike_id":"b5aab1b5-818a-4dfd-b7ae-70df5639e329","system_id":"levelo_inurba_marseille","lat":43.27064,"lon":5.42257,"is_reserved":false,"is_disabled":false,"rental_uris":{"android":"levelo://app?vid=b5aab1b5-818a-4dfd-b7ae-70df5639e329","ios":"levelo://app?vid=b5aab1b5-818a-4dfd-b7ae-70df5639e329"},"vehicle_type_id":"4","last_reported":1753510548,"current_range_meters":14400,"station_id":"ce4bhk92rcd13ifvqgb0","pricing_plan_id":"cebpf4jnsgd1na2vs0mg"},{"bike_id":"9bff4c30-7d52-4173-88ba-afd3702b54f6","system_id":"levelo_inurba_marseille","lat":43.27979,"lon":5.41642,"is_reserved":false,"is_disabled":false,"rental_uris":{"android":"levelo://app?vid=9bff4c30-7d52-4173-88ba-afd3702b54f6","ios":"levelo://app?vid=9bff4c30-7d52-4173-88ba-afd3702b54f6"},"vehicle_type_id":"4","last_reported":1753510548,"current_range_meters":14400,"station_id":"ce4bho12rcd13ifvqh1g","pricing_plan_id":"cebpf4jnsgd1na2vs0mg"},{"bike_id":"f5a8fc37-3118-42db-ab21-cb5e2fc35614","system_id":"levelo_inurba_marseille","lat":43.29248,"lon":5.38439,"is_reserved":false,"is_disabled":false,"rental_uris":{"android":"levelo://app?vid=f5a8fc37-3118-42db-ab21-cb5e2fc35614","ios":"levelo://app?vid=f5a8fc37-3118-42db-ab21-cb5e2fc35614"},"vehicle_type_id":"4","last_reported":1753510548,"current_range_meters":14400,"station_id":"ce4bh692rcd13ifvqea0","pricing_plan_id":"cebpf4jnsgd1na2vs0mg"},{"bike_id":"f932ef2c-02f4-48af-89bd-b74a727f814c","system_id":"levelo_inurba_marseille","lat":43.28137,"lon":5.3787,"is_reserved":false,"is_disabled":false,"rental_uris":{"android":"levelo://app?vid=f932ef2c-02f4-48af-89bd-b74a727f814c","ios":"levelo://app?vid=f932ef2c-02f4-48af-89bd-b74a727f814c"},"vehicle_type_id":"4","last_reported":1753510548,"current_range_meters":14400,"station_id":"ce4bha12rcd13ifvqee0","pricing_plan_id":"cebpf4jnsgd1na2vs0mg"},{"bike_id":"68801fee-efc8-485b-a110-a36431796a83","system_id":"levelo_inurba_marseille","lat":43.295682,"lon":5.375062,"is_reserved":false,"is_disabled":true,"rental_uris":{"android":"levelo://app?vid=68801fee-efc8-485b-a110-a36431796a83","ios":"levelo://app?vid=68801fee-efc8-485b-a110-a36431796a83"},"vehicle_type_id":"4","last_reported":1753510548,"current_range_meters":14800,"station_id":"ce4bgh92rcd13ifvqb50","pricing_plan_id":"cebpf4jnsgd1na2vs0mg"},{"bike_id":"09447d92-0522-480e-b6b5-24959949ccf9","system_id":"levelo_inurba_marseille","lat":43.324144,"lon":5.367894,"is_reserved":false,"is_disabled":false,"rental_uris":{"android":"levelo://app?vid=09447d92-0522-480e-b6b5-24959949ccf9","ios":"levelo://app?vid=09447d92-0522-480e-b6b5-24959949ccf9"},"vehicle_type_id":"4","last_reported":1753510548,"current_range_meters":14800,"station_id":"","pricing_plan_id":"cebpf4jnsgd1na2vs0mg"},{"bike_id":"c679b15d-628f-4dcb-85d4-90c32f8112ce","system_id":"levelo_inurba_marseille","lat":43.3079,"lon":5.43524,"is_reserved":false,"is_disabled":false,"rental_uris":{"android":"levelo://app?vid=c679b15d-628f-4dcb-85d4-90c32f8112ce","ios":"levelo://app?vid=c679b15d-628f-4dcb-85d4-90c32f8112ce"},"vehicle_type_id":"4","last_reported":1753510548,"current_range_meters":14400,"station_id":"ce4bhph2rcd13ifvqheg","pricing_plan_id":"cebpf4jnsgd1na2vs0mg"},{"bike_id":"1855cbe1-5a05-480e-9057-6e9b3976dbbe","system_id":"levelo_inurba_marseille","lat":43.33733,"lon":5.3919,"is_reserved":false,"is_disabled":false,"rental_uris":{"android":"levelo://app?vid=1855cbe1-5a05-480e-9057-6e9b3976dbbe","ios":"levelo://app?vid=1855cbe1-5a05-480e-9057-6e9b3976dbbe"},"vehicle_type_id":"4","last_reported":1753510548,"current_range_meters":14800,"station_id":"ce4bhr92rcd13ifvqhsg","pricing_plan_id":"cebpf4jnsgd1na2vs0mg"},{"bike_id":"f9132ae1-6ae2-4272-b24a-43c4aace7eb6","system_id":"levelo_inurba_marseille","lat":43.31271,"lon":5.40158,"is_reserved":false,"is_disabled":false,"rental_uris":{"android":"levelo://app?vid=f9132ae1-6ae2-4272-b24a-43c4aace7eb6","ios":"levelo://app?vid=f9132ae1-6ae2-4272-b24a-43c4aace7eb6"},"vehicle_type_id":"4","last_reported":1753510548,"current_range_meters":14800,"station_id":"ce4bh092rcd13ifvqd30","pricing_plan_id":"cebpf4jnsgd1na2vs0mg"},{"bike_id":"6b0334f3-82c8-42ff-9c63-4f263704c07a","system_id":"levelo_inurba_marseille","lat":43.31074,"lon":5.3835,"is_reserved":false,"is_disabled":false,"rental_uris":{"android":"levelo://app?vid=6b0334f3-82c8-42ff-9c63-4f263704c07a","ios":"levelo://app?vid=6b0334f3-82c8-42ff-9c63-4f263704c07a"},"vehicle_type_id":"4","last_reported":1753510548,"current_range_meters":14800,"station_id":"ce4bgv92rcd13ifvqcr0","pricing_plan_id":"cebpf4jnsgd1na2vs0mg"},{"bike_id":"015ae95b-d649-4c1e-81e8-ebfec98009c5","system_id":"levelo_inurba_marseille","lat":43.240873,"lon":5.377413,"is_reserved":false,"is_disabled":false,"rental_uris":{"android":"levelo://app?vid=015ae95b-d649-4c1e-81e8-ebfec98009c5","ios":"levelo://app?vid=015ae95b-d649-4c1e-81e8-ebfec98009c5"},"vehicle_type_id":"4","last_reported":1753510548,"current_range_meters":14800,"station_id":"ce4bhnp2rcd13ifvqgvg","pricing_plan_id":"cebpf4jnsgd1na2vs0mg"},{"bike_id":"8b6b3c5b-3779-41c3-ad6d-a655a33b4b9e","system_id":"levelo_inurba_marseille","lat":43.24181,"lon":5.36381,"is_reserved":false,"is_disabled":true,"rental_uris":{"android":"levelo://app?vid=8b6b3c5b-3779-41c3-ad6d-a655a33b4b9e","ios":"levelo://app?vid=8b6b3c5b-3779-41c3-ad6d-a655a33b4b9e"},"vehicle_type_id":"4","last_reported":1753510548,"current_range_meters":15200,"station_id":"cpo36qri1sfpv3e86is0","pricing_plan_id":"cebpf4jnsgd1na2vs0mg"},{"bike_id":"99938384-2779-4389-9a1c-4b06450d69be","system_id":"levelo_inurba_marseille","lat":43.27204,"lon":5.391902,"is_reserved":false,"is_disabled":true,"rental_uris":{"android":"levelo://app?vid=99938384-2779-4389-9a1c-4b06450d69be","ios":"levelo://app?vid=99938384-2779-4389-9a1c-4b06450d69be"},"vehicle_type_id":"4","last_reported":1753510548,"current_range_meters":15200,"station_id":"ce4bhhp2rcd13ifvqfm0","pricing_plan_id":"cebpf4jnsgd1na2vs0mg"},{"bike_id":"fceea9bc-7762-4e38-a909-58372215e3a9","system_id":"levelo_inurba_marseille","lat":43.31366,"lon":5.38485,"is_reserved":false,"is_disabled":false,"rental_uris":{"android":"levelo://app?vid=fceea9bc-7762-4e38-a909-58372215e3a9","ios":"levelo://app?vid=fceea9bc-7762-4e38-a909-58372215e3a9"},"vehicle_type_id":"4","last_reported":1753510548,"current_range_meters":15200,"station_id":"ce4bgt92rcd13ifvqcf0","pricing_plan_id":"cebpf4jnsgd1na2vs0mg"},{"bike_id":"ad91e1f3-4395-4b2a-ae55-1856eedba2be","system_id":"levelo_inurba_marseille","lat":43.28707,"lon":5.39951,"is_reserved":false,"is_disabled":false,"rental_uris":{"android":"levelo://app?vid=ad91e1f3-4395-4b2a-ae55-1856eedba2be","ios":"levelo://app?vid=ad91e1f3-4395-4b2a-ae55-1856eedba2be"},"vehicle_type_id":"4","last_reported":1753510548,"current_range_meters":15200,"station_id":"ce4bho92rcd13ifvqh3g","pricing_plan_id":"cebpf4jnsgd1na2vs0mg"},{"bike_id":"843f308c-e661-42bb-b9e7-c0331e577038","system_id":"levelo_inurba_marseille","lat":43.31093,"lon":5.38351,"is_reserved":false,"is_disabled":false,"rental_uris":{"android":"levelo://app?vid=843f308c-e661-42bb-b9e7-c0331e577038","ios":"levelo://app?vid=843f308c-e661-42bb-b9e7-c0331e577038"},"vehicle_type_id":"4","last_reported":1753510548,"current_range_meters":15200,"station_id":"ce4bgv92rcd13ifvqcr0","pricing_plan_id":"cebpf4jnsgd1na2vs0mg"},{"bike_id":"8f4ca69e-9621-4ffd-91af-41f939f5f71e","system_id":"levelo_inurba_marseille","lat":43.239612,"lon":5.366306,"is_reserved":false,"is_disabled":false,"rental_uris":{"android":"levelo://app?vid=8f4ca69e-9621-4ffd-91af-41f939f5f71e","ios":"levelo://app?vid=8f4ca69e-9621-4ffd-91af-41f939f5f71e"},"vehicle_type_id":"4","last_reported":1753510548,"current_range_meters":16000,"station_id":"ce4bhi12rcd13ifvqfp0","pricing_plan_id":"cebpf4jnsgd1na2vs0mg"},{"bike_id":"c3c2652b-f2d7-4ed4-89ec-9559feb01451","system_id":"levelo_inurba_marseille","lat":43.29226,"lon":5.360481,"is_reserved":false,"is_disabled":true,"rental_uris":{"android":"levelo://app?vid=c3c2652b-f2d7-4ed4-89ec-9559feb01451","ios":"levelo://app?vid=c3c2652b-f2d7-4ed4-89ec-9559feb01451"},"vehicle_type_id":"4","last_reported":1753510548,"current_range_meters":16000,"station_id":"ce4bhbh2rcd13ifvqeqg","pricing_plan_id":"cebpf4jnsgd1na2vs0mg"},{"bike_id":"b44e0ef0-448d-42e7-b8ce-9c7edd8e1cfe","system_id":"levelo_inurba_marseille","lat":43.281496,"lon":5.426459,"is_reserved":false,"is_disabled":false,"rental_uris":{"android":"levelo://app?vid=b44e0ef0-448d-42e7-b8ce-9c7edd8e1cfe","ios":"levelo://app?vid=b44e0ef0-448d-42e7-b8ce-9c7edd8e1cfe"},"vehicle_type_id":"4","last_reported":1753510548,"current_range_meters":16000,"station_id":"ce4bhnh2rcd13ifvqgug","pricing_plan_id":"cebpf4jnsgd1na2vs0mg"},{"bike_id":"b5c7f071-a026-45b8-8531-421b35957a32","system_id":"levelo_inurba_marseille","lat":43.29647,"lon":5.39335,"is_reserved":false,"is_disabled":false,"rental_uris":{"android":"levelo://app?vid=b5c7f071-a026-45b8-8531-421b35957a32","ios":"levelo://app?vid=b5c7f071-a026-45b8-8531-421b35957a32"},"vehicle_type_id":"4","last_reported":1753510548,"current_range_meters":16000,"station_id":"","pricing_plan_id":"cebpf4jnsgd1na2vs0mg"},{"bike_id":"c3b53303-9018-4d5a-91fe-ce0c3b3be56d","system_id":"levelo_inurba_marseille","lat":43.286135,"lon":5.370665,"is_reserved":false,"is_disabled":false,"rental_uris":{"android":"levelo://app?vid=c3b53303-9018-4d5a-91fe-ce0c3b3be56d","ios":"levelo://app?vid=c3b53303-9018-4d5a-91fe-ce0c3b3be56d"},"vehicle_type_id":"4","last_reported":1753510548,"current_range_meters":16000,"station_id":"ce4bht12rcd13ifvqi60","pricing_plan_id":"cebpf4jnsgd1na2vs0mg"},{"bike_id":"d1ef1c13-40f7-47d7-ab0e-8e4ae1254ac5","system_id":"levelo_inurba_marseille","lat":43.32334,"lon":5.36707,"is_reserved":false,"is_disabled":false,"rental_uris":{"android":"levelo://app?vid=d1ef1c13-40f7-47d7-ab0e-8e4ae1254ac5","ios":"levelo://app?vid=d1ef1c13-40f7-47d7-ab0e-8e4ae1254ac5"},"vehicle_type_id":"4","last_reported":1753510548,"current_range_meters":16000,"station_id":"ce4bhsh2rcd13ifvqi2g","pricing_plan_id":"cebpf4jnsgd1na2vs0mg"},{"bike_id":"5d11fc68-b0be-4ebf-87d9-4cb6a3f0b870","system_id":"levelo_inurba_marseille","lat":43.30554,"lon":5.3843,"is_reserved":false,"is_disabled":false,"rental_uris":{"android":"levelo://app?vid=5d11fc68-b0be-4ebf-87d9-4cb6a3f0b870","ios":"levelo://app?vid=5d11fc68-b0be-4ebf-87d9-4cb6a3f0b870"},"vehicle_type_id":"4","last_reported":1753510548,"current_range_meters":16400,"station_id":"ce4bgg92rcd13ifvqb30","pricing_plan_id":"cebpf4jnsgd1na2vs0mg"},{"bike_id":"551a047e-a7ef-4c04-aa54-32bf2e2fac20","system_id":"levelo_inurba_marseille","lat":43.303764,"lon":5.424924,"is_reserved":false,"is_disabled":false,"rental_uris":{"android":"levelo://app?vid=551a047e-a7ef-4c04-aa54-32bf2e2fac20","ios":"levelo://app?vid=551a047e-a7ef-4c04-aa54-32bf2e2fac20"},"vehicle_type_id":"4","last_reported":1753510548,"current_range_meters":16400,"station_id":"ce4bhoh2rcd13ifvqh6g","pricing_plan_id":"cebpf4jnsgd1na2vs0mg"},{"bike_id":"7254aad9-4b7a-44b4-89bb-4f6b7cb10520","system_id":"levelo_inurba_marseille","lat":43.260703,"lon":5.39397,"is_reserved":false,"is_disabled":false,"rental_uris":{"android":"levelo://app?vid=7254aad9-4b7a-44b4-89bb-4f6b7cb10520","ios":"levelo://app?vid=7254aad9-4b7a-44b4-89bb-4f6b7cb10520"},"vehicle_type_id":"4","last_reported":1753510548,"current_range_meters":16400,"station_id":"ce4bhh92rcd13ifvqfj0","pricing_plan_id":"cebpf4jnsgd1na2vs0mg"},{"bike_id":"c1ca13a9-7216-4338-9451-5f978e0ae33b","system_id":"levelo_inurba_marseille","lat":43.30553,"lon":5.3843,"is_reserved":false,"is_disabled":true,"rental_uris":{"android":"levelo://app?vid=c1ca13a9-7216-4338-9451-5f978e0ae33b","ios":"levelo://app?vid=c1ca13a9-7216-4338-9451-5f978e0ae33b"},"vehicle_type_id":"4","last_reported":1753510548,"current_range_meters":16400,"station_id":"ce4bgg92rcd13ifvqb30","pricing_plan_id":"cebpf4jnsgd1na2vs0mg"},{"bike_id":"20424831-2201-4d3c-8027-3c541a36d8b1","system_id":"levelo_inurba_marseille","lat":43.28885,"lon":5.37131,"is_reserved":false,"is_disabled":false,"rental_uris":{"android":"levelo://app?vid=20424831-2201-4d3c-8027-3c541a36d8b1","ios":"levelo://app?vid=20424831-2201-4d3c-8027-3c541a36d8b1"},"vehicle_type_id":"4","last_reported":1753510548,"current_range_meters":16400,"station_id":"","pricing_plan_id":"cebpf4jnsgd1na2vs0mg"},{"bike_id":"a1d5115b-997f-44a5-8b4b-21cb29757407","system_id":"levelo_inurba_marseille","lat":43.31226,"lon":5.37313,"is_reserved":false,"is_disabled":false,"rental_uris":{"android":"levelo://app?vid=a1d5115b-997f-44a5-8b4b-21cb29757407","ios":"levelo://app?vid=a1d5115b-997f-44a5-8b4b-21cb29757407"},"vehicle_type_id":"4","last_reported":1753510548,"current_range_meters":16400,"station_id":"","pricing_plan_id":"cebpf4jnsgd1na2vs0mg"},{"bike_id":"36e6bf97-6485-443c-94bf-9c9cb3f33000","system_id":"levelo_inurba_marseille","lat":43.28265,"lon":5.35048,"is_reserved":false,"is_disabled":true,"rental_uris":{"android":"levelo://app?vid=36e6bf97-6485-443c-94bf-9c9cb3f33000","ios":"levelo://app?vid=36e6bf97-6485-443c-94bf-9c9cb3f33000"},"vehicle_type_id":"4","last_reported":1753510548,"current_range_meters":16400,"station_id":"ce4bhbp2rcd13ifvqerg","pricing_plan_id":"cebpf4jnsgd1na2vs0mg"},{"bike_id":"2703e0a4-7218-4353-b33c-9609c06a5516","system_id":"levelo_inurba_marseille","lat":43.274932,"lon":5.424544,"is_reserved":false,"is_disabled":false,"rental_uris":{"android":"levelo://app?vid=2703e0a4-7218-4353-b33c-9609c06a5516","ios":"levelo://app?vid=2703e0a4-7218-4353-b33c-9609c06a5516"},"vehicle_type_id":"4","last_reported":1753510548,"current_range_meters":16800,"station_id":"ce4bhn92rcd13ifvqgrg","pricing_plan_id":"cebpf4jnsgd1na2vs0mg"},{"bike_id":"238390e8-3a2f-43aa-ae07-18b7138ab742","system_id":"levelo_inurba_marseille","lat":43.23959,"lon":5.36644,"is_reserved":false,"is_disabled":false,"rental_uris":{"android":"levelo://app?vid=238390e8-3a2f-43aa-ae07-18b7138ab742","ios":"levelo://app?vid=238390e8-3a2f-43aa-ae07-18b7138ab742"},"vehicle_type_id":"4","last_reported":1753510548,"current_range_meters":16800,"station_id":"ce4bhi12rcd13ifvqfp0","pricing_plan_id":"cebpf4jnsgd1na2vs0mg"},{"bike_id":"febfb0dd-62aa-4333-8aa6-5a2dfd2c5e17","system_id":"levelo_inurba_marseille","lat":43.33156,"lon":5.35975,"is_reserved":false,"is_disabled":false,"rental_uris":{"android":"levelo://app?vid=febfb0dd-62aa-4333-8aa6-5a2dfd2c5e17","ios":"levelo://app?vid=febfb0dd-62aa-4333-8aa6-5a2dfd2c5e17"},"vehicle_type_id":"4","last_reported":1753510548,"current_range_meters":16800,"station_id":"","pricing_plan_id":"cebpf4jnsgd1na2vs0mg"},{"bike_id":"572c8c1b-0de4-4503-bed0-a1dc73086e70","system_id":"levelo_inurba_marseille","lat":43.30475,"lon":5.37915,"is_reserved":false,"is_disabled":false,"rental_uris":{"android":"levelo://app?vid=572c8c1b-0de4-4503-bed0-a1dc73086e70","ios":"levelo://app?vid=572c8c1b-0de4-4503-bed0-a1dc73086e70"},"vehicle_type_id":"4","last_reported":1753510548,"current_range_meters":16800,"station_id":"ce4bgup2rcd13ifvqcn0","pricing_plan_id":"cebpf4jnsgd1na2vs0mg"},{"bike_id":"8c328e03-90fa-46bc-ac79-54adb2901ca5","system_id":"levelo_inurba_marseille","lat":43.28482,"lon":5.3842,"is_reserved":false,"is_disabled":false,"rental_uris":{"android":"levelo://app?vid=8c328e03-90fa-46bc-ac79-54adb2901ca5","ios":"levelo://app?vid=8c328e03-90fa-46bc-ac79-54adb2901ca5"},"vehicle_type_id":"4","last_reported":1753510548,"current_range_meters":16800,"station_id":"ce4bh512rcd13ifvqe3g","pricing_plan_id":"cebpf4jnsgd1na2vs0mg"},{"bike_id":"9bed614f-fc36-4ff3-9e01-6cb0ee010234","system_id":"levelo_inurba_marseille","lat":43.30147,"lon":5.38086,"is_reserved":false,"is_disabled":false,"rental_uris":{"android":"levelo://app?vid=9bed614f-fc36-4ff3-9e01-6cb0ee010234","ios":"levelo://app?vid=9bed614f-fc36-4ff3-9e01-6cb0ee010234"},"vehicle_type_id":"4","last_reported":1753510548,"current_range_meters":16800,"station_id":"ce4bgjp2rcd13ifvqbh0","pricing_plan_id":"cebpf4jnsgd1na2vs0mg"},{"bike_id":"4f069cb2-e85f-44ab-8659-b3444c19b657","system_id":"levelo_inurba_marseille","lat":43.23196,"lon":5.35531,"is_reserved":false,"is_disabled":false,"rental_uris":{"android":"levelo://app?vid=4f069cb2-e85f-44ab-8659-b3444c19b657","ios":"levelo://app?vid=4f069cb2-e85f-44ab-8659-b3444c19b657"},"vehicle_type_id":"4","last_reported":1753510548,"current_range_meters":16800,"station_id":"ce4bhu92rcd13ifvqi70","pricing_plan_id":"cebpf4jnsgd1na2vs0mg"},{"bike_id":"61cd7fe3-237f-4708-afc7-dd8a81b4454c","system_id":"levelo_inurba_marseille","lat":43.22919,"lon":5.35387,"is_reserved":false,"is_disabled":false,"rental_uris":{"android":"levelo://app?vid=61cd7fe3-237f-4708-afc7-dd8a81b4454c","ios":"levelo://app?vid=61cd7fe3-237f-4708-afc7-dd8a81b4454c"},"vehicle_type_id":"4","last_reported":1753510548,"current_range_meters":16800,"station_id":"cpo3532slgdg3j2ikp40","pricing_plan_id":"cebpf4jnsgd1na2vs0mg"},{"bike_id":"1e5c96a6-9d0f-4d5f-85ef-5a5f8ac0317a","system_id":"levelo_inurba_marseille","lat":43.33456,"lon":5.391438,"is_reserved":false,"is_disabled":false,"rental_uris":{"android":"levelo://app?vid=1e5c96a6-9d0f-4d5f-85ef-5a5f8ac0317a","ios":"levelo://app?vid=1e5c96a6-9d0f-4d5f-85ef-5a5f8ac0317a"},"vehicle_type_id":"4","last_reported":1753510548,"current_range_meters":16800,"station_id":"","pricing_plan_id":"cebpf4jnsgd1na2vs0mg"},{"bike_id":"6b34aaa6-58a0-46fb-bc50-6499601beb64","system_id":"levelo_inurba_marseille","lat":43.22512,"lon":5.34745,"is_reserved":false,"is_disabled":false,"rental_uris":{"android":"levelo://app?vid=6b34aaa6-58a0-46fb-bc50-6499601beb64","ios":"levelo://app?vid=6b34aaa6-58a0-46fb-bc50-6499601beb64"},"vehicle_type_id":"4","last_reported":1753510548,"current_range_meters":16800,"station_id":"st_cvj5dfep6f1abm77gieg","pricing_plan_id":"cebpf4jnsgd1na2vs0mg"},{"bike_id":"8487f269-40b2-4c5a-8dd3-4a92c89bfeff","system_id":"levelo_inurba_marseille","lat":43.299165,"lon":5.37469,"is_reserved":false,"is_disabled":true,"rental_uris":{"android":"levelo://app?vid=8487f269-40b2-4c5a-8dd3-4a92c89bfeff","ios":"levelo://app?vid=8487f269-40b2-4c5a-8dd3-4a92c89bfeff"},"vehicle_type_id":"4","last_reported":1753510548,"current_range_meters":16800,"station_id":"ce4bgjh2rcd13ifvqbg0","pricing_plan_id":"cebpf4jnsgd1na2vs0mg"},{"bike_id":"7e65c5ea-0429-45f5-a396-bd32e67f0744","system_id":"levelo_inurba_marseille","lat":43.33475,"lon":5.40033,"is_reserved":false,"is_disabled":false,"rental_uris":{"android":"levelo://app?vid=7e65c5ea-0429-45f5-a396-bd32e67f0744","ios":"levelo://app?vid=7e65c5ea-0429-45f5-a396-bd32e67f0744"},"vehicle_type_id":"4","last_reported":1753510548,"current_range_meters":16800,"station_id":"","pricing_plan_id":"cebpf4jnsgd1na2vs0mg"},{"bike_id":"c955e182-4838-4943-8360-dd58958aee37","system_id":"levelo_inurba_marseille","lat":43.309402,"lon":5.401407,"is_reserved":false,"is_disabled":false,"rental_uris":{"android":"levelo://app?vid=c955e182-4838-4943-8360-dd58958aee37","ios":"levelo://app?vid=c955e182-4838-4943-8360-dd58958aee37"},"vehicle_type_id":"4","last_reported":1753510548,"current_range_meters":16800,"station_id":"ce4bgvp2rcd13ifvqct0","pricing_plan_id":"cebpf4jnsgd1na2vs0mg"},{"bike_id":"725317c6-351b-43e5-b68d-45c3db010ac3","system_id":"levelo_inurba_marseille","lat":43.28153,"lon":5.42633,"is_reserved":false,"is_disabled":false,"rental_uris":{"android":"levelo://app?vid=725317c6-351b-43e5-b68d-45c3db010ac3","ios":"levelo://app?vid=725317c6-351b-43e5-b68d-45c3db010ac3"},"vehicle_type_id":"4","last_reported":1753510548,"current_range_meters":17200,"station_id":"ce4bhnh2rcd13ifvqgug","pricing_plan_id":"cebpf4jnsgd1na2vs0mg"},{"bike_id":"a05343f6-5345-451e-92c9-8d14b4ec04eb","system_id":"levelo_inurba_marseille","lat":43.314919,"lon":5.373082,"is_reserved":false,"is_disabled":true,"rental_uris":{"android":"levelo://app?vid=a05343f6-5345-451e-92c9-8d14b4ec04eb","ios":"levelo://app?vid=a05343f6-5345-451e-92c9-8d14b4ec04eb"},"vehicle_type_id":"4","last_reported":1753510548,"current_range_meters":17200,"station_id":"","pricing_plan_id":"cebpf4jnsgd1na2vs0mg"},{"bike_id":"43dbc09e-d0e4-4ddb-bafe-4f55874d23a9","system_id":"levelo_inurba_marseille","lat":43.30228,"lon":5.38202,"is_reserved":false,"is_disabled":false,"rental_uris":{"android":"levelo://app?vid=43dbc09e-d0e4-4ddb-bafe-4f55874d23a9","ios":"levelo://app?vid=43dbc09e-d0e4-4ddb-bafe-4f55874d23a9"},"vehicle_type_id":"4","last_reported":1753510548,"current_range_meters":17200,"station_id":"","pricing_plan_id":"cebpf4jnsgd1na2vs0mg"},{"bike_id":"c16b128a-b8ba-492e-87bd-adc49339a1c1","system_id":"levelo_inurba_marseille","lat":43.31053,"lon":5.38351,"is_reserved":false,"is_disabled":false,"rental_uris":{"android":"levelo://app?vid=c16b128a-b8ba-492e-87bd-adc49339a1c1","ios":"levelo://app?vid=c16b128a-b8ba-492e-87bd-adc49339a1c1"},"vehicle_type_id":"4","last_reported":1753510548,"current_range_meters":17200,"station_id":"ce4bgv92rcd13ifvqcr0","pricing_plan_id":"cebpf4jnsgd1na2vs0mg"},{"bike_id":"12af9a35-f42d-441f-afff-88b5d7a4f1d5","system_id":"levelo_inurba_marseille","lat":43.27305,"lon":5.39109,"is_reserved":false,"is_disabled":false,"rental_uris":{"android":"levelo://app?vid=12af9a35-f42d-441f-afff-88b5d7a4f1d5","ios":"levelo://app?vid=12af9a35-f42d-441f-afff-88b5d7a4f1d5"},"vehicle_type_id":"4","last_reported":1753510548,"current_range_meters":16800,"station_id":"ce4bhgp2rcd13ifvqfe0","pricing_plan_id":"cebpf4jnsgd1na2vs0mg"},{"bike_id":"5fc666d4-7509-40b3-b359-a141ffaa9f74","system_id":"levelo_inurba_marseille","lat":43.274982,"lon":5.424547,"is_reserved":false,"is_disabled":false,"rental_uris":{"android":"levelo://app?vid=5fc666d4-7509-40b3-b359-a141ffaa9f74","ios":"levelo://app?vid=5fc666d4-7509-40b3-b359-a141ffaa9f74"},"vehicle_type_id":"4","last_reported":1753510548,"current_range_meters":17600,"station_id":"ce4bhn92rcd13ifvqgrg","pricing_plan_id":"cebpf4jnsgd1na2vs0mg"},{"bike_id":"a6163d10-cb41-4b4a-a2f0-ffc1f9744bc3","system_id":"levelo_inurba_marseille","lat":43.31371,"lon":5.38505,"is_reserved":false,"is_disabled":false,"rental_uris":{"android":"levelo://app?vid=a6163d10-cb41-4b4a-a2f0-ffc1f9744bc3","ios":"levelo://app?vid=a6163d10-cb41-4b4a-a2f0-ffc1f9744bc3"},"vehicle_type_id":"4","last_reported":1753510548,"current_range_meters":17600,"station_id":"ce4bgt92rcd13ifvqcf0","pricing_plan_id":"cebpf4jnsgd1na2vs0mg"},{"bike_id":"3aea4dfc-58bf-48b1-ab6d-23b272c662b4","system_id":"levelo_inurba_marseille","lat":43.29788,"lon":5.37079,"is_reserved":false,"is_disabled":false,"rental_uris":{"android":"levelo://app?vid=3aea4dfc-58bf-48b1-ab6d-23b272c662b4","ios":"levelo://app?vid=3aea4dfc-58bf-48b1-ab6d-23b272c662b4"},"vehicle_type_id":"4","last_reported":1753510548,"current_range_meters":17200,"station_id":"ce4bgop2rcd13ifvqc1g","pricing_plan_id":"cebpf4jnsgd1na2vs0mg"},{"bike_id":"22fb4a68-6b7c-48ba-8180-ba736e05bfcc","system_id":"levelo_inurba_marseille","lat":43.26725,"lon":5.37671,"is_reserved":false,"is_disabled":false,"rental_uris":{"android":"levelo://app?vid=22fb4a68-6b7c-48ba-8180-ba736e05bfcc","ios":"levelo://app?vid=22fb4a68-6b7c-48ba-8180-ba736e05bfcc"},"vehicle_type_id":"4","last_reported":1753510548,"current_range_meters":17600,"station_id":"","pricing_plan_id":"cebpf4jnsgd1na2vs0mg"},{"bike_id":"17aa2c45-c857-423f-9f41-4a0fa9f6f0b0","system_id":"levelo_inurba_marseille","lat":43.31365,"lon":5.38496,"is_reserved":false,"is_disabled":false,"rental_uris":{"android":"levelo://app?vid=17aa2c45-c857-423f-9f41-4a0fa9f6f0b0","ios":"levelo://app?vid=17aa2c45-c857-423f-9f41-4a0fa9f6f0b0"},"vehicle_type_id":"4","last_reported":1753510548,"current_range_meters":17600,"station_id":"ce4bgt92rcd13ifvqcf0","pricing_plan_id":"cebpf4jnsgd1na2vs0mg"},{"bike_id":"8d638062-b729-4ab6-a2cd-3ffb748369e4","system_id":"levelo_inurba_marseille","lat":43.30535,"lon":5.36932,"is_reserved":false,"is_disabled":false,"rental_uris":{"android":"levelo://app?vid=8d638062-b729-4ab6-a2cd-3ffb748369e4","ios":"levelo://app?vid=8d638062-b729-4ab6-a2cd-3ffb748369e4"},"vehicle_type_id":"4","last_reported":1753510548,"current_range_meters":17600,"station_id":"","pricing_plan_id":"cebpf4jnsgd1na2vs0mg"},{"bike_id":"a0f4c9cb-36e5-4b83-9aaf-945e03cc00e2","system_id":"levelo_inurba_marseille","lat":43.28743,"lon":5.39968,"is_reserved":false,"is_disabled":false,"rental_uris":{"android":"levelo://app?vid=a0f4c9cb-36e5-4b83-9aaf-945e03cc00e2","ios":"levelo://app?vid=a0f4c9cb-36e5-4b83-9aaf-945e03cc00e2"},"vehicle_type_id":"4","last_reported":1753510548,"current_range_meters":17600,"station_id":"ce4bho92rcd13ifvqh3g","pricing_plan_id":"cebpf4jnsgd1na2vs0mg"},{"bike_id":"20958b00-1757-46f4-b566-babd7f94d862","system_id":"levelo_inurba_marseille","lat":43.24653,"lon":5.38182,"is_reserved":false,"is_disabled":false,"rental_uris":{"android":"levelo://app?vid=20958b00-1757-46f4-b566-babd7f94d862","ios":"levelo://app?vid=20958b00-1757-46f4-b566-babd7f94d862"},"vehicle_type_id":"4","last_reported":1753510548,"current_range_meters":17600,"station_id":"ce4bhih2rcd13ifvqfr0","pricing_plan_id":"cebpf4jnsgd1na2vs0mg"},{"bike_id":"6249b594-9952-40bc-b8a1-caf06fd62beb","system_id":"levelo_inurba_marseille","lat":43.30149,"lon":5.37419,"is_reserved":false,"is_disabled":false,"rental_uris":{"android":"levelo://app?vid=6249b594-9952-40bc-b8a1-caf06fd62beb","ios":"levelo://app?vid=6249b594-9952-40bc-b8a1-caf06fd62beb"},"vehicle_type_id":"4","last_reported":1753510548,"current_range_meters":17600,"station_id":"ce4bgs92rcd13ifvqcc0","pricing_plan_id":"cebpf4jnsgd1na2vs0mg"},{"bike_id":"4abe3d73-a41d-41d3-9cd5-ca38a8a7e35d","system_id":"levelo_inurba_marseille","lat":43.278076,"lon":5.407108,"is_reserved":false,"is_disabled":false,"rental_uris":{"android":"levelo://app?vid=4abe3d73-a41d-41d3-9cd5-ca38a8a7e35d","ios":"levelo://app?vid=4abe3d73-a41d-41d3-9cd5-ca38a8a7e35d"},"vehicle_type_id":"4","last_reported":1753510548,"current_range_meters":18000,"station_id":"ce4bhnh2rcd13ifvqgtg","pricing_plan_id":"cebpf4jnsgd1na2vs0mg"},{"bike_id":"8362c329-d292-4c5c-95e6-bd7045291b1e","system_id":"levelo_inurba_marseille","lat":43.29683,"lon":5.37271,"is_reserved":false,"is_disabled":false,"rental_uris":{"android":"levelo://app?vid=8362c329-d292-4c5c-95e6-bd7045291b1e","ios":"levelo://app?vid=8362c329-d292-4c5c-95e6-bd7045291b1e"},"vehicle_type_id":"4","last_reported":1753510548,"current_range_meters":18000,"station_id":"ce4bgk12rcd13ifvqbj0","pricing_plan_id":"cebpf4jnsgd1na2vs0mg"},{"bike_id":"a61ebb22-87a3-4f29-bcec-6d0e01489abe","system_id":"levelo_inurba_marseille","lat":43.30251,"lon":5.40052,"is_reserved":false,"is_disabled":false,"rental_uris":{"android":"levelo://app?vid=a61ebb22-87a3-4f29-bcec-6d0e01489abe","ios":"levelo://app?vid=a61ebb22-87a3-4f29-bcec-6d0e01489abe"},"vehicle_type_id":"4","last_reported":1753510548,"current_range_meters":18000,"station_id":"ce4bgvh2rcd13ifvqcs0","pricing_plan_id":"cebpf4jnsgd1na2vs0mg"},{"bike_id":"fa22fcbd-9608-4364-8688-0f1517d0941f","system_id":"levelo_inurba_marseille","lat":43.2315,"lon":5.43723,"is_reserved":false,"is_disabled":false,"rental_uris":{"android":"levelo://app?vid=fa22fcbd-9608-4364-8688-0f1517d0941f","ios":"levelo://app?vid=fa22fcbd-9608-4364-8688-0f1517d0941f"},"vehicle_type_id":"4","last_reported":1753510548,"current_range_meters":17600,"station_id":"ce4bhmp2rcd13ifvqgog","pricing_plan_id":"cebpf4jnsgd1na2vs0mg"},{"bike_id":"25f3e258-0c7a-499b-b187-4c4dddf45bcd","system_id":"levelo_inurba_marseille","lat":43.29268,"lon":5.36836,"is_reserved":false,"is_disabled":true,"rental_uris":{"android":"levelo://app?vid=25f3e258-0c7a-499b-b187-4c4dddf45bcd","ios":"levelo://app?vid=25f3e258-0c7a-499b-b187-4c4dddf45bcd"},"vehicle_type_id":"4","last_reported":1753510548,"current_range_meters":18000,"station_id":"ce4bhbp2rcd13ifvqesg","pricing_plan_id":"cebpf4jnsgd1na2vs0mg"},{"bike_id":"a7da2507-e354-4838-8e19-5746cc5423ef","system_id":"levelo_inurba_marseille","lat":43.288429,"lon":5.358467,"is_reserved":false,"is_disabled":true,"rental_uris":{"android":"levelo://app?vid=a7da2507-e354-4838-8e19-5746cc5423ef","ios":"levelo://app?vid=a7da2507-e354-4838-8e19-5746cc5423ef"},"vehicle_type_id":"4","last_reported":1753510548,"current_range_meters":18000,"station_id":"ce4bhb12rcd13ifvqem0","pricing_plan_id":"cebpf4jnsgd1na2vs0mg"},{"bike_id":"5807cbdd-25cb-4d16-b9bc-ae0cd7616274","system_id":"levelo_inurba_marseille","lat":43.2455,"lon":5.3952,"is_reserved":false,"is_disabled":false,"rental_uris":{"android":"levelo://app?vid=5807cbdd-25cb-4d16-b9bc-ae0cd7616274","ios":"levelo://app?vid=5807cbdd-25cb-4d16-b9bc-ae0cd7616274"},"vehicle_type_id":"4","last_reported":1753510548,"current_range_meters":18800,"station_id":"ce4bhlp2rcd13ifvqgjg","pricing_plan_id":"cebpf4jnsgd1na2vs0mg"},{"bike_id":"2dfe5d41-4214-4b38-bc50-4014400f8f4e","system_id":"levelo_inurba_marseille","lat":43.25872,"lon":5.3988,"is_reserved":false,"is_disabled":false,"rental_uris":{"android":"levelo://app?vid=2dfe5d41-4214-4b38-bc50-4014400f8f4e","ios":"levelo://app?vid=2dfe5d41-4214-4b38-bc50-4014400f8f4e"},"vehicle_type_id":"4","last_reported":1753510548,"current_range_meters":18800,"station_id":"ce4bhl92rcd13ifvqghg","pricing_plan_id":"cebpf4jnsgd1na2vs0mg"},{"bike_id":"de2b99e1-10a0-4df9-a035-841f04192dc0","system_id":"levelo_inurba_marseille","lat":43.25577,"lon":5.38226,"is_reserved":false,"is_disabled":true,"rental_uris":{"android":"levelo://app?vid=de2b99e1-10a0-4df9-a035-841f04192dc0","ios":"levelo://app?vid=de2b99e1-10a0-4df9-a035-841f04192dc0"},"vehicle_type_id":"4","last_reported":1753510548,"current_range_meters":18800,"station_id":"ce4bhih2rcd13ifvqfs0","pricing_plan_id":"cebpf4jnsgd1na2vs0mg"},{"bike_id":"8248c212-9693-47e9-9bec-2c3b4df598fb","system_id":"levelo_inurba_marseille","lat":43.28718,"lon":5.37937,"is_reserved":false,"is_disabled":false,"rental_uris":{"android":"levelo://app?vid=8248c212-9693-47e9-9bec-2c3b4df598fb","ios":"levelo://app?vid=8248c212-9693-47e9-9bec-2c3b4df598fb"},"vehicle_type_id":"4","last_reported":1753510548,"current_range_meters":18800,"station_id":"ce4bh9p2rcd13ifvqec0","pricing_plan_id":"cebpf4jnsgd1na2vs0mg"},{"bike_id":"54405b04-0f04-4c64-af8f-9ccbb34ae9ba","system_id":"levelo_inurba_marseille","lat":43.28032,"lon":5.3694,"is_reserved":false,"is_disabled":false,"rental_uris":{"android":"levelo://app?vid=54405b04-0f04-4c64-af8f-9ccbb34ae9ba","ios":"levelo://app?vid=54405b04-0f04-4c64-af8f-9ccbb34ae9ba"},"vehicle_type_id":"4","last_reported":1753510548,"current_range_meters":19200,"station_id":"ce4bha12rcd13ifvqef0","pricing_plan_id":"cebpf4jnsgd1na2vs0mg"},{"bike_id":"f5d35bb9-022f-4b33-ab96-4c8a7845427f","system_id":"levelo_inurba_marseille","lat":43.30329,"lon":5.41846,"is_reserved":false,"is_disabled":false,"rental_uris":{"android":"levelo://app?vid=f5d35bb9-022f-4b33-ab96-4c8a7845427f","ios":"levelo://app?vid=f5d35bb9-022f-4b33-ab96-4c8a7845427f"},"vehicle_type_id":"4","last_reported":1753510548,"current_range_meters":19200,"station_id":"","pricing_plan_id":"cebpf4jnsgd1na2vs0mg"},{"bike_id":"69eb2053-6469-4f9b-869a-7285bd1bf1c0","system_id":"levelo_inurba_marseille","lat":43.22497,"lon":5.34792,"is_reserved":false,"is_disabled":false,"rental_uris":{"android":"levelo://app?vid=69eb2053-6469-4f9b-869a-7285bd1bf1c0","ios":"levelo://app?vid=69eb2053-6469-4f9b-869a-7285bd1bf1c0"},"vehicle_type_id":"4","last_reported":1753510548,"current_range_meters":19200,"station_id":"st_cvj5dfep6f1abm77gieg","pricing_plan_id":"cebpf4jnsgd1na2vs0mg"},{"bike_id":"adc99020-a046-4247-b3bb-abb9aabfb167","system_id":"levelo_inurba_marseille","lat":43.24405,"lon":5.37042,"is_reserved":false,"is_disabled":false,"rental_uris":{"android":"levelo://app?vid=adc99020-a046-4247-b3bb-abb9aabfb167","ios":"levelo://app?vid=adc99020-a046-4247-b3bb-abb9aabfb167"},"vehicle_type_id":"4","last_reported":1753510548,"current_range_meters":19200,"station_id":"ce4bhhh2rcd13ifvqfk0","pricing_plan_id":"cebpf4jnsgd1na2vs0mg"},{"bike_id":"c5794c7a-bb35-409f-9175-7d8933c8fd68","system_id":"levelo_inurba_marseille","lat":43.31081,"lon":5.39569,"is_reserved":false,"is_disabled":false,"rental_uris":{"android":"levelo://app?vid=c5794c7a-bb35-409f-9175-7d8933c8fd68","ios":"levelo://app?vid=c5794c7a-bb35-409f-9175-7d8933c8fd68"},"vehicle_type_id":"4","last_reported":1753510548,"current_range_meters":19200,"station_id":"","pricing_plan_id":"cebpf4jnsgd1na2vs0mg"},{"bike_id":"5e07d5b8-fee9-4ac7-a4fd-69f73398a7d8","system_id":"levelo_inurba_marseille","lat":43.28156,"lon":5.42628,"is_reserved":false,"is_disabled":false,"rental_uris":{"android":"levelo://app?vid=5e07d5b8-fee9-4ac7-a4fd-69f73398a7d8","ios":"levelo://app?vid=5e07d5b8-fee9-4ac7-a4fd-69f73398a7d8"},"vehicle_type_id":"4","last_reported":1753510548,"current_range_meters":19200,"station_id":"ce4bhnh2rcd13ifvqgug","pricing_plan_id":"cebpf4jnsgd1na2vs0mg"},{"bike_id":"1f0c317e-3333-49a1-9cf5-7be525f71dbf","system_id":"levelo_inurba_marseille","lat":43.31122,"lon":5.37773,"is_reserved":false,"is_disabled":false,"rental_uris":{"android":"levelo://app?vid=1f0c317e-3333-49a1-9cf5-7be525f71dbf","ios":"levelo://app?vid=1f0c317e-3333-49a1-9cf5-7be525f71dbf"},"vehicle_type_id":"4","last_reported":1753510548,"current_range_meters":19200,"station_id":"ce4bgt92rcd13ifvqcg0","pricing_plan_id":"cebpf4jnsgd1na2vs0mg"},{"bike_id":"2ae45256-5ae2-498d-870c-4f13de54db6f","system_id":"levelo_inurba_marseille","lat":43.22927,"lon":5.35389,"is_reserved":false,"is_disabled":false,"rental_uris":{"android":"levelo://app?vid=2ae45256-5ae2-498d-870c-4f13de54db6f","ios":"levelo://app?vid=2ae45256-5ae2-498d-870c-4f13de54db6f"},"vehicle_type_id":"4","last_reported":1753510548,"current_range_meters":19200,"station_id":"cpo3532slgdg3j2ikp40","pricing_plan_id":"cebpf4jnsgd1na2vs0mg"},{"bike_id":"8216d319-c6ec-4803-b764-987ef38a5de7","system_id":"levelo_inurba_marseille","lat":43.2826,"lon":5.35071,"is_reserved":false,"is_disabled":false,"rental_uris":{"android":"levelo://app?vid=8216d319-c6ec-4803-b764-987ef38a5de7","ios":"levelo://app?vid=8216d319-c6ec-4803-b764-987ef38a5de7"},"vehicle_type_id":"4","last_reported":1753510548,"current_range_meters":19600,"station_id":"","pricing_plan_id":"cebpf4jnsgd1na2vs0mg"},{"bike_id":"8cb3cdfe-341c-4219-9fb7-adf0c31075d3","system_id":"levelo_inurba_marseille","lat":43.22532,"lon":5.34785,"is_reserved":false,"is_disabled":false,"rental_uris":{"android":"levelo://app?vid=8cb3cdfe-341c-4219-9fb7-adf0c31075d3","ios":"levelo://app?vid=8cb3cdfe-341c-4219-9fb7-adf0c31075d3"},"vehicle_type_id":"4","last_reported":1753510548,"current_range_meters":19600,"station_id":"st_cvj5dfep6f1abm77gieg","pricing_plan_id":"cebpf4jnsgd1na2vs0mg"},{"bike_id":"a29ff85a-e010-46c0-94a3-d696588bd503","system_id":"levelo_inurba_marseille","lat":43.25577,"lon":5.38236,"is_reserved":false,"is_disabled":false,"rental_uris":{"android":"levelo://app?vid=a29ff85a-e010-46c0-94a3-d696588bd503","ios":"levelo://app?vid=a29ff85a-e010-46c0-94a3-d696588bd503"},"vehicle_type_id":"4","last_reported":1753510548,"current_range_meters":19600,"station_id":"ce4bhih2rcd13ifvqfs0","pricing_plan_id":"cebpf4jnsgd1na2vs0mg"},{"bike_id":"03bfd96c-8871-4e6f-a653-d78eeaafa638","system_id":"levelo_inurba_marseille","lat":43.26682,"lon":5.38265,"is_reserved":false,"is_disabled":false,"rental_uris":{"android":"levelo://app?vid=03bfd96c-8871-4e6f-a653-d78eeaafa638","ios":"levelo://app?vid=03bfd96c-8871-4e6f-a653-d78eeaafa638"},"vehicle_type_id":"4","last_reported":1753510548,"current_range_meters":19600,"station_id":"ce4bhg92rcd13ifvqf90","pricing_plan_id":"cebpf4jnsgd1na2vs0mg"},{"bike_id":"83e6f275-f182-4f88-81fb-6476cf5d4aa5","system_id":"levelo_inurba_marseille","lat":43.30889,"lon":5.39626,"is_reserved":false,"is_disabled":false,"rental_uris":{"android":"levelo://app?vid=83e6f275-f182-4f88-81fb-6476cf5d4aa5","ios":"levelo://app?vid=83e6f275-f182-4f88-81fb-6476cf5d4aa5"},"vehicle_type_id":"4","last_reported":1753510548,"current_range_meters":19600,"station_id":"ce4bh012rcd13ifvqcv0","pricing_plan_id":"cebpf4jnsgd1na2vs0mg"},{"bike_id":"3545099d-8032-4e3c-9709-997c3f4f91f9","system_id":"levelo_inurba_marseille","lat":43.25585,"lon":5.38232,"is_reserved":false,"is_disabled":false,"rental_uris":{"android":"levelo://app?vid=3545099d-8032-4e3c-9709-997c3f4f91f9","ios":"levelo://app?vid=3545099d-8032-4e3c-9709-997c3f4f91f9"},"vehicle_type_id":"4","last_reported":1753510548,"current_range_meters":19200,"station_id":"ce4bhih2rcd13ifvqfs0","pricing_plan_id":"cebpf4jnsgd1na2vs0mg"},{"bike_id":"e56fe7c6-b95e-4896-a6ee-77846fccc12d","system_id":"levelo_inurba_marseille","lat":43.2318,"lon":5.39991,"is_reserved":false,"is_disabled":false,"rental_uris":{"android":"levelo://app?vid=e56fe7c6-b95e-4896-a6ee-77846fccc12d","ios":"levelo://app?vid=e56fe7c6-b95e-4896-a6ee-77846fccc12d"},"vehicle_type_id":"4","last_reported":1753510548,"current_range_meters":19600,"station_id":"ce4bhn12rcd13ifvqgqg","pricing_plan_id":"cebpf4jnsgd1na2vs0mg"},{"bike_id":"f4fd8122-3542-41c9-a204-ae963e556aa2","system_id":"levelo_inurba_marseille","lat":43.23053,"lon":5.35505,"is_reserved":false,"is_disabled":false,"rental_uris":{"android":"levelo://app?vid=f4fd8122-3542-41c9-a204-ae963e556aa2","ios":"levelo://app?vid=f4fd8122-3542-41c9-a204-ae963e556aa2"},"vehicle_type_id":"4","last_reported":1753510548,"current_range_meters":20000,"station_id":"cpo3342slgdg3j2ifvpg","pricing_plan_id":"cebpf4jnsgd1na2vs0mg"},{"bike_id":"e3689530-2169-4726-83a8-9ab0ea57a6a8","system_id":"levelo_inurba_marseille","lat":43.284681,"lon":5.358837,"is_reserved":false,"is_disabled":false,"rental_uris":{"android":"levelo://app?vid=e3689530-2169-4726-83a8-9ab0ea57a6a8","ios":"levelo://app?vid=e3689530-2169-4726-83a8-9ab0ea57a6a8"},"vehicle_type_id":"4","last_reported":1753510548,"current_range_meters":20000,"station_id":"ce4bhah2rcd13ifvqei0","pricing_plan_id":"cebpf4jnsgd1na2vs0mg"},{"bike_id":"50c7f00f-cd6e-4f5e-8880-4501e127e691","system_id":"levelo_inurba_marseille","lat":43.313797,"lon":5.384872,"is_reserved":false,"is_disabled":false,"rental_uris":{"android":"levelo://app?vid=50c7f00f-cd6e-4f5e-8880-4501e127e691","ios":"levelo://app?vid=50c7f00f-cd6e-4f5e-8880-4501e127e691"},"vehicle_type_id":"4","last_reported":1753510548,"current_range_meters":20000,"station_id":"ce4bgt92rcd13ifvqcf0","pricing_plan_id":"cebpf4jnsgd1na2vs0mg"},{"bike_id":"e704d608-6593-49e3-a6ab-7020d2f49f7c","system_id":"levelo_inurba_marseille","lat":43.28732,"lon":5.43247,"is_reserved":false,"is_disabled":false,"rental_uris":{"android":"levelo://app?vid=e704d608-6593-49e3-a6ab-7020d2f49f7c","ios":"levelo://app?vid=e704d608-6593-49e3-a6ab-7020d2f49f7c"},"vehicle_type_id":"4","last_reported":1753510548,"current_range_meters":20000,"station_id":"","pricing_plan_id":"cebpf4jnsgd1na2vs0mg"},{"bike_id":"9acf939d-4714-49a2-af2a-35ed39fc8eac","system_id":"levelo_inurba_marseille","lat":43.3153,"lon":5.38036,"is_reserved":false,"is_disabled":false,"rental_uris":{"android":"levelo://app?vid=9acf939d-4714-49a2-af2a-35ed39fc8eac","ios":"levelo://app?vid=9acf939d-4714-49a2-af2a-35ed39fc8eac"},"vehicle_type_id":"4","last_reported":1753510548,"current_range_meters":20000,"station_id":"ce4bhsp2rcd13ifvqi50","pricing_plan_id":"cebpf4jnsgd1na2vs0mg"},{"bike_id":"98e6c8e3-38cf-4df8-90cd-75a17366ebc7","system_id":"levelo_inurba_marseille","lat":43.2738,"lon":5.36246,"is_reserved":false,"is_disabled":true,"rental_uris":{"android":"levelo://app?vid=98e6c8e3-38cf-4df8-90cd-75a17366ebc7","ios":"levelo://app?vid=98e6c8e3-38cf-4df8-90cd-75a17366ebc7"},"vehicle_type_id":"4","last_reported":1753510548,"current_range_meters":20000,"station_id":"ce4bhbh2rcd13ifvqeo0","pricing_plan_id":"cebpf4jnsgd1na2vs0mg"},{"bike_id":"14741a40-9451-4bf0-91be-51c86b20eef3","system_id":"levelo_inurba_marseille","lat":43.2894,"lon":5.39629,"is_reserved":false,"is_disabled":false,"rental_uris":{"android":"levelo://app?vid=14741a40-9451-4bf0-91be-51c86b20eef3","ios":"levelo://app?vid=14741a40-9451-4bf0-91be-51c86b20eef3"},"vehicle_type_id":"4","last_reported":1753510548,"current_range_meters":19600,"station_id":"ce4bh3h2rcd13ifvqdn0","pricing_plan_id":"cebpf4jnsgd1na2vs0mg"},{"bike_id":"c685af3b-33c8-4bbc-88e6-e5f2940f31aa","system_id":"levelo_inurba_marseille","lat":43.30931,"lon":5.40138,"is_reserved":false,"is_disabled":false,"rental_uris":{"android":"levelo://app?vid=c685af3b-33c8-4bbc-88e6-e5f2940f31aa","ios":"levelo://app?vid=c685af3b-33c8-4bbc-88e6-e5f2940f31aa"},"vehicle_type_id":"4","last_reported":1753510548,"current_range_meters":20000,"station_id":"ce4bgvp2rcd13ifvqct0","pricing_plan_id":"cebpf4jnsgd1na2vs0mg"},{"bike_id":"b0e4984c-0f1d-40ce-a9c5-5a95c9eb49e3","system_id":"levelo_inurba_marseille","lat":43.24648,"lon":5.38902,"is_reserved":false,"is_disabled":false,"rental_uris":{"android":"levelo://app?vid=b0e4984c-0f1d-40ce-a9c5-5a95c9eb49e3","ios":"levelo://app?vid=b0e4984c-0f1d-40ce-a9c5-5a95c9eb49e3"},"vehicle_type_id":"4","last_reported":1753510548,"current_range_meters":20000,"station_id":"ce4bhg12rcd13ifvqf60","pricing_plan_id":"cebpf4jnsgd1na2vs0mg"},{"bike_id":"221d1fb5-b11f-403a-bb15-2da9daa57b09","system_id":"levelo_inurba_marseille","lat":43.30611,"lon":5.37225,"is_reserved":false,"is_disabled":false,"rental_uris":{"android":"levelo://app?vid=221d1fb5-b11f-403a-bb15-2da9daa57b09","ios":"levelo://app?vid=221d1fb5-b11f-403a-bb15-2da9daa57b09"},