{"last_updated":1745334608,"ttl":60,"version":"2.2","data":{"bikes":[{"bike_id":"42222e3f-59d7-45c9-a999-5b682d6c4f9c","system_id":"levelo_inurba_marseille","lat":43.27917,"lon":5.39606,"is_reserved":false,"is_disabled":false,"rental_uris":{"android":"levelo://app?vid=42222e3f-59d7-45c9-a999-5b682d6c4f9c","ios":"levelo://app?vid=42222e3f-59d7-45c9-a999-5b682d6c4f9c"},"vehicle_type_id":"4","last_reported":1745334608,"current_range_meters":3200,"station_id":"ce4bhf92rcd13ifvqf40","pricing_plan_id":"cebpf4jnsgd1na2vs0mg"},{"bike_id":"cbcda3d5-a81c-4ecd-bcca-518fce4a94d4","system_id":"levelo_inurba_marseille","lat":43.27177,"lon":5.40992,"is_reserved":false,"is_disabled":false,"rental_uris":{"android":"levelo://app?vid=cbcda3d5-a81c-4ecd-bcca-518fce4a94d4","ios":"levelo://app?vid=cbcda3d5-a81c-4ecd-bcca-518fce4a94d4"},"vehicle_type_id":"4","last_reported":1745334608,"current_range_meters":3200,"station_id":"ce4bhl12rcd13ifvqgf0","pricing_plan_id":"cebpf4jnsgd1na2vs0mg"},{"bike_id":"7c805479-0039-444e-982f-ce5594b67883","system_id":"levelo_inurba_marseille","lat":43.30529,"lon":5.36511,"is_reserved":false,"is_disabled":false,"rental_uris":{"android":"levelo://app?vid=7c805479-0039-444e-982f-ce5594b67883","ios":"levelo://app?vid=7c805479-0039-444e-982f-ce5594b67883"},"vehicle_type_id":"4","last_reported":1745334608,"current_range_meters":3600,"station_id":"","pricing_plan_id":"cebpf4jnsgd1na2vs0mg"},{"bike_id":"71efb28b-c340-4f3b-8959-4ad6fa32d9eb","system_id":"levelo_inurba_marseille","lat":43.2417,"lon":5.39746,"is_reserved":false,"is_disabled":false,"rental_uris":{"android":"levelo://app?vid=71efb28b-c340-4f3b-8959-4ad6fa32d9eb","ios":"levelo://app?vid=71efb28b-c340-4f3b-8959-4ad6fa32d9eb"},"vehicle_type_id":"4","last_reported":1745334608,"current_range_meters":3600,"station_id":"ce4bhn12rcd13ifvqgpg","pricing_plan_id":"cebpf4jnsgd1na2vs0mg"},{"bike_id":"08adba7b-eac3-4cfc-9923-2ccf0cc4ffef","system_id":"levelo_inurba_marseille","lat":43.24556,"lon":5.41306,"is_reserved":false,"is_disabled":false,"rental_uris":{"android":"levelo://app?vid=08adba7b-eac3-4cfc-9923-2ccf0cc4ffef","ios":"levelo://app?vid=08adba7b-eac3-4cfc-9923-2ccf0cc4ffef"},"vehicle_type_id":"4","last_reported":1745334608,"current_range_meters":4000,"station_id":"","pricing_plan_id":"cebpf4jnsgd1na2vs0mg"},{"bike_id":"6264e97f-1821-4ee6-b87e-4be5b4c66bd9","system_id":"levelo_inurba_marseille","lat":43.28402,"lon":5.37511,"is_reserved":false,"is_disabled":false,"rental_uris":{"android":"levelo://app?vid=6264e97f-1821-4ee6-b87e-4be5b4c66bd9","ios":"levelo://app?vid=6264e97f-1821-4ee6-b87e-4be5b4c66bd9"},"vehicle_type_id":"4","last_reported":1745334608,"current_range_meters":4400,"station_id":"ce4bh412rcd13ifvqds0","pricing_plan_id":"cebpf4jnsgd1na2vs0mg"},{"bike_id":"0ef23631-dbd2-4c68-adc1-77243fd0c5dd","system_id":"levelo_inurba_marseille","lat":43.29274,"lon":5.38528,"is_reserved":false,"is_disabled":false,"rental_uris":{"android":"levelo://app?vid=0ef23631-dbd2-4c68-adc1-77243fd0c5dd","ios":"levelo://app?vid=0ef23631-dbd2-4c68-adc1-77243fd0c5dd"},"vehicle_type_id":"4","last_reported":1745334608,"current_range_meters":4400,"station_id":"","pricing_plan_id":"cebpf4jnsgd1na2vs0mg"},{"bike_id":"cb33acc2-5eea-45c0-9b15-8f533d6ae3df","system_id":"levelo_inurba_marseille","lat":43.28542,"lon":5.38745,"is_reserved":false,"is_disabled":false,"rental_uris":{"android":"levelo://app?vid=cb33acc2-5eea-45c0-9b15-8f533d6ae3df","ios":"levelo://app?vid=cb33acc2-5eea-45c0-9b15-8f533d6ae3df"},"vehicle_type_id":"4","last_reported":1745334608,"current_range_meters":4400,"station_id":"","pricing_plan_id":"cebpf4jnsgd1na2vs0mg"},{"bike_id":"39b7ee85-9cbf-4904-a10a-75042515f95d","system_id":"levelo_inurba_marseille","lat":43.36241,"lon":5.34755,"is_reserved":false,"is_disabled":false,"rental_uris":{"android":"levelo://app?vid=39b7ee85-9cbf-4904-a10a-75042515f95d","ios":"levelo://app?vid=39b7ee85-9cbf-4904-a10a-75042515f95d"},"vehicle_type_id":"4","last_reported":1745334608,"current_range_meters":4800,"station_id":"","pricing_plan_id":"cebpf4jnsgd1na2vs0mg"},{"bike_id":"e31bb23d-ce78-4a62-ad51-bbc4e5cb3f07","system_id":"levelo_inurba_marseille","lat":43.2957,"lon":5.37511,"is_reserved":false,"is_disabled":false,"rental_uris":{"android":"levelo://app?vid=e31bb23d-ce78-4a62-ad51-bbc4e5cb3f07","ios":"levelo://app?vid=e31bb23d-ce78-4a62-ad51-bbc4e5cb3f07"},"vehicle_type_id":"4","last_reported":1745334608,"current_range_meters":5600,"station_id":"ce4bgh92rcd13ifvqb50","pricing_plan_id":"cebpf4jnsgd1na2vs0mg"},{"bike_id":"8189d399-9522-4916-8861-e2f237ab1c63","system_id":"levelo_inurba_marseille","lat":43.25497,"lon":5.37646,"is_reserved":false,"is_disabled":false,"rental_uris":{"android":"levelo://app?vid=8189d399-9522-4916-8861-e2f237ab1c63","ios":"levelo://app?vid=8189d399-9522-4916-8861-e2f237ab1c63"},"vehicle_type_id":"4","last_reported":1745334608,"current_range_meters":5600,"station_id":"ce4bhh12rcd13ifvqff0","pricing_plan_id":"cebpf4jnsgd1na2vs0mg"},{"bike_id":"f3524bc7-e0b7-41c1-9d98-3aab91d716ce","system_id":"levelo_inurba_marseille","lat":43.26811,"lon":5.40264,"is_reserved":false,"is_disabled":false,"rental_uris":{"android":"levelo://app?vid=f3524bc7-e0b7-41c1-9d98-3aab91d716ce","ios":"levelo://app?vid=f3524bc7-e0b7-41c1-9d98-3aab91d716ce"},"vehicle_type_id":"4","last_reported":1745334608,"current_range_meters":5600,"station_id":"ce501612rcd8frsf0b60","pricing_plan_id":"cebpf4jnsgd1na2vs0mg"},{"bike_id":"6e841aa6-5728-494d-ab8c-e9235b6fe51c","system_id":"levelo_inurba_marseille","lat":43.307983,"lon":5.381484,"is_reserved":false,"is_disabled":false,"rental_uris":{"android":"levelo://app?vid=6e841aa6-5728-494d-ab8c-e9235b6fe51c","ios":"levelo://app?vid=6e841aa6-5728-494d-ab8c-e9235b6fe51c"},"vehicle_type_id":"4","last_reported":1745334608,"current_range_meters":6000,"station_id":"ce4bgt12rcd13ifvqce0","pricing_plan_id":"cebpf4jnsgd1na2vs0mg"},{"bike_id":"d42da8b3-5312-4608-a60b-fef54c0c16d1","system_id":"levelo_inurba_marseille","lat":43.28074,"lon":5.39656,"is_reserved":false,"is_disabled":false,"rental_uris":{"android":"levelo://app?vid=d42da8b3-5312-4608-a60b-fef54c0c16d1","ios":"levelo://app?vid=d42da8b3-5312-4608-a60b-fef54c0c16d1"},"vehicle_type_id":"4","last_reported":1745334608,"current_range_meters":6000,"station_id":"ce4bho12rcd13ifvqh2g","pricing_plan_id":"cebpf4jnsgd1na2vs0mg"},{"bike_id":"1481b304-d043-4368-bea5-2c08f64a5102","system_id":"levelo_inurba_marseille","lat":43.27666,"lon":5.38879,"is_reserved":false,"is_disabled":false,"rental_uris":{"android":"levelo://app?vid=1481b304-d043-4368-bea5-2c08f64a5102","ios":"levelo://app?vid=1481b304-d043-4368-bea5-2c08f64a5102"},"vehicle_type_id":"4","last_reported":1745334608,"current_range_meters":5600,"station_id":"ce4bhi12rcd13ifvqfo0","pricing_plan_id":"cebpf4jnsgd1na2vs0mg"},{"bike_id":"72e1219a-51c6-42db-924a-4bcb5e4596b4","system_id":"levelo_inurba_marseille","lat":43.270571,"lon":5.402572,"is_reserved":false,"is_disabled":false,"rental_uris":{"android":"levelo://app?vid=72e1219a-51c6-42db-924a-4bcb5e4596b4","ios":"levelo://app?vid=72e1219a-51c6-42db-924a-4bcb5e4596b4"},"vehicle_type_id":"4","last_reported":1745334608,"current_range_meters":8000,"station_id":"ce4bhnh2rcd13ifvqgtg","pricing_plan_id":"cebpf4jnsgd1na2vs0mg"},{"bike_id":"bbf268a7-b49f-4924-81ba-e7b3e1742e2d","system_id":"levelo_inurba_marseille","lat":43.27992,"lon":5.41661,"is_reserved":false,"is_disabled":false,"rental_uris":{"android":"levelo://app?vid=bbf268a7-b49f-4924-81ba-e7b3e1742e2d","ios":"levelo://app?vid=bbf268a7-b49f-4924-81ba-e7b3e1742e2d"},"vehicle_type_id":"4","last_reported":1745334608,"current_range_meters":6400,"station_id":"ce4bho12rcd13ifvqh1g","pricing_plan_id":"cebpf4jnsgd1na2vs0mg"},{"bike_id":"b4ebbe92-7f25-4316-b8b7-b6dd1cba7188","system_id":"levelo_inurba_marseille","lat":43.29257,"lon":5.38441,"is_reserved":false,"is_disabled":false,"rental_uris":{"android":"levelo://app?vid=b4ebbe92-7f25-4316-b8b7-b6dd1cba7188","ios":"levelo://app?vid=b4ebbe92-7f25-4316-b8b7-b6dd1cba7188"},"vehicle_type_id":"4","last_reported":1745334608,"current_range_meters":6400,"station_id":"ce4bh692rcd13ifvqea0","pricing_plan_id":"cebpf4jnsgd1na2vs0mg"},{"bike_id":"9a8c53aa-1465-4335-9d2c-2d4b189bf98f","system_id":"levelo_inurba_marseille","lat":43.2898,"lon":5.37829,"is_reserved":false,"is_disabled":false,"rental_uris":{"android":"levelo://app?vid=9a8c53aa-1465-4335-9d2c-2d4b189bf98f","ios":"levelo://app?vid=9a8c53aa-1465-4335-9d2c-2d4b189bf98f"},"vehicle_type_id":"4","last_reported":1745334608,"current_range_meters":6400,"station_id":"ce4bh9p2rcd13ifvqed0","pricing_plan_id":"cebpf4jnsgd1na2vs0mg"},{"bike_id":"873b4d55-4093-4ca8-9ac4-04961ee210dd","system_id":"levelo_inurba_marseille","lat":43.24663,"lon":5.38163,"is_reserved":false,"is_disabled":false,"rental_uris":{"android":"levelo://app?vid=873b4d55-4093-4ca8-9ac4-04961ee210dd","ios":"levelo://app?vid=873b4d55-4093-4ca8-9ac4-04961ee210dd"},"vehicle_type_id":"4","last_reported":1745334608,"current_range_meters":2800,"station_id":"ce4bhih2rcd13ifvqfr0","pricing_plan_id":"cebpf4jnsgd1na2vs0mg"},{"bike_id":"77d954dc-7c99-4daf-a3b9-e4db8412a081","system_id":"levelo_inurba_marseille","lat":43.29274,"lon":5.4012,"is_reserved":false,"is_disabled":false,"rental_uris":{"android":"levelo://app?vid=77d954dc-7c99-4daf-a3b9-e4db8412a081","ios":"levelo://app?vid=77d954dc-7c99-4daf-a3b9-e4db8412a081"},"vehicle_type_id":"4","last_reported":1745334608,"current_range_meters":6800,"station_id":"ce4bh312rcd13ifvqdk0","pricing_plan_id":"cebpf4jnsgd1na2vs0mg"},{"bike_id":"d4f9c5d7-5d23-4d8b-91c5-8dde73fd30db","system_id":"levelo_inurba_marseille","lat":43.29898,"lon":5.43668,"is_reserved":false,"is_disabled":false,"rental_uris":{"android":"levelo://app?vid=d4f9c5d7-5d23-4d8b-91c5-8dde73fd30db","ios":"levelo://app?vid=d4f9c5d7-5d23-4d8b-91c5-8dde73fd30db"},"vehicle_type_id":"4","last_reported":1745334608,"current_range_meters":6400,"station_id":"ce4bhpp2rcd13ifvqhfg","pricing_plan_id":"cebpf4jnsgd1na2vs0mg"},{"bike_id":"bd3c1754-f5f3-4d87-8dc7-96dd2b03d4d2","system_id":"levelo_inurba_marseille","lat":43.33405,"lon":5.40082,"is_reserved":false,"is_disabled":false,"rental_uris":{"android":"levelo://app?vid=bd3c1754-f5f3-4d87-8dc7-96dd2b03d4d2","ios":"levelo://app?vid=bd3c1754-f5f3-4d87-8dc7-96dd2b03d4d2"},"vehicle_type_id":"4","last_reported":1745334608,"current_range_meters":6800,"station_id":"","pricing_plan_id":"cebpf4jnsgd1na2vs0mg"},{"bike_id":"80349d4c-4a0e-48a3-a927-7fee52468c5c","system_id":"levelo_inurba_marseille","lat":43.323544,"lon":5.367405,"is_reserved":false,"is_disabled":false,"rental_uris":{"android":"levelo://app?vid=80349d4c-4a0e-48a3-a927-7fee52468c5c","ios":"levelo://app?vid=80349d4c-4a0e-48a3-a927-7fee52468c5c"},"vehicle_type_id":"4","last_reported":1745334608,"current_range_meters":7200,"station_id":"ce4bhsh2rcd13ifvqi2g","pricing_plan_id":"cebpf4jnsgd1na2vs0mg"},{"bike_id":"1c4f1302-542e-4abb-b53e-efb604031ad7","system_id":"levelo_inurba_marseille","lat":43.28267,"lon":5.35064,"is_reserved":false,"is_disabled":false,"rental_uris":{"android":"levelo://app?vid=1c4f1302-542e-4abb-b53e-efb604031ad7","ios":"levelo://app?vid=1c4f1302-542e-4abb-b53e-efb604031ad7"},"vehicle_type_id":"4","last_reported":1745334608,"current_range_meters":7200,"station_id":"ce4bhbp2rcd13ifvqerg","pricing_plan_id":"cebpf4jnsgd1na2vs0mg"},{"bike_id":"79e587d2-a080-4b7a-b294-7b9d1606dfe4","system_id":"levelo_inurba_marseille","lat":43.29278,"lon":5.40115,"is_reserved":false,"is_disabled":false,"rental_uris":{"android":"levelo://app?vid=79e587d2-a080-4b7a-b294-7b9d1606dfe4","ios":"levelo://app?vid=79e587d2-a080-4b7a-b294-7b9d1606dfe4"},"vehicle_type_id":"4","last_reported":1745334608,"current_range_meters":7200,"station_id":"ce4bh312rcd13ifvqdk0","pricing_plan_id":"cebpf4jnsgd1na2vs0mg"},{"bike_id":"a23e5d16-7cd5-4489-959d-4c892521a549","system_id":"levelo_inurba_marseille","lat":43.31752,"lon":5.39014,"is_reserved":false,"is_disabled":false,"rental_uris":{"android":"levelo://app?vid=a23e5d16-7cd5-4489-959d-4c892521a549","ios":"levelo://app?vid=a23e5d16-7cd5-4489-959d-4c892521a549"},"vehicle_type_id":"4","last_reported":1745334608,"current_range_meters":8000,"station_id":"ce4bhqp2rcd13ifvqhng","pricing_plan_id":"cebpf4jnsgd1na2vs0mg"},{"bike_id":"e5cbb9c8-5d55-4a78-9089-1129a5a92113","system_id":"levelo_inurba_marseille","lat":43.27618,"lon":5.36099,"is_reserved":false,"is_disabled":false,"rental_uris":{"android":"levelo://app?vid=e5cbb9c8-5d55-4a78-9089-1129a5a92113","ios":"levelo://app?vid=e5cbb9c8-5d55-4a78-9089-1129a5a92113"},"vehicle_type_id":"4","last_reported":1745334608,"current_range_meters":8000,"station_id":"ce4bgj92rcd13ifvqbe0","pricing_plan_id":"cebpf4jnsgd1na2vs0mg"},{"bike_id":"1c755526-7610-4241-9257-348acde561d3","system_id":"levelo_inurba_marseille","lat":43.2484,"lon":5.38085,"is_reserved":false,"is_disabled":false,"rental_uris":{"android":"levelo://app?vid=1c755526-7610-4241-9257-348acde561d3","ios":"levelo://app?vid=1c755526-7610-4241-9257-348acde561d3"},"vehicle_type_id":"4","last_reported":1745334608,"current_range_meters":8000,"station_id":"","pricing_plan_id":"cebpf4jnsgd1na2vs0mg"},{"bike_id":"7223d582-4368-4abf-9db2-8710a3ac81c1","system_id":"levelo_inurba_marseille","lat":43.29544,"lon":5.393683,"is_reserved":false,"is_disabled":false,"rental_uris":{"android":"levelo://app?vid=7223d582-4368-4abf-9db2-8710a3ac81c1","ios":"levelo://app?vid=7223d582-4368-4abf-9db2-8710a3ac81c1"},"vehicle_type_id":"4","last_reported":1745334608,"current_range_meters":8000,"station_id":"chh1huq6cuj3fo74tm60","pricing_plan_id":"cebpf4jnsgd1na2vs0mg"},{"bike_id":"927ebabc-1cd7-4390-b5bd-5646fe25ec01","system_id":"levelo_inurba_marseille","lat":43.29998,"lon":5.37236,"is_reserved":false,"is_disabled":false,"rental_uris":{"android":"levelo://app?vid=927ebabc-1cd7-4390-b5bd-5646fe25ec01","ios":"levelo://app?vid=927ebabc-1cd7-4390-b5bd-5646fe25ec01"},"vehicle_type_id":"4","last_reported":1745334608,"current_range_meters":8000,"station_id":"","pricing_plan_id":"cebpf4jnsgd1na2vs0mg"},{"bike_id":"501395c2-4e89-4f2c-a66b-d78197eb585c","system_id":"levelo_inurba_marseille","lat":43.299655,"lon":5.384893,"is_reserved":false,"is_disabled":false,"rental_uris":{"android":"levelo://app?vid=501395c2-4e89-4f2c-a66b-d78197eb585c","ios":"levelo://app?vid=501395c2-4e89-4f2c-a66b-d78197eb585c"},"vehicle_type_id":"4","last_reported":1745334608,"current_range_meters":8000,"station_id":"ce4bgj92rcd13ifvqbd0","pricing_plan_id":"cebpf4jnsgd1na2vs0mg"},{"bike_id":"48de4187-3e36-4e32-8d8b-ae93d8904f88","system_id":"levelo_inurba_marseille","lat":43.30134,"lon":5.3878,"is_reserved":false,"is_disabled":false,"rental_uris":{"android":"levelo://app?vid=48de4187-3e36-4e32-8d8b-ae93d8904f88","ios":"levelo://app?vid=48de4187-3e36-4e32-8d8b-ae93d8904f88"},"vehicle_type_id":"4","last_reported":1745334608,"current_range_meters":8400,"station_id":"ce4bghh2rcd13ifvqb60","pricing_plan_id":"cebpf4jnsgd1na2vs0mg"},{"bike_id":"ea243515-c1a1-4d7b-b38f-fbe7e5ae5d05","system_id":"levelo_inurba_marseille","lat":43.2511,"lon":5.39522,"is_reserved":false,"is_disabled":false,"rental_uris":{"android":"levelo://app?vid=ea243515-c1a1-4d7b-b38f-fbe7e5ae5d05","ios":"levelo://app?vid=ea243515-c1a1-4d7b-b38f-fbe7e5ae5d05"},"vehicle_type_id":"4","last_reported":1745334608,"current_range_meters":8400,"station_id":"ce4bhm12rcd13ifvqgkg","pricing_plan_id":"cebpf4jnsgd1na2vs0mg"},{"bike_id":"5bbf78c3-9ff4-43fd-addb-7db8c52f9edd","system_id":"levelo_inurba_marseille","lat":43.32364,"lon":5.38891,"is_reserved":false,"is_disabled":false,"rental_uris":{"android":"levelo://app?vid=5bbf78c3-9ff4-43fd-addb-7db8c52f9edd","ios":"levelo://app?vid=5bbf78c3-9ff4-43fd-addb-7db8c52f9edd"},"vehicle_type_id":"4","last_reported":1745334608,"current_range_meters":8800,"station_id":"ce4bhqp2rcd13ifvqhog","pricing_plan_id":"cebpf4jnsgd1na2vs0mg"},{"bike_id":"b47b22b2-b91b-42c2-8f12-09b2aa3d6e25","system_id":"levelo_inurba_marseille","lat":43.305308,"lon":5.366982,"is_reserved":false,"is_disabled":false,"rental_uris":{"android":"levelo://app?vid=b47b22b2-b91b-42c2-8f12-09b2aa3d6e25","ios":"levelo://app?vid=b47b22b2-b91b-42c2-8f12-09b2aa3d6e25"},"vehicle_type_id":"4","last_reported":1745334608,"current_range_meters":12800,"station_id":"ce4bgv92rcd13ifvqcq0","pricing_plan_id":"cebpf4jnsgd1na2vs0mg"},{"bike_id":"9f4de109-7bbf-47c3-bb89-6681c45f5bcd","system_id":"levelo_inurba_marseille","lat":43.255,"lon":5.37648,"is_reserved":false,"is_disabled":false,"rental_uris":{"android":"levelo://app?vid=9f4de109-7bbf-47c3-bb89-6681c45f5bcd","ios":"levelo://app?vid=9f4de109-7bbf-47c3-bb89-6681c45f5bcd"},"vehicle_type_id":"4","last_reported":1745334608,"current_range_meters":9200,"station_id":"ce4bhh12rcd13ifvqff0","pricing_plan_id":"cebpf4jnsgd1na2vs0mg"},{"bike_id":"ec1e91a2-c2dd-493c-9a30-3033cc346c91","system_id":"levelo_inurba_marseille","lat":43.29781,"lon":5.37113,"is_reserved":false,"is_disabled":false,"rental_uris":{"android":"levelo://app?vid=ec1e91a2-c2dd-493c-9a30-3033cc346c91","ios":"levelo://app?vid=ec1e91a2-c2dd-493c-9a30-3033cc346c91"},"vehicle_type_id":"4","last_reported":1745334608,"current_range_meters":8800,"station_id":"ce4bgop2rcd13ifvqc1g","pricing_plan_id":"cebpf4jnsgd1na2vs0mg"},{"bike_id":"2dc4e79a-33a8-48b0-bf03-f6328f1dc1f6","system_id":"levelo_inurba_marseille","lat":43.323694,"lon":5.388882,"is_reserved":false,"is_disabled":true,"rental_uris":{"android":"levelo://app?vid=2dc4e79a-33a8-48b0-bf03-f6328f1dc1f6","ios":"levelo://app?vid=2dc4e79a-33a8-48b0-bf03-f6328f1dc1f6"},"vehicle_type_id":"4","last_reported":1745334608,"current_range_meters":9600,"station_id":"ce4bhqp2rcd13ifvqhog","pricing_plan_id":"cebpf4jnsgd1na2vs0mg"},{"bike_id":"8eb91ca8-cdd2-4cc2-a5e7-2ea3ba7c30ca","system_id":"levelo_inurba_marseille","lat":43.30534,"lon":5.36547,"is_reserved":false,"is_disabled":false,"rental_uris":{"android":"levelo://app?vid=8eb91ca8-cdd2-4cc2-a5e7-2ea3ba7c30ca","ios":"levelo://app?vid=8eb91ca8-cdd2-4cc2-a5e7-2ea3ba7c30ca"},"vehicle_type_id":"4","last_reported":1745334608,"current_range_meters":10000,"station_id":"ce4bgs12rcd13ifvqcag","pricing_plan_id":"cebpf4jnsgd1na2vs0mg"},{"bike_id":"1aabe5c9-09ca-44d1-bb3a-8c93e9abfee7","system_id":"levelo_inurba_marseille","lat":43.32375,"lon":5.368,"is_reserved":false,"is_disabled":false,"rental_uris":{"android":"levelo://app?vid=1aabe5c9-09ca-44d1-bb3a-8c93e9abfee7","ios":"levelo://app?vid=1aabe5c9-09ca-44d1-bb3a-8c93e9abfee7"},"vehicle_type_id":"4","last_reported":1745334608,"current_range_meters":10000,"station_id":"ce4bhsh2rcd13ifvqi2g","pricing_plan_id":"cebpf4jnsgd1na2vs0mg"},{"bike_id":"4cd90a3c-ddad-4a12-931d-8e21e1045ba1","system_id":"levelo_inurba_marseille","lat":43.30127,"lon":5.38765,"is_reserved":false,"is_disabled":false,"rental_uris":{"android":"levelo://app?vid=4cd90a3c-ddad-4a12-931d-8e21e1045ba1","ios":"levelo://app?vid=4cd90a3c-ddad-4a12-931d-8e21e1045ba1"},"vehicle_type_id":"4","last_reported":1745334608,"current_range_meters":13600,"station_id":"ce4bghh2rcd13ifvqb60","pricing_plan_id":"cebpf4jnsgd1na2vs0mg"},{"bike_id":"f82f3be8-8ca0-458d-a6ba-c5a0d54934c9","system_id":"levelo_inurba_marseille","lat":43.29167,"lon":5.37168,"is_reserved":false,"is_disabled":false,"rental_uris":{"android":"levelo://app?vid=f82f3be8-8ca0-458d-a6ba-c5a0d54934c9","ios":"levelo://app?vid=f82f3be8-8ca0-458d-a6ba-c5a0d54934c9"},"vehicle_type_id":"4","last_reported":1745334608,"current_range_meters":9600,"station_id":"ce4bha92rcd13ifvqeh0","pricing_plan_id":"cebpf4jnsgd1na2vs0mg"},{"bike_id":"63e081bf-9c35-4239-8748-22f1198cdcd8","system_id":"levelo_inurba_marseille","lat":43.239624,"lon":5.366272,"is_reserved":false,"is_disabled":false,"rental_uris":{"android":"levelo://app?vid=63e081bf-9c35-4239-8748-22f1198cdcd8","ios":"levelo://app?vid=63e081bf-9c35-4239-8748-22f1198cdcd8"},"vehicle_type_id":"4","last_reported":1745334608,"current_range_meters":12000,"station_id":"ce4bh2h2rcd13ifvqdh0","pricing_plan_id":"cebpf4jnsgd1na2vs0mg"},{"bike_id":"dce8e5d0-2d25-42a4-8de4-d2d1b667325c","system_id":"levelo_inurba_marseille","lat":43.32477,"lon":5.40865,"is_reserved":false,"is_disabled":false,"rental_uris":{"android":"levelo://app?vid=dce8e5d0-2d25-42a4-8de4-d2d1b667325c","ios":"levelo://app?vid=dce8e5d0-2d25-42a4-8de4-d2d1b667325c"},"vehicle_type_id":"4","last_reported":1745334608,"current_range_meters":10800,"station_id":"","pricing_plan_id":"cebpf4jnsgd1na2vs0mg"},{"bike_id":"a5c1f4a3-6d37-4c35-ab54-ecade98d6d0a","system_id":"levelo_inurba_marseille","lat":43.3148,"lon":5.37308,"is_reserved":false,"is_disabled":false,"rental_uris":{"android":"levelo://app?vid=a5c1f4a3-6d37-4c35-ab54-ecade98d6d0a","ios":"levelo://app?vid=a5c1f4a3-6d37-4c35-ab54-ecade98d6d0a"},"vehicle_type_id":"4","last_reported":1745334608,"current_range_meters":10800,"station_id":"ce4bgt12rcd13ifvqcd0","pricing_plan_id":"cebpf4jnsgd1na2vs0mg"},{"bike_id":"30dd5cf3-19b8-4fe8-b452-35954c34c5ab","system_id":"levelo_inurba_marseille","lat":43.30186,"lon":5.36611,"is_reserved":false,"is_disabled":false,"rental_uris":{"android":"levelo://app?vid=30dd5cf3-19b8-4fe8-b452-35954c34c5ab","ios":"levelo://app?vid=30dd5cf3-19b8-4fe8-b452-35954c34c5ab"},"vehicle_type_id":"4","last_reported":1745334608,"current_range_meters":11200,"station_id":"ce4bgrh2rcd13ifvqc8g","pricing_plan_id":"cebpf4jnsgd1na2vs0mg"},{"bike_id":"f52cbb0c-db81-4dde-a402-eeaa5c715189","system_id":"levelo_inurba_marseille","lat":43.2894,"lon":5.36648,"is_reserved":false,"is_disabled":false,"rental_uris":{"android":"levelo://app?vid=f52cbb0c-db81-4dde-a402-eeaa5c715189","ios":"levelo://app?vid=f52cbb0c-db81-4dde-a402-eeaa5c715189"},"vehicle_type_id":"4","last_reported":1745334608,"current_range_meters":14400,"station_id":"ce4bhap2rcd13ifvqek0","pricing_plan_id":"cebpf4jnsgd1na2vs0mg"},{"bike_id":"cf080df2-f376-4477-8763-c54b04d05b48","system_id":"levelo_inurba_marseille","lat":43.29265,"lon":5.38425,"is_reserved":false,"is_disabled":false,"rental_uris":{"android":"levelo://app?vid=cf080df2-f376-4477-8763-c54b04d05b48","ios":"levelo://app?vid=cf080df2-f376-4477-8763-c54b04d05b48"},"vehicle_type_id":"4","last_reported":1745334608,"current_range_meters":11200,"station_id":"ce4bh692rcd13ifvqea0","pricing_plan_id":"cebpf4jnsgd1na2vs0mg"},{"bike_id":"26f2198e-4139-4354-bd77-0a06e9b2eb50","system_id":"levelo_inurba_marseille","lat":43.28024,"lon":5.36944,"is_reserved":false,"is_disabled":false,"rental_uris":{"android":"levelo://app?vid=26f2198e-4139-4354-bd77-0a06e9b2eb50","ios":"levelo://app?vid=26f2198e-4139-4354-bd77-0a06e9b2eb50"},"vehicle_type_id":"4","last_reported":1745334608,"current_range_meters":11600,"station_id":"ce4bha12rcd13ifvqef0","pricing_plan_id":"cebpf4jnsgd1na2vs0mg"},{"bike_id":"485f299e-be84-492a-8275-dd0c30767e91","system_id":"levelo_inurba_marseille","lat":43.29885,"lon":5.38897,"is_reserved":false,"is_disabled":false,"rental_uris":{"android":"levelo://app?vid=485f299e-be84-492a-8275-dd0c30767e91","ios":"levelo://app?vid=485f299e-be84-492a-8275-dd0c30767e91"},"vehicle_type_id":"4","last_reported":1745334608,"current_range_meters":11600,"station_id":"ce4bh392rcd13ifvqdl0","pricing_plan_id":"cebpf4jnsgd1na2vs0mg"},{"bike_id":"6d5d88c9-d74f-4d0a-a8dd-20f9a4f36a17","system_id":"levelo_inurba_marseille","lat":43.300624,"lon":5.37425,"is_reserved":false,"is_disabled":false,"rental_uris":{"android":"levelo://app?vid=6d5d88c9-d74f-4d0a-a8dd-20f9a4f36a17","ios":"levelo://app?vid=6d5d88c9-d74f-4d0a-a8dd-20f9a4f36a17"},"vehicle_type_id":"4","last_reported":1745334608,"current_range_meters":11200,"station_id":"ce4bhi12rcd13ifvqfp0","pricing_plan_id":"cebpf4jnsgd1na2vs0mg"},{"bike_id":"f1300840-291d-4ece-a09c-172514b0678c","system_id":"levelo_inurba_marseille","lat":43.29454,"lon":5.39771,"is_reserved":false,"is_disabled":true,"rental_uris":{"android":"levelo://app?vid=f1300840-291d-4ece-a09c-172514b0678c","ios":"levelo://app?vid=f1300840-291d-4ece-a09c-172514b0678c"},"vehicle_type_id":"4","last_reported":1745334608,"current_range_meters":12000,"station_id":"ce4bh3h2rcd13ifvqdo0","pricing_plan_id":"cebpf4jnsgd1na2vs0mg"},{"bike_id":"80da3141-7c3b-46b6-aeb9-5227550bdb34","system_id":"levelo_inurba_marseille","lat":43.2955,"lon":5.38554,"is_reserved":false,"is_disabled":false,"rental_uris":{"android":"levelo://app?vid=80da3141-7c3b-46b6-aeb9-5227550bdb34","ios":"levelo://app?vid=80da3141-7c3b-46b6-aeb9-5227550bdb34"},"vehicle_type_id":"4","last_reported":1745334608,"current_range_meters":12000,"station_id":"ce4bgih2rcd13ifvqba0","pricing_plan_id":"cebpf4jnsgd1na2vs0mg"},{"bike_id":"47768a28-4fff-4fc1-b4c4-b5ec8d452deb","system_id":"levelo_inurba_marseille","lat":43.29606,"lon":5.3813,"is_reserved":false,"is_disabled":true,"rental_uris":{"android":"levelo://app?vid=47768a28-4fff-4fc1-b4c4-b5ec8d452deb","ios":"levelo://app?vid=47768a28-4fff-4fc1-b4c4-b5ec8d452deb"},"vehicle_type_id":"4","last_reported":1745334608,"current_range_meters":12000,"station_id":"ce4bgl12rcd13ifvqbo0","pricing_plan_id":"cebpf4jnsgd1na2vs0mg"},{"bike_id":"b5e43bae-827e-417d-9ed8-1188ad5208b6","system_id":"levelo_inurba_marseille","lat":43.292805,"lon":5.401108,"is_reserved":false,"is_disabled":false,"rental_uris":{"android":"levelo://app?vid=b5e43bae-827e-417d-9ed8-1188ad5208b6","ios":"levelo://app?vid=b5e43bae-827e-417d-9ed8-1188ad5208b6"},"vehicle_type_id":"4","last_reported":1745334608,"current_range_meters":12000,"station_id":"ce4bh312rcd13ifvqdk0","pricing_plan_id":"cebpf4jnsgd1na2vs0mg"},{"bike_id":"b7a2bb80-9176-481b-9e5a-4ebd2d0a2faa","system_id":"levelo_inurba_marseille","lat":43.29772,"lon":5.37109,"is_reserved":false,"is_disabled":false,"rental_uris":{"android":"levelo://app?vid=b7a2bb80-9176-481b-9e5a-4ebd2d0a2faa","ios":"levelo://app?vid=b7a2bb80-9176-481b-9e5a-4ebd2d0a2faa"},"vehicle_type_id":"4","last_reported":1745334608,"current_range_meters":14000,"station_id":"ce4bgop2rcd13ifvqc1g","pricing_plan_id":"cebpf4jnsgd1na2vs0mg"},{"bike_id":"cb8cbb47-fe09-45e2-b894-0dd07e4511b4","system_id":"levelo_inurba_marseille","lat":43.29628,"lon":5.40598,"is_reserved":false,"is_disabled":false,"rental_uris":{"android":"levelo://app?vid=cb8cbb47-fe09-45e2-b894-0dd07e4511b4","ios":"levelo://app?vid=cb8cbb47-fe09-45e2-b894-0dd07e4511b4"},"vehicle_type_id":"4","last_reported":1745334608,"current_range_meters":12000,"station_id":"ce4bh0h2rcd13ifvqd60","pricing_plan_id":"cebpf4jnsgd1na2vs0mg"},{"bike_id":"d3cc4382-1cdf-483f-b52a-3f792d083520","system_id":"levelo_inurba_marseille","lat":43.27999,"lon":5.40009,"is_reserved":false,"is_disabled":false,"rental_uris":{"android":"levelo://app?vid=d3cc4382-1cdf-483f-b52a-3f792d083520","ios":"levelo://app?vid=d3cc4382-1cdf-483f-b52a-3f792d083520"},"vehicle_type_id":"4","last_reported":1745334608,"current_range_meters":12400,"station_id":"ce4bho92rcd13ifvqh4g","pricing_plan_id":"cebpf4jnsgd1na2vs0mg"},{"bike_id":"41cd4d50-3bdd-4fa7-b5d1-d715f5a540e6","system_id":"levelo_inurba_marseille","lat":43.32361,"lon":5.36782,"is_reserved":false,"is_disabled":false,"rental_uris":{"android":"levelo://app?vid=41cd4d50-3bdd-4fa7-b5d1-d715f5a540e6","ios":"levelo://app?vid=41cd4d50-3bdd-4fa7-b5d1-d715f5a540e6"},"vehicle_type_id":"4","last_reported":1745334608,"current_range_meters":12400,"station_id":"ce4bhsh2rcd13ifvqi2g","pricing_plan_id":"cebpf4jnsgd1na2vs0mg"},{"bike_id":"f25d8672-7640-4033-8cc4-f80944c4dd44","system_id":"levelo_inurba_marseille","lat":43.2724,"lon":5.40116,"is_reserved":false,"is_disabled":false,"rental_uris":{"android":"levelo://app?vid=f25d8672-7640-4033-8cc4-f80944c4dd44","ios":"levelo://app?vid=f25d8672-7640-4033-8cc4-f80944c4dd44"},"vehicle_type_id":"4","last_reported":1745334608,"current_range_meters":12800,"station_id":"","pricing_plan_id":"cebpf4jnsgd1na2vs0mg"},{"bike_id":"ebca2e76-5cd6-4726-b3ed-15cf25353854","system_id":"levelo_inurba_marseille","lat":43.29538,"lon":5.3854,"is_reserved":false,"is_disabled":false,"rental_uris":{"android":"levelo://app?vid=ebca2e76-5cd6-4726-b3ed-15cf25353854","ios":"levelo://app?vid=ebca2e76-5cd6-4726-b3ed-15cf25353854"},"vehicle_type_id":"4","last_reported":1745334608,"current_range_meters":12800,"station_id":"ce4bgih2rcd13ifvqba0","pricing_plan_id":"cebpf4jnsgd1na2vs0mg"},{"bike_id":"a756bae3-49c1-4d6c-89e8-fcb7b0e7d2e2","system_id":"levelo_inurba_marseille","lat":43.290334,"lon":5.35923,"is_reserved":false,"is_disabled":true,"rental_uris":{"android":"levelo://app?vid=a756bae3-49c1-4d6c-89e8-fcb7b0e7d2e2","ios":"levelo://app?vid=a756bae3-49c1-4d6c-89e8-fcb7b0e7d2e2"},"vehicle_type_id":"4","last_reported":1745334608,"current_range_meters":12800,"station_id":"ce4bha92rcd13ifvqeg0","pricing_plan_id":"cebpf4jnsgd1na2vs0mg"},{"bike_id":"c09ef28f-521c-404d-8fb8-19cb20bfbc26","system_id":"levelo_inurba_marseille","lat":43.26824,"lon":5.40258,"is_reserved":false,"is_disabled":false,"rental_uris":{"android":"levelo://app?vid=c09ef28f-521c-404d-8fb8-19cb20bfbc26","ios":"levelo://app?vid=c09ef28f-521c-404d-8fb8-19cb20bfbc26"},"vehicle_type_id":"4","last_reported":1745334608,"current_range_meters":12800,"station_id":"ce501612rcd8frsf0b60","pricing_plan_id":"cebpf4jnsgd1na2vs0mg"},{"bike_id":"e9e21459-0141-43a3-9f99-2d720b6a2b30","system_id":"levelo_inurba_marseille","lat":43.28612,"lon":5.35101,"is_reserved":false,"is_disabled":false,"rental_uris":{"android":"levelo://app?vid=e9e21459-0141-43a3-9f99-2d720b6a2b30","ios":"levelo://app?vid=e9e21459-0141-43a3-9f99-2d720b6a2b30"},"vehicle_type_id":"4","last_reported":1745334608,"current_range_meters":12800,"station_id":"ce4bhch2rcd13ifvqeug","pricing_plan_id":"cebpf4jnsgd1na2vs0mg"},{"bike_id":"291eb979-a3c6-43a7-aae5-f1765b7c2419","system_id":"levelo_inurba_marseille","lat":43.28978,"lon":5.37849,"is_reserved":false,"is_disabled":false,"rental_uris":{"android":"levelo://app?vid=291eb979-a3c6-43a7-aae5-f1765b7c2419","ios":"levelo://app?vid=291eb979-a3c6-43a7-aae5-f1765b7c2419"},"vehicle_type_id":"4","last_reported":1745334608,"current_range_meters":12800,"station_id":"ce4bh9p2rcd13ifvqed0","pricing_plan_id":"cebpf4jnsgd1na2vs0mg"},{"bike_id":"a9e1173d-9b0f-4931-90eb-48e236c2cc5d","system_id":"levelo_inurba_marseille","lat":43.26979,"lon":5.39781,"is_reserved":false,"is_disabled":false,"rental_uris":{"android":"levelo://app?vid=a9e1173d-9b0f-4931-90eb-48e236c2cc5d","ios":"levelo://app?vid=a9e1173d-9b0f-4931-90eb-48e236c2cc5d"},"vehicle_type_id":"4","last_reported":1745334608,"current_range_meters":13600,"station_id":"","pricing_plan_id":"cebpf4jnsgd1na2vs0mg"},{"bike_id":"f462c3cf-a1f2-40b4-9ef3-016452d75cec","system_id":"levelo_inurba_marseille","lat":43.23052,"lon":5.35481,"is_reserved":false,"is_disabled":false,"rental_uris":{"android":"levelo://app?vid=f462c3cf-a1f2-40b4-9ef3-016452d75cec","ios":"levelo://app?vid=f462c3cf-a1f2-40b4-9ef3-016452d75cec"},"vehicle_type_id":"4","last_reported":1745334608,"current_range_meters":13600,"station_id":"cpo3342slgdg3j2ifvpg","pricing_plan_id":"cebpf4jnsgd1na2vs0mg"},{"bike_id":"d5fa6a7e-ae6f-48cd-8dc8-6ec1473fc099","system_id":"levelo_inurba_marseille","lat":43.31371,"lon":5.367208,"is_reserved":false,"is_disabled":true,"rental_uris":{"android":"levelo://app?vid=d5fa6a7e-ae6f-48cd-8dc8-6ec1473fc099","ios":"levelo://app?vid=d5fa6a7e-ae6f-48cd-8dc8-6ec1473fc099"},"vehicle_type_id":"4","last_reported":1745334608,"current_range_meters":13600,"station_id":"ce4bgr92rcd13ifvqc6g","pricing_plan_id":"cebpf4jnsgd1na2vs0mg"},{"bike_id":"119baff1-2f47-4312-b8f4-415e7a94b329","system_id":"levelo_inurba_marseille","lat":43.29076,"lon":5.37169,"is_reserved":false,"is_disabled":false,"rental_uris":{"android":"levelo://app?vid=119baff1-2f47-4312-b8f4-415e7a94b329","ios":"levelo://app?vid=119baff1-2f47-4312-b8f4-415e7a94b329"},"vehicle_type_id":"4","last_reported":1745334608,"current_range_meters":14400,"station_id":"ce4bh5p2rcd13ifvqe4g","pricing_plan_id":"cebpf4jnsgd1na2vs0mg"},{"bike_id":"b91cc9c8-7aac-4578-9093-48d6cb0cc6ca","system_id":"levelo_inurba_marseille","lat":43.29049,"lon":5.35913,"is_reserved":false,"is_disabled":false,"rental_uris":{"android":"levelo://app?vid=b91cc9c8-7aac-4578-9093-48d6cb0cc6ca","ios":"levelo://app?vid=b91cc9c8-7aac-4578-9093-48d6cb0cc6ca"},"vehicle_type_id":"4","last_reported":1745334608,"current_range_meters":14000,"station_id":"ce4bha92rcd13ifvqeg0","pricing_plan_id":"cebpf4jnsgd1na2vs0mg"},{"bike_id":"afc1a72d-f3cd-4039-8f8e-8907957e6ee0","system_id":"levelo_inurba_marseille","lat":43.28375,"lon":5.37508,"is_reserved":false,"is_disabled":false,"rental_uris":{"android":"levelo://app?vid=afc1a72d-f3cd-4039-8f8e-8907957e6ee0","ios":"levelo://app?vid=afc1a72d-f3cd-4039-8f8e-8907957e6ee0"},"vehicle_type_id":"4","last_reported":1745334608,"current_range_meters":14800,"station_id":"ce4bh412rcd13ifvqds0","pricing_plan_id":"cebpf4jnsgd1na2vs0mg"},{"bike_id":"e1436ef6-a69b-4e75-95ae-69476f4fb599","system_id":"levelo_inurba_marseille","lat":43.30799,"lon":5.38149,"is_reserved":false,"is_disabled":false,"rental_uris":{"android":"levelo://app?vid=e1436ef6-a69b-4e75-95ae-69476f4fb599","ios":"levelo://app?vid=e1436ef6-a69b-4e75-95ae-69476f4fb599"},"vehicle_type_id":"4","last_reported":1745334608,"current_range_meters":14800,"station_id":"ce4bgt12rcd13ifvqce0","pricing_plan_id":"cebpf4jnsgd1na2vs0mg"},{"bike_id":"93d05eed-9554-4832-a279-f60849a9085a","system_id":"levelo_inurba_marseille","lat":43.30135,"lon":5.38765,"is_reserved":false,"is_disabled":false,"rental_uris":{"android":"levelo://app?vid=93d05eed-9554-4832-a279-f60849a9085a","ios":"levelo://app?vid=93d05eed-9554-4832-a279-f60849a9085a"},"vehicle_type_id":"4","last_reported":1745334608,"current_range_meters":14800,"station_id":"ce4bghh2rcd13ifvqb60","pricing_plan_id":"cebpf4jnsgd1na2vs0mg"},{"bike_id":"41f1c446-b69d-4674-9c8d-274f079b1174","system_id":"levelo_inurba_marseille","lat":43.26792,"lon":5.39411,"is_reserved":false,"is_disabled":false,"rental_uris":{"android":"levelo://app?vid=41f1c446-b69d-4674-9c8d-274f079b1174","ios":"levelo://app?vid=41f1c446-b69d-4674-9c8d-274f079b1174"},"vehicle_type_id":"4","last_reported":1745334608,"current_range_meters":14400,"station_id":"ce4bhh12rcd13ifvqfg0","pricing_plan_id":"cebpf4jnsgd1na2vs0mg"},{"bike_id":"4522e939-7323-4850-a0b7-a2ec0da92228","system_id":"levelo_inurba_marseille","lat":43.2987,"lon":5.39722,"is_reserved":false,"is_disabled":false,"rental_uris":{"android":"levelo://app?vid=4522e939-7323-4850-a0b7-a2ec0da92228","ios":"levelo://app?vid=4522e939-7323-4850-a0b7-a2ec0da92228"},"vehicle_type_id":"4","last_reported":1745334608,"current_range_meters":16000,"station_id":"ce4bh0h2rcd13ifvqd50","pricing_plan_id":"cebpf4jnsgd1na2vs0mg"},{"bike_id":"5750e178-4bba-4510-9b2d-029948e4ddeb","system_id":"levelo_inurba_marseille","lat":43.28267,"lon":5.351,"is_reserved":false,"is_disabled":false,"rental_uris":{"android":"levelo://app?vid=5750e178-4bba-4510-9b2d-029948e4ddeb","ios":"levelo://app?vid=5750e178-4bba-4510-9b2d-029948e4ddeb"},"vehicle_type_id":"4","last_reported":1745334608,"current_range_meters":15200,"station_id":"ce4bhbp2rcd13ifvqerg","pricing_plan_id":"cebpf4jnsgd1na2vs0mg"},{"bike_id":"d40dc277-486b-4703-a9c1-cc44744501bf","system_id":"levelo_inurba_marseille","lat":43.29267,"lon":5.40909,"is_reserved":false,"is_disabled":false,"rental_uris":{"android":"levelo://app?vid=d40dc277-486b-4703-a9c1-cc44744501bf","ios":"levelo://app?vid=d40dc277-486b-4703-a9c1-cc44744501bf"},"vehicle_type_id":"4","last_reported":1745334608,"current_range_meters":16000,"station_id":"ce4bh192rcd13ifvqdc0","pricing_plan_id":"cebpf4jnsgd1na2vs0mg"},{"bike_id":"51066d16-12eb-481c-8aed-d5bf284340aa","system_id":"levelo_inurba_marseille","lat":43.29836,"lon":5.36272,"is_reserved":false,"is_disabled":false,"rental_uris":{"android":"levelo://app?vid=51066d16-12eb-481c-8aed-d5bf284340aa","ios":"levelo://app?vid=51066d16-12eb-481c-8aed-d5bf284340aa"},"vehicle_type_id":"4","last_reported":1745334608,"current_range_meters":16000,"station_id":"ce4bgpp2rcd13ifvqc3g","pricing_plan_id":"cebpf4jnsgd1na2vs0mg"},{"bike_id":"32e46876-2d27-4707-9030-d2829d4c112b","system_id":"levelo_inurba_marseille","lat":43.28671,"lon":5.36346,"is_reserved":false,"is_disabled":false,"rental_uris":{"android":"levelo://app?vid=32e46876-2d27-4707-9030-d2829d4c112b","ios":"levelo://app?vid=32e46876-2d27-4707-9030-d2829d4c112b"},"vehicle_type_id":"4","last_reported":1745334608,"current_range_meters":16000,"station_id":"ce4bhah2rcd13ifvqej0","pricing_plan_id":"cebpf4jnsgd1na2vs0mg"},{"bike_id":"48939965-4329-495f-a3f1-b5cf562d2ecf","system_id":"levelo_inurba_marseille","lat":43.30685,"lon":5.40099,"is_reserved":false,"is_disabled":true,"rental_uris":{"android":"levelo://app?vid=48939965-4329-495f-a3f1-b5cf562d2ecf","ios":"levelo://app?vid=48939965-4329-495f-a3f1-b5cf562d2ecf"},"vehicle_type_id":"4","last_reported":1745334608,"current_range_meters":16000,"station_id":"ce4bh112rcd13ifvqda0","pricing_plan_id":"cebpf4jnsgd1na2vs0mg"},{"bike_id":"bfae20da-3f72-4ccb-98fb-8aabd3108edc","system_id":"levelo_inurba_marseille","lat":43.32481,"lon":5.36565,"is_reserved":false,"is_disabled":false,"rental_uris":{"android":"levelo://app?vid=bfae20da-3f72-4ccb-98fb-8aabd3108edc","ios":"levelo://app?vid=bfae20da-3f72-4ccb-98fb-8aabd3108edc"},"vehicle_type_id":"4","last_reported":1745334608,"current_range_meters":16400,"station_id":"ce4bhs12rcd13ifvqhvg","pricing_plan_id":"cebpf4jnsgd1na2vs0mg"},{"bike_id":"1a2a1565-492f-4f76-b587-7b3248b4ab68","system_id":"levelo_inurba_marseille","lat":43.31333,"lon":5.39689,"is_reserved":false,"is_disabled":false,"rental_uris":{"android":"levelo://app?vid=1a2a1565-492f-4f76-b587-7b3248b4ab68","ios":"levelo://app?vid=1a2a1565-492f-4f76-b587-7b3248b4ab68"},"vehicle_type_id":"4","last_reported":1745334608,"current_range_meters":16400,"station_id":"ce4bgvp2rcd13ifvqcu0","pricing_plan_id":"cebpf4jnsgd1na2vs0mg"},{"bike_id":"615c6418-249d-4b89-9b9d-4239ab73dfbf","system_id":"levelo_inurba_marseille","lat":43.25877,"lon":5.39912,"is_reserved":false,"is_disabled":false,"rental_uris":{"android":"levelo://app?vid=615c6418-249d-4b89-9b9d-4239ab73dfbf","ios":"levelo://app?vid=615c6418-249d-4b89-9b9d-4239ab73dfbf"},"vehicle_type_id":"4","last_reported":1745334608,"current_range_meters":16400,"station_id":"ce4bhl92rcd13ifvqghg","pricing_plan_id":"cebpf4jnsgd1na2vs0mg"},{"bike_id":"abd226a8-d003-4133-b9d2-b7c952b7ead1","system_id":"levelo_inurba_marseille","lat":43.23077,"lon":5.35489,"is_reserved":false,"is_disabled":false,"rental_uris":{"android":"levelo://app?vid=abd226a8-d003-4133-b9d2-b7c952b7ead1","ios":"levelo://app?vid=abd226a8-d003-4133-b9d2-b7c952b7ead1"},"vehicle_type_id":"4","last_reported":1745334608,"current_range_meters":16800,"station_id":"cpo3342slgdg3j2ifvpg","pricing_plan_id":"cebpf4jnsgd1na2vs0mg"},{"bike_id":"4058f62d-ca8f-492f-8fca-74ec3189f044","system_id":"levelo_inurba_marseille","lat":43.299696,"lon":5.397447,"is_reserved":false,"is_disabled":false,"rental_uris":{"android":"levelo://app?vid=4058f62d-ca8f-492f-8fca-74ec3189f044","ios":"levelo://app?vid=4058f62d-ca8f-492f-8fca-74ec3189f044"},"vehicle_type_id":"4","last_reported":1745334608,"current_range_meters":17200,"station_id":"ce4bh0h2rcd13ifvqd50","pricing_plan_id":"cebpf4jnsgd1na2vs0mg"},{"bike_id":"98176d01-c4bf-4fdf-83d6-6aa3ea2e2a6a","system_id":"levelo_inurba_marseille","lat":43.314538,"lon":5.370493,"is_reserved":false,"is_disabled":false,"rental_uris":{"android":"levelo://app?vid=98176d01-c4bf-4fdf-83d6-6aa3ea2e2a6a","ios":"levelo://app?vid=98176d01-c4bf-4fdf-83d6-6aa3ea2e2a6a"},"vehicle_type_id":"4","last_reported":1745334608,"current_range_meters":17200,"station_id":"","pricing_plan_id":"cebpf4jnsgd1na2vs0mg"},{"bike_id":"1b903b38-38de-4714-9a2c-59836acfa168","system_id":"levelo_inurba_marseille","lat":43.31721,"lon":5.43711,"is_reserved":false,"is_disabled":true,"rental_uris":{"android":"levelo://app?vid=1b903b38-38de-4714-9a2c-59836acfa168","ios":"levelo://app?vid=1b903b38-38de-4714-9a2c-59836acfa168"},"vehicle_type_id":"4","last_reported":1745334608,"current_range_meters":17200,"station_id":"ce4bhp92rcd13ifvqhcg","pricing_plan_id":"cebpf4jnsgd1na2vs0mg"},{"bike_id":"d21fe18b-ea8a-4fd8-84ce-c435e6bae102","system_id":"levelo_inurba_marseille","lat":43.29021,"lon":5.38133,"is_reserved":false,"is_disabled":false,"rental_uris":{"android":"levelo://app?vid=d21fe18b-ea8a-4fd8-84ce-c435e6bae102","ios":"levelo://app?vid=d21fe18b-ea8a-4fd8-84ce-c435e6bae102"},"vehicle_type_id":"4","last_reported":1745334608,"current_range_meters":17600,"station_id":"ce4bh4p2rcd13ifvqe1g","pricing_plan_id":"cebpf4jnsgd1na2vs0mg"},{"bike_id":"9f1e349e-7f44-420f-95ec-c319dae210f6","system_id":"levelo_inurba_marseille","lat":43.292113,"lon":5.383859,"is_reserved":false,"is_disabled":true,"rental_uris":{"android":"levelo://app?vid=9f1e349e-7f44-420f-95ec-c319dae210f6","ios":"levelo://app?vid=9f1e349e-7f44-420f-95ec-c319dae210f6"},"vehicle_type_id":"4","last_reported":1745334608,"current_range_meters":17600,"station_id":"","pricing_plan_id":"cebpf4jnsgd1na2vs0mg"},{"bike_id":"6a0c0371-04bc-4447-a7ad-b25900f5657d","system_id":"levelo_inurba_marseille","lat":43.29286,"lon":5.40113,"is_reserved":false,"is_disabled":false,"rental_uris":{"android":"levelo://app?vid=6a0c0371-04bc-4447-a7ad-b25900f5657d","ios":"levelo://app?vid=6a0c0371-04bc-4447-a7ad-b25900f5657d"},"vehicle_type_id":"4","last_reported":1745334608,"current_range_meters":17600,"station_id":"ce4bh312rcd13ifvqdk0","pricing_plan_id":"cebpf4jnsgd1na2vs0mg"},{"bike_id":"cb15f50a-d5cb-4017-b40b-b28b66eacf43","system_id":"levelo_inurba_marseille","lat":43.31223,"lon":5.36868,"is_reserved":false,"is_disabled":false,"rental_uris":{"android":"levelo://app?vid=cb15f50a-d5cb-4017-b40b-b28b66eacf43","ios":"levelo://app?vid=cb15f50a-d5cb-4017-b40b-b28b66eacf43"},"vehicle_type_id":"4","last_reported":1745334608,"current_range_meters":17600,"station_id":"ce4bgl92rcd13ifvqbq0","pricing_plan_id":"cebpf4jnsgd1na2vs0mg"},{"bike_id":"2b4c99a8-9f0e-4e8d-bf39-2ace93ff3d9d","system_id":"levelo_inurba_marseille","lat":43.229286,"lon":5.353736,"is_reserved":false,"is_disabled":true,"rental_uris":{"android":"levelo://app?vid=2b4c99a8-9f0e-4e8d-bf39-2ace93ff3d9d","ios":"levelo://app?vid=2b4c99a8-9f0e-4e8d-bf39-2ace93ff3d9d"},"vehicle_type_id":"4","last_reported":1745334608,"current_range_meters":17600,"station_id":"cpo3532slgdg3j2ikp40","pricing_plan_id":"cebpf4jnsgd1na2vs0mg"},{"bike_id":"d7f9cc80-86e1-469b-bbbf-3a43d30f7ac3","system_id":"levelo_inurba_marseille","lat":43.27375,"lon":5.36253,"is_reserved":false,"is_disabled":false,"rental_uris":{"android":"levelo://app?vid=d7f9cc80-86e1-469b-bbbf-3a43d30f7ac3","ios":"levelo://app?vid=d7f9cc80-86e1-469b-bbbf-3a43d30f7ac3"},"vehicle_type_id":"4","last_reported":1745334608,"current_range_meters":17600,"station_id":"ce4bhbh2rcd13ifvqeo0","pricing_plan_id":"cebpf4jnsgd1na2vs0mg"},{"bike_id":"d02126a4-83cb-4a73-9d32-cc321e1f83fb","system_id":"levelo_inurba_marseille","lat":43.29041,"lon":5.37575,"is_reserved":false,"is_disabled":false,"rental_uris":{"android":"levelo://app?vid=d02126a4-83cb-4a73-9d32-cc321e1f83fb","ios":"levelo://app?vid=d02126a4-83cb-4a73-9d32-cc321e1f83fb"},"vehicle_type_id":"4","last_reported":1745334608,"current_range_meters":17600,"station_id":"ce4bh692rcd13ifvqe90","pricing_plan_id":"cebpf4jnsgd1na2vs0mg"},{"bike_id":"2958702b-6f60-4c23-88d4-37649b2b931b","system_id":"levelo_inurba_marseille","lat":43.29884,"lon":5.3973,"is_reserved":false,"is_disabled":false,"rental_uris":{"android":"levelo://app?vid=2958702b-6f60-4c23-88d4-37649b2b931b","ios":"levelo://app?vid=2958702b-6f60-4c23-88d4-37649b2b931b"},"vehicle_type_id":"4","last_reported":1745334608,"current_range_meters":18000,"station_id":"ce4bh0h2rcd13ifvqd50","pricing_plan_id":"cebpf4jnsgd1na2vs0mg"},{"bike_id":"6621aba9-34af-42b8-a6bb-29d0168b1c54","system_id":"levelo_inurba_marseille","lat":43.30418,"lon":5.41315,"is_reserved":false,"is_disabled":false,"rental_uris":{"android":"levelo://app?vid=6621aba9-34af-42b8-a6bb-29d0168b1c54","ios":"levelo://app?vid=6621aba9-34af-42b8-a6bb-29d0168b1c54"},"vehicle_type_id":"4","last_reported":1745334608,"current_range_meters":18000,"station_id":"ce4bhop2rcd13ifvqh8g","pricing_plan_id":"cebpf4jnsgd1na2vs0mg"},{"bike_id":"c4b91016-9d5c-40db-9331-7cbb88f248f3","system_id":"levelo_inurba_marseille","lat":43.28852,"lon":5.3932,"is_reserved":false,"is_disabled":false,"rental_uris":{"android":"levelo://app?vid=c4b91016-9d5c-40db-9331-7cbb88f248f3","ios":"levelo://app?vid=c4b91016-9d5c-40db-9331-7cbb88f248f3"},"vehicle_type_id":"4","last_reported":1745334608,"current_range_meters":18000,"station_id":"ce4bh2p2rcd13ifvqdi0","pricing_plan_id":"cebpf4jnsgd1na2vs0mg"},{"bike_id":"94656c64-8db1-475d-872f-6dab9b0b963f","system_id":"levelo_inurba_marseille","lat":43.29028,"lon":5.38641,"is_reserved":false,"is_disabled":false,"rental_uris":{"android":"levelo://app?vid=94656c64-8db1-475d-872f-6dab9b0b963f","ios":"levelo://app?vid=94656c64-8db1-475d-872f-6dab9b0b963f"},"vehicle_type_id":"4","last_reported":1745334608,"current_range_meters":18000,"station_id":"ce4bh4p2rcd13ifvqe0g","pricing_plan_id":"cebpf4jnsgd1na2vs0mg"},{"bike_id":"a7362b2e-3843-43ff-9db7-546d158c83e2","system_id":"levelo_inurba_marseille","lat":43.28947,"lon":5.36403,"is_reserved":false,"is_disabled":false,"rental_uris":{"android":"levelo://app?vid=a7362b2e-3843-43ff-9db7-546d158c83e2","ios":"levelo://app?vid=a7362b2e-3843-43ff-9db7-546d158c83e2"},"vehicle_type_id":"4","last_reported":1745334608,"current_range_meters":18000,"station_id":"ce4bhc92rcd13ifvqetg","pricing_plan_id":"cebpf4jnsgd1na2vs0mg"},{"bike_id":"817d4e4e-7975-4537-b616-c0d73aadc874","system_id":"levelo_inurba_marseille","lat":43.30122,"lon":5.39873,"is_reserved":false,"is_disabled":false,"rental_uris":{"android":"levelo://app?vid=817d4e4e-7975-4537-b616-c0d73aadc874","ios":"levelo://app?vid=817d4e4e-7975-4537-b616-c0d73aadc874"},"vehicle_type_id":"4","last_reported":1745334608,"current_range_meters":18800,"station_id":"ce4bh0h2rcd13ifvqd40","pricing_plan_id":"cebpf4jnsgd1na2vs0mg"},{"bike_id":"427f805e-cfba-4025-b510-ca1d8419f957","system_id":"levelo_inurba_marseille","lat":43.31487,"lon":5.37311,"is_reserved":false,"is_disabled":false,"rental_uris":{"android":"levelo://app?vid=427f805e-cfba-4025-b510-ca1d8419f957","ios":"levelo://app?vid=427f805e-cfba-4025-b510-ca1d8419f957"},"vehicle_type_id":"4","last_reported":1745334608,"current_range_meters":18800,"station_id":"ce4bgt12rcd13ifvqcd0","pricing_plan_id":"cebpf4jnsgd1na2vs0mg"},{"bike_id":"a1835b16-9e05-4b53-baf5-10eeb04320bb","system_id":"levelo_inurba_marseille","lat":43.28708,"lon":5.37423,"is_reserved":false,"is_disabled":true,"rental_uris":{"android":"levelo://app?vid=a1835b16-9e05-4b53-baf5-10eeb04320bb","ios":"levelo://app?vid=a1835b16-9e05-4b53-baf5-10eeb04320bb"},"vehicle_type_id":"4","last_reported":1745334608,"current_range_meters":18800,"station_id":"ce4bh3p2rcd13ifvqdq0","pricing_plan_id":"cebpf4jnsgd1na2vs0mg"},{"bike_id":"a8c52742-964f-4337-97e9-927824e67145","system_id":"levelo_inurba_marseille","lat":43.29273,"lon":5.36837,"is_reserved":false,"is_disabled":false,"rental_uris":{"android":"levelo://app?vid=a8c52742-964f-4337-97e9-927824e67145","ios":"levelo://app?vid=a8c52742-964f-4337-97e9-927824e67145"},"vehicle_type_id":"4","last_reported":1745334608,"current_range_meters":18800,"station_id":"ce4bhbp2rcd13ifvqesg","pricing_plan_id":"cebpf4jnsgd1na2vs0mg"},{"bike_id":"16b7047c-7c16-4b16-9206-4e4a152b20c8","system_id":"levelo_inurba_marseille","lat":43.30546,"lon":5.36524,"is_reserved":false,"is_disabled":false,"rental_uris":{"android":"levelo://app?vid=16b7047c-7c16-4b16-9206-4e4a152b20c8","ios":"levelo://app?vid=16b7047c-7c16-4b16-9206-4e4a152b20c8"},"vehicle_type_id":"4","last_reported":1745334608,"current_range_meters":18800,"station_id":"ce4bgs12rcd13ifvqcag","pricing_plan_id":"cebpf4jnsgd1na2vs0mg"},{"bike_id":"84cc6382-570a-48e1-95cf-2056bb88a115","system_id":"levelo_inurba_marseille","lat":43.32764,"lon":5.39212,"is_reserved":false,"is_disabled":false,"rental_uris":{"android":"levelo://app?vid=84cc6382-570a-48e1-95cf-2056bb88a115","ios":"levelo://app?vid=84cc6382-570a-48e1-95cf-2056bb88a115"},"vehicle_type_id":"4","last_reported":1745334608,"current_range_meters":18800,"station_id":"","pricing_plan_id":"cebpf4jnsgd1na2vs0mg"},{"bike_id":"3d142727-6d42-44ff-bc99-484a4da2e841","system_id":"levelo_inurba_marseille","lat":43.28461,"lon":5.35897,"is_reserved":false,"is_disabled":false,"rental_uris":{"android":"levelo://app?vid=3d142727-6d42-44ff-bc99-484a4da2e841","ios":"levelo://app?vid=3d142727-6d42-44ff-bc99-484a4da2e841"},"vehicle_type_id":"4","last_reported":1745334608,"current_range_meters":19200,"station_id":"ce4bhah2rcd13ifvqei0","pricing_plan_id":"cebpf4jnsgd1na2vs0mg"},{"bike_id":"0fac1bca-4cc6-4bf5-872f-725fb4655e4f","system_id":"levelo_inurba_marseille","lat":43.290303,"lon":5.386526,"is_reserved":false,"is_disabled":false,"rental_uris":{"android":"levelo://app?vid=0fac1bca-4cc6-4bf5-872f-725fb4655e4f","ios":"levelo://app?vid=0fac1bca-4cc6-4bf5-872f-725fb4655e4f"},"vehicle_type_id":"4","last_reported":1745334608,"current_range_meters":19200,"station_id":"ce4bh4p2rcd13ifvqe0g","pricing_plan_id":"cebpf4jnsgd1na2vs0mg"},{"bike_id":"8ebe2af7-875b-44e1-abc4-943ad4d92633","system_id":"levelo_inurba_marseille","lat":43.29413,"lon":5.3862,"is_reserved":false,"is_disabled":false,"rental_uris":{"android":"levelo://app?vid=8ebe2af7-875b-44e1-abc4-943ad4d92633","ios":"levelo://app?vid=8ebe2af7-875b-44e1-abc4-943ad4d92633"},"vehicle_type_id":"4","last_reported":1745334608,"current_range_meters":19200,"station_id":"ce4bh2h2rcd13ifvqdh0","pricing_plan_id":"cebpf4jnsgd1na2vs0mg"},{"bike_id":"7b2dc864-a4e9-468c-9cee-f3075a20977d","system_id":"levelo_inurba_marseille","lat":43.31438,"lon":5.374,"is_reserved":false,"is_disabled":false,"rental_uris":{"android":"levelo://app?vid=7b2dc864-a4e9-468c-9cee-f3075a20977d","ios":"levelo://app?vid=7b2dc864-a4e9-468c-9cee-f3075a20977d"},"vehicle_type_id":"4","last_reported":1745334608,"current_range_meters":19200,"station_id":"","pricing_plan_id":"cebpf4jnsgd1na2vs0mg"},{"bike_id":"5292f775-aa53-42a8-a3e0-c63e6f16af9d","system_id":"levelo_inurba_marseille","lat":43.31493,"lon":5.37309,"is_reserved":false,"is_disabled":false,"rental_uris":{"android":"levelo://app?vid=5292f775-aa53-42a8-a3e0-c63e6f16af9d","ios":"levelo://app?vid=5292f775-aa53-42a8-a3e0-c63e6f16af9d"},"vehicle_type_id":"4","last_reported":1745334608,"current_range_meters":19200,"station_id":"ce4bgt12rcd13ifvqcd0","pricing_plan_id":"cebpf4jnsgd1na2vs0mg"},{"bike_id":"0529d891-2d9b-4d93-af79-27336fdd5c7e","system_id":"levelo_inurba_marseille","lat":43.28044,"lon":5.36943,"is_reserved":false,"is_disabled":false,"rental_uris":{"android":"levelo://app?vid=0529d891-2d9b-4d93-af79-27336fdd5c7e","ios":"levelo://app?vid=0529d891-2d9b-4d93-af79-27336fdd5c7e"},"vehicle_type_id":"4","last_reported":1745334608,"current_range_meters":19200,"station_id":"ce4bha12rcd13ifvqef0","pricing_plan_id":"cebpf4jnsgd1na2vs0mg"},{"bike_id":"d92757af-5572-4106-825e-10571376b579","system_id":"levelo_inurba_marseille","lat":43.29209,"lon":5.39337,"is_reserved":false,"is_disabled":false,"rental_uris":{"android":"levelo://app?vid=d92757af-5572-4106-825e-10571376b579","ios":"levelo://app?vid=d92757af-5572-4106-825e-10571376b579"},"vehicle_type_id":"4","last_reported":1745334608,"current_range_meters":19200,"station_id":"ce4bh192rcd13ifvqdd0","pricing_plan_id":"cebpf4jnsgd1na2vs0mg"},{"bike_id":"c2abeb24-ab4e-4c06-bcf7-b55ba328069f","system_id":"levelo_inurba_marseille","lat":43.31328,"lon":5.3968,"is_reserved":false,"is_disabled":false,"rental_uris":{"android":"levelo://app?vid=c2abeb24-ab4e-4c06-bcf7-b55ba328069f","ios":"levelo://app?vid=c2abeb24-ab4e-4c06-bcf7-b55ba328069f"},"vehicle_type_id":"4","last_reported":1745334608,"current_range_meters":19200,"station_id":"ce4bgvp2rcd13ifvqcu0","pricing_plan_id":"cebpf4jnsgd1na2vs0mg"},{"bike_id":"83086e1e-95e4-42c8-bcb3-9d0b61d089c2","system_id":"levelo_inurba_marseille","lat":43.28421,"lon":5.34977,"is_reserved":false,"is_disabled":false,"rental_uris":{"android":"levelo://app?vid=83086e1e-95e4-42c8-bcb3-9d0b61d089c2","ios":"levelo://app?vid=83086e1e-95e4-42c8-bcb3-9d0b61d089c2"},"vehicle_type_id":"4","last_reported":1745334608,"current_range_meters":19600,"station_id":"ce4bhbh2rcd13ifvqepg","pricing_plan_id":"cebpf4jnsgd1na2vs0mg"},{"bike_id":"f8256035-7782-40a7-bb67-06d68e218280","system_id":"levelo_inurba_marseille","lat":43.32289,"lon":5.38264,"is_reserved":false,"is_disabled":false,"rental_uris":{"android":"levelo://app?vid=f8256035-7782-40a7-bb67-06d68e218280","ios":"levelo://app?vid=f8256035-7782-40a7-bb67-06d68e218280"},"vehicle_type_id":"4","last_reported":1745334608,"current_range_meters":19600,"station_id":"ce4bhr12rcd13ifvqhqg","pricing_plan_id":"cebpf4jnsgd1na2vs0mg"},{"bike_id":"66d1f9d0-f5dd-4dde-ae2e-a847b01db9a9","system_id":"levelo_inurba_marseille","lat":43.28857,"lon":5.35843,"is_reserved":false,"is_disabled":false,"rental_uris":{"android":"levelo://app?vid=66d1f9d0-f5dd-4dde-ae2e-a847b01db9a9","ios":"levelo://app?vid=66d1f9d0-f5dd-4dde-ae2e-a847b01db9a9"},"vehicle_type_id":"4","last_reported":1745334608,"current_range_meters":19600,"station_id":"ce4bhb12rcd13ifvqem0","pricing_plan_id":"cebpf4jnsgd1na2vs0mg"},{"bike_id":"20ede925-27e6-407f-8bf5-4c244f8341b4","system_id":"levelo_inurba_marseille","lat":43.2417,"lon":5.36403,"is_reserved":false,"is_disabled":false,"rental_uris":{"android":"levelo://app?vid=20ede925-27e6-407f-8bf5-4c244f8341b4","ios":"levelo://app?vid=20ede925-27e6-407f-8bf5-4c244f8341b4"},"vehicle_type_id":"4","last_reported":1745334608,"current_range_meters":20000,"station_id":"cpo36qri1sfpv3e86is0","pricing_plan_id":"cebpf4jnsgd1na2vs0mg"},{"bike_id":"b5d609bf-0c9b-49e3-9426-ce02cb8383b8","system_id":"levelo_inurba_marseille","lat":43.34182,"lon":5.40887,"is_reserved":false,"is_disabled":true,"rental_uris":{"android":"levelo://app?vid=b5d609bf-0c9b-49e3-9426-ce02cb8383b8","ios":"levelo://app?vid=b5d609bf-0c9b-49e3-9426-ce02cb8383b8"},"vehicle_type_id":"4","last_reported":1745334608,"current_range_meters":20000,"station_id":"ce4bhqh2rcd13ifvqhlg","pricing_plan_id":"cebpf4jnsgd1na2vs0mg"},{"bike_id":"f8a38066-80a3-409d-802d-93aa33004545","system_id":"levelo_inurba_marseille","lat":43.28724,"lon":5.36086,"is_reserved":false,"is_disabled":false,"rental_uris":{"android":"levelo://app?vid=f8a38066-80a3-409d-802d-93aa33004545","ios":"levelo://app?vid=f8a38066-80a3-409d-802d-93aa33004545"},"vehicle_type_id":"4","last_reported":1745334608,"current_range_meters":20000,"station_id":"cki0cbj6b192h4jlfktg","pricing_plan_id":"cebpf4jnsgd1na2vs0mg"},{"bike_id":"72bfa4d1-548b-4c87-9dbd-daec2dd481aa","system_id":"levelo_inurba_marseille","lat":43.27057,"lon":5.40256,"is_reserved":false,"is_disabled":false,"rental_uris":{"android":"levelo://app?vid=72bfa4d1-548b-4c87-9dbd-daec2dd481aa","ios":"levelo://app?vid=72bfa4d1-548b-4c87-9dbd-daec2dd481aa"},"vehicle_type_id":"4","last_reported":1745334608,"current_range_meters":20000,"station_id":"ce4bhk92rcd13ifvqgc0","pricing_plan_id":"cebpf4jnsgd1na2vs0mg"},{"bike_id":"4d8199fc-5474-4b4c-bbf3-fe018e008eb8","system_id":"levelo_inurba_marseille","lat":43.31327,"lon":5.3969,"is_reserved":false,"is_disabled":false,"rental_uris":{"android":"levelo://app?vid=4d8199fc-5474-4b4c-bbf3-fe018e008eb8","ios":"levelo://app?vid=4d8199fc-5474-4b4c-bbf3-fe018e008eb8"},"vehicle_type_id":"4","last_reported":1745334608,"current_range_meters":19600,"station_id":"ce4bgvp2rcd13ifvqcu0","pricing_plan_id":"cebpf4jnsgd1na2vs0mg"},{"bike_id":"46374c49-3adc-4c5a-8966-e00f056c0d57","system_id":"levelo_inurba_marseille","lat":43.27846,"lon":5.35442,"is_reserved":false,"is_disabled":false,"rental_uris":{"android":"levelo://app?vid=46374c49-3adc-4c5a-8966-e00f056c0d57","ios":"levelo://app?vid=46374c49-3adc-4c5a-8966-e00f056c0d57"},"vehicle_type_id":"4","last_reported":1745334608,"current_range_meters":20400,"station_id":"","pricing_plan_id":"cebpf4jnsgd1na2vs0mg"},{"bike_id":"4f0aeb25-1b42-4e6a-b10a-e678b3a71ed9","system_id":"levelo_inurba_marseille","lat":43.29567,"lon":5.39958,"is_reserved":false,"is_disabled":false,"rental_uris":{"android":"levelo://app?vid=4f0aeb25-1b42-4e6a-b10a-e678b3a71ed9","ios":"levelo://app?vid=4f0aeb25-1b42-4e6a-b10a-e678b3a71ed9"},"vehicle_type_id":"4","last_reported":1745334608,"current_range_meters":20400,"station_id":"ce4bh312rcd13ifvqdj0","pricing_plan_id":"cebpf4jnsgd1na2vs0mg"},{"bike_id":"057ecee1-8707-4c50-b9f5-50ccc6147b4e","system_id":"levelo_inurba_marseille","lat":43.3238,"lon":5.38888,"is_reserved":false,"is_disabled":false,"rental_uris":{"android":"levelo://app?vid=057ecee1-8707-4c50-b9f5-50ccc6147b4e","ios":"levelo://app?vid=057ecee1-8707-4c50-b9f5-50ccc6147b4e"},"vehicle_type_id":"4","last_reported":1745334608,"current_range_meters":20400,"station_id":"ce4bhqp2rcd13ifvqhog","pricing_plan_id":"cebpf4jnsgd1na2vs0mg"},{"bike_id":"9c36221e-82f1-40ab-9e02-e569a59ab63d","system_id":"levelo_inurba_marseille","lat":43.29259,"lon":5.409,"is_reserved":false,"is_disabled":false,"rental_uris":{"android":"levelo://app?vid=9c36221e-82f1-40ab-9e02-e569a59ab63d","ios":"levelo://app?vid=9c36221e-82f1-40ab-9e02-e569a59ab63d"},"vehicle_type_id":"4","last_reported":1745334608,"current_range_meters":20400,"station_id":"ce4bh192rcd13ifvqdc0","pricing_plan_id":"cebpf4jnsgd1na2vs0mg"},{"bike_id":"a85648bf-c727-4e51-9d9e-ef76251a889c","system_id":"levelo_inurba_marseille","lat":43.29706,"lon":5.37697,"is_reserved":false,"is_disabled":false,"rental_uris":{"android":"levelo://app?vid=a85648bf-c727-4e51-9d9e-ef76251a889c","ios":"levelo://app?vid=a85648bf-c727-4e51-9d9e-ef76251a889c"},"vehicle_type_id":"4","last_reported":1745334608,"current_range_meters":20800,"station_id":"ce4bgkh2rcd13ifvqbl0","pricing_plan_id":"cebpf4jnsgd1na2vs0mg"},{"bike_id":"00623b2d-3f9c-4624-9474-9534e3ac92fc","system_id":"levelo_inurba_marseille","lat":43.29875,"lon":5.39722,"is_reserved":false,"is_disabled":false,"rental_uris":{"android":"levelo://app?vid=00623b2d-3f9c-4624-9474-9534e3ac92fc","ios":"levelo://app?vid=00623b2d-3f9c-4624-9474-9534e3ac92fc"},"vehicle_type_id":"4","last_reported":1745334608,"current_range_meters":20800,"station_id":"ce4bh0h2rcd13ifvqd50","pricing_plan_id":"cebpf4jnsgd1na2vs0mg"},{"bike_id":"a06dab05-6d0a-4ed7-9200-30db5ae237b9","system_id":"levelo_inurba_marseille","lat":43.29027,"lon":5.38616,"is_reserved":false,"is_disabled":false,"rental_uris":{"android":"levelo://app?vid=a06dab05-6d0a-4ed7-9200-30db5ae237b9","ios":"levelo://app?vid=a06dab05-6d0a-4ed7-9200-30db5ae237b9"},"vehicle_type_id":"4","last_reported":1745334608,"current_range_meters":20800,"station_id":"ce4bh4p2rcd13ifvqe0g","pricing_plan_id":"cebpf4jnsgd1na2vs0mg"},{"bike_id":"8e74421c-ad3b-4402-b793-31ddb35dc591","system_id":"levelo_inurba_marseille","lat":43.26808,"lon":5.40262,"is_reserved":false,"is_disabled":false,"rental_uris":{"android":"levelo://app?vid=8e74421c-ad3b-4402-b793-31ddb35dc591","ios":"levelo://app?vid=8e74421c-ad3b-4402-b793-31ddb35dc591"},"vehicle_type_id":"4","last_reported":1745334608,"current_range_meters":20800,"station_id":"ce501612rcd8frsf0b60","pricing_plan_id":"cebpf4jnsgd1na2vs0mg"},{"bike_id":"a821bf27-6b72-456b-927d-e9f55d0b7390","system_id":"levelo_inurba_marseille","lat":43.30914,"lon":5.40145,"is_reserved":false,"is_disabled":false,"rental_uris":{"android":"levelo://app?vid=a821bf27-6b72-456b-927d-e9f55d0b7390","ios":"levelo://app?vid=a821bf27-6b72-456b-927d-e9f55d0b7390"},"vehicle_type_id":"4","last_reported":1745334608,"current_range_meters":21600,"station_id":"ce4bgvp2rcd13ifvqct0","pricing_plan_id":"cebpf4jnsgd1na2vs0mg"},{"bike_id":"b9db31b4-e8d3-4b64-8b09-ecd0b471b9ca","system_id":"levelo_inurba_marseille","lat":43.29915,"lon":5.37481,"is_reserved":false,"is_disabled":false,"rental_uris":{"android":"levelo://app?vid=b9db31b4-e8d3-4b64-8b09-ecd0b471b9ca","ios":"levelo://app?vid=b9db31b4-e8d3-4b64-8b09-ecd0b471b9ca"},"vehicle_type_id":"4","last_reported":1745334608,"current_range_meters":22000,"station_id":"ce4bgjh2rcd13ifvqbg0","pricing_plan_id":"cebpf4jnsgd1na2vs0mg"},{"bike_id":"c4e4f957-5093-4dc6-8ffb-2449a5c2ae92","system_id":"levelo_inurba_marseille","lat":43.30415,"lon":5.41278,"is_reserved":false,"is_disabled":false,"rental_uris":{"android":"levelo://app?vid=c4e4f957-5093-4dc6-8ffb-2449a5c2ae92","ios":"levelo://app?vid=c4e4f957-5093-4dc6-8ffb-2449a5c2ae92"},"vehicle_type_id":"4","last_reported":1745334608,"current_range_meters":21600,"station_id":"ce4bhop2rcd13ifvqh8g","pricing_plan_id":"cebpf4jnsgd1na2vs0mg"},{"bike_id":"f2a8b6cc-6c3d-4073-8725-c8cc095df71f","system_id":"levelo_inurba_marseille","lat":43.29271,"lon":5.3684,"is_reserved":false,"is_disabled":false,"rental_uris":{"android":"levelo://app?vid=f2a8b6cc-6c3d-4073-8725-c8cc095df71f","ios":"levelo://app?vid=f2a8b6cc-6c3d-4073-8725-c8cc095df71f"},"vehicle_type_id":"4","last_reported":1745334608,"current_range_meters":21600,"station_id":"ce4bhbp2rcd13ifvqesg","pricing_plan_id":"cebpf4jnsgd1na2vs0mg"},{"bike_id":"2cd35bb3-f0e9-414f-b226-4923242f161c","system_id":"levelo_inurba_marseille","lat":43.280885,"lon":5.396585,"is_reserved":false,"is_disabled":false,"rental_uris":{"android":"levelo://app?vid=2cd35bb3-f0e9-414f-b226-4923242f161c","ios":"levelo://app?vid=2cd35bb3-f0e9-414f-b226-4923242f161c"},"vehicle_type_id":"4","last_reported":1745334608,"current_range_meters":21600,"station_id":"ce4bho12rcd13ifvqh2g","pricing_plan_id":"cebpf4jnsgd1na2vs0mg"},{"bike_id":"58c42fd5-b3e2-4a58-8911-e3aecf5eb7be","system_id":"levelo_inurba_marseille","lat":43.29226,"lon":5.38468,"is_reserved":false,"is_disabled":false,"rental_uris":{"android":"levelo://app?vid=58c42fd5-b3e2-4a58-8911-e3aecf5eb7be","ios":"levelo://app?vid=58c42fd5-b3e2-4a58-8911-e3aecf5eb7be"},"vehicle_type_id":"4","last_reported":1745334608,"current_range_meters":22000,"station_id":"ce4bh692rcd13ifvqea0","pricing_plan_id":"cebpf4jnsgd1na2vs0mg"},{"bike_id":"4d787303-989d-443b-93e1-8c12d33cbeef","system_id":"levelo_inurba_marseille","lat":43.32045,"lon":5.41557,"is_reserved":false,"is_disabled":false,"rental_uris":{"android":"levelo://app?vid=4d787303-989d-443b-93e1-8c12d33cbeef","ios":"levelo://app?vid=4d787303-989d-443b-93e1-8c12d33cbeef"},"vehicle_type_id":"4","last_reported":1745334608,"current_range_meters":22000,"station_id":"ce4bhq92rcd13ifvqhkg","pricing_plan_id":"cebpf4jnsgd1na2vs0mg"},{"bike_id":"e3dbb390-f150-4ae6-ad51-c1210a90a527","system_id":"levelo_inurba_marseille","lat":43.32656,"lon":5.40979,"is_reserved":false,"is_disabled":false,"rental_uris":{"android":"levelo://app?vid=e3dbb390-f150-4ae6-ad51-c1210a90a527","ios":"levelo://app?vid=e3dbb390-f150-4ae6-ad51-c1210a90a527"},"vehicle_type_id":"4","last_reported":1745334608,"current_range_meters":22000,"station_id":"ce4bhpp2rcd13ifvqhgg","pricing_plan_id":"cebpf4jnsgd1na2vs0mg"},{"bike_id":"aa6454bf-78aa-490b-b34e-0aa652a9580e","system_id":"levelo_inurba_marseille","lat":43.2657,"lon":5.38984,"is_reserved":false,"is_disabled":false,"rental_uris":{"android":"levelo://app?vid=aa6454bf-78aa-490b-b34e-0aa652a9580e","ios":"levelo://app?vid=aa6454bf-78aa-490b-b34e-0aa652a9580e"},"vehicle_type_id":"4","last_reported":1745334608,"current_range_meters":22000,"station_id":"ce4bhe12rcd13ifvqf30","pricing_plan_id":"cebpf4jnsgd1na2vs0mg"},{"bike_id":"9a1ce295-fb6c-4e1f-b0bb-26c488b6212c","system_id":"levelo_inurba_marseille","lat":43.278841,"lon":5.381826,"is_reserved":false,"is_disabled":false,"rental_uris":{"android":"levelo://app?vid=9a1ce295-fb6c-4e1f-b0bb-26c488b6212c","ios":"levelo://app?vid=9a1ce295-fb6c-4e1f-b0bb-26c488b6212c"},"vehicle_type_id":"4","last_reported":1745334608,"current_range_meters":22000,"station_id":"ce4bhgp2rcd13ifvqfd0","pricing_plan_id":"cebpf4jnsgd1na2vs0mg"},{"bike_id":"bda5c346-3c75-45c7-9ff9-669c3ca6d8cc","system_id":"levelo_inurba_marseille","lat":43.25555,"lon":5.38562,"is_reserved":false,"is_disabled":false,"rental_uris":{"android":"levelo://app?vid=bda5c346-3c75-45c7-9ff9-669c3ca6d8cc","ios":"levelo://app?vid=bda5c346-3c75-45c7-9ff9-669c3ca6d8cc"},"vehicle_type_id":"4","last_reported":1745334608,"current_range_meters":22000,"station_id":"","pricing_plan_id":"cebpf4jnsgd1na2vs0mg"},{"bike_id":"85de6b07-9d3d-4194-84bb-e857e4f77131","system_id":"levelo_inurba_marseille","lat":43.29286,"lon":5.35835,"is_reserved":false,"is_disabled":true,"rental_uris":{"android":"levelo://app?vid=85de6b07-9d3d-4194-84bb-e857e4f77131","ios":"levelo://app?vid=85de6b07-9d3d-4194-84bb-e857e4f77131"},"vehicle_type_id":"4","last_reported":1745334608,"current_range_meters":22400,"station_id":"","pricing_plan_id":"cebpf4jnsgd1na2vs0mg"},{"bike_id":"93eed49b-ae4a-453e-a280-a448b5cd0253","system_id":"levelo_inurba_marseille","lat":43.28088,"lon":5.39654,"is_reserved":false,"is_disabled":false,"rental_uris":{"android":"levelo://app?vid=93eed49b-ae4a-453e-a280-a448b5cd0253","ios":"levelo://app?vid=93eed49b-ae4a-453e-a280-a448b5cd0253"},"vehicle_type_id":"4","last_reported":1745334608,"current_range_meters":22400,"station_id":"ce4bho12rcd13ifvqh2g","pricing_plan_id":"cebpf4jnsgd1na2vs0mg"},{"bike_id":"97da8181-f792-48b8-bf9d-5ceca21e9a73","system_id":"levelo_inurba_marseille","lat":43.27991,"lon":5.4167,"is_reserved":false,"is_disabled":false,"rental_uris":{"android":"levelo://app?vid=97da8181-f792-48b8-bf9d-5ceca21e9a73","ios":"levelo://app?vid=97da8181-f792-48b8-bf9d-5ceca21e9a73"},"vehicle_type_id":"4","last_reported":1745334608,"current_range_meters":22400,"station_id":"ce4bho12rcd13ifvqh1g","pricing_plan_id":"cebpf4jnsgd1na2vs0mg"},{"bike_id":"c036526b-f99d-4a0a-8308-a423c4e546d0","system_id":"levelo_inurba_marseille","lat":43.31221,"lon":5.36857,"is_reserved":false,"is_disabled":false,"rental_uris":{"android":"levelo://app?vid=c036526b-f99d-4a0a-8308-a423c4e546d0","ios":"levelo://app?vid=c036526b-f99d-4a0a-8308-a423c4e546d0"},"vehicle_type_id":"4","last_reported":1745334608,"current_range_meters":22400,"station_id":"ce4bgl92rcd13ifvqbq0","pricing_plan_id":"cebpf4jnsgd1na2vs0mg"},{"bike_id":"603c2ff0-3c81-4c24-9114-3aae3b9d51c5","system_id":"levelo_inurba_marseille","lat":43.28082,"lon":5.39662,"is_reserved":false,"is_disabled":false,"rental_uris":{"android":"levelo://app?vid=603c2ff0-3c81-4c24-9114-3aae3b9d51c5","ios":"levelo://app?vid=603c2ff0-3c81-4c24-9114-3aae3b9d51c5"},"vehicle_type_id":"4","last_reported":1745334608,"current_range_meters":22800,"station_id":"ce4bho12rcd13ifvqh2g","pricing_plan_id":"cebpf4jnsgd1na2vs0mg"},{"bike_id":"30045520-536f-40e5-acee-aa73edbab034","system_id":"levelo_inurba_marseille","lat":43.30176,"lon":5.38115,"is_reserved":false,"is_disabled":false,"rental_uris":{"android":"levelo://app?vid=30045520-536f-40e5-acee-aa73edbab034","ios":"levelo://app?vid=30045520-536f-40e5-acee-aa73edbab034"},"vehicle_type_id":"4","last_reported":1745334608,"current_range_meters":22800,"station_id":"ce4bgjp2rcd13ifvqbh0","pricing_plan_id":"cebpf4jnsgd1na2vs0mg"},{"bike_id":"d0572432-a53b-4f12-b699-031ff3e1f466","system_id":"levelo_inurba_marseille","lat":43.32532,"lon":5.38219,"is_reserved":false,"is_disabled":true,"rental_uris":{"android":"levelo://app?vid=d0572432-a53b-4f12-b699-031ff3e1f466","ios":"levelo://app?vid=d0572432-a53b-4f12-b699-031ff3e1f466"},"vehicle_type_id":"4","last_reported":1745334608,"current_range_meters":22800,"station_id":"","pricing_plan_id":"cebpf4jnsgd1na2vs0mg"},{"bike_id":"c534e57c-15ad-483e-8191-c6f46f9d49e0","system_id":"levelo_inurba_marseille","lat":43.28674,"lon":5.386741,"is_reserved":false,"is_disabled":false,"rental_uris":{"android":"levelo://app?vid=c534e57c-15ad-483e-8191-c6f46f9d49e0","ios":"levelo://app?vid=c534e57c-15ad-483e-8191-c6f46f9d49e0"},"vehicle_type_id":"4","last_reported":1745334608,"current_range_meters":22800,"station_id":"ce4bh492rcd13ifvqdug","pricing_plan_id":"cebpf4jnsgd1na2vs0mg"},{"bike_id":"d77717e5-0f56-499d-af95-73fac23c8b81","system_id":"levelo_inurba_marseille","lat":43.30193,"lon":5.36615,"is_reserved":false,"is_disabled":false,"rental_uris":{"android":"levelo://app?vid=d77717e5-0f56-499d-af95-73fac23c8b81","ios":"levelo://app?vid=d77717e5-0f56-499d-af95-73fac23c8b81"},"vehicle_type_id":"4","last_reported":1745334608,"current_range_meters":22800,"station_id":"ce4bgrh2rcd13ifvqc8g","pricing_plan_id":"cebpf4jnsgd1na2vs0mg"},{"bike_id":"08134ca1-f3f9-4766-857e-c4c8848783ff","system_id":"levelo_inurba_marseille","lat":43.31768,"lon":5.39011,"is_reserved":false,"is_disabled":false,"rental_uris":{"android":"levelo://app?vid=08134ca1-f3f9-4766-857e-c4c8848783ff","ios":"levelo://app?vid=08134ca1-f3f9-4766-857e-c4c8848783ff"},"vehicle_type_id":"4","last_reported":1745334608,"current_range_meters":22800,"station_id":"ce4bhqp2rcd13ifvqhng","pricing_plan_id":"cebpf4jnsgd1na2vs0mg"},{"bike_id":"1cf03291-b49e-4047-a439-d2687759ad3a","system_id":"levelo_inurba_marseille","lat":43.29895,"lon":5.43672,"is_reserved":false,"is_disabled":false,"rental_uris":{"android":"levelo://app?vid=1cf03291-b49e-4047-a439-d2687759ad3a","ios":"levelo://app?vid=1cf03291-b49e-4047-a439-d2687759ad3a"},"vehicle_type_id":"4","last_reported":1745334608,"current_range_meters":22800,"station_id":"ce4bhpp2rcd13ifvqhfg","pricing_plan_id":"cebpf4jnsgd1na2vs0mg"},{"bike_id":"32b3ae7a-dd6e-4789-a537-50ea23c436ac","system_id":"levelo_inurba_marseille","lat":43.29936,"lon":5.36546,"is_reserved":false,"is_disabled":false,"rental_uris":{"android":"levelo://app?vid=32b3ae7a-dd6e-4789-a537-50ea23c436ac","ios":"levelo://app?vid=32b3ae7a-dd6e-4789-a537-50ea23c436ac"},"vehicle_type_id":"4","last_reported":1745334608,"current_range_meters":23200,"station_id":"ce4bgm92rcd13ifvqbr0","pricing_plan_id":"cebpf4jnsgd1na2vs0mg"},{"bike_id":"1438e68a-5bbf-41cc-b12e-4755ffb9f40d","system_id":"levelo_inurba_marseille","lat":43.22938,"lon":5.35371,"is_reserved":false,"is_disabled":false,"rental_uris":{"android":"levelo://app?vid=1438e68a-5bbf-41cc-b12e-4755ffb9f40d","ios":"levelo://app?vid=1438e68a-5bbf-41cc-b12e-4755ffb9f40d"},"vehicle_type_id":"4","last_reported":1745334608,"current_range_meters":23200,"station_id":"cpo3532slgdg3j2ikp40","pricing_plan_id":"cebpf4jnsgd1na2vs0mg"},{"bike_id":"6da27505-89be-4a96-88ac-febbb1b1d1e6","system_id":"levelo_inurba_marseille","lat":43.27372,"lon":5.36245,"is_reserved":false,"is_disabled":false,"rental_uris":{"android":"levelo://app?vid=6da27505-89be-4a96-88ac-febbb1b1d1e6","ios":"levelo://app?vid=6da27505-89be-4a96-88ac-febbb1b1d1e6"},"vehicle_type_id":"4","last_reported":1745334608,"current_range_meters":23200,"station_id":"ce4bhbh2rcd13ifvqeo0","pricing_plan_id":"cebpf4jnsgd1na2vs0mg"},{"bike_id":"3680cc7e-b782-453c-83d7-59d3066a5521","system_id":"levelo_inurba_marseille","lat":43.285216,"lon":5.351096,"is_reserved":false,"is_disabled":false,"rental_uris":{"android":"levelo://app?vid=3680cc7e-b782-453c-83d7-59d3066a5521","ios":"levelo://app?vid=3680cc7e-b782-453c-83d7-59d3066a5521"},"vehicle_type_id":"4","last_reported":1745334608,"current_range_meters":23200,"station_id":"ce4bhbp2rcd13ifvqerg","pricing_plan_id":"cebpf4jnsgd1na2vs0mg"},{"bike_id":"d4061684-00ed-4373-92d0-e873b081fb53","system_id":"levelo_inurba_marseille","lat":43.28033,"lon":5.36941,"is_reserved":false,"is_disabled":false,"rental_uris":{"android":"levelo://app?vid=d4061684-00ed-4373-92d0-e873b081fb53","ios":"levelo://app?vid=d4061684-00ed-4373-92d0-e873b081fb53"},"vehicle_type_id":"4","last_reported":1745334608,"current_range_meters":23200,"station_id":"ce4bha12rcd13ifvqef0","pricing_plan_id":"cebpf4jnsgd1na2vs0mg"},{"bike_id":"a0ff6a5e-b6df-434d-987d-5df469548bba","system_id":"levelo_inurba_marseille","lat":43.30807,"lon":5.38179,"is_reserved":false,"is_disabled":false,"rental_uris":{"android":"levelo://app?vid=a0ff6a5e-b6df-434d-987d-5df469548bba","ios":"levelo://app?vid=a0ff6a5e-b6df-434d-987d-5df469548bba"},"vehicle_type_id":"4","last_reported":1745334608,"current_range_meters":24000,"station_id":"ce4bgt12rcd13ifvqce0","pricing_plan_id":"cebpf4jnsgd1na2vs0mg"},{"bike_id":"41c57517-8535-48d1-b18b-71c5f9608ef2","system_id":"levelo_inurba_marseille","lat":43.28259,"lon":5.35068,"is_reserved":false,"is_disabled":false,"rental_uris":{"android":"levelo://app?vid=41c57517-8535-48d1-b18b-71c5f9608ef2","ios":"levelo://app?vid=41c57517-8535-48d1-b18b-71c5f9608ef2"},"vehicle_type_id":"4","last_reported":1745334608,"current_range_meters":24000,"station_id":"ce4bhbp2rcd13ifvqerg","pricing_plan_id":"cebpf4jnsgd1na2vs0mg"},{"bike_id":"b33db2e6-5705-46d2-af79-9d77c74dd86f","system_id":"levelo_inurba_marseille","lat":43.28963,"lon":5.37831,"is_reserved":false,"is_disabled":false,"rental_uris":{"android":"levelo://app?vid=b33db2e6-5705-46d2-af79-9d77c74dd86f","ios":"levelo://app?vid=b33db2e6-5705-46d2-af79-9d77c74dd86f"},"vehicle_type_id":"4","last_reported":1745334608,"current_range_meters":23200,"station_id":"ce4bh9p2rcd13ifvqed0","pricing_plan_id":"cebpf4jnsgd1na2vs0mg"},{"bike_id":"48ce436c-0f92-46b1-8c40-6fc4e3d82a8c","system_id":"levelo_inurba_marseille","lat":43.29034,"lon":5.3865,"is_reserved":false,"is_disabled":false,"rental_uris":{"android":"levelo://app?vid=48ce436c-0f92-46b1-8c40-6fc4e3d82a8c","ios":"levelo://app?vid=48ce436c-0f92-46b1-8c40-6fc4e3d82a8c"},"vehicle_type_id":"4","last_reported":1745334608,"current_range_meters":24000,"station_id":"ce4bh4p2rcd13ifvqe0g","pricing_plan_id":"cebpf4jnsgd1na2vs0mg"},{"bike_id":"e6e2760d-c8e4-4f02-94d6-80b161a2552b","system_id":"levelo_inurba_marseille","lat":43.3054,"lon":5.36715,"is_reserved":false,"is_disabled":false,"rental_uris":{"android":"levelo://app?vid=e6e2760d-c8e4-4f02-94d6-80b161a2552b","ios":"levelo://app?vid=e6e2760d-c8e4-4f02-94d6-80b161a2552b"},"vehicle_type_id":"4","last_reported":1745334608,"current_range_meters":24000,"station_id":"ce4bgrp2rcd13ifvqc9g","pricing_plan_id":"cebpf4jnsgd1na2vs0mg"},{"bike_id":"8b60b770-b179-4f66-bd24-00ee013c97d3","system_id":"levelo_inurba_marseille","lat":43.29616,"lon":5.38117,"is_reserved":false,"is_disabled":false,"rental_uris":{"android":"levelo://app?vid=8b60b770-b179-4f66-bd24-00ee013c97d3","ios":"levelo://app?vid=8b60b770-b179-4f66-bd24-00ee013c97d3"},"vehicle_type_id":"4","last_reported":1745334608,"current_range_meters":23200,"station_id":"ce4bgl12rcd13ifvqbo0","pricing_plan_id":"cebpf4jnsgd1na2vs0mg"},{"bike_id":"eddf388e-8873-45ba-ad33-881fd27c608c","system_id":"levelo_inurba_marseille","lat":43.29317,"lon":5.37311,"is_reserved":false,"is_disabled":true,"rental_uris":{"android":"levelo://app?vid=eddf388e-8873-45ba-ad33-881fd27c608c","ios":"levelo://app?vid=eddf388e-8873-45ba-ad33-881fd27c608c"},"vehicle_type_id":"4","last_reported":1745334608,"current_range_meters":24000,"station_id":"","pricing_plan_id":"cebpf4jnsgd1na2vs0mg"},{"bike_id":"5c2c20fd-3b9c-4750-a444-104039a2b79b","system_id":"levelo_inurba_marseille","lat":43.28262,"lon":5.35065,"is_reserved":false,"is_disabled":false,"rental_uris":{"android":"levelo://app?vid=5c2c20fd-3b9c-4750-a444-104039a2b79b","ios":"levelo://app?vid=5c2c20fd-3b9c-4750-a444-104039a2b79b"},"vehicle_type_id":"4","last_reported":1745334608,"current_range_meters":24000,"station_id":"ce4bhbp2rcd13ifvqerg","pricing_plan_id":"cebpf4jnsgd1na2vs0mg"},{"bike_id":"b48a6ca3-dbcd-47b2-8181-5cd94120631b","system_id":"levelo_inurba_marseille","lat":43.29962,"lon":5.38499,"is_reserved":false,"is_disabled":false,"rental_uris":{"android":"levelo://app?vid=b48a6ca3-dbcd-47b2-8181-5cd94120631b","ios":"levelo://app?vid=b48a6ca3-dbcd-47b2-8181-5cd94120631b"},"vehicle_type_id":"4","last_reported":1745334608,"current_range_meters":24000,"station_id":"ce4bgj92rcd13ifvqbd0","pricing_plan_id":"cebpf4jnsgd1na2vs0mg"},{"bike_id":"570af59d-a733-4513-b688-b72d3f367143","system_id":"levelo_inurba_marseille","lat":43.314484,"lon":5.373475,"is_reserved":false,"is_disabled":false,"rental_uris":{"android":"levelo://app?vid=570af59d-a733-4513-b688-b72d3f367143","ios":"levelo://app?vid=570af59d-a733-4513-b688-b72d3f367143"},"vehicle_type_id":"4","last_reported":1745334608,"current_range_meters":24000,"station_id":"ce4bh2p2rcd13ifvqdi0","pricing_plan_id":"cebpf4jnsgd1na2vs0mg"},{"bike_id":"3e8f0127-96fd-4fdd-97f2-be6e836f9523","system_id":"levelo_inurba_marseille","lat":43.33761,"lon":5.37431,"is_reserved":false,"is_disabled":false,"rental_uris":{"android":"levelo://app?vid=3e8f0127-96fd-4fdd-97f2-be6e836f9523","ios":"levelo://app?vid=3e8f0127-96fd-4fdd-97f2-be6e836f9523"},"vehicle_type_id":"4","last_reported":1745334608,"current_range_meters":24000,"station_id":"","pricing_plan_id":"cebpf4jnsgd1na2vs0mg"},{"bike_id":"9b3bc2df-860b-402d-8fab-cd1f73004e08","system_id":"levelo_inurba_marseille","lat":43.275499,"lon":5.384407,"is_reserved":false,"is_disabled":false,"rental_uris":{"android":"levelo://app?vid=9b3bc2df-860b-402d-8fab-cd1f73004e08","ios":"levelo://app?vid=9b3bc2df-860b-402d-8fab-cd1f73004e08"},"vehicle_type_id":"4","last_reported":1745334608,"current_range_meters":24800,"station_id":"ce4bhh92rcd13ifvqfi0","pricing_plan_id":"cebpf4jnsgd1na2vs0mg"},{"bike_id":"004606aa-e9cb-4175-ab2a-d2a60dc9b8f3","system_id":"levelo_inurba_marseille","lat":43.33023,"lon":5.39034,"is_reserved":false,"is_disabled":false,"rental_uris":{"android":"levelo://app?vid=004606aa-e9cb-4175-ab2a-d2a60dc9b8f3","ios":"levelo://app?vid=004606aa-e9cb-4175-ab2a-d2a60dc9b8f3"},"vehicle_type_id":"4","last_reported":1745334608,"current_range_meters":24400,"station_id":"ce4bhr92rcd13ifvqhrg","pricing_plan_id":"cebpf4jnsgd1na2vs0mg"},{"bike_id":"e8abd739-2476-4f65-8210-f7309aecb71d","system_id":"levelo_inurba_marseille","lat":43.2841,"lon":5.3497,"is_reserved":false,"is_disabled":false,"rental_uris":{"android":"levelo://app?vid=e8abd739-2476-4f65-8210-f7309aecb71d","ios":"levelo://app?vid=e8abd739-2476-4f65-8210-f7309aecb71d"},"vehicle_type_id":"4","last_reported":1745334608,"current_range_meters":24400,"station_id":"ce4bhbh2rcd13ifvqepg","pricing_plan_id":"cebpf4jnsgd1na2vs0mg"},{"bike_id":"c1dc171d-e6a7-443b-9371-a26dad09e178","system_id":"levelo_inurba_marseille","lat":43.28709,"lon":5.37919,"is_reserved":false,"is_disabled":false,"rental_uris":{"android":"levelo://app?vid=c1dc171d-e6a7-443b-9371-a26dad09e178","ios":"levelo://app?vid=c1dc171d-e6a7-443b-9371-a26dad09e178"},"vehicle_type_id":"4","last_reported":1745334608,"current_range_meters":24400,"station_id":"ce4bh9p2rcd13ifvqec0","pricing_plan_id":"cebpf4jnsgd1na2vs0mg"},{"bike_id":"b414377d-8ccd-49c6-8eb6-0c00042724c3","system_id":"levelo_inurba_marseille","lat":43.330223,"lon":5.390406,"is_reserved":false,"is_disabled":false,"rental_uris":{"android":"levelo://app?vid=b414377d-8ccd-49c6-8eb6-0c00042724c3","ios":"levelo://app?vid=b414377d-8ccd-49c6-8eb6-0c00042724c3"},"vehicle_type_id":"4","last_reported":1745334608,"current_range_meters":24400,"station_id":"ce4bhr92rcd13ifvqhrg","pricing_plan_id":"cebpf4jnsgd1na2vs0mg"},{"bike_id":"824fec7a-89ad-4a0c-b22f-1d531b9959b4","system_id":"levelo_inurba_marseille","lat":43.29126,"lon":5.38087,"is_reserved":false,"is_disabled":false,"rental_uris":{"android":"levelo://app?vid=824fec7a-89ad-4a0c-b22f-1d531b9959b4","ios":"levelo://app?vid=824fec7a-89ad-4a0c-b22f-1d531b9959b4"},"vehicle_type_id":"4","last_reported":1745334608,"current_range_meters":24400,"station_id":"ce4bh512rcd13ifvqe2g","pricing_plan_id":"cebpf4jnsgd1na2vs0mg"},{"bike_id":"a239d8aa-71ce-4492-9579-b11cdd8ce5df","system_id":"levelo_inurba_marseille","lat":43.28171,"lon":5.42649,"is_reserved":false,"is_disabled":false,"rental_uris":{"android":"levelo://app?vid=a239d8aa-71ce-4492-9579-b11cdd8ce5df","ios":"levelo://app?vid=a239d8aa-71ce-4492-9579-b11cdd8ce5df"},"vehicle_type_id":"4","last_reported":1745334608,"current_range_meters":24800,"station_id":"ce4bhnh2rcd13ifvqgug","pricing_plan_id":"cebpf4jnsgd1na2vs0mg"},{"bike_id":"59f21529-91ec-4d75-8d47-02045c3e2191","system_id":"levelo_inurba_marseille","lat":43.23183,"lon":5.39972,"is_reserved":false,"is_disabled":false,"rental_uris":{"android":"levelo://app?vid=59f21529-91ec-4d75-8d47-02045c3e2191","ios":"levelo://app?vid=59f21529-91ec-4d75-8d47-02045c3e2191"},"vehicle_type_id":"4","last_reported":1745334608,"current_range_meters":24800,"station_id":"ce4bhn12rcd13ifvqgqg","pricing_plan_id":"cebpf4jnsgd1na2vs0mg"},{"bike_id":"fdc8cb64-05ce-4a27-8fbf-1b18d3ad59af","system_id":"levelo_inurba_marseille","lat":43.28615,"lon":5.35096,"is_reserved":false,"is_disabled":false,"rental_uris":{"android":"levelo://app?vid=fdc8cb64-05ce-4a27-8fbf-1b18d3ad59af","ios":"levelo://app?vid=fdc8cb64-05ce-4a27-8fbf-1b18d3ad59af"},"vehicle_type_id":"4","last_reported":1745334608,"current_range_meters":24800,"station_id":"ce4bhch2rcd13ifvqeug","pricing_plan_id":"cebpf4jnsgd1na2vs0mg"},{"bike_id":"356cfa21-b42d-4bcd-9ca6-ca674f45b452","system_id":"levelo_inurba_marseille","lat":43.2842,"lon":5.3498,"is_reserved":false,"is_disabled":false,"rental_uris":{"android":"levelo://app?vid=356cfa21-b42d-4bcd-9ca6-ca674f45b452","ios":"levelo://app?vid=356cfa21-b42d-4bcd-9ca6-ca674f45b452"},"vehicle_type_id":"4","last_reported":1745334608,"current_range_meters":24800,"station_id":"ce4bhbh2rcd13ifvqepg","pricing_plan_id":"cebpf4jnsgd1na2vs0mg"},{"bike_id":"8b43b1fb-5cab-4db8-ae05-f66514d8855e","system_id":"levelo_inurba_marseille","lat":43.31238,"lon":5.37259,"is_reserved":false,"is_disabled":false,"rental_uris":{"android":"levelo://app?vid=8b43b1fb-5cab-4db8-ae05-f66514d8855e","ios":"levelo://app?vid=8b43b1fb-5cab-4db8-ae05-f66514d8855e"},"vehicle_type_id":"4","last_reported":1745334608,"current_range_meters":24800,"station_id":"","pricing_plan_id":"cebpf4jnsgd1na2vs0mg"},{"bike_id":"ab8406b2-4f8d-4381-8821-3db52b0a4d4d","system_id":"levelo_inurba_marseille","lat":43.27355,"lon":5.3784,"is_reserved":false,"is_disabled":false,"rental_uris":{"android":"levelo://app?vid=ab8406b2-4f8d-4381-8821-3db52b0a4d4d","ios":"levelo://app?vid=ab8406b2-4f8d-4381-8821-3db52b0a4d4d"},"vehicle_type_id":"4","last_reported":1745334608,"current_range_meters":24800,"station_id":"","pricing_plan_id":"cebpf4jnsgd1na2vs0mg"},{"bike_id":"b715101d-f83c-402d-8c88-90d9f4791684","system_id":"levelo_inurba_marseille","lat":43.27493,"lon":5.42443,"is_reserved":false,"is_disabled":false,"rental_uris":{"android":"levelo://app?vid=b715101d-f83c-402d-8c88-90d9f4791684","ios":"levelo://app?vid=b715101d-f83c-402d-8c88-90d9f4791684"},"vehicle_type_id":"4","last_reported":1745334608,"current_range_meters":24800,"station_id":"ce4bhn92rcd13ifvqgrg","pricing_plan_id":"cebpf4jnsgd1na2vs0mg"},{"bike_id":"de209eec-24fe-4e39-b3b2-c40f9d610341","system_id":"levelo_inurba_marseille","lat":43.217525,"lon":5.346033,"is_reserved":false,"is_disabled":false,"rental_uris":{"android":"levelo://app?vid=de209eec-24fe-4e39-b3b2-c40f9d610341","ios":"levelo://app?vid=de209eec-24fe-4e39-b3b2-c40f9d610341"},"vehicle_type_id":"4","last_reported":1745334608,"current_range_meters":24800,"station_id":"cpo3532slgdg3j2ikp40","pricing_plan_id":"cebpf4jnsgd1na2vs0mg"},{"bike_id":"6b3d6b71-5d32-40cf-9dbc-ed167c538f0e","system_id":"levelo_inurba_marseille","lat":43.28036,"lon":5.36945,"is_reserved":false,"is_disabled":false,"rental_uris":{"android":"levelo://app?vid=6b3d6b71-5d32-40cf-9dbc-ed167c538f0e","ios":"levelo://app?vid=6b3d6b71-5d32-40cf-9dbc-ed167c538f0e"},"vehicle_type_id":"4","last_reported":1745334608,"current_range_meters":24800,"station_id":"ce4bha12rcd13ifvqef0","pricing_plan_id":"cebpf4jnsgd1na2vs0mg"},{"bike_id":"f945b5d7-5d59-4c6a-834e-86b09417b010","system_id":"levelo_inurba_marseille","lat":43.31496,"lon":5.37302,"is_reserved":false,"is_disabled":false,"rental_uris":{"android":"levelo://app?vid=f945b5d7-5d59-4c6a-834e-86b09417b010","ios":"levelo://app?vid=f945b5d7-5d59-4c6a-834e-86b09417b010"},"vehicle_type_id":"4","last_reported":1745334608,"current_range_meters":24400,"station_id":"ce4bgt12rcd13ifvqcd0","pricing_plan_id":"cebpf4jnsgd1na2vs0mg"},{"bike_id":"0c15d90e-b068-4651-843b-1d39457a85e6","system_id":"levelo_inurba_marseille","lat":43.30529,"lon":5.36539,"is_reserved":false,"is_disabled":false,"rental_uris":{"android":"levelo://app?vid=0c15d90e-b068-4651-843b-1d39457a85e6","ios":"levelo://app?vid=0c15d90e-b068-4651-843b-1d39457a85e6"},"vehicle_type_id":"4","last_reported":1745334608,"current_range_meters":24800,"station_id":"ce4bgs12rcd13ifvqcag","pricing_plan_id":"cebpf4jnsgd1na2vs0mg"},{"bike_id":"5c16190d-e8dc-424a-a310-ea6c1e6d7450","system_id":"levelo_inurba_marseille","lat":43.25933,"lon":5.40872,"is_reserved":false,"is_disabled":true,"rental_uris":{"android":"levelo://app?vid=5c16190d-e8dc-424a-a310-ea6c1e6d7450","ios":"levelo://app?vid=5c16190d-e8dc-424a-a310-ea6c1e6d7450"},"vehicle_type_id":"4","last_reported":1745334608,"current_range_meters":24800,"station_id":"ce4bhm92rcd13ifvqglg","pricing_plan_id":"cebpf4jnsgd1na2vs0mg"},{"bike_id":"be54b61d-e038-471e-9e2e-06320bf336e4","system_id":"levelo_inurba_marseille","lat":43.29575,"lon":5.39984,"is_reserved":false,"is_disabled":true,"rental_uris":{"android":"levelo://app?vid=be54b61d-e038-471e-9e2e-06320bf336e4","ios":"levelo://app?vid=be54b61d-e038-471e-9e2e-06320bf336e4"},"vehicle_type_id":"4","last_reported":1745334608,"current_range_meters":25200,"station_id":"ce4bh312rcd13ifvqdj0","pricing_plan_id":"cebpf4jnsgd1na2vs0mg"},{"bike_id":"afdda673-b6dd-4e81-a9a0-0d6e4ced79ca","system_id":"levelo_inurba_marseille","lat":43.29859,"lon":5.36253,"is_reserved":false,"is_disabled":false,"rental_uris":{"android":"levelo://app?vid=afdda673-b6dd-4e81-a9a0-0d6e4ced79ca","ios":"levelo://app?vid=afdda673-b6dd-4e81-a9a0-0d6e4ced79ca"},"vehicle_type_id":"4","last_reported":1745334608,"current_range_meters":25200,"station_id":"ce4bgpp2rcd13ifvqc3g","pricing_plan_id":"cebpf4jnsgd1na2vs0mg"},{"bike_id":"a889773c-318e-40c9-a74f-d51973ad9427","system_id":"levelo_inurba_marseille","lat":43.25821,"lon":5.39434,"is_reserved":false,"is_disabled":false,"rental_uris":{"android":"levelo://app?vid=a889773c-318e-40c9-a74f-d51973ad9427","ios":"levelo://app?vid=a889773c-318e-40c9-a74f-d51973ad9427"},"vehicle_type_id":"4","last_reported":1745334608,"current_range_meters":24800,"station_id":"ce4bhip2rcd13ifvqft0","pricing_plan_id":"cebpf4jnsgd1na2vs0mg"},{"bike_id":"61a94bed-ea05-4f91-86ec-1f0eb9f2d4e7","system_id":"levelo_inurba_marseille","lat":43.27713,"lon":5.37792,"is_reserved":false,"is_disabled":false,"rental_uris":{"android":"levelo://app?vid=61a94bed-ea05-4f91-86ec-1f0eb9f2d4e7","ios":"levelo://app?vid=61a94bed-ea05-4f91-86ec-1f0eb9f2d4e7"},"vehicle_type_id":"4","last_reported":1745334608,"current_range_meters":25200,"station_id":"","pricing_plan_id":"cebpf4jnsgd1na2vs0mg"},{"bike_id":"145dbf79-78a7-4956-aab1-80d9ce0542bb","system_id":"levelo_inurba_marseille","lat":43.29278,"lon":5.38456,"is_reserved":false,"is_disabled":false,"rental_uris":{"android":"levelo://app?vid=145dbf79-78a7-4956-aab1-80d9ce0542bb","ios":"levelo://app?vid=145dbf79-78a7-4956-aab1-80d9ce0542bb"},"vehicle_type_id":"4","last_reported":1745334608,"current_range_meters":25200,"station_id":"ce4bh692rcd13ifvqea0","pricing_plan_id":"cebpf4jnsgd1na2vs0mg"},{"bike_id":"e9cf060d-1964-484d-b8cb-38d996b221f9","system_id":"levelo_inurba_marseille","lat":43.32355,"lon":5.36783,"is_reserved":false,"is_disabled":false,"rental_uris":{"android":"levelo://app?vid=e9cf060d-1964-484d-b8cb-38d996b221f9","ios":"levelo://app?vid=e9cf060d-1964-484d-b8cb-38d996b221f9"},"vehicle_type_id":"4","last_reported":1745334608,"current_range_meters":25200,"station_id":"ce4bhsh2rcd13ifvqi2g","pricing_plan_id":"cebpf4jnsgd1na2vs0mg"},{"bike_id":"09aac0d3-78bd-4a3f-8e02-4baadf30cb87","system_id":"levelo_inurba_marseille","lat":43.29033,"lon":5.38121,"is_reserved":false,"is_disabled":false,"rental_uris":{"android":"levelo://app?vid=09aac0d3-78bd-4a3f-8e02-4baadf30cb87","ios":"levelo://app?vid=09aac0d3-78bd-4a3f-8e02-4baadf30cb87"},"vehicle_type_id":"4","last_reported":1745334608,"current_range_meters":24800,"station_id":"ce4bh4p2rcd13ifvqe1g","pricing_plan_id":"cebpf4jnsgd1na2vs0mg"},{"bike_id":"1ce6e8c2-ed3e-4b66-bda7-38092b3cc27e","system_id":"levelo_inurba_marseille","lat":43.28399,"lon":5.37539,"is_reserved":false,"is_disabled":false,"rental_uris":{"android":"levelo://app?vid=1ce6e8c2-ed3e-4b66-bda7-38092b3cc27e","ios":"levelo://app?vid=1ce6e8c2-ed3e-4b66-bda7-38092b3cc27e"},"vehicle_type_id":"4","last_reported":1745334608,"current_range_meters":25200,"station_id":"ce4bh412rcd13ifvqds0","pricing_plan_id":"cebpf4jnsgd1na2vs0mg"},{"bike_id":"cb63aca3-7cd9-449f-a034-34b1c05edb26","system_id":"levelo_inurba_marseille","lat":43.2987,"lon":5.39729,"is_reserved":false,"is_disabled":false,"rental_uris":{"android":"levelo://app?vid=cb63aca3-7cd9-449f-a034-34b1c05edb26","ios":"levelo://app?vid=cb63aca3-7cd9-449f-a034-34b1c05edb26"},"vehicle_type_id":"4","last_reported":1745334608,"current_range_meters":25600,"station_id":"ce4bh0h2rcd13ifvqd50","pricing_plan_id":"cebpf4jnsgd1na2vs0mg"},{"bike_id":"8e969f77-7e48-48aa-8d01-75630ecd284b","system_id":"levelo_inurba_marseille","lat":43.31526,"lon":5.38037,"is_reserved":false,"is_disabled":false,"rental_uris":{"android":"levelo://app?vid=8e969f77-7e48-48aa-8d01-75630ecd284b","ios":"levelo://app?vid=8e969f77-7e48-48aa-8d01-75630ecd284b"},"vehicle_type_id":"4","last_reported":1745334608,"current_range_meters":25600,"station_id":"ce4bhsp2rcd13ifvqi50","pricing_plan_id":"cebpf4jnsgd1na2vs0mg"},{"bike_id":"8110fe88-bf8c-4d92-be1b-f3cd9901c73e","system_id":"levelo_inurba_marseille","lat":43.28259,"lon":5.35071,"is_reserved":false,"is_disabled":false,"rental_uris":{"android":"levelo://app?vid=8110fe88-bf8c-4d92-be1b-f3cd9901c73e","ios":"levelo://app?vid=8110fe88-bf8c-4d92-be1b-f3cd9901c73e"},"vehicle_type_id":"4","last_reported":1745334608,"current_range_meters":25600,"station_id":"ce4bhbp2rcd13ifvqerg","pricing_plan_id":"cebpf4jnsgd1na2vs0mg"},{"bike_id":"976e0082-6ec1-42fb-ae38-b01dfe8d25f8","system_id":"levelo_inurba_marseille","lat":43.29251,"lon":5.40917,"is_reserved":false,"is_disabled":false,"rental_uris":{"android":"levelo://app?vid=976e0082-6ec1-42fb-ae38-b01dfe8d25f8","ios":"levelo://app?vid=976e0082-6ec1-42fb-ae38-b01dfe8d25f8"},"vehicle_type_id":"4","last_reported":1745334608,"current_range_meters":25200,"station_id":"ce4bh192rcd13ifvqdc0","pricing_plan_id":"cebpf4jnsgd1na2vs0mg"},{"bike_id":"e0d26f05-222f-49c9-82df-4d4ff891c124","system_id":"levelo_inurba_marseille","lat":43.28467,"lon":5.3589,"is_reserved":false,"is_disabled":false,"rental_uris":{"android":"levelo://app?vid=e0d26f05-222f-49c9-82df-4d4ff891c124","ios":"levelo://app?vid=e0d26f05-222f-49c9-82df-4d4ff891c124"},"vehicle_type_id":"4","last_reported":1745334608,"current_range_meters":25200,"station_id":"ce4bhah2rcd13ifvqei0","pricing_plan_id":"cebpf4jnsgd1na2vs0mg"},{"bike_id":"d84ddd98-bb2a-4df5-b888-75f0aaf74bc5","system_id":"levelo_inurba_marseille","lat":43.29874,"lon":5.39725,"is_reserved":false,"is_disabled":false,"rental_uris":{"android":"levelo://app?vid=d84ddd98-bb2a-4df5-b888-75f0aaf74bc5","ios":"levelo://app?vid=d84ddd98-bb2a-4df5-b888-75f0aaf74bc5"},"vehicle_type_id":"4","last_reported":1745334608,"current_range_meters":26000,"station_id":"ce4bh0h2rcd13ifvqd50","pricing_plan_id":"cebpf4jnsgd1na2vs0mg"},{"bike_id":"dfd6ed14-2068-4f0e-9228-5263e968a5e5","system_id":"levelo_inurba_marseille","lat":43.292081,"lon":5.375094,"is_reserved":false,"is_disabled":false,"rental_uris":{"android":"levelo://app?vid=dfd6ed14-2068-4f0e-9228-5263e968a5e5","ios":"levelo://app?vid=dfd6ed14-2068-4f0e-9228-5263e968a5e5"},"vehicle_type_id":"4","last_reported":1745334608,"current_range_meters":26000,"station_id":"ce4bh292rcd13ifvqdg0","pricing_plan_id":"cebpf4jnsgd1na2vs0mg"},{"bike_id":"83a33c7b-1e8d-413c-bc69-87020b155b20","system_id":"levelo_inurba_marseille","lat":43.3123,"lon":5.36878,"is_reserved":false,"is_disabled":false,"rental_uris":{"android":"levelo://app?vid=83a33c7b-1e8d-413c-bc69-87020b155b20","ios":"levelo://app?vid=83a33c7b-1e8d-413c-bc69-87020b155b20"},"vehicle_type_id":"4","last_reported":1745334608,"current_range_meters":26000,"station_id":"ce4bgl92rcd13ifvqbq0","pricing_plan_id":"cebpf4jnsgd1na2vs0mg"},{"bike_id":"73f40cff-bb71-4b7a-8ad7-f06c69fb0596","system_id":"levelo_inurba_marseille","lat":43.21188,"lon":5.35074,"is_reserved":false,"is_disabled":false,"rental_uris":{"android":"levelo://app?vid=73f40cff-bb71-4b7a-8ad7-f06c69fb0596","ios":"levelo://app?vid=73f40cff-bb71-4b7a-8ad7-f06c69fb0596"},"vehicle_type_id":"4","last_reported":1745334608,"current_range_meters":26000,"station_id":"st_cvj6sg6p6f1abm77japg","pricing_plan_id":"cebpf4jnsgd1na2vs0mg"},{"bike_id":"3143a12b-2262-4752-8da2-cf63cd87af9c","system_id":"levelo_inurba_marseille","lat":43.32362,"lon":5.36755,"is_reserved":false,"is_disabled":false,"rental_uris":{"android":"levelo://app?vid=3143a12b-2262-4752-8da2-cf63cd87af9c","ios":"levelo://app?vid=3143a12b-2262-4752-8da2-cf63cd87af9c"},"vehicle_type_id":"4","last_reported":1745334608,"current_range_meters":26000,"station_id":"ce4bhsh2rcd13ifvqi2g","pricing_plan_id":"cebpf4jnsgd1na2vs0mg"},{"bike_id":"2429dfbf-fda6-4b23-9304-113d00ccf469","system_id":"levelo_inurba_marseille","lat":43.28264,"lon":5.35065,"is_reserved":false,"is_disabled":false,"rental_uris":{"android":"levelo://app?vid=2429dfbf-fda6-4b23-9304-113d00ccf469","ios":"levelo://app?vid=2429dfbf-fda6-4b23-9304-113d00ccf469"},"vehicle_type_id":"4","last_reported":1745334608,"current_range_meters":26000,"station_id":"ce4bhbp2rcd13ifvqerg","pricing_plan_id":"cebpf4jnsgd1na2vs0mg"},{"bike_id":"cb815336-13e0-4e77-8e52-e4f97ce3a511","system_id":"levelo_inurba_marseille","lat":43.32365,"lon":5.38881,"is_reserved":false,"is_disabled":false,"rental_uris":{"android":"levelo://app?vid=cb815336-13e0-4e77-8e52-e4f97ce3a511","ios":"levelo://app?vid=cb815336-13e0-4e77-8e52-e4f97ce3a511"},"vehicle_type_id":"4","last_reported":1745334608,"current_range_meters":26000,"station_id":"ce4bhqp2rcd13ifvqhog","pricing_plan_id":"cebpf4jnsgd1na2vs0mg"},{"bike_id":"b938997b-6b12-4ba3-a43b-6e481402f046","system_id":"levelo_inurba_marseille","lat":43.30298,"lon":5.39207,"is_reserved":false,"is_disabled":false,"rental_uris":{"android":"levelo://app?vid=b938997b-6b12-4ba3-a43b-6e481402f046","ios":"levelo://app?vid=b938997b-6b12-4ba3-a43b-6e481402f046"},"vehicle_type_id":"4","last_reported":1745334608,"current_range_meters":26000,"station_id":"ce4bgkh2rcd13ifvqbk0","pricing_plan_id":"cebpf4jnsgd1na2vs0mg"},{"bike_id":"55ae3857-e43d-48cd-9494-9b95e5d65b0f","system_id":"levelo_inurba_marseille","lat":43.29415,"lon":5.38624,"is_reserved":false,"is_disabled":false,"rental_uris":{"android":"levelo://app?vid=55ae3857-e43d-48cd-9494-9b95e5d65b0f","ios":"levelo://app?vid=55ae3857-e43d-48cd-9494-9b95e5d65b0f"},"vehicle_type_id":"4","last_reported":1745334608,"current_range_meters":26000,"station_id":"ce4bh2h2rcd13ifvqdh0","pricing_plan_id":"cebpf4jnsgd1na2vs0mg"},{"bike_id":"ad132283-acb1-42ed-9275-9caf7783de3f","system_id":"levelo_inurba_marseille","lat":43.23195,"lon":5.35546,"is_reserved":false,"is_disabled":false,"rental_uris":{"android":"levelo://app?vid=ad132283-acb1-42ed-9275-9caf7783de3f","ios":"levelo://app?vid=ad132283-acb1-42ed-9275-9caf7783de3f"},"vehicle_type_id":"4","last_reported":1745334608,"current_range_meters":26000,"station_id":"ce4bhu92rcd13ifvqi70","pricing_plan_id":"cebpf4jnsgd1na2vs0mg"},{"bike_id":"51fa9c74-bfea-450c-be8b-d00854903a9c","system_id":"levelo_inurba_marseille","lat":43.26929,"lon":5.38915,"is_reserved":false,"is_disabled":false,"rental_uris":{"android":"levelo://app?vid=51fa9c74-bfea-450c-be8b-d00854903a9c","ios":"levelo://app?vid=51fa9c74-bfea-450c-be8b-d00854903a9c"},"vehicle_type_id":"4","last_reported":1745334608,"current_range_meters":26000,"station_id":"ce4bhhh2rcd13ifvqfl0","pricing_plan_id":"cebpf4jnsgd1na2vs0mg"},{"bike_id":"4399d4ea-d6e6-4073-8fbe-8498562137cb","system_id":"levelo_inurba_marseille","lat":43.32361,"lon":5.36766,"is_reserved":false,"is_disabled":false,"rental_uris":{"android":"levelo://app?vid=4399d4ea-d6e6-4073-8fbe-8498562137cb","ios":"levelo://app?vid=4399d4ea-d6e6-4073-8fbe-8498562137cb"},"vehicle_type_id":"4","last_reported":1745334608,"current_range_meters":26800,"station_id":"ce4bhsh2rcd13ifvqi2g","pricing_plan_id":"cebpf4jnsgd1na2vs0mg"},{"bike_id":"9e6f0ed3-e46f-4399-9781-95b7c25037e7","system_id":"levelo_inurba_marseille","lat":43.31077,"lon":5.38367,"is_reserved":false,"is_disabled":false,"rental_uris":{"android":"levelo://app?vid=9e6f0ed3-e46f-4399-9781-95b7c25037e7","ios":"levelo://app?vid=9e6f0ed3-e46f-4399-9781-95b7c25037e7"},"vehicle_type_id":"4","last_reported":1745334608,"current_range_meters":26800,"station_id":"ce4bgv92rcd13ifvqcr0","pricing_plan_id":"cebpf4jnsgd1na2vs0mg"},{"bike_id":"342ac78a-847c-46dd-bf87-c04d5a0d6443","system_id":"levelo_inurba_marseille","lat":43.29247,"lon":5.38436,"is_reserved":false,"is_disabled":false,"rental_uris":{"android":"levelo://app?vid=342ac78a-847c-46dd-bf87-c04d5a0d6443","ios":"levelo://app?vid=342ac78a-847c-46dd-bf87-c04d5a0d6443"},"vehicle_type_id":"4","last_reported":1745334608,"current_range_meters":26800,"station_id":"ce4bh692rcd13ifvqea0","pricing_plan_id":"cebpf4jnsgd1na2vs0mg"},{"bike_id":"ec0c6f90-8042-4d5e-a237-60c6a3c76379","system_id":"levelo_inurba_marseille","lat":43.29051,"lon":5.38136,"is_reserved":false,"is_disabled":false,"rental_uris":{"android":"levelo://app?vid=ec0c6f90-8042-4d5e-a237-60c6a3c76379","ios":"levelo://app?vid=ec0c6f90-8042-4d5e-a237-60c6a3c76379"},"vehicle_type_id":"4","last_reported":1745334608,"current_range_meters":26800,"station_id":"ce4bh4p2rcd13ifvqe1g","pricing_plan_id":"cebpf4jnsgd1na2vs0mg"},{"bike_id":"25de7b14-c87e-461c-a3e9-b5841f9a0e2e","system_id":"levelo_inurba_marseille","lat":43.30889,"lon":5.37185,"is_reserved":false,"is_disabled":false,"rental_uris":{"android":"levelo://app?vid=25de7b14-c87e-461c-a3e9-b5841f9a0e2e","ios":"levelo://app?vid=25de7b14-c87e-461c-a3e9-b5841f9a0e2e"},"vehicle_type_id":"4","last_reported":1745334608,"current_range_meters":27200,"station_id":"ce4bguh2rcd13ifvqckg","pricing_plan_id":"cebpf4jnsgd1na2vs0mg"},{"bike_id":"91338313-9274-4872-aacc-ed7b6f5b1217","system_id":"levelo_inurba_marseille","lat":43.27188,"lon":5.40989,"is_reserved":false,"is_disabled":false,"rental_uris":{"android":"levelo://app?vid=91338313-9274-4872-aacc-ed7b6f5b1217","ios":"levelo://app?vid=91338313-9274-4872-aacc-ed7b6f5b1217"},"vehicle_type_id":"4","last_reported":1745334608,"current_range_meters":27200,"station_id":"ce4bhl12rcd13ifvqgf0","pricing_plan_id":"cebpf4jnsgd1na2vs0mg"},{"bike_id":"d2af60b5-f36e-4f52-91d3-62ab8893cb89","system_id":"levelo_inurba_marseille","lat":43.26792,"lon":5.39408,"is_reserved":false,"is_disabled":false,"rental_uris":{"android":"levelo://app?vid=d2af60b5-f36e-4f52-91d3-62ab8893cb89","ios":"levelo://app?vid=d2af60b5-f36e-4f52-91d3-62ab8893cb89"},"vehicle_type_id":"4","last_reported":1745334608,"current_range_meters":27200,"station_id":"ce4bhh12rcd13ifvqfg0","pricing_plan_id":"cebpf4jnsgd1na2vs0mg"},{"bike_id":"8598242b-7b48-406d-b534-cbaf0232ab11","system_id":"levelo_inurba_marseille","lat":43.29024,"lon":5.38633,"is_reserved":false,"is_disabled":false,"rental_uris":{"android":"levelo://app?vid=8598242b-7b48-406d-b534-cbaf0232ab11","ios":"levelo://app?vid=8598242b-7b48-406d-b534-cbaf0232ab11"},"vehicle_type_id":"4","last_reported":1745334608,"current_range_meters":27200,"station_id":"ce4bh4p2rcd13ifvqe0g","pricing_plan_id":"cebpf4jnsgd1na2vs0mg"},{"bike_id":"b2f93c88-afef-49e0-b03d-de3eafe1ee41","system_id":"levelo_inurba_marseille","lat":43.3014,"lon":5.38788,"is_reserved":false,"is_disabled":false,"rental_uris":{"android":"levelo://app?vid=b2f93c88-afef-49e0-b03d-de3eafe1ee41","ios":"levelo://app?vid=b2f93c88-afef-49e0-b03d-de3eafe1ee41"},"vehicle_type_id":"4","last_reported":1745334608,"current_range_meters":26800,"station_id":"ce4bghh2rcd13ifvqb60","pricing_plan_id":"cebpf4jnsgd1na2vs0mg"},{"bike_id":"d4f73ce5-e96d-4fa9-ab24-298684e534ce","system_id":"levelo_inurba_marseille","lat":43.29531,"lon":5.38548,"is_reserved":false,"is_disabled":false,"rental_uris":{"android":"levelo://app?vid=d4f73ce5-e96d-4fa9-ab24-298684e534ce","ios":"levelo://app?vid=d4f73ce5-e96d-4fa9-ab24-298684e534ce"},