{"last_updated":1738055388,"ttl":60,"version":"2.2","data":{"bikes":[{"bike_id":"e74a4194-578c-4f9b-bd1b-1d5a867e6ac8","system_id":"levelo_inurba_marseille","lat":43.28031,"lon":5.36946,"is_reserved":false,"is_disabled":false,"rental_uris":{"android":"levelo://app?vid=e74a4194-578c-4f9b-bd1b-1d5a867e6ac8","ios":"levelo://app?vid=e74a4194-578c-4f9b-bd1b-1d5a867e6ac8"},"vehicle_type_id":"4","last_reported":1738055388,"current_range_meters":25200,"station_id":"ce4bha12rcd13ifvqef0","pricing_plan_id":"cebpf4jnsgd1na2vs0mg"},{"bike_id":"ae221386-cfc0-4a72-b3b2-a39cf988493a","system_id":"levelo_inurba_marseille","lat":43.31497,"lon":5.37308,"is_reserved":false,"is_disabled":true,"rental_uris":{"android":"levelo://app?vid=ae221386-cfc0-4a72-b3b2-a39cf988493a","ios":"levelo://app?vid=ae221386-cfc0-4a72-b3b2-a39cf988493a"},"vehicle_type_id":"4","last_reported":1738055388,"current_range_meters":33200,"station_id":"ce4bgt12rcd13ifvqcd0","pricing_plan_id":"cebpf4jnsgd1na2vs0mg"},{"bike_id":"35279fba-64d9-4900-83c9-5b62edc2415e","system_id":"levelo_inurba_marseille","lat":43.23153,"lon":5.43718,"is_reserved":false,"is_disabled":false,"rental_uris":{"android":"levelo://app?vid=35279fba-64d9-4900-83c9-5b62edc2415e","ios":"levelo://app?vid=35279fba-64d9-4900-83c9-5b62edc2415e"},"vehicle_type_id":"4","last_reported":1738055388,"current_range_meters":9200,"station_id":"ce4bhmp2rcd13ifvqgog","pricing_plan_id":"cebpf4jnsgd1na2vs0mg"},{"bike_id":"ce9c6111-0118-42d1-bfda-6fdbc9033126","system_id":"levelo_inurba_marseille","lat":43.28001,"lon":5.40013,"is_reserved":false,"is_disabled":false,"rental_uris":{"android":"levelo://app?vid=ce9c6111-0118-42d1-bfda-6fdbc9033126","ios":"levelo://app?vid=ce9c6111-0118-42d1-bfda-6fdbc9033126"},"vehicle_type_id":"4","last_reported":1738055388,"current_range_meters":28800,"station_id":"ce4bho92rcd13ifvqh4g","pricing_plan_id":"cebpf4jnsgd1na2vs0mg"},{"bike_id":"349a98a3-02c5-4b0f-a93e-616687dc7c80","system_id":"levelo_inurba_marseille","lat":43.2592,"lon":5.40886,"is_reserved":false,"is_disabled":false,"rental_uris":{"android":"levelo://app?vid=349a98a3-02c5-4b0f-a93e-616687dc7c80","ios":"levelo://app?vid=349a98a3-02c5-4b0f-a93e-616687dc7c80"},"vehicle_type_id":"4","last_reported":1738055388,"current_range_meters":35600,"station_id":"ce4bhm92rcd13ifvqglg","pricing_plan_id":"cebpf4jnsgd1na2vs0mg"},{"bike_id":"1809305f-8607-42d4-9087-1cdeb62dd41c","system_id":"levelo_inurba_marseille","lat":43.30783,"lon":5.37647,"is_reserved":false,"is_disabled":false,"rental_uris":{"android":"levelo://app?vid=1809305f-8607-42d4-9087-1cdeb62dd41c","ios":"levelo://app?vid=1809305f-8607-42d4-9087-1cdeb62dd41c"},"vehicle_type_id":"4","last_reported":1738055388,"current_range_meters":35600,"station_id":"ce4bgv92rcd13ifvqcq0","pricing_plan_id":"cebpf4jnsgd1na2vs0mg"},{"bike_id":"8b1098b1-640e-4fd5-a15c-8d21ce3dcecf","system_id":"levelo_inurba_marseille","lat":43.27994,"lon":5.40031,"is_reserved":false,"is_disabled":false,"rental_uris":{"android":"levelo://app?vid=8b1098b1-640e-4fd5-a15c-8d21ce3dcecf","ios":"levelo://app?vid=8b1098b1-640e-4fd5-a15c-8d21ce3dcecf"},"vehicle_type_id":"4","last_reported":1738055388,"current_range_meters":38800,"station_id":"ce4bho92rcd13ifvqh4g","pricing_plan_id":"cebpf4jnsgd1na2vs0mg"},{"bike_id":"e4748294-3b6d-4c09-b4a3-7deef5ca15eb","system_id":"levelo_inurba_marseille","lat":43.29089,"lon":5.38159,"is_reserved":false,"is_disabled":false,"rental_uris":{"android":"levelo://app?vid=e4748294-3b6d-4c09-b4a3-7deef5ca15eb","ios":"levelo://app?vid=e4748294-3b6d-4c09-b4a3-7deef5ca15eb"},"vehicle_type_id":"4","last_reported":1738055388,"current_range_meters":39200,"station_id":"ce4bh512rcd13ifvqe2g","pricing_plan_id":"cebpf4jnsgd1na2vs0mg"},{"bike_id":"22d2d4db-89d7-4981-87a0-21a413664a9f","system_id":"levelo_inurba_marseille","lat":43.29041,"lon":5.4001,"is_reserved":false,"is_disabled":true,"rental_uris":{"android":"levelo://app?vid=22d2d4db-89d7-4981-87a0-21a413664a9f","ios":"levelo://app?vid=22d2d4db-89d7-4981-87a0-21a413664a9f"},"vehicle_type_id":"4","last_reported":1738055388,"current_range_meters":37600,"station_id":"ce4bh392rcd13ifvqdm0","pricing_plan_id":"cebpf4jnsgd1na2vs0mg"},{"bike_id":"88357c09-b23a-4ce5-92c1-dee17cbef234","system_id":"levelo_inurba_marseille","lat":43.30542,"lon":5.36695,"is_reserved":false,"is_disabled":false,"rental_uris":{"android":"levelo://app?vid=88357c09-b23a-4ce5-92c1-dee17cbef234","ios":"levelo://app?vid=88357c09-b23a-4ce5-92c1-dee17cbef234"},"vehicle_type_id":"4","last_reported":1738055388,"current_range_meters":20000,"station_id":"ce4bgrp2rcd13ifvqc9g","pricing_plan_id":"cebpf4jnsgd1na2vs0mg"},{"bike_id":"c2d2d49b-e5df-488d-b462-7be34a33e75e","system_id":"levelo_inurba_marseille","lat":43.27484,"lon":5.42468,"is_reserved":false,"is_disabled":false,"rental_uris":{"android":"levelo://app?vid=c2d2d49b-e5df-488d-b462-7be34a33e75e","ios":"levelo://app?vid=c2d2d49b-e5df-488d-b462-7be34a33e75e"},"vehicle_type_id":"4","last_reported":1738055388,"current_range_meters":33600,"station_id":"ce4bhn92rcd13ifvqgrg","pricing_plan_id":"cebpf4jnsgd1na2vs0mg"},{"bike_id":"09f5de13-c5b2-41ad-94a7-f8c8d825deef","system_id":"levelo_inurba_marseille","lat":43.278,"lon":5.40718,"is_reserved":false,"is_disabled":false,"rental_uris":{"android":"levelo://app?vid=09f5de13-c5b2-41ad-94a7-f8c8d825deef","ios":"levelo://app?vid=09f5de13-c5b2-41ad-94a7-f8c8d825deef"},"vehicle_type_id":"4","last_reported":1738055388,"current_range_meters":38400,"station_id":"ce4bhnh2rcd13ifvqgtg","pricing_plan_id":"cebpf4jnsgd1na2vs0mg"},{"bike_id":"d1005862-4bfe-477a-9e05-78e14cdb6942","system_id":"levelo_inurba_marseille","lat":43.29561,"lon":5.42267,"is_reserved":false,"is_disabled":false,"rental_uris":{"android":"levelo://app?vid=d1005862-4bfe-477a-9e05-78e14cdb6942","ios":"levelo://app?vid=d1005862-4bfe-477a-9e05-78e14cdb6942"},"vehicle_type_id":"4","last_reported":1738055388,"current_range_meters":38800,"station_id":"ce4bhph2rcd13ifvqhdg","pricing_plan_id":"cebpf4jnsgd1na2vs0mg"},{"bike_id":"1f36278f-5607-42b1-a26a-47f15a4b6277","system_id":"levelo_inurba_marseille","lat":43.29228,"lon":5.36051,"is_reserved":false,"is_disabled":false,"rental_uris":{"android":"levelo://app?vid=1f36278f-5607-42b1-a26a-47f15a4b6277","ios":"levelo://app?vid=1f36278f-5607-42b1-a26a-47f15a4b6277"},"vehicle_type_id":"4","last_reported":1738055388,"current_range_meters":38800,"station_id":"ce4bhbh2rcd13ifvqeqg","pricing_plan_id":"cebpf4jnsgd1na2vs0mg"},{"bike_id":"0e5577eb-e782-4733-a49d-962e327ff8c3","system_id":"levelo_inurba_marseille","lat":43.33598,"lon":5.41065,"is_reserved":false,"is_disabled":false,"rental_uris":{"android":"levelo://app?vid=0e5577eb-e782-4733-a49d-962e327ff8c3","ios":"levelo://app?vid=0e5577eb-e782-4733-a49d-962e327ff8c3"},"vehicle_type_id":"4","last_reported":1738055388,"current_range_meters":8800,"station_id":"ce4bhqh2rcd13ifvqhmg","pricing_plan_id":"cebpf4jnsgd1na2vs0mg"},{"bike_id":"a5bebe06-3ff8-4c00-bc91-f9e9b1fd7d83","system_id":"levelo_inurba_marseille","lat":43.31367,"lon":5.36694,"is_reserved":false,"is_disabled":false,"rental_uris":{"android":"levelo://app?vid=a5bebe06-3ff8-4c00-bc91-f9e9b1fd7d83","ios":"levelo://app?vid=a5bebe06-3ff8-4c00-bc91-f9e9b1fd7d83"},"vehicle_type_id":"4","last_reported":1738055388,"current_range_meters":24400,"station_id":"ce4bgr92rcd13ifvqc6g","pricing_plan_id":"cebpf4jnsgd1na2vs0mg"},{"bike_id":"446ae097-257a-44f3-86c2-42be592828d8","system_id":"levelo_inurba_marseille","lat":43.27571,"lon":5.38414,"is_reserved":false,"is_disabled":true,"rental_uris":{"android":"levelo://app?vid=446ae097-257a-44f3-86c2-42be592828d8","ios":"levelo://app?vid=446ae097-257a-44f3-86c2-42be592828d8"},"vehicle_type_id":"4","last_reported":1738055388,"current_range_meters":38800,"station_id":"ce4bhh92rcd13ifvqfi0","pricing_plan_id":"cebpf4jnsgd1na2vs0mg"},{"bike_id":"4dcddd28-ada1-4c40-824d-38858fdbfc1d","system_id":"levelo_inurba_marseille","lat":43.2603,"lon":5.37552,"is_reserved":false,"is_disabled":false,"rental_uris":{"android":"levelo://app?vid=4dcddd28-ada1-4c40-824d-38858fdbfc1d","ios":"levelo://app?vid=4dcddd28-ada1-4c40-824d-38858fdbfc1d"},"vehicle_type_id":"4","last_reported":1738055388,"current_range_meters":10000,"station_id":"","pricing_plan_id":"cebpf4jnsgd1na2vs0mg"},{"bike_id":"d26e582a-5764-4a37-8964-01ffe91a6b94","system_id":"levelo_inurba_marseille","lat":43.31394,"lon":5.36717,"is_reserved":false,"is_disabled":false,"rental_uris":{"android":"levelo://app?vid=d26e582a-5764-4a37-8964-01ffe91a6b94","ios":"levelo://app?vid=d26e582a-5764-4a37-8964-01ffe91a6b94"},"vehicle_type_id":"4","last_reported":1738055388,"current_range_meters":22000,"station_id":"","pricing_plan_id":"cebpf4jnsgd1na2vs0mg"},{"bike_id":"96c6d005-88bb-4fd6-98f4-0a014c553eb8","system_id":"levelo_inurba_marseille","lat":43.33011,"lon":5.39038,"is_reserved":false,"is_disabled":false,"rental_uris":{"android":"levelo://app?vid=96c6d005-88bb-4fd6-98f4-0a014c553eb8","ios":"levelo://app?vid=96c6d005-88bb-4fd6-98f4-0a014c553eb8"},"vehicle_type_id":"4","last_reported":1738055388,"current_range_meters":38800,"station_id":"ce4bhr92rcd13ifvqhrg","pricing_plan_id":"cebpf4jnsgd1na2vs0mg"},{"bike_id":"84b75094-6b85-43d4-9705-26193b8ae131","system_id":"levelo_inurba_marseille","lat":43.30904,"lon":5.36863,"is_reserved":false,"is_disabled":false,"rental_uris":{"android":"levelo://app?vid=84b75094-6b85-43d4-9705-26193b8ae131","ios":"levelo://app?vid=84b75094-6b85-43d4-9705-26193b8ae131"},"vehicle_type_id":"4","last_reported":1738055388,"current_range_meters":38000,"station_id":"ce4bgn92rcd13ifvqbvg","pricing_plan_id":"cebpf4jnsgd1na2vs0mg"},{"bike_id":"5c388708-e3f2-4bbd-88d9-c199a31e81f9","system_id":"levelo_inurba_marseille","lat":43.28686,"lon":5.40007,"is_reserved":false,"is_disabled":true,"rental_uris":{"android":"levelo://app?vid=5c388708-e3f2-4bbd-88d9-c199a31e81f9","ios":"levelo://app?vid=5c388708-e3f2-4bbd-88d9-c199a31e81f9"},"vehicle_type_id":"4","last_reported":1738055388,"current_range_meters":38000,"station_id":"ce4bho92rcd13ifvqh3g","pricing_plan_id":"cebpf4jnsgd1na2vs0mg"},{"bike_id":"c6b2aeea-8be6-4ed0-8019-7e88f71bd8d8","system_id":"levelo_inurba_marseille","lat":43.29842,"lon":5.36282,"is_reserved":false,"is_disabled":false,"rental_uris":{"android":"levelo://app?vid=c6b2aeea-8be6-4ed0-8019-7e88f71bd8d8","ios":"levelo://app?vid=c6b2aeea-8be6-4ed0-8019-7e88f71bd8d8"},"vehicle_type_id":"4","last_reported":1738055388,"current_range_meters":27600,"station_id":"ce4bgpp2rcd13ifvqc3g","pricing_plan_id":"cebpf4jnsgd1na2vs0mg"},{"bike_id":"7b2f5f64-8d5b-4c7d-a864-3b434ad17a80","system_id":"levelo_inurba_marseille","lat":43.28904,"lon":5.35505,"is_reserved":false,"is_disabled":false,"rental_uris":{"android":"levelo://app?vid=7b2f5f64-8d5b-4c7d-a864-3b434ad17a80","ios":"levelo://app?vid=7b2f5f64-8d5b-4c7d-a864-3b434ad17a80"},"vehicle_type_id":"4","last_reported":1738055388,"current_range_meters":19200,"station_id":"","pricing_plan_id":"cebpf4jnsgd1na2vs0mg"},{"bike_id":"df3feb83-e269-4c5e-8150-66ea71b787a7","system_id":"levelo_inurba_marseille","lat":43.27495,"lon":5.42451,"is_reserved":false,"is_disabled":false,"rental_uris":{"android":"levelo://app?vid=df3feb83-e269-4c5e-8150-66ea71b787a7","ios":"levelo://app?vid=df3feb83-e269-4c5e-8150-66ea71b787a7"},"vehicle_type_id":"4","last_reported":1738055388,"current_range_meters":30000,"station_id":"ce4bhn92rcd13ifvqgrg","pricing_plan_id":"cebpf4jnsgd1na2vs0mg"},{"bike_id":"d302b16d-f581-4992-9151-b0c15c078cdc","system_id":"levelo_inurba_marseille","lat":43.268032,"lon":5.402652,"is_reserved":false,"is_disabled":false,"rental_uris":{"android":"levelo://app?vid=d302b16d-f581-4992-9151-b0c15c078cdc","ios":"levelo://app?vid=d302b16d-f581-4992-9151-b0c15c078cdc"},"vehicle_type_id":"4","last_reported":1738055388,"current_range_meters":37600,"station_id":"ce501612rcd8frsf0b60","pricing_plan_id":"cebpf4jnsgd1na2vs0mg"},{"bike_id":"514e0375-0362-4f63-8567-42a290d6fde8","system_id":"levelo_inurba_marseille","lat":43.25586,"lon":5.38233,"is_reserved":false,"is_disabled":false,"rental_uris":{"android":"levelo://app?vid=514e0375-0362-4f63-8567-42a290d6fde8","ios":"levelo://app?vid=514e0375-0362-4f63-8567-42a290d6fde8"},"vehicle_type_id":"4","last_reported":1738055388,"current_range_meters":37600,"station_id":"ce4bhih2rcd13ifvqfs0","pricing_plan_id":"cebpf4jnsgd1na2vs0mg"},{"bike_id":"26b11614-6415-40a3-bed2-5926abfaad8a","system_id":"levelo_inurba_marseille","lat":43.26682,"lon":5.38256,"is_reserved":false,"is_disabled":true,"rental_uris":{"android":"levelo://app?vid=26b11614-6415-40a3-bed2-5926abfaad8a","ios":"levelo://app?vid=26b11614-6415-40a3-bed2-5926abfaad8a"},"vehicle_type_id":"4","last_reported":1738055388,"current_range_meters":32400,"station_id":"ce4bhg92rcd13ifvqf90","pricing_plan_id":"cebpf4jnsgd1na2vs0mg"},{"bike_id":"f2eeac19-a1a3-4bf8-959a-fcabe948ad45","system_id":"levelo_inurba_marseille","lat":43.33604,"lon":5.41022,"is_reserved":false,"is_disabled":false,"rental_uris":{"android":"levelo://app?vid=f2eeac19-a1a3-4bf8-959a-fcabe948ad45","ios":"levelo://app?vid=f2eeac19-a1a3-4bf8-959a-fcabe948ad45"},"vehicle_type_id":"4","last_reported":1738055388,"current_range_meters":39200,"station_id":"ce4bhqh2rcd13ifvqhmg","pricing_plan_id":"cebpf4jnsgd1na2vs0mg"},{"bike_id":"12f85043-32ca-49b8-bd75-39b0a52fbb53","system_id":"levelo_inurba_marseille","lat":43.27503,"lon":5.42481,"is_reserved":false,"is_disabled":false,"rental_uris":{"android":"levelo://app?vid=12f85043-32ca-49b8-bd75-39b0a52fbb53","ios":"levelo://app?vid=12f85043-32ca-49b8-bd75-39b0a52fbb53"},"vehicle_type_id":"4","last_reported":1738055388,"current_range_meters":32000,"station_id":"ce4bhn92rcd13ifvqgrg","pricing_plan_id":"cebpf4jnsgd1na2vs0mg"},{"bike_id":"4cd885e7-07fa-42ad-a294-3a57579ff57e","system_id":"levelo_inurba_marseille","lat":43.27491,"lon":5.42468,"is_reserved":false,"is_disabled":false,"rental_uris":{"android":"levelo://app?vid=4cd885e7-07fa-42ad-a294-3a57579ff57e","ios":"levelo://app?vid=4cd885e7-07fa-42ad-a294-3a57579ff57e"},"vehicle_type_id":"4","last_reported":1738055388,"current_range_meters":13600,"station_id":"ce4bhn92rcd13ifvqgrg","pricing_plan_id":"cebpf4jnsgd1na2vs0mg"},{"bike_id":"f97d89ed-9b9d-4475-a732-b5f09d6f3218","system_id":"levelo_inurba_marseille","lat":43.309,"lon":5.36858,"is_reserved":false,"is_disabled":false,"rental_uris":{"android":"levelo://app?vid=f97d89ed-9b9d-4475-a732-b5f09d6f3218","ios":"levelo://app?vid=f97d89ed-9b9d-4475-a732-b5f09d6f3218"},"vehicle_type_id":"4","last_reported":1738055388,"current_range_meters":18800,"station_id":"ce4bgn92rcd13ifvqbvg","pricing_plan_id":"cebpf4jnsgd1na2vs0mg"},{"bike_id":"6007ed66-b6ad-40a7-a82b-11ba91d10468","system_id":"levelo_inurba_marseille","lat":43.2439,"lon":5.37066,"is_reserved":false,"is_disabled":false,"rental_uris":{"android":"levelo://app?vid=6007ed66-b6ad-40a7-a82b-11ba91d10468","ios":"levelo://app?vid=6007ed66-b6ad-40a7-a82b-11ba91d10468"},"vehicle_type_id":"4","last_reported":1738055388,"current_range_meters":22400,"station_id":"ce4bhhh2rcd13ifvqfk0","pricing_plan_id":"cebpf4jnsgd1na2vs0mg"},{"bike_id":"f1ebd12c-367f-4aef-bc3a-21e0076461b7","system_id":"levelo_inurba_marseille","lat":43.30533,"lon":5.36708,"is_reserved":false,"is_disabled":false,"rental_uris":{"android":"levelo://app?vid=f1ebd12c-367f-4aef-bc3a-21e0076461b7","ios":"levelo://app?vid=f1ebd12c-367f-4aef-bc3a-21e0076461b7"},"vehicle_type_id":"4","last_reported":1738055388,"current_range_meters":38800,"station_id":"ce4bgrp2rcd13ifvqc9g","pricing_plan_id":"cebpf4jnsgd1na2vs0mg"},{"bike_id":"75f78423-7bb1-46bc-9291-8f61438106b2","system_id":"levelo_inurba_marseille","lat":43.33007,"lon":5.39058,"is_reserved":false,"is_disabled":false,"rental_uris":{"android":"levelo://app?vid=75f78423-7bb1-46bc-9291-8f61438106b2","ios":"levelo://app?vid=75f78423-7bb1-46bc-9291-8f61438106b2"},"vehicle_type_id":"4","last_reported":1738055388,"current_range_meters":30000,"station_id":"ce4bhr92rcd13ifvqhrg","pricing_plan_id":"cebpf4jnsgd1na2vs0mg"},{"bike_id":"6b58c0d3-b393-43a6-b788-79693e31f83f","system_id":"levelo_inurba_marseille","lat":43.27068,"lon":5.4228,"is_reserved":false,"is_disabled":false,"rental_uris":{"android":"levelo://app?vid=6b58c0d3-b393-43a6-b788-79693e31f83f","ios":"levelo://app?vid=6b58c0d3-b393-43a6-b788-79693e31f83f"},"vehicle_type_id":"4","last_reported":1738055388,"current_range_meters":14000,"station_id":"ce4bhk92rcd13ifvqgb0","pricing_plan_id":"cebpf4jnsgd1na2vs0mg"},{"bike_id":"5b093e90-300a-4b0a-a15d-ae22ef06f7a6","system_id":"levelo_inurba_marseille","lat":43.30531,"lon":5.36537,"is_reserved":false,"is_disabled":false,"rental_uris":{"android":"levelo://app?vid=5b093e90-300a-4b0a-a15d-ae22ef06f7a6","ios":"levelo://app?vid=5b093e90-300a-4b0a-a15d-ae22ef06f7a6"},"vehicle_type_id":"4","last_reported":1738055388,"current_range_meters":32800,"station_id":"ce4bgs12rcd13ifvqcag","pricing_plan_id":"cebpf4jnsgd1na2vs0mg"},{"bike_id":"8906b01c-c546-42d8-8a71-d3e4c23c32f6","system_id":"levelo_inurba_marseille","lat":43.24379,"lon":5.3707,"is_reserved":false,"is_disabled":false,"rental_uris":{"android":"levelo://app?vid=8906b01c-c546-42d8-8a71-d3e4c23c32f6","ios":"levelo://app?vid=8906b01c-c546-42d8-8a71-d3e4c23c32f6"},"vehicle_type_id":"4","last_reported":1738055388,"current_range_meters":39200,"station_id":"ce4bhhh2rcd13ifvqfk0","pricing_plan_id":"cebpf4jnsgd1na2vs0mg"},{"bike_id":"0613f6f9-5bdf-4b1e-a3b8-9eb5f8cb8163","system_id":"levelo_inurba_marseille","lat":43.27702,"lon":5.38941,"is_reserved":false,"is_disabled":false,"rental_uris":{"android":"levelo://app?vid=0613f6f9-5bdf-4b1e-a3b8-9eb5f8cb8163","ios":"levelo://app?vid=0613f6f9-5bdf-4b1e-a3b8-9eb5f8cb8163"},"vehicle_type_id":"4","last_reported":1738055388,"current_range_meters":29600,"station_id":"ce4bhi12rcd13ifvqfo0","pricing_plan_id":"cebpf4jnsgd1na2vs0mg"},{"bike_id":"f6864a64-ff58-4753-81db-8de578dbc8e0","system_id":"levelo_inurba_marseille","lat":43.30862,"lon":5.38136,"is_reserved":false,"is_disabled":false,"rental_uris":{"android":"levelo://app?vid=f6864a64-ff58-4753-81db-8de578dbc8e0","ios":"levelo://app?vid=f6864a64-ff58-4753-81db-8de578dbc8e0"},"vehicle_type_id":"4","last_reported":1738055388,"current_range_meters":18800,"station_id":"ce4bgup2rcd13ifvqco0","pricing_plan_id":"cebpf4jnsgd1na2vs0mg"},{"bike_id":"6629ea50-bbe0-48da-bc0b-667611788b58","system_id":"levelo_inurba_marseille","lat":43.29997,"lon":5.38491,"is_reserved":false,"is_disabled":true,"rental_uris":{"android":"levelo://app?vid=6629ea50-bbe0-48da-bc0b-667611788b58","ios":"levelo://app?vid=6629ea50-bbe0-48da-bc0b-667611788b58"},"vehicle_type_id":"4","last_reported":1738055388,"current_range_meters":2800,"station_id":"ce4bgj92rcd13ifvqbd0","pricing_plan_id":"cebpf4jnsgd1na2vs0mg"},{"bike_id":"54f3c960-269b-4f86-b232-d911cd13847b","system_id":"levelo_inurba_marseille","lat":43.29019,"lon":5.38623,"is_reserved":false,"is_disabled":false,"rental_uris":{"android":"levelo://app?vid=54f3c960-269b-4f86-b232-d911cd13847b","ios":"levelo://app?vid=54f3c960-269b-4f86-b232-d911cd13847b"},"vehicle_type_id":"4","last_reported":1738055388,"current_range_meters":36000,"station_id":"ce4bh4p2rcd13ifvqe0g","pricing_plan_id":"cebpf4jnsgd1na2vs0mg"},{"bike_id":"2bf0aa1d-7589-466f-a2ca-1611b0a4101e","system_id":"levelo_inurba_marseille","lat":43.27206,"lon":5.39181,"is_reserved":false,"is_disabled":false,"rental_uris":{"android":"levelo://app?vid=2bf0aa1d-7589-466f-a2ca-1611b0a4101e","ios":"levelo://app?vid=2bf0aa1d-7589-466f-a2ca-1611b0a4101e"},"vehicle_type_id":"4","last_reported":1738055388,"current_range_meters":36800,"station_id":"ce4bhhp2rcd13ifvqfm0","pricing_plan_id":"cebpf4jnsgd1na2vs0mg"},{"bike_id":"e4db3a86-3f36-4e5e-9963-a3ab316da563","system_id":"levelo_inurba_marseille","lat":43.29587,"lon":5.38093,"is_reserved":false,"is_disabled":false,"rental_uris":{"android":"levelo://app?vid=e4db3a86-3f36-4e5e-9963-a3ab316da563","ios":"levelo://app?vid=e4db3a86-3f36-4e5e-9963-a3ab316da563"},"vehicle_type_id":"4","last_reported":1738055388,"current_range_meters":38800,"station_id":"ce4bgl12rcd13ifvqbo0","pricing_plan_id":"cebpf4jnsgd1na2vs0mg"},{"bike_id":"74f5b4fb-c983-4859-8997-cbdd1d625684","system_id":"levelo_inurba_marseille","lat":43.25925,"lon":5.40878,"is_reserved":false,"is_disabled":false,"rental_uris":{"android":"levelo://app?vid=74f5b4fb-c983-4859-8997-cbdd1d625684","ios":"levelo://app?vid=74f5b4fb-c983-4859-8997-cbdd1d625684"},"vehicle_type_id":"4","last_reported":1738055388,"current_range_meters":33200,"station_id":"ce4bhm92rcd13ifvqglg","pricing_plan_id":"cebpf4jnsgd1na2vs0mg"},{"bike_id":"c7830262-ea23-45f4-9a23-990ed17ebf09","system_id":"levelo_inurba_marseille","lat":43.29872,"lon":5.39777,"is_reserved":false,"is_disabled":true,"rental_uris":{"android":"levelo://app?vid=c7830262-ea23-45f4-9a23-990ed17ebf09","ios":"levelo://app?vid=c7830262-ea23-45f4-9a23-990ed17ebf09"},"vehicle_type_id":"4","last_reported":1738055388,"current_range_meters":38000,"station_id":"ce4bh0h2rcd13ifvqd50","pricing_plan_id":"cebpf4jnsgd1na2vs0mg"},{"bike_id":"528dd257-e231-44f4-876b-6552ff415f71","system_id":"levelo_inurba_marseille","lat":43.2293,"lon":5.35376,"is_reserved":false,"is_disabled":false,"rental_uris":{"android":"levelo://app?vid=528dd257-e231-44f4-876b-6552ff415f71","ios":"levelo://app?vid=528dd257-e231-44f4-876b-6552ff415f71"},"vehicle_type_id":"4","last_reported":1738055388,"current_range_meters":36800,"station_id":"cpo3532slgdg3j2ikp40","pricing_plan_id":"cebpf4jnsgd1na2vs0mg"},{"bike_id":"c8a3a0ed-dff2-4f3c-87dc-2e6b47b1ad28","system_id":"levelo_inurba_marseille","lat":43.337444,"lon":5.374475,"is_reserved":false,"is_disabled":true,"rental_uris":{"android":"levelo://app?vid=c8a3a0ed-dff2-4f3c-87dc-2e6b47b1ad28","ios":"levelo://app?vid=c8a3a0ed-dff2-4f3c-87dc-2e6b47b1ad28"},"vehicle_type_id":"4","last_reported":1738055388,"current_range_meters":6000,"station_id":"","pricing_plan_id":"cebpf4jnsgd1na2vs0mg"},{"bike_id":"061a807c-1db8-46c7-beec-da6308b151ea","system_id":"levelo_inurba_marseille","lat":43.29598,"lon":5.3811,"is_reserved":false,"is_disabled":true,"rental_uris":{"android":"levelo://app?vid=061a807c-1db8-46c7-beec-da6308b151ea","ios":"levelo://app?vid=061a807c-1db8-46c7-beec-da6308b151ea"},"vehicle_type_id":"4","last_reported":1738055388,"current_range_meters":33200,"station_id":"ce4bgl12rcd13ifvqbo0","pricing_plan_id":"cebpf4jnsgd1na2vs0mg"},{"bike_id":"38540e81-16ab-49ee-bc5b-9723b654df44","system_id":"levelo_inurba_marseille","lat":43.27802,"lon":5.40727,"is_reserved":false,"is_disabled":true,"rental_uris":{"android":"levelo://app?vid=38540e81-16ab-49ee-bc5b-9723b654df44","ios":"levelo://app?vid=38540e81-16ab-49ee-bc5b-9723b654df44"},"vehicle_type_id":"4","last_reported":1738055388,"current_range_meters":11200,"station_id":"ce4bhnh2rcd13ifvqgtg","pricing_plan_id":"cebpf4jnsgd1na2vs0mg"},{"bike_id":"0a3c2fc6-3a3b-4b11-853c-a8532910522d","system_id":"levelo_inurba_marseille","lat":43.31747,"lon":5.39055,"is_reserved":false,"is_disabled":false,"rental_uris":{"android":"levelo://app?vid=0a3c2fc6-3a3b-4b11-853c-a8532910522d","ios":"levelo://app?vid=0a3c2fc6-3a3b-4b11-853c-a8532910522d"},"vehicle_type_id":"4","last_reported":1738055388,"current_range_meters":25600,"station_id":"ce4bhqp2rcd13ifvqhng","pricing_plan_id":"cebpf4jnsgd1na2vs0mg"},{"bike_id":"c56189c5-04b6-46c3-862e-b1fd4715143e","system_id":"levelo_inurba_marseille","lat":43.23144,"lon":5.43721,"is_reserved":false,"is_disabled":false,"rental_uris":{"android":"levelo://app?vid=c56189c5-04b6-46c3-862e-b1fd4715143e","ios":"levelo://app?vid=c56189c5-04b6-46c3-862e-b1fd4715143e"},"vehicle_type_id":"4","last_reported":1738055388,"current_range_meters":24800,"station_id":"ce4bhmp2rcd13ifvqgog","pricing_plan_id":"cebpf4jnsgd1na2vs0mg"},{"bike_id":"7125fabb-d4fe-450e-b9a8-9b858c3dc86d","system_id":"levelo_inurba_marseille","lat":43.32486,"lon":5.36593,"is_reserved":false,"is_disabled":false,"rental_uris":{"android":"levelo://app?vid=7125fabb-d4fe-450e-b9a8-9b858c3dc86d","ios":"levelo://app?vid=7125fabb-d4fe-450e-b9a8-9b858c3dc86d"},"vehicle_type_id":"4","last_reported":1738055388,"current_range_meters":29600,"station_id":"ce4bhs12rcd13ifvqhvg","pricing_plan_id":"cebpf4jnsgd1na2vs0mg"},{"bike_id":"931e730b-670d-467d-ac6c-1abaa408d981","system_id":"levelo_inurba_marseille","lat":43.3168,"lon":5.40471,"is_reserved":false,"is_disabled":true,"rental_uris":{"android":"levelo://app?vid=931e730b-670d-467d-ac6c-1abaa408d981","ios":"levelo://app?vid=931e730b-670d-467d-ac6c-1abaa408d981"},"vehicle_type_id":"4","last_reported":1738055388,"current_range_meters":38800,"station_id":"ce4bh012rcd13ifvqd00","pricing_plan_id":"cebpf4jnsgd1na2vs0mg"},{"bike_id":"c10772c1-b756-4347-a881-52be9ee41e08","system_id":"levelo_inurba_marseille","lat":43.29024,"lon":5.38647,"is_reserved":false,"is_disabled":false,"rental_uris":{"android":"levelo://app?vid=c10772c1-b756-4347-a881-52be9ee41e08","ios":"levelo://app?vid=c10772c1-b756-4347-a881-52be9ee41e08"},"vehicle_type_id":"4","last_reported":1738055388,"current_range_meters":9600,"station_id":"ce4bh4p2rcd13ifvqe0g","pricing_plan_id":"cebpf4jnsgd1na2vs0mg"},{"bike_id":"cd82f50f-1e86-40da-9758-123ed9f78048","system_id":"levelo_inurba_marseille","lat":43.27422,"lon":5.39421,"is_reserved":false,"is_disabled":false,"rental_uris":{"android":"levelo://app?vid=cd82f50f-1e86-40da-9758-123ed9f78048","ios":"levelo://app?vid=cd82f50f-1e86-40da-9758-123ed9f78048"},"vehicle_type_id":"4","last_reported":1738055388,"current_range_meters":35200,"station_id":"ce4bhdp2rcd13ifvqf20","pricing_plan_id":"cebpf4jnsgd1na2vs0mg"},{"bike_id":"6b29ecba-6c46-434d-9587-c494ece22898","system_id":"levelo_inurba_marseille","lat":43.3018,"lon":5.36607,"is_reserved":false,"is_disabled":false,"rental_uris":{"android":"levelo://app?vid=6b29ecba-6c46-434d-9587-c494ece22898","ios":"levelo://app?vid=6b29ecba-6c46-434d-9587-c494ece22898"},"vehicle_type_id":"4","last_reported":1738055388,"current_range_meters":30000,"station_id":"ce4bgrh2rcd13ifvqc8g","pricing_plan_id":"cebpf4jnsgd1na2vs0mg"},{"bike_id":"ae328ec3-88e1-4cf4-b7cb-126554e6a47b","system_id":"levelo_inurba_marseille","lat":43.31731,"lon":5.40443,"is_reserved":false,"is_disabled":false,"rental_uris":{"android":"levelo://app?vid=ae328ec3-88e1-4cf4-b7cb-126554e6a47b","ios":"levelo://app?vid=ae328ec3-88e1-4cf4-b7cb-126554e6a47b"},"vehicle_type_id":"4","last_reported":1738055388,"current_range_meters":37600,"station_id":"","pricing_plan_id":"cebpf4jnsgd1na2vs0mg"},{"bike_id":"9838cc78-2b53-49d3-ae13-82df62c4fd64","system_id":"levelo_inurba_marseille","lat":43.28412,"lon":5.40934,"is_reserved":false,"is_disabled":true,"rental_uris":{"android":"levelo://app?vid=9838cc78-2b53-49d3-ae13-82df62c4fd64","ios":"levelo://app?vid=9838cc78-2b53-49d3-ae13-82df62c4fd64"},"vehicle_type_id":"4","last_reported":1738055388,"current_range_meters":0,"station_id":"","pricing_plan_id":"cebpf4jnsgd1na2vs0mg"},{"bike_id":"e5cef4a6-2186-4da7-b93b-16853bc4d9e8","system_id":"levelo_inurba_marseille","lat":43.29041,"lon":5.39953,"is_reserved":false,"is_disabled":false,"rental_uris":{"android":"levelo://app?vid=e5cef4a6-2186-4da7-b93b-16853bc4d9e8","ios":"levelo://app?vid=e5cef4a6-2186-4da7-b93b-16853bc4d9e8"},"vehicle_type_id":"4","last_reported":1738055388,"current_range_meters":27600,"station_id":"ce4bh392rcd13ifvqdm0","pricing_plan_id":"cebpf4jnsgd1na2vs0mg"},{"bike_id":"f3a886a3-500d-4d32-a120-4a7101c0f911","system_id":"levelo_inurba_marseille","lat":43.26933,"lon":5.40255,"is_reserved":false,"is_disabled":false,"rental_uris":{"android":"levelo://app?vid=f3a886a3-500d-4d32-a120-4a7101c0f911","ios":"levelo://app?vid=f3a886a3-500d-4d32-a120-4a7101c0f911"},"vehicle_type_id":"4","last_reported":1738055388,"current_range_meters":38800,"station_id":"cjm6bp8fraef2m0cb0m0","pricing_plan_id":"cebpf4jnsgd1na2vs0mg"},{"bike_id":"cb4e9be8-016c-49c1-b27e-ec4528713cc6","system_id":"levelo_inurba_marseille","lat":43.29564,"lon":5.39979,"is_reserved":false,"is_disabled":true,"rental_uris":{"android":"levelo://app?vid=cb4e9be8-016c-49c1-b27e-ec4528713cc6","ios":"levelo://app?vid=cb4e9be8-016c-49c1-b27e-ec4528713cc6"},"vehicle_type_id":"4","last_reported":1738055388,"current_range_meters":1600,"station_id":"ce4bh312rcd13ifvqdj0","pricing_plan_id":"cebpf4jnsgd1na2vs0mg"},{"bike_id":"08f4db7c-088d-4d66-9ae3-751c57486c2e","system_id":"levelo_inurba_marseille","lat":43.30914,"lon":5.36887,"is_reserved":false,"is_disabled":false,"rental_uris":{"android":"levelo://app?vid=08f4db7c-088d-4d66-9ae3-751c57486c2e","ios":"levelo://app?vid=08f4db7c-088d-4d66-9ae3-751c57486c2e"},"vehicle_type_id":"4","last_reported":1738055388,"current_range_meters":10800,"station_id":"ce4bgn92rcd13ifvqbvg","pricing_plan_id":"cebpf4jnsgd1na2vs0mg"},{"bike_id":"1c756a91-157c-4d1a-b52a-f5d48998978e","system_id":"levelo_inurba_marseille","lat":43.27427,"lon":5.39406,"is_reserved":false,"is_disabled":false,"rental_uris":{"android":"levelo://app?vid=1c756a91-157c-4d1a-b52a-f5d48998978e","ios":"levelo://app?vid=1c756a91-157c-4d1a-b52a-f5d48998978e"},"vehicle_type_id":"4","last_reported":1738055388,"current_range_meters":33600,"station_id":"ce4bhdp2rcd13ifvqf20","pricing_plan_id":"cebpf4jnsgd1na2vs0mg"},{"bike_id":"d0bbd76d-08da-48b2-82e9-939364588150","system_id":"levelo_inurba_marseille","lat":43.29275,"lon":5.36841,"is_reserved":false,"is_disabled":false,"rental_uris":{"android":"levelo://app?vid=d0bbd76d-08da-48b2-82e9-939364588150","ios":"levelo://app?vid=d0bbd76d-08da-48b2-82e9-939364588150"},"vehicle_type_id":"4","last_reported":1738055388,"current_range_meters":19200,"station_id":"ce4bhbp2rcd13ifvqesg","pricing_plan_id":"cebpf4jnsgd1na2vs0mg"},{"bike_id":"cc9d89cf-0068-491f-97e3-130e63a3faaa","system_id":"levelo_inurba_marseille","lat":43.29787,"lon":5.38092,"is_reserved":false,"is_disabled":true,"rental_uris":{"android":"levelo://app?vid=cc9d89cf-0068-491f-97e3-130e63a3faaa","ios":"levelo://app?vid=cc9d89cf-0068-491f-97e3-130e63a3faaa"},"vehicle_type_id":"4","last_reported":1738055388,"current_range_meters":27200,"station_id":"ce4bgip2rcd13ifvqbb0","pricing_plan_id":"cebpf4jnsgd1na2vs0mg"},{"bike_id":"8c6478bf-a68b-4f59-8f60-278c687f9aff","system_id":"levelo_inurba_marseille","lat":43.30545,"lon":5.36713,"is_reserved":false,"is_disabled":false,"rental_uris":{"android":"levelo://app?vid=8c6478bf-a68b-4f59-8f60-278c687f9aff","ios":"levelo://app?vid=8c6478bf-a68b-4f59-8f60-278c687f9aff"},"vehicle_type_id":"4","last_reported":1738055388,"current_range_meters":32000,"station_id":"ce4bgrp2rcd13ifvqc9g","pricing_plan_id":"cebpf4jnsgd1na2vs0mg"},{"bike_id":"a1fc476c-de2f-4c7f-abcc-9d95906265c0","system_id":"levelo_inurba_marseille","lat":43.305,"lon":5.37838,"is_reserved":false,"is_disabled":false,"rental_uris":{"android":"levelo://app?vid=a1fc476c-de2f-4c7f-abcc-9d95906265c0","ios":"levelo://app?vid=a1fc476c-de2f-4c7f-abcc-9d95906265c0"},"vehicle_type_id":"4","last_reported":1738055388,"current_range_meters":35200,"station_id":"","pricing_plan_id":"cebpf4jnsgd1na2vs0mg"},{"bike_id":"4e5bc90a-2973-4125-8399-ba9ae9a7ee72","system_id":"levelo_inurba_marseille","lat":43.26946,"lon":5.38648,"is_reserved":false,"is_disabled":false,"rental_uris":{"android":"levelo://app?vid=4e5bc90a-2973-4125-8399-ba9ae9a7ee72","ios":"levelo://app?vid=4e5bc90a-2973-4125-8399-ba9ae9a7ee72"},"vehicle_type_id":"4","last_reported":1738055388,"current_range_meters":39200,"station_id":"ce4bhh92rcd13ifvqfh0","pricing_plan_id":"cebpf4jnsgd1na2vs0mg"},{"bike_id":"84dbd0a8-1d89-486d-9f22-95e19e4fcf49","system_id":"levelo_inurba_marseille","lat":43.29199,"lon":5.39323,"is_reserved":false,"is_disabled":false,"rental_uris":{"android":"levelo://app?vid=84dbd0a8-1d89-486d-9f22-95e19e4fcf49","ios":"levelo://app?vid=84dbd0a8-1d89-486d-9f22-95e19e4fcf49"},"vehicle_type_id":"4","last_reported":1738055388,"current_range_meters":30000,"station_id":"ce4bh192rcd13ifvqdd0","pricing_plan_id":"cebpf4jnsgd1na2vs0mg"},{"bike_id":"2e0a8b86-b457-48a0-8577-213b01080398","system_id":"levelo_inurba_marseille","lat":43.23188,"lon":5.35547,"is_reserved":false,"is_disabled":false,"rental_uris":{"android":"levelo://app?vid=2e0a8b86-b457-48a0-8577-213b01080398","ios":"levelo://app?vid=2e0a8b86-b457-48a0-8577-213b01080398"},"vehicle_type_id":"4","last_reported":1738055388,"current_range_meters":39200,"station_id":"ce4bhu92rcd13ifvqi70","pricing_plan_id":"cebpf4jnsgd1na2vs0mg"},{"bike_id":"5e223a13-d9d6-4104-a061-2e2e2022fe21","system_id":"levelo_inurba_marseille","lat":43.23151,"lon":5.43723,"is_reserved":false,"is_disabled":false,"rental_uris":{"android":"levelo://app?vid=5e223a13-d9d6-4104-a061-2e2e2022fe21","ios":"levelo://app?vid=5e223a13-d9d6-4104-a061-2e2e2022fe21"},"vehicle_type_id":"4","last_reported":1738055388,"current_range_meters":20400,"station_id":"ce4bhmp2rcd13ifvqgog","pricing_plan_id":"cebpf4jnsgd1na2vs0mg"},{"bike_id":"d979d8d2-ec65-47af-9229-e4270aab279a","system_id":"levelo_inurba_marseille","lat":43.23062,"lon":5.3549,"is_reserved":false,"is_disabled":false,"rental_uris":{"android":"levelo://app?vid=d979d8d2-ec65-47af-9229-e4270aab279a","ios":"levelo://app?vid=d979d8d2-ec65-47af-9229-e4270aab279a"},"vehicle_type_id":"4","last_reported":1738055388,"current_range_meters":24800,"station_id":"cpo3342slgdg3j2ifvpg","pricing_plan_id":"cebpf4jnsgd1na2vs0mg"},{"bike_id":"beec82ff-6bac-4064-befa-4bdf4421761b","system_id":"levelo_inurba_marseille","lat":43.31707,"lon":5.42394,"is_reserved":false,"is_disabled":false,"rental_uris":{"android":"levelo://app?vid=beec82ff-6bac-4064-befa-4bdf4421761b","ios":"levelo://app?vid=beec82ff-6bac-4064-befa-4bdf4421761b"},"vehicle_type_id":"4","last_reported":1738055388,"current_range_meters":8000,"station_id":"ce4bhp92rcd13ifvqhbg","pricing_plan_id":"cebpf4jnsgd1na2vs0mg"},{"bike_id":"fcd87167-ca69-4acc-9014-02c3d57a54f0","system_id":"levelo_inurba_marseille","lat":43.32535,"lon":5.41452,"is_reserved":false,"is_disabled":false,"rental_uris":{"android":"levelo://app?vid=fcd87167-ca69-4acc-9014-02c3d57a54f0","ios":"levelo://app?vid=fcd87167-ca69-4acc-9014-02c3d57a54f0"},"vehicle_type_id":"4","last_reported":1738055388,"current_range_meters":38800,"station_id":"ce4bhq12rcd13ifvqhhg","pricing_plan_id":"cebpf4jnsgd1na2vs0mg"},{"bike_id":"11b433ad-6e62-4b44-a5d1-e7d765e0fd67","system_id":"levelo_inurba_marseille","lat":43.28002,"lon":5.40032,"is_reserved":false,"is_disabled":false,"rental_uris":{"android":"levelo://app?vid=11b433ad-6e62-4b44-a5d1-e7d765e0fd67","ios":"levelo://app?vid=11b433ad-6e62-4b44-a5d1-e7d765e0fd67"},"vehicle_type_id":"4","last_reported":1738055388,"current_range_meters":39200,"station_id":"ce4bho92rcd13ifvqh4g","pricing_plan_id":"cebpf4jnsgd1na2vs0mg"},{"bike_id":"6664f5d0-d4fd-4cc2-bf4f-e873b1144bc5","system_id":"levelo_inurba_marseille","lat":43.266787,"lon":5.382473,"is_reserved":false,"is_disabled":false,"rental_uris":{"android":"levelo://app?vid=6664f5d0-d4fd-4cc2-bf4f-e873b1144bc5","ios":"levelo://app?vid=6664f5d0-d4fd-4cc2-bf4f-e873b1144bc5"},"vehicle_type_id":"4","last_reported":1738055388,"current_range_meters":10000,"station_id":"ce4bhg92rcd13ifvqf90","pricing_plan_id":"cebpf4jnsgd1na2vs0mg"},{"bike_id":"c92f3ed1-1832-45b1-95ae-e066a3c304bb","system_id":"levelo_inurba_marseille","lat":43.33027,"lon":5.39053,"is_reserved":false,"is_disabled":false,"rental_uris":{"android":"levelo://app?vid=c92f3ed1-1832-45b1-95ae-e066a3c304bb","ios":"levelo://app?vid=c92f3ed1-1832-45b1-95ae-e066a3c304bb"},"vehicle_type_id":"4","last_reported":1738055388,"current_range_meters":38400,"station_id":"ce4bhr92rcd13ifvqhrg","pricing_plan_id":"cebpf4jnsgd1na2vs0mg"},{"bike_id":"e09bb23f-a1fd-4000-b950-2996c456c830","system_id":"levelo_inurba_marseille","lat":43.31359,"lon":5.3849,"is_reserved":false,"is_disabled":false,"rental_uris":{"android":"levelo://app?vid=e09bb23f-a1fd-4000-b950-2996c456c830","ios":"levelo://app?vid=e09bb23f-a1fd-4000-b950-2996c456c830"},"vehicle_type_id":"4","last_reported":1738055388,"current_range_meters":22000,"station_id":"ce4bgt92rcd13ifvqcf0","pricing_plan_id":"cebpf4jnsgd1na2vs0mg"},{"bike_id":"60881969-2b21-4328-b823-e3e5062d06ef","system_id":"levelo_inurba_marseille","lat":43.27488,"lon":5.42454,"is_reserved":false,"is_disabled":false,"rental_uris":{"android":"levelo://app?vid=60881969-2b21-4328-b823-e3e5062d06ef","ios":"levelo://app?vid=60881969-2b21-4328-b823-e3e5062d06ef"},"vehicle_type_id":"4","last_reported":1738055388,"current_range_meters":10000,"station_id":"ce4bhn92rcd13ifvqgrg","pricing_plan_id":"cebpf4jnsgd1na2vs0mg"},{"bike_id":"65e5d743-4939-4264-b58d-d07fa3ba4595","system_id":"levelo_inurba_marseille","lat":43.24805,"lon":5.37453,"is_reserved":false,"is_disabled":false,"rental_uris":{"android":"levelo://app?vid=65e5d743-4939-4264-b58d-d07fa3ba4595","ios":"levelo://app?vid=65e5d743-4939-4264-b58d-d07fa3ba4595"},"vehicle_type_id":"4","last_reported":1738055388,"current_range_meters":38400,"station_id":"ce4bhgh2rcd13ifvqfb0","pricing_plan_id":"cebpf4jnsgd1na2vs0mg"},{"bike_id":"75214a19-3086-4aab-8ba6-a177978da634","system_id":"levelo_inurba_marseille","lat":43.29894,"lon":5.4367,"is_reserved":false,"is_disabled":false,"rental_uris":{"android":"levelo://app?vid=75214a19-3086-4aab-8ba6-a177978da634","ios":"levelo://app?vid=75214a19-3086-4aab-8ba6-a177978da634"},"vehicle_type_id":"4","last_reported":1738055388,"current_range_meters":36800,"station_id":"ce4bhpp2rcd13ifvqhfg","pricing_plan_id":"cebpf4jnsgd1na2vs0mg"},{"bike_id":"30bbb00e-1612-4a25-b2e9-c8ad656fb58a","system_id":"levelo_inurba_marseille","lat":43.337229,"lon":5.391924,"is_reserved":false,"is_disabled":false,"rental_uris":{"android":"levelo://app?vid=30bbb00e-1612-4a25-b2e9-c8ad656fb58a","ios":"levelo://app?vid=30bbb00e-1612-4a25-b2e9-c8ad656fb58a"},"vehicle_type_id":"4","last_reported":1738055388,"current_range_meters":38800,"station_id":"ce4bhr92rcd13ifvqhsg","pricing_plan_id":"cebpf4jnsgd1na2vs0mg"},{"bike_id":"6590976d-da3e-42ca-a8af-08fcef791f42","system_id":"levelo_inurba_marseille","lat":43.29796,"lon":5.38098,"is_reserved":false,"is_disabled":false,"rental_uris":{"android":"levelo://app?vid=6590976d-da3e-42ca-a8af-08fcef791f42","ios":"levelo://app?vid=6590976d-da3e-42ca-a8af-08fcef791f42"},"vehicle_type_id":"4","last_reported":1738055388,"current_range_meters":38400,"station_id":"ce4bgip2rcd13ifvqbb0","pricing_plan_id":"cebpf4jnsgd1na2vs0mg"},{"bike_id":"911a9686-a84c-48d0-8f81-51ea016cf4c6","system_id":"levelo_inurba_marseille","lat":43.30467,"lon":5.37897,"is_reserved":false,"is_disabled":false,"rental_uris":{"android":"levelo://app?vid=911a9686-a84c-48d0-8f81-51ea016cf4c6","ios":"levelo://app?vid=911a9686-a84c-48d0-8f81-51ea016cf4c6"},"vehicle_type_id":"4","last_reported":1738055388,"current_range_meters":38800,"station_id":"ce4bgup2rcd13ifvqcn0","pricing_plan_id":"cebpf4jnsgd1na2vs0mg"},{"bike_id":"ddeeb021-3aa5-4692-ac65-d696b9db8d28","system_id":"levelo_inurba_marseille","lat":43.33022,"lon":5.39037,"is_reserved":false,"is_disabled":false,"rental_uris":{"android":"levelo://app?vid=ddeeb021-3aa5-4692-ac65-d696b9db8d28","ios":"levelo://app?vid=ddeeb021-3aa5-4692-ac65-d696b9db8d28"},"vehicle_type_id":"4","last_reported":1738055388,"current_range_meters":38400,"station_id":"ce4bhr92rcd13ifvqhrg","pricing_plan_id":"cebpf4jnsgd1na2vs0mg"},{"bike_id":"af721f4e-7a43-4ca7-b439-ce7407c250b4","system_id":"levelo_inurba_marseille","lat":43.30786,"lon":5.37642,"is_reserved":false,"is_disabled":false,"rental_uris":{"android":"levelo://app?vid=af721f4e-7a43-4ca7-b439-ce7407c250b4","ios":"levelo://app?vid=af721f4e-7a43-4ca7-b439-ce7407c250b4"},"vehicle_type_id":"4","last_reported":1738055388,"current_range_meters":33600,"station_id":"ce4bgv92rcd13ifvqcq0","pricing_plan_id":"cebpf4jnsgd1na2vs0mg"},{"bike_id":"580828f0-3b12-422d-95d2-0d346530f1dd","system_id":"levelo_inurba_marseille","lat":43.25091,"lon":5.39529,"is_reserved":false,"is_disabled":false,"rental_uris":{"android":"levelo://app?vid=580828f0-3b12-422d-95d2-0d346530f1dd","ios":"levelo://app?vid=580828f0-3b12-422d-95d2-0d346530f1dd"},"vehicle_type_id":"4","last_reported":1738055388,"current_range_meters":20000,"station_id":"ce4bhm12rcd13ifvqgkg","pricing_plan_id":"cebpf4jnsgd1na2vs0mg"},{"bike_id":"1c11a251-cd73-4f08-868f-b1cd32c09816","system_id":"levelo_inurba_marseille","lat":43.26947,"lon":5.38661,"is_reserved":false,"is_disabled":false,"rental_uris":{"android":"levelo://app?vid=1c11a251-cd73-4f08-868f-b1cd32c09816","ios":"levelo://app?vid=1c11a251-cd73-4f08-868f-b1cd32c09816"},"vehicle_type_id":"4","last_reported":1738055388,"current_range_meters":35200,"station_id":"ce4bhh92rcd13ifvqfh0","pricing_plan_id":"cebpf4jnsgd1na2vs0mg"},{"bike_id":"1b6d1f5b-b5e8-43dd-b451-e58d9fbc5288","system_id":"levelo_inurba_marseille","lat":43.30884,"lon":5.3686,"is_reserved":false,"is_disabled":true,"rental_uris":{"android":"levelo://app?vid=1b6d1f5b-b5e8-43dd-b451-e58d9fbc5288","ios":"levelo://app?vid=1b6d1f5b-b5e8-43dd-b451-e58d9fbc5288"},"vehicle_type_id":"4","last_reported":1738055388,"current_range_meters":14400,"station_id":"ce4bgn92rcd13ifvqbvg","pricing_plan_id":"cebpf4jnsgd1na2vs0mg"},{"bike_id":"3c9c9088-9c27-4609-bc62-8218c0dc2be8","system_id":"levelo_inurba_marseille","lat":43.23188,"lon":5.35574,"is_reserved":false,"is_disabled":false,"rental_uris":{"android":"levelo://app?vid=3c9c9088-9c27-4609-bc62-8218c0dc2be8","ios":"levelo://app?vid=3c9c9088-9c27-4609-bc62-8218c0dc2be8"},"vehicle_type_id":"4","last_reported":1738055388,"current_range_meters":33600,"station_id":"ce4bhu92rcd13ifvqi70","pricing_plan_id":"cebpf4jnsgd1na2vs0mg"},{"bike_id":"222c6341-6836-4407-979a-eee9206f6e0f","system_id":"levelo_inurba_marseille","lat":43.29227,"lon":5.36061,"is_reserved":false,"is_disabled":true,"rental_uris":{"android":"levelo://app?vid=222c6341-6836-4407-979a-eee9206f6e0f","ios":"levelo://app?vid=222c6341-6836-4407-979a-eee9206f6e0f"},"vehicle_type_id":"4","last_reported":1738055388,"current_range_meters":15200,"station_id":"ce4bhbh2rcd13ifvqeqg","pricing_plan_id":"cebpf4jnsgd1na2vs0mg"},{"bike_id":"b8566160-b40d-424f-8019-32d28a0dd9c6","system_id":"levelo_inurba_marseille","lat":43.29026,"lon":5.39969,"is_reserved":false,"is_disabled":false,"rental_uris":{"android":"levelo://app?vid=b8566160-b40d-424f-8019-32d28a0dd9c6","ios":"levelo://app?vid=b8566160-b40d-424f-8019-32d28a0dd9c6"},"vehicle_type_id":"4","last_reported":1738055388,"current_range_meters":37600,"station_id":"ce4bh392rcd13ifvqdm0","pricing_plan_id":"cebpf4jnsgd1na2vs0mg"},{"bike_id":"b308046a-c027-4900-b5fd-3955e36a4117","system_id":"levelo_inurba_marseille","lat":43.29299,"lon":5.37132,"is_reserved":false,"is_disabled":false,"rental_uris":{"android":"levelo://app?vid=b308046a-c027-4900-b5fd-3955e36a4117","ios":"levelo://app?vid=b308046a-c027-4900-b5fd-3955e36a4117"},"vehicle_type_id":"4","last_reported":1738055388,"current_range_meters":2800,"station_id":"ce4bgh92rcd13ifvqb40","pricing_plan_id":"cebpf4jnsgd1na2vs0mg"},{"bike_id":"4c6e6037-c2de-4c78-8ebc-763221a61613","system_id":"levelo_inurba_marseille","lat":43.22931,"lon":5.3538,"is_reserved":false,"is_disabled":false,"rental_uris":{"android":"levelo://app?vid=4c6e6037-c2de-4c78-8ebc-763221a61613","ios":"levelo://app?vid=4c6e6037-c2de-4c78-8ebc-763221a61613"},"vehicle_type_id":"4","last_reported":1738055388,"current_range_meters":28800,"station_id":"cpo3532slgdg3j2ikp40","pricing_plan_id":"cebpf4jnsgd1na2vs0mg"},{"bike_id":"e249ec43-91fb-44a9-be10-94ed3cb42a3b","system_id":"levelo_inurba_marseille","lat":43.309,"lon":5.36848,"is_reserved":false,"is_disabled":false,"rental_uris":{"android":"levelo://app?vid=e249ec43-91fb-44a9-be10-94ed3cb42a3b","ios":"levelo://app?vid=e249ec43-91fb-44a9-be10-94ed3cb42a3b"},"vehicle_type_id":"4","last_reported":1738055388,"current_range_meters":18000,"station_id":"ce4bgn92rcd13ifvqbvg","pricing_plan_id":"cebpf4jnsgd1na2vs0mg"},{"bike_id":"c5b4b0de-be85-4e58-bc32-b96b8050a2a3","system_id":"levelo_inurba_marseille","lat":43.29287,"lon":5.37468,"is_reserved":false,"is_disabled":false,"rental_uris":{"android":"levelo://app?vid=c5b4b0de-be85-4e58-bc32-b96b8050a2a3","ios":"levelo://app?vid=c5b4b0de-be85-4e58-bc32-b96b8050a2a3"},"vehicle_type_id":"4","last_reported":1738055388,"current_range_meters":36400,"station_id":"ce4bgi12rcd13ifvqb70","pricing_plan_id":"cebpf4jnsgd1na2vs0mg"},{"bike_id":"df1440ab-6c98-4811-96ed-60cc1ae214b5","system_id":"levelo_inurba_marseille","lat":43.24059,"lon":5.37749,"is_reserved":false,"is_disabled":false,"rental_uris":{"android":"levelo://app?vid=df1440ab-6c98-4811-96ed-60cc1ae214b5","ios":"levelo://app?vid=df1440ab-6c98-4811-96ed-60cc1ae214b5"},"vehicle_type_id":"4","last_reported":1738055388,"current_range_meters":39200,"station_id":"ce4bhnp2rcd13ifvqgvg","pricing_plan_id":"cebpf4jnsgd1na2vs0mg"},{"bike_id":"ea8b839e-e013-4f27-ac3a-97a0ba4cf3fa","system_id":"levelo_inurba_marseille","lat":43.30234,"lon":5.40071,"is_reserved":false,"is_disabled":true,"rental_uris":{"android":"levelo://app?vid=ea8b839e-e013-4f27-ac3a-97a0ba4cf3fa","ios":"levelo://app?vid=ea8b839e-e013-4f27-ac3a-97a0ba4cf3fa"},"vehicle_type_id":"4","last_reported":1738055388,"current_range_meters":22400,"station_id":"ce4bgvh2rcd13ifvqcs0","pricing_plan_id":"cebpf4jnsgd1na2vs0mg"},{"bike_id":"282600db-9c86-4885-85ae-fe60779ea362","system_id":"levelo_inurba_marseille","lat":43.23959,"lon":5.36627,"is_reserved":false,"is_disabled":false,"rental_uris":{"android":"levelo://app?vid=282600db-9c86-4885-85ae-fe60779ea362","ios":"levelo://app?vid=282600db-9c86-4885-85ae-fe60779ea362"},"vehicle_type_id":"4","last_reported":1738055388,"current_range_meters":28400,"station_id":"ce4bhi12rcd13ifvqfp0","pricing_plan_id":"cebpf4jnsgd1na2vs0mg"},{"bike_id":"1843b88d-f8ae-4628-91d5-5fe0627f2a44","system_id":"levelo_inurba_marseille","lat":43.30473,"lon":5.37906,"is_reserved":false,"is_disabled":false,"rental_uris":{"android":"levelo://app?vid=1843b88d-f8ae-4628-91d5-5fe0627f2a44","ios":"levelo://app?vid=1843b88d-f8ae-4628-91d5-5fe0627f2a44"},"vehicle_type_id":"4","last_reported":1738055388,"current_range_meters":38800,"station_id":"ce4bgup2rcd13ifvqcn0","pricing_plan_id":"cebpf4jnsgd1na2vs0mg"},{"bike_id":"b58e9c2c-f4fa-4e4d-a3e6-d964f639b0fc","system_id":"levelo_inurba_marseille","lat":43.31419,"lon":5.36667,"is_reserved":false,"is_disabled":false,"rental_uris":{"android":"levelo://app?vid=b58e9c2c-f4fa-4e4d-a3e6-d964f639b0fc","ios":"levelo://app?vid=b58e9c2c-f4fa-4e4d-a3e6-d964f639b0fc"},"vehicle_type_id":"4","last_reported":1738055388,"current_range_meters":38800,"station_id":"ce4bgr92rcd13ifvqc6g","pricing_plan_id":"cebpf4jnsgd1na2vs0mg"},{"bike_id":"8707dca8-5fb6-4e35-a1ec-1f30a01fea05","system_id":"levelo_inurba_marseille","lat":43.29549,"lon":5.42314,"is_reserved":false,"is_disabled":false,"rental_uris":{"android":"levelo://app?vid=8707dca8-5fb6-4e35-a1ec-1f30a01fea05","ios":"levelo://app?vid=8707dca8-5fb6-4e35-a1ec-1f30a01fea05"},"vehicle_type_id":"4","last_reported":1738055388,"current_range_meters":37600,"station_id":"ce4bhph2rcd13ifvqhdg","pricing_plan_id":"cebpf4jnsgd1na2vs0mg"},{"bike_id":"9fa6fcb7-ffec-4036-bea7-a37153cc2364","system_id":"levelo_inurba_marseille","lat":43.31219,"lon":5.36858,"is_reserved":false,"is_disabled":false,"rental_uris":{"android":"levelo://app?vid=9fa6fcb7-ffec-4036-bea7-a37153cc2364","ios":"levelo://app?vid=9fa6fcb7-ffec-4036-bea7-a37153cc2364"},"vehicle_type_id":"4","last_reported":1738055388,"current_range_meters":19600,"station_id":"ce4bgl92rcd13ifvqbq0","pricing_plan_id":"cebpf4jnsgd1na2vs0mg"},{"bike_id":"5e34882c-0343-4784-9a1e-5d627980584c","system_id":"levelo_inurba_marseille","lat":43.30793,"lon":5.38152,"is_reserved":false,"is_disabled":false,"rental_uris":{"android":"levelo://app?vid=5e34882c-0343-4784-9a1e-5d627980584c","ios":"levelo://app?vid=5e34882c-0343-4784-9a1e-5d627980584c"},"vehicle_type_id":"4","last_reported":1738055388,"current_range_meters":38800,"station_id":"ce4bgt12rcd13ifvqce0","pricing_plan_id":"cebpf4jnsgd1na2vs0mg"},{"bike_id":"5d33832e-6e89-409d-93b6-0f3932cd9c7b","system_id":"levelo_inurba_marseille","lat":43.28955,"lon":5.36638,"is_reserved":false,"is_disabled":false,"rental_uris":{"android":"levelo://app?vid=5d33832e-6e89-409d-93b6-0f3932cd9c7b","ios":"levelo://app?vid=5d33832e-6e89-409d-93b6-0f3932cd9c7b"},"vehicle_type_id":"4","last_reported":1738055388,"current_range_meters":38800,"station_id":"ce4bhap2rcd13ifvqek0","pricing_plan_id":"cebpf4jnsgd1na2vs0mg"},{"bike_id":"026e2d1d-0684-47b3-a37c-2a8231607cce","system_id":"levelo_inurba_marseille","lat":43.30294,"lon":5.39214,"is_reserved":false,"is_disabled":false,"rental_uris":{"android":"levelo://app?vid=026e2d1d-0684-47b3-a37c-2a8231607cce","ios":"levelo://app?vid=026e2d1d-0684-47b3-a37c-2a8231607cce"},"vehicle_type_id":"4","last_reported":1738055388,"current_range_meters":38400,"station_id":"ce4bgkh2rcd13ifvqbk0","pricing_plan_id":"cebpf4jnsgd1na2vs0mg"},{"bike_id":"bc9cd7f0-1213-4d6c-8243-d27cefd53713","system_id":"levelo_inurba_marseille","lat":43.30133,"lon":5.38783,"is_reserved":false,"is_disabled":false,"rental_uris":{"android":"levelo://app?vid=bc9cd7f0-1213-4d6c-8243-d27cefd53713","ios":"levelo://app?vid=bc9cd7f0-1213-4d6c-8243-d27cefd53713"},"vehicle_type_id":"4","last_reported":1738055388,"current_range_meters":30400,"station_id":"ce4bghh2rcd13ifvqb60","pricing_plan_id":"cebpf4jnsgd1na2vs0mg"},{"bike_id":"2256710f-428a-4b6c-afaf-f485da875c48","system_id":"levelo_inurba_marseille","lat":43.28598,"lon":5.35111,"is_reserved":false,"is_disabled":false,"rental_uris":{"android":"levelo://app?vid=2256710f-428a-4b6c-afaf-f485da875c48","ios":"levelo://app?vid=2256710f-428a-4b6c-afaf-f485da875c48"},"vehicle_type_id":"4","last_reported":1738055388,"current_range_meters":16400,"station_id":"ce4bhch2rcd13ifvqeug","pricing_plan_id":"cebpf4jnsgd1na2vs0mg"},{"bike_id":"ab2c796a-c23b-4a3a-9534-777b873d6a05","system_id":"levelo_inurba_marseille","lat":43.24162,"lon":5.36399,"is_reserved":false,"is_disabled":false,"rental_uris":{"android":"levelo://app?vid=ab2c796a-c23b-4a3a-9534-777b873d6a05","ios":"levelo://app?vid=ab2c796a-c23b-4a3a-9534-777b873d6a05"},"vehicle_type_id":"4","last_reported":1738055388,"current_range_meters":22000,"station_id":"cpo36qri1sfpv3e86is0","pricing_plan_id":"cebpf4jnsgd1na2vs0mg"},{"bike_id":"e6123354-d261-4fed-9cd4-585f2a421229","system_id":"levelo_inurba_marseille","lat":43.29367,"lon":5.37829,"is_reserved":false,"is_disabled":false,"rental_uris":{"android":"levelo://app?vid=e6123354-d261-4fed-9cd4-585f2a421229","ios":"levelo://app?vid=e6123354-d261-4fed-9cd4-585f2a421229"},"vehicle_type_id":"4","last_reported":1738055388,"current_range_meters":36400,"station_id":"ce4bgjh2rcd13ifvqbf0","pricing_plan_id":"cebpf4jnsgd1na2vs0mg"},{"bike_id":"47ca1ed0-ef62-4af3-9e98-affec9af63de","system_id":"levelo_inurba_marseille","lat":43.26952,"lon":5.38633,"is_reserved":false,"is_disabled":false,"rental_uris":{"android":"levelo://app?vid=47ca1ed0-ef62-4af3-9e98-affec9af63de","ios":"levelo://app?vid=47ca1ed0-ef62-4af3-9e98-affec9af63de"},"vehicle_type_id":"4","last_reported":1738055388,"current_range_meters":22000,"station_id":"ce4bhh92rcd13ifvqfh0","pricing_plan_id":"cebpf4jnsgd1na2vs0mg"},{"bike_id":"d18065cf-f041-4429-a46a-34b115d4b496","system_id":"levelo_inurba_marseille","lat":43.29597,"lon":5.38114,"is_reserved":false,"is_disabled":false,"rental_uris":{"android":"levelo://app?vid=d18065cf-f041-4429-a46a-34b115d4b496","ios":"levelo://app?vid=d18065cf-f041-4429-a46a-34b115d4b496"},"vehicle_type_id":"4","last_reported":1738055388,"current_range_meters":38800,"station_id":"ce4bgl12rcd13ifvqbo0","pricing_plan_id":"cebpf4jnsgd1na2vs0mg"},{"bike_id":"529f1ab7-390e-41c3-9180-30692697770e","system_id":"levelo_inurba_marseille","lat":43.28608,"lon":5.35103,"is_reserved":false,"is_disabled":false,"rental_uris":{"android":"levelo://app?vid=529f1ab7-390e-41c3-9180-30692697770e","ios":"levelo://app?vid=529f1ab7-390e-41c3-9180-30692697770e"},"vehicle_type_id":"4","last_reported":1738055388,"current_range_meters":14800,"station_id":"ce4bhch2rcd13ifvqeug","pricing_plan_id":"cebpf4jnsgd1na2vs0mg"},{"bike_id":"f2c519ee-f950-4f91-8f4f-4520f08e04ef","system_id":"levelo_inurba_marseille","lat":43.30949,"lon":5.39033,"is_reserved":false,"is_disabled":false,"rental_uris":{"android":"levelo://app?vid=f2c519ee-f950-4f91-8f4f-4520f08e04ef","ios":"levelo://app?vid=f2c519ee-f950-4f91-8f4f-4520f08e04ef"},"vehicle_type_id":"4","last_reported":1738055388,"current_range_meters":28800,"station_id":"ce4bgup2rcd13ifvqco0","pricing_plan_id":"cebpf4jnsgd1na2vs0mg"},{"bike_id":"16d6d945-2d41-4a8f-b124-3ab49d837ec5","system_id":"levelo_inurba_marseille","lat":43.24647,"lon":5.38895,"is_reserved":false,"is_disabled":false,"rental_uris":{"android":"levelo://app?vid=16d6d945-2d41-4a8f-b124-3ab49d837ec5","ios":"levelo://app?vid=16d6d945-2d41-4a8f-b124-3ab49d837ec5"},"vehicle_type_id":"4","last_reported":1738055388,"current_range_meters":36400,"station_id":"ce4bhg12rcd13ifvqf60","pricing_plan_id":"cebpf4jnsgd1na2vs0mg"},{"bike_id":"327345a1-b351-4923-bb98-74bfc4d3d655","system_id":"levelo_inurba_marseille","lat":43.3108,"lon":5.42437,"is_reserved":false,"is_disabled":false,"rental_uris":{"android":"levelo://app?vid=327345a1-b351-4923-bb98-74bfc4d3d655","ios":"levelo://app?vid=327345a1-b351-4923-bb98-74bfc4d3d655"},"vehicle_type_id":"4","last_reported":1738055388,"current_range_meters":26000,"station_id":"ce4bhp92rcd13ifvqhag","pricing_plan_id":"cebpf4jnsgd1na2vs0mg"},{"bike_id":"197b6f4f-0d2d-47f1-b413-ea947f6d6a9d","system_id":"levelo_inurba_marseille","lat":43.30309,"lon":5.36916,"is_reserved":false,"is_disabled":false,"rental_uris":{"android":"levelo://app?vid=197b6f4f-0d2d-47f1-b413-ea947f6d6a9d","ios":"levelo://app?vid=197b6f4f-0d2d-47f1-b413-ea947f6d6a9d"},"vehicle_type_id":"4","last_reported":1738055388,"current_range_meters":29600,"station_id":"ce4bgqh2rcd13ifvqc5g","pricing_plan_id":"cebpf4jnsgd1na2vs0mg"},{"bike_id":"47b7bf9e-8708-47cd-851f-e2a4fed2fb3f","system_id":"levelo_inurba_marseille","lat":43.27494,"lon":5.42453,"is_reserved":false,"is_disabled":false,"rental_uris":{"android":"levelo://app?vid=47b7bf9e-8708-47cd-851f-e2a4fed2fb3f","ios":"levelo://app?vid=47b7bf9e-8708-47cd-851f-e2a4fed2fb3f"},"vehicle_type_id":"4","last_reported":1738055388,"current_range_meters":27600,"station_id":"ce4bhn92rcd13ifvqgrg","pricing_plan_id":"cebpf4jnsgd1na2vs0mg"},{"bike_id":"6b544164-ad64-4907-9140-df7ab85fac74","system_id":"levelo_inurba_marseille","lat":43.32351,"lon":5.36755,"is_reserved":false,"is_disabled":false,"rental_uris":{"android":"levelo://app?vid=6b544164-ad64-4907-9140-df7ab85fac74","ios":"levelo://app?vid=6b544164-ad64-4907-9140-df7ab85fac74"},"vehicle_type_id":"4","last_reported":1738055388,"current_range_meters":25600,"station_id":"ce4bhsh2rcd13ifvqi2g","pricing_plan_id":"cebpf4jnsgd1na2vs0mg"},{"bike_id":"eea5a0be-f050-4c1c-898c-49d8503e58ff","system_id":"levelo_inurba_marseille","lat":43.25712,"lon":5.41106,"is_reserved":false,"is_disabled":false,"rental_uris":{"android":"levelo://app?vid=eea5a0be-f050-4c1c-898c-49d8503e58ff","ios":"levelo://app?vid=eea5a0be-f050-4c1c-898c-49d8503e58ff"},"vehicle_type_id":"4","last_reported":1738055388,"current_range_meters":38000,"station_id":"ce4bhkp2rcd13ifvqgd0","pricing_plan_id":"cebpf4jnsgd1na2vs0mg"},{"bike_id":"ce200621-4a37-4224-9cd0-032fa0353241","system_id":"levelo_inurba_marseille","lat":43.30471,"lon":5.37892,"is_reserved":false,"is_disabled":false,"rental_uris":{"android":"levelo://app?vid=ce200621-4a37-4224-9cd0-032fa0353241","ios":"levelo://app?vid=ce200621-4a37-4224-9cd0-032fa0353241"},"vehicle_type_id":"4","last_reported":1738055388,"current_range_meters":35200,"station_id":"ce4bgup2rcd13ifvqcn0","pricing_plan_id":"cebpf4jnsgd1na2vs0mg"},{"bike_id":"54b5dc5a-0c1d-4493-9351-0a20bfcd30c8","system_id":"levelo_inurba_marseille","lat":43.28357,"lon":5.38644,"is_reserved":false,"is_disabled":false,"rental_uris":{"android":"levelo://app?vid=54b5dc5a-0c1d-4493-9351-0a20bfcd30c8","ios":"levelo://app?vid=54b5dc5a-0c1d-4493-9351-0a20bfcd30c8"},"vehicle_type_id":"4","last_reported":1738055388,"current_range_meters":36400,"station_id":"ce4bh492rcd13ifvqdvg","pricing_plan_id":"cebpf4jnsgd1na2vs0mg"},{"bike_id":"d6b21433-c8a5-40d4-97c4-27121f8fd81b","system_id":"levelo_inurba_marseille","lat":43.31754,"lon":5.39027,"is_reserved":false,"is_disabled":false,"rental_uris":{"android":"levelo://app?vid=d6b21433-c8a5-40d4-97c4-27121f8fd81b","ios":"levelo://app?vid=d6b21433-c8a5-40d4-97c4-27121f8fd81b"},"vehicle_type_id":"4","last_reported":1738055388,"current_range_meters":39200,"station_id":"ce4bhqp2rcd13ifvqhng","pricing_plan_id":"cebpf4jnsgd1na2vs0mg"},{"bike_id":"a782a3fe-f38f-4917-898a-c67496e57d24","system_id":"levelo_inurba_marseille","lat":43.3122,"lon":5.36866,"is_reserved":false,"is_disabled":false,"rental_uris":{"android":"levelo://app?vid=a782a3fe-f38f-4917-898a-c67496e57d24","ios":"levelo://app?vid=a782a3fe-f38f-4917-898a-c67496e57d24"},"vehicle_type_id":"4","last_reported":1738055388,"current_range_meters":27600,"station_id":"ce4bgl92rcd13ifvqbq0","pricing_plan_id":"cebpf4jnsgd1na2vs0mg"},{"bike_id":"ab49a04c-dd96-41a9-a748-d8c2a0ac3e9f","system_id":"levelo_inurba_marseille","lat":43.27306,"lon":5.39099,"is_reserved":false,"is_disabled":false,"rental_uris":{"android":"levelo://app?vid=ab49a04c-dd96-41a9-a748-d8c2a0ac3e9f","ios":"levelo://app?vid=ab49a04c-dd96-41a9-a748-d8c2a0ac3e9f"},"vehicle_type_id":"4","last_reported":1738055388,"current_range_meters":28400,"station_id":"ce4bhgp2rcd13ifvqfe0","pricing_plan_id":"cebpf4jnsgd1na2vs0mg"},{"bike_id":"50e576ea-8cf1-44ed-a9e7-398301a57e78","system_id":"levelo_inurba_marseille","lat":43.24388,"lon":5.37057,"is_reserved":false,"is_disabled":false,"rental_uris":{"android":"levelo://app?vid=50e576ea-8cf1-44ed-a9e7-398301a57e78","ios":"levelo://app?vid=50e576ea-8cf1-44ed-a9e7-398301a57e78"},"vehicle_type_id":"4","last_reported":1738055388,"current_range_meters":27600,"station_id":"ce4bhhh2rcd13ifvqfk0","pricing_plan_id":"cebpf4jnsgd1na2vs0mg"},{"bike_id":"cc8ae6d0-3277-483c-906c-23b99ec491ef","system_id":"levelo_inurba_marseille","lat":43.27493,"lon":5.42463,"is_reserved":false,"is_disabled":false,"rental_uris":{"android":"levelo://app?vid=cc8ae6d0-3277-483c-906c-23b99ec491ef","ios":"levelo://app?vid=cc8ae6d0-3277-483c-906c-23b99ec491ef"},"vehicle_type_id":"4","last_reported":1738055388,"current_range_meters":4000,"station_id":"ce4bhn92rcd13ifvqgrg","pricing_plan_id":"cebpf4jnsgd1na2vs0mg"},{"bike_id":"35ce5706-68d6-4465-9190-eb3933849e0d","system_id":"levelo_inurba_marseille","lat":43.26935,"lon":5.38643,"is_reserved":false,"is_disabled":false,"rental_uris":{"android":"levelo://app?vid=35ce5706-68d6-4465-9190-eb3933849e0d","ios":"levelo://app?vid=35ce5706-68d6-4465-9190-eb3933849e0d"},"vehicle_type_id":"4","last_reported":1738055388,"current_range_meters":36800,"station_id":"ce4bhh92rcd13ifvqfh0","pricing_plan_id":"cebpf4jnsgd1na2vs0mg"},{"bike_id":"f04b8758-2d01-4056-adea-8834212f3d1d","system_id":"levelo_inurba_marseille","lat":43.27987,"lon":5.40017,"is_reserved":false,"is_disabled":false,"rental_uris":{"android":"levelo://app?vid=f04b8758-2d01-4056-adea-8834212f3d1d","ios":"levelo://app?vid=f04b8758-2d01-4056-adea-8834212f3d1d"},"vehicle_type_id":"4","last_reported":1738055388,"current_range_meters":34000,"station_id":"ce4bho92rcd13ifvqh4g","pricing_plan_id":"cebpf4jnsgd1na2vs0mg"},{"bike_id":"6914daed-3bb1-4aba-9f0f-f0734c8e9a20","system_id":"levelo_inurba_marseille","lat":43.30129,"lon":5.38063,"is_reserved":false,"is_disabled":true,"rental_uris":{"android":"levelo://app?vid=6914daed-3bb1-4aba-9f0f-f0734c8e9a20","ios":"levelo://app?vid=6914daed-3bb1-4aba-9f0f-f0734c8e9a20"},"vehicle_type_id":"4","last_reported":1738055388,"current_range_meters":0,"station_id":"ce4bgjp2rcd13ifvqbh0","pricing_plan_id":"cebpf4jnsgd1na2vs0mg"},{"bike_id":"83c6be21-0479-40f8-8a65-4e5323ed74d2","system_id":"levelo_inurba_marseille","lat":43.25757,"lon":5.39347,"is_reserved":false,"is_disabled":false,"rental_uris":{"android":"levelo://app?vid=83c6be21-0479-40f8-8a65-4e5323ed74d2","ios":"levelo://app?vid=83c6be21-0479-40f8-8a65-4e5323ed74d2"},"vehicle_type_id":"4","last_reported":1738055388,"current_range_meters":9600,"station_id":"ce4bhip2rcd13ifvqft0","pricing_plan_id":"cebpf4jnsgd1na2vs0mg"},{"bike_id":"aac07ce5-bb93-4511-9347-c3cd45dbc53c","system_id":"levelo_inurba_marseille","lat":43.29273,"lon":5.36839,"is_reserved":false,"is_disabled":true,"rental_uris":{"android":"levelo://app?vid=aac07ce5-bb93-4511-9347-c3cd45dbc53c","ios":"levelo://app?vid=aac07ce5-bb93-4511-9347-c3cd45dbc53c"},"vehicle_type_id":"4","last_reported":1738055388,"current_range_meters":38400,"station_id":"ce4bhbp2rcd13ifvqesg","pricing_plan_id":"cebpf4jnsgd1na2vs0mg"},{"bike_id":"f08b700c-fb7a-4471-b7d4-cd62c2909ef2","system_id":"levelo_inurba_marseille","lat":43.231521,"lon":5.436992,"is_reserved":false,"is_disabled":true,"rental_uris":{"android":"levelo://app?vid=f08b700c-fb7a-4471-b7d4-cd62c2909ef2","ios":"levelo://app?vid=f08b700c-fb7a-4471-b7d4-cd62c2909ef2"},"vehicle_type_id":"4","last_reported":1738055388,"current_range_meters":1200,"station_id":"ce4bhmp2rcd13ifvqgog","pricing_plan_id":"cebpf4jnsgd1na2vs0mg"},{"bike_id":"f8239b01-3b23-4214-aeee-b03ebaf1b50d","system_id":"levelo_inurba_marseille","lat":43.30554,"lon":5.36704,"is_reserved":false,"is_disabled":false,"rental_uris":{"android":"levelo://app?vid=f8239b01-3b23-4214-aeee-b03ebaf1b50d","ios":"levelo://app?vid=f8239b01-3b23-4214-aeee-b03ebaf1b50d"},"vehicle_type_id":"4","last_reported":1738055388,"current_range_meters":35600,"station_id":"ce4bgrp2rcd13ifvqc9g","pricing_plan_id":"cebpf4jnsgd1na2vs0mg"},{"bike_id":"fcbf88ef-8a29-4fcc-8125-c57cb42f8ed7","system_id":"levelo_inurba_marseille","lat":43.28926,"lon":5.36633,"is_reserved":false,"is_disabled":false,"rental_uris":{"android":"levelo://app?vid=fcbf88ef-8a29-4fcc-8125-c57cb42f8ed7","ios":"levelo://app?vid=fcbf88ef-8a29-4fcc-8125-c57cb42f8ed7"},"vehicle_type_id":"4","last_reported":1738055388,"current_range_meters":38800,"station_id":"ce4bhap2rcd13ifvqek0","pricing_plan_id":"cebpf4jnsgd1na2vs0mg"},{"bike_id":"75aec4e9-8c83-4922-b4f3-7c72360cfb91","system_id":"levelo_inurba_marseille","lat":43.2407,"lon":5.37746,"is_reserved":false,"is_disabled":false,"rental_uris":{"android":"levelo://app?vid=75aec4e9-8c83-4922-b4f3-7c72360cfb91","ios":"levelo://app?vid=75aec4e9-8c83-4922-b4f3-7c72360cfb91"},"vehicle_type_id":"4","last_reported":1738055388,"current_range_meters":18000,"station_id":"ce4bhnp2rcd13ifvqgvg","pricing_plan_id":"cebpf4jnsgd1na2vs0mg"},{"bike_id":"1d7b9602-4d85-4297-ad77-d6b02e9149dc","system_id":"levelo_inurba_marseille","lat":43.2547,"lon":5.37667,"is_reserved":false,"is_disabled":false,"rental_uris":{"android":"levelo://app?vid=1d7b9602-4d85-4297-ad77-d6b02e9149dc","ios":"levelo://app?vid=1d7b9602-4d85-4297-ad77-d6b02e9149dc"},"vehicle_type_id":"4","last_reported":1738055388,"current_range_meters":39200,"station_id":"ce4bhh12rcd13ifvqff0","pricing_plan_id":"cebpf4jnsgd1na2vs0mg"},{"bike_id":"b1b71e4d-f7f1-4639-9836-d82bceddafdd","system_id":"levelo_inurba_marseille","lat":43.30134,"lon":5.38114,"is_reserved":false,"is_disabled":false,"rental_uris":{"android":"levelo://app?vid=b1b71e4d-f7f1-4639-9836-d82bceddafdd","ios":"levelo://app?vid=b1b71e4d-f7f1-4639-9836-d82bceddafdd"},"vehicle_type_id":"4","last_reported":1738055388,"current_range_meters":6400,"station_id":"ce4bgjp2rcd13ifvqbh0","pricing_plan_id":"cebpf4jnsgd1na2vs0mg"},{"bike_id":"cd48da39-a655-4dcb-97c2-bcb8d3d8c55b","system_id":"levelo_inurba_marseille","lat":43.23144,"lon":5.43735,"is_reserved":false,"is_disabled":true,"rental_uris":{"android":"levelo://app?vid=cd48da39-a655-4dcb-97c2-bcb8d3d8c55b","ios":"levelo://app?vid=cd48da39-a655-4dcb-97c2-bcb8d3d8c55b"},"vehicle_type_id":"4","last_reported":1738055388,"current_range_meters":0,"station_id":"ce4bhmp2rcd13ifvqgog","pricing_plan_id":"cebpf4jnsgd1na2vs0mg"},{"bike_id":"380db4f1-f717-47f9-90c2-eaffe33861d5","system_id":"levelo_inurba_marseille","lat":43.3123,"lon":5.36849,"is_reserved":false,"is_disabled":false,"rental_uris":{"android":"levelo://app?vid=380db4f1-f717-47f9-90c2-eaffe33861d5","ios":"levelo://app?vid=380db4f1-f717-47f9-90c2-eaffe33861d5"},"vehicle_type_id":"4","last_reported":1738055388,"current_range_meters":22800,"station_id":"ce4bgl92rcd13ifvqbq0","pricing_plan_id":"cebpf4jnsgd1na2vs0mg"},{"bike_id":"011d7420-27de-40cd-a8ff-cf2697b56327","system_id":"levelo_inurba_marseille","lat":43.25572,"lon":5.38229,"is_reserved":false,"is_disabled":false,"rental_uris":{"android":"levelo://app?vid=011d7420-27de-40cd-a8ff-cf2697b56327","ios":"levelo://app?vid=011d7420-27de-40cd-a8ff-cf2697b56327"},"vehicle_type_id":"4","last_reported":1738055388,"current_range_meters":30000,"station_id":"ce4bhih2rcd13ifvqfs0","pricing_plan_id":"cebpf4jnsgd1na2vs0mg"},{"bike_id":"a3369565-4bcc-4947-81c6-eab258c8557e","system_id":"levelo_inurba_marseille","lat":43.30173,"lon":5.36594,"is_reserved":false,"is_disabled":false,"rental_uris":{"android":"levelo://app?vid=a3369565-4bcc-4947-81c6-eab258c8557e","ios":"levelo://app?vid=a3369565-4bcc-4947-81c6-eab258c8557e"},"vehicle_type_id":"4","last_reported":1738055388,"current_range_meters":38800,"station_id":"ce4bgrh2rcd13ifvqc8g","pricing_plan_id":"cebpf4jnsgd1na2vs0mg"},{"bike_id":"bd4e7579-8ccd-40b4-8f4d-6d6163bff9b1","system_id":"levelo_inurba_marseille","lat":43.29293,"lon":5.37159,"is_reserved":false,"is_disabled":false,"rental_uris":{"android":"levelo://app?vid=bd4e7579-8ccd-40b4-8f4d-6d6163bff9b1","ios":"levelo://app?vid=bd4e7579-8ccd-40b4-8f4d-6d6163bff9b1"},"vehicle_type_id":"4","last_reported":1738055388,"current_range_meters":31200,"station_id":"ce4bgh92rcd13ifvqb40","pricing_plan_id":"cebpf4jnsgd1na2vs0mg"},{"bike_id":"ee6965a7-e533-4db7-ad0f-3547bfcecbb6","system_id":"levelo_inurba_marseille","lat":43.289023,"lon":5.359772,"is_reserved":false,"is_disabled":false,"rental_uris":{"android":"levelo://app?vid=ee6965a7-e533-4db7-ad0f-3547bfcecbb6","ios":"levelo://app?vid=ee6965a7-e533-4db7-ad0f-3547bfcecbb6"},"vehicle_type_id":"4","last_reported":1738055388,"current_range_meters":38800,"station_id":"ce4bhb12rcd13ifvqem0","pricing_plan_id":"cebpf4jnsgd1na2vs0mg"},{"bike_id":"d1ab3848-8323-464c-8339-06034a474984","system_id":"levelo_inurba_marseille","lat":43.29693,"lon":5.37303,"is_reserved":false,"is_disabled":false,"rental_uris":{"android":"levelo://app?vid=d1ab3848-8323-464c-8339-06034a474984","ios":"levelo://app?vid=d1ab3848-8323-464c-8339-06034a474984"},"vehicle_type_id":"4","last_reported":1738055388,"current_range_meters":38400,"station_id":"ce4bgk12rcd13ifvqbj0","pricing_plan_id":"cebpf4jnsgd1na2vs0mg"},{"bike_id":"3fb74e29-7f1d-4c67-8af5-0bb8332df870","system_id":"levelo_inurba_marseille","lat":43.24382,"lon":5.37057,"is_reserved":false,"is_disabled":false,"rental_uris":{"android":"levelo://app?vid=3fb74e29-7f1d-4c67-8af5-0bb8332df870","ios":"levelo://app?vid=3fb74e29-7f1d-4c67-8af5-0bb8332df870"},"vehicle_type_id":"4","last_reported":1738055388,"current_range_meters":26800,"station_id":"ce4bhhh2rcd13ifvqfk0","pricing_plan_id":"cebpf4jnsgd1na2vs0mg"},{"bike_id":"6bb764e6-4204-4240-a28d-3c5a178bdeed","system_id":"levelo_inurba_marseille","lat":43.29801,"lon":5.38095,"is_reserved":false,"is_disabled":false,"rental_uris":{"android":"levelo://app?vid=6bb764e6-4204-4240-a28d-3c5a178bdeed","ios":"levelo://app?vid=6bb764e6-4204-4240-a28d-3c5a178bdeed"},"vehicle_type_id":"4","last_reported":1738055388,"current_range_meters":38800,"station_id":"ce4bgip2rcd13ifvqbb0","pricing_plan_id":"cebpf4jnsgd1na2vs0mg"},{"bike_id":"e9b029b4-bc11-4ae7-a6e5-c48a292897e9","system_id":"levelo_inurba_marseille","lat":43.29025,"lon":5.37564,"is_reserved":false,"is_disabled":false,"rental_uris":{"android":"levelo://app?vid=e9b029b4-bc11-4ae7-a6e5-c48a292897e9","ios":"levelo://app?vid=e9b029b4-bc11-4ae7-a6e5-c48a292897e9"},"vehicle_type_id":"4","last_reported":1738055388,"current_range_meters":38800,"station_id":"ce4bh692rcd13ifvqe90","pricing_plan_id":"cebpf4jnsgd1na2vs0mg"},{"bike_id":"a1f25abd-5197-4524-ac53-ad8743bef105","system_id":"levelo_inurba_marseille","lat":43.29898,"lon":5.43662,"is_reserved":false,"is_disabled":true,"rental_uris":{"android":"levelo://app?vid=a1f25abd-5197-4524-ac53-ad8743bef105","ios":"levelo://app?vid=a1f25abd-5197-4524-ac53-ad8743bef105"},"vehicle_type_id":"4","last_reported":1738055388,"current_range_meters":38400,"station_id":"ce4bhpp2rcd13ifvqhfg","pricing_plan_id":"cebpf4jnsgd1na2vs0mg"},{"bike_id":"93a03b7f-b087-426b-aea4-84310305d4a9","system_id":"levelo_inurba_marseille","lat":43.31164,"lon":5.38712,"is_reserved":false,"is_disabled":true,"rental_uris":{"android":"levelo://app?vid=93a03b7f-b087-426b-aea4-84310305d4a9","ios":"levelo://app?vid=93a03b7f-b087-426b-aea4-84310305d4a9"},"vehicle_type_id":"4","last_reported":1738055388,"current_range_meters":38800,"station_id":"ce4bgv12rcd13ifvqcp0","pricing_plan_id":"cebpf4jnsgd1na2vs0mg"},{"bike_id":"076810f3-e37e-4a24-a2bf-ae6df07f807b","system_id":"levelo_inurba_marseille","lat":43.2929,"lon":5.3745,"is_reserved":false,"is_disabled":true,"rental_uris":{"android":"levelo://app?vid=076810f3-e37e-4a24-a2bf-ae6df07f807b","ios":"levelo://app?vid=076810f3-e37e-4a24-a2bf-ae6df07f807b"},"vehicle_type_id":"4","last_reported":1738055388,"current_range_meters":23200,"station_id":"ce4bgi12rcd13ifvqb70","pricing_plan_id":"cebpf4jnsgd1na2vs0mg"},{"bike_id":"7aa5e4ca-fb58-4e8e-bba6-338c8dd4a038","system_id":"levelo_inurba_marseille","lat":43.28464,"lon":5.38428,"is_reserved":false,"is_disabled":false,"rental_uris":{"android":"levelo://app?vid=7aa5e4ca-fb58-4e8e-bba6-338c8dd4a038","ios":"levelo://app?vid=7aa5e4ca-fb58-4e8e-bba6-338c8dd4a038"},"vehicle_type_id":"4","last_reported":1738055388,"current_range_meters":25600,"station_id":"ce4bh512rcd13ifvqe3g","pricing_plan_id":"cebpf4jnsgd1na2vs0mg"},{"bike_id":"ff68af14-5554-4f8d-a3de-4549d987f602","system_id":"levelo_inurba_marseille","lat":43.29919,"lon":5.43632,"is_reserved":false,"is_disabled":false,"rental_uris":{"android":"levelo://app?vid=ff68af14-5554-4f8d-a3de-4549d987f602","ios":"levelo://app?vid=ff68af14-5554-4f8d-a3de-4549d987f602"},"vehicle_type_id":"4","last_reported":1738055388,"current_range_meters":36800,"station_id":"ce4bhpp2rcd13ifvqhfg","pricing_plan_id":"cebpf4jnsgd1na2vs0mg"},{"bike_id":"296acca2-a355-4830-bc97-a6939a85f573","system_id":"levelo_inurba_marseille","lat":43.25564,"lon":5.38235,"is_reserved":false,"is_disabled":false,"rental_uris":{"android":"levelo://app?vid=296acca2-a355-4830-bc97-a6939a85f573","ios":"levelo://app?vid=296acca2-a355-4830-bc97-a6939a85f573"},"vehicle_type_id":"4","last_reported":1738055388,"current_range_meters":28400,"station_id":"ce4bhih2rcd13ifvqfs0","pricing_plan_id":"cebpf4jnsgd1na2vs0mg"},{"bike_id":"dee8af9f-e546-4dcf-a1c4-bee1911d6e8f","system_id":"levelo_inurba_marseille","lat":43.26951,"lon":5.38616,"is_reserved":false,"is_disabled":false,"rental_uris":{"android":"levelo://app?vid=dee8af9f-e546-4dcf-a1c4-bee1911d6e8f","ios":"levelo://app?vid=dee8af9f-e546-4dcf-a1c4-bee1911d6e8f"},"vehicle_type_id":"4","last_reported":1738055388,"current_range_meters":32000,"station_id":"ce4bhh92rcd13ifvqfh0","pricing_plan_id":"cebpf4jnsgd1na2vs0mg"},{"bike_id":"56f5e465-3cae-49ed-b051-549f21f0a43b","system_id":"levelo_inurba_marseille","lat":43.24659,"lon":5.38146,"is_reserved":false,"is_disabled":false,"rental_uris":{"android":"levelo://app?vid=56f5e465-3cae-49ed-b051-549f21f0a43b","ios":"levelo://app?vid=56f5e465-3cae-49ed-b051-549f21f0a43b"},"vehicle_type_id":"4","last_reported":1738055388,"current_range_meters":21600,"station_id":"ce4bhih2rcd13ifvqfr0","pricing_plan_id":"cebpf4jnsgd1na2vs0mg"},{"bike_id":"3c5cbf2e-5914-44e5-adf1-7229185be9cb","system_id":"levelo_inurba_marseille","lat":43.32485,"lon":5.36569,"is_reserved":false,"is_disabled":false,"rental_uris":{"android":"levelo://app?vid=3c5cbf2e-5914-44e5-adf1-7229185be9cb","ios":"levelo://app?vid=3c5cbf2e-5914-44e5-adf1-7229185be9cb"},"vehicle_type_id":"4","last_reported":1738055388,"current_range_meters":13600,"station_id":"ce4bhs12rcd13ifvqhvg","pricing_plan_id":"cebpf4jnsgd1na2vs0mg"},{"bike_id":"b1d260c0-acdb-4241-b1fa-29a58e464bb9","system_id":"levelo_inurba_marseille","lat":43.24385,"lon":5.37054,"is_reserved":false,"is_disabled":false,"rental_uris":{"android":"levelo://app?vid=b1d260c0-acdb-4241-b1fa-29a58e464bb9","ios":"levelo://app?vid=b1d260c0-acdb-4241-b1fa-29a58e464bb9"},"vehicle_type_id":"4","last_reported":1738055388,"current_range_meters":25600,"station_id":"ce4bhhh2rcd13ifvqfk0","pricing_plan_id":"cebpf4jnsgd1na2vs0mg"},{"bike_id":"7479295d-ddd0-42a7-9e04-d02372a0f5f9","system_id":"levelo_inurba_marseille","lat":43.30882,"lon":5.37202,"is_reserved":false,"is_disabled":false,"rental_uris":{"android":"levelo://app?vid=7479295d-ddd0-42a7-9e04-d02372a0f5f9","ios":"levelo://app?vid=7479295d-ddd0-42a7-9e04-d02372a0f5f9"},"vehicle_type_id":"4","last_reported":1738055388,"current_range_meters":36800,"station_id":"ce4bguh2rcd13ifvqckg","pricing_plan_id":"cebpf4jnsgd1na2vs0mg"},{"bike_id":"f9b3113d-a999-4331-8471-e72a17a54399","system_id":"levelo_inurba_marseille","lat":43.29803,"lon":5.38094,"is_reserved":false,"is_disabled":false,"rental_uris":{"android":"levelo://app?vid=f9b3113d-a999-4331-8471-e72a17a54399","ios":"levelo://app?vid=f9b3113d-a999-4331-8471-e72a17a54399"},"vehicle_type_id":"4","last_reported":1738055388,"current_range_meters":39200,"station_id":"ce4bgip2rcd13ifvqbb0","pricing_plan_id":"cebpf4jnsgd1na2vs0mg"},{"bike_id":"b5cc55f2-2a30-479b-8fa6-5ff8568d3372","system_id":"levelo_inurba_marseille","lat":43.26685,"lon":5.38263,"is_reserved":false,"is_disabled":true,"rental_uris":{"android":"levelo://app?vid=b5cc55f2-2a30-479b-8fa6-5ff8568d3372","ios":"levelo://app?vid=b5cc55f2-2a30-479b-8fa6-5ff8568d3372"},"vehicle_type_id":"4","last_reported":1738055388,"current_range_meters":38800,"station_id":"ce4bhg92rcd13ifvqf90","pricing_plan_id":"cebpf4jnsgd1na2vs0mg"},{"bike_id":"c38308b0-f289-46ea-8979-3bd8ba6469f6","system_id":"levelo_inurba_marseille","lat":43.293739,"lon":5.378436,"is_reserved":false,"is_disabled":false,"rental_uris":{"android":"levelo://app?vid=c38308b0-f289-46ea-8979-3bd8ba6469f6","ios":"levelo://app?vid=c38308b0-f289-46ea-8979-3bd8ba6469f6"},"vehicle_type_id":"4","last_reported":1738055388,"current_range_meters":36000,"station_id":"ce4bgjh2rcd13ifvqbf0","pricing_plan_id":"cebpf4jnsgd1na2vs0mg"},{"bike_id":"16e377ed-0b1f-4464-b29d-b7d1caa6fca1","system_id":"levelo_inurba_marseille","lat":43.25932,"lon":5.40901,"is_reserved":false,"is_disabled":false,"rental_uris":{"android":"levelo://app?vid=16e377ed-0b1f-4464-b29d-b7d1caa6fca1","ios":"levelo://app?vid=16e377ed-0b1f-4464-b29d-b7d1caa6fca1"},"vehicle_type_id":"4","last_reported":1738055388,"current_range_meters":11200,"station_id":"ce4bhm92rcd13ifvqglg","pricing_plan_id":"cebpf4jnsgd1na2vs0mg"},{"bike_id":"e3c5a10e-948d-477c-91ce-8c835a7fe362","system_id":"levelo_inurba_marseille","lat":43.280935,"lon":5.39654,"is_reserved":false,"is_disabled":true,"rental_uris":{"android":"levelo://app?vid=e3c5a10e-948d-477c-91ce-8c835a7fe362","ios":"levelo://app?vid=e3c5a10e-948d-477c-91ce-8c835a7fe362"},"vehicle_type_id":"4","last_reported":1738055388,"current_range_meters":0,"station_id":"ce4bho12rcd13ifvqh2g","pricing_plan_id":"cebpf4jnsgd1na2vs0mg"},{"bike_id":"7fb886b9-6149-42e6-a2c1-57c7e1e59df6","system_id":"levelo_inurba_marseille","lat":43.27495,"lon":5.42453,"is_reserved":false,"is_disabled":false,"rental_uris":{"android":"levelo://app?vid=7fb886b9-6149-42e6-a2c1-57c7e1e59df6","ios":"levelo://app?vid=7fb886b9-6149-42e6-a2c1-57c7e1e59df6"},"vehicle_type_id":"4","last_reported":1738055388,"current_range_meters":29600,"station_id":"ce4bhn92rcd13ifvqgrg","pricing_plan_id":"cebpf4jnsgd1na2vs0mg"},{"bike_id":"8c2f2ebe-0edf-4ef9-b5dd-885bef6c7cd6","system_id":"levelo_inurba_marseille","lat":43.24175,"lon":5.39725,"is_reserved":false,"is_disabled":false,"rental_uris":{"android":"levelo://app?vid=8c2f2ebe-0edf-4ef9-b5dd-885bef6c7cd6","ios":"levelo://app?vid=8c2f2ebe-0edf-4ef9-b5dd-885bef6c7cd6"},"vehicle_type_id":"4","last_reported":1738055388,"current_range_meters":38800,"station_id":"ce4bhn12rcd13ifvqgpg","pricing_plan_id":"cebpf4jnsgd1na2vs0mg"},{"bike_id":"f846d495-effa-4e8f-ae39-f2d7b1fc0ba3","system_id":"levelo_inurba_marseille","lat":43.2681,"lon":5.40246,"is_reserved":false,"is_disabled":false,"rental_uris":{"android":"levelo://app?vid=f846d495-effa-4e8f-ae39-f2d7b1fc0ba3","ios":"levelo://app?vid=f846d495-effa-4e8f-ae39-f2d7b1fc0ba3"},"vehicle_type_id":"4","last_reported":1738055388,"current_range_meters":38800,"station_id":"ce501612rcd8frsf0b60","pricing_plan_id":"cebpf4jnsgd1na2vs0mg"},{"bike_id":"6f9a802d-aaea-4039-a843-8574df6ec0f3","system_id":"levelo_inurba_marseille","lat":43.29312,"lon":5.37183,"is_reserved":false,"is_disabled":false,"rental_uris":{"android":"levelo://app?vid=6f9a802d-aaea-4039-a843-8574df6ec0f3","ios":"levelo://app?vid=6f9a802d-aaea-4039-a843-8574df6ec0f3"},"vehicle_type_id":"4","last_reported":1738055388,"current_range_meters":19600,"station_id":"ce4bgh92rcd13ifvqb40","pricing_plan_id":"cebpf4jnsgd1na2vs0mg"},{"bike_id":"a4be99d0-9f57-4d65-9197-81844e4eb908","system_id":"levelo_inurba_marseille","lat":43.32474,"lon":5.36593,"is_reserved":false,"is_disabled":false,"rental_uris":{"android":"levelo://app?vid=a4be99d0-9f57-4d65-9197-81844e4eb908","ios":"levelo://app?vid=a4be99d0-9f57-4d65-9197-81844e4eb908"},"vehicle_type_id":"4","last_reported":1738055388,"current_range_meters":28800,"station_id":"ce4bhs12rcd13ifvqhvg","pricing_plan_id":"cebpf4jnsgd1na2vs0mg"},{"bike_id":"d1e9a39d-8c53-46bf-8978-e830f4e17d3f","system_id":"levelo_inurba_marseille","lat":43.27487,"lon":5.42461,"is_reserved":false,"is_disabled":false,"rental_uris":{"android":"levelo://app?vid=d1e9a39d-8c53-46bf-8978-e830f4e17d3f","ios":"levelo://app?vid=d1e9a39d-8c53-46bf-8978-e830f4e17d3f"},"vehicle_type_id":"4","last_reported":1738055388,"current_range_meters":10000,"station_id":"ce4bhn92rcd13ifvqgrg","pricing_plan_id":"cebpf4jnsgd1na2vs0mg"},{"bike_id":"f9173de2-2fa5-436f-a76b-3c96bd571284","system_id":"levelo_inurba_marseille","lat":43.298,"lon":5.4042,"is_reserved":false,"is_disabled":true,"rental_uris":{"android":"levelo://app?vid=f9173de2-2fa5-436f-a76b-3c96bd571284","ios":"levelo://app?vid=f9173de2-2fa5-436f-a76b-3c96bd571284"},"vehicle_type_id":"4","last_reported":1738055388,"current_range_meters":37600,"station_id":"ce4bh112rcd13ifvqd90","pricing_plan_id":"cebpf4jnsgd1na2vs0mg"},{"bike_id":"54a3b066-8322-48b3-9a4e-9afae5461793","system_id":"levelo_inurba_marseille","lat":43.30359,"lon":5.41885,"is_reserved":false,"is_disabled":true,"rental_uris":{"android":"levelo://app?vid=54a3b066-8322-48b3-9a4e-9afae5461793","ios":"levelo://app?vid=54a3b066-8322-48b3-9a4e-9afae5461793"},"vehicle_type_id":"4","last_reported":1738055388,"current_range_meters":38800,"station_id":"ce4bhop2rcd13ifvqh7g","pricing_plan_id":"cebpf4jnsgd1na2vs0mg"},{"bike_id":"5c2a2400-a483-4d1c-910e-ebbea3da039d","system_id":"levelo_inurba_marseille","lat":43.29926,"lon":5.37471,"is_reserved":false,"is_disabled":false,"rental_uris":{"android":"levelo://app?vid=5c2a2400-a483-4d1c-910e-ebbea3da039d","ios":"levelo://app?vid=5c2a2400-a483-4d1c-910e-ebbea3da039d"},"vehicle_type_id":"4","last_reported":1738055388,"current_range_meters":28400,"station_id":"ce4bgjh2rcd13ifvqbg0","pricing_plan_id":"cebpf4jnsgd1na2vs0mg"},{"bike_id":"1932502a-a386-4bd4-8041-b68d3b661876","system_id":"levelo_inurba_marseille","lat":43.23196,"lon":5.35555,"is_reserved":false,"is_disabled":false,"rental_uris":{"android":"levelo://app?vid=1932502a-a386-4bd4-8041-b68d3b661876","ios":"levelo://app?vid=1932502a-a386-4bd4-8041-b68d3b661876"},"vehicle_type_id":"4","last_reported":1738055388,"current_range_meters":26000,"station_id":"ce4bhu92rcd13ifvqi70","pricing_plan_id":"cebpf4jnsgd1na2vs0mg"},{"bike_id":"db3aaaa1-2c83-4416-9be0-650e00b3a100","system_id":"levelo_inurba_marseille","lat":43.317656,"lon":5.390267,"is_reserved":false,"is_disabled":false,"rental_uris":{"android":"levelo://app?vid=db3aaaa1-2c83-4416-9be0-650e00b3a100","ios":"levelo://app?vid=db3aaaa1-2c83-4416-9be0-650e00b3a100"},"vehicle_type_id":"4","last_reported":1738055388,"current_range_meters":38800,"station_id":"ce4bhqp2rcd13ifvqhng","pricing_plan_id":"cebpf4jnsgd1na2vs0mg"},{"bike_id":"8cc6a59e-3f3f-4790-a830-2f3487f9a7a9","system_id":"levelo_inurba_marseille","lat":43.298111,"lon":5.381112,"is_reserved":false,"is_disabled":false,"rental_uris":{"android":"levelo://app?vid=8cc6a59e-3f3f-4790-a830-2f3487f9a7a9","ios":"levelo://app?vid=8cc6a59e-3f3f-4790-a830-2f3487f9a7a9"},"vehicle_type_id":"4","last_reported":1738055388,"current_range_meters":22000,"station_id":"ce4bgjp2rcd13ifvqbh0","pricing_plan_id":"cebpf4jnsgd1na2vs0mg"},{"bike_id":"6e870492-3daf-430e-80f4-636a365d2a06","system_id":"levelo_inurba_marseille","lat":43.2593,"lon":5.40907,"is_reserved":false,"is_disabled":false,"rental_uris":{"android":"levelo://app?vid=6e870492-3daf-430e-80f4-636a365d2a06","ios":"levelo://app?vid=6e870492-3daf-430e-80f4-636a365d2a06"},"vehicle_type_id":"4","last_reported":1738055388,"current_range_meters":16000,"station_id":"ce4bhm92rcd13ifvqglg","pricing_plan_id":"cebpf4jnsgd1na2vs0mg"},{"bike_id":"413f6424-c760-4e18-9938-356d52760352","system_id":"levelo_inurba_marseille","lat":43.29173,"lon":5.37165,"is_reserved":false,"is_disabled":false,"rental_uris":{"android":"levelo://app?vid=413f6424-c760-4e18-9938-356d52760352","ios":"levelo://app?vid=413f6424-c760-4e18-9938-356d52760352"},"vehicle_type_id":"4","last_reported":1738055388,"current_range_meters":12400,"station_id":"ce4bha92rcd13ifvqeh0","pricing_plan_id":"cebpf4jnsgd1na2vs0mg"},{"bike_id":"ee77105d-fb85-4ff3-b170-8616151c7d95","system_id":"levelo_inurba_marseille","lat":43.3361,"lon":5.41006,"is_reserved":false,"is_disabled":false,"rental_uris":{"android":"levelo://app?vid=ee77105d-fb85-4ff3-b170-8616151c7d95","ios":"levelo://app?vid=ee77105d-fb85-4ff3-b170-8616151c7d95"},"vehicle_type_id":"4","last_reported":1738055388,"current_range_meters":39200,"station_id":"ce4bhqh2rcd13ifvqhmg","pricing_plan_id":"cebpf4jnsgd1na2vs0mg"},{"bike_id":"930e80b9-31b1-4794-a031-336d148aef30","system_id":"levelo_inurba_marseille","lat":43.30147,"lon":5.38109,"is_reserved":false,"is_disabled":false,"rental_uris":{"android":"levelo://app?vid=930e80b9-31b1-4794-a031-336d148aef30","ios":"levelo://app?vid=930e80b9-31b1-4794-a031-336d148aef30"},"vehicle_type_id":"4","last_reported":1738055388,"current_range_meters":36800,"station_id":"ce4bgjp2rcd13ifvqbh0","pricing_plan_id":"cebpf4jnsgd1na2vs0mg"},{"bike_id":"305cbcdf-1336-4710-b16c-ff53a745a72a","system_id":"levelo_inurba_marseille","lat":43.3078,"lon":5.37646,"is_reserved":false,"is_disabled":false,"rental_uris":{"android":"levelo://app?vid=305cbcdf-1336-4710-b16c-ff53a745a72a","ios":"levelo://app?vid=305cbcdf-1336-4710-b16c-ff53a745a72a"},"vehicle_type_id":"4","last_reported":1738055388,"current_range_meters":26000,"station_id":"ce4bgv92rcd13ifvqcq0","pricing_plan_id":"cebpf4jnsgd1na2vs0mg"},{"bike_id":"39d5db95-7b88-4b85-bdf2-f66446940c5a","system_id":"levelo_inurba_marseille","lat":43.32536,"lon":5.41434,"is_reserved":false,"is_disabled":false,"rental_uris":{"android":"levelo://app?vid=39d5db95-7b88-4b85-bdf2-f66446940c5a","ios":"levelo://app?vid=39d5db95-7b88-4b85-bdf2-f66446940c5a"},"vehicle_type_id":"4","last_reported":1738055388,"current_range_meters":36000,"station_id":"ce4bhq12rcd13ifvqhhg","pricing_plan_id":"cebpf4jnsgd1na2vs0mg"},{"bike_id":"e000af5e-3a35-4a7d-8d13-5b04594427a0","system_id":"levelo_inurba_marseille","lat":43.28492,"lon":5.38563,"is_reserved":false,"is_disabled":true,"rental_uris":{"android":"levelo://app?vid=e000af5e-3a35-4a7d-8d13-5b04594427a0","ios":"levelo://app?vid=e000af5e-3a35-4a7d-8d13-5b04594427a0"},"vehicle_type_id":"4","last_reported":1738055388,"current_range_meters":14000,"station_id":"ce4bh8p2rcd13ifvqeb0","pricing_plan_id":"cebpf4jnsgd1na2vs0mg"},{"bike_id":"4286fa19-eb9a-4636-9cef-9efba1e0a9e4","system_id":"levelo_inurba_marseille","lat":43.2592,"lon":5.4092,"is_reserved":false,"is_disabled":false,"rental_uris":{"android":"levelo://app?vid=4286fa19-eb9a-4636-9cef-9efba1e0a9e4","ios":"levelo://app?vid=4286fa19-eb9a-4636-9cef-9efba1e0a9e4"},"vehicle_type_id":"4","last_reported":1738055388,"current_range_meters":28000,"station_id":"ce4bhm92rcd13ifvqglg","pricing_plan_id":"cebpf4jnsgd1na2vs0mg"},{"bike_id":"283c25d8-9fc5-495b-9825-5a72a68442bd","system_id":"levelo_inurba_marseille","lat":43.29254,"lon":5.4092,"is_reserved":false,"is_disabled":true,"rental_uris":{"android":"levelo://app?vid=283c25d8-9fc5-495b-9825-5a72a68442bd","ios":"levelo://app?vid=283c25d8-9fc5-495b-9825-5a72a68442bd"},"vehicle_type_id":"4","last_reported":1738055388,"current_range_meters":0,"station_id":"ce4bh192rcd13ifvqdc0","pricing_plan_id":"cebpf4jnsgd1na2vs0mg"},{"bike_id":"a3d00b76-e3d3-48a4-a596-66088ecb8491","system_id":"levelo_inurba_marseille","lat":43.33605,"lon":5.41005,"is_reserved":false,"is_disabled":false,"rental_uris":{"android":"levelo://app?vid=a3d00b76-e3d3-48a4-a596-66088ecb8491","ios":"levelo://app?vid=a3d00b76-e3d3-48a4-a596-66088ecb8491"},"vehicle_type_id":"4","last_reported":1738055388,"current_range_meters":39200,"station_id":"ce4bhqh2rcd13ifvqhmg","pricing_plan_id":"cebpf4jnsgd1na2vs0mg"},{"bike_id":"e3e26aee-15e1-425c-a48f-db58aa520742","system_id":"levelo_inurba_marseille","lat":43.23062,"lon":5.35512,"is_reserved":false,"is_disabled":false,"rental_uris":{"android":"levelo://app?vid=e3e26aee-15e1-425c-a48f-db58aa520742","ios":"levelo://app?vid=e3e26aee-15e1-425c-a48f-db58aa520742"},"vehicle_type_id":"4","last_reported":1738055388,"current_range_meters":38000,"station_id":"cpo3342slgdg3j2ifvpg","pricing_plan_id":"cebpf4jnsgd1na2vs0mg"},{"bike_id":"9fb813cb-e992-4585-8f3d-d25d13081f3b","system_id":"levelo_inurba_marseille","lat":43.231971,"lon":5.355526,"is_reserved":false,"is_disabled":false,"rental_uris":{"android":"levelo://app?vid=9fb813cb-e992-4585-8f3d-d25d13081f3b","ios":"levelo://app?vid=9fb813cb-e992-4585-8f3d-d25d13081f3b"},"vehicle_type_id":"4","last_reported":1738055388,"current_range_meters":4400,"station_id":"ce4bhu92rcd13ifvqi70","pricing_plan_id":"cebpf4jnsgd1na2vs0mg"},{"bike_id":"7c2c04a0-5c2d-4f19-b8a8-ceb0916ec7df","system_id":"levelo_inurba_marseille","lat":43.27433,"lon":5.39412,"is_reserved":false,"is_disabled":false,"rental_uris":{"android":"levelo://app?vid=7c2c04a0-5c2d-4f19-b8a8-ceb0916ec7df","ios":"levelo://app?vid=7c2c04a0-5c2d-4f19-b8a8-ceb0916ec7df"},"vehicle_type_id":"4","last_reported":1738055388,"current_range_meters":38800,"station_id":"ce4bhdp2rcd13ifvqf20","pricing_plan_id":"cebpf4jnsgd1na2vs0mg"},{"bike_id":"305b6e3a-8db9-4c6e-beb8-77b9a88d18a4","system_id":"levelo_inurba_marseille","lat":43.30783,"lon":5.37644,"is_reserved":false,"is_disabled":false,"rental_uris":{"android":"levelo://app?vid=305b6e3a-8db9-4c6e-beb8-77b9a88d18a4","ios":"levelo://app?vid=305b6e3a-8db9-4c6e-beb8-77b9a88d18a4"},"vehicle_type_id":"4","last_reported":1738055388,"current_range_meters":21600,"station_id":"ce4bgv92rcd13ifvqcq0","pricing_plan_id":"cebpf4jnsgd1na2vs0mg"},{"bike_id":"f0b8ce21-4cd0-4f39-b268-34205ffefbbe","system_id":"levelo_inurba_marseille","lat":43.30476,"lon":5.3792,"is_reserved":false,"is_disabled":false,"rental_uris":{"android":"levelo://app?vid=f0b8ce21-4cd0-4f39-b268-34205ffefbbe","ios":"levelo://app?vid=f0b8ce21-4cd0-4f39-b268-34205ffefbbe"},"vehicle_type_id":"4","last_reported":1738055388,"current_range_meters":19600,"station_id":"ce4bgup2rcd13ifvqcn0","pricing_plan_id":"cebpf4jnsgd1na2vs0mg"},{"bike_id":"7c78a755-c7f5-4f07-a96b-621451d47948","system_id":"levelo_inurba_marseille","lat":43.29893,"lon":5.43658,"is_reserved":false,"is_disabled":false,"rental_uris":{"android":"levelo://app?vid=7c78a755-c7f5-4f07-a96b-621451d47948","ios":"levelo://app?vid=7c78a755-c7f5-4f07-a96b-621451d47948"},"vehicle_type_id":"4","last_reported":1738055388,"current_range_meters":24400,"station_id":"ce4bhpp2rcd13ifvqhfg","pricing_plan_id":"cebpf4jnsgd1na2vs0mg"},{"bike_id":"72ff5c35-8977-46bf-8e5f-606a7fde9ab4","system_id":"levelo_inurba_marseille","lat":43.27498,"lon":5.42476,"is_reserved":false,"is_disabled":false,"rental_uris":{"android":"levelo://app?vid=72ff5c35-8977-46bf-8e5f-606a7fde9ab4","ios":"levelo://app?vid=72ff5c35-8977-46bf-8e5f-606a7fde9ab4"},"vehicle_type_id":"4","last_reported":1738055388,"current_range_meters":10800,"station_id":"ce4bhn92rcd13ifvqgrg","pricing_plan_id":"cebpf4jnsgd1na2vs0mg"},{"bike_id":"8806420e-416e-421b-a202-7b6d9d1eeb5e","system_id":"levelo_inurba_marseille","lat":43.26929,"lon":5.38924,"is_reserved":false,"is_disabled":false,"rental_uris":{"android":"levelo://app?vid=8806420e-416e-421b-a202-7b6d9d1eeb5e","ios":"levelo://app?vid=8806420e-416e-421b-a202-7b6d9d1eeb5e"},"vehicle_type_id":"4","last_reported":1738055388,"current_range_meters":28400,"station_id":"ce4bhhh2rcd13ifvqfl0","pricing_plan_id":"cebpf4jnsgd1na2vs0mg"},{"bike_id":"803e03d8-7d2e-4feb-ac46-774902d16dee","system_id":"levelo_inurba_marseille","lat":43.33736,"lon":5.37422,"is_reserved":false,"is_disabled":true,"rental_uris":{"android":"levelo://app?vid=803e03d8-7d2e-4feb-ac46-774902d16dee","ios":"levelo://app?vid=803e03d8-7d2e-4feb-ac46-774902d16dee"},"vehicle_type_id":"4","last_reported":1738055388,"current_range_meters":38800,"station_id":"","pricing_plan_id":"cebpf4jnsgd1na2vs0mg"},{"bike_id":"a48a4fa8-387b-4ecc-bc7a-c3f07822bf47","system_id":"levelo_inurba_marseille","lat":43.270726,"lon":5.392326,"is_reserved":false,"is_disabled":true,"rental_uris":{"android":"levelo://app?vid=a48a4fa8-387b-4ecc-bc7a-c3f07822bf47","ios":"levelo://app?vid=a48a4fa8-387b-4ecc-bc7a-c3f07822bf47"},"vehicle_type_id":"4","last_reported":1738055388,"current_range_meters":0,"station_id":"","pricing_plan_id":"cebpf4jnsgd1na2vs0mg"},{"bike_id":"d8e3e652-bcf6-43e0-be03-ff712527ceec","system_id":"levelo_inurba_marseille","lat":43.27495,"lon":5.42464,"is_reserved":false,"is_disabled":false,"rental_uris":{"android":"levelo://app?vid=d8e3e652-bcf6-43e0-be03-ff712527ceec","ios":"levelo://app?vid=d8e3e652-bcf6-43e0-be03-ff712527ceec"},"vehicle_type_id":"4","last_reported":1738055388,"current_range_meters":8800,"station_id":"ce4bhn92rcd13ifvqgrg","pricing_plan_id":"cebpf4jnsgd1na2vs0mg"},{"bike_id":"5f52cd29-90ea-433d-ad73-70ea1f779142","system_id":"levelo_inurba_marseille","lat":43.3053,"lon":5.38439,"is_reserved":false,"is_disabled":true,"rental_uris":{"android":"levelo://app?vid=5f52cd29-90ea-433d-ad73-70ea1f779142","ios":"levelo://app?vid=5f52cd29-90ea-433d-ad73-70ea1f779142"},"vehicle_type_id":"4","last_reported":1738055388,"current_range_meters":36800,"station_id":"ce4bgg92rcd13ifvqb30","pricing_plan_id":"cebpf4jnsgd1na2vs0mg"},{"bike_id":"a8d0380b-0a88-41c3-845f-e00ffb2cbc88","system_id":"levelo_inurba_marseille","lat":43.27996,"lon":5.39981,"is_reserved":false,"is_disabled":true,"rental_uris":{"android":"levelo://app?vid=a8d0380b-0a88-41c3-845f-e00ffb2cbc88","ios":"levelo://app?vid=a8d0380b-0a88-41c3-845f-e00ffb2cbc88"},"vehicle_type_id":"4","last_reported":1738055388,"current_range_meters":27200,"station_id":"ce4bho92rcd13ifvqh4g","pricing_plan_id":"cebpf4jnsgd1na2vs0mg"},{"bike_id":"960c2b1e-93ba-4e0e-baf5-fd8a6baa3c6b","system_id":"levelo_inurba_marseille","lat":43.25876,"lon":5.3993,"is_reserved":false,"is_disabled":true,"rental_uris":{"android":"levelo://app?vid=960c2b1e-93ba-4e0e-baf5-fd8a6baa3c6b","ios":"levelo://app?vid=960c2b1e-93ba-4e0e-baf5-fd8a6baa3c6b"},"vehicle_type_id":"4","last_reported":1738055388,"current_range_meters":32800,"station_id":"ce4bhl92rcd13ifvqghg","pricing_plan_id":"cebpf4jnsgd1na2vs0mg"},{"bike_id":"688eea87-7c36-4baa-b6b9-0ba0449d07a2","system_id":"levelo_inurba_marseille","lat":43.28091,"lon":5.39693,"is_reserved":false,"is_disabled":false,"rental_uris":{"android":"levelo://app?vid=688eea87-7c36-4baa-b6b9-0ba0449d07a2","ios":"levelo://app?vid=688eea87-7c36-4baa-b6b9-0ba0449d07a2"},"vehicle_type_id":"4","last_reported":1738055388,"current_range_meters":4400,"station_id":"ce4bho12rcd13ifvqh2g","pricing_plan_id":"cebpf4jnsgd1na2vs0mg"},{"bike_id":"907721ac-bc82-4cfe-b462-7b1a112329de","system_id":"levelo_inurba_marseille","lat":43.30545,"lon":5.36697,"is_reserved":false,"is_disabled":false,"rental_uris":{"android":"levelo://app?vid=907721ac-bc82-4cfe-b462-7b1a112329de","ios":"levelo://app?vid=907721ac-bc82-4cfe-b462-7b1a112329de"},"vehicle_type_id":"4","last_reported":1738055388,"current_range_meters":9200,"station_id":"ce4bgrp2rcd13ifvqc9g","pricing_plan_id":"cebpf4jnsgd1na2vs0mg"},{"bike_id":"f5489a71-672f-4a76-b5cc-64a130203e4a","system_id":"levelo_inurba_marseille","lat":43.30149,"lon":5.38093,"is_reserved":false,"is_disabled":false,"rental_uris":{"android":"levelo://app?vid=f5489a71-672f-4a76-b5cc-64a130203e4a","ios":"levelo://app?vid=f5489a71-672f-4a76-b5cc-64a130203e4a"},"vehicle_type_id":"4","last_reported":1738055388,"current_range_meters":20400,"station_id":"ce4bgjp2rcd13ifvqbh0","pricing_plan_id":"cebpf4jnsgd1na2vs0mg"},{"bike_id":"c0199c43-6ad3-4c6c-a838-a256a1dd9983","system_id":"levelo_inurba_marseille","lat":43.29295,"lon":5.37459,"is_reserved":false,"is_disabled":false,"rental_uris":{"android":"levelo://app?vid=c0199c43-6ad3-4c6c-a838-a256a1dd9983","ios":"levelo://app?vid=c0199c43-6ad3-4c6c-a838-a256a1dd9983"},"vehicle_type_id":"4","last_reported":1738055388,"current_range_meters":34000,"station_id":"ce4bgi12rcd13ifvqb70","pricing_plan_id":"cebpf4jnsgd1na2vs0mg"},{"bike_id":"867d44b5-ea6e-4998-90a9-7a29ccfed0fb","system_id":"levelo_inurba_marseille","lat":43.269517,"lon":5.386493,"is_reserved":false,"is_disabled":false,"rental_uris":{"android":"levelo://app?vid=867d44b5-ea6e-4998-90a9-7a29ccfed0fb","ios":"levelo://app?vid=867d44b5-ea6e-4998-90a9-7a29ccfed0fb"},"vehicle_type_id":"4","last_reported":1738055388,"current_range_meters":25200,"station_id":"ce4bhh92rcd13ifvqfh0","pricing_plan_id":"cebpf4jnsgd1na2vs0mg"},{"bike_id":"8f123f58-2803-4f70-aa06-7d428b4ad0fc","system_id":"levelo_inurba_marseille","lat":43.28581,"lon":5.35131,"is_reserved":false,"is_disabled":false,"rental_uris":{"android":"levelo://app?vid=8f123f58-2803-4f70-aa06-7d428b4ad0fc","ios":"levelo://app?vid=8f123f58-2803-4f70-aa06-7d428b4ad0fc"},"vehicle_type_id":"4","last_reported":1738055388,"current_range_meters":10000,"station_id":"","pricing_plan_id":"cebpf4jnsgd1na2vs0mg"},{"bike_id":"488d539d-3cf9-4211-ad55-9e4589c6ed53","system_id":"levelo_inurba_marseille","lat":43.25861,"lon":5.39898,"is_reserved":false,"is_disabled":false,"rental_uris":{"android":"levelo://app?vid=488d539d-3cf9-4211-ad55-9e4589c6ed53","ios":"levelo://app?vid=488d539d-3cf9-4211-ad55-9e4589c6ed53"},"vehicle_type_id":"4","last_reported":1738055388,"current_range_meters":18800,"station_id":"ce4bhl92rcd13ifvqghg","pricing_plan_id":"cebpf4jnsgd1na2vs0mg"},{"bike_id":"c438c788-2c8f-4eda-8233-a8485c23c4af","system_id":"levelo_inurba_marseille","lat":43.30415,"lon":5.41299,"is_reserved":false,"is_disabled":true,"rental_uris":{"android":"levelo://app?vid=c438c788-2c8f-4eda-8233-a8485c23c4af","ios":"levelo://app?vid=c438c788-2c8f-4eda-8233-a8485c23c4af"},"vehicle_type_id":"4","last_reported":1738055388,"current_range_meters":0,"station_id":"ce4bhop2rcd13ifvqh8g","pricing_plan_id":"cebpf4jnsgd1na2vs0mg"},{"bike_id":"85af6c92-372c-4cd2-84da-c4ec61fa470d","system_id":"levelo_inurba_marseille","lat":43.2571,"lon":5.41105,"is_reserved":false,"is_disabled":true,"rental_uris":{"android":"levelo://app?vid=85af6c92-372c-4cd2-84da-c4ec61fa470d","ios":"levelo://app?vid=85af6c92-372c-4cd2-84da-c4ec61fa470d"},"vehicle_type_id":"4","last_reported":1738055388,"current_range_meters":31200,"station_id":"ce4bhkp2rcd13ifvqgd0","pricing_plan_id":"cebpf4jnsgd1na2vs0mg"},{"bike_id":"0a5fde81-0685-4894-b805-5edb46505778","system_id":"levelo_inurba_marseille","lat":43.24691,"lon":5.38168,"is_reserved":false,"is_disabled":true,"rental_uris":{"android":"levelo://app?vid=0a5fde81-0685-4894-b805-5edb46505778","ios":"levelo://app?vid=0a5fde81-0685-4894-b805-5edb46505778"},"vehicle_type_id":"4","last_reported":1738055388,"current_range_meters":38000,"station_id":"ce4bhih2rcd13ifvqfr0","pricing_plan_id":"cebpf4jnsgd1na2vs0mg"},{"bike_id":"9c8682a0-e665-42ca-9e8b-8233d9f42b52","system_id":"levelo_inurba_marseille","lat":43.26942,"lon":5.40294,"is_reserved":false,"is_disabled":false,"rental_uris":{"android":"levelo://app?vid=9c8682a0-e665-42ca-9e8b-8233d9f42b52","ios":"levelo://app?vid=9c8682a0-e665-42ca-9e8b-8233d9f42b52"},"vehicle_type_id":"4","last_reported":1738055388,"current_range_meters":8000,"station_id":"cjm6bp8fraef2m0cb0m0","pricing_plan_id":"cebpf4jnsgd1na2vs0mg"},{"bike_id":"5cf2daf4-98e7-4431-9d2f-0da0360b7949","system_id":"levelo_inurba_marseille","lat":43.29299,"lon":5.37481,"is_reserved":false,"is_disabled":false,"rental_uris":{"android":"levelo://app?vid=5cf2daf4-98e7-4431-9d2f-0da0360b7949","ios":"levelo://app?vid=5cf2daf4-98e7-4431-9d2f-0da0360b7949"},"vehicle_type_id":"4","last_reported":1738055388,"current_range_meters":18800,"station_id":"ce4bgi12rcd13ifvqb70","pricing_plan_id":"cebpf4jnsgd1na2vs0mg"},{"bike_id":"343d8c01-99ed-4d90-9570-a1a7b987806d","system_id":"levelo_inurba_marseille","lat":43.24803,"lon":5.37455,"is_reserved":false,"is_disabled":false,"rental_uris":{"android":"levelo://app?vid=343d8c01-99ed-4d90-9570-a1a7b987806d","ios":"levelo://app?vid=343d8c01-99ed-4d90-9570-a1a7b987806d"},"vehicle_type_id":"4","last_reported":1738055388,"current_range_meters":38800,"station_id":"ce4bhgh2rcd13ifvqfb0","pricing_plan_id":"cebpf4jnsgd1na2vs0mg"},{"bike_id":"0a0ae71f-4f56-4994-bc72-73253d32ead8","system_id":"levelo_inurba_marseille","lat":43.27437,"lon":5.39417,"is_reserved":false,"is_disabled":false,"rental_uris":{"android":"levelo://app?vid=0a0ae71f-4f56-4994-bc72-73253d32ead8","ios":"levelo://app?vid=0a0ae71f-4f56-4994-bc72-73253d32ead8"},"vehicle_type_id":"4","last_reported":1738055388,"current_range_meters":39200,"station_id":"ce4bhdp2rcd13ifvqf20","pricing_plan_id":"cebpf4jnsgd1na2vs0mg"},{"bike_id":"fabf49eb-4e1a-4239-a663-4ed59361ceec","system_id":"levelo_inurba_marseille","lat":43.28712,"lon":5.37941,"is_reserved":false,"is_disabled":false,"rental_uris":{"android":"levelo://app?vid=fabf49eb-4e1a-4239-a663-4ed59361ceec","ios":"levelo://app?vid=fabf49eb-4e1a-4239-a663-4ed59361ceec"},"vehicle_type_id":"4","last_reported":1738055388,"current_range_meters":22000,"station_id":"ce4bh9p2rcd13ifvqec0","pricing_plan_id":"cebpf4jnsgd1na2vs0mg"},{"bike_id":"3d98c6ce-e80d-46e8-b577-648cd8c28632","system_id":"levelo_inurba_marseille","lat":43.34699,"lon":5.34741,"is_reserved":false,"is_disabled":true,"rental_uris":{"android":"levelo://app?vid=3d98c6ce-e80d-46e8-b577-648cd8c28632","ios":"levelo://app?vid=3d98c6ce-e80d-46e8-b577-648cd8c28632"},"vehicle_type_id":"4","last_reported":1738055388,"current_range_meters":0,"station_id":"","pricing_plan_id":"cebpf4jnsgd1na2vs0mg"},{"bike_id":"f45e92fa-0e85-41e7-bd5d-428e50cde5ed","system_id":"levelo_inurba_marseille","lat":43.27442,"lon":5.39413,"is_reserved":false,"is_disabled":false,"rental_uris":{"android":"levelo://app?vid=f45e92fa-0e85-41e7-bd5d-428e50cde5ed","ios":"levelo://app?vid=f45e92fa-0e85-41e7-bd5d-428e50cde5ed"},"vehicle_type_id":"4","last_reported":1738055388,"current_range_meters":8800,"station_id":"ce4bhdp2rcd13ifvqf20","pricing_plan_id":"cebpf4jnsgd1na2vs0mg"},{"bike_id":"e2bed4d2-8734-40ef-9c13-6dd111bc0a3a","system_id":"levelo_inurba_marseille","lat":43.28966,"lon":5.3785,"is_reserved":false,"is_disabled":false,"rental_uris":{"android":"levelo://app?vid=e2bed4d2-8734-40ef-9c13-6dd111bc0a3a","ios":"levelo://app?vid=e2bed4d2-8734-40ef-9c13-6dd111bc0a3a"},"vehicle_type_id":"4","last_reported":1738055388,"current_range_meters":39200,"station_id":"ce4bh9p2rcd13ifvqed0","pricing_plan_id":"cebpf4jnsgd1na2vs0mg"},