{"last_updated":1774633242,"ttl":60,"version":"2.2","data":{"bikes":[{"bike_id":"026bbd3e-661d-4021-a8c5-649d1bcfdca0","system_id":"levelo_inurba_marseille","lat":43.29501,"lon":5.37391,"is_reserved":false,"is_disabled":false,"rental_uris":{"android":"levelo://app?vid=026bbd3e-661d-4021-a8c5-649d1bcfdca0","ios":"levelo://app?vid=026bbd3e-661d-4021-a8c5-649d1bcfdca0"},"vehicle_type_id":"4","last_reported":1774633242,"current_range_meters":2800,"station_id":"","pricing_plan_id":"cebpf4jnsgd1na2vs0mg"},{"bike_id":"66cca29d-0f57-46a2-8a48-8f702b2e6bf4","system_id":"levelo_inurba_marseille","lat":43.2319,"lon":5.39979,"is_reserved":false,"is_disabled":true,"rental_uris":{"android":"levelo://app?vid=66cca29d-0f57-46a2-8a48-8f702b2e6bf4","ios":"levelo://app?vid=66cca29d-0f57-46a2-8a48-8f702b2e6bf4"},"vehicle_type_id":"4","last_reported":1774633242,"current_range_meters":2800,"station_id":"ce4bhn12rcd13ifvqgqg","pricing_plan_id":"cebpf4jnsgd1na2vs0mg"},{"bike_id":"95062790-6cce-4e40-bd4c-3b693b1539eb","system_id":"levelo_inurba_marseille","lat":43.25687,"lon":5.41041,"is_reserved":false,"is_disabled":false,"rental_uris":{"android":"levelo://app?vid=95062790-6cce-4e40-bd4c-3b693b1539eb","ios":"levelo://app?vid=95062790-6cce-4e40-bd4c-3b693b1539eb"},"vehicle_type_id":"4","last_reported":1774633242,"current_range_meters":2800,"station_id":"","pricing_plan_id":"cebpf4jnsgd1na2vs0mg"},{"bike_id":"d896d699-3ac7-4823-b169-2267a272f07c","system_id":"levelo_inurba_marseille","lat":43.25824,"lon":5.39415,"is_reserved":false,"is_disabled":false,"rental_uris":{"android":"levelo://app?vid=d896d699-3ac7-4823-b169-2267a272f07c","ios":"levelo://app?vid=d896d699-3ac7-4823-b169-2267a272f07c"},"vehicle_type_id":"4","last_reported":1774633242,"current_range_meters":2800,"station_id":"ce4bhip2rcd13ifvqft0","pricing_plan_id":"cebpf4jnsgd1na2vs0mg"},{"bike_id":"42aa3d8d-ea1a-4aae-b859-cb119dabee95","system_id":"levelo_inurba_marseille","lat":43.28952,"lon":5.36392,"is_reserved":false,"is_disabled":false,"rental_uris":{"android":"levelo://app?vid=42aa3d8d-ea1a-4aae-b859-cb119dabee95","ios":"levelo://app?vid=42aa3d8d-ea1a-4aae-b859-cb119dabee95"},"vehicle_type_id":"4","last_reported":1774633242,"current_range_meters":2800,"station_id":"ce4bhc92rcd13ifvqetg","pricing_plan_id":"cebpf4jnsgd1na2vs0mg"},{"bike_id":"04a3918a-64a0-4cce-b1c5-194109312d65","system_id":"levelo_inurba_marseille","lat":43.28264,"lon":5.35069,"is_reserved":false,"is_disabled":false,"rental_uris":{"android":"levelo://app?vid=04a3918a-64a0-4cce-b1c5-194109312d65","ios":"levelo://app?vid=04a3918a-64a0-4cce-b1c5-194109312d65"},"vehicle_type_id":"4","last_reported":1774633242,"current_range_meters":2800,"station_id":"ce4bhbp2rcd13ifvqerg","pricing_plan_id":"cebpf4jnsgd1na2vs0mg"},{"bike_id":"bd19b2f8-c294-4389-9778-12b9c716c80b","system_id":"levelo_inurba_marseille","lat":43.28946,"lon":5.36631,"is_reserved":false,"is_disabled":false,"rental_uris":{"android":"levelo://app?vid=bd19b2f8-c294-4389-9778-12b9c716c80b","ios":"levelo://app?vid=bd19b2f8-c294-4389-9778-12b9c716c80b"},"vehicle_type_id":"4","last_reported":1774633242,"current_range_meters":2800,"station_id":"ce4bhap2rcd13ifvqek0","pricing_plan_id":"cebpf4jnsgd1na2vs0mg"},{"bike_id":"ef891a9a-4888-4b26-ad61-7b21289fc04f","system_id":"levelo_inurba_marseille","lat":43.28612,"lon":5.35105,"is_reserved":false,"is_disabled":false,"rental_uris":{"android":"levelo://app?vid=ef891a9a-4888-4b26-ad61-7b21289fc04f","ios":"levelo://app?vid=ef891a9a-4888-4b26-ad61-7b21289fc04f"},"vehicle_type_id":"4","last_reported":1774633242,"current_range_meters":2800,"station_id":"ce4bhch2rcd13ifvqeug","pricing_plan_id":"cebpf4jnsgd1na2vs0mg"},{"bike_id":"6b9e3b4c-c97d-4452-9bb2-2ab7b8de07ce","system_id":"levelo_inurba_marseille","lat":43.29188,"lon":5.35807,"is_reserved":false,"is_disabled":false,"rental_uris":{"android":"levelo://app?vid=6b9e3b4c-c97d-4452-9bb2-2ab7b8de07ce","ios":"levelo://app?vid=6b9e3b4c-c97d-4452-9bb2-2ab7b8de07ce"},"vehicle_type_id":"4","last_reported":1774633242,"current_range_meters":2800,"station_id":"ce4bhb12rcd13ifvqel0","pricing_plan_id":"cebpf4jnsgd1na2vs0mg"},{"bike_id":"21c4807f-b8cf-4a1d-bee8-7bc7a16a116a","system_id":"levelo_inurba_marseille","lat":43.24642,"lon":5.3889,"is_reserved":false,"is_disabled":false,"rental_uris":{"android":"levelo://app?vid=21c4807f-b8cf-4a1d-bee8-7bc7a16a116a","ios":"levelo://app?vid=21c4807f-b8cf-4a1d-bee8-7bc7a16a116a"},"vehicle_type_id":"4","last_reported":1774633242,"current_range_meters":2800,"station_id":"ce4bhg12rcd13ifvqf60","pricing_plan_id":"cebpf4jnsgd1na2vs0mg"},{"bike_id":"9931603c-32ff-4923-914d-5076d7a1de59","system_id":"levelo_inurba_marseille","lat":43.30641,"lon":5.40102,"is_reserved":false,"is_disabled":false,"rental_uris":{"android":"levelo://app?vid=9931603c-32ff-4923-914d-5076d7a1de59","ios":"levelo://app?vid=9931603c-32ff-4923-914d-5076d7a1de59"},"vehicle_type_id":"4","last_reported":1774633242,"current_range_meters":2800,"station_id":"ce4bh112rcd13ifvqda0","pricing_plan_id":"cebpf4jnsgd1na2vs0mg"},{"bike_id":"a8a26b5e-7912-4173-9475-d0f1794a4834","system_id":"levelo_inurba_marseille","lat":43.27829,"lon":5.39207,"is_reserved":false,"is_disabled":false,"rental_uris":{"android":"levelo://app?vid=a8a26b5e-7912-4173-9475-d0f1794a4834","ios":"levelo://app?vid=a8a26b5e-7912-4173-9475-d0f1794a4834"},"vehicle_type_id":"4","last_reported":1774633242,"current_range_meters":3200,"station_id":"ce4bhjp2rcd13ifvqga0","pricing_plan_id":"cebpf4jnsgd1na2vs0mg"},{"bike_id":"a98e7b73-b30a-4f9b-96c6-ec530884d631","system_id":"levelo_inurba_marseille","lat":43.23787,"lon":5.36623,"is_reserved":false,"is_disabled":false,"rental_uris":{"android":"levelo://app?vid=a98e7b73-b30a-4f9b-96c6-ec530884d631","ios":"levelo://app?vid=a98e7b73-b30a-4f9b-96c6-ec530884d631"},"vehicle_type_id":"4","last_reported":1774633242,"current_range_meters":3200,"station_id":"st_d3nk18o9ro0c73en2l3g","pricing_plan_id":"cebpf4jnsgd1na2vs0mg"},{"bike_id":"6dccbc8e-04ab-408a-a365-3ee35f289fdc","system_id":"levelo_inurba_marseille","lat":43.26567,"lon":5.40323,"is_reserved":false,"is_disabled":false,"rental_uris":{"android":"levelo://app?vid=6dccbc8e-04ab-408a-a365-3ee35f289fdc","ios":"levelo://app?vid=6dccbc8e-04ab-408a-a365-3ee35f289fdc"},"vehicle_type_id":"4","last_reported":1774633242,"current_range_meters":3200,"station_id":"ce4bhmp2rcd13ifvqgng","pricing_plan_id":"cebpf4jnsgd1na2vs0mg"},{"bike_id":"8bcdb0ab-7e49-4af9-b5fa-1bb6f2fc38b8","system_id":"levelo_inurba_marseille","lat":43.31351,"lon":5.39706,"is_reserved":false,"is_disabled":false,"rental_uris":{"android":"levelo://app?vid=8bcdb0ab-7e49-4af9-b5fa-1bb6f2fc38b8","ios":"levelo://app?vid=8bcdb0ab-7e49-4af9-b5fa-1bb6f2fc38b8"},"vehicle_type_id":"4","last_reported":1774633242,"current_range_meters":3200,"station_id":"ce4bgvp2rcd13ifvqcu0","pricing_plan_id":"cebpf4jnsgd1na2vs0mg"},{"bike_id":"73cc16aa-1807-4583-8e42-f309e7ba27fb","system_id":"levelo_inurba_marseille","lat":43.29257,"lon":5.38441,"is_reserved":false,"is_disabled":false,"rental_uris":{"android":"levelo://app?vid=73cc16aa-1807-4583-8e42-f309e7ba27fb","ios":"levelo://app?vid=73cc16aa-1807-4583-8e42-f309e7ba27fb"},"vehicle_type_id":"4","last_reported":1774633242,"current_range_meters":3200,"station_id":"ce4bh692rcd13ifvqea0","pricing_plan_id":"cebpf4jnsgd1na2vs0mg"},{"bike_id":"9a1b7562-5c14-4853-ad31-a4b1e826c8d0","system_id":"levelo_inurba_marseille","lat":43.2256,"lon":5.41629,"is_reserved":false,"is_disabled":false,"rental_uris":{"android":"levelo://app?vid=9a1b7562-5c14-4853-ad31-a4b1e826c8d0","ios":"levelo://app?vid=9a1b7562-5c14-4853-ad31-a4b1e826c8d0"},"vehicle_type_id":"4","last_reported":1774633242,"current_range_meters":3200,"station_id":"st_d2o4gvlbi1j2169b742g","pricing_plan_id":"cebpf4jnsgd1na2vs0mg"},{"bike_id":"df7da100-28e6-4eb0-a741-60273fbbb566","system_id":"levelo_inurba_marseille","lat":43.25118,"lon":5.4032,"is_reserved":false,"is_disabled":false,"rental_uris":{"android":"levelo://app?vid=df7da100-28e6-4eb0-a741-60273fbbb566","ios":"levelo://app?vid=df7da100-28e6-4eb0-a741-60273fbbb566"},"vehicle_type_id":"4","last_reported":1774633242,"current_range_meters":3200,"station_id":"ce4bhlh2rcd13ifvqgig","pricing_plan_id":"cebpf4jnsgd1na2vs0mg"},{"bike_id":"b0257da6-29b0-40f2-a5bf-6ff6c48b36b8","system_id":"levelo_inurba_marseille","lat":43.28477,"lon":5.48333,"is_reserved":false,"is_disabled":false,"rental_uris":{"android":"levelo://app?vid=b0257da6-29b0-40f2-a5bf-6ff6c48b36b8","ios":"levelo://app?vid=b0257da6-29b0-40f2-a5bf-6ff6c48b36b8"},"vehicle_type_id":"4","last_reported":1774633242,"current_range_meters":3200,"station_id":"","pricing_plan_id":"cebpf4jnsgd1na2vs0mg"},{"bike_id":"514e1675-fbc4-43da-95f6-ff565a91aa15","system_id":"levelo_inurba_marseille","lat":43.29305,"lon":5.37164,"is_reserved":false,"is_disabled":false,"rental_uris":{"android":"levelo://app?vid=514e1675-fbc4-43da-95f6-ff565a91aa15","ios":"levelo://app?vid=514e1675-fbc4-43da-95f6-ff565a91aa15"},"vehicle_type_id":"4","last_reported":1774633242,"current_range_meters":3200,"station_id":"ce4bgh92rcd13ifvqb40","pricing_plan_id":"cebpf4jnsgd1na2vs0mg"},{"bike_id":"eb363455-9d29-44c5-ac5d-c03dabae0c06","system_id":"levelo_inurba_marseille","lat":43.30885,"lon":5.39655,"is_reserved":false,"is_disabled":false,"rental_uris":{"android":"levelo://app?vid=eb363455-9d29-44c5-ac5d-c03dabae0c06","ios":"levelo://app?vid=eb363455-9d29-44c5-ac5d-c03dabae0c06"},"vehicle_type_id":"4","last_reported":1774633242,"current_range_meters":3600,"station_id":"ce4bh012rcd13ifvqcv0","pricing_plan_id":"cebpf4jnsgd1na2vs0mg"},{"bike_id":"e2fabea8-fec8-4403-91af-ad7f2d964bb9","system_id":"levelo_inurba_marseille","lat":43.29883,"lon":5.42087,"is_reserved":false,"is_disabled":false,"rental_uris":{"android":"levelo://app?vid=e2fabea8-fec8-4403-91af-ad7f2d964bb9","ios":"levelo://app?vid=e2fabea8-fec8-4403-91af-ad7f2d964bb9"},"vehicle_type_id":"4","last_reported":1774633242,"current_range_meters":3600,"station_id":"st_d6tc004otcvc738tfe70","pricing_plan_id":"cebpf4jnsgd1na2vs0mg"},{"bike_id":"aa929685-e4dd-4a31-a1c6-979463fa81a3","system_id":"levelo_inurba_marseille","lat":43.28491,"lon":5.48393,"is_reserved":false,"is_disabled":false,"rental_uris":{"android":"levelo://app?vid=aa929685-e4dd-4a31-a1c6-979463fa81a3","ios":"levelo://app?vid=aa929685-e4dd-4a31-a1c6-979463fa81a3"},"vehicle_type_id":"4","last_reported":1774633242,"current_range_meters":3600,"station_id":"st_d3svhcjqgbts73a3dn0g","pricing_plan_id":"cebpf4jnsgd1na2vs0mg"},{"bike_id":"4bf5ee1a-db28-4d49-a9e5-e023cbb5efa9","system_id":"levelo_inurba_marseille","lat":43.26509,"lon":5.37958,"is_reserved":false,"is_disabled":false,"rental_uris":{"android":"levelo://app?vid=4bf5ee1a-db28-4d49-a9e5-e023cbb5efa9","ios":"levelo://app?vid=4bf5ee1a-db28-4d49-a9e5-e023cbb5efa9"},"vehicle_type_id":"4","last_reported":1774633242,"current_range_meters":3600,"station_id":"","pricing_plan_id":"cebpf4jnsgd1na2vs0mg"},{"bike_id":"a206a1fc-ad71-47c7-8011-84675fafc178","system_id":"levelo_inurba_marseille","lat":43.31231,"lon":5.36863,"is_reserved":false,"is_disabled":false,"rental_uris":{"android":"levelo://app?vid=a206a1fc-ad71-47c7-8011-84675fafc178","ios":"levelo://app?vid=a206a1fc-ad71-47c7-8011-84675fafc178"},"vehicle_type_id":"4","last_reported":1774633242,"current_range_meters":3600,"station_id":"ce4bgl92rcd13ifvqbq0","pricing_plan_id":"cebpf4jnsgd1na2vs0mg"},{"bike_id":"5ee79f78-c077-4e4b-853f-9dadde04ec9a","system_id":"levelo_inurba_marseille","lat":43.32491,"lon":5.3828,"is_reserved":false,"is_disabled":false,"rental_uris":{"android":"levelo://app?vid=5ee79f78-c077-4e4b-853f-9dadde04ec9a","ios":"levelo://app?vid=5ee79f78-c077-4e4b-853f-9dadde04ec9a"},"vehicle_type_id":"4","last_reported":1774633242,"current_range_meters":3600,"station_id":"st_d4asgbiv49dc73anf9m0","pricing_plan_id":"cebpf4jnsgd1na2vs0mg"},{"bike_id":"95499898-c966-4d35-ae05-c608fe124272","system_id":"levelo_inurba_marseille","lat":43.27482,"lon":5.41624,"is_reserved":false,"is_disabled":false,"rental_uris":{"android":"levelo://app?vid=95499898-c966-4d35-ae05-c608fe124272","ios":"levelo://app?vid=95499898-c966-4d35-ae05-c608fe124272"},"vehicle_type_id":"4","last_reported":1774633242,"current_range_meters":3600,"station_id":"st_d6im8g6chgec73a5pndg","pricing_plan_id":"cebpf4jnsgd1na2vs0mg"},{"bike_id":"5d50e5a1-2776-45f5-b9ff-1dc20663f1a3","system_id":"levelo_inurba_marseille","lat":43.27172,"lon":5.40984,"is_reserved":false,"is_disabled":false,"rental_uris":{"android":"levelo://app?vid=5d50e5a1-2776-45f5-b9ff-1dc20663f1a3","ios":"levelo://app?vid=5d50e5a1-2776-45f5-b9ff-1dc20663f1a3"},"vehicle_type_id":"4","last_reported":1774633242,"current_range_meters":3600,"station_id":"ce4bhl12rcd13ifvqgf0","pricing_plan_id":"cebpf4jnsgd1na2vs0mg"},{"bike_id":"0f56ada4-0139-4533-81b0-539cec19117a","system_id":"levelo_inurba_marseille","lat":43.30053,"lon":5.37694,"is_reserved":false,"is_disabled":false,"rental_uris":{"android":"levelo://app?vid=0f56ada4-0139-4533-81b0-539cec19117a","ios":"levelo://app?vid=0f56ada4-0139-4533-81b0-539cec19117a"},"vehicle_type_id":"4","last_reported":1774633242,"current_range_meters":3600,"station_id":"","pricing_plan_id":"cebpf4jnsgd1na2vs0mg"},{"bike_id":"d9f1e599-9996-4001-a299-ae38459379b5","system_id":"levelo_inurba_marseille","lat":43.31925,"lon":5.36824,"is_reserved":false,"is_disabled":false,"rental_uris":{"android":"levelo://app?vid=d9f1e599-9996-4001-a299-ae38459379b5","ios":"levelo://app?vid=d9f1e599-9996-4001-a299-ae38459379b5"},"vehicle_type_id":"4","last_reported":1774633242,"current_range_meters":3600,"station_id":"","pricing_plan_id":"cebpf4jnsgd1na2vs0mg"},{"bike_id":"73306d4a-53a0-4250-8798-09cf28dc3f6e","system_id":"levelo_inurba_marseille","lat":43.26955,"lon":5.38639,"is_reserved":false,"is_disabled":false,"rental_uris":{"android":"levelo://app?vid=73306d4a-53a0-4250-8798-09cf28dc3f6e","ios":"levelo://app?vid=73306d4a-53a0-4250-8798-09cf28dc3f6e"},"vehicle_type_id":"4","last_reported":1774633242,"current_range_meters":3600,"station_id":"ce4bhh92rcd13ifvqfh0","pricing_plan_id":"cebpf4jnsgd1na2vs0mg"},{"bike_id":"b0dbae4b-1d83-4fe1-813e-4bdeedc128b8","system_id":"levelo_inurba_marseille","lat":43.28276,"lon":5.35078,"is_reserved":false,"is_disabled":false,"rental_uris":{"android":"levelo://app?vid=b0dbae4b-1d83-4fe1-813e-4bdeedc128b8","ios":"levelo://app?vid=b0dbae4b-1d83-4fe1-813e-4bdeedc128b8"},"vehicle_type_id":"4","last_reported":1774633242,"current_range_meters":4000,"station_id":"ce4bhbp2rcd13ifvqerg","pricing_plan_id":"cebpf4jnsgd1na2vs0mg"},{"bike_id":"f1cca27e-f145-4463-bb31-c7b5d1d325a9","system_id":"levelo_inurba_marseille","lat":43.28463,"lon":5.35903,"is_reserved":false,"is_disabled":false,"rental_uris":{"android":"levelo://app?vid=f1cca27e-f145-4463-bb31-c7b5d1d325a9","ios":"levelo://app?vid=f1cca27e-f145-4463-bb31-c7b5d1d325a9"},"vehicle_type_id":"4","last_reported":1774633242,"current_range_meters":4000,"station_id":"ce4bhah2rcd13ifvqei0","pricing_plan_id":"cebpf4jnsgd1na2vs0mg"},{"bike_id":"f4f425d3-be51-4171-a411-55074459ef63","system_id":"levelo_inurba_marseille","lat":43.28465,"lon":5.35897,"is_reserved":false,"is_disabled":false,"rental_uris":{"android":"levelo://app?vid=f4f425d3-be51-4171-a411-55074459ef63","ios":"levelo://app?vid=f4f425d3-be51-4171-a411-55074459ef63"},"vehicle_type_id":"4","last_reported":1774633242,"current_range_meters":4000,"station_id":"ce4bhah2rcd13ifvqei0","pricing_plan_id":"cebpf4jnsgd1na2vs0mg"},{"bike_id":"136546e1-ff47-4f29-a7da-85ff73808791","system_id":"levelo_inurba_marseille","lat":43.31322,"lon":5.39695,"is_reserved":false,"is_disabled":false,"rental_uris":{"android":"levelo://app?vid=136546e1-ff47-4f29-a7da-85ff73808791","ios":"levelo://app?vid=136546e1-ff47-4f29-a7da-85ff73808791"},"vehicle_type_id":"4","last_reported":1774633242,"current_range_meters":4000,"station_id":"ce4bgvp2rcd13ifvqcu0","pricing_plan_id":"cebpf4jnsgd1na2vs0mg"},{"bike_id":"6e8d7a2d-a08f-4cd2-8fac-9210d7790840","system_id":"levelo_inurba_marseille","lat":43.29002,"lon":5.35607,"is_reserved":false,"is_disabled":false,"rental_uris":{"android":"levelo://app?vid=6e8d7a2d-a08f-4cd2-8fac-9210d7790840","ios":"levelo://app?vid=6e8d7a2d-a08f-4cd2-8fac-9210d7790840"},"vehicle_type_id":"4","last_reported":1774633242,"current_range_meters":4000,"station_id":"ce4bhb92rcd13ifvqen0","pricing_plan_id":"cebpf4jnsgd1na2vs0mg"},{"bike_id":"67d5a3e5-1f43-4669-a539-993564c09aa2","system_id":"levelo_inurba_marseille","lat":43.29854,"lon":5.36286,"is_reserved":false,"is_disabled":false,"rental_uris":{"android":"levelo://app?vid=67d5a3e5-1f43-4669-a539-993564c09aa2","ios":"levelo://app?vid=67d5a3e5-1f43-4669-a539-993564c09aa2"},"vehicle_type_id":"4","last_reported":1774633242,"current_range_meters":4000,"station_id":"ce4bgpp2rcd13ifvqc3g","pricing_plan_id":"cebpf4jnsgd1na2vs0mg"},{"bike_id":"3ab98d54-0020-4383-9198-d1ae40e931d7","system_id":"levelo_inurba_marseille","lat":43.26234,"lon":5.40517,"is_reserved":false,"is_disabled":false,"rental_uris":{"android":"levelo://app?vid=3ab98d54-0020-4383-9198-d1ae40e931d7","ios":"levelo://app?vid=3ab98d54-0020-4383-9198-d1ae40e931d7"},"vehicle_type_id":"4","last_reported":1774633242,"current_range_meters":4000,"station_id":"","pricing_plan_id":"cebpf4jnsgd1na2vs0mg"},{"bike_id":"aee18147-f620-4b41-9c4f-38abb435ebba","system_id":"levelo_inurba_marseille","lat":43.29076,"lon":5.37154,"is_reserved":false,"is_disabled":false,"rental_uris":{"android":"levelo://app?vid=aee18147-f620-4b41-9c4f-38abb435ebba","ios":"levelo://app?vid=aee18147-f620-4b41-9c4f-38abb435ebba"},"vehicle_type_id":"4","last_reported":1774633242,"current_range_meters":4000,"station_id":"ce4bh5p2rcd13ifvqe4g","pricing_plan_id":"cebpf4jnsgd1na2vs0mg"},{"bike_id":"304f09eb-d9e2-49f5-ab92-08bad78da312","system_id":"levelo_inurba_marseille","lat":43.23783,"lon":5.3663,"is_reserved":false,"is_disabled":false,"rental_uris":{"android":"levelo://app?vid=304f09eb-d9e2-49f5-ab92-08bad78da312","ios":"levelo://app?vid=304f09eb-d9e2-49f5-ab92-08bad78da312"},"vehicle_type_id":"4","last_reported":1774633242,"current_range_meters":4000,"station_id":"st_d3nk18o9ro0c73en2l3g","pricing_plan_id":"cebpf4jnsgd1na2vs0mg"},{"bike_id":"11d5de94-a0c5-4d8d-8009-48eec227c006","system_id":"levelo_inurba_marseille","lat":43.22939,"lon":5.35378,"is_reserved":false,"is_disabled":false,"rental_uris":{"android":"levelo://app?vid=11d5de94-a0c5-4d8d-8009-48eec227c006","ios":"levelo://app?vid=11d5de94-a0c5-4d8d-8009-48eec227c006"},"vehicle_type_id":"4","last_reported":1774633242,"current_range_meters":4000,"station_id":"cpo3532slgdg3j2ikp40","pricing_plan_id":"cebpf4jnsgd1na2vs0mg"},{"bike_id":"99fdde14-d00f-4b87-a06e-d19f16d9d69a","system_id":"levelo_inurba_marseille","lat":43.30214,"lon":5.38034,"is_reserved":false,"is_disabled":false,"rental_uris":{"android":"levelo://app?vid=99fdde14-d00f-4b87-a06e-d19f16d9d69a","ios":"levelo://app?vid=99fdde14-d00f-4b87-a06e-d19f16d9d69a"},"vehicle_type_id":"4","last_reported":1774633242,"current_range_meters":4000,"station_id":"","pricing_plan_id":"cebpf4jnsgd1na2vs0mg"},{"bike_id":"4397ae44-635b-43b0-a1ea-4e1a061d0889","system_id":"levelo_inurba_marseille","lat":43.24169,"lon":5.36393,"is_reserved":false,"is_disabled":false,"rental_uris":{"android":"levelo://app?vid=4397ae44-635b-43b0-a1ea-4e1a061d0889","ios":"levelo://app?vid=4397ae44-635b-43b0-a1ea-4e1a061d0889"},"vehicle_type_id":"4","last_reported":1774633242,"current_range_meters":4000,"station_id":"cpo36qri1sfpv3e86is0","pricing_plan_id":"cebpf4jnsgd1na2vs0mg"},{"bike_id":"c716c366-7387-4ac7-88b0-9d253375091f","system_id":"levelo_inurba_marseille","lat":43.2811,"lon":5.37834,"is_reserved":false,"is_disabled":false,"rental_uris":{"android":"levelo://app?vid=c716c366-7387-4ac7-88b0-9d253375091f","ios":"levelo://app?vid=c716c366-7387-4ac7-88b0-9d253375091f"},"vehicle_type_id":"4","last_reported":1774633242,"current_range_meters":4000,"station_id":"ce4bha12rcd13ifvqee0","pricing_plan_id":"cebpf4jnsgd1na2vs0mg"},{"bike_id":"6425d338-6c95-4e5a-831f-e91b18f5888b","system_id":"levelo_inurba_marseille","lat":43.28481,"lon":5.38421,"is_reserved":false,"is_disabled":false,"rental_uris":{"android":"levelo://app?vid=6425d338-6c95-4e5a-831f-e91b18f5888b","ios":"levelo://app?vid=6425d338-6c95-4e5a-831f-e91b18f5888b"},"vehicle_type_id":"4","last_reported":1774633242,"current_range_meters":4400,"station_id":"ce4bh512rcd13ifvqe3g","pricing_plan_id":"cebpf4jnsgd1na2vs0mg"},{"bike_id":"beca5126-c985-47d5-859f-464bcda92937","system_id":"levelo_inurba_marseille","lat":43.23783,"lon":5.36633,"is_reserved":false,"is_disabled":false,"rental_uris":{"android":"levelo://app?vid=beca5126-c985-47d5-859f-464bcda92937","ios":"levelo://app?vid=beca5126-c985-47d5-859f-464bcda92937"},"vehicle_type_id":"4","last_reported":1774633242,"current_range_meters":4400,"station_id":"st_d3nk18o9ro0c73en2l3g","pricing_plan_id":"cebpf4jnsgd1na2vs0mg"},{"bike_id":"60745d19-0a4f-44d5-90ce-af1c93b483f7","system_id":"levelo_inurba_marseille","lat":43.28406,"lon":5.34996,"is_reserved":false,"is_disabled":false,"rental_uris":{"android":"levelo://app?vid=60745d19-0a4f-44d5-90ce-af1c93b483f7","ios":"levelo://app?vid=60745d19-0a4f-44d5-90ce-af1c93b483f7"},"vehicle_type_id":"4","last_reported":1774633242,"current_range_meters":4400,"station_id":"ce4bhbh2rcd13ifvqepg","pricing_plan_id":"cebpf4jnsgd1na2vs0mg"},{"bike_id":"9358dfb3-290a-43e0-8d2b-8421abf3ac5b","system_id":"levelo_inurba_marseille","lat":43.27965,"lon":5.38737,"is_reserved":false,"is_disabled":false,"rental_uris":{"android":"levelo://app?vid=9358dfb3-290a-43e0-8d2b-8421abf3ac5b","ios":"levelo://app?vid=9358dfb3-290a-43e0-8d2b-8421abf3ac5b"},"vehicle_type_id":"4","last_reported":1774633242,"current_range_meters":4400,"station_id":"ce4bhg12rcd13ifvqf80","pricing_plan_id":"cebpf4jnsgd1na2vs0mg"},{"bike_id":"9ac2d7e7-51d6-4c20-9245-1abdbf115c06","system_id":"levelo_inurba_marseille","lat":43.27477,"lon":5.41606,"is_reserved":false,"is_disabled":false,"rental_uris":{"android":"levelo://app?vid=9ac2d7e7-51d6-4c20-9245-1abdbf115c06","ios":"levelo://app?vid=9ac2d7e7-51d6-4c20-9245-1abdbf115c06"},"vehicle_type_id":"4","last_reported":1774633242,"current_range_meters":4400,"station_id":"st_d6im8g6chgec73a5pndg","pricing_plan_id":"cebpf4jnsgd1na2vs0mg"},{"bike_id":"267bc122-7a15-4e81-be72-d047215300c1","system_id":"levelo_inurba_marseille","lat":43.28613,"lon":5.39876,"is_reserved":false,"is_disabled":false,"rental_uris":{"android":"levelo://app?vid=267bc122-7a15-4e81-be72-d047215300c1","ios":"levelo://app?vid=267bc122-7a15-4e81-be72-d047215300c1"},"vehicle_type_id":"4","last_reported":1774633242,"current_range_meters":4400,"station_id":"st_d4a7ka997mjs738ck50g","pricing_plan_id":"cebpf4jnsgd1na2vs0mg"},{"bike_id":"608267f4-4761-45de-af62-b388500b9fc0","system_id":"levelo_inurba_marseille","lat":43.26063,"lon":5.39366,"is_reserved":false,"is_disabled":false,"rental_uris":{"android":"levelo://app?vid=608267f4-4761-45de-af62-b388500b9fc0","ios":"levelo://app?vid=608267f4-4761-45de-af62-b388500b9fc0"},"vehicle_type_id":"4","last_reported":1774633242,"current_range_meters":4400,"station_id":"ce4bhh92rcd13ifvqfj0","pricing_plan_id":"cebpf4jnsgd1na2vs0mg"},{"bike_id":"6a14e0d7-e036-4a7a-988c-bd4c5dc1ab7f","system_id":"levelo_inurba_marseille","lat":43.33142,"lon":5.37695,"is_reserved":false,"is_disabled":false,"rental_uris":{"android":"levelo://app?vid=6a14e0d7-e036-4a7a-988c-bd4c5dc1ab7f","ios":"levelo://app?vid=6a14e0d7-e036-4a7a-988c-bd4c5dc1ab7f"},"vehicle_type_id":"4","last_reported":1774633242,"current_range_meters":4400,"station_id":"st_d46cu089ee8s73dldbu0","pricing_plan_id":"cebpf4jnsgd1na2vs0mg"},{"bike_id":"195e0631-ed2b-43bc-b6d1-51410ce940b3","system_id":"levelo_inurba_marseille","lat":43.2848,"lon":5.48392,"is_reserved":false,"is_disabled":false,"rental_uris":{"android":"levelo://app?vid=195e0631-ed2b-43bc-b6d1-51410ce940b3","ios":"levelo://app?vid=195e0631-ed2b-43bc-b6d1-51410ce940b3"},"vehicle_type_id":"4","last_reported":1774633242,"current_range_meters":4800,"station_id":"st_d3svhcjqgbts73a3dn0g","pricing_plan_id":"cebpf4jnsgd1na2vs0mg"},{"bike_id":"9d5e2f86-bc2c-45f6-b96a-3960cb41b63b","system_id":"levelo_inurba_marseille","lat":43.29265,"lon":5.38448,"is_reserved":false,"is_disabled":false,"rental_uris":{"android":"levelo://app?vid=9d5e2f86-bc2c-45f6-b96a-3960cb41b63b","ios":"levelo://app?vid=9d5e2f86-bc2c-45f6-b96a-3960cb41b63b"},"vehicle_type_id":"4","last_reported":1774633242,"current_range_meters":4800,"station_id":"ce4bh692rcd13ifvqea0","pricing_plan_id":"cebpf4jnsgd1na2vs0mg"},{"bike_id":"ceafad9d-a500-41ad-9e31-0938466572d1","system_id":"levelo_inurba_marseille","lat":43.323676,"lon":5.388837,"is_reserved":false,"is_disabled":false,"rental_uris":{"android":"levelo://app?vid=ceafad9d-a500-41ad-9e31-0938466572d1","ios":"levelo://app?vid=ceafad9d-a500-41ad-9e31-0938466572d1"},"vehicle_type_id":"4","last_reported":1774633242,"current_range_meters":4800,"station_id":"ce4bhqp2rcd13ifvqhog","pricing_plan_id":"cebpf4jnsgd1na2vs0mg"},{"bike_id":"909d8668-9f9d-4218-8526-24e64be08210","system_id":"levelo_inurba_marseille","lat":43.30184,"lon":5.36639,"is_reserved":false,"is_disabled":false,"rental_uris":{"android":"levelo://app?vid=909d8668-9f9d-4218-8526-24e64be08210","ios":"levelo://app?vid=909d8668-9f9d-4218-8526-24e64be08210"},"vehicle_type_id":"4","last_reported":1774633242,"current_range_meters":4800,"station_id":"ce4bgrh2rcd13ifvqc8g","pricing_plan_id":"cebpf4jnsgd1na2vs0mg"},{"bike_id":"203f5701-9c25-4e8f-84bd-44e70fbe8b79","system_id":"levelo_inurba_marseille","lat":43.29174,"lon":5.37174,"is_reserved":false,"is_disabled":false,"rental_uris":{"android":"levelo://app?vid=203f5701-9c25-4e8f-84bd-44e70fbe8b79","ios":"levelo://app?vid=203f5701-9c25-4e8f-84bd-44e70fbe8b79"},"vehicle_type_id":"4","last_reported":1774633242,"current_range_meters":4800,"station_id":"ce4bha92rcd13ifvqeh0","pricing_plan_id":"cebpf4jnsgd1na2vs0mg"},{"bike_id":"2b3f38d4-1f3f-4c0b-9f9a-39d3db3cd678","system_id":"levelo_inurba_marseille","lat":43.2834,"lon":5.38117,"is_reserved":false,"is_disabled":false,"rental_uris":{"android":"levelo://app?vid=2b3f38d4-1f3f-4c0b-9f9a-39d3db3cd678","ios":"levelo://app?vid=2b3f38d4-1f3f-4c0b-9f9a-39d3db3cd678"},"vehicle_type_id":"4","last_reported":1774633242,"current_range_meters":4800,"station_id":"ce4bh412rcd13ifvqdr0","pricing_plan_id":"cebpf4jnsgd1na2vs0mg"},{"bike_id":"d98423cf-94ce-4749-89f6-e8a1ee474779","system_id":"levelo_inurba_marseille","lat":43.28444,"lon":5.34966,"is_reserved":false,"is_disabled":false,"rental_uris":{"android":"levelo://app?vid=d98423cf-94ce-4749-89f6-e8a1ee474779","ios":"levelo://app?vid=d98423cf-94ce-4749-89f6-e8a1ee474779"},"vehicle_type_id":"4","last_reported":1774633242,"current_range_meters":4800,"station_id":"ce4bhbh2rcd13ifvqepg","pricing_plan_id":"cebpf4jnsgd1na2vs0mg"},{"bike_id":"10fe5563-f532-4492-919a-4905f9dfe4ff","system_id":"levelo_inurba_marseille","lat":43.28485,"lon":5.48393,"is_reserved":false,"is_disabled":false,"rental_uris":{"android":"levelo://app?vid=10fe5563-f532-4492-919a-4905f9dfe4ff","ios":"levelo://app?vid=10fe5563-f532-4492-919a-4905f9dfe4ff"},"vehicle_type_id":"4","last_reported":1774633242,"current_range_meters":4800,"station_id":"","pricing_plan_id":"cebpf4jnsgd1na2vs0mg"},{"bike_id":"0ae0d078-868d-4f2e-943a-d574185b38f1","system_id":"levelo_inurba_marseille","lat":43.29512,"lon":5.39402,"is_reserved":false,"is_disabled":false,"rental_uris":{"android":"levelo://app?vid=0ae0d078-868d-4f2e-943a-d574185b38f1","ios":"levelo://app?vid=0ae0d078-868d-4f2e-943a-d574185b38f1"},"vehicle_type_id":"4","last_reported":1774633242,"current_range_meters":4800,"station_id":"ce4bh292rcd13ifvqdf0","pricing_plan_id":"cebpf4jnsgd1na2vs0mg"},{"bike_id":"365fd2f8-02a4-4d01-9362-788b6929dd5c","system_id":"levelo_inurba_marseille","lat":43.23146,"lon":5.4366,"is_reserved":false,"is_disabled":false,"rental_uris":{"android":"levelo://app?vid=365fd2f8-02a4-4d01-9362-788b6929dd5c","ios":"levelo://app?vid=365fd2f8-02a4-4d01-9362-788b6929dd5c"},"vehicle_type_id":"4","last_reported":1774633242,"current_range_meters":4800,"station_id":"ce4bhmp2rcd13ifvqgog","pricing_plan_id":"cebpf4jnsgd1na2vs0mg"},{"bike_id":"b5114d54-1a10-4d09-9c82-f6aa7d7d3f8c","system_id":"levelo_inurba_marseille","lat":43.22571,"lon":5.41631,"is_reserved":false,"is_disabled":false,"rental_uris":{"android":"levelo://app?vid=b5114d54-1a10-4d09-9c82-f6aa7d7d3f8c","ios":"levelo://app?vid=b5114d54-1a10-4d09-9c82-f6aa7d7d3f8c"},"vehicle_type_id":"4","last_reported":1774633242,"current_range_meters":5600,"station_id":"st_d2o4gvlbi1j2169b742g","pricing_plan_id":"cebpf4jnsgd1na2vs0mg"},{"bike_id":"626586ec-28e3-4304-9e76-1354fc5b82e3","system_id":"levelo_inurba_marseille","lat":43.29596,"lon":5.38094,"is_reserved":false,"is_disabled":false,"rental_uris":{"android":"levelo://app?vid=626586ec-28e3-4304-9e76-1354fc5b82e3","ios":"levelo://app?vid=626586ec-28e3-4304-9e76-1354fc5b82e3"},"vehicle_type_id":"4","last_reported":1774633242,"current_range_meters":5600,"station_id":"ce4bgl12rcd13ifvqbo0","pricing_plan_id":"cebpf4jnsgd1na2vs0mg"},{"bike_id":"02c9173a-1cf1-433f-9d8a-bb3a1bbf12b0","system_id":"levelo_inurba_marseille","lat":43.29526,"lon":5.3853,"is_reserved":false,"is_disabled":false,"rental_uris":{"android":"levelo://app?vid=02c9173a-1cf1-433f-9d8a-bb3a1bbf12b0","ios":"levelo://app?vid=02c9173a-1cf1-433f-9d8a-bb3a1bbf12b0"},"vehicle_type_id":"4","last_reported":1774633242,"current_range_meters":5600,"station_id":"ce4bgih2rcd13ifvqba0","pricing_plan_id":"cebpf4jnsgd1na2vs0mg"},{"bike_id":"bfd7cb66-3073-4920-8151-129c410ea860","system_id":"levelo_inurba_marseille","lat":43.33542,"lon":5.37484,"is_reserved":false,"is_disabled":false,"rental_uris":{"android":"levelo://app?vid=bfd7cb66-3073-4920-8151-129c410ea860","ios":"levelo://app?vid=bfd7cb66-3073-4920-8151-129c410ea860"},"vehicle_type_id":"4","last_reported":1774633242,"current_range_meters":5600,"station_id":"st_d46tts09ee8s73dlu43g","pricing_plan_id":"cebpf4jnsgd1na2vs0mg"},{"bike_id":"d57b318a-511b-4a61-a4de-8b79e1d2465f","system_id":"levelo_inurba_marseille","lat":43.30236,"lon":5.392475,"is_reserved":false,"is_disabled":false,"rental_uris":{"android":"levelo://app?vid=d57b318a-511b-4a61-a4de-8b79e1d2465f","ios":"levelo://app?vid=d57b318a-511b-4a61-a4de-8b79e1d2465f"},"vehicle_type_id":"4","last_reported":1774633242,"current_range_meters":5600,"station_id":"ce4bgkh2rcd13ifvqbk0","pricing_plan_id":"cebpf4jnsgd1na2vs0mg"},{"bike_id":"bef0b9d4-df36-4c20-a18b-6ce4a7cdff7c","system_id":"levelo_inurba_marseille","lat":43.29441,"lon":5.39742,"is_reserved":false,"is_disabled":false,"rental_uris":{"android":"levelo://app?vid=bef0b9d4-df36-4c20-a18b-6ce4a7cdff7c","ios":"levelo://app?vid=bef0b9d4-df36-4c20-a18b-6ce4a7cdff7c"},"vehicle_type_id":"4","last_reported":1774633242,"current_range_meters":5600,"station_id":"ce4bh3h2rcd13ifvqdo0","pricing_plan_id":"cebpf4jnsgd1na2vs0mg"},{"bike_id":"19488896-6834-47f6-be9b-c7e289cb4f1c","system_id":"levelo_inurba_marseille","lat":43.3354,"lon":5.37473,"is_reserved":false,"is_disabled":false,"rental_uris":{"android":"levelo://app?vid=19488896-6834-47f6-be9b-c7e289cb4f1c","ios":"levelo://app?vid=19488896-6834-47f6-be9b-c7e289cb4f1c"},"vehicle_type_id":"4","last_reported":1774633242,"current_range_meters":5600,"station_id":"st_d46tts09ee8s73dlu43g","pricing_plan_id":"cebpf4jnsgd1na2vs0mg"},{"bike_id":"27c547a4-33e7-4ac4-b96a-1b0bee3eb424","system_id":"levelo_inurba_marseille","lat":43.26935,"lon":5.38921,"is_reserved":false,"is_disabled":false,"rental_uris":{"android":"levelo://app?vid=27c547a4-33e7-4ac4-b96a-1b0bee3eb424","ios":"levelo://app?vid=27c547a4-33e7-4ac4-b96a-1b0bee3eb424"},"vehicle_type_id":"4","last_reported":1774633242,"current_range_meters":6000,"station_id":"ce4bhhh2rcd13ifvqfl0","pricing_plan_id":"cebpf4jnsgd1na2vs0mg"},{"bike_id":"b836b627-7d6b-4d6a-b7a4-321fcf60833a","system_id":"levelo_inurba_marseille","lat":43.28951,"lon":5.38183,"is_reserved":false,"is_disabled":true,"rental_uris":{"android":"levelo://app?vid=b836b627-7d6b-4d6a-b7a4-321fcf60833a","ios":"levelo://app?vid=b836b627-7d6b-4d6a-b7a4-321fcf60833a"},"vehicle_type_id":"4","last_reported":1774633242,"current_range_meters":6000,"station_id":"","pricing_plan_id":"cebpf4jnsgd1na2vs0mg"},{"bike_id":"4a6ad84e-6e22-459e-abd6-075453ffbbfd","system_id":"levelo_inurba_marseille","lat":43.30541,"lon":5.36525,"is_reserved":false,"is_disabled":false,"rental_uris":{"android":"levelo://app?vid=4a6ad84e-6e22-459e-abd6-075453ffbbfd","ios":"levelo://app?vid=4a6ad84e-6e22-459e-abd6-075453ffbbfd"},"vehicle_type_id":"4","last_reported":1774633242,"current_range_meters":6000,"station_id":"ce4bgs12rcd13ifvqcag","pricing_plan_id":"cebpf4jnsgd1na2vs0mg"},{"bike_id":"afd03c50-565a-4fab-930b-02ac75fa7357","system_id":"levelo_inurba_marseille","lat":43.30622,"lon":5.37244,"is_reserved":false,"is_disabled":false,"rental_uris":{"android":"levelo://app?vid=afd03c50-565a-4fab-930b-02ac75fa7357","ios":"levelo://app?vid=afd03c50-565a-4fab-930b-02ac75fa7357"},"vehicle_type_id":"4","last_reported":1774633242,"current_range_meters":6000,"station_id":"ce4bgqh2rcd13ifvqc4g","pricing_plan_id":"cebpf4jnsgd1na2vs0mg"},{"bike_id":"eeae46d2-cc4e-4b7d-af7d-8ae32bf9b6b1","system_id":"levelo_inurba_marseille","lat":43.30632,"lon":5.37216,"is_reserved":false,"is_disabled":false,"rental_uris":{"android":"levelo://app?vid=eeae46d2-cc4e-4b7d-af7d-8ae32bf9b6b1","ios":"levelo://app?vid=eeae46d2-cc4e-4b7d-af7d-8ae32bf9b6b1"},"vehicle_type_id":"4","last_reported":1774633242,"current_range_meters":6000,"station_id":"ce4bgqh2rcd13ifvqc4g","pricing_plan_id":"cebpf4jnsgd1na2vs0mg"},{"bike_id":"f54949b2-c373-40aa-bb5b-0953bc72276e","system_id":"levelo_inurba_marseille","lat":43.28274,"lon":5.35069,"is_reserved":false,"is_disabled":false,"rental_uris":{"android":"levelo://app?vid=f54949b2-c373-40aa-bb5b-0953bc72276e","ios":"levelo://app?vid=f54949b2-c373-40aa-bb5b-0953bc72276e"},"vehicle_type_id":"4","last_reported":1774633242,"current_range_meters":6000,"station_id":"ce4bhbp2rcd13ifvqerg","pricing_plan_id":"cebpf4jnsgd1na2vs0mg"},{"bike_id":"2457fc1b-679d-4a71-90e9-ad408ab6ed9d","system_id":"levelo_inurba_marseille","lat":43.33383,"lon":5.38003,"is_reserved":false,"is_disabled":false,"rental_uris":{"android":"levelo://app?vid=2457fc1b-679d-4a71-90e9-ad408ab6ed9d","ios":"levelo://app?vid=2457fc1b-679d-4a71-90e9-ad408ab6ed9d"},"vehicle_type_id":"4","last_reported":1774633242,"current_range_meters":6000,"station_id":"","pricing_plan_id":"cebpf4jnsgd1na2vs0mg"},{"bike_id":"ea5f8b0b-a6e5-44b6-83fe-2a643a9ed717","system_id":"levelo_inurba_marseille","lat":43.31316,"lon":5.39691,"is_reserved":false,"is_disabled":false,"rental_uris":{"android":"levelo://app?vid=ea5f8b0b-a6e5-44b6-83fe-2a643a9ed717","ios":"levelo://app?vid=ea5f8b0b-a6e5-44b6-83fe-2a643a9ed717"},"vehicle_type_id":"4","last_reported":1774633242,"current_range_meters":6000,"station_id":"ce4bgvp2rcd13ifvqcu0","pricing_plan_id":"cebpf4jnsgd1na2vs0mg"},{"bike_id":"36a53367-52a8-4ab3-8c69-2f3920bae689","system_id":"levelo_inurba_marseille","lat":43.24835,"lon":5.37446,"is_reserved":false,"is_disabled":false,"rental_uris":{"android":"levelo://app?vid=36a53367-52a8-4ab3-8c69-2f3920bae689","ios":"levelo://app?vid=36a53367-52a8-4ab3-8c69-2f3920bae689"},"vehicle_type_id":"4","last_reported":1774633242,"current_range_meters":6000,"station_id":"ce4bhgh2rcd13ifvqfb0","pricing_plan_id":"cebpf4jnsgd1na2vs0mg"},{"bike_id":"383a0c07-23ea-4938-92f4-6e91db3dbcd0","system_id":"levelo_inurba_marseille","lat":43.26681,"lon":5.38248,"is_reserved":false,"is_disabled":false,"rental_uris":{"android":"levelo://app?vid=383a0c07-23ea-4938-92f4-6e91db3dbcd0","ios":"levelo://app?vid=383a0c07-23ea-4938-92f4-6e91db3dbcd0"},"vehicle_type_id":"4","last_reported":1774633242,"current_range_meters":6000,"station_id":"ce4bhg92rcd13ifvqf90","pricing_plan_id":"cebpf4jnsgd1na2vs0mg"},{"bike_id":"944404ad-7238-4915-8965-968900b9ee37","system_id":"levelo_inurba_marseille","lat":43.292004,"lon":5.358036,"is_reserved":false,"is_disabled":false,"rental_uris":{"android":"levelo://app?vid=944404ad-7238-4915-8965-968900b9ee37","ios":"levelo://app?vid=944404ad-7238-4915-8965-968900b9ee37"},"vehicle_type_id":"4","last_reported":1774633242,"current_range_meters":6000,"station_id":"ce4bhb12rcd13ifvqel0","pricing_plan_id":"cebpf4jnsgd1na2vs0mg"},{"bike_id":"b492596c-1f93-4731-9219-481c3eebf72b","system_id":"levelo_inurba_marseille","lat":43.26391,"lon":5.41082,"is_reserved":false,"is_disabled":false,"rental_uris":{"android":"levelo://app?vid=b492596c-1f93-4731-9219-481c3eebf72b","ios":"levelo://app?vid=b492596c-1f93-4731-9219-481c3eebf72b"},"vehicle_type_id":"4","last_reported":1774633242,"current_range_meters":6000,"station_id":"st_d4e5ca6na9uc73bfl5fg","pricing_plan_id":"cebpf4jnsgd1na2vs0mg"},{"bike_id":"b38373c4-334e-43c0-8346-e67621fa9685","system_id":"levelo_inurba_marseille","lat":43.21208,"lon":5.3504,"is_reserved":false,"is_disabled":false,"rental_uris":{"android":"levelo://app?vid=b38373c4-334e-43c0-8346-e67621fa9685","ios":"levelo://app?vid=b38373c4-334e-43c0-8346-e67621fa9685"},"vehicle_type_id":"4","last_reported":1774633242,"current_range_meters":6000,"station_id":"st_cvj6sg6p6f1abm77japg","pricing_plan_id":"cebpf4jnsgd1na2vs0mg"},{"bike_id":"e1b95a02-3c87-4429-a87f-8324bd97389b","system_id":"levelo_inurba_marseille","lat":43.26056,"lon":5.39399,"is_reserved":false,"is_disabled":false,"rental_uris":{"android":"levelo://app?vid=e1b95a02-3c87-4429-a87f-8324bd97389b","ios":"levelo://app?vid=e1b95a02-3c87-4429-a87f-8324bd97389b"},"vehicle_type_id":"4","last_reported":1774633242,"current_range_meters":6000,"station_id":"ce4bhh92rcd13ifvqfj0","pricing_plan_id":"cebpf4jnsgd1na2vs0mg"},{"bike_id":"7f766c36-2d15-4a76-af07-34d54037f7f8","system_id":"levelo_inurba_marseille","lat":43.29964,"lon":5.37183,"is_reserved":false,"is_disabled":false,"rental_uris":{"android":"levelo://app?vid=7f766c36-2d15-4a76-af07-34d54037f7f8","ios":"levelo://app?vid=7f766c36-2d15-4a76-af07-34d54037f7f8"},"vehicle_type_id":"4","last_reported":1774633242,"current_range_meters":6000,"station_id":"ce4bgr92rcd13ifvqc7g","pricing_plan_id":"cebpf4jnsgd1na2vs0mg"},{"bike_id":"273b34b5-56ab-4c4b-9e50-94151521a6d7","system_id":"levelo_inurba_marseille","lat":43.29196,"lon":5.35807,"is_reserved":false,"is_disabled":false,"rental_uris":{"android":"levelo://app?vid=273b34b5-56ab-4c4b-9e50-94151521a6d7","ios":"levelo://app?vid=273b34b5-56ab-4c4b-9e50-94151521a6d7"},"vehicle_type_id":"4","last_reported":1774633242,"current_range_meters":6000,"station_id":"ce4bhb12rcd13ifvqel0","pricing_plan_id":"cebpf4jnsgd1na2vs0mg"},{"bike_id":"91bd31f2-be9b-436a-b78a-8cf5541031ec","system_id":"levelo_inurba_marseille","lat":43.33765,"lon":5.37492,"is_reserved":false,"is_disabled":false,"rental_uris":{"android":"levelo://app?vid=91bd31f2-be9b-436a-b78a-8cf5541031ec","ios":"levelo://app?vid=91bd31f2-be9b-436a-b78a-8cf5541031ec"},"vehicle_type_id":"4","last_reported":1774633242,"current_range_meters":6400,"station_id":"","pricing_plan_id":"cebpf4jnsgd1na2vs0mg"},{"bike_id":"2555a893-6a3e-4c23-8e6c-9c60bcd40259","system_id":"levelo_inurba_marseille","lat":43.29872,"lon":5.36236,"is_reserved":false,"is_disabled":false,"rental_uris":{"android":"levelo://app?vid=2555a893-6a3e-4c23-8e6c-9c60bcd40259","ios":"levelo://app?vid=2555a893-6a3e-4c23-8e6c-9c60bcd40259"},"vehicle_type_id":"4","last_reported":1774633242,"current_range_meters":6400,"station_id":"ce4bgpp2rcd13ifvqc3g","pricing_plan_id":"cebpf4jnsgd1na2vs0mg"},{"bike_id":"2168fd10-874c-476f-97d1-11a52fc14733","system_id":"levelo_inurba_marseille","lat":43.2789,"lon":5.37995,"is_reserved":false,"is_disabled":false,"rental_uris":{"android":"levelo://app?vid=2168fd10-874c-476f-97d1-11a52fc14733","ios":"levelo://app?vid=2168fd10-874c-476f-97d1-11a52fc14733"},"vehicle_type_id":"4","last_reported":1774633242,"current_range_meters":6400,"station_id":"ce4bhf92rcd13ifvqf50","pricing_plan_id":"cebpf4jnsgd1na2vs0mg"},{"bike_id":"b6e8f2fa-fae4-4140-af91-d0651531ab91","system_id":"levelo_inurba_marseille","lat":43.22571,"lon":5.41617,"is_reserved":false,"is_disabled":false,"rental_uris":{"android":"levelo://app?vid=b6e8f2fa-fae4-4140-af91-d0651531ab91","ios":"levelo://app?vid=b6e8f2fa-fae4-4140-af91-d0651531ab91"},"vehicle_type_id":"4","last_reported":1774633242,"current_range_meters":6400,"station_id":"st_d2o4gvlbi1j2169b742g","pricing_plan_id":"cebpf4jnsgd1na2vs0mg"},{"bike_id":"ac130e88-9e2f-4bea-b0d7-97afed67ab83","system_id":"levelo_inurba_marseille","lat":43.32357,"lon":5.36773,"is_reserved":false,"is_disabled":false,"rental_uris":{"android":"levelo://app?vid=ac130e88-9e2f-4bea-b0d7-97afed67ab83","ios":"levelo://app?vid=ac130e88-9e2f-4bea-b0d7-97afed67ab83"},"vehicle_type_id":"4","last_reported":1774633242,"current_range_meters":6400,"station_id":"ce4bhsh2rcd13ifvqi2g","pricing_plan_id":"cebpf4jnsgd1na2vs0mg"},{"bike_id":"72a7c4f7-8d67-46a7-af49-0c963ffd6929","system_id":"levelo_inurba_marseille","lat":43.32545,"lon":5.41424,"is_reserved":false,"is_disabled":false,"rental_uris":{"android":"levelo://app?vid=72a7c4f7-8d67-46a7-af49-0c963ffd6929","ios":"levelo://app?vid=72a7c4f7-8d67-46a7-af49-0c963ffd6929"},"vehicle_type_id":"4","last_reported":1774633242,"current_range_meters":6400,"station_id":"ce4bhq12rcd13ifvqhhg","pricing_plan_id":"cebpf4jnsgd1na2vs0mg"},{"bike_id":"98bc16c9-4658-4486-a15c-03f4444f3755","system_id":"levelo_inurba_marseille","lat":43.28851,"lon":5.35871,"is_reserved":false,"is_disabled":false,"rental_uris":{"android":"levelo://app?vid=98bc16c9-4658-4486-a15c-03f4444f3755","ios":"levelo://app?vid=98bc16c9-4658-4486-a15c-03f4444f3755"},"vehicle_type_id":"4","last_reported":1774633242,"current_range_meters":6400,"station_id":"ce4bhb12rcd13ifvqem0","pricing_plan_id":"cebpf4jnsgd1na2vs0mg"},{"bike_id":"e9dc9846-a1fb-4f3a-a8d5-dbd68cc5808d","system_id":"levelo_inurba_marseille","lat":43.30809,"lon":5.39991,"is_reserved":false,"is_disabled":false,"rental_uris":{"android":"levelo://app?vid=e9dc9846-a1fb-4f3a-a8d5-dbd68cc5808d","ios":"levelo://app?vid=e9dc9846-a1fb-4f3a-a8d5-dbd68cc5808d"},"vehicle_type_id":"4","last_reported":1774633242,"current_range_meters":6400,"station_id":"","pricing_plan_id":"cebpf4jnsgd1na2vs0mg"},{"bike_id":"644ad181-b838-40f9-9977-216ec215ac2d","system_id":"levelo_inurba_marseille","lat":43.28275,"lon":5.35083,"is_reserved":false,"is_disabled":false,"rental_uris":{"android":"levelo://app?vid=644ad181-b838-40f9-9977-216ec215ac2d","ios":"levelo://app?vid=644ad181-b838-40f9-9977-216ec215ac2d"},"vehicle_type_id":"4","last_reported":1774633242,"current_range_meters":6400,"station_id":"ce4bhbp2rcd13ifvqerg","pricing_plan_id":"cebpf4jnsgd1na2vs0mg"},{"bike_id":"936af8d4-bee0-44c9-9e8f-a1e9c2aba8c2","system_id":"levelo_inurba_marseille","lat":43.29944,"lon":5.38457,"is_reserved":false,"is_disabled":false,"rental_uris":{"android":"levelo://app?vid=936af8d4-bee0-44c9-9e8f-a1e9c2aba8c2","ios":"levelo://app?vid=936af8d4-bee0-44c9-9e8f-a1e9c2aba8c2"},"vehicle_type_id":"4","last_reported":1774633242,"current_range_meters":6400,"station_id":"ce4bgj92rcd13ifvqbd0","pricing_plan_id":"cebpf4jnsgd1na2vs0mg"},{"bike_id":"4402d669-42b4-42dc-9f19-b38fb47f9383","system_id":"levelo_inurba_marseille","lat":43.309531,"lon":5.390287,"is_reserved":false,"is_disabled":false,"rental_uris":{"android":"levelo://app?vid=4402d669-42b4-42dc-9f19-b38fb47f9383","ios":"levelo://app?vid=4402d669-42b4-42dc-9f19-b38fb47f9383"},"vehicle_type_id":"4","last_reported":1774633242,"current_range_meters":6400,"station_id":"","pricing_plan_id":"cebpf4jnsgd1na2vs0mg"},{"bike_id":"41215aec-5f35-41c4-8875-01313ebb4475","system_id":"levelo_inurba_marseille","lat":43.28884,"lon":5.43769,"is_reserved":false,"is_disabled":false,"rental_uris":{"android":"levelo://app?vid=41215aec-5f35-41c4-8875-01313ebb4475","ios":"levelo://app?vid=41215aec-5f35-41c4-8875-01313ebb4475"},"vehicle_type_id":"4","last_reported":1774633242,"current_range_meters":6400,"station_id":"","pricing_plan_id":"cebpf4jnsgd1na2vs0mg"},{"bike_id":"20ba71e0-3d55-4d07-b402-43fab81f2269","system_id":"levelo_inurba_marseille","lat":43.30744,"lon":5.36819,"is_reserved":false,"is_disabled":false,"rental_uris":{"android":"levelo://app?vid=20ba71e0-3d55-4d07-b402-43fab81f2269","ios":"levelo://app?vid=20ba71e0-3d55-4d07-b402-43fab81f2269"},"vehicle_type_id":"4","last_reported":1774633242,"current_range_meters":6400,"station_id":"ce4bgn92rcd13ifvqbvg","pricing_plan_id":"cebpf4jnsgd1na2vs0mg"},{"bike_id":"034e7e4f-1825-4d26-bd50-cd9e17845c21","system_id":"levelo_inurba_marseille","lat":43.29257,"lon":5.38434,"is_reserved":false,"is_disabled":false,"rental_uris":{"android":"levelo://app?vid=034e7e4f-1825-4d26-bd50-cd9e17845c21","ios":"levelo://app?vid=034e7e4f-1825-4d26-bd50-cd9e17845c21"},"vehicle_type_id":"4","last_reported":1774633242,"current_range_meters":6400,"station_id":"ce4bh692rcd13ifvqea0","pricing_plan_id":"cebpf4jnsgd1na2vs0mg"},{"bike_id":"638e4d0b-75fc-452f-8259-6c1882d7774d","system_id":"levelo_inurba_marseille","lat":43.26053,"lon":5.39376,"is_reserved":false,"is_disabled":false,"rental_uris":{"android":"levelo://app?vid=638e4d0b-75fc-452f-8259-6c1882d7774d","ios":"levelo://app?vid=638e4d0b-75fc-452f-8259-6c1882d7774d"},"vehicle_type_id":"4","last_reported":1774633242,"current_range_meters":6400,"station_id":"ce4bhh92rcd13ifvqfj0","pricing_plan_id":"cebpf4jnsgd1na2vs0mg"},{"bike_id":"ed9b8903-fd7a-4bcd-a2f1-b692211d5c75","system_id":"levelo_inurba_marseille","lat":43.29819,"lon":5.4407,"is_reserved":false,"is_disabled":false,"rental_uris":{"android":"levelo://app?vid=ed9b8903-fd7a-4bcd-a2f1-b692211d5c75","ios":"levelo://app?vid=ed9b8903-fd7a-4bcd-a2f1-b692211d5c75"},"vehicle_type_id":"4","last_reported":1774633242,"current_range_meters":6400,"station_id":"st_d3jp68qikq2c7381ktn0","pricing_plan_id":"cebpf4jnsgd1na2vs0mg"},{"bike_id":"a2dc3a3f-4e0d-496d-b246-5d2073e3cd10","system_id":"levelo_inurba_marseille","lat":43.23785,"lon":5.36635,"is_reserved":false,"is_disabled":false,"rental_uris":{"android":"levelo://app?vid=a2dc3a3f-4e0d-496d-b246-5d2073e3cd10","ios":"levelo://app?vid=a2dc3a3f-4e0d-496d-b246-5d2073e3cd10"},"vehicle_type_id":"4","last_reported":1774633242,"current_range_meters":6800,"station_id":"st_d3nk18o9ro0c73en2l3g","pricing_plan_id":"cebpf4jnsgd1na2vs0mg"},{"bike_id":"385b5ce0-cc7a-4392-bebc-69eebb93931b","system_id":"levelo_inurba_marseille","lat":43.3044,"lon":5.38888,"is_reserved":false,"is_disabled":false,"rental_uris":{"android":"levelo://app?vid=385b5ce0-cc7a-4392-bebc-69eebb93931b","ios":"levelo://app?vid=385b5ce0-cc7a-4392-bebc-69eebb93931b"},"vehicle_type_id":"4","last_reported":1774633242,"current_range_meters":6800,"station_id":"ce4bgk12rcd13ifvqbi0","pricing_plan_id":"cebpf4jnsgd1na2vs0mg"},{"bike_id":"51b59c1d-49af-47a0-8f2d-cc54cb10be1a","system_id":"levelo_inurba_marseille","lat":43.2853,"lon":5.44109,"is_reserved":false,"is_disabled":false,"rental_uris":{"android":"levelo://app?vid=51b59c1d-49af-47a0-8f2d-cc54cb10be1a","ios":"levelo://app?vid=51b59c1d-49af-47a0-8f2d-cc54cb10be1a"},"vehicle_type_id":"4","last_reported":1774633242,"current_range_meters":6800,"station_id":"st_d3j3df2ikq2c7380ej80","pricing_plan_id":"cebpf4jnsgd1na2vs0mg"},{"bike_id":"ae758492-79f2-476f-b0b6-5b6613e02dd5","system_id":"levelo_inurba_marseille","lat":43.212,"lon":5.35071,"is_reserved":false,"is_disabled":false,"rental_uris":{"android":"levelo://app?vid=ae758492-79f2-476f-b0b6-5b6613e02dd5","ios":"levelo://app?vid=ae758492-79f2-476f-b0b6-5b6613e02dd5"},"vehicle_type_id":"4","last_reported":1774633242,"current_range_meters":6800,"station_id":"st_cvj6sg6p6f1abm77japg","pricing_plan_id":"cebpf4jnsgd1na2vs0mg"},{"bike_id":"27e0c556-0417-4f59-b0e8-6d129d29c90c","system_id":"levelo_inurba_marseille","lat":43.30643,"lon":5.4009,"is_reserved":false,"is_disabled":false,"rental_uris":{"android":"levelo://app?vid=27e0c556-0417-4f59-b0e8-6d129d29c90c","ios":"levelo://app?vid=27e0c556-0417-4f59-b0e8-6d129d29c90c"},"vehicle_type_id":"4","last_reported":1774633242,"current_range_meters":6800,"station_id":"ce4bh112rcd13ifvqda0","pricing_plan_id":"cebpf4jnsgd1na2vs0mg"},{"bike_id":"33c4c740-db80-485d-9c0e-f3083e547def","system_id":"levelo_inurba_marseille","lat":43.22564,"lon":5.41652,"is_reserved":false,"is_disabled":false,"rental_uris":{"android":"levelo://app?vid=33c4c740-db80-485d-9c0e-f3083e547def","ios":"levelo://app?vid=33c4c740-db80-485d-9c0e-f3083e547def"},"vehicle_type_id":"4","last_reported":1774633242,"current_range_meters":6800,"station_id":"st_d2o4gvlbi1j2169b742g","pricing_plan_id":"cebpf4jnsgd1na2vs0mg"},{"bike_id":"a0808dcb-bbca-4efc-9b93-a1418823598a","system_id":"levelo_inurba_marseille","lat":43.29043,"lon":5.39959,"is_reserved":false,"is_disabled":false,"rental_uris":{"android":"levelo://app?vid=a0808dcb-bbca-4efc-9b93-a1418823598a","ios":"levelo://app?vid=a0808dcb-bbca-4efc-9b93-a1418823598a"},"vehicle_type_id":"4","last_reported":1774633242,"current_range_meters":6800,"station_id":"ce4bh392rcd13ifvqdm0","pricing_plan_id":"cebpf4jnsgd1na2vs0mg"},{"bike_id":"458e1c48-7d3d-4d80-92bd-ab71f6e61068","system_id":"levelo_inurba_marseille","lat":43.26679,"lon":5.38206,"is_reserved":false,"is_disabled":false,"rental_uris":{"android":"levelo://app?vid=458e1c48-7d3d-4d80-92bd-ab71f6e61068","ios":"levelo://app?vid=458e1c48-7d3d-4d80-92bd-ab71f6e61068"},"vehicle_type_id":"4","last_reported":1774633242,"current_range_meters":6800,"station_id":"","pricing_plan_id":"cebpf4jnsgd1na2vs0mg"},{"bike_id":"f02b3d45-58ae-413c-9f0b-1b3021c085e5","system_id":"levelo_inurba_marseille","lat":43.28465,"lon":5.35898,"is_reserved":false,"is_disabled":false,"rental_uris":{"android":"levelo://app?vid=f02b3d45-58ae-413c-9f0b-1b3021c085e5","ios":"levelo://app?vid=f02b3d45-58ae-413c-9f0b-1b3021c085e5"},"vehicle_type_id":"4","last_reported":1774633242,"current_range_meters":6800,"station_id":"ce4bhah2rcd13ifvqei0","pricing_plan_id":"cebpf4jnsgd1na2vs0mg"},{"bike_id":"65c0e986-2f97-4bab-baf6-a2165e36c2b8","system_id":"levelo_inurba_marseille","lat":43.29223,"lon":5.36079,"is_reserved":false,"is_disabled":false,"rental_uris":{"android":"levelo://app?vid=65c0e986-2f97-4bab-baf6-a2165e36c2b8","ios":"levelo://app?vid=65c0e986-2f97-4bab-baf6-a2165e36c2b8"},"vehicle_type_id":"4","last_reported":1774633242,"current_range_meters":6800,"station_id":"ce4bhbh2rcd13ifvqeqg","pricing_plan_id":"cebpf4jnsgd1na2vs0mg"},{"bike_id":"80db360c-7472-4e5e-a72d-ff0ab9900c5d","system_id":"levelo_inurba_marseille","lat":43.29201,"lon":5.42611,"is_reserved":false,"is_disabled":false,"rental_uris":{"android":"levelo://app?vid=80db360c-7472-4e5e-a72d-ff0ab9900c5d","ios":"levelo://app?vid=80db360c-7472-4e5e-a72d-ff0ab9900c5d"},"vehicle_type_id":"4","last_reported":1774633242,"current_range_meters":6800,"station_id":"","pricing_plan_id":"cebpf4jnsgd1na2vs0mg"},{"bike_id":"d6d88029-64b8-4411-919c-483ad9a8dd34","system_id":"levelo_inurba_marseille","lat":43.21203,"lon":5.35089,"is_reserved":false,"is_disabled":false,"rental_uris":{"android":"levelo://app?vid=d6d88029-64b8-4411-919c-483ad9a8dd34","ios":"levelo://app?vid=d6d88029-64b8-4411-919c-483ad9a8dd34"},"vehicle_type_id":"4","last_reported":1774633242,"current_range_meters":7200,"station_id":"st_cvj6sg6p6f1abm77japg","pricing_plan_id":"cebpf4jnsgd1na2vs0mg"},{"bike_id":"d012c15c-addf-4f8b-8303-63e95013eb44","system_id":"levelo_inurba_marseille","lat":43.29529,"lon":5.38549,"is_reserved":false,"is_disabled":false,"rental_uris":{"android":"levelo://app?vid=d012c15c-addf-4f8b-8303-63e95013eb44","ios":"levelo://app?vid=d012c15c-addf-4f8b-8303-63e95013eb44"},"vehicle_type_id":"4","last_reported":1774633242,"current_range_meters":7200,"station_id":"ce4bgih2rcd13ifvqba0","pricing_plan_id":"cebpf4jnsgd1na2vs0mg"},{"bike_id":"27cb1f5c-6d75-499a-92df-91dc1c6a35d8","system_id":"levelo_inurba_marseille","lat":43.26773,"lon":5.39424,"is_reserved":false,"is_disabled":false,"rental_uris":{"android":"levelo://app?vid=27cb1f5c-6d75-499a-92df-91dc1c6a35d8","ios":"levelo://app?vid=27cb1f5c-6d75-499a-92df-91dc1c6a35d8"},"vehicle_type_id":"4","last_reported":1774633242,"current_range_meters":7200,"station_id":"ce4bhh12rcd13ifvqfg0","pricing_plan_id":"cebpf4jnsgd1na2vs0mg"},{"bike_id":"4d2c428a-06db-49bc-a222-2cbc52db76c0","system_id":"levelo_inurba_marseille","lat":43.24163,"lon":5.39713,"is_reserved":false,"is_disabled":false,"rental_uris":{"android":"levelo://app?vid=4d2c428a-06db-49bc-a222-2cbc52db76c0","ios":"levelo://app?vid=4d2c428a-06db-49bc-a222-2cbc52db76c0"},"vehicle_type_id":"4","last_reported":1774633242,"current_range_meters":7200,"station_id":"ce4bhn12rcd13ifvqgpg","pricing_plan_id":"cebpf4jnsgd1na2vs0mg"},{"bike_id":"f3183e12-3a8d-45b7-8a28-ea025adca2d4","system_id":"levelo_inurba_marseille","lat":43.31082,"lon":5.42428,"is_reserved":false,"is_disabled":false,"rental_uris":{"android":"levelo://app?vid=f3183e12-3a8d-45b7-8a28-ea025adca2d4","ios":"levelo://app?vid=f3183e12-3a8d-45b7-8a28-ea025adca2d4"},"vehicle_type_id":"4","last_reported":1774633242,"current_range_meters":7200,"station_id":"ce4bhp92rcd13ifvqhag","pricing_plan_id":"cebpf4jnsgd1na2vs0mg"},{"bike_id":"ace30790-d9f4-4362-b049-53b5308efc6b","system_id":"levelo_inurba_marseille","lat":43.31978,"lon":5.38141,"is_reserved":false,"is_disabled":false,"rental_uris":{"android":"levelo://app?vid=ace30790-d9f4-4362-b049-53b5308efc6b","ios":"levelo://app?vid=ace30790-d9f4-4362-b049-53b5308efc6b"},"vehicle_type_id":"4","last_reported":1774633242,"current_range_meters":7200,"station_id":"ce4bhr12rcd13ifvqhpg","pricing_plan_id":"cebpf4jnsgd1na2vs0mg"},{"bike_id":"2f142cce-c796-4e56-98a6-deb8e7a2019b","system_id":"levelo_inurba_marseille","lat":43.27053,"lon":5.40252,"is_reserved":false,"is_disabled":false,"rental_uris":{"android":"levelo://app?vid=2f142cce-c796-4e56-98a6-deb8e7a2019b","ios":"levelo://app?vid=2f142cce-c796-4e56-98a6-deb8e7a2019b"},"vehicle_type_id":"4","last_reported":1774633242,"current_range_meters":7200,"station_id":"ce4bhk92rcd13ifvqgc0","pricing_plan_id":"cebpf4jnsgd1na2vs0mg"},{"bike_id":"fde1ad71-4f68-4b6e-99bd-2aed00238575","system_id":"levelo_inurba_marseille","lat":43.2872,"lon":5.36083,"is_reserved":false,"is_disabled":false,"rental_uris":{"android":"levelo://app?vid=fde1ad71-4f68-4b6e-99bd-2aed00238575","ios":"levelo://app?vid=fde1ad71-4f68-4b6e-99bd-2aed00238575"},"vehicle_type_id":"4","last_reported":1774633242,"current_range_meters":7200,"station_id":"cki0cbj6b192h4jlfktg","pricing_plan_id":"cebpf4jnsgd1na2vs0mg"},{"bike_id":"2f19d539-c421-4209-8eae-fb978b8b2461","system_id":"levelo_inurba_marseille","lat":43.29173,"lon":5.37161,"is_reserved":false,"is_disabled":false,"rental_uris":{"android":"levelo://app?vid=2f19d539-c421-4209-8eae-fb978b8b2461","ios":"levelo://app?vid=2f19d539-c421-4209-8eae-fb978b8b2461"},"vehicle_type_id":"4","last_reported":1774633242,"current_range_meters":7200,"station_id":"ce4bha92rcd13ifvqeh0","pricing_plan_id":"cebpf4jnsgd1na2vs0mg"},{"bike_id":"ea1ea77e-c75c-4908-a7fa-f28dbe14185b","system_id":"levelo_inurba_marseille","lat":43.27376,"lon":5.36256,"is_reserved":false,"is_disabled":false,"rental_uris":{"android":"levelo://app?vid=ea1ea77e-c75c-4908-a7fa-f28dbe14185b","ios":"levelo://app?vid=ea1ea77e-c75c-4908-a7fa-f28dbe14185b"},"vehicle_type_id":"4","last_reported":1774633242,"current_range_meters":7200,"station_id":"ce4bhbh2rcd13ifvqeo0","pricing_plan_id":"cebpf4jnsgd1na2vs0mg"},{"bike_id":"fbab2f2d-05f5-4078-ae6c-ccf2c29b1e07","system_id":"levelo_inurba_marseille","lat":43.28267,"lon":5.35068,"is_reserved":false,"is_disabled":false,"rental_uris":{"android":"levelo://app?vid=fbab2f2d-05f5-4078-ae6c-ccf2c29b1e07","ios":"levelo://app?vid=fbab2f2d-05f5-4078-ae6c-ccf2c29b1e07"},"vehicle_type_id":"4","last_reported":1774633242,"current_range_meters":7200,"station_id":"ce4bhbp2rcd13ifvqerg","pricing_plan_id":"cebpf4jnsgd1na2vs0mg"},{"bike_id":"ab7fd825-ef8d-408d-822b-c49a4b49450f","system_id":"levelo_inurba_marseille","lat":43.29517,"lon":5.38537,"is_reserved":false,"is_disabled":false,"rental_uris":{"android":"levelo://app?vid=ab7fd825-ef8d-408d-822b-c49a4b49450f","ios":"levelo://app?vid=ab7fd825-ef8d-408d-822b-c49a4b49450f"},"vehicle_type_id":"4","last_reported":1774633242,"current_range_meters":7200,"station_id":"ce4bgih2rcd13ifvqba0","pricing_plan_id":"cebpf4jnsgd1na2vs0mg"},{"bike_id":"17e3f408-b356-4224-950a-afe1dac08938","system_id":"levelo_inurba_marseille","lat":43.28253,"lon":5.35071,"is_reserved":false,"is_disabled":false,"rental_uris":{"android":"levelo://app?vid=17e3f408-b356-4224-950a-afe1dac08938","ios":"levelo://app?vid=17e3f408-b356-4224-950a-afe1dac08938"},"vehicle_type_id":"4","last_reported":1774633242,"current_range_meters":7200,"station_id":"ce4bhbp2rcd13ifvqerg","pricing_plan_id":"cebpf4jnsgd1na2vs0mg"},{"bike_id":"2be154c8-07c5-4efd-b699-88ca30c66e21","system_id":"levelo_inurba_marseille","lat":43.23786,"lon":5.3661,"is_reserved":false,"is_disabled":false,"rental_uris":{"android":"levelo://app?vid=2be154c8-07c5-4efd-b699-88ca30c66e21","ios":"levelo://app?vid=2be154c8-07c5-4efd-b699-88ca30c66e21"},"vehicle_type_id":"4","last_reported":1774633242,"current_range_meters":7200,"station_id":"st_d3nk18o9ro0c73en2l3g","pricing_plan_id":"cebpf4jnsgd1na2vs0mg"},{"bike_id":"1b79397e-9570-48cb-abc1-7661a1f1f997","system_id":"levelo_inurba_marseille","lat":43.28494,"lon":5.38421,"is_reserved":false,"is_disabled":false,"rental_uris":{"android":"levelo://app?vid=1b79397e-9570-48cb-abc1-7661a1f1f997","ios":"levelo://app?vid=1b79397e-9570-48cb-abc1-7661a1f1f997"},"vehicle_type_id":"4","last_reported":1774633242,"current_range_meters":7200,"station_id":"ce4bh512rcd13ifvqe3g","pricing_plan_id":"cebpf4jnsgd1na2vs0mg"},{"bike_id":"7db8a3cc-3f4f-48ff-96b6-2bb8f4c03d33","system_id":"levelo_inurba_marseille","lat":43.25125,"lon":5.40314,"is_reserved":false,"is_disabled":false,"rental_uris":{"android":"levelo://app?vid=7db8a3cc-3f4f-48ff-96b6-2bb8f4c03d33","ios":"levelo://app?vid=7db8a3cc-3f4f-48ff-96b6-2bb8f4c03d33"},"vehicle_type_id":"4","last_reported":1774633242,"current_range_meters":7200,"station_id":"ce4bhlh2rcd13ifvqgig","pricing_plan_id":"cebpf4jnsgd1na2vs0mg"},{"bike_id":"ae0a999c-96a5-4194-8021-8bab67845c31","system_id":"levelo_inurba_marseille","lat":43.28939,"lon":5.38396,"is_reserved":false,"is_disabled":false,"rental_uris":{"android":"levelo://app?vid=ae0a999c-96a5-4194-8021-8bab67845c31","ios":"levelo://app?vid=ae0a999c-96a5-4194-8021-8bab67845c31"},"vehicle_type_id":"4","last_reported":1774633242,"current_range_meters":7200,"station_id":"ce4bh612rcd13ifvqe6g","pricing_plan_id":"cebpf4jnsgd1na2vs0mg"},{"bike_id":"29b8f791-7789-4e9b-8e39-c750aefccf04","system_id":"levelo_inurba_marseille","lat":43.2379,"lon":5.36639,"is_reserved":false,"is_disabled":false,"rental_uris":{"android":"levelo://app?vid=29b8f791-7789-4e9b-8e39-c750aefccf04","ios":"levelo://app?vid=29b8f791-7789-4e9b-8e39-c750aefccf04"},"vehicle_type_id":"4","last_reported":1774633242,"current_range_meters":7200,"station_id":"st_d3nk18o9ro0c73en2l3g","pricing_plan_id":"cebpf4jnsgd1na2vs0mg"},{"bike_id":"c2b62f8a-0f7b-4169-8adc-cceb784332e4","system_id":"levelo_inurba_marseille","lat":43.27915,"lon":5.39575,"is_reserved":false,"is_disabled":false,"rental_uris":{"android":"levelo://app?vid=c2b62f8a-0f7b-4169-8adc-cceb784332e4","ios":"levelo://app?vid=c2b62f8a-0f7b-4169-8adc-cceb784332e4"},"vehicle_type_id":"4","last_reported":1774633242,"current_range_meters":7200,"station_id":"ce4bhf92rcd13ifvqf40","pricing_plan_id":"cebpf4jnsgd1na2vs0mg"},{"bike_id":"7534e2d4-d311-41e7-b92f-16aaffeeb042","system_id":"levelo_inurba_marseille","lat":43.28263,"lon":5.35061,"is_reserved":false,"is_disabled":false,"rental_uris":{"android":"levelo://app?vid=7534e2d4-d311-41e7-b92f-16aaffeeb042","ios":"levelo://app?vid=7534e2d4-d311-41e7-b92f-16aaffeeb042"},"vehicle_type_id":"4","last_reported":1774633242,"current_range_meters":7200,"station_id":"ce4bhbp2rcd13ifvqerg","pricing_plan_id":"cebpf4jnsgd1na2vs0mg"},{"bike_id":"67816350-2594-4e60-ae5d-c0aad4fa9734","system_id":"levelo_inurba_marseille","lat":43.28934,"lon":5.36641,"is_reserved":false,"is_disabled":false,"rental_uris":{"android":"levelo://app?vid=67816350-2594-4e60-ae5d-c0aad4fa9734","ios":"levelo://app?vid=67816350-2594-4e60-ae5d-c0aad4fa9734"},"vehicle_type_id":"4","last_reported":1774633242,"current_range_meters":7200,"station_id":"ce4bhap2rcd13ifvqek0","pricing_plan_id":"cebpf4jnsgd1na2vs0mg"},{"bike_id":"ad2a4c54-5009-4d21-b74f-10eb376c13ea","system_id":"levelo_inurba_marseille","lat":43.29514,"lon":5.38536,"is_reserved":false,"is_disabled":false,"rental_uris":{"android":"levelo://app?vid=ad2a4c54-5009-4d21-b74f-10eb376c13ea","ios":"levelo://app?vid=ad2a4c54-5009-4d21-b74f-10eb376c13ea"},"vehicle_type_id":"4","last_reported":1774633242,"current_range_meters":7200,"station_id":"ce4bgih2rcd13ifvqba0","pricing_plan_id":"cebpf4jnsgd1na2vs0mg"},{"bike_id":"0291cdaa-5df4-4c06-a64e-8a33d79939fd","system_id":"levelo_inurba_marseille","lat":43.24643,"lon":5.43144,"is_reserved":false,"is_disabled":false,"rental_uris":{"android":"levelo://app?vid=0291cdaa-5df4-4c06-a64e-8a33d79939fd","ios":"levelo://app?vid=0291cdaa-5df4-4c06-a64e-8a33d79939fd"},"vehicle_type_id":"4","last_reported":1774633242,"current_range_meters":7200,"station_id":"","pricing_plan_id":"cebpf4jnsgd1na2vs0mg"},{"bike_id":"f8c795ac-536b-4df8-970f-0dfae1b65e58","system_id":"levelo_inurba_marseille","lat":43.28603,"lon":5.37072,"is_reserved":false,"is_disabled":false,"rental_uris":{"android":"levelo://app?vid=f8c795ac-536b-4df8-970f-0dfae1b65e58","ios":"levelo://app?vid=f8c795ac-536b-4df8-970f-0dfae1b65e58"},"vehicle_type_id":"4","last_reported":1774633242,"current_range_meters":7200,"station_id":"ce4bht12rcd13ifvqi60","pricing_plan_id":"cebpf4jnsgd1na2vs0mg"},{"bike_id":"40c89b7c-0234-4b01-8e1b-acc7bcb5fd68","system_id":"levelo_inurba_marseille","lat":43.29018,"lon":5.35616,"is_reserved":false,"is_disabled":false,"rental_uris":{"android":"levelo://app?vid=40c89b7c-0234-4b01-8e1b-acc7bcb5fd68","ios":"levelo://app?vid=40c89b7c-0234-4b01-8e1b-acc7bcb5fd68"},"vehicle_type_id":"4","last_reported":1774633242,"current_range_meters":7200,"station_id":"ce4bhb92rcd13ifvqen0","pricing_plan_id":"cebpf4jnsgd1na2vs0mg"},{"bike_id":"361bff30-6f65-4179-8930-4ff3d21333ec","system_id":"levelo_inurba_marseille","lat":43.27188,"lon":5.40986,"is_reserved":false,"is_disabled":false,"rental_uris":{"android":"levelo://app?vid=361bff30-6f65-4179-8930-4ff3d21333ec","ios":"levelo://app?vid=361bff30-6f65-4179-8930-4ff3d21333ec"},"vehicle_type_id":"4","last_reported":1774633242,"current_range_meters":8000,"station_id":"ce4bhl12rcd13ifvqgf0","pricing_plan_id":"cebpf4jnsgd1na2vs0mg"},{"bike_id":"22b36857-db0a-45cb-8eea-2b083d644c76","system_id":"levelo_inurba_marseille","lat":43.26212,"lon":5.37431,"is_reserved":false,"is_disabled":false,"rental_uris":{"android":"levelo://app?vid=22b36857-db0a-45cb-8eea-2b083d644c76","ios":"levelo://app?vid=22b36857-db0a-45cb-8eea-2b083d644c76"},"vehicle_type_id":"4","last_reported":1774633242,"current_range_meters":8000,"station_id":"ce4bhgp2rcd13ifvqfc0","pricing_plan_id":"cebpf4jnsgd1na2vs0mg"},{"bike_id":"18a91529-06e5-4b51-b178-940cb96e7217","system_id":"levelo_inurba_marseille","lat":43.23806,"lon":5.36617,"is_reserved":false,"is_disabled":false,"rental_uris":{"android":"levelo://app?vid=18a91529-06e5-4b51-b178-940cb96e7217","ios":"levelo://app?vid=18a91529-06e5-4b51-b178-940cb96e7217"},"vehicle_type_id":"4","last_reported":1774633242,"current_range_meters":8000,"station_id":"st_d3nk18o9ro0c73en2l3g","pricing_plan_id":"cebpf4jnsgd1na2vs0mg"},{"bike_id":"ee67d274-4fbd-4321-906c-22d4e8f3bac5","system_id":"levelo_inurba_marseille","lat":43.32485,"lon":5.36593,"is_reserved":false,"is_disabled":false,"rental_uris":{"android":"levelo://app?vid=ee67d274-4fbd-4321-906c-22d4e8f3bac5","ios":"levelo://app?vid=ee67d274-4fbd-4321-906c-22d4e8f3bac5"},"vehicle_type_id":"4","last_reported":1774633242,"current_range_meters":8000,"station_id":"ce4bhs12rcd13ifvqhvg","pricing_plan_id":"cebpf4jnsgd1na2vs0mg"},{"bike_id":"e4b97950-5826-475e-8558-d2e5bcc219f8","system_id":"levelo_inurba_marseille","lat":43.29793,"lon":5.36538,"is_reserved":false,"is_disabled":false,"rental_uris":{"android":"levelo://app?vid=e4b97950-5826-475e-8558-d2e5bcc219f8","ios":"levelo://app?vid=e4b97950-5826-475e-8558-d2e5bcc219f8"},"vehicle_type_id":"4","last_reported":1774633242,"current_range_meters":8000,"station_id":"","pricing_plan_id":"cebpf4jnsgd1na2vs0mg"},{"bike_id":"e369da6f-cf9a-43c1-bdbc-66801ef116da","system_id":"levelo_inurba_marseille","lat":43.28628,"lon":5.35098,"is_reserved":false,"is_disabled":false,"rental_uris":{"android":"levelo://app?vid=e369da6f-cf9a-43c1-bdbc-66801ef116da","ios":"levelo://app?vid=e369da6f-cf9a-43c1-bdbc-66801ef116da"},"vehicle_type_id":"4","last_reported":1774633242,"current_range_meters":8000,"station_id":"ce4bhch2rcd13ifvqeug","pricing_plan_id":"cebpf4jnsgd1na2vs0mg"},{"bike_id":"87170530-9799-4a30-9b3e-bf298fdd0529","system_id":"levelo_inurba_marseille","lat":43.25512,"lon":5.37654,"is_reserved":false,"is_disabled":false,"rental_uris":{"android":"levelo://app?vid=87170530-9799-4a30-9b3e-bf298fdd0529","ios":"levelo://app?vid=87170530-9799-4a30-9b3e-bf298fdd0529"},"vehicle_type_id":"4","last_reported":1774633242,"current_range_meters":8000,"station_id":"ce4bhh12rcd13ifvqff0","pricing_plan_id":"cebpf4jnsgd1na2vs0mg"},{"bike_id":"248e7202-bf14-41af-ab35-7275ee6c4d6f","system_id":"levelo_inurba_marseille","lat":43.23377,"lon":5.4125,"is_reserved":false,"is_disabled":false,"rental_uris":{"android":"levelo://app?vid=248e7202-bf14-41af-ab35-7275ee6c4d6f","ios":"levelo://app?vid=248e7202-bf14-41af-ab35-7275ee6c4d6f"},"vehicle_type_id":"4","last_reported":1774633242,"current_range_meters":8000,"station_id":"","pricing_plan_id":"cebpf4jnsgd1na2vs0mg"},{"bike_id":"e6e0832c-ba80-40ad-a254-4cab56deb706","system_id":"levelo_inurba_marseille","lat":43.25816,"lon":5.39356,"is_reserved":false,"is_disabled":false,"rental_uris":{"android":"levelo://app?vid=e6e0832c-ba80-40ad-a254-4cab56deb706","ios":"levelo://app?vid=e6e0832c-ba80-40ad-a254-4cab56deb706"},"vehicle_type_id":"4","last_reported":1774633242,"current_range_meters":8000,"station_id":"","pricing_plan_id":"cebpf4jnsgd1na2vs0mg"},{"bike_id":"27f65587-f91a-41b1-aacf-8da5e702b79e","system_id":"levelo_inurba_marseille","lat":43.29741,"lon":5.42769,"is_reserved":false,"is_disabled":false,"rental_uris":{"android":"levelo://app?vid=27f65587-f91a-41b1-aacf-8da5e702b79e","ios":"levelo://app?vid=27f65587-f91a-41b1-aacf-8da5e702b79e"},"vehicle_type_id":"4","last_reported":1774633242,"current_range_meters":8000,"station_id":"st_d3md5207bmas73dh9klg","pricing_plan_id":"cebpf4jnsgd1na2vs0mg"},{"bike_id":"1112f90c-9875-469b-b7a4-9ce4501838dc","system_id":"levelo_inurba_marseille","lat":43.25477,"lon":5.38175,"is_reserved":false,"is_disabled":false,"rental_uris":{"android":"levelo://app?vid=1112f90c-9875-469b-b7a4-9ce4501838dc","ios":"levelo://app?vid=1112f90c-9875-469b-b7a4-9ce4501838dc"},"vehicle_type_id":"4","last_reported":1774633242,"current_range_meters":8000,"station_id":"","pricing_plan_id":"cebpf4jnsgd1na2vs0mg"},{"bike_id":"0ddc000a-af24-4b34-a959-2f476ddc45f0","system_id":"levelo_inurba_marseille","lat":43.29642,"lon":5.37743,"is_reserved":false,"is_disabled":false,"rental_uris":{"android":"levelo://app?vid=0ddc000a-af24-4b34-a959-2f476ddc45f0","ios":"levelo://app?vid=0ddc000a-af24-4b34-a959-2f476ddc45f0"},"vehicle_type_id":"4","last_reported":1774633242,"current_range_meters":8000,"station_id":"ce4bgi92rcd13ifvqb90","pricing_plan_id":"cebpf4jnsgd1na2vs0mg"},{"bike_id":"14c52e92-a064-4cb0-8ea6-97671dd13594","system_id":"levelo_inurba_marseille","lat":43.26187,"lon":5.37447,"is_reserved":false,"is_disabled":false,"rental_uris":{"android":"levelo://app?vid=14c52e92-a064-4cb0-8ea6-97671dd13594","ios":"levelo://app?vid=14c52e92-a064-4cb0-8ea6-97671dd13594"},"vehicle_type_id":"4","last_reported":1774633242,"current_range_meters":8000,"station_id":"ce4bhgp2rcd13ifvqfc0","pricing_plan_id":"cebpf4jnsgd1na2vs0mg"},{"bike_id":"ea9a5171-be0c-4d2f-8431-3807c2bc5dd4","system_id":"levelo_inurba_marseille","lat":43.26027,"lon":5.3755,"is_reserved":false,"is_disabled":false,"rental_uris":{"android":"levelo://app?vid=ea9a5171-be0c-4d2f-8431-3807c2bc5dd4","ios":"levelo://app?vid=ea9a5171-be0c-4d2f-8431-3807c2bc5dd4"},"vehicle_type_id":"4","last_reported":1774633242,"current_range_meters":8000,"station_id":"ce4bhgh2rcd13ifvqfa0","pricing_plan_id":"cebpf4jnsgd1na2vs0mg"},{"bike_id":"b6478322-90c7-4ad0-a0de-8accc8692018","system_id":"levelo_inurba_marseille","lat":43.26483,"lon":5.39556,"is_reserved":false,"is_disabled":false,"rental_uris":{"android":"levelo://app?vid=b6478322-90c7-4ad0-a0de-8accc8692018","ios":"levelo://app?vid=b6478322-90c7-4ad0-a0de-8accc8692018"},"vehicle_type_id":"4","last_reported":1774633242,"current_range_meters":8000,"station_id":"ce4bhi12rcd13ifvqfq0","pricing_plan_id":"cebpf4jnsgd1na2vs0mg"},{"bike_id":"0897d2d4-f967-4506-8c41-519b49da7152","system_id":"levelo_inurba_marseille","lat":43.25865,"lon":5.39896,"is_reserved":false,"is_disabled":false,"rental_uris":{"android":"levelo://app?vid=0897d2d4-f967-4506-8c41-519b49da7152","ios":"levelo://app?vid=0897d2d4-f967-4506-8c41-519b49da7152"},"vehicle_type_id":"4","last_reported":1774633242,"current_range_meters":8000,"station_id":"ce4bhl92rcd13ifvqghg","pricing_plan_id":"cebpf4jnsgd1na2vs0mg"},{"bike_id":"86723fb3-7a32-4a1d-b53a-b3b04e07fae1","system_id":"levelo_inurba_marseille","lat":43.31052,"lon":5.37163,"is_reserved":false,"is_disabled":false,"rental_uris":{"android":"levelo://app?vid=86723fb3-7a32-4a1d-b53a-b3b04e07fae1","ios":"levelo://app?vid=86723fb3-7a32-4a1d-b53a-b3b04e07fae1"},"vehicle_type_id":"4","last_reported":1774633242,"current_range_meters":8000,"station_id":"st_d4kl2rp97mjs73e7tdfg","pricing_plan_id":"cebpf4jnsgd1na2vs0mg"},{"bike_id":"dda26fe6-226c-4701-bb77-0b26c40ac4a2","system_id":"levelo_inurba_marseille","lat":43.28217,"lon":5.35048,"is_reserved":false,"is_disabled":false,"rental_uris":{"android":"levelo://app?vid=dda26fe6-226c-4701-bb77-0b26c40ac4a2","ios":"levelo://app?vid=dda26fe6-226c-4701-bb77-0b26c40ac4a2"},"vehicle_type_id":"4","last_reported":1774633242,"current_range_meters":8000,"station_id":"","pricing_plan_id":"cebpf4jnsgd1na2vs0mg"},{"bike_id":"6320beb5-db5e-466e-ae34-972ce120fd1d","system_id":"levelo_inurba_marseille","lat":43.28938,"lon":5.36402,"is_reserved":false,"is_disabled":false,"rental_uris":{"android":"levelo://app?vid=6320beb5-db5e-466e-ae34-972ce120fd1d","ios":"levelo://app?vid=6320beb5-db5e-466e-ae34-972ce120fd1d"},"vehicle_type_id":"4","last_reported":1774633242,"current_range_meters":8000,"station_id":"ce4bhc92rcd13ifvqetg","pricing_plan_id":"cebpf4jnsgd1na2vs0mg"},{"bike_id":"a858ea89-34aa-421e-b0a5-1ea8bb4dbce1","system_id":"levelo_inurba_marseille","lat":43.29243,"lon":5.36869,"is_reserved":false,"is_disabled":false,"rental_uris":{"android":"levelo://app?vid=a858ea89-34aa-421e-b0a5-1ea8bb4dbce1","ios":"levelo://app?vid=a858ea89-34aa-421e-b0a5-1ea8bb4dbce1"},"vehicle_type_id":"4","last_reported":1774633242,"current_range_meters":8000,"station_id":"ce4bhbp2rcd13ifvqesg","pricing_plan_id":"cebpf4jnsgd1na2vs0mg"},{"bike_id":"5c23e0f0-3718-460a-acbf-0792e1920dc6","system_id":"levelo_inurba_marseille","lat":43.28415,"lon":5.34997,"is_reserved":false,"is_disabled":false,"rental_uris":{"android":"levelo://app?vid=5c23e0f0-3718-460a-acbf-0792e1920dc6","ios":"levelo://app?vid=5c23e0f0-3718-460a-acbf-0792e1920dc6"},"vehicle_type_id":"4","last_reported":1774633242,"current_range_meters":8000,"station_id":"ce4bhbh2rcd13ifvqepg","pricing_plan_id":"cebpf4jnsgd1na2vs0mg"},{"bike_id":"57e20d2f-5c93-4a63-89ed-d3c4a2c2ded0","system_id":"levelo_inurba_marseille","lat":43.30948,"lon":5.40175,"is_reserved":false,"is_disabled":false,"rental_uris":{"android":"levelo://app?vid=57e20d2f-5c93-4a63-89ed-d3c4a2c2ded0","ios":"levelo://app?vid=57e20d2f-5c93-4a63-89ed-d3c4a2c2ded0"},"vehicle_type_id":"4","last_reported":1774633242,"current_range_meters":8000,"station_id":"ce4bgvp2rcd13ifvqct0","pricing_plan_id":"cebpf4jnsgd1na2vs0mg"},{"bike_id":"6671c61a-045c-4d83-b5a9-69cb797098b8","system_id":"levelo_inurba_marseille","lat":43.34397,"lon":5.35976,"is_reserved":false,"is_disabled":false,"rental_uris":{"android":"levelo://app?vid=6671c61a-045c-4d83-b5a9-69cb797098b8","ios":"levelo://app?vid=6671c61a-045c-4d83-b5a9-69cb797098b8"},"vehicle_type_id":"4","last_reported":1774633242,"current_range_meters":8000,"station_id":"","pricing_plan_id":"cebpf4jnsgd1na2vs0mg"},{"bike_id":"aa6eb777-c9be-4964-beb1-ce00e8883a0c","system_id":"levelo_inurba_marseille","lat":43.30894,"lon":5.39654,"is_reserved":false,"is_disabled":true,"rental_uris":{"android":"levelo://app?vid=aa6eb777-c9be-4964-beb1-ce00e8883a0c","ios":"levelo://app?vid=aa6eb777-c9be-4964-beb1-ce00e8883a0c"},"vehicle_type_id":"4","last_reported":1774633242,"current_range_meters":8400,"station_id":"ce4bh012rcd13ifvqcv0","pricing_plan_id":"cebpf4jnsgd1na2vs0mg"},{"bike_id":"1e1980c1-6664-497a-875d-9151583f06b0","system_id":"levelo_inurba_marseille","lat":43.30548,"lon":5.3654,"is_reserved":false,"is_disabled":false,"rental_uris":{"android":"levelo://app?vid=1e1980c1-6664-497a-875d-9151583f06b0","ios":"levelo://app?vid=1e1980c1-6664-497a-875d-9151583f06b0"},"vehicle_type_id":"4","last_reported":1774633242,"current_range_meters":8400,"station_id":"ce4bgs12rcd13ifvqcag","pricing_plan_id":"cebpf4jnsgd1na2vs0mg"},{"bike_id":"6d1dd35d-1ce3-4297-9706-721b82716928","system_id":"levelo_inurba_marseille","lat":43.23792,"lon":5.36623,"is_reserved":false,"is_disabled":false,"rental_uris":{"android":"levelo://app?vid=6d1dd35d-1ce3-4297-9706-721b82716928","ios":"levelo://app?vid=6d1dd35d-1ce3-4297-9706-721b82716928"},"vehicle_type_id":"4","last_reported":1774633242,"current_range_meters":8400,"station_id":"st_d3nk18o9ro0c73en2l3g","pricing_plan_id":"cebpf4jnsgd1na2vs0mg"},{"bike_id":"2d0fdc3d-338a-4727-826c-caea44a0cbfa","system_id":"levelo_inurba_marseille","lat":43.29819,"lon":5.4407,"is_reserved":false,"is_disabled":false,"rental_uris":{"android":"levelo://app?vid=2d0fdc3d-338a-4727-826c-caea44a0cbfa","ios":"levelo://app?vid=2d0fdc3d-338a-4727-826c-caea44a0cbfa"},"vehicle_type_id":"4","last_reported":1774633242,"current_range_meters":8400,"station_id":"st_d3jp68qikq2c7381ktn0","pricing_plan_id":"cebpf4jnsgd1na2vs0mg"},{"bike_id":"0cc505b7-7ea7-4cd1-99c0-d5018c94b0cb","system_id":"levelo_inurba_marseille","lat":43.27563,"lon":5.3842,"is_reserved":false,"is_disabled":false,"rental_uris":{"android":"levelo://app?vid=0cc505b7-7ea7-4cd1-99c0-d5018c94b0cb","ios":"levelo://app?vid=0cc505b7-7ea7-4cd1-99c0-d5018c94b0cb"},"vehicle_type_id":"4","last_reported":1774633242,"current_range_meters":8400,"station_id":"ce4bhh92rcd13ifvqfi0","pricing_plan_id":"cebpf4jnsgd1na2vs0mg"},{"bike_id":"2079b28e-e67c-46f2-b341-0eb57b27bb0e","system_id":"levelo_inurba_marseille","lat":43.31247,"lon":5.36859,"is_reserved":false,"is_disabled":false,"rental_uris":{"android":"levelo://app?vid=2079b28e-e67c-46f2-b341-0eb57b27bb0e","ios":"levelo://app?vid=2079b28e-e67c-46f2-b341-0eb57b27bb0e"},"vehicle_type_id":"4","last_reported":1774633242,"current_range_meters":8400,"station_id":"ce4bgl92rcd13ifvqbq0","pricing_plan_id":"cebpf4jnsgd1na2vs0mg"},{"bike_id":"d729065b-2358-452d-be09-bd466b6c378c","system_id":"levelo_inurba_marseille","lat":43.27555,"lon":5.38413,"is_reserved":false,"is_disabled":false,"rental_uris":{"android":"levelo://app?vid=d729065b-2358-452d-be09-bd466b6c378c","ios":"levelo://app?vid=d729065b-2358-452d-be09-bd466b6c378c"},"vehicle_type_id":"4","last_reported":1774633242,"current_range_meters":8400,"station_id":"ce4bhh92rcd13ifvqfi0","pricing_plan_id":"cebpf4jnsgd1na2vs0mg"},{"bike_id":"d09d7313-21a2-4bd6-8c61-557f752df52d","system_id":"levelo_inurba_marseille","lat":43.25573,"lon":5.38239,"is_reserved":false,"is_disabled":false,"rental_uris":{"android":"levelo://app?vid=d09d7313-21a2-4bd6-8c61-557f752df52d","ios":"levelo://app?vid=d09d7313-21a2-4bd6-8c61-557f752df52d"},"vehicle_type_id":"4","last_reported":1774633242,"current_range_meters":8400,"station_id":"ce4bhih2rcd13ifvqfs0","pricing_plan_id":"cebpf4jnsgd1na2vs0mg"},{"bike_id":"915ccf51-81c4-4a81-94b6-b9522edf5a8e","system_id":"levelo_inurba_marseille","lat":43.32704,"lon":5.40946,"is_reserved":false,"is_disabled":false,"rental_uris":{"android":"levelo://app?vid=915ccf51-81c4-4a81-94b6-b9522edf5a8e","ios":"levelo://app?vid=915ccf51-81c4-4a81-94b6-b9522edf5a8e"},"vehicle_type_id":"4","last_reported":1774633242,"current_range_meters":8400,"station_id":"","pricing_plan_id":"cebpf4jnsgd1na2vs0mg"},{"bike_id":"b51d43d0-b538-4b30-b0d5-e5c1be881443","system_id":"levelo_inurba_marseille","lat":43.28701,"lon":5.4669,"is_reserved":false,"is_disabled":false,"rental_uris":{"android":"levelo://app?vid=b51d43d0-b538-4b30-b0d5-e5c1be881443","ios":"levelo://app?vid=b51d43d0-b538-4b30-b0d5-e5c1be881443"},"vehicle_type_id":"4","last_reported":1774633242,"current_range_meters":8400,"station_id":"st_d6tc3vkotcvc738tfjhg","pricing_plan_id":"cebpf4jnsgd1na2vs0mg"},{"bike_id":"9ee2477d-6c70-475c-94d5-0f5d06b0dc38","system_id":"levelo_inurba_marseille","lat":43.28371,"lon":5.38636,"is_reserved":false,"is_disabled":false,"rental_uris":{"android":"levelo://app?vid=9ee2477d-6c70-475c-94d5-0f5d06b0dc38","ios":"levelo://app?vid=9ee2477d-6c70-475c-94d5-0f5d06b0dc38"},"vehicle_type_id":"4","last_reported":1774633242,"current_range_meters":8800,"station_id":"ce4bh492rcd13ifvqdvg","pricing_plan_id":"cebpf4jnsgd1na2vs0mg"},{"bike_id":"3137e3ea-7797-4cae-a237-2a996dd9ad4a","system_id":"levelo_inurba_marseille","lat":43.28474,"lon":5.48398,"is_reserved":false,"is_disabled":false,"rental_uris":{"android":"levelo://app?vid=3137e3ea-7797-4cae-a237-2a996dd9ad4a","ios":"levelo://app?vid=3137e3ea-7797-4cae-a237-2a996dd9ad4a"},"vehicle_type_id":"4","last_reported":1774633242,"current_range_meters":8800,"station_id":"","pricing_plan_id":"cebpf4jnsgd1na2vs0mg"},{"bike_id":"2873a201-01ad-44f0-a3f4-1c2939d32934","system_id":"levelo_inurba_marseille","lat":43.31544,"lon":5.38011,"is_reserved":false,"is_disabled":false,"rental_uris":{"android":"levelo://app?vid=2873a201-01ad-44f0-a3f4-1c2939d32934","ios":"levelo://app?vid=2873a201-01ad-44f0-a3f4-1c2939d32934"},"vehicle_type_id":"4","last_reported":1774633242,"current_range_meters":8800,"station_id":"ce4bhsp2rcd13ifvqi50","pricing_plan_id":"cebpf4jnsgd1na2vs0mg"},{"bike_id":"d32cdaf4-dccc-4757-9100-320132e3534c","system_id":"levelo_inurba_marseille","lat":43.286643,"lon":5.386699,"is_reserved":false,"is_disabled":false,"rental_uris":{"android":"levelo://app?vid=d32cdaf4-dccc-4757-9100-320132e3534c","ios":"levelo://app?vid=d32cdaf4-dccc-4757-9100-320132e3534c"},"vehicle_type_id":"4","last_reported":1774633242,"current_range_meters":8800,"station_id":"ce4bh492rcd13ifvqdug","pricing_plan_id":"cebpf4jnsgd1na2vs0mg"},{"bike_id":"8b44b9ba-553c-4a19-bbbe-b5eddb2ee588","system_id":"levelo_inurba_marseille","lat":43.30088,"lon":5.3768,"is_reserved":false,"is_disabled":false,"rental_uris":{"android":"levelo://app?vid=8b44b9ba-553c-4a19-bbbe-b5eddb2ee588","ios":"levelo://app?vid=8b44b9ba-553c-4a19-bbbe-b5eddb2ee588"},"vehicle_type_id":"4","last_reported":1774633242,"current_range_meters":8800,"station_id":"","pricing_plan_id":"cebpf4jnsgd1na2vs0mg"},{"bike_id":"017cc899-a510-41b6-b2c0-841cd8ab0838","system_id":"levelo_inurba_marseille","lat":43.31256,"lon":5.36839,"is_reserved":false,"is_disabled":false,"rental_uris":{"android":"levelo://app?vid=017cc899-a510-41b6-b2c0-841cd8ab0838","ios":"levelo://app?vid=017cc899-a510-41b6-b2c0-841cd8ab0838"},"vehicle_type_id":"4","last_reported":1774633242,"current_range_meters":8800,"station_id":"ce4bgl92rcd13ifvqbq0","pricing_plan_id":"cebpf4jnsgd1na2vs0mg"},{"bike_id":"7d38c45a-0011-4d05-9bbf-54b7323ff394","system_id":"levelo_inurba_marseille","lat":43.26395,"lon":5.41076,"is_reserved":false,"is_disabled":false,"rental_uris":{"android":"levelo://app?vid=7d38c45a-0011-4d05-9bbf-54b7323ff394","ios":"levelo://app?vid=7d38c45a-0011-4d05-9bbf-54b7323ff394"},"vehicle_type_id":"4","last_reported":1774633242,"current_range_meters":8800,"station_id":"st_d4e5ca6na9uc73bfl5fg","pricing_plan_id":"cebpf4jnsgd1na2vs0mg"},{"bike_id":"880a1b4f-c9aa-4825-94e1-2e24eaf099eb","system_id":"levelo_inurba_marseille","lat":43.30611,"lon":5.37208,"is_reserved":false,"is_disabled":false,"rental_uris":{"android":"levelo://app?vid=880a1b4f-c9aa-4825-94e1-2e24eaf099eb","ios":"levelo://app?vid=880a1b4f-c9aa-4825-94e1-2e24eaf099eb"},"vehicle_type_id":"4","last_reported":1774633242,"current_range_meters":8800,"station_id":"ce4bgqh2rcd13ifvqc4g","pricing_plan_id":"cebpf4jnsgd1na2vs0mg"},{"bike_id":"5e9c5a7e-1cfc-47e0-81ec-e93628947365","system_id":"levelo_inurba_marseille","lat":43.30654,"lon":5.40101,"is_reserved":false,"is_disabled":false,"rental_uris":{"android":"levelo://app?vid=5e9c5a7e-1cfc-47e0-81ec-e93628947365","ios":"levelo://app?vid=5e9c5a7e-1cfc-47e0-81ec-e93628947365"},"vehicle_type_id":"4","last_reported":1774633242,"current_range_meters":8800,"station_id":"ce4bh112rcd13ifvqda0","pricing_plan_id":"cebpf4jnsgd1na2vs0mg"},{"bike_id":"dd21cd2f-ab57-4cd4-a438-b1fa2bdb0a92","system_id":"levelo_inurba_marseille","lat":43.31161,"lon":5.36941,"is_reserved":false,"is_disabled":false,"rental_uris":{"android":"levelo://app?vid=dd21cd2f-ab57-4cd4-a438-b1fa2bdb0a92","ios":"levelo://app?vid=dd21cd2f-ab57-4cd4-a438-b1fa2bdb0a92"},"vehicle_type_id":"4","last_reported":1774633242,"current_range_meters":8800,"station_id":"","pricing_plan_id":"cebpf4jnsgd1na2vs0mg"},{"bike_id":"5d3809fb-18fa-451a-98ab-b6b1c5e54412","system_id":"levelo_inurba_marseille","lat":43.29893,"lon":5.39744,"is_reserved":false,"is_disabled":false,"rental_uris":{"android":"levelo://app?vid=5d3809fb-18fa-451a-98ab-b6b1c5e54412","ios":"levelo://app?vid=5d3809fb-18fa-451a-98ab-b6b1c5e54412"},"vehicle_type_id":"4","last_reported":1774633242,"current_range_meters":8800,"station_id":"ce4bh0h2rcd13ifvqd50","pricing_plan_id":"cebpf4jnsgd1na2vs0mg"},{"bike_id":"9bc0b937-b0d9-43c5-9555-6ff47bb13b73","system_id":"levelo_inurba_marseille","lat":43.33163,"lon":5.37698,"is_reserved":false,"is_disabled":false,"rental_uris":{"android":"levelo://app?vid=9bc0b937-b0d9-43c5-9555-6ff47bb13b73","ios":"levelo://app?vid=9bc0b937-b0d9-43c5-9555-6ff47bb13b73"},"vehicle_type_id":"4","last_reported":1774633242,"current_range_meters":8800,"station_id":"st_d46cu089ee8s73dldbu0","pricing_plan_id":"cebpf4jnsgd1na2vs0mg"},{"bike_id":"0f2a0f7c-9f6b-44de-91fb-9e6baf69fc71","system_id":"levelo_inurba_marseille","lat":43.27319,"lon":5.39086,"is_reserved":false,"is_disabled":false,"rental_uris":{"android":"levelo://app?vid=0f2a0f7c-9f6b-44de-91fb-9e6baf69fc71","ios":"levelo://app?vid=0f2a0f7c-9f6b-44de-91fb-9e6baf69fc71"},"vehicle_type_id":"4","last_reported":1774633242,"current_range_meters":8800,"station_id":"ce4bhgp2rcd13ifvqfe0","pricing_plan_id":"cebpf4jnsgd1na2vs0mg"},{"bike_id":"30e88e0e-470b-46c9-8ebc-1994865cdbf4","system_id":"levelo_inurba_marseille","lat":43.26202,"lon":5.40479,"is_reserved":false,"is_disabled":false,"rental_uris":{"android":"levelo://app?vid=30e88e0e-470b-46c9-8ebc-1994865cdbf4","ios":"levelo://app?vid=30e88e0e-470b-46c9-8ebc-1994865cdbf4"},"vehicle_type_id":"4","last_reported":1774633242,"current_range_meters":8800,"station_id":"ce4bhmh2rcd13ifvqgmg","pricing_plan_id":"cebpf4jnsgd1na2vs0mg"},{"bike_id":"7f5f4a35-fda4-4a33-b7ae-332aa08e4387","system_id":"levelo_inurba_marseille","lat":43.29755,"lon":5.42783,"is_reserved":false,"is_disabled":false,"rental_uris":{"android":"levelo://app?vid=7f5f4a35-fda4-4a33-b7ae-332aa08e4387","ios":"levelo://app?vid=7f5f4a35-fda4-4a33-b7ae-332aa08e4387"},"vehicle_type_id":"4","last_reported":1774633242,"current_range_meters":8800,"station_id":"st_d3md5207bmas73dh9klg","pricing_plan_id":"cebpf4jnsgd1na2vs0mg"},{"bike_id":"fe30153d-83ff-4cb3-bb12-6a6f2a0b5007","system_id":"levelo_inurba_marseille","lat":43.29323,"lon":5.37153,"is_reserved":false,"is_disabled":false,"rental_uris":{"android":"levelo://app?vid=fe30153d-83ff-4cb3-bb12-6a6f2a0b5007","ios":"levelo://app?vid=fe30153d-83ff-4cb3-bb12-6a6f2a0b5007"},"vehicle_type_id":"4","last_reported":1774633242,"current_range_meters":8800,"station_id":"ce4bgh92rcd13ifvqb40","pricing_plan_id":"cebpf4jnsgd1na2vs0mg"},{"bike_id":"653c1697-ecc4-4927-882c-de4e9516a458","system_id":"levelo_inurba_marseille","lat":43.26068,"lon":5.39398,"is_reserved":false,"is_disabled":false,"rental_uris":{"android":"levelo://app?vid=653c1697-ecc4-4927-882c-de4e9516a458","ios":"levelo://app?vid=653c1697-ecc4-4927-882c-de4e9516a458"},"vehicle_type_id":"4","last_reported":1774633242,"current_range_meters":8800,"station_id":"ce4bhh92rcd13ifvqfj0","pricing_plan_id":"cebpf4jnsgd1na2vs0mg"},{"bike_id":"9c448445-1c60-4520-a1cb-98a7a7992b90","system_id":"levelo_inurba_marseille","lat":43.28489,"lon":5.48381,"is_reserved":false,"is_disabled":false,"rental_uris":{"android":"levelo://app?vid=9c448445-1c60-4520-a1cb-98a7a7992b90","ios":"levelo://app?vid=9c448445-1c60-4520-a1cb-98a7a7992b90"},"vehicle_type_id":"4","last_reported":1774633242,"current_range_meters":8800,"station_id":"","pricing_plan_id":"cebpf4jnsgd1na2vs0mg"},{"bike_id":"2d095ec1-44b8-4164-a185-0a73881873fc","system_id":"levelo_inurba_marseille","lat":43.31222,"lon":5.36853,"is_reserved":false,"is_disabled":false,"rental_uris":{"android":"levelo://app?vid=2d095ec1-44b8-4164-a185-0a73881873fc","ios":"levelo://app?vid=2d095ec1-44b8-4164-a185-0a73881873fc"},"vehicle_type_id":"4","last_reported":1774633242,"current_range_meters":8800,"station_id":"ce4bgl92rcd13ifvqbq0","pricing_plan_id":"cebpf4jnsgd1na2vs0mg"},{"bike_id":"888b9df8-8e58-4bdb-8ea2-1e91e8739655","system_id":"levelo_inurba_marseille","lat":43.28856,"lon":5.3932,"is_reserved":false,"is_disabled":false,"rental_uris":{"android":"levelo://app?vid=888b9df8-8e58-4bdb-8ea2-1e91e8739655","ios":"levelo://app?vid=888b9df8-8e58-4bdb-8ea2-1e91e8739655"},"vehicle_type_id":"4","last_reported":1774633242,"current_range_meters":8800,"station_id":"ce4bh2p2rcd13ifvqdi0","pricing_plan_id":"cebpf4jnsgd1na2vs0mg"},{"bike_id":"4c89b9ce-52ed-4fac-8617-1a28e06018e5","system_id":"levelo_inurba_marseille","lat":43.24822,"lon":5.37404,"is_reserved":false,"is_disabled":false,"rental_uris":{"android":"levelo://app?vid=4c89b9ce-52ed-4fac-8617-1a28e06018e5","ios":"levelo://app?vid=4c89b9ce-52ed-4fac-8617-1a28e06018e5"},"vehicle_type_id":"4","last_reported":1774633242,"current_range_meters":8800,"station_id":"ce4bhgh2rcd13ifvqfb0","pricing_plan_id":"cebpf4jnsgd1na2vs0mg"},{"bike_id":"26bcd5d7-0ace-41ee-9b6f-57c31b79d58e","system_id":"levelo_inurba_marseille","lat":43.29307,"lon":5.37179,"is_reserved":false,"is_disabled":false,"rental_uris":{"android":"levelo://app?vid=26bcd5d7-0ace-41ee-9b6f-57c31b79d58e","ios":"levelo://app?vid=26bcd5d7-0ace-41ee-9b6f-57c31b79d58e"},"vehicle_type_id":"4","last_reported":1774633242,"current_range_meters":8800,"station_id":"ce4bgh92rcd13ifvqb40","pricing_plan_id":"cebpf4jnsgd1na2vs0mg"},{"bike_id":"56c9867f-19cb-4a74-abcd-02a14f65f0aa","system_id":"levelo_inurba_marseille","lat":43.26497,"lon":5.39535,"is_reserved":false,"is_disabled":false,"rental_uris":{"android":"levelo://app?vid=56c9867f-19cb-4a74-abcd-02a14f65f0aa","ios":"levelo://app?vid=56c9867f-19cb-4a74-abcd-02a14f65f0aa"},"vehicle_type_id":"4","last_reported":1774633242,"current_range_meters":9200,"station_id":"ce4bhi12rcd13ifvqfq0","pricing_plan_id":"cebpf4jnsgd1na2vs0mg"},{"bike_id":"13758e40-3343-4461-81bb-b6a3001d9426","system_id":"levelo_inurba_marseille","lat":43.32476,"lon":5.36557,"is_reserved":false,"is_disabled":false,"rental_uris":{"android":"levelo://app?vid=13758e40-3343-4461-81bb-b6a3001d9426","ios":"levelo://app?vid=13758e40-3343-4461-81bb-b6a3001d9426"},"vehicle_type_id":"4","last_reported":1774633242,"current_range_meters":9200,"station_id":"ce4bhs12rcd13ifvqhvg","pricing_plan_id":"cebpf4jnsgd1na2vs0mg"},{"bike_id":"3629b600-0973-43f7-911e-b3eb2f49b025","system_id":"levelo_inurba_marseille","lat":43.33545,"lon":5.3747,"is_reserved":false,"is_disabled":false,"rental_uris":{"android":"levelo://app?vid=3629b600-0973-43f7-911e-b3eb2f49b025","ios":"levelo://app?vid=3629b600-0973-43f7-911e-b3eb2f49b025"},"vehicle_type_id":"4","last_reported":1774633242,"current_range_meters":9200,"station_id":"st_d46tts09ee8s73dlu43g","pricing_plan_id":"cebpf4jnsgd1na2vs0mg"},{"bike_id":"c5412bb6-bec7-4456-bdb3-6b87df0ff39f","system_id":"levelo_inurba_marseille","lat":43.31205,"lon":5.36882,"is_reserved":false,"is_disabled":false,"rental_uris":{"android":"levelo://app?vid=c5412bb6-bec7-4456-bdb3-6b87df0ff39f","ios":"levelo://app?vid=c5412bb6-bec7-4456-bdb3-6b87df0ff39f"},"vehicle_type_id":"4","last_reported":1774633242,"current_range_meters":9200,"station_id":"ce4bgl92rcd13ifvqbq0","pricing_plan_id":"cebpf4jnsgd1na2vs0mg"},{"bike_id":"b4f7f0b9-7d56-42ad-a631-1e0eab6073dc","system_id":"levelo_inurba_marseille","lat":43.30532,"lon":5.36547,"is_reserved":false,"is_disabled":false,"rental_uris":{"android":"levelo://app?vid=b4f7f0b9-7d56-42ad-a631-1e0eab6073dc","ios":"levelo://app?vid=b4f7f0b9-7d56-42ad-a631-1e0eab6073dc"},"vehicle_type_id":"4","last_reported":1774633242,"current_range_meters":9200,"station_id":"ce4bgs12rcd13ifvqcag","pricing_plan_id":"cebpf4jnsgd1na2vs0mg"},{"bike_id":"23c9dcfe-7dab-4c87-96ea-1494e0f9cf49","system_id":"levelo_inurba_marseille","lat":43.29617,"lon":5.37193,"is_reserved":false,"is_disabled":false,"rental_uris":{"android":"levelo://app?vid=23c9dcfe-7dab-4c87-96ea-1494e0f9cf49","ios":"levelo://app?vid=23c9dcfe-7dab-4c87-96ea-1494e0f9cf49"},"vehicle_type_id":"4","last_reported":1774633242,"current_range_meters":9200,"station_id":"ce4bgnh2rcd13ifvqc0g","pricing_plan_id":"cebpf4jnsgd1na2vs0mg"},{"bike_id":"a36b32fe-3c3c-4e8e-bdc5-ac9d34714bd2","system_id":"levelo_inurba_marseille","lat":43.29872,"lon":5.42103,"is_reserved":false,"is_disabled":false,"rental_uris":{"android":"levelo://app?vid=a36b32fe-3c3c-4e8e-bdc5-ac9d34714bd2","ios":"levelo://app?vid=a36b32fe-3c3c-4e8e-bdc5-ac9d34714bd2"},"vehicle_type_id":"4","last_reported":1774633242,"current_range_meters":9200,"station_id":"st_d6tc004otcvc738tfe70","pricing_plan_id":"cebpf4jnsgd1na2vs0mg"},{"bike_id":"ccae95a5-965a-472f-8138-32ecadf6ef35","system_id":"levelo_inurba_marseille","lat":43.25385,"lon":5.42161,"is_reserved":false,"is_disabled":false,"rental_uris":{"android":"levelo://app?vid=ccae95a5-965a-472f-8138-32ecadf6ef35","ios":"levelo://app?vid=ccae95a5-965a-472f-8138-32ecadf6ef35"},"vehicle_type_id":"4","last_reported":1774633242,"current_range_meters":9200,"station_id":"st_d2m65c5bi1j21697t3ng","pricing_plan_id":"cebpf4jnsgd1na2vs0mg"},{"bike_id":"a91a1de4-5dfa-4c76-b9e6-a0ce7f6f26a8","system_id":"levelo_inurba_marseille","lat":43.2847,"lon":5.38554,"is_reserved":false,"is_disabled":false,"rental_uris":{"android":"levelo://app?vid=a91a1de4-5dfa-4c76-b9e6-a0ce7f6f26a8","ios":"levelo://app?vid=a91a1de4-5dfa-4c76-b9e6-a0ce7f6f26a8"},"vehicle_type_id":"4","last_reported":1774633242,"current_range_meters":9200,"station_id":"ce4bh8p2rcd13ifvqeb0","pricing_plan_id":"cebpf4jnsgd1na2vs0mg"},{"bike_id":"b74978cb-5b51-4041-8c1c-97c8f4ca71d2","system_id":"levelo_inurba_marseille","lat":43.3118,"lon":5.4063,"is_reserved":false,"is_disabled":false,"rental_uris":{"android":"levelo://app?vid=b74978cb-5b51-4041-8c1c-97c8f4ca71d2","ios":"levelo://app?vid=b74978cb-5b51-4041-8c1c-97c8f4ca71d2"},"vehicle_type_id":"4","last_reported":1774633242,"current_range_meters":9200,"station_id":"","pricing_plan_id":"cebpf4jnsgd1na2vs0mg"},{"bike_id":"e4b8931c-03ca-41c7-bb73-d8e8fdaf8d69","system_id":"levelo_inurba_marseille","lat":43.25574,"lon":5.38238,"is_reserved":false,"is_disabled":false,"rental_uris":{"android":"levelo://app?vid=e4b8931c-03ca-41c7-bb73-d8e8fdaf8d69","ios":"levelo://app?vid=e4b8931c-03ca-41c7-bb73-d8e8fdaf8d69"},"vehicle_type_id":"4","last_reported":1774633242,"current_range_meters":9200,"station_id":"ce4bhih2rcd13ifvqfs0","pricing_plan_id":"cebpf4jnsgd1na2vs0mg"},{"bike_id":"6d106594-19d4-410a-8438-74af7bf89a11","system_id":"levelo_inurba_marseille","lat":43.28419,"lon":5.34991,"is_reserved":false,"is_disabled":false,"rental_uris":{"android":"levelo://app?vid=6d106594-19d4-410a-8438-74af7bf89a11","ios":"levelo://app?vid=6d106594-19d4-410a-8438-74af7bf89a11"},"vehicle_type_id":"4","last_reported":1774633242,"current_range_meters":9200,"station_id":"ce4bhbh2rcd13ifvqepg","pricing_plan_id":"cebpf4jnsgd1na2vs0mg"},{"bike_id":"2d5262be-582c-4d87-a7a2-b4c3f4ed4d38","system_id":"levelo_inurba_marseille","lat":43.22565,"lon":5.41628,"is_reserved":false,"is_disabled":false,"rental_uris":{"android":"levelo://app?vid=2d5262be-582c-4d87-a7a2-b4c3f4ed4d38","ios":"levelo://app?vid=2d5262be-582c-4d87-a7a2-b4c3f4ed4d38"},"vehicle_type_id":"4","last_reported":1774633242,"current_range_meters":9200,"station_id":"st_d2o4gvlbi1j2169b742g","pricing_plan_id":"cebpf4jnsgd1na2vs0mg"},{"bike_id":"34ff3082-0525-4286-ae4b-965b4525de9a","system_id":"levelo_inurba_marseille","lat":43.29037,"lon":5.39957,"is_reserved":false,"is_disabled":false,"rental_uris":{"android":"levelo://app?vid=34ff3082-0525-4286-ae4b-965b4525de9a","ios":"levelo://app?vid=34ff3082-0525-4286-ae4b-965b4525de9a"},"vehicle_type_id":"4","last_reported":1774633242,"current_range_meters":9200,"station_id":"ce4bh392rcd13ifvqdm0","pricing_plan_id":"cebpf4jnsgd1na2vs0mg"},{"bike_id":"90c0a69c-1822-4882-9234-2e72dc46d20b","system_id":"levelo_inurba_marseille","lat":43.25116,"lon":5.40347,"is_reserved":false,"is_disabled":false,"rental_uris":{"android":"levelo://app?vid=90c0a69c-1822-4882-9234-2e72dc46d20b","ios":"levelo://app?vid=90c0a69c-1822-4882-9234-2e72dc46d20b"},"vehicle_type_id":"4","last_reported":1774633242,"current_range_meters":9200,"station_id":"ce4bhlh2rcd13ifvqgig","pricing_plan_id":"cebpf4jnsgd1na2vs0mg"},{"bike_id":"f1f52da2-2a90-4056-a614-e4abc5daae5c","system_id":"levelo_inurba_marseille","lat":43.26404,"lon":5.41075,"is_reserved":false,"is_disabled":false,"rental_uris":{"android":"levelo://app?vid=f1f52da2-2a90-4056-a614-e4abc5daae5c","ios":"levelo://app?vid=f1f52da2-2a90-4056-a614-e4abc5daae5c"},"vehicle_type_id":"4","last_reported":1774633242,"current_range_meters":9200,"station_id":"st_d4e5ca6na9uc73bfl5fg","pricing_plan_id":"cebpf4jnsgd1na2vs0mg"},{"bike_id":"c5eee37f-5a4c-4e9a-9303-cf06a3245201","system_id":"levelo_inurba_marseille","lat":43.28476,"lon":5.38415,"is_reserved":false,"is_disabled":false,"rental_uris":{"android":"levelo://app?vid=c5eee37f-5a4c-4e9a-9303-cf06a3245201","ios":"levelo://app?vid=c5eee37f-5a4c-4e9a-9303-cf06a3245201"},"vehicle_type_id":"4","last_reported":1774633242,"current_range_meters":9200,"station_id":"ce4bh512rcd13ifvqe3g","pricing_plan_id":"cebpf4jnsgd1na2vs0mg"},{"bike_id":"6cda1da2-5fde-4257-9dc0-9adcc9799ded","system_id":"levelo_inurba_marseille","lat":43.30932,"lon":5.40149,"is_reserved":false,"is_disabled":false,"rental_uris":{"android":"levelo://app?vid=6cda1da2-5fde-4257-9dc0-9adcc9799ded","ios":"levelo://app?vid=6cda1da2-5fde-4257-9dc0-9adcc9799ded"},"vehicle_type_id":"4","last_reported":1774633242,"current_range_meters":9200,"station_id":"ce4bgvp2rcd13ifvqct0","pricing_plan_id":"cebpf4jnsgd1na2vs0mg"},{"bike_id":"a0e1fe6f-1b0c-4b69-b699-3f3295a2fce0","system_id":"levelo_inurba_marseille","lat":43.28422,"lon":5.34988,"is_reserved":false,"is_disabled":false,"rental_uris":{"android":"levelo://app?vid=a0e1fe6f-1b0c-4b69-b699-3f3295a2fce0","ios":"levelo://app?vid=a0e1fe6f-1b0c-4b69-b699-3f3295a2fce0"},"vehicle_type_id":"4","last_reported":1774633242,"current_range_meters":9600,"station_id":"ce4bhbh2rcd13ifvqepg","pricing_plan_id":"cebpf4jnsgd1na2vs0mg"},{"bike_id":"ac1a9d6c-17a0-4e01-9607-d886e691e83d","system_id":"levelo_inurba_marseille","lat":43.24419,"lon":5.37085,"is_reserved":false,"is_disabled":false,"rental_uris":{"android":"levelo://app?vid=ac1a9d6c-17a0-4e01-9607-d886e691e83d","ios":"levelo://app?vid=ac1a9d6c-17a0-4e01-9607-d886e691e83d"},"vehicle_type_id":"4","last_reported":1774633242,"current_range_meters":9600,"station_id":"ce4bhhh2rcd13ifvqfk0","pricing_plan_id":"cebpf4jnsgd1na2vs0mg"},{"bike_id":"edac6523-df16-47dc-adeb-975cdf805ce1","system_id":"levelo_inurba_marseille","lat":43.26561,"lon":5.39029,"is_reserved":false,"is_disabled":false,"rental_uris":{"android":"levelo://app?vid=edac6523-df16-47dc-adeb-975cdf805ce1","ios":"levelo://app?vid=edac6523-df16-47dc-adeb-975cdf805ce1"},"vehicle_type_id":"4","last_reported":1774633242,"current_range_meters":9600,"station_id":"ce4bhe12rcd13ifvqf30","pricing_plan_id":"cebpf4jnsgd1na2vs0mg"},{"bike_id":"123d825b-cdef-4898-a9be-f8b57ac6f2ff","system_id":"levelo_inurba_marseille","lat":43.29029,"lon":5.38647,"is_reserved":false,"is_disabled":false,"rental_uris":{"android":"levelo://app?vid=123d825b-cdef-4898-a9be-f8b57ac6f2ff","ios":"levelo://app?vid=123d825b-cdef-4898-a9be-f8b57ac6f2ff"},"vehicle_type_id":"4","last_reported":1774633242,"current_range_meters":9600,"station_id":"ce4bh4p2rcd13ifvqe0g","pricing_plan_id":"cebpf4jnsgd1na2vs0mg"},{"bike_id":"899c9f36-9b83-4ce9-bd7d-0f95dd541b6a","system_id":"levelo_inurba_marseille","lat":43.32354,"lon":5.36743,"is_reserved":false,"is_disabled":false,"rental_uris":{"android":"levelo://app?vid=899c9f36-9b83-4ce9-bd7d-0f95dd541b6a","ios":"levelo://app?vid=899c9f36-9b83-4ce9-bd7d-0f95dd541b6a"},"vehicle_type_id":"4","last_reported":1774633242,"current_range_meters":9600,"station_id":"ce4bhsh2rcd13ifvqi2g","pricing_plan_id":"cebpf4jnsgd1na2vs0mg"},{"bike_id":"cd3a891a-b0ab-419a-a9f6-a4cbdf5d0a8f","system_id":"levelo_inurba_marseille","lat":43.29576,"lon":5.39959,"is_reserved":false,"is_disabled":false,"rental_uris":{"android":"levelo://app?vid=cd3a891a-b0ab-419a-a9f6-a4cbdf5d0a8f","ios":"levelo://app?vid=cd3a891a-b0ab-419a-a9f6-a4cbdf5d0a8f"},"vehicle_type_id":"4","last_reported":1774633242,"current_range_meters":9600,"station_id":"ce4bh312rcd13ifvqdj0","pricing_plan_id":"cebpf4jnsgd1na2vs0mg"},{"bike_id":"28483bf5-dea0-476c-af06-fd95f4e48f8f","system_id":"levelo_inurba_marseille","lat":43.33475,"lon":5.36361,"is_reserved":false,"is_disabled":false,"rental_uris":{"android":"levelo://app?vid=28483bf5-dea0-476c-af06-fd95f4e48f8f","ios":"levelo://app?vid=28483bf5-dea0-476c-af06-fd95f4e48f8f"},"vehicle_type_id":"4","last_reported":1774633242,"current_range_meters":9600,"station_id":"","pricing_plan_id":"cebpf4jnsgd1na2vs0mg"},{"bike_id":"5afc8403-6d30-4cf0-9969-def159c6d031","system_id":"levelo_inurba_marseille","lat":43.24378,"lon":5.37011,"is_reserved":false,"is_disabled":false,"rental_uris":{"android":"levelo://app?vid=5afc8403-6d30-4cf0-9969-def159c6d031","ios":"levelo://app?vid=5afc8403-6d30-4cf0-9969-def159c6d031"},"vehicle_type_id":"4","last_reported":1774633242,"current_range_meters":9600,"station_id":"","pricing_plan_id":"cebpf4jnsgd1na2vs0mg"},{"bike_id":"3dacdbba-8b09-48e9-891d-3121ba2b3092","system_id":"levelo_inurba_marseille","lat":43.29765,"lon":5.38119,"is_reserved":false,"is_disabled":false,"rental_uris":{"android":"levelo://app?vid=3dacdbba-8b09-48e9-891d-3121ba2b3092","ios":"levelo://app?vid=3dacdbba-8b09-48e9-891d-3121ba2b3092"},"vehicle_type_id":"4","last_reported":1774633242,"current_range_meters":9600,"station_id":"ce4bgip2rcd13ifvqbb0","pricing_plan_id":"cebpf4jnsgd1na2vs0mg"},{"bike_id":"b763695a-1f10-4560-8ac2-61dccf3a0596","system_id":"levelo_inurba_marseille","lat":43.29545,"lon":5.38549,"is_reserved":false,"is_disabled":false,"rental_uris":{"android":"levelo://app?vid=b763695a-1f10-4560-8ac2-61dccf3a0596","ios":"levelo://app?vid=b763695a-1f10-4560-8ac2-61dccf3a0596"},"vehicle_type_id":"4","last_reported":1774633242,"current_range_meters":9600,"station_id":"ce4bgih2rcd13ifvqba0","pricing_plan_id":"cebpf4jnsgd1na2vs0mg"},