{"last_updated":1745053762,"ttl":60,"version":"2.2","data":{"bikes":[{"bike_id":"d0e58684-334a-4905-87ac-28252305eff5","system_id":"levelo_inurba_marseille","lat":43.29505,"lon":5.37502,"is_reserved":false,"is_disabled":false,"rental_uris":{"android":"levelo://app?vid=d0e58684-334a-4905-87ac-28252305eff5","ios":"levelo://app?vid=d0e58684-334a-4905-87ac-28252305eff5"},"vehicle_type_id":"4","last_reported":1745053762,"current_range_meters":2800,"station_id":"ce4bgkp2rcd13ifvqbmg","pricing_plan_id":"cebpf4jnsgd1na2vs0mg"},{"bike_id":"ecf650c9-a3a6-42b9-9e14-b74cff0330e1","system_id":"levelo_inurba_marseille","lat":43.26214,"lon":5.37437,"is_reserved":false,"is_disabled":false,"rental_uris":{"android":"levelo://app?vid=ecf650c9-a3a6-42b9-9e14-b74cff0330e1","ios":"levelo://app?vid=ecf650c9-a3a6-42b9-9e14-b74cff0330e1"},"vehicle_type_id":"4","last_reported":1745053762,"current_range_meters":3200,"station_id":"ce4bhgp2rcd13ifvqfc0","pricing_plan_id":"cebpf4jnsgd1na2vs0mg"},{"bike_id":"12e61b61-a165-4320-af5e-d9d6c29090fc","system_id":"levelo_inurba_marseille","lat":43.229353,"lon":5.353825,"is_reserved":false,"is_disabled":false,"rental_uris":{"android":"levelo://app?vid=12e61b61-a165-4320-af5e-d9d6c29090fc","ios":"levelo://app?vid=12e61b61-a165-4320-af5e-d9d6c29090fc"},"vehicle_type_id":"4","last_reported":1745053762,"current_range_meters":3600,"station_id":"cpo3532slgdg3j2ikp40","pricing_plan_id":"cebpf4jnsgd1na2vs0mg"},{"bike_id":"0c3f0001-31bf-4e7b-9dc5-54dfac67e490","system_id":"levelo_inurba_marseille","lat":43.29619,"lon":5.37166,"is_reserved":false,"is_disabled":false,"rental_uris":{"android":"levelo://app?vid=0c3f0001-31bf-4e7b-9dc5-54dfac67e490","ios":"levelo://app?vid=0c3f0001-31bf-4e7b-9dc5-54dfac67e490"},"vehicle_type_id":"4","last_reported":1745053762,"current_range_meters":4000,"station_id":"ce4bgnh2rcd13ifvqc0g","pricing_plan_id":"cebpf4jnsgd1na2vs0mg"},{"bike_id":"e0b5e028-c6c0-49d1-b246-acc21b7fac78","system_id":"levelo_inurba_marseille","lat":43.284803,"lon":5.384152,"is_reserved":false,"is_disabled":false,"rental_uris":{"android":"levelo://app?vid=e0b5e028-c6c0-49d1-b246-acc21b7fac78","ios":"levelo://app?vid=e0b5e028-c6c0-49d1-b246-acc21b7fac78"},"vehicle_type_id":"4","last_reported":1745053762,"current_range_meters":4800,"station_id":"ce4bh412rcd13ifvqdr0","pricing_plan_id":"cebpf4jnsgd1na2vs0mg"},{"bike_id":"a744e6fc-71f4-4361-9531-5d5d5dea5d82","system_id":"levelo_inurba_marseille","lat":43.30461,"lon":5.3791,"is_reserved":false,"is_disabled":true,"rental_uris":{"android":"levelo://app?vid=a744e6fc-71f4-4361-9531-5d5d5dea5d82","ios":"levelo://app?vid=a744e6fc-71f4-4361-9531-5d5d5dea5d82"},"vehicle_type_id":"4","last_reported":1745053762,"current_range_meters":5600,"station_id":"ce4bgup2rcd13ifvqcn0","pricing_plan_id":"cebpf4jnsgd1na2vs0mg"},{"bike_id":"cf4db056-d3f7-4001-aa54-c43d57090a49","system_id":"levelo_inurba_marseille","lat":43.23194,"lon":5.35559,"is_reserved":false,"is_disabled":false,"rental_uris":{"android":"levelo://app?vid=cf4db056-d3f7-4001-aa54-c43d57090a49","ios":"levelo://app?vid=cf4db056-d3f7-4001-aa54-c43d57090a49"},"vehicle_type_id":"4","last_reported":1745053762,"current_range_meters":5600,"station_id":"ce4bhu92rcd13ifvqi70","pricing_plan_id":"cebpf4jnsgd1na2vs0mg"},{"bike_id":"c415b972-8ead-4e78-8d80-7a091746c0aa","system_id":"levelo_inurba_marseille","lat":43.24381,"lon":5.37086,"is_reserved":false,"is_disabled":false,"rental_uris":{"android":"levelo://app?vid=c415b972-8ead-4e78-8d80-7a091746c0aa","ios":"levelo://app?vid=c415b972-8ead-4e78-8d80-7a091746c0aa"},"vehicle_type_id":"4","last_reported":1745053762,"current_range_meters":6000,"station_id":"ce4bhhh2rcd13ifvqfk0","pricing_plan_id":"cebpf4jnsgd1na2vs0mg"},{"bike_id":"fe603162-9e89-4df8-9ff6-b2da950e8cb3","system_id":"levelo_inurba_marseille","lat":43.25004,"lon":5.38962,"is_reserved":false,"is_disabled":false,"rental_uris":{"android":"levelo://app?vid=fe603162-9e89-4df8-9ff6-b2da950e8cb3","ios":"levelo://app?vid=fe603162-9e89-4df8-9ff6-b2da950e8cb3"},"vehicle_type_id":"4","last_reported":1745053762,"current_range_meters":6000,"station_id":"ce4bhgp2rcd13ifvqfd0","pricing_plan_id":"cebpf4jnsgd1na2vs0mg"},{"bike_id":"6987c513-b50c-45b1-80e3-356055d982d5","system_id":"levelo_inurba_marseille","lat":43.29942,"lon":5.3774,"is_reserved":false,"is_disabled":true,"rental_uris":{"android":"levelo://app?vid=6987c513-b50c-45b1-80e3-356055d982d5","ios":"levelo://app?vid=6987c513-b50c-45b1-80e3-356055d982d5"},"vehicle_type_id":"4","last_reported":1745053762,"current_range_meters":6400,"station_id":"","pricing_plan_id":"cebpf4jnsgd1na2vs0mg"},{"bike_id":"36028acb-1986-4460-84fe-b2aca491647c","system_id":"levelo_inurba_marseille","lat":43.267788,"lon":5.394261,"is_reserved":false,"is_disabled":true,"rental_uris":{"android":"levelo://app?vid=36028acb-1986-4460-84fe-b2aca491647c","ios":"levelo://app?vid=36028acb-1986-4460-84fe-b2aca491647c"},"vehicle_type_id":"4","last_reported":1745053762,"current_range_meters":6400,"station_id":"ce4bhh12rcd13ifvqfg0","pricing_plan_id":"cebpf4jnsgd1na2vs0mg"},{"bike_id":"9f4e5c72-054b-4523-9439-16878db5b8e7","system_id":"levelo_inurba_marseille","lat":43.26542,"lon":5.37294,"is_reserved":false,"is_disabled":false,"rental_uris":{"android":"levelo://app?vid=9f4e5c72-054b-4523-9439-16878db5b8e7","ios":"levelo://app?vid=9f4e5c72-054b-4523-9439-16878db5b8e7"},"vehicle_type_id":"4","last_reported":1745053762,"current_range_meters":6400,"station_id":"ce4bhg12rcd13ifvqf70","pricing_plan_id":"cebpf4jnsgd1na2vs0mg"},{"bike_id":"ca8d9f01-ab92-4f7c-9280-7e06093856f1","system_id":"levelo_inurba_marseille","lat":43.24565,"lon":5.39558,"is_reserved":false,"is_disabled":false,"rental_uris":{"android":"levelo://app?vid=ca8d9f01-ab92-4f7c-9280-7e06093856f1","ios":"levelo://app?vid=ca8d9f01-ab92-4f7c-9280-7e06093856f1"},"vehicle_type_id":"4","last_reported":1745053762,"current_range_meters":6400,"station_id":"ce4bhlp2rcd13ifvqgjg","pricing_plan_id":"cebpf4jnsgd1na2vs0mg"},{"bike_id":"9f43d52a-6011-4a19-bf01-fcf3871483d5","system_id":"levelo_inurba_marseille","lat":43.29226,"lon":5.36077,"is_reserved":false,"is_disabled":false,"rental_uris":{"android":"levelo://app?vid=9f43d52a-6011-4a19-bf01-fcf3871483d5","ios":"levelo://app?vid=9f43d52a-6011-4a19-bf01-fcf3871483d5"},"vehicle_type_id":"4","last_reported":1745053762,"current_range_meters":7200,"station_id":"ce4bhbh2rcd13ifvqeqg","pricing_plan_id":"cebpf4jnsgd1na2vs0mg"},{"bike_id":"adfa74fd-6bed-4e89-aecd-c4124b72487a","system_id":"levelo_inurba_marseille","lat":43.32628,"lon":5.36196,"is_reserved":false,"is_disabled":false,"rental_uris":{"android":"levelo://app?vid=adfa74fd-6bed-4e89-aecd-c4124b72487a","ios":"levelo://app?vid=adfa74fd-6bed-4e89-aecd-c4124b72487a"},"vehicle_type_id":"4","last_reported":1745053762,"current_range_meters":6800,"station_id":"","pricing_plan_id":"cebpf4jnsgd1na2vs0mg"},{"bike_id":"7ad5b41c-3e2b-46e3-93df-e66d8fd96b8c","system_id":"levelo_inurba_marseille","lat":43.292758,"lon":5.384391,"is_reserved":false,"is_disabled":false,"rental_uris":{"android":"levelo://app?vid=7ad5b41c-3e2b-46e3-93df-e66d8fd96b8c","ios":"levelo://app?vid=7ad5b41c-3e2b-46e3-93df-e66d8fd96b8c"},"vehicle_type_id":"4","last_reported":1745053762,"current_range_meters":6800,"station_id":"ce4bh692rcd13ifvqea0","pricing_plan_id":"cebpf4jnsgd1na2vs0mg"},{"bike_id":"815760a6-7b9e-4044-9b3b-9d5a7dceda21","system_id":"levelo_inurba_marseille","lat":43.31169,"lon":5.38714,"is_reserved":false,"is_disabled":false,"rental_uris":{"android":"levelo://app?vid=815760a6-7b9e-4044-9b3b-9d5a7dceda21","ios":"levelo://app?vid=815760a6-7b9e-4044-9b3b-9d5a7dceda21"},"vehicle_type_id":"4","last_reported":1745053762,"current_range_meters":6800,"station_id":"ce4bgv12rcd13ifvqcp0","pricing_plan_id":"cebpf4jnsgd1na2vs0mg"},{"bike_id":"c09d605c-d5d3-42f8-9be2-d2e1dcde23bd","system_id":"levelo_inurba_marseille","lat":43.24642,"lon":5.38903,"is_reserved":false,"is_disabled":false,"rental_uris":{"android":"levelo://app?vid=c09d605c-d5d3-42f8-9be2-d2e1dcde23bd","ios":"levelo://app?vid=c09d605c-d5d3-42f8-9be2-d2e1dcde23bd"},"vehicle_type_id":"4","last_reported":1745053762,"current_range_meters":6800,"station_id":"ce4bhg12rcd13ifvqf60","pricing_plan_id":"cebpf4jnsgd1na2vs0mg"},{"bike_id":"ccb424c1-c649-44dc-a41a-19431c6b74f5","system_id":"levelo_inurba_marseille","lat":43.31663,"lon":5.37812,"is_reserved":false,"is_disabled":false,"rental_uris":{"android":"levelo://app?vid=ccb424c1-c649-44dc-a41a-19431c6b74f5","ios":"levelo://app?vid=ccb424c1-c649-44dc-a41a-19431c6b74f5"},"vehicle_type_id":"4","last_reported":1745053762,"current_range_meters":6800,"station_id":"","pricing_plan_id":"cebpf4jnsgd1na2vs0mg"},{"bike_id":"a968bc14-c848-422a-b8e8-61f50cb7032f","system_id":"levelo_inurba_marseille","lat":43.30806,"lon":5.43514,"is_reserved":false,"is_disabled":false,"rental_uris":{"android":"levelo://app?vid=a968bc14-c848-422a-b8e8-61f50cb7032f","ios":"levelo://app?vid=a968bc14-c848-422a-b8e8-61f50cb7032f"},"vehicle_type_id":"4","last_reported":1745053762,"current_range_meters":6800,"station_id":"ce4bhph2rcd13ifvqheg","pricing_plan_id":"cebpf4jnsgd1na2vs0mg"},{"bike_id":"678d1aa7-dc7f-4ee1-a950-5a4f554ad695","system_id":"levelo_inurba_marseille","lat":43.29792,"lon":5.39359,"is_reserved":false,"is_disabled":true,"rental_uris":{"android":"levelo://app?vid=678d1aa7-dc7f-4ee1-a950-5a4f554ad695","ios":"levelo://app?vid=678d1aa7-dc7f-4ee1-a950-5a4f554ad695"},"vehicle_type_id":"4","last_reported":1745053762,"current_range_meters":6800,"station_id":"chh1huq6cuj3fo74tm60","pricing_plan_id":"cebpf4jnsgd1na2vs0mg"},{"bike_id":"d4d9b665-d4f4-49cf-9dcd-00e920a45b50","system_id":"levelo_inurba_marseille","lat":43.25831,"lon":5.39426,"is_reserved":false,"is_disabled":false,"rental_uris":{"android":"levelo://app?vid=d4d9b665-d4f4-49cf-9dcd-00e920a45b50","ios":"levelo://app?vid=d4d9b665-d4f4-49cf-9dcd-00e920a45b50"},"vehicle_type_id":"4","last_reported":1745053762,"current_range_meters":6800,"station_id":"ce4bhip2rcd13ifvqft0","pricing_plan_id":"cebpf4jnsgd1na2vs0mg"},{"bike_id":"271c8c79-7ca6-4367-80fb-8a0efc84181c","system_id":"levelo_inurba_marseille","lat":43.23205,"lon":5.35546,"is_reserved":false,"is_disabled":false,"rental_uris":{"android":"levelo://app?vid=271c8c79-7ca6-4367-80fb-8a0efc84181c","ios":"levelo://app?vid=271c8c79-7ca6-4367-80fb-8a0efc84181c"},"vehicle_type_id":"4","last_reported":1745053762,"current_range_meters":6800,"station_id":"ce4bhu92rcd13ifvqi70","pricing_plan_id":"cebpf4jnsgd1na2vs0mg"},{"bike_id":"d0693017-3219-4f2c-9252-be27486404d3","system_id":"levelo_inurba_marseille","lat":43.24667,"lon":5.38151,"is_reserved":false,"is_disabled":false,"rental_uris":{"android":"levelo://app?vid=d0693017-3219-4f2c-9252-be27486404d3","ios":"levelo://app?vid=d0693017-3219-4f2c-9252-be27486404d3"},"vehicle_type_id":"4","last_reported":1745053762,"current_range_meters":7200,"station_id":"ce4bhih2rcd13ifvqfr0","pricing_plan_id":"cebpf4jnsgd1na2vs0mg"},{"bike_id":"1210dc72-37b8-49f7-b249-6faa54daba28","system_id":"levelo_inurba_marseille","lat":43.323708,"lon":5.367628,"is_reserved":false,"is_disabled":false,"rental_uris":{"android":"levelo://app?vid=1210dc72-37b8-49f7-b249-6faa54daba28","ios":"levelo://app?vid=1210dc72-37b8-49f7-b249-6faa54daba28"},"vehicle_type_id":"4","last_reported":1745053762,"current_range_meters":7200,"station_id":"ce4bhsh2rcd13ifvqi2g","pricing_plan_id":"cebpf4jnsgd1na2vs0mg"},{"bike_id":"38d71541-39fa-44bc-b9fa-dad7cbdc7434","system_id":"levelo_inurba_marseille","lat":43.287463,"lon":5.386595,"is_reserved":false,"is_disabled":false,"rental_uris":{"android":"levelo://app?vid=38d71541-39fa-44bc-b9fa-dad7cbdc7434","ios":"levelo://app?vid=38d71541-39fa-44bc-b9fa-dad7cbdc7434"},"vehicle_type_id":"4","last_reported":1745053762,"current_range_meters":7200,"station_id":"","pricing_plan_id":"cebpf4jnsgd1na2vs0mg"},{"bike_id":"12f4f48c-0f9d-4e1b-9f6f-e3e9442ba3ee","system_id":"levelo_inurba_marseille","lat":43.29727,"lon":5.38021,"is_reserved":false,"is_disabled":false,"rental_uris":{"android":"levelo://app?vid=12f4f48c-0f9d-4e1b-9f6f-e3e9442ba3ee","ios":"levelo://app?vid=12f4f48c-0f9d-4e1b-9f6f-e3e9442ba3ee"},"vehicle_type_id":"4","last_reported":1745053762,"current_range_meters":8000,"station_id":"ce4bhb92rcd13ifvqen0","pricing_plan_id":"cebpf4jnsgd1na2vs0mg"},{"bike_id":"f2d09a49-02ca-41b9-870e-fdff640473d6","system_id":"levelo_inurba_marseille","lat":43.24165,"lon":5.36418,"is_reserved":false,"is_disabled":false,"rental_uris":{"android":"levelo://app?vid=f2d09a49-02ca-41b9-870e-fdff640473d6","ios":"levelo://app?vid=f2d09a49-02ca-41b9-870e-fdff640473d6"},"vehicle_type_id":"4","last_reported":1745053762,"current_range_meters":8000,"station_id":"cpo36qri1sfpv3e86is0","pricing_plan_id":"cebpf4jnsgd1na2vs0mg"},{"bike_id":"bd017799-4351-4e99-aaeb-8d345a3ae0c2","system_id":"levelo_inurba_marseille","lat":43.26932,"lon":5.38922,"is_reserved":false,"is_disabled":false,"rental_uris":{"android":"levelo://app?vid=bd017799-4351-4e99-aaeb-8d345a3ae0c2","ios":"levelo://app?vid=bd017799-4351-4e99-aaeb-8d345a3ae0c2"},"vehicle_type_id":"4","last_reported":1745053762,"current_range_meters":7200,"station_id":"ce4bhhh2rcd13ifvqfl0","pricing_plan_id":"cebpf4jnsgd1na2vs0mg"},{"bike_id":"91b0f96d-1a6e-4e28-98b9-2c86f2485aee","system_id":"levelo_inurba_marseille","lat":43.32416,"lon":5.39048,"is_reserved":false,"is_disabled":true,"rental_uris":{"android":"levelo://app?vid=91b0f96d-1a6e-4e28-98b9-2c86f2485aee","ios":"levelo://app?vid=91b0f96d-1a6e-4e28-98b9-2c86f2485aee"},"vehicle_type_id":"4","last_reported":1745053762,"current_range_meters":8000,"station_id":"","pricing_plan_id":"cebpf4jnsgd1na2vs0mg"},{"bike_id":"c698f0fe-d464-42fb-bdba-94280d3468ed","system_id":"levelo_inurba_marseille","lat":43.29581,"lon":5.36743,"is_reserved":false,"is_disabled":false,"rental_uris":{"android":"levelo://app?vid=c698f0fe-d464-42fb-bdba-94280d3468ed","ios":"levelo://app?vid=c698f0fe-d464-42fb-bdba-94280d3468ed"},"vehicle_type_id":"4","last_reported":1745053762,"current_range_meters":8000,"station_id":"ce4bgph2rcd13ifvqc2g","pricing_plan_id":"cebpf4jnsgd1na2vs0mg"},{"bike_id":"7f174117-e5d9-4e09-9d71-4a11ef6882f7","system_id":"levelo_inurba_marseille","lat":43.246603,"lon":5.38167,"is_reserved":false,"is_disabled":true,"rental_uris":{"android":"levelo://app?vid=7f174117-e5d9-4e09-9d71-4a11ef6882f7","ios":"levelo://app?vid=7f174117-e5d9-4e09-9d71-4a11ef6882f7"},"vehicle_type_id":"4","last_reported":1745053762,"current_range_meters":8000,"station_id":"ce4bhih2rcd13ifvqfr0","pricing_plan_id":"cebpf4jnsgd1na2vs0mg"},{"bike_id":"49ea5665-6b23-4f2b-b464-accc61389b6d","system_id":"levelo_inurba_marseille","lat":43.30532,"lon":5.36542,"is_reserved":false,"is_disabled":false,"rental_uris":{"android":"levelo://app?vid=49ea5665-6b23-4f2b-b464-accc61389b6d","ios":"levelo://app?vid=49ea5665-6b23-4f2b-b464-accc61389b6d"},"vehicle_type_id":"4","last_reported":1745053762,"current_range_meters":8000,"station_id":"ce4bgs12rcd13ifvqcag","pricing_plan_id":"cebpf4jnsgd1na2vs0mg"},{"bike_id":"782da538-2223-4ccd-8232-244cda12462d","system_id":"levelo_inurba_marseille","lat":43.23187,"lon":5.40004,"is_reserved":false,"is_disabled":false,"rental_uris":{"android":"levelo://app?vid=782da538-2223-4ccd-8232-244cda12462d","ios":"levelo://app?vid=782da538-2223-4ccd-8232-244cda12462d"},"vehicle_type_id":"4","last_reported":1745053762,"current_range_meters":8000,"station_id":"ce4bhn12rcd13ifvqgqg","pricing_plan_id":"cebpf4jnsgd1na2vs0mg"},{"bike_id":"beda0750-c0be-4016-8bf6-c6fddda9e92c","system_id":"levelo_inurba_marseille","lat":43.24547,"lon":5.39527,"is_reserved":false,"is_disabled":false,"rental_uris":{"android":"levelo://app?vid=beda0750-c0be-4016-8bf6-c6fddda9e92c","ios":"levelo://app?vid=beda0750-c0be-4016-8bf6-c6fddda9e92c"},"vehicle_type_id":"4","last_reported":1745053762,"current_range_meters":8000,"station_id":"ce4bhlp2rcd13ifvqgjg","pricing_plan_id":"cebpf4jnsgd1na2vs0mg"},{"bike_id":"222786c5-1bb6-4671-97cf-39d62a244eaa","system_id":"levelo_inurba_marseille","lat":43.29006,"lon":5.35609,"is_reserved":false,"is_disabled":false,"rental_uris":{"android":"levelo://app?vid=222786c5-1bb6-4671-97cf-39d62a244eaa","ios":"levelo://app?vid=222786c5-1bb6-4671-97cf-39d62a244eaa"},"vehicle_type_id":"4","last_reported":1745053762,"current_range_meters":8000,"station_id":"ce4bhb92rcd13ifvqen0","pricing_plan_id":"cebpf4jnsgd1na2vs0mg"},{"bike_id":"32adbfef-9330-405b-8916-6d8ff3cd3a7e","system_id":"levelo_inurba_marseille","lat":43.211924,"lon":5.350783,"is_reserved":false,"is_disabled":false,"rental_uris":{"android":"levelo://app?vid=32adbfef-9330-405b-8916-6d8ff3cd3a7e","ios":"levelo://app?vid=32adbfef-9330-405b-8916-6d8ff3cd3a7e"},"vehicle_type_id":"4","last_reported":1745053762,"current_range_meters":8000,"station_id":"","pricing_plan_id":"cebpf4jnsgd1na2vs0mg"},{"bike_id":"a042acf2-2e24-4e35-9c84-3f70c78e0df6","system_id":"levelo_inurba_marseille","lat":43.29306,"lon":5.37176,"is_reserved":false,"is_disabled":false,"rental_uris":{"android":"levelo://app?vid=a042acf2-2e24-4e35-9c84-3f70c78e0df6","ios":"levelo://app?vid=a042acf2-2e24-4e35-9c84-3f70c78e0df6"},"vehicle_type_id":"4","last_reported":1745053762,"current_range_meters":8000,"station_id":"ce4bgh92rcd13ifvqb40","pricing_plan_id":"cebpf4jnsgd1na2vs0mg"},{"bike_id":"7c83599a-5eac-4830-af25-9ddb7a5d3258","system_id":"levelo_inurba_marseille","lat":43.30932,"lon":5.40142,"is_reserved":false,"is_disabled":false,"rental_uris":{"android":"levelo://app?vid=7c83599a-5eac-4830-af25-9ddb7a5d3258","ios":"levelo://app?vid=7c83599a-5eac-4830-af25-9ddb7a5d3258"},"vehicle_type_id":"4","last_reported":1745053762,"current_range_meters":8400,"station_id":"ce4bgvp2rcd13ifvqct0","pricing_plan_id":"cebpf4jnsgd1na2vs0mg"},{"bike_id":"ee45d3b2-e8a1-4166-92e0-42002aca85ac","system_id":"levelo_inurba_marseille","lat":43.31324,"lon":5.39677,"is_reserved":false,"is_disabled":false,"rental_uris":{"android":"levelo://app?vid=ee45d3b2-e8a1-4166-92e0-42002aca85ac","ios":"levelo://app?vid=ee45d3b2-e8a1-4166-92e0-42002aca85ac"},"vehicle_type_id":"4","last_reported":1745053762,"current_range_meters":8400,"station_id":"ce4bgvp2rcd13ifvqcu0","pricing_plan_id":"cebpf4jnsgd1na2vs0mg"},{"bike_id":"5ac91598-81dd-4af8-b2c8-4c6aeb1544b2","system_id":"levelo_inurba_marseille","lat":43.21189,"lon":5.3507,"is_reserved":false,"is_disabled":false,"rental_uris":{"android":"levelo://app?vid=5ac91598-81dd-4af8-b2c8-4c6aeb1544b2","ios":"levelo://app?vid=5ac91598-81dd-4af8-b2c8-4c6aeb1544b2"},"vehicle_type_id":"4","last_reported":1745053762,"current_range_meters":8400,"station_id":"st_cvj6sg6p6f1abm77japg","pricing_plan_id":"cebpf4jnsgd1na2vs0mg"},{"bike_id":"3238ad72-d50b-4fc7-864f-7e93a486e527","system_id":"levelo_inurba_marseille","lat":43.22937,"lon":5.35354,"is_reserved":false,"is_disabled":false,"rental_uris":{"android":"levelo://app?vid=3238ad72-d50b-4fc7-864f-7e93a486e527","ios":"levelo://app?vid=3238ad72-d50b-4fc7-864f-7e93a486e527"},"vehicle_type_id":"4","last_reported":1745053762,"current_range_meters":8400,"station_id":"cpo3532slgdg3j2ikp40","pricing_plan_id":"cebpf4jnsgd1na2vs0mg"},{"bike_id":"4affa1cf-896e-4b35-92a9-9624470d1083","system_id":"levelo_inurba_marseille","lat":43.29259,"lon":5.40148,"is_reserved":false,"is_disabled":true,"rental_uris":{"android":"levelo://app?vid=4affa1cf-896e-4b35-92a9-9624470d1083","ios":"levelo://app?vid=4affa1cf-896e-4b35-92a9-9624470d1083"},"vehicle_type_id":"4","last_reported":1745053762,"current_range_meters":8400,"station_id":"ce4bh312rcd13ifvqdk0","pricing_plan_id":"cebpf4jnsgd1na2vs0mg"},{"bike_id":"e9660969-ae87-4525-b21b-9f0fae7200e9","system_id":"levelo_inurba_marseille","lat":43.29071,"lon":5.37169,"is_reserved":false,"is_disabled":false,"rental_uris":{"android":"levelo://app?vid=e9660969-ae87-4525-b21b-9f0fae7200e9","ios":"levelo://app?vid=e9660969-ae87-4525-b21b-9f0fae7200e9"},"vehicle_type_id":"4","last_reported":1745053762,"current_range_meters":8800,"station_id":"ce4bh5p2rcd13ifvqe4g","pricing_plan_id":"cebpf4jnsgd1na2vs0mg"},{"bike_id":"4ec90c37-a8c1-41c0-802a-8dbd0a9e0c2b","system_id":"levelo_inurba_marseille","lat":43.29233,"lon":5.36072,"is_reserved":false,"is_disabled":false,"rental_uris":{"android":"levelo://app?vid=4ec90c37-a8c1-41c0-802a-8dbd0a9e0c2b","ios":"levelo://app?vid=4ec90c37-a8c1-41c0-802a-8dbd0a9e0c2b"},"vehicle_type_id":"4","last_reported":1745053762,"current_range_meters":8800,"station_id":"ce4bhbh2rcd13ifvqeqg","pricing_plan_id":"cebpf4jnsgd1na2vs0mg"},{"bike_id":"3abcd8a1-bc4b-4780-96f7-c41259227a65","system_id":"levelo_inurba_marseille","lat":43.298825,"lon":5.384139,"is_reserved":false,"is_disabled":false,"rental_uris":{"android":"levelo://app?vid=3abcd8a1-bc4b-4780-96f7-c41259227a65","ios":"levelo://app?vid=3abcd8a1-bc4b-4780-96f7-c41259227a65"},"vehicle_type_id":"4","last_reported":1745053762,"current_range_meters":8800,"station_id":"","pricing_plan_id":"cebpf4jnsgd1na2vs0mg"},{"bike_id":"ac110555-ec26-4f4d-a8ad-407e9b9aebe3","system_id":"levelo_inurba_marseille","lat":43.29004,"lon":5.35616,"is_reserved":false,"is_disabled":false,"rental_uris":{"android":"levelo://app?vid=ac110555-ec26-4f4d-a8ad-407e9b9aebe3","ios":"levelo://app?vid=ac110555-ec26-4f4d-a8ad-407e9b9aebe3"},"vehicle_type_id":"4","last_reported":1745053762,"current_range_meters":8800,"station_id":"ce4bhb92rcd13ifvqen0","pricing_plan_id":"cebpf4jnsgd1na2vs0mg"},{"bike_id":"c42c97dc-851b-476d-ba23-67d0582febc0","system_id":"levelo_inurba_marseille","lat":43.30314,"lon":5.40439,"is_reserved":false,"is_disabled":true,"rental_uris":{"android":"levelo://app?vid=c42c97dc-851b-476d-ba23-67d0582febc0","ios":"levelo://app?vid=c42c97dc-851b-476d-ba23-67d0582febc0"},"vehicle_type_id":"4","last_reported":1745053762,"current_range_meters":8800,"station_id":"ce4bh012rcd13ifvqd10","pricing_plan_id":"cebpf4jnsgd1na2vs0mg"},{"bike_id":"7b45ff1d-3fbd-4137-8fe0-93117a8b966d","system_id":"levelo_inurba_marseille","lat":43.295703,"lon":5.375228,"is_reserved":false,"is_disabled":false,"rental_uris":{"android":"levelo://app?vid=7b45ff1d-3fbd-4137-8fe0-93117a8b966d","ios":"levelo://app?vid=7b45ff1d-3fbd-4137-8fe0-93117a8b966d"},"vehicle_type_id":"4","last_reported":1745053762,"current_range_meters":8800,"station_id":"ce4bgh92rcd13ifvqb50","pricing_plan_id":"cebpf4jnsgd1na2vs0mg"},{"bike_id":"934a8fc0-98f8-4aaf-a145-d485dee937c7","system_id":"levelo_inurba_marseille","lat":43.32357,"lon":5.36678,"is_reserved":false,"is_disabled":false,"rental_uris":{"android":"levelo://app?vid=934a8fc0-98f8-4aaf-a145-d485dee937c7","ios":"levelo://app?vid=934a8fc0-98f8-4aaf-a145-d485dee937c7"},"vehicle_type_id":"4","last_reported":1745053762,"current_range_meters":8800,"station_id":"","pricing_plan_id":"cebpf4jnsgd1na2vs0mg"},{"bike_id":"b8a785f7-fe23-4c1f-8a9b-62bbbd08b152","system_id":"levelo_inurba_marseille","lat":43.3092,"lon":5.40189,"is_reserved":false,"is_disabled":false,"rental_uris":{"android":"levelo://app?vid=b8a785f7-fe23-4c1f-8a9b-62bbbd08b152","ios":"levelo://app?vid=b8a785f7-fe23-4c1f-8a9b-62bbbd08b152"},"vehicle_type_id":"4","last_reported":1745053762,"current_range_meters":9200,"station_id":"ce4bgvp2rcd13ifvqct0","pricing_plan_id":"cebpf4jnsgd1na2vs0mg"},{"bike_id":"e8065a5a-7d89-4217-ba06-b2c12aee1519","system_id":"levelo_inurba_marseille","lat":43.284873,"lon":5.385291,"is_reserved":false,"is_disabled":false,"rental_uris":{"android":"levelo://app?vid=e8065a5a-7d89-4217-ba06-b2c12aee1519","ios":"levelo://app?vid=e8065a5a-7d89-4217-ba06-b2c12aee1519"},"vehicle_type_id":"4","last_reported":1745053762,"current_range_meters":9200,"station_id":"ce4bh8p2rcd13ifvqeb0","pricing_plan_id":"cebpf4jnsgd1na2vs0mg"},{"bike_id":"12b394c6-fd59-4eb1-9ee1-01ad07d9f662","system_id":"levelo_inurba_marseille","lat":43.30381,"lon":5.42485,"is_reserved":false,"is_disabled":false,"rental_uris":{"android":"levelo://app?vid=12b394c6-fd59-4eb1-9ee1-01ad07d9f662","ios":"levelo://app?vid=12b394c6-fd59-4eb1-9ee1-01ad07d9f662"},"vehicle_type_id":"4","last_reported":1745053762,"current_range_meters":9200,"station_id":"ce4bhoh2rcd13ifvqh6g","pricing_plan_id":"cebpf4jnsgd1na2vs0mg"},{"bike_id":"a0ddb0a5-f7f0-4281-aa27-9e82747cc573","system_id":"levelo_inurba_marseille","lat":43.33754,"lon":5.37491,"is_reserved":false,"is_disabled":false,"rental_uris":{"android":"levelo://app?vid=a0ddb0a5-f7f0-4281-aa27-9e82747cc573","ios":"levelo://app?vid=a0ddb0a5-f7f0-4281-aa27-9e82747cc573"},"vehicle_type_id":"4","last_reported":1745053762,"current_range_meters":9200,"station_id":"","pricing_plan_id":"cebpf4jnsgd1na2vs0mg"},{"bike_id":"da54d534-cdfc-4dbf-9f0d-6cfc2a37323d","system_id":"levelo_inurba_marseille","lat":43.23335,"lon":5.361545,"is_reserved":false,"is_disabled":false,"rental_uris":{"android":"levelo://app?vid=da54d534-cdfc-4dbf-9f0d-6cfc2a37323d","ios":"levelo://app?vid=da54d534-cdfc-4dbf-9f0d-6cfc2a37323d"},"vehicle_type_id":"4","last_reported":1745053762,"current_range_meters":9200,"station_id":"","pricing_plan_id":"cebpf4jnsgd1na2vs0mg"},{"bike_id":"b8445599-e057-4159-bf7c-189081a210a4","system_id":"levelo_inurba_marseille","lat":43.29007,"lon":5.35599,"is_reserved":false,"is_disabled":false,"rental_uris":{"android":"levelo://app?vid=b8445599-e057-4159-bf7c-189081a210a4","ios":"levelo://app?vid=b8445599-e057-4159-bf7c-189081a210a4"},"vehicle_type_id":"4","last_reported":1745053762,"current_range_meters":9600,"station_id":"ce4bhb92rcd13ifvqen0","pricing_plan_id":"cebpf4jnsgd1na2vs0mg"},{"bike_id":"272a699a-1338-4817-b43f-f3a545f75518","system_id":"levelo_inurba_marseille","lat":43.240683,"lon":5.377695,"is_reserved":false,"is_disabled":false,"rental_uris":{"android":"levelo://app?vid=272a699a-1338-4817-b43f-f3a545f75518","ios":"levelo://app?vid=272a699a-1338-4817-b43f-f3a545f75518"},"vehicle_type_id":"4","last_reported":1745053762,"current_range_meters":9600,"station_id":"ce4bhnp2rcd13ifvqgvg","pricing_plan_id":"cebpf4jnsgd1na2vs0mg"},{"bike_id":"9323ca76-27a5-43aa-8d57-6da7b761a0e8","system_id":"levelo_inurba_marseille","lat":43.24389,"lon":5.37049,"is_reserved":false,"is_disabled":false,"rental_uris":{"android":"levelo://app?vid=9323ca76-27a5-43aa-8d57-6da7b761a0e8","ios":"levelo://app?vid=9323ca76-27a5-43aa-8d57-6da7b761a0e8"},"vehicle_type_id":"4","last_reported":1745053762,"current_range_meters":9600,"station_id":"ce4bhhh2rcd13ifvqfk0","pricing_plan_id":"cebpf4jnsgd1na2vs0mg"},{"bike_id":"13313ee6-197d-40ff-bcfd-fb2eb90df5c2","system_id":"levelo_inurba_marseille","lat":43.29204,"lon":5.39325,"is_reserved":false,"is_disabled":false,"rental_uris":{"android":"levelo://app?vid=13313ee6-197d-40ff-bcfd-fb2eb90df5c2","ios":"levelo://app?vid=13313ee6-197d-40ff-bcfd-fb2eb90df5c2"},"vehicle_type_id":"4","last_reported":1745053762,"current_range_meters":10000,"station_id":"ce4bh192rcd13ifvqdd0","pricing_plan_id":"cebpf4jnsgd1na2vs0mg"},{"bike_id":"b0278fa3-bc38-4fae-88c8-334895c93f13","system_id":"levelo_inurba_marseille","lat":43.29272,"lon":5.36854,"is_reserved":false,"is_disabled":false,"rental_uris":{"android":"levelo://app?vid=b0278fa3-bc38-4fae-88c8-334895c93f13","ios":"levelo://app?vid=b0278fa3-bc38-4fae-88c8-334895c93f13"},"vehicle_type_id":"4","last_reported":1745053762,"current_range_meters":10000,"station_id":"ce4bhbp2rcd13ifvqesg","pricing_plan_id":"cebpf4jnsgd1na2vs0mg"},{"bike_id":"872c57f3-54b0-4432-8eca-cad3ae501e4d","system_id":"levelo_inurba_marseille","lat":43.250153,"lon":5.404246,"is_reserved":false,"is_disabled":false,"rental_uris":{"android":"levelo://app?vid=872c57f3-54b0-4432-8eca-cad3ae501e4d","ios":"levelo://app?vid=872c57f3-54b0-4432-8eca-cad3ae501e4d"},"vehicle_type_id":"4","last_reported":1745053762,"current_range_meters":9600,"station_id":"ce4bhmp2rcd13ifvqgog","pricing_plan_id":"cebpf4jnsgd1na2vs0mg"},{"bike_id":"ef871c8e-2013-4622-a683-0ab17a74d870","system_id":"levelo_inurba_marseille","lat":43.23206,"lon":5.35538,"is_reserved":false,"is_disabled":false,"rental_uris":{"android":"levelo://app?vid=ef871c8e-2013-4622-a683-0ab17a74d870","ios":"levelo://app?vid=ef871c8e-2013-4622-a683-0ab17a74d870"},"vehicle_type_id":"4","last_reported":1745053762,"current_range_meters":10000,"station_id":"ce4bhu92rcd13ifvqi70","pricing_plan_id":"cebpf4jnsgd1na2vs0mg"},{"bike_id":"2eab1b77-1fed-4a2c-a082-faad4704b27c","system_id":"levelo_inurba_marseille","lat":43.26201,"lon":5.37928,"is_reserved":false,"is_disabled":false,"rental_uris":{"android":"levelo://app?vid=2eab1b77-1fed-4a2c-a082-faad4704b27c","ios":"levelo://app?vid=2eab1b77-1fed-4a2c-a082-faad4704b27c"},"vehicle_type_id":"4","last_reported":1745053762,"current_range_meters":10000,"station_id":"ce4bhjp2rcd13ifvqg90","pricing_plan_id":"cebpf4jnsgd1na2vs0mg"},{"bike_id":"434bff1a-200c-40d9-aeec-aea1a5371c9c","system_id":"levelo_inurba_marseille","lat":43.303283,"lon":5.404743,"is_reserved":false,"is_disabled":false,"rental_uris":{"android":"levelo://app?vid=434bff1a-200c-40d9-aeec-aea1a5371c9c","ios":"levelo://app?vid=434bff1a-200c-40d9-aeec-aea1a5371c9c"},"vehicle_type_id":"4","last_reported":1745053762,"current_range_meters":10000,"station_id":"ce4bh012rcd13ifvqd10","pricing_plan_id":"cebpf4jnsgd1na2vs0mg"},{"bike_id":"d21cf708-d9ed-4a51-a87f-5ccc26cf5692","system_id":"levelo_inurba_marseille","lat":43.30149,"lon":5.39861,"is_reserved":false,"is_disabled":false,"rental_uris":{"android":"levelo://app?vid=d21cf708-d9ed-4a51-a87f-5ccc26cf5692","ios":"levelo://app?vid=d21cf708-d9ed-4a51-a87f-5ccc26cf5692"},"vehicle_type_id":"4","last_reported":1745053762,"current_range_meters":10000,"station_id":"ce4bh0h2rcd13ifvqd40","pricing_plan_id":"cebpf4jnsgd1na2vs0mg"},{"bike_id":"6cd98a68-dfc0-4aef-a25d-03e1f7826476","system_id":"levelo_inurba_marseille","lat":43.23671,"lon":5.3777,"is_reserved":false,"is_disabled":false,"rental_uris":{"android":"levelo://app?vid=6cd98a68-dfc0-4aef-a25d-03e1f7826476","ios":"levelo://app?vid=6cd98a68-dfc0-4aef-a25d-03e1f7826476"},"vehicle_type_id":"4","last_reported":1745053762,"current_range_meters":10800,"station_id":"","pricing_plan_id":"cebpf4jnsgd1na2vs0mg"},{"bike_id":"68342d9f-f0b6-47e7-b690-b27078e67a77","system_id":"levelo_inurba_marseille","lat":43.24167,"lon":5.36391,"is_reserved":false,"is_disabled":false,"rental_uris":{"android":"levelo://app?vid=68342d9f-f0b6-47e7-b690-b27078e67a77","ios":"levelo://app?vid=68342d9f-f0b6-47e7-b690-b27078e67a77"},"vehicle_type_id":"4","last_reported":1745053762,"current_range_meters":10800,"station_id":"cpo36qri1sfpv3e86is0","pricing_plan_id":"cebpf4jnsgd1na2vs0mg"},{"bike_id":"1eaca8f5-0017-418a-9bfc-52185bf67513","system_id":"levelo_inurba_marseille","lat":43.3373,"lon":5.39179,"is_reserved":false,"is_disabled":false,"rental_uris":{"android":"levelo://app?vid=1eaca8f5-0017-418a-9bfc-52185bf67513","ios":"levelo://app?vid=1eaca8f5-0017-418a-9bfc-52185bf67513"},"vehicle_type_id":"4","last_reported":1745053762,"current_range_meters":10800,"station_id":"ce4bhr92rcd13ifvqhsg","pricing_plan_id":"cebpf4jnsgd1na2vs0mg"},{"bike_id":"f976fbac-7285-4306-8d2d-49d92888205a","system_id":"levelo_inurba_marseille","lat":43.28853,"lon":5.35845,"is_reserved":false,"is_disabled":false,"rental_uris":{"android":"levelo://app?vid=f976fbac-7285-4306-8d2d-49d92888205a","ios":"levelo://app?vid=f976fbac-7285-4306-8d2d-49d92888205a"},"vehicle_type_id":"4","last_reported":1745053762,"current_range_meters":10800,"station_id":"ce4bhb12rcd13ifvqem0","pricing_plan_id":"cebpf4jnsgd1na2vs0mg"},{"bike_id":"de08492d-ffa5-4976-a30b-573408cffcfb","system_id":"levelo_inurba_marseille","lat":43.26218,"lon":5.37452,"is_reserved":false,"is_disabled":false,"rental_uris":{"android":"levelo://app?vid=de08492d-ffa5-4976-a30b-573408cffcfb","ios":"levelo://app?vid=de08492d-ffa5-4976-a30b-573408cffcfb"},"vehicle_type_id":"4","last_reported":1745053762,"current_range_meters":10800,"station_id":"ce4bhgp2rcd13ifvqfc0","pricing_plan_id":"cebpf4jnsgd1na2vs0mg"},{"bike_id":"2d89472f-bcbb-4a04-85a8-fd11ae98d3c0","system_id":"levelo_inurba_marseille","lat":43.26492,"lon":5.39542,"is_reserved":false,"is_disabled":false,"rental_uris":{"android":"levelo://app?vid=2d89472f-bcbb-4a04-85a8-fd11ae98d3c0","ios":"levelo://app?vid=2d89472f-bcbb-4a04-85a8-fd11ae98d3c0"},"vehicle_type_id":"4","last_reported":1745053762,"current_range_meters":10000,"station_id":"ce4bhi12rcd13ifvqfq0","pricing_plan_id":"cebpf4jnsgd1na2vs0mg"},{"bike_id":"110c4abb-ffb8-4fd0-ba35-0e68e73379e5","system_id":"levelo_inurba_marseille","lat":43.22931,"lon":5.35381,"is_reserved":false,"is_disabled":false,"rental_uris":{"android":"levelo://app?vid=110c4abb-ffb8-4fd0-ba35-0e68e73379e5","ios":"levelo://app?vid=110c4abb-ffb8-4fd0-ba35-0e68e73379e5"},"vehicle_type_id":"4","last_reported":1745053762,"current_range_meters":10800,"station_id":"cpo3532slgdg3j2ikp40","pricing_plan_id":"cebpf4jnsgd1na2vs0mg"},{"bike_id":"af5f38bd-4657-4f28-867c-7d90166046f3","system_id":"levelo_inurba_marseille","lat":43.291656,"lon":5.371513,"is_reserved":false,"is_disabled":false,"rental_uris":{"android":"levelo://app?vid=af5f38bd-4657-4f28-867c-7d90166046f3","ios":"levelo://app?vid=af5f38bd-4657-4f28-867c-7d90166046f3"},"vehicle_type_id":"4","last_reported":1745053762,"current_range_meters":11200,"station_id":"ce4bha92rcd13ifvqeh0","pricing_plan_id":"cebpf4jnsgd1na2vs0mg"},{"bike_id":"bd252512-7aef-49a5-b319-c1c41d41e1eb","system_id":"levelo_inurba_marseille","lat":43.27493,"lon":5.42466,"is_reserved":false,"is_disabled":false,"rental_uris":{"android":"levelo://app?vid=bd252512-7aef-49a5-b319-c1c41d41e1eb","ios":"levelo://app?vid=bd252512-7aef-49a5-b319-c1c41d41e1eb"},"vehicle_type_id":"4","last_reported":1745053762,"current_range_meters":11200,"station_id":"ce4bhn92rcd13ifvqgrg","pricing_plan_id":"cebpf4jnsgd1na2vs0mg"},{"bike_id":"5e9a26c6-0cf1-474f-bbd5-951cc357f555","system_id":"levelo_inurba_marseille","lat":43.29797,"lon":5.40399,"is_reserved":false,"is_disabled":false,"rental_uris":{"android":"levelo://app?vid=5e9a26c6-0cf1-474f-bbd5-951cc357f555","ios":"levelo://app?vid=5e9a26c6-0cf1-474f-bbd5-951cc357f555"},"vehicle_type_id":"4","last_reported":1745053762,"current_range_meters":11200,"station_id":"ce4bh112rcd13ifvqd90","pricing_plan_id":"cebpf4jnsgd1na2vs0mg"},{"bike_id":"7eb8853e-3665-40f5-8308-1299f0674652","system_id":"levelo_inurba_marseille","lat":43.30375,"lon":5.42489,"is_reserved":false,"is_disabled":false,"rental_uris":{"android":"levelo://app?vid=7eb8853e-3665-40f5-8308-1299f0674652","ios":"levelo://app?vid=7eb8853e-3665-40f5-8308-1299f0674652"},"vehicle_type_id":"4","last_reported":1745053762,"current_range_meters":11200,"station_id":"ce4bhoh2rcd13ifvqh6g","pricing_plan_id":"cebpf4jnsgd1na2vs0mg"},{"bike_id":"186380b9-3dab-457b-b648-71d123fa0368","system_id":"levelo_inurba_marseille","lat":43.25099,"lon":5.40338,"is_reserved":false,"is_disabled":true,"rental_uris":{"android":"levelo://app?vid=186380b9-3dab-457b-b648-71d123fa0368","ios":"levelo://app?vid=186380b9-3dab-457b-b648-71d123fa0368"},"vehicle_type_id":"4","last_reported":1745053762,"current_range_meters":11200,"station_id":"ce4bhlh2rcd13ifvqgig","pricing_plan_id":"cebpf4jnsgd1na2vs0mg"},{"bike_id":"f821afcf-84fc-4d91-8f82-9ac8ba1433a9","system_id":"levelo_inurba_marseille","lat":43.32081,"lon":5.41539,"is_reserved":false,"is_disabled":false,"rental_uris":{"android":"levelo://app?vid=f821afcf-84fc-4d91-8f82-9ac8ba1433a9","ios":"levelo://app?vid=f821afcf-84fc-4d91-8f82-9ac8ba1433a9"},"vehicle_type_id":"4","last_reported":1745053762,"current_range_meters":11600,"station_id":"ce4bhq92rcd13ifvqhkg","pricing_plan_id":"cebpf4jnsgd1na2vs0mg"},{"bike_id":"b6821e5f-2b42-4cde-8784-0fb0fe3fb2be","system_id":"levelo_inurba_marseille","lat":43.24658,"lon":5.381621,"is_reserved":false,"is_disabled":false,"rental_uris":{"android":"levelo://app?vid=b6821e5f-2b42-4cde-8784-0fb0fe3fb2be","ios":"levelo://app?vid=b6821e5f-2b42-4cde-8784-0fb0fe3fb2be"},"vehicle_type_id":"4","last_reported":1745053762,"current_range_meters":12000,"station_id":"ce4bhih2rcd13ifvqfr0","pricing_plan_id":"cebpf4jnsgd1na2vs0mg"},{"bike_id":"baebd87a-d533-41df-8d1c-1a8e62d3b4e8","system_id":"levelo_inurba_marseille","lat":43.29798,"lon":5.36521,"is_reserved":false,"is_disabled":false,"rental_uris":{"android":"levelo://app?vid=baebd87a-d533-41df-8d1c-1a8e62d3b4e8","ios":"levelo://app?vid=baebd87a-d533-41df-8d1c-1a8e62d3b4e8"},"vehicle_type_id":"4","last_reported":1745053762,"current_range_meters":12000,"station_id":"","pricing_plan_id":"cebpf4jnsgd1na2vs0mg"},{"bike_id":"ea34f1c8-9f24-4382-baed-cbcbe22badb4","system_id":"levelo_inurba_marseille","lat":43.29006,"lon":5.35604,"is_reserved":false,"is_disabled":false,"rental_uris":{"android":"levelo://app?vid=ea34f1c8-9f24-4382-baed-cbcbe22badb4","ios":"levelo://app?vid=ea34f1c8-9f24-4382-baed-cbcbe22badb4"},"vehicle_type_id":"4","last_reported":1745053762,"current_range_meters":12000,"station_id":"ce4bhb92rcd13ifvqen0","pricing_plan_id":"cebpf4jnsgd1na2vs0mg"},{"bike_id":"97e50bb0-9a70-481b-b370-e509345e710a","system_id":"levelo_inurba_marseille","lat":43.28019,"lon":5.36928,"is_reserved":false,"is_disabled":true,"rental_uris":{"android":"levelo://app?vid=97e50bb0-9a70-481b-b370-e509345e710a","ios":"levelo://app?vid=97e50bb0-9a70-481b-b370-e509345e710a"},"vehicle_type_id":"4","last_reported":1745053762,"current_range_meters":12400,"station_id":"ce4bha12rcd13ifvqef0","pricing_plan_id":"cebpf4jnsgd1na2vs0mg"},{"bike_id":"1c461271-d159-4a2a-a4b9-46db48365cde","system_id":"levelo_inurba_marseille","lat":43.24072,"lon":5.3776,"is_reserved":false,"is_disabled":false,"rental_uris":{"android":"levelo://app?vid=1c461271-d159-4a2a-a4b9-46db48365cde","ios":"levelo://app?vid=1c461271-d159-4a2a-a4b9-46db48365cde"},"vehicle_type_id":"4","last_reported":1745053762,"current_range_meters":12400,"station_id":"ce4bhnp2rcd13ifvqgvg","pricing_plan_id":"cebpf4jnsgd1na2vs0mg"},{"bike_id":"b7974e0c-2fc7-4c70-b248-039a4c339752","system_id":"levelo_inurba_marseille","lat":43.24168,"lon":5.39735,"is_reserved":false,"is_disabled":false,"rental_uris":{"android":"levelo://app?vid=b7974e0c-2fc7-4c70-b248-039a4c339752","ios":"levelo://app?vid=b7974e0c-2fc7-4c70-b248-039a4c339752"},"vehicle_type_id":"4","last_reported":1745053762,"current_range_meters":12400,"station_id":"ce4bhn12rcd13ifvqgpg","pricing_plan_id":"cebpf4jnsgd1na2vs0mg"},{"bike_id":"202598d9-a0a3-4c35-ab92-61ea079c05ec","system_id":"levelo_inurba_marseille","lat":43.28671,"lon":5.38667,"is_reserved":false,"is_disabled":false,"rental_uris":{"android":"levelo://app?vid=202598d9-a0a3-4c35-ab92-61ea079c05ec","ios":"levelo://app?vid=202598d9-a0a3-4c35-ab92-61ea079c05ec"},"vehicle_type_id":"4","last_reported":1745053762,"current_range_meters":12400,"station_id":"ce4bh492rcd13ifvqdug","pricing_plan_id":"cebpf4jnsgd1na2vs0mg"},{"bike_id":"9f3f0d84-8198-44ad-9cd7-fd02fe50c247","system_id":"levelo_inurba_marseille","lat":43.26952,"lon":5.38633,"is_reserved":false,"is_disabled":false,"rental_uris":{"android":"levelo://app?vid=9f3f0d84-8198-44ad-9cd7-fd02fe50c247","ios":"levelo://app?vid=9f3f0d84-8198-44ad-9cd7-fd02fe50c247"},"vehicle_type_id":"4","last_reported":1745053762,"current_range_meters":12400,"station_id":"ce4bhh92rcd13ifvqfh0","pricing_plan_id":"cebpf4jnsgd1na2vs0mg"},{"bike_id":"cb45350e-0e1f-42b0-85cb-ffd652a74a75","system_id":"levelo_inurba_marseille","lat":43.23203,"lon":5.35534,"is_reserved":false,"is_disabled":false,"rental_uris":{"android":"levelo://app?vid=cb45350e-0e1f-42b0-85cb-ffd652a74a75","ios":"levelo://app?vid=cb45350e-0e1f-42b0-85cb-ffd652a74a75"},"vehicle_type_id":"4","last_reported":1745053762,"current_range_meters":12800,"station_id":"ce4bhu92rcd13ifvqi70","pricing_plan_id":"cebpf4jnsgd1na2vs0mg"},{"bike_id":"2e01b58f-c7ff-4cdf-8b9e-68de9b92b9bd","system_id":"levelo_inurba_marseille","lat":43.22929,"lon":5.35371,"is_reserved":false,"is_disabled":false,"rental_uris":{"android":"levelo://app?vid=2e01b58f-c7ff-4cdf-8b9e-68de9b92b9bd","ios":"levelo://app?vid=2e01b58f-c7ff-4cdf-8b9e-68de9b92b9bd"},"vehicle_type_id":"4","last_reported":1745053762,"current_range_meters":12800,"station_id":"cpo3532slgdg3j2ikp40","pricing_plan_id":"cebpf4jnsgd1na2vs0mg"},{"bike_id":"b6c3499a-415c-4534-9db3-37550ecba7e2","system_id":"levelo_inurba_marseille","lat":43.24172,"lon":5.36395,"is_reserved":false,"is_disabled":false,"rental_uris":{"android":"levelo://app?vid=b6c3499a-415c-4534-9db3-37550ecba7e2","ios":"levelo://app?vid=b6c3499a-415c-4534-9db3-37550ecba7e2"},"vehicle_type_id":"4","last_reported":1745053762,"current_range_meters":12800,"station_id":"cpo36qri1sfpv3e86is0","pricing_plan_id":"cebpf4jnsgd1na2vs0mg"},{"bike_id":"372c5d58-0de3-4fac-bc02-7152f85cfe93","system_id":"levelo_inurba_marseille","lat":43.24663,"lon":5.38164,"is_reserved":false,"is_disabled":false,"rental_uris":{"android":"levelo://app?vid=372c5d58-0de3-4fac-bc02-7152f85cfe93","ios":"levelo://app?vid=372c5d58-0de3-4fac-bc02-7152f85cfe93"},"vehicle_type_id":"4","last_reported":1745053762,"current_range_meters":12800,"station_id":"ce4bhih2rcd13ifvqfr0","pricing_plan_id":"cebpf4jnsgd1na2vs0mg"},{"bike_id":"b7e232cf-c7d4-4ea8-b3b1-fadf77fbfb7b","system_id":"levelo_inurba_marseille","lat":43.29895,"lon":5.384927,"is_reserved":false,"is_disabled":false,"rental_uris":{"android":"levelo://app?vid=b7e232cf-c7d4-4ea8-b3b1-fadf77fbfb7b","ios":"levelo://app?vid=b7e232cf-c7d4-4ea8-b3b1-fadf77fbfb7b"},"vehicle_type_id":"4","last_reported":1745053762,"current_range_meters":12400,"station_id":"ce4bgj92rcd13ifvqbd0","pricing_plan_id":"cebpf4jnsgd1na2vs0mg"},{"bike_id":"7f44b622-fe66-4447-98b6-d7912a7c91a6","system_id":"levelo_inurba_marseille","lat":43.252338,"lon":5.394617,"is_reserved":false,"is_disabled":false,"rental_uris":{"android":"levelo://app?vid=7f44b622-fe66-4447-98b6-d7912a7c91a6","ios":"levelo://app?vid=7f44b622-fe66-4447-98b6-d7912a7c91a6"},"vehicle_type_id":"4","last_reported":1745053762,"current_range_meters":12800,"station_id":"ce4bhm12rcd13ifvqgkg","pricing_plan_id":"cebpf4jnsgd1na2vs0mg"},{"bike_id":"ba3e7cc8-32ee-4f0b-b421-a8a593b488c3","system_id":"levelo_inurba_marseille","lat":43.24389,"lon":5.3706,"is_reserved":false,"is_disabled":false,"rental_uris":{"android":"levelo://app?vid=ba3e7cc8-32ee-4f0b-b421-a8a593b488c3","ios":"levelo://app?vid=ba3e7cc8-32ee-4f0b-b421-a8a593b488c3"},"vehicle_type_id":"4","last_reported":1745053762,"current_range_meters":13600,"station_id":"ce4bhhh2rcd13ifvqfk0","pricing_plan_id":"cebpf4jnsgd1na2vs0mg"},{"bike_id":"7e63adb3-1f66-47a8-a90e-162edfc525ba","system_id":"levelo_inurba_marseille","lat":43.29276,"lon":5.36846,"is_reserved":false,"is_disabled":false,"rental_uris":{"android":"levelo://app?vid=7e63adb3-1f66-47a8-a90e-162edfc525ba","ios":"levelo://app?vid=7e63adb3-1f66-47a8-a90e-162edfc525ba"},"vehicle_type_id":"4","last_reported":1745053762,"current_range_meters":13600,"station_id":"ce4bhbp2rcd13ifvqesg","pricing_plan_id":"cebpf4jnsgd1na2vs0mg"},{"bike_id":"f57190d4-68f8-49e0-bfac-b32211d9a89a","system_id":"levelo_inurba_marseille","lat":43.25494,"lon":5.37646,"is_reserved":false,"is_disabled":false,"rental_uris":{"android":"levelo://app?vid=f57190d4-68f8-49e0-bfac-b32211d9a89a","ios":"levelo://app?vid=f57190d4-68f8-49e0-bfac-b32211d9a89a"},"vehicle_type_id":"4","last_reported":1745053762,"current_range_meters":14000,"station_id":"ce4bhh12rcd13ifvqff0","pricing_plan_id":"cebpf4jnsgd1na2vs0mg"},{"bike_id":"890a1f65-eea8-4ff5-8bfb-0b3a6577833e","system_id":"levelo_inurba_marseille","lat":43.29917,"lon":5.37487,"is_reserved":false,"is_disabled":false,"rental_uris":{"android":"levelo://app?vid=890a1f65-eea8-4ff5-8bfb-0b3a6577833e","ios":"levelo://app?vid=890a1f65-eea8-4ff5-8bfb-0b3a6577833e"},"vehicle_type_id":"4","last_reported":1745053762,"current_range_meters":14000,"station_id":"ce4bgjh2rcd13ifvqbg0","pricing_plan_id":"cebpf4jnsgd1na2vs0mg"},{"bike_id":"ffc23a55-3c3f-4179-bc94-84e1d4ad80d6","system_id":"levelo_inurba_marseille","lat":43.22932,"lon":5.35378,"is_reserved":false,"is_disabled":false,"rental_uris":{"android":"levelo://app?vid=ffc23a55-3c3f-4179-bc94-84e1d4ad80d6","ios":"levelo://app?vid=ffc23a55-3c3f-4179-bc94-84e1d4ad80d6"},"vehicle_type_id":"4","last_reported":1745053762,"current_range_meters":14000,"station_id":"cpo3532slgdg3j2ikp40","pricing_plan_id":"cebpf4jnsgd1na2vs0mg"},{"bike_id":"f6983195-2e42-4237-9c1b-a6682d40bdda","system_id":"levelo_inurba_marseille","lat":43.29412,"lon":5.38626,"is_reserved":false,"is_disabled":false,"rental_uris":{"android":"levelo://app?vid=f6983195-2e42-4237-9c1b-a6682d40bdda","ios":"levelo://app?vid=f6983195-2e42-4237-9c1b-a6682d40bdda"},"vehicle_type_id":"4","last_reported":1745053762,"current_range_meters":14400,"station_id":"ce4bh2h2rcd13ifvqdh0","pricing_plan_id":"cebpf4jnsgd1na2vs0mg"},{"bike_id":"b2f08c4c-65a0-4096-a667-21c7b39e913d","system_id":"levelo_inurba_marseille","lat":43.30643,"lon":5.40079,"is_reserved":false,"is_disabled":false,"rental_uris":{"android":"levelo://app?vid=b2f08c4c-65a0-4096-a667-21c7b39e913d","ios":"levelo://app?vid=b2f08c4c-65a0-4096-a667-21c7b39e913d"},"vehicle_type_id":"4","last_reported":1745053762,"current_range_meters":14400,"station_id":"ce4bh112rcd13ifvqda0","pricing_plan_id":"cebpf4jnsgd1na2vs0mg"},{"bike_id":"65e1488e-5480-4b90-bd26-ada33787465d","system_id":"levelo_inurba_marseille","lat":43.28298,"lon":5.38258,"is_reserved":false,"is_disabled":false,"rental_uris":{"android":"levelo://app?vid=65e1488e-5480-4b90-bd26-ada33787465d","ios":"levelo://app?vid=65e1488e-5480-4b90-bd26-ada33787465d"},"vehicle_type_id":"4","last_reported":1745053762,"current_range_meters":14400,"station_id":"ce4bh412rcd13ifvqdr0","pricing_plan_id":"cebpf4jnsgd1na2vs0mg"},{"bike_id":"6ce30d4d-eae8-43fc-b53a-8d11ad58739b","system_id":"levelo_inurba_marseille","lat":43.26063,"lon":5.39394,"is_reserved":false,"is_disabled":false,"rental_uris":{"android":"levelo://app?vid=6ce30d4d-eae8-43fc-b53a-8d11ad58739b","ios":"levelo://app?vid=6ce30d4d-eae8-43fc-b53a-8d11ad58739b"},"vehicle_type_id":"4","last_reported":1745053762,"current_range_meters":14800,"station_id":"ce4bhh92rcd13ifvqfj0","pricing_plan_id":"cebpf4jnsgd1na2vs0mg"},{"bike_id":"165c9427-8a52-4d6c-a8c7-65e604da6a4f","system_id":"levelo_inurba_marseille","lat":43.24804,"lon":5.37466,"is_reserved":false,"is_disabled":false,"rental_uris":{"android":"levelo://app?vid=165c9427-8a52-4d6c-a8c7-65e604da6a4f","ios":"levelo://app?vid=165c9427-8a52-4d6c-a8c7-65e604da6a4f"},"vehicle_type_id":"4","last_reported":1745053762,"current_range_meters":14800,"station_id":"ce4bhgh2rcd13ifvqfb0","pricing_plan_id":"cebpf4jnsgd1na2vs0mg"},{"bike_id":"24213b37-b766-4d9c-a174-f6bf34920497","system_id":"levelo_inurba_marseille","lat":43.28469,"lon":5.384178,"is_reserved":false,"is_disabled":false,"rental_uris":{"android":"levelo://app?vid=24213b37-b766-4d9c-a174-f6bf34920497","ios":"levelo://app?vid=24213b37-b766-4d9c-a174-f6bf34920497"},"vehicle_type_id":"4","last_reported":1745053762,"current_range_meters":14800,"station_id":"ce4bh512rcd13ifvqe3g","pricing_plan_id":"cebpf4jnsgd1na2vs0mg"},{"bike_id":"c4a70bbb-c397-4a26-baad-53e7241db17c","system_id":"levelo_inurba_marseille","lat":43.284736,"lon":5.384094,"is_reserved":false,"is_disabled":false,"rental_uris":{"android":"levelo://app?vid=c4a70bbb-c397-4a26-baad-53e7241db17c","ios":"levelo://app?vid=c4a70bbb-c397-4a26-baad-53e7241db17c"},"vehicle_type_id":"4","last_reported":1745053762,"current_range_meters":14800,"station_id":"ce4bh512rcd13ifvqe3g","pricing_plan_id":"cebpf4jnsgd1na2vs0mg"},{"bike_id":"e9d81045-e1ac-44d6-bc13-fa0862c81052","system_id":"levelo_inurba_marseille","lat":43.295719,"lon":5.375061,"is_reserved":false,"is_disabled":true,"rental_uris":{"android":"levelo://app?vid=e9d81045-e1ac-44d6-bc13-fa0862c81052","ios":"levelo://app?vid=e9d81045-e1ac-44d6-bc13-fa0862c81052"},"vehicle_type_id":"4","last_reported":1745053762,"current_range_meters":14800,"station_id":"","pricing_plan_id":"cebpf4jnsgd1na2vs0mg"},{"bike_id":"4e6892ef-dbe3-43e4-bc69-b2da5d802c90","system_id":"levelo_inurba_marseille","lat":43.27383,"lon":5.36218,"is_reserved":false,"is_disabled":true,"rental_uris":{"android":"levelo://app?vid=4e6892ef-dbe3-43e4-bc69-b2da5d802c90","ios":"levelo://app?vid=4e6892ef-dbe3-43e4-bc69-b2da5d802c90"},"vehicle_type_id":"4","last_reported":1745053762,"current_range_meters":15200,"station_id":"ce4bhbh2rcd13ifvqeo0","pricing_plan_id":"cebpf4jnsgd1na2vs0mg"},{"bike_id":"6affe129-897f-4d56-81b1-155cca0b618c","system_id":"levelo_inurba_marseille","lat":43.24159,"lon":5.39725,"is_reserved":false,"is_disabled":false,"rental_uris":{"android":"levelo://app?vid=6affe129-897f-4d56-81b1-155cca0b618c","ios":"levelo://app?vid=6affe129-897f-4d56-81b1-155cca0b618c"},"vehicle_type_id":"4","last_reported":1745053762,"current_range_meters":15200,"station_id":"ce4bhn12rcd13ifvqgpg","pricing_plan_id":"cebpf4jnsgd1na2vs0mg"},{"bike_id":"9f45b2bf-53d1-4e39-9a64-fb391bdbd395","system_id":"levelo_inurba_marseille","lat":43.3373,"lon":5.3917,"is_reserved":false,"is_disabled":false,"rental_uris":{"android":"levelo://app?vid=9f45b2bf-53d1-4e39-9a64-fb391bdbd395","ios":"levelo://app?vid=9f45b2bf-53d1-4e39-9a64-fb391bdbd395"},"vehicle_type_id":"4","last_reported":1745053762,"current_range_meters":15200,"station_id":"ce4bhr92rcd13ifvqhsg","pricing_plan_id":"cebpf4jnsgd1na2vs0mg"},{"bike_id":"67a0abc2-45b2-4e20-b320-51fa3b21831e","system_id":"levelo_inurba_marseille","lat":43.29257,"lon":5.37627,"is_reserved":false,"is_disabled":false,"rental_uris":{"android":"levelo://app?vid=67a0abc2-45b2-4e20-b320-51fa3b21831e","ios":"levelo://app?vid=67a0abc2-45b2-4e20-b320-51fa3b21831e"},"vehicle_type_id":"4","last_reported":1745053762,"current_range_meters":15200,"station_id":"ce4bgi12rcd13ifvqb80","pricing_plan_id":"cebpf4jnsgd1na2vs0mg"},{"bike_id":"d4c6d0c3-0202-41a5-a694-44290daeb0e7","system_id":"levelo_inurba_marseille","lat":43.29524,"lon":5.37503,"is_reserved":false,"is_disabled":false,"rental_uris":{"android":"levelo://app?vid=d4c6d0c3-0202-41a5-a694-44290daeb0e7","ios":"levelo://app?vid=d4c6d0c3-0202-41a5-a694-44290daeb0e7"},"vehicle_type_id":"4","last_reported":1745053762,"current_range_meters":15200,"station_id":"","pricing_plan_id":"cebpf4jnsgd1na2vs0mg"},{"bike_id":"1fad1949-da2d-4b93-9386-de1f3dc78d1f","system_id":"levelo_inurba_marseille","lat":43.305964,"lon":5.393518,"is_reserved":false,"is_disabled":true,"rental_uris":{"android":"levelo://app?vid=1fad1949-da2d-4b93-9386-de1f3dc78d1f","ios":"levelo://app?vid=1fad1949-da2d-4b93-9386-de1f3dc78d1f"},"vehicle_type_id":"4","last_reported":1745053762,"current_range_meters":16000,"station_id":"ce4bh0p2rcd13ifvqd80","pricing_plan_id":"cebpf4jnsgd1na2vs0mg"},{"bike_id":"13b31f8f-095e-4302-ac35-4cfd47f60cb0","system_id":"levelo_inurba_marseille","lat":43.29869,"lon":5.38904,"is_reserved":false,"is_disabled":true,"rental_uris":{"android":"levelo://app?vid=13b31f8f-095e-4302-ac35-4cfd47f60cb0","ios":"levelo://app?vid=13b31f8f-095e-4302-ac35-4cfd47f60cb0"},"vehicle_type_id":"4","last_reported":1745053762,"current_range_meters":16000,"station_id":"ce4bh392rcd13ifvqdl0","pricing_plan_id":"cebpf4jnsgd1na2vs0mg"},{"bike_id":"c00bd5aa-603b-48d4-b8ed-490d21cb9549","system_id":"levelo_inurba_marseille","lat":43.31078,"lon":5.38365,"is_reserved":false,"is_disabled":false,"rental_uris":{"android":"levelo://app?vid=c00bd5aa-603b-48d4-b8ed-490d21cb9549","ios":"levelo://app?vid=c00bd5aa-603b-48d4-b8ed-490d21cb9549"},"vehicle_type_id":"4","last_reported":1745053762,"current_range_meters":16400,"station_id":"ce4bgv92rcd13ifvqcr0","pricing_plan_id":"cebpf4jnsgd1na2vs0mg"},{"bike_id":"d05b7cc4-f88b-4d02-ae6c-c344f22c0e5c","system_id":"levelo_inurba_marseille","lat":43.29764,"lon":5.36531,"is_reserved":false,"is_disabled":false,"rental_uris":{"android":"levelo://app?vid=d05b7cc4-f88b-4d02-ae6c-c344f22c0e5c","ios":"levelo://app?vid=d05b7cc4-f88b-4d02-ae6c-c344f22c0e5c"},"vehicle_type_id":"4","last_reported":1745053762,"current_range_meters":16400,"station_id":"","pricing_plan_id":"cebpf4jnsgd1na2vs0mg"},{"bike_id":"0886c839-6192-440b-95c0-a0278bc273d2","system_id":"levelo_inurba_marseille","lat":43.30802,"lon":5.43514,"is_reserved":false,"is_disabled":false,"rental_uris":{"android":"levelo://app?vid=0886c839-6192-440b-95c0-a0278bc273d2","ios":"levelo://app?vid=0886c839-6192-440b-95c0-a0278bc273d2"},"vehicle_type_id":"4","last_reported":1745053762,"current_range_meters":16400,"station_id":"ce4bhph2rcd13ifvqheg","pricing_plan_id":"cebpf4jnsgd1na2vs0mg"},{"bike_id":"15572984-94dd-404c-b34b-0eba775da91a","system_id":"levelo_inurba_marseille","lat":43.25009,"lon":5.38906,"is_reserved":false,"is_disabled":false,"rental_uris":{"android":"levelo://app?vid=15572984-94dd-404c-b34b-0eba775da91a","ios":"levelo://app?vid=15572984-94dd-404c-b34b-0eba775da91a"},"vehicle_type_id":"4","last_reported":1745053762,"current_range_meters":16400,"station_id":"ce4bhgp2rcd13ifvqfd0","pricing_plan_id":"cebpf4jnsgd1na2vs0mg"},{"bike_id":"b2086bf5-1e6b-46df-a870-975630a04176","system_id":"levelo_inurba_marseille","lat":43.26787,"lon":5.39408,"is_reserved":false,"is_disabled":false,"rental_uris":{"android":"levelo://app?vid=b2086bf5-1e6b-46df-a870-975630a04176","ios":"levelo://app?vid=b2086bf5-1e6b-46df-a870-975630a04176"},"vehicle_type_id":"4","last_reported":1745053762,"current_range_meters":16000,"station_id":"ce4bhh12rcd13ifvqfg0","pricing_plan_id":"cebpf4jnsgd1na2vs0mg"},{"bike_id":"8b386a13-d7ce-4797-850b-d66b405de4c3","system_id":"levelo_inurba_marseille","lat":43.2961,"lon":5.3756,"is_reserved":false,"is_disabled":false,"rental_uris":{"android":"levelo://app?vid=8b386a13-d7ce-4797-850b-d66b405de4c3","ios":"levelo://app?vid=8b386a13-d7ce-4797-850b-d66b405de4c3"},"vehicle_type_id":"4","last_reported":1745053762,"current_range_meters":16400,"station_id":"ce4bgh92rcd13ifvqb50","pricing_plan_id":"cebpf4jnsgd1na2vs0mg"},{"bike_id":"cf9a0ab3-410b-40ca-8459-b5c92f8359c2","system_id":"levelo_inurba_marseille","lat":43.26783,"lon":5.3942,"is_reserved":false,"is_disabled":false,"rental_uris":{"android":"levelo://app?vid=cf9a0ab3-410b-40ca-8459-b5c92f8359c2","ios":"levelo://app?vid=cf9a0ab3-410b-40ca-8459-b5c92f8359c2"},"vehicle_type_id":"4","last_reported":1745053762,"current_range_meters":16000,"station_id":"ce4bhh12rcd13ifvqfg0","pricing_plan_id":"cebpf4jnsgd1na2vs0mg"},{"bike_id":"b075c115-a3f9-4f40-83ed-cbc1e8e5f84e","system_id":"levelo_inurba_marseille","lat":43.30541,"lon":5.36711,"is_reserved":false,"is_disabled":true,"rental_uris":{"android":"levelo://app?vid=b075c115-a3f9-4f40-83ed-cbc1e8e5f84e","ios":"levelo://app?vid=b075c115-a3f9-4f40-83ed-cbc1e8e5f84e"},"vehicle_type_id":"4","last_reported":1745053762,"current_range_meters":16400,"station_id":"ce4bgrp2rcd13ifvqc9g","pricing_plan_id":"cebpf4jnsgd1na2vs0mg"},{"bike_id":"1c46e1ef-ecc2-40e9-bb84-3560d46edbc0","system_id":"levelo_inurba_marseille","lat":43.22927,"lon":5.35371,"is_reserved":false,"is_disabled":false,"rental_uris":{"android":"levelo://app?vid=1c46e1ef-ecc2-40e9-bb84-3560d46edbc0","ios":"levelo://app?vid=1c46e1ef-ecc2-40e9-bb84-3560d46edbc0"},"vehicle_type_id":"4","last_reported":1745053762,"current_range_meters":16400,"station_id":"cpo3532slgdg3j2ikp40","pricing_plan_id":"cebpf4jnsgd1na2vs0mg"},{"bike_id":"18ebd15a-e029-411e-8b48-2cdee7e698ce","system_id":"levelo_inurba_marseille","lat":43.26058,"lon":5.39405,"is_reserved":false,"is_disabled":false,"rental_uris":{"android":"levelo://app?vid=18ebd15a-e029-411e-8b48-2cdee7e698ce","ios":"levelo://app?vid=18ebd15a-e029-411e-8b48-2cdee7e698ce"},"vehicle_type_id":"4","last_reported":1745053762,"current_range_meters":16400,"station_id":"ce4bhh92rcd13ifvqfj0","pricing_plan_id":"cebpf4jnsgd1na2vs0mg"},{"bike_id":"5ecf6a81-c45e-4e58-823e-2968df710b40","system_id":"levelo_inurba_marseille","lat":43.28663,"lon":5.38679,"is_reserved":false,"is_disabled":false,"rental_uris":{"android":"levelo://app?vid=5ecf6a81-c45e-4e58-823e-2968df710b40","ios":"levelo://app?vid=5ecf6a81-c45e-4e58-823e-2968df710b40"},"vehicle_type_id":"4","last_reported":1745053762,"current_range_meters":16400,"station_id":"ce4bh492rcd13ifvqdug","pricing_plan_id":"cebpf4jnsgd1na2vs0mg"},{"bike_id":"014e23a1-670e-46b0-b4ec-e0c72b60c1d9","system_id":"levelo_inurba_marseille","lat":43.248668,"lon":5.38166,"is_reserved":false,"is_disabled":false,"rental_uris":{"android":"levelo://app?vid=014e23a1-670e-46b0-b4ec-e0c72b60c1d9","ios":"levelo://app?vid=014e23a1-670e-46b0-b4ec-e0c72b60c1d9"},"vehicle_type_id":"4","last_reported":1745053762,"current_range_meters":16400,"station_id":"ce4bhih2rcd13ifvqfr0","pricing_plan_id":"cebpf4jnsgd1na2vs0mg"},{"bike_id":"0fabe441-18a7-4ca5-b3d6-02a723f7cf99","system_id":"levelo_inurba_marseille","lat":43.22938,"lon":5.35438,"is_reserved":false,"is_disabled":false,"rental_uris":{"android":"levelo://app?vid=0fabe441-18a7-4ca5-b3d6-02a723f7cf99","ios":"levelo://app?vid=0fabe441-18a7-4ca5-b3d6-02a723f7cf99"},"vehicle_type_id":"4","last_reported":1745053762,"current_range_meters":16400,"station_id":"cpo3532slgdg3j2ikp40","pricing_plan_id":"cebpf4jnsgd1na2vs0mg"},{"bike_id":"d0ce2705-f985-4fc2-ad89-d89697d38c70","system_id":"levelo_inurba_marseille","lat":43.29848,"lon":5.36288,"is_reserved":false,"is_disabled":false,"rental_uris":{"android":"levelo://app?vid=d0ce2705-f985-4fc2-ad89-d89697d38c70","ios":"levelo://app?vid=d0ce2705-f985-4fc2-ad89-d89697d38c70"},"vehicle_type_id":"4","last_reported":1745053762,"current_range_meters":16800,"station_id":"ce4bgpp2rcd13ifvqc3g","pricing_plan_id":"cebpf4jnsgd1na2vs0mg"},{"bike_id":"dcf4eedf-28f8-436f-8d82-5a5b342a3916","system_id":"levelo_inurba_marseille","lat":43.31709,"lon":5.37739,"is_reserved":false,"is_disabled":false,"rental_uris":{"android":"levelo://app?vid=dcf4eedf-28f8-436f-8d82-5a5b342a3916","ios":"levelo://app?vid=dcf4eedf-28f8-436f-8d82-5a5b342a3916"},"vehicle_type_id":"4","last_reported":1745053762,"current_range_meters":16800,"station_id":"ce4bgth2rcd13ifvqch0","pricing_plan_id":"cebpf4jnsgd1na2vs0mg"},{"bike_id":"bb4170fb-2aee-44c9-a8e2-041417bf6973","system_id":"levelo_inurba_marseille","lat":43.24071,"lon":5.37763,"is_reserved":false,"is_disabled":false,"rental_uris":{"android":"levelo://app?vid=bb4170fb-2aee-44c9-a8e2-041417bf6973","ios":"levelo://app?vid=bb4170fb-2aee-44c9-a8e2-041417bf6973"},"vehicle_type_id":"4","last_reported":1745053762,"current_range_meters":16800,"station_id":"ce4bhnp2rcd13ifvqgvg","pricing_plan_id":"cebpf4jnsgd1na2vs0mg"},{"bike_id":"86c5fdb1-3a1c-43c2-a4a3-10604e171396","system_id":"levelo_inurba_marseille","lat":43.26219,"lon":5.37471,"is_reserved":false,"is_disabled":false,"rental_uris":{"android":"levelo://app?vid=86c5fdb1-3a1c-43c2-a4a3-10604e171396","ios":"levelo://app?vid=86c5fdb1-3a1c-43c2-a4a3-10604e171396"},"vehicle_type_id":"4","last_reported":1745053762,"current_range_meters":16800,"station_id":"ce4bhgp2rcd13ifvqfc0","pricing_plan_id":"cebpf4jnsgd1na2vs0mg"},{"bike_id":"b5786137-1db4-4691-aee6-f856e9d8ca7f","system_id":"levelo_inurba_marseille","lat":43.28999,"lon":5.35607,"is_reserved":false,"is_disabled":false,"rental_uris":{"android":"levelo://app?vid=b5786137-1db4-4691-aee6-f856e9d8ca7f","ios":"levelo://app?vid=b5786137-1db4-4691-aee6-f856e9d8ca7f"},"vehicle_type_id":"4","last_reported":1745053762,"current_range_meters":16800,"station_id":"ce4bhb92rcd13ifvqen0","pricing_plan_id":"cebpf4jnsgd1na2vs0mg"},{"bike_id":"00879c1d-a962-4133-ba5d-8de0f524e6f5","system_id":"levelo_inurba_marseille","lat":43.27497,"lon":5.4248,"is_reserved":false,"is_disabled":false,"rental_uris":{"android":"levelo://app?vid=00879c1d-a962-4133-ba5d-8de0f524e6f5","ios":"levelo://app?vid=00879c1d-a962-4133-ba5d-8de0f524e6f5"},"vehicle_type_id":"4","last_reported":1745053762,"current_range_meters":16800,"station_id":"ce4bhn92rcd13ifvqgrg","pricing_plan_id":"cebpf4jnsgd1na2vs0mg"},{"bike_id":"355bb8a6-c1a5-4665-813f-85a78c530f80","system_id":"levelo_inurba_marseille","lat":43.24394,"lon":5.37054,"is_reserved":false,"is_disabled":false,"rental_uris":{"android":"levelo://app?vid=355bb8a6-c1a5-4665-813f-85a78c530f80","ios":"levelo://app?vid=355bb8a6-c1a5-4665-813f-85a78c530f80"},"vehicle_type_id":"4","last_reported":1745053762,"current_range_meters":16800,"station_id":"ce4bhhh2rcd13ifvqfk0","pricing_plan_id":"cebpf4jnsgd1na2vs0mg"},{"bike_id":"d160fafc-57c6-42ad-9f49-5dcc1c10a362","system_id":"levelo_inurba_marseille","lat":43.29301,"lon":5.37433,"is_reserved":false,"is_disabled":false,"rental_uris":{"android":"levelo://app?vid=d160fafc-57c6-42ad-9f49-5dcc1c10a362","ios":"levelo://app?vid=d160fafc-57c6-42ad-9f49-5dcc1c10a362"},"vehicle_type_id":"4","last_reported":1745053762,"current_range_meters":16800,"station_id":"ce4bgi12rcd13ifvqb70","pricing_plan_id":"cebpf4jnsgd1na2vs0mg"},{"bike_id":"125c29d3-476d-4afe-a212-217c8bd29a86","system_id":"levelo_inurba_marseille","lat":43.28617,"lon":5.35103,"is_reserved":false,"is_disabled":false,"rental_uris":{"android":"levelo://app?vid=125c29d3-476d-4afe-a212-217c8bd29a86","ios":"levelo://app?vid=125c29d3-476d-4afe-a212-217c8bd29a86"},"vehicle_type_id":"4","last_reported":1745053762,"current_range_meters":17200,"station_id":"ce4bhch2rcd13ifvqeug","pricing_plan_id":"cebpf4jnsgd1na2vs0mg"},{"bike_id":"6d111923-1faf-467f-bd85-9c3c5b29ead6","system_id":"levelo_inurba_marseille","lat":43.31115,"lon":5.37774,"is_reserved":false,"is_disabled":false,"rental_uris":{"android":"levelo://app?vid=6d111923-1faf-467f-bd85-9c3c5b29ead6","ios":"levelo://app?vid=6d111923-1faf-467f-bd85-9c3c5b29ead6"},"vehicle_type_id":"4","last_reported":1745053762,"current_range_meters":17200,"station_id":"ce4bgt92rcd13ifvqcg0","pricing_plan_id":"cebpf4jnsgd1na2vs0mg"},{"bike_id":"d5f4af8d-28b9-42ac-8777-95067bd5b7a3","system_id":"levelo_inurba_marseille","lat":43.30425,"lon":5.3975,"is_reserved":false,"is_disabled":false,"rental_uris":{"android":"levelo://app?vid=d5f4af8d-28b9-42ac-8777-95067bd5b7a3","ios":"levelo://app?vid=d5f4af8d-28b9-42ac-8777-95067bd5b7a3"},"vehicle_type_id":"4","last_reported":1745053762,"current_range_meters":17600,"station_id":"ce4bh092rcd13ifvqd20","pricing_plan_id":"cebpf4jnsgd1na2vs0mg"},{"bike_id":"ee30264d-4cfd-485a-b9ec-eb7399b1f6ef","system_id":"levelo_inurba_marseille","lat":43.29309,"lon":5.37183,"is_reserved":false,"is_disabled":false,"rental_uris":{"android":"levelo://app?vid=ee30264d-4cfd-485a-b9ec-eb7399b1f6ef","ios":"levelo://app?vid=ee30264d-4cfd-485a-b9ec-eb7399b1f6ef"},"vehicle_type_id":"4","last_reported":1745053762,"current_range_meters":17600,"station_id":"ce4bgh92rcd13ifvqb40","pricing_plan_id":"cebpf4jnsgd1na2vs0mg"},{"bike_id":"e46233d8-86b5-4b6c-a79f-094405695e54","system_id":"levelo_inurba_marseille","lat":43.24805,"lon":5.37478,"is_reserved":false,"is_disabled":false,"rental_uris":{"android":"levelo://app?vid=e46233d8-86b5-4b6c-a79f-094405695e54","ios":"levelo://app?vid=e46233d8-86b5-4b6c-a79f-094405695e54"},"vehicle_type_id":"4","last_reported":1745053762,"current_range_meters":17600,"station_id":"ce4bhgh2rcd13ifvqfb0","pricing_plan_id":"cebpf4jnsgd1na2vs0mg"},{"bike_id":"6f523da1-5f60-475c-93df-7a5b709bcac9","system_id":"levelo_inurba_marseille","lat":43.23197,"lon":5.35553,"is_reserved":false,"is_disabled":false,"rental_uris":{"android":"levelo://app?vid=6f523da1-5f60-475c-93df-7a5b709bcac9","ios":"levelo://app?vid=6f523da1-5f60-475c-93df-7a5b709bcac9"},"vehicle_type_id":"4","last_reported":1745053762,"current_range_meters":17600,"station_id":"ce4bhu92rcd13ifvqi70","pricing_plan_id":"cebpf4jnsgd1na2vs0mg"},{"bike_id":"1c453918-d185-48b4-b5c5-bff3b7701b7d","system_id":"levelo_inurba_marseille","lat":43.26198,"lon":5.37934,"is_reserved":false,"is_disabled":false,"rental_uris":{"android":"levelo://app?vid=1c453918-d185-48b4-b5c5-bff3b7701b7d","ios":"levelo://app?vid=1c453918-d185-48b4-b5c5-bff3b7701b7d"},"vehicle_type_id":"4","last_reported":1745053762,"current_range_meters":17600,"station_id":"ce4bhjp2rcd13ifvqg90","pricing_plan_id":"cebpf4jnsgd1na2vs0mg"},{"bike_id":"603defdc-494d-4529-9153-253c69971f33","system_id":"levelo_inurba_marseille","lat":43.24067,"lon":5.37747,"is_reserved":false,"is_disabled":false,"rental_uris":{"android":"levelo://app?vid=603defdc-494d-4529-9153-253c69971f33","ios":"levelo://app?vid=603defdc-494d-4529-9153-253c69971f33"},"vehicle_type_id":"4","last_reported":1745053762,"current_range_meters":17600,"station_id":"ce4bhnp2rcd13ifvqgvg","pricing_plan_id":"cebpf4jnsgd1na2vs0mg"},{"bike_id":"8aa275f7-4b08-4906-b329-a11c70f0bb61","system_id":"levelo_inurba_marseille","lat":43.29846,"lon":5.36285,"is_reserved":false,"is_disabled":false,"rental_uris":{"android":"levelo://app?vid=8aa275f7-4b08-4906-b329-a11c70f0bb61","ios":"levelo://app?vid=8aa275f7-4b08-4906-b329-a11c70f0bb61"},"vehicle_type_id":"4","last_reported":1745053762,"current_range_meters":17600,"station_id":"ce4bgpp2rcd13ifvqc3g","pricing_plan_id":"cebpf4jnsgd1na2vs0mg"},{"bike_id":"27315282-ebe6-49f4-85f7-5aab5674f355","system_id":"levelo_inurba_marseille","lat":43.29222,"lon":5.3606,"is_reserved":false,"is_disabled":false,"rental_uris":{"android":"levelo://app?vid=27315282-ebe6-49f4-85f7-5aab5674f355","ios":"levelo://app?vid=27315282-ebe6-49f4-85f7-5aab5674f355"},"vehicle_type_id":"4","last_reported":1745053762,"current_range_meters":18000,"station_id":"ce4bhbh2rcd13ifvqeqg","pricing_plan_id":"cebpf4jnsgd1na2vs0mg"},{"bike_id":"a8a5d61c-36b6-466e-b35e-420a6e8765de","system_id":"levelo_inurba_marseille","lat":43.30929,"lon":5.40142,"is_reserved":false,"is_disabled":false,"rental_uris":{"android":"levelo://app?vid=a8a5d61c-36b6-466e-b35e-420a6e8765de","ios":"levelo://app?vid=a8a5d61c-36b6-466e-b35e-420a6e8765de"},"vehicle_type_id":"4","last_reported":1745053762,"current_range_meters":18000,"station_id":"ce4bgvp2rcd13ifvqct0","pricing_plan_id":"cebpf4jnsgd1na2vs0mg"},{"bike_id":"3793d003-f994-43cd-89fb-abf2c2913fb9","system_id":"levelo_inurba_marseille","lat":43.33599,"lon":5.40978,"is_reserved":false,"is_disabled":false,"rental_uris":{"android":"levelo://app?vid=3793d003-f994-43cd-89fb-abf2c2913fb9","ios":"levelo://app?vid=3793d003-f994-43cd-89fb-abf2c2913fb9"},"vehicle_type_id":"4","last_reported":1745053762,"current_range_meters":17600,"station_id":"ce4bhqh2rcd13ifvqhmg","pricing_plan_id":"cebpf4jnsgd1na2vs0mg"},{"bike_id":"1862e19c-bd64-4aff-b9f1-0272dbf85fa5","system_id":"levelo_inurba_marseille","lat":43.22928,"lon":5.35375,"is_reserved":false,"is_disabled":false,"rental_uris":{"android":"levelo://app?vid=1862e19c-bd64-4aff-b9f1-0272dbf85fa5","ios":"levelo://app?vid=1862e19c-bd64-4aff-b9f1-0272dbf85fa5"},"vehicle_type_id":"4","last_reported":1745053762,"current_range_meters":18000,"station_id":"cpo3532slgdg3j2ikp40","pricing_plan_id":"cebpf4jnsgd1na2vs0mg"},{"bike_id":"06e2bd15-f5fe-4f0c-bc67-f62badb2019b","system_id":"levelo_inurba_marseille","lat":43.25136,"lon":5.40303,"is_reserved":false,"is_disabled":false,"rental_uris":{"android":"levelo://app?vid=06e2bd15-f5fe-4f0c-bc67-f62badb2019b","ios":"levelo://app?vid=06e2bd15-f5fe-4f0c-bc67-f62badb2019b"},"vehicle_type_id":"4","last_reported":1745053762,"current_range_meters":18000,"station_id":"ce4bhlh2rcd13ifvqgig","pricing_plan_id":"cebpf4jnsgd1na2vs0mg"},{"bike_id":"9c8661f2-c0f1-45c5-9285-316737025b54","system_id":"levelo_inurba_marseille","lat":43.2991,"lon":5.37469,"is_reserved":false,"is_disabled":false,"rental_uris":{"android":"levelo://app?vid=9c8661f2-c0f1-45c5-9285-316737025b54","ios":"levelo://app?vid=9c8661f2-c0f1-45c5-9285-316737025b54"},"vehicle_type_id":"4","last_reported":1745053762,"current_range_meters":18000,"station_id":"ce4bgjh2rcd13ifvqbg0","pricing_plan_id":"cebpf4jnsgd1na2vs0mg"},{"bike_id":"b71bb904-421e-4c4e-b38c-fa08e6c93681","system_id":"levelo_inurba_marseille","lat":43.30924,"lon":5.40165,"is_reserved":false,"is_disabled":false,"rental_uris":{"android":"levelo://app?vid=b71bb904-421e-4c4e-b38c-fa08e6c93681","ios":"levelo://app?vid=b71bb904-421e-4c4e-b38c-fa08e6c93681"},"vehicle_type_id":"4","last_reported":1745053762,"current_range_meters":18800,"station_id":"ce4bgvp2rcd13ifvqct0","pricing_plan_id":"cebpf4jnsgd1na2vs0mg"},{"bike_id":"bc13e988-5248-4aa1-83de-ba0e22e6793d","system_id":"levelo_inurba_marseille","lat":43.27502,"lon":5.42496,"is_reserved":false,"is_disabled":false,"rental_uris":{"android":"levelo://app?vid=bc13e988-5248-4aa1-83de-ba0e22e6793d","ios":"levelo://app?vid=bc13e988-5248-4aa1-83de-ba0e22e6793d"},"vehicle_type_id":"4","last_reported":1745053762,"current_range_meters":18800,"station_id":"ce4bhn92rcd13ifvqgrg","pricing_plan_id":"cebpf4jnsgd1na2vs0mg"},{"bike_id":"d9fd32d7-3cda-4c2f-8802-a58eaf159ea1","system_id":"levelo_inurba_marseille","lat":43.26557,"lon":5.373,"is_reserved":false,"is_disabled":false,"rental_uris":{"android":"levelo://app?vid=d9fd32d7-3cda-4c2f-8802-a58eaf159ea1","ios":"levelo://app?vid=d9fd32d7-3cda-4c2f-8802-a58eaf159ea1"},"vehicle_type_id":"4","last_reported":1745053762,"current_range_meters":18800,"station_id":"ce4bhg12rcd13ifvqf70","pricing_plan_id":"cebpf4jnsgd1na2vs0mg"},{"bike_id":"8a8396f0-eca4-4cae-a65d-6fee75943803","system_id":"levelo_inurba_marseille","lat":43.28716,"lon":5.40003,"is_reserved":false,"is_disabled":false,"rental_uris":{"android":"levelo://app?vid=8a8396f0-eca4-4cae-a65d-6fee75943803","ios":"levelo://app?vid=8a8396f0-eca4-4cae-a65d-6fee75943803"},"vehicle_type_id":"4","last_reported":1745053762,"current_range_meters":18800,"station_id":"ce4bho92rcd13ifvqh3g","pricing_plan_id":"cebpf4jnsgd1na2vs0mg"},{"bike_id":"d35d0f85-f00c-4a65-b550-2fb004a0ef99","system_id":"levelo_inurba_marseille","lat":43.23959,"lon":5.36639,"is_reserved":false,"is_disabled":false,"rental_uris":{"android":"levelo://app?vid=d35d0f85-f00c-4a65-b550-2fb004a0ef99","ios":"levelo://app?vid=d35d0f85-f00c-4a65-b550-2fb004a0ef99"},"vehicle_type_id":"4","last_reported":1745053762,"current_range_meters":18800,"station_id":"ce4bhi12rcd13ifvqfp0","pricing_plan_id":"cebpf4jnsgd1na2vs0mg"},{"bike_id":"bb89e80b-d4ed-4ba1-9ea8-de0a8b8d90df","system_id":"levelo_inurba_marseille","lat":43.31331,"lon":5.39721,"is_reserved":false,"is_disabled":false,"rental_uris":{"android":"levelo://app?vid=bb89e80b-d4ed-4ba1-9ea8-de0a8b8d90df","ios":"levelo://app?vid=bb89e80b-d4ed-4ba1-9ea8-de0a8b8d90df"},"vehicle_type_id":"4","last_reported":1745053762,"current_range_meters":18800,"station_id":"ce4bgvp2rcd13ifvqcu0","pricing_plan_id":"cebpf4jnsgd1na2vs0mg"},{"bike_id":"0e4085bd-c9da-496e-a000-f05e0b654e41","system_id":"levelo_inurba_marseille","lat":43.28699,"lon":5.39988,"is_reserved":false,"is_disabled":false,"rental_uris":{"android":"levelo://app?vid=0e4085bd-c9da-496e-a000-f05e0b654e41","ios":"levelo://app?vid=0e4085bd-c9da-496e-a000-f05e0b654e41"},"vehicle_type_id":"4","last_reported":1745053762,"current_range_meters":19200,"station_id":"ce4bho92rcd13ifvqh3g","pricing_plan_id":"cebpf4jnsgd1na2vs0mg"},{"bike_id":"fe0d906c-18a4-47fa-96e1-6c88b9eb5396","system_id":"levelo_inurba_marseille","lat":43.24129,"lon":5.39746,"is_reserved":false,"is_disabled":false,"rental_uris":{"android":"levelo://app?vid=fe0d906c-18a4-47fa-96e1-6c88b9eb5396","ios":"levelo://app?vid=fe0d906c-18a4-47fa-96e1-6c88b9eb5396"},"vehicle_type_id":"4","last_reported":1745053762,"current_range_meters":19200,"station_id":"","pricing_plan_id":"cebpf4jnsgd1na2vs0mg"},{"bike_id":"c11715c2-3668-45fd-ad79-b1865e25134d","system_id":"levelo_inurba_marseille","lat":43.28487,"lon":5.38412,"is_reserved":false,"is_disabled":false,"rental_uris":{"android":"levelo://app?vid=c11715c2-3668-45fd-ad79-b1865e25134d","ios":"levelo://app?vid=c11715c2-3668-45fd-ad79-b1865e25134d"},"vehicle_type_id":"4","last_reported":1745053762,"current_range_meters":19600,"station_id":"ce4bh512rcd13ifvqe3g","pricing_plan_id":"cebpf4jnsgd1na2vs0mg"},{"bike_id":"f8442109-c8ef-48a4-b568-31abb28ea87c","system_id":"levelo_inurba_marseille","lat":43.231912,"lon":5.399892,"is_reserved":false,"is_disabled":false,"rental_uris":{"android":"levelo://app?vid=f8442109-c8ef-48a4-b568-31abb28ea87c","ios":"levelo://app?vid=f8442109-c8ef-48a4-b568-31abb28ea87c"},"vehicle_type_id":"4","last_reported":1745053762,"current_range_meters":19600,"station_id":"ce4bhn12rcd13ifvqgqg","pricing_plan_id":"cebpf4jnsgd1na2vs0mg"},{"bike_id":"c61220d2-10db-4b02-8176-d41ad55eaf4a","system_id":"levelo_inurba_marseille","lat":43.265579,"lon":5.37323,"is_reserved":false,"is_disabled":false,"rental_uris":{"android":"levelo://app?vid=c61220d2-10db-4b02-8176-d41ad55eaf4a","ios":"levelo://app?vid=c61220d2-10db-4b02-8176-d41ad55eaf4a"},"vehicle_type_id":"4","last_reported":1745053762,"current_range_meters":19600,"station_id":"ce4bhg12rcd13ifvqf70","pricing_plan_id":"cebpf4jnsgd1na2vs0mg"},{"bike_id":"d5bf3e51-83b4-419b-b784-58ab0f4a9ad2","system_id":"levelo_inurba_marseille","lat":43.2294,"lon":5.35387,"is_reserved":false,"is_disabled":false,"rental_uris":{"android":"levelo://app?vid=d5bf3e51-83b4-419b-b784-58ab0f4a9ad2","ios":"levelo://app?vid=d5bf3e51-83b4-419b-b784-58ab0f4a9ad2"},"vehicle_type_id":"4","last_reported":1745053762,"current_range_meters":20000,"station_id":"cpo3532slgdg3j2ikp40","pricing_plan_id":"cebpf4jnsgd1na2vs0mg"},{"bike_id":"5b394266-9662-44fd-acf6-846c9b62b159","system_id":"levelo_inurba_marseille","lat":43.2931,"lon":5.3717,"is_reserved":false,"is_disabled":false,"rental_uris":{"android":"levelo://app?vid=5b394266-9662-44fd-acf6-846c9b62b159","ios":"levelo://app?vid=5b394266-9662-44fd-acf6-846c9b62b159"},"vehicle_type_id":"4","last_reported":1745053762,"current_range_meters":20400,"station_id":"ce4bgh92rcd13ifvqb40","pricing_plan_id":"cebpf4jnsgd1na2vs0mg"},{"bike_id":"9ab40f21-3028-4abd-bfd1-d5184d5bcea3","system_id":"levelo_inurba_marseille","lat":43.2733,"lon":5.39092,"is_reserved":false,"is_disabled":false,"rental_uris":{"android":"levelo://app?vid=9ab40f21-3028-4abd-bfd1-d5184d5bcea3","ios":"levelo://app?vid=9ab40f21-3028-4abd-bfd1-d5184d5bcea3"},"vehicle_type_id":"4","last_reported":1745053762,"current_range_meters":20400,"station_id":"ce4bhgp2rcd13ifvqfe0","pricing_plan_id":"cebpf4jnsgd1na2vs0mg"},{"bike_id":"4f008b4d-24b3-4277-8dcb-ba4509e4bc02","system_id":"levelo_inurba_marseille","lat":43.23191,"lon":5.3556,"is_reserved":false,"is_disabled":false,"rental_uris":{"android":"levelo://app?vid=4f008b4d-24b3-4277-8dcb-ba4509e4bc02","ios":"levelo://app?vid=4f008b4d-24b3-4277-8dcb-ba4509e4bc02"},"vehicle_type_id":"4","last_reported":1745053762,"current_range_meters":20400,"station_id":"ce4bhu92rcd13ifvqi70","pricing_plan_id":"cebpf4jnsgd1na2vs0mg"},{"bike_id":"e9234bc0-acc6-4970-8a28-8fc1426688cc","system_id":"levelo_inurba_marseille","lat":43.29567,"lon":5.37529,"is_reserved":false,"is_disabled":false,"rental_uris":{"android":"levelo://app?vid=e9234bc0-acc6-4970-8a28-8fc1426688cc","ios":"levelo://app?vid=e9234bc0-acc6-4970-8a28-8fc1426688cc"},"vehicle_type_id":"4","last_reported":1745053762,"current_range_meters":20400,"station_id":"ce4bgh92rcd13ifvqb50","pricing_plan_id":"cebpf4jnsgd1na2vs0mg"},{"bike_id":"f7027e6a-48d2-4cae-b50c-97b01f670552","system_id":"levelo_inurba_marseille","lat":43.23968,"lon":5.36643,"is_reserved":false,"is_disabled":false,"rental_uris":{"android":"levelo://app?vid=f7027e6a-48d2-4cae-b50c-97b01f670552","ios":"levelo://app?vid=f7027e6a-48d2-4cae-b50c-97b01f670552"},"vehicle_type_id":"4","last_reported":1745053762,"current_range_meters":20400,"station_id":"ce4bhi12rcd13ifvqfp0","pricing_plan_id":"cebpf4jnsgd1na2vs0mg"},{"bike_id":"05774917-7520-448c-b424-f054edcb4ebf","system_id":"levelo_inurba_marseille","lat":43.32067,"lon":5.41573,"is_reserved":false,"is_disabled":false,"rental_uris":{"android":"levelo://app?vid=05774917-7520-448c-b424-f054edcb4ebf","ios":"levelo://app?vid=05774917-7520-448c-b424-f054edcb4ebf"},"vehicle_type_id":"4","last_reported":1745053762,"current_range_meters":20400,"station_id":"ce4bhq92rcd13ifvqhkg","pricing_plan_id":"cebpf4jnsgd1na2vs0mg"},{"bike_id":"02fb0089-f79a-404d-b6a6-d0c634d8a0e8","system_id":"levelo_inurba_marseille","lat":43.27373,"lon":5.36255,"is_reserved":false,"is_disabled":false,"rental_uris":{"android":"levelo://app?vid=02fb0089-f79a-404d-b6a6-d0c634d8a0e8","ios":"levelo://app?vid=02fb0089-f79a-404d-b6a6-d0c634d8a0e8"},"vehicle_type_id":"4","last_reported":1745053762,"current_range_meters":20400,"station_id":"ce4bhbh2rcd13ifvqeo0","pricing_plan_id":"cebpf4jnsgd1na2vs0mg"},{"bike_id":"d53e964c-f934-484c-a259-3e8f23cdd819","system_id":"levelo_inurba_marseille","lat":43.33732,"lon":5.39155,"is_reserved":false,"is_disabled":false,"rental_uris":{"android":"levelo://app?vid=d53e964c-f934-484c-a259-3e8f23cdd819","ios":"levelo://app?vid=d53e964c-f934-484c-a259-3e8f23cdd819"},"vehicle_type_id":"4","last_reported":1745053762,"current_range_meters":20800,"station_id":"ce4bhr92rcd13ifvqhsg","pricing_plan_id":"cebpf4jnsgd1na2vs0mg"},{"bike_id":"b8808bd5-b66c-42b1-8122-616501d1d082","system_id":"levelo_inurba_marseille","lat":43.21757,"lon":5.34608,"is_reserved":false,"is_disabled":false,"rental_uris":{"android":"levelo://app?vid=b8808bd5-b66c-42b1-8122-616501d1d082","ios":"levelo://app?vid=b8808bd5-b66c-42b1-8122-616501d1d082"},"vehicle_type_id":"4","last_reported":1745053762,"current_range_meters":20800,"station_id":"st_cvj6r9ubvosntc0bgbag","pricing_plan_id":"cebpf4jnsgd1na2vs0mg"},{"bike_id":"0b4fa1e1-3d1f-4603-818b-24c93c5f2397","system_id":"levelo_inurba_marseille","lat":43.30159,"lon":5.38094,"is_reserved":false,"is_disabled":true,"rental_uris":{"android":"levelo://app?vid=0b4fa1e1-3d1f-4603-818b-24c93c5f2397","ios":"levelo://app?vid=0b4fa1e1-3d1f-4603-818b-24c93c5f2397"},"vehicle_type_id":"4","last_reported":1745053762,"current_range_meters":21600,"station_id":"ce4bgjp2rcd13ifvqbh0","pricing_plan_id":"cebpf4jnsgd1na2vs0mg"},{"bike_id":"b180b875-e8a8-4584-8585-c8e219718109","system_id":"levelo_inurba_marseille","lat":43.29199,"lon":5.35819,"is_reserved":false,"is_disabled":false,"rental_uris":{"android":"levelo://app?vid=b180b875-e8a8-4584-8585-c8e219718109","ios":"levelo://app?vid=b180b875-e8a8-4584-8585-c8e219718109"},"vehicle_type_id":"4","last_reported":1745053762,"current_range_meters":20000,"station_id":"ce4bhb12rcd13ifvqel0","pricing_plan_id":"cebpf4jnsgd1na2vs0mg"},{"bike_id":"210d3669-e710-4cfb-bac4-2059f4fa7eea","system_id":"levelo_inurba_marseille","lat":43.31341,"lon":5.3969,"is_reserved":false,"is_disabled":false,"rental_uris":{"android":"levelo://app?vid=210d3669-e710-4cfb-bac4-2059f4fa7eea","ios":"levelo://app?vid=210d3669-e710-4cfb-bac4-2059f4fa7eea"},"vehicle_type_id":"4","last_reported":1745053762,"current_range_meters":21600,"station_id":"ce4bh2h2rcd13ifvqdh0","pricing_plan_id":"cebpf4jnsgd1na2vs0mg"},{"bike_id":"236cb696-5184-454f-9ecf-5af695d07132","system_id":"levelo_inurba_marseille","lat":43.30587,"lon":5.37234,"is_reserved":false,"is_disabled":false,"rental_uris":{"android":"levelo://app?vid=236cb696-5184-454f-9ecf-5af695d07132","ios":"levelo://app?vid=236cb696-5184-454f-9ecf-5af695d07132"},"vehicle_type_id":"4","last_reported":1745053762,"current_range_meters":21600,"station_id":"ce4bgqh2rcd13ifvqc4g","pricing_plan_id":"cebpf4jnsgd1na2vs0mg"},{"bike_id":"5575314d-30ac-49cc-87d1-2d17b26732b8","system_id":"levelo_inurba_marseille","lat":43.264977,"lon":5.395355,"is_reserved":false,"is_disabled":false,"rental_uris":{"android":"levelo://app?vid=5575314d-30ac-49cc-87d1-2d17b26732b8","ios":"levelo://app?vid=5575314d-30ac-49cc-87d1-2d17b26732b8"},"vehicle_type_id":"4","last_reported":1745053762,"current_range_meters":22000,"station_id":"ce4bhhp2rcd13ifvqfm0","pricing_plan_id":"cebpf4jnsgd1na2vs0mg"},{"bike_id":"9cd66f20-0974-44a3-a00c-3af08e74ebf2","system_id":"levelo_inurba_marseille","lat":43.26021,"lon":5.41734,"is_reserved":false,"is_disabled":false,"rental_uris":{"android":"levelo://app?vid=9cd66f20-0974-44a3-a00c-3af08e74ebf2","ios":"levelo://app?vid=9cd66f20-0974-44a3-a00c-3af08e74ebf2"},"vehicle_type_id":"4","last_reported":1745053762,"current_range_meters":22000,"station_id":"","pricing_plan_id":"cebpf4jnsgd1na2vs0mg"},{"bike_id":"f187a741-29ec-4cdb-8bf9-0c04448b7a86","system_id":"levelo_inurba_marseille","lat":43.24156,"lon":5.39721,"is_reserved":false,"is_disabled":false,"rental_uris":{"android":"levelo://app?vid=f187a741-29ec-4cdb-8bf9-0c04448b7a86","ios":"levelo://app?vid=f187a741-29ec-4cdb-8bf9-0c04448b7a86"},"vehicle_type_id":"4","last_reported":1745053762,"current_range_meters":22000,"station_id":"ce4bhn12rcd13ifvqgpg","pricing_plan_id":"cebpf4jnsgd1na2vs0mg"},{"bike_id":"6d10d7a7-6c32-4e1e-8e59-bb1ff89e5fa7","system_id":"levelo_inurba_marseille","lat":43.32356,"lon":5.36746,"is_reserved":false,"is_disabled":false,"rental_uris":{"android":"levelo://app?vid=6d10d7a7-6c32-4e1e-8e59-bb1ff89e5fa7","ios":"levelo://app?vid=6d10d7a7-6c32-4e1e-8e59-bb1ff89e5fa7"},"vehicle_type_id":"4","last_reported":1745053762,"current_range_meters":22000,"station_id":"ce4bhsh2rcd13ifvqi2g","pricing_plan_id":"cebpf4jnsgd1na2vs0mg"},{"bike_id":"fc9e4a0b-cef4-449a-b7db-636c773d6309","system_id":"levelo_inurba_marseille","lat":43.27398,"lon":5.39784,"is_reserved":false,"is_disabled":false,"rental_uris":{"android":"levelo://app?vid=fc9e4a0b-cef4-449a-b7db-636c773d6309","ios":"levelo://app?vid=fc9e4a0b-cef4-449a-b7db-636c773d6309"},"vehicle_type_id":"4","last_reported":1745053762,"current_range_meters":22400,"station_id":"","pricing_plan_id":"cebpf4jnsgd1na2vs0mg"},{"bike_id":"3c84a1a5-e4cf-487e-85ce-2dc47b555e75","system_id":"levelo_inurba_marseille","lat":43.2903,"lon":5.39975,"is_reserved":false,"is_disabled":false,"rental_uris":{"android":"levelo://app?vid=3c84a1a5-e4cf-487e-85ce-2dc47b555e75","ios":"levelo://app?vid=3c84a1a5-e4cf-487e-85ce-2dc47b555e75"},"vehicle_type_id":"4","last_reported":1745053762,"current_range_meters":22400,"station_id":"ce4bh392rcd13ifvqdm0","pricing_plan_id":"cebpf4jnsgd1na2vs0mg"},{"bike_id":"43d16f90-36ad-4f55-8765-f7d472e03959","system_id":"levelo_inurba_marseille","lat":43.32373,"lon":5.367726,"is_reserved":false,"is_disabled":false,"rental_uris":{"android":"levelo://app?vid=43d16f90-36ad-4f55-8765-f7d472e03959","ios":"levelo://app?vid=43d16f90-36ad-4f55-8765-f7d472e03959"},"vehicle_type_id":"4","last_reported":1745053762,"current_range_meters":22400,"station_id":"ce4bhsh2rcd13ifvqi2g","pricing_plan_id":"cebpf4jnsgd1na2vs0mg"},{"bike_id":"b8665eb2-588b-406f-8b86-4e6d4877b539","system_id":"levelo_inurba_marseille","lat":43.297859,"lon":5.393516,"is_reserved":false,"is_disabled":false,"rental_uris":{"android":"levelo://app?vid=b8665eb2-588b-406f-8b86-4e6d4877b539","ios":"levelo://app?vid=b8665eb2-588b-406f-8b86-4e6d4877b539"},"vehicle_type_id":"4","last_reported":1745053762,"current_range_meters":20400,"station_id":"chh1huq6cuj3fo74tm60","pricing_plan_id":"cebpf4jnsgd1na2vs0mg"},{"bike_id":"3bf1ebd3-9033-485b-8742-756c645aece2","system_id":"levelo_inurba_marseille","lat":43.29844,"lon":5.36277,"is_reserved":false,"is_disabled":false,"rental_uris":{"android":"levelo://app?vid=3bf1ebd3-9033-485b-8742-756c645aece2","ios":"levelo://app?vid=3bf1ebd3-9033-485b-8742-756c645aece2"},"vehicle_type_id":"4","last_reported":1745053762,"current_range_meters":22400,"station_id":"ce4bgpp2rcd13ifvqc3g","pricing_plan_id":"cebpf4jnsgd1na2vs0mg"},{"bike_id":"5abb6aac-d25c-4708-9bb6-abd942cc8c09","system_id":"levelo_inurba_marseille","lat":43.26058,"lon":5.39395,"is_reserved":false,"is_disabled":false,"rental_uris":{"android":"levelo://app?vid=5abb6aac-d25c-4708-9bb6-abd942cc8c09","ios":"levelo://app?vid=5abb6aac-d25c-4708-9bb6-abd942cc8c09"},"vehicle_type_id":"4","last_reported":1745053762,"current_range_meters":22800,"station_id":"ce4bhh92rcd13ifvqfj0","pricing_plan_id":"cebpf4jnsgd1na2vs0mg"},{"bike_id":"06426a6f-3608-4057-b2dd-7b9d45717656","system_id":"levelo_inurba_marseille","lat":43.29573,"lon":5.37527,"is_reserved":false,"is_disabled":false,"rental_uris":{"android":"levelo://app?vid=06426a6f-3608-4057-b2dd-7b9d45717656","ios":"levelo://app?vid=06426a6f-3608-4057-b2dd-7b9d45717656"},"vehicle_type_id":"4","last_reported":1745053762,"current_range_meters":22800,"station_id":"ce4bgh92rcd13ifvqb50","pricing_plan_id":"cebpf4jnsgd1na2vs0mg"},{"bike_id":"df371317-8aaf-4ff6-976a-81a4a204b090","system_id":"levelo_inurba_marseille","lat":43.23185,"lon":5.39993,"is_reserved":false,"is_disabled":false,"rental_uris":{"android":"levelo://app?vid=df371317-8aaf-4ff6-976a-81a4a204b090","ios":"levelo://app?vid=df371317-8aaf-4ff6-976a-81a4a204b090"},"vehicle_type_id":"4","last_reported":1745053762,"current_range_meters":22800,"station_id":"ce4bhn12rcd13ifvqgqg","pricing_plan_id":"cebpf4jnsgd1na2vs0mg"},{"bike_id":"cbe9ad1b-3cda-4324-9597-7c5a95a3546a","system_id":"levelo_inurba_marseille","lat":43.32658,"lon":5.40993,"is_reserved":false,"is_disabled":false,"rental_uris":{"android":"levelo://app?vid=cbe9ad1b-3cda-4324-9597-7c5a95a3546a","ios":"levelo://app?vid=cbe9ad1b-3cda-4324-9597-7c5a95a3546a"},"vehicle_type_id":"4","last_reported":1745053762,"current_range_meters":22800,"station_id":"ce4bhpp2rcd13ifvqhgg","pricing_plan_id":"cebpf4jnsgd1na2vs0mg"},{"bike_id":"31135c95-7586-4287-904a-b175916669a9","system_id":"levelo_inurba_marseille","lat":43.29007,"lon":5.356,"is_reserved":false,"is_disabled":false,"rental_uris":{"android":"levelo://app?vid=31135c95-7586-4287-904a-b175916669a9","ios":"levelo://app?vid=31135c95-7586-4287-904a-b175916669a9"},"vehicle_type_id":"4","last_reported":1745053762,"current_range_meters":22800,"station_id":"ce4bhb92rcd13ifvqen0","pricing_plan_id":"cebpf4jnsgd1na2vs0mg"},{"bike_id":"ee3e4ac7-b79f-4132-b39e-dfed12393c0a","system_id":"levelo_inurba_marseille","lat":43.23188,"lon":5.35549,"is_reserved":false,"is_disabled":false,"rental_uris":{"android":"levelo://app?vid=ee3e4ac7-b79f-4132-b39e-dfed12393c0a","ios":"levelo://app?vid=ee3e4ac7-b79f-4132-b39e-dfed12393c0a"},"vehicle_type_id":"4","last_reported":1745053762,"current_range_meters":22800,"station_id":"ce4bhu92rcd13ifvqi70","pricing_plan_id":"cebpf4jnsgd1na2vs0mg"},{"bike_id":"67835fa4-e6ac-427b-97cd-228cca8252c3","system_id":"levelo_inurba_marseille","lat":43.29024,"lon":5.38643,"is_reserved":false,"is_disabled":false,"rental_uris":{"android":"levelo://app?vid=67835fa4-e6ac-427b-97cd-228cca8252c3","ios":"levelo://app?vid=67835fa4-e6ac-427b-97cd-228cca8252c3"},"vehicle_type_id":"4","last_reported":1745053762,"current_range_meters":22800,"station_id":"ce4bh4p2rcd13ifvqe0g","pricing_plan_id":"cebpf4jnsgd1na2vs0mg"},{"bike_id":"6b756a6a-3e2a-4904-8a4d-c16a5babc7ae","system_id":"levelo_inurba_marseille","lat":43.32368,"lon":5.36763,"is_reserved":false,"is_disabled":false,"rental_uris":{"android":"levelo://app?vid=6b756a6a-3e2a-4904-8a4d-c16a5babc7ae","ios":"levelo://app?vid=6b756a6a-3e2a-4904-8a4d-c16a5babc7ae"},"vehicle_type_id":"4","last_reported":1745053762,"current_range_meters":22800,"station_id":"ce4bhsh2rcd13ifvqi2g","pricing_plan_id":"cebpf4jnsgd1na2vs0mg"},{"bike_id":"58bf5c5a-0c67-4afd-8ab4-c0c8ae8d4f83","system_id":"levelo_inurba_marseille","lat":43.2927,"lon":5.36839,"is_reserved":false,"is_disabled":false,"rental_uris":{"android":"levelo://app?vid=58bf5c5a-0c67-4afd-8ab4-c0c8ae8d4f83","ios":"levelo://app?vid=58bf5c5a-0c67-4afd-8ab4-c0c8ae8d4f83"},"vehicle_type_id":"4","last_reported":1745053762,"current_range_meters":22800,"station_id":"ce4bhbp2rcd13ifvqesg","pricing_plan_id":"cebpf4jnsgd1na2vs0mg"},{"bike_id":"c8e1be64-08a9-482b-9907-53af9dbc1ade","system_id":"levelo_inurba_marseille","lat":43.29563,"lon":5.37525,"is_reserved":false,"is_disabled":false,"rental_uris":{"android":"levelo://app?vid=c8e1be64-08a9-482b-9907-53af9dbc1ade","ios":"levelo://app?vid=c8e1be64-08a9-482b-9907-53af9dbc1ade"},"vehicle_type_id":"4","last_reported":1745053762,"current_range_meters":23200,"station_id":"ce4bgh92rcd13ifvqb50","pricing_plan_id":"cebpf4jnsgd1na2vs0mg"},{"bike_id":"534a40d3-5795-472b-bfcb-f8aa7bee6de3","system_id":"levelo_inurba_marseille","lat":43.31705,"lon":5.43699,"is_reserved":false,"is_disabled":false,"rental_uris":{"android":"levelo://app?vid=534a40d3-5795-472b-bfcb-f8aa7bee6de3","ios":"levelo://app?vid=534a40d3-5795-472b-bfcb-f8aa7bee6de3"},"vehicle_type_id":"4","last_reported":1745053762,"current_range_meters":23200,"station_id":"ce4bhp92rcd13ifvqhcg","pricing_plan_id":"cebpf4jnsgd1na2vs0mg"},{"bike_id":"1fe018bb-0b46-44ea-b228-3d87eb4e2fde","system_id":"levelo_inurba_marseille","lat":43.31363,"lon":5.38494,"is_reserved":false,"is_disabled":false,"rental_uris":{"android":"levelo://app?vid=1fe018bb-0b46-44ea-b228-3d87eb4e2fde","ios":"levelo://app?vid=1fe018bb-0b46-44ea-b228-3d87eb4e2fde"},"vehicle_type_id":"4","last_reported":1745053762,"current_range_meters":23200,"station_id":"ce4bgt92rcd13ifvqcf0","pricing_plan_id":"cebpf4jnsgd1na2vs0mg"},{"bike_id":"fdd2561d-6fe8-477b-a369-67c863d13125","system_id":"levelo_inurba_marseille","lat":43.29635,"lon":5.40594,"is_reserved":false,"is_disabled":true,"rental_uris":{"android":"levelo://app?vid=fdd2561d-6fe8-477b-a369-67c863d13125","ios":"levelo://app?vid=fdd2561d-6fe8-477b-a369-67c863d13125"},"vehicle_type_id":"4","last_reported":1745053762,"current_range_meters":23200,"station_id":"ce4bh0h2rcd13ifvqd60","pricing_plan_id":"cebpf4jnsgd1na2vs0mg"},{"bike_id":"1b789fa1-76db-483a-be87-87700d30e96d","system_id":"levelo_inurba_marseille","lat":43.309306,"lon":5.401407,"is_reserved":false,"is_disabled":false,"rental_uris":{"android":"levelo://app?vid=1b789fa1-76db-483a-be87-87700d30e96d","ios":"levelo://app?vid=1b789fa1-76db-483a-be87-87700d30e96d"},"vehicle_type_id":"4","last_reported":1745053762,"current_range_meters":23200,"station_id":"ce4bgvp2rcd13ifvqct0","pricing_plan_id":"cebpf4jnsgd1na2vs0mg"},{"bike_id":"e25d5d40-43d0-4960-b34f-d786b35e9d66","system_id":"levelo_inurba_marseille","lat":43.29867,"lon":5.39724,"is_reserved":false,"is_disabled":false,"rental_uris":{"android":"levelo://app?vid=e25d5d40-43d0-4960-b34f-d786b35e9d66","ios":"levelo://app?vid=e25d5d40-43d0-4960-b34f-d786b35e9d66"},"vehicle_type_id":"4","last_reported":1745053762,"current_range_meters":22800,"station_id":"ce4bh0h2rcd13ifvqd50","pricing_plan_id":"cebpf4jnsgd1na2vs0mg"},{"bike_id":"51bc3827-b153-4b7e-bc38-aa2d18b38c07","system_id":"levelo_inurba_marseille","lat":43.23969,"lon":5.36621,"is_reserved":false,"is_disabled":false,"rental_uris":{"android":"levelo://app?vid=51bc3827-b153-4b7e-bc38-aa2d18b38c07","ios":"levelo://app?vid=51bc3827-b153-4b7e-bc38-aa2d18b38c07"},"vehicle_type_id":"4","last_reported":1745053762,"current_range_meters":23200,"station_id":"ce4bhi12rcd13ifvqfp0","pricing_plan_id":"cebpf4jnsgd1na2vs0mg"},{"bike_id":"afd20eef-ae68-449e-b6c6-82cc0b6291bd","system_id":"levelo_inurba_marseille","lat":43.291909,"lon":5.393079,"is_reserved":false,"is_disabled":false,"rental_uris":{"android":"levelo://app?vid=afd20eef-ae68-449e-b6c6-82cc0b6291bd","ios":"levelo://app?vid=afd20eef-ae68-449e-b6c6-82cc0b6291bd"},"vehicle_type_id":"4","last_reported":1745053762,"current_range_meters":22800,"station_id":"ce4bhbp2rcd13ifvqerg","pricing_plan_id":"cebpf4jnsgd1na2vs0mg"},{"bike_id":"c0e0ba24-a93e-4d8f-ae3a-85a5a9197456","system_id":"levelo_inurba_marseille","lat":43.23955,"lon":5.36626,"is_reserved":false,"is_disabled":false,"rental_uris":{"android":"levelo://app?vid=c0e0ba24-a93e-4d8f-ae3a-85a5a9197456","ios":"levelo://app?vid=c0e0ba24-a93e-4d8f-ae3a-85a5a9197456"},"vehicle_type_id":"4","last_reported":1745053762,"current_range_meters":23200,"station_id":"ce4bhi12rcd13ifvqfp0","pricing_plan_id":"cebpf4jnsgd1na2vs0mg"},{"bike_id":"04ba8eee-11af-4865-be1c-079b8f4b4166","system_id":"levelo_inurba_marseille","lat":43.29262,"lon":5.38438,"is_reserved":false,"is_disabled":false,"rental_uris":{"android":"levelo://app?vid=04ba8eee-11af-4865-be1c-079b8f4b4166","ios":"levelo://app?vid=04ba8eee-11af-4865-be1c-079b8f4b4166"},"vehicle_type_id":"4","last_reported":1745053762,"current_range_meters":24000,"station_id":"ce4bh692rcd13ifvqea0","pricing_plan_id":"cebpf4jnsgd1na2vs0mg"},{"bike_id":"facc8aa7-ceef-420d-98c4-0d7f9d1f826b","system_id":"levelo_inurba_marseille","lat":43.31492,"lon":5.37305,"is_reserved":false,"is_disabled":false,"rental_uris":{"android":"levelo://app?vid=facc8aa7-ceef-420d-98c4-0d7f9d1f826b","ios":"levelo://app?vid=facc8aa7-ceef-420d-98c4-0d7f9d1f826b"},"vehicle_type_id":"4","last_reported":1745053762,"current_range_meters":24000,"station_id":"ce4bgt12rcd13ifvqcd0","pricing_plan_id":"cebpf4jnsgd1na2vs0mg"},{"bike_id":"3e3c8c50-0433-4468-9b5f-71ae2ad7c709","system_id":"levelo_inurba_marseille","lat":43.32364,"lon":5.36756,"is_reserved":false,"is_disabled":false,"rental_uris":{"android":"levelo://app?vid=3e3c8c50-0433-4468-9b5f-71ae2ad7c709","ios":"levelo://app?vid=3e3c8c50-0433-4468-9b5f-71ae2ad7c709"},"vehicle_type_id":"4","last_reported":1745053762,"current_range_meters":24000,"station_id":"ce4bhsh2rcd13ifvqi2g","pricing_plan_id":"cebpf4jnsgd1na2vs0mg"},{"bike_id":"4bc20ffe-f52d-4bf3-903a-e5a547176e3f","system_id":"levelo_inurba_marseille","lat":43.304677,"lon":5.379139,"is_reserved":false,"is_disabled":false,"rental_uris":{"android":"levelo://app?vid=4bc20ffe-f52d-4bf3-903a-e5a547176e3f","ios":"levelo://app?vid=4bc20ffe-f52d-4bf3-903a-e5a547176e3f"},"vehicle_type_id":"4","last_reported":1745053762,"current_range_meters":24000,"station_id":"ce4bgth2rcd13ifvqch0","pricing_plan_id":"cebpf4jnsgd1na2vs0mg"},{"bike_id":"42b478bf-79a8-442c-b682-59f978d5909f","system_id":"levelo_inurba_marseille","lat":43.25718,"lon":5.41112,"is_reserved":false,"is_disabled":false,"rental_uris":{"android":"levelo://app?vid=42b478bf-79a8-442c-b682-59f978d5909f","ios":"levelo://app?vid=42b478bf-79a8-442c-b682-59f978d5909f"},"vehicle_type_id":"4","last_reported":1745053762,"current_range_meters":23200,"station_id":"ce4bhkp2rcd13ifvqgd0","pricing_plan_id":"cebpf4jnsgd1na2vs0mg"},{"bike_id":"ad152c36-be41-4afd-bb56-ca2d55f9aa9b","system_id":"levelo_inurba_marseille","lat":43.29617,"lon":5.37727,"is_reserved":false,"is_disabled":false,"rental_uris":{"android":"levelo://app?vid=ad152c36-be41-4afd-bb56-ca2d55f9aa9b","ios":"levelo://app?vid=ad152c36-be41-4afd-bb56-ca2d55f9aa9b"},"vehicle_type_id":"4","last_reported":1745053762,"current_range_meters":24000,"station_id":"ce4bgi92rcd13ifvqb90","pricing_plan_id":"cebpf4jnsgd1na2vs0mg"},{"bike_id":"914fe1f6-71b8-4dc6-adff-11382ae18d3c","system_id":"levelo_inurba_marseille","lat":43.29313,"lon":5.37463,"is_reserved":false,"is_disabled":false,"rental_uris":{"android":"levelo://app?vid=914fe1f6-71b8-4dc6-adff-11382ae18d3c","ios":"levelo://app?vid=914fe1f6-71b8-4dc6-adff-11382ae18d3c"},"vehicle_type_id":"4","last_reported":1745053762,"current_range_meters":24000,"station_id":"ce4bgi12rcd13ifvqb70","pricing_plan_id":"cebpf4jnsgd1na2vs0mg"},{"bike_id":"83c03145-72a8-411a-8d95-e95f770fe07c","system_id":"levelo_inurba_marseille","lat":43.33006,"lon":5.39039,"is_reserved":false,"is_disabled":false,"rental_uris":{"android":"levelo://app?vid=83c03145-72a8-411a-8d95-e95f770fe07c","ios":"levelo://app?vid=83c03145-72a8-411a-8d95-e95f770fe07c"},"vehicle_type_id":"4","last_reported":1745053762,"current_range_meters":24000,"station_id":"ce4bhr92rcd13ifvqhrg","pricing_plan_id":"cebpf4jnsgd1na2vs0mg"},{"bike_id":"41f4e2f4-0e16-4c5f-bb5b-9dee1998ed73","system_id":"levelo_inurba_marseille","lat":43.30548,"lon":5.36705,"is_reserved":false,"is_disabled":false,"rental_uris":{"android":"levelo://app?vid=41f4e2f4-0e16-4c5f-bb5b-9dee1998ed73","ios":"levelo://app?vid=41f4e2f4-0e16-4c5f-bb5b-9dee1998ed73"},"vehicle_type_id":"4","last_reported":1745053762,"current_range_meters":24400,"station_id":"ce4bgrp2rcd13ifvqc9g","pricing_plan_id":"cebpf4jnsgd1na2vs0mg"},{"bike_id":"e44139dc-ccbe-4441-98fa-4118126e598a","system_id":"levelo_inurba_marseille","lat":43.30424,"lon":5.39735,"is_reserved":false,"is_disabled":false,"rental_uris":{"android":"levelo://app?vid=e44139dc-ccbe-4441-98fa-4118126e598a","ios":"levelo://app?vid=e44139dc-ccbe-4441-98fa-4118126e598a"},"vehicle_type_id":"4","last_reported":1745053762,"current_range_meters":24800,"station_id":"ce4bh092rcd13ifvqd20","pricing_plan_id":"cebpf4jnsgd1na2vs0mg"},{"bike_id":"3d21a1f2-9b20-4eac-a0dd-41578802c337","system_id":"levelo_inurba_marseille","lat":43.2904,"lon":5.3757,"is_reserved":false,"is_disabled":false,"rental_uris":{"android":"levelo://app?vid=3d21a1f2-9b20-4eac-a0dd-41578802c337","ios":"levelo://app?vid=3d21a1f2-9b20-4eac-a0dd-41578802c337"},"vehicle_type_id":"4","last_reported":1745053762,"current_range_meters":24400,"station_id":"ce4bh692rcd13ifvqe90","pricing_plan_id":"cebpf4jnsgd1na2vs0mg"},{"bike_id":"50d4c134-befc-4321-805a-19d2daa02872","system_id":"levelo_inurba_marseille","lat":43.30239,"lon":5.4005,"is_reserved":false,"is_disabled":false,"rental_uris":{"android":"levelo://app?vid=50d4c134-befc-4321-805a-19d2daa02872","ios":"levelo://app?vid=50d4c134-befc-4321-805a-19d2daa02872"},"vehicle_type_id":"4","last_reported":1745053762,"current_range_meters":24400,"station_id":"ce4bgvh2rcd13ifvqcs0","pricing_plan_id":"cebpf4jnsgd1na2vs0mg"},{"bike_id":"2577fe73-67d8-47e7-ab2a-e252f6317e41","system_id":"levelo_inurba_marseille","lat":43.28942,"lon":5.36637,"is_reserved":false,"is_disabled":true,"rental_uris":{"android":"levelo://app?vid=2577fe73-67d8-47e7-ab2a-e252f6317e41","ios":"levelo://app?vid=2577fe73-67d8-47e7-ab2a-e252f6317e41"},"vehicle_type_id":"4","last_reported":1745053762,"current_range_meters":24400,"station_id":"ce4bhap2rcd13ifvqek0","pricing_plan_id":"cebpf4jnsgd1na2vs0mg"},{"bike_id":"555d400e-7fb9-4fe8-acd1-2a5258f0bc84","system_id":"levelo_inurba_marseille","lat":43.30539,"lon":5.36531,"is_reserved":false,"is_disabled":false,"rental_uris":{"android":"levelo://app?vid=555d400e-7fb9-4fe8-acd1-2a5258f0bc84","ios":"levelo://app?vid=555d400e-7fb9-4fe8-acd1-2a5258f0bc84"},"vehicle_type_id":"4","last_reported":1745053762,"current_range_meters":24400,"station_id":"ce4bgs12rcd13ifvqcag","pricing_plan_id":"cebpf4jnsgd1na2vs0mg"},{"bike_id":"d385238b-ffb5-4051-b85b-e32c4a6705c1","system_id":"levelo_inurba_marseille","lat":43.29922,"lon":5.38198,"is_reserved":false,"is_disabled":false,"rental_uris":{"android":"levelo://app?vid=d385238b-ffb5-4051-b85b-e32c4a6705c1","ios":"levelo://app?vid=d385238b-ffb5-4051-b85b-e32c4a6705c1"},"vehicle_type_id":"4","last_reported":1745053762,"current_range_meters":24400,"station_id":"ce4bgj12rcd13ifvqbc0","pricing_plan_id":"cebpf4jnsgd1na2vs0mg"},{"bike_id":"cd7fc3b3-62d8-411c-add9-25dae018bc04","system_id":"levelo_inurba_marseille","lat":43.23174,"lon":5.4001,"is_reserved":false,"is_disabled":false,"rental_uris":{"android":"levelo://app?vid=cd7fc3b3-62d8-411c-add9-25dae018bc04","ios":"levelo://app?vid=cd7fc3b3-62d8-411c-add9-25dae018bc04"},"vehicle_type_id":"4","last_reported":1745053762,"current_range_meters":24400,"station_id":"ce4bhn12rcd13ifvqgqg","pricing_plan_id":"cebpf4jnsgd1na2vs0mg"},{"bike_id":"7497511b-b763-457c-b3c1-f74ae910e8c7","system_id":"levelo_inurba_marseille","lat":43.26199,"lon":5.37914,"is_reserved":false,"is_disabled":false,"rental_uris":{"android":"levelo://app?vid=7497511b-b763-457c-b3c1-f74ae910e8c7","ios":"levelo://app?vid=7497511b-b763-457c-b3c1-f74ae910e8c7"},"vehicle_type_id":"4","last_reported":1745053762,"current_range_meters":24800,"station_id":"ce4bhjp2rcd13ifvqg90","pricing_plan_id":"cebpf4jnsgd1na2vs0mg"},{"bike_id":"841cb118-99c0-4a3a-b781-96a82c545927","system_id":"levelo_inurba_marseille","lat":43.29008,"lon":5.35606,"is_reserved":false,"is_disabled":false,"rental_uris":{"android":"levelo://app?vid=841cb118-99c0-4a3a-b781-96a82c545927","ios":"levelo://app?vid=841cb118-99c0-4a3a-b781-96a82c545927"},"vehicle_type_id":"4","last_reported":1745053762,"current_range_meters":24800,"station_id":"ce4bhb92rcd13ifvqen0","pricing_plan_id":"cebpf4jnsgd1na2vs0mg"},{"bike_id":"081c52ff-04b9-4887-9f97-130af37905f2","system_id":"levelo_inurba_marseille","lat":43.282663,"lon":5.350559,"is_reserved":false,"is_disabled":false,"rental_uris":{"android":"levelo://app?vid=081c52ff-04b9-4887-9f97-130af37905f2","ios":"levelo://app?vid=081c52ff-04b9-4887-9f97-130af37905f2"},"vehicle_type_id":"4","last_reported":1745053762,"current_range_meters":24800,"station_id":"ce4bhbp2rcd13ifvqerg","pricing_plan_id":"cebpf4jnsgd1na2vs0mg"},