{"last_updated":1741626534,"ttl":60,"version":"2.2","data":{"bikes":[{"bike_id":"e3565dcf-4d34-49d7-919b-1234920ea466","system_id":"levelo_inurba_marseille","lat":43.33746,"lon":5.3745,"is_reserved":false,"is_disabled":false,"rental_uris":{"android":"levelo://app?vid=e3565dcf-4d34-49d7-919b-1234920ea466","ios":"levelo://app?vid=e3565dcf-4d34-49d7-919b-1234920ea466"},"vehicle_type_id":"4","last_reported":1741626534,"current_range_meters":26000,"station_id":"","pricing_plan_id":"cebpf4jnsgd1na2vs0mg"},{"bike_id":"62b3a7b8-8202-4684-8ab1-a7c1ed31d3f6","system_id":"levelo_inurba_marseille","lat":43.31119,"lon":5.37475,"is_reserved":false,"is_disabled":true,"rental_uris":{"android":"levelo://app?vid=62b3a7b8-8202-4684-8ab1-a7c1ed31d3f6","ios":"levelo://app?vid=62b3a7b8-8202-4684-8ab1-a7c1ed31d3f6"},"vehicle_type_id":"4","last_reported":1741626534,"current_range_meters":0,"station_id":"","pricing_plan_id":"cebpf4jnsgd1na2vs0mg"},{"bike_id":"ee1d2ad1-36ca-49dd-a328-f2a9a9994ecb","system_id":"levelo_inurba_marseille","lat":43.310869,"lon":5.38131,"is_reserved":false,"is_disabled":true,"rental_uris":{"android":"levelo://app?vid=ee1d2ad1-36ca-49dd-a328-f2a9a9994ecb","ios":"levelo://app?vid=ee1d2ad1-36ca-49dd-a328-f2a9a9994ecb"},"vehicle_type_id":"4","last_reported":1741626534,"current_range_meters":0,"station_id":"","pricing_plan_id":"cebpf4jnsgd1na2vs0mg"},{"bike_id":"a85666a4-8fe7-4d6d-9254-683bdd61b61f","system_id":"levelo_inurba_marseille","lat":43.27376,"lon":5.41442,"is_reserved":false,"is_disabled":true,"rental_uris":{"android":"levelo://app?vid=a85666a4-8fe7-4d6d-9254-683bdd61b61f","ios":"levelo://app?vid=a85666a4-8fe7-4d6d-9254-683bdd61b61f"},"vehicle_type_id":"4","last_reported":1741626534,"current_range_meters":0,"station_id":"","pricing_plan_id":"cebpf4jnsgd1na2vs0mg"},{"bike_id":"6a00c328-746a-424c-873d-9d91f3d92b69","system_id":"levelo_inurba_marseille","lat":43.31332,"lon":5.37605,"is_reserved":false,"is_disabled":true,"rental_uris":{"android":"levelo://app?vid=6a00c328-746a-424c-873d-9d91f3d92b69","ios":"levelo://app?vid=6a00c328-746a-424c-873d-9d91f3d92b69"},"vehicle_type_id":"4","last_reported":1741626534,"current_range_meters":0,"station_id":"","pricing_plan_id":"cebpf4jnsgd1na2vs0mg"},{"bike_id":"33124de7-1f67-48dc-be0d-11faa5f47c77","system_id":"levelo_inurba_marseille","lat":43.30877,"lon":5.39645,"is_reserved":false,"is_disabled":true,"rental_uris":{"android":"levelo://app?vid=33124de7-1f67-48dc-be0d-11faa5f47c77","ios":"levelo://app?vid=33124de7-1f67-48dc-be0d-11faa5f47c77"},"vehicle_type_id":"4","last_reported":1741626534,"current_range_meters":0,"station_id":"ce4bh012rcd13ifvqcv0","pricing_plan_id":"cebpf4jnsgd1na2vs0mg"},{"bike_id":"8c272d51-6018-405c-ac42-d2da6310ed0c","system_id":"levelo_inurba_marseille","lat":43.2928,"lon":5.40131,"is_reserved":false,"is_disabled":true,"rental_uris":{"android":"levelo://app?vid=8c272d51-6018-405c-ac42-d2da6310ed0c","ios":"levelo://app?vid=8c272d51-6018-405c-ac42-d2da6310ed0c"},"vehicle_type_id":"4","last_reported":1741626534,"current_range_meters":0,"station_id":"ce4bh312rcd13ifvqdk0","pricing_plan_id":"cebpf4jnsgd1na2vs0mg"},{"bike_id":"6b75d6f2-2312-4e69-b5cf-b2974f381433","system_id":"levelo_inurba_marseille","lat":43.279941,"lon":5.400039,"is_reserved":false,"is_disabled":true,"rental_uris":{"android":"levelo://app?vid=6b75d6f2-2312-4e69-b5cf-b2974f381433","ios":"levelo://app?vid=6b75d6f2-2312-4e69-b5cf-b2974f381433"},"vehicle_type_id":"4","last_reported":1741626534,"current_range_meters":0,"station_id":"ce4bhgp2rcd13ifvqfd0","pricing_plan_id":"cebpf4jnsgd1na2vs0mg"},{"bike_id":"52e2bc33-7440-4b9e-91b9-cd5d2fd1c32a","system_id":"levelo_inurba_marseille","lat":43.26228,"lon":5.40469,"is_reserved":false,"is_disabled":true,"rental_uris":{"android":"levelo://app?vid=52e2bc33-7440-4b9e-91b9-cd5d2fd1c32a","ios":"levelo://app?vid=52e2bc33-7440-4b9e-91b9-cd5d2fd1c32a"},"vehicle_type_id":"4","last_reported":1741626534,"current_range_meters":0,"station_id":"ce4bhmh2rcd13ifvqgmg","pricing_plan_id":"cebpf4jnsgd1na2vs0mg"},{"bike_id":"805d5218-d2ca-47da-b0fa-129c982234db","system_id":"levelo_inurba_marseille","lat":43.26224,"lon":5.40442,"is_reserved":false,"is_disabled":true,"rental_uris":{"android":"levelo://app?vid=805d5218-d2ca-47da-b0fa-129c982234db","ios":"levelo://app?vid=805d5218-d2ca-47da-b0fa-129c982234db"},"vehicle_type_id":"4","last_reported":1741626534,"current_range_meters":0,"station_id":"ce4bhmh2rcd13ifvqgmg","pricing_plan_id":"cebpf4jnsgd1na2vs0mg"},{"bike_id":"fb8a095d-bdd7-4b0b-a03b-f21f559b3f7a","system_id":"levelo_inurba_marseille","lat":43.33593,"lon":5.410403,"is_reserved":false,"is_disabled":true,"rental_uris":{"android":"levelo://app?vid=fb8a095d-bdd7-4b0b-a03b-f21f559b3f7a","ios":"levelo://app?vid=fb8a095d-bdd7-4b0b-a03b-f21f559b3f7a"},"vehicle_type_id":"4","last_reported":1741626534,"current_range_meters":0,"station_id":"ce4bhqh2rcd13ifvqhmg","pricing_plan_id":"cebpf4jnsgd1na2vs0mg"},{"bike_id":"a6358fa9-fc96-438c-a126-c2052bbe8626","system_id":"levelo_inurba_marseille","lat":43.25495,"lon":5.37647,"is_reserved":false,"is_disabled":true,"rental_uris":{"android":"levelo://app?vid=a6358fa9-fc96-438c-a126-c2052bbe8626","ios":"levelo://app?vid=a6358fa9-fc96-438c-a126-c2052bbe8626"},"vehicle_type_id":"4","last_reported":1741626534,"current_range_meters":400,"station_id":"ce4bhh12rcd13ifvqff0","pricing_plan_id":"cebpf4jnsgd1na2vs0mg"},{"bike_id":"bffd2de9-7201-4adc-a4d3-f29dbc726bcc","system_id":"levelo_inurba_marseille","lat":43.30104,"lon":5.38809,"is_reserved":false,"is_disabled":true,"rental_uris":{"android":"levelo://app?vid=bffd2de9-7201-4adc-a4d3-f29dbc726bcc","ios":"levelo://app?vid=bffd2de9-7201-4adc-a4d3-f29dbc726bcc"},"vehicle_type_id":"4","last_reported":1741626534,"current_range_meters":800,"station_id":"ce4bghh2rcd13ifvqb60","pricing_plan_id":"cebpf4jnsgd1na2vs0mg"},{"bike_id":"db493334-de63-4e9f-8266-8e4f92010d2c","system_id":"levelo_inurba_marseille","lat":43.272136,"lon":5.391787,"is_reserved":false,"is_disabled":true,"rental_uris":{"android":"levelo://app?vid=db493334-de63-4e9f-8266-8e4f92010d2c","ios":"levelo://app?vid=db493334-de63-4e9f-8266-8e4f92010d2c"},"vehicle_type_id":"4","last_reported":1741626534,"current_range_meters":800,"station_id":"ce4bgip2rcd13ifvqbb0","pricing_plan_id":"cebpf4jnsgd1na2vs0mg"},{"bike_id":"534ca2c7-3b34-4e71-8c8c-7496c21c4f79","system_id":"levelo_inurba_marseille","lat":43.30602,"lon":5.37225,"is_reserved":false,"is_disabled":true,"rental_uris":{"android":"levelo://app?vid=534ca2c7-3b34-4e71-8c8c-7496c21c4f79","ios":"levelo://app?vid=534ca2c7-3b34-4e71-8c8c-7496c21c4f79"},"vehicle_type_id":"4","last_reported":1741626534,"current_range_meters":800,"station_id":"ce4bgqh2rcd13ifvqc4g","pricing_plan_id":"cebpf4jnsgd1na2vs0mg"},{"bike_id":"07316115-40e7-45c0-85d6-4da667bc9015","system_id":"levelo_inurba_marseille","lat":43.28864,"lon":5.35856,"is_reserved":false,"is_disabled":true,"rental_uris":{"android":"levelo://app?vid=07316115-40e7-45c0-85d6-4da667bc9015","ios":"levelo://app?vid=07316115-40e7-45c0-85d6-4da667bc9015"},"vehicle_type_id":"4","last_reported":1741626534,"current_range_meters":800,"station_id":"ce4bhb12rcd13ifvqem0","pricing_plan_id":"cebpf4jnsgd1na2vs0mg"},{"bike_id":"c21e0bfe-41bd-4fbc-8e2e-b5c897c334a3","system_id":"levelo_inurba_marseille","lat":43.26552,"lon":5.39024,"is_reserved":false,"is_disabled":true,"rental_uris":{"android":"levelo://app?vid=c21e0bfe-41bd-4fbc-8e2e-b5c897c334a3","ios":"levelo://app?vid=c21e0bfe-41bd-4fbc-8e2e-b5c897c334a3"},"vehicle_type_id":"4","last_reported":1741626534,"current_range_meters":800,"station_id":"ce4bhe12rcd13ifvqf30","pricing_plan_id":"cebpf4jnsgd1na2vs0mg"},{"bike_id":"6395c88d-8f4f-4157-a8ae-ec8fe125976c","system_id":"levelo_inurba_marseille","lat":43.28697,"lon":5.39987,"is_reserved":false,"is_disabled":true,"rental_uris":{"android":"levelo://app?vid=6395c88d-8f4f-4157-a8ae-ec8fe125976c","ios":"levelo://app?vid=6395c88d-8f4f-4157-a8ae-ec8fe125976c"},"vehicle_type_id":"4","last_reported":1741626534,"current_range_meters":800,"station_id":"ce4bho92rcd13ifvqh3g","pricing_plan_id":"cebpf4jnsgd1na2vs0mg"},{"bike_id":"73d9c24b-33e7-42f3-9bb2-7aaa022326ef","system_id":"levelo_inurba_marseille","lat":43.2986,"lon":5.39737,"is_reserved":false,"is_disabled":true,"rental_uris":{"android":"levelo://app?vid=73d9c24b-33e7-42f3-9bb2-7aaa022326ef","ios":"levelo://app?vid=73d9c24b-33e7-42f3-9bb2-7aaa022326ef"},"vehicle_type_id":"4","last_reported":1741626534,"current_range_meters":1200,"station_id":"ce4bh0h2rcd13ifvqd50","pricing_plan_id":"cebpf4jnsgd1na2vs0mg"},{"bike_id":"5697758a-6dcf-48eb-a66d-2ccb44d2a1ad","system_id":"levelo_inurba_marseille","lat":43.27952,"lon":5.41046,"is_reserved":false,"is_disabled":true,"rental_uris":{"android":"levelo://app?vid=5697758a-6dcf-48eb-a66d-2ccb44d2a1ad","ios":"levelo://app?vid=5697758a-6dcf-48eb-a66d-2ccb44d2a1ad"},"vehicle_type_id":"4","last_reported":1741626534,"current_range_meters":1200,"station_id":"ce4bhnp2rcd13ifvqh0g","pricing_plan_id":"cebpf4jnsgd1na2vs0mg"},{"bike_id":"d55f5e3a-4299-443c-99c8-805eed18d030","system_id":"levelo_inurba_marseille","lat":43.28151,"lon":5.42638,"is_reserved":false,"is_disabled":true,"rental_uris":{"android":"levelo://app?vid=d55f5e3a-4299-443c-99c8-805eed18d030","ios":"levelo://app?vid=d55f5e3a-4299-443c-99c8-805eed18d030"},"vehicle_type_id":"4","last_reported":1741626534,"current_range_meters":1600,"station_id":"ce4bhnh2rcd13ifvqgug","pricing_plan_id":"cebpf4jnsgd1na2vs0mg"},{"bike_id":"7f5c0b4b-b53d-4d85-a954-23247f299b75","system_id":"levelo_inurba_marseille","lat":43.25131,"lon":5.40316,"is_reserved":false,"is_disabled":false,"rental_uris":{"android":"levelo://app?vid=7f5c0b4b-b53d-4d85-a954-23247f299b75","ios":"levelo://app?vid=7f5c0b4b-b53d-4d85-a954-23247f299b75"},"vehicle_type_id":"4","last_reported":1741626534,"current_range_meters":3200,"station_id":"ce4bhlh2rcd13ifvqgig","pricing_plan_id":"cebpf4jnsgd1na2vs0mg"},{"bike_id":"c6d88c18-a316-442e-8ab9-ede8a98a7bee","system_id":"levelo_inurba_marseille","lat":43.32034,"lon":5.41531,"is_reserved":false,"is_disabled":false,"rental_uris":{"android":"levelo://app?vid=c6d88c18-a316-442e-8ab9-ede8a98a7bee","ios":"levelo://app?vid=c6d88c18-a316-442e-8ab9-ede8a98a7bee"},"vehicle_type_id":"4","last_reported":1741626534,"current_range_meters":3200,"station_id":"ce4bhq92rcd13ifvqhkg","pricing_plan_id":"cebpf4jnsgd1na2vs0mg"},{"bike_id":"6ad03bbe-81b2-48e7-a1a6-2b66c6654ed1","system_id":"levelo_inurba_marseille","lat":43.279924,"lon":5.400147,"is_reserved":false,"is_disabled":false,"rental_uris":{"android":"levelo://app?vid=6ad03bbe-81b2-48e7-a1a6-2b66c6654ed1","ios":"levelo://app?vid=6ad03bbe-81b2-48e7-a1a6-2b66c6654ed1"},"vehicle_type_id":"4","last_reported":1741626534,"current_range_meters":3600,"station_id":"ce4bhkp2rcd13ifvqgd0","pricing_plan_id":"cebpf4jnsgd1na2vs0mg"},{"bike_id":"19bbe8da-d7df-496e-a677-cbaab925cf5e","system_id":"levelo_inurba_marseille","lat":43.24882,"lon":5.42519,"is_reserved":false,"is_disabled":false,"rental_uris":{"android":"levelo://app?vid=19bbe8da-d7df-496e-a677-cbaab925cf5e","ios":"levelo://app?vid=19bbe8da-d7df-496e-a677-cbaab925cf5e"},"vehicle_type_id":"4","last_reported":1741626534,"current_range_meters":4000,"station_id":"","pricing_plan_id":"cebpf4jnsgd1na2vs0mg"},{"bike_id":"36dccc30-0b4a-4c78-a031-d968c957e0d4","system_id":"levelo_inurba_marseille","lat":43.28461,"lon":5.35889,"is_reserved":false,"is_disabled":false,"rental_uris":{"android":"levelo://app?vid=36dccc30-0b4a-4c78-a031-d968c957e0d4","ios":"levelo://app?vid=36dccc30-0b4a-4c78-a031-d968c957e0d4"},"vehicle_type_id":"4","last_reported":1741626534,"current_range_meters":4000,"station_id":"ce4bhah2rcd13ifvqei0","pricing_plan_id":"cebpf4jnsgd1na2vs0mg"},{"bike_id":"61862531-41d2-4a09-b510-b05a2a4c384b","system_id":"levelo_inurba_marseille","lat":43.30802,"lon":5.38156,"is_reserved":false,"is_disabled":false,"rental_uris":{"android":"levelo://app?vid=61862531-41d2-4a09-b510-b05a2a4c384b","ios":"levelo://app?vid=61862531-41d2-4a09-b510-b05a2a4c384b"},"vehicle_type_id":"4","last_reported":1741626534,"current_range_meters":4400,"station_id":"ce4bgt12rcd13ifvqce0","pricing_plan_id":"cebpf4jnsgd1na2vs0mg"},{"bike_id":"2daf1def-9d66-4fe4-a943-060afa8e2217","system_id":"levelo_inurba_marseille","lat":43.26218,"lon":5.40456,"is_reserved":false,"is_disabled":false,"rental_uris":{"android":"levelo://app?vid=2daf1def-9d66-4fe4-a943-060afa8e2217","ios":"levelo://app?vid=2daf1def-9d66-4fe4-a943-060afa8e2217"},"vehicle_type_id":"4","last_reported":1741626534,"current_range_meters":4400,"station_id":"ce4bhmh2rcd13ifvqgmg","pricing_plan_id":"cebpf4jnsgd1na2vs0mg"},{"bike_id":"1c78e967-aa02-49b0-9057-2c7cc3e4d1b4","system_id":"levelo_inurba_marseille","lat":43.24071,"lon":5.37764,"is_reserved":false,"is_disabled":false,"rental_uris":{"android":"levelo://app?vid=1c78e967-aa02-49b0-9057-2c7cc3e4d1b4","ios":"levelo://app?vid=1c78e967-aa02-49b0-9057-2c7cc3e4d1b4"},"vehicle_type_id":"4","last_reported":1741626534,"current_range_meters":4400,"station_id":"ce4bhnp2rcd13ifvqgvg","pricing_plan_id":"cebpf4jnsgd1na2vs0mg"},{"bike_id":"69531f18-e1d9-498a-a47c-c8580cdae44c","system_id":"levelo_inurba_marseille","lat":43.29604,"lon":5.38109,"is_reserved":false,"is_disabled":false,"rental_uris":{"android":"levelo://app?vid=69531f18-e1d9-498a-a47c-c8580cdae44c","ios":"levelo://app?vid=69531f18-e1d9-498a-a47c-c8580cdae44c"},"vehicle_type_id":"4","last_reported":1741626534,"current_range_meters":4800,"station_id":"ce4bgl12rcd13ifvqbo0","pricing_plan_id":"cebpf4jnsgd1na2vs0mg"},{"bike_id":"2e568354-d7e1-48a4-8432-962cc0e2dba9","system_id":"levelo_inurba_marseille","lat":43.296448,"lon":5.374942,"is_reserved":false,"is_disabled":false,"rental_uris":{"android":"levelo://app?vid=2e568354-d7e1-48a4-8432-962cc0e2dba9","ios":"levelo://app?vid=2e568354-d7e1-48a4-8432-962cc0e2dba9"},"vehicle_type_id":"4","last_reported":1741626534,"current_range_meters":4800,"station_id":"ce4bgn12rcd13ifvqbt0","pricing_plan_id":"cebpf4jnsgd1na2vs0mg"},{"bike_id":"a574c5bd-1512-47c2-8bb9-402216ba79c3","system_id":"levelo_inurba_marseille","lat":43.31692,"lon":5.40468,"is_reserved":false,"is_disabled":false,"rental_uris":{"android":"levelo://app?vid=a574c5bd-1512-47c2-8bb9-402216ba79c3","ios":"levelo://app?vid=a574c5bd-1512-47c2-8bb9-402216ba79c3"},"vehicle_type_id":"4","last_reported":1741626534,"current_range_meters":4800,"station_id":"ce4bh012rcd13ifvqd00","pricing_plan_id":"cebpf4jnsgd1na2vs0mg"},{"bike_id":"4ea9af58-4bc9-4394-b2ef-a69ce4bdc45f","system_id":"levelo_inurba_marseille","lat":43.28154,"lon":5.42645,"is_reserved":false,"is_disabled":false,"rental_uris":{"android":"levelo://app?vid=4ea9af58-4bc9-4394-b2ef-a69ce4bdc45f","ios":"levelo://app?vid=4ea9af58-4bc9-4394-b2ef-a69ce4bdc45f"},"vehicle_type_id":"4","last_reported":1741626534,"current_range_meters":5600,"station_id":"ce4bhnh2rcd13ifvqgug","pricing_plan_id":"cebpf4jnsgd1na2vs0mg"},{"bike_id":"9ba5197b-db06-4da0-9db8-4280c5e69978","system_id":"levelo_inurba_marseille","lat":43.28482,"lon":5.38415,"is_reserved":false,"is_disabled":false,"rental_uris":{"android":"levelo://app?vid=9ba5197b-db06-4da0-9db8-4280c5e69978","ios":"levelo://app?vid=9ba5197b-db06-4da0-9db8-4280c5e69978"},"vehicle_type_id":"4","last_reported":1741626534,"current_range_meters":6000,"station_id":"ce4bh512rcd13ifvqe3g","pricing_plan_id":"cebpf4jnsgd1na2vs0mg"},{"bike_id":"7143d93d-f8e4-4540-ad97-c51051fd69c3","system_id":"levelo_inurba_marseille","lat":43.2962,"lon":5.37169,"is_reserved":false,"is_disabled":false,"rental_uris":{"android":"levelo://app?vid=7143d93d-f8e4-4540-ad97-c51051fd69c3","ios":"levelo://app?vid=7143d93d-f8e4-4540-ad97-c51051fd69c3"},"vehicle_type_id":"4","last_reported":1741626534,"current_range_meters":6400,"station_id":"ce4bgnh2rcd13ifvqc0g","pricing_plan_id":"cebpf4jnsgd1na2vs0mg"},{"bike_id":"9a86f038-ea1a-4413-9229-2a7759a59b98","system_id":"levelo_inurba_marseille","lat":43.27067,"lon":5.40264,"is_reserved":false,"is_disabled":false,"rental_uris":{"android":"levelo://app?vid=9a86f038-ea1a-4413-9229-2a7759a59b98","ios":"levelo://app?vid=9a86f038-ea1a-4413-9229-2a7759a59b98"},"vehicle_type_id":"4","last_reported":1741626534,"current_range_meters":6400,"station_id":"ce4bhk92rcd13ifvqgc0","pricing_plan_id":"cebpf4jnsgd1na2vs0mg"},{"bike_id":"4711a0d3-184b-4ba2-86aa-fea8964a4a5c","system_id":"levelo_inurba_marseille","lat":43.3108,"lon":5.42431,"is_reserved":false,"is_disabled":false,"rental_uris":{"android":"levelo://app?vid=4711a0d3-184b-4ba2-86aa-fea8964a4a5c","ios":"levelo://app?vid=4711a0d3-184b-4ba2-86aa-fea8964a4a5c"},"vehicle_type_id":"4","last_reported":1741626534,"current_range_meters":6400,"station_id":"ce4bhp92rcd13ifvqhag","pricing_plan_id":"cebpf4jnsgd1na2vs0mg"},{"bike_id":"6d30fa00-fa73-4a2d-aac6-368b08cd61f0","system_id":"levelo_inurba_marseille","lat":43.3119,"lon":5.37963,"is_reserved":false,"is_disabled":false,"rental_uris":{"android":"levelo://app?vid=6d30fa00-fa73-4a2d-aac6-368b08cd61f0","ios":"levelo://app?vid=6d30fa00-fa73-4a2d-aac6-368b08cd61f0"},"vehicle_type_id":"4","last_reported":1741626534,"current_range_meters":6800,"station_id":"","pricing_plan_id":"cebpf4jnsgd1na2vs0mg"},{"bike_id":"be46ed58-ac4c-4aa1-8a70-82a28c4e4007","system_id":"levelo_inurba_marseille","lat":43.28283,"lon":5.35082,"is_reserved":false,"is_disabled":false,"rental_uris":{"android":"levelo://app?vid=be46ed58-ac4c-4aa1-8a70-82a28c4e4007","ios":"levelo://app?vid=be46ed58-ac4c-4aa1-8a70-82a28c4e4007"},"vehicle_type_id":"4","last_reported":1741626534,"current_range_meters":6800,"station_id":"ce4bhbp2rcd13ifvqerg","pricing_plan_id":"cebpf4jnsgd1na2vs0mg"},{"bike_id":"9a485c34-5d3d-43f2-96c8-e33768762473","system_id":"levelo_inurba_marseille","lat":43.25633,"lon":5.382494,"is_reserved":false,"is_disabled":false,"rental_uris":{"android":"levelo://app?vid=9a485c34-5d3d-43f2-96c8-e33768762473","ios":"levelo://app?vid=9a485c34-5d3d-43f2-96c8-e33768762473"},"vehicle_type_id":"4","last_reported":1741626534,"current_range_meters":6800,"station_id":"ce4bhg12rcd13ifvqf60","pricing_plan_id":"cebpf4jnsgd1na2vs0mg"},{"bike_id":"96886562-387d-4deb-8b80-1bc6653e972f","system_id":"levelo_inurba_marseille","lat":43.26224,"lon":5.40452,"is_reserved":false,"is_disabled":false,"rental_uris":{"android":"levelo://app?vid=96886562-387d-4deb-8b80-1bc6653e972f","ios":"levelo://app?vid=96886562-387d-4deb-8b80-1bc6653e972f"},"vehicle_type_id":"4","last_reported":1741626534,"current_range_meters":6800,"station_id":"ce4bhmh2rcd13ifvqgmg","pricing_plan_id":"cebpf4jnsgd1na2vs0mg"},{"bike_id":"27ec60e3-b2e3-435c-ba4c-8372ab285bb1","system_id":"levelo_inurba_marseille","lat":43.28164,"lon":5.42634,"is_reserved":false,"is_disabled":false,"rental_uris":{"android":"levelo://app?vid=27ec60e3-b2e3-435c-ba4c-8372ab285bb1","ios":"levelo://app?vid=27ec60e3-b2e3-435c-ba4c-8372ab285bb1"},"vehicle_type_id":"4","last_reported":1741626534,"current_range_meters":6800,"station_id":"ce4bhnh2rcd13ifvqgug","pricing_plan_id":"cebpf4jnsgd1na2vs0mg"},{"bike_id":"efea3750-d273-4e90-9523-7c918ec9235e","system_id":"levelo_inurba_marseille","lat":43.28151,"lon":5.42639,"is_reserved":false,"is_disabled":false,"rental_uris":{"android":"levelo://app?vid=efea3750-d273-4e90-9523-7c918ec9235e","ios":"levelo://app?vid=efea3750-d273-4e90-9523-7c918ec9235e"},"vehicle_type_id":"4","last_reported":1741626534,"current_range_meters":6800,"station_id":"ce4bhnh2rcd13ifvqgug","pricing_plan_id":"cebpf4jnsgd1na2vs0mg"},{"bike_id":"b104001a-10f7-4c93-b613-2b76cb885027","system_id":"levelo_inurba_marseille","lat":43.31152,"lon":5.37115,"is_reserved":false,"is_disabled":false,"rental_uris":{"android":"levelo://app?vid=b104001a-10f7-4c93-b613-2b76cb885027","ios":"levelo://app?vid=b104001a-10f7-4c93-b613-2b76cb885027"},"vehicle_type_id":"4","last_reported":1741626534,"current_range_meters":7200,"station_id":"","pricing_plan_id":"cebpf4jnsgd1na2vs0mg"},{"bike_id":"61193e8a-8e60-4220-8577-846bbeba5e58","system_id":"levelo_inurba_marseille","lat":43.31399,"lon":5.38618,"is_reserved":false,"is_disabled":false,"rental_uris":{"android":"levelo://app?vid=61193e8a-8e60-4220-8577-846bbeba5e58","ios":"levelo://app?vid=61193e8a-8e60-4220-8577-846bbeba5e58"},"vehicle_type_id":"4","last_reported":1741626534,"current_range_meters":7200,"station_id":"","pricing_plan_id":"cebpf4jnsgd1na2vs0mg"},{"bike_id":"e837d0a0-21b5-4dd1-854a-5afb95ec6312","system_id":"levelo_inurba_marseille","lat":43.31695,"lon":5.40457,"is_reserved":false,"is_disabled":false,"rental_uris":{"android":"levelo://app?vid=e837d0a0-21b5-4dd1-854a-5afb95ec6312","ios":"levelo://app?vid=e837d0a0-21b5-4dd1-854a-5afb95ec6312"},"vehicle_type_id":"4","last_reported":1741626534,"current_range_meters":7200,"station_id":"ce4bh012rcd13ifvqd00","pricing_plan_id":"cebpf4jnsgd1na2vs0mg"},{"bike_id":"d5ebd663-7d9f-4a18-8ea9-55ee4e5b43b3","system_id":"levelo_inurba_marseille","lat":43.29198,"lon":5.39317,"is_reserved":false,"is_disabled":false,"rental_uris":{"android":"levelo://app?vid=d5ebd663-7d9f-4a18-8ea9-55ee4e5b43b3","ios":"levelo://app?vid=d5ebd663-7d9f-4a18-8ea9-55ee4e5b43b3"},"vehicle_type_id":"4","last_reported":1741626534,"current_range_meters":7200,"station_id":"ce4bh192rcd13ifvqdd0","pricing_plan_id":"cebpf4jnsgd1na2vs0mg"},{"bike_id":"38f5461a-4dd2-4918-b92f-1655d61e0084","system_id":"levelo_inurba_marseille","lat":43.290283,"lon":5.400189,"is_reserved":false,"is_disabled":false,"rental_uris":{"android":"levelo://app?vid=38f5461a-4dd2-4918-b92f-1655d61e0084","ios":"levelo://app?vid=38f5461a-4dd2-4918-b92f-1655d61e0084"},"vehicle_type_id":"4","last_reported":1741626534,"current_range_meters":7200,"station_id":"ce4bh392rcd13ifvqdm0","pricing_plan_id":"cebpf4jnsgd1na2vs0mg"},{"bike_id":"2fda540b-778d-42ab-a427-9d1fe834fd31","system_id":"levelo_inurba_marseille","lat":43.27577,"lon":5.38433,"is_reserved":false,"is_disabled":false,"rental_uris":{"android":"levelo://app?vid=2fda540b-778d-42ab-a427-9d1fe834fd31","ios":"levelo://app?vid=2fda540b-778d-42ab-a427-9d1fe834fd31"},"vehicle_type_id":"4","last_reported":1741626534,"current_range_meters":7200,"station_id":"ce4bhh92rcd13ifvqfi0","pricing_plan_id":"cebpf4jnsgd1na2vs0mg"},{"bike_id":"089fa96c-06f0-4a31-aa59-e3a83d994d6c","system_id":"levelo_inurba_marseille","lat":43.28166,"lon":5.42642,"is_reserved":false,"is_disabled":false,"rental_uris":{"android":"levelo://app?vid=089fa96c-06f0-4a31-aa59-e3a83d994d6c","ios":"levelo://app?vid=089fa96c-06f0-4a31-aa59-e3a83d994d6c"},"vehicle_type_id":"4","last_reported":1741626534,"current_range_meters":7200,"station_id":"ce4bhnh2rcd13ifvqgug","pricing_plan_id":"cebpf4jnsgd1na2vs0mg"},{"bike_id":"85858945-288d-4d7b-aac5-8cf9d060c580","system_id":"levelo_inurba_marseille","lat":43.32343,"lon":5.36741,"is_reserved":false,"is_disabled":false,"rental_uris":{"android":"levelo://app?vid=85858945-288d-4d7b-aac5-8cf9d060c580","ios":"levelo://app?vid=85858945-288d-4d7b-aac5-8cf9d060c580"},"vehicle_type_id":"4","last_reported":1741626534,"current_range_meters":7200,"station_id":"ce4bhsh2rcd13ifvqi2g","pricing_plan_id":"cebpf4jnsgd1na2vs0mg"},{"bike_id":"ebb2d58b-982f-41cd-b65c-668035c69ec1","system_id":"levelo_inurba_marseille","lat":43.30493,"lon":5.37155,"is_reserved":false,"is_disabled":false,"rental_uris":{"android":"levelo://app?vid=ebb2d58b-982f-41cd-b65c-668035c69ec1","ios":"levelo://app?vid=ebb2d58b-982f-41cd-b65c-668035c69ec1"},"vehicle_type_id":"4","last_reported":1741626534,"current_range_meters":8000,"station_id":"","pricing_plan_id":"cebpf4jnsgd1na2vs0mg"},{"bike_id":"57bb9620-7e1d-4375-9183-8aca42377c8c","system_id":"levelo_inurba_marseille","lat":43.30457,"lon":5.38209,"is_reserved":false,"is_disabled":false,"rental_uris":{"android":"levelo://app?vid=57bb9620-7e1d-4375-9183-8aca42377c8c","ios":"levelo://app?vid=57bb9620-7e1d-4375-9183-8aca42377c8c"},"vehicle_type_id":"4","last_reported":1741626534,"current_range_meters":8000,"station_id":"","pricing_plan_id":"cebpf4jnsgd1na2vs0mg"},{"bike_id":"1e781b32-8532-4c92-93a3-18fa21a7ff63","system_id":"levelo_inurba_marseille","lat":43.29705,"lon":5.37704,"is_reserved":false,"is_disabled":false,"rental_uris":{"android":"levelo://app?vid=1e781b32-8532-4c92-93a3-18fa21a7ff63","ios":"levelo://app?vid=1e781b32-8532-4c92-93a3-18fa21a7ff63"},"vehicle_type_id":"4","last_reported":1741626534,"current_range_meters":8000,"station_id":"ce4bgkh2rcd13ifvqbl0","pricing_plan_id":"cebpf4jnsgd1na2vs0mg"},{"bike_id":"3dbd7750-ff14-4780-8d79-b5c3ab040cc9","system_id":"levelo_inurba_marseille","lat":43.30892,"lon":5.39647,"is_reserved":false,"is_disabled":false,"rental_uris":{"android":"levelo://app?vid=3dbd7750-ff14-4780-8d79-b5c3ab040cc9","ios":"levelo://app?vid=3dbd7750-ff14-4780-8d79-b5c3ab040cc9"},"vehicle_type_id":"4","last_reported":1741626534,"current_range_meters":8000,"station_id":"ce4bh012rcd13ifvqcv0","pricing_plan_id":"cebpf4jnsgd1na2vs0mg"},{"bike_id":"309a0987-3a5e-446c-bb36-3f66a10e881c","system_id":"levelo_inurba_marseille","lat":43.29255,"lon":5.40902,"is_reserved":false,"is_disabled":false,"rental_uris":{"android":"levelo://app?vid=309a0987-3a5e-446c-bb36-3f66a10e881c","ios":"levelo://app?vid=309a0987-3a5e-446c-bb36-3f66a10e881c"},"vehicle_type_id":"4","last_reported":1741626534,"current_range_meters":8000,"station_id":"ce4bh192rcd13ifvqdc0","pricing_plan_id":"cebpf4jnsgd1na2vs0mg"},{"bike_id":"985ee3c3-05dc-4c79-b323-55d5a7a29f5d","system_id":"levelo_inurba_marseille","lat":43.24541,"lon":5.39526,"is_reserved":false,"is_disabled":false,"rental_uris":{"android":"levelo://app?vid=985ee3c3-05dc-4c79-b323-55d5a7a29f5d","ios":"levelo://app?vid=985ee3c3-05dc-4c79-b323-55d5a7a29f5d"},"vehicle_type_id":"4","last_reported":1741626534,"current_range_meters":8000,"station_id":"ce4bhlp2rcd13ifvqgjg","pricing_plan_id":"cebpf4jnsgd1na2vs0mg"},{"bike_id":"7f08542c-3622-4bee-8852-d0974c0ec085","system_id":"levelo_inurba_marseille","lat":43.24154,"lon":5.36339,"is_reserved":false,"is_disabled":false,"rental_uris":{"android":"levelo://app?vid=7f08542c-3622-4bee-8852-d0974c0ec085","ios":"levelo://app?vid=7f08542c-3622-4bee-8852-d0974c0ec085"},"vehicle_type_id":"4","last_reported":1741626534,"current_range_meters":8000,"station_id":"cpo36qri1sfpv3e86is0","pricing_plan_id":"cebpf4jnsgd1na2vs0mg"},{"bike_id":"57d491f8-4706-4b00-ad57-f6b6c494e279","system_id":"levelo_inurba_marseille","lat":43.2705,"lon":5.4028,"is_reserved":false,"is_disabled":false,"rental_uris":{"android":"levelo://app?vid=57d491f8-4706-4b00-ad57-f6b6c494e279","ios":"levelo://app?vid=57d491f8-4706-4b00-ad57-f6b6c494e279"},"vehicle_type_id":"4","last_reported":1741626534,"current_range_meters":8400,"station_id":"ce4bhk92rcd13ifvqgc0","pricing_plan_id":"cebpf4jnsgd1na2vs0mg"},{"bike_id":"5d44eec5-0f76-4d9d-87c9-f425c19e364b","system_id":"levelo_inurba_marseille","lat":43.25086,"lon":5.39515,"is_reserved":false,"is_disabled":false,"rental_uris":{"android":"levelo://app?vid=5d44eec5-0f76-4d9d-87c9-f425c19e364b","ios":"levelo://app?vid=5d44eec5-0f76-4d9d-87c9-f425c19e364b"},"vehicle_type_id":"4","last_reported":1741626534,"current_range_meters":8400,"station_id":"ce4bhm12rcd13ifvqgkg","pricing_plan_id":"cebpf4jnsgd1na2vs0mg"},{"bike_id":"87c40d47-5266-4f6a-9a89-01987f8bf62c","system_id":"levelo_inurba_marseille","lat":43.26232,"lon":5.40462,"is_reserved":false,"is_disabled":false,"rental_uris":{"android":"levelo://app?vid=87c40d47-5266-4f6a-9a89-01987f8bf62c","ios":"levelo://app?vid=87c40d47-5266-4f6a-9a89-01987f8bf62c"},"vehicle_type_id":"4","last_reported":1741626534,"current_range_meters":8400,"station_id":"ce4bhmh2rcd13ifvqgmg","pricing_plan_id":"cebpf4jnsgd1na2vs0mg"},{"bike_id":"1220cb74-46e9-4eb6-8db4-e9ec140e4ce0","system_id":"levelo_inurba_marseille","lat":43.27948,"lon":5.41045,"is_reserved":false,"is_disabled":false,"rental_uris":{"android":"levelo://app?vid=1220cb74-46e9-4eb6-8db4-e9ec140e4ce0","ios":"levelo://app?vid=1220cb74-46e9-4eb6-8db4-e9ec140e4ce0"},"vehicle_type_id":"4","last_reported":1741626534,"current_range_meters":8400,"station_id":"ce4bhnp2rcd13ifvqh0g","pricing_plan_id":"cebpf4jnsgd1na2vs0mg"},{"bike_id":"bdc78fc7-57a8-460b-93ec-004636e44691","system_id":"levelo_inurba_marseille","lat":43.298007,"lon":5.393684,"is_reserved":false,"is_disabled":false,"rental_uris":{"android":"levelo://app?vid=bdc78fc7-57a8-460b-93ec-004636e44691","ios":"levelo://app?vid=bdc78fc7-57a8-460b-93ec-004636e44691"},"vehicle_type_id":"4","last_reported":1741626534,"current_range_meters":8400,"station_id":"chh1huq6cuj3fo74tm60","pricing_plan_id":"cebpf4jnsgd1na2vs0mg"},{"bike_id":"4c3ba5aa-a70e-43c9-9613-6794b19651c1","system_id":"levelo_inurba_marseille","lat":43.29355,"lon":5.40192,"is_reserved":false,"is_disabled":false,"rental_uris":{"android":"levelo://app?vid=4c3ba5aa-a70e-43c9-9613-6794b19651c1","ios":"levelo://app?vid=4c3ba5aa-a70e-43c9-9613-6794b19651c1"},"vehicle_type_id":"4","last_reported":1741626534,"current_range_meters":8800,"station_id":"","pricing_plan_id":"cebpf4jnsgd1na2vs0mg"},{"bike_id":"169b38ad-d958-40d3-89a3-ded19f11a319","system_id":"levelo_inurba_marseille","lat":43.33796,"lon":5.38999,"is_reserved":false,"is_disabled":false,"rental_uris":{"android":"levelo://app?vid=169b38ad-d958-40d3-89a3-ded19f11a319","ios":"levelo://app?vid=169b38ad-d958-40d3-89a3-ded19f11a319"},"vehicle_type_id":"4","last_reported":1741626534,"current_range_meters":8800,"station_id":"","pricing_plan_id":"cebpf4jnsgd1na2vs0mg"},{"bike_id":"1f72adc6-3d1a-4fad-a905-cb9dcd596e26","system_id":"levelo_inurba_marseille","lat":43.23826,"lon":5.43573,"is_reserved":false,"is_disabled":false,"rental_uris":{"android":"levelo://app?vid=1f72adc6-3d1a-4fad-a905-cb9dcd596e26","ios":"levelo://app?vid=1f72adc6-3d1a-4fad-a905-cb9dcd596e26"},"vehicle_type_id":"4","last_reported":1741626534,"current_range_meters":8800,"station_id":"","pricing_plan_id":"cebpf4jnsgd1na2vs0mg"},{"bike_id":"96933892-6a46-4281-880c-758d7231ef75","system_id":"levelo_inurba_marseille","lat":43.31075,"lon":5.38352,"is_reserved":false,"is_disabled":false,"rental_uris":{"android":"levelo://app?vid=96933892-6a46-4281-880c-758d7231ef75","ios":"levelo://app?vid=96933892-6a46-4281-880c-758d7231ef75"},"vehicle_type_id":"4","last_reported":1741626534,"current_range_meters":8800,"station_id":"ce4bgv92rcd13ifvqcr0","pricing_plan_id":"cebpf4jnsgd1na2vs0mg"},{"bike_id":"ab23dfab-c2d4-4091-9657-bcb577f452cc","system_id":"levelo_inurba_marseille","lat":43.29509,"lon":5.39397,"is_reserved":false,"is_disabled":false,"rental_uris":{"android":"levelo://app?vid=ab23dfab-c2d4-4091-9657-bcb577f452cc","ios":"levelo://app?vid=ab23dfab-c2d4-4091-9657-bcb577f452cc"},"vehicle_type_id":"4","last_reported":1741626534,"current_range_meters":8800,"station_id":"ce4bh292rcd13ifvqdf0","pricing_plan_id":"cebpf4jnsgd1na2vs0mg"},{"bike_id":"feffc75c-7164-4672-bfa3-fd70688fe9de","system_id":"levelo_inurba_marseille","lat":43.2866,"lon":5.3635,"is_reserved":false,"is_disabled":false,"rental_uris":{"android":"levelo://app?vid=feffc75c-7164-4672-bfa3-fd70688fe9de","ios":"levelo://app?vid=feffc75c-7164-4672-bfa3-fd70688fe9de"},"vehicle_type_id":"4","last_reported":1741626534,"current_range_meters":8800,"station_id":"ce4bhah2rcd13ifvqej0","pricing_plan_id":"cebpf4jnsgd1na2vs0mg"},{"bike_id":"a14f148b-2f36-434e-94ea-fdd8d34176a4","system_id":"levelo_inurba_marseille","lat":43.24801,"lon":5.37455,"is_reserved":false,"is_disabled":false,"rental_uris":{"android":"levelo://app?vid=a14f148b-2f36-434e-94ea-fdd8d34176a4","ios":"levelo://app?vid=a14f148b-2f36-434e-94ea-fdd8d34176a4"},"vehicle_type_id":"4","last_reported":1741626534,"current_range_meters":8800,"station_id":"ce4bhgh2rcd13ifvqfb0","pricing_plan_id":"cebpf4jnsgd1na2vs0mg"},{"bike_id":"72505422-dde5-4a26-b2b5-19a4cf729bc5","system_id":"levelo_inurba_marseille","lat":43.29227,"lon":5.37611,"is_reserved":false,"is_disabled":false,"rental_uris":{"android":"levelo://app?vid=72505422-dde5-4a26-b2b5-19a4cf729bc5","ios":"levelo://app?vid=72505422-dde5-4a26-b2b5-19a4cf729bc5"},"vehicle_type_id":"4","last_reported":1741626534,"current_range_meters":9200,"station_id":"ce4bgi12rcd13ifvqb80","pricing_plan_id":"cebpf4jnsgd1na2vs0mg"},{"bike_id":"199cb7b2-857a-4db4-b08b-30cc2dc0c4f3","system_id":"levelo_inurba_marseille","lat":43.31708,"lon":5.43706,"is_reserved":false,"is_disabled":false,"rental_uris":{"android":"levelo://app?vid=199cb7b2-857a-4db4-b08b-30cc2dc0c4f3","ios":"levelo://app?vid=199cb7b2-857a-4db4-b08b-30cc2dc0c4f3"},"vehicle_type_id":"4","last_reported":1741626534,"current_range_meters":9200,"station_id":"ce4bhp92rcd13ifvqhcg","pricing_plan_id":"cebpf4jnsgd1na2vs0mg"},{"bike_id":"6fc45882-d39a-4a11-8d19-649988fbd318","system_id":"levelo_inurba_marseille","lat":43.32343,"lon":5.40615,"is_reserved":false,"is_disabled":false,"rental_uris":{"android":"levelo://app?vid=6fc45882-d39a-4a11-8d19-649988fbd318","ios":"levelo://app?vid=6fc45882-d39a-4a11-8d19-649988fbd318"},"vehicle_type_id":"4","last_reported":1741626534,"current_range_meters":9200,"station_id":"ce4bhq92rcd13ifvqhjg","pricing_plan_id":"cebpf4jnsgd1na2vs0mg"},{"bike_id":"741846ec-b867-413b-8051-4f8e036859fd","system_id":"levelo_inurba_marseille","lat":43.32046,"lon":5.41548,"is_reserved":false,"is_disabled":false,"rental_uris":{"android":"levelo://app?vid=741846ec-b867-413b-8051-4f8e036859fd","ios":"levelo://app?vid=741846ec-b867-413b-8051-4f8e036859fd"},"vehicle_type_id":"4","last_reported":1741626534,"current_range_meters":9200,"station_id":"ce4bhq92rcd13ifvqhkg","pricing_plan_id":"cebpf4jnsgd1na2vs0mg"},{"bike_id":"5c40a421-1a04-400d-ba8f-5e4538f5c4fe","system_id":"levelo_inurba_marseille","lat":43.29908,"lon":5.38148,"is_reserved":false,"is_disabled":false,"rental_uris":{"android":"levelo://app?vid=5c40a421-1a04-400d-ba8f-5e4538f5c4fe","ios":"levelo://app?vid=5c40a421-1a04-400d-ba8f-5e4538f5c4fe"},"vehicle_type_id":"4","last_reported":1741626534,"current_range_meters":9600,"station_id":"ce4bgj12rcd13ifvqbc0","pricing_plan_id":"cebpf4jnsgd1na2vs0mg"},{"bike_id":"8901c857-dd2d-45af-b7e1-42bc2e45b769","system_id":"levelo_inurba_marseille","lat":43.28661,"lon":5.38656,"is_reserved":false,"is_disabled":false,"rental_uris":{"android":"levelo://app?vid=8901c857-dd2d-45af-b7e1-42bc2e45b769","ios":"levelo://app?vid=8901c857-dd2d-45af-b7e1-42bc2e45b769"},"vehicle_type_id":"4","last_reported":1741626534,"current_range_meters":9600,"station_id":"ce4bh492rcd13ifvqdug","pricing_plan_id":"cebpf4jnsgd1na2vs0mg"},{"bike_id":"12dd10d0-9f8d-4c67-9312-d5d1b8a59eb8","system_id":"levelo_inurba_marseille","lat":43.29033,"lon":5.37564,"is_reserved":false,"is_disabled":false,"rental_uris":{"android":"levelo://app?vid=12dd10d0-9f8d-4c67-9312-d5d1b8a59eb8","ios":"levelo://app?vid=12dd10d0-9f8d-4c67-9312-d5d1b8a59eb8"},"vehicle_type_id":"4","last_reported":1741626534,"current_range_meters":9600,"station_id":"ce4bh692rcd13ifvqe90","pricing_plan_id":"cebpf4jnsgd1na2vs0mg"},{"bike_id":"040b5ebc-1b7b-4a18-b885-571db40b86ef","system_id":"levelo_inurba_marseille","lat":43.27079,"lon":5.42258,"is_reserved":false,"is_disabled":false,"rental_uris":{"android":"levelo://app?vid=040b5ebc-1b7b-4a18-b885-571db40b86ef","ios":"levelo://app?vid=040b5ebc-1b7b-4a18-b885-571db40b86ef"},"vehicle_type_id":"4","last_reported":1741626534,"current_range_meters":9600,"station_id":"ce4bhk92rcd13ifvqgb0","pricing_plan_id":"cebpf4jnsgd1na2vs0mg"},{"bike_id":"44a48c38-4dd6-4a83-be80-600e172c39f8","system_id":"levelo_inurba_marseille","lat":43.27038,"lon":5.40264,"is_reserved":false,"is_disabled":false,"rental_uris":{"android":"levelo://app?vid=44a48c38-4dd6-4a83-be80-600e172c39f8","ios":"levelo://app?vid=44a48c38-4dd6-4a83-be80-600e172c39f8"},"vehicle_type_id":"4","last_reported":1741626534,"current_range_meters":9600,"station_id":"ce4bhk92rcd13ifvqgc0","pricing_plan_id":"cebpf4jnsgd1na2vs0mg"},{"bike_id":"5bf1fd3d-106c-4b23-b455-ae5552f33fa7","system_id":"levelo_inurba_marseille","lat":43.25072,"lon":5.39535,"is_reserved":false,"is_disabled":false,"rental_uris":{"android":"levelo://app?vid=5bf1fd3d-106c-4b23-b455-ae5552f33fa7","ios":"levelo://app?vid=5bf1fd3d-106c-4b23-b455-ae5552f33fa7"},"vehicle_type_id":"4","last_reported":1741626534,"current_range_meters":9600,"station_id":"ce4bhm12rcd13ifvqgkg","pricing_plan_id":"cebpf4jnsgd1na2vs0mg"},{"bike_id":"8c547e20-bab8-4768-b819-04fdee6f5b2f","system_id":"levelo_inurba_marseille","lat":43.29531,"lon":5.38539,"is_reserved":false,"is_disabled":false,"rental_uris":{"android":"levelo://app?vid=8c547e20-bab8-4768-b819-04fdee6f5b2f","ios":"levelo://app?vid=8c547e20-bab8-4768-b819-04fdee6f5b2f"},"vehicle_type_id":"4","last_reported":1741626534,"current_range_meters":10000,"station_id":"ce4bgih2rcd13ifvqba0","pricing_plan_id":"cebpf4jnsgd1na2vs0mg"},{"bike_id":"fd25ce7f-16e8-46d4-a32f-0a1c3ec1336e","system_id":"levelo_inurba_marseille","lat":43.30197,"lon":5.36641,"is_reserved":false,"is_disabled":false,"rental_uris":{"android":"levelo://app?vid=fd25ce7f-16e8-46d4-a32f-0a1c3ec1336e","ios":"levelo://app?vid=fd25ce7f-16e8-46d4-a32f-0a1c3ec1336e"},"vehicle_type_id":"4","last_reported":1741626534,"current_range_meters":10000,"station_id":"ce4bgrh2rcd13ifvqc8g","pricing_plan_id":"cebpf4jnsgd1na2vs0mg"},{"bike_id":"9cd0759e-b209-4991-aa74-9064662d9865","system_id":"levelo_inurba_marseille","lat":43.31498,"lon":5.37315,"is_reserved":false,"is_disabled":false,"rental_uris":{"android":"levelo://app?vid=9cd0759e-b209-4991-aa74-9064662d9865","ios":"levelo://app?vid=9cd0759e-b209-4991-aa74-9064662d9865"},"vehicle_type_id":"4","last_reported":1741626534,"current_range_meters":10000,"station_id":"ce4bgt12rcd13ifvqcd0","pricing_plan_id":"cebpf4jnsgd1na2vs0mg"},{"bike_id":"92964d35-8bef-4355-aa2c-12af3389d34c","system_id":"levelo_inurba_marseille","lat":43.28662,"lon":5.36349,"is_reserved":false,"is_disabled":false,"rental_uris":{"android":"levelo://app?vid=92964d35-8bef-4355-aa2c-12af3389d34c","ios":"levelo://app?vid=92964d35-8bef-4355-aa2c-12af3389d34c"},"vehicle_type_id":"4","last_reported":1741626534,"current_range_meters":10000,"station_id":"ce4bhah2rcd13ifvqej0","pricing_plan_id":"cebpf4jnsgd1na2vs0mg"},{"bike_id":"cff4445f-6b70-4c92-a3aa-728d1723639c","system_id":"levelo_inurba_marseille","lat":43.25067,"lon":5.3949,"is_reserved":false,"is_disabled":false,"rental_uris":{"android":"levelo://app?vid=cff4445f-6b70-4c92-a3aa-728d1723639c","ios":"levelo://app?vid=cff4445f-6b70-4c92-a3aa-728d1723639c"},"vehicle_type_id":"4","last_reported":1741626534,"current_range_meters":10000,"station_id":"ce4bhm12rcd13ifvqgkg","pricing_plan_id":"cebpf4jnsgd1na2vs0mg"},{"bike_id":"757f94c5-da38-4e78-b071-653f7b036a52","system_id":"levelo_inurba_marseille","lat":43.28716,"lon":5.39981,"is_reserved":false,"is_disabled":false,"rental_uris":{"android":"levelo://app?vid=757f94c5-da38-4e78-b071-653f7b036a52","ios":"levelo://app?vid=757f94c5-da38-4e78-b071-653f7b036a52"},"vehicle_type_id":"4","last_reported":1741626534,"current_range_meters":10000,"station_id":"ce4bho92rcd13ifvqh3g","pricing_plan_id":"cebpf4jnsgd1na2vs0mg"},{"bike_id":"ae4913d3-c7b3-4e3b-8b0e-9eedefc8bcf1","system_id":"levelo_inurba_marseille","lat":43.31324,"lon":5.38841,"is_reserved":false,"is_disabled":false,"rental_uris":{"android":"levelo://app?vid=ae4913d3-c7b3-4e3b-8b0e-9eedefc8bcf1","ios":"levelo://app?vid=ae4913d3-c7b3-4e3b-8b0e-9eedefc8bcf1"},"vehicle_type_id":"4","last_reported":1741626534,"current_range_meters":10800,"station_id":"","pricing_plan_id":"cebpf4jnsgd1na2vs0mg"},{"bike_id":"338193cb-efc8-4250-89b6-a649ce0f2d04","system_id":"levelo_inurba_marseille","lat":43.30324,"lon":5.40447,"is_reserved":false,"is_disabled":false,"rental_uris":{"android":"levelo://app?vid=338193cb-efc8-4250-89b6-a649ce0f2d04","ios":"levelo://app?vid=338193cb-efc8-4250-89b6-a649ce0f2d04"},"vehicle_type_id":"4","last_reported":1741626534,"current_range_meters":10800,"station_id":"ce4bh012rcd13ifvqd10","pricing_plan_id":"cebpf4jnsgd1na2vs0mg"},{"bike_id":"acff2939-c952-4f56-8aac-b02f4b8fce85","system_id":"levelo_inurba_marseille","lat":43.27071,"lon":5.42276,"is_reserved":false,"is_disabled":false,"rental_uris":{"android":"levelo://app?vid=acff2939-c952-4f56-8aac-b02f4b8fce85","ios":"levelo://app?vid=acff2939-c952-4f56-8aac-b02f4b8fce85"},"vehicle_type_id":"4","last_reported":1741626534,"current_range_meters":10800,"station_id":"ce4bhk92rcd13ifvqgb0","pricing_plan_id":"cebpf4jnsgd1na2vs0mg"},{"bike_id":"b10f2370-2bf8-4150-9f97-aa6396744d6d","system_id":"levelo_inurba_marseille","lat":43.27049,"lon":5.40277,"is_reserved":false,"is_disabled":false,"rental_uris":{"android":"levelo://app?vid=b10f2370-2bf8-4150-9f97-aa6396744d6d","ios":"levelo://app?vid=b10f2370-2bf8-4150-9f97-aa6396744d6d"},"vehicle_type_id":"4","last_reported":1741626534,"current_range_meters":10800,"station_id":"ce4bhk92rcd13ifvqgc0","pricing_plan_id":"cebpf4jnsgd1na2vs0mg"},{"bike_id":"d2ac0aa6-492c-406a-8f30-81aab53fe76b","system_id":"levelo_inurba_marseille","lat":43.24166,"lon":5.39734,"is_reserved":false,"is_disabled":false,"rental_uris":{"android":"levelo://app?vid=d2ac0aa6-492c-406a-8f30-81aab53fe76b","ios":"levelo://app?vid=d2ac0aa6-492c-406a-8f30-81aab53fe76b"},"vehicle_type_id":"4","last_reported":1741626534,"current_range_meters":10800,"station_id":"ce4bhn12rcd13ifvqgpg","pricing_plan_id":"cebpf4jnsgd1na2vs0mg"},{"bike_id":"4a570a89-f970-470f-9776-53b50f144a49","system_id":"levelo_inurba_marseille","lat":43.29885,"lon":5.38912,"is_reserved":false,"is_disabled":false,"rental_uris":{"android":"levelo://app?vid=4a570a89-f970-470f-9776-53b50f144a49","ios":"levelo://app?vid=4a570a89-f970-470f-9776-53b50f144a49"},"vehicle_type_id":"4","last_reported":1741626534,"current_range_meters":11200,"station_id":"ce4bh392rcd13ifvqdl0","pricing_plan_id":"cebpf4jnsgd1na2vs0mg"},{"bike_id":"452998ed-fdab-42ba-ab65-607e858c90a2","system_id":"levelo_inurba_marseille","lat":43.27975,"lon":5.3874,"is_reserved":false,"is_disabled":false,"rental_uris":{"android":"levelo://app?vid=452998ed-fdab-42ba-ab65-607e858c90a2","ios":"levelo://app?vid=452998ed-fdab-42ba-ab65-607e858c90a2"},"vehicle_type_id":"4","last_reported":1741626534,"current_range_meters":11200,"station_id":"ce4bhg12rcd13ifvqf80","pricing_plan_id":"cebpf4jnsgd1na2vs0mg"},{"bike_id":"afb4a7e5-ea7f-4873-b707-d42b546d792a","system_id":"levelo_inurba_marseille","lat":43.25583,"lon":5.38227,"is_reserved":false,"is_disabled":false,"rental_uris":{"android":"levelo://app?vid=afb4a7e5-ea7f-4873-b707-d42b546d792a","ios":"levelo://app?vid=afb4a7e5-ea7f-4873-b707-d42b546d792a"},"vehicle_type_id":"4","last_reported":1741626534,"current_range_meters":11200,"station_id":"ce4bhih2rcd13ifvqfs0","pricing_plan_id":"cebpf4jnsgd1na2vs0mg"},{"bike_id":"49ba811c-3ebc-4370-a7d8-19f7194e3066","system_id":"levelo_inurba_marseille","lat":43.2706,"lon":5.40277,"is_reserved":false,"is_disabled":false,"rental_uris":{"android":"levelo://app?vid=49ba811c-3ebc-4370-a7d8-19f7194e3066","ios":"levelo://app?vid=49ba811c-3ebc-4370-a7d8-19f7194e3066"},"vehicle_type_id":"4","last_reported":1741626534,"current_range_meters":11200,"station_id":"ce4bhk92rcd13ifvqgc0","pricing_plan_id":"cebpf4jnsgd1na2vs0mg"},{"bike_id":"e6bfedde-b8d3-483f-9c12-e45beb87d7c9","system_id":"levelo_inurba_marseille","lat":43.23148,"lon":5.43717,"is_reserved":false,"is_disabled":false,"rental_uris":{"android":"levelo://app?vid=e6bfedde-b8d3-483f-9c12-e45beb87d7c9","ios":"levelo://app?vid=e6bfedde-b8d3-483f-9c12-e45beb87d7c9"},"vehicle_type_id":"4","last_reported":1741626534,"current_range_meters":11200,"station_id":"ce4bhmp2rcd13ifvqgog","pricing_plan_id":"cebpf4jnsgd1na2vs0mg"},{"bike_id":"7ea67d9d-09f6-4aa5-bbad-e8df8d8def74","system_id":"levelo_inurba_marseille","lat":43.2978,"lon":5.3932,"is_reserved":false,"is_disabled":false,"rental_uris":{"android":"levelo://app?vid=7ea67d9d-09f6-4aa5-bbad-e8df8d8def74","ios":"levelo://app?vid=7ea67d9d-09f6-4aa5-bbad-e8df8d8def74"},"vehicle_type_id":"4","last_reported":1741626534,"current_range_meters":11200,"station_id":"chh1huq6cuj3fo74tm60","pricing_plan_id":"cebpf4jnsgd1na2vs0mg"},{"bike_id":"9b502abe-3908-48b5-a1e4-68dfd5879fb7","system_id":"levelo_inurba_marseille","lat":43.29567,"lon":5.37535,"is_reserved":false,"is_disabled":false,"rental_uris":{"android":"levelo://app?vid=9b502abe-3908-48b5-a1e4-68dfd5879fb7","ios":"levelo://app?vid=9b502abe-3908-48b5-a1e4-68dfd5879fb7"},"vehicle_type_id":"4","last_reported":1741626534,"current_range_meters":11600,"station_id":"ce4bgh92rcd13ifvqb50","pricing_plan_id":"cebpf4jnsgd1na2vs0mg"},{"bike_id":"e747d5ae-d0eb-47f3-910f-61e3964bf85a","system_id":"levelo_inurba_marseille","lat":43.3088,"lon":5.3964,"is_reserved":false,"is_disabled":false,"rental_uris":{"android":"levelo://app?vid=e747d5ae-d0eb-47f3-910f-61e3964bf85a","ios":"levelo://app?vid=e747d5ae-d0eb-47f3-910f-61e3964bf85a"},"vehicle_type_id":"4","last_reported":1741626534,"current_range_meters":11600,"station_id":"ce4bh012rcd13ifvqcv0","pricing_plan_id":"cebpf4jnsgd1na2vs0mg"},{"bike_id":"538e4c3b-049a-45cd-9db6-27a844990691","system_id":"levelo_inurba_marseille","lat":43.29628,"lon":5.40592,"is_reserved":false,"is_disabled":false,"rental_uris":{"android":"levelo://app?vid=538e4c3b-049a-45cd-9db6-27a844990691","ios":"levelo://app?vid=538e4c3b-049a-45cd-9db6-27a844990691"},"vehicle_type_id":"4","last_reported":1741626534,"current_range_meters":11600,"station_id":"ce4bh0h2rcd13ifvqd60","pricing_plan_id":"cebpf4jnsgd1na2vs0mg"},{"bike_id":"e6c77101-4646-4aa9-90e6-e7685a64f065","system_id":"levelo_inurba_marseille","lat":43.30104,"lon":5.3908,"is_reserved":false,"is_disabled":false,"rental_uris":{"android":"levelo://app?vid=e6c77101-4646-4aa9-90e6-e7685a64f065","ios":"levelo://app?vid=e6c77101-4646-4aa9-90e6-e7685a64f065"},"vehicle_type_id":"4","last_reported":1741626534,"current_range_meters":11600,"station_id":"ce4bh192rcd13ifvqdb0","pricing_plan_id":"cebpf4jnsgd1na2vs0mg"},{"bike_id":"8dc2c2dc-de0f-4fd2-b739-faf253fff5e5","system_id":"levelo_inurba_marseille","lat":43.23147,"lon":5.43718,"is_reserved":false,"is_disabled":false,"rental_uris":{"android":"levelo://app?vid=8dc2c2dc-de0f-4fd2-b739-faf253fff5e5","ios":"levelo://app?vid=8dc2c2dc-de0f-4fd2-b739-faf253fff5e5"},"vehicle_type_id":"4","last_reported":1741626534,"current_range_meters":11600,"station_id":"ce4bhmp2rcd13ifvqgog","pricing_plan_id":"cebpf4jnsgd1na2vs0mg"},{"bike_id":"787941c7-68e4-4a9e-b1f1-d3bf469258e1","system_id":"levelo_inurba_marseille","lat":43.24159,"lon":5.39719,"is_reserved":false,"is_disabled":false,"rental_uris":{"android":"levelo://app?vid=787941c7-68e4-4a9e-b1f1-d3bf469258e1","ios":"levelo://app?vid=787941c7-68e4-4a9e-b1f1-d3bf469258e1"},"vehicle_type_id":"4","last_reported":1741626534,"current_range_meters":11600,"station_id":"ce4bhn12rcd13ifvqgpg","pricing_plan_id":"cebpf4jnsgd1na2vs0mg"},{"bike_id":"80771939-f406-42f7-81c5-33180fd8a338","system_id":"levelo_inurba_marseille","lat":43.23196,"lon":5.35554,"is_reserved":false,"is_disabled":false,"rental_uris":{"android":"levelo://app?vid=80771939-f406-42f7-81c5-33180fd8a338","ios":"levelo://app?vid=80771939-f406-42f7-81c5-33180fd8a338"},"vehicle_type_id":"4","last_reported":1741626534,"current_range_meters":11600,"station_id":"ce4bhu92rcd13ifvqi70","pricing_plan_id":"cebpf4jnsgd1na2vs0mg"},{"bike_id":"09bbb690-af86-458c-bbad-70d10e2033ee","system_id":"levelo_inurba_marseille","lat":43.23055,"lon":5.35492,"is_reserved":false,"is_disabled":false,"rental_uris":{"android":"levelo://app?vid=09bbb690-af86-458c-bbad-70d10e2033ee","ios":"levelo://app?vid=09bbb690-af86-458c-bbad-70d10e2033ee"},"vehicle_type_id":"4","last_reported":1741626534,"current_range_meters":11600,"station_id":"cpo3342slgdg3j2ifvpg","pricing_plan_id":"cebpf4jnsgd1na2vs0mg"},{"bike_id":"73302029-71a6-435b-87f8-dab0e7d0ea51","system_id":"levelo_inurba_marseille","lat":43.29291,"lon":5.40143,"is_reserved":false,"is_disabled":false,"rental_uris":{"android":"levelo://app?vid=73302029-71a6-435b-87f8-dab0e7d0ea51","ios":"levelo://app?vid=73302029-71a6-435b-87f8-dab0e7d0ea51"},"vehicle_type_id":"4","last_reported":1741626534,"current_range_meters":12000,"station_id":"ce4bh312rcd13ifvqdk0","pricing_plan_id":"cebpf4jnsgd1na2vs0mg"},{"bike_id":"2f18fed1-a317-4e15-aeab-cda317c5f32a","system_id":"levelo_inurba_marseille","lat":43.29033,"lon":5.39967,"is_reserved":false,"is_disabled":false,"rental_uris":{"android":"levelo://app?vid=2f18fed1-a317-4e15-aeab-cda317c5f32a","ios":"levelo://app?vid=2f18fed1-a317-4e15-aeab-cda317c5f32a"},"vehicle_type_id":"4","last_reported":1741626534,"current_range_meters":12000,"station_id":"ce4bh392rcd13ifvqdm0","pricing_plan_id":"cebpf4jnsgd1na2vs0mg"},{"bike_id":"edacb05d-5513-4e92-bbcc-255153f57369","system_id":"levelo_inurba_marseille","lat":43.28852,"lon":5.35846,"is_reserved":false,"is_disabled":false,"rental_uris":{"android":"levelo://app?vid=edacb05d-5513-4e92-bbcc-255153f57369","ios":"levelo://app?vid=edacb05d-5513-4e92-bbcc-255153f57369"},"vehicle_type_id":"4","last_reported":1741626534,"current_range_meters":12000,"station_id":"ce4bhb12rcd13ifvqem0","pricing_plan_id":"cebpf4jnsgd1na2vs0mg"},{"bike_id":"5ccaa9dd-fd14-42a0-9fd5-b2cb20a90f0c","system_id":"levelo_inurba_marseille","lat":43.25866,"lon":5.39902,"is_reserved":false,"is_disabled":false,"rental_uris":{"android":"levelo://app?vid=5ccaa9dd-fd14-42a0-9fd5-b2cb20a90f0c","ios":"levelo://app?vid=5ccaa9dd-fd14-42a0-9fd5-b2cb20a90f0c"},"vehicle_type_id":"4","last_reported":1741626534,"current_range_meters":12000,"station_id":"ce4bhl92rcd13ifvqghg","pricing_plan_id":"cebpf4jnsgd1na2vs0mg"},{"bike_id":"51772d6c-c0b3-48d9-81cb-ae5466e6f822","system_id":"levelo_inurba_marseille","lat":43.23148,"lon":5.43725,"is_reserved":false,"is_disabled":false,"rental_uris":{"android":"levelo://app?vid=51772d6c-c0b3-48d9-81cb-ae5466e6f822","ios":"levelo://app?vid=51772d6c-c0b3-48d9-81cb-ae5466e6f822"},"vehicle_type_id":"4","last_reported":1741626534,"current_range_meters":12000,"station_id":"ce4bhmp2rcd13ifvqgog","pricing_plan_id":"cebpf4jnsgd1na2vs0mg"},{"bike_id":"244e24ec-5230-4970-a424-40a2cfa035f7","system_id":"levelo_inurba_marseille","lat":43.240595,"lon":5.377135,"is_reserved":false,"is_disabled":false,"rental_uris":{"android":"levelo://app?vid=244e24ec-5230-4970-a424-40a2cfa035f7","ios":"levelo://app?vid=244e24ec-5230-4970-a424-40a2cfa035f7"},"vehicle_type_id":"4","last_reported":1741626534,"current_range_meters":12000,"station_id":"ce4bhnp2rcd13ifvqgvg","pricing_plan_id":"cebpf4jnsgd1na2vs0mg"},{"bike_id":"68d89c40-14e8-4102-a80e-5e09c9fad361","system_id":"levelo_inurba_marseille","lat":43.32333,"lon":5.40633,"is_reserved":false,"is_disabled":false,"rental_uris":{"android":"levelo://app?vid=68d89c40-14e8-4102-a80e-5e09c9fad361","ios":"levelo://app?vid=68d89c40-14e8-4102-a80e-5e09c9fad361"},"vehicle_type_id":"4","last_reported":1741626534,"current_range_meters":12000,"station_id":"ce4bhq92rcd13ifvqhjg","pricing_plan_id":"cebpf4jnsgd1na2vs0mg"},{"bike_id":"29cfd7c6-f30d-433f-be23-3816488240c9","system_id":"levelo_inurba_marseille","lat":43.28469,"lon":5.3588,"is_reserved":false,"is_disabled":false,"rental_uris":{"android":"levelo://app?vid=29cfd7c6-f30d-433f-be23-3816488240c9","ios":"levelo://app?vid=29cfd7c6-f30d-433f-be23-3816488240c9"},"vehicle_type_id":"4","last_reported":1741626534,"current_range_meters":12400,"station_id":"ce4bhah2rcd13ifvqei0","pricing_plan_id":"cebpf4jnsgd1na2vs0mg"},{"bike_id":"2338626f-0565-48b6-9fa4-dab8eb33618f","system_id":"levelo_inurba_marseille","lat":43.25729,"lon":5.41109,"is_reserved":false,"is_disabled":false,"rental_uris":{"android":"levelo://app?vid=2338626f-0565-48b6-9fa4-dab8eb33618f","ios":"levelo://app?vid=2338626f-0565-48b6-9fa4-dab8eb33618f"},"vehicle_type_id":"4","last_reported":1741626534,"current_range_meters":12400,"station_id":"ce4bhkp2rcd13ifvqgd0","pricing_plan_id":"cebpf4jnsgd1na2vs0mg"},{"bike_id":"93cf9ee9-18a9-434d-82f1-fcc1831c2751","system_id":"levelo_inurba_marseille","lat":43.27941,"lon":5.41045,"is_reserved":false,"is_disabled":false,"rental_uris":{"android":"levelo://app?vid=93cf9ee9-18a9-434d-82f1-fcc1831c2751","ios":"levelo://app?vid=93cf9ee9-18a9-434d-82f1-fcc1831c2751"},"vehicle_type_id":"4","last_reported":1741626534,"current_range_meters":12400,"station_id":"ce4bhnp2rcd13ifvqh0g","pricing_plan_id":"cebpf4jnsgd1na2vs0mg"},{"bike_id":"9ec52ed9-9c0e-4e61-a378-5327e3711632","system_id":"levelo_inurba_marseille","lat":43.24728,"lon":5.41166,"is_reserved":false,"is_disabled":false,"rental_uris":{"android":"levelo://app?vid=9ec52ed9-9c0e-4e61-a378-5327e3711632","ios":"levelo://app?vid=9ec52ed9-9c0e-4e61-a378-5327e3711632"},"vehicle_type_id":"4","last_reported":1741626534,"current_range_meters":12800,"station_id":"","pricing_plan_id":"cebpf4jnsgd1na2vs0mg"},{"bike_id":"237f0abc-b48f-462e-b29e-01465acf6c2d","system_id":"levelo_inurba_marseille","lat":43.29694,"lon":5.37695,"is_reserved":false,"is_disabled":false,"rental_uris":{"android":"levelo://app?vid=237f0abc-b48f-462e-b29e-01465acf6c2d","ios":"levelo://app?vid=237f0abc-b48f-462e-b29e-01465acf6c2d"},"vehicle_type_id":"4","last_reported":1741626534,"current_range_meters":12800,"station_id":"ce4bgkh2rcd13ifvqbl0","pricing_plan_id":"cebpf4jnsgd1na2vs0mg"},{"bike_id":"51682758-7e19-4ed0-8206-a9e6e6e35845","system_id":"levelo_inurba_marseille","lat":43.3087,"lon":5.39642,"is_reserved":false,"is_disabled":false,"rental_uris":{"android":"levelo://app?vid=51682758-7e19-4ed0-8206-a9e6e6e35845","ios":"levelo://app?vid=51682758-7e19-4ed0-8206-a9e6e6e35845"},"vehicle_type_id":"4","last_reported":1741626534,"current_range_meters":12800,"station_id":"ce4bh012rcd13ifvqcv0","pricing_plan_id":"cebpf4jnsgd1na2vs0mg"},{"bike_id":"9850477a-ea38-466c-8d00-d7638a0d9437","system_id":"levelo_inurba_marseille","lat":43.29873,"lon":5.38907,"is_reserved":false,"is_disabled":false,"rental_uris":{"android":"levelo://app?vid=9850477a-ea38-466c-8d00-d7638a0d9437","ios":"levelo://app?vid=9850477a-ea38-466c-8d00-d7638a0d9437"},"vehicle_type_id":"4","last_reported":1741626534,"current_range_meters":12800,"station_id":"ce4bh392rcd13ifvqdl0","pricing_plan_id":"cebpf4jnsgd1na2vs0mg"},{"bike_id":"0f746634-9447-4077-958c-6f079b74ef8f","system_id":"levelo_inurba_marseille","lat":43.28425,"lon":5.37542,"is_reserved":false,"is_disabled":false,"rental_uris":{"android":"levelo://app?vid=0f746634-9447-4077-958c-6f079b74ef8f","ios":"levelo://app?vid=0f746634-9447-4077-958c-6f079b74ef8f"},"vehicle_type_id":"4","last_reported":1741626534,"current_range_meters":12800,"station_id":"ce4bh412rcd13ifvqds0","pricing_plan_id":"cebpf4jnsgd1na2vs0mg"},{"bike_id":"0fa8885b-a032-4875-8249-a37d20c5b6a2","system_id":"levelo_inurba_marseille","lat":43.28429,"lon":5.35899,"is_reserved":false,"is_disabled":false,"rental_uris":{"android":"levelo://app?vid=0fa8885b-a032-4875-8249-a37d20c5b6a2","ios":"levelo://app?vid=0fa8885b-a032-4875-8249-a37d20c5b6a2"},"vehicle_type_id":"4","last_reported":1741626534,"current_range_meters":12800,"station_id":"ce4bhah2rcd13ifvqei0","pricing_plan_id":"cebpf4jnsgd1na2vs0mg"},{"bike_id":"1a62ad00-726b-464b-95c5-244d7249606c","system_id":"levelo_inurba_marseille","lat":43.27915,"lon":5.39582,"is_reserved":false,"is_disabled":false,"rental_uris":{"android":"levelo://app?vid=1a62ad00-726b-464b-95c5-244d7249606c","ios":"levelo://app?vid=1a62ad00-726b-464b-95c5-244d7249606c"},"vehicle_type_id":"4","last_reported":1741626534,"current_range_meters":12800,"station_id":"ce4bhf92rcd13ifvqf40","pricing_plan_id":"cebpf4jnsgd1na2vs0mg"},{"bike_id":"27459785-4edf-4f27-b842-1984a62c6dde","system_id":"levelo_inurba_marseille","lat":43.25085,"lon":5.39528,"is_reserved":false,"is_disabled":false,"rental_uris":{"android":"levelo://app?vid=27459785-4edf-4f27-b842-1984a62c6dde","ios":"levelo://app?vid=27459785-4edf-4f27-b842-1984a62c6dde"},"vehicle_type_id":"4","last_reported":1741626534,"current_range_meters":12800,"station_id":"ce4bhm12rcd13ifvqgkg","pricing_plan_id":"cebpf4jnsgd1na2vs0mg"},{"bike_id":"6b23263d-5b6d-4c0d-af82-e81f833640b8","system_id":"levelo_inurba_marseille","lat":43.27996,"lon":5.41668,"is_reserved":false,"is_disabled":false,"rental_uris":{"android":"levelo://app?vid=6b23263d-5b6d-4c0d-af82-e81f833640b8","ios":"levelo://app?vid=6b23263d-5b6d-4c0d-af82-e81f833640b8"},"vehicle_type_id":"4","last_reported":1741626534,"current_range_meters":12800,"station_id":"ce4bho12rcd13ifvqh1g","pricing_plan_id":"cebpf4jnsgd1na2vs0mg"},{"bike_id":"acc1658b-7ea3-44a5-a65b-40f1faa0438d","system_id":"levelo_inurba_marseille","lat":43.3254,"lon":5.41452,"is_reserved":false,"is_disabled":false,"rental_uris":{"android":"levelo://app?vid=acc1658b-7ea3-44a5-a65b-40f1faa0438d","ios":"levelo://app?vid=acc1658b-7ea3-44a5-a65b-40f1faa0438d"},"vehicle_type_id":"4","last_reported":1741626534,"current_range_meters":12800,"station_id":"ce4bhq12rcd13ifvqhhg","pricing_plan_id":"cebpf4jnsgd1na2vs0mg"},{"bike_id":"c37e2630-4e07-4e0e-b481-bac3cf0a5a47","system_id":"levelo_inurba_marseille","lat":43.29255,"lon":5.409,"is_reserved":false,"is_disabled":false,"rental_uris":{"android":"levelo://app?vid=c37e2630-4e07-4e0e-b481-bac3cf0a5a47","ios":"levelo://app?vid=c37e2630-4e07-4e0e-b481-bac3cf0a5a47"},"vehicle_type_id":"4","last_reported":1741626534,"current_range_meters":13600,"station_id":"ce4bh192rcd13ifvqdc0","pricing_plan_id":"cebpf4jnsgd1na2vs0mg"},{"bike_id":"c0ff0f04-2512-4929-a024-514f0d7038cd","system_id":"levelo_inurba_marseille","lat":43.29328,"lon":5.40178,"is_reserved":false,"is_disabled":false,"rental_uris":{"android":"levelo://app?vid=c0ff0f04-2512-4929-a024-514f0d7038cd","ios":"levelo://app?vid=c0ff0f04-2512-4929-a024-514f0d7038cd"},"vehicle_type_id":"4","last_reported":1741626534,"current_range_meters":13600,"station_id":"ce4bh312rcd13ifvqdk0","pricing_plan_id":"cebpf4jnsgd1na2vs0mg"},{"bike_id":"e3b9964e-5c42-4877-b6ff-0d8e691e026e","system_id":"levelo_inurba_marseille","lat":43.27054,"lon":5.40257,"is_reserved":false,"is_disabled":false,"rental_uris":{"android":"levelo://app?vid=e3b9964e-5c42-4877-b6ff-0d8e691e026e","ios":"levelo://app?vid=e3b9964e-5c42-4877-b6ff-0d8e691e026e"},"vehicle_type_id":"4","last_reported":1741626534,"current_range_meters":13600,"station_id":"ce4bhk92rcd13ifvqgc0","pricing_plan_id":"cebpf4jnsgd1na2vs0mg"},{"bike_id":"4d1309c4-56f9-433e-b1c9-d0fae5a1dbd1","system_id":"levelo_inurba_marseille","lat":43.30798,"lon":5.43525,"is_reserved":false,"is_disabled":false,"rental_uris":{"android":"levelo://app?vid=4d1309c4-56f9-433e-b1c9-d0fae5a1dbd1","ios":"levelo://app?vid=4d1309c4-56f9-433e-b1c9-d0fae5a1dbd1"},"vehicle_type_id":"4","last_reported":1741626534,"current_range_meters":13600,"station_id":"ce4bhph2rcd13ifvqheg","pricing_plan_id":"cebpf4jnsgd1na2vs0mg"},{"bike_id":"98d8a154-c6b2-4d96-82cd-afc7786dc4e4","system_id":"levelo_inurba_marseille","lat":43.30806,"lon":5.43519,"is_reserved":false,"is_disabled":false,"rental_uris":{"android":"levelo://app?vid=98d8a154-c6b2-4d96-82cd-afc7786dc4e4","ios":"levelo://app?vid=98d8a154-c6b2-4d96-82cd-afc7786dc4e4"},"vehicle_type_id":"4","last_reported":1741626534,"current_range_meters":13600,"station_id":"ce4bhph2rcd13ifvqheg","pricing_plan_id":"cebpf4jnsgd1na2vs0mg"},{"bike_id":"56ad839d-8ae9-4646-98ac-e9383930e0a2","system_id":"levelo_inurba_marseille","lat":43.29539,"lon":5.38541,"is_reserved":false,"is_disabled":false,"rental_uris":{"android":"levelo://app?vid=56ad839d-8ae9-4646-98ac-e9383930e0a2","ios":"levelo://app?vid=56ad839d-8ae9-4646-98ac-e9383930e0a2"},"vehicle_type_id":"4","last_reported":1741626534,"current_range_meters":14000,"station_id":"ce4bgih2rcd13ifvqba0","pricing_plan_id":"cebpf4jnsgd1na2vs0mg"},{"bike_id":"4e5223e2-c772-436d-87b7-ce44e9e02539","system_id":"levelo_inurba_marseille","lat":43.30605,"lon":5.37212,"is_reserved":false,"is_disabled":false,"rental_uris":{"android":"levelo://app?vid=4e5223e2-c772-436d-87b7-ce44e9e02539","ios":"levelo://app?vid=4e5223e2-c772-436d-87b7-ce44e9e02539"},"vehicle_type_id":"4","last_reported":1741626534,"current_range_meters":14000,"station_id":"ce4bgqh2rcd13ifvqc4g","pricing_plan_id":"cebpf4jnsgd1na2vs0mg"},{"bike_id":"05ae1232-cda1-4cdd-88f8-beae076b8318","system_id":"levelo_inurba_marseille","lat":43.29071,"lon":5.37168,"is_reserved":false,"is_disabled":false,"rental_uris":{"android":"levelo://app?vid=05ae1232-cda1-4cdd-88f8-beae076b8318","ios":"levelo://app?vid=05ae1232-cda1-4cdd-88f8-beae076b8318"},"vehicle_type_id":"4","last_reported":1741626534,"current_range_meters":14000,"station_id":"ce4bh5p2rcd13ifvqe4g","pricing_plan_id":"cebpf4jnsgd1na2vs0mg"},{"bike_id":"8cc6ae3c-f7a6-4ec8-901d-b40f40e5ca7d","system_id":"levelo_inurba_marseille","lat":43.27967,"lon":5.38723,"is_reserved":false,"is_disabled":false,"rental_uris":{"android":"levelo://app?vid=8cc6ae3c-f7a6-4ec8-901d-b40f40e5ca7d","ios":"levelo://app?vid=8cc6ae3c-f7a6-4ec8-901d-b40f40e5ca7d"},"vehicle_type_id":"4","last_reported":1741626534,"current_range_meters":14000,"station_id":"ce4bhg12rcd13ifvqf80","pricing_plan_id":"cebpf4jnsgd1na2vs0mg"},{"bike_id":"25e3d1b9-451e-49bf-a160-305203be0a21","system_id":"levelo_inurba_marseille","lat":43.28155,"lon":5.42635,"is_reserved":false,"is_disabled":false,"rental_uris":{"android":"levelo://app?vid=25e3d1b9-451e-49bf-a160-305203be0a21","ios":"levelo://app?vid=25e3d1b9-451e-49bf-a160-305203be0a21"},"vehicle_type_id":"4","last_reported":1741626534,"current_range_meters":14000,"station_id":"ce4bhnh2rcd13ifvqgug","pricing_plan_id":"cebpf4jnsgd1na2vs0mg"},{"bike_id":"58d1b5b3-d322-4418-97d0-3066ec3d9afc","system_id":"levelo_inurba_marseille","lat":43.23194,"lon":5.35541,"is_reserved":false,"is_disabled":false,"rental_uris":{"android":"levelo://app?vid=58d1b5b3-d322-4418-97d0-3066ec3d9afc","ios":"levelo://app?vid=58d1b5b3-d322-4418-97d0-3066ec3d9afc"},"vehicle_type_id":"4","last_reported":1741626534,"current_range_meters":14000,"station_id":"ce4bhu92rcd13ifvqi70","pricing_plan_id":"cebpf4jnsgd1na2vs0mg"},{"bike_id":"3bc4c9c9-60ac-423a-9e0b-087cb231bd2c","system_id":"levelo_inurba_marseille","lat":43.29546,"lon":5.3854,"is_reserved":false,"is_disabled":false,"rental_uris":{"android":"levelo://app?vid=3bc4c9c9-60ac-423a-9e0b-087cb231bd2c","ios":"levelo://app?vid=3bc4c9c9-60ac-423a-9e0b-087cb231bd2c"},"vehicle_type_id":"4","last_reported":1741626534,"current_range_meters":14400,"station_id":"ce4bgih2rcd13ifvqba0","pricing_plan_id":"cebpf4jnsgd1na2vs0mg"},{"bike_id":"0c80ed08-77af-4a14-aec7-dba55743392b","system_id":"levelo_inurba_marseille","lat":43.2971,"lon":5.37695,"is_reserved":false,"is_disabled":false,"rental_uris":{"android":"levelo://app?vid=0c80ed08-77af-4a14-aec7-dba55743392b","ios":"levelo://app?vid=0c80ed08-77af-4a14-aec7-dba55743392b"},"vehicle_type_id":"4","last_reported":1741626534,"current_range_meters":14400,"station_id":"ce4bgkh2rcd13ifvqbl0","pricing_plan_id":"cebpf4jnsgd1na2vs0mg"},{"bike_id":"2ecf908f-e909-4fe0-b4d7-d577a618288e","system_id":"levelo_inurba_marseille","lat":43.29029,"lon":5.38648,"is_reserved":false,"is_disabled":false,"rental_uris":{"android":"levelo://app?vid=2ecf908f-e909-4fe0-b4d7-d577a618288e","ios":"levelo://app?vid=2ecf908f-e909-4fe0-b4d7-d577a618288e"},"vehicle_type_id":"4","last_reported":1741626534,"current_range_meters":14400,"station_id":"ce4bh4p2rcd13ifvqe0g","pricing_plan_id":"cebpf4jnsgd1na2vs0mg"},{"bike_id":"fdae8c57-1100-499f-a78a-815b16671136","system_id":"levelo_inurba_marseille","lat":43.24545,"lon":5.39523,"is_reserved":false,"is_disabled":false,"rental_uris":{"android":"levelo://app?vid=fdae8c57-1100-499f-a78a-815b16671136","ios":"levelo://app?vid=fdae8c57-1100-499f-a78a-815b16671136"},"vehicle_type_id":"4","last_reported":1741626534,"current_range_meters":14400,"station_id":"ce4bhlp2rcd13ifvqgjg","pricing_plan_id":"cebpf4jnsgd1na2vs0mg"},{"bike_id":"f640465e-8c9e-425a-8e36-08d8d5201bf6","system_id":"levelo_inurba_marseille","lat":43.2319,"lon":5.35561,"is_reserved":false,"is_disabled":false,"rental_uris":{"android":"levelo://app?vid=f640465e-8c9e-425a-8e36-08d8d5201bf6","ios":"levelo://app?vid=f640465e-8c9e-425a-8e36-08d8d5201bf6"},"vehicle_type_id":"4","last_reported":1741626534,"current_range_meters":14400,"station_id":"ce4bhu92rcd13ifvqi70","pricing_plan_id":"cebpf4jnsgd1na2vs0mg"},{"bike_id":"ab41bafe-5170-4a8c-9498-2e255c994c6b","system_id":"levelo_inurba_marseille","lat":43.30143,"lon":5.38085,"is_reserved":false,"is_disabled":false,"rental_uris":{"android":"levelo://app?vid=ab41bafe-5170-4a8c-9498-2e255c994c6b","ios":"levelo://app?vid=ab41bafe-5170-4a8c-9498-2e255c994c6b"},"vehicle_type_id":"4","last_reported":1741626534,"current_range_meters":14800,"station_id":"ce4bgjp2rcd13ifvqbh0","pricing_plan_id":"cebpf4jnsgd1na2vs0mg"},{"bike_id":"c4d9da22-8b90-4408-8c40-80070d89cae2","system_id":"levelo_inurba_marseille","lat":43.31488,"lon":5.37299,"is_reserved":false,"is_disabled":false,"rental_uris":{"android":"levelo://app?vid=c4d9da22-8b90-4408-8c40-80070d89cae2","ios":"levelo://app?vid=c4d9da22-8b90-4408-8c40-80070d89cae2"},"vehicle_type_id":"4","last_reported":1741626534,"current_range_meters":14800,"station_id":"ce4bgt12rcd13ifvqcd0","pricing_plan_id":"cebpf4jnsgd1na2vs0mg"},{"bike_id":"1ee9dbf5-b0e2-4af5-8fd1-f41f66f7bf91","system_id":"levelo_inurba_marseille","lat":43.30823,"lon":5.38146,"is_reserved":false,"is_disabled":false,"rental_uris":{"android":"levelo://app?vid=1ee9dbf5-b0e2-4af5-8fd1-f41f66f7bf91","ios":"levelo://app?vid=1ee9dbf5-b0e2-4af5-8fd1-f41f66f7bf91"},"vehicle_type_id":"4","last_reported":1741626534,"current_range_meters":14800,"station_id":"ce4bgt12rcd13ifvqce0","pricing_plan_id":"cebpf4jnsgd1na2vs0mg"},{"bike_id":"d7bb9adc-9fea-460a-b421-6ef9672f9963","system_id":"levelo_inurba_marseille","lat":43.29629,"lon":5.40584,"is_reserved":false,"is_disabled":false,"rental_uris":{"android":"levelo://app?vid=d7bb9adc-9fea-460a-b421-6ef9672f9963","ios":"levelo://app?vid=d7bb9adc-9fea-460a-b421-6ef9672f9963"},"vehicle_type_id":"4","last_reported":1741626534,"current_range_meters":14800,"station_id":"ce4bh0h2rcd13ifvqd60","pricing_plan_id":"cebpf4jnsgd1na2vs0mg"},{"bike_id":"949a394d-0ab3-48f6-a473-31bbb4623c92","system_id":"levelo_inurba_marseille","lat":43.29254,"lon":5.40906,"is_reserved":false,"is_disabled":false,"rental_uris":{"android":"levelo://app?vid=949a394d-0ab3-48f6-a473-31bbb4623c92","ios":"levelo://app?vid=949a394d-0ab3-48f6-a473-31bbb4623c92"},"vehicle_type_id":"4","last_reported":1741626534,"current_range_meters":14800,"station_id":"ce4bh192rcd13ifvqdc0","pricing_plan_id":"cebpf4jnsgd1na2vs0mg"},{"bike_id":"dd886261-ac42-4d84-b416-a8efbc37aac3","system_id":"levelo_inurba_marseille","lat":43.26796,"lon":5.3941,"is_reserved":false,"is_disabled":false,"rental_uris":{"android":"levelo://app?vid=dd886261-ac42-4d84-b416-a8efbc37aac3","ios":"levelo://app?vid=dd886261-ac42-4d84-b416-a8efbc37aac3"},"vehicle_type_id":"4","last_reported":1741626534,"current_range_meters":14800,"station_id":"ce4bhh12rcd13ifvqfg0","pricing_plan_id":"cebpf4jnsgd1na2vs0mg"},{"bike_id":"d241c7bc-48f8-4f37-ae05-e39030bb195e","system_id":"levelo_inurba_marseille","lat":43.255813,"lon":5.382277,"is_reserved":false,"is_disabled":false,"rental_uris":{"android":"levelo://app?vid=d241c7bc-48f8-4f37-ae05-e39030bb195e","ios":"levelo://app?vid=d241c7bc-48f8-4f37-ae05-e39030bb195e"},"vehicle_type_id":"4","last_reported":1741626534,"current_range_meters":14800,"station_id":"ce4bhih2rcd13ifvqfs0","pricing_plan_id":"cebpf4jnsgd1na2vs0mg"},{"bike_id":"a823a252-79ed-4eab-8ed3-c099ec187b1d","system_id":"levelo_inurba_marseille","lat":43.27071,"lon":5.42275,"is_reserved":false,"is_disabled":false,"rental_uris":{"android":"levelo://app?vid=a823a252-79ed-4eab-8ed3-c099ec187b1d","ios":"levelo://app?vid=a823a252-79ed-4eab-8ed3-c099ec187b1d"},"vehicle_type_id":"4","last_reported":1741626534,"current_range_meters":14800,"station_id":"ce4bhk92rcd13ifvqgb0","pricing_plan_id":"cebpf4jnsgd1na2vs0mg"},{"bike_id":"755200c0-4391-40d6-99da-b7953d3dedc4","system_id":"levelo_inurba_marseille","lat":43.30318,"lon":5.40439,"is_reserved":false,"is_disabled":false,"rental_uris":{"android":"levelo://app?vid=755200c0-4391-40d6-99da-b7953d3dedc4","ios":"levelo://app?vid=755200c0-4391-40d6-99da-b7953d3dedc4"},"vehicle_type_id":"4","last_reported":1741626534,"current_range_meters":15200,"station_id":"ce4bh012rcd13ifvqd10","pricing_plan_id":"cebpf4jnsgd1na2vs0mg"},{"bike_id":"6ea051cf-63a5-490c-95e7-972da1b5a365","system_id":"levelo_inurba_marseille","lat":43.29522,"lon":5.390649,"is_reserved":false,"is_disabled":false,"rental_uris":{"android":"levelo://app?vid=6ea051cf-63a5-490c-95e7-972da1b5a365","ios":"levelo://app?vid=6ea051cf-63a5-490c-95e7-972da1b5a365"},"vehicle_type_id":"4","last_reported":1741626534,"current_range_meters":15200,"station_id":"ce4bh3p2rcd13ifvqdp0","pricing_plan_id":"cebpf4jnsgd1na2vs0mg"},{"bike_id":"6247825b-5dfd-4737-b9f9-aa7055771cb8","system_id":"levelo_inurba_marseille","lat":43.28845,"lon":5.35854,"is_reserved":false,"is_disabled":false,"rental_uris":{"android":"levelo://app?vid=6247825b-5dfd-4737-b9f9-aa7055771cb8","ios":"levelo://app?vid=6247825b-5dfd-4737-b9f9-aa7055771cb8"},"vehicle_type_id":"4","last_reported":1741626534,"current_range_meters":15200,"station_id":"ce4bhb12rcd13ifvqem0","pricing_plan_id":"cebpf4jnsgd1na2vs0mg"},{"bike_id":"8dd35f97-0326-404c-8aad-83a883b91967","system_id":"levelo_inurba_marseille","lat":43.26561,"lon":5.37283,"is_reserved":false,"is_disabled":false,"rental_uris":{"android":"levelo://app?vid=8dd35f97-0326-404c-8aad-83a883b91967","ios":"levelo://app?vid=8dd35f97-0326-404c-8aad-83a883b91967"},"vehicle_type_id":"4","last_reported":1741626534,"current_range_meters":15200,"station_id":"ce4bhg12rcd13ifvqf70","pricing_plan_id":"cebpf4jnsgd1na2vs0mg"},{"bike_id":"1ac2f7f3-4287-42f2-87e3-b78274ba51f7","system_id":"levelo_inurba_marseille","lat":43.265686,"lon":5.390189,"is_reserved":false,"is_disabled":false,"rental_uris":{"android":"levelo://app?vid=1ac2f7f3-4287-42f2-87e3-b78274ba51f7","ios":"levelo://app?vid=1ac2f7f3-4287-42f2-87e3-b78274ba51f7"},"vehicle_type_id":"4","last_reported":1741626534,"current_range_meters":15200,"station_id":"ce4bhlh2rcd13ifvqgig","pricing_plan_id":"cebpf4jnsgd1na2vs0mg"},{"bike_id":"24ea9c03-0afd-4100-ad62-62865e3edce9","system_id":"levelo_inurba_marseille","lat":43.23147,"lon":5.43716,"is_reserved":false,"is_disabled":false,"rental_uris":{"android":"levelo://app?vid=24ea9c03-0afd-4100-ad62-62865e3edce9","ios":"levelo://app?vid=24ea9c03-0afd-4100-ad62-62865e3edce9"},"vehicle_type_id":"4","last_reported":1741626534,"current_range_meters":15200,"station_id":"ce4bhmp2rcd13ifvqgog","pricing_plan_id":"cebpf4jnsgd1na2vs0mg"},{"bike_id":"1f09f04c-c58b-48e3-8281-d558d16da608","system_id":"levelo_inurba_marseille","lat":43.24181,"lon":5.39728,"is_reserved":false,"is_disabled":false,"rental_uris":{"android":"levelo://app?vid=1f09f04c-c58b-48e3-8281-d558d16da608","ios":"levelo://app?vid=1f09f04c-c58b-48e3-8281-d558d16da608"},"vehicle_type_id":"4","last_reported":1741626534,"current_range_meters":15200,"station_id":"ce4bhn12rcd13ifvqgpg","pricing_plan_id":"cebpf4jnsgd1na2vs0mg"},{"bike_id":"ad698a3c-727d-4e69-a15d-25c5aa063571","system_id":"levelo_inurba_marseille","lat":43.30314,"lon":5.404415,"is_reserved":false,"is_disabled":false,"rental_uris":{"android":"levelo://app?vid=ad698a3c-727d-4e69-a15d-25c5aa063571","ios":"levelo://app?vid=ad698a3c-727d-4e69-a15d-25c5aa063571"},"vehicle_type_id":"4","last_reported":1741626534,"current_range_meters":15200,"station_id":"ce4bhnh2rcd13ifvqgtg","pricing_plan_id":"cebpf4jnsgd1na2vs0mg"},{"bike_id":"701f9cd0-ec90-466e-9c15-3b3b36a1842c","system_id":"levelo_inurba_marseille","lat":43.28697,"lon":5.40005,"is_reserved":false,"is_disabled":false,"rental_uris":{"android":"levelo://app?vid=701f9cd0-ec90-466e-9c15-3b3b36a1842c","ios":"levelo://app?vid=701f9cd0-ec90-466e-9c15-3b3b36a1842c"},"vehicle_type_id":"4","last_reported":1741626534,"current_range_meters":15200,"station_id":"ce4bho92rcd13ifvqh3g","pricing_plan_id":"cebpf4jnsgd1na2vs0mg"},{"bike_id":"566eeee3-1897-4e8a-b426-c9234c0dc710","system_id":"levelo_inurba_marseille","lat":43.297186,"lon":5.37694,"is_reserved":false,"is_disabled":false,"rental_uris":{"android":"levelo://app?vid=566eeee3-1897-4e8a-b426-c9234c0dc710","ios":"levelo://app?vid=566eeee3-1897-4e8a-b426-c9234c0dc710"},"vehicle_type_id":"4","last_reported":1741626534,"current_range_meters":16000,"station_id":"ce4bgkh2rcd13ifvqbl0","pricing_plan_id":"cebpf4jnsgd1na2vs0mg"},{"bike_id":"509b88b1-7f82-48ed-bdf3-beba3c88df3f","system_id":"levelo_inurba_marseille","lat":43.29854,"lon":5.36278,"is_reserved":false,"is_disabled":false,"rental_uris":{"android":"levelo://app?vid=509b88b1-7f82-48ed-bdf3-beba3c88df3f","ios":"levelo://app?vid=509b88b1-7f82-48ed-bdf3-beba3c88df3f"},"vehicle_type_id":"4","last_reported":1741626534,"current_range_meters":16000,"station_id":"ce4bgpp2rcd13ifvqc3g","pricing_plan_id":"cebpf4jnsgd1na2vs0mg"},{"bike_id":"13a1d2e2-865d-436c-a4e5-07b9e0a93582","system_id":"levelo_inurba_marseille","lat":43.31073,"lon":5.3837,"is_reserved":false,"is_disabled":false,"rental_uris":{"android":"levelo://app?vid=13a1d2e2-865d-436c-a4e5-07b9e0a93582","ios":"levelo://app?vid=13a1d2e2-865d-436c-a4e5-07b9e0a93582"},"vehicle_type_id":"4","last_reported":1741626534,"current_range_meters":16000,"station_id":"ce4bgv92rcd13ifvqcr0","pricing_plan_id":"cebpf4jnsgd1na2vs0mg"},{"bike_id":"9acab34d-76c9-4fd5-bed6-0265a89df8bb","system_id":"levelo_inurba_marseille","lat":43.25731,"lon":5.41101,"is_reserved":false,"is_disabled":false,"rental_uris":{"android":"levelo://app?vid=9acab34d-76c9-4fd5-bed6-0265a89df8bb","ios":"levelo://app?vid=9acab34d-76c9-4fd5-bed6-0265a89df8bb"},"vehicle_type_id":"4","last_reported":1741626534,"current_range_meters":16000,"station_id":"ce4bhkp2rcd13ifvqgd0","pricing_plan_id":"cebpf4jnsgd1na2vs0mg"},{"bike_id":"7170985a-2d2e-4f85-93d7-2c8089780cbb","system_id":"levelo_inurba_marseille","lat":43.2815,"lon":5.42645,"is_reserved":false,"is_disabled":false,"rental_uris":{"android":"levelo://app?vid=7170985a-2d2e-4f85-93d7-2c8089780cbb","ios":"levelo://app?vid=7170985a-2d2e-4f85-93d7-2c8089780cbb"},"vehicle_type_id":"4","last_reported":1741626534,"current_range_meters":16000,"station_id":"ce4bhnh2rcd13ifvqgug","pricing_plan_id":"cebpf4jnsgd1na2vs0mg"},{"bike_id":"63efd6b9-d813-429c-b04f-99896658a589","system_id":"levelo_inurba_marseille","lat":43.27947,"lon":5.41038,"is_reserved":false,"is_disabled":false,"rental_uris":{"android":"levelo://app?vid=63efd6b9-d813-429c-b04f-99896658a589","ios":"levelo://app?vid=63efd6b9-d813-429c-b04f-99896658a589"},"vehicle_type_id":"4","last_reported":1741626534,"current_range_meters":16000,"station_id":"ce4bhnp2rcd13ifvqh0g","pricing_plan_id":"cebpf4jnsgd1na2vs0mg"},{"bike_id":"99662287-b8db-47fa-9c76-6a6e9c800bdf","system_id":"levelo_inurba_marseille","lat":43.30411,"lon":5.41265,"is_reserved":false,"is_disabled":false,"rental_uris":{"android":"levelo://app?vid=99662287-b8db-47fa-9c76-6a6e9c800bdf","ios":"levelo://app?vid=99662287-b8db-47fa-9c76-6a6e9c800bdf"},"vehicle_type_id":"4","last_reported":1741626534,"current_range_meters":16000,"station_id":"ce4bhop2rcd13ifvqh8g","pricing_plan_id":"cebpf4jnsgd1na2vs0mg"},{"bike_id":"a25b6f61-4e98-4726-9c07-6dfbba9ed204","system_id":"levelo_inurba_marseille","lat":43.2955,"lon":5.42278,"is_reserved":false,"is_disabled":false,"rental_uris":{"android":"levelo://app?vid=a25b6f61-4e98-4726-9c07-6dfbba9ed204","ios":"levelo://app?vid=a25b6f61-4e98-4726-9c07-6dfbba9ed204"},"vehicle_type_id":"4","last_reported":1741626534,"current_range_meters":16000,"station_id":"ce4bhph2rcd13ifvqhdg","pricing_plan_id":"cebpf4jnsgd1na2vs0mg"},{"bike_id":"24f69940-d78d-4207-bab8-6e0c4b0d3949","system_id":"levelo_inurba_marseille","lat":43.32078,"lon":5.41524,"is_reserved":false,"is_disabled":false,"rental_uris":{"android":"levelo://app?vid=24f69940-d78d-4207-bab8-6e0c4b0d3949","ios":"levelo://app?vid=24f69940-d78d-4207-bab8-6e0c4b0d3949"},"vehicle_type_id":"4","last_reported":1741626534,"current_range_meters":16000,"station_id":"ce4bhq92rcd13ifvqhkg","pricing_plan_id":"cebpf4jnsgd1na2vs0mg"},{"bike_id":"259dde30-071d-4e72-9e93-2afe0e28cbba","system_id":"levelo_inurba_marseille","lat":43.30625,"lon":5.37352,"is_reserved":false,"is_disabled":false,"rental_uris":{"android":"levelo://app?vid=259dde30-071d-4e72-9e93-2afe0e28cbba","ios":"levelo://app?vid=259dde30-071d-4e72-9e93-2afe0e28cbba"},"vehicle_type_id":"4","last_reported":1741626534,"current_range_meters":16400,"station_id":"","pricing_plan_id":"cebpf4jnsgd1na2vs0mg"},{"bike_id":"11d8e867-88f8-4e72-81aa-2b0f7e036b0c","system_id":"levelo_inurba_marseille","lat":43.30494,"lon":5.37257,"is_reserved":false,"is_disabled":false,"rental_uris":{"android":"levelo://app?vid=11d8e867-88f8-4e72-81aa-2b0f7e036b0c","ios":"levelo://app?vid=11d8e867-88f8-4e72-81aa-2b0f7e036b0c"},"vehicle_type_id":"4","last_reported":1741626534,"current_range_meters":16400,"station_id":"","pricing_plan_id":"cebpf4jnsgd1na2vs0mg"},{"bike_id":"1a26001d-d49a-47a3-a711-f7ff22c1c811","system_id":"levelo_inurba_marseille","lat":43.28879,"lon":5.37158,"is_reserved":false,"is_disabled":false,"rental_uris":{"android":"levelo://app?vid=1a26001d-d49a-47a3-a711-f7ff22c1c811","ios":"levelo://app?vid=1a26001d-d49a-47a3-a711-f7ff22c1c811"},"vehicle_type_id":"4","last_reported":1741626534,"current_range_meters":16400,"station_id":"","pricing_plan_id":"cebpf4jnsgd1na2vs0mg"},{"bike_id":"fdd23d44-4f31-4c3b-8e9d-3ff47e277395","system_id":"levelo_inurba_marseille","lat":43.29592,"lon":5.38089,"is_reserved":false,"is_disabled":false,"rental_uris":{"android":"levelo://app?vid=fdd23d44-4f31-4c3b-8e9d-3ff47e277395","ios":"levelo://app?vid=fdd23d44-4f31-4c3b-8e9d-3ff47e277395"},"vehicle_type_id":"4","last_reported":1741626534,"current_range_meters":16400,"station_id":"ce4bgl12rcd13ifvqbo0","pricing_plan_id":"cebpf4jnsgd1na2vs0mg"},{"bike_id":"38acbc6d-fa77-42c8-88ce-384a780f907d","system_id":"levelo_inurba_marseille","lat":43.298,"lon":5.40396,"is_reserved":false,"is_disabled":false,"rental_uris":{"android":"levelo://app?vid=38acbc6d-fa77-42c8-88ce-384a780f907d","ios":"levelo://app?vid=38acbc6d-fa77-42c8-88ce-384a780f907d"},"vehicle_type_id":"4","last_reported":1741626534,"current_range_meters":16400,"station_id":"ce4bh112rcd13ifvqd90","pricing_plan_id":"cebpf4jnsgd1na2vs0mg"},{"bike_id":"f3756a49-3dc2-437f-99df-2ac4abb3366b","system_id":"levelo_inurba_marseille","lat":43.28564,"lon":5.39499,"is_reserved":false,"is_disabled":false,"rental_uris":{"android":"levelo://app?vid=f3756a49-3dc2-437f-99df-2ac4abb3366b","ios":"levelo://app?vid=f3756a49-3dc2-437f-99df-2ac4abb3366b"},"vehicle_type_id":"4","last_reported":1741626534,"current_range_meters":16400,"station_id":"ce4bh292rcd13ifvqdg0","pricing_plan_id":"cebpf4jnsgd1na2vs0mg"},{"bike_id":"84b15b7b-305f-4859-836b-42bb82cb2193","system_id":"levelo_inurba_marseille","lat":43.28655,"lon":5.36338,"is_reserved":false,"is_disabled":false,"rental_uris":{"android":"levelo://app?vid=84b15b7b-305f-4859-836b-42bb82cb2193","ios":"levelo://app?vid=84b15b7b-305f-4859-836b-42bb82cb2193"},"vehicle_type_id":"4","last_reported":1741626534,"current_range_meters":16400,"station_id":"ce4bhah2rcd13ifvqej0","pricing_plan_id":"cebpf4jnsgd1na2vs0mg"},{"bike_id":"908265f7-28bc-4724-8c34-c74097bf6acf","system_id":"levelo_inurba_marseille","lat":43.23958,"lon":5.3663,"is_reserved":false,"is_disabled":false,"rental_uris":{"android":"levelo://app?vid=908265f7-28bc-4724-8c34-c74097bf6acf","ios":"levelo://app?vid=908265f7-28bc-4724-8c34-c74097bf6acf"},"vehicle_type_id":"4","last_reported":1741626534,"current_range_meters":16400,"station_id":"ce4bhi12rcd13ifvqfp0","pricing_plan_id":"cebpf4jnsgd1na2vs0mg"},{"bike_id":"02ccda15-ca98-4f66-a5ee-609c485d624e","system_id":"levelo_inurba_marseille","lat":43.23947,"lon":5.36625,"is_reserved":false,"is_disabled":false,"rental_uris":{"android":"levelo://app?vid=02ccda15-ca98-4f66-a5ee-609c485d624e","ios":"levelo://app?vid=02ccda15-ca98-4f66-a5ee-609c485d624e"},"vehicle_type_id":"4","last_reported":1741626534,"current_range_meters":16400,"station_id":"ce4bhi12rcd13ifvqfp0","pricing_plan_id":"cebpf4jnsgd1na2vs0mg"},{"bike_id":"ec824c67-647f-455d-ba59-0c44434d8416","system_id":"levelo_inurba_marseille","lat":43.25935,"lon":5.40897,"is_reserved":false,"is_disabled":false,"rental_uris":{"android":"levelo://app?vid=ec824c67-647f-455d-ba59-0c44434d8416","ios":"levelo://app?vid=ec824c67-647f-455d-ba59-0c44434d8416"},"vehicle_type_id":"4","last_reported":1741626534,"current_range_meters":16400,"station_id":"ce4bhm92rcd13ifvqglg","pricing_plan_id":"cebpf4jnsgd1na2vs0mg"},{"bike_id":"3e37f03c-e5a4-4e97-951f-7786bb1c3928","system_id":"levelo_inurba_marseille","lat":43.23155,"lon":5.43717,"is_reserved":false,"is_disabled":false,"rental_uris":{"android":"levelo://app?vid=3e37f03c-e5a4-4e97-951f-7786bb1c3928","ios":"levelo://app?vid=3e37f03c-e5a4-4e97-951f-7786bb1c3928"},"vehicle_type_id":"4","last_reported":1741626534,"current_range_meters":16400,"station_id":"ce4bhmp2rcd13ifvqgog","pricing_plan_id":"cebpf4jnsgd1na2vs0mg"},{"bike_id":"7d34c987-73ce-4ca4-a4f8-fc2f3288cfda","system_id":"levelo_inurba_marseille","lat":43.24167,"lon":5.39722,"is_reserved":false,"is_disabled":false,"rental_uris":{"android":"levelo://app?vid=7d34c987-73ce-4ca4-a4f8-fc2f3288cfda","ios":"levelo://app?vid=7d34c987-73ce-4ca4-a4f8-fc2f3288cfda"},"vehicle_type_id":"4","last_reported":1741626534,"current_range_meters":16400,"station_id":"ce4bhn12rcd13ifvqgpg","pricing_plan_id":"cebpf4jnsgd1na2vs0mg"},{"bike_id":"cdd29a02-0905-4ed7-aa8a-6508ae564de9","system_id":"levelo_inurba_marseille","lat":43.27811,"lon":5.40727,"is_reserved":false,"is_disabled":false,"rental_uris":{"android":"levelo://app?vid=cdd29a02-0905-4ed7-aa8a-6508ae564de9","ios":"levelo://app?vid=cdd29a02-0905-4ed7-aa8a-6508ae564de9"},"vehicle_type_id":"4","last_reported":1741626534,"current_range_meters":16400,"station_id":"ce4bhnh2rcd13ifvqgtg","pricing_plan_id":"cebpf4jnsgd1na2vs0mg"},{"bike_id":"565883d1-cc8a-44ba-8577-f2ece9d849c9","system_id":"levelo_inurba_marseille","lat":43.28158,"lon":5.42661,"is_reserved":false,"is_disabled":false,"rental_uris":{"android":"levelo://app?vid=565883d1-cc8a-44ba-8577-f2ece9d849c9","ios":"levelo://app?vid=565883d1-cc8a-44ba-8577-f2ece9d849c9"},"vehicle_type_id":"4","last_reported":1741626534,"current_range_meters":16400,"station_id":"ce4bhnh2rcd13ifvqgug","pricing_plan_id":"cebpf4jnsgd1na2vs0mg"},{"bike_id":"e091e08f-7df9-46d9-823b-609230b8f06f","system_id":"levelo_inurba_marseille","lat":43.32334,"lon":5.4062,"is_reserved":false,"is_disabled":false,"rental_uris":{"android":"levelo://app?vid=e091e08f-7df9-46d9-823b-609230b8f06f","ios":"levelo://app?vid=e091e08f-7df9-46d9-823b-609230b8f06f"},"vehicle_type_id":"4","last_reported":1741626534,"current_range_meters":16400,"station_id":"ce4bhq92rcd13ifvqhjg","pricing_plan_id":"cebpf4jnsgd1na2vs0mg"},{"bike_id":"415e7a31-245d-4ead-9f33-dad092a04302","system_id":"levelo_inurba_marseille","lat":43.23048,"lon":5.3552,"is_reserved":false,"is_disabled":false,"rental_uris":{"android":"levelo://app?vid=415e7a31-245d-4ead-9f33-dad092a04302","ios":"levelo://app?vid=415e7a31-245d-4ead-9f33-dad092a04302"},"vehicle_type_id":"4","last_reported":1741626534,"current_range_meters":16400,"station_id":"cpo3342slgdg3j2ifvpg","pricing_plan_id":"cebpf4jnsgd1na2vs0mg"},{"bike_id":"f6dc7e9d-be33-4c3d-b28e-234510ea7980","system_id":"levelo_inurba_marseille","lat":43.29061,"lon":5.38076,"is_reserved":false,"is_disabled":false,"rental_uris":{"android":"levelo://app?vid=f6dc7e9d-be33-4c3d-b28e-234510ea7980","ios":"levelo://app?vid=f6dc7e9d-be33-4c3d-b28e-234510ea7980"},"vehicle_type_id":"4","last_reported":1741626534,"current_range_meters":16800,"station_id":"","pricing_plan_id":"cebpf4jnsgd1na2vs0mg"},{"bike_id":"1ccfacb1-7ff9-46a6-9e58-00885ea712de","system_id":"levelo_inurba_marseille","lat":43.3059,"lon":5.39358,"is_reserved":false,"is_disabled":false,"rental_uris":{"android":"levelo://app?vid=1ccfacb1-7ff9-46a6-9e58-00885ea712de","ios":"levelo://app?vid=1ccfacb1-7ff9-46a6-9e58-00885ea712de"},"vehicle_type_id":"4","last_reported":1741626534,"current_range_meters":16800,"station_id":"ce4bh0p2rcd13ifvqd80","pricing_plan_id":"cebpf4jnsgd1na2vs0mg"},{"bike_id":"91223326-0fcf-40ae-833e-84ae29064d9a","system_id":"levelo_inurba_marseille","lat":43.2943,"lon":5.38631,"is_reserved":false,"is_disabled":false,"rental_uris":{"android":"levelo://app?vid=91223326-0fcf-40ae-833e-84ae29064d9a","ios":"levelo://app?vid=91223326-0fcf-40ae-833e-84ae29064d9a"},"vehicle_type_id":"4","last_reported":1741626534,"current_range_meters":16800,"station_id":"ce4bh2h2rcd13ifvqdh0","pricing_plan_id":"cebpf4jnsgd1na2vs0mg"},{"bike_id":"193986f8-92c3-4c0e-b74b-57f20da2175f","system_id":"levelo_inurba_marseille","lat":43.27068,"lon":5.402567,"is_reserved":false,"is_disabled":false,"rental_uris":{"android":"levelo://app?vid=193986f8-92c3-4c0e-b74b-57f20da2175f","ios":"levelo://app?vid=193986f8-92c3-4c0e-b74b-57f20da2175f"},"vehicle_type_id":"4","last_reported":1741626534,"current_range_meters":16800,"station_id":"ce4bhk92rcd13ifvqgc0","pricing_plan_id":"cebpf4jnsgd1na2vs0mg"},{"bike_id":"dfd9402a-d0c5-4a1d-9d26-5a17590c28fe","system_id":"levelo_inurba_marseille","lat":43.31081,"lon":5.42431,"is_reserved":false,"is_disabled":false,"rental_uris":{"android":"levelo://app?vid=dfd9402a-d0c5-4a1d-9d26-5a17590c28fe","ios":"levelo://app?vid=dfd9402a-d0c5-4a1d-9d26-5a17590c28fe"},"vehicle_type_id":"4","last_reported":1741626534,"current_range_meters":16800,"station_id":"ce4bhp92rcd13ifvqhag","pricing_plan_id":"cebpf4jnsgd1na2vs0mg"},{"bike_id":"1498d9b5-39cd-4f5d-b3c4-8d637c9b06b3","system_id":"levelo_inurba_marseille","lat":43.32497,"lon":5.36553,"is_reserved":false,"is_disabled":false,"rental_uris":{"android":"levelo://app?vid=1498d9b5-39cd-4f5d-b3c4-8d637c9b06b3","ios":"levelo://app?vid=1498d9b5-39cd-4f5d-b3c4-8d637c9b06b3"},"vehicle_type_id":"4","last_reported":1741626534,"current_range_meters":17200,"station_id":"ce4bhs12rcd13ifvqhvg","pricing_plan_id":"cebpf4jnsgd1na2vs0mg"},{"bike_id":"2cdec81d-2593-4153-a426-2f527f1b29e2","system_id":"levelo_inurba_marseille","lat":43.23595,"lon":5.391,"is_reserved":false,"is_disabled":false,"rental_uris":{"android":"levelo://app?vid=2cdec81d-2593-4153-a426-2f527f1b29e2","ios":"levelo://app?vid=2cdec81d-2593-4153-a426-2f527f1b29e2"},"vehicle_type_id":"4","last_reported":1741626534,"current_range_meters":17600,"station_id":"","pricing_plan_id":"cebpf4jnsgd1na2vs0mg"},{"bike_id":"3eac22db-c164-4a95-bf19-b88a6b3ac00d","system_id":"levelo_inurba_marseille","lat":43.29252,"lon":5.3762,"is_reserved":false,"is_disabled":false,"rental_uris":{"android":"levelo://app?vid=3eac22db-c164-4a95-bf19-b88a6b3ac00d","ios":"levelo://app?vid=3eac22db-c164-4a95-bf19-b88a6b3ac00d"},"vehicle_type_id":"4","last_reported":1741626534,"current_range_meters":17600,"station_id":"ce4bgi12rcd13ifvqb80","pricing_plan_id":"cebpf4jnsgd1na2vs0mg"},{"bike_id":"2adb444f-3bf1-4341-990d-c4816511bce1","system_id":"levelo_inurba_marseille","lat":43.29532,"lon":5.38543,"is_reserved":false,"is_disabled":false,"rental_uris":{"android":"levelo://app?vid=2adb444f-3bf1-4341-990d-c4816511bce1","ios":"levelo://app?vid=2adb444f-3bf1-4341-990d-c4816511bce1"},"vehicle_type_id":"4","last_reported":1741626534,"current_range_meters":17600,"station_id":"ce4bgih2rcd13ifvqba0","pricing_plan_id":"cebpf4jnsgd1na2vs0mg"},{"bike_id":"8585faac-3c79-4859-94cb-c334fcc01d9e","system_id":"levelo_inurba_marseille","lat":43.29844,"lon":5.36273,"is_reserved":false,"is_disabled":false,"rental_uris":{"android":"levelo://app?vid=8585faac-3c79-4859-94cb-c334fcc01d9e","ios":"levelo://app?vid=8585faac-3c79-4859-94cb-c334fcc01d9e"},"vehicle_type_id":"4","last_reported":1741626534,"current_range_meters":17600,"station_id":"ce4bgpp2rcd13ifvqc3g","pricing_plan_id":"cebpf4jnsgd1na2vs0mg"},{"bike_id":"b46f060e-fa8f-48f9-86ef-80a2c21091cc","system_id":"levelo_inurba_marseille","lat":43.30336,"lon":5.40431,"is_reserved":false,"is_disabled":false,"rental_uris":{"android":"levelo://app?vid=b46f060e-fa8f-48f9-86ef-80a2c21091cc","ios":"levelo://app?vid=b46f060e-fa8f-48f9-86ef-80a2c21091cc"},"vehicle_type_id":"4","last_reported":1741626534,"current_range_meters":17600,"station_id":"ce4bh012rcd13ifvqd10","pricing_plan_id":"cebpf4jnsgd1na2vs0mg"},{"bike_id":"848e7e72-2178-4961-9d70-dd772c94d8be","system_id":"levelo_inurba_marseille","lat":43.29636,"lon":5.40595,"is_reserved":false,"is_disabled":false,"rental_uris":{"android":"levelo://app?vid=848e7e72-2178-4961-9d70-dd772c94d8be","ios":"levelo://app?vid=848e7e72-2178-4961-9d70-dd772c94d8be"},"vehicle_type_id":"4","last_reported":1741626534,"current_range_meters":17600,"station_id":"ce4bh0h2rcd13ifvqd60","pricing_plan_id":"cebpf4jnsgd1na2vs0mg"},{"bike_id":"e36deeca-6ac2-440f-bc5f-31e8f1cb7168","system_id":"levelo_inurba_marseille","lat":43.29253,"lon":5.40894,"is_reserved":false,"is_disabled":false,"rental_uris":{"android":"levelo://app?vid=e36deeca-6ac2-440f-bc5f-31e8f1cb7168","ios":"levelo://app?vid=e36deeca-6ac2-440f-bc5f-31e8f1cb7168"},"vehicle_type_id":"4","last_reported":1741626534,"current_range_meters":17600,"station_id":"ce4bh192rcd13ifvqdc0","pricing_plan_id":"cebpf4jnsgd1na2vs0mg"},{"bike_id":"a5f20cb4-4c2a-42cc-a2e4-2a17458902d2","system_id":"levelo_inurba_marseille","lat":43.28617,"lon":5.351,"is_reserved":false,"is_disabled":false,"rental_uris":{"android":"levelo://app?vid=a5f20cb4-4c2a-42cc-a2e4-2a17458902d2","ios":"levelo://app?vid=a5f20cb4-4c2a-42cc-a2e4-2a17458902d2"},"vehicle_type_id":"4","last_reported":1741626534,"current_range_meters":17600,"station_id":"ce4bhch2rcd13ifvqeug","pricing_plan_id":"cebpf4jnsgd1na2vs0mg"},{"bike_id":"bf8031c5-307e-4ec9-82d1-b960aceb6bb1","system_id":"levelo_inurba_marseille","lat":43.27419,"lon":5.39416,"is_reserved":false,"is_disabled":false,"rental_uris":{"android":"levelo://app?vid=bf8031c5-307e-4ec9-82d1-b960aceb6bb1","ios":"levelo://app?vid=bf8031c5-307e-4ec9-82d1-b960aceb6bb1"},"vehicle_type_id":"4","last_reported":1741626534,"current_range_meters":17600,"station_id":"ce4bhdp2rcd13ifvqf20","pricing_plan_id":"cebpf4jnsgd1na2vs0mg"},{"bike_id":"f600c28a-f630-4456-a8a8-8209d921b580","system_id":"levelo_inurba_marseille","lat":43.27815,"lon":5.3921,"is_reserved":false,"is_disabled":false,"rental_uris":{"android":"levelo://app?vid=f600c28a-f630-4456-a8a8-8209d921b580","ios":"levelo://app?vid=f600c28a-f630-4456-a8a8-8209d921b580"},"vehicle_type_id":"4","last_reported":1741626534,"current_range_meters":17600,"station_id":"ce4bhjp2rcd13ifvqga0","pricing_plan_id":"cebpf4jnsgd1na2vs0mg"},{"bike_id":"9776d519-3376-4f51-aaa3-2da63911d7cc","system_id":"levelo_inurba_marseille","lat":43.25088,"lon":5.39517,"is_reserved":false,"is_disabled":false,"rental_uris":{"android":"levelo://app?vid=9776d519-3376-4f51-aaa3-2da63911d7cc","ios":"levelo://app?vid=9776d519-3376-4f51-aaa3-2da63911d7cc"},"vehicle_type_id":"4","last_reported":1741626534,"current_range_meters":17600,"station_id":"ce4bhm12rcd13ifvqgkg","pricing_plan_id":"cebpf4jnsgd1na2vs0mg"},{"bike_id":"2d93c67e-330c-4c7b-8517-c03567315b70","system_id":"levelo_inurba_marseille","lat":43.28147,"lon":5.42642,"is_reserved":false,"is_disabled":false,"rental_uris":{"android":"levelo://app?vid=2d93c67e-330c-4c7b-8517-c03567315b70","ios":"levelo://app?vid=2d93c67e-330c-4c7b-8517-c03567315b70"},"vehicle_type_id":"4","last_reported":1741626534,"current_range_meters":17600,"station_id":"ce4bhnh2rcd13ifvqgug","pricing_plan_id":"cebpf4jnsgd1na2vs0mg"},{"bike_id":"6e351edb-c555-4910-a983-e96bd12ebca1","system_id":"levelo_inurba_marseille","lat":43.285389,"lon":5.383628,"is_reserved":false,"is_disabled":false,"rental_uris":{"android":"levelo://app?vid=6e351edb-c555-4910-a983-e96bd12ebca1","ios":"levelo://app?vid=6e351edb-c555-4910-a983-e96bd12ebca1"},"vehicle_type_id":"4","last_reported":1741626534,"current_range_meters":17600,"station_id":"chh1huq6cuj3fo74tm60","pricing_plan_id":"cebpf4jnsgd1na2vs0mg"},{"bike_id":"b82b5477-7e39-427d-89dc-28517f52f237","system_id":"levelo_inurba_marseille","lat":43.26821,"lon":5.41118,"is_reserved":false,"is_disabled":false,"rental_uris":{"android":"levelo://app?vid=b82b5477-7e39-427d-89dc-28517f52f237","ios":"levelo://app?vid=b82b5477-7e39-427d-89dc-28517f52f237"},"vehicle_type_id":"4","last_reported":1741626534,"current_range_meters":18000,"station_id":"","pricing_plan_id":"cebpf4jnsgd1na2vs0mg"},{"bike_id":"29afafe6-9314-4cd8-9aea-023139050f04","system_id":"levelo_inurba_marseille","lat":43.31603,"lon":5.36859,"is_reserved":false,"is_disabled":false,"rental_uris":{"android":"levelo://app?vid=29afafe6-9314-4cd8-9aea-023139050f04","ios":"levelo://app?vid=29afafe6-9314-4cd8-9aea-023139050f04"},"vehicle_type_id":"4","last_reported":1741626534,"current_range_meters":18000,"station_id":"","pricing_plan_id":"cebpf4jnsgd1na2vs0mg"},{"bike_id":"f0b5f6b7-161e-4c72-8f30-8d8e8d5c374f","system_id":"levelo_inurba_marseille","lat":43.24578,"lon":5.40492,"is_reserved":false,"is_disabled":false,"rental_uris":{"android":"levelo://app?vid=f0b5f6b7-161e-4c72-8f30-8d8e8d5c374f","ios":"levelo://app?vid=f0b5f6b7-161e-4c72-8f30-8d8e8d5c374f"},"vehicle_type_id":"4","last_reported":1741626534,"current_range_meters":18000,"station_id":"","pricing_plan_id":"cebpf4jnsgd1na2vs0mg"},{"bike_id":"ade86942-1b4e-4eeb-a0b9-aab18e14cfd0","system_id":"levelo_inurba_marseille","lat":43.30544,"lon":5.36534,"is_reserved":false,"is_disabled":false,"rental_uris":{"android":"levelo://app?vid=ade86942-1b4e-4eeb-a0b9-aab18e14cfd0","ios":"levelo://app?vid=ade86942-1b4e-4eeb-a0b9-aab18e14cfd0"},"vehicle_type_id":"4","last_reported":1741626534,"current_range_meters":18000,"station_id":"ce4bgs12rcd13ifvqcag","pricing_plan_id":"cebpf4jnsgd1na2vs0mg"},{"bike_id":"a5c23861-a5a1-42a3-8484-33b25c02b840","system_id":"levelo_inurba_marseille","lat":43.27172,"lon":5.40989,"is_reserved":false,"is_disabled":false,"rental_uris":{"android":"levelo://app?vid=a5c23861-a5a1-42a3-8484-33b25c02b840","ios":"levelo://app?vid=a5c23861-a5a1-42a3-8484-33b25c02b840"},"vehicle_type_id":"4","last_reported":1741626534,"current_range_meters":18000,"station_id":"ce4bhl12rcd13ifvqgf0","pricing_plan_id":"cebpf4jnsgd1na2vs0mg"},{"bike_id":"46461cd5-ba85-4ea2-ac0e-02eeb10693f6","system_id":"levelo_inurba_marseille","lat":43.28154,"lon":5.42637,"is_reserved":false,"is_disabled":false,"rental_uris":{"android":"levelo://app?vid=46461cd5-ba85-4ea2-ac0e-02eeb10693f6","ios":"levelo://app?vid=46461cd5-ba85-4ea2-ac0e-02eeb10693f6"},"vehicle_type_id":"4","last_reported":1741626534,"current_range_meters":18000,"station_id":"ce4bhnh2rcd13ifvqgug","pricing_plan_id":"cebpf4jnsgd1na2vs0mg"},{"bike_id":"46fba850-a1fe-47d0-9a6f-d7a27235afbd","system_id":"levelo_inurba_marseille","lat":43.28156,"lon":5.42638,"is_reserved":false,"is_disabled":false,"rental_uris":{"android":"levelo://app?vid=46fba850-a1fe-47d0-9a6f-d7a27235afbd","ios":"levelo://app?vid=46fba850-a1fe-47d0-9a6f-d7a27235afbd"},"vehicle_type_id":"4","last_reported":1741626534,"current_range_meters":18000,"station_id":"ce4bhnh2rcd13ifvqgug","pricing_plan_id":"cebpf4jnsgd1na2vs0mg"},{"bike_id":"8c6334d6-afff-488c-a083-c62efb426e8d","system_id":"levelo_inurba_marseille","lat":43.29082,"lon":5.3813,"is_reserved":false,"is_disabled":false,"rental_uris":{"android":"levelo://app?vid=8c6334d6-afff-488c-a083-c62efb426e8d","ios":"levelo://app?vid=8c6334d6-afff-488c-a083-c62efb426e8d"},"vehicle_type_id":"4","last_reported":1741626534,"current_range_meters":18800,"station_id":"ce4bh512rcd13ifvqe2g","pricing_plan_id":"cebpf4jnsgd1na2vs0mg"},{"bike_id":"2bbfc1dc-382a-426d-814d-d24a23157160","system_id":"levelo_inurba_marseille","lat":43.28459,"lon":5.3589,"is_reserved":false,"is_disabled":false,"rental_uris":{"android":"levelo://app?vid=2bbfc1dc-382a-426d-814d-d24a23157160","ios":"levelo://app?vid=2bbfc1dc-382a-426d-814d-d24a23157160"},"vehicle_type_id":"4","last_reported":1741626534,"current_range_meters":18800,"station_id":"ce4bhah2rcd13ifvqei0","pricing_plan_id":"cebpf4jnsgd1na2vs0mg"},{"bike_id":"b80eb34b-d24c-4531-92da-6e819108e372","system_id":"levelo_inurba_marseille","lat":43.26789,"lon":5.39413,"is_reserved":false,"is_disabled":false,"rental_uris":{"android":"levelo://app?vid=b80eb34b-d24c-4531-92da-6e819108e372","ios":"levelo://app?vid=b80eb34b-d24c-4531-92da-6e819108e372"},"vehicle_type_id":"4","last_reported":1741626534,"current_range_meters":18800,"station_id":"ce4bhh12rcd13ifvqfg0","pricing_plan_id":"cebpf4jnsgd1na2vs0mg"},{"bike_id":"85b0ae10-69fc-4b64-81cd-cff329feeebf","system_id":"levelo_inurba_marseille","lat":43.26058,"lon":5.39394,"is_reserved":false,"is_disabled":false,"rental_uris":{"android":"levelo://app?vid=85b0ae10-69fc-4b64-81cd-cff329feeebf","ios":"levelo://app?vid=85b0ae10-69fc-4b64-81cd-cff329feeebf"},"vehicle_type_id":"4","last_reported":1741626534,"current_range_meters":18800,"station_id":"ce4bhh92rcd13ifvqfj0","pricing_plan_id":"cebpf4jnsgd1na2vs0mg"},{"bike_id":"b9fda32f-72ae-4df5-86a6-7dd6748cfac1","system_id":"levelo_inurba_marseille","lat":43.2782,"lon":5.40707,"is_reserved":false,"is_disabled":false,"rental_uris":{"android":"levelo://app?vid=b9fda32f-72ae-4df5-86a6-7dd6748cfac1","ios":"levelo://app?vid=b9fda32f-72ae-4df5-86a6-7dd6748cfac1"},"vehicle_type_id":"4","last_reported":1741626534,"current_range_meters":18800,"station_id":"ce4bhnh2rcd13ifvqgtg","pricing_plan_id":"cebpf4jnsgd1na2vs0mg"},{"bike_id":"d86a133b-f008-44b5-93ec-17180a205948","system_id":"levelo_inurba_marseille","lat":43.28444,"lon":5.39202,"is_reserved":false,"is_disabled":false,"rental_uris":{"android":"levelo://app?vid=d86a133b-f008-44b5-93ec-17180a205948","ios":"levelo://app?vid=d86a133b-f008-44b5-93ec-17180a205948"},"vehicle_type_id":"4","last_reported":1741626534,"current_range_meters":18800,"station_id":"ce4bhoh2rcd13ifvqh5g","pricing_plan_id":"cebpf4jnsgd1na2vs0mg"},{"bike_id":"adc75c13-38f6-4cd5-a0b9-13a8ecab8833","system_id":"levelo_inurba_marseille","lat":43.29134,"lon":5.37965,"is_reserved":false,"is_disabled":false,"rental_uris":{"android":"levelo://app?vid=adc75c13-38f6-4cd5-a0b9-13a8ecab8833","ios":"levelo://app?vid=adc75c13-38f6-4cd5-a0b9-13a8ecab8833"},"vehicle_type_id":"4","last_reported":1741626534,"current_range_meters":18800,"station_id":"ce4bhqp2rcd13ifvqhng","pricing_plan_id":"cebpf4jnsgd1na2vs0mg"},{"bike_id":"17b872eb-086c-460e-bcad-782a4a781cf9","system_id":"levelo_inurba_marseille","lat":43.251639,"lon":5.425575,"is_reserved":false,"is_disabled":false,"rental_uris":{"android":"levelo://app?vid=17b872eb-086c-460e-bcad-782a4a781cf9","ios":"levelo://app?vid=17b872eb-086c-460e-bcad-782a4a781cf9"},"vehicle_type_id":"4","last_reported":1741626534,"current_range_meters":19200,"station_id":"","pricing_plan_id":"cebpf4jnsgd1na2vs0mg"},{"bike_id":"e53c1fac-81ee-4116-a438-316d82771202","system_id":"levelo_inurba_marseille","lat":43.304379,"lon":5.367387,"is_reserved":false,"is_disabled":false,"rental_uris":{"android":"levelo://app?vid=e53c1fac-81ee-4116-a438-316d82771202","ios":"levelo://app?vid=e53c1fac-81ee-4116-a438-316d82771202"},"vehicle_type_id":"4","last_reported":1741626534,"current_range_meters":19200,"station_id":"","pricing_plan_id":"cebpf4jnsgd1na2vs0mg"},{"bike_id":"85d0fee5-9e1e-4258-a604-1b615a22b292","system_id":"levelo_inurba_marseille","lat":43.31318,"lon":5.38616,"is_reserved":false,"is_disabled":false,"rental_uris":{"android":"levelo://app?vid=85d0fee5-9e1e-4258-a604-1b615a22b292","ios":"levelo://app?vid=85d0fee5-9e1e-4258-a604-1b615a22b292"},"vehicle_type_id":"4","last_reported":1741626534,"current_range_meters":19200,"station_id":"","pricing_plan_id":"cebpf4jnsgd1na2vs0mg"},{"bike_id":"d1e043d3-9238-45b4-8337-22f2eeda05b4","system_id":"levelo_inurba_marseille","lat":43.25718,"lon":5.42166,"is_reserved":false,"is_disabled":false,"rental_uris":{"android":"levelo://app?vid=d1e043d3-9238-45b4-8337-22f2eeda05b4","ios":"levelo://app?vid=d1e043d3-9238-45b4-8337-22f2eeda05b4"},"vehicle_type_id":"4","last_reported":1741626534,"current_range_meters":19200,"station_id":"","pricing_plan_id":"cebpf4jnsgd1na2vs0mg"},