{"last_updated":1742649268,"ttl":60,"version":"2.2","data":{"bikes":[{"bike_id":"f768b9b8-96a4-4192-9e7d-38bb1008140d","system_id":"levelo_inurba_marseille","lat":43.28701,"lon":5.39994,"is_reserved":false,"is_disabled":false,"rental_uris":{"android":"levelo://app?vid=f768b9b8-96a4-4192-9e7d-38bb1008140d","ios":"levelo://app?vid=f768b9b8-96a4-4192-9e7d-38bb1008140d"},"vehicle_type_id":"4","last_reported":1742649269,"current_range_meters":2800,"station_id":"ce4bho92rcd13ifvqh3g","pricing_plan_id":"cebpf4jnsgd1na2vs0mg"},{"bike_id":"678ade28-e33b-4d54-8e1a-db784783deb5","system_id":"levelo_inurba_marseille","lat":43.278011,"lon":5.398072,"is_reserved":false,"is_disabled":false,"rental_uris":{"android":"levelo://app?vid=678ade28-e33b-4d54-8e1a-db784783deb5","ios":"levelo://app?vid=678ade28-e33b-4d54-8e1a-db784783deb5"},"vehicle_type_id":"4","last_reported":1742649269,"current_range_meters":2800,"station_id":"ce4bh3p2rcd13ifvqdp0","pricing_plan_id":"cebpf4jnsgd1na2vs0mg"},{"bike_id":"d2f8c05b-f28f-4633-8dd4-9fcd5241ff6e","system_id":"levelo_inurba_marseille","lat":43.23158,"lon":5.43698,"is_reserved":false,"is_disabled":false,"rental_uris":{"android":"levelo://app?vid=d2f8c05b-f28f-4633-8dd4-9fcd5241ff6e","ios":"levelo://app?vid=d2f8c05b-f28f-4633-8dd4-9fcd5241ff6e"},"vehicle_type_id":"4","last_reported":1742649269,"current_range_meters":2800,"station_id":"ce4bhmp2rcd13ifvqgog","pricing_plan_id":"cebpf4jnsgd1na2vs0mg"},{"bike_id":"9c92cfdb-b019-49b0-8a8c-30324206cdec","system_id":"levelo_inurba_marseille","lat":43.31479,"lon":5.37304,"is_reserved":false,"is_disabled":false,"rental_uris":{"android":"levelo://app?vid=9c92cfdb-b019-49b0-8a8c-30324206cdec","ios":"levelo://app?vid=9c92cfdb-b019-49b0-8a8c-30324206cdec"},"vehicle_type_id":"4","last_reported":1742649269,"current_range_meters":3200,"station_id":"ce4bgt12rcd13ifvqcd0","pricing_plan_id":"cebpf4jnsgd1na2vs0mg"},{"bike_id":"49db28d3-a884-4b82-8d69-edbe7b9691f6","system_id":"levelo_inurba_marseille","lat":43.23964,"lon":5.3663,"is_reserved":false,"is_disabled":true,"rental_uris":{"android":"levelo://app?vid=49db28d3-a884-4b82-8d69-edbe7b9691f6","ios":"levelo://app?vid=49db28d3-a884-4b82-8d69-edbe7b9691f6"},"vehicle_type_id":"4","last_reported":1742649269,"current_range_meters":3200,"station_id":"ce4bhi12rcd13ifvqfp0","pricing_plan_id":"cebpf4jnsgd1na2vs0mg"},{"bike_id":"62bf2f5c-9819-4816-afad-4a268d7a76b8","system_id":"levelo_inurba_marseille","lat":43.24182,"lon":5.36399,"is_reserved":false,"is_disabled":true,"rental_uris":{"android":"levelo://app?vid=62bf2f5c-9819-4816-afad-4a268d7a76b8","ios":"levelo://app?vid=62bf2f5c-9819-4816-afad-4a268d7a76b8"},"vehicle_type_id":"4","last_reported":1742649269,"current_range_meters":3600,"station_id":"cpo36qri1sfpv3e86is0","pricing_plan_id":"cebpf4jnsgd1na2vs0mg"},{"bike_id":"7efc763b-b69d-45d7-bb25-a659455da627","system_id":"levelo_inurba_marseille","lat":43.26566,"lon":5.3729,"is_reserved":false,"is_disabled":false,"rental_uris":{"android":"levelo://app?vid=7efc763b-b69d-45d7-bb25-a659455da627","ios":"levelo://app?vid=7efc763b-b69d-45d7-bb25-a659455da627"},"vehicle_type_id":"4","last_reported":1742649269,"current_range_meters":4400,"station_id":"ce4bhg12rcd13ifvqf70","pricing_plan_id":"cebpf4jnsgd1na2vs0mg"},{"bike_id":"62238d09-e9ef-41e3-9189-522321dcee26","system_id":"levelo_inurba_marseille","lat":43.28414,"lon":5.34983,"is_reserved":false,"is_disabled":false,"rental_uris":{"android":"levelo://app?vid=62238d09-e9ef-41e3-9189-522321dcee26","ios":"levelo://app?vid=62238d09-e9ef-41e3-9189-522321dcee26"},"vehicle_type_id":"4","last_reported":1742649269,"current_range_meters":4400,"station_id":"ce4bhbh2rcd13ifvqepg","pricing_plan_id":"cebpf4jnsgd1na2vs0mg"},{"bike_id":"b25c16cc-fcf3-4005-ae0f-e8353c1178cb","system_id":"levelo_inurba_marseille","lat":43.24696,"lon":5.38179,"is_reserved":false,"is_disabled":true,"rental_uris":{"android":"levelo://app?vid=b25c16cc-fcf3-4005-ae0f-e8353c1178cb","ios":"levelo://app?vid=b25c16cc-fcf3-4005-ae0f-e8353c1178cb"},"vehicle_type_id":"4","last_reported":1742649269,"current_range_meters":4400,"station_id":"ce4bhih2rcd13ifvqfr0","pricing_plan_id":"cebpf4jnsgd1na2vs0mg"},{"bike_id":"589b591c-8ecf-4ac7-a099-6f338f040047","system_id":"levelo_inurba_marseille","lat":43.29415,"lon":5.38627,"is_reserved":false,"is_disabled":false,"rental_uris":{"android":"levelo://app?vid=589b591c-8ecf-4ac7-a099-6f338f040047","ios":"levelo://app?vid=589b591c-8ecf-4ac7-a099-6f338f040047"},"vehicle_type_id":"4","last_reported":1742649269,"current_range_meters":4400,"station_id":"ce4bh2h2rcd13ifvqdh0","pricing_plan_id":"cebpf4jnsgd1na2vs0mg"},{"bike_id":"ee812a97-d7cd-4032-b13b-89c9c4a9bc67","system_id":"levelo_inurba_marseille","lat":43.29581,"lon":5.36738,"is_reserved":false,"is_disabled":false,"rental_uris":{"android":"levelo://app?vid=ee812a97-d7cd-4032-b13b-89c9c4a9bc67","ios":"levelo://app?vid=ee812a97-d7cd-4032-b13b-89c9c4a9bc67"},"vehicle_type_id":"4","last_reported":1742649269,"current_range_meters":4400,"station_id":"ce4bgph2rcd13ifvqc2g","pricing_plan_id":"cebpf4jnsgd1na2vs0mg"},{"bike_id":"1c3b5361-695c-4ccc-94f9-aca7f37b6d45","system_id":"levelo_inurba_marseille","lat":43.23197,"lon":5.35557,"is_reserved":false,"is_disabled":false,"rental_uris":{"android":"levelo://app?vid=1c3b5361-695c-4ccc-94f9-aca7f37b6d45","ios":"levelo://app?vid=1c3b5361-695c-4ccc-94f9-aca7f37b6d45"},"vehicle_type_id":"4","last_reported":1742649269,"current_range_meters":4800,"station_id":"ce4bhu92rcd13ifvqi70","pricing_plan_id":"cebpf4jnsgd1na2vs0mg"},{"bike_id":"b00605e3-b50e-457e-a9d6-59adef6bb5fb","system_id":"levelo_inurba_marseille","lat":43.28151,"lon":5.42627,"is_reserved":false,"is_disabled":false,"rental_uris":{"android":"levelo://app?vid=b00605e3-b50e-457e-a9d6-59adef6bb5fb","ios":"levelo://app?vid=b00605e3-b50e-457e-a9d6-59adef6bb5fb"},"vehicle_type_id":"4","last_reported":1742649269,"current_range_meters":4800,"station_id":"ce4bhnh2rcd13ifvqgug","pricing_plan_id":"cebpf4jnsgd1na2vs0mg"},{"bike_id":"077a08c6-ca1d-41e4-bd14-c372b8392de2","system_id":"levelo_inurba_marseille","lat":43.29197,"lon":5.35817,"is_reserved":false,"is_disabled":false,"rental_uris":{"android":"levelo://app?vid=077a08c6-ca1d-41e4-bd14-c372b8392de2","ios":"levelo://app?vid=077a08c6-ca1d-41e4-bd14-c372b8392de2"},"vehicle_type_id":"4","last_reported":1742649269,"current_range_meters":4800,"station_id":"ce4bhb12rcd13ifvqel0","pricing_plan_id":"cebpf4jnsgd1na2vs0mg"},{"bike_id":"3f7014a7-f3b0-4542-b8ce-80ef44f54b7d","system_id":"levelo_inurba_marseille","lat":43.231516,"lon":5.437138,"is_reserved":false,"is_disabled":false,"rental_uris":{"android":"levelo://app?vid=3f7014a7-f3b0-4542-b8ce-80ef44f54b7d","ios":"levelo://app?vid=3f7014a7-f3b0-4542-b8ce-80ef44f54b7d"},"vehicle_type_id":"4","last_reported":1742649269,"current_range_meters":5600,"station_id":"ce4bhmp2rcd13ifvqgog","pricing_plan_id":"cebpf4jnsgd1na2vs0mg"},{"bike_id":"10e8ca3e-8415-4db2-bd99-6d8438c9a57a","system_id":"levelo_inurba_marseille","lat":43.29919,"lon":5.37489,"is_reserved":false,"is_disabled":false,"rental_uris":{"android":"levelo://app?vid=10e8ca3e-8415-4db2-bd99-6d8438c9a57a","ios":"levelo://app?vid=10e8ca3e-8415-4db2-bd99-6d8438c9a57a"},"vehicle_type_id":"4","last_reported":1742649269,"current_range_meters":5600,"station_id":"ce4bgjh2rcd13ifvqbg0","pricing_plan_id":"cebpf4jnsgd1na2vs0mg"},{"bike_id":"a67c54b6-5ce9-4632-8070-5ca7d5b7fc9e","system_id":"levelo_inurba_marseille","lat":43.23067,"lon":5.35497,"is_reserved":false,"is_disabled":false,"rental_uris":{"android":"levelo://app?vid=a67c54b6-5ce9-4632-8070-5ca7d5b7fc9e","ios":"levelo://app?vid=a67c54b6-5ce9-4632-8070-5ca7d5b7fc9e"},"vehicle_type_id":"4","last_reported":1742649269,"current_range_meters":5600,"station_id":"cpo3342slgdg3j2ifvpg","pricing_plan_id":"cebpf4jnsgd1na2vs0mg"},{"bike_id":"e6a0f3dc-454a-4781-920f-851a1fdd2022","system_id":"levelo_inurba_marseille","lat":43.29574,"lon":5.3753,"is_reserved":false,"is_disabled":false,"rental_uris":{"android":"levelo://app?vid=e6a0f3dc-454a-4781-920f-851a1fdd2022","ios":"levelo://app?vid=e6a0f3dc-454a-4781-920f-851a1fdd2022"},"vehicle_type_id":"4","last_reported":1742649269,"current_range_meters":5600,"station_id":"ce4bgh92rcd13ifvqb50","pricing_plan_id":"cebpf4jnsgd1na2vs0mg"},{"bike_id":"6f0638c6-50c7-475d-9f03-b4c5329cc52a","system_id":"levelo_inurba_marseille","lat":43.23967,"lon":5.36634,"is_reserved":false,"is_disabled":false,"rental_uris":{"android":"levelo://app?vid=6f0638c6-50c7-475d-9f03-b4c5329cc52a","ios":"levelo://app?vid=6f0638c6-50c7-475d-9f03-b4c5329cc52a"},"vehicle_type_id":"4","last_reported":1742649269,"current_range_meters":5600,"station_id":"ce4bhi12rcd13ifvqfp0","pricing_plan_id":"cebpf4jnsgd1na2vs0mg"},{"bike_id":"873ba9b6-c288-4c34-a804-c113b2d8ba90","system_id":"levelo_inurba_marseille","lat":43.29618,"lon":5.37742,"is_reserved":false,"is_disabled":false,"rental_uris":{"android":"levelo://app?vid=873ba9b6-c288-4c34-a804-c113b2d8ba90","ios":"levelo://app?vid=873ba9b6-c288-4c34-a804-c113b2d8ba90"},"vehicle_type_id":"4","last_reported":1742649269,"current_range_meters":3600,"station_id":"ce4bgi92rcd13ifvqb90","pricing_plan_id":"cebpf4jnsgd1na2vs0mg"},{"bike_id":"2e3c3eef-02c6-4020-8ae4-a4958d3a9520","system_id":"levelo_inurba_marseille","lat":43.29644,"lon":5.40604,"is_reserved":false,"is_disabled":true,"rental_uris":{"android":"levelo://app?vid=2e3c3eef-02c6-4020-8ae4-a4958d3a9520","ios":"levelo://app?vid=2e3c3eef-02c6-4020-8ae4-a4958d3a9520"},"vehicle_type_id":"4","last_reported":1742649269,"current_range_meters":6000,"station_id":"ce4bh0h2rcd13ifvqd60","pricing_plan_id":"cebpf4jnsgd1na2vs0mg"},{"bike_id":"22fc8a9f-a716-4c67-b5de-c39abadd7316","system_id":"levelo_inurba_marseille","lat":43.27219,"lon":5.39189,"is_reserved":false,"is_disabled":false,"rental_uris":{"android":"levelo://app?vid=22fc8a9f-a716-4c67-b5de-c39abadd7316","ios":"levelo://app?vid=22fc8a9f-a716-4c67-b5de-c39abadd7316"},"vehicle_type_id":"4","last_reported":1742649269,"current_range_meters":6400,"station_id":"ce4bhhp2rcd13ifvqfm0","pricing_plan_id":"cebpf4jnsgd1na2vs0mg"},{"bike_id":"5598a285-a859-428b-94b8-9502fa251890","system_id":"levelo_inurba_marseille","lat":43.25573,"lon":5.38261,"is_reserved":false,"is_disabled":false,"rental_uris":{"android":"levelo://app?vid=5598a285-a859-428b-94b8-9502fa251890","ios":"levelo://app?vid=5598a285-a859-428b-94b8-9502fa251890"},"vehicle_type_id":"4","last_reported":1742649269,"current_range_meters":6400,"station_id":"ce4bhih2rcd13ifvqfs0","pricing_plan_id":"cebpf4jnsgd1na2vs0mg"},{"bike_id":"cb51e622-9465-4d58-b3bb-5d4e9e284f95","system_id":"levelo_inurba_marseille","lat":43.29627,"lon":5.37742,"is_reserved":false,"is_disabled":false,"rental_uris":{"android":"levelo://app?vid=cb51e622-9465-4d58-b3bb-5d4e9e284f95","ios":"levelo://app?vid=cb51e622-9465-4d58-b3bb-5d4e9e284f95"},"vehicle_type_id":"4","last_reported":1742649269,"current_range_meters":5600,"station_id":"ce4bgi92rcd13ifvqb90","pricing_plan_id":"cebpf4jnsgd1na2vs0mg"},{"bike_id":"2614276d-8f65-402c-b8d2-9edc2441773f","system_id":"levelo_inurba_marseille","lat":43.29802,"lon":5.40401,"is_reserved":false,"is_disabled":false,"rental_uris":{"android":"levelo://app?vid=2614276d-8f65-402c-b8d2-9edc2441773f","ios":"levelo://app?vid=2614276d-8f65-402c-b8d2-9edc2441773f"},"vehicle_type_id":"4","last_reported":1742649269,"current_range_meters":6400,"station_id":"ce4bh112rcd13ifvqd90","pricing_plan_id":"cebpf4jnsgd1na2vs0mg"},{"bike_id":"2330c8bb-3508-4fa1-9310-6ce923a32561","system_id":"levelo_inurba_marseille","lat":43.23075,"lon":5.35482,"is_reserved":false,"is_disabled":false,"rental_uris":{"android":"levelo://app?vid=2330c8bb-3508-4fa1-9310-6ce923a32561","ios":"levelo://app?vid=2330c8bb-3508-4fa1-9310-6ce923a32561"},"vehicle_type_id":"4","last_reported":1742649269,"current_range_meters":6400,"station_id":"cpo3342slgdg3j2ifvpg","pricing_plan_id":"cebpf4jnsgd1na2vs0mg"},{"bike_id":"b8947409-508b-461c-b433-a1d5d02b6078","system_id":"levelo_inurba_marseille","lat":43.26562,"lon":5.37299,"is_reserved":false,"is_disabled":false,"rental_uris":{"android":"levelo://app?vid=b8947409-508b-461c-b433-a1d5d02b6078","ios":"levelo://app?vid=b8947409-508b-461c-b433-a1d5d02b6078"},"vehicle_type_id":"4","last_reported":1742649269,"current_range_meters":6400,"station_id":"ce4bhg12rcd13ifvqf70","pricing_plan_id":"cebpf4jnsgd1na2vs0mg"},{"bike_id":"1f4b5356-d265-454a-aa48-2f7dec9d4d2a","system_id":"levelo_inurba_marseille","lat":43.337286,"lon":5.391944,"is_reserved":false,"is_disabled":false,"rental_uris":{"android":"levelo://app?vid=1f4b5356-d265-454a-aa48-2f7dec9d4d2a","ios":"levelo://app?vid=1f4b5356-d265-454a-aa48-2f7dec9d4d2a"},"vehicle_type_id":"4","last_reported":1742649269,"current_range_meters":6400,"station_id":"ce4bhr92rcd13ifvqhsg","pricing_plan_id":"cebpf4jnsgd1na2vs0mg"},{"bike_id":"9689a4b5-b9bb-45af-815b-74c4658ab903","system_id":"levelo_inurba_marseille","lat":43.2591,"lon":5.40906,"is_reserved":false,"is_disabled":false,"rental_uris":{"android":"levelo://app?vid=9689a4b5-b9bb-45af-815b-74c4658ab903","ios":"levelo://app?vid=9689a4b5-b9bb-45af-815b-74c4658ab903"},"vehicle_type_id":"4","last_reported":1742649269,"current_range_meters":6800,"station_id":"ce4bhm92rcd13ifvqglg","pricing_plan_id":"cebpf4jnsgd1na2vs0mg"},{"bike_id":"d000c8ac-0c96-4fc1-ac84-5f67409cab71","system_id":"levelo_inurba_marseille","lat":43.32489,"lon":5.36576,"is_reserved":false,"is_disabled":false,"rental_uris":{"android":"levelo://app?vid=d000c8ac-0c96-4fc1-ac84-5f67409cab71","ios":"levelo://app?vid=d000c8ac-0c96-4fc1-ac84-5f67409cab71"},"vehicle_type_id":"4","last_reported":1742649269,"current_range_meters":6800,"station_id":"ce4bhs12rcd13ifvqhvg","pricing_plan_id":"cebpf4jnsgd1na2vs0mg"},{"bike_id":"1323d2cd-c4e0-4783-b4f1-4daaeb41faef","system_id":"levelo_inurba_marseille","lat":43.2396,"lon":5.36627,"is_reserved":false,"is_disabled":false,"rental_uris":{"android":"levelo://app?vid=1323d2cd-c4e0-4783-b4f1-4daaeb41faef","ios":"levelo://app?vid=1323d2cd-c4e0-4783-b4f1-4daaeb41faef"},"vehicle_type_id":"4","last_reported":1742649269,"current_range_meters":6800,"station_id":"ce4bhi12rcd13ifvqfp0","pricing_plan_id":"cebpf4jnsgd1na2vs0mg"},{"bike_id":"bf5d7bdb-65a8-4310-b955-6a76e2cbd7fe","system_id":"levelo_inurba_marseille","lat":43.33725,"lon":5.39184,"is_reserved":false,"is_disabled":false,"rental_uris":{"android":"levelo://app?vid=bf5d7bdb-65a8-4310-b955-6a76e2cbd7fe","ios":"levelo://app?vid=bf5d7bdb-65a8-4310-b955-6a76e2cbd7fe"},"vehicle_type_id":"4","last_reported":1742649269,"current_range_meters":6800,"station_id":"ce4bhr92rcd13ifvqhsg","pricing_plan_id":"cebpf4jnsgd1na2vs0mg"},{"bike_id":"c41362a9-fbd0-4208-9c70-b2d457ad1df4","system_id":"levelo_inurba_marseille","lat":43.23204,"lon":5.35551,"is_reserved":false,"is_disabled":false,"rental_uris":{"android":"levelo://app?vid=c41362a9-fbd0-4208-9c70-b2d457ad1df4","ios":"levelo://app?vid=c41362a9-fbd0-4208-9c70-b2d457ad1df4"},"vehicle_type_id":"4","last_reported":1742649269,"current_range_meters":6800,"station_id":"ce4bhu92rcd13ifvqi70","pricing_plan_id":"cebpf4jnsgd1na2vs0mg"},{"bike_id":"73a4e414-1869-43b3-bb10-ac62c2241b5a","system_id":"levelo_inurba_marseille","lat":43.29008,"lon":5.35614,"is_reserved":false,"is_disabled":true,"rental_uris":{"android":"levelo://app?vid=73a4e414-1869-43b3-bb10-ac62c2241b5a","ios":"levelo://app?vid=73a4e414-1869-43b3-bb10-ac62c2241b5a"},"vehicle_type_id":"4","last_reported":1742649269,"current_range_meters":7200,"station_id":"ce4bhb92rcd13ifvqen0","pricing_plan_id":"cebpf4jnsgd1na2vs0mg"},{"bike_id":"d0f4a8ea-0418-4c34-ad6f-e2b25894c468","system_id":"levelo_inurba_marseille","lat":43.30144,"lon":5.37411,"is_reserved":false,"is_disabled":false,"rental_uris":{"android":"levelo://app?vid=d0f4a8ea-0418-4c34-ad6f-e2b25894c468","ios":"levelo://app?vid=d0f4a8ea-0418-4c34-ad6f-e2b25894c468"},"vehicle_type_id":"4","last_reported":1742649269,"current_range_meters":7200,"station_id":"ce4bgs92rcd13ifvqcc0","pricing_plan_id":"cebpf4jnsgd1na2vs0mg"},{"bike_id":"52c16ac5-3447-4053-956c-78fc8bf0dc7c","system_id":"levelo_inurba_marseille","lat":43.32358,"lon":5.36765,"is_reserved":false,"is_disabled":false,"rental_uris":{"android":"levelo://app?vid=52c16ac5-3447-4053-956c-78fc8bf0dc7c","ios":"levelo://app?vid=52c16ac5-3447-4053-956c-78fc8bf0dc7c"},"vehicle_type_id":"4","last_reported":1742649269,"current_range_meters":7200,"station_id":"ce4bhsh2rcd13ifvqi2g","pricing_plan_id":"cebpf4jnsgd1na2vs0mg"},{"bike_id":"761ed724-3c02-4cc2-9733-2f4642728722","system_id":"levelo_inurba_marseille","lat":43.27809,"lon":5.40722,"is_reserved":false,"is_disabled":false,"rental_uris":{"android":"levelo://app?vid=761ed724-3c02-4cc2-9733-2f4642728722","ios":"levelo://app?vid=761ed724-3c02-4cc2-9733-2f4642728722"},"vehicle_type_id":"4","last_reported":1742649269,"current_range_meters":7200,"station_id":"ce4bhnh2rcd13ifvqgtg","pricing_plan_id":"cebpf4jnsgd1na2vs0mg"},{"bike_id":"c5fee7ce-e99b-41d7-bf02-104474486b07","system_id":"levelo_inurba_marseille","lat":43.23203,"lon":5.35555,"is_reserved":false,"is_disabled":false,"rental_uris":{"android":"levelo://app?vid=c5fee7ce-e99b-41d7-bf02-104474486b07","ios":"levelo://app?vid=c5fee7ce-e99b-41d7-bf02-104474486b07"},"vehicle_type_id":"4","last_reported":1742649269,"current_range_meters":7200,"station_id":"ce4bhu92rcd13ifvqi70","pricing_plan_id":"cebpf4jnsgd1na2vs0mg"},{"bike_id":"20e2be53-78ac-4b24-8dad-96b43d72add2","system_id":"levelo_inurba_marseille","lat":43.31071,"lon":5.38353,"is_reserved":false,"is_disabled":false,"rental_uris":{"android":"levelo://app?vid=20e2be53-78ac-4b24-8dad-96b43d72add2","ios":"levelo://app?vid=20e2be53-78ac-4b24-8dad-96b43d72add2"},"vehicle_type_id":"4","last_reported":1742649269,"current_range_meters":7200,"station_id":"ce4bgv92rcd13ifvqcr0","pricing_plan_id":"cebpf4jnsgd1na2vs0mg"},{"bike_id":"94f4cd97-7bfd-4217-840f-6260ab666b8e","system_id":"levelo_inurba_marseille","lat":43.29613,"lon":5.37724,"is_reserved":false,"is_disabled":false,"rental_uris":{"android":"levelo://app?vid=94f4cd97-7bfd-4217-840f-6260ab666b8e","ios":"levelo://app?vid=94f4cd97-7bfd-4217-840f-6260ab666b8e"},"vehicle_type_id":"4","last_reported":1742649269,"current_range_meters":7200,"station_id":"ce4bgi92rcd13ifvqb90","pricing_plan_id":"cebpf4jnsgd1na2vs0mg"},{"bike_id":"9b80c4db-51e1-4e4e-8ecd-a558d3a24fd7","system_id":"levelo_inurba_marseille","lat":43.33032,"lon":5.37886,"is_reserved":false,"is_disabled":false,"rental_uris":{"android":"levelo://app?vid=9b80c4db-51e1-4e4e-8ecd-a558d3a24fd7","ios":"levelo://app?vid=9b80c4db-51e1-4e4e-8ecd-a558d3a24fd7"},"vehicle_type_id":"4","last_reported":1742649269,"current_range_meters":7200,"station_id":"","pricing_plan_id":"cebpf4jnsgd1na2vs0mg"},{"bike_id":"7872f180-f75b-4e9d-8f04-12e6c17037a5","system_id":"levelo_inurba_marseille","lat":43.3248,"lon":5.36595,"is_reserved":false,"is_disabled":false,"rental_uris":{"android":"levelo://app?vid=7872f180-f75b-4e9d-8f04-12e6c17037a5","ios":"levelo://app?vid=7872f180-f75b-4e9d-8f04-12e6c17037a5"},"vehicle_type_id":"4","last_reported":1742649269,"current_range_meters":7200,"station_id":"ce4bhs12rcd13ifvqhvg","pricing_plan_id":"cebpf4jnsgd1na2vs0mg"},{"bike_id":"0faeda17-87f9-4308-b369-97acc6c5068b","system_id":"levelo_inurba_marseille","lat":43.24544,"lon":5.39526,"is_reserved":false,"is_disabled":false,"rental_uris":{"android":"levelo://app?vid=0faeda17-87f9-4308-b369-97acc6c5068b","ios":"levelo://app?vid=0faeda17-87f9-4308-b369-97acc6c5068b"},"vehicle_type_id":"4","last_reported":1742649269,"current_range_meters":8000,"station_id":"ce4bhlp2rcd13ifvqgjg","pricing_plan_id":"cebpf4jnsgd1na2vs0mg"},{"bike_id":"5dd81119-aa6c-46d9-84b7-0c4a2cf3a209","system_id":"levelo_inurba_marseille","lat":43.24652,"lon":5.3889,"is_reserved":false,"is_disabled":false,"rental_uris":{"android":"levelo://app?vid=5dd81119-aa6c-46d9-84b7-0c4a2cf3a209","ios":"levelo://app?vid=5dd81119-aa6c-46d9-84b7-0c4a2cf3a209"},"vehicle_type_id":"4","last_reported":1742649269,"current_range_meters":8000,"station_id":"ce4bhg12rcd13ifvqf60","pricing_plan_id":"cebpf4jnsgd1na2vs0mg"},{"bike_id":"9ea013c3-3314-45aa-90b1-cd20db66a6bf","system_id":"levelo_inurba_marseille","lat":43.262147,"lon":5.374297,"is_reserved":false,"is_disabled":false,"rental_uris":{"android":"levelo://app?vid=9ea013c3-3314-45aa-90b1-cd20db66a6bf","ios":"levelo://app?vid=9ea013c3-3314-45aa-90b1-cd20db66a6bf"},"vehicle_type_id":"4","last_reported":1742649269,"current_range_meters":8000,"station_id":"ce4bhgp2rcd13ifvqfc0","pricing_plan_id":"cebpf4jnsgd1na2vs0mg"},{"bike_id":"a6d6a801-e8a2-4a79-94ba-3402e2e8f551","system_id":"levelo_inurba_marseille","lat":43.29713,"lon":5.37709,"is_reserved":false,"is_disabled":false,"rental_uris":{"android":"levelo://app?vid=a6d6a801-e8a2-4a79-94ba-3402e2e8f551","ios":"levelo://app?vid=a6d6a801-e8a2-4a79-94ba-3402e2e8f551"},"vehicle_type_id":"4","last_reported":1742649269,"current_range_meters":8000,"station_id":"ce4bgkh2rcd13ifvqbl0","pricing_plan_id":"cebpf4jnsgd1na2vs0mg"},{"bike_id":"312ef421-78b3-4801-9408-63746d758ccd","system_id":"levelo_inurba_marseille","lat":43.24812,"lon":5.37452,"is_reserved":false,"is_disabled":false,"rental_uris":{"android":"levelo://app?vid=312ef421-78b3-4801-9408-63746d758ccd","ios":"levelo://app?vid=312ef421-78b3-4801-9408-63746d758ccd"},"vehicle_type_id":"4","last_reported":1742649269,"current_range_meters":8400,"station_id":"ce4bhgh2rcd13ifvqfb0","pricing_plan_id":"cebpf4jnsgd1na2vs0mg"},{"bike_id":"276613ec-3310-44d6-ae3f-44328dd4fd15","system_id":"levelo_inurba_marseille","lat":43.25837,"lon":5.39442,"is_reserved":false,"is_disabled":false,"rental_uris":{"android":"levelo://app?vid=276613ec-3310-44d6-ae3f-44328dd4fd15","ios":"levelo://app?vid=276613ec-3310-44d6-ae3f-44328dd4fd15"},"vehicle_type_id":"4","last_reported":1742649269,"current_range_meters":8400,"station_id":"ce4bhip2rcd13ifvqft0","pricing_plan_id":"cebpf4jnsgd1na2vs0mg"},{"bike_id":"592af5a9-2361-415d-8802-df60b01982cc","system_id":"levelo_inurba_marseille","lat":43.2827,"lon":5.35064,"is_reserved":false,"is_disabled":true,"rental_uris":{"android":"levelo://app?vid=592af5a9-2361-415d-8802-df60b01982cc","ios":"levelo://app?vid=592af5a9-2361-415d-8802-df60b01982cc"},"vehicle_type_id":"4","last_reported":1742649269,"current_range_meters":8400,"station_id":"ce4bhbp2rcd13ifvqerg","pricing_plan_id":"cebpf4jnsgd1na2vs0mg"},{"bike_id":"a0803fc7-7c01-4615-afb9-e1e35a6349e8","system_id":"levelo_inurba_marseille","lat":43.28152,"lon":5.42651,"is_reserved":false,"is_disabled":false,"rental_uris":{"android":"levelo://app?vid=a0803fc7-7c01-4615-afb9-e1e35a6349e8","ios":"levelo://app?vid=a0803fc7-7c01-4615-afb9-e1e35a6349e8"},"vehicle_type_id":"4","last_reported":1742649269,"current_range_meters":8400,"station_id":"ce4bhnh2rcd13ifvqgug","pricing_plan_id":"cebpf4jnsgd1na2vs0mg"},{"bike_id":"295b2b96-8a22-4b6f-a45b-df5a7ed58969","system_id":"levelo_inurba_marseille","lat":43.3373,"lon":5.39178,"is_reserved":false,"is_disabled":false,"rental_uris":{"android":"levelo://app?vid=295b2b96-8a22-4b6f-a45b-df5a7ed58969","ios":"levelo://app?vid=295b2b96-8a22-4b6f-a45b-df5a7ed58969"},"vehicle_type_id":"4","last_reported":1742649269,"current_range_meters":8800,"station_id":"ce4bhr92rcd13ifvqhsg","pricing_plan_id":"cebpf4jnsgd1na2vs0mg"},{"bike_id":"480dd19f-0b15-4071-974c-10876fd5b12e","system_id":"levelo_inurba_marseille","lat":43.24383,"lon":5.37054,"is_reserved":false,"is_disabled":false,"rental_uris":{"android":"levelo://app?vid=480dd19f-0b15-4071-974c-10876fd5b12e","ios":"levelo://app?vid=480dd19f-0b15-4071-974c-10876fd5b12e"},"vehicle_type_id":"4","last_reported":1742649269,"current_range_meters":8800,"station_id":"ce4bhhh2rcd13ifvqfk0","pricing_plan_id":"cebpf4jnsgd1na2vs0mg"},{"bike_id":"5de49c0f-f3a1-489a-aa02-6ca0fb39e848","system_id":"levelo_inurba_marseille","lat":43.29556,"lon":5.42284,"is_reserved":false,"is_disabled":false,"rental_uris":{"android":"levelo://app?vid=5de49c0f-f3a1-489a-aa02-6ca0fb39e848","ios":"levelo://app?vid=5de49c0f-f3a1-489a-aa02-6ca0fb39e848"},"vehicle_type_id":"4","last_reported":1742649269,"current_range_meters":8800,"station_id":"ce4bhph2rcd13ifvqhdg","pricing_plan_id":"cebpf4jnsgd1na2vs0mg"},{"bike_id":"7a80749b-56dc-4ab1-a2d7-268dfcb799e2","system_id":"levelo_inurba_marseille","lat":43.23959,"lon":5.36645,"is_reserved":false,"is_disabled":false,"rental_uris":{"android":"levelo://app?vid=7a80749b-56dc-4ab1-a2d7-268dfcb799e2","ios":"levelo://app?vid=7a80749b-56dc-4ab1-a2d7-268dfcb799e2"},"vehicle_type_id":"4","last_reported":1742649269,"current_range_meters":8800,"station_id":"ce4bhi12rcd13ifvqfp0","pricing_plan_id":"cebpf4jnsgd1na2vs0mg"},{"bike_id":"b9af0d87-f637-4001-83b6-b3aaaa0bea70","system_id":"levelo_inurba_marseille","lat":43.24179,"lon":5.39736,"is_reserved":false,"is_disabled":false,"rental_uris":{"android":"levelo://app?vid=b9af0d87-f637-4001-83b6-b3aaaa0bea70","ios":"levelo://app?vid=b9af0d87-f637-4001-83b6-b3aaaa0bea70"},"vehicle_type_id":"4","last_reported":1742649269,"current_range_meters":8800,"station_id":"ce4bhn12rcd13ifvqgpg","pricing_plan_id":"cebpf4jnsgd1na2vs0mg"},{"bike_id":"30f74d27-9970-4afa-b900-f9accdc2d04a","system_id":"levelo_inurba_marseille","lat":43.26231,"lon":5.40473,"is_reserved":false,"is_disabled":false,"rental_uris":{"android":"levelo://app?vid=30f74d27-9970-4afa-b900-f9accdc2d04a","ios":"levelo://app?vid=30f74d27-9970-4afa-b900-f9accdc2d04a"},"vehicle_type_id":"4","last_reported":1742649269,"current_range_meters":8800,"station_id":"ce4bhmh2rcd13ifvqgmg","pricing_plan_id":"cebpf4jnsgd1na2vs0mg"},{"bike_id":"ff7c5d02-c93d-4a5f-a76c-34cbb198eaed","system_id":"levelo_inurba_marseille","lat":43.2439,"lon":5.37057,"is_reserved":false,"is_disabled":false,"rental_uris":{"android":"levelo://app?vid=ff7c5d02-c93d-4a5f-a76c-34cbb198eaed","ios":"levelo://app?vid=ff7c5d02-c93d-4a5f-a76c-34cbb198eaed"},"vehicle_type_id":"4","last_reported":1742649269,"current_range_meters":8800,"station_id":"ce4bhhh2rcd13ifvqfk0","pricing_plan_id":"cebpf4jnsgd1na2vs0mg"},{"bike_id":"0b628453-7141-4e94-af58-07aa38b87efa","system_id":"levelo_inurba_marseille","lat":43.29903,"lon":5.37367,"is_reserved":false,"is_disabled":false,"rental_uris":{"android":"levelo://app?vid=0b628453-7141-4e94-af58-07aa38b87efa","ios":"levelo://app?vid=0b628453-7141-4e94-af58-07aa38b87efa"},"vehicle_type_id":"4","last_reported":1742649269,"current_range_meters":8800,"station_id":"ce4bgjh2rcd13ifvqbg0","pricing_plan_id":"cebpf4jnsgd1na2vs0mg"},{"bike_id":"65b642d2-4bbc-47bd-9c36-3f213e795fd7","system_id":"levelo_inurba_marseille","lat":43.25817,"lon":5.3946,"is_reserved":false,"is_disabled":false,"rental_uris":{"android":"levelo://app?vid=65b642d2-4bbc-47bd-9c36-3f213e795fd7","ios":"levelo://app?vid=65b642d2-4bbc-47bd-9c36-3f213e795fd7"},"vehicle_type_id":"4","last_reported":1742649269,"current_range_meters":8800,"station_id":"ce4bhip2rcd13ifvqft0","pricing_plan_id":"cebpf4jnsgd1na2vs0mg"},{"bike_id":"a80253b1-0016-4597-8f6f-4a51e45ddd9e","system_id":"levelo_inurba_marseille","lat":43.24999,"lon":5.38931,"is_reserved":false,"is_disabled":false,"rental_uris":{"android":"levelo://app?vid=a80253b1-0016-4597-8f6f-4a51e45ddd9e","ios":"levelo://app?vid=a80253b1-0016-4597-8f6f-4a51e45ddd9e"},"vehicle_type_id":"4","last_reported":1742649269,"current_range_meters":8800,"station_id":"ce4bhgp2rcd13ifvqfd0","pricing_plan_id":"cebpf4jnsgd1na2vs0mg"},{"bike_id":"d3aea391-a670-497a-bbbd-4977eb502c00","system_id":"levelo_inurba_marseille","lat":43.26554,"lon":5.37289,"is_reserved":false,"is_disabled":false,"rental_uris":{"android":"levelo://app?vid=d3aea391-a670-497a-bbbd-4977eb502c00","ios":"levelo://app?vid=d3aea391-a670-497a-bbbd-4977eb502c00"},"vehicle_type_id":"4","last_reported":1742649269,"current_range_meters":8800,"station_id":"ce4bhg12rcd13ifvqf70","pricing_plan_id":"cebpf4jnsgd1na2vs0mg"},{"bike_id":"b2afa99a-301e-4532-b637-a120ee8a20c9","system_id":"levelo_inurba_marseille","lat":43.23074,"lon":5.35486,"is_reserved":false,"is_disabled":false,"rental_uris":{"android":"levelo://app?vid=b2afa99a-301e-4532-b637-a120ee8a20c9","ios":"levelo://app?vid=b2afa99a-301e-4532-b637-a120ee8a20c9"},"vehicle_type_id":"4","last_reported":1742649269,"current_range_meters":9200,"station_id":"cpo3342slgdg3j2ifvpg","pricing_plan_id":"cebpf4jnsgd1na2vs0mg"},{"bike_id":"e1e493b8-6ddd-477f-a5c7-ce583728c84a","system_id":"levelo_inurba_marseille","lat":43.290263,"lon":5.381425,"is_reserved":false,"is_disabled":false,"rental_uris":{"android":"levelo://app?vid=e1e493b8-6ddd-477f-a5c7-ce583728c84a","ios":"levelo://app?vid=e1e493b8-6ddd-477f-a5c7-ce583728c84a"},"vehicle_type_id":"4","last_reported":1742649269,"current_range_meters":9200,"station_id":"ce4bh4p2rcd13ifvqe1g","pricing_plan_id":"cebpf4jnsgd1na2vs0mg"},{"bike_id":"7f396ae9-244b-4126-bc7a-2312f6e4d9ee","system_id":"levelo_inurba_marseille","lat":43.337434,"lon":5.391925,"is_reserved":false,"is_disabled":false,"rental_uris":{"android":"levelo://app?vid=7f396ae9-244b-4126-bc7a-2312f6e4d9ee","ios":"levelo://app?vid=7f396ae9-244b-4126-bc7a-2312f6e4d9ee"},"vehicle_type_id":"4","last_reported":1742649269,"current_range_meters":9200,"station_id":"ce4bhr92rcd13ifvqhsg","pricing_plan_id":"cebpf4jnsgd1na2vs0mg"},{"bike_id":"69db678b-b47f-413c-9301-4b4ebc7954ef","system_id":"levelo_inurba_marseille","lat":43.27367,"lon":5.36251,"is_reserved":false,"is_disabled":false,"rental_uris":{"android":"levelo://app?vid=69db678b-b47f-413c-9301-4b4ebc7954ef","ios":"levelo://app?vid=69db678b-b47f-413c-9301-4b4ebc7954ef"},"vehicle_type_id":"4","last_reported":1742649269,"current_range_meters":9200,"station_id":"ce4bhbh2rcd13ifvqeo0","pricing_plan_id":"cebpf4jnsgd1na2vs0mg"},{"bike_id":"b5fcb98a-c8d5-4f1a-a9b4-b3362af2a9c7","system_id":"levelo_inurba_marseille","lat":43.23069,"lon":5.35483,"is_reserved":false,"is_disabled":false,"rental_uris":{"android":"levelo://app?vid=b5fcb98a-c8d5-4f1a-a9b4-b3362af2a9c7","ios":"levelo://app?vid=b5fcb98a-c8d5-4f1a-a9b4-b3362af2a9c7"},"vehicle_type_id":"4","last_reported":1742649269,"current_range_meters":9200,"station_id":"cpo3342slgdg3j2ifvpg","pricing_plan_id":"cebpf4jnsgd1na2vs0mg"},{"bike_id":"b0b2b118-5db8-4b2a-838f-fcf30962e045","system_id":"levelo_inurba_marseille","lat":43.25522,"lon":5.37636,"is_reserved":false,"is_disabled":false,"rental_uris":{"android":"levelo://app?vid=b0b2b118-5db8-4b2a-838f-fcf30962e045","ios":"levelo://app?vid=b0b2b118-5db8-4b2a-838f-fcf30962e045"},"vehicle_type_id":"4","last_reported":1742649269,"current_range_meters":9200,"station_id":"ce4bhh12rcd13ifvqff0","pricing_plan_id":"cebpf4jnsgd1na2vs0mg"},{"bike_id":"395a6abc-4d8a-435b-8e3d-758afed4d7b6","system_id":"levelo_inurba_marseille","lat":43.25584,"lon":5.38234,"is_reserved":false,"is_disabled":false,"rental_uris":{"android":"levelo://app?vid=395a6abc-4d8a-435b-8e3d-758afed4d7b6","ios":"levelo://app?vid=395a6abc-4d8a-435b-8e3d-758afed4d7b6"},"vehicle_type_id":"4","last_reported":1742649269,"current_range_meters":9200,"station_id":"ce4bhih2rcd13ifvqfs0","pricing_plan_id":"cebpf4jnsgd1na2vs0mg"},{"bike_id":"b95dd8b3-8b42-4b01-a436-eb7561400e51","system_id":"levelo_inurba_marseille","lat":43.2957,"lon":5.37516,"is_reserved":false,"is_disabled":false,"rental_uris":{"android":"levelo://app?vid=b95dd8b3-8b42-4b01-a436-eb7561400e51","ios":"levelo://app?vid=b95dd8b3-8b42-4b01-a436-eb7561400e51"},"vehicle_type_id":"4","last_reported":1742649269,"current_range_meters":9200,"station_id":"ce4bgh92rcd13ifvqb50","pricing_plan_id":"cebpf4jnsgd1na2vs0mg"},{"bike_id":"fe239f3d-5c83-42bd-8b99-e0b3f3784fb5","system_id":"levelo_inurba_marseille","lat":43.2461,"lon":5.38409,"is_reserved":false,"is_disabled":false,"rental_uris":{"android":"levelo://app?vid=fe239f3d-5c83-42bd-8b99-e0b3f3784fb5","ios":"levelo://app?vid=fe239f3d-5c83-42bd-8b99-e0b3f3784fb5"},"vehicle_type_id":"4","last_reported":1742649269,"current_range_meters":9200,"station_id":"","pricing_plan_id":"cebpf4jnsgd1na2vs0mg"},{"bike_id":"0e5a755d-f9b7-4a48-a463-d77b84698a97","system_id":"levelo_inurba_marseille","lat":43.29607,"lon":5.37722,"is_reserved":false,"is_disabled":false,"rental_uris":{"android":"levelo://app?vid=0e5a755d-f9b7-4a48-a463-d77b84698a97","ios":"levelo://app?vid=0e5a755d-f9b7-4a48-a463-d77b84698a97"},"vehicle_type_id":"4","last_reported":1742649269,"current_range_meters":9600,"station_id":"ce4bgi92rcd13ifvqb90","pricing_plan_id":"cebpf4jnsgd1na2vs0mg"},{"bike_id":"f053c9b6-8dc2-41ff-974a-dba52f4c7e0a","system_id":"levelo_inurba_marseille","lat":43.3015,"lon":5.38083,"is_reserved":false,"is_disabled":false,"rental_uris":{"android":"levelo://app?vid=f053c9b6-8dc2-41ff-974a-dba52f4c7e0a","ios":"levelo://app?vid=f053c9b6-8dc2-41ff-974a-dba52f4c7e0a"},"vehicle_type_id":"4","last_reported":1742649269,"current_range_meters":9200,"station_id":"ce4bgjp2rcd13ifvqbh0","pricing_plan_id":"cebpf4jnsgd1na2vs0mg"},{"bike_id":"200b26b1-a8be-44fc-aed0-a02f7d88a7bb","system_id":"levelo_inurba_marseille","lat":43.28431,"lon":5.34992,"is_reserved":false,"is_disabled":false,"rental_uris":{"android":"levelo://app?vid=200b26b1-a8be-44fc-aed0-a02f7d88a7bb","ios":"levelo://app?vid=200b26b1-a8be-44fc-aed0-a02f7d88a7bb"},"vehicle_type_id":"4","last_reported":1742649269,"current_range_meters":9600,"station_id":"ce4bhbh2rcd13ifvqepg","pricing_plan_id":"cebpf4jnsgd1na2vs0mg"},{"bike_id":"d99d1c75-952d-45c9-8de9-98b93d7ebe83","system_id":"levelo_inurba_marseille","lat":43.26939,"lon":5.40259,"is_reserved":false,"is_disabled":false,"rental_uris":{"android":"levelo://app?vid=d99d1c75-952d-45c9-8de9-98b93d7ebe83","ios":"levelo://app?vid=d99d1c75-952d-45c9-8de9-98b93d7ebe83"},"vehicle_type_id":"4","last_reported":1742649269,"current_range_meters":9600,"station_id":"cjm6bp8fraef2m0cb0m0","pricing_plan_id":"cebpf4jnsgd1na2vs0mg"},{"bike_id":"1a9a5e63-3918-4f56-8a5d-3a610e4a8666","system_id":"levelo_inurba_marseille","lat":43.29573,"lon":5.37537,"is_reserved":false,"is_disabled":false,"rental_uris":{"android":"levelo://app?vid=1a9a5e63-3918-4f56-8a5d-3a610e4a8666","ios":"levelo://app?vid=1a9a5e63-3918-4f56-8a5d-3a610e4a8666"},"vehicle_type_id":"4","last_reported":1742649269,"current_range_meters":9600,"station_id":"ce4bgh92rcd13ifvqb50","pricing_plan_id":"cebpf4jnsgd1na2vs0mg"},{"bike_id":"2fd7d854-8996-49ae-a987-6a57d46ab873","system_id":"levelo_inurba_marseille","lat":43.24389,"lon":5.37059,"is_reserved":false,"is_disabled":false,"rental_uris":{"android":"levelo://app?vid=2fd7d854-8996-49ae-a987-6a57d46ab873","ios":"levelo://app?vid=2fd7d854-8996-49ae-a987-6a57d46ab873"},"vehicle_type_id":"4","last_reported":1742649269,"current_range_meters":9600,"station_id":"ce4bhhh2rcd13ifvqfk0","pricing_plan_id":"cebpf4jnsgd1na2vs0mg"},{"bike_id":"da358313-b5bd-4a82-ae89-64815da3439b","system_id":"levelo_inurba_marseille","lat":43.27841,"lon":5.39213,"is_reserved":false,"is_disabled":false,"rental_uris":{"android":"levelo://app?vid=da358313-b5bd-4a82-ae89-64815da3439b","ios":"levelo://app?vid=da358313-b5bd-4a82-ae89-64815da3439b"},"vehicle_type_id":"4","last_reported":1742649269,"current_range_meters":9600,"station_id":"ce4bhjp2rcd13ifvqga0","pricing_plan_id":"cebpf4jnsgd1na2vs0mg"},{"bike_id":"8aaf7b6b-251d-412e-808a-a4fd1cccdbdf","system_id":"levelo_inurba_marseille","lat":43.25867,"lon":5.39893,"is_reserved":false,"is_disabled":false,"rental_uris":{"android":"levelo://app?vid=8aaf7b6b-251d-412e-808a-a4fd1cccdbdf","ios":"levelo://app?vid=8aaf7b6b-251d-412e-808a-a4fd1cccdbdf"},"vehicle_type_id":"4","last_reported":1742649269,"current_range_meters":9600,"station_id":"ce4bhl92rcd13ifvqghg","pricing_plan_id":"cebpf4jnsgd1na2vs0mg"},{"bike_id":"bfca29db-30a0-47c3-9c55-769e3d4c04ae","system_id":"levelo_inurba_marseille","lat":43.26201,"lon":5.37931,"is_reserved":false,"is_disabled":false,"rental_uris":{"android":"levelo://app?vid=bfca29db-30a0-47c3-9c55-769e3d4c04ae","ios":"levelo://app?vid=bfca29db-30a0-47c3-9c55-769e3d4c04ae"},"vehicle_type_id":"4","last_reported":1742649269,"current_range_meters":10000,"station_id":"ce4bhjp2rcd13ifvqg90","pricing_plan_id":"cebpf4jnsgd1na2vs0mg"},{"bike_id":"6303fd16-e919-43a3-b09d-f081f34784c7","system_id":"levelo_inurba_marseille","lat":43.31075,"lon":5.38361,"is_reserved":false,"is_disabled":false,"rental_uris":{"android":"levelo://app?vid=6303fd16-e919-43a3-b09d-f081f34784c7","ios":"levelo://app?vid=6303fd16-e919-43a3-b09d-f081f34784c7"},"vehicle_type_id":"4","last_reported":1742649269,"current_range_meters":10000,"station_id":"ce4bgv92rcd13ifvqcr0","pricing_plan_id":"cebpf4jnsgd1na2vs0mg"},{"bike_id":"d459651c-b15f-4ece-9ae9-49dce789e945","system_id":"levelo_inurba_marseille","lat":43.30522,"lon":5.36516,"is_reserved":false,"is_disabled":false,"rental_uris":{"android":"levelo://app?vid=d459651c-b15f-4ece-9ae9-49dce789e945","ios":"levelo://app?vid=d459651c-b15f-4ece-9ae9-49dce789e945"},"vehicle_type_id":"4","last_reported":1742649269,"current_range_meters":10000,"station_id":"","pricing_plan_id":"cebpf4jnsgd1na2vs0mg"},{"bike_id":"5ff4092c-57d3-4c47-87c3-0bbc3ca47e34","system_id":"levelo_inurba_marseille","lat":43.28263,"lon":5.35063,"is_reserved":false,"is_disabled":false,"rental_uris":{"android":"levelo://app?vid=5ff4092c-57d3-4c47-87c3-0bbc3ca47e34","ios":"levelo://app?vid=5ff4092c-57d3-4c47-87c3-0bbc3ca47e34"},"vehicle_type_id":"4","last_reported":1742649269,"current_range_meters":10000,"station_id":"ce4bhbp2rcd13ifvqerg","pricing_plan_id":"cebpf4jnsgd1na2vs0mg"},{"bike_id":"b2e9dee8-e85b-4097-bad4-e93b919991c2","system_id":"levelo_inurba_marseille","lat":43.26219,"lon":5.37454,"is_reserved":false,"is_disabled":false,"rental_uris":{"android":"levelo://app?vid=b2e9dee8-e85b-4097-bad4-e93b919991c2","ios":"levelo://app?vid=b2e9dee8-e85b-4097-bad4-e93b919991c2"},"vehicle_type_id":"4","last_reported":1742649269,"current_range_meters":10000,"station_id":"ce4bhgp2rcd13ifvqfc0","pricing_plan_id":"cebpf4jnsgd1na2vs0mg"},{"bike_id":"8ee2017b-4c97-4201-84a6-3692d8192331","system_id":"levelo_inurba_marseille","lat":43.272,"lon":5.39181,"is_reserved":false,"is_disabled":false,"rental_uris":{"android":"levelo://app?vid=8ee2017b-4c97-4201-84a6-3692d8192331","ios":"levelo://app?vid=8ee2017b-4c97-4201-84a6-3692d8192331"},"vehicle_type_id":"4","last_reported":1742649269,"current_range_meters":10000,"station_id":"ce4bhhp2rcd13ifvqfm0","pricing_plan_id":"cebpf4jnsgd1na2vs0mg"},{"bike_id":"1a0fa744-42a5-43c0-8475-3d46ddfc1243","system_id":"levelo_inurba_marseille","lat":43.28463,"lon":5.35886,"is_reserved":false,"is_disabled":false,"rental_uris":{"android":"levelo://app?vid=1a0fa744-42a5-43c0-8475-3d46ddfc1243","ios":"levelo://app?vid=1a0fa744-42a5-43c0-8475-3d46ddfc1243"},"vehicle_type_id":"4","last_reported":1742649269,"current_range_meters":10000,"station_id":"ce4bhah2rcd13ifvqei0","pricing_plan_id":"cebpf4jnsgd1na2vs0mg"},{"bike_id":"3593134a-1adf-4762-b7dd-6536ca9c8c83","system_id":"levelo_inurba_marseille","lat":43.33604,"lon":5.41039,"is_reserved":false,"is_disabled":false,"rental_uris":{"android":"levelo://app?vid=3593134a-1adf-4762-b7dd-6536ca9c8c83","ios":"levelo://app?vid=3593134a-1adf-4762-b7dd-6536ca9c8c83"},"vehicle_type_id":"4","last_reported":1742649269,"current_range_meters":10800,"station_id":"ce4bhqh2rcd13ifvqhmg","pricing_plan_id":"cebpf4jnsgd1na2vs0mg"},{"bike_id":"e8d1f80c-a5ef-4d72-acf3-e904648c5d34","system_id":"levelo_inurba_marseille","lat":43.25864,"lon":5.39897,"is_reserved":false,"is_disabled":false,"rental_uris":{"android":"levelo://app?vid=e8d1f80c-a5ef-4d72-acf3-e904648c5d34","ios":"levelo://app?vid=e8d1f80c-a5ef-4d72-acf3-e904648c5d34"},"vehicle_type_id":"4","last_reported":1742649269,"current_range_meters":10800,"station_id":"ce4bhl92rcd13ifvqghg","pricing_plan_id":"cebpf4jnsgd1na2vs0mg"},{"bike_id":"9683555e-fe04-4de7-b706-7a9b0019a6a7","system_id":"levelo_inurba_marseille","lat":43.33753,"lon":5.37495,"is_reserved":false,"is_disabled":true,"rental_uris":{"android":"levelo://app?vid=9683555e-fe04-4de7-b706-7a9b0019a6a7","ios":"levelo://app?vid=9683555e-fe04-4de7-b706-7a9b0019a6a7"},"vehicle_type_id":"4","last_reported":1742649269,"current_range_meters":10800,"station_id":"ce4bh2h2rcd13ifvqdh0","pricing_plan_id":"cebpf4jnsgd1na2vs0mg"},{"bike_id":"0d5825a3-8453-4fa6-a53d-7641d877f994","system_id":"levelo_inurba_marseille","lat":43.26235,"lon":5.42126,"is_reserved":false,"is_disabled":false,"rental_uris":{"android":"levelo://app?vid=0d5825a3-8453-4fa6-a53d-7641d877f994","ios":"levelo://app?vid=0d5825a3-8453-4fa6-a53d-7641d877f994"},"vehicle_type_id":"4","last_reported":1742649269,"current_range_meters":10800,"station_id":"","pricing_plan_id":"cebpf4jnsgd1na2vs0mg"},{"bike_id":"1b5e4322-ccd2-4075-8a15-786b60cecad2","system_id":"levelo_inurba_marseille","lat":43.30144,"lon":5.37417,"is_reserved":false,"is_disabled":false,"rental_uris":{"android":"levelo://app?vid=1b5e4322-ccd2-4075-8a15-786b60cecad2","ios":"levelo://app?vid=1b5e4322-ccd2-4075-8a15-786b60cecad2"},"vehicle_type_id":"4","last_reported":1742649269,"current_range_meters":10800,"station_id":"ce4bgs92rcd13ifvqcc0","pricing_plan_id":"cebpf4jnsgd1na2vs0mg"},{"bike_id":"1df2e6f6-63d4-4f34-92e1-d1b0e12ddb5a","system_id":"levelo_inurba_marseille","lat":43.23209,"lon":5.39981,"is_reserved":false,"is_disabled":false,"rental_uris":{"android":"levelo://app?vid=1df2e6f6-63d4-4f34-92e1-d1b0e12ddb5a","ios":"levelo://app?vid=1df2e6f6-63d4-4f34-92e1-d1b0e12ddb5a"},"vehicle_type_id":"4","last_reported":1742649269,"current_range_meters":10800,"station_id":"ce4bhn12rcd13ifvqgqg","pricing_plan_id":"cebpf4jnsgd1na2vs0mg"},{"bike_id":"475122dc-1039-4828-b534-7b2fbdf79e20","system_id":"levelo_inurba_marseille","lat":43.23203,"lon":5.35547,"is_reserved":false,"is_disabled":false,"rental_uris":{"android":"levelo://app?vid=475122dc-1039-4828-b534-7b2fbdf79e20","ios":"levelo://app?vid=475122dc-1039-4828-b534-7b2fbdf79e20"},"vehicle_type_id":"4","last_reported":1742649269,"current_range_meters":10800,"station_id":"ce4bhu92rcd13ifvqi70","pricing_plan_id":"cebpf4jnsgd1na2vs0mg"},{"bike_id":"5bc1309a-b3c5-4091-8cc5-90c20ae69363","system_id":"levelo_inurba_marseille","lat":43.28117,"lon":5.37852,"is_reserved":false,"is_disabled":false,"rental_uris":{"android":"levelo://app?vid=5bc1309a-b3c5-4091-8cc5-90c20ae69363","ios":"levelo://app?vid=5bc1309a-b3c5-4091-8cc5-90c20ae69363"},"vehicle_type_id":"4","last_reported":1742649269,"current_range_meters":10800,"station_id":"ce4bha12rcd13ifvqee0","pricing_plan_id":"cebpf4jnsgd1na2vs0mg"},{"bike_id":"34002cd0-c0a5-44a7-ba50-ce9e1675b363","system_id":"levelo_inurba_marseille","lat":43.32334,"lon":5.40602,"is_reserved":false,"is_disabled":false,"rental_uris":{"android":"levelo://app?vid=34002cd0-c0a5-44a7-ba50-ce9e1675b363","ios":"levelo://app?vid=34002cd0-c0a5-44a7-ba50-ce9e1675b363"},"vehicle_type_id":"4","last_reported":1742649269,"current_range_meters":11200,"station_id":"ce4bhq92rcd13ifvqhjg","pricing_plan_id":"cebpf4jnsgd1na2vs0mg"},{"bike_id":"6a7e6ea3-0dea-4fb5-9495-8803ab0e1523","system_id":"levelo_inurba_marseille","lat":43.3047,"lon":5.37904,"is_reserved":false,"is_disabled":false,"rental_uris":{"android":"levelo://app?vid=6a7e6ea3-0dea-4fb5-9495-8803ab0e1523","ios":"levelo://app?vid=6a7e6ea3-0dea-4fb5-9495-8803ab0e1523"},"vehicle_type_id":"4","last_reported":1742649269,"current_range_meters":11200,"station_id":"ce4bgup2rcd13ifvqcn0","pricing_plan_id":"cebpf4jnsgd1na2vs0mg"},{"bike_id":"5d2d1c68-8cf9-49ed-bc1e-7bf372de216e","system_id":"levelo_inurba_marseille","lat":43.26804,"lon":5.4027,"is_reserved":false,"is_disabled":false,"rental_uris":{"android":"levelo://app?vid=5d2d1c68-8cf9-49ed-bc1e-7bf372de216e","ios":"levelo://app?vid=5d2d1c68-8cf9-49ed-bc1e-7bf372de216e"},"vehicle_type_id":"4","last_reported":1742649269,"current_range_meters":11200,"station_id":"ce501612rcd8frsf0b60","pricing_plan_id":"cebpf4jnsgd1na2vs0mg"},{"bike_id":"6ab30fc2-956a-49dd-98a7-5a40f315fc2e","system_id":"levelo_inurba_marseille","lat":43.28721,"lon":5.36101,"is_reserved":false,"is_disabled":false,"rental_uris":{"android":"levelo://app?vid=6ab30fc2-956a-49dd-98a7-5a40f315fc2e","ios":"levelo://app?vid=6ab30fc2-956a-49dd-98a7-5a40f315fc2e"},"vehicle_type_id":"4","last_reported":1742649269,"current_range_meters":11200,"station_id":"cki0cbj6b192h4jlfktg","pricing_plan_id":"cebpf4jnsgd1na2vs0mg"},{"bike_id":"272bd483-3c2c-49ec-b30d-44ac080cfd01","system_id":"levelo_inurba_marseille","lat":43.32335,"lon":5.40624,"is_reserved":false,"is_disabled":false,"rental_uris":{"android":"levelo://app?vid=272bd483-3c2c-49ec-b30d-44ac080cfd01","ios":"levelo://app?vid=272bd483-3c2c-49ec-b30d-44ac080cfd01"},"vehicle_type_id":"4","last_reported":1742649269,"current_range_meters":11200,"station_id":"ce4bhq92rcd13ifvqhjg","pricing_plan_id":"cebpf4jnsgd1na2vs0mg"},{"bike_id":"eca16342-ffb3-4b0f-9684-ce48797df636","system_id":"levelo_inurba_marseille","lat":43.23139,"lon":5.43723,"is_reserved":false,"is_disabled":false,"rental_uris":{"android":"levelo://app?vid=eca16342-ffb3-4b0f-9684-ce48797df636","ios":"levelo://app?vid=eca16342-ffb3-4b0f-9684-ce48797df636"},"vehicle_type_id":"4","last_reported":1742649269,"current_range_meters":11200,"station_id":"ce4bhmp2rcd13ifvqgog","pricing_plan_id":"cebpf4jnsgd1na2vs0mg"},{"bike_id":"16784492-6bb0-4dfd-a37c-0b309868075c","system_id":"levelo_inurba_marseille","lat":43.30641,"lon":5.36602,"is_reserved":false,"is_disabled":false,"rental_uris":{"android":"levelo://app?vid=16784492-6bb0-4dfd-a37c-0b309868075c","ios":"levelo://app?vid=16784492-6bb0-4dfd-a37c-0b309868075c"},"vehicle_type_id":"4","last_reported":1742649269,"current_range_meters":11600,"station_id":"","pricing_plan_id":"cebpf4jnsgd1na2vs0mg"},{"bike_id":"8f2b6764-0dd4-4e04-b573-7757f4e6bc95","system_id":"levelo_inurba_marseille","lat":43.23162,"lon":5.43735,"is_reserved":false,"is_disabled":false,"rental_uris":{"android":"levelo://app?vid=8f2b6764-0dd4-4e04-b573-7757f4e6bc95","ios":"levelo://app?vid=8f2b6764-0dd4-4e04-b573-7757f4e6bc95"},"vehicle_type_id":"4","last_reported":1742649269,"current_range_meters":11600,"station_id":"ce4bhmp2rcd13ifvqgog","pricing_plan_id":"cebpf4jnsgd1na2vs0mg"},{"bike_id":"6bcd08b5-1d47-48a9-b3dd-f59ccc50adac","system_id":"levelo_inurba_marseille","lat":43.24165,"lon":5.39711,"is_reserved":false,"is_disabled":false,"rental_uris":{"android":"levelo://app?vid=6bcd08b5-1d47-48a9-b3dd-f59ccc50adac","ios":"levelo://app?vid=6bcd08b5-1d47-48a9-b3dd-f59ccc50adac"},"vehicle_type_id":"4","last_reported":1742649269,"current_range_meters":11600,"station_id":"ce4bhn12rcd13ifvqgpg","pricing_plan_id":"cebpf4jnsgd1na2vs0mg"},{"bike_id":"5ffa26b7-e083-4933-98fa-295366c779ee","system_id":"levelo_inurba_marseille","lat":43.29197,"lon":5.39321,"is_reserved":false,"is_disabled":false,"rental_uris":{"android":"levelo://app?vid=5ffa26b7-e083-4933-98fa-295366c779ee","ios":"levelo://app?vid=5ffa26b7-e083-4933-98fa-295366c779ee"},"vehicle_type_id":"4","last_reported":1742649269,"current_range_meters":12000,"station_id":"ce4bh192rcd13ifvqdd0","pricing_plan_id":"cebpf4jnsgd1na2vs0mg"},{"bike_id":"72503a27-a949-4a46-b139-c44d4f416a58","system_id":"levelo_inurba_marseille","lat":43.23198,"lon":5.35549,"is_reserved":false,"is_disabled":false,"rental_uris":{"android":"levelo://app?vid=72503a27-a949-4a46-b139-c44d4f416a58","ios":"levelo://app?vid=72503a27-a949-4a46-b139-c44d4f416a58"},"vehicle_type_id":"4","last_reported":1742649269,"current_range_meters":12000,"station_id":"ce4bhu92rcd13ifvqi70","pricing_plan_id":"cebpf4jnsgd1na2vs0mg"},{"bike_id":"23355478-830a-4a1f-8b14-9c6b1553c7a4","system_id":"levelo_inurba_marseille","lat":43.24389,"lon":5.37064,"is_reserved":false,"is_disabled":false,"rental_uris":{"android":"levelo://app?vid=23355478-830a-4a1f-8b14-9c6b1553c7a4","ios":"levelo://app?vid=23355478-830a-4a1f-8b14-9c6b1553c7a4"},"vehicle_type_id":"4","last_reported":1742649269,"current_range_meters":12000,"station_id":"ce4bhhh2rcd13ifvqfk0","pricing_plan_id":"cebpf4jnsgd1na2vs0mg"},{"bike_id":"3f3f99da-6673-441e-a5b3-6857219a400e","system_id":"levelo_inurba_marseille","lat":43.25012,"lon":5.38928,"is_reserved":false,"is_disabled":false,"rental_uris":{"android":"levelo://app?vid=3f3f99da-6673-441e-a5b3-6857219a400e","ios":"levelo://app?vid=3f3f99da-6673-441e-a5b3-6857219a400e"},"vehicle_type_id":"4","last_reported":1742649269,"current_range_meters":12000,"station_id":"ce4bhgp2rcd13ifvqfd0","pricing_plan_id":"cebpf4jnsgd1na2vs0mg"},{"bike_id":"448e4d8e-0e44-449b-a33e-df8509585b6e","system_id":"levelo_inurba_marseille","lat":43.30093,"lon":5.39101,"is_reserved":false,"is_disabled":false,"rental_uris":{"android":"levelo://app?vid=448e4d8e-0e44-449b-a33e-df8509585b6e","ios":"levelo://app?vid=448e4d8e-0e44-449b-a33e-df8509585b6e"},"vehicle_type_id":"4","last_reported":1742649269,"current_range_meters":12000,"station_id":"ce4bh192rcd13ifvqdb0","pricing_plan_id":"cebpf4jnsgd1na2vs0mg"},{"bike_id":"ba0a9964-ab62-4807-b18d-12500e496f19","system_id":"levelo_inurba_marseille","lat":43.28618,"lon":5.35101,"is_reserved":false,"is_disabled":true,"rental_uris":{"android":"levelo://app?vid=ba0a9964-ab62-4807-b18d-12500e496f19","ios":"levelo://app?vid=ba0a9964-ab62-4807-b18d-12500e496f19"},"vehicle_type_id":"4","last_reported":1742649269,"current_range_meters":12000,"station_id":"ce4bhch2rcd13ifvqeug","pricing_plan_id":"cebpf4jnsgd1na2vs0mg"},{"bike_id":"d16d5ae2-a108-44f8-a226-14fecf4f3137","system_id":"levelo_inurba_marseille","lat":43.27997,"lon":5.39996,"is_reserved":false,"is_disabled":false,"rental_uris":{"android":"levelo://app?vid=d16d5ae2-a108-44f8-a226-14fecf4f3137","ios":"levelo://app?vid=d16d5ae2-a108-44f8-a226-14fecf4f3137"},"vehicle_type_id":"4","last_reported":1742649269,"current_range_meters":12400,"station_id":"ce4bho92rcd13ifvqh4g","pricing_plan_id":"cebpf4jnsgd1na2vs0mg"},{"bike_id":"44eb154e-394e-4db1-98db-2a0ccbfcf636","system_id":"levelo_inurba_marseille","lat":43.266146,"lon":5.381762,"is_reserved":false,"is_disabled":false,"rental_uris":{"android":"levelo://app?vid=44eb154e-394e-4db1-98db-2a0ccbfcf636","ios":"levelo://app?vid=44eb154e-394e-4db1-98db-2a0ccbfcf636"},"vehicle_type_id":"4","last_reported":1742649269,"current_range_meters":12400,"station_id":"ce4bhjp2rcd13ifvqg90","pricing_plan_id":"cebpf4jnsgd1na2vs0mg"},{"bike_id":"74794dba-f6d3-4f3f-9430-4495437ac571","system_id":"levelo_inurba_marseille","lat":43.25584,"lon":5.3823,"is_reserved":false,"is_disabled":false,"rental_uris":{"android":"levelo://app?vid=74794dba-f6d3-4f3f-9430-4495437ac571","ios":"levelo://app?vid=74794dba-f6d3-4f3f-9430-4495437ac571"},"vehicle_type_id":"4","last_reported":1742649269,"current_range_meters":12400,"station_id":"ce4bhih2rcd13ifvqfs0","pricing_plan_id":"cebpf4jnsgd1na2vs0mg"},{"bike_id":"d55227f4-55e0-47c8-9083-283deb58f46d","system_id":"levelo_inurba_marseille","lat":43.28266,"lon":5.35075,"is_reserved":false,"is_disabled":false,"rental_uris":{"android":"levelo://app?vid=d55227f4-55e0-47c8-9083-283deb58f46d","ios":"levelo://app?vid=d55227f4-55e0-47c8-9083-283deb58f46d"},"vehicle_type_id":"4","last_reported":1742649269,"current_range_meters":12400,"station_id":"ce4bhbp2rcd13ifvqerg","pricing_plan_id":"cebpf4jnsgd1na2vs0mg"},{"bike_id":"da8f5259-daaf-4092-8a4e-c2c0842a68e9","system_id":"levelo_inurba_marseille","lat":43.32369,"lon":5.3889,"is_reserved":false,"is_disabled":false,"rental_uris":{"android":"levelo://app?vid=da8f5259-daaf-4092-8a4e-c2c0842a68e9","ios":"levelo://app?vid=da8f5259-daaf-4092-8a4e-c2c0842a68e9"},"vehicle_type_id":"4","last_reported":1742649269,"current_range_meters":12800,"station_id":"ce4bhqp2rcd13ifvqhog","pricing_plan_id":"cebpf4jnsgd1na2vs0mg"},{"bike_id":"7de724e8-00f3-49d5-8314-2ba05da7259f","system_id":"levelo_inurba_marseille","lat":43.30141,"lon":5.38076,"is_reserved":false,"is_disabled":false,"rental_uris":{"android":"levelo://app?vid=7de724e8-00f3-49d5-8314-2ba05da7259f","ios":"levelo://app?vid=7de724e8-00f3-49d5-8314-2ba05da7259f"},"vehicle_type_id":"4","last_reported":1742649269,"current_range_meters":12800,"station_id":"ce4bgjp2rcd13ifvqbh0","pricing_plan_id":"cebpf4jnsgd1na2vs0mg"},{"bike_id":"c9124d09-396c-47a4-a0db-241ec1cdd64c","system_id":"levelo_inurba_marseille","lat":43.29688,"lon":5.37293,"is_reserved":false,"is_disabled":false,"rental_uris":{"android":"levelo://app?vid=c9124d09-396c-47a4-a0db-241ec1cdd64c","ios":"levelo://app?vid=c9124d09-396c-47a4-a0db-241ec1cdd64c"},"vehicle_type_id":"4","last_reported":1742649269,"current_range_meters":12800,"station_id":"ce4bgk12rcd13ifvqbj0","pricing_plan_id":"cebpf4jnsgd1na2vs0mg"},{"bike_id":"302da745-dc3e-489e-b2c8-445dcb3c38b1","system_id":"levelo_inurba_marseille","lat":43.2306,"lon":5.35481,"is_reserved":false,"is_disabled":false,"rental_uris":{"android":"levelo://app?vid=302da745-dc3e-489e-b2c8-445dcb3c38b1","ios":"levelo://app?vid=302da745-dc3e-489e-b2c8-445dcb3c38b1"},"vehicle_type_id":"4","last_reported":1742649269,"current_range_meters":12800,"station_id":"cpo3342slgdg3j2ifvpg","pricing_plan_id":"cebpf4jnsgd1na2vs0mg"},{"bike_id":"2ff79f86-7018-4f17-bd6a-3bd4ceec4f7d","system_id":"levelo_inurba_marseille","lat":43.286092,"lon":5.351267,"is_reserved":false,"is_disabled":false,"rental_uris":{"android":"levelo://app?vid=2ff79f86-7018-4f17-bd6a-3bd4ceec4f7d","ios":"levelo://app?vid=2ff79f86-7018-4f17-bd6a-3bd4ceec4f7d"},"vehicle_type_id":"4","last_reported":1742649269,"current_range_meters":12800,"station_id":"ce4bgvh2rcd13ifvqcs0","pricing_plan_id":"cebpf4jnsgd1na2vs0mg"},{"bike_id":"7ca71401-db29-4848-b633-672f654542df","system_id":"levelo_inurba_marseille","lat":43.27981,"lon":5.3875,"is_reserved":false,"is_disabled":false,"rental_uris":{"android":"levelo://app?vid=7ca71401-db29-4848-b633-672f654542df","ios":"levelo://app?vid=7ca71401-db29-4848-b633-672f654542df"},"vehicle_type_id":"4","last_reported":1742649269,"current_range_meters":12800,"station_id":"ce4bhg12rcd13ifvqf80","pricing_plan_id":"cebpf4jnsgd1na2vs0mg"},{"bike_id":"aeae7e42-a5a4-4d74-9af2-b34f1e1dcdcc","system_id":"levelo_inurba_marseille","lat":43.29517,"lon":5.37507,"is_reserved":false,"is_disabled":false,"rental_uris":{"android":"levelo://app?vid=aeae7e42-a5a4-4d74-9af2-b34f1e1dcdcc","ios":"levelo://app?vid=aeae7e42-a5a4-4d74-9af2-b34f1e1dcdcc"},"vehicle_type_id":"4","last_reported":1742649269,"current_range_meters":13600,"station_id":"ce4bgkp2rcd13ifvqbmg","pricing_plan_id":"cebpf4jnsgd1na2vs0mg"},{"bike_id":"7d9bf2d2-5153-499c-a1fb-dcb365a9e566","system_id":"levelo_inurba_marseille","lat":43.24179,"lon":5.39731,"is_reserved":false,"is_disabled":false,"rental_uris":{"android":"levelo://app?vid=7d9bf2d2-5153-499c-a1fb-dcb365a9e566","ios":"levelo://app?vid=7d9bf2d2-5153-499c-a1fb-dcb365a9e566"},"vehicle_type_id":"4","last_reported":1742649269,"current_range_meters":13600,"station_id":"ce4bhn12rcd13ifvqgpg","pricing_plan_id":"cebpf4jnsgd1na2vs0mg"},{"bike_id":"43255677-0085-4f6c-97b0-a451b74101d2","system_id":"levelo_inurba_marseille","lat":43.23962,"lon":5.36649,"is_reserved":false,"is_disabled":false,"rental_uris":{"android":"levelo://app?vid=43255677-0085-4f6c-97b0-a451b74101d2","ios":"levelo://app?vid=43255677-0085-4f6c-97b0-a451b74101d2"},"vehicle_type_id":"4","last_reported":1742649269,"current_range_meters":13600,"station_id":"ce4bhi12rcd13ifvqfp0","pricing_plan_id":"cebpf4jnsgd1na2vs0mg"},{"bike_id":"2032e81a-8d24-4036-9cc6-bf67698b8322","system_id":"levelo_inurba_marseille","lat":43.24185,"lon":5.39757,"is_reserved":false,"is_disabled":false,"rental_uris":{"android":"levelo://app?vid=2032e81a-8d24-4036-9cc6-bf67698b8322","ios":"levelo://app?vid=2032e81a-8d24-4036-9cc6-bf67698b8322"},"vehicle_type_id":"4","last_reported":1742649269,"current_range_meters":13600,"station_id":"ce4bhn12rcd13ifvqgpg","pricing_plan_id":"cebpf4jnsgd1na2vs0mg"},{"bike_id":"93cf0f72-793c-4c82-8c8d-7d96defc34a6","system_id":"levelo_inurba_marseille","lat":43.30146,"lon":5.37429,"is_reserved":false,"is_disabled":false,"rental_uris":{"android":"levelo://app?vid=93cf0f72-793c-4c82-8c8d-7d96defc34a6","ios":"levelo://app?vid=93cf0f72-793c-4c82-8c8d-7d96defc34a6"},"vehicle_type_id":"4","last_reported":1742649269,"current_range_meters":13600,"station_id":"ce4bgs92rcd13ifvqcc0","pricing_plan_id":"cebpf4jnsgd1na2vs0mg"},{"bike_id":"3499ba98-a42f-4ab0-9788-1b4536304899","system_id":"levelo_inurba_marseille","lat":43.29615,"lon":5.37732,"is_reserved":false,"is_disabled":false,"rental_uris":{"android":"levelo://app?vid=3499ba98-a42f-4ab0-9788-1b4536304899","ios":"levelo://app?vid=3499ba98-a42f-4ab0-9788-1b4536304899"},"vehicle_type_id":"4","last_reported":1742649269,"current_range_meters":13600,"station_id":"ce4bgi92rcd13ifvqb90","pricing_plan_id":"cebpf4jnsgd1na2vs0mg"},{"bike_id":"93227163-7ec6-44a8-9470-7a4f46bc4ede","system_id":"levelo_inurba_marseille","lat":43.26061,"lon":5.39405,"is_reserved":false,"is_disabled":false,"rental_uris":{"android":"levelo://app?vid=93227163-7ec6-44a8-9470-7a4f46bc4ede","ios":"levelo://app?vid=93227163-7ec6-44a8-9470-7a4f46bc4ede"},"vehicle_type_id":"4","last_reported":1742649269,"current_range_meters":12800,"station_id":"ce4bhh92rcd13ifvqfj0","pricing_plan_id":"cebpf4jnsgd1na2vs0mg"},{"bike_id":"e08d706b-41ff-4a3d-8997-ecc1adc75887","system_id":"levelo_inurba_marseille","lat":43.25865,"lon":5.39898,"is_reserved":false,"is_disabled":false,"rental_uris":{"android":"levelo://app?vid=e08d706b-41ff-4a3d-8997-ecc1adc75887","ios":"levelo://app?vid=e08d706b-41ff-4a3d-8997-ecc1adc75887"},"vehicle_type_id":"4","last_reported":1742649269,"current_range_meters":13600,"station_id":"ce4bhl92rcd13ifvqghg","pricing_plan_id":"cebpf4jnsgd1na2vs0mg"},{"bike_id":"199bae66-26c7-4da4-a10f-bb390e32da5f","system_id":"levelo_inurba_marseille","lat":43.28458,"lon":5.35887,"is_reserved":false,"is_disabled":false,"rental_uris":{"android":"levelo://app?vid=199bae66-26c7-4da4-a10f-bb390e32da5f","ios":"levelo://app?vid=199bae66-26c7-4da4-a10f-bb390e32da5f"},"vehicle_type_id":"4","last_reported":1742649269,"current_range_meters":14000,"station_id":"ce4bhah2rcd13ifvqei0","pricing_plan_id":"cebpf4jnsgd1na2vs0mg"},{"bike_id":"887712a7-a01e-469b-acc1-c83bb1a8102c","system_id":"levelo_inurba_marseille","lat":43.30135,"lon":5.37422,"is_reserved":false,"is_disabled":false,"rental_uris":{"android":"levelo://app?vid=887712a7-a01e-469b-acc1-c83bb1a8102c","ios":"levelo://app?vid=887712a7-a01e-469b-acc1-c83bb1a8102c"},"vehicle_type_id":"4","last_reported":1742649269,"current_range_meters":14000,"station_id":"ce4bgs92rcd13ifvqcc0","pricing_plan_id":"cebpf4jnsgd1na2vs0mg"},{"bike_id":"4ac0f88f-31fc-4647-acfa-a9d00e5c594b","system_id":"levelo_inurba_marseille","lat":43.299368,"lon":5.365298,"is_reserved":false,"is_disabled":false,"rental_uris":{"android":"levelo://app?vid=4ac0f88f-31fc-4647-acfa-a9d00e5c594b","ios":"levelo://app?vid=4ac0f88f-31fc-4647-acfa-a9d00e5c594b"},"vehicle_type_id":"4","last_reported":1742649269,"current_range_meters":14000,"station_id":"ce4bgm92rcd13ifvqbr0","pricing_plan_id":"cebpf4jnsgd1na2vs0mg"},{"bike_id":"041746e8-f612-4f02-ba2c-e784ef31f6c4","system_id":"levelo_inurba_marseille","lat":43.23148,"lon":5.43715,"is_reserved":false,"is_disabled":false,"rental_uris":{"android":"levelo://app?vid=041746e8-f612-4f02-ba2c-e784ef31f6c4","ios":"levelo://app?vid=041746e8-f612-4f02-ba2c-e784ef31f6c4"},"vehicle_type_id":"4","last_reported":1742649269,"current_range_meters":14000,"station_id":"ce4bhmp2rcd13ifvqgog","pricing_plan_id":"cebpf4jnsgd1na2vs0mg"},{"bike_id":"59de377f-c54b-489f-b740-ed7b42d558ea","system_id":"levelo_inurba_marseille","lat":43.23973,"lon":5.36617,"is_reserved":false,"is_disabled":false,"rental_uris":{"android":"levelo://app?vid=59de377f-c54b-489f-b740-ed7b42d558ea","ios":"levelo://app?vid=59de377f-c54b-489f-b740-ed7b42d558ea"},"vehicle_type_id":"4","last_reported":1742649269,"current_range_meters":14000,"station_id":"ce4bhi12rcd13ifvqfp0","pricing_plan_id":"cebpf4jnsgd1na2vs0mg"},{"bike_id":"4fcd5aa8-47a6-47e0-acf8-4669a5d049c7","system_id":"levelo_inurba_marseille","lat":43.32361,"lon":5.38905,"is_reserved":false,"is_disabled":false,"rental_uris":{"android":"levelo://app?vid=4fcd5aa8-47a6-47e0-acf8-4669a5d049c7","ios":"levelo://app?vid=4fcd5aa8-47a6-47e0-acf8-4669a5d049c7"},"vehicle_type_id":"4","last_reported":1742649269,"current_range_meters":14000,"station_id":"ce4bhqp2rcd13ifvqhog","pricing_plan_id":"cebpf4jnsgd1na2vs0mg"},{"bike_id":"18e4af02-9bb1-4b52-b157-e7e936760e98","system_id":"levelo_inurba_marseille","lat":43.29967,"lon":5.38505,"is_reserved":false,"is_disabled":false,"rental_uris":{"android":"levelo://app?vid=18e4af02-9bb1-4b52-b157-e7e936760e98","ios":"levelo://app?vid=18e4af02-9bb1-4b52-b157-e7e936760e98"},"vehicle_type_id":"4","last_reported":1742649269,"current_range_meters":14000,"station_id":"ce4bgj92rcd13ifvqbd0","pricing_plan_id":"cebpf4jnsgd1na2vs0mg"},{"bike_id":"b757f5df-c902-43dd-8b0b-214a953b0b13","system_id":"levelo_inurba_marseille","lat":43.23154,"lon":5.43717,"is_reserved":false,"is_disabled":false,"rental_uris":{"android":"levelo://app?vid=b757f5df-c902-43dd-8b0b-214a953b0b13","ios":"levelo://app?vid=b757f5df-c902-43dd-8b0b-214a953b0b13"},"vehicle_type_id":"4","last_reported":1742649269,"current_range_meters":14400,"station_id":"ce4bhmp2rcd13ifvqgog","pricing_plan_id":"cebpf4jnsgd1na2vs0mg"},{"bike_id":"b31c40e2-6a54-4114-a6bc-9b6ae43fcc22","system_id":"levelo_inurba_marseille","lat":43.29931,"lon":5.36548,"is_reserved":false,"is_disabled":false,"rental_uris":{"android":"levelo://app?vid=b31c40e2-6a54-4114-a6bc-9b6ae43fcc22","ios":"levelo://app?vid=b31c40e2-6a54-4114-a6bc-9b6ae43fcc22"},"vehicle_type_id":"4","last_reported":1742649269,"current_range_meters":14400,"station_id":"ce4bgm92rcd13ifvqbr0","pricing_plan_id":"cebpf4jnsgd1na2vs0mg"},{"bike_id":"98280d10-dfa2-46aa-bfd6-811148ff8d67","system_id":"levelo_inurba_marseille","lat":43.2961,"lon":5.3673,"is_reserved":false,"is_disabled":false,"rental_uris":{"android":"levelo://app?vid=98280d10-dfa2-46aa-bfd6-811148ff8d67","ios":"levelo://app?vid=98280d10-dfa2-46aa-bfd6-811148ff8d67"},"vehicle_type_id":"4","last_reported":1742649269,"current_range_meters":14400,"station_id":"ce4bgph2rcd13ifvqc2g","pricing_plan_id":"cebpf4jnsgd1na2vs0mg"},{"bike_id":"d9d90e28-0cde-498e-9e49-e2278f18bc23","system_id":"levelo_inurba_marseille","lat":43.32379,"lon":5.38877,"is_reserved":false,"is_disabled":false,"rental_uris":{"android":"levelo://app?vid=d9d90e28-0cde-498e-9e49-e2278f18bc23","ios":"levelo://app?vid=d9d90e28-0cde-498e-9e49-e2278f18bc23"},"vehicle_type_id":"4","last_reported":1742649269,"current_range_meters":14400,"station_id":"ce4bhqp2rcd13ifvqhog","pricing_plan_id":"cebpf4jnsgd1na2vs0mg"},{"bike_id":"2afda611-b90a-4e05-a035-95ee5443fb52","system_id":"levelo_inurba_marseille","lat":43.2968,"lon":5.37292,"is_reserved":false,"is_disabled":false,"rental_uris":{"android":"levelo://app?vid=2afda611-b90a-4e05-a035-95ee5443fb52","ios":"levelo://app?vid=2afda611-b90a-4e05-a035-95ee5443fb52"},"vehicle_type_id":"4","last_reported":1742649269,"current_range_meters":14800,"station_id":"ce4bgk12rcd13ifvqbj0","pricing_plan_id":"cebpf4jnsgd1na2vs0mg"},{"bike_id":"50d0bb06-3993-4a7e-8915-147786db4e65","system_id":"levelo_inurba_marseille","lat":43.22932,"lon":5.35381,"is_reserved":false,"is_disabled":false,"rental_uris":{"android":"levelo://app?vid=50d0bb06-3993-4a7e-8915-147786db4e65","ios":"levelo://app?vid=50d0bb06-3993-4a7e-8915-147786db4e65"},"vehicle_type_id":"4","last_reported":1742649269,"current_range_meters":14800,"station_id":"cpo3532slgdg3j2ikp40","pricing_plan_id":"cebpf4jnsgd1na2vs0mg"},{"bike_id":"9b0392c0-63f4-4a65-bc75-85417b5ebec5","system_id":"levelo_inurba_marseille","lat":43.29919,"lon":5.37461,"is_reserved":false,"is_disabled":false,"rental_uris":{"android":"levelo://app?vid=9b0392c0-63f4-4a65-bc75-85417b5ebec5","ios":"levelo://app?vid=9b0392c0-63f4-4a65-bc75-85417b5ebec5"},"vehicle_type_id":"4","last_reported":1742649269,"current_range_meters":14800,"station_id":"ce4bgjh2rcd13ifvqbg0","pricing_plan_id":"cebpf4jnsgd1na2vs0mg"},{"bike_id":"e2b68c00-ea55-4d0f-ae98-6403b351276c","system_id":"levelo_inurba_marseille","lat":43.23066,"lon":5.35493,"is_reserved":false,"is_disabled":false,"rental_uris":{"android":"levelo://app?vid=e2b68c00-ea55-4d0f-ae98-6403b351276c","ios":"levelo://app?vid=e2b68c00-ea55-4d0f-ae98-6403b351276c"},"vehicle_type_id":"4","last_reported":1742649269,"current_range_meters":14800,"station_id":"cpo3342slgdg3j2ifvpg","pricing_plan_id":"cebpf4jnsgd1na2vs0mg"},{"bike_id":"5c223777-549b-4d09-9654-1b617afc66e4","system_id":"levelo_inurba_marseille","lat":43.29851,"lon":5.36288,"is_reserved":false,"is_disabled":false,"rental_uris":{"android":"levelo://app?vid=5c223777-549b-4d09-9654-1b617afc66e4","ios":"levelo://app?vid=5c223777-549b-4d09-9654-1b617afc66e4"},"vehicle_type_id":"4","last_reported":1742649269,"current_range_meters":14800,"station_id":"ce4bgpp2rcd13ifvqc3g","pricing_plan_id":"cebpf4jnsgd1na2vs0mg"},{"bike_id":"1d0a467a-5b25-41bf-80b7-e9cf9250cf77","system_id":"levelo_inurba_marseille","lat":43.24811,"lon":5.37459,"is_reserved":false,"is_disabled":false,"rental_uris":{"android":"levelo://app?vid=1d0a467a-5b25-41bf-80b7-e9cf9250cf77","ios":"levelo://app?vid=1d0a467a-5b25-41bf-80b7-e9cf9250cf77"},"vehicle_type_id":"4","last_reported":1742649269,"current_range_meters":14800,"station_id":"ce4bhgh2rcd13ifvqfb0","pricing_plan_id":"cebpf4jnsgd1na2vs0mg"},{"bike_id":"fbb21803-167e-4887-bdbb-be3efc8ae8f0","system_id":"levelo_inurba_marseille","lat":43.28662,"lon":5.36353,"is_reserved":false,"is_disabled":false,"rental_uris":{"android":"levelo://app?vid=fbb21803-167e-4887-bdbb-be3efc8ae8f0","ios":"levelo://app?vid=fbb21803-167e-4887-bdbb-be3efc8ae8f0"},"vehicle_type_id":"4","last_reported":1742649269,"current_range_meters":14800,"station_id":"ce4bhah2rcd13ifvqej0","pricing_plan_id":"cebpf4jnsgd1na2vs0mg"},{"bike_id":"4ae497d6-c69c-4595-b6ea-8283739c35e6","system_id":"levelo_inurba_marseille","lat":43.27212,"lon":5.39175,"is_reserved":false,"is_disabled":false,"rental_uris":{"android":"levelo://app?vid=4ae497d6-c69c-4595-b6ea-8283739c35e6","ios":"levelo://app?vid=4ae497d6-c69c-4595-b6ea-8283739c35e6"},"vehicle_type_id":"4","last_reported":1742649269,"current_range_meters":14800,"station_id":"ce4bhhp2rcd13ifvqfm0","pricing_plan_id":"cebpf4jnsgd1na2vs0mg"},{"bike_id":"9152d2c3-5f9d-4513-97c0-9c7125a8a33a","system_id":"levelo_inurba_marseille","lat":43.2963,"lon":5.40596,"is_reserved":false,"is_disabled":false,"rental_uris":{"android":"levelo://app?vid=9152d2c3-5f9d-4513-97c0-9c7125a8a33a","ios":"levelo://app?vid=9152d2c3-5f9d-4513-97c0-9c7125a8a33a"},"vehicle_type_id":"4","last_reported":1742649269,"current_range_meters":14800,"station_id":"ce4bh0h2rcd13ifvqd60","pricing_plan_id":"cebpf4jnsgd1na2vs0mg"},{"bike_id":"d8878601-3ef9-4b69-ae9e-1dde88f059ac","system_id":"levelo_inurba_marseille","lat":43.2419,"lon":5.36399,"is_reserved":false,"is_disabled":false,"rental_uris":{"android":"levelo://app?vid=d8878601-3ef9-4b69-ae9e-1dde88f059ac","ios":"levelo://app?vid=d8878601-3ef9-4b69-ae9e-1dde88f059ac"},"vehicle_type_id":"4","last_reported":1742649269,"current_range_meters":15200,"station_id":"cpo36qri1sfpv3e86is0","pricing_plan_id":"cebpf4jnsgd1na2vs0mg"},{"bike_id":"3f2cc47c-9819-46f0-b7be-a06e1c7f9558","system_id":"levelo_inurba_marseille","lat":43.31068,"lon":5.383545,"is_reserved":false,"is_disabled":false,"rental_uris":{"android":"levelo://app?vid=3f2cc47c-9819-46f0-b7be-a06e1c7f9558","ios":"levelo://app?vid=3f2cc47c-9819-46f0-b7be-a06e1c7f9558"},"vehicle_type_id":"4","last_reported":1742649269,"current_range_meters":15200,"station_id":"ce4bgv92rcd13ifvqcr0","pricing_plan_id":"cebpf4jnsgd1na2vs0mg"},{"bike_id":"05196e82-2b3b-46d7-ab3e-37cd98e7884a","system_id":"levelo_inurba_marseille","lat":43.32653,"lon":5.41004,"is_reserved":false,"is_disabled":false,"rental_uris":{"android":"levelo://app?vid=05196e82-2b3b-46d7-ab3e-37cd98e7884a","ios":"levelo://app?vid=05196e82-2b3b-46d7-ab3e-37cd98e7884a"},"vehicle_type_id":"4","last_reported":1742649269,"current_range_meters":16000,"station_id":"ce4bhpp2rcd13ifvqhgg","pricing_plan_id":"cebpf4jnsgd1na2vs0mg"},{"bike_id":"b5ce8e54-e76c-447b-a48f-3fdd06c318e0","system_id":"levelo_inurba_marseille","lat":43.3361,"lon":5.41034,"is_reserved":false,"is_disabled":false,"rental_uris":{"android":"levelo://app?vid=b5ce8e54-e76c-447b-a48f-3fdd06c318e0","ios":"levelo://app?vid=b5ce8e54-e76c-447b-a48f-3fdd06c318e0"},"vehicle_type_id":"4","last_reported":1742649269,"current_range_meters":16000,"station_id":"ce4bhqh2rcd13ifvqhmg","pricing_plan_id":"cebpf4jnsgd1na2vs0mg"},{"bike_id":"4d2e5ee6-2856-447f-9b9e-a13ef21af2f4","system_id":"levelo_inurba_marseille","lat":43.28412,"lon":5.34992,"is_reserved":false,"is_disabled":false,"rental_uris":{"android":"levelo://app?vid=4d2e5ee6-2856-447f-9b9e-a13ef21af2f4","ios":"levelo://app?vid=4d2e5ee6-2856-447f-9b9e-a13ef21af2f4"},"vehicle_type_id":"4","last_reported":1742649269,"current_range_meters":16000,"station_id":"ce4bhbh2rcd13ifvqepg","pricing_plan_id":"cebpf4jnsgd1na2vs0mg"},{"bike_id":"11c509b3-6a64-49d7-9572-320494c895ce","system_id":"levelo_inurba_marseille","lat":43.27211,"lon":5.39181,"is_reserved":false,"is_disabled":false,"rental_uris":{"android":"levelo://app?vid=11c509b3-6a64-49d7-9572-320494c895ce","ios":"levelo://app?vid=11c509b3-6a64-49d7-9572-320494c895ce"},"vehicle_type_id":"4","last_reported":1742649269,"current_range_meters":16000,"station_id":"ce4bhhp2rcd13ifvqfm0","pricing_plan_id":"cebpf4jnsgd1na2vs0mg"},{"bike_id":"52088e19-d68b-45c5-ba39-83046f2d47b2","system_id":"levelo_inurba_marseille","lat":43.23196,"lon":5.35555,"is_reserved":false,"is_disabled":false,"rental_uris":{"android":"levelo://app?vid=52088e19-d68b-45c5-ba39-83046f2d47b2","ios":"levelo://app?vid=52088e19-d68b-45c5-ba39-83046f2d47b2"},"vehicle_type_id":"4","last_reported":1742649269,"current_range_meters":16000,"station_id":"ce4bhu92rcd13ifvqi70","pricing_plan_id":"cebpf4jnsgd1na2vs0mg"},{"bike_id":"751ff1ed-b498-4578-9bd4-943bf6c9d8eb","system_id":"levelo_inurba_marseille","lat":43.23196,"lon":5.35559,"is_reserved":false,"is_disabled":false,"rental_uris":{"android":"levelo://app?vid=751ff1ed-b498-4578-9bd4-943bf6c9d8eb","ios":"levelo://app?vid=751ff1ed-b498-4578-9bd4-943bf6c9d8eb"},"vehicle_type_id":"4","last_reported":1742649269,"current_range_meters":16000,"station_id":"ce4bhu92rcd13ifvqi70","pricing_plan_id":"cebpf4jnsgd1na2vs0mg"},{"bike_id":"a7a3c424-8094-4e0d-ae58-ad9b2d5db07e","system_id":"levelo_inurba_marseille","lat":43.27049,"lon":5.40253,"is_reserved":false,"is_disabled":false,"rental_uris":{"android":"levelo://app?vid=a7a3c424-8094-4e0d-ae58-ad9b2d5db07e","ios":"levelo://app?vid=a7a3c424-8094-4e0d-ae58-ad9b2d5db07e"},"vehicle_type_id":"4","last_reported":1742649269,"current_range_meters":16000,"station_id":"ce4bhk92rcd13ifvqgc0","pricing_plan_id":"cebpf4jnsgd1na2vs0mg"},{"bike_id":"1be94785-3b05-4808-993c-14536def0b24","system_id":"levelo_inurba_marseille","lat":43.23969,"lon":5.36625,"is_reserved":false,"is_disabled":false,"rental_uris":{"android":"levelo://app?vid=1be94785-3b05-4808-993c-14536def0b24","ios":"levelo://app?vid=1be94785-3b05-4808-993c-14536def0b24"},"vehicle_type_id":"4","last_reported":1742649269,"current_range_meters":16000,"station_id":"ce4bhi12rcd13ifvqfp0","pricing_plan_id":"cebpf4jnsgd1na2vs0mg"},{"bike_id":"ed6974b7-e559-45ee-b4b9-df8a5bb3e54f","system_id":"levelo_inurba_marseille","lat":43.29714,"lon":5.36602,"is_reserved":false,"is_disabled":false,"rental_uris":{"android":"levelo://app?vid=ed6974b7-e559-45ee-b4b9-df8a5bb3e54f","ios":"levelo://app?vid=ed6974b7-e559-45ee-b4b9-df8a5bb3e54f"},"vehicle_type_id":"4","last_reported":1742649269,"current_range_meters":16000,"station_id":"ce4bgn12rcd13ifvqbt0","pricing_plan_id":"cebpf4jnsgd1na2vs0mg"},{"bike_id":"a9c0ef20-00e7-4827-a3c8-c41428cdd581","system_id":"levelo_inurba_marseille","lat":43.30154,"lon":5.38088,"is_reserved":false,"is_disabled":false,"rental_uris":{"android":"levelo://app?vid=a9c0ef20-00e7-4827-a3c8-c41428cdd581","ios":"levelo://app?vid=a9c0ef20-00e7-4827-a3c8-c41428cdd581"},"vehicle_type_id":"4","last_reported":1742649269,"current_range_meters":16000,"station_id":"ce4bgjp2rcd13ifvqbh0","pricing_plan_id":"cebpf4jnsgd1na2vs0mg"},{"bike_id":"5d4cc92c-eafe-478c-8820-ef016b1e9d02","system_id":"levelo_inurba_marseille","lat":43.29897,"lon":5.43668,"is_reserved":false,"is_disabled":false,"rental_uris":{"android":"levelo://app?vid=5d4cc92c-eafe-478c-8820-ef016b1e9d02","ios":"levelo://app?vid=5d4cc92c-eafe-478c-8820-ef016b1e9d02"},"vehicle_type_id":"4","last_reported":1742649269,"current_range_meters":16000,"station_id":"ce4bhpp2rcd13ifvqhfg","pricing_plan_id":"cebpf4jnsgd1na2vs0mg"},{"bike_id":"cca972e0-4e1f-4894-8ff9-3cd1246fbb2c","system_id":"levelo_inurba_marseille","lat":43.29283,"lon":5.40117,"is_reserved":false,"is_disabled":false,"rental_uris":{"android":"levelo://app?vid=cca972e0-4e1f-4894-8ff9-3cd1246fbb2c","ios":"levelo://app?vid=cca972e0-4e1f-4894-8ff9-3cd1246fbb2c"},"vehicle_type_id":"4","last_reported":1742649269,"current_range_meters":16000,"station_id":"ce4bh312rcd13ifvqdk0","pricing_plan_id":"cebpf4jnsgd1na2vs0mg"},{"bike_id":"5fcd5f8c-5b95-474f-a440-7c7d88f49ccf","system_id":"levelo_inurba_marseille","lat":43.29617,"lon":5.37736,"is_reserved":false,"is_disabled":false,"rental_uris":{"android":"levelo://app?vid=5fcd5f8c-5b95-474f-a440-7c7d88f49ccf","ios":"levelo://app?vid=5fcd5f8c-5b95-474f-a440-7c7d88f49ccf"},"vehicle_type_id":"4","last_reported":1742649269,"current_range_meters":16000,"station_id":"ce4bgi92rcd13ifvqb90","pricing_plan_id":"cebpf4jnsgd1na2vs0mg"},{"bike_id":"a7c269ac-750b-4e61-a0a4-f774b818338f","system_id":"levelo_inurba_marseille","lat":43.2808,"lon":5.39666,"is_reserved":false,"is_disabled":false,"rental_uris":{"android":"levelo://app?vid=a7c269ac-750b-4e61-a0a4-f774b818338f","ios":"levelo://app?vid=a7c269ac-750b-4e61-a0a4-f774b818338f"},"vehicle_type_id":"4","last_reported":1742649269,"current_range_meters":16000,"station_id":"ce4bho12rcd13ifvqh2g","pricing_plan_id":"cebpf4jnsgd1na2vs0mg"},{"bike_id":"d954b141-3cee-4de0-9c29-d5babd11cd82","system_id":"levelo_inurba_marseille","lat":43.25104,"lon":5.39534,"is_reserved":false,"is_disabled":false,"rental_uris":{"android":"levelo://app?vid=d954b141-3cee-4de0-9c29-d5babd11cd82","ios":"levelo://app?vid=d954b141-3cee-4de0-9c29-d5babd11cd82"},"vehicle_type_id":"4","last_reported":1742649269,"current_range_meters":16000,"station_id":"ce4bhm12rcd13ifvqgkg","pricing_plan_id":"cebpf4jnsgd1na2vs0mg"},{"bike_id":"f884945f-7c95-4201-a57b-fc82f2c31451","system_id":"levelo_inurba_marseille","lat":43.31863,"lon":5.40415,"is_reserved":false,"is_disabled":false,"rental_uris":{"android":"levelo://app?vid=f884945f-7c95-4201-a57b-fc82f2c31451","ios":"levelo://app?vid=f884945f-7c95-4201-a57b-fc82f2c31451"},"vehicle_type_id":"4","last_reported":1742649269,"current_range_meters":16000,"station_id":"","pricing_plan_id":"cebpf4jnsgd1na2vs0mg"},{"bike_id":"3f6020f1-52c8-4730-a938-fcb4b7ea8613","system_id":"levelo_inurba_marseille","lat":43.30281,"lon":5.37702,"is_reserved":false,"is_disabled":false,"rental_uris":{"android":"levelo://app?vid=3f6020f1-52c8-4730-a938-fcb4b7ea8613","ios":"levelo://app?vid=3f6020f1-52c8-4730-a938-fcb4b7ea8613"},"vehicle_type_id":"4","last_reported":1742649269,"current_range_meters":16000,"station_id":"ce4bguh2rcd13ifvqcj0","pricing_plan_id":"cebpf4jnsgd1na2vs0mg"},{"bike_id":"0af74a1a-d6e1-4579-b1c6-27467ba405fe","system_id":"levelo_inurba_marseille","lat":43.29879,"lon":5.39752,"is_reserved":false,"is_disabled":true,"rental_uris":{"android":"levelo://app?vid=0af74a1a-d6e1-4579-b1c6-27467ba405fe","ios":"levelo://app?vid=0af74a1a-d6e1-4579-b1c6-27467ba405fe"},"vehicle_type_id":"4","last_reported":1742649269,"current_range_meters":16400,"station_id":"ce4bh0h2rcd13ifvqd50","pricing_plan_id":"cebpf4jnsgd1na2vs0mg"},{"bike_id":"dd5d6d06-0e34-4684-b128-c77a8d50ab86","system_id":"levelo_inurba_marseille","lat":43.30117,"lon":5.37412,"is_reserved":false,"is_disabled":false,"rental_uris":{"android":"levelo://app?vid=dd5d6d06-0e34-4684-b128-c77a8d50ab86","ios":"levelo://app?vid=dd5d6d06-0e34-4684-b128-c77a8d50ab86"},"vehicle_type_id":"4","last_reported":1742649269,"current_range_meters":16400,"station_id":"ce4bgs92rcd13ifvqcc0","pricing_plan_id":"cebpf4jnsgd1na2vs0mg"},{"bike_id":"07541760-82c4-4d38-b58c-85ffff07e965","system_id":"levelo_inurba_marseille","lat":43.23957,"lon":5.36631,"is_reserved":false,"is_disabled":false,"rental_uris":{"android":"levelo://app?vid=07541760-82c4-4d38-b58c-85ffff07e965","ios":"levelo://app?vid=07541760-82c4-4d38-b58c-85ffff07e965"},"vehicle_type_id":"4","last_reported":1742649269,"current_range_meters":16400,"station_id":"ce4bhi12rcd13ifvqfp0","pricing_plan_id":"cebpf4jnsgd1na2vs0mg"},{"bike_id":"4c406a29-ee9e-4446-b3db-6d7899ff79a2","system_id":"levelo_inurba_marseille","lat":43.24164,"lon":5.36403,"is_reserved":false,"is_disabled":false,"rental_uris":{"android":"levelo://app?vid=4c406a29-ee9e-4446-b3db-6d7899ff79a2","ios":"levelo://app?vid=4c406a29-ee9e-4446-b3db-6d7899ff79a2"},"vehicle_type_id":"4","last_reported":1742649269,"current_range_meters":16400,"station_id":"cpo36qri1sfpv3e86is0","pricing_plan_id":"cebpf4jnsgd1na2vs0mg"},{"bike_id":"cbb1f794-b38a-4f82-844a-5f17fc0e5d2e","system_id":"levelo_inurba_marseille","lat":43.28618,"lon":5.35114,"is_reserved":false,"is_disabled":false,"rental_uris":{"android":"levelo://app?vid=cbb1f794-b38a-4f82-844a-5f17fc0e5d2e","ios":"levelo://app?vid=cbb1f794-b38a-4f82-844a-5f17fc0e5d2e"},"vehicle_type_id":"4","last_reported":1742649269,"current_range_meters":16400,"station_id":"ce4bhch2rcd13ifvqeug","pricing_plan_id":"cebpf4jnsgd1na2vs0mg"},{"bike_id":"1fee47b5-fab4-4ec1-a11f-e919827cdddc","system_id":"levelo_inurba_marseille","lat":43.32367,"lon":5.36767,"is_reserved":false,"is_disabled":false,"rental_uris":{"android":"levelo://app?vid=1fee47b5-fab4-4ec1-a11f-e919827cdddc","ios":"levelo://app?vid=1fee47b5-fab4-4ec1-a11f-e919827cdddc"},"vehicle_type_id":"4","last_reported":1742649269,"current_range_meters":16400,"station_id":"ce4bhsh2rcd13ifvqi2g","pricing_plan_id":"cebpf4jnsgd1na2vs0mg"},{"bike_id":"f5e67df2-634b-4b3a-b33a-d1730d5d5b54","system_id":"levelo_inurba_marseille","lat":43.33719,"lon":5.39182,"is_reserved":false,"is_disabled":false,"rental_uris":{"android":"levelo://app?vid=f5e67df2-634b-4b3a-b33a-d1730d5d5b54","ios":"levelo://app?vid=f5e67df2-634b-4b3a-b33a-d1730d5d5b54"},"vehicle_type_id":"4","last_reported":1742649269,"current_range_meters":16400,"station_id":"ce4bhr92rcd13ifvqhsg","pricing_plan_id":"cebpf4jnsgd1na2vs0mg"},{"bike_id":"e7506acf-bca4-4bf9-a68d-63317818d92c","system_id":"levelo_inurba_marseille","lat":43.23146,"lon":5.43735,"is_reserved":false,"is_disabled":false,"rental_uris":{"android":"levelo://app?vid=e7506acf-bca4-4bf9-a68d-63317818d92c","ios":"levelo://app?vid=e7506acf-bca4-4bf9-a68d-63317818d92c"},"vehicle_type_id":"4","last_reported":1742649269,"current_range_meters":16400,"station_id":"ce4bhmp2rcd13ifvqgog","pricing_plan_id":"cebpf4jnsgd1na2vs0mg"},{"bike_id":"7acd2d17-0b93-4578-b8b7-3ab0540e9541","system_id":"levelo_inurba_marseille","lat":43.28409,"lon":5.34979,"is_reserved":false,"is_disabled":false,"rental_uris":{"android":"levelo://app?vid=7acd2d17-0b93-4578-b8b7-3ab0540e9541","ios":"levelo://app?vid=7acd2d17-0b93-4578-b8b7-3ab0540e9541"},"vehicle_type_id":"4","last_reported":1742649269,"current_range_meters":16800,"station_id":"ce4bhbh2rcd13ifvqepg","pricing_plan_id":"cebpf4jnsgd1na2vs0mg"},{"bike_id":"e41bf9f2-5cdf-4a27-9e19-85dd8eb5dce8","system_id":"levelo_inurba_marseille","lat":43.30151,"lon":5.37389,"is_reserved":false,"is_disabled":false,"rental_uris":{"android":"levelo://app?vid=e41bf9f2-5cdf-4a27-9e19-85dd8eb5dce8","ios":"levelo://app?vid=e41bf9f2-5cdf-4a27-9e19-85dd8eb5dce8"},"vehicle_type_id":"4","last_reported":1742649269,"current_range_meters":16800,"station_id":"ce4bgs92rcd13ifvqcc0","pricing_plan_id":"cebpf4jnsgd1na2vs0mg"},{"bike_id":"5f057e05-88ef-43f2-a315-beafe07070d0","system_id":"levelo_inurba_marseille","lat":43.23209,"lon":5.3996,"is_reserved":false,"is_disabled":false,"rental_uris":{"android":"levelo://app?vid=5f057e05-88ef-43f2-a315-beafe07070d0","ios":"levelo://app?vid=5f057e05-88ef-43f2-a315-beafe07070d0"},"vehicle_type_id":"4","last_reported":1742649269,"current_range_meters":16800,"station_id":"ce4bhn12rcd13ifvqgqg","pricing_plan_id":"cebpf4jnsgd1na2vs0mg"},{"bike_id":"b6481d08-2d72-4e43-b8a6-7e58f8f29bc4","system_id":"levelo_inurba_marseille","lat":43.30375,"lon":5.42456,"is_reserved":false,"is_disabled":false,"rental_uris":{"android":"levelo://app?vid=b6481d08-2d72-4e43-b8a6-7e58f8f29bc4","ios":"levelo://app?vid=b6481d08-2d72-4e43-b8a6-7e58f8f29bc4"},"vehicle_type_id":"4","last_reported":1742649269,"current_range_meters":16800,"station_id":"ce4bhoh2rcd13ifvqh6g","pricing_plan_id":"cebpf4jnsgd1na2vs0mg"},{"bike_id":"59c2a742-4ef0-462a-ad11-4cfc56700ee0","system_id":"levelo_inurba_marseille","lat":43.31078,"lon":5.3837,"is_reserved":false,"is_disabled":false,"rental_uris":{"android":"levelo://app?vid=59c2a742-4ef0-462a-ad11-4cfc56700ee0","ios":"levelo://app?vid=59c2a742-4ef0-462a-ad11-4cfc56700ee0"},"vehicle_type_id":"4","last_reported":1742649269,"current_range_meters":16800,"station_id":"ce4bgv92rcd13ifvqcr0","pricing_plan_id":"cebpf4jnsgd1na2vs0mg"},{"bike_id":"ed48c323-4ba4-40bb-972d-298f2352717a","system_id":"levelo_inurba_marseille","lat":43.2439,"lon":5.37061,"is_reserved":false,"is_disabled":false,"rental_uris":{"android":"levelo://app?vid=ed48c323-4ba4-40bb-972d-298f2352717a","ios":"levelo://app?vid=ed48c323-4ba4-40bb-972d-298f2352717a"},"vehicle_type_id":"4","last_reported":1742649269,"current_range_meters":16800,"station_id":"ce4bhhh2rcd13ifvqfk0","pricing_plan_id":"cebpf4jnsgd1na2vs0mg"},{"bike_id":"a3ac89ce-3fe3-47ef-ab8b-3f80e3ded549","system_id":"levelo_inurba_marseille","lat":43.28112,"lon":5.37842,"is_reserved":false,"is_disabled":false,"rental_uris":{"android":"levelo://app?vid=a3ac89ce-3fe3-47ef-ab8b-3f80e3ded549","ios":"levelo://app?vid=a3ac89ce-3fe3-47ef-ab8b-3f80e3ded549"},"vehicle_type_id":"4","last_reported":1742649269,"current_range_meters":16800,"station_id":"ce4bha12rcd13ifvqee0","pricing_plan_id":"cebpf4jnsgd1na2vs0mg"},{"bike_id":"1da18c4e-bb0c-47b1-9e4f-fb0ee339817c","system_id":"levelo_inurba_marseille","lat":43.23192,"lon":5.35551,"is_reserved":false,"is_disabled":false,"rental_uris":{"android":"levelo://app?vid=1da18c4e-bb0c-47b1-9e4f-fb0ee339817c","ios":"levelo://app?vid=1da18c4e-bb0c-47b1-9e4f-fb0ee339817c"},"vehicle_type_id":"4","last_reported":1742649269,"current_range_meters":16800,"station_id":"ce4bhu92rcd13ifvqi70","pricing_plan_id":"cebpf4jnsgd1na2vs0mg"},{"bike_id":"e7f36315-33b7-4281-a35b-834987bb0230","system_id":"levelo_inurba_marseille","lat":43.29573,"lon":5.37507,"is_reserved":false,"is_disabled":false,"rental_uris":{"android":"levelo://app?vid=e7f36315-33b7-4281-a35b-834987bb0230","ios":"levelo://app?vid=e7f36315-33b7-4281-a35b-834987bb0230"},"vehicle_type_id":"4","last_reported":1742649269,"current_range_meters":16800,"station_id":"ce4bgh92rcd13ifvqb50","pricing_plan_id":"cebpf4jnsgd1na2vs0mg"},{"bike_id":"f8ff41b7-94c3-4164-990c-0c31908da696","system_id":"levelo_inurba_marseille","lat":43.23087,"lon":5.35468,"is_reserved":false,"is_disabled":false,"rental_uris":{"android":"levelo://app?vid=f8ff41b7-94c3-4164-990c-0c31908da696","ios":"levelo://app?vid=f8ff41b7-94c3-4164-990c-0c31908da696"},"vehicle_type_id":"4","last_reported":1742649269,"current_range_meters":16800,"station_id":"cpo3342slgdg3j2ifvpg","pricing_plan_id":"cebpf4jnsgd1na2vs0mg"},{"bike_id":"185fbe3b-beec-4e8d-a0fb-f3a643549f5b","system_id":"levelo_inurba_marseille","lat":43.31595,"lon":5.37202,"is_reserved":false,"is_disabled":false,"rental_uris":{"android":"levelo://app?vid=185fbe3b-beec-4e8d-a0fb-f3a643549f5b","ios":"levelo://app?vid=185fbe3b-beec-4e8d-a0fb-f3a643549f5b"},"vehicle_type_id":"4","last_reported":1742649269,"current_range_meters":17200,"station_id":"","pricing_plan_id":"cebpf4jnsgd1na2vs0mg"},{"bike_id":"cd897869-d51d-467c-9826-c044773d3f8c","system_id":"levelo_inurba_marseille","lat":43.241723,"lon":5.363934,"is_reserved":false,"is_disabled":false,"rental_uris":{"android":"levelo://app?vid=cd897869-d51d-467c-9826-c044773d3f8c","ios":"levelo://app?vid=cd897869-d51d-467c-9826-c044773d3f8c"},"vehicle_type_id":"4","last_reported":1742649269,"current_range_meters":17200,"station_id":"cpo36qri1sfpv3e86is0","pricing_plan_id":"cebpf4jnsgd1na2vs0mg"},{"bike_id":"0edca28e-bb2a-4eed-a9fd-458177a3a120","system_id":"levelo_inurba_marseille","lat":43.29564,"lon":5.37514,"is_reserved":false,"is_disabled":false,"rental_uris":{"android":"levelo://app?vid=0edca28e-bb2a-4eed-a9fd-458177a3a120","ios":"levelo://app?vid=0edca28e-bb2a-4eed-a9fd-458177a3a120"},"vehicle_type_id":"4","last_reported":1742649269,"current_range_meters":17200,"station_id":"ce4bgh92rcd13ifvqb50","pricing_plan_id":"cebpf4jnsgd1na2vs0mg"},{"bike_id":"1b642c79-cfe3-40a8-a16d-083491e95c07","system_id":"levelo_inurba_marseille","lat":43.28477,"lon":5.38576,"is_reserved":false,"is_disabled":false,"rental_uris":{"android":"levelo://app?vid=1b642c79-cfe3-40a8-a16d-083491e95c07","ios":"levelo://app?vid=1b642c79-cfe3-40a8-a16d-083491e95c07"},"vehicle_type_id":"4","last_reported":1742649269,"current_range_meters":17200,"station_id":"ce4bh8p2rcd13ifvqeb0","pricing_plan_id":"cebpf4jnsgd1na2vs0mg"},{"bike_id":"cb7c7ca2-01de-49dd-983f-c64a8c68b238","system_id":"levelo_inurba_marseille","lat":43.26218,"lon":5.37451,"is_reserved":false,"is_disabled":false,"rental_uris":{"android":"levelo://app?vid=cb7c7ca2-01de-49dd-983f-c64a8c68b238","ios":"levelo://app?vid=cb7c7ca2-01de-49dd-983f-c64a8c68b238"},"vehicle_type_id":"4","last_reported":1742649269,"current_range_meters":17200,"station_id":"ce4bhgp2rcd13ifvqfc0","pricing_plan_id":"cebpf4jnsgd1na2vs0mg"},{"bike_id":"4dd86b78-ed35-4d10-89a9-368789ee229c","system_id":"levelo_inurba_marseille","lat":43.245195,"lon":5.389616,"is_reserved":false,"is_disabled":false,"rental_uris":{"android":"levelo://app?vid=4dd86b78-ed35-4d10-89a9-368789ee229c","ios":"levelo://app?vid=4dd86b78-ed35-4d10-89a9-368789ee229c"},"vehicle_type_id":"4","last_reported":1742649269,"current_range_meters":17200,"station_id":"ce4bhgh2rcd13ifvqfb0","pricing_plan_id":"cebpf4jnsgd1na2vs0mg"},{"bike_id":"f657da43-9a05-4822-9c77-ad8671579423","system_id":"levelo_inurba_marseille","lat":43.29572,"lon":5.39971,"is_reserved":false,"is_disabled":true,"rental_uris":{"android":"levelo://app?vid=f657da43-9a05-4822-9c77-ad8671579423","ios":"levelo://app?vid=f657da43-9a05-4822-9c77-ad8671579423"},"vehicle_type_id":"4","last_reported":1742649269,"current_range_meters":17200,"station_id":"ce4bh312rcd13ifvqdj0","pricing_plan_id":"cebpf4jnsgd1na2vs0mg"},{"bike_id":"df1ddf11-1144-4b68-8219-400ef4c644d5","system_id":"levelo_inurba_marseille","lat":43.29852,"lon":5.3629,"is_reserved":false,"is_disabled":false,"rental_uris":{"android":"levelo://app?vid=df1ddf11-1144-4b68-8219-400ef4c644d5","ios":"levelo://app?vid=df1ddf11-1144-4b68-8219-400ef4c644d5"},"vehicle_type_id":"4","last_reported":1742649269,"current_range_meters":17200,"station_id":"ce4bgpp2rcd13ifvqc3g","pricing_plan_id":"cebpf4jnsgd1na2vs0mg"},{"bike_id":"2d7c815c-5902-4c78-a7d5-20ec5920b85f","system_id":"levelo_inurba_marseille","lat":43.27997,"lon":5.40022,"is_reserved":false,"is_disabled":false,"rental_uris":{"android":"levelo://app?vid=2d7c815c-5902-4c78-a7d5-20ec5920b85f","ios":"levelo://app?vid=2d7c815c-5902-4c78-a7d5-20ec5920b85f"},"vehicle_type_id":"4","last_reported":1742649269,"current_range_meters":17600,"station_id":"ce4bho92rcd13ifvqh4g","pricing_plan_id":"cebpf4jnsgd1na2vs0mg"},{"bike_id":"1782ab0b-e1e6-47a0-829c-a218614508d1","system_id":"levelo_inurba_marseille","lat":43.26203,"lon":5.37927,"is_reserved":false,"is_disabled":false,"rental_uris":{"android":"levelo://app?vid=1782ab0b-e1e6-47a0-829c-a218614508d1","ios":"levelo://app?vid=1782ab0b-e1e6-47a0-829c-a218614508d1"},"vehicle_type_id":"4","last_reported":1742649269,"current_range_meters":17600,"station_id":"ce4bhjp2rcd13ifvqg90","pricing_plan_id":"cebpf4jnsgd1na2vs0mg"},{"bike_id":"95f2bc9a-b60c-4699-b873-416be36badfc","system_id":"levelo_inurba_marseille","lat":43.26193,"lon":5.37923,"is_reserved":false,"is_disabled":false,"rental_uris":{"android":"levelo://app?vid=95f2bc9a-b60c-4699-b873-416be36badfc","ios":"levelo://app?vid=95f2bc9a-b60c-4699-b873-416be36badfc"},"vehicle_type_id":"4","last_reported":1742649269,"current_range_meters":17600,"station_id":"ce4bhjp2rcd13ifvqg90","pricing_plan_id":"cebpf4jnsgd1na2vs0mg"},{"bike_id":"3bfbd693-4245-4281-88bd-3df0f5f2b072","system_id":"levelo_inurba_marseille","lat":43.2415,"lon":5.3641,"is_reserved":false,"is_disabled":false,"rental_uris":{"android":"levelo://app?vid=3bfbd693-4245-4281-88bd-3df0f5f2b072","ios":"levelo://app?vid=3bfbd693-4245-4281-88bd-3df0f5f2b072"},"vehicle_type_id":"4","last_reported":1742649269,"current_range_meters":17600,"station_id":"cpo36qri1sfpv3e86is0","pricing_plan_id":"cebpf4jnsgd1na2vs0mg"},{"bike_id":"8ac76298-3375-4b96-8a90-9315b1510fa4","system_id":"levelo_inurba_marseille","lat":43.27859,"lon":5.4074,"is_reserved":false,"is_disabled":true,"rental_uris":{"android":"levelo://app?vid=8ac76298-3375-4b96-8a90-9315b1510fa4","ios":"levelo://app?vid=8ac76298-3375-4b96-8a90-9315b1510fa4"},"vehicle_type_id":"4","last_reported":1742649269,"current_range_meters":17600,"station_id":"ce4bhnh2rcd13ifvqgtg","pricing_plan_id":"cebpf4jnsgd1na2vs0mg"},{"bike_id":"bf99e07f-b0fc-4d23-aea1-cd1b3f2142cd","system_id":"levelo_inurba_marseille","lat":43.29808,"lon":5.38104,"is_reserved":false,"is_disabled":false,"rental_uris":{"android":"levelo://app?vid=bf99e07f-b0fc-4d23-aea1-cd1b3f2142cd","ios":"levelo://app?vid=bf99e07f-b0fc-4d23-aea1-cd1b3f2142cd"},"vehicle_type_id":"4","last_reported":1742649269,"current_range_meters":17600,"station_id":"ce4bgip2rcd13ifvqbb0","pricing_plan_id":"cebpf4jnsgd1na2vs0mg"},{"bike_id":"c700eee3-fdc2-4ac8-9026-8c342356f994","system_id":"levelo_inurba_marseille","lat":43.27569,"lon":5.3841,"is_reserved":false,"is_disabled":false,"rental_uris":{"android":"levelo://app?vid=c700eee3-fdc2-4ac8-9026-8c342356f994","ios":"levelo://app?vid=c700eee3-fdc2-4ac8-9026-8c342356f994"},"vehicle_type_id":"4","last_reported":1742649269,"current_range_meters":17600,"station_id":"ce4bhh92rcd13ifvqfi0","pricing_plan_id":"cebpf4jnsgd1na2vs0mg"},{"bike_id":"f46b30f1-2dee-4050-afb2-2b8e0898b469","system_id":"levelo_inurba_marseille","lat":43.24824,"lon":5.37459,"is_reserved":false,"is_disabled":false,"rental_uris":{"android":"levelo://app?vid=f46b30f1-2dee-4050-afb2-2b8e0898b469","ios":"levelo://app?vid=f46b30f1-2dee-4050-afb2-2b8e0898b469"},"vehicle_type_id":"4","last_reported":1742649269,"current_range_meters":17600,"station_id":"ce4bhgh2rcd13ifvqfb0","pricing_plan_id":"cebpf4jnsgd1na2vs0mg"},{"bike_id":"0b1dc631-c9e7-4faf-bb69-8f994665189e","system_id":"levelo_inurba_marseille","lat":43.25831,"lon":5.39421,"is_reserved":false,"is_disabled":false,"rental_uris":{"android":"levelo://app?vid=0b1dc631-c9e7-4faf-bb69-8f994665189e","ios":"levelo://app?vid=0b1dc631-c9e7-4faf-bb69-8f994665189e"},"vehicle_type_id":"4","last_reported":1742649269,"current_range_meters":17600,"station_id":"ce4bhip2rcd13ifvqft0","pricing_plan_id":"cebpf4jnsgd1na2vs0mg"},{"bike_id":"b668833d-2b78-41e8-baf2-b1355b4893e6","system_id":"levelo_inurba_marseille","lat":43.2941,"lon":5.3935,"is_reserved":false,"is_disabled":false,"rental_uris":{"android":"levelo://app?vid=b668833d-2b78-41e8-baf2-b1355b4893e6","ios":"levelo://app?vid=b668833d-2b78-41e8-baf2-b1355b4893e6"},"vehicle_type_id":"4","last_reported":1742649269,"current_range_meters":17600,"station_id":"","pricing_plan_id":"cebpf4jnsgd1na2vs0mg"},{"bike_id":"e385b533-8d5e-4d2a-b163-e7dc5aa3deb3","system_id":"levelo_inurba_marseille","lat":43.30486,"lon":5.37912,"is_reserved":false,"is_disabled":false,"rental_uris":{"android":"levelo://app?vid=e385b533-8d5e-4d2a-b163-e7dc5aa3deb3","ios":"levelo://app?vid=e385b533-8d5e-4d2a-b163-e7dc5aa3deb3"},"vehicle_type_id":"4","last_reported":1742649269,"current_range_meters":17600,"station_id":"ce4bgup2rcd13ifvqcn0","pricing_plan_id":"cebpf4jnsgd1na2vs0mg"},{"bike_id":"9f1aa6e3-12d9-4363-807d-3fbd3cb89d26","system_id":"levelo_inurba_marseille","lat":43.30484,"lon":5.37914,"is_reserved":false,"is_disabled":false,"rental_uris":{"android":"levelo://app?vid=9f1aa6e3-12d9-4363-807d-3fbd3cb89d26","ios":"levelo://app?vid=9f1aa6e3-12d9-4363-807d-3fbd3cb89d26"},"vehicle_type_id":"4","last_reported":1742649269,"current_range_meters":18000,"station_id":"ce4bgup2rcd13ifvqcn0","pricing_plan_id":"cebpf4jnsgd1na2vs0mg"},{"bike_id":"70dd5e63-c1af-4541-93fc-654ea63484a5","system_id":"levelo_inurba_marseille","lat":43.31069,"lon":5.38356,"is_reserved":false,"is_disabled":false,"rental_uris":{"android":"levelo://app?vid=70dd5e63-c1af-4541-93fc-654ea63484a5","ios":"levelo://app?vid=70dd5e63-c1af-4541-93fc-654ea63484a5"},"vehicle_type_id":"4","last_reported":1742649269,"current_range_meters":18000,"station_id":"ce4bgv92rcd13ifvqcr0","pricing_plan_id":"cebpf4jnsgd1na2vs0mg"},{"bike_id":"c456bf37-0179-4bfa-9d9d-e1813b19bd1f","system_id":"levelo_inurba_marseille","lat":43.30806,"lon":5.43533,"is_reserved":false,"is_disabled":false,"rental_uris":{"android":"levelo://app?vid=c456bf37-0179-4bfa-9d9d-e1813b19bd1f","ios":"levelo://app?vid=c456bf37-0179-4bfa-9d9d-e1813b19bd1f"},"vehicle_type_id":"4","last_reported":1742649269,"current_range_meters":18000,"station_id":"ce4bhph2rcd13ifvqheg","pricing_plan_id":"cebpf4jnsgd1na2vs0mg"},{"bike_id":"17238c44-02e8-4ba3-abe3-5ae6a9cab49f","system_id":"levelo_inurba_marseille","lat":43.31773,"lon":5.39012,"is_reserved":false,"is_disabled":true,"rental_uris":{"android":"levelo://app?vid=17238c44-02e8-4ba3-abe3-5ae6a9cab49f","ios":"levelo://app?vid=17238c44-02e8-4ba3-abe3-5ae6a9cab49f"},"vehicle_type_id":"4","last_reported":1742649269,"current_range_meters":18000,"station_id":"ce4bhqp2rcd13ifvqhng","pricing_plan_id":"cebpf4jnsgd1na2vs0mg"},{"bike_id":"adbda35d-dcc5-406b-8378-7cdca769c4ce","system_id":"levelo_inurba_marseille","lat":43.29717,"lon":5.36609,"is_reserved":false,"is_disabled":false,"rental_uris":{"android":"levelo://app?vid=adbda35d-dcc5-406b-8378-7cdca769c4ce","ios":"levelo://app?vid=adbda35d-dcc5-406b-8378-7cdca769c4ce"},"vehicle_type_id":"4","last_reported":1742649269,"current_range_meters":18000,"station_id":"ce4bgn12rcd13ifvqbt0","pricing_plan_id":"cebpf4jnsgd1na2vs0mg"},{"bike_id":"7d226086-b889-4c34-8c9e-4e9c7baa0cd2","system_id":"levelo_inurba_marseille","lat":43.28457,"lon":5.35897,"is_reserved":false,"is_disabled":false,"rental_uris":{"android":"levelo://app?vid=7d226086-b889-4c34-8c9e-4e9c7baa0cd2","ios":"levelo://app?vid=7d226086-b889-4c34-8c9e-4e9c7baa0cd2"},"vehicle_type_id":"4","last_reported":1742649269,"current_range_meters":18000,"station_id":"ce4bhah2rcd13ifvqei0","pricing_plan_id":"cebpf4jnsgd1na2vs0mg"},{"bike_id":"aaa776b0-76df-4f80-993e-5dceed798cf8","system_id":"levelo_inurba_marseille","lat":43.28628,"lon":5.35084,"is_reserved":false,"is_disabled":false,"rental_uris":{"android":"levelo://app?vid=aaa776b0-76df-4f80-993e-5dceed798cf8","ios":"levelo://app?vid=aaa776b0-76df-4f80-993e-5dceed798cf8"},"vehicle_type_id":"4","last_reported":1742649269,"current_range_meters":18800,"station_id":"ce4bhch2rcd13ifvqeug","pricing_plan_id":"cebpf4jnsgd1na2vs0mg"},{"bike_id":"362ce256-d873-44d5-8d0c-8eb3060da6b1","system_id":"levelo_inurba_marseille","lat":43.28158,"lon":5.42647,"is_reserved":false,"is_disabled":false,"rental_uris":{"android":"levelo://app?vid=362ce256-d873-44d5-8d0c-8eb3060da6b1","ios":"levelo://app?vid=362ce256-d873-44d5-8d0c-8eb3060da6b1"},"vehicle_type_id":"4","last_reported":1742649269,"current_range_meters":18800,"station_id":"ce4bhnh2rcd13ifvqgug","pricing_plan_id":"cebpf4jnsgd1na2vs0mg"},{"bike_id":"0938b56b-1b86-4a75-89d8-7262543d0350","system_id":"levelo_inurba_marseille","lat":43.27916,"lon":5.39583,"is_reserved":false,"is_disabled":false,"rental_uris":{"android":"levelo://app?vid=0938b56b-1b86-4a75-89d8-7262543d0350","ios":"levelo://app?vid=0938b56b-1b86-4a75-89d8-7262543d0350"},"vehicle_type_id":"4","last_reported":1742649269,"current_range_meters":18800,"station_id":"ce4bhf92rcd13ifvqf40","pricing_plan_id":"cebpf4jnsgd1na2vs0mg"},{"bike_id":"acd44e3f-4e26-4a3e-8a93-6732a9c625ee","system_id":"levelo_inurba_marseille","lat":43.2841,"lon":5.34998,"is_reserved":false,"is_disabled":false,"rental_uris":{"android":"levelo://app?vid=acd44e3f-4e26-4a3e-8a93-6732a9c625ee","ios":"levelo://app?vid=acd44e3f-4e26-4a3e-8a93-6732a9c625ee"},"vehicle_type_id":"4","last_reported":1742649269,"current_range_meters":18800,"station_id":"ce4bhbh2rcd13ifvqepg","pricing_plan_id":"cebpf4jnsgd1na2vs0mg"},{"bike_id":"0fe230d4-ef3e-4c2b-b295-1d619e065139","system_id":"levelo_inurba_marseille","lat":43.24399,"lon":5.37062,"is_reserved":false,"is_disabled":false,"rental_uris":{"android":"levelo://app?vid=0fe230d4-ef3e-4c2b-b295-1d619e065139","ios":"levelo://app?vid=0fe230d4-ef3e-4c2b-b295-1d619e065139"},"vehicle_type_id":"4","last_reported":1742649269,"current_range_meters":18800,"station_id":"ce4bhhh2rcd13ifvqfk0","pricing_plan_id":"cebpf4jnsgd1na2vs0mg"},{"bike_id":"f9c3ceab-6503-4913-93e5-e8513e71e128","system_id":"levelo_inurba_marseille","lat":43.27911,"lon":5.38013,"is_reserved":false,"is_disabled":false,"rental_uris":{"android":"levelo://app?vid=f9c3ceab-6503-4913-93e5-e8513e71e128","ios":"levelo://app?vid=f9c3ceab-6503-4913-93e5-e8513e71e128"},"vehicle_type_id":"4","last_reported":1742649269,"current_range_meters":18000,"station_id":"ce4bhf92rcd13ifvqf50","pricing_plan_id":"cebpf4jnsgd1na2vs0mg"},{"bike_id":"125724fc-024f-4ceb-b71e-c2d526d7828e","system_id":"levelo_inurba_marseille","lat":43.27995,"lon":5.4002,"is_reserved":false,"is_disabled":false,"rental_uris":{"android":"levelo://app?vid=125724fc-024f-4ceb-b71e-c2d526d7828e","ios":"levelo://app?vid=125724fc-024f-4ceb-b71e-c2d526d7828e"},"vehicle_type_id":"4","last_reported":1742649269,"current_range_meters":18800,"station_id":"ce4bho92rcd13ifvqh4g","pricing_plan_id":"cebpf4jnsgd1na2vs0mg"},{"bike_id":"a61af1dc-ba0d-45bc-85ca-a4f531f2ac61","system_id":"levelo_inurba_marseille","lat":43.2957,"lon":5.37521,"is_reserved":false,"is_disabled":false,"rental_uris":{"android":"levelo://app?vid=a61af1dc-ba0d-45bc-85ca-a4f531f2ac61","ios":"levelo://app?vid=a61af1dc-ba0d-45bc-85ca-a4f531f2ac61"},"vehicle_type_id":"4","last_reported":1742649269,"current_range_meters":18800,"station_id":"ce4bgh92rcd13ifvqb50","pricing_plan_id":"cebpf4jnsgd1na2vs0mg"},{"bike_id":"f85fc5ba-648e-4bb7-93eb-30646fac9639","system_id":"levelo_inurba_marseille","lat":43.25113,"lon":5.4033,"is_reserved":false,"is_disabled":false,"rental_uris":{"android":"levelo://app?vid=f85fc5ba-648e-4bb7-93eb-30646fac9639","ios":"levelo://app?vid=f85fc5ba-648e-4bb7-93eb-30646fac9639"},"vehicle_type_id":"4","last_reported":1742649269,"current_range_meters":18800,"station_id":"ce4bhlh2rcd13ifvqgig","pricing_plan_id":"cebpf4jnsgd1na2vs0mg"},{"bike_id":"4d78ce73-3d12-4ca0-9506-ca3e82bcb26f","system_id":"levelo_inurba_marseille","lat":43.29697,"lon":5.36609,"is_reserved":false,"is_disabled":false,"rental_uris":{"android":"levelo://app?vid=4d78ce73-3d12-4ca0-9506-ca3e82bcb26f","ios":"levelo://app?vid=4d78ce73-3d12-4ca0-9506-ca3e82bcb26f"},"vehicle_type_id":"4","last_reported":1742649269,"current_range_meters":19200,"station_id":"ce4bgn12rcd13ifvqbt0","pricing_plan_id":"cebpf4jnsgd1na2vs0mg"},{"bike_id":"e258e0d8-7e82-49c3-8330-213ca880ed0b","system_id":"levelo_inurba_marseille","lat":43.27903,"lon":5.38003,"is_reserved":false,"is_disabled":false,"rental_uris":{"android":"levelo://app?vid=e258e0d8-7e82-49c3-8330-213ca880ed0b","ios":"levelo://app?vid=e258e0d8-7e82-49c3-8330-213ca880ed0b"},"vehicle_type_id":"4","last_reported":1742649269,"current_range_meters":19200,"station_id":"ce4bhf92rcd13ifvqf50","pricing_plan_id":"cebpf4jnsgd1na2vs0mg"},