{"last_updated":1712596041,"ttl":30,"version":"2.2","data":{"bikes":[{"bike_id":"99a2134b-199d-4c21-acab-0c7a07d6b892","system_id":"levelo_inurba_marseille","lat":43.31356,"lon":5.36721,"is_reserved":false,"is_disabled":false,"rental_uris":{"android":"levelo://app?vid=99a2134b-199d-4c21-acab-0c7a07d6b892","ios":"levelo://app?vid=99a2134b-199d-4c21-acab-0c7a07d6b892"},"vehicle_type_id":"4","last_reported":1712596041,"current_range_meters":0,"station_id":"ce4bgr92rcd13ifvqc6g","pricing_plan_id":"cebpf4jnsgd1na2vs0mg"},{"bike_id":"472833be-8150-407f-9c52-e6640ad37d52","system_id":"levelo_inurba_marseille","lat":43.312242,"lon":5.368544,"is_reserved":false,"is_disabled":false,"rental_uris":{"android":"levelo://app?vid=472833be-8150-407f-9c52-e6640ad37d52","ios":"levelo://app?vid=472833be-8150-407f-9c52-e6640ad37d52"},"vehicle_type_id":"4","last_reported":1712596041,"current_range_meters":0,"station_id":"ce4bgl92rcd13ifvqbq0","pricing_plan_id":"cebpf4jnsgd1na2vs0mg"},{"bike_id":"d73b87c1-fbc2-4caf-942d-6e5e2cf8d3df","system_id":"levelo_inurba_marseille","lat":43.3123,"lon":5.36859,"is_reserved":false,"is_disabled":false,"rental_uris":{"android":"levelo://app?vid=d73b87c1-fbc2-4caf-942d-6e5e2cf8d3df","ios":"levelo://app?vid=d73b87c1-fbc2-4caf-942d-6e5e2cf8d3df"},"vehicle_type_id":"4","last_reported":1712596041,"current_range_meters":15200,"station_id":"ce4bgl92rcd13ifvqbq0","pricing_plan_id":"cebpf4jnsgd1na2vs0mg"},{"bike_id":"b8b5bc8d-97ff-4172-b08a-26c98bdf8b10","system_id":"levelo_inurba_marseille","lat":43.304606,"lon":5.379026,"is_reserved":false,"is_disabled":false,"rental_uris":{"android":"levelo://app?vid=b8b5bc8d-97ff-4172-b08a-26c98bdf8b10","ios":"levelo://app?vid=b8b5bc8d-97ff-4172-b08a-26c98bdf8b10"},"vehicle_type_id":"4","last_reported":1712596041,"current_range_meters":400,"station_id":"ce4bgup2rcd13ifvqcn0","pricing_plan_id":"cebpf4jnsgd1na2vs0mg"},{"bike_id":"ce048506-a4c8-4611-8285-8290fc445e15","system_id":"levelo_inurba_marseille","lat":43.30922,"lon":5.36855,"is_reserved":false,"is_disabled":false,"rental_uris":{"android":"levelo://app?vid=ce048506-a4c8-4611-8285-8290fc445e15","ios":"levelo://app?vid=ce048506-a4c8-4611-8285-8290fc445e15"},"vehicle_type_id":"4","last_reported":1712596041,"current_range_meters":2400,"station_id":"ce4bgn92rcd13ifvqbvg","pricing_plan_id":"cebpf4jnsgd1na2vs0mg"},{"bike_id":"119b377e-4a24-4ec1-8e8b-6cff5cf7f50e","system_id":"levelo_inurba_marseille","lat":43.30909,"lon":5.36847,"is_reserved":false,"is_disabled":false,"rental_uris":{"android":"levelo://app?vid=119b377e-4a24-4ec1-8e8b-6cff5cf7f50e","ios":"levelo://app?vid=119b377e-4a24-4ec1-8e8b-6cff5cf7f50e"},"vehicle_type_id":"4","last_reported":1712596041,"current_range_meters":12400,"station_id":"ce4bgn92rcd13ifvqbvg","pricing_plan_id":"cebpf4jnsgd1na2vs0mg"},{"bike_id":"73706916-b3f3-4ff0-b068-cec67895e8b1","system_id":"levelo_inurba_marseille","lat":43.308439,"lon":5.367736,"is_reserved":false,"is_disabled":false,"rental_uris":{"android":"levelo://app?vid=73706916-b3f3-4ff0-b068-cec67895e8b1","ios":"levelo://app?vid=73706916-b3f3-4ff0-b068-cec67895e8b1"},"vehicle_type_id":"4","last_reported":1712596041,"current_range_meters":4000,"station_id":"","pricing_plan_id":"cebpf4jnsgd1na2vs0mg"},{"bike_id":"875fd2a1-19ed-4508-9dd4-ef071f0dce75","system_id":"levelo_inurba_marseille","lat":43.309039,"lon":5.371797,"is_reserved":false,"is_disabled":false,"rental_uris":{"android":"levelo://app?vid=875fd2a1-19ed-4508-9dd4-ef071f0dce75","ios":"levelo://app?vid=875fd2a1-19ed-4508-9dd4-ef071f0dce75"},"vehicle_type_id":"4","last_reported":1712596041,"current_range_meters":9600,"station_id":"ce4bguh2rcd13ifvqckg","pricing_plan_id":"cebpf4jnsgd1na2vs0mg"},{"bike_id":"8361b6d5-2d25-4183-94f7-4b749db3f64e","system_id":"levelo_inurba_marseille","lat":43.305368,"lon":5.367343,"is_reserved":false,"is_disabled":false,"rental_uris":{"android":"levelo://app?vid=8361b6d5-2d25-4183-94f7-4b749db3f64e","ios":"levelo://app?vid=8361b6d5-2d25-4183-94f7-4b749db3f64e"},"vehicle_type_id":"4","last_reported":1712596041,"current_range_meters":26400,"station_id":"ce4bgrp2rcd13ifvqc9g","pricing_plan_id":"cebpf4jnsgd1na2vs0mg"},{"bike_id":"6dd91774-71b6-47ea-bc6b-1472424a48e5","system_id":"levelo_inurba_marseille","lat":43.305714,"lon":5.365633,"is_reserved":false,"is_disabled":false,"rental_uris":{"android":"levelo://app?vid=6dd91774-71b6-47ea-bc6b-1472424a48e5","ios":"levelo://app?vid=6dd91774-71b6-47ea-bc6b-1472424a48e5"},"vehicle_type_id":"4","last_reported":1712596041,"current_range_meters":0,"station_id":"ce4bgs12rcd13ifvqcag","pricing_plan_id":"cebpf4jnsgd1na2vs0mg"},{"bike_id":"4ab64f1b-c392-46d1-ae52-af569a1bc865","system_id":"levelo_inurba_marseille","lat":43.30544,"lon":5.36542,"is_reserved":false,"is_disabled":false,"rental_uris":{"android":"levelo://app?vid=4ab64f1b-c392-46d1-ae52-af569a1bc865","ios":"levelo://app?vid=4ab64f1b-c392-46d1-ae52-af569a1bc865"},"vehicle_type_id":"4","last_reported":1712596041,"current_range_meters":0,"station_id":"ce4bgs12rcd13ifvqcag","pricing_plan_id":"cebpf4jnsgd1na2vs0mg"},{"bike_id":"990f4530-0179-4e5c-969d-eead5f0762d2","system_id":"levelo_inurba_marseille","lat":43.305368,"lon":5.367343,"is_reserved":false,"is_disabled":false,"rental_uris":{"android":"levelo://app?vid=990f4530-0179-4e5c-969d-eead5f0762d2","ios":"levelo://app?vid=990f4530-0179-4e5c-969d-eead5f0762d2"},"vehicle_type_id":"4","last_reported":1712596041,"current_range_meters":16400,"station_id":"ce4bgrp2rcd13ifvqc9g","pricing_plan_id":"cebpf4jnsgd1na2vs0mg"},{"bike_id":"82847911-5bc1-4f9b-a700-62f49aeb8918","system_id":"levelo_inurba_marseille","lat":43.29529,"lon":5.385581,"is_reserved":false,"is_disabled":false,"rental_uris":{"android":"levelo://app?vid=82847911-5bc1-4f9b-a700-62f49aeb8918","ios":"levelo://app?vid=82847911-5bc1-4f9b-a700-62f49aeb8918"},"vehicle_type_id":"4","last_reported":1712596041,"current_range_meters":18400,"station_id":"ce4bgih2rcd13ifvqba0","pricing_plan_id":"cebpf4jnsgd1na2vs0mg"},{"bike_id":"91ab4b05-89bd-47f8-b3ea-d5997f026dc9","system_id":"levelo_inurba_marseille","lat":43.269319,"lon":5.389397,"is_reserved":false,"is_disabled":false,"rental_uris":{"android":"levelo://app?vid=91ab4b05-89bd-47f8-b3ea-d5997f026dc9","ios":"levelo://app?vid=91ab4b05-89bd-47f8-b3ea-d5997f026dc9"},"vehicle_type_id":"4","last_reported":1712596041,"current_range_meters":4000,"station_id":"ce4bhhh2rcd13ifvqfl0","pricing_plan_id":"cebpf4jnsgd1na2vs0mg"},{"bike_id":"3d985235-2f99-41d9-bb52-25ad2d8496d7","system_id":"levelo_inurba_marseille","lat":43.31119,"lon":5.37758,"is_reserved":false,"is_disabled":false,"rental_uris":{"android":"levelo://app?vid=3d985235-2f99-41d9-bb52-25ad2d8496d7","ios":"levelo://app?vid=3d985235-2f99-41d9-bb52-25ad2d8496d7"},"vehicle_type_id":"4","last_reported":1712596041,"current_range_meters":13600,"station_id":"ce4bgt92rcd13ifvqcg0","pricing_plan_id":"cebpf4jnsgd1na2vs0mg"},{"bike_id":"34830649-e76c-48d6-bcdc-164d39991e59","system_id":"levelo_inurba_marseille","lat":43.311125,"lon":5.377624,"is_reserved":false,"is_disabled":false,"rental_uris":{"android":"levelo://app?vid=34830649-e76c-48d6-bcdc-164d39991e59","ios":"levelo://app?vid=34830649-e76c-48d6-bcdc-164d39991e59"},"vehicle_type_id":"4","last_reported":1712596041,"current_range_meters":14400,"station_id":"ce4bgt92rcd13ifvqcg0","pricing_plan_id":"cebpf4jnsgd1na2vs0mg"},{"bike_id":"145107a3-e61f-4d6f-940b-6bb32e450fa6","system_id":"levelo_inurba_marseille","lat":43.311125,"lon":5.377624,"is_reserved":false,"is_disabled":false,"rental_uris":{"android":"levelo://app?vid=145107a3-e61f-4d6f-940b-6bb32e450fa6","ios":"levelo://app?vid=145107a3-e61f-4d6f-940b-6bb32e450fa6"},"vehicle_type_id":"4","last_reported":1712596041,"current_range_meters":18400,"station_id":"ce4bgt92rcd13ifvqcg0","pricing_plan_id":"cebpf4jnsgd1na2vs0mg"},{"bike_id":"a62fe581-7d76-4dc7-a506-9217374ebf12","system_id":"levelo_inurba_marseille","lat":43.311131,"lon":5.377651,"is_reserved":false,"is_disabled":false,"rental_uris":{"android":"levelo://app?vid=a62fe581-7d76-4dc7-a506-9217374ebf12","ios":"levelo://app?vid=a62fe581-7d76-4dc7-a506-9217374ebf12"},"vehicle_type_id":"4","last_reported":1712596041,"current_range_meters":0,"station_id":"ce4bgt92rcd13ifvqcg0","pricing_plan_id":"cebpf4jnsgd1na2vs0mg"},{"bike_id":"b365b9a7-c686-42db-af3c-21d31f83bb90","system_id":"levelo_inurba_marseille","lat":43.311131,"lon":5.377651,"is_reserved":false,"is_disabled":false,"rental_uris":{"android":"levelo://app?vid=b365b9a7-c686-42db-af3c-21d31f83bb90","ios":"levelo://app?vid=b365b9a7-c686-42db-af3c-21d31f83bb90"},"vehicle_type_id":"4","last_reported":1712596041,"current_range_meters":7600,"station_id":"ce4bgt92rcd13ifvqcg0","pricing_plan_id":"cebpf4jnsgd1na2vs0mg"},{"bike_id":"c5c6daaf-474a-4cc9-814b-0598aaf46336","system_id":"levelo_inurba_marseille","lat":43.311131,"lon":5.377651,"is_reserved":false,"is_disabled":false,"rental_uris":{"android":"levelo://app?vid=c5c6daaf-474a-4cc9-814b-0598aaf46336","ios":"levelo://app?vid=c5c6daaf-474a-4cc9-814b-0598aaf46336"},"vehicle_type_id":"4","last_reported":1712596041,"current_range_meters":17200,"station_id":"ce4bgt92rcd13ifvqcg0","pricing_plan_id":"cebpf4jnsgd1na2vs0mg"},{"bike_id":"f42487ec-df86-4aa6-8d0d-ea611cb43051","system_id":"levelo_inurba_marseille","lat":43.311131,"lon":5.377651,"is_reserved":false,"is_disabled":false,"rental_uris":{"android":"levelo://app?vid=f42487ec-df86-4aa6-8d0d-ea611cb43051","ios":"levelo://app?vid=f42487ec-df86-4aa6-8d0d-ea611cb43051"},"vehicle_type_id":"4","last_reported":1712596041,"current_range_meters":0,"station_id":"ce4bgt92rcd13ifvqcg0","pricing_plan_id":"cebpf4jnsgd1na2vs0mg"},{"bike_id":"7302a223-74d0-4885-9fd5-93c67961037a","system_id":"levelo_inurba_marseille","lat":43.30791,"lon":5.3764,"is_reserved":false,"is_disabled":false,"rental_uris":{"android":"levelo://app?vid=7302a223-74d0-4885-9fd5-93c67961037a","ios":"levelo://app?vid=7302a223-74d0-4885-9fd5-93c67961037a"},"vehicle_type_id":"4","last_reported":1712596041,"current_range_meters":13200,"station_id":"ce4bgv92rcd13ifvqcq0","pricing_plan_id":"cebpf4jnsgd1na2vs0mg"},{"bike_id":"58b0288d-29eb-4153-899a-6aa1145d5a94","system_id":"levelo_inurba_marseille","lat":43.307945,"lon":5.376487,"is_reserved":false,"is_disabled":false,"rental_uris":{"android":"levelo://app?vid=58b0288d-29eb-4153-899a-6aa1145d5a94","ios":"levelo://app?vid=58b0288d-29eb-4153-899a-6aa1145d5a94"},"vehicle_type_id":"4","last_reported":1712596041,"current_range_meters":10400,"station_id":"ce4bgv92rcd13ifvqcq0","pricing_plan_id":"cebpf4jnsgd1na2vs0mg"},{"bike_id":"a5a75cc5-15fc-4c82-96fa-51e899d34495","system_id":"levelo_inurba_marseille","lat":43.303046,"lon":5.368981,"is_reserved":false,"is_disabled":false,"rental_uris":{"android":"levelo://app?vid=a5a75cc5-15fc-4c82-96fa-51e899d34495","ios":"levelo://app?vid=a5a75cc5-15fc-4c82-96fa-51e899d34495"},"vehicle_type_id":"4","last_reported":1712596041,"current_range_meters":0,"station_id":"ce4bgqh2rcd13ifvqc5g","pricing_plan_id":"cebpf4jnsgd1na2vs0mg"},{"bike_id":"a475b751-6b26-4cee-993e-d4f2126067b7","system_id":"levelo_inurba_marseille","lat":43.30298,"lon":5.36905,"is_reserved":false,"is_disabled":false,"rental_uris":{"android":"levelo://app?vid=a475b751-6b26-4cee-993e-d4f2126067b7","ios":"levelo://app?vid=a475b751-6b26-4cee-993e-d4f2126067b7"},"vehicle_type_id":"4","last_reported":1712596041,"current_range_meters":0,"station_id":"ce4bgqh2rcd13ifvqc5g","pricing_plan_id":"cebpf4jnsgd1na2vs0mg"},{"bike_id":"aca00e68-699e-4e24-9c3a-ab2674a67277","system_id":"levelo_inurba_marseille","lat":43.303046,"lon":5.368981,"is_reserved":false,"is_disabled":false,"rental_uris":{"android":"levelo://app?vid=aca00e68-699e-4e24-9c3a-ab2674a67277","ios":"levelo://app?vid=aca00e68-699e-4e24-9c3a-ab2674a67277"},"vehicle_type_id":"4","last_reported":1712596041,"current_range_meters":0,"station_id":"ce4bgqh2rcd13ifvqc5g","pricing_plan_id":"cebpf4jnsgd1na2vs0mg"},{"bike_id":"a0a446ac-493f-4c63-aa68-0ebe8a4c585a","system_id":"levelo_inurba_marseille","lat":43.315293,"lon":5.380349,"is_reserved":false,"is_disabled":false,"rental_uris":{"android":"levelo://app?vid=a0a446ac-493f-4c63-aa68-0ebe8a4c585a","ios":"levelo://app?vid=a0a446ac-493f-4c63-aa68-0ebe8a4c585a"},"vehicle_type_id":"4","last_reported":1712596041,"current_range_meters":22000,"station_id":"ce4bhsp2rcd13ifvqi50","pricing_plan_id":"cebpf4jnsgd1na2vs0mg"},{"bike_id":"92bc7399-da99-45fe-8eda-149893c05416","system_id":"levelo_inurba_marseille","lat":43.30461,"lon":5.37901,"is_reserved":false,"is_disabled":false,"rental_uris":{"android":"levelo://app?vid=92bc7399-da99-45fe-8eda-149893c05416","ios":"levelo://app?vid=92bc7399-da99-45fe-8eda-149893c05416"},"vehicle_type_id":"4","last_reported":1712596041,"current_range_meters":0,"station_id":"ce4bgup2rcd13ifvqcn0","pricing_plan_id":"cebpf4jnsgd1na2vs0mg"},{"bike_id":"f2f0a323-f4cf-4d69-bda0-3382b45e92bd","system_id":"levelo_inurba_marseille","lat":43.32475,"lon":5.36566,"is_reserved":false,"is_disabled":false,"rental_uris":{"android":"levelo://app?vid=f2f0a323-f4cf-4d69-bda0-3382b45e92bd","ios":"levelo://app?vid=f2f0a323-f4cf-4d69-bda0-3382b45e92bd"},"vehicle_type_id":"4","last_reported":1712596041,"current_range_meters":10400,"station_id":"ce4bhs12rcd13ifvqhvg","pricing_plan_id":"cebpf4jnsgd1na2vs0mg"},{"bike_id":"dd1eeaf3-7ce5-435e-b6c8-fd616106d621","system_id":"levelo_inurba_marseille","lat":43.324771,"lon":5.36557,"is_reserved":false,"is_disabled":false,"rental_uris":{"android":"levelo://app?vid=dd1eeaf3-7ce5-435e-b6c8-fd616106d621","ios":"levelo://app?vid=dd1eeaf3-7ce5-435e-b6c8-fd616106d621"},"vehicle_type_id":"4","last_reported":1712596041,"current_range_meters":20400,"station_id":"ce4bhs12rcd13ifvqhvg","pricing_plan_id":"cebpf4jnsgd1na2vs0mg"},{"bike_id":"d453f5f1-b263-477b-864b-bf2146099cf6","system_id":"levelo_inurba_marseille","lat":43.324771,"lon":5.36557,"is_reserved":false,"is_disabled":false,"rental_uris":{"android":"levelo://app?vid=d453f5f1-b263-477b-864b-bf2146099cf6","ios":"levelo://app?vid=d453f5f1-b263-477b-864b-bf2146099cf6"},"vehicle_type_id":"4","last_reported":1712596041,"current_range_meters":20000,"station_id":"ce4bhs12rcd13ifvqhvg","pricing_plan_id":"cebpf4jnsgd1na2vs0mg"},{"bike_id":"d12e7c2e-a3f2-4647-9ec1-aad839340afa","system_id":"levelo_inurba_marseille","lat":43.324771,"lon":5.36557,"is_reserved":false,"is_disabled":false,"rental_uris":{"android":"levelo://app?vid=d12e7c2e-a3f2-4647-9ec1-aad839340afa","ios":"levelo://app?vid=d12e7c2e-a3f2-4647-9ec1-aad839340afa"},"vehicle_type_id":"4","last_reported":1712596041,"current_range_meters":15200,"station_id":"ce4bhs12rcd13ifvqhvg","pricing_plan_id":"cebpf4jnsgd1na2vs0mg"},{"bike_id":"d3b996e9-4da1-4b89-87ff-4d5a0f28982e","system_id":"levelo_inurba_marseille","lat":43.324771,"lon":5.36557,"is_reserved":false,"is_disabled":false,"rental_uris":{"android":"levelo://app?vid=d3b996e9-4da1-4b89-87ff-4d5a0f28982e","ios":"levelo://app?vid=d3b996e9-4da1-4b89-87ff-4d5a0f28982e"},"vehicle_type_id":"4","last_reported":1712596041,"current_range_meters":16000,"station_id":"ce4bhs12rcd13ifvqhvg","pricing_plan_id":"cebpf4jnsgd1na2vs0mg"},{"bike_id":"ae9751a8-2016-4a84-aeba-1adb7b63fea8","system_id":"levelo_inurba_marseille","lat":43.32479,"lon":5.36571,"is_reserved":false,"is_disabled":false,"rental_uris":{"android":"levelo://app?vid=ae9751a8-2016-4a84-aeba-1adb7b63fea8","ios":"levelo://app?vid=ae9751a8-2016-4a84-aeba-1adb7b63fea8"},"vehicle_type_id":"4","last_reported":1712596041,"current_range_meters":18400,"station_id":"ce4bhs12rcd13ifvqhvg","pricing_plan_id":"cebpf4jnsgd1na2vs0mg"},{"bike_id":"b7373fc7-088e-4fcb-9af9-2e8e176eee32","system_id":"levelo_inurba_marseille","lat":43.308051,"lon":5.43527,"is_reserved":false,"is_disabled":false,"rental_uris":{"android":"levelo://app?vid=b7373fc7-088e-4fcb-9af9-2e8e176eee32","ios":"levelo://app?vid=b7373fc7-088e-4fcb-9af9-2e8e176eee32"},"vehicle_type_id":"4","last_reported":1712596041,"current_range_meters":2000,"station_id":"ce4bhph2rcd13ifvqheg","pricing_plan_id":"cebpf4jnsgd1na2vs0mg"},{"bike_id":"93f39419-5cbf-400a-91d0-19b962f1e4df","system_id":"levelo_inurba_marseille","lat":43.324771,"lon":5.36557,"is_reserved":false,"is_disabled":false,"rental_uris":{"android":"levelo://app?vid=93f39419-5cbf-400a-91d0-19b962f1e4df","ios":"levelo://app?vid=93f39419-5cbf-400a-91d0-19b962f1e4df"},"vehicle_type_id":"4","last_reported":1712596041,"current_range_meters":6000,"station_id":"ce4bhs12rcd13ifvqhvg","pricing_plan_id":"cebpf4jnsgd1na2vs0mg"},{"bike_id":"b61f5fce-3370-4eb2-9cfe-757ef3a5f155","system_id":"levelo_inurba_marseille","lat":43.324771,"lon":5.36557,"is_reserved":false,"is_disabled":false,"rental_uris":{"android":"levelo://app?vid=b61f5fce-3370-4eb2-9cfe-757ef3a5f155","ios":"levelo://app?vid=b61f5fce-3370-4eb2-9cfe-757ef3a5f155"},"vehicle_type_id":"4","last_reported":1712596041,"current_range_meters":26000,"station_id":"ce4bhs12rcd13ifvqhvg","pricing_plan_id":"cebpf4jnsgd1na2vs0mg"},{"bike_id":"66efa47c-d8cc-47bd-b038-6b24ed7a5855","system_id":"levelo_inurba_marseille","lat":43.307945,"lon":5.376487,"is_reserved":false,"is_disabled":false,"rental_uris":{"android":"levelo://app?vid=66efa47c-d8cc-47bd-b038-6b24ed7a5855","ios":"levelo://app?vid=66efa47c-d8cc-47bd-b038-6b24ed7a5855"},"vehicle_type_id":"4","last_reported":1712596041,"current_range_meters":16400,"station_id":"ce4bgv92rcd13ifvqcq0","pricing_plan_id":"cebpf4jnsgd1na2vs0mg"},{"bike_id":"5cd7436a-1c11-4873-af7d-baa07ac34cd8","system_id":"levelo_inurba_marseille","lat":43.324771,"lon":5.36557,"is_reserved":false,"is_disabled":false,"rental_uris":{"android":"levelo://app?vid=5cd7436a-1c11-4873-af7d-baa07ac34cd8","ios":"levelo://app?vid=5cd7436a-1c11-4873-af7d-baa07ac34cd8"},"vehicle_type_id":"4","last_reported":1712596041,"current_range_meters":22000,"station_id":"ce4bhs12rcd13ifvqhvg","pricing_plan_id":"cebpf4jnsgd1na2vs0mg"},{"bike_id":"28a60fa5-83d7-47ac-8e02-bbd9305ed0d8","system_id":"levelo_inurba_marseille","lat":43.324771,"lon":5.36557,"is_reserved":false,"is_disabled":false,"rental_uris":{"android":"levelo://app?vid=28a60fa5-83d7-47ac-8e02-bbd9305ed0d8","ios":"levelo://app?vid=28a60fa5-83d7-47ac-8e02-bbd9305ed0d8"},"vehicle_type_id":"4","last_reported":1712596041,"current_range_meters":14800,"station_id":"ce4bhs12rcd13ifvqhvg","pricing_plan_id":"cebpf4jnsgd1na2vs0mg"},{"bike_id":"466fa14b-daa3-4177-b540-e71b4a8e6995","system_id":"levelo_inurba_marseille","lat":43.324771,"lon":5.36557,"is_reserved":false,"is_disabled":false,"rental_uris":{"android":"levelo://app?vid=466fa14b-daa3-4177-b540-e71b4a8e6995","ios":"levelo://app?vid=466fa14b-daa3-4177-b540-e71b4a8e6995"},"vehicle_type_id":"4","last_reported":1712596041,"current_range_meters":22000,"station_id":"ce4bhs12rcd13ifvqhvg","pricing_plan_id":"cebpf4jnsgd1na2vs0mg"},{"bike_id":"7f1175c4-0172-440d-b61d-b816cff96fbc","system_id":"levelo_inurba_marseille","lat":43.324771,"lon":5.36557,"is_reserved":false,"is_disabled":false,"rental_uris":{"android":"levelo://app?vid=7f1175c4-0172-440d-b61d-b816cff96fbc","ios":"levelo://app?vid=7f1175c4-0172-440d-b61d-b816cff96fbc"},"vehicle_type_id":"4","last_reported":1712596041,"current_range_meters":22000,"station_id":"ce4bhs12rcd13ifvqhvg","pricing_plan_id":"cebpf4jnsgd1na2vs0mg"},{"bike_id":"58ef712f-8d42-4587-9c74-1d003c156c4f","system_id":"levelo_inurba_marseille","lat":43.310804,"lon":5.38359,"is_reserved":false,"is_disabled":false,"rental_uris":{"android":"levelo://app?vid=58ef712f-8d42-4587-9c74-1d003c156c4f","ios":"levelo://app?vid=58ef712f-8d42-4587-9c74-1d003c156c4f"},"vehicle_type_id":"4","last_reported":1712596041,"current_range_meters":14000,"station_id":"ce4bgv92rcd13ifvqcr0","pricing_plan_id":"cebpf4jnsgd1na2vs0mg"},{"bike_id":"401fb76a-98c5-49a5-ba15-f5207165af14","system_id":"levelo_inurba_marseille","lat":43.310804,"lon":5.38359,"is_reserved":false,"is_disabled":false,"rental_uris":{"android":"levelo://app?vid=401fb76a-98c5-49a5-ba15-f5207165af14","ios":"levelo://app?vid=401fb76a-98c5-49a5-ba15-f5207165af14"},"vehicle_type_id":"4","last_reported":1712596041,"current_range_meters":16800,"station_id":"ce4bgv92rcd13ifvqcr0","pricing_plan_id":"cebpf4jnsgd1na2vs0mg"},{"bike_id":"271a1101-3e92-495b-9cdb-566a936c3569","system_id":"levelo_inurba_marseille","lat":43.30155,"lon":5.37415,"is_reserved":false,"is_disabled":false,"rental_uris":{"android":"levelo://app?vid=271a1101-3e92-495b-9cdb-566a936c3569","ios":"levelo://app?vid=271a1101-3e92-495b-9cdb-566a936c3569"},"vehicle_type_id":"4","last_reported":1712596041,"current_range_meters":16000,"station_id":"ce4bh2h2rcd13ifvqdh0","pricing_plan_id":"cebpf4jnsgd1na2vs0mg"},{"bike_id":"ab25b299-622e-4ba6-b8de-e3485120b218","system_id":"levelo_inurba_marseille","lat":43.30144,"lon":5.374156,"is_reserved":false,"is_disabled":false,"rental_uris":{"android":"levelo://app?vid=ab25b299-622e-4ba6-b8de-e3485120b218","ios":"levelo://app?vid=ab25b299-622e-4ba6-b8de-e3485120b218"},"vehicle_type_id":"4","last_reported":1712596041,"current_range_meters":0,"station_id":"ce4bgs92rcd13ifvqcc0","pricing_plan_id":"cebpf4jnsgd1na2vs0mg"},{"bike_id":"dd60a0b8-7a54-4805-9b16-f5f11246c2ce","system_id":"levelo_inurba_marseille","lat":43.30143,"lon":5.37413,"is_reserved":false,"is_disabled":false,"rental_uris":{"android":"levelo://app?vid=dd60a0b8-7a54-4805-9b16-f5f11246c2ce","ios":"levelo://app?vid=dd60a0b8-7a54-4805-9b16-f5f11246c2ce"},"vehicle_type_id":"4","last_reported":1712596041,"current_range_meters":0,"station_id":"ce4bgs92rcd13ifvqcc0","pricing_plan_id":"cebpf4jnsgd1na2vs0mg"},{"bike_id":"c489b8b2-8a8f-48dd-a128-9629415848e8","system_id":"levelo_inurba_marseille","lat":43.302784,"lon":5.377158,"is_reserved":false,"is_disabled":false,"rental_uris":{"android":"levelo://app?vid=c489b8b2-8a8f-48dd-a128-9629415848e8","ios":"levelo://app?vid=c489b8b2-8a8f-48dd-a128-9629415848e8"},"vehicle_type_id":"4","last_reported":1712596041,"current_range_meters":24400,"station_id":"ce4bguh2rcd13ifvqcj0","pricing_plan_id":"cebpf4jnsgd1na2vs0mg"},{"bike_id":"9b1c0880-6626-40f0-abbf-4e212257ba9c","system_id":"levelo_inurba_marseille","lat":43.306372,"lon":5.381801,"is_reserved":false,"is_disabled":false,"rental_uris":{"android":"levelo://app?vid=9b1c0880-6626-40f0-abbf-4e212257ba9c","ios":"levelo://app?vid=9b1c0880-6626-40f0-abbf-4e212257ba9c"},"vehicle_type_id":"4","last_reported":1712596041,"current_range_meters":10400,"station_id":"","pricing_plan_id":"cebpf4jnsgd1na2vs0mg"},{"bike_id":"cb06173a-eeca-4002-8c61-01e9a40d321a","system_id":"levelo_inurba_marseille","lat":43.313571,"lon":5.384829,"is_reserved":false,"is_disabled":false,"rental_uris":{"android":"levelo://app?vid=cb06173a-eeca-4002-8c61-01e9a40d321a","ios":"levelo://app?vid=cb06173a-eeca-4002-8c61-01e9a40d321a"},"vehicle_type_id":"4","last_reported":1712596041,"current_range_meters":15600,"station_id":"ce4bgt92rcd13ifvqcf0","pricing_plan_id":"cebpf4jnsgd1na2vs0mg"},{"bike_id":"401141a2-667a-44ca-8f2a-4842c9040d50","system_id":"levelo_inurba_marseille","lat":43.313571,"lon":5.384829,"is_reserved":false,"is_disabled":false,"rental_uris":{"android":"levelo://app?vid=401141a2-667a-44ca-8f2a-4842c9040d50","ios":"levelo://app?vid=401141a2-667a-44ca-8f2a-4842c9040d50"},"vehicle_type_id":"4","last_reported":1712596041,"current_range_meters":8800,"station_id":"ce4bgt92rcd13ifvqcf0","pricing_plan_id":"cebpf4jnsgd1na2vs0mg"},{"bike_id":"41b7066e-2809-40f6-bf38-247e0114748f","system_id":"levelo_inurba_marseille","lat":43.313571,"lon":5.384829,"is_reserved":false,"is_disabled":false,"rental_uris":{"android":"levelo://app?vid=41b7066e-2809-40f6-bf38-247e0114748f","ios":"levelo://app?vid=41b7066e-2809-40f6-bf38-247e0114748f"},"vehicle_type_id":"4","last_reported":1712596041,"current_range_meters":11200,"station_id":"ce4bgt92rcd13ifvqcf0","pricing_plan_id":"cebpf4jnsgd1na2vs0mg"},{"bike_id":"9347dba5-30fe-4f2a-ade5-055b14f8241a","system_id":"levelo_inurba_marseille","lat":43.313571,"lon":5.384829,"is_reserved":false,"is_disabled":false,"rental_uris":{"android":"levelo://app?vid=9347dba5-30fe-4f2a-ade5-055b14f8241a","ios":"levelo://app?vid=9347dba5-30fe-4f2a-ade5-055b14f8241a"},"vehicle_type_id":"4","last_reported":1712596041,"current_range_meters":7200,"station_id":"ce4bgt92rcd13ifvqcf0","pricing_plan_id":"cebpf4jnsgd1na2vs0mg"},{"bike_id":"7c8962ef-6f04-4721-b2ad-6891182af7f5","system_id":"levelo_inurba_marseille","lat":43.299724,"lon":5.371829,"is_reserved":false,"is_disabled":false,"rental_uris":{"android":"levelo://app?vid=7c8962ef-6f04-4721-b2ad-6891182af7f5","ios":"levelo://app?vid=7c8962ef-6f04-4721-b2ad-6891182af7f5"},"vehicle_type_id":"4","last_reported":1712596041,"current_range_meters":400,"station_id":"ce4bgr92rcd13ifvqc7g","pricing_plan_id":"cebpf4jnsgd1na2vs0mg"},{"bike_id":"ed3a0ffb-7cb9-40c6-9b97-bc0550760200","system_id":"levelo_inurba_marseille","lat":43.305364,"lon":5.384119,"is_reserved":false,"is_disabled":false,"rental_uris":{"android":"levelo://app?vid=ed3a0ffb-7cb9-40c6-9b97-bc0550760200","ios":"levelo://app?vid=ed3a0ffb-7cb9-40c6-9b97-bc0550760200"},"vehicle_type_id":"4","last_reported":1712596041,"current_range_meters":4400,"station_id":"ce4bgg92rcd13ifvqb30","pricing_plan_id":"cebpf4jnsgd1na2vs0mg"},{"bike_id":"1c7b513d-f8a2-49d9-95a6-fcf10680325a","system_id":"levelo_inurba_marseille","lat":43.299028,"lon":5.381509,"is_reserved":false,"is_disabled":false,"rental_uris":{"android":"levelo://app?vid=1c7b513d-f8a2-49d9-95a6-fcf10680325a","ios":"levelo://app?vid=1c7b513d-f8a2-49d9-95a6-fcf10680325a"},"vehicle_type_id":"4","last_reported":1712596041,"current_range_meters":16400,"station_id":"ce4bgj12rcd13ifvqbc0","pricing_plan_id":"cebpf4jnsgd1na2vs0mg"},{"bike_id":"9e796c95-860b-488c-853c-ee16d9140759","system_id":"levelo_inurba_marseille","lat":43.297794,"lon":5.370888,"is_reserved":false,"is_disabled":false,"rental_uris":{"android":"levelo://app?vid=9e796c95-860b-488c-853c-ee16d9140759","ios":"levelo://app?vid=9e796c95-860b-488c-853c-ee16d9140759"},"vehicle_type_id":"4","last_reported":1712596041,"current_range_meters":8400,"station_id":"ce4bgop2rcd13ifvqc1g","pricing_plan_id":"cebpf4jnsgd1na2vs0mg"},{"bike_id":"4f6a2b4c-6725-485d-83c3-05cad3f78400","system_id":"levelo_inurba_marseille","lat":43.322872,"lon":5.382756,"is_reserved":false,"is_disabled":false,"rental_uris":{"android":"levelo://app?vid=4f6a2b4c-6725-485d-83c3-05cad3f78400","ios":"levelo://app?vid=4f6a2b4c-6725-485d-83c3-05cad3f78400"},"vehicle_type_id":"4","last_reported":1712596041,"current_range_meters":14000,"station_id":"ce4bhr12rcd13ifvqhqg","pricing_plan_id":"cebpf4jnsgd1na2vs0mg"},{"bike_id":"ac63ec27-45a0-478a-8117-f0a1a60b5bef","system_id":"levelo_inurba_marseille","lat":43.322872,"lon":5.382756,"is_reserved":false,"is_disabled":false,"rental_uris":{"android":"levelo://app?vid=ac63ec27-45a0-478a-8117-f0a1a60b5bef","ios":"levelo://app?vid=ac63ec27-45a0-478a-8117-f0a1a60b5bef"},"vehicle_type_id":"4","last_reported":1712596041,"current_range_meters":4400,"station_id":"ce4bhr12rcd13ifvqhqg","pricing_plan_id":"cebpf4jnsgd1na2vs0mg"},{"bike_id":"ce262d47-6adc-4310-a652-b999cfa2d70d","system_id":"levelo_inurba_marseille","lat":43.322872,"lon":5.382756,"is_reserved":false,"is_disabled":false,"rental_uris":{"android":"levelo://app?vid=ce262d47-6adc-4310-a652-b999cfa2d70d","ios":"levelo://app?vid=ce262d47-6adc-4310-a652-b999cfa2d70d"},"vehicle_type_id":"4","last_reported":1712596041,"current_range_meters":4000,"station_id":"ce4bhr12rcd13ifvqhqg","pricing_plan_id":"cebpf4jnsgd1na2vs0mg"},{"bike_id":"96d52138-ce2e-44bd-be4c-0d59fc28ed5c","system_id":"levelo_inurba_marseille","lat":43.322872,"lon":5.382756,"is_reserved":false,"is_disabled":false,"rental_uris":{"android":"levelo://app?vid=96d52138-ce2e-44bd-be4c-0d59fc28ed5c","ios":"levelo://app?vid=96d52138-ce2e-44bd-be4c-0d59fc28ed5c"},"vehicle_type_id":"4","last_reported":1712596041,"current_range_meters":0,"station_id":"ce4bhr12rcd13ifvqhqg","pricing_plan_id":"cebpf4jnsgd1na2vs0mg"},{"bike_id":"0956b476-7a3c-4cec-80ea-40abbff133d9","system_id":"levelo_inurba_marseille","lat":43.322872,"lon":5.382756,"is_reserved":false,"is_disabled":false,"rental_uris":{"android":"levelo://app?vid=0956b476-7a3c-4cec-80ea-40abbff133d9","ios":"levelo://app?vid=0956b476-7a3c-4cec-80ea-40abbff133d9"},"vehicle_type_id":"4","last_reported":1712596041,"current_range_meters":11600,"station_id":"ce4bhr12rcd13ifvqhqg","pricing_plan_id":"cebpf4jnsgd1na2vs0mg"},{"bike_id":"29397e76-5613-4003-8850-c20ebf434ead","system_id":"levelo_inurba_marseille","lat":43.322872,"lon":5.382756,"is_reserved":false,"is_disabled":false,"rental_uris":{"android":"levelo://app?vid=29397e76-5613-4003-8850-c20ebf434ead","ios":"levelo://app?vid=29397e76-5613-4003-8850-c20ebf434ead"},"vehicle_type_id":"4","last_reported":1712596041,"current_range_meters":8400,"station_id":"ce4bhr12rcd13ifvqhqg","pricing_plan_id":"cebpf4jnsgd1na2vs0mg"},{"bike_id":"79a09dc1-a136-4553-b035-ca9b20a658e5","system_id":"levelo_inurba_marseille","lat":43.30181,"lon":5.3818,"is_reserved":false,"is_disabled":false,"rental_uris":{"android":"levelo://app?vid=79a09dc1-a136-4553-b035-ca9b20a658e5","ios":"levelo://app?vid=79a09dc1-a136-4553-b035-ca9b20a658e5"},"vehicle_type_id":"4","last_reported":1712596041,"current_range_meters":0,"station_id":"","pricing_plan_id":"cebpf4jnsgd1na2vs0mg"},{"bike_id":"6ed423b1-be09-49fa-806a-b1fc1e21aa67","system_id":"levelo_inurba_marseille","lat":43.297064,"lon":5.36598,"is_reserved":false,"is_disabled":false,"rental_uris":{"android":"levelo://app?vid=6ed423b1-be09-49fa-806a-b1fc1e21aa67","ios":"levelo://app?vid=6ed423b1-be09-49fa-806a-b1fc1e21aa67"},"vehicle_type_id":"4","last_reported":1712596041,"current_range_meters":31200,"station_id":"ce4bgn12rcd13ifvqbt0","pricing_plan_id":"cebpf4jnsgd1na2vs0mg"},{"bike_id":"7ff1eb5a-c423-4af5-ad19-30b95f6fa57d","system_id":"levelo_inurba_marseille","lat":43.298706,"lon":5.37698,"is_reserved":false,"is_disabled":false,"rental_uris":{"android":"levelo://app?vid=7ff1eb5a-c423-4af5-ad19-30b95f6fa57d","ios":"levelo://app?vid=7ff1eb5a-c423-4af5-ad19-30b95f6fa57d"},"vehicle_type_id":"4","last_reported":1712596041,"current_range_meters":6000,"station_id":"","pricing_plan_id":"cebpf4jnsgd1na2vs0mg"},{"bike_id":"1760da0c-7592-46cf-a4f4-2384abf26888","system_id":"levelo_inurba_marseille","lat":43.296131,"lon":5.370773,"is_reserved":false,"is_disabled":false,"rental_uris":{"android":"levelo://app?vid=1760da0c-7592-46cf-a4f4-2384abf26888","ios":"levelo://app?vid=1760da0c-7592-46cf-a4f4-2384abf26888"},"vehicle_type_id":"4","last_reported":1712596041,"current_range_meters":26800,"station_id":"ce4bgnh2rcd13ifvqc0g","pricing_plan_id":"cebpf4jnsgd1na2vs0mg"},{"bike_id":"be9b9fe0-e637-480d-8073-d947a649854d","system_id":"levelo_inurba_marseille","lat":43.29573,"lon":5.367355,"is_reserved":false,"is_disabled":false,"rental_uris":{"android":"levelo://app?vid=be9b9fe0-e637-480d-8073-d947a649854d","ios":"levelo://app?vid=be9b9fe0-e637-480d-8073-d947a649854d"},"vehicle_type_id":"4","last_reported":1712596041,"current_range_meters":27200,"station_id":"ce4bgph2rcd13ifvqc2g","pricing_plan_id":"cebpf4jnsgd1na2vs0mg"},{"bike_id":"3591fd7c-4b77-4fd8-a4ea-b445694aa542","system_id":"levelo_inurba_marseille","lat":43.297204,"lon":5.376934,"is_reserved":false,"is_disabled":false,"rental_uris":{"android":"levelo://app?vid=3591fd7c-4b77-4fd8-a4ea-b445694aa542","ios":"levelo://app?vid=3591fd7c-4b77-4fd8-a4ea-b445694aa542"},"vehicle_type_id":"4","last_reported":1712596041,"current_range_meters":0,"station_id":"ce4bgkh2rcd13ifvqbl0","pricing_plan_id":"cebpf4jnsgd1na2vs0mg"},{"bike_id":"f3261959-6e46-4ad5-955c-b0e72d7a7aa8","system_id":"levelo_inurba_marseille","lat":43.29714,"lon":5.37686,"is_reserved":false,"is_disabled":false,"rental_uris":{"android":"levelo://app?vid=f3261959-6e46-4ad5-955c-b0e72d7a7aa8","ios":"levelo://app?vid=f3261959-6e46-4ad5-955c-b0e72d7a7aa8"},"vehicle_type_id":"4","last_reported":1712596041,"current_range_meters":0,"station_id":"ce4bgkh2rcd13ifvqbl0","pricing_plan_id":"cebpf4jnsgd1na2vs0mg"},{"bike_id":"355aa015-6198-4b5e-ba3b-afb60e4e05d5","system_id":"levelo_inurba_marseille","lat":43.284462,"lon":5.392121,"is_reserved":false,"is_disabled":false,"rental_uris":{"android":"levelo://app?vid=355aa015-6198-4b5e-ba3b-afb60e4e05d5","ios":"levelo://app?vid=355aa015-6198-4b5e-ba3b-afb60e4e05d5"},"vehicle_type_id":"4","last_reported":1712596041,"current_range_meters":14000,"station_id":"ce4bhoh2rcd13ifvqh5g","pricing_plan_id":"cebpf4jnsgd1na2vs0mg"},{"bike_id":"95acabba-85c6-4ab5-93e4-7fdaeab2d4a7","system_id":"levelo_inurba_marseille","lat":43.299028,"lon":5.381509,"is_reserved":false,"is_disabled":false,"rental_uris":{"android":"levelo://app?vid=95acabba-85c6-4ab5-93e4-7fdaeab2d4a7","ios":"levelo://app?vid=95acabba-85c6-4ab5-93e4-7fdaeab2d4a7"},"vehicle_type_id":"4","last_reported":1712596041,"current_range_meters":0,"station_id":"ce4bgj12rcd13ifvqbc0","pricing_plan_id":"cebpf4jnsgd1na2vs0mg"},{"bike_id":"502178c0-e99d-4cea-95c3-876a1012c2df","system_id":"levelo_inurba_marseille","lat":43.309589,"lon":5.390258,"is_reserved":false,"is_disabled":false,"rental_uris":{"android":"levelo://app?vid=502178c0-e99d-4cea-95c3-876a1012c2df","ios":"levelo://app?vid=502178c0-e99d-4cea-95c3-876a1012c2df"},"vehicle_type_id":"4","last_reported":1712596041,"current_range_meters":0,"station_id":"ce4bgup2rcd13ifvqco0","pricing_plan_id":"cebpf4jnsgd1na2vs0mg"},{"bike_id":"aa90733f-2a36-4f93-a807-4b663480a3bc","system_id":"levelo_inurba_marseille","lat":43.309589,"lon":5.390258,"is_reserved":false,"is_disabled":false,"rental_uris":{"android":"levelo://app?vid=aa90733f-2a36-4f93-a807-4b663480a3bc","ios":"levelo://app?vid=aa90733f-2a36-4f93-a807-4b663480a3bc"},"vehicle_type_id":"4","last_reported":1712596041,"current_range_meters":18800,"station_id":"ce4bgup2rcd13ifvqco0","pricing_plan_id":"cebpf4jnsgd1na2vs0mg"},{"bike_id":"6406be8b-d53b-48f4-87a5-540b3f0b5838","system_id":"levelo_inurba_marseille","lat":43.309589,"lon":5.390258,"is_reserved":false,"is_disabled":false,"rental_uris":{"android":"levelo://app?vid=6406be8b-d53b-48f4-87a5-540b3f0b5838","ios":"levelo://app?vid=6406be8b-d53b-48f4-87a5-540b3f0b5838"},"vehicle_type_id":"4","last_reported":1712596041,"current_range_meters":800,"station_id":"ce4bgup2rcd13ifvqco0","pricing_plan_id":"cebpf4jnsgd1na2vs0mg"},{"bike_id":"9ca52ae4-10ff-4acf-92c8-84ecdb3bd128","system_id":"levelo_inurba_marseille","lat":43.309547,"lon":5.39034,"is_reserved":false,"is_disabled":false,"rental_uris":{"android":"levelo://app?vid=9ca52ae4-10ff-4acf-92c8-84ecdb3bd128","ios":"levelo://app?vid=9ca52ae4-10ff-4acf-92c8-84ecdb3bd128"},"vehicle_type_id":"4","last_reported":1712596041,"current_range_meters":0,"station_id":"ce4bgup2rcd13ifvqco0","pricing_plan_id":"cebpf4jnsgd1na2vs0mg"},{"bike_id":"07785478-4c24-48e8-a1ac-4e1ec32bfe0f","system_id":"levelo_inurba_marseille","lat":43.309589,"lon":5.390258,"is_reserved":false,"is_disabled":false,"rental_uris":{"android":"levelo://app?vid=07785478-4c24-48e8-a1ac-4e1ec32bfe0f","ios":"levelo://app?vid=07785478-4c24-48e8-a1ac-4e1ec32bfe0f"},"vehicle_type_id":"4","last_reported":1712596041,"current_range_meters":17600,"station_id":"ce4bgup2rcd13ifvqco0","pricing_plan_id":"cebpf4jnsgd1na2vs0mg"},{"bike_id":"587edd40-7fba-458a-b5bf-a6d7503a44f9","system_id":"levelo_inurba_marseille","lat":43.317557,"lon":5.390173,"is_reserved":false,"is_disabled":false,"rental_uris":{"android":"levelo://app?vid=587edd40-7fba-458a-b5bf-a6d7503a44f9","ios":"levelo://app?vid=587edd40-7fba-458a-b5bf-a6d7503a44f9"},"vehicle_type_id":"4","last_reported":1712596041,"current_range_meters":8000,"station_id":"ce4bhqp2rcd13ifvqhng","pricing_plan_id":"cebpf4jnsgd1na2vs0mg"},{"bike_id":"06f2a066-80dc-4d70-95fd-c78229197014","system_id":"levelo_inurba_marseille","lat":43.295748,"lon":5.37522,"is_reserved":false,"is_disabled":false,"rental_uris":{"android":"levelo://app?vid=06f2a066-80dc-4d70-95fd-c78229197014","ios":"levelo://app?vid=06f2a066-80dc-4d70-95fd-c78229197014"},"vehicle_type_id":"4","last_reported":1712596041,"current_range_meters":13600,"station_id":"ce4bgh92rcd13ifvqb50","pricing_plan_id":"cebpf4jnsgd1na2vs0mg"},{"bike_id":"e651bace-3ccb-402e-b675-26ca44435396","system_id":"levelo_inurba_marseille","lat":43.2979,"lon":5.38086,"is_reserved":false,"is_disabled":false,"rental_uris":{"android":"levelo://app?vid=e651bace-3ccb-402e-b675-26ca44435396","ios":"levelo://app?vid=e651bace-3ccb-402e-b675-26ca44435396"},"vehicle_type_id":"4","last_reported":1712596041,"current_range_meters":0,"station_id":"ce4bgip2rcd13ifvqbb0","pricing_plan_id":"cebpf4jnsgd1na2vs0mg"},{"bike_id":"d9238210-b937-482a-ae57-a64a9b35bba0","system_id":"levelo_inurba_marseille","lat":43.298037,"lon":5.381066,"is_reserved":false,"is_disabled":false,"rental_uris":{"android":"levelo://app?vid=d9238210-b937-482a-ae57-a64a9b35bba0","ios":"levelo://app?vid=d9238210-b937-482a-ae57-a64a9b35bba0"},"vehicle_type_id":"4","last_reported":1712596041,"current_range_meters":400,"station_id":"ce4bgip2rcd13ifvqbb0","pricing_plan_id":"cebpf4jnsgd1na2vs0mg"},{"bike_id":"6bf268ec-f7b1-423c-97d5-634bc95a61f6","system_id":"levelo_inurba_marseille","lat":43.29616,"lon":5.37648,"is_reserved":false,"is_disabled":false,"rental_uris":{"android":"levelo://app?vid=6bf268ec-f7b1-423c-97d5-634bc95a61f6","ios":"levelo://app?vid=6bf268ec-f7b1-423c-97d5-634bc95a61f6"},"vehicle_type_id":"4","last_reported":1712596041,"current_range_meters":0,"station_id":"","pricing_plan_id":"cebpf4jnsgd1na2vs0mg"},{"bike_id":"9cb98c37-46d9-4fa5-90bf-ed5253d3d033","system_id":"levelo_inurba_marseille","lat":43.296277,"lon":5.377108,"is_reserved":false,"is_disabled":false,"rental_uris":{"android":"levelo://app?vid=9cb98c37-46d9-4fa5-90bf-ed5253d3d033","ios":"levelo://app?vid=9cb98c37-46d9-4fa5-90bf-ed5253d3d033"},"vehicle_type_id":"4","last_reported":1712596041,"current_range_meters":9600,"station_id":"ce4bgi92rcd13ifvqb90","pricing_plan_id":"cebpf4jnsgd1na2vs0mg"},{"bike_id":"2fd42b58-2d89-4eb4-9c52-6e32ffef6faa","system_id":"levelo_inurba_marseille","lat":43.30436,"lon":5.38885,"is_reserved":false,"is_disabled":false,"rental_uris":{"android":"levelo://app?vid=2fd42b58-2d89-4eb4-9c52-6e32ffef6faa","ios":"levelo://app?vid=2fd42b58-2d89-4eb4-9c52-6e32ffef6faa"},"vehicle_type_id":"4","last_reported":1712596041,"current_range_meters":0,"station_id":"ce4bgk12rcd13ifvqbi0","pricing_plan_id":"cebpf4jnsgd1na2vs0mg"},{"bike_id":"0ba574b6-bad7-43f6-a463-28b1a60eeb46","system_id":"levelo_inurba_marseille","lat":43.30434,"lon":5.38888,"is_reserved":false,"is_disabled":false,"rental_uris":{"android":"levelo://app?vid=0ba574b6-bad7-43f6-a463-28b1a60eeb46","ios":"levelo://app?vid=0ba574b6-bad7-43f6-a463-28b1a60eeb46"},"vehicle_type_id":"4","last_reported":1712596041,"current_range_meters":9200,"station_id":"ce4bgk12rcd13ifvqbi0","pricing_plan_id":"cebpf4jnsgd1na2vs0mg"},{"bike_id":"ab98e810-967b-4dcc-82fe-09ff690ae9f5","system_id":"levelo_inurba_marseille","lat":43.290624,"lon":5.359245,"is_reserved":false,"is_disabled":false,"rental_uris":{"android":"levelo://app?vid=ab98e810-967b-4dcc-82fe-09ff690ae9f5","ios":"levelo://app?vid=ab98e810-967b-4dcc-82fe-09ff690ae9f5"},"vehicle_type_id":"4","last_reported":1712596041,"current_range_meters":22400,"station_id":"ce4bha92rcd13ifvqeg0","pricing_plan_id":"cebpf4jnsgd1na2vs0mg"},{"bike_id":"a26b062c-03fa-4f12-bbae-77888e31a991","system_id":"levelo_inurba_marseille","lat":43.3043,"lon":5.38891,"is_reserved":false,"is_disabled":false,"rental_uris":{"android":"levelo://app?vid=a26b062c-03fa-4f12-bbae-77888e31a991","ios":"levelo://app?vid=a26b062c-03fa-4f12-bbae-77888e31a991"},"vehicle_type_id":"4","last_reported":1712596041,"current_range_meters":3600,"station_id":"ce4bgk12rcd13ifvqbi0","pricing_plan_id":"cebpf4jnsgd1na2vs0mg"},{"bike_id":"b273c6d3-d42f-4840-bacd-cb0e6ebfc406","system_id":"levelo_inurba_marseille","lat":43.304278,"lon":5.388868,"is_reserved":false,"is_disabled":false,"rental_uris":{"android":"levelo://app?vid=b273c6d3-d42f-4840-bacd-cb0e6ebfc406","ios":"levelo://app?vid=b273c6d3-d42f-4840-bacd-cb0e6ebfc406"},"vehicle_type_id":"4","last_reported":1712596041,"current_range_meters":0,"station_id":"ce4bgk12rcd13ifvqbi0","pricing_plan_id":"cebpf4jnsgd1na2vs0mg"},{"bike_id":"4f3a2f23-6fea-4330-9120-5ea2895e76dd","system_id":"levelo_inurba_marseille","lat":43.292642,"lon":5.384254,"is_reserved":false,"is_disabled":false,"rental_uris":{"android":"levelo://app?vid=4f3a2f23-6fea-4330-9120-5ea2895e76dd","ios":"levelo://app?vid=4f3a2f23-6fea-4330-9120-5ea2895e76dd"},"vehicle_type_id":"4","last_reported":1712596041,"current_range_meters":4800,"station_id":"ce4bh692rcd13ifvqea0","pricing_plan_id":"cebpf4jnsgd1na2vs0mg"},{"bike_id":"aad2cb04-de95-4178-bf68-90cf1fad8a74","system_id":"levelo_inurba_marseille","lat":43.32367,"lon":5.388836,"is_reserved":false,"is_disabled":false,"rental_uris":{"android":"levelo://app?vid=aad2cb04-de95-4178-bf68-90cf1fad8a74","ios":"levelo://app?vid=aad2cb04-de95-4178-bf68-90cf1fad8a74"},"vehicle_type_id":"4","last_reported":1712596041,"current_range_meters":0,"station_id":"ce4bhqp2rcd13ifvqhog","pricing_plan_id":"cebpf4jnsgd1na2vs0mg"},{"bike_id":"81dd3d66-7953-45bb-89d2-19abec872555","system_id":"levelo_inurba_marseille","lat":43.295835,"lon":5.37656,"is_reserved":false,"is_disabled":false,"rental_uris":{"android":"levelo://app?vid=81dd3d66-7953-45bb-89d2-19abec872555","ios":"levelo://app?vid=81dd3d66-7953-45bb-89d2-19abec872555"},"vehicle_type_id":"4","last_reported":1712596041,"current_range_meters":22400,"station_id":"ce4bh9p2rcd13ifvqec0","pricing_plan_id":"cebpf4jnsgd1na2vs0mg"},{"bike_id":"dec90b39-65f2-4db1-b247-ab59f24e154c","system_id":"levelo_inurba_marseille","lat":43.29525,"lon":5.37501,"is_reserved":false,"is_disabled":false,"rental_uris":{"android":"levelo://app?vid=dec90b39-65f2-4db1-b247-ab59f24e154c","ios":"levelo://app?vid=dec90b39-65f2-4db1-b247-ab59f24e154c"},"vehicle_type_id":"4","last_reported":1712596041,"current_range_meters":9600,"station_id":"","pricing_plan_id":"cebpf4jnsgd1na2vs0mg"},{"bike_id":"fa0d53da-368a-4453-b781-535466e9b8df","system_id":"levelo_inurba_marseille","lat":43.29976,"lon":5.38496,"is_reserved":false,"is_disabled":false,"rental_uris":{"android":"levelo://app?vid=fa0d53da-368a-4453-b781-535466e9b8df","ios":"levelo://app?vid=fa0d53da-368a-4453-b781-535466e9b8df"},"vehicle_type_id":"4","last_reported":1712596041,"current_range_meters":0,"station_id":"ce4bgj92rcd13ifvqbd0","pricing_plan_id":"cebpf4jnsgd1na2vs0mg"},{"bike_id":"174aa527-e090-43ea-9bff-3b881e889c11","system_id":"levelo_inurba_marseille","lat":43.299743,"lon":5.384958,"is_reserved":false,"is_disabled":false,"rental_uris":{"android":"levelo://app?vid=174aa527-e090-43ea-9bff-3b881e889c11","ios":"levelo://app?vid=174aa527-e090-43ea-9bff-3b881e889c11"},"vehicle_type_id":"4","last_reported":1712596041,"current_range_meters":0,"station_id":"ce4bgj92rcd13ifvqbd0","pricing_plan_id":"cebpf4jnsgd1na2vs0mg"},{"bike_id":"b2f7e3e2-610b-4bee-8be6-a85edd99a5e4","system_id":"levelo_inurba_marseille","lat":43.29969,"lon":5.38495,"is_reserved":false,"is_disabled":false,"rental_uris":{"android":"levelo://app?vid=b2f7e3e2-610b-4bee-8be6-a85edd99a5e4","ios":"levelo://app?vid=b2f7e3e2-610b-4bee-8be6-a85edd99a5e4"},"vehicle_type_id":"4","last_reported":1712596041,"current_range_meters":0,"station_id":"ce4bgj92rcd13ifvqbd0","pricing_plan_id":"cebpf4jnsgd1na2vs0mg"},{"bike_id":"67277bd7-ee7f-4b93-8bfc-fc8f7b5f6774","system_id":"levelo_inurba_marseille","lat":43.295279,"lon":5.375048,"is_reserved":false,"is_disabled":false,"rental_uris":{"android":"levelo://app?vid=67277bd7-ee7f-4b93-8bfc-fc8f7b5f6774","ios":"levelo://app?vid=67277bd7-ee7f-4b93-8bfc-fc8f7b5f6774"},"vehicle_type_id":"4","last_reported":1712596041,"current_range_meters":5600,"station_id":"ce4bgkp2rcd13ifvqbmg","pricing_plan_id":"cebpf4jnsgd1na2vs0mg"},{"bike_id":"ce1c4ac7-91b6-4423-bbac-92f1a49cd0cd","system_id":"levelo_inurba_marseille","lat":43.32367,"lon":5.388836,"is_reserved":false,"is_disabled":false,"rental_uris":{"android":"levelo://app?vid=ce1c4ac7-91b6-4423-bbac-92f1a49cd0cd","ios":"levelo://app?vid=ce1c4ac7-91b6-4423-bbac-92f1a49cd0cd"},"vehicle_type_id":"4","last_reported":1712596041,"current_range_meters":1200,"station_id":"ce4bhqp2rcd13ifvqhog","pricing_plan_id":"cebpf4jnsgd1na2vs0mg"},{"bike_id":"82d23afc-2a3c-4064-a720-aaa5620e8bbc","system_id":"levelo_inurba_marseille","lat":43.32366,"lon":5.38886,"is_reserved":false,"is_disabled":false,"rental_uris":{"android":"levelo://app?vid=82d23afc-2a3c-4064-a720-aaa5620e8bbc","ios":"levelo://app?vid=82d23afc-2a3c-4064-a720-aaa5620e8bbc"},"vehicle_type_id":"4","last_reported":1712596041,"current_range_meters":0,"station_id":"ce4bhqp2rcd13ifvqhog","pricing_plan_id":"cebpf4jnsgd1na2vs0mg"},{"bike_id":"79ac4474-b669-4542-8fc8-a6d0381c92c0","system_id":"levelo_inurba_marseille","lat":43.32368,"lon":5.3889,"is_reserved":false,"is_disabled":false,"rental_uris":{"android":"levelo://app?vid=79ac4474-b669-4542-8fc8-a6d0381c92c0","ios":"levelo://app?vid=79ac4474-b669-4542-8fc8-a6d0381c92c0"},"vehicle_type_id":"4","last_reported":1712596041,"current_range_meters":0,"station_id":"ce4bhqp2rcd13ifvqhog","pricing_plan_id":"cebpf4jnsgd1na2vs0mg"},{"bike_id":"5f936cce-6c37-4d4e-af85-125086f954b0","system_id":"levelo_inurba_marseille","lat":43.29602,"lon":5.381084,"is_reserved":false,"is_disabled":false,"rental_uris":{"android":"levelo://app?vid=5f936cce-6c37-4d4e-af85-125086f954b0","ios":"levelo://app?vid=5f936cce-6c37-4d4e-af85-125086f954b0"},"vehicle_type_id":"4","last_reported":1712596041,"current_range_meters":24400,"station_id":"ce4bgl12rcd13ifvqbo0","pricing_plan_id":"cebpf4jnsgd1na2vs0mg"},{"bike_id":"081b6bee-32d3-417d-8754-4db308aeb2cf","system_id":"levelo_inurba_marseille","lat":43.29602,"lon":5.381084,"is_reserved":false,"is_disabled":false,"rental_uris":{"android":"levelo://app?vid=081b6bee-32d3-417d-8754-4db308aeb2cf","ios":"levelo://app?vid=081b6bee-32d3-417d-8754-4db308aeb2cf"},"vehicle_type_id":"4","last_reported":1712596041,"current_range_meters":6000,"station_id":"ce4bgl12rcd13ifvqbo0","pricing_plan_id":"cebpf4jnsgd1na2vs0mg"},{"bike_id":"daaa3559-254c-4355-8961-afffc10cc63e","system_id":"levelo_inurba_marseille","lat":43.2989,"lon":5.38612,"is_reserved":false,"is_disabled":false,"rental_uris":{"android":"levelo://app?vid=daaa3559-254c-4355-8961-afffc10cc63e","ios":"levelo://app?vid=daaa3559-254c-4355-8961-afffc10cc63e"},"vehicle_type_id":"4","last_reported":1712596041,"current_range_meters":0,"station_id":"","pricing_plan_id":"cebpf4jnsgd1na2vs0mg"},{"bike_id":"867cd547-55ff-49d8-8260-63ef485eca95","system_id":"levelo_inurba_marseille","lat":43.29601,"lon":5.381084,"is_reserved":false,"is_disabled":false,"rental_uris":{"android":"levelo://app?vid=867cd547-55ff-49d8-8260-63ef485eca95","ios":"levelo://app?vid=867cd547-55ff-49d8-8260-63ef485eca95"},"vehicle_type_id":"4","last_reported":1712596041,"current_range_meters":11600,"station_id":"ce4bgl12rcd13ifvqbo0","pricing_plan_id":"cebpf4jnsgd1na2vs0mg"},{"bike_id":"e0227968-a14e-43ac-b7d6-ecd922e7e186","system_id":"levelo_inurba_marseille","lat":43.31412,"lon":5.39418,"is_reserved":false,"is_disabled":false,"rental_uris":{"android":"levelo://app?vid=e0227968-a14e-43ac-b7d6-ecd922e7e186","ios":"levelo://app?vid=e0227968-a14e-43ac-b7d6-ecd922e7e186"},"vehicle_type_id":"4","last_reported":1712596041,"current_range_meters":29600,"station_id":"","pricing_plan_id":"cebpf4jnsgd1na2vs0mg"},{"bike_id":"d077f030-27e7-429e-91c5-60403f2402b5","system_id":"levelo_inurba_marseille","lat":43.293259,"lon":5.371586,"is_reserved":false,"is_disabled":false,"rental_uris":{"android":"levelo://app?vid=d077f030-27e7-429e-91c5-60403f2402b5","ios":"levelo://app?vid=d077f030-27e7-429e-91c5-60403f2402b5"},"vehicle_type_id":"4","last_reported":1712596041,"current_range_meters":4400,"station_id":"ce4bgh92rcd13ifvqb40","pricing_plan_id":"cebpf4jnsgd1na2vs0mg"},{"bike_id":"eafb0856-657e-4d15-9856-020defc6fbb5","system_id":"levelo_inurba_marseille","lat":43.293259,"lon":5.371586,"is_reserved":false,"is_disabled":false,"rental_uris":{"android":"levelo://app?vid=eafb0856-657e-4d15-9856-020defc6fbb5","ios":"levelo://app?vid=eafb0856-657e-4d15-9856-020defc6fbb5"},"vehicle_type_id":"4","last_reported":1712596041,"current_range_meters":0,"station_id":"ce4bgh92rcd13ifvqb40","pricing_plan_id":"cebpf4jnsgd1na2vs0mg"},{"bike_id":"41dc81be-f73a-4306-9959-7a8f8637f950","system_id":"levelo_inurba_marseille","lat":43.293259,"lon":5.371586,"is_reserved":false,"is_disabled":false,"rental_uris":{"android":"levelo://app?vid=41dc81be-f73a-4306-9959-7a8f8637f950","ios":"levelo://app?vid=41dc81be-f73a-4306-9959-7a8f8637f950"},"vehicle_type_id":"4","last_reported":1712596041,"current_range_meters":400,"station_id":"ce4bgh92rcd13ifvqb40","pricing_plan_id":"cebpf4jnsgd1na2vs0mg"},{"bike_id":"2bd45287-9ff9-44d6-9068-b76a178f1f99","system_id":"levelo_inurba_marseille","lat":43.292749,"lon":5.368402,"is_reserved":false,"is_disabled":false,"rental_uris":{"android":"levelo://app?vid=2bd45287-9ff9-44d6-9068-b76a178f1f99","ios":"levelo://app?vid=2bd45287-9ff9-44d6-9068-b76a178f1f99"},"vehicle_type_id":"4","last_reported":1712596041,"current_range_meters":0,"station_id":"ce4bhbp2rcd13ifvqesg","pricing_plan_id":"cebpf4jnsgd1na2vs0mg"},{"bike_id":"61afa919-51e6-40dd-b2e3-61ee88382903","system_id":"levelo_inurba_marseille","lat":43.292749,"lon":5.368402,"is_reserved":false,"is_disabled":false,"rental_uris":{"android":"levelo://app?vid=61afa919-51e6-40dd-b2e3-61ee88382903","ios":"levelo://app?vid=61afa919-51e6-40dd-b2e3-61ee88382903"},"vehicle_type_id":"4","last_reported":1712596041,"current_range_meters":0,"station_id":"ce4bhbp2rcd13ifvqesg","pricing_plan_id":"cebpf4jnsgd1na2vs0mg"},{"bike_id":"b008663e-cc4b-4b75-af52-68cf7ceeaaec","system_id":"levelo_inurba_marseille","lat":43.305994,"lon":5.393687,"is_reserved":false,"is_disabled":false,"rental_uris":{"android":"levelo://app?vid=b008663e-cc4b-4b75-af52-68cf7ceeaaec","ios":"levelo://app?vid=b008663e-cc4b-4b75-af52-68cf7ceeaaec"},"vehicle_type_id":"4","last_reported":1712596041,"current_range_meters":800,"station_id":"ce4bh0p2rcd13ifvqd80","pricing_plan_id":"cebpf4jnsgd1na2vs0mg"},{"bike_id":"396a95ee-e1ea-4463-aaef-34ca35aeea8a","system_id":"levelo_inurba_marseille","lat":43.286593,"lon":5.363346,"is_reserved":false,"is_disabled":false,"rental_uris":{"android":"levelo://app?vid=396a95ee-e1ea-4463-aaef-34ca35aeea8a","ios":"levelo://app?vid=396a95ee-e1ea-4463-aaef-34ca35aeea8a"},"vehicle_type_id":"4","last_reported":1712596041,"current_range_meters":18400,"station_id":"ce4bhah2rcd13ifvqej0","pricing_plan_id":"cebpf4jnsgd1na2vs0mg"},{"bike_id":"b84c8f41-2500-4a23-b06d-5f824fa359e2","system_id":"levelo_inurba_marseille","lat":43.305894,"lon":5.393559,"is_reserved":false,"is_disabled":false,"rental_uris":{"android":"levelo://app?vid=b84c8f41-2500-4a23-b06d-5f824fa359e2","ios":"levelo://app?vid=b84c8f41-2500-4a23-b06d-5f824fa359e2"},"vehicle_type_id":"4","last_reported":1712596041,"current_range_meters":0,"station_id":"ce4bgk12rcd13ifvqbi0","pricing_plan_id":"cebpf4jnsgd1na2vs0mg"},{"bike_id":"5df5b54d-750e-4e71-a626-bb8723e67b03","system_id":"levelo_inurba_marseille","lat":43.30298,"lon":5.39209,"is_reserved":false,"is_disabled":false,"rental_uris":{"android":"levelo://app?vid=5df5b54d-750e-4e71-a626-bb8723e67b03","ios":"levelo://app?vid=5df5b54d-750e-4e71-a626-bb8723e67b03"},"vehicle_type_id":"4","last_reported":1712596041,"current_range_meters":0,"station_id":"ce4bgkh2rcd13ifvqbk0","pricing_plan_id":"cebpf4jnsgd1na2vs0mg"},{"bike_id":"8c20045f-de7c-46f5-9fe6-32ae6e952db3","system_id":"levelo_inurba_marseille","lat":43.2936,"lon":5.37835,"is_reserved":false,"is_disabled":false,"rental_uris":{"android":"levelo://app?vid=8c20045f-de7c-46f5-9fe6-32ae6e952db3","ios":"levelo://app?vid=8c20045f-de7c-46f5-9fe6-32ae6e952db3"},"vehicle_type_id":"4","last_reported":1712596041,"current_range_meters":11200,"station_id":"ce4bgjh2rcd13ifvqbf0","pricing_plan_id":"cebpf4jnsgd1na2vs0mg"},{"bike_id":"59ea7dd7-b669-4ccd-83c5-e1cb3905cd4d","system_id":"levelo_inurba_marseille","lat":43.309371,"lon":5.401449,"is_reserved":false,"is_disabled":false,"rental_uris":{"android":"levelo://app?vid=59ea7dd7-b669-4ccd-83c5-e1cb3905cd4d","ios":"levelo://app?vid=59ea7dd7-b669-4ccd-83c5-e1cb3905cd4d"},"vehicle_type_id":"4","last_reported":1712596041,"current_range_meters":26400,"station_id":"ce4bgvp2rcd13ifvqct0","pricing_plan_id":"cebpf4jnsgd1na2vs0mg"},{"bike_id":"1b1ce26a-c1b7-4cc0-9265-3125c53aad4b","system_id":"levelo_inurba_marseille","lat":43.30085,"lon":5.390856,"is_reserved":false,"is_disabled":false,"rental_uris":{"android":"levelo://app?vid=1b1ce26a-c1b7-4cc0-9265-3125c53aad4b","ios":"levelo://app?vid=1b1ce26a-c1b7-4cc0-9265-3125c53aad4b"},"vehicle_type_id":"4","last_reported":1712596041,"current_range_meters":4800,"station_id":"ce4bh192rcd13ifvqdb0","pricing_plan_id":"cebpf4jnsgd1na2vs0mg"},{"bike_id":"0946bab6-3858-4300-80df-6eebff4752fc","system_id":"levelo_inurba_marseille","lat":43.29224,"lon":5.36046,"is_reserved":false,"is_disabled":false,"rental_uris":{"android":"levelo://app?vid=0946bab6-3858-4300-80df-6eebff4752fc","ios":"levelo://app?vid=0946bab6-3858-4300-80df-6eebff4752fc"},"vehicle_type_id":"4","last_reported":1712596041,"current_range_meters":30000,"station_id":"ce4bhbh2rcd13ifvqeqg","pricing_plan_id":"cebpf4jnsgd1na2vs0mg"},{"bike_id":"db8b1620-cc9e-4a98-b708-2626610770b3","system_id":"levelo_inurba_marseille","lat":43.30085,"lon":5.390856,"is_reserved":false,"is_disabled":false,"rental_uris":{"android":"levelo://app?vid=db8b1620-cc9e-4a98-b708-2626610770b3","ios":"levelo://app?vid=db8b1620-cc9e-4a98-b708-2626610770b3"},"vehicle_type_id":"4","last_reported":1712596041,"current_range_meters":15600,"station_id":"ce4bh192rcd13ifvqdb0","pricing_plan_id":"cebpf4jnsgd1na2vs0mg"},{"bike_id":"691f8f2c-b8ad-486d-a315-835c3382742a","system_id":"levelo_inurba_marseille","lat":43.291994,"lon":5.357886,"is_reserved":false,"is_disabled":false,"rental_uris":{"android":"levelo://app?vid=691f8f2c-b8ad-486d-a315-835c3382742a","ios":"levelo://app?vid=691f8f2c-b8ad-486d-a315-835c3382742a"},"vehicle_type_id":"4","last_reported":1712596041,"current_range_meters":25200,"station_id":"ce4bhb12rcd13ifvqel0","pricing_plan_id":"cebpf4jnsgd1na2vs0mg"},{"bike_id":"af1a24c1-55eb-4fc0-9773-c224fab83514","system_id":"levelo_inurba_marseille","lat":43.293233,"lon":5.378033,"is_reserved":false,"is_disabled":false,"rental_uris":{"android":"levelo://app?vid=af1a24c1-55eb-4fc0-9773-c224fab83514","ios":"levelo://app?vid=af1a24c1-55eb-4fc0-9773-c224fab83514"},"vehicle_type_id":"4","last_reported":1712596041,"current_range_meters":400,"station_id":"ce4bh3p2rcd13ifvqdq0","pricing_plan_id":"cebpf4jnsgd1na2vs0mg"},{"bike_id":"a9470a69-e0f1-4ae3-9601-cf25306548e4","system_id":"levelo_inurba_marseille","lat":43.298764,"lon":5.388973,"is_reserved":false,"is_disabled":false,"rental_uris":{"android":"levelo://app?vid=a9470a69-e0f1-4ae3-9601-cf25306548e4","ios":"levelo://app?vid=a9470a69-e0f1-4ae3-9601-cf25306548e4"},"vehicle_type_id":"4","last_reported":1712596041,"current_range_meters":0,"station_id":"ce4bh392rcd13ifvqdl0","pricing_plan_id":"cebpf4jnsgd1na2vs0mg"},{"bike_id":"b97d5bab-4f1d-4fb8-b2df-51812d412d4a","system_id":"levelo_inurba_marseille","lat":43.298764,"lon":5.388973,"is_reserved":false,"is_disabled":false,"rental_uris":{"android":"levelo://app?vid=b97d5bab-4f1d-4fb8-b2df-51812d412d4a","ios":"levelo://app?vid=b97d5bab-4f1d-4fb8-b2df-51812d412d4a"},"vehicle_type_id":"4","last_reported":1712596041,"current_range_meters":6800,"station_id":"ce4bh392rcd13ifvqdl0","pricing_plan_id":"cebpf4jnsgd1na2vs0mg"},{"bike_id":"c60f8371-5974-463f-aad3-ff39f9f8278d","system_id":"levelo_inurba_marseille","lat":43.298764,"lon":5.388973,"is_reserved":false,"is_disabled":false,"rental_uris":{"android":"levelo://app?vid=c60f8371-5974-463f-aad3-ff39f9f8278d","ios":"levelo://app?vid=c60f8371-5974-463f-aad3-ff39f9f8278d"},"vehicle_type_id":"4","last_reported":1712596041,"current_range_meters":0,"station_id":"ce4bh392rcd13ifvqdl0","pricing_plan_id":"cebpf4jnsgd1na2vs0mg"},{"bike_id":"dd43feae-51f5-4125-9781-316c954f24cf","system_id":"levelo_inurba_marseille","lat":43.298764,"lon":5.388973,"is_reserved":false,"is_disabled":false,"rental_uris":{"android":"levelo://app?vid=dd43feae-51f5-4125-9781-316c954f24cf","ios":"levelo://app?vid=dd43feae-51f5-4125-9781-316c954f24cf"},"vehicle_type_id":"4","last_reported":1712596041,"current_range_meters":27200,"station_id":"ce4bh392rcd13ifvqdl0","pricing_plan_id":"cebpf4jnsgd1na2vs0mg"},{"bike_id":"16af1ecb-3283-4bd0-959c-adfd53a57233","system_id":"levelo_inurba_marseille","lat":43.298764,"lon":5.388973,"is_reserved":false,"is_disabled":false,"rental_uris":{"android":"levelo://app?vid=16af1ecb-3283-4bd0-959c-adfd53a57233","ios":"levelo://app?vid=16af1ecb-3283-4bd0-959c-adfd53a57233"},"vehicle_type_id":"4","last_reported":1712596041,"current_range_meters":12800,"station_id":"ce4bh392rcd13ifvqdl0","pricing_plan_id":"cebpf4jnsgd1na2vs0mg"},{"bike_id":"33548597-9084-4918-b88a-beb58112b3e6","system_id":"levelo_inurba_marseille","lat":43.298764,"lon":5.388973,"is_reserved":false,"is_disabled":false,"rental_uris":{"android":"levelo://app?vid=33548597-9084-4918-b88a-beb58112b3e6","ios":"levelo://app?vid=33548597-9084-4918-b88a-beb58112b3e6"},"vehicle_type_id":"4","last_reported":1712596041,"current_range_meters":0,"station_id":"ce4bh392rcd13ifvqdl0","pricing_plan_id":"cebpf4jnsgd1na2vs0mg"},{"bike_id":"8adf10ce-30cc-433e-ad26-0d3c8eb83f0d","system_id":"levelo_inurba_marseille","lat":43.298764,"lon":5.388973,"is_reserved":false,"is_disabled":false,"rental_uris":{"android":"levelo://app?vid=8adf10ce-30cc-433e-ad26-0d3c8eb83f0d","ios":"levelo://app?vid=8adf10ce-30cc-433e-ad26-0d3c8eb83f0d"},"vehicle_type_id":"4","last_reported":1712596041,"current_range_meters":11200,"station_id":"ce4bh392rcd13ifvqdl0","pricing_plan_id":"cebpf4jnsgd1na2vs0mg"},{"bike_id":"594a54f3-64e3-4247-b4ce-9840d9add97f","system_id":"levelo_inurba_marseille","lat":43.291675,"lon":5.371583,"is_reserved":false,"is_disabled":false,"rental_uris":{"android":"levelo://app?vid=594a54f3-64e3-4247-b4ce-9840d9add97f","ios":"levelo://app?vid=594a54f3-64e3-4247-b4ce-9840d9add97f"},"vehicle_type_id":"4","last_reported":1712596041,"current_range_meters":6400,"station_id":"ce4bha92rcd13ifvqeh0","pricing_plan_id":"cebpf4jnsgd1na2vs0mg"},{"bike_id":"86b5cbaa-6ca1-418a-a886-eaca15a096b9","system_id":"levelo_inurba_marseille","lat":43.283498,"lon":5.380948,"is_reserved":false,"is_disabled":false,"rental_uris":{"android":"levelo://app?vid=86b5cbaa-6ca1-418a-a886-eaca15a096b9","ios":"levelo://app?vid=86b5cbaa-6ca1-418a-a886-eaca15a096b9"},"vehicle_type_id":"4","last_reported":1712596041,"current_range_meters":0,"station_id":"ce4bh412rcd13ifvqdr0","pricing_plan_id":"cebpf4jnsgd1na2vs0mg"},{"bike_id":"02730e92-60f1-4b05-b10e-a5a27c42b33e","system_id":"levelo_inurba_marseille","lat":43.298764,"lon":5.388973,"is_reserved":false,"is_disabled":false,"rental_uris":{"android":"levelo://app?vid=02730e92-60f1-4b05-b10e-a5a27c42b33e","ios":"levelo://app?vid=02730e92-60f1-4b05-b10e-a5a27c42b33e"},"vehicle_type_id":"4","last_reported":1712596041,"current_range_meters":0,"station_id":"ce4bh392rcd13ifvqdl0","pricing_plan_id":"cebpf4jnsgd1na2vs0mg"},{"bike_id":"1d4bb2a6-0297-4311-8e65-a23b372657b5","system_id":"levelo_inurba_marseille","lat":43.30287,"lon":5.393,"is_reserved":false,"is_disabled":false,"rental_uris":{"android":"levelo://app?vid=1d4bb2a6-0297-4311-8e65-a23b372657b5","ios":"levelo://app?vid=1d4bb2a6-0297-4311-8e65-a23b372657b5"},"vehicle_type_id":"4","last_reported":1712596041,"current_range_meters":28000,"station_id":"","pricing_plan_id":"cebpf4jnsgd1na2vs0mg"},{"bike_id":"80295071-4a1d-45ba-98bb-db5811f947ec","system_id":"levelo_inurba_marseille","lat":43.298682,"lon":5.389118,"is_reserved":false,"is_disabled":false,"rental_uris":{"android":"levelo://app?vid=80295071-4a1d-45ba-98bb-db5811f947ec","ios":"levelo://app?vid=80295071-4a1d-45ba-98bb-db5811f947ec"},"vehicle_type_id":"4","last_reported":1712596041,"current_range_meters":0,"station_id":"ce4bh392rcd13ifvqdl0","pricing_plan_id":"cebpf4jnsgd1na2vs0mg"},{"bike_id":"e1e87e2f-0a17-4c50-9c65-89eaac5afd66","system_id":"levelo_inurba_marseille","lat":43.313291,"lon":5.396838,"is_reserved":false,"is_disabled":false,"rental_uris":{"android":"levelo://app?vid=e1e87e2f-0a17-4c50-9c65-89eaac5afd66","ios":"levelo://app?vid=e1e87e2f-0a17-4c50-9c65-89eaac5afd66"},"vehicle_type_id":"4","last_reported":1712596041,"current_range_meters":0,"station_id":"ce4bgvp2rcd13ifvqcu0","pricing_plan_id":"cebpf4jnsgd1na2vs0mg"},{"bike_id":"444cddd7-2f95-4814-835c-2e817bf5fac0","system_id":"levelo_inurba_marseille","lat":43.29196,"lon":5.35802,"is_reserved":false,"is_disabled":false,"rental_uris":{"android":"levelo://app?vid=444cddd7-2f95-4814-835c-2e817bf5fac0","ios":"levelo://app?vid=444cddd7-2f95-4814-835c-2e817bf5fac0"},"vehicle_type_id":"4","last_reported":1712596041,"current_range_meters":0,"station_id":"ce4bhb12rcd13ifvqel0","pricing_plan_id":"cebpf4jnsgd1na2vs0mg"},{"bike_id":"3118be01-d314-4a1c-b937-b4fd183478e2","system_id":"levelo_inurba_marseille","lat":43.313245,"lon":5.396862,"is_reserved":false,"is_disabled":false,"rental_uris":{"android":"levelo://app?vid=3118be01-d314-4a1c-b937-b4fd183478e2","ios":"levelo://app?vid=3118be01-d314-4a1c-b937-b4fd183478e2"},"vehicle_type_id":"4","last_reported":1712596041,"current_range_meters":0,"station_id":"ce4bgvp2rcd13ifvqcu0","pricing_plan_id":"cebpf4jnsgd1na2vs0mg"},{"bike_id":"69eed008-5d60-4d8a-9c86-c7be1a03aab3","system_id":"levelo_inurba_marseille","lat":43.30888,"lon":5.39645,"is_reserved":false,"is_disabled":false,"rental_uris":{"android":"levelo://app?vid=69eed008-5d60-4d8a-9c86-c7be1a03aab3","ios":"levelo://app?vid=69eed008-5d60-4d8a-9c86-c7be1a03aab3"},"vehicle_type_id":"4","last_reported":1712596041,"current_range_meters":0,"station_id":"ce4bh012rcd13ifvqcv0","pricing_plan_id":"cebpf4jnsgd1na2vs0mg"},{"bike_id":"5633848a-14ef-4026-8e6b-df5baa139935","system_id":"levelo_inurba_marseille","lat":43.313291,"lon":5.396838,"is_reserved":false,"is_disabled":false,"rental_uris":{"android":"levelo://app?vid=5633848a-14ef-4026-8e6b-df5baa139935","ios":"levelo://app?vid=5633848a-14ef-4026-8e6b-df5baa139935"},"vehicle_type_id":"4","last_reported":1712596041,"current_range_meters":10400,"station_id":"ce4bgvp2rcd13ifvqcu0","pricing_plan_id":"cebpf4jnsgd1na2vs0mg"},{"bike_id":"9bf19299-1738-4cbc-8ff7-5210d5fed268","system_id":"levelo_inurba_marseille","lat":43.313294,"lon":5.396961,"is_reserved":false,"is_disabled":false,"rental_uris":{"android":"levelo://app?vid=9bf19299-1738-4cbc-8ff7-5210d5fed268","ios":"levelo://app?vid=9bf19299-1738-4cbc-8ff7-5210d5fed268"},"vehicle_type_id":"4","last_reported":1712596041,"current_range_meters":26800,"station_id":"ce4bgvp2rcd13ifvqcu0","pricing_plan_id":"cebpf4jnsgd1na2vs0mg"},{"bike_id":"5a9a2289-7632-4cad-9418-3e681961e672","system_id":"levelo_inurba_marseille","lat":43.31323,"lon":5.397,"is_reserved":false,"is_disabled":false,"rental_uris":{"android":"levelo://app?vid=5a9a2289-7632-4cad-9418-3e681961e672","ios":"levelo://app?vid=5a9a2289-7632-4cad-9418-3e681961e672"},"vehicle_type_id":"4","last_reported":1712596041,"current_range_meters":31600,"station_id":"ce4bgvp2rcd13ifvqcu0","pricing_plan_id":"cebpf4jnsgd1na2vs0mg"},{"bike_id":"201dac63-b159-430d-9370-172dd6f830be","system_id":"levelo_inurba_marseille","lat":43.29529,"lon":5.385581,"is_reserved":false,"is_disabled":false,"rental_uris":{"android":"levelo://app?vid=201dac63-b159-430d-9370-172dd6f830be","ios":"levelo://app?vid=201dac63-b159-430d-9370-172dd6f830be"},"vehicle_type_id":"4","last_reported":1712596041,"current_range_meters":800,"station_id":"ce4bgih2rcd13ifvqba0","pricing_plan_id":"cebpf4jnsgd1na2vs0mg"},{"bike_id":"c922b21f-bb75-4bb7-95b7-312749f08273","system_id":"levelo_inurba_marseille","lat":43.29529,"lon":5.385581,"is_reserved":false,"is_disabled":false,"rental_uris":{"android":"levelo://app?vid=c922b21f-bb75-4bb7-95b7-312749f08273","ios":"levelo://app?vid=c922b21f-bb75-4bb7-95b7-312749f08273"},"vehicle_type_id":"4","last_reported":1712596041,"current_range_meters":16800,"station_id":"ce4bgih2rcd13ifvqba0","pricing_plan_id":"cebpf4jnsgd1na2vs0mg"},{"bike_id":"656f8c7d-1cbc-4c7a-b16f-2ee388d878f2","system_id":"levelo_inurba_marseille","lat":43.29529,"lon":5.385581,"is_reserved":false,"is_disabled":false,"rental_uris":{"android":"levelo://app?vid=656f8c7d-1cbc-4c7a-b16f-2ee388d878f2","ios":"levelo://app?vid=656f8c7d-1cbc-4c7a-b16f-2ee388d878f2"},"vehicle_type_id":"4","last_reported":1712596041,"current_range_meters":6000,"station_id":"ce4bgih2rcd13ifvqba0","pricing_plan_id":"cebpf4jnsgd1na2vs0mg"},{"bike_id":"274dda10-72c3-4875-ac2f-dd717e04e6dc","system_id":"levelo_inurba_marseille","lat":43.29347,"lon":5.38227,"is_reserved":false,"is_disabled":false,"rental_uris":{"android":"levelo://app?vid=274dda10-72c3-4875-ac2f-dd717e04e6dc","ios":"levelo://app?vid=274dda10-72c3-4875-ac2f-dd717e04e6dc"},"vehicle_type_id":"4","last_reported":1712596041,"current_range_meters":21200,"station_id":"","pricing_plan_id":"cebpf4jnsgd1na2vs0mg"},{"bike_id":"c47b1094-c03a-4a50-b702-342a1ea49c80","system_id":"levelo_inurba_marseille","lat":43.290779,"lon":5.371482,"is_reserved":false,"is_disabled":false,"rental_uris":{"android":"levelo://app?vid=c47b1094-c03a-4a50-b702-342a1ea49c80","ios":"levelo://app?vid=c47b1094-c03a-4a50-b702-342a1ea49c80"},"vehicle_type_id":"4","last_reported":1712596041,"current_range_meters":4000,"station_id":"ce4bh5p2rcd13ifvqe4g","pricing_plan_id":"cebpf4jnsgd1na2vs0mg"},{"bike_id":"dadf7f4d-6b5f-4211-b2b6-0f0f338cf2f7","system_id":"levelo_inurba_marseille","lat":43.290631,"lon":5.359244,"is_reserved":false,"is_disabled":false,"rental_uris":{"android":"levelo://app?vid=dadf7f4d-6b5f-4211-b2b6-0f0f338cf2f7","ios":"levelo://app?vid=dadf7f4d-6b5f-4211-b2b6-0f0f338cf2f7"},"vehicle_type_id":"4","last_reported":1712596041,"current_range_meters":7600,"station_id":"ce4bha92rcd13ifvqeg0","pricing_plan_id":"cebpf4jnsgd1na2vs0mg"},{"bike_id":"374dd956-a458-4588-b6a2-c62c0008d290","system_id":"levelo_inurba_marseille","lat":43.290631,"lon":5.359244,"is_reserved":false,"is_disabled":false,"rental_uris":{"android":"levelo://app?vid=374dd956-a458-4588-b6a2-c62c0008d290","ios":"levelo://app?vid=374dd956-a458-4588-b6a2-c62c0008d290"},"vehicle_type_id":"4","last_reported":1712596041,"current_range_meters":400,"station_id":"ce4bha92rcd13ifvqeg0","pricing_plan_id":"cebpf4jnsgd1na2vs0mg"},{"bike_id":"54434377-e666-4442-b235-34562bde8d68","system_id":"levelo_inurba_marseille","lat":43.290624,"lon":5.359245,"is_reserved":false,"is_disabled":false,"rental_uris":{"android":"levelo://app?vid=54434377-e666-4442-b235-34562bde8d68","ios":"levelo://app?vid=54434377-e666-4442-b235-34562bde8d68"},"vehicle_type_id":"4","last_reported":1712596041,"current_range_meters":25200,"station_id":"ce4bha92rcd13ifvqeg0","pricing_plan_id":"cebpf4jnsgd1na2vs0mg"},{"bike_id":"b7d8b3ed-2d4a-4814-b2ef-623768614276","system_id":"levelo_inurba_marseille","lat":43.290624,"lon":5.359245,"is_reserved":false,"is_disabled":false,"rental_uris":{"android":"levelo://app?vid=b7d8b3ed-2d4a-4814-b2ef-623768614276","ios":"levelo://app?vid=b7d8b3ed-2d4a-4814-b2ef-623768614276"},"vehicle_type_id":"4","last_reported":1712596041,"current_range_meters":6400,"station_id":"ce4bha92rcd13ifvqeg0","pricing_plan_id":"cebpf4jnsgd1na2vs0mg"},{"bike_id":"deebdb91-d496-438d-a01e-8d8ec459baee","system_id":"levelo_inurba_marseille","lat":43.290624,"lon":5.359245,"is_reserved":false,"is_disabled":false,"rental_uris":{"android":"levelo://app?vid=deebdb91-d496-438d-a01e-8d8ec459baee","ios":"levelo://app?vid=deebdb91-d496-438d-a01e-8d8ec459baee"},"vehicle_type_id":"4","last_reported":1712596041,"current_range_meters":13200,"station_id":"ce4bha92rcd13ifvqeg0","pricing_plan_id":"cebpf4jnsgd1na2vs0mg"},{"bike_id":"7ae98d82-fc2f-4357-8494-0cc3c608dc54","system_id":"levelo_inurba_marseille","lat":43.289468,"lon":5.363719,"is_reserved":false,"is_disabled":false,"rental_uris":{"android":"levelo://app?vid=7ae98d82-fc2f-4357-8494-0cc3c608dc54","ios":"levelo://app?vid=7ae98d82-fc2f-4357-8494-0cc3c608dc54"},"vehicle_type_id":"4","last_reported":1712596041,"current_range_meters":9600,"station_id":"ce4bhc92rcd13ifvqetg","pricing_plan_id":"cebpf4jnsgd1na2vs0mg"},{"bike_id":"24c6e33a-7d55-41a4-be7d-c8e353b8a1c5","system_id":"levelo_inurba_marseille","lat":43.294153,"lon":5.386305,"is_reserved":false,"is_disabled":false,"rental_uris":{"android":"levelo://app?vid=24c6e33a-7d55-41a4-be7d-c8e353b8a1c5","ios":"levelo://app?vid=24c6e33a-7d55-41a4-be7d-c8e353b8a1c5"},"vehicle_type_id":"4","last_reported":1712596041,"current_range_meters":12400,"station_id":"ce4bh2h2rcd13ifvqdh0","pricing_plan_id":"cebpf4jnsgd1na2vs0mg"},{"bike_id":"9b6b8e51-d61b-4f75-bfb3-100d4c3b0410","system_id":"levelo_inurba_marseille","lat":43.29417,"lon":5.38616,"is_reserved":false,"is_disabled":false,"rental_uris":{"android":"levelo://app?vid=9b6b8e51-d61b-4f75-bfb3-100d4c3b0410","ios":"levelo://app?vid=9b6b8e51-d61b-4f75-bfb3-100d4c3b0410"},"vehicle_type_id":"4","last_reported":1712596041,"current_range_meters":4000,"station_id":"ce4bh2h2rcd13ifvqdh0","pricing_plan_id":"cebpf4jnsgd1na2vs0mg"},{"bike_id":"8f5df022-6033-4f91-9a44-dde1efc6713d","system_id":"levelo_inurba_marseille","lat":43.294153,"lon":5.386305,"is_reserved":false,"is_disabled":false,"rental_uris":{"android":"levelo://app?vid=8f5df022-6033-4f91-9a44-dde1efc6713d","ios":"levelo://app?vid=8f5df022-6033-4f91-9a44-dde1efc6713d"},"vehicle_type_id":"4","last_reported":1712596041,"current_range_meters":800,"station_id":"ce4bh2h2rcd13ifvqdh0","pricing_plan_id":"cebpf4jnsgd1na2vs0mg"},{"bike_id":"676baf4e-404a-43a5-b96e-47325c8de34f","system_id":"levelo_inurba_marseille","lat":43.294153,"lon":5.386305,"is_reserved":false,"is_disabled":false,"rental_uris":{"android":"levelo://app?vid=676baf4e-404a-43a5-b96e-47325c8de34f","ios":"levelo://app?vid=676baf4e-404a-43a5-b96e-47325c8de34f"},"vehicle_type_id":"4","last_reported":1712596041,"current_range_meters":18400,"station_id":"ce4bh2h2rcd13ifvqdh0","pricing_plan_id":"cebpf4jnsgd1na2vs0mg"},{"bike_id":"a4d47c74-1687-42ae-83d9-1f080293eb3d","system_id":"levelo_inurba_marseille","lat":43.2942,"lon":5.38626,"is_reserved":false,"is_disabled":false,"rental_uris":{"android":"levelo://app?vid=a4d47c74-1687-42ae-83d9-1f080293eb3d","ios":"levelo://app?vid=a4d47c74-1687-42ae-83d9-1f080293eb3d"},"vehicle_type_id":"4","last_reported":1712596041,"current_range_meters":0,"station_id":"ce4bh2h2rcd13ifvqdh0","pricing_plan_id":"cebpf4jnsgd1na2vs0mg"},{"bike_id":"55dc85c7-4c2b-4bc3-b4ed-8e33fc93b2db","system_id":"levelo_inurba_marseille","lat":43.29419,"lon":5.38629,"is_reserved":false,"is_disabled":false,"rental_uris":{"android":"levelo://app?vid=55dc85c7-4c2b-4bc3-b4ed-8e33fc93b2db","ios":"levelo://app?vid=55dc85c7-4c2b-4bc3-b4ed-8e33fc93b2db"},"vehicle_type_id":"4","last_reported":1712596041,"current_range_meters":10000,"station_id":"ce4bh2h2rcd13ifvqdh0","pricing_plan_id":"cebpf4jnsgd1na2vs0mg"},{"bike_id":"182b3e4b-4408-45b7-a4e2-632151126e64","system_id":"levelo_inurba_marseille","lat":43.29421,"lon":5.38635,"is_reserved":false,"is_disabled":false,"rental_uris":{"android":"levelo://app?vid=182b3e4b-4408-45b7-a4e2-632151126e64","ios":"levelo://app?vid=182b3e4b-4408-45b7-a4e2-632151126e64"},"vehicle_type_id":"4","last_reported":1712596041,"current_range_meters":28400,"station_id":"ce4bh2h2rcd13ifvqdh0","pricing_plan_id":"cebpf4jnsgd1na2vs0mg"},{"bike_id":"5cc5c4cc-484b-4f74-b803-6658b9539f92","system_id":"levelo_inurba_marseille","lat":43.28939,"lon":5.36636,"is_reserved":false,"is_disabled":false,"rental_uris":{"android":"levelo://app?vid=5cc5c4cc-484b-4f74-b803-6658b9539f92","ios":"levelo://app?vid=5cc5c4cc-484b-4f74-b803-6658b9539f92"},"vehicle_type_id":"4","last_reported":1712596041,"current_range_meters":0,"station_id":"ce4bhap2rcd13ifvqek0","pricing_plan_id":"cebpf4jnsgd1na2vs0mg"},{"bike_id":"16dca571-7412-4c40-bd16-3835831e3a26","system_id":"levelo_inurba_marseille","lat":43.28938,"lon":5.36638,"is_reserved":false,"is_disabled":false,"rental_uris":{"android":"levelo://app?vid=16dca571-7412-4c40-bd16-3835831e3a26","ios":"levelo://app?vid=16dca571-7412-4c40-bd16-3835831e3a26"},"vehicle_type_id":"4","last_reported":1712596041,"current_range_meters":0,"station_id":"ce4bhap2rcd13ifvqek0","pricing_plan_id":"cebpf4jnsgd1na2vs0mg"},{"bike_id":"63eab807-55e9-4e79-806d-1b0eee0f4e08","system_id":"levelo_inurba_marseille","lat":43.289184,"lon":5.366408,"is_reserved":false,"is_disabled":false,"rental_uris":{"android":"levelo://app?vid=63eab807-55e9-4e79-806d-1b0eee0f4e08","ios":"levelo://app?vid=63eab807-55e9-4e79-806d-1b0eee0f4e08"},"vehicle_type_id":"4","last_reported":1712596041,"current_range_meters":14000,"station_id":"ce4bhap2rcd13ifvqek0","pricing_plan_id":"cebpf4jnsgd1na2vs0mg"},{"bike_id":"f8efb249-7aff-4cf1-a88c-203d681a3112","system_id":"levelo_inurba_marseille","lat":43.28945,"lon":5.36394,"is_reserved":false,"is_disabled":false,"rental_uris":{"android":"levelo://app?vid=f8efb249-7aff-4cf1-a88c-203d681a3112","ios":"levelo://app?vid=f8efb249-7aff-4cf1-a88c-203d681a3112"},"vehicle_type_id":"4","last_reported":1712596041,"current_range_meters":0,"station_id":"ce4bhc92rcd13ifvqetg","pricing_plan_id":"cebpf4jnsgd1na2vs0mg"},{"bike_id":"2ddee15a-4259-4229-9039-feadb40bcca1","system_id":"levelo_inurba_marseille","lat":43.29391,"lon":5.38651,"is_reserved":false,"is_disabled":false,"rental_uris":{"android":"levelo://app?vid=2ddee15a-4259-4229-9039-feadb40bcca1","ios":"levelo://app?vid=2ddee15a-4259-4229-9039-feadb40bcca1"},"vehicle_type_id":"4","last_reported":1712596041,"current_range_meters":18800,"station_id":"ce4bh2h2rcd13ifvqdh0","pricing_plan_id":"cebpf4jnsgd1na2vs0mg"},{"bike_id":"7a144fa0-fb36-4da2-9a25-de4bfcd69626","system_id":"levelo_inurba_marseille","lat":43.292644,"lon":5.384257,"is_reserved":false,"is_disabled":false,"rental_uris":{"android":"levelo://app?vid=7a144fa0-fb36-4da2-9a25-de4bfcd69626","ios":"levelo://app?vid=7a144fa0-fb36-4da2-9a25-de4bfcd69626"},"vehicle_type_id":"4","last_reported":1712596041,"current_range_meters":11200,"station_id":"ce4bh692rcd13ifvqea0","pricing_plan_id":"cebpf4jnsgd1na2vs0mg"},{"bike_id":"64e82244-0ea1-4319-8137-23ee1fad6489","system_id":"levelo_inurba_marseille","lat":43.29267,"lon":5.38437,"is_reserved":false,"is_disabled":false,"rental_uris":{"android":"levelo://app?vid=64e82244-0ea1-4319-8137-23ee1fad6489","ios":"levelo://app?vid=64e82244-0ea1-4319-8137-23ee1fad6489"},"vehicle_type_id":"4","last_reported":1712596041,"current_range_meters":0,"station_id":"ce4bh692rcd13ifvqea0","pricing_plan_id":"cebpf4jnsgd1na2vs0mg"},{"bike_id":"515b333d-4557-444e-8c8b-12993beee2e1","system_id":"levelo_inurba_marseille","lat":43.292642,"lon":5.384254,"is_reserved":false,"is_disabled":false,"rental_uris":{"android":"levelo://app?vid=515b333d-4557-444e-8c8b-12993beee2e1","ios":"levelo://app?vid=515b333d-4557-444e-8c8b-12993beee2e1"},"vehicle_type_id":"4","last_reported":1712596041,"current_range_meters":0,"station_id":"ce4bh692rcd13ifvqea0","pricing_plan_id":"cebpf4jnsgd1na2vs0mg"},{"bike_id":"3227bddf-38f5-43cf-9622-340f90130591","system_id":"levelo_inurba_marseille","lat":43.304274,"lon":5.397513,"is_reserved":false,"is_disabled":false,"rental_uris":{"android":"levelo://app?vid=3227bddf-38f5-43cf-9622-340f90130591","ios":"levelo://app?vid=3227bddf-38f5-43cf-9622-340f90130591"},"vehicle_type_id":"4","last_reported":1712596041,"current_range_meters":0,"station_id":"ce4bh092rcd13ifvqd20","pricing_plan_id":"cebpf4jnsgd1na2vs0mg"},{"bike_id":"8e73f719-4bac-471a-bf1c-4cfb7313f046","system_id":"levelo_inurba_marseille","lat":43.291994,"lon":5.392907,"is_reserved":false,"is_disabled":false,"rental_uris":{"android":"levelo://app?vid=8e73f719-4bac-471a-bf1c-4cfb7313f046","ios":"levelo://app?vid=8e73f719-4bac-471a-bf1c-4cfb7313f046"},"vehicle_type_id":"4","last_reported":1712596041,"current_range_meters":0,"station_id":"ce4bh192rcd13ifvqdd0","pricing_plan_id":"cebpf4jnsgd1na2vs0mg"},{"bike_id":"d7cecbd2-dc0e-4eeb-a267-2da4dd3cf39f","system_id":"levelo_inurba_marseille","lat":43.290104,"lon":5.356111,"is_reserved":false,"is_disabled":false,"rental_uris":{"android":"levelo://app?vid=d7cecbd2-dc0e-4eeb-a267-2da4dd3cf39f","ios":"levelo://app?vid=d7cecbd2-dc0e-4eeb-a267-2da4dd3cf39f"},"vehicle_type_id":"4","last_reported":1712596041,"current_range_meters":7600,"station_id":"ce4bhb92rcd13ifvqen0","pricing_plan_id":"cebpf4jnsgd1na2vs0mg"},{"bike_id":"268547f1-6187-4fbd-80fe-18e1b1daa63d","system_id":"levelo_inurba_marseille","lat":43.290104,"lon":5.356111,"is_reserved":false,"is_disabled":false,"rental_uris":{"android":"levelo://app?vid=268547f1-6187-4fbd-80fe-18e1b1daa63d","ios":"levelo://app?vid=268547f1-6187-4fbd-80fe-18e1b1daa63d"},"vehicle_type_id":"4","last_reported":1712596041,"current_range_meters":20000,"station_id":"ce4bhb92rcd13ifvqen0","pricing_plan_id":"cebpf4jnsgd1na2vs0mg"},{"bike_id":"1b51470f-de91-42b0-9209-6943c1589462","system_id":"levelo_inurba_marseille","lat":43.290103,"lon":5.356114,"is_reserved":false,"is_disabled":false,"rental_uris":{"android":"levelo://app?vid=1b51470f-de91-42b0-9209-6943c1589462","ios":"levelo://app?vid=1b51470f-de91-42b0-9209-6943c1589462"},"vehicle_type_id":"4","last_reported":1712596041,"current_range_meters":9600,"station_id":"ce4bhb92rcd13ifvqen0","pricing_plan_id":"cebpf4jnsgd1na2vs0mg"},{"bike_id":"f1b930d6-c396-41aa-8b67-b61ba1b2f3c3","system_id":"levelo_inurba_marseille","lat":43.290104,"lon":5.356111,"is_reserved":false,"is_disabled":false,"rental_uris":{"android":"levelo://app?vid=f1b930d6-c396-41aa-8b67-b61ba1b2f3c3","ios":"levelo://app?vid=f1b930d6-c396-41aa-8b67-b61ba1b2f3c3"},"vehicle_type_id":"4","last_reported":1712596041,"current_range_meters":1600,"station_id":"ce4bhb92rcd13ifvqen0","pricing_plan_id":"cebpf4jnsgd1na2vs0mg"},{"bike_id":"e0eb4aca-8504-4034-97b7-9d4659c667ae","system_id":"levelo_inurba_marseille","lat":43.290104,"lon":5.356111,"is_reserved":false,"is_disabled":false,"rental_uris":{"android":"levelo://app?vid=e0eb4aca-8504-4034-97b7-9d4659c667ae","ios":"levelo://app?vid=e0eb4aca-8504-4034-97b7-9d4659c667ae"},"vehicle_type_id":"4","last_reported":1712596041,"current_range_meters":6000,"station_id":"ce4bhb92rcd13ifvqen0","pricing_plan_id":"cebpf4jnsgd1na2vs0mg"},{"bike_id":"c4d05cec-e12a-4976-84c1-ece5b835ef6c","system_id":"levelo_inurba_marseille","lat":43.290103,"lon":5.356114,"is_reserved":false,"is_disabled":false,"rental_uris":{"android":"levelo://app?vid=c4d05cec-e12a-4976-84c1-ece5b835ef6c","ios":"levelo://app?vid=c4d05cec-e12a-4976-84c1-ece5b835ef6c"},"vehicle_type_id":"4","last_reported":1712596041,"current_range_meters":0,"station_id":"ce4bhb92rcd13ifvqen0","pricing_plan_id":"cebpf4jnsgd1na2vs0mg"},{"bike_id":"8d4b91df-9754-409d-9769-cee8ae38c5d1","system_id":"levelo_inurba_marseille","lat":43.290995,"lon":5.381361,"is_reserved":false,"is_disabled":false,"rental_uris":{"android":"levelo://app?vid=8d4b91df-9754-409d-9769-cee8ae38c5d1","ios":"levelo://app?vid=8d4b91df-9754-409d-9769-cee8ae38c5d1"},"vehicle_type_id":"4","last_reported":1712596041,"current_range_meters":0,"station_id":"ce4bh512rcd13ifvqe2g","pricing_plan_id":"cebpf4jnsgd1na2vs0mg"},{"bike_id":"0d49718c-5a91-48b9-8162-0f1c83e79f54","system_id":"levelo_inurba_marseille","lat":43.29101,"lon":5.38156,"is_reserved":false,"is_disabled":false,"rental_uris":{"android":"levelo://app?vid=0d49718c-5a91-48b9-8162-0f1c83e79f54","ios":"levelo://app?vid=0d49718c-5a91-48b9-8162-0f1c83e79f54"},"vehicle_type_id":"4","last_reported":1712596041,"current_range_meters":5200,"station_id":"ce4bh512rcd13ifvqe2g","pricing_plan_id":"cebpf4jnsgd1na2vs0mg"},{"bike_id":"ace570be-8435-45da-930b-352950bd6900","system_id":"levelo_inurba_marseille","lat":43.291994,"lon":5.392907,"is_reserved":false,"is_disabled":false,"rental_uris":{"android":"levelo://app?vid=ace570be-8435-45da-930b-352950bd6900","ios":"levelo://app?vid=ace570be-8435-45da-930b-352950bd6900"},"vehicle_type_id":"4","last_reported":1712596041,"current_range_meters":14000,"station_id":"ce4bh192rcd13ifvqdd0","pricing_plan_id":"cebpf4jnsgd1na2vs0mg"},{"bike_id":"53d0d9de-7436-43e5-868c-5adbc9bd4da0","system_id":"levelo_inurba_marseille","lat":43.297815,"lon":5.393548,"is_reserved":false,"is_disabled":false,"rental_uris":{"android":"levelo://app?vid=53d0d9de-7436-43e5-868c-5adbc9bd4da0","ios":"levelo://app?vid=53d0d9de-7436-43e5-868c-5adbc9bd4da0"},"vehicle_type_id":"4","last_reported":1712596041,"current_range_meters":12400,"station_id":"chh1huq6cuj3fo74tm60","pricing_plan_id":"cebpf4jnsgd1na2vs0mg"},{"bike_id":"82d5c063-5b06-44e8-b101-a1220db0361b","system_id":"levelo_inurba_marseille","lat":43.295169,"lon":5.390426,"is_reserved":false,"is_disabled":false,"rental_uris":{"android":"levelo://app?vid=82d5c063-5b06-44e8-b101-a1220db0361b","ios":"levelo://app?vid=82d5c063-5b06-44e8-b101-a1220db0361b"},"vehicle_type_id":"4","last_reported":1712596041,"current_range_meters":800,"station_id":"ce4bh3p2rcd13ifvqdp0","pricing_plan_id":"cebpf4jnsgd1na2vs0mg"},{"bike_id":"5e31d99c-cf82-413d-8493-a58bd719f97b","system_id":"levelo_inurba_marseille","lat":43.29782,"lon":5.39333,"is_reserved":false,"is_disabled":false,"rental_uris":{"android":"levelo://app?vid=5e31d99c-cf82-413d-8493-a58bd719f97b","ios":"levelo://app?vid=5e31d99c-cf82-413d-8493-a58bd719f97b"},"vehicle_type_id":"4","last_reported":1712596041,"current_range_meters":0,"station_id":"chh1huq6cuj3fo74tm60","pricing_plan_id":"cebpf4jnsgd1na2vs0mg"},{"bike_id":"33e23824-297d-441f-b84c-a530b9652f2b","system_id":"levelo_inurba_marseille","lat":43.295169,"lon":5.390426,"is_reserved":false,"is_disabled":false,"rental_uris":{"android":"levelo://app?vid=33e23824-297d-441f-b84c-a530b9652f2b","ios":"levelo://app?vid=33e23824-297d-441f-b84c-a530b9652f2b"},"vehicle_type_id":"4","last_reported":1712596041,"current_range_meters":23600,"station_id":"ce4bh3p2rcd13ifvqdp0","pricing_plan_id":"cebpf4jnsgd1na2vs0mg"},{"bike_id":"ab815fc0-4f1c-4c17-bbcf-4e6de43eeda4","system_id":"levelo_inurba_marseille","lat":43.29785,"lon":5.39338,"is_reserved":false,"is_disabled":false,"rental_uris":{"android":"levelo://app?vid=ab815fc0-4f1c-4c17-bbcf-4e6de43eeda4","ios":"levelo://app?vid=ab815fc0-4f1c-4c17-bbcf-4e6de43eeda4"},"vehicle_type_id":"4","last_reported":1712596041,"current_range_meters":13600,"station_id":"chh1huq6cuj3fo74tm60","pricing_plan_id":"cebpf4jnsgd1na2vs0mg"},{"bike_id":"4e6abbb4-813e-40d4-86f5-616e618951d5","system_id":"levelo_inurba_marseille","lat":43.29795,"lon":5.39349,"is_reserved":false,"is_disabled":false,"rental_uris":{"android":"levelo://app?vid=4e6abbb4-813e-40d4-86f5-616e618951d5","ios":"levelo://app?vid=4e6abbb4-813e-40d4-86f5-616e618951d5"},"vehicle_type_id":"4","last_reported":1712596041,"current_range_meters":0,"station_id":"","pricing_plan_id":"cebpf4jnsgd1na2vs0mg"},{"bike_id":"889225b6-4915-4c05-a03c-70aa0a1f29a7","system_id":"levelo_inurba_marseille","lat":43.2978,"lon":5.3934,"is_reserved":false,"is_disabled":false,"rental_uris":{"android":"levelo://app?vid=889225b6-4915-4c05-a03c-70aa0a1f29a7","ios":"levelo://app?vid=889225b6-4915-4c05-a03c-70aa0a1f29a7"},"vehicle_type_id":"4","last_reported":1712596041,"current_range_meters":800,"station_id":"chh1huq6cuj3fo74tm60","pricing_plan_id":"cebpf4jnsgd1na2vs0mg"},{"bike_id":"45c69e9f-1abe-43cf-9814-6cd7e31d3b3c","system_id":"levelo_inurba_marseille","lat":43.295169,"lon":5.390426,"is_reserved":false,"is_disabled":false,"rental_uris":{"android":"levelo://app?vid=45c69e9f-1abe-43cf-9814-6cd7e31d3b3c","ios":"levelo://app?vid=45c69e9f-1abe-43cf-9814-6cd7e31d3b3c"},"vehicle_type_id":"4","last_reported":1712596041,"current_range_meters":7600,"station_id":"ce4bh3p2rcd13ifvqdp0","pricing_plan_id":"cebpf4jnsgd1na2vs0mg"},{"bike_id":"c6c56787-5af4-461a-a1fb-627309935cd3","system_id":"levelo_inurba_marseille","lat":43.322872,"lon":5.382756,"is_reserved":false,"is_disabled":false,"rental_uris":{"android":"levelo://app?vid=c6c56787-5af4-461a-a1fb-627309935cd3","ios":"levelo://app?vid=c6c56787-5af4-461a-a1fb-627309935cd3"},"vehicle_type_id":"4","last_reported":1712596041,"current_range_meters":23600,"station_id":"ce4bhr12rcd13ifvqhqg","pricing_plan_id":"cebpf4jnsgd1na2vs0mg"},{"bike_id":"87f9f66e-8dcd-4600-a2ec-f5cbc8639142","system_id":"levelo_inurba_marseille","lat":43.295169,"lon":5.390426,"is_reserved":false,"is_disabled":false,"rental_uris":{"android":"levelo://app?vid=87f9f66e-8dcd-4600-a2ec-f5cbc8639142","ios":"levelo://app?vid=87f9f66e-8dcd-4600-a2ec-f5cbc8639142"},"vehicle_type_id":"4","last_reported":1712596041,"current_range_meters":8800,"station_id":"ce4bh3p2rcd13ifvqdp0","pricing_plan_id":"cebpf4jnsgd1na2vs0mg"},{"bike_id":"947df8f3-dc66-4447-8f27-8045bb3c8b36","system_id":"levelo_inurba_marseille","lat":43.330442,"lon":5.389148,"is_reserved":false,"is_disabled":false,"rental_uris":{"android":"levelo://app?vid=947df8f3-dc66-4447-8f27-8045bb3c8b36","ios":"levelo://app?vid=947df8f3-dc66-4447-8f27-8045bb3c8b36"},"vehicle_type_id":"4","last_reported":1712596041,"current_range_meters":32000,"station_id":"ce4bhr92rcd13ifvqhrg","pricing_plan_id":"cebpf4jnsgd1na2vs0mg"},{"bike_id":"a8bc45de-44d5-441a-bccd-c8bdc7411bde","system_id":"levelo_inurba_marseille","lat":43.297645,"lon":5.39336,"is_reserved":false,"is_disabled":false,"rental_uris":{"android":"levelo://app?vid=a8bc45de-44d5-441a-bccd-c8bdc7411bde","ios":"levelo://app?vid=a8bc45de-44d5-441a-bccd-c8bdc7411bde"},"vehicle_type_id":"4","last_reported":1712596041,"current_range_meters":14000,"station_id":"chh1huq6cuj3fo74tm60","pricing_plan_id":"cebpf4jnsgd1na2vs0mg"},{"bike_id":"6644b7ff-a469-4d8f-b1cf-77d9f1528d46","system_id":"levelo_inurba_marseille","lat":43.33025,"lon":5.3904,"is_reserved":false,"is_disabled":false,"rental_uris":{"android":"levelo://app?vid=6644b7ff-a469-4d8f-b1cf-77d9f1528d46","ios":"levelo://app?vid=6644b7ff-a469-4d8f-b1cf-77d9f1528d46"},"vehicle_type_id":"4","last_reported":1712596041,"current_range_meters":21200,"station_id":"ce4bhr92rcd13ifvqhrg","pricing_plan_id":"cebpf4jnsgd1na2vs0mg"},{"bike_id":"3e127a67-d8ff-4fcc-a7de-47f56b7bc850","system_id":"levelo_inurba_marseille","lat":43.295169,"lon":5.390426,"is_reserved":false,"is_disabled":false,"rental_uris":{"android":"levelo://app?vid=3e127a67-d8ff-4fcc-a7de-47f56b7bc850","ios":"levelo://app?vid=3e127a67-d8ff-4fcc-a7de-47f56b7bc850"},"vehicle_type_id":"4","last_reported":1712596041,"current_range_meters":19600,"station_id":"ce4bh3p2rcd13ifvqdp0","pricing_plan_id":"cebpf4jnsgd1na2vs0mg"},{"bike_id":"459c34c5-d041-4df1-9c53-71c990a6222b","system_id":"levelo_inurba_marseille","lat":43.295169,"lon":5.390426,"is_reserved":false,"is_disabled":false,"rental_uris":{"android":"levelo://app?vid=459c34c5-d041-4df1-9c53-71c990a6222b","ios":"levelo://app?vid=459c34c5-d041-4df1-9c53-71c990a6222b"},"vehicle_type_id":"4","last_reported":1712596041,"current_range_meters":18000,"station_id":"ce4bh3p2rcd13ifvqdp0","pricing_plan_id":"cebpf4jnsgd1na2vs0mg"},{"bike_id":"e478d037-a0e7-4889-97d8-837c1035fe16","system_id":"levelo_inurba_marseille","lat":43.295169,"lon":5.390426,"is_reserved":false,"is_disabled":false,"rental_uris":{"android":"levelo://app?vid=e478d037-a0e7-4889-97d8-837c1035fe16","ios":"levelo://app?vid=e478d037-a0e7-4889-97d8-837c1035fe16"},"vehicle_type_id":"4","last_reported":1712596041,"current_range_meters":16000,"station_id":"ce4bh3p2rcd13ifvqdp0","pricing_plan_id":"cebpf4jnsgd1na2vs0mg"},{"bike_id":"9f6562ba-def4-4fa3-9075-558dd025cfed","system_id":"levelo_inurba_marseille","lat":43.330442,"lon":5.389148,"is_reserved":false,"is_disabled":false,"rental_uris":{"android":"levelo://app?vid=9f6562ba-def4-4fa3-9075-558dd025cfed","ios":"levelo://app?vid=9f6562ba-def4-4fa3-9075-558dd025cfed"},"vehicle_type_id":"4","last_reported":1712596041,"current_range_meters":14400,"station_id":"ce4bhr92rcd13ifvqhrg","pricing_plan_id":"cebpf4jnsgd1na2vs0mg"},{"bike_id":"e76a195f-3148-4ca1-a00e-1fd9cbac3596","system_id":"levelo_inurba_marseille","lat":43.33023,"lon":5.39046,"is_reserved":false,"is_disabled":false,"rental_uris":{"android":"levelo://app?vid=e76a195f-3148-4ca1-a00e-1fd9cbac3596","ios":"levelo://app?vid=e76a195f-3148-4ca1-a00e-1fd9cbac3596"},"vehicle_type_id":"4","last_reported":1712596041,"current_range_meters":3600,"station_id":"ce4bhr92rcd13ifvqhrg","pricing_plan_id":"cebpf4jnsgd1na2vs0mg"},{"bike_id":"85c23eea-bef0-4806-868f-d3c0e873f155","system_id":"levelo_inurba_marseille","lat":43.33024,"lon":5.39045,"is_reserved":false,"is_disabled":false,"rental_uris":{"android":"levelo://app?vid=85c23eea-bef0-4806-868f-d3c0e873f155","ios":"levelo://app?vid=85c23eea-bef0-4806-868f-d3c0e873f155"},"vehicle_type_id":"4","last_reported":1712596041,"current_range_meters":4400,"station_id":"ce4bhr92rcd13ifvqhrg","pricing_plan_id":"cebpf4jnsgd1na2vs0mg"},{"bike_id":"a283d2d9-0492-48e6-8559-2b3f03e91c5e","system_id":"levelo_inurba_marseille","lat":43.330442,"lon":5.389148,"is_reserved":false,"is_disabled":false,"rental_uris":{"android":"levelo://app?vid=a283d2d9-0492-48e6-8559-2b3f03e91c5e","ios":"levelo://app?vid=a283d2d9-0492-48e6-8559-2b3f03e91c5e"},"vehicle_type_id":"4","last_reported":1712596041,"current_range_meters":4400,"station_id":"ce4bhr92rcd13ifvqhrg","pricing_plan_id":"cebpf4jnsgd1na2vs0mg"},{"bike_id":"a53e37ab-769f-4325-a22e-1e1f1786fada","system_id":"levelo_inurba_marseille","lat":43.330442,"lon":5.389148,"is_reserved":false,"is_disabled":false,"rental_uris":{"android":"levelo://app?vid=a53e37ab-769f-4325-a22e-1e1f1786fada","ios":"levelo://app?vid=a53e37ab-769f-4325-a22e-1e1f1786fada"},"vehicle_type_id":"4","last_reported":1712596041,"current_range_meters":13600,"station_id":"ce4bhr92rcd13ifvqhrg","pricing_plan_id":"cebpf4jnsgd1na2vs0mg"},{"bike_id":"5602e9c2-cfbc-4041-b4b7-aa214ed1d1da","system_id":"levelo_inurba_marseille","lat":43.295169,"lon":5.390426,"is_reserved":false,"is_disabled":false,"rental_uris":{"android":"levelo://app?vid=5602e9c2-cfbc-4041-b4b7-aa214ed1d1da","ios":"levelo://app?vid=5602e9c2-cfbc-4041-b4b7-aa214ed1d1da"},"vehicle_type_id":"4","last_reported":1712596041,"current_range_meters":14800,"station_id":"ce4bh3p2rcd13ifvqdp0","pricing_plan_id":"cebpf4jnsgd1na2vs0mg"},{"bike_id":"2f434b40-008a-4720-9658-9a9b7c2b5e23","system_id":"levelo_inurba_marseille","lat":43.295169,"lon":5.390426,"is_reserved":false,"is_disabled":false,"rental_uris":{"android":"levelo://app?vid=2f434b40-008a-4720-9658-9a9b7c2b5e23","ios":"levelo://app?vid=2f434b40-008a-4720-9658-9a9b7c2b5e23"},"vehicle_type_id":"4","last_reported":1712596041,"current_range_meters":2400,"station_id":"ce4bh3p2rcd13ifvqdp0","pricing_plan_id":"cebpf4jnsgd1na2vs0mg"},{"bike_id":"2c27d14f-8afa-4ff8-9e8a-aef07e454311","system_id":"levelo_inurba_marseille","lat":43.295169,"lon":5.390426,"is_reserved":false,"is_disabled":false,"rental_uris":{"android":"levelo://app?vid=2c27d14f-8afa-4ff8-9e8a-aef07e454311","ios":"levelo://app?vid=2c27d14f-8afa-4ff8-9e8a-aef07e454311"},"vehicle_type_id":"4","last_reported":1712596041,"current_range_meters":23200,"station_id":"ce4bh3p2rcd13ifvqdp0","pricing_plan_id":"cebpf4jnsgd1na2vs0mg"},{"bike_id":"e60d7201-4892-4249-8b0a-934098110a42","system_id":"levelo_inurba_marseille","lat":43.295169,"lon":5.390426,"is_reserved":false,"is_disabled":false,"rental_uris":{"android":"levelo://app?vid=e60d7201-4892-4249-8b0a-934098110a42","ios":"levelo://app?vid=e60d7201-4892-4249-8b0a-934098110a42"},"vehicle_type_id":"4","last_reported":1712596041,"current_range_meters":20000,"station_id":"ce4bh3p2rcd13ifvqdp0","pricing_plan_id":"cebpf4jnsgd1na2vs0mg"},{"bike_id":"1dce9aa1-5232-4b74-8ce2-5f74a5bbde23","system_id":"levelo_inurba_marseille","lat":43.33113,"lon":5.38923,"is_reserved":false,"is_disabled":false,"rental_uris":{"android":"levelo://app?vid=1dce9aa1-5232-4b74-8ce2-5f74a5bbde23","ios":"levelo://app?vid=1dce9aa1-5232-4b74-8ce2-5f74a5bbde23"},"vehicle_type_id":"4","last_reported":1712596041,"current_range_meters":8800,"station_id":"","pricing_plan_id":"cebpf4jnsgd1na2vs0mg"},{"bike_id":"c4541802-aedf-4a1b-afef-571f7f927053","system_id":"levelo_inurba_marseille","lat":43.295169,"lon":5.390426,"is_reserved":false,"is_disabled":false,"rental_uris":{"android":"levelo://app?vid=c4541802-aedf-4a1b-afef-571f7f927053","ios":"levelo://app?vid=c4541802-aedf-4a1b-afef-571f7f927053"},"vehicle_type_id":"4","last_reported":1712596041,"current_range_meters":5200,"station_id":"ce4bh3p2rcd13ifvqdp0","pricing_plan_id":"cebpf4jnsgd1na2vs0mg"},{"bike_id":"d416bd40-a483-4f68-9054-893fbfc3c9cb","system_id":"levelo_inurba_marseille","lat":43.295169,"lon":5.390426,"is_reserved":false,"is_disabled":false,"rental_uris":{"android":"levelo://app?vid=d416bd40-a483-4f68-9054-893fbfc3c9cb","ios":"levelo://app?vid=d416bd40-a483-4f68-9054-893fbfc3c9cb"},"vehicle_type_id":"4","last_reported":1712596041,"current_range_meters":10000,"station_id":"ce4bh3p2rcd13ifvqdp0","pricing_plan_id":"cebpf4jnsgd1na2vs0mg"},{"bike_id":"c37bda29-5ea8-4c5e-83af-dd2497e174c5","system_id":"levelo_inurba_marseille","lat":43.295169,"lon":5.390426,"is_reserved":false,"is_disabled":false,"rental_uris":{"android":"levelo://app?vid=c37bda29-5ea8-4c5e-83af-dd2497e174c5","ios":"levelo://app?vid=c37bda29-5ea8-4c5e-83af-dd2497e174c5"},"vehicle_type_id":"4","last_reported":1712596041,"current_range_meters":16000,"station_id":"ce4bh3p2rcd13ifvqdp0","pricing_plan_id":"cebpf4jnsgd1na2vs0mg"},{"bike_id":"4200121a-ab56-4213-99b9-b27775004ee6","system_id":"levelo_inurba_marseille","lat":43.295169,"lon":5.390426,"is_reserved":false,"is_disabled":false,"rental_uris":{"android":"levelo://app?vid=4200121a-ab56-4213-99b9-b27775004ee6","ios":"levelo://app?vid=4200121a-ab56-4213-99b9-b27775004ee6"},"vehicle_type_id":"4","last_reported":1712596041,"current_range_meters":0,"station_id":"ce4bh3p2rcd13ifvqdp0","pricing_plan_id":"cebpf4jnsgd1na2vs0mg"},{"bike_id":"cd8c74ae-e18d-4de0-95e7-d3f3187a7d3c","system_id":"levelo_inurba_marseille","lat":43.295169,"lon":5.390426,"is_reserved":false,"is_disabled":false,"rental_uris":{"android":"levelo://app?vid=cd8c74ae-e18d-4de0-95e7-d3f3187a7d3c","ios":"levelo://app?vid=cd8c74ae-e18d-4de0-95e7-d3f3187a7d3c"},"vehicle_type_id":"4","last_reported":1712596041,"current_range_meters":2800,"station_id":"ce4bh3p2rcd13ifvqdp0","pricing_plan_id":"cebpf4jnsgd1na2vs0mg"},{"bike_id":"4b992859-a251-441c-81d6-b2c9a9162601","system_id":"levelo_inurba_marseille","lat":43.28573,"lon":5.394992,"is_reserved":false,"is_disabled":false,"rental_uris":{"android":"levelo://app?vid=4b992859-a251-441c-81d6-b2c9a9162601","ios":"levelo://app?vid=4b992859-a251-441c-81d6-b2c9a9162601"},"vehicle_type_id":"4","last_reported":1712596041,"current_range_meters":14400,"station_id":"ce4bh292rcd13ifvqdg0","pricing_plan_id":"cebpf4jnsgd1na2vs0mg"},{"bike_id":"e20b3979-de23-4019-ba4e-9888d519cf62","system_id":"levelo_inurba_marseille","lat":43.302058,"lon":5.39772,"is_reserved":false,"is_disabled":false,"rental_uris":{"android":"levelo://app?vid=e20b3979-de23-4019-ba4e-9888d519cf62","ios":"levelo://app?vid=e20b3979-de23-4019-ba4e-9888d519cf62"},"vehicle_type_id":"4","last_reported":1712596041,"current_range_meters":4400,"station_id":"ce4bh0h2rcd13ifvqd40","pricing_plan_id":"cebpf4jnsgd1na2vs0mg"},{"bike_id":"d24e0d1f-86cd-4c8a-8a56-693628b3a9fc","system_id":"levelo_inurba_marseille","lat":43.290197,"lon":5.381317,"is_reserved":false,"is_disabled":false,"rental_uris":{"android":"levelo://app?vid=d24e0d1f-86cd-4c8a-8a56-693628b3a9fc","ios":"levelo://app?vid=d24e0d1f-86cd-4c8a-8a56-693628b3a9fc"},"vehicle_type_id":"4","last_reported":1712596041,"current_range_meters":0,"station_id":"ce4bh4p2rcd13ifvqe1g","pricing_plan_id":"cebpf4jnsgd1na2vs0mg"},{"bike_id":"d0cedf84-7f3c-48e6-8e35-401a6575dae7","system_id":"levelo_inurba_marseille","lat":43.28856,"lon":5.358371,"is_reserved":false,"is_disabled":false,"rental_uris":{"android":"levelo://app?vid=d0cedf84-7f3c-48e6-8e35-401a6575dae7","ios":"levelo://app?vid=d0cedf84-7f3c-48e6-8e35-401a6575dae7"},"vehicle_type_id":"4","last_reported":1712596041,"current_range_meters":0,"station_id":"ce4bhb12rcd13ifvqem0","pricing_plan_id":"cebpf4jnsgd1na2vs0mg"},{"bike_id":"653284a6-4166-41b3-84ca-ee617ae5566a","system_id":"levelo_inurba_marseille","lat":43.28852,"lon":5.35849,"is_reserved":false,"is_disabled":false,"rental_uris":{"android":"levelo://app?vid=653284a6-4166-41b3-84ca-ee617ae5566a","ios":"levelo://app?vid=653284a6-4166-41b3-84ca-ee617ae5566a"},"vehicle_type_id":"4","last_reported":1712596041,"current_range_meters":28800,"station_id":"ce4bhb12rcd13ifvqem0","pricing_plan_id":"cebpf4jnsgd1na2vs0mg"},{"bike_id":"1f0db580-5449-427d-b5b4-ea5583fb342b","system_id":"levelo_inurba_marseille","lat":43.288498,"lon":5.358409,"is_reserved":false,"is_disabled":false,"rental_uris":{"android":"levelo://app?vid=1f0db580-5449-427d-b5b4-ea5583fb342b","ios":"levelo://app?vid=1f0db580-5449-427d-b5b4-ea5583fb342b"},"vehicle_type_id":"4","last_reported":1712596041,"current_range_meters":0,"station_id":"ce4bhb12rcd13ifvqem0","pricing_plan_id":"cebpf4jnsgd1na2vs0mg"},{"bike_id":"4d6af88d-2947-453c-9361-cb05c3b575d3","system_id":"levelo_inurba_marseille","lat":43.284217,"lon":5.349697,"is_reserved":false,"is_disabled":false,"rental_uris":{"android":"levelo://app?vid=4d6af88d-2947-453c-9361-cb05c3b575d3","ios":"levelo://app?vid=4d6af88d-2947-453c-9361-cb05c3b575d3"},"vehicle_type_id":"4","last_reported":1712596041,"current_range_meters":0,"station_id":"ce4bhbh2rcd13ifvqepg","pricing_plan_id":"cebpf4jnsgd1na2vs0mg"},{"bike_id":"31e4530e-53c0-4441-ad66-931ff8413e0a","system_id":"levelo_inurba_marseille","lat":43.289989,"lon":5.381672,"is_reserved":false,"is_disabled":false,"rental_uris":{"android":"levelo://app?vid=31e4530e-53c0-4441-ad66-931ff8413e0a","ios":"levelo://app?vid=31e4530e-53c0-4441-ad66-931ff8413e0a"},"vehicle_type_id":"4","last_reported":1712596041,"current_range_meters":0,"station_id":"ce4bh4p2rcd13ifvqe0g","pricing_plan_id":"cebpf4jnsgd1na2vs0mg"},{"bike_id":"489cd49b-1c77-4127-9f8e-a99215698fbd","system_id":"levelo_inurba_marseille","lat":43.312609,"lon":5.401662,"is_reserved":false,"is_disabled":false,"rental_uris":{"android":"levelo://app?vid=489cd49b-1c77-4127-9f8e-a99215698fbd","ios":"levelo://app?vid=489cd49b-1c77-4127-9f8e-a99215698fbd"},"vehicle_type_id":"4","last_reported":1712596041,"current_range_meters":4400,"station_id":"ce4bh092rcd13ifvqd30","pricing_plan_id":"cebpf4jnsgd1na2vs0mg"},{"bike_id":"d4803f30-408e-4fd4-a595-9eeed3566655","system_id":"levelo_inurba_marseille","lat":43.337439,"lon":5.374534,"is_reserved":false,"is_disabled":false,"rental_uris":{"android":"levelo://app?vid=d4803f30-408e-4fd4-a595-9eeed3566655","ios":"levelo://app?vid=d4803f30-408e-4fd4-a595-9eeed3566655"},"vehicle_type_id":"4","last_reported":1712596041,"current_range_meters":30800,"station_id":"","pricing_plan_id":"cebpf4jnsgd1na2vs0mg"},{"bike_id":"9c98f002-03e0-48c5-b337-05e454ad54f2","system_id":"levelo_inurba_marseille","lat":43.309371,"lon":5.401449,"is_reserved":false,"is_disabled":false,"rental_uris":{"android":"levelo://app?vid=9c98f002-03e0-48c5-b337-05e454ad54f2","ios":"levelo://app?vid=9c98f002-03e0-48c5-b337-05e454ad54f2"},"vehicle_type_id":"4","last_reported":1712596041,"current_range_meters":10000,"station_id":"ce4bgvp2rcd13ifvqct0","pricing_plan_id":"cebpf4jnsgd1na2vs0mg"},{"bike_id":"4d9d2968-ebd4-4b6d-a4a1-3c66f83fed46","system_id":"levelo_inurba_marseille","lat":43.312609,"lon":5.401662,"is_reserved":false,"is_disabled":false,"rental_uris":{"android":"levelo://app?vid=4d9d2968-ebd4-4b6d-a4a1-3c66f83fed46","ios":"levelo://app?vid=4d9d2968-ebd4-4b6d-a4a1-3c66f83fed46"},"vehicle_type_id":"4","last_reported":1712596041,"current_range_meters":0,"station_id":"ce4bh092rcd13ifvqd30","pricing_plan_id":"cebpf4jnsgd1na2vs0mg"},