{"last_updated":1736190418,"ttl":60,"version":"2.2","data":{"bikes":[{"bike_id":"858bd43e-5fdd-4e4e-b8dc-df4e2d53b013","system_id":"levelo_inurba_marseille","lat":43.25822,"lon":5.39442,"is_reserved":false,"is_disabled":false,"rental_uris":{"android":"levelo://app?vid=858bd43e-5fdd-4e4e-b8dc-df4e2d53b013","ios":"levelo://app?vid=858bd43e-5fdd-4e4e-b8dc-df4e2d53b013"},"vehicle_type_id":"4","last_reported":1736190419,"current_range_meters":29600,"station_id":"ce4bhip2rcd13ifvqft0","pricing_plan_id":"cebpf4jnsgd1na2vs0mg"},{"bike_id":"6468ca15-1b81-4ca0-9d51-e5a545b05c54","system_id":"levelo_inurba_marseille","lat":43.27825,"lon":5.40714,"is_reserved":false,"is_disabled":true,"rental_uris":{"android":"levelo://app?vid=6468ca15-1b81-4ca0-9d51-e5a545b05c54","ios":"levelo://app?vid=6468ca15-1b81-4ca0-9d51-e5a545b05c54"},"vehicle_type_id":"4","last_reported":1736190419,"current_range_meters":28400,"station_id":"ce4bhnh2rcd13ifvqgtg","pricing_plan_id":"cebpf4jnsgd1na2vs0mg"},{"bike_id":"eab8fa68-5664-4786-8ae7-c43d42aa8d90","system_id":"levelo_inurba_marseille","lat":43.28028,"lon":5.36966,"is_reserved":false,"is_disabled":false,"rental_uris":{"android":"levelo://app?vid=eab8fa68-5664-4786-8ae7-c43d42aa8d90","ios":"levelo://app?vid=eab8fa68-5664-4786-8ae7-c43d42aa8d90"},"vehicle_type_id":"4","last_reported":1736190419,"current_range_meters":30800,"station_id":"ce4bha12rcd13ifvqef0","pricing_plan_id":"cebpf4jnsgd1na2vs0mg"},{"bike_id":"b570cc0e-254b-46f8-bac7-42f2486d6d4d","system_id":"levelo_inurba_marseille","lat":43.24655,"lon":5.38894,"is_reserved":false,"is_disabled":false,"rental_uris":{"android":"levelo://app?vid=b570cc0e-254b-46f8-bac7-42f2486d6d4d","ios":"levelo://app?vid=b570cc0e-254b-46f8-bac7-42f2486d6d4d"},"vehicle_type_id":"4","last_reported":1736190419,"current_range_meters":38800,"station_id":"ce4bhg12rcd13ifvqf60","pricing_plan_id":"cebpf4jnsgd1na2vs0mg"},{"bike_id":"dacb215f-e365-48ed-888e-e333832d1aa7","system_id":"levelo_inurba_marseille","lat":43.33025,"lon":5.39042,"is_reserved":false,"is_disabled":false,"rental_uris":{"android":"levelo://app?vid=dacb215f-e365-48ed-888e-e333832d1aa7","ios":"levelo://app?vid=dacb215f-e365-48ed-888e-e333832d1aa7"},"vehicle_type_id":"4","last_reported":1736190419,"current_range_meters":37600,"station_id":"ce4bhr92rcd13ifvqhrg","pricing_plan_id":"cebpf4jnsgd1na2vs0mg"},{"bike_id":"75397313-d2f3-43d1-95c6-cca2420d0a1c","system_id":"levelo_inurba_marseille","lat":43.28,"lon":5.40009,"is_reserved":false,"is_disabled":false,"rental_uris":{"android":"levelo://app?vid=75397313-d2f3-43d1-95c6-cca2420d0a1c","ios":"levelo://app?vid=75397313-d2f3-43d1-95c6-cca2420d0a1c"},"vehicle_type_id":"4","last_reported":1736190419,"current_range_meters":30000,"station_id":"ce4bho92rcd13ifvqh4g","pricing_plan_id":"cebpf4jnsgd1na2vs0mg"},{"bike_id":"0153ae28-9422-4039-87f8-952c80b8c9cc","system_id":"levelo_inurba_marseille","lat":43.27329,"lon":5.39088,"is_reserved":false,"is_disabled":true,"rental_uris":{"android":"levelo://app?vid=0153ae28-9422-4039-87f8-952c80b8c9cc","ios":"levelo://app?vid=0153ae28-9422-4039-87f8-952c80b8c9cc"},"vehicle_type_id":"4","last_reported":1736190419,"current_range_meters":35600,"station_id":"ce4bhgp2rcd13ifvqfe0","pricing_plan_id":"cebpf4jnsgd1na2vs0mg"},{"bike_id":"1087c8fd-1f49-46f6-ae0c-c09cf6fa65ac","system_id":"levelo_inurba_marseille","lat":43.314925,"lon":5.380848,"is_reserved":false,"is_disabled":false,"rental_uris":{"android":"levelo://app?vid=1087c8fd-1f49-46f6-ae0c-c09cf6fa65ac","ios":"levelo://app?vid=1087c8fd-1f49-46f6-ae0c-c09cf6fa65ac"},"vehicle_type_id":"4","last_reported":1736190419,"current_range_meters":3600,"station_id":"ce4bhsp2rcd13ifvqi50","pricing_plan_id":"cebpf4jnsgd1na2vs0mg"},{"bike_id":"4d557de7-c82d-4422-a616-878f1c1fa4a9","system_id":"levelo_inurba_marseille","lat":43.31752,"lon":5.39029,"is_reserved":false,"is_disabled":false,"rental_uris":{"android":"levelo://app?vid=4d557de7-c82d-4422-a616-878f1c1fa4a9","ios":"levelo://app?vid=4d557de7-c82d-4422-a616-878f1c1fa4a9"},"vehicle_type_id":"4","last_reported":1736190419,"current_range_meters":25600,"station_id":"ce4bhqp2rcd13ifvqhng","pricing_plan_id":"cebpf4jnsgd1na2vs0mg"},{"bike_id":"e8f7458c-cf19-43d7-a972-43547ad9fe30","system_id":"levelo_inurba_marseille","lat":43.27171,"lon":5.41001,"is_reserved":false,"is_disabled":false,"rental_uris":{"android":"levelo://app?vid=e8f7458c-cf19-43d7-a972-43547ad9fe30","ios":"levelo://app?vid=e8f7458c-cf19-43d7-a972-43547ad9fe30"},"vehicle_type_id":"4","last_reported":1736190419,"current_range_meters":6800,"station_id":"ce4bhl12rcd13ifvqgf0","pricing_plan_id":"cebpf4jnsgd1na2vs0mg"},{"bike_id":"05a2c15a-fb68-455c-8082-fdf747a62fe7","system_id":"levelo_inurba_marseille","lat":43.27814,"lon":5.40711,"is_reserved":false,"is_disabled":true,"rental_uris":{"android":"levelo://app?vid=05a2c15a-fb68-455c-8082-fdf747a62fe7","ios":"levelo://app?vid=05a2c15a-fb68-455c-8082-fdf747a62fe7"},"vehicle_type_id":"4","last_reported":1736190419,"current_range_meters":400,"station_id":"ce4bhnh2rcd13ifvqgtg","pricing_plan_id":"cebpf4jnsgd1na2vs0mg"},{"bike_id":"977039bd-2713-4c83-a12d-15fa8ba10849","system_id":"levelo_inurba_marseille","lat":43.28706,"lon":5.37942,"is_reserved":false,"is_disabled":true,"rental_uris":{"android":"levelo://app?vid=977039bd-2713-4c83-a12d-15fa8ba10849","ios":"levelo://app?vid=977039bd-2713-4c83-a12d-15fa8ba10849"},"vehicle_type_id":"4","last_reported":1736190419,"current_range_meters":25200,"station_id":"ce4bh9p2rcd13ifvqec0","pricing_plan_id":"cebpf4jnsgd1na2vs0mg"},{"bike_id":"795f0bf4-6cb2-4181-a990-1a76c6d73ea0","system_id":"levelo_inurba_marseille","lat":43.27963,"lon":5.41049,"is_reserved":false,"is_disabled":true,"rental_uris":{"android":"levelo://app?vid=795f0bf4-6cb2-4181-a990-1a76c6d73ea0","ios":"levelo://app?vid=795f0bf4-6cb2-4181-a990-1a76c6d73ea0"},"vehicle_type_id":"4","last_reported":1736190419,"current_range_meters":38800,"station_id":"ce4bhnp2rcd13ifvqh0g","pricing_plan_id":"cebpf4jnsgd1na2vs0mg"},{"bike_id":"e10f0c59-78aa-48d4-bfd2-ea029561033e","system_id":"levelo_inurba_marseille","lat":43.31361,"lon":5.38495,"is_reserved":false,"is_disabled":false,"rental_uris":{"android":"levelo://app?vid=e10f0c59-78aa-48d4-bfd2-ea029561033e","ios":"levelo://app?vid=e10f0c59-78aa-48d4-bfd2-ea029561033e"},"vehicle_type_id":"4","last_reported":1736190419,"current_range_meters":35600,"station_id":"ce4bgt92rcd13ifvqcf0","pricing_plan_id":"cebpf4jnsgd1na2vs0mg"},{"bike_id":"a7daa7e8-1c32-4c5e-8957-1f51d47bc446","system_id":"levelo_inurba_marseille","lat":43.27919,"lon":5.39579,"is_reserved":false,"is_disabled":false,"rental_uris":{"android":"levelo://app?vid=a7daa7e8-1c32-4c5e-8957-1f51d47bc446","ios":"levelo://app?vid=a7daa7e8-1c32-4c5e-8957-1f51d47bc446"},"vehicle_type_id":"4","last_reported":1736190419,"current_range_meters":28800,"station_id":"ce4bhf92rcd13ifvqf40","pricing_plan_id":"cebpf4jnsgd1na2vs0mg"},{"bike_id":"2e3020fc-739e-484f-aff1-968aa18f2ac1","system_id":"levelo_inurba_marseille","lat":43.27995,"lon":5.41653,"is_reserved":false,"is_disabled":true,"rental_uris":{"android":"levelo://app?vid=2e3020fc-739e-484f-aff1-968aa18f2ac1","ios":"levelo://app?vid=2e3020fc-739e-484f-aff1-968aa18f2ac1"},"vehicle_type_id":"4","last_reported":1736190419,"current_range_meters":38800,"station_id":"ce4bho12rcd13ifvqh1g","pricing_plan_id":"cebpf4jnsgd1na2vs0mg"},{"bike_id":"7465813d-a24c-463a-a24a-d777defcbdbe","system_id":"levelo_inurba_marseille","lat":43.26493,"lon":5.39546,"is_reserved":false,"is_disabled":false,"rental_uris":{"android":"levelo://app?vid=7465813d-a24c-463a-a24a-d777defcbdbe","ios":"levelo://app?vid=7465813d-a24c-463a-a24a-d777defcbdbe"},"vehicle_type_id":"4","last_reported":1736190419,"current_range_meters":16000,"station_id":"ce4bhi12rcd13ifvqfq0","pricing_plan_id":"cebpf4jnsgd1na2vs0mg"},{"bike_id":"9bc564bb-6773-485d-ac7c-33edf80314fe","system_id":"levelo_inurba_marseille","lat":43.25009,"lon":5.38909,"is_reserved":false,"is_disabled":false,"rental_uris":{"android":"levelo://app?vid=9bc564bb-6773-485d-ac7c-33edf80314fe","ios":"levelo://app?vid=9bc564bb-6773-485d-ac7c-33edf80314fe"},"vehicle_type_id":"4","last_reported":1736190419,"current_range_meters":5600,"station_id":"ce4bhgp2rcd13ifvqfd0","pricing_plan_id":"cebpf4jnsgd1na2vs0mg"},{"bike_id":"c6462501-85fc-48e5-83ac-3bf58ccfa49e","system_id":"levelo_inurba_marseille","lat":43.250849,"lon":5.39522,"is_reserved":false,"is_disabled":false,"rental_uris":{"android":"levelo://app?vid=c6462501-85fc-48e5-83ac-3bf58ccfa49e","ios":"levelo://app?vid=c6462501-85fc-48e5-83ac-3bf58ccfa49e"},"vehicle_type_id":"4","last_reported":1736190419,"current_range_meters":28800,"station_id":"ce4bhm12rcd13ifvqgkg","pricing_plan_id":"cebpf4jnsgd1na2vs0mg"},{"bike_id":"e56af223-5844-473f-a506-370da1426720","system_id":"levelo_inurba_marseille","lat":43.30093,"lon":5.39083,"is_reserved":false,"is_disabled":false,"rental_uris":{"android":"levelo://app?vid=e56af223-5844-473f-a506-370da1426720","ios":"levelo://app?vid=e56af223-5844-473f-a506-370da1426720"},"vehicle_type_id":"4","last_reported":1736190419,"current_range_meters":38800,"station_id":"ce4bh192rcd13ifvqdb0","pricing_plan_id":"cebpf4jnsgd1na2vs0mg"},{"bike_id":"c6c5246a-6c57-426f-a7e1-dc372ef756c9","system_id":"levelo_inurba_marseille","lat":43.28486,"lon":5.35888,"is_reserved":false,"is_disabled":false,"rental_uris":{"android":"levelo://app?vid=c6c5246a-6c57-426f-a7e1-dc372ef756c9","ios":"levelo://app?vid=c6c5246a-6c57-426f-a7e1-dc372ef756c9"},"vehicle_type_id":"4","last_reported":1736190419,"current_range_meters":12000,"station_id":"ce4bhah2rcd13ifvqei0","pricing_plan_id":"cebpf4jnsgd1na2vs0mg"},{"bike_id":"4eeaeffa-480f-4a94-8286-42f1bcb601fc","system_id":"levelo_inurba_marseille","lat":43.29272,"lon":5.40117,"is_reserved":false,"is_disabled":true,"rental_uris":{"android":"levelo://app?vid=4eeaeffa-480f-4a94-8286-42f1bcb601fc","ios":"levelo://app?vid=4eeaeffa-480f-4a94-8286-42f1bcb601fc"},"vehicle_type_id":"4","last_reported":1736190419,"current_range_meters":22000,"station_id":"ce4bh312rcd13ifvqdk0","pricing_plan_id":"cebpf4jnsgd1na2vs0mg"},{"bike_id":"19a6ff73-a1dc-4a75-ad6d-024b5577d814","system_id":"levelo_inurba_marseille","lat":43.29514,"lon":5.39398,"is_reserved":false,"is_disabled":false,"rental_uris":{"android":"levelo://app?vid=19a6ff73-a1dc-4a75-ad6d-024b5577d814","ios":"levelo://app?vid=19a6ff73-a1dc-4a75-ad6d-024b5577d814"},"vehicle_type_id":"4","last_reported":1736190419,"current_range_meters":9600,"station_id":"ce4bh292rcd13ifvqdf0","pricing_plan_id":"cebpf4jnsgd1na2vs0mg"},{"bike_id":"7785ab47-fc21-464f-82e3-4fad2439c0ee","system_id":"levelo_inurba_marseille","lat":43.2982,"lon":5.43699,"is_reserved":false,"is_disabled":false,"rental_uris":{"android":"levelo://app?vid=7785ab47-fc21-464f-82e3-4fad2439c0ee","ios":"levelo://app?vid=7785ab47-fc21-464f-82e3-4fad2439c0ee"},"vehicle_type_id":"4","last_reported":1736190419,"current_range_meters":19200,"station_id":"","pricing_plan_id":"cebpf4jnsgd1na2vs0mg"},{"bike_id":"abb7c72c-f444-45af-97ba-c60ca97008ea","system_id":"levelo_inurba_marseille","lat":43.25122,"lon":5.40317,"is_reserved":false,"is_disabled":false,"rental_uris":{"android":"levelo://app?vid=abb7c72c-f444-45af-97ba-c60ca97008ea","ios":"levelo://app?vid=abb7c72c-f444-45af-97ba-c60ca97008ea"},"vehicle_type_id":"4","last_reported":1736190419,"current_range_meters":25600,"station_id":"ce4bhlh2rcd13ifvqgig","pricing_plan_id":"cebpf4jnsgd1na2vs0mg"},{"bike_id":"1f415657-94a6-409f-82d6-ff1e2dcc6a69","system_id":"levelo_inurba_marseille","lat":43.3032,"lon":5.40457,"is_reserved":false,"is_disabled":false,"rental_uris":{"android":"levelo://app?vid=1f415657-94a6-409f-82d6-ff1e2dcc6a69","ios":"levelo://app?vid=1f415657-94a6-409f-82d6-ff1e2dcc6a69"},"vehicle_type_id":"4","last_reported":1736190419,"current_range_meters":12400,"station_id":"ce4bh012rcd13ifvqd10","pricing_plan_id":"cebpf4jnsgd1na2vs0mg"},{"bike_id":"78de9d92-a23c-4c51-a523-2a33a3e052d7","system_id":"levelo_inurba_marseille","lat":43.31162,"lon":5.38719,"is_reserved":false,"is_disabled":false,"rental_uris":{"android":"levelo://app?vid=78de9d92-a23c-4c51-a523-2a33a3e052d7","ios":"levelo://app?vid=78de9d92-a23c-4c51-a523-2a33a3e052d7"},"vehicle_type_id":"4","last_reported":1736190419,"current_range_meters":28000,"station_id":"ce4bgv12rcd13ifvqcp0","pricing_plan_id":"cebpf4jnsgd1na2vs0mg"},{"bike_id":"aea80313-2620-4ee9-a0d5-dd9c34639f75","system_id":"levelo_inurba_marseille","lat":43.29955,"lon":5.41323,"is_reserved":false,"is_disabled":false,"rental_uris":{"android":"levelo://app?vid=aea80313-2620-4ee9-a0d5-dd9c34639f75","ios":"levelo://app?vid=aea80313-2620-4ee9-a0d5-dd9c34639f75"},"vehicle_type_id":"4","last_reported":1736190419,"current_range_meters":38400,"station_id":"ce4bhp12rcd13ifvqh9g","pricing_plan_id":"cebpf4jnsgd1na2vs0mg"},{"bike_id":"21d58c8f-34d7-4f20-9ab3-933a26280e93","system_id":"levelo_inurba_marseille","lat":43.28458,"lon":5.35898,"is_reserved":false,"is_disabled":true,"rental_uris":{"android":"levelo://app?vid=21d58c8f-34d7-4f20-9ab3-933a26280e93","ios":"levelo://app?vid=21d58c8f-34d7-4f20-9ab3-933a26280e93"},"vehicle_type_id":"4","last_reported":1736190419,"current_range_meters":0,"station_id":"ce4bhah2rcd13ifvqei0","pricing_plan_id":"cebpf4jnsgd1na2vs0mg"},{"bike_id":"f1ed5c5d-14d8-407b-bdb0-b84611421a7e","system_id":"levelo_inurba_marseille","lat":43.29954,"lon":5.41315,"is_reserved":false,"is_disabled":false,"rental_uris":{"android":"levelo://app?vid=f1ed5c5d-14d8-407b-bdb0-b84611421a7e","ios":"levelo://app?vid=f1ed5c5d-14d8-407b-bdb0-b84611421a7e"},"vehicle_type_id":"4","last_reported":1736190419,"current_range_meters":39200,"station_id":"ce4bhp12rcd13ifvqh9g","pricing_plan_id":"cebpf4jnsgd1na2vs0mg"},{"bike_id":"c023aed8-c4af-47de-bf55-7ec6cfb1c879","system_id":"levelo_inurba_marseille","lat":43.26211,"lon":5.37473,"is_reserved":false,"is_disabled":true,"rental_uris":{"android":"levelo://app?vid=c023aed8-c4af-47de-bf55-7ec6cfb1c879","ios":"levelo://app?vid=c023aed8-c4af-47de-bf55-7ec6cfb1c879"},"vehicle_type_id":"4","last_reported":1736190419,"current_range_meters":30400,"station_id":"ce4bhgp2rcd13ifvqfc0","pricing_plan_id":"cebpf4jnsgd1na2vs0mg"},{"bike_id":"abb73762-9b4d-4d88-954c-9c0415dc3b68","system_id":"levelo_inurba_marseille","lat":43.25588,"lon":5.38245,"is_reserved":false,"is_disabled":false,"rental_uris":{"android":"levelo://app?vid=abb73762-9b4d-4d88-954c-9c0415dc3b68","ios":"levelo://app?vid=abb73762-9b4d-4d88-954c-9c0415dc3b68"},"vehicle_type_id":"4","last_reported":1736190419,"current_range_meters":39200,"station_id":"ce4bhih2rcd13ifvqfs0","pricing_plan_id":"cebpf4jnsgd1na2vs0mg"},{"bike_id":"ebf65e80-1869-4c83-a4e9-e1600f07fee4","system_id":"levelo_inurba_marseille","lat":43.23196,"lon":5.39979,"is_reserved":false,"is_disabled":false,"rental_uris":{"android":"levelo://app?vid=ebf65e80-1869-4c83-a4e9-e1600f07fee4","ios":"levelo://app?vid=ebf65e80-1869-4c83-a4e9-e1600f07fee4"},"vehicle_type_id":"4","last_reported":1736190419,"current_range_meters":39200,"station_id":"ce4bhn12rcd13ifvqgqg","pricing_plan_id":"cebpf4jnsgd1na2vs0mg"},{"bike_id":"ad036647-e9f4-4246-953d-37ee6601db50","system_id":"levelo_inurba_marseille","lat":43.2466,"lon":5.38183,"is_reserved":false,"is_disabled":false,"rental_uris":{"android":"levelo://app?vid=ad036647-e9f4-4246-953d-37ee6601db50","ios":"levelo://app?vid=ad036647-e9f4-4246-953d-37ee6601db50"},"vehicle_type_id":"4","last_reported":1736190419,"current_range_meters":20800,"station_id":"ce4bhih2rcd13ifvqfr0","pricing_plan_id":"cebpf4jnsgd1na2vs0mg"},{"bike_id":"a4c39974-f98a-4bc5-9f89-b4b668528338","system_id":"levelo_inurba_marseille","lat":43.27624,"lon":5.36111,"is_reserved":false,"is_disabled":false,"rental_uris":{"android":"levelo://app?vid=a4c39974-f98a-4bc5-9f89-b4b668528338","ios":"levelo://app?vid=a4c39974-f98a-4bc5-9f89-b4b668528338"},"vehicle_type_id":"4","last_reported":1736190419,"current_range_meters":8400,"station_id":"ce4bgj92rcd13ifvqbe0","pricing_plan_id":"cebpf4jnsgd1na2vs0mg"},{"bike_id":"8b18ae7c-9169-465c-8009-ab9a5c1809f3","system_id":"levelo_inurba_marseille","lat":43.25878,"lon":5.39906,"is_reserved":false,"is_disabled":false,"rental_uris":{"android":"levelo://app?vid=8b18ae7c-9169-465c-8009-ab9a5c1809f3","ios":"levelo://app?vid=8b18ae7c-9169-465c-8009-ab9a5c1809f3"},"vehicle_type_id":"4","last_reported":1736190419,"current_range_meters":25200,"station_id":"ce4bhl92rcd13ifvqghg","pricing_plan_id":"cebpf4jnsgd1na2vs0mg"},{"bike_id":"f0be3fc2-4bb2-484f-9480-cd0e3b8dfdd2","system_id":"levelo_inurba_marseille","lat":43.29851,"lon":5.36264,"is_reserved":false,"is_disabled":false,"rental_uris":{"android":"levelo://app?vid=f0be3fc2-4bb2-484f-9480-cd0e3b8dfdd2","ios":"levelo://app?vid=f0be3fc2-4bb2-484f-9480-cd0e3b8dfdd2"},"vehicle_type_id":"4","last_reported":1736190419,"current_range_meters":38800,"station_id":"ce4bgpp2rcd13ifvqc3g","pricing_plan_id":"cebpf4jnsgd1na2vs0mg"},{"bike_id":"8f4cf41c-b903-4636-a909-4328c2d0bfed","system_id":"levelo_inurba_marseille","lat":43.29418,"lon":5.38626,"is_reserved":false,"is_disabled":true,"rental_uris":{"android":"levelo://app?vid=8f4cf41c-b903-4636-a909-4328c2d0bfed","ios":"levelo://app?vid=8f4cf41c-b903-4636-a909-4328c2d0bfed"},"vehicle_type_id":"4","last_reported":1736190419,"current_range_meters":800,"station_id":"ce4bh2h2rcd13ifvqdh0","pricing_plan_id":"cebpf4jnsgd1na2vs0mg"},{"bike_id":"964d87c8-cd8b-4f66-a8bd-3f7be33d5b71","system_id":"levelo_inurba_marseille","lat":43.27812,"lon":5.40715,"is_reserved":false,"is_disabled":false,"rental_uris":{"android":"levelo://app?vid=964d87c8-cd8b-4f66-a8bd-3f7be33d5b71","ios":"levelo://app?vid=964d87c8-cd8b-4f66-a8bd-3f7be33d5b71"},"vehicle_type_id":"4","last_reported":1736190419,"current_range_meters":11600,"station_id":"ce4bhnh2rcd13ifvqgtg","pricing_plan_id":"cebpf4jnsgd1na2vs0mg"},{"bike_id":"f49ff399-8e93-459f-8dbb-18e786000639","system_id":"levelo_inurba_marseille","lat":43.29366,"lon":5.37848,"is_reserved":false,"is_disabled":false,"rental_uris":{"android":"levelo://app?vid=f49ff399-8e93-459f-8dbb-18e786000639","ios":"levelo://app?vid=f49ff399-8e93-459f-8dbb-18e786000639"},"vehicle_type_id":"4","last_reported":1736190419,"current_range_meters":39200,"station_id":"ce4bgjh2rcd13ifvqbf0","pricing_plan_id":"cebpf4jnsgd1na2vs0mg"},{"bike_id":"f950f68e-763d-458f-8358-255933d8bbd3","system_id":"levelo_inurba_marseille","lat":43.27897,"lon":5.38011,"is_reserved":false,"is_disabled":false,"rental_uris":{"android":"levelo://app?vid=f950f68e-763d-458f-8358-255933d8bbd3","ios":"levelo://app?vid=f950f68e-763d-458f-8358-255933d8bbd3"},"vehicle_type_id":"4","last_reported":1736190419,"current_range_meters":38400,"station_id":"ce4bhf92rcd13ifvqf50","pricing_plan_id":"cebpf4jnsgd1na2vs0mg"},{"bike_id":"9ee617c7-9b76-440e-9281-5fef63933f9f","system_id":"levelo_inurba_marseille","lat":43.297923,"lon":5.393492,"is_reserved":false,"is_disabled":false,"rental_uris":{"android":"levelo://app?vid=9ee617c7-9b76-440e-9281-5fef63933f9f","ios":"levelo://app?vid=9ee617c7-9b76-440e-9281-5fef63933f9f"},"vehicle_type_id":"4","last_reported":1736190419,"current_range_meters":38800,"station_id":"chh1huq6cuj3fo74tm60","pricing_plan_id":"cebpf4jnsgd1na2vs0mg"},{"bike_id":"7bfd0939-c8d9-43c0-b787-aab16780ddd6","system_id":"levelo_inurba_marseille","lat":43.26552,"lon":5.37286,"is_reserved":false,"is_disabled":false,"rental_uris":{"android":"levelo://app?vid=7bfd0939-c8d9-43c0-b787-aab16780ddd6","ios":"levelo://app?vid=7bfd0939-c8d9-43c0-b787-aab16780ddd6"},"vehicle_type_id":"4","last_reported":1736190419,"current_range_meters":20400,"station_id":"ce4bhg12rcd13ifvqf70","pricing_plan_id":"cebpf4jnsgd1na2vs0mg"},{"bike_id":"fa1d266e-7d66-4410-bc14-94bda59c65ed","system_id":"levelo_inurba_marseille","lat":43.27621,"lon":5.3612,"is_reserved":false,"is_disabled":false,"rental_uris":{"android":"levelo://app?vid=fa1d266e-7d66-4410-bc14-94bda59c65ed","ios":"levelo://app?vid=fa1d266e-7d66-4410-bc14-94bda59c65ed"},"vehicle_type_id":"4","last_reported":1736190419,"current_range_meters":39200,"station_id":"ce4bgj92rcd13ifvqbe0","pricing_plan_id":"cebpf4jnsgd1na2vs0mg"},{"bike_id":"a9046670-4fee-4d5a-b75d-66a66986ba3f","system_id":"levelo_inurba_marseille","lat":43.28461,"lon":5.35887,"is_reserved":false,"is_disabled":false,"rental_uris":{"android":"levelo://app?vid=a9046670-4fee-4d5a-b75d-66a66986ba3f","ios":"levelo://app?vid=a9046670-4fee-4d5a-b75d-66a66986ba3f"},"vehicle_type_id":"4","last_reported":1736190419,"current_range_meters":7200,"station_id":"ce4bhah2rcd13ifvqei0","pricing_plan_id":"cebpf4jnsgd1na2vs0mg"},{"bike_id":"0d869571-702b-474e-9734-e51fa36b8db2","system_id":"levelo_inurba_marseille","lat":43.29204,"lon":5.39309,"is_reserved":false,"is_disabled":true,"rental_uris":{"android":"levelo://app?vid=0d869571-702b-474e-9734-e51fa36b8db2","ios":"levelo://app?vid=0d869571-702b-474e-9734-e51fa36b8db2"},"vehicle_type_id":"4","last_reported":1736190419,"current_range_meters":10800,"station_id":"ce4bh192rcd13ifvqdd0","pricing_plan_id":"cebpf4jnsgd1na2vs0mg"},{"bike_id":"1abc4dce-9392-4c74-a4fd-9fcdbc077e94","system_id":"levelo_inurba_marseille","lat":43.2957,"lon":5.39964,"is_reserved":false,"is_disabled":false,"rental_uris":{"android":"levelo://app?vid=1abc4dce-9392-4c74-a4fd-9fcdbc077e94","ios":"levelo://app?vid=1abc4dce-9392-4c74-a4fd-9fcdbc077e94"},"vehicle_type_id":"4","last_reported":1736190419,"current_range_meters":24800,"station_id":"ce4bh312rcd13ifvqdj0","pricing_plan_id":"cebpf4jnsgd1na2vs0mg"},{"bike_id":"fe3c9f6c-b879-430c-8afc-3755d2438ecb","system_id":"levelo_inurba_marseille","lat":43.27913,"lon":5.38015,"is_reserved":false,"is_disabled":false,"rental_uris":{"android":"levelo://app?vid=fe3c9f6c-b879-430c-8afc-3755d2438ecb","ios":"levelo://app?vid=fe3c9f6c-b879-430c-8afc-3755d2438ecb"},"vehicle_type_id":"4","last_reported":1736190419,"current_range_meters":18800,"station_id":"ce4bhf92rcd13ifvqf50","pricing_plan_id":"cebpf4jnsgd1na2vs0mg"},{"bike_id":"64fba33b-c31d-43fe-acd8-63797d23cd06","system_id":"levelo_inurba_marseille","lat":43.29256,"lon":5.4092,"is_reserved":false,"is_disabled":false,"rental_uris":{"android":"levelo://app?vid=64fba33b-c31d-43fe-acd8-63797d23cd06","ios":"levelo://app?vid=64fba33b-c31d-43fe-acd8-63797d23cd06"},"vehicle_type_id":"4","last_reported":1736190419,"current_range_meters":38400,"station_id":"ce4bh192rcd13ifvqdc0","pricing_plan_id":"cebpf4jnsgd1na2vs0mg"},{"bike_id":"5a2e64a4-6977-42d9-b575-8fc6f86139fc","system_id":"levelo_inurba_marseille","lat":43.310815,"lon":5.4243,"is_reserved":false,"is_disabled":false,"rental_uris":{"android":"levelo://app?vid=5a2e64a4-6977-42d9-b575-8fc6f86139fc","ios":"levelo://app?vid=5a2e64a4-6977-42d9-b575-8fc6f86139fc"},"vehicle_type_id":"4","last_reported":1736190419,"current_range_meters":38800,"station_id":"ce4bhp92rcd13ifvqhag","pricing_plan_id":"cebpf4jnsgd1na2vs0mg"},{"bike_id":"1c8566e1-e9e5-47b1-84c3-686a41788fcd","system_id":"levelo_inurba_marseille","lat":43.25473,"lon":5.37717,"is_reserved":false,"is_disabled":false,"rental_uris":{"android":"levelo://app?vid=1c8566e1-e9e5-47b1-84c3-686a41788fcd","ios":"levelo://app?vid=1c8566e1-e9e5-47b1-84c3-686a41788fcd"},"vehicle_type_id":"4","last_reported":1736190419,"current_range_meters":38800,"station_id":"","pricing_plan_id":"cebpf4jnsgd1na2vs0mg"},{"bike_id":"2d379dc0-803d-4e8c-bd71-deb6908004c1","system_id":"levelo_inurba_marseille","lat":43.29797,"lon":5.40402,"is_reserved":false,"is_disabled":false,"rental_uris":{"android":"levelo://app?vid=2d379dc0-803d-4e8c-bd71-deb6908004c1","ios":"levelo://app?vid=2d379dc0-803d-4e8c-bd71-deb6908004c1"},"vehicle_type_id":"4","last_reported":1736190419,"current_range_meters":38400,"station_id":"ce4bh112rcd13ifvqd90","pricing_plan_id":"cebpf4jnsgd1na2vs0mg"},{"bike_id":"856f3e2f-32cc-4192-aa32-a0287f032ca1","system_id":"levelo_inurba_marseille","lat":43.24654,"lon":5.38899,"is_reserved":false,"is_disabled":false,"rental_uris":{"android":"levelo://app?vid=856f3e2f-32cc-4192-aa32-a0287f032ca1","ios":"levelo://app?vid=856f3e2f-32cc-4192-aa32-a0287f032ca1"},"vehicle_type_id":"4","last_reported":1736190419,"current_range_meters":27600,"station_id":"ce4bhg12rcd13ifvqf60","pricing_plan_id":"cebpf4jnsgd1na2vs0mg"},{"bike_id":"aa7e7217-e9e4-4ae4-8f4f-13f6ce838ebb","system_id":"levelo_inurba_marseille","lat":43.28035,"lon":5.36938,"is_reserved":false,"is_disabled":false,"rental_uris":{"android":"levelo://app?vid=aa7e7217-e9e4-4ae4-8f4f-13f6ce838ebb","ios":"levelo://app?vid=aa7e7217-e9e4-4ae4-8f4f-13f6ce838ebb"},"vehicle_type_id":"4","last_reported":1736190419,"current_range_meters":12800,"station_id":"ce4bha12rcd13ifvqef0","pricing_plan_id":"cebpf4jnsgd1na2vs0mg"},{"bike_id":"cc567162-e5a7-429b-ac5a-a9d20f5137f1","system_id":"levelo_inurba_marseille","lat":43.28929,"lon":5.38403,"is_reserved":false,"is_disabled":false,"rental_uris":{"android":"levelo://app?vid=cc567162-e5a7-429b-ac5a-a9d20f5137f1","ios":"levelo://app?vid=cc567162-e5a7-429b-ac5a-a9d20f5137f1"},"vehicle_type_id":"4","last_reported":1736190419,"current_range_meters":39200,"station_id":"ce4bh612rcd13ifvqe6g","pricing_plan_id":"cebpf4jnsgd1na2vs0mg"},{"bike_id":"a23e7dd5-84cc-4eca-9236-90b42c7ed41b","system_id":"levelo_inurba_marseille","lat":43.32361,"lon":5.40643,"is_reserved":false,"is_disabled":true,"rental_uris":{"android":"levelo://app?vid=a23e7dd5-84cc-4eca-9236-90b42c7ed41b","ios":"levelo://app?vid=a23e7dd5-84cc-4eca-9236-90b42c7ed41b"},"vehicle_type_id":"4","last_reported":1736190419,"current_range_meters":17200,"station_id":"ce4bhq92rcd13ifvqhjg","pricing_plan_id":"cebpf4jnsgd1na2vs0mg"},{"bike_id":"a21a3f51-5f08-4923-be96-34975b275834","system_id":"levelo_inurba_marseille","lat":43.30524,"lon":5.38473,"is_reserved":false,"is_disabled":false,"rental_uris":{"android":"levelo://app?vid=a21a3f51-5f08-4923-be96-34975b275834","ios":"levelo://app?vid=a21a3f51-5f08-4923-be96-34975b275834"},"vehicle_type_id":"4","last_reported":1736190419,"current_range_meters":25200,"station_id":"ce4bgg92rcd13ifvqb30","pricing_plan_id":"cebpf4jnsgd1na2vs0mg"},{"bike_id":"32fc76f2-b7fd-48e4-8fcb-fb47260037a7","system_id":"levelo_inurba_marseille","lat":43.29315,"lon":5.37174,"is_reserved":false,"is_disabled":false,"rental_uris":{"android":"levelo://app?vid=32fc76f2-b7fd-48e4-8fcb-fb47260037a7","ios":"levelo://app?vid=32fc76f2-b7fd-48e4-8fcb-fb47260037a7"},"vehicle_type_id":"4","last_reported":1736190419,"current_range_meters":12800,"station_id":"ce4bgh92rcd13ifvqb40","pricing_plan_id":"cebpf4jnsgd1na2vs0mg"},{"bike_id":"3bcbd94c-25d1-44ff-9042-8681aba5211c","system_id":"levelo_inurba_marseille","lat":43.28941,"lon":5.36643,"is_reserved":false,"is_disabled":false,"rental_uris":{"android":"levelo://app?vid=3bcbd94c-25d1-44ff-9042-8681aba5211c","ios":"levelo://app?vid=3bcbd94c-25d1-44ff-9042-8681aba5211c"},"vehicle_type_id":"4","last_reported":1736190419,"current_range_meters":38800,"station_id":"ce4bhap2rcd13ifvqek0","pricing_plan_id":"cebpf4jnsgd1na2vs0mg"},{"bike_id":"6e51b573-4e79-435a-af54-674e36987856","system_id":"levelo_inurba_marseille","lat":43.31165,"lon":5.38719,"is_reserved":false,"is_disabled":false,"rental_uris":{"android":"levelo://app?vid=6e51b573-4e79-435a-af54-674e36987856","ios":"levelo://app?vid=6e51b573-4e79-435a-af54-674e36987856"},"vehicle_type_id":"4","last_reported":1736190419,"current_range_meters":32400,"station_id":"ce4bgv12rcd13ifvqcp0","pricing_plan_id":"cebpf4jnsgd1na2vs0mg"},{"bike_id":"db973fb0-a7a7-419f-905d-9711a91dd280","system_id":"levelo_inurba_marseille","lat":43.25725,"lon":5.41113,"is_reserved":false,"is_disabled":true,"rental_uris":{"android":"levelo://app?vid=db973fb0-a7a7-419f-905d-9711a91dd280","ios":"levelo://app?vid=db973fb0-a7a7-419f-905d-9711a91dd280"},"vehicle_type_id":"4","last_reported":1736190419,"current_range_meters":38800,"station_id":"ce4bhkp2rcd13ifvqgd0","pricing_plan_id":"cebpf4jnsgd1na2vs0mg"},{"bike_id":"0f23a48b-89c6-4b6d-8691-f9c7d27e384f","system_id":"levelo_inurba_marseille","lat":43.29931,"lon":5.36541,"is_reserved":false,"is_disabled":false,"rental_uris":{"android":"levelo://app?vid=0f23a48b-89c6-4b6d-8691-f9c7d27e384f","ios":"levelo://app?vid=0f23a48b-89c6-4b6d-8691-f9c7d27e384f"},"vehicle_type_id":"4","last_reported":1736190419,"current_range_meters":19200,"station_id":"ce4bgm92rcd13ifvqbr0","pricing_plan_id":"cebpf4jnsgd1na2vs0mg"},{"bike_id":"9b8cfac3-c795-4e09-8208-dfdcc2c9db0a","system_id":"levelo_inurba_marseille","lat":43.29041,"lon":5.39959,"is_reserved":false,"is_disabled":true,"rental_uris":{"android":"levelo://app?vid=9b8cfac3-c795-4e09-8208-dfdcc2c9db0a","ios":"levelo://app?vid=9b8cfac3-c795-4e09-8208-dfdcc2c9db0a"},"vehicle_type_id":"4","last_reported":1736190419,"current_range_meters":11200,"station_id":"ce4bh392rcd13ifvqdm0","pricing_plan_id":"cebpf4jnsgd1na2vs0mg"},{"bike_id":"f8142e8a-f886-4c5e-b399-88d8fa1c1d32","system_id":"levelo_inurba_marseille","lat":43.24684,"lon":5.38155,"is_reserved":false,"is_disabled":false,"rental_uris":{"android":"levelo://app?vid=f8142e8a-f886-4c5e-b399-88d8fa1c1d32","ios":"levelo://app?vid=f8142e8a-f886-4c5e-b399-88d8fa1c1d32"},"vehicle_type_id":"4","last_reported":1736190419,"current_range_meters":20800,"station_id":"ce4bhih2rcd13ifvqfr0","pricing_plan_id":"cebpf4jnsgd1na2vs0mg"},{"bike_id":"04284143-2834-49a9-97bf-7ff57a2fbe0d","system_id":"levelo_inurba_marseille","lat":43.31344,"lon":5.39702,"is_reserved":false,"is_disabled":false,"rental_uris":{"android":"levelo://app?vid=04284143-2834-49a9-97bf-7ff57a2fbe0d","ios":"levelo://app?vid=04284143-2834-49a9-97bf-7ff57a2fbe0d"},"vehicle_type_id":"4","last_reported":1736190419,"current_range_meters":30400,"station_id":"ce4bgvp2rcd13ifvqcu0","pricing_plan_id":"cebpf4jnsgd1na2vs0mg"},{"bike_id":"3339d050-09a6-4aa9-9ed5-b1e4247a1a00","system_id":"levelo_inurba_marseille","lat":43.23963,"lon":5.36642,"is_reserved":false,"is_disabled":false,"rental_uris":{"android":"levelo://app?vid=3339d050-09a6-4aa9-9ed5-b1e4247a1a00","ios":"levelo://app?vid=3339d050-09a6-4aa9-9ed5-b1e4247a1a00"},"vehicle_type_id":"4","last_reported":1736190419,"current_range_meters":38800,"station_id":"ce4bhi12rcd13ifvqfp0","pricing_plan_id":"cebpf4jnsgd1na2vs0mg"},{"bike_id":"0a9c3f6d-1ee4-4242-ab1b-2fc933875b46","system_id":"levelo_inurba_marseille","lat":43.28466,"lon":5.35881,"is_reserved":false,"is_disabled":false,"rental_uris":{"android":"levelo://app?vid=0a9c3f6d-1ee4-4242-ab1b-2fc933875b46","ios":"levelo://app?vid=0a9c3f6d-1ee4-4242-ab1b-2fc933875b46"},"vehicle_type_id":"4","last_reported":1736190419,"current_range_meters":34800,"station_id":"ce4bhah2rcd13ifvqei0","pricing_plan_id":"cebpf4jnsgd1na2vs0mg"},{"bike_id":"555f5bb6-1a41-4662-92c1-ef73605abfac","system_id":"levelo_inurba_marseille","lat":43.32296,"lon":5.38259,"is_reserved":false,"is_disabled":false,"rental_uris":{"android":"levelo://app?vid=555f5bb6-1a41-4662-92c1-ef73605abfac","ios":"levelo://app?vid=555f5bb6-1a41-4662-92c1-ef73605abfac"},"vehicle_type_id":"4","last_reported":1736190419,"current_range_meters":39200,"station_id":"ce4bhr12rcd13ifvqhqg","pricing_plan_id":"cebpf4jnsgd1na2vs0mg"},{"bike_id":"0aa10dfe-cc5f-4fc7-90b8-fc6a5ef6e9bf","system_id":"levelo_inurba_marseille","lat":43.25589,"lon":5.38233,"is_reserved":false,"is_disabled":false,"rental_uris":{"android":"levelo://app?vid=0aa10dfe-cc5f-4fc7-90b8-fc6a5ef6e9bf","ios":"levelo://app?vid=0aa10dfe-cc5f-4fc7-90b8-fc6a5ef6e9bf"},"vehicle_type_id":"4","last_reported":1736190419,"current_range_meters":20400,"station_id":"ce4bhih2rcd13ifvqfs0","pricing_plan_id":"cebpf4jnsgd1na2vs0mg"},{"bike_id":"bc9bb4d7-2fdc-4d34-b0a0-ed77a3035abd","system_id":"levelo_inurba_marseille","lat":43.317112,"lon":5.37744,"is_reserved":false,"is_disabled":false,"rental_uris":{"android":"levelo://app?vid=bc9bb4d7-2fdc-4d34-b0a0-ed77a3035abd","ios":"levelo://app?vid=bc9bb4d7-2fdc-4d34-b0a0-ed77a3035abd"},"vehicle_type_id":"4","last_reported":1736190419,"current_range_meters":28800,"station_id":"ce4bgth2rcd13ifvqch0","pricing_plan_id":"cebpf4jnsgd1na2vs0mg"},{"bike_id":"db1fc150-ea61-4025-a3c7-7ccca1cb208f","system_id":"levelo_inurba_marseille","lat":43.26214,"lon":5.37438,"is_reserved":false,"is_disabled":false,"rental_uris":{"android":"levelo://app?vid=db1fc150-ea61-4025-a3c7-7ccca1cb208f","ios":"levelo://app?vid=db1fc150-ea61-4025-a3c7-7ccca1cb208f"},"vehicle_type_id":"4","last_reported":1736190419,"current_range_meters":24000,"station_id":"ce4bhgp2rcd13ifvqfc0","pricing_plan_id":"cebpf4jnsgd1na2vs0mg"},{"bike_id":"7b78d5e2-5142-402d-a4f8-0f3037a6c533","system_id":"levelo_inurba_marseille","lat":43.26946,"lon":5.38621,"is_reserved":false,"is_disabled":true,"rental_uris":{"android":"levelo://app?vid=7b78d5e2-5142-402d-a4f8-0f3037a6c533","ios":"levelo://app?vid=7b78d5e2-5142-402d-a4f8-0f3037a6c533"},"vehicle_type_id":"4","last_reported":1736190419,"current_range_meters":36400,"station_id":"ce4bhh92rcd13ifvqfh0","pricing_plan_id":"cebpf4jnsgd1na2vs0mg"},{"bike_id":"045cde81-7c88-4704-a4ee-4d2cc63eb4e2","system_id":"levelo_inurba_marseille","lat":43.28152,"lon":5.42643,"is_reserved":false,"is_disabled":false,"rental_uris":{"android":"levelo://app?vid=045cde81-7c88-4704-a4ee-4d2cc63eb4e2","ios":"levelo://app?vid=045cde81-7c88-4704-a4ee-4d2cc63eb4e2"},"vehicle_type_id":"4","last_reported":1736190419,"current_range_meters":30800,"station_id":"ce4bhnh2rcd13ifvqgug","pricing_plan_id":"cebpf4jnsgd1na2vs0mg"},{"bike_id":"d0d21930-fe1d-478b-8251-bcf89564599d","system_id":"levelo_inurba_marseille","lat":43.295467,"lon":5.422788,"is_reserved":false,"is_disabled":false,"rental_uris":{"android":"levelo://app?vid=d0d21930-fe1d-478b-8251-bcf89564599d","ios":"levelo://app?vid=d0d21930-fe1d-478b-8251-bcf89564599d"},"vehicle_type_id":"4","last_reported":1736190419,"current_range_meters":23200,"station_id":"ce4bhph2rcd13ifvqhdg","pricing_plan_id":"cebpf4jnsgd1na2vs0mg"},{"bike_id":"f6898cd8-d82d-4b7f-ad59-669d9e614c97","system_id":"levelo_inurba_marseille","lat":43.278114,"lon":5.407129,"is_reserved":false,"is_disabled":false,"rental_uris":{"android":"levelo://app?vid=f6898cd8-d82d-4b7f-ad59-669d9e614c97","ios":"levelo://app?vid=f6898cd8-d82d-4b7f-ad59-669d9e614c97"},"vehicle_type_id":"4","last_reported":1736190419,"current_range_meters":36800,"station_id":"ce4bhnh2rcd13ifvqgtg","pricing_plan_id":"cebpf4jnsgd1na2vs0mg"},{"bike_id":"397e8918-20ac-451b-894f-32dffb1465a0","system_id":"levelo_inurba_marseille","lat":43.30297,"lon":5.39214,"is_reserved":false,"is_disabled":false,"rental_uris":{"android":"levelo://app?vid=397e8918-20ac-451b-894f-32dffb1465a0","ios":"levelo://app?vid=397e8918-20ac-451b-894f-32dffb1465a0"},"vehicle_type_id":"4","last_reported":1736190419,"current_range_meters":21600,"station_id":"ce4bgkh2rcd13ifvqbk0","pricing_plan_id":"cebpf4jnsgd1na2vs0mg"},{"bike_id":"e7d8136a-d035-4046-a2d0-bef63a98ac31","system_id":"levelo_inurba_marseille","lat":43.26569,"lon":5.39014,"is_reserved":false,"is_disabled":false,"rental_uris":{"android":"levelo://app?vid=e7d8136a-d035-4046-a2d0-bef63a98ac31","ios":"levelo://app?vid=e7d8136a-d035-4046-a2d0-bef63a98ac31"},"vehicle_type_id":"4","last_reported":1736190419,"current_range_meters":28800,"station_id":"ce4bhe12rcd13ifvqf30","pricing_plan_id":"cebpf4jnsgd1na2vs0mg"},{"bike_id":"dba6cb37-f124-4cfc-89cb-8126a76722e4","system_id":"levelo_inurba_marseille","lat":43.2918,"lon":5.37163,"is_reserved":false,"is_disabled":false,"rental_uris":{"android":"levelo://app?vid=dba6cb37-f124-4cfc-89cb-8126a76722e4","ios":"levelo://app?vid=dba6cb37-f124-4cfc-89cb-8126a76722e4"},"vehicle_type_id":"4","last_reported":1736190419,"current_range_meters":8800,"station_id":"ce4bha92rcd13ifvqeh0","pricing_plan_id":"cebpf4jnsgd1na2vs0mg"},{"bike_id":"e6c545bc-3fe2-4d27-b860-1da89a135e2d","system_id":"levelo_inurba_marseille","lat":43.31267,"lon":5.40172,"is_reserved":false,"is_disabled":false,"rental_uris":{"android":"levelo://app?vid=e6c545bc-3fe2-4d27-b860-1da89a135e2d","ios":"levelo://app?vid=e6c545bc-3fe2-4d27-b860-1da89a135e2d"},"vehicle_type_id":"4","last_reported":1736190419,"current_range_meters":24400,"station_id":"ce4bh092rcd13ifvqd30","pricing_plan_id":"cebpf4jnsgd1na2vs0mg"},{"bike_id":"8a5a6fbb-76bd-4e7d-8a3b-b5456b749383","system_id":"levelo_inurba_marseille","lat":43.30298,"lon":5.3921,"is_reserved":false,"is_disabled":false,"rental_uris":{"android":"levelo://app?vid=8a5a6fbb-76bd-4e7d-8a3b-b5456b749383","ios":"levelo://app?vid=8a5a6fbb-76bd-4e7d-8a3b-b5456b749383"},"vehicle_type_id":"4","last_reported":1736190419,"current_range_meters":25600,"station_id":"ce4bgkh2rcd13ifvqbk0","pricing_plan_id":"cebpf4jnsgd1na2vs0mg"},{"bike_id":"2f877dac-2505-4d12-a463-35a209975ac6","system_id":"levelo_inurba_marseille","lat":43.286893,"lon":5.387615,"is_reserved":false,"is_disabled":false,"rental_uris":{"android":"levelo://app?vid=2f877dac-2505-4d12-a463-35a209975ac6","ios":"levelo://app?vid=2f877dac-2505-4d12-a463-35a209975ac6"},"vehicle_type_id":"4","last_reported":1736190419,"current_range_meters":4000,"station_id":"ce4bh2p2rcd13ifvqdi0","pricing_plan_id":"cebpf4jnsgd1na2vs0mg"},{"bike_id":"5cad4397-d7fe-427d-9b9c-8acb185fe024","system_id":"levelo_inurba_marseille","lat":43.25073,"lon":5.39502,"is_reserved":false,"is_disabled":false,"rental_uris":{"android":"levelo://app?vid=5cad4397-d7fe-427d-9b9c-8acb185fe024","ios":"levelo://app?vid=5cad4397-d7fe-427d-9b9c-8acb185fe024"},"vehicle_type_id":"4","last_reported":1736190419,"current_range_meters":38800,"station_id":"ce4bhm12rcd13ifvqgkg","pricing_plan_id":"cebpf4jnsgd1na2vs0mg"},{"bike_id":"1c481475-c11b-4ecc-bc54-1fc518f12b1f","system_id":"levelo_inurba_marseille","lat":43.31717,"lon":5.3776,"is_reserved":false,"is_disabled":false,"rental_uris":{"android":"levelo://app?vid=1c481475-c11b-4ecc-bc54-1fc518f12b1f","ios":"levelo://app?vid=1c481475-c11b-4ecc-bc54-1fc518f12b1f"},"vehicle_type_id":"4","last_reported":1736190419,"current_range_meters":39200,"station_id":"ce4bgth2rcd13ifvqch0","pricing_plan_id":"cebpf4jnsgd1na2vs0mg"},{"bike_id":"a5484267-8df2-433f-b0b4-6d17ece69370","system_id":"levelo_inurba_marseille","lat":43.302386,"lon":5.400562,"is_reserved":false,"is_disabled":false,"rental_uris":{"android":"levelo://app?vid=a5484267-8df2-433f-b0b4-6d17ece69370","ios":"levelo://app?vid=a5484267-8df2-433f-b0b4-6d17ece69370"},"vehicle_type_id":"4","last_reported":1736190419,"current_range_meters":7200,"station_id":"ce4bgvh2rcd13ifvqcs0","pricing_plan_id":"cebpf4jnsgd1na2vs0mg"},{"bike_id":"477f7f5a-c997-4d2a-8325-216243948f83","system_id":"levelo_inurba_marseille","lat":43.28854,"lon":5.35883,"is_reserved":false,"is_disabled":false,"rental_uris":{"android":"levelo://app?vid=477f7f5a-c997-4d2a-8325-216243948f83","ios":"levelo://app?vid=477f7f5a-c997-4d2a-8325-216243948f83"},"vehicle_type_id":"4","last_reported":1736190419,"current_range_meters":5600,"station_id":"ce4bhb12rcd13ifvqem0","pricing_plan_id":"cebpf4jnsgd1na2vs0mg"},{"bike_id":"d9ce120f-3906-4d85-a0b7-305f429a4eef","system_id":"levelo_inurba_marseille","lat":43.31709,"lon":5.37718,"is_reserved":false,"is_disabled":false,"rental_uris":{"android":"levelo://app?vid=d9ce120f-3906-4d85-a0b7-305f429a4eef","ios":"levelo://app?vid=d9ce120f-3906-4d85-a0b7-305f429a4eef"},"vehicle_type_id":"4","last_reported":1736190419,"current_range_meters":38000,"station_id":"ce4bgth2rcd13ifvqch0","pricing_plan_id":"cebpf4jnsgd1na2vs0mg"},{"bike_id":"04d6409f-3882-4a69-956e-a7abf6bd14bb","system_id":"levelo_inurba_marseille","lat":43.27997,"lon":5.40015,"is_reserved":false,"is_disabled":false,"rental_uris":{"android":"levelo://app?vid=04d6409f-3882-4a69-956e-a7abf6bd14bb","ios":"levelo://app?vid=04d6409f-3882-4a69-956e-a7abf6bd14bb"},"vehicle_type_id":"4","last_reported":1736190419,"current_range_meters":36800,"station_id":"ce4bho92rcd13ifvqh4g","pricing_plan_id":"cebpf4jnsgd1na2vs0mg"},{"bike_id":"932e1dee-80ed-496d-9385-2e6fc64d6f80","system_id":"levelo_inurba_marseille","lat":43.28571,"lon":5.39502,"is_reserved":false,"is_disabled":false,"rental_uris":{"android":"levelo://app?vid=932e1dee-80ed-496d-9385-2e6fc64d6f80","ios":"levelo://app?vid=932e1dee-80ed-496d-9385-2e6fc64d6f80"},"vehicle_type_id":"4","last_reported":1736190419,"current_range_meters":35600,"station_id":"ce4bh292rcd13ifvqdg0","pricing_plan_id":"cebpf4jnsgd1na2vs0mg"},{"bike_id":"6827022f-a734-404f-b5b5-bdf44019111f","system_id":"levelo_inurba_marseille","lat":43.29873,"lon":5.39729,"is_reserved":false,"is_disabled":false,"rental_uris":{"android":"levelo://app?vid=6827022f-a734-404f-b5b5-bdf44019111f","ios":"levelo://app?vid=6827022f-a734-404f-b5b5-bdf44019111f"},"vehicle_type_id":"4","last_reported":1736190419,"current_range_meters":15200,"station_id":"ce4bh0h2rcd13ifvqd50","pricing_plan_id":"cebpf4jnsgd1na2vs0mg"},{"bike_id":"54a7bf05-093a-4c5b-bb81-4de0199213f9","system_id":"levelo_inurba_marseille","lat":43.3043,"lon":5.41282,"is_reserved":false,"is_disabled":false,"rental_uris":{"android":"levelo://app?vid=54a7bf05-093a-4c5b-bb81-4de0199213f9","ios":"levelo://app?vid=54a7bf05-093a-4c5b-bb81-4de0199213f9"},"vehicle_type_id":"4","last_reported":1736190419,"current_range_meters":25200,"station_id":"ce4bhop2rcd13ifvqh8g","pricing_plan_id":"cebpf4jnsgd1na2vs0mg"},{"bike_id":"b64d19b5-9694-403b-9230-b67089674d19","system_id":"levelo_inurba_marseille","lat":43.279162,"lon":5.395812,"is_reserved":false,"is_disabled":false,"rental_uris":{"android":"levelo://app?vid=b64d19b5-9694-403b-9230-b67089674d19","ios":"levelo://app?vid=b64d19b5-9694-403b-9230-b67089674d19"},"vehicle_type_id":"4","last_reported":1736190419,"current_range_meters":38800,"station_id":"ce4bhf92rcd13ifvqf40","pricing_plan_id":"cebpf4jnsgd1na2vs0mg"},{"bike_id":"1000921c-54b3-4cb8-8a23-b9f0650a9489","system_id":"levelo_inurba_marseille","lat":43.30374,"lon":5.38938,"is_reserved":false,"is_disabled":false,"rental_uris":{"android":"levelo://app?vid=1000921c-54b3-4cb8-8a23-b9f0650a9489","ios":"levelo://app?vid=1000921c-54b3-4cb8-8a23-b9f0650a9489"},"vehicle_type_id":"4","last_reported":1736190419,"current_range_meters":27600,"station_id":"","pricing_plan_id":"cebpf4jnsgd1na2vs0mg"},{"bike_id":"a2fad600-bcdc-4fe2-b5cf-418b8c47104e","system_id":"levelo_inurba_marseille","lat":43.24653,"lon":5.3891,"is_reserved":false,"is_disabled":false,"rental_uris":{"android":"levelo://app?vid=a2fad600-bcdc-4fe2-b5cf-418b8c47104e","ios":"levelo://app?vid=a2fad600-bcdc-4fe2-b5cf-418b8c47104e"},"vehicle_type_id":"4","last_reported":1736190419,"current_range_meters":27600,"station_id":"ce4bhg12rcd13ifvqf60","pricing_plan_id":"cebpf4jnsgd1na2vs0mg"},{"bike_id":"3e51f001-674f-4402-81fd-5ff3f2138e63","system_id":"levelo_inurba_marseille","lat":43.29678,"lon":5.36585,"is_reserved":false,"is_disabled":false,"rental_uris":{"android":"levelo://app?vid=3e51f001-674f-4402-81fd-5ff3f2138e63","ios":"levelo://app?vid=3e51f001-674f-4402-81fd-5ff3f2138e63"},"vehicle_type_id":"4","last_reported":1736190419,"current_range_meters":38800,"station_id":"ce4bgn12rcd13ifvqbt0","pricing_plan_id":"cebpf4jnsgd1na2vs0mg"},{"bike_id":"03e103e3-5075-4dd0-88ff-21ad5a89a520","system_id":"levelo_inurba_marseille","lat":43.25492,"lon":5.3765,"is_reserved":false,"is_disabled":false,"rental_uris":{"android":"levelo://app?vid=03e103e3-5075-4dd0-88ff-21ad5a89a520","ios":"levelo://app?vid=03e103e3-5075-4dd0-88ff-21ad5a89a520"},"vehicle_type_id":"4","last_reported":1736190419,"current_range_meters":38800,"station_id":"ce4bhh12rcd13ifvqff0","pricing_plan_id":"cebpf4jnsgd1na2vs0mg"},{"bike_id":"ef8b07f4-ee76-4b88-b7ec-0f67491fe1ff","system_id":"levelo_inurba_marseille","lat":43.25088,"lon":5.39514,"is_reserved":false,"is_disabled":false,"rental_uris":{"android":"levelo://app?vid=ef8b07f4-ee76-4b88-b7ec-0f67491fe1ff","ios":"levelo://app?vid=ef8b07f4-ee76-4b88-b7ec-0f67491fe1ff"},"vehicle_type_id":"4","last_reported":1736190419,"current_range_meters":38800,"station_id":"ce4bhm12rcd13ifvqgkg","pricing_plan_id":"cebpf4jnsgd1na2vs0mg"},{"bike_id":"2d4069a8-2e1f-4c49-a2ca-a013dccec575","system_id":"levelo_inurba_marseille","lat":43.32342,"lon":5.40611,"is_reserved":false,"is_disabled":false,"rental_uris":{"android":"levelo://app?vid=2d4069a8-2e1f-4c49-a2ca-a013dccec575","ios":"levelo://app?vid=2d4069a8-2e1f-4c49-a2ca-a013dccec575"},"vehicle_type_id":"4","last_reported":1736190419,"current_range_meters":36000,"station_id":"ce4bhq92rcd13ifvqhjg","pricing_plan_id":"cebpf4jnsgd1na2vs0mg"},{"bike_id":"4601a575-1bcc-4bce-8c5b-05216adc1a27","system_id":"levelo_inurba_marseille","lat":43.28701,"lon":5.37395,"is_reserved":false,"is_disabled":false,"rental_uris":{"android":"levelo://app?vid=4601a575-1bcc-4bce-8c5b-05216adc1a27","ios":"levelo://app?vid=4601a575-1bcc-4bce-8c5b-05216adc1a27"},"vehicle_type_id":"4","last_reported":1736190419,"current_range_meters":4000,"station_id":"ce4bh3p2rcd13ifvqdq0","pricing_plan_id":"cebpf4jnsgd1na2vs0mg"},{"bike_id":"6a595de3-0911-46a9-bdbf-4cca5437105e","system_id":"levelo_inurba_marseille","lat":43.23202,"lon":5.35548,"is_reserved":false,"is_disabled":false,"rental_uris":{"android":"levelo://app?vid=6a595de3-0911-46a9-bdbf-4cca5437105e","ios":"levelo://app?vid=6a595de3-0911-46a9-bdbf-4cca5437105e"},"vehicle_type_id":"4","last_reported":1736190419,"current_range_meters":20400,"station_id":"ce4bhu92rcd13ifvqi70","pricing_plan_id":"cebpf4jnsgd1na2vs0mg"},{"bike_id":"641d8acc-50b2-4173-ab23-c70f2a11d28e","system_id":"levelo_inurba_marseille","lat":43.281473,"lon":5.426276,"is_reserved":false,"is_disabled":true,"rental_uris":{"android":"levelo://app?vid=641d8acc-50b2-4173-ab23-c70f2a11d28e","ios":"levelo://app?vid=641d8acc-50b2-4173-ab23-c70f2a11d28e"},"vehicle_type_id":"4","last_reported":1736190419,"current_range_meters":27200,"station_id":"ce4bhnh2rcd13ifvqgug","pricing_plan_id":"cebpf4jnsgd1na2vs0mg"},{"bike_id":"217c720a-f5a0-444d-9a09-2281daa0d337","system_id":"levelo_inurba_marseille","lat":43.29259,"lon":5.40917,"is_reserved":false,"is_disabled":false,"rental_uris":{"android":"levelo://app?vid=217c720a-f5a0-444d-9a09-2281daa0d337","ios":"levelo://app?vid=217c720a-f5a0-444d-9a09-2281daa0d337"},"vehicle_type_id":"4","last_reported":1736190419,"current_range_meters":9600,"station_id":"ce4bh192rcd13ifvqdc0","pricing_plan_id":"cebpf4jnsgd1na2vs0mg"},{"bike_id":"15e503f5-1d52-42d6-a98f-33a61fd8b554","system_id":"levelo_inurba_marseille","lat":43.28478,"lon":5.35882,"is_reserved":false,"is_disabled":true,"rental_uris":{"android":"levelo://app?vid=15e503f5-1d52-42d6-a98f-33a61fd8b554","ios":"levelo://app?vid=15e503f5-1d52-42d6-a98f-33a61fd8b554"},"vehicle_type_id":"4","last_reported":1736190419,"current_range_meters":20400,"station_id":"ce4bhah2rcd13ifvqei0","pricing_plan_id":"cebpf4jnsgd1na2vs0mg"},{"bike_id":"20a1fc99-0a90-44a5-a846-85f635e4802f","system_id":"levelo_inurba_marseille","lat":43.2869,"lon":5.37434,"is_reserved":false,"is_disabled":false,"rental_uris":{"android":"levelo://app?vid=20a1fc99-0a90-44a5-a846-85f635e4802f","ios":"levelo://app?vid=20a1fc99-0a90-44a5-a846-85f635e4802f"},"vehicle_type_id":"4","last_reported":1736190419,"current_range_meters":28000,"station_id":"ce4bh3p2rcd13ifvqdq0","pricing_plan_id":"cebpf4jnsgd1na2vs0mg"},{"bike_id":"226eba7b-86df-4cc7-a539-29d5666582be","system_id":"levelo_inurba_marseille","lat":43.27067,"lon":5.42271,"is_reserved":false,"is_disabled":false,"rental_uris":{"android":"levelo://app?vid=226eba7b-86df-4cc7-a539-29d5666582be","ios":"levelo://app?vid=226eba7b-86df-4cc7-a539-29d5666582be"},"vehicle_type_id":"4","last_reported":1736190419,"current_range_meters":38400,"station_id":"ce4bhk92rcd13ifvqgb0","pricing_plan_id":"cebpf4jnsgd1na2vs0mg"},{"bike_id":"88fbd2f9-edba-4674-927d-ce8a9c56a0e7","system_id":"levelo_inurba_marseille","lat":43.28152,"lon":5.42645,"is_reserved":false,"is_disabled":false,"rental_uris":{"android":"levelo://app?vid=88fbd2f9-edba-4674-927d-ce8a9c56a0e7","ios":"levelo://app?vid=88fbd2f9-edba-4674-927d-ce8a9c56a0e7"},"vehicle_type_id":"4","last_reported":1736190419,"current_range_meters":27200,"station_id":"ce4bhnh2rcd13ifvqgug","pricing_plan_id":"cebpf4jnsgd1na2vs0mg"},{"bike_id":"61a0e366-59dc-4344-9007-3379e8066fbb","system_id":"levelo_inurba_marseille","lat":43.30421,"lon":5.41279,"is_reserved":false,"is_disabled":false,"rental_uris":{"android":"levelo://app?vid=61a0e366-59dc-4344-9007-3379e8066fbb","ios":"levelo://app?vid=61a0e366-59dc-4344-9007-3379e8066fbb"},"vehicle_type_id":"4","last_reported":1736190419,"current_range_meters":38400,"station_id":"ce4bhop2rcd13ifvqh8g","pricing_plan_id":"cebpf4jnsgd1na2vs0mg"},{"bike_id":"6c604940-836c-4de1-a0f5-ba0f74ad85e4","system_id":"levelo_inurba_marseille","lat":43.30152,"lon":5.39869,"is_reserved":false,"is_disabled":false,"rental_uris":{"android":"levelo://app?vid=6c604940-836c-4de1-a0f5-ba0f74ad85e4","ios":"levelo://app?vid=6c604940-836c-4de1-a0f5-ba0f74ad85e4"},"vehicle_type_id":"4","last_reported":1736190419,"current_range_meters":11200,"station_id":"ce4bh0h2rcd13ifvqd40","pricing_plan_id":"cebpf4jnsgd1na2vs0mg"},{"bike_id":"6d88bbf0-f428-4bd4-ab8a-2ee8d5e7c74e","system_id":"levelo_inurba_marseille","lat":43.23068,"lon":5.35496,"is_reserved":false,"is_disabled":true,"rental_uris":{"android":"levelo://app?vid=6d88bbf0-f428-4bd4-ab8a-2ee8d5e7c74e","ios":"levelo://app?vid=6d88bbf0-f428-4bd4-ab8a-2ee8d5e7c74e"},"vehicle_type_id":"4","last_reported":1736190419,"current_range_meters":0,"station_id":"cpo3342slgdg3j2ifvpg","pricing_plan_id":"cebpf4jnsgd1na2vs0mg"},{"bike_id":"1fc38a15-876c-40a5-b070-fe1994e8a761","system_id":"levelo_inurba_marseille","lat":43.25583,"lon":5.38242,"is_reserved":false,"is_disabled":false,"rental_uris":{"android":"levelo://app?vid=1fc38a15-876c-40a5-b070-fe1994e8a761","ios":"levelo://app?vid=1fc38a15-876c-40a5-b070-fe1994e8a761"},"vehicle_type_id":"4","last_reported":1736190419,"current_range_meters":31200,"station_id":"ce4bhih2rcd13ifvqfs0","pricing_plan_id":"cebpf4jnsgd1na2vs0mg"},{"bike_id":"f1eddc63-56db-4bfe-947c-d0cf39bf8e29","system_id":"levelo_inurba_marseille","lat":43.24808,"lon":5.3744,"is_reserved":false,"is_disabled":false,"rental_uris":{"android":"levelo://app?vid=f1eddc63-56db-4bfe-947c-d0cf39bf8e29","ios":"levelo://app?vid=f1eddc63-56db-4bfe-947c-d0cf39bf8e29"},"vehicle_type_id":"4","last_reported":1736190419,"current_range_meters":9600,"station_id":"ce4bhgh2rcd13ifvqfb0","pricing_plan_id":"cebpf4jnsgd1na2vs0mg"},{"bike_id":"237eb7a7-7331-4631-9377-6cdbdc6e4e98","system_id":"levelo_inurba_marseille","lat":43.26566,"lon":5.39007,"is_reserved":false,"is_disabled":true,"rental_uris":{"android":"levelo://app?vid=237eb7a7-7331-4631-9377-6cdbdc6e4e98","ios":"levelo://app?vid=237eb7a7-7331-4631-9377-6cdbdc6e4e98"},"vehicle_type_id":"4","last_reported":1736190419,"current_range_meters":35200,"station_id":"ce4bhe12rcd13ifvqf30","pricing_plan_id":"cebpf4jnsgd1na2vs0mg"},{"bike_id":"3e0225d1-58ca-40db-b4f3-ad1dff3eb791","system_id":"levelo_inurba_marseille","lat":43.26509,"lon":5.39537,"is_reserved":false,"is_disabled":true,"rental_uris":{"android":"levelo://app?vid=3e0225d1-58ca-40db-b4f3-ad1dff3eb791","ios":"levelo://app?vid=3e0225d1-58ca-40db-b4f3-ad1dff3eb791"},"vehicle_type_id":"4","last_reported":1736190419,"current_range_meters":400,"station_id":"ce4bhi12rcd13ifvqfq0","pricing_plan_id":"cebpf4jnsgd1na2vs0mg"},{"bike_id":"ad530e24-5ded-44eb-84fc-9badf36abc57","system_id":"levelo_inurba_marseille","lat":43.30098,"lon":5.39091,"is_reserved":false,"is_disabled":false,"rental_uris":{"android":"levelo://app?vid=ad530e24-5ded-44eb-84fc-9badf36abc57","ios":"levelo://app?vid=ad530e24-5ded-44eb-84fc-9badf36abc57"},"vehicle_type_id":"4","last_reported":1736190419,"current_range_meters":38000,"station_id":"ce4bh192rcd13ifvqdb0","pricing_plan_id":"cebpf4jnsgd1na2vs0mg"},{"bike_id":"c0c56421-0402-4e02-af1a-f54a53bef677","system_id":"levelo_inurba_marseille","lat":43.30596,"lon":5.393517,"is_reserved":false,"is_disabled":true,"rental_uris":{"android":"levelo://app?vid=c0c56421-0402-4e02-af1a-f54a53bef677","ios":"levelo://app?vid=c0c56421-0402-4e02-af1a-f54a53bef677"},"vehicle_type_id":"4","last_reported":1736190419,"current_range_meters":37600,"station_id":"ce4bh0p2rcd13ifvqd80","pricing_plan_id":"cebpf4jnsgd1na2vs0mg"},{"bike_id":"785fcd24-a61a-467a-a205-1f2a1c963392","system_id":"levelo_inurba_marseille","lat":43.25085,"lon":5.39516,"is_reserved":false,"is_disabled":false,"rental_uris":{"android":"levelo://app?vid=785fcd24-a61a-467a-a205-1f2a1c963392","ios":"levelo://app?vid=785fcd24-a61a-467a-a205-1f2a1c963392"},"vehicle_type_id":"4","last_reported":1736190419,"current_range_meters":8000,"station_id":"ce4bhm12rcd13ifvqgkg","pricing_plan_id":"cebpf4jnsgd1na2vs0mg"},{"bike_id":"aa41de78-4d16-4183-999e-d60f0150a428","system_id":"levelo_inurba_marseille","lat":43.28693,"lon":5.37412,"is_reserved":false,"is_disabled":false,"rental_uris":{"android":"levelo://app?vid=aa41de78-4d16-4183-999e-d60f0150a428","ios":"levelo://app?vid=aa41de78-4d16-4183-999e-d60f0150a428"},"vehicle_type_id":"4","last_reported":1736190419,"current_range_meters":16000,"station_id":"ce4bh3p2rcd13ifvqdq0","pricing_plan_id":"cebpf4jnsgd1na2vs0mg"},{"bike_id":"3ea8ca26-cbff-44d4-97e2-96a5408a8da3","system_id":"levelo_inurba_marseille","lat":43.28605,"lon":5.37057,"is_reserved":false,"is_disabled":false,"rental_uris":{"android":"levelo://app?vid=3ea8ca26-cbff-44d4-97e2-96a5408a8da3","ios":"levelo://app?vid=3ea8ca26-cbff-44d4-97e2-96a5408a8da3"},"vehicle_type_id":"4","last_reported":1736190419,"current_range_meters":7200,"station_id":"ce4bht12rcd13ifvqi60","pricing_plan_id":"cebpf4jnsgd1na2vs0mg"},{"bike_id":"66598c6d-17b8-4c5c-8a32-40fe324e52f3","system_id":"levelo_inurba_marseille","lat":43.31122,"lon":5.37788,"is_reserved":false,"is_disabled":true,"rental_uris":{"android":"levelo://app?vid=66598c6d-17b8-4c5c-8a32-40fe324e52f3","ios":"levelo://app?vid=66598c6d-17b8-4c5c-8a32-40fe324e52f3"},"vehicle_type_id":"4","last_reported":1736190419,"current_range_meters":31200,"station_id":"ce4bgt92rcd13ifvqcg0","pricing_plan_id":"cebpf4jnsgd1na2vs0mg"},{"bike_id":"649c71d5-1bc7-476b-849b-0ee459c25078","system_id":"levelo_inurba_marseille","lat":43.28461,"lon":5.35885,"is_reserved":false,"is_disabled":false,"rental_uris":{"android":"levelo://app?vid=649c71d5-1bc7-476b-849b-0ee459c25078","ios":"levelo://app?vid=649c71d5-1bc7-476b-849b-0ee459c25078"},"vehicle_type_id":"4","last_reported":1736190419,"current_range_meters":38400,"station_id":"ce4bhah2rcd13ifvqei0","pricing_plan_id":"cebpf4jnsgd1na2vs0mg"},{"bike_id":"b00ef24b-963a-4658-82ec-274e4ca70fdd","system_id":"levelo_inurba_marseille","lat":43.2901,"lon":5.35615,"is_reserved":false,"is_disabled":false,"rental_uris":{"android":"levelo://app?vid=b00ef24b-963a-4658-82ec-274e4ca70fdd","ios":"levelo://app?vid=b00ef24b-963a-4658-82ec-274e4ca70fdd"},"vehicle_type_id":"4","last_reported":1736190419,"current_range_meters":2800,"station_id":"ce4bhb92rcd13ifvqen0","pricing_plan_id":"cebpf4jnsgd1na2vs0mg"},{"bike_id":"dc80a52a-f2fa-4e2a-9e2a-b913aee07db6","system_id":"levelo_inurba_marseille","lat":43.3133,"lon":5.396907,"is_reserved":false,"is_disabled":false,"rental_uris":{"android":"levelo://app?vid=dc80a52a-f2fa-4e2a-9e2a-b913aee07db6","ios":"levelo://app?vid=dc80a52a-f2fa-4e2a-9e2a-b913aee07db6"},"vehicle_type_id":"4","last_reported":1736190419,"current_range_meters":38800,"station_id":"ce4bgvp2rcd13ifvqcu0","pricing_plan_id":"cebpf4jnsgd1na2vs0mg"},{"bike_id":"7983e353-0d4c-4835-b48e-13a51e5b8698","system_id":"levelo_inurba_marseille","lat":43.29248,"lon":5.40861,"is_reserved":false,"is_disabled":false,"rental_uris":{"android":"levelo://app?vid=7983e353-0d4c-4835-b48e-13a51e5b8698","ios":"levelo://app?vid=7983e353-0d4c-4835-b48e-13a51e5b8698"},"vehicle_type_id":"4","last_reported":1736190419,"current_range_meters":36000,"station_id":"ce4bh192rcd13ifvqdc0","pricing_plan_id":"cebpf4jnsgd1na2vs0mg"},{"bike_id":"7162857b-97e9-48bf-beff-37d11268f5e3","system_id":"levelo_inurba_marseille","lat":43.2886,"lon":5.35858,"is_reserved":false,"is_disabled":false,"rental_uris":{"android":"levelo://app?vid=7162857b-97e9-48bf-beff-37d11268f5e3","ios":"levelo://app?vid=7162857b-97e9-48bf-beff-37d11268f5e3"},"vehicle_type_id":"4","last_reported":1736190419,"current_range_meters":39200,"station_id":"ce4bhb12rcd13ifvqem0","pricing_plan_id":"cebpf4jnsgd1na2vs0mg"},{"bike_id":"7d49013c-6a00-4d6b-9afb-1de858183b1b","system_id":"levelo_inurba_marseille","lat":43.28919,"lon":5.384281,"is_reserved":false,"is_disabled":false,"rental_uris":{"android":"levelo://app?vid=7d49013c-6a00-4d6b-9afb-1de858183b1b","ios":"levelo://app?vid=7d49013c-6a00-4d6b-9afb-1de858183b1b"},"vehicle_type_id":"4","last_reported":1736190419,"current_range_meters":38400,"station_id":"ce4bh612rcd13ifvqe6g","pricing_plan_id":"cebpf4jnsgd1na2vs0mg"},{"bike_id":"cca2f7c7-45e7-4f8a-80d9-cffca2b70c93","system_id":"levelo_inurba_marseille","lat":43.26685,"lon":5.38277,"is_reserved":false,"is_disabled":true,"rental_uris":{"android":"levelo://app?vid=cca2f7c7-45e7-4f8a-80d9-cffca2b70c93","ios":"levelo://app?vid=cca2f7c7-45e7-4f8a-80d9-cffca2b70c93"},"vehicle_type_id":"4","last_reported":1736190419,"current_range_meters":35600,"station_id":"ce4bhg92rcd13ifvqf90","pricing_plan_id":"cebpf4jnsgd1na2vs0mg"},{"bike_id":"c06688ba-3baf-43ca-bd73-f6695e1ed516","system_id":"levelo_inurba_marseille","lat":43.24073,"lon":5.37758,"is_reserved":false,"is_disabled":false,"rental_uris":{"android":"levelo://app?vid=c06688ba-3baf-43ca-bd73-f6695e1ed516","ios":"levelo://app?vid=c06688ba-3baf-43ca-bd73-f6695e1ed516"},"vehicle_type_id":"4","last_reported":1736190419,"current_range_meters":26000,"station_id":"ce4bhnp2rcd13ifvqgvg","pricing_plan_id":"cebpf4jnsgd1na2vs0mg"},{"bike_id":"3e8b833a-bb1e-490d-969e-26dc2c87bb07","system_id":"levelo_inurba_marseille","lat":43.31686,"lon":5.37703,"is_reserved":false,"is_disabled":false,"rental_uris":{"android":"levelo://app?vid=3e8b833a-bb1e-490d-969e-26dc2c87bb07","ios":"levelo://app?vid=3e8b833a-bb1e-490d-969e-26dc2c87bb07"},"vehicle_type_id":"4","last_reported":1736190419,"current_range_meters":28000,"station_id":"ce4bgth2rcd13ifvqch0","pricing_plan_id":"cebpf4jnsgd1na2vs0mg"},{"bike_id":"10aaa063-1c87-45e7-8ea1-13f83539ec39","system_id":"levelo_inurba_marseille","lat":43.25093,"lon":5.39525,"is_reserved":false,"is_disabled":false,"rental_uris":{"android":"levelo://app?vid=10aaa063-1c87-45e7-8ea1-13f83539ec39","ios":"levelo://app?vid=10aaa063-1c87-45e7-8ea1-13f83539ec39"},"vehicle_type_id":"4","last_reported":1736190419,"current_range_meters":32000,"station_id":"ce4bhm12rcd13ifvqgkg","pricing_plan_id":"cebpf4jnsgd1na2vs0mg"},{"bike_id":"5a2d6400-dde2-4868-9b3a-23ab9cd655b8","system_id":"levelo_inurba_marseille","lat":43.27806,"lon":5.40716,"is_reserved":false,"is_disabled":false,"rental_uris":{"android":"levelo://app?vid=5a2d6400-dde2-4868-9b3a-23ab9cd655b8","ios":"levelo://app?vid=5a2d6400-dde2-4868-9b3a-23ab9cd655b8"},"vehicle_type_id":"4","last_reported":1736190419,"current_range_meters":8000,"station_id":"ce4bhnh2rcd13ifvqgtg","pricing_plan_id":"cebpf4jnsgd1na2vs0mg"},{"bike_id":"0a967f6d-fd0e-4773-80c2-1aa9d073824b","system_id":"levelo_inurba_marseille","lat":43.2509,"lon":5.39529,"is_reserved":false,"is_disabled":false,"rental_uris":{"android":"levelo://app?vid=0a967f6d-fd0e-4773-80c2-1aa9d073824b","ios":"levelo://app?vid=0a967f6d-fd0e-4773-80c2-1aa9d073824b"},"vehicle_type_id":"4","last_reported":1736190419,"current_range_meters":32400,"station_id":"ce4bhm12rcd13ifvqgkg","pricing_plan_id":"cebpf4jnsgd1na2vs0mg"},{"bike_id":"182c8827-ad8b-4aa6-9862-5b2da55309dc","system_id":"levelo_inurba_marseille","lat":43.29212,"lon":5.36024,"is_reserved":false,"is_disabled":false,"rental_uris":{"android":"levelo://app?vid=182c8827-ad8b-4aa6-9862-5b2da55309dc","ios":"levelo://app?vid=182c8827-ad8b-4aa6-9862-5b2da55309dc"},"vehicle_type_id":"4","last_reported":1736190419,"current_range_meters":35200,"station_id":"ce4bhbh2rcd13ifvqeqg","pricing_plan_id":"cebpf4jnsgd1na2vs0mg"},{"bike_id":"ac9cdb59-2de3-4b64-9b64-8618560e7eea","system_id":"levelo_inurba_marseille","lat":43.28002,"lon":5.40016,"is_reserved":false,"is_disabled":false,"rental_uris":{"android":"levelo://app?vid=ac9cdb59-2de3-4b64-9b64-8618560e7eea","ios":"levelo://app?vid=ac9cdb59-2de3-4b64-9b64-8618560e7eea"},"vehicle_type_id":"4","last_reported":1736190419,"current_range_meters":31200,"station_id":"ce4bho92rcd13ifvqh4g","pricing_plan_id":"cebpf4jnsgd1na2vs0mg"},{"bike_id":"865a75ae-d1fe-49dc-a6a2-eeaee7d48b3c","system_id":"levelo_inurba_marseille","lat":43.31182,"lon":5.38721,"is_reserved":false,"is_disabled":false,"rental_uris":{"android":"levelo://app?vid=865a75ae-d1fe-49dc-a6a2-eeaee7d48b3c","ios":"levelo://app?vid=865a75ae-d1fe-49dc-a6a2-eeaee7d48b3c"},"vehicle_type_id":"4","last_reported":1736190419,"current_range_meters":38800,"station_id":"ce4bgv12rcd13ifvqcp0","pricing_plan_id":"cebpf4jnsgd1na2vs0mg"},{"bike_id":"8e703174-0022-4861-93c4-6df26de669d8","system_id":"levelo_inurba_marseille","lat":43.24651,"lon":5.38908,"is_reserved":false,"is_disabled":false,"rental_uris":{"android":"levelo://app?vid=8e703174-0022-4861-93c4-6df26de669d8","ios":"levelo://app?vid=8e703174-0022-4861-93c4-6df26de669d8"},"vehicle_type_id":"4","last_reported":1736190419,"current_range_meters":39200,"station_id":"ce4bhg12rcd13ifvqf60","pricing_plan_id":"cebpf4jnsgd1na2vs0mg"},{"bike_id":"763086e4-39f0-4cd7-967e-3c7cbbfb54af","system_id":"levelo_inurba_marseille","lat":43.27179,"lon":5.40997,"is_reserved":false,"is_disabled":false,"rental_uris":{"android":"levelo://app?vid=763086e4-39f0-4cd7-967e-3c7cbbfb54af","ios":"levelo://app?vid=763086e4-39f0-4cd7-967e-3c7cbbfb54af"},"vehicle_type_id":"4","last_reported":1736190419,"current_range_meters":35200,"station_id":"ce4bhl12rcd13ifvqgf0","pricing_plan_id":"cebpf4jnsgd1na2vs0mg"},{"bike_id":"a654bcd9-87ff-4423-9dec-90165872ac51","system_id":"levelo_inurba_marseille","lat":43.25503,"lon":5.3764,"is_reserved":false,"is_disabled":false,"rental_uris":{"android":"levelo://app?vid=a654bcd9-87ff-4423-9dec-90165872ac51","ios":"levelo://app?vid=a654bcd9-87ff-4423-9dec-90165872ac51"},"vehicle_type_id":"4","last_reported":1736190419,"current_range_meters":38800,"station_id":"ce4bhh12rcd13ifvqff0","pricing_plan_id":"cebpf4jnsgd1na2vs0mg"},{"bike_id":"69b556b4-bc3d-4ef4-bb4b-65a2e6427433","system_id":"levelo_inurba_marseille","lat":43.28456,"lon":5.35871,"is_reserved":false,"is_disabled":false,"rental_uris":{"android":"levelo://app?vid=69b556b4-bc3d-4ef4-bb4b-65a2e6427433","ios":"levelo://app?vid=69b556b4-bc3d-4ef4-bb4b-65a2e6427433"},"vehicle_type_id":"4","last_reported":1736190419,"current_range_meters":36800,"station_id":"ce4bhah2rcd13ifvqei0","pricing_plan_id":"cebpf4jnsgd1na2vs0mg"},{"bike_id":"c3b24b1e-72af-41fb-94a4-c359cd4c5591","system_id":"levelo_inurba_marseille","lat":43.28486,"lon":5.38416,"is_reserved":false,"is_disabled":false,"rental_uris":{"android":"levelo://app?vid=c3b24b1e-72af-41fb-94a4-c359cd4c5591","ios":"levelo://app?vid=c3b24b1e-72af-41fb-94a4-c359cd4c5591"},"vehicle_type_id":"4","last_reported":1736190419,"current_range_meters":16800,"station_id":"ce4bh512rcd13ifvqe3g","pricing_plan_id":"cebpf4jnsgd1na2vs0mg"},{"bike_id":"51aea41b-24b5-4ba6-bcad-39868982e6c1","system_id":"levelo_inurba_marseille","lat":43.29529,"lon":5.3904,"is_reserved":false,"is_disabled":false,"rental_uris":{"android":"levelo://app?vid=51aea41b-24b5-4ba6-bcad-39868982e6c1","ios":"levelo://app?vid=51aea41b-24b5-4ba6-bcad-39868982e6c1"},"vehicle_type_id":"4","last_reported":1736190419,"current_range_meters":12400,"station_id":"ce4bh3p2rcd13ifvqdp0","pricing_plan_id":"cebpf4jnsgd1na2vs0mg"},{"bike_id":"a8faa725-eeb5-410d-8af9-75a0572b27fd","system_id":"levelo_inurba_marseille","lat":43.33023,"lon":5.39038,"is_reserved":false,"is_disabled":false,"rental_uris":{"android":"levelo://app?vid=a8faa725-eeb5-410d-8af9-75a0572b27fd","ios":"levelo://app?vid=a8faa725-eeb5-410d-8af9-75a0572b27fd"},"vehicle_type_id":"4","last_reported":1736190419,"current_range_meters":22800,"station_id":"ce4bhr92rcd13ifvqhrg","pricing_plan_id":"cebpf4jnsgd1na2vs0mg"},{"bike_id":"24bccac7-1e4b-45e8-bc23-0feeff5509f0","system_id":"levelo_inurba_marseille","lat":43.26498,"lon":5.3953,"is_reserved":false,"is_disabled":true,"rental_uris":{"android":"levelo://app?vid=24bccac7-1e4b-45e8-bc23-0feeff5509f0","ios":"levelo://app?vid=24bccac7-1e4b-45e8-bc23-0feeff5509f0"},"vehicle_type_id":"4","last_reported":1736190419,"current_range_meters":0,"station_id":"ce4bhi12rcd13ifvqfq0","pricing_plan_id":"cebpf4jnsgd1na2vs0mg"},{"bike_id":"cfd0d247-962a-4ddb-b2fd-509dedb0122e","system_id":"levelo_inurba_marseille","lat":43.2782,"lon":5.39203,"is_reserved":false,"is_disabled":false,"rental_uris":{"android":"levelo://app?vid=cfd0d247-962a-4ddb-b2fd-509dedb0122e","ios":"levelo://app?vid=cfd0d247-962a-4ddb-b2fd-509dedb0122e"},"vehicle_type_id":"4","last_reported":1736190419,"current_range_meters":36400,"station_id":"ce4bhjp2rcd13ifvqga0","pricing_plan_id":"cebpf4jnsgd1na2vs0mg"},{"bike_id":"7082a147-72ba-427b-b7d0-01f4c79523c2","system_id":"levelo_inurba_marseille","lat":43.33214,"lon":5.35857,"is_reserved":false,"is_disabled":false,"rental_uris":{"android":"levelo://app?vid=7082a147-72ba-427b-b7d0-01f4c79523c2","ios":"levelo://app?vid=7082a147-72ba-427b-b7d0-01f4c79523c2"},"vehicle_type_id":"4","last_reported":1736190419,"current_range_meters":19200,"station_id":"","pricing_plan_id":"cebpf4jnsgd1na2vs0mg"},{"bike_id":"54f39f2b-fcd6-4036-8d03-3db0c6fbca0a","system_id":"levelo_inurba_marseille","lat":43.26789,"lon":5.39417,"is_reserved":false,"is_disabled":true,"rental_uris":{"android":"levelo://app?vid=54f39f2b-fcd6-4036-8d03-3db0c6fbca0a","ios":"levelo://app?vid=54f39f2b-fcd6-4036-8d03-3db0c6fbca0a"},"vehicle_type_id":"4","last_reported":1736190419,"current_range_meters":1200,"station_id":"ce4bhh12rcd13ifvqfg0","pricing_plan_id":"cebpf4jnsgd1na2vs0mg"},{"bike_id":"1f30e69d-8902-4e73-a96c-28cd2671ae59","system_id":"levelo_inurba_marseille","lat":43.31276,"lon":5.40167,"is_reserved":false,"is_disabled":false,"rental_uris":{"android":"levelo://app?vid=1f30e69d-8902-4e73-a96c-28cd2671ae59","ios":"levelo://app?vid=1f30e69d-8902-4e73-a96c-28cd2671ae59"},"vehicle_type_id":"4","last_reported":1736190419,"current_range_meters":38800,"station_id":"ce4bh092rcd13ifvqd30","pricing_plan_id":"cebpf4jnsgd1na2vs0mg"},{"bike_id":"ab62ff0d-1a7a-45cf-9d99-99d7da9e0b58","system_id":"levelo_inurba_marseille","lat":43.27197,"lon":5.39147,"is_reserved":false,"is_disabled":false,"rental_uris":{"android":"levelo://app?vid=ab62ff0d-1a7a-45cf-9d99-99d7da9e0b58","ios":"levelo://app?vid=ab62ff0d-1a7a-45cf-9d99-99d7da9e0b58"},"vehicle_type_id":"4","last_reported":1736190419,"current_range_meters":4800,"station_id":"ce4bhhp2rcd13ifvqfm0","pricing_plan_id":"cebpf4jnsgd1na2vs0mg"},{"bike_id":"e793bbbf-e556-4105-8ad0-afa9f1e57a4f","system_id":"levelo_inurba_marseille","lat":43.26211,"lon":5.37927,"is_reserved":false,"is_disabled":false,"rental_uris":{"android":"levelo://app?vid=e793bbbf-e556-4105-8ad0-afa9f1e57a4f","ios":"levelo://app?vid=e793bbbf-e556-4105-8ad0-afa9f1e57a4f"},"vehicle_type_id":"4","last_reported":1736190419,"current_range_meters":17600,"station_id":"ce4bhjp2rcd13ifvqg90","pricing_plan_id":"cebpf4jnsgd1na2vs0mg"},{"bike_id":"d45d0089-5e8c-41ac-a04c-9866c8dc94cc","system_id":"levelo_inurba_marseille","lat":43.232,"lon":5.35534,"is_reserved":false,"is_disabled":false,"rental_uris":{"android":"levelo://app?vid=d45d0089-5e8c-41ac-a04c-9866c8dc94cc","ios":"levelo://app?vid=d45d0089-5e8c-41ac-a04c-9866c8dc94cc"},"vehicle_type_id":"4","last_reported":1736190419,"current_range_meters":6800,"station_id":"ce4bhu92rcd13ifvqi70","pricing_plan_id":"cebpf4jnsgd1na2vs0mg"},{"bike_id":"bbca0622-2b7d-453b-bde4-93aa221da88f","system_id":"levelo_inurba_marseille","lat":43.284172,"lon":5.375182,"is_reserved":false,"is_disabled":false,"rental_uris":{"android":"levelo://app?vid=bbca0622-2b7d-453b-bde4-93aa221da88f","ios":"levelo://app?vid=bbca0622-2b7d-453b-bde4-93aa221da88f"},"vehicle_type_id":"4","last_reported":1736190419,"current_range_meters":38400,"station_id":"ce4bh412rcd13ifvqds0","pricing_plan_id":"cebpf4jnsgd1na2vs0mg"},{"bike_id":"b5de95e0-8f34-41aa-a5fc-c4e76e03a994","system_id":"levelo_inurba_marseille","lat":43.280851,"lon":5.396651,"is_reserved":false,"is_disabled":true,"rental_uris":{"android":"levelo://app?vid=b5de95e0-8f34-41aa-a5fc-c4e76e03a994","ios":"levelo://app?vid=b5de95e0-8f34-41aa-a5fc-c4e76e03a994"},"vehicle_type_id":"4","last_reported":1736190419,"current_range_meters":26800,"station_id":"ce4bho12rcd13ifvqh2g","pricing_plan_id":"cebpf4jnsgd1na2vs0mg"},{"bike_id":"aa33a53e-f806-43a8-ad7e-8e2bd9644426","system_id":"levelo_inurba_marseille","lat":43.32345,"lon":5.40629,"is_reserved":false,"is_disabled":true,"rental_uris":{"android":"levelo://app?vid=aa33a53e-f806-43a8-ad7e-8e2bd9644426","ios":"levelo://app?vid=aa33a53e-f806-43a8-ad7e-8e2bd9644426"},"vehicle_type_id":"4","last_reported":1736190419,"current_range_meters":0,"station_id":"ce4bhq92rcd13ifvqhjg","pricing_plan_id":"cebpf4jnsgd1na2vs0mg"},{"bike_id":"3ecb915d-f223-4895-a3a0-9c26145c4804","system_id":"levelo_inurba_marseille","lat":43.31756,"lon":5.39019,"is_reserved":false,"is_disabled":false,"rental_uris":{"android":"levelo://app?vid=3ecb915d-f223-4895-a3a0-9c26145c4804","ios":"levelo://app?vid=3ecb915d-f223-4895-a3a0-9c26145c4804"},"vehicle_type_id":"4","last_reported":1736190419,"current_range_meters":28400,"station_id":"ce4bhqp2rcd13ifvqhng","pricing_plan_id":"cebpf4jnsgd1na2vs0mg"},{"bike_id":"55239fbb-8ee3-435d-bada-cef21797a0a3","system_id":"levelo_inurba_marseille","lat":43.30213,"lon":5.39469,"is_reserved":false,"is_disabled":false,"rental_uris":{"android":"levelo://app?vid=55239fbb-8ee3-435d-bada-cef21797a0a3","ios":"levelo://app?vid=55239fbb-8ee3-435d-bada-cef21797a0a3"},"vehicle_type_id":"4","last_reported":1736190419,"current_range_meters":32000,"station_id":"ce4bh0p2rcd13ifvqd70","pricing_plan_id":"cebpf4jnsgd1na2vs0mg"},{"bike_id":"fbbbd816-6041-490c-b061-718989f32626","system_id":"levelo_inurba_marseille","lat":43.29167,"lon":5.37174,"is_reserved":false,"is_disabled":false,"rental_uris":{"android":"levelo://app?vid=fbbbd816-6041-490c-b061-718989f32626","ios":"levelo://app?vid=fbbbd816-6041-490c-b061-718989f32626"},"vehicle_type_id":"4","last_reported":1736190419,"current_range_meters":19200,"station_id":"ce4bha92rcd13ifvqeh0","pricing_plan_id":"cebpf4jnsgd1na2vs0mg"},{"bike_id":"72aa27b6-580e-44c5-9bd2-168553fdc64a","system_id":"levelo_inurba_marseille","lat":43.29036,"lon":5.37601,"is_reserved":false,"is_disabled":true,"rental_uris":{"android":"levelo://app?vid=72aa27b6-580e-44c5-9bd2-168553fdc64a","ios":"levelo://app?vid=72aa27b6-580e-44c5-9bd2-168553fdc64a"},"vehicle_type_id":"4","last_reported":1736190419,"current_range_meters":3200,"station_id":"ce4bh692rcd13ifvqe90","pricing_plan_id":"cebpf4jnsgd1na2vs0mg"},{"bike_id":"55ab3c06-d25f-45e3-aef4-2823712ab133","system_id":"levelo_inurba_marseille","lat":43.27623,"lon":5.36111,"is_reserved":false,"is_disabled":false,"rental_uris":{"android":"levelo://app?vid=55ab3c06-d25f-45e3-aef4-2823712ab133","ios":"levelo://app?vid=55ab3c06-d25f-45e3-aef4-2823712ab133"},"vehicle_type_id":"4","last_reported":1736190419,"current_range_meters":32400,"station_id":"ce4bgj92rcd13ifvqbe0","pricing_plan_id":"cebpf4jnsgd1na2vs0mg"},{"bike_id":"132b8dd5-05bd-4a70-8a4a-7c361ad9f8ad","system_id":"levelo_inurba_marseille","lat":43.26494,"lon":5.39553,"is_reserved":false,"is_disabled":true,"rental_uris":{"android":"levelo://app?vid=132b8dd5-05bd-4a70-8a4a-7c361ad9f8ad","ios":"levelo://app?vid=132b8dd5-05bd-4a70-8a4a-7c361ad9f8ad"},"vehicle_type_id":"4","last_reported":1736190419,"current_range_meters":0,"station_id":"ce4bhi12rcd13ifvqfq0","pricing_plan_id":"cebpf4jnsgd1na2vs0mg"},{"bike_id":"4299617b-6245-4d47-a633-565f91a4f33c","system_id":"levelo_inurba_marseille","lat":43.31707,"lon":5.43707,"is_reserved":false,"is_disabled":false,"rental_uris":{"android":"levelo://app?vid=4299617b-6245-4d47-a633-565f91a4f33c","ios":"levelo://app?vid=4299617b-6245-4d47-a633-565f91a4f33c"},"vehicle_type_id":"4","last_reported":1736190419,"current_range_meters":16800,"station_id":"ce4bhp92rcd13ifvqhcg","pricing_plan_id":"cebpf4jnsgd1na2vs0mg"},{"bike_id":"3f6991ae-e644-46ff-a12d-6b7ff75de24a","system_id":"levelo_inurba_marseille","lat":43.293,"lon":5.37188,"is_reserved":false,"is_disabled":false,"rental_uris":{"android":"levelo://app?vid=3f6991ae-e644-46ff-a12d-6b7ff75de24a","ios":"levelo://app?vid=3f6991ae-e644-46ff-a12d-6b7ff75de24a"},"vehicle_type_id":"4","last_reported":1736190419,"current_range_meters":35200,"station_id":"ce4bgh92rcd13ifvqb40","pricing_plan_id":"cebpf4jnsgd1na2vs0mg"},{"bike_id":"d0541b38-8e7e-4e1e-8666-5868b43eb4cc","system_id":"levelo_inurba_marseille","lat":43.25121,"lon":5.40331,"is_reserved":false,"is_disabled":false,"rental_uris":{"android":"levelo://app?vid=d0541b38-8e7e-4e1e-8666-5868b43eb4cc","ios":"levelo://app?vid=d0541b38-8e7e-4e1e-8666-5868b43eb4cc"},"vehicle_type_id":"4","last_reported":1736190419,"current_range_meters":37600,"station_id":"ce4bhlh2rcd13ifvqgig","pricing_plan_id":"cebpf4jnsgd1na2vs0mg"},{"bike_id":"4e1fe626-83a9-48a1-ae4d-a6801106e052","system_id":"levelo_inurba_marseille","lat":43.24808,"lon":5.37451,"is_reserved":false,"is_disabled":false,"rental_uris":{"android":"levelo://app?vid=4e1fe626-83a9-48a1-ae4d-a6801106e052","ios":"levelo://app?vid=4e1fe626-83a9-48a1-ae4d-a6801106e052"},"vehicle_type_id":"4","last_reported":1736190419,"current_range_meters":38000,"station_id":"ce4bhgh2rcd13ifvqfb0","pricing_plan_id":"cebpf4jnsgd1na2vs0mg"},{"bike_id":"ec1d3085-9ec8-4ac2-a235-c8f35d70ec9d","system_id":"levelo_inurba_marseille","lat":43.25826,"lon":5.39437,"is_reserved":false,"is_disabled":false,"rental_uris":{"android":"levelo://app?vid=ec1d3085-9ec8-4ac2-a235-c8f35d70ec9d","ios":"levelo://app?vid=ec1d3085-9ec8-4ac2-a235-c8f35d70ec9d"},"vehicle_type_id":"4","last_reported":1736190419,"current_range_meters":38800,"station_id":"ce4bhip2rcd13ifvqft0","pricing_plan_id":"cebpf4jnsgd1na2vs0mg"},{"bike_id":"01621687-974a-4512-a66c-013bd522b687","system_id":"levelo_inurba_marseille","lat":43.29584,"lon":5.37488,"is_reserved":false,"is_disabled":false,"rental_uris":{"android":"levelo://app?vid=01621687-974a-4512-a66c-013bd522b687","ios":"levelo://app?vid=01621687-974a-4512-a66c-013bd522b687"},"vehicle_type_id":"4","last_reported":1736190419,"current_range_meters":27600,"station_id":"ce4bgh92rcd13ifvqb50","pricing_plan_id":"cebpf4jnsgd1na2vs0mg"},{"bike_id":"b2c6f2e2-414c-4d64-8d0d-217c0ae9316e","system_id":"levelo_inurba_marseille","lat":43.30261,"lon":5.40071,"is_reserved":false,"is_disabled":false,"rental_uris":{"android":"levelo://app?vid=b2c6f2e2-414c-4d64-8d0d-217c0ae9316e","ios":"levelo://app?vid=b2c6f2e2-414c-4d64-8d0d-217c0ae9316e"},"vehicle_type_id":"4","last_reported":1736190419,"current_range_meters":38800,"station_id":"ce4bgvh2rcd13ifvqcs0","pricing_plan_id":"cebpf4jnsgd1na2vs0mg"},{"bike_id":"bb9a5e95-21c7-4fb0-a7cd-7d4551e7ff73","system_id":"levelo_inurba_marseille","lat":43.23968,"lon":5.36638,"is_reserved":false,"is_disabled":false,"rental_uris":{"android":"levelo://app?vid=bb9a5e95-21c7-4fb0-a7cd-7d4551e7ff73","ios":"levelo://app?vid=bb9a5e95-21c7-4fb0-a7cd-7d4551e7ff73"},"vehicle_type_id":"4","last_reported":1736190419,"current_range_meters":3200,"station_id":"ce4bhi12rcd13ifvqfp0","pricing_plan_id":"cebpf4jnsgd1na2vs0mg"},{"bike_id":"1f2a36a2-3528-4aeb-8044-9997d45a0ed3","system_id":"levelo_inurba_marseille","lat":43.279175,"lon":5.395809,"is_reserved":false,"is_disabled":false,"rental_uris":{"android":"levelo://app?vid=1f2a36a2-3528-4aeb-8044-9997d45a0ed3","ios":"levelo://app?vid=1f2a36a2-3528-4aeb-8044-9997d45a0ed3"},"vehicle_type_id":"4","last_reported":1736190419,"current_range_meters":33200,"station_id":"ce4bhf92rcd13ifvqf40","pricing_plan_id":"cebpf4jnsgd1na2vs0mg"},{"bike_id":"8a474426-cd46-4cf8-9edc-ef843a0ca02e","system_id":"levelo_inurba_marseille","lat":43.26531,"lon":5.39065,"is_reserved":false,"is_disabled":true,"rental_uris":{"android":"levelo://app?vid=8a474426-cd46-4cf8-9edc-ef843a0ca02e","ios":"levelo://app?vid=8a474426-cd46-4cf8-9edc-ef843a0ca02e"},"vehicle_type_id":"4","last_reported":1736190419,"current_range_meters":33200,"station_id":"","pricing_plan_id":"cebpf4jnsgd1na2vs0mg"},{"bike_id":"b8e8befc-076e-4a84-a746-24b09895b81b","system_id":"levelo_inurba_marseille","lat":43.255844,"lon":5.38216,"is_reserved":false,"is_disabled":false,"rental_uris":{"android":"levelo://app?vid=b8e8befc-076e-4a84-a746-24b09895b81b","ios":"levelo://app?vid=b8e8befc-076e-4a84-a746-24b09895b81b"},"vehicle_type_id":"4","last_reported":1736190419,"current_range_meters":36800,"station_id":"ce4bhih2rcd13ifvqfs0","pricing_plan_id":"cebpf4jnsgd1na2vs0mg"},{"bike_id":"bbf998ea-d252-4590-8711-16d78ff4b07c","system_id":"levelo_inurba_marseille","lat":43.24652,"lon":5.3893,"is_reserved":false,"is_disabled":false,"rental_uris":{"android":"levelo://app?vid=bbf998ea-d252-4590-8711-16d78ff4b07c","ios":"levelo://app?vid=bbf998ea-d252-4590-8711-16d78ff4b07c"},"vehicle_type_id":"4","last_reported":1736190419,"current_range_meters":28800,"station_id":"ce4bhg12rcd13ifvqf60","pricing_plan_id":"cebpf4jnsgd1na2vs0mg"},{"bike_id":"3bd701e8-1174-4580-b2cf-5d3167d58c57","system_id":"levelo_inurba_marseille","lat":43.287048,"lon":5.373933,"is_reserved":false,"is_disabled":false,"rental_uris":{"android":"levelo://app?vid=3bd701e8-1174-4580-b2cf-5d3167d58c57","ios":"levelo://app?vid=3bd701e8-1174-4580-b2cf-5d3167d58c57"},"vehicle_type_id":"4","last_reported":1736190419,"current_range_meters":22800,"station_id":"ce4bh3p2rcd13ifvqdq0","pricing_plan_id":"cebpf4jnsgd1na2vs0mg"},{"bike_id":"40fb7dad-5609-4451-ab10-c8015483f17a","system_id":"levelo_inurba_marseille","lat":43.25116,"lon":5.40323,"is_reserved":false,"is_disabled":false,"rental_uris":{"android":"levelo://app?vid=40fb7dad-5609-4451-ab10-c8015483f17a","ios":"levelo://app?vid=40fb7dad-5609-4451-ab10-c8015483f17a"},"vehicle_type_id":"4","last_reported":1736190419,"current_range_meters":15200,"station_id":"ce4bhlh2rcd13ifvqgig","pricing_plan_id":"cebpf4jnsgd1na2vs0mg"},{"bike_id":"5f5cedf9-bd29-4ae7-8006-771b625e8e9c","system_id":"levelo_inurba_marseille","lat":43.30135,"lon":5.39861,"is_reserved":false,"is_disabled":false,"rental_uris":{"android":"levelo://app?vid=5f5cedf9-bd29-4ae7-8006-771b625e8e9c","ios":"levelo://app?vid=5f5cedf9-bd29-4ae7-8006-771b625e8e9c"},"vehicle_type_id":"4","last_reported":1736190419,"current_range_meters":33200,"station_id":"ce4bh0h2rcd13ifvqd40","pricing_plan_id":"cebpf4jnsgd1na2vs0mg"},{"bike_id":"f5a4a49b-f269-4ec2-b80a-e579bf67a966","system_id":"levelo_inurba_marseille","lat":43.27208,"lon":5.39161,"is_reserved":false,"is_disabled":true,"rental_uris":{"android":"levelo://app?vid=f5a4a49b-f269-4ec2-b80a-e579bf67a966","ios":"levelo://app?vid=f5a4a49b-f269-4ec2-b80a-e579bf67a966"},"vehicle_type_id":"4","last_reported":1736190419,"current_range_meters":0,"station_id":"ce4bhhp2rcd13ifvqfm0","pricing_plan_id":"cebpf4jnsgd1na2vs0mg"},{"bike_id":"664044e6-e824-440a-a874-8e818a3a1b1b","system_id":"levelo_inurba_marseille","lat":43.28568,"lon":5.39506,"is_reserved":false,"is_disabled":true,"rental_uris":{"android":"levelo://app?vid=664044e6-e824-440a-a874-8e818a3a1b1b","ios":"levelo://app?vid=664044e6-e824-440a-a874-8e818a3a1b1b"},"vehicle_type_id":"4","last_reported":1736190419,"current_range_meters":37600,"station_id":"ce4bh292rcd13ifvqdg0","pricing_plan_id":"cebpf4jnsgd1na2vs0mg"},{"bike_id":"33b1d5fe-d764-404a-98ef-6a9eefa30f0f","system_id":"levelo_inurba_marseille","lat":43.25725,"lon":5.41104,"is_reserved":false,"is_disabled":false,"rental_uris":{"android":"levelo://app?vid=33b1d5fe-d764-404a-98ef-6a9eefa30f0f","ios":"levelo://app?vid=33b1d5fe-d764-404a-98ef-6a9eefa30f0f"},"vehicle_type_id":"4","last_reported":1736190419,"current_range_meters":11600,"station_id":"ce4bhkp2rcd13ifvqgd0","pricing_plan_id":"cebpf4jnsgd1na2vs0mg"},{"bike_id":"936ed474-610f-4c67-b8c9-91392f127c61","system_id":"levelo_inurba_marseille","lat":43.29443,"lon":5.3975,"is_reserved":false,"is_disabled":false,"rental_uris":{"android":"levelo://app?vid=936ed474-610f-4c67-b8c9-91392f127c61","ios":"levelo://app?vid=936ed474-610f-4c67-b8c9-91392f127c61"},"vehicle_type_id":"4","last_reported":1736190419,"current_range_meters":17200,"station_id":"ce4bh3h2rcd13ifvqdo0","pricing_plan_id":"cebpf4jnsgd1na2vs0mg"},{"bike_id":"02201d32-ece4-4cd3-8c2d-8eacbfc5c3d0","system_id":"levelo_inurba_marseille","lat":43.25119,"lon":5.40319,"is_reserved":false,"is_disabled":false,"rental_uris":{"android":"levelo://app?vid=02201d32-ece4-4cd3-8c2d-8eacbfc5c3d0","ios":"levelo://app?vid=02201d32-ece4-4cd3-8c2d-8eacbfc5c3d0"},"vehicle_type_id":"4","last_reported":1736190419,"current_range_meters":22400,"station_id":"ce4bhlh2rcd13ifvqgig","pricing_plan_id":"cebpf4jnsgd1na2vs0mg"},{"bike_id":"629d7cb6-1cfd-4f70-966d-f88ba3166552","system_id":"levelo_inurba_marseille","lat":43.2991,"lon":5.3815,"is_reserved":false,"is_disabled":false,"rental_uris":{"android":"levelo://app?vid=629d7cb6-1cfd-4f70-966d-f88ba3166552","ios":"levelo://app?vid=629d7cb6-1cfd-4f70-966d-f88ba3166552"},"vehicle_type_id":"4","last_reported":1736190419,"current_range_meters":27600,"station_id":"ce4bgj12rcd13ifvqbc0","pricing_plan_id":"cebpf4jnsgd1na2vs0mg"},{"bike_id":"0bcfea18-61ca-412d-bded-b63f59943884","system_id":"levelo_inurba_marseille","lat":43.28615,"lon":5.35104,"is_reserved":false,"is_disabled":true,"rental_uris":{"android":"levelo://app?vid=0bcfea18-61ca-412d-bded-b63f59943884","ios":"levelo://app?vid=0bcfea18-61ca-412d-bded-b63f59943884"},"vehicle_type_id":"4","last_reported":1736190419,"current_range_meters":32000,"station_id":"ce4bhch2rcd13ifvqeug","pricing_plan_id":"cebpf4jnsgd1na2vs0mg"},{"bike_id":"1a84399a-435c-4ec1-bdbf-8e844d989c4b","system_id":"levelo_inurba_marseille","lat":43.29729,"lon":5.36618,"is_reserved":false,"is_disabled":false,"rental_uris":{"android":"levelo://app?vid=1a84399a-435c-4ec1-bdbf-8e844d989c4b","ios":"levelo://app?vid=1a84399a-435c-4ec1-bdbf-8e844d989c4b"},"vehicle_type_id":"4","last_reported":1736190419,"current_range_meters":20400,"station_id":"ce4bgn12rcd13ifvqbt0","pricing_plan_id":"cebpf4jnsgd1na2vs0mg"},{"bike_id":"01844f2c-8e2d-4e7b-84eb-c284d12438cb","system_id":"levelo_inurba_marseille","lat":43.28084,"lon":5.39664,"is_reserved":false,"is_disabled":false,"rental_uris":{"android":"levelo://app?vid=01844f2c-8e2d-4e7b-84eb-c284d12438cb","ios":"levelo://app?vid=01844f2c-8e2d-4e7b-84eb-c284d12438cb"},"vehicle_type_id":"4","last_reported":1736190419,"current_range_meters":39200,"station_id":"ce4bho12rcd13ifvqh2g","pricing_plan_id":"cebpf4jnsgd1na2vs0mg"},{"bike_id":"6abef6a9-caf5-451a-afc9-43df477f8261","system_id":"levelo_inurba_marseille","lat":43.28671,"lon":5.36342,"is_reserved":false,"is_disabled":false,"rental_uris":{"android":"levelo://app?vid=6abef6a9-caf5-451a-afc9-43df477f8261","ios":"levelo://app?vid=6abef6a9-caf5-451a-afc9-43df477f8261"},"vehicle_type_id":"4","last_reported":1736190419,"current_range_meters":38800,"station_id":"ce4bhah2rcd13ifvqej0","pricing_plan_id":"cebpf4jnsgd1na2vs0mg"},{"bike_id":"c01b0233-65f9-496a-8135-9eeacf81fe1b","system_id":"levelo_inurba_marseille","lat":43.29602,"lon":5.38114,"is_reserved":false,"is_disabled":false,"rental_uris":{"android":"levelo://app?vid=c01b0233-65f9-496a-8135-9eeacf81fe1b","ios":"levelo://app?vid=c01b0233-65f9-496a-8135-9eeacf81fe1b"},"vehicle_type_id":"4","last_reported":1736190419,"current_range_meters":38800,"station_id":"ce4bgl12rcd13ifvqbo0","pricing_plan_id":"cebpf4jnsgd1na2vs0mg"},{"bike_id":"03630410-cff2-41ca-8ab4-df6ebc45a627","system_id":"levelo_inurba_marseille","lat":43.30153,"lon":5.38084,"is_reserved":false,"is_disabled":true,"rental_uris":{"android":"levelo://app?vid=03630410-cff2-41ca-8ab4-df6ebc45a627","ios":"levelo://app?vid=03630410-cff2-41ca-8ab4-df6ebc45a627"},"vehicle_type_id":"4","last_reported":1736190419,"current_range_meters":36400,"station_id":"ce4bgjp2rcd13ifvqbh0","pricing_plan_id":"cebpf4jnsgd1na2vs0mg"},{"bike_id":"52200668-cd8f-4dc4-8199-1244ab61819a","system_id":"levelo_inurba_marseille","lat":43.24806,"lon":5.37454,"is_reserved":false,"is_disabled":false,"rental_uris":{"android":"levelo://app?vid=52200668-cd8f-4dc4-8199-1244ab61819a","ios":"levelo://app?vid=52200668-cd8f-4dc4-8199-1244ab61819a"},"vehicle_type_id":"4","last_reported":1736190419,"current_range_meters":38800,"station_id":"ce4bhgh2rcd13ifvqfb0","pricing_plan_id":"cebpf4jnsgd1na2vs0mg"},{"bike_id":"bc5b5855-1cf6-4cdc-af1a-e3906d45046d","system_id":"levelo_inurba_marseille","lat":43.25006,"lon":5.38931,"is_reserved":false,"is_disabled":false,"rental_uris":{"android":"levelo://app?vid=bc5b5855-1cf6-4cdc-af1a-e3906d45046d","ios":"levelo://app?vid=bc5b5855-1cf6-4cdc-af1a-e3906d45046d"},"vehicle_type_id":"4","last_reported":1736190419,"current_range_meters":27200,"station_id":"ce4bhgp2rcd13ifvqfd0","pricing_plan_id":"cebpf4jnsgd1na2vs0mg"},{"bike_id":"b174120d-6c0e-448a-9af0-af9dcc29822e","system_id":"levelo_inurba_marseille","lat":43.28058,"lon":5.36918,"is_reserved":false,"is_disabled":false,"rental_uris":{"android":"levelo://app?vid=b174120d-6c0e-448a-9af0-af9dcc29822e","ios":"levelo://app?vid=b174120d-6c0e-448a-9af0-af9dcc29822e"},"vehicle_type_id":"4","last_reported":1736190419,"current_range_meters":23200,"station_id":"ce4bha12rcd13ifvqef0","pricing_plan_id":"cebpf4jnsgd1na2vs0mg"},{"bike_id":"9206d9db-6a1d-4495-9bc2-7d4e1ef0f397","system_id":"levelo_inurba_marseille","lat":43.2892,"lon":5.38388,"is_reserved":false,"is_disabled":true,"rental_uris":{"android":"levelo://app?vid=9206d9db-6a1d-4495-9bc2-7d4e1ef0f397","ios":"levelo://app?vid=9206d9db-6a1d-4495-9bc2-7d4e1ef0f397"},"vehicle_type_id":"4","last_reported":1736190419,"current_range_meters":38000,"station_id":"ce4bh612rcd13ifvqe6g","pricing_plan_id":"cebpf4jnsgd1na2vs0mg"},{"bike_id":"2937c8f0-6f06-4c7f-8240-41ad44bc55fa","system_id":"levelo_inurba_marseille","lat":43.23188,"lon":5.39999,"is_reserved":false,"is_disabled":false,"rental_uris":{"android":"levelo://app?vid=2937c8f0-6f06-4c7f-8240-41ad44bc55fa","ios":"levelo://app?vid=2937c8f0-6f06-4c7f-8240-41ad44bc55fa"},"vehicle_type_id":"4","last_reported":1736190419,"current_range_meters":14800,"station_id":"ce4bhn12rcd13ifvqgqg","pricing_plan_id":"cebpf4jnsgd1na2vs0mg"},{"bike_id":"beeee59f-9826-4d2a-9f89-9199be2d6336","system_id":"levelo_inurba_marseille","lat":43.3025,"lon":5.40051,"is_reserved":false,"is_disabled":false,"rental_uris":{"android":"levelo://app?vid=beeee59f-9826-4d2a-9f89-9199be2d6336","ios":"levelo://app?vid=beeee59f-9826-4d2a-9f89-9199be2d6336"},"vehicle_type_id":"4","last_reported":1736190419,"current_range_meters":16800,"station_id":"ce4bgvh2rcd13ifvqcs0","pricing_plan_id":"cebpf4jnsgd1na2vs0mg"},{"bike_id":"efaac073-0042-47ef-98ca-9e2ef1fc5fd4","system_id":"levelo_inurba_marseille","lat":43.32339,"lon":5.40625,"is_reserved":false,"is_disabled":false,"rental_uris":{"android":"levelo://app?vid=efaac073-0042-47ef-98ca-9e2ef1fc5fd4","ios":"levelo://app?vid=efaac073-0042-47ef-98ca-9e2ef1fc5fd4"},"vehicle_type_id":"4","last_reported":1736190419,"current_range_meters":27600,"station_id":"ce4bhq92rcd13ifvqhjg","pricing_plan_id":"cebpf4jnsgd1na2vs0mg"},{"bike_id":"f49298c6-b208-404d-bb0c-160ccbda2eed","system_id":"levelo_inurba_marseille","lat":43.27997,"lon":5.39999,"is_reserved":false,"is_disabled":true,"rental_uris":{"android":"levelo://app?vid=f49298c6-b208-404d-bb0c-160ccbda2eed","ios":"levelo://app?vid=f49298c6-b208-404d-bb0c-160ccbda2eed"},"vehicle_type_id":"4","last_reported":1736190419,"current_range_meters":34000,"station_id":"ce4bho92rcd13ifvqh4g","pricing_plan_id":"cebpf4jnsgd1na2vs0mg"},{"bike_id":"d014f699-d84d-436b-b3bf-8c059d18ea89","system_id":"levelo_inurba_marseille","lat":43.22926,"lon":5.35354,"is_reserved":false,"is_disabled":false,"rental_uris":{"android":"levelo://app?vid=d014f699-d84d-436b-b3bf-8c059d18ea89","ios":"levelo://app?vid=d014f699-d84d-436b-b3bf-8c059d18ea89"},"vehicle_type_id":"4","last_reported":1736190419,"current_range_meters":10800,"station_id":"cpo3532slgdg3j2ikp40","pricing_plan_id":"cebpf4jnsgd1na2vs0mg"},{"bike_id":"7f58f993-175d-4e12-8a7f-3fbf9704cd26","system_id":"levelo_inurba_marseille","lat":43.28919,"lon":5.3667,"is_reserved":false,"is_disabled":false,"rental_uris":{"android":"levelo://app?vid=7f58f993-175d-4e12-8a7f-3fbf9704cd26","ios":"levelo://app?vid=7f58f993-175d-4e12-8a7f-3fbf9704cd26"},"vehicle_type_id":"4","last_reported":1736190419,"current_range_meters":38000,"station_id":"ce4bhap2rcd13ifvqek0","pricing_plan_id":"cebpf4jnsgd1na2vs0mg"},{"bike_id":"2119727b-11e5-4d0a-a396-ddbb4e336e00","system_id":"levelo_inurba_marseille","lat":43.28938,"lon":5.36645,"is_reserved":false,"is_disabled":false,"rental_uris":{"android":"levelo://app?vid=2119727b-11e5-4d0a-a396-ddbb4e336e00","ios":"levelo://app?vid=2119727b-11e5-4d0a-a396-ddbb4e336e00"},"vehicle_type_id":"4","last_reported":1736190419,"current_range_meters":24000,"station_id":"ce4bhap2rcd13ifvqek0","pricing_plan_id":"cebpf4jnsgd1na2vs0mg"},{"bike_id":"faae1798-96a7-429b-b6ea-e7803c53339f","system_id":"levelo_inurba_marseille","lat":43.29536,"lon":5.38548,"is_reserved":false,"is_disabled":false,"rental_uris":{"android":"levelo://app?vid=faae1798-96a7-429b-b6ea-e7803c53339f","ios":"levelo://app?vid=faae1798-96a7-429b-b6ea-e7803c53339f"},"vehicle_type_id":"4","last_reported":1736190419,"current_range_meters":24800,"station_id":"ce4bgih2rcd13ifvqba0","pricing_plan_id":"cebpf4jnsgd1na2vs0mg"},{"bike_id":"955387a8-4a47-4691-946f-78754c88504b","system_id":"levelo_inurba_marseille","lat":43.23192,"lon":5.35537,"is_reserved":false,"is_disabled":false,"rental_uris":{"android":"levelo://app?vid=955387a8-4a47-4691-946f-78754c88504b","ios":"levelo://app?vid=955387a8-4a47-4691-946f-78754c88504b"},"vehicle_type_id":"4","last_reported":1736190419,"current_range_meters":38800,"station_id":"ce4bhu92rcd13ifvqi70","pricing_plan_id":"cebpf4jnsgd1na2vs0mg"},{"bike_id":"ef72cdb4-465d-4178-b952-49906f159c48","system_id":"levelo_inurba_marseille","lat":43.2816,"lon":5.4264,"is_reserved":false,"is_disabled":false,"rental_uris":{"android":"levelo://app?vid=ef72cdb4-465d-4178-b952-49906f159c48","ios":"levelo://app?vid=ef72cdb4-465d-4178-b952-49906f159c48"},"vehicle_type_id":"4","last_reported":1736190419,"current_range_meters":38400,"station_id":"ce4bhnh2rcd13ifvqgug","pricing_plan_id":"cebpf4jnsgd1na2vs0mg"},{"bike_id":"f949af9a-2683-4ec9-b4bf-168b31b3bcb2","system_id":"levelo_inurba_marseille","lat":43.246495,"lon":5.388915,"is_reserved":false,"is_disabled":false,"rental_uris":{"android":"levelo://app?vid=f949af9a-2683-4ec9-b4bf-168b31b3bcb2","ios":"levelo://app?vid=f949af9a-2683-4ec9-b4bf-168b31b3bcb2"},"vehicle_type_id":"4","last_reported":1736190419,"current_range_meters":22400,"station_id":"ce4bhg12rcd13ifvqf60","pricing_plan_id":"cebpf4jnsgd1na2vs0mg"},{"bike_id":"5716fd4e-02bd-4a7d-b0ae-b602c555354f","system_id":"levelo_inurba_marseille","lat":43.29116,"lon":5.3815,"is_reserved":false,"is_disabled":true,"rental_uris":{"android":"levelo://app?vid=5716fd4e-02bd-4a7d-b0ae-b602c555354f","ios":"levelo://app?vid=5716fd4e-02bd-4a7d-b0ae-b602c555354f"},"vehicle_type_id":"4","last_reported":1736190419,"current_range_meters":0,"station_id":"ce4bh512rcd13ifvqe2g","pricing_plan_id":"cebpf4jnsgd1na2vs0mg"},{"bike_id":"af088f9f-cdd8-476d-95ff-75264aa544f9","system_id":"levelo_inurba_marseille","lat":43.28695,"lon":5.37394,"is_reserved":false,"is_disabled":false,"rental_uris":{"android":"levelo://app?vid=af088f9f-cdd8-476d-95ff-75264aa544f9","ios":"levelo://app?vid=af088f9f-cdd8-476d-95ff-75264aa544f9"},"vehicle_type_id":"4","last_reported":1736190419,"current_range_meters":32000,"station_id":"ce4bh3p2rcd13ifvqdq0","pricing_plan_id":"cebpf4jnsgd1na2vs0mg"},{"bike_id":"cd1c11fd-2068-4028-bb0e-2b2f532f03e7","system_id":"levelo_inurba_marseille","lat":43.32293,"lon":5.38271,"is_reserved":false,"is_disabled":false,"rental_uris":{"android":"levelo://app?vid=cd1c11fd-2068-4028-bb0e-2b2f532f03e7","ios":"levelo://app?vid=cd1c11fd-2068-4028-bb0e-2b2f532f03e7"},"vehicle_type_id":"4","last_reported":1736190419,"current_range_meters":36800,"station_id":"ce4bhr12rcd13ifvqhqg","pricing_plan_id":"cebpf4jnsgd1na2vs0mg"},{"bike_id":"57b66293-4f20-4f05-8917-ea32e8823749","system_id":"levelo_inurba_marseille","lat":43.31712,"lon":5.43695,"is_reserved":false,"is_disabled":false,"rental_uris":{"android":"levelo://app?vid=57b66293-4f20-4f05-8917-ea32e8823749","ios":"levelo://app?vid=57b66293-4f20-4f05-8917-ea32e8823749"},"vehicle_type_id":"4","last_reported":1736190419,"current_range_meters":10800,"station_id":"ce4bhp92rcd13ifvqhcg","pricing_plan_id":"cebpf4jnsgd1na2vs0mg"},{"bike_id":"534cb03f-92ce-421f-9bf6-1e62bfdd4cea","system_id":"levelo_inurba_marseille","lat":43.29573,"lon":5.39972,"is_reserved":false,"is_disabled":false,"rental_uris":{"android":"levelo://app?vid=534cb03f-92ce-421f-9bf6-1e62bfdd4cea","ios":"levelo://app?vid=534cb03f-92ce-421f-9bf6-1e62bfdd4cea"},"vehicle_type_id":"4","last_reported":1736190419,"current_range_meters":23200,"station_id":"ce4bh312rcd13ifvqdj0","pricing_plan_id":"cebpf4jnsgd1na2vs0mg"},{"bike_id":"a1b6c61e-fddc-4edb-8119-4c29d53fad1d","system_id":"levelo_inurba_marseille","lat":43.31712,"lon":5.37773,"is_reserved":false,"is_disabled":false,"rental_uris":{"android":"levelo://app?vid=a1b6c61e-fddc-4edb-8119-4c29d53fad1d","ios":"levelo://app?vid=a1b6c61e-fddc-4edb-8119-4c29d53fad1d"},"vehicle_type_id":"4","last_reported":1736190419,"current_range_meters":22000,"station_id":"ce4bgth2rcd13ifvqch0","pricing_plan_id":"cebpf4jnsgd1na2vs0mg"},{"bike_id":"1ab64422-b79f-48bf-95ab-3c56dd01c961","system_id":"levelo_inurba_marseille","lat":43.25585,"lon":5.38238,"is_reserved":false,"is_disabled":false,"rental_uris":{"android":"levelo://app?vid=1ab64422-b79f-48bf-95ab-3c56dd01c961","ios":"levelo://app?vid=1ab64422-b79f-48bf-95ab-3c56dd01c961"},"vehicle_type_id":"4","last_reported":1736190419,"current_range_meters":23200,"station_id":"ce4bhih2rcd13ifvqfs0","pricing_plan_id":"cebpf4jnsgd1na2vs0mg"},{"bike_id":"1307f9da-ff9b-48a7-93be-7ab8cbbfc9be","system_id":"levelo_inurba_marseille","lat":43.25085,"lon":5.39498,"is_reserved":false,"is_disabled":false,"rental_uris":{"android":"levelo://app?vid=1307f9da-ff9b-48a7-93be-7ab8cbbfc9be","ios":"levelo://app?vid=1307f9da-ff9b-48a7-93be-7ab8cbbfc9be"},"vehicle_type_id":"4","last_reported":1736190419,"current_range_meters":38800,"station_id":"ce4bhm12rcd13ifvqgkg","pricing_plan_id":"cebpf4jnsgd1na2vs0mg"},{"bike_id":"210e5010-017d-4dcd-8c68-ff6eac065495","system_id":"levelo_inurba_marseille","lat":43.2846,"lon":5.35881,"is_reserved":false,"is_disabled":false,"rental_uris":{"android":"levelo://app?vid=210e5010-017d-4dcd-8c68-ff6eac065495","ios":"levelo://app?vid=210e5010-017d-4dcd-8c68-ff6eac065495"},"vehicle_type_id":"4","last_reported":1736190419,"current_range_meters":27600,"station_id":"ce4bhah2rcd13ifvqei0","pricing_plan_id":"cebpf4jnsgd1na2vs0mg"},{"bike_id":"4adcf21e-1df5-43ff-8204-4a46a79adf9d","system_id":"levelo_inurba_marseille","lat":43.28615,"lon":5.35106,"is_reserved":false,"is_disabled":false,"rental_uris":{"android":"levelo://app?vid=4adcf21e-1df5-43ff-8204-4a46a79adf9d","ios":"levelo://app?vid=4adcf21e-1df5-43ff-8204-4a46a79adf9d"},"vehicle_type_id":"4","last_reported":1736190419,"current_range_meters":24000,"station_id":"ce4bhch2rcd13ifvqeug","pricing_plan_id":"cebpf4jnsgd1na2vs0mg"},{"bike_id":"e4fb0db6-c070-4f7c-b34e-a54f29d45562","system_id":"levelo_inurba_marseille","lat":43.27996,"lon":5.41665,"is_reserved":false,"is_disabled":false,"rental_uris":{"android":"levelo://app?vid=e4fb0db6-c070-4f7c-b34e-a54f29d45562","ios":"levelo://app?vid=e4fb0db6-c070-4f7c-b34e-a54f29d45562"},"vehicle_type_id":"4","last_reported":1736190419,"current_range_meters":9200,"station_id":"ce4bho12rcd13ifvqh1g","pricing_plan_id":"cebpf4jnsgd1na2vs0mg"},{"bike_id":"bbc96439-75f7-44ed-9303-b7e7aedc3906","system_id":"levelo_inurba_marseille","lat":43.30805,"lon":5.38149,"is_reserved":false,"is_disabled":false,"rental_uris":{"android":"levelo://app?vid=bbc96439-75f7-44ed-9303-b7e7aedc3906","ios":"levelo://app?vid=bbc96439-75f7-44ed-9303-b7e7aedc3906"},"vehicle_type_id":"4","last_reported":1736190419,"current_range_meters":25200,"station_id":"ce4bgt12rcd13ifvqce0","pricing_plan_id":"cebpf4jnsgd1na2vs0mg"},{"bike_id":"2e4a805c-be16-44d8-ade2-6934d86aeb2b","system_id":"levelo_inurba_marseille","lat":43.2894,"lon":5.36631,"is_reserved":false,"is_disabled":false,"rental_uris":{"android":"levelo://app?vid=2e4a805c-be16-44d8-ade2-6934d86aeb2b","ios":"levelo://app?vid=2e4a805c-be16-44d8-ade2-6934d86aeb2b"},"vehicle_type_id":"4","last_reported":1736190419,"current_range_meters":38800,"station_id":"ce4bhap2rcd13ifvqek0","pricing_plan_id":"cebpf4jnsgd1na2vs0mg"},{"bike_id":"62af9a80-cbba-477b-855b-a75a92c59737","system_id":"levelo_inurba_marseille","lat":43.29759,"lon":5.38091,"is_reserved":false,"is_disabled":false,"rental_uris":{"android":"levelo://app?vid=62af9a80-cbba-477b-855b-a75a92c59737","ios":"levelo://app?vid=62af9a80-cbba-477b-855b-a75a92c59737"},"vehicle_type_id":"4","last_reported":1736190419,"current_range_meters":39200,"station_id":"ce4bgip2rcd13ifvqbb0","pricing_plan_id":"cebpf4jnsgd1na2vs0mg"},{"bike_id":"eedfee08-57e0-4552-b6aa-72a9bd664569","system_id":"levelo_inurba_marseille","lat":43.29706,"lon":5.36606,"is_reserved":false,"is_disabled":false,"rental_uris":{"android":"levelo://app?vid=eedfee08-57e0-4552-b6aa-72a9bd664569","ios":"levelo://app?vid=eedfee08-57e0-4552-b6aa-72a9bd664569"},"vehicle_type_id":"4","last_reported":1736190419,"current_range_meters":33200,"station_id":"ce4bgn12rcd13ifvqbt0","pricing_plan_id":"cebpf4jnsgd1na2vs0mg"},{"bike_id":"a3264d93-2f77-43cb-97bc-4fbb75ddcaa5","system_id":"levelo_inurba_marseille","lat":43.30789,"lon":5.38155,"is_reserved":false,"is_disabled":false,"rental_uris":{"android":"levelo://app?vid=a3264d93-2f77-43cb-97bc-4fbb75ddcaa5","ios":"levelo://app?vid=a3264d93-2f77-43cb-97bc-4fbb75ddcaa5"},"vehicle_type_id":"4","last_reported":1736190419,"current_range_meters":18000,"station_id":"ce4bgt12rcd13ifvqce0","pricing_plan_id":"cebpf4jnsgd1na2vs0mg"},{"bike_id":"ea7bebe3-4aff-4a01-b28d-c9b866182ae3","system_id":"levelo_inurba_marseille","lat":43.30793,"lon":5.39216,"is_reserved":false,"is_disabled":true,"rental_uris":{"android":"levelo://app?vid=ea7bebe3-4aff-4a01-b28d-c9b866182ae3","ios":"levelo://app?vid=ea7bebe3-4aff-4a01-b28d-c9b866182ae3"},"vehicle_type_id":"4","last_reported":1736190419,"current_range_meters":31200,"station_id":"","pricing_plan_id":"cebpf4jnsgd1na2vs0mg"},{"bike_id":"83d4ffe9-e943-4ed7-ada5-561733e03149","system_id":"levelo_inurba_marseille","lat":43.302672,"lon":5.397683,"is_reserved":false,"is_disabled":false,"rental_uris":{"android":"levelo://app?vid=83d4ffe9-e943-4ed7-ada5-561733e03149","ios":"levelo://app?vid=83d4ffe9-e943-4ed7-ada5-561733e03149"},"vehicle_type_id":"4","last_reported":1736190419,"current_range_meters":36800,"station_id":"ce4bgkh2rcd13ifvqbk0","pricing_plan_id":"cebpf4jnsgd1na2vs0mg"},{"bike_id":"468a0471-60e5-4cff-b987-0357c65421f2","system_id":"levelo_inurba_marseille","lat":43.25873,"lon":5.39892,"is_reserved":false,"is_disabled":false,"rental_uris":{"android":"levelo://app?vid=468a0471-60e5-4cff-b987-0357c65421f2","ios":"levelo://app?vid=468a0471-60e5-4cff-b987-0357c65421f2"},"vehicle_type_id":"4","last_reported":1736190419,"current_range_meters":24800,"station_id":"ce4bhl92rcd13ifvqghg","pricing_plan_id":"cebpf4jnsgd1na2vs0mg"},{"bike_id":"1396804c-74ed-434e-888d-d6ccd9a9bd79","system_id":"levelo_inurba_marseille","lat":43.29183,"lon":5.35802,"is_reserved":false,"is_disabled":false,"rental_uris":{"android":"levelo://app?vid=1396804c-74ed-434e-888d-d6ccd9a9bd79","ios":"levelo://app?vid=1396804c-74ed-434e-888d-d6ccd9a9bd79"},"vehicle_type_id":"4","last_reported":1736190419,"current_range_meters":27600,"station_id":"ce4bhb12rcd13ifvqel0","pricing_plan_id":"cebpf4jnsgd1na2vs0mg"},