{"last_updated":1705345521,"ttl":30,"version":"2.2","data":{"bikes":[{"bike_id":"5732d2da-d87e-4f92-a1eb-11d97d0aeca0","system_id":"levelo_inurba_marseille","lat":43.313585,"lon":5.367096,"is_reserved":false,"is_disabled":false,"rental_uris":{"android":"levelo://app?vid=5732d2da-d87e-4f92-a1eb-11d97d0aeca0","ios":"levelo://app?vid=5732d2da-d87e-4f92-a1eb-11d97d0aeca0"},"vehicle_type_id":"4","last_reported":1705345521,"current_range_meters":30000,"station_id":"ce4bgr92rcd13ifvqc6g","pricing_plan_id":"free"},{"bike_id":"a1578017-92f3-4dcb-870f-2624d68afe26","system_id":"levelo_inurba_marseille","lat":43.312239,"lon":5.368562,"is_reserved":false,"is_disabled":false,"rental_uris":{"android":"levelo://app?vid=a1578017-92f3-4dcb-870f-2624d68afe26","ios":"levelo://app?vid=a1578017-92f3-4dcb-870f-2624d68afe26"},"vehicle_type_id":"4","last_reported":1705345521,"current_range_meters":30400,"station_id":"ce4bgl92rcd13ifvqbq0","pricing_plan_id":"free"},{"bike_id":"717df459-9b55-41a2-8844-35a77b1aacd3","system_id":"levelo_inurba_marseille","lat":43.312239,"lon":5.368562,"is_reserved":false,"is_disabled":false,"rental_uris":{"android":"levelo://app?vid=717df459-9b55-41a2-8844-35a77b1aacd3","ios":"levelo://app?vid=717df459-9b55-41a2-8844-35a77b1aacd3"},"vehicle_type_id":"4","last_reported":1705345521,"current_range_meters":31200,"station_id":"ce4bgl92rcd13ifvqbq0","pricing_plan_id":"free"},{"bike_id":"5673f349-29ac-45c7-8cd8-909be4ccccd1","system_id":"levelo_inurba_marseille","lat":43.312239,"lon":5.368562,"is_reserved":false,"is_disabled":false,"rental_uris":{"android":"levelo://app?vid=5673f349-29ac-45c7-8cd8-909be4ccccd1","ios":"levelo://app?vid=5673f349-29ac-45c7-8cd8-909be4ccccd1"},"vehicle_type_id":"4","last_reported":1705345521,"current_range_meters":14400,"station_id":"ce4bgl92rcd13ifvqbq0","pricing_plan_id":"free"},{"bike_id":"c0a6b11b-e18f-4954-afe1-c9ec2007ebc4","system_id":"levelo_inurba_marseille","lat":43.312239,"lon":5.368562,"is_reserved":false,"is_disabled":false,"rental_uris":{"android":"levelo://app?vid=c0a6b11b-e18f-4954-afe1-c9ec2007ebc4","ios":"levelo://app?vid=c0a6b11b-e18f-4954-afe1-c9ec2007ebc4"},"vehicle_type_id":"4","last_reported":1705345521,"current_range_meters":23200,"station_id":"ce4bgl92rcd13ifvqbq0","pricing_plan_id":"free"},{"bike_id":"40ceeaaa-65bb-4ac6-b67e-e6cc39f36357","system_id":"levelo_inurba_marseille","lat":43.314811,"lon":5.373103,"is_reserved":false,"is_disabled":false,"rental_uris":{"android":"levelo://app?vid=40ceeaaa-65bb-4ac6-b67e-e6cc39f36357","ios":"levelo://app?vid=40ceeaaa-65bb-4ac6-b67e-e6cc39f36357"},"vehicle_type_id":"4","last_reported":1705345521,"current_range_meters":28400,"station_id":"ce4bgt12rcd13ifvqcd0","pricing_plan_id":"free"},{"bike_id":"2751fe63-7b8e-4a23-aa70-8680c00ee2b6","system_id":"levelo_inurba_marseille","lat":43.310206,"lon":5.373163,"is_reserved":false,"is_disabled":false,"rental_uris":{"android":"levelo://app?vid=2751fe63-7b8e-4a23-aa70-8680c00ee2b6","ios":"levelo://app?vid=2751fe63-7b8e-4a23-aa70-8680c00ee2b6"},"vehicle_type_id":"4","last_reported":1705345521,"current_range_meters":6400,"station_id":"","pricing_plan_id":"free"},{"bike_id":"9f833724-78dc-42a0-b494-89c4669b0dad","system_id":"levelo_inurba_marseille","lat":43.30888,"lon":5.37182,"is_reserved":false,"is_disabled":false,"rental_uris":{"android":"levelo://app?vid=9f833724-78dc-42a0-b494-89c4669b0dad","ios":"levelo://app?vid=9f833724-78dc-42a0-b494-89c4669b0dad"},"vehicle_type_id":"4","last_reported":1705345521,"current_range_meters":6000,"station_id":"ce4bguh2rcd13ifvqckg","pricing_plan_id":"free"},{"bike_id":"21756fff-cd2e-463c-8244-307e26c40654","system_id":"levelo_inurba_marseille","lat":43.308924,"lon":5.371945,"is_reserved":false,"is_disabled":false,"rental_uris":{"android":"levelo://app?vid=21756fff-cd2e-463c-8244-307e26c40654","ios":"levelo://app?vid=21756fff-cd2e-463c-8244-307e26c40654"},"vehicle_type_id":"4","last_reported":1705345521,"current_range_meters":22400,"station_id":"ce4bguh2rcd13ifvqckg","pricing_plan_id":"free"},{"bike_id":"2b922149-9341-44f4-ad22-ddba9c970c35","system_id":"levelo_inurba_marseille","lat":43.30892,"lon":5.37214,"is_reserved":false,"is_disabled":false,"rental_uris":{"android":"levelo://app?vid=2b922149-9341-44f4-ad22-ddba9c970c35","ios":"levelo://app?vid=2b922149-9341-44f4-ad22-ddba9c970c35"},"vehicle_type_id":"4","last_reported":1705345521,"current_range_meters":18800,"station_id":"ce4bguh2rcd13ifvqckg","pricing_plan_id":"free"},{"bike_id":"ed8d5e5a-f187-4ccd-8dcf-57f34fd6843d","system_id":"levelo_inurba_marseille","lat":43.308018,"lon":5.371971,"is_reserved":false,"is_disabled":false,"rental_uris":{"android":"levelo://app?vid=ed8d5e5a-f187-4ccd-8dcf-57f34fd6843d","ios":"levelo://app?vid=ed8d5e5a-f187-4ccd-8dcf-57f34fd6843d"},"vehicle_type_id":"4","last_reported":1705345521,"current_range_meters":8000,"station_id":"","pricing_plan_id":"free"},{"bike_id":"5f259a1c-ff8e-45db-84da-acfdcb3f67e2","system_id":"levelo_inurba_marseille","lat":43.30547,"lon":5.36538,"is_reserved":false,"is_disabled":false,"rental_uris":{"android":"levelo://app?vid=5f259a1c-ff8e-45db-84da-acfdcb3f67e2","ios":"levelo://app?vid=5f259a1c-ff8e-45db-84da-acfdcb3f67e2"},"vehicle_type_id":"4","last_reported":1705345521,"current_range_meters":0,"station_id":"ce4bgs12rcd13ifvqcag","pricing_plan_id":"free"},{"bike_id":"3d0fc099-73d3-41e3-8930-1d6e091ff9ff","system_id":"levelo_inurba_marseille","lat":43.311125,"lon":5.377624,"is_reserved":false,"is_disabled":false,"rental_uris":{"android":"levelo://app?vid=3d0fc099-73d3-41e3-8930-1d6e091ff9ff","ios":"levelo://app?vid=3d0fc099-73d3-41e3-8930-1d6e091ff9ff"},"vehicle_type_id":"4","last_reported":1705345521,"current_range_meters":19200,"station_id":"ce4bgt92rcd13ifvqcg0","pricing_plan_id":"free"},{"bike_id":"ef116439-b880-40ff-87e0-2a60b18f5d57","system_id":"levelo_inurba_marseille","lat":43.311125,"lon":5.377624,"is_reserved":false,"is_disabled":false,"rental_uris":{"android":"levelo://app?vid=ef116439-b880-40ff-87e0-2a60b18f5d57","ios":"levelo://app?vid=ef116439-b880-40ff-87e0-2a60b18f5d57"},"vehicle_type_id":"4","last_reported":1705345521,"current_range_meters":14000,"station_id":"ce4bgt92rcd13ifvqcg0","pricing_plan_id":"free"},{"bike_id":"34edddfe-4c51-4041-87ca-fe808506a407","system_id":"levelo_inurba_marseille","lat":43.317075,"lon":5.377367,"is_reserved":false,"is_disabled":false,"rental_uris":{"android":"levelo://app?vid=34edddfe-4c51-4041-87ca-fe808506a407","ios":"levelo://app?vid=34edddfe-4c51-4041-87ca-fe808506a407"},"vehicle_type_id":"4","last_reported":1705345521,"current_range_meters":19200,"station_id":"ce4bgth2rcd13ifvqch0","pricing_plan_id":"free"},{"bike_id":"a0544380-8f61-4d60-8e6b-ba7e925d58ee","system_id":"levelo_inurba_marseille","lat":43.307945,"lon":5.376487,"is_reserved":false,"is_disabled":false,"rental_uris":{"android":"levelo://app?vid=a0544380-8f61-4d60-8e6b-ba7e925d58ee","ios":"levelo://app?vid=a0544380-8f61-4d60-8e6b-ba7e925d58ee"},"vehicle_type_id":"4","last_reported":1705345521,"current_range_meters":3200,"station_id":"ce4bgv92rcd13ifvqcq0","pricing_plan_id":"free"},{"bike_id":"e03193f5-a59e-4094-8480-25acf73f8021","system_id":"levelo_inurba_marseille","lat":43.307945,"lon":5.376487,"is_reserved":false,"is_disabled":false,"rental_uris":{"android":"levelo://app?vid=e03193f5-a59e-4094-8480-25acf73f8021","ios":"levelo://app?vid=e03193f5-a59e-4094-8480-25acf73f8021"},"vehicle_type_id":"4","last_reported":1705345521,"current_range_meters":16000,"station_id":"ce4bgv92rcd13ifvqcq0","pricing_plan_id":"free"},{"bike_id":"95249445-5af6-4e4d-94fe-bd6a68385312","system_id":"levelo_inurba_marseille","lat":43.317075,"lon":5.377367,"is_reserved":false,"is_disabled":false,"rental_uris":{"android":"levelo://app?vid=95249445-5af6-4e4d-94fe-bd6a68385312","ios":"levelo://app?vid=95249445-5af6-4e4d-94fe-bd6a68385312"},"vehicle_type_id":"4","last_reported":1705345521,"current_range_meters":17200,"station_id":"ce4bgth2rcd13ifvqch0","pricing_plan_id":"free"},{"bike_id":"8c57c290-5df0-4e0a-9b4c-6b2db010effb","system_id":"levelo_inurba_marseille","lat":43.313571,"lon":5.384829,"is_reserved":false,"is_disabled":false,"rental_uris":{"android":"levelo://app?vid=8c57c290-5df0-4e0a-9b4c-6b2db010effb","ios":"levelo://app?vid=8c57c290-5df0-4e0a-9b4c-6b2db010effb"},"vehicle_type_id":"4","last_reported":1705345521,"current_range_meters":21600,"station_id":"ce4bgt92rcd13ifvqcf0","pricing_plan_id":"free"},{"bike_id":"c3693f65-6d4f-417d-9113-c677ab748206","system_id":"levelo_inurba_marseille","lat":43.317075,"lon":5.377367,"is_reserved":false,"is_disabled":false,"rental_uris":{"android":"levelo://app?vid=c3693f65-6d4f-417d-9113-c677ab748206","ios":"levelo://app?vid=c3693f65-6d4f-417d-9113-c677ab748206"},"vehicle_type_id":"4","last_reported":1705345521,"current_range_meters":28800,"station_id":"ce4bgth2rcd13ifvqch0","pricing_plan_id":"free"},{"bike_id":"d78f4eb5-728f-41d3-84ad-48258279890f","system_id":"levelo_inurba_marseille","lat":43.311125,"lon":5.377624,"is_reserved":false,"is_disabled":false,"rental_uris":{"android":"levelo://app?vid=d78f4eb5-728f-41d3-84ad-48258279890f","ios":"levelo://app?vid=d78f4eb5-728f-41d3-84ad-48258279890f"},"vehicle_type_id":"4","last_reported":1705345521,"current_range_meters":4800,"station_id":"ce4bgt92rcd13ifvqcg0","pricing_plan_id":"free"},{"bike_id":"0dd39c9d-7d35-402d-af38-fecf93e4f69d","system_id":"levelo_inurba_marseille","lat":43.303046,"lon":5.368981,"is_reserved":false,"is_disabled":false,"rental_uris":{"android":"levelo://app?vid=0dd39c9d-7d35-402d-af38-fecf93e4f69d","ios":"levelo://app?vid=0dd39c9d-7d35-402d-af38-fecf93e4f69d"},"vehicle_type_id":"4","last_reported":1705345521,"current_range_meters":10800,"station_id":"ce4bgqh2rcd13ifvqc5g","pricing_plan_id":"free"},{"bike_id":"6ce7ce53-5af8-4ed0-b656-ea1489ff0409","system_id":"levelo_inurba_marseille","lat":43.303046,"lon":5.368981,"is_reserved":false,"is_disabled":false,"rental_uris":{"android":"levelo://app?vid=6ce7ce53-5af8-4ed0-b656-ea1489ff0409","ios":"levelo://app?vid=6ce7ce53-5af8-4ed0-b656-ea1489ff0409"},"vehicle_type_id":"4","last_reported":1705345521,"current_range_meters":10400,"station_id":"ce4bgqh2rcd13ifvqc5g","pricing_plan_id":"free"},{"bike_id":"c1834a6c-6105-4762-9bbf-591d747c8325","system_id":"levelo_inurba_marseille","lat":43.301939,"lon":5.366286,"is_reserved":false,"is_disabled":false,"rental_uris":{"android":"levelo://app?vid=c1834a6c-6105-4762-9bbf-591d747c8325","ios":"levelo://app?vid=c1834a6c-6105-4762-9bbf-591d747c8325"},"vehicle_type_id":"4","last_reported":1705345521,"current_range_meters":12400,"station_id":"ce4bgrh2rcd13ifvqc8g","pricing_plan_id":"free"},{"bike_id":"5e452610-f8ec-46d4-9a5b-68b62057220f","system_id":"levelo_inurba_marseille","lat":43.301939,"lon":5.366286,"is_reserved":false,"is_disabled":false,"rental_uris":{"android":"levelo://app?vid=5e452610-f8ec-46d4-9a5b-68b62057220f","ios":"levelo://app?vid=5e452610-f8ec-46d4-9a5b-68b62057220f"},"vehicle_type_id":"4","last_reported":1705345521,"current_range_meters":23200,"station_id":"ce4bgrh2rcd13ifvqc8g","pricing_plan_id":"free"},{"bike_id":"088c399d-5641-406e-8c82-8d42886fab70","system_id":"levelo_inurba_marseille","lat":43.308012,"lon":5.381511,"is_reserved":false,"is_disabled":false,"rental_uris":{"android":"levelo://app?vid=088c399d-5641-406e-8c82-8d42886fab70","ios":"levelo://app?vid=088c399d-5641-406e-8c82-8d42886fab70"},"vehicle_type_id":"4","last_reported":1705345521,"current_range_meters":10000,"station_id":"ce4bgt12rcd13ifvqce0","pricing_plan_id":"free"},{"bike_id":"21d5d6f7-897b-413f-b7fe-34784630c245","system_id":"levelo_inurba_marseille","lat":43.308012,"lon":5.381511,"is_reserved":false,"is_disabled":false,"rental_uris":{"android":"levelo://app?vid=21d5d6f7-897b-413f-b7fe-34784630c245","ios":"levelo://app?vid=21d5d6f7-897b-413f-b7fe-34784630c245"},"vehicle_type_id":"4","last_reported":1705345521,"current_range_meters":19200,"station_id":"ce4bgt12rcd13ifvqce0","pricing_plan_id":"free"},{"bike_id":"b0e8f576-3976-4636-987e-cea799b93a59","system_id":"levelo_inurba_marseille","lat":43.304606,"lon":5.379026,"is_reserved":false,"is_disabled":false,"rental_uris":{"android":"levelo://app?vid=b0e8f576-3976-4636-987e-cea799b93a59","ios":"levelo://app?vid=b0e8f576-3976-4636-987e-cea799b93a59"},"vehicle_type_id":"4","last_reported":1705345521,"current_range_meters":4000,"station_id":"ce4bgup2rcd13ifvqcn0","pricing_plan_id":"free"},{"bike_id":"f84f59aa-9755-4cff-b94f-3aaeb709a4a2","system_id":"levelo_inurba_marseille","lat":43.324771,"lon":5.36557,"is_reserved":false,"is_disabled":false,"rental_uris":{"android":"levelo://app?vid=f84f59aa-9755-4cff-b94f-3aaeb709a4a2","ios":"levelo://app?vid=f84f59aa-9755-4cff-b94f-3aaeb709a4a2"},"vehicle_type_id":"4","last_reported":1705345521,"current_range_meters":14000,"station_id":"ce4bhs12rcd13ifvqhvg","pricing_plan_id":"free"},{"bike_id":"af63ebf0-376c-4b10-ad75-e535dada07f5","system_id":"levelo_inurba_marseille","lat":43.324771,"lon":5.36557,"is_reserved":false,"is_disabled":false,"rental_uris":{"android":"levelo://app?vid=af63ebf0-376c-4b10-ad75-e535dada07f5","ios":"levelo://app?vid=af63ebf0-376c-4b10-ad75-e535dada07f5"},"vehicle_type_id":"4","last_reported":1705345521,"current_range_meters":12800,"station_id":"ce4bhs12rcd13ifvqhvg","pricing_plan_id":"free"},{"bike_id":"fa3ab309-d9a3-4112-a5ab-4b51c48d0b83","system_id":"levelo_inurba_marseille","lat":43.324771,"lon":5.36557,"is_reserved":false,"is_disabled":false,"rental_uris":{"android":"levelo://app?vid=fa3ab309-d9a3-4112-a5ab-4b51c48d0b83","ios":"levelo://app?vid=fa3ab309-d9a3-4112-a5ab-4b51c48d0b83"},"vehicle_type_id":"4","last_reported":1705345521,"current_range_meters":0,"station_id":"ce4bhs12rcd13ifvqhvg","pricing_plan_id":"free"},{"bike_id":"3d90c096-684b-4f96-9e4e-5d2401ab7c55","system_id":"levelo_inurba_marseille","lat":43.30143,"lon":5.37413,"is_reserved":false,"is_disabled":false,"rental_uris":{"android":"levelo://app?vid=3d90c096-684b-4f96-9e4e-5d2401ab7c55","ios":"levelo://app?vid=3d90c096-684b-4f96-9e4e-5d2401ab7c55"},"vehicle_type_id":"4","last_reported":1705345521,"current_range_meters":6000,"station_id":"ce4bgs92rcd13ifvqcc0","pricing_plan_id":"free"},{"bike_id":"49807365-c4fe-4fe4-8160-fa32b4c68004","system_id":"levelo_inurba_marseille","lat":43.299243,"lon":5.37481,"is_reserved":false,"is_disabled":false,"rental_uris":{"android":"levelo://app?vid=49807365-c4fe-4fe4-8160-fa32b4c68004","ios":"levelo://app?vid=49807365-c4fe-4fe4-8160-fa32b4c68004"},"vehicle_type_id":"4","last_reported":1705345521,"current_range_meters":5600,"station_id":"ce4bgjh2rcd13ifvqbg0","pricing_plan_id":"free"},{"bike_id":"80d871f4-c849-4730-a935-237558bf3455","system_id":"levelo_inurba_marseille","lat":43.302355,"lon":5.376618,"is_reserved":false,"is_disabled":false,"rental_uris":{"android":"levelo://app?vid=80d871f4-c849-4730-a935-237558bf3455","ios":"levelo://app?vid=80d871f4-c849-4730-a935-237558bf3455"},"vehicle_type_id":"4","last_reported":1705345521,"current_range_meters":22000,"station_id":"","pricing_plan_id":"free"},{"bike_id":"8a69b4bb-38b7-4beb-aa2f-45028b2eee05","system_id":"levelo_inurba_marseille","lat":43.31996,"lon":5.38166,"is_reserved":false,"is_disabled":false,"rental_uris":{"android":"levelo://app?vid=8a69b4bb-38b7-4beb-aa2f-45028b2eee05","ios":"levelo://app?vid=8a69b4bb-38b7-4beb-aa2f-45028b2eee05"},"vehicle_type_id":"4","last_reported":1705345521,"current_range_meters":7200,"station_id":"ce4bhr12rcd13ifvqhpg","pricing_plan_id":"free"},{"bike_id":"173bc767-4fa9-4076-a558-efde0cc60f7c","system_id":"levelo_inurba_marseille","lat":43.319935,"lon":5.381699,"is_reserved":false,"is_disabled":false,"rental_uris":{"android":"levelo://app?vid=173bc767-4fa9-4076-a558-efde0cc60f7c","ios":"levelo://app?vid=173bc767-4fa9-4076-a558-efde0cc60f7c"},"vehicle_type_id":"4","last_reported":1705345521,"current_range_meters":15600,"station_id":"ce4bhr12rcd13ifvqhpg","pricing_plan_id":"free"},{"bike_id":"50e437f5-707c-4d72-9c5e-d0a5148fae77","system_id":"levelo_inurba_marseille","lat":43.313571,"lon":5.384829,"is_reserved":false,"is_disabled":false,"rental_uris":{"android":"levelo://app?vid=50e437f5-707c-4d72-9c5e-d0a5148fae77","ios":"levelo://app?vid=50e437f5-707c-4d72-9c5e-d0a5148fae77"},"vehicle_type_id":"4","last_reported":1705345521,"current_range_meters":23600,"station_id":"ce4bgt92rcd13ifvqcf0","pricing_plan_id":"free"},{"bike_id":"8d394dc3-defd-4892-82d5-93f92cccc786","system_id":"levelo_inurba_marseille","lat":43.313571,"lon":5.384829,"is_reserved":false,"is_disabled":false,"rental_uris":{"android":"levelo://app?vid=8d394dc3-defd-4892-82d5-93f92cccc786","ios":"levelo://app?vid=8d394dc3-defd-4892-82d5-93f92cccc786"},"vehicle_type_id":"4","last_reported":1705345521,"current_range_meters":29600,"station_id":"ce4bgt92rcd13ifvqcf0","pricing_plan_id":"free"},{"bike_id":"7568b06e-55ca-45b4-b8ac-c39d771126dd","system_id":"levelo_inurba_marseille","lat":43.300136,"lon":5.374407,"is_reserved":false,"is_disabled":false,"rental_uris":{"android":"levelo://app?vid=7568b06e-55ca-45b4-b8ac-c39d771126dd","ios":"levelo://app?vid=7568b06e-55ca-45b4-b8ac-c39d771126dd"},"vehicle_type_id":"4","last_reported":1705345521,"current_range_meters":6000,"station_id":"","pricing_plan_id":"free"},{"bike_id":"ce3ad7e1-2e60-4d80-9aa8-f5453115a7e4","system_id":"levelo_inurba_marseille","lat":43.298433,"lon":5.362774,"is_reserved":false,"is_disabled":false,"rental_uris":{"android":"levelo://app?vid=ce3ad7e1-2e60-4d80-9aa8-f5453115a7e4","ios":"levelo://app?vid=ce3ad7e1-2e60-4d80-9aa8-f5453115a7e4"},"vehicle_type_id":"4","last_reported":1705345521,"current_range_meters":0,"station_id":"ce4bgpp2rcd13ifvqc3g","pricing_plan_id":"free"},{"bike_id":"ba866863-2616-47d9-a2cb-49157e000897","system_id":"levelo_inurba_marseille","lat":43.298433,"lon":5.362774,"is_reserved":false,"is_disabled":false,"rental_uris":{"android":"levelo://app?vid=ba866863-2616-47d9-a2cb-49157e000897","ios":"levelo://app?vid=ba866863-2616-47d9-a2cb-49157e000897"},"vehicle_type_id":"4","last_reported":1705345521,"current_range_meters":32000,"station_id":"ce4bgpp2rcd13ifvqc3g","pricing_plan_id":"free"},{"bike_id":"fb1b08f5-582c-476b-aea1-628fdcea161f","system_id":"levelo_inurba_marseille","lat":43.298433,"lon":5.362774,"is_reserved":false,"is_disabled":false,"rental_uris":{"android":"levelo://app?vid=fb1b08f5-582c-476b-aea1-628fdcea161f","ios":"levelo://app?vid=fb1b08f5-582c-476b-aea1-628fdcea161f"},"vehicle_type_id":"4","last_reported":1705345521,"current_range_meters":26800,"station_id":"ce4bgpp2rcd13ifvqc3g","pricing_plan_id":"free"},{"bike_id":"5ec56a50-5005-4cf7-90ba-cecf3dc7c2cd","system_id":"levelo_inurba_marseille","lat":43.299243,"lon":5.374807,"is_reserved":false,"is_disabled":false,"rental_uris":{"android":"levelo://app?vid=5ec56a50-5005-4cf7-90ba-cecf3dc7c2cd","ios":"levelo://app?vid=5ec56a50-5005-4cf7-90ba-cecf3dc7c2cd"},"vehicle_type_id":"4","last_reported":1705345521,"current_range_meters":13600,"station_id":"ce4bgjh2rcd13ifvqbg0","pricing_plan_id":"free"},{"bike_id":"394da6e1-7985-45fa-93b6-7e58e9cce757","system_id":"levelo_inurba_marseille","lat":43.298433,"lon":5.362774,"is_reserved":false,"is_disabled":false,"rental_uris":{"android":"levelo://app?vid=394da6e1-7985-45fa-93b6-7e58e9cce757","ios":"levelo://app?vid=394da6e1-7985-45fa-93b6-7e58e9cce757"},"vehicle_type_id":"4","last_reported":1705345521,"current_range_meters":18400,"station_id":"ce4bgpp2rcd13ifvqc3g","pricing_plan_id":"free"},{"bike_id":"4efa0e27-3934-4868-878b-d0dd8de3f5e6","system_id":"levelo_inurba_marseille","lat":43.298433,"lon":5.362774,"is_reserved":false,"is_disabled":false,"rental_uris":{"android":"levelo://app?vid=4efa0e27-3934-4868-878b-d0dd8de3f5e6","ios":"levelo://app?vid=4efa0e27-3934-4868-878b-d0dd8de3f5e6"},"vehicle_type_id":"4","last_reported":1705345521,"current_range_meters":4000,"station_id":"ce4bgpp2rcd13ifvqc3g","pricing_plan_id":"free"},{"bike_id":"c5348b86-2ab4-4dc2-b9ef-358d10d3a8e3","system_id":"levelo_inurba_marseille","lat":43.298433,"lon":5.362774,"is_reserved":false,"is_disabled":false,"rental_uris":{"android":"levelo://app?vid=c5348b86-2ab4-4dc2-b9ef-358d10d3a8e3","ios":"levelo://app?vid=c5348b86-2ab4-4dc2-b9ef-358d10d3a8e3"},"vehicle_type_id":"4","last_reported":1705345521,"current_range_meters":4800,"station_id":"ce4bgpp2rcd13ifvqc3g","pricing_plan_id":"free"},{"bike_id":"ed2d819d-f8ea-46e8-bdea-fbe642f44219","system_id":"levelo_inurba_marseille","lat":43.298433,"lon":5.362774,"is_reserved":false,"is_disabled":false,"rental_uris":{"android":"levelo://app?vid=ed2d819d-f8ea-46e8-bdea-fbe642f44219","ios":"levelo://app?vid=ed2d819d-f8ea-46e8-bdea-fbe642f44219"},"vehicle_type_id":"4","last_reported":1705345521,"current_range_meters":30400,"station_id":"ce4bgpp2rcd13ifvqc3g","pricing_plan_id":"free"},{"bike_id":"94f0c235-fc23-46a7-80c2-0133882849a2","system_id":"levelo_inurba_marseille","lat":43.299243,"lon":5.37481,"is_reserved":false,"is_disabled":false,"rental_uris":{"android":"levelo://app?vid=94f0c235-fc23-46a7-80c2-0133882849a2","ios":"levelo://app?vid=94f0c235-fc23-46a7-80c2-0133882849a2"},"vehicle_type_id":"4","last_reported":1705345521,"current_range_meters":16000,"station_id":"ce4bgjh2rcd13ifvqbg0","pricing_plan_id":"free"},{"bike_id":"8d48de35-2dbc-4021-aa4a-57d51b66dd96","system_id":"levelo_inurba_marseille","lat":43.322872,"lon":5.382756,"is_reserved":false,"is_disabled":false,"rental_uris":{"android":"levelo://app?vid=8d48de35-2dbc-4021-aa4a-57d51b66dd96","ios":"levelo://app?vid=8d48de35-2dbc-4021-aa4a-57d51b66dd96"},"vehicle_type_id":"4","last_reported":1705345521,"current_range_meters":5200,"station_id":"ce4bhr12rcd13ifvqhqg","pricing_plan_id":"free"},{"bike_id":"9da5879c-dfee-48a8-84de-d6bfc249c896","system_id":"levelo_inurba_marseille","lat":43.311722,"lon":5.387247,"is_reserved":false,"is_disabled":false,"rental_uris":{"android":"levelo://app?vid=9da5879c-dfee-48a8-84de-d6bfc249c896","ios":"levelo://app?vid=9da5879c-dfee-48a8-84de-d6bfc249c896"},"vehicle_type_id":"4","last_reported":1705345521,"current_range_meters":19200,"station_id":"ce4bgv12rcd13ifvqcp0","pricing_plan_id":"free"},{"bike_id":"fb561db5-f420-49c7-9f25-e789fc347594","system_id":"levelo_inurba_marseille","lat":43.298433,"lon":5.362774,"is_reserved":false,"is_disabled":false,"rental_uris":{"android":"levelo://app?vid=fb561db5-f420-49c7-9f25-e789fc347594","ios":"levelo://app?vid=fb561db5-f420-49c7-9f25-e789fc347594"},"vehicle_type_id":"4","last_reported":1705345521,"current_range_meters":6400,"station_id":"ce4bgpp2rcd13ifvqc3g","pricing_plan_id":"free"},{"bike_id":"5fe3256b-f49c-4a69-b94d-87fd8340f161","system_id":"levelo_inurba_marseille","lat":43.299243,"lon":5.374807,"is_reserved":false,"is_disabled":false,"rental_uris":{"android":"levelo://app?vid=5fe3256b-f49c-4a69-b94d-87fd8340f161","ios":"levelo://app?vid=5fe3256b-f49c-4a69-b94d-87fd8340f161"},"vehicle_type_id":"4","last_reported":1705345521,"current_range_meters":19600,"station_id":"ce4bgjh2rcd13ifvqbg0","pricing_plan_id":"free"},{"bike_id":"fb30c116-8162-4eb9-aa3c-d6d0f3a0f26e","system_id":"levelo_inurba_marseille","lat":43.297163,"lon":5.365866,"is_reserved":false,"is_disabled":false,"rental_uris":{"android":"levelo://app?vid=fb30c116-8162-4eb9-aa3c-d6d0f3a0f26e","ios":"levelo://app?vid=fb30c116-8162-4eb9-aa3c-d6d0f3a0f26e"},"vehicle_type_id":"4","last_reported":1705345521,"current_range_meters":24000,"station_id":"ce4bgn12rcd13ifvqbt0","pricing_plan_id":"free"},{"bike_id":"34c8b400-5074-46e3-aa02-f5d274dfaa4f","system_id":"levelo_inurba_marseille","lat":43.322872,"lon":5.382756,"is_reserved":false,"is_disabled":false,"rental_uris":{"android":"levelo://app?vid=34c8b400-5074-46e3-aa02-f5d274dfaa4f","ios":"levelo://app?vid=34c8b400-5074-46e3-aa02-f5d274dfaa4f"},"vehicle_type_id":"4","last_reported":1705345521,"current_range_meters":23600,"station_id":"ce4bhr12rcd13ifvqhqg","pricing_plan_id":"free"},{"bike_id":"0d666429-792d-477e-b03b-8d07152545bb","system_id":"levelo_inurba_marseille","lat":43.322872,"lon":5.382756,"is_reserved":false,"is_disabled":false,"rental_uris":{"android":"levelo://app?vid=0d666429-792d-477e-b03b-8d07152545bb","ios":"levelo://app?vid=0d666429-792d-477e-b03b-8d07152545bb"},"vehicle_type_id":"4","last_reported":1705345521,"current_range_meters":12000,"station_id":"ce4bhr12rcd13ifvqhqg","pricing_plan_id":"free"},{"bike_id":"360d8370-a6d5-4eeb-9fdc-87624eb21c71","system_id":"levelo_inurba_marseille","lat":43.322872,"lon":5.382756,"is_reserved":false,"is_disabled":false,"rental_uris":{"android":"levelo://app?vid=360d8370-a6d5-4eeb-9fdc-87624eb21c71","ios":"levelo://app?vid=360d8370-a6d5-4eeb-9fdc-87624eb21c71"},"vehicle_type_id":"4","last_reported":1705345521,"current_range_meters":8400,"station_id":"ce4bhr12rcd13ifvqhqg","pricing_plan_id":"free"},{"bike_id":"9c1b8a19-45ab-4b8b-ad67-e93f349439a6","system_id":"levelo_inurba_marseille","lat":43.322872,"lon":5.382756,"is_reserved":false,"is_disabled":false,"rental_uris":{"android":"levelo://app?vid=9c1b8a19-45ab-4b8b-ad67-e93f349439a6","ios":"levelo://app?vid=9c1b8a19-45ab-4b8b-ad67-e93f349439a6"},"vehicle_type_id":"4","last_reported":1705345521,"current_range_meters":28000,"station_id":"ce4bhr12rcd13ifvqhqg","pricing_plan_id":"free"},{"bike_id":"394e09ab-bff8-467a-bfb2-d5785877769b","system_id":"levelo_inurba_marseille","lat":43.322872,"lon":5.382756,"is_reserved":false,"is_disabled":false,"rental_uris":{"android":"levelo://app?vid=394e09ab-bff8-467a-bfb2-d5785877769b","ios":"levelo://app?vid=394e09ab-bff8-467a-bfb2-d5785877769b"},"vehicle_type_id":"4","last_reported":1705345521,"current_range_meters":0,"station_id":"ce4bhr12rcd13ifvqhqg","pricing_plan_id":"free"},{"bike_id":"717847e4-a784-40f8-a1bf-5a94b6cabac5","system_id":"levelo_inurba_marseille","lat":43.322872,"lon":5.382756,"is_reserved":false,"is_disabled":false,"rental_uris":{"android":"levelo://app?vid=717847e4-a784-40f8-a1bf-5a94b6cabac5","ios":"levelo://app?vid=717847e4-a784-40f8-a1bf-5a94b6cabac5"},"vehicle_type_id":"4","last_reported":1705345521,"current_range_meters":16000,"station_id":"ce4bhr12rcd13ifvqhqg","pricing_plan_id":"free"},{"bike_id":"034cc7ad-d6a8-4154-a3ea-ced9b23eb5aa","system_id":"levelo_inurba_marseille","lat":43.322872,"lon":5.382756,"is_reserved":false,"is_disabled":false,"rental_uris":{"android":"levelo://app?vid=034cc7ad-d6a8-4154-a3ea-ced9b23eb5aa","ios":"levelo://app?vid=034cc7ad-d6a8-4154-a3ea-ced9b23eb5aa"},"vehicle_type_id":"4","last_reported":1705345521,"current_range_meters":29600,"station_id":"ce4bhr12rcd13ifvqhqg","pricing_plan_id":"free"},{"bike_id":"3a46592c-9142-46ce-8556-a80e672a6412","system_id":"levelo_inurba_marseille","lat":43.32289,"lon":5.38272,"is_reserved":false,"is_disabled":false,"rental_uris":{"android":"levelo://app?vid=3a46592c-9142-46ce-8556-a80e672a6412","ios":"levelo://app?vid=3a46592c-9142-46ce-8556-a80e672a6412"},"vehicle_type_id":"4","last_reported":1705345521,"current_range_meters":4000,"station_id":"ce4bhr12rcd13ifvqhqg","pricing_plan_id":"free"},{"bike_id":"e4cad359-bf16-42a6-b7ad-19b9dba9592b","system_id":"levelo_inurba_marseille","lat":43.322912,"lon":5.38273,"is_reserved":false,"is_disabled":false,"rental_uris":{"android":"levelo://app?vid=e4cad359-bf16-42a6-b7ad-19b9dba9592b","ios":"levelo://app?vid=e4cad359-bf16-42a6-b7ad-19b9dba9592b"},"vehicle_type_id":"4","last_reported":1705345521,"current_range_meters":14800,"station_id":"ce4bhr12rcd13ifvqhqg","pricing_plan_id":"free"},{"bike_id":"80439201-c19e-473e-81fa-aea06b14cd1f","system_id":"levelo_inurba_marseille","lat":43.298433,"lon":5.362774,"is_reserved":false,"is_disabled":false,"rental_uris":{"android":"levelo://app?vid=80439201-c19e-473e-81fa-aea06b14cd1f","ios":"levelo://app?vid=80439201-c19e-473e-81fa-aea06b14cd1f"},"vehicle_type_id":"4","last_reported":1705345521,"current_range_meters":31600,"station_id":"ce4bgpp2rcd13ifvqc3g","pricing_plan_id":"free"},{"bike_id":"3b1917b9-edfd-4c1c-a0a6-018f5cfb1697","system_id":"levelo_inurba_marseille","lat":43.297774,"lon":5.370875,"is_reserved":false,"is_disabled":false,"rental_uris":{"android":"levelo://app?vid=3b1917b9-edfd-4c1c-a0a6-018f5cfb1697","ios":"levelo://app?vid=3b1917b9-edfd-4c1c-a0a6-018f5cfb1697"},"vehicle_type_id":"4","last_reported":1705345521,"current_range_meters":7200,"station_id":"ce4bgop2rcd13ifvqc1g","pricing_plan_id":"free"},{"bike_id":"be5c14c2-d069-4824-b2b4-323fba6ab1b5","system_id":"levelo_inurba_marseille","lat":43.32822,"lon":5.3668,"is_reserved":false,"is_disabled":false,"rental_uris":{"android":"levelo://app?vid=be5c14c2-d069-4824-b2b4-323fba6ab1b5","ios":"levelo://app?vid=be5c14c2-d069-4824-b2b4-323fba6ab1b5"},"vehicle_type_id":"4","last_reported":1705345521,"current_range_meters":13200,"station_id":"ce4bhs92rcd13ifvqi0g","pricing_plan_id":"free"},{"bike_id":"ea0178f3-2c6b-4af6-b062-91b0b8dde1df","system_id":"levelo_inurba_marseille","lat":43.32824,"lon":5.36687,"is_reserved":false,"is_disabled":false,"rental_uris":{"android":"levelo://app?vid=ea0178f3-2c6b-4af6-b062-91b0b8dde1df","ios":"levelo://app?vid=ea0178f3-2c6b-4af6-b062-91b0b8dde1df"},"vehicle_type_id":"4","last_reported":1705345521,"current_range_meters":15600,"station_id":"ce4bhs92rcd13ifvqi0g","pricing_plan_id":"free"},{"bike_id":"9e10fca8-afff-413a-a971-97b89741c75b","system_id":"levelo_inurba_marseille","lat":43.328256,"lon":5.366836,"is_reserved":false,"is_disabled":false,"rental_uris":{"android":"levelo://app?vid=9e10fca8-afff-413a-a971-97b89741c75b","ios":"levelo://app?vid=9e10fca8-afff-413a-a971-97b89741c75b"},"vehicle_type_id":"4","last_reported":1705345521,"current_range_meters":17600,"station_id":"ce4bhs92rcd13ifvqi0g","pricing_plan_id":"free"},{"bike_id":"6b4ea496-3016-42db-af64-ba8beb6e73fc","system_id":"levelo_inurba_marseille","lat":43.328371,"lon":5.366909,"is_reserved":false,"is_disabled":false,"rental_uris":{"android":"levelo://app?vid=6b4ea496-3016-42db-af64-ba8beb6e73fc","ios":"levelo://app?vid=6b4ea496-3016-42db-af64-ba8beb6e73fc"},"vehicle_type_id":"4","last_reported":1705345521,"current_range_meters":30800,"station_id":"ce4bhs92rcd13ifvqi0g","pricing_plan_id":"free"},{"bike_id":"d6e71fc0-c662-46a4-9ce2-a4da97cef68b","system_id":"levelo_inurba_marseille","lat":43.32827,"lon":5.36676,"is_reserved":false,"is_disabled":false,"rental_uris":{"android":"levelo://app?vid=d6e71fc0-c662-46a4-9ce2-a4da97cef68b","ios":"levelo://app?vid=d6e71fc0-c662-46a4-9ce2-a4da97cef68b"},"vehicle_type_id":"4","last_reported":1705345521,"current_range_meters":24000,"station_id":"ce4bhs92rcd13ifvqi0g","pricing_plan_id":"free"},{"bike_id":"8463d0da-e03a-4a02-8a84-4dd7b137838e","system_id":"levelo_inurba_marseille","lat":43.328272,"lon":5.366886,"is_reserved":false,"is_disabled":false,"rental_uris":{"android":"levelo://app?vid=8463d0da-e03a-4a02-8a84-4dd7b137838e","ios":"levelo://app?vid=8463d0da-e03a-4a02-8a84-4dd7b137838e"},"vehicle_type_id":"4","last_reported":1705345521,"current_range_meters":29200,"station_id":"ce4bhs92rcd13ifvqi0g","pricing_plan_id":"free"},{"bike_id":"b47ac642-666b-4fa3-9c1d-748c98ce0511","system_id":"levelo_inurba_marseille","lat":43.328273,"lon":5.366823,"is_reserved":false,"is_disabled":false,"rental_uris":{"android":"levelo://app?vid=b47ac642-666b-4fa3-9c1d-748c98ce0511","ios":"levelo://app?vid=b47ac642-666b-4fa3-9c1d-748c98ce0511"},"vehicle_type_id":"4","last_reported":1705345521,"current_range_meters":19200,"station_id":"ce4bhs92rcd13ifvqi0g","pricing_plan_id":"free"},{"bike_id":"85cedcff-9e9a-415d-8415-195178ea3cb7","system_id":"levelo_inurba_marseille","lat":43.328274,"lon":5.366736,"is_reserved":false,"is_disabled":false,"rental_uris":{"android":"levelo://app?vid=85cedcff-9e9a-415d-8415-195178ea3cb7","ios":"levelo://app?vid=85cedcff-9e9a-415d-8415-195178ea3cb7"},"vehicle_type_id":"4","last_reported":1705345521,"current_range_meters":28800,"station_id":"ce4bhs92rcd13ifvqi0g","pricing_plan_id":"free"},{"bike_id":"1782ad4d-7cbc-4ac0-af82-b65688e9d34c","system_id":"levelo_inurba_marseille","lat":43.328281,"lon":5.366756,"is_reserved":false,"is_disabled":false,"rental_uris":{"android":"levelo://app?vid=1782ad4d-7cbc-4ac0-af82-b65688e9d34c","ios":"levelo://app?vid=1782ad4d-7cbc-4ac0-af82-b65688e9d34c"},"vehicle_type_id":"4","last_reported":1705345521,"current_range_meters":31200,"station_id":"ce4bhs92rcd13ifvqi0g","pricing_plan_id":"free"},{"bike_id":"947a5c0b-0299-4cd2-aecd-5f351114aaf8","system_id":"levelo_inurba_marseille","lat":43.328283,"lon":5.3668,"is_reserved":false,"is_disabled":false,"rental_uris":{"android":"levelo://app?vid=947a5c0b-0299-4cd2-aecd-5f351114aaf8","ios":"levelo://app?vid=947a5c0b-0299-4cd2-aecd-5f351114aaf8"},"vehicle_type_id":"4","last_reported":1705345521,"current_range_meters":29600,"station_id":"ce4bhs92rcd13ifvqi0g","pricing_plan_id":"free"},{"bike_id":"641739e6-19de-47df-9491-35da26c3c9da","system_id":"levelo_inurba_marseille","lat":43.328371,"lon":5.366909,"is_reserved":false,"is_disabled":false,"rental_uris":{"android":"levelo://app?vid=641739e6-19de-47df-9491-35da26c3c9da","ios":"levelo://app?vid=641739e6-19de-47df-9491-35da26c3c9da"},"vehicle_type_id":"4","last_reported":1705345521,"current_range_meters":10800,"station_id":"ce4bhs92rcd13ifvqi0g","pricing_plan_id":"free"},{"bike_id":"09621f87-561a-4138-9bcf-5568c59432a9","system_id":"levelo_inurba_marseille","lat":43.32829,"lon":5.36679,"is_reserved":false,"is_disabled":false,"rental_uris":{"android":"levelo://app?vid=09621f87-561a-4138-9bcf-5568c59432a9","ios":"levelo://app?vid=09621f87-561a-4138-9bcf-5568c59432a9"},"vehicle_type_id":"4","last_reported":1705345521,"current_range_meters":9200,"station_id":"ce4bhs92rcd13ifvqi0g","pricing_plan_id":"free"},{"bike_id":"eb82efee-7e46-4cef-a643-d731882b95f4","system_id":"levelo_inurba_marseille","lat":43.328293,"lon":5.366755,"is_reserved":false,"is_disabled":false,"rental_uris":{"android":"levelo://app?vid=eb82efee-7e46-4cef-a643-d731882b95f4","ios":"levelo://app?vid=eb82efee-7e46-4cef-a643-d731882b95f4"},"vehicle_type_id":"4","last_reported":1705345521,"current_range_meters":18400,"station_id":"ce4bhs92rcd13ifvqi0g","pricing_plan_id":"free"},{"bike_id":"de8453f6-af4c-4f9d-91f4-6c1cc39bd96e","system_id":"levelo_inurba_marseille","lat":43.328303,"lon":5.366874,"is_reserved":false,"is_disabled":false,"rental_uris":{"android":"levelo://app?vid=de8453f6-af4c-4f9d-91f4-6c1cc39bd96e","ios":"levelo://app?vid=de8453f6-af4c-4f9d-91f4-6c1cc39bd96e"},"vehicle_type_id":"4","last_reported":1705345521,"current_range_meters":25600,"station_id":"ce4bhs92rcd13ifvqi0g","pricing_plan_id":"free"},{"bike_id":"9949c318-cd33-4e7f-93e5-9b978c57ddec","system_id":"levelo_inurba_marseille","lat":43.328305,"lon":5.36676,"is_reserved":false,"is_disabled":false,"rental_uris":{"android":"levelo://app?vid=9949c318-cd33-4e7f-93e5-9b978c57ddec","ios":"levelo://app?vid=9949c318-cd33-4e7f-93e5-9b978c57ddec"},"vehicle_type_id":"4","last_reported":1705345521,"current_range_meters":28800,"station_id":"ce4bhs92rcd13ifvqi0g","pricing_plan_id":"free"},{"bike_id":"88638e12-da12-4596-b7e2-600ab2f62219","system_id":"levelo_inurba_marseille","lat":43.328332,"lon":5.366852,"is_reserved":false,"is_disabled":false,"rental_uris":{"android":"levelo://app?vid=88638e12-da12-4596-b7e2-600ab2f62219","ios":"levelo://app?vid=88638e12-da12-4596-b7e2-600ab2f62219"},"vehicle_type_id":"4","last_reported":1705345521,"current_range_meters":18400,"station_id":"ce4bhs92rcd13ifvqi0g","pricing_plan_id":"free"},{"bike_id":"d6ffc100-b75a-4ec5-bd31-f537672cea7e","system_id":"levelo_inurba_marseille","lat":43.297163,"lon":5.365866,"is_reserved":false,"is_disabled":false,"rental_uris":{"android":"levelo://app?vid=d6ffc100-b75a-4ec5-bd31-f537672cea7e","ios":"levelo://app?vid=d6ffc100-b75a-4ec5-bd31-f537672cea7e"},"vehicle_type_id":"4","last_reported":1705345521,"current_range_meters":11200,"station_id":"ce4bgn12rcd13ifvqbt0","pricing_plan_id":"free"},{"bike_id":"c17c074b-d152-4390-be91-e6a6ee3d80d7","system_id":"levelo_inurba_marseille","lat":43.328346,"lon":5.366698,"is_reserved":false,"is_disabled":false,"rental_uris":{"android":"levelo://app?vid=c17c074b-d152-4390-be91-e6a6ee3d80d7","ios":"levelo://app?vid=c17c074b-d152-4390-be91-e6a6ee3d80d7"},"vehicle_type_id":"4","last_reported":1705345521,"current_range_meters":24800,"station_id":"ce4bhs92rcd13ifvqi0g","pricing_plan_id":"free"},{"bike_id":"a07aca90-d738-4a9c-9c07-8b0897ad99ba","system_id":"levelo_inurba_marseille","lat":43.297163,"lon":5.365866,"is_reserved":false,"is_disabled":false,"rental_uris":{"android":"levelo://app?vid=a07aca90-d738-4a9c-9c07-8b0897ad99ba","ios":"levelo://app?vid=a07aca90-d738-4a9c-9c07-8b0897ad99ba"},"vehicle_type_id":"4","last_reported":1705345521,"current_range_meters":5200,"station_id":"ce4bgn12rcd13ifvqbt0","pricing_plan_id":"free"},{"bike_id":"6e89a627-8191-4803-b2f1-fc8e37962038","system_id":"levelo_inurba_marseille","lat":43.297163,"lon":5.365866,"is_reserved":false,"is_disabled":false,"rental_uris":{"android":"levelo://app?vid=6e89a627-8191-4803-b2f1-fc8e37962038","ios":"levelo://app?vid=6e89a627-8191-4803-b2f1-fc8e37962038"},"vehicle_type_id":"4","last_reported":1705345521,"current_range_meters":26400,"station_id":"ce4bgn12rcd13ifvqbt0","pricing_plan_id":"free"},{"bike_id":"cc249608-6a43-41d8-a019-2a9e52c7e346","system_id":"levelo_inurba_marseille","lat":43.297163,"lon":5.365866,"is_reserved":false,"is_disabled":false,"rental_uris":{"android":"levelo://app?vid=cc249608-6a43-41d8-a019-2a9e52c7e346","ios":"levelo://app?vid=cc249608-6a43-41d8-a019-2a9e52c7e346"},"vehicle_type_id":"4","last_reported":1705345521,"current_range_meters":5200,"station_id":"ce4bgn12rcd13ifvqbt0","pricing_plan_id":"free"},{"bike_id":"00240506-f51a-4e5e-8e4b-da47fbef48ec","system_id":"levelo_inurba_marseille","lat":43.32836,"lon":5.36674,"is_reserved":false,"is_disabled":false,"rental_uris":{"android":"levelo://app?vid=00240506-f51a-4e5e-8e4b-da47fbef48ec","ios":"levelo://app?vid=00240506-f51a-4e5e-8e4b-da47fbef48ec"},"vehicle_type_id":"4","last_reported":1705345521,"current_range_meters":31200,"station_id":"ce4bhs92rcd13ifvqi0g","pricing_plan_id":"free"},{"bike_id":"317be026-d265-4964-8b9f-14b31317b61c","system_id":"levelo_inurba_marseille","lat":43.32836,"lon":5.36669,"is_reserved":false,"is_disabled":false,"rental_uris":{"android":"levelo://app?vid=317be026-d265-4964-8b9f-14b31317b61c","ios":"levelo://app?vid=317be026-d265-4964-8b9f-14b31317b61c"},"vehicle_type_id":"4","last_reported":1705345521,"current_range_meters":12800,"station_id":"ce4bhs92rcd13ifvqi0g","pricing_plan_id":"free"},{"bike_id":"38082c03-fac1-44d3-a79f-5142b4a113a9","system_id":"levelo_inurba_marseille","lat":43.328373,"lon":5.366902,"is_reserved":false,"is_disabled":false,"rental_uris":{"android":"levelo://app?vid=38082c03-fac1-44d3-a79f-5142b4a113a9","ios":"levelo://app?vid=38082c03-fac1-44d3-a79f-5142b4a113a9"},"vehicle_type_id":"4","last_reported":1705345521,"current_range_meters":30400,"station_id":"ce4bhs92rcd13ifvqi0g","pricing_plan_id":"free"},{"bike_id":"0bc9666f-407a-45ee-a647-9e7db5d81a5c","system_id":"levelo_inurba_marseille","lat":43.297163,"lon":5.365866,"is_reserved":false,"is_disabled":false,"rental_uris":{"android":"levelo://app?vid=0bc9666f-407a-45ee-a647-9e7db5d81a5c","ios":"levelo://app?vid=0bc9666f-407a-45ee-a647-9e7db5d81a5c"},"vehicle_type_id":"4","last_reported":1705345521,"current_range_meters":14000,"station_id":"ce4bgn12rcd13ifvqbt0","pricing_plan_id":"free"},{"bike_id":"64c3f387-35e4-4aaf-8a00-356e575aa7ae","system_id":"levelo_inurba_marseille","lat":43.297163,"lon":5.365866,"is_reserved":false,"is_disabled":false,"rental_uris":{"android":"levelo://app?vid=64c3f387-35e4-4aaf-8a00-356e575aa7ae","ios":"levelo://app?vid=64c3f387-35e4-4aaf-8a00-356e575aa7ae"},"vehicle_type_id":"4","last_reported":1705345521,"current_range_meters":20800,"station_id":"ce4bgn12rcd13ifvqbt0","pricing_plan_id":"free"},{"bike_id":"42f5b626-5e71-456b-8041-5da45f31b04b","system_id":"levelo_inurba_marseille","lat":43.297163,"lon":5.365866,"is_reserved":false,"is_disabled":false,"rental_uris":{"android":"levelo://app?vid=42f5b626-5e71-456b-8041-5da45f31b04b","ios":"levelo://app?vid=42f5b626-5e71-456b-8041-5da45f31b04b"},"vehicle_type_id":"4","last_reported":1705345521,"current_range_meters":29200,"station_id":"ce4bgn12rcd13ifvqbt0","pricing_plan_id":"free"},{"bike_id":"d7853949-ae2f-4022-b304-b24f911f3140","system_id":"levelo_inurba_marseille","lat":43.297163,"lon":5.365866,"is_reserved":false,"is_disabled":false,"rental_uris":{"android":"levelo://app?vid=d7853949-ae2f-4022-b304-b24f911f3140","ios":"levelo://app?vid=d7853949-ae2f-4022-b304-b24f911f3140"},"vehicle_type_id":"4","last_reported":1705345521,"current_range_meters":18400,"station_id":"ce4bgn12rcd13ifvqbt0","pricing_plan_id":"free"},{"bike_id":"3bf0cd0d-54d2-407b-809a-766378451449","system_id":"levelo_inurba_marseille","lat":43.297163,"lon":5.365866,"is_reserved":false,"is_disabled":false,"rental_uris":{"android":"levelo://app?vid=3bf0cd0d-54d2-407b-809a-766378451449","ios":"levelo://app?vid=3bf0cd0d-54d2-407b-809a-766378451449"},"vehicle_type_id":"4","last_reported":1705345521,"current_range_meters":22000,"station_id":"ce4bgn12rcd13ifvqbt0","pricing_plan_id":"free"},{"bike_id":"da093ae5-1f9b-4c78-aaf1-9f0fe1705d47","system_id":"levelo_inurba_marseille","lat":43.297092,"lon":5.366138,"is_reserved":false,"is_disabled":false,"rental_uris":{"android":"levelo://app?vid=da093ae5-1f9b-4c78-aaf1-9f0fe1705d47","ios":"levelo://app?vid=da093ae5-1f9b-4c78-aaf1-9f0fe1705d47"},"vehicle_type_id":"4","last_reported":1705345521,"current_range_meters":11200,"station_id":"ce4bgn12rcd13ifvqbt0","pricing_plan_id":"free"},{"bike_id":"b7f19553-caf3-42e9-85f2-de3629dabc8e","system_id":"levelo_inurba_marseille","lat":43.328401,"lon":5.366749,"is_reserved":false,"is_disabled":false,"rental_uris":{"android":"levelo://app?vid=b7f19553-caf3-42e9-85f2-de3629dabc8e","ios":"levelo://app?vid=b7f19553-caf3-42e9-85f2-de3629dabc8e"},"vehicle_type_id":"4","last_reported":1705345521,"current_range_meters":28000,"station_id":"ce4bhs92rcd13ifvqi0g","pricing_plan_id":"free"},{"bike_id":"0b2274a5-5bbe-4b6c-917c-31a9425daec4","system_id":"levelo_inurba_marseille","lat":43.297163,"lon":5.365866,"is_reserved":false,"is_disabled":false,"rental_uris":{"android":"levelo://app?vid=0b2274a5-5bbe-4b6c-917c-31a9425daec4","ios":"levelo://app?vid=0b2274a5-5bbe-4b6c-917c-31a9425daec4"},"vehicle_type_id":"4","last_reported":1705345521,"current_range_meters":4800,"station_id":"ce4bgn12rcd13ifvqbt0","pricing_plan_id":"free"},{"bike_id":"5b531715-f859-4ce7-b4d9-97b3cbbc54d4","system_id":"levelo_inurba_marseille","lat":43.29708,"lon":5.366073,"is_reserved":false,"is_disabled":false,"rental_uris":{"android":"levelo://app?vid=5b531715-f859-4ce7-b4d9-97b3cbbc54d4","ios":"levelo://app?vid=5b531715-f859-4ce7-b4d9-97b3cbbc54d4"},"vehicle_type_id":"4","last_reported":1705345521,"current_range_meters":22000,"station_id":"ce4bgn12rcd13ifvqbt0","pricing_plan_id":"free"},{"bike_id":"54ecc17b-7683-4623-a502-4bc336d1ef8a","system_id":"levelo_inurba_marseille","lat":43.297163,"lon":5.365866,"is_reserved":false,"is_disabled":false,"rental_uris":{"android":"levelo://app?vid=54ecc17b-7683-4623-a502-4bc336d1ef8a","ios":"levelo://app?vid=54ecc17b-7683-4623-a502-4bc336d1ef8a"},"vehicle_type_id":"4","last_reported":1705345521,"current_range_meters":14400,"station_id":"ce4bgn12rcd13ifvqbt0","pricing_plan_id":"free"},{"bike_id":"b3fd1c77-c4fb-4bb8-b7d7-ed9875611aba","system_id":"levelo_inurba_marseille","lat":43.297163,"lon":5.365866,"is_reserved":false,"is_disabled":false,"rental_uris":{"android":"levelo://app?vid=b3fd1c77-c4fb-4bb8-b7d7-ed9875611aba","ios":"levelo://app?vid=b3fd1c77-c4fb-4bb8-b7d7-ed9875611aba"},"vehicle_type_id":"4","last_reported":1705345521,"current_range_meters":20000,"station_id":"ce4bgn12rcd13ifvqbt0","pricing_plan_id":"free"},{"bike_id":"9dada86c-99bf-4a70-b80b-baafa28eaf7a","system_id":"levelo_inurba_marseille","lat":43.297163,"lon":5.365866,"is_reserved":false,"is_disabled":false,"rental_uris":{"android":"levelo://app?vid=9dada86c-99bf-4a70-b80b-baafa28eaf7a","ios":"levelo://app?vid=9dada86c-99bf-4a70-b80b-baafa28eaf7a"},"vehicle_type_id":"4","last_reported":1705345521,"current_range_meters":22400,"station_id":"ce4bgn12rcd13ifvqbt0","pricing_plan_id":"free"},{"bike_id":"c8b0f5de-653e-4f6f-b1c9-cb8868329ce6","system_id":"levelo_inurba_marseille","lat":43.29887,"lon":5.379955,"is_reserved":false,"is_disabled":false,"rental_uris":{"android":"levelo://app?vid=c8b0f5de-653e-4f6f-b1c9-cb8868329ce6","ios":"levelo://app?vid=c8b0f5de-653e-4f6f-b1c9-cb8868329ce6"},"vehicle_type_id":"4","last_reported":1705345521,"current_range_meters":800,"station_id":"","pricing_plan_id":"free"},{"bike_id":"500d9a30-be43-47dc-92e0-ef276180c838","system_id":"levelo_inurba_marseille","lat":43.295849,"lon":5.367396,"is_reserved":false,"is_disabled":false,"rental_uris":{"android":"levelo://app?vid=500d9a30-be43-47dc-92e0-ef276180c838","ios":"levelo://app?vid=500d9a30-be43-47dc-92e0-ef276180c838"},"vehicle_type_id":"4","last_reported":1705345521,"current_range_meters":30800,"station_id":"","pricing_plan_id":"free"},{"bike_id":"a9a91145-8576-4095-96f0-f91382b0cf5d","system_id":"levelo_inurba_marseille","lat":43.29584,"lon":5.36749,"is_reserved":false,"is_disabled":false,"rental_uris":{"android":"levelo://app?vid=a9a91145-8576-4095-96f0-f91382b0cf5d","ios":"levelo://app?vid=a9a91145-8576-4095-96f0-f91382b0cf5d"},"vehicle_type_id":"4","last_reported":1705345521,"current_range_meters":0,"station_id":"ce4bgph2rcd13ifvqc2g","pricing_plan_id":"free"},{"bike_id":"f09bcf16-b984-495c-be0e-b7c9fdd8620d","system_id":"levelo_inurba_marseille","lat":43.317557,"lon":5.390173,"is_reserved":false,"is_disabled":false,"rental_uris":{"android":"levelo://app?vid=f09bcf16-b984-495c-be0e-b7c9fdd8620d","ios":"levelo://app?vid=f09bcf16-b984-495c-be0e-b7c9fdd8620d"},"vehicle_type_id":"4","last_reported":1705345521,"current_range_meters":27600,"station_id":"ce4bhqp2rcd13ifvqhng","pricing_plan_id":"free"},{"bike_id":"cac47820-c0f9-4313-a5bf-2b8e71d6bfc6","system_id":"levelo_inurba_marseille","lat":43.29717,"lon":5.37679,"is_reserved":false,"is_disabled":false,"rental_uris":{"android":"levelo://app?vid=cac47820-c0f9-4313-a5bf-2b8e71d6bfc6","ios":"levelo://app?vid=cac47820-c0f9-4313-a5bf-2b8e71d6bfc6"},"vehicle_type_id":"4","last_reported":1705345521,"current_range_meters":20400,"station_id":"ce4bgkh2rcd13ifvqbl0","pricing_plan_id":"free"},{"bike_id":"958ff8cd-1dd5-4ac1-8b5c-accac6fdf4c5","system_id":"levelo_inurba_marseille","lat":43.296935,"lon":5.376544,"is_reserved":false,"is_disabled":false,"rental_uris":{"android":"levelo://app?vid=958ff8cd-1dd5-4ac1-8b5c-accac6fdf4c5","ios":"levelo://app?vid=958ff8cd-1dd5-4ac1-8b5c-accac6fdf4c5"},"vehicle_type_id":"4","last_reported":1705345521,"current_range_meters":24800,"station_id":"ce4bgkh2rcd13ifvqbl0","pricing_plan_id":"free"},{"bike_id":"749909e1-9649-4ed2-b52f-af1b97b0a99f","system_id":"levelo_inurba_marseille","lat":43.317557,"lon":5.390173,"is_reserved":false,"is_disabled":false,"rental_uris":{"android":"levelo://app?vid=749909e1-9649-4ed2-b52f-af1b97b0a99f","ios":"levelo://app?vid=749909e1-9649-4ed2-b52f-af1b97b0a99f"},"vehicle_type_id":"4","last_reported":1705345521,"current_range_meters":0,"station_id":"ce4bhqp2rcd13ifvqhng","pricing_plan_id":"free"},{"bike_id":"ca837b07-86d7-42f7-a045-e3da06473611","system_id":"levelo_inurba_marseille","lat":43.31747,"lon":5.39009,"is_reserved":false,"is_disabled":false,"rental_uris":{"android":"levelo://app?vid=ca837b07-86d7-42f7-a045-e3da06473611","ios":"levelo://app?vid=ca837b07-86d7-42f7-a045-e3da06473611"},"vehicle_type_id":"4","last_reported":1705345521,"current_range_meters":3200,"station_id":"ce4bhqp2rcd13ifvqhng","pricing_plan_id":"free"},{"bike_id":"065bbc66-2cc8-43eb-8770-e11bbf36d9c6","system_id":"levelo_inurba_marseille","lat":43.317557,"lon":5.390173,"is_reserved":false,"is_disabled":false,"rental_uris":{"android":"levelo://app?vid=065bbc66-2cc8-43eb-8770-e11bbf36d9c6","ios":"levelo://app?vid=065bbc66-2cc8-43eb-8770-e11bbf36d9c6"},"vehicle_type_id":"4","last_reported":1705345521,"current_range_meters":16800,"station_id":"ce4bhqp2rcd13ifvqhng","pricing_plan_id":"free"},{"bike_id":"01bcfd97-5b06-492a-9e53-99ebe6c86842","system_id":"levelo_inurba_marseille","lat":43.304274,"lon":5.388873,"is_reserved":false,"is_disabled":false,"rental_uris":{"android":"levelo://app?vid=01bcfd97-5b06-492a-9e53-99ebe6c86842","ios":"levelo://app?vid=01bcfd97-5b06-492a-9e53-99ebe6c86842"},"vehicle_type_id":"4","last_reported":1705345521,"current_range_meters":10000,"station_id":"ce4bgk12rcd13ifvqbi0","pricing_plan_id":"free"},{"bike_id":"5e83a9bd-feb4-4612-926d-62481bf765e4","system_id":"levelo_inurba_marseille","lat":43.304274,"lon":5.388873,"is_reserved":false,"is_disabled":false,"rental_uris":{"android":"levelo://app?vid=5e83a9bd-feb4-4612-926d-62481bf765e4","ios":"levelo://app?vid=5e83a9bd-feb4-4612-926d-62481bf765e4"},"vehicle_type_id":"4","last_reported":1705345521,"current_range_meters":0,"station_id":"ce4bgk12rcd13ifvqbi0","pricing_plan_id":"free"},{"bike_id":"b3cd69c9-84a7-4f78-98ce-24c18cf28ec9","system_id":"levelo_inurba_marseille","lat":43.298037,"lon":5.381066,"is_reserved":false,"is_disabled":false,"rental_uris":{"android":"levelo://app?vid=b3cd69c9-84a7-4f78-98ce-24c18cf28ec9","ios":"levelo://app?vid=b3cd69c9-84a7-4f78-98ce-24c18cf28ec9"},"vehicle_type_id":"4","last_reported":1705345521,"current_range_meters":12800,"station_id":"ce4bgip2rcd13ifvqbb0","pricing_plan_id":"free"},{"bike_id":"f350e5bc-5af7-45a2-a574-badae71e3033","system_id":"levelo_inurba_marseille","lat":43.295748,"lon":5.37522,"is_reserved":false,"is_disabled":false,"rental_uris":{"android":"levelo://app?vid=f350e5bc-5af7-45a2-a574-badae71e3033","ios":"levelo://app?vid=f350e5bc-5af7-45a2-a574-badae71e3033"},"vehicle_type_id":"4","last_reported":1705345521,"current_range_meters":20000,"station_id":"ce4bgh92rcd13ifvqb50","pricing_plan_id":"free"},{"bike_id":"cb37671d-606a-4352-9cb0-3049323afb27","system_id":"levelo_inurba_marseille","lat":43.299707,"lon":5.384859,"is_reserved":false,"is_disabled":false,"rental_uris":{"android":"levelo://app?vid=cb37671d-606a-4352-9cb0-3049323afb27","ios":"levelo://app?vid=cb37671d-606a-4352-9cb0-3049323afb27"},"vehicle_type_id":"4","last_reported":1705345521,"current_range_meters":14400,"station_id":"ce4bgj92rcd13ifvqbd0","pricing_plan_id":"free"},{"bike_id":"ae46c0bf-276d-4900-88f8-e1efbc5966e2","system_id":"levelo_inurba_marseille","lat":43.299717,"lon":5.384845,"is_reserved":false,"is_disabled":false,"rental_uris":{"android":"levelo://app?vid=ae46c0bf-276d-4900-88f8-e1efbc5966e2","ios":"levelo://app?vid=ae46c0bf-276d-4900-88f8-e1efbc5966e2"},"vehicle_type_id":"4","last_reported":1705345521,"current_range_meters":0,"station_id":"ce4bgj92rcd13ifvqbd0","pricing_plan_id":"free"},{"bike_id":"51d2f0f6-52e3-486b-838d-35d29cb22550","system_id":"levelo_inurba_marseille","lat":43.299724,"lon":5.384848,"is_reserved":false,"is_disabled":false,"rental_uris":{"android":"levelo://app?vid=51d2f0f6-52e3-486b-838d-35d29cb22550","ios":"levelo://app?vid=51d2f0f6-52e3-486b-838d-35d29cb22550"},"vehicle_type_id":"4","last_reported":1705345521,"current_range_meters":28000,"station_id":"ce4bgj92rcd13ifvqbd0","pricing_plan_id":"free"},{"bike_id":"72ef09f7-1fbe-4720-b619-c6d780d0869b","system_id":"levelo_inurba_marseille","lat":43.299717,"lon":5.384845,"is_reserved":false,"is_disabled":false,"rental_uris":{"android":"levelo://app?vid=72ef09f7-1fbe-4720-b619-c6d780d0869b","ios":"levelo://app?vid=72ef09f7-1fbe-4720-b619-c6d780d0869b"},"vehicle_type_id":"4","last_reported":1705345521,"current_range_meters":19600,"station_id":"ce4bgj92rcd13ifvqbd0","pricing_plan_id":"free"},{"bike_id":"6a3dc8be-3970-4f71-9364-eb9c7e527316","system_id":"levelo_inurba_marseille","lat":43.298433,"lon":5.362774,"is_reserved":false,"is_disabled":false,"rental_uris":{"android":"levelo://app?vid=6a3dc8be-3970-4f71-9364-eb9c7e527316","ios":"levelo://app?vid=6a3dc8be-3970-4f71-9364-eb9c7e527316"},"vehicle_type_id":"4","last_reported":1705345521,"current_range_meters":23600,"station_id":"ce4bgpp2rcd13ifvqc3g","pricing_plan_id":"free"},{"bike_id":"e90d9cd5-21eb-4b64-9135-e4bf100b58dd","system_id":"levelo_inurba_marseille","lat":43.32367,"lon":5.388836,"is_reserved":false,"is_disabled":false,"rental_uris":{"android":"levelo://app?vid=e90d9cd5-21eb-4b64-9135-e4bf100b58dd","ios":"levelo://app?vid=e90d9cd5-21eb-4b64-9135-e4bf100b58dd"},"vehicle_type_id":"4","last_reported":1705345521,"current_range_meters":16800,"station_id":"ce4bhqp2rcd13ifvqhog","pricing_plan_id":"free"},{"bike_id":"9834aea9-4da6-4932-9918-527c42d1a8af","system_id":"levelo_inurba_marseille","lat":43.296196,"lon":5.380627,"is_reserved":false,"is_disabled":false,"rental_uris":{"android":"levelo://app?vid=9834aea9-4da6-4932-9918-527c42d1a8af","ios":"levelo://app?vid=9834aea9-4da6-4932-9918-527c42d1a8af"},"vehicle_type_id":"4","last_reported":1705345521,"current_range_meters":0,"station_id":"ce4bgl12rcd13ifvqbo0","pricing_plan_id":"free"},{"bike_id":"65200528-92c8-43dc-a28c-65f22643d5f6","system_id":"levelo_inurba_marseille","lat":43.32365,"lon":5.38885,"is_reserved":false,"is_disabled":false,"rental_uris":{"android":"levelo://app?vid=65200528-92c8-43dc-a28c-65f22643d5f6","ios":"levelo://app?vid=65200528-92c8-43dc-a28c-65f22643d5f6"},"vehicle_type_id":"4","last_reported":1705345521,"current_range_meters":19200,"station_id":"ce4bhqp2rcd13ifvqhog","pricing_plan_id":"free"},{"bike_id":"cc87a345-89b3-41ab-8017-45dd8003fb76","system_id":"levelo_inurba_marseille","lat":43.32367,"lon":5.388836,"is_reserved":false,"is_disabled":false,"rental_uris":{"android":"levelo://app?vid=cc87a345-89b3-41ab-8017-45dd8003fb76","ios":"levelo://app?vid=cc87a345-89b3-41ab-8017-45dd8003fb76"},"vehicle_type_id":"4","last_reported":1705345521,"current_range_meters":0,"station_id":"ce4bhqp2rcd13ifvqhog","pricing_plan_id":"free"},{"bike_id":"93a7541d-594c-4713-9c37-84d0b76dd655","system_id":"levelo_inurba_marseille","lat":43.32366,"lon":5.38888,"is_reserved":false,"is_disabled":false,"rental_uris":{"android":"levelo://app?vid=93a7541d-594c-4713-9c37-84d0b76dd655","ios":"levelo://app?vid=93a7541d-594c-4713-9c37-84d0b76dd655"},"vehicle_type_id":"4","last_reported":1705345521,"current_range_meters":3200,"station_id":"ce4bhqp2rcd13ifvqhog","pricing_plan_id":"free"},{"bike_id":"71a4ee4a-8e92-413d-bad8-20c6b9f07570","system_id":"levelo_inurba_marseille","lat":43.293431,"lon":5.372263,"is_reserved":false,"is_disabled":false,"rental_uris":{"android":"levelo://app?vid=71a4ee4a-8e92-413d-bad8-20c6b9f07570","ios":"levelo://app?vid=71a4ee4a-8e92-413d-bad8-20c6b9f07570"},"vehicle_type_id":"4","last_reported":1705345521,"current_range_meters":22800,"station_id":"ce4bgh92rcd13ifvqb40","pricing_plan_id":"free"},{"bike_id":"306a6cf4-08a5-47fa-9c18-2dc9645c19de","system_id":"levelo_inurba_marseille","lat":43.306681,"lon":5.392765,"is_reserved":false,"is_disabled":false,"rental_uris":{"android":"levelo://app?vid=306a6cf4-08a5-47fa-9c18-2dc9645c19de","ios":"levelo://app?vid=306a6cf4-08a5-47fa-9c18-2dc9645c19de"},"vehicle_type_id":"4","last_reported":1705345521,"current_range_meters":9200,"station_id":"","pricing_plan_id":"free"},{"bike_id":"2fbdd6f1-aa5b-4f0f-b16c-a372a3f56a77","system_id":"levelo_inurba_marseille","lat":43.292749,"lon":5.368398,"is_reserved":false,"is_disabled":false,"rental_uris":{"android":"levelo://app?vid=2fbdd6f1-aa5b-4f0f-b16c-a372a3f56a77","ios":"levelo://app?vid=2fbdd6f1-aa5b-4f0f-b16c-a372a3f56a77"},"vehicle_type_id":"4","last_reported":1705345521,"current_range_meters":11200,"station_id":"ce4bhbp2rcd13ifvqesg","pricing_plan_id":"free"},{"bike_id":"d35d75b6-d58c-447d-8a7f-62103424c2f0","system_id":"levelo_inurba_marseille","lat":43.293117,"lon":5.371997,"is_reserved":false,"is_disabled":false,"rental_uris":{"android":"levelo://app?vid=d35d75b6-d58c-447d-8a7f-62103424c2f0","ios":"levelo://app?vid=d35d75b6-d58c-447d-8a7f-62103424c2f0"},"vehicle_type_id":"4","last_reported":1705345521,"current_range_meters":4400,"station_id":"ce4bgh92rcd13ifvqb40","pricing_plan_id":"free"},{"bike_id":"17f2a9da-c578-4b1a-a045-551ddc0fb6ca","system_id":"levelo_inurba_marseille","lat":43.29309,"lon":5.37182,"is_reserved":false,"is_disabled":false,"rental_uris":{"android":"levelo://app?vid=17f2a9da-c578-4b1a-a045-551ddc0fb6ca","ios":"levelo://app?vid=17f2a9da-c578-4b1a-a045-551ddc0fb6ca"},"vehicle_type_id":"4","last_reported":1705345521,"current_range_meters":27600,"station_id":"ce4bgh92rcd13ifvqb40","pricing_plan_id":"free"},{"bike_id":"a3177a75-1c83-4d7e-a6bd-2b84d3696624","system_id":"levelo_inurba_marseille","lat":43.293083,"lon":5.371798,"is_reserved":false,"is_disabled":false,"rental_uris":{"android":"levelo://app?vid=a3177a75-1c83-4d7e-a6bd-2b84d3696624","ios":"levelo://app?vid=a3177a75-1c83-4d7e-a6bd-2b84d3696624"},"vehicle_type_id":"4","last_reported":1705345521,"current_range_meters":9600,"station_id":"ce4bgh92rcd13ifvqb40","pricing_plan_id":"free"},{"bike_id":"b3e33c6b-360b-430b-8cec-1e02b17d468e","system_id":"levelo_inurba_marseille","lat":43.29314,"lon":5.372231,"is_reserved":false,"is_disabled":false,"rental_uris":{"android":"levelo://app?vid=b3e33c6b-360b-430b-8cec-1e02b17d468e","ios":"levelo://app?vid=b3e33c6b-360b-430b-8cec-1e02b17d468e"},"vehicle_type_id":"4","last_reported":1705345521,"current_range_meters":16800,"station_id":"ce4bgh92rcd13ifvqb40","pricing_plan_id":"free"},{"bike_id":"b48201d0-08f6-479f-8d5a-0225fd4f695a","system_id":"levelo_inurba_marseille","lat":43.295713,"lon":5.399639,"is_reserved":false,"is_disabled":false,"rental_uris":{"android":"levelo://app?vid=b48201d0-08f6-479f-8d5a-0225fd4f695a","ios":"levelo://app?vid=b48201d0-08f6-479f-8d5a-0225fd4f695a"},"vehicle_type_id":"4","last_reported":1705345521,"current_range_meters":6400,"station_id":"ce4bh312rcd13ifvqdj0","pricing_plan_id":"free"},{"bike_id":"dacacc6c-c687-4119-8f94-d4f452acd1fe","system_id":"levelo_inurba_marseille","lat":43.293578,"lon":5.377771,"is_reserved":false,"is_disabled":false,"rental_uris":{"android":"levelo://app?vid=dacacc6c-c687-4119-8f94-d4f452acd1fe","ios":"levelo://app?vid=dacacc6c-c687-4119-8f94-d4f452acd1fe"},"vehicle_type_id":"4","last_reported":1705345521,"current_range_meters":0,"station_id":"ce4bgjh2rcd13ifvqbf0","pricing_plan_id":"free"},{"bike_id":"68074bf3-6323-4cdf-8de5-c7febf537abb","system_id":"levelo_inurba_marseille","lat":43.300794,"lon":5.390652,"is_reserved":false,"is_disabled":false,"rental_uris":{"android":"levelo://app?vid=68074bf3-6323-4cdf-8de5-c7febf537abb","ios":"levelo://app?vid=68074bf3-6323-4cdf-8de5-c7febf537abb"},"vehicle_type_id":"4","last_reported":1705345521,"current_range_meters":23600,"station_id":"ce4bh192rcd13ifvqdb0","pricing_plan_id":"free"},{"bike_id":"b1d6e2da-2a99-4503-8665-3cbdfb02fc0d","system_id":"levelo_inurba_marseille","lat":43.300869,"lon":5.390743,"is_reserved":false,"is_disabled":false,"rental_uris":{"android":"levelo://app?vid=b1d6e2da-2a99-4503-8665-3cbdfb02fc0d","ios":"levelo://app?vid=b1d6e2da-2a99-4503-8665-3cbdfb02fc0d"},"vehicle_type_id":"4","last_reported":1705345521,"current_range_meters":5600,"station_id":"ce4bh192rcd13ifvqdb0","pricing_plan_id":"free"},{"bike_id":"057b1649-b67d-4e4c-b0ca-bdc1cb688c65","system_id":"levelo_inurba_marseille","lat":43.300865,"lon":5.390759,"is_reserved":false,"is_disabled":false,"rental_uris":{"android":"levelo://app?vid=057b1649-b67d-4e4c-b0ca-bdc1cb688c65","ios":"levelo://app?vid=057b1649-b67d-4e4c-b0ca-bdc1cb688c65"},"vehicle_type_id":"4","last_reported":1705345521,"current_range_meters":30800,"station_id":"ce4bh192rcd13ifvqdb0","pricing_plan_id":"free"},{"bike_id":"164a637c-7aea-4fa5-b9f4-d0e5dd655dfa","system_id":"levelo_inurba_marseille","lat":43.30083,"lon":5.390737,"is_reserved":false,"is_disabled":false,"rental_uris":{"android":"levelo://app?vid=164a637c-7aea-4fa5-b9f4-d0e5dd655dfa","ios":"levelo://app?vid=164a637c-7aea-4fa5-b9f4-d0e5dd655dfa"},"vehicle_type_id":"4","last_reported":1705345521,"current_range_meters":26800,"station_id":"ce4bh192rcd13ifvqdb0","pricing_plan_id":"free"},{"bike_id":"b5b19703-e0c6-4438-a04d-cb426ce5c274","system_id":"levelo_inurba_marseille","lat":43.300834,"lon":5.390763,"is_reserved":false,"is_disabled":false,"rental_uris":{"android":"levelo://app?vid=b5b19703-e0c6-4438-a04d-cb426ce5c274","ios":"levelo://app?vid=b5b19703-e0c6-4438-a04d-cb426ce5c274"},"vehicle_type_id":"4","last_reported":1705345521,"current_range_meters":14400,"station_id":"ce4bh192rcd13ifvqdb0","pricing_plan_id":"free"},{"bike_id":"6ce6ff1f-7574-4c07-ae29-26be6cab494f","system_id":"levelo_inurba_marseille","lat":43.309038,"lon":5.396546,"is_reserved":false,"is_disabled":false,"rental_uris":{"android":"levelo://app?vid=6ce6ff1f-7574-4c07-ae29-26be6cab494f","ios":"levelo://app?vid=6ce6ff1f-7574-4c07-ae29-26be6cab494f"},"vehicle_type_id":"4","last_reported":1705345521,"current_range_meters":20000,"station_id":"ce4bh012rcd13ifvqcv0","pricing_plan_id":"free"},{"bike_id":"2e5a7254-78f4-4177-a8b5-f4eb0bfad295","system_id":"levelo_inurba_marseille","lat":43.291671,"lon":5.371575,"is_reserved":false,"is_disabled":false,"rental_uris":{"android":"levelo://app?vid=2e5a7254-78f4-4177-a8b5-f4eb0bfad295","ios":"levelo://app?vid=2e5a7254-78f4-4177-a8b5-f4eb0bfad295"},"vehicle_type_id":"4","last_reported":1705345521,"current_range_meters":0,"station_id":"ce4bha92rcd13ifvqeh0","pricing_plan_id":"free"},{"bike_id":"51464891-7099-4d77-a4fa-502482b7396e","system_id":"levelo_inurba_marseille","lat":43.309038,"lon":5.396546,"is_reserved":false,"is_disabled":false,"rental_uris":{"android":"levelo://app?vid=51464891-7099-4d77-a4fa-502482b7396e","ios":"levelo://app?vid=51464891-7099-4d77-a4fa-502482b7396e"},"vehicle_type_id":"4","last_reported":1705345521,"current_range_meters":14000,"station_id":"ce4bh012rcd13ifvqcv0","pricing_plan_id":"free"},{"bike_id":"aeb2d1b1-71a0-449a-8086-1d80048a864f","system_id":"levelo_inurba_marseille","lat":43.291994,"lon":5.357886,"is_reserved":false,"is_disabled":false,"rental_uris":{"android":"levelo://app?vid=aeb2d1b1-71a0-449a-8086-1d80048a864f","ios":"levelo://app?vid=aeb2d1b1-71a0-449a-8086-1d80048a864f"},"vehicle_type_id":"4","last_reported":1705345521,"current_range_meters":5600,"station_id":"ce4bhb12rcd13ifvqel0","pricing_plan_id":"free"},{"bike_id":"f009bb20-5c1d-4c12-aa21-8155c85b7941","system_id":"levelo_inurba_marseille","lat":43.29577,"lon":5.385467,"is_reserved":false,"is_disabled":false,"rental_uris":{"android":"levelo://app?vid=f009bb20-5c1d-4c12-aa21-8155c85b7941","ios":"levelo://app?vid=f009bb20-5c1d-4c12-aa21-8155c85b7941"},"vehicle_type_id":"4","last_reported":1705345521,"current_range_meters":0,"station_id":"ce4bgih2rcd13ifvqba0","pricing_plan_id":"free"},{"bike_id":"2636b231-4206-4490-9f91-c070f0b1544b","system_id":"levelo_inurba_marseille","lat":43.313104,"lon":5.396726,"is_reserved":false,"is_disabled":false,"rental_uris":{"android":"levelo://app?vid=2636b231-4206-4490-9f91-c070f0b1544b","ios":"levelo://app?vid=2636b231-4206-4490-9f91-c070f0b1544b"},"vehicle_type_id":"4","last_reported":1705345521,"current_range_meters":8800,"station_id":"ce4bgvp2rcd13ifvqcu0","pricing_plan_id":"free"},{"bike_id":"b7470b05-6a21-47b8-a353-6aa535052877","system_id":"levelo_inurba_marseille","lat":43.309038,"lon":5.396546,"is_reserved":false,"is_disabled":false,"rental_uris":{"android":"levelo://app?vid=b7470b05-6a21-47b8-a353-6aa535052877","ios":"levelo://app?vid=b7470b05-6a21-47b8-a353-6aa535052877"},"vehicle_type_id":"4","last_reported":1705345521,"current_range_meters":7600,"station_id":"ce4bh012rcd13ifvqcv0","pricing_plan_id":"free"},{"bike_id":"32d91121-d766-4137-9df2-1977d98c812e","system_id":"levelo_inurba_marseille","lat":43.309047,"lon":5.396551,"is_reserved":false,"is_disabled":false,"rental_uris":{"android":"levelo://app?vid=32d91121-d766-4137-9df2-1977d98c812e","ios":"levelo://app?vid=32d91121-d766-4137-9df2-1977d98c812e"},"vehicle_type_id":"4","last_reported":1705345521,"current_range_meters":26400,"station_id":"ce4bh012rcd13ifvqcv0","pricing_plan_id":"free"},{"bike_id":"075d879c-2c2b-4773-a072-eb3a1e7ff3ee","system_id":"levelo_inurba_marseille","lat":43.309038,"lon":5.396546,"is_reserved":false,"is_disabled":false,"rental_uris":{"android":"levelo://app?vid=075d879c-2c2b-4773-a072-eb3a1e7ff3ee","ios":"levelo://app?vid=075d879c-2c2b-4773-a072-eb3a1e7ff3ee"},"vehicle_type_id":"4","last_reported":1705345521,"current_range_meters":0,"station_id":"ce4bh012rcd13ifvqcv0","pricing_plan_id":"free"},{"bike_id":"5d613254-b166-4242-a63f-f57f32c5121d","system_id":"levelo_inurba_marseille","lat":43.291994,"lon":5.357886,"is_reserved":false,"is_disabled":false,"rental_uris":{"android":"levelo://app?vid=5d613254-b166-4242-a63f-f57f32c5121d","ios":"levelo://app?vid=5d613254-b166-4242-a63f-f57f32c5121d"},"vehicle_type_id":"4","last_reported":1705345521,"current_range_meters":0,"station_id":"ce4bhb12rcd13ifvqel0","pricing_plan_id":"free"},{"bike_id":"f4baf2cb-b721-49c1-bfd8-dc795f2dcb63","system_id":"levelo_inurba_marseille","lat":43.291994,"lon":5.357886,"is_reserved":false,"is_disabled":false,"rental_uris":{"android":"levelo://app?vid=f4baf2cb-b721-49c1-bfd8-dc795f2dcb63","ios":"levelo://app?vid=f4baf2cb-b721-49c1-bfd8-dc795f2dcb63"},"vehicle_type_id":"4","last_reported":1705345521,"current_range_meters":0,"station_id":"ce4bhb12rcd13ifvqel0","pricing_plan_id":"free"},{"bike_id":"c2b39b24-b68b-404d-bb28-e9dafb664f06","system_id":"levelo_inurba_marseille","lat":43.313297,"lon":5.396877,"is_reserved":false,"is_disabled":false,"rental_uris":{"android":"levelo://app?vid=c2b39b24-b68b-404d-bb28-e9dafb664f06","ios":"levelo://app?vid=c2b39b24-b68b-404d-bb28-e9dafb664f06"},"vehicle_type_id":"4","last_reported":1705345521,"current_range_meters":0,"station_id":"ce4bgvp2rcd13ifvqcu0","pricing_plan_id":"free"},{"bike_id":"05f3e013-f23f-4e19-b210-e978d2056fba","system_id":"levelo_inurba_marseille","lat":43.313291,"lon":5.396838,"is_reserved":false,"is_disabled":false,"rental_uris":{"android":"levelo://app?vid=05f3e013-f23f-4e19-b210-e978d2056fba","ios":"levelo://app?vid=05f3e013-f23f-4e19-b210-e978d2056fba"},"vehicle_type_id":"4","last_reported":1705345521,"current_range_meters":15600,"station_id":"ce4bgvp2rcd13ifvqcu0","pricing_plan_id":"free"},{"bike_id":"c0f02293-aa3d-4dce-b4c6-0ccc51373fd8","system_id":"levelo_inurba_marseille","lat":43.313291,"lon":5.396838,"is_reserved":false,"is_disabled":false,"rental_uris":{"android":"levelo://app?vid=c0f02293-aa3d-4dce-b4c6-0ccc51373fd8","ios":"levelo://app?vid=c0f02293-aa3d-4dce-b4c6-0ccc51373fd8"},"vehicle_type_id":"4","last_reported":1705345521,"current_range_meters":30800,"station_id":"ce4bgvp2rcd13ifvqcu0","pricing_plan_id":"free"},{"bike_id":"2136494a-63e9-48e2-b09d-20a9b552a9c0","system_id":"levelo_inurba_marseille","lat":43.313291,"lon":5.396838,"is_reserved":false,"is_disabled":false,"rental_uris":{"android":"levelo://app?vid=2136494a-63e9-48e2-b09d-20a9b552a9c0","ios":"levelo://app?vid=2136494a-63e9-48e2-b09d-20a9b552a9c0"},"vehicle_type_id":"4","last_reported":1705345521,"current_range_meters":800,"station_id":"ce4bgvp2rcd13ifvqcu0","pricing_plan_id":"free"},{"bike_id":"ba3cef4a-f0e3-4fa9-b1d6-1d3cd0d807ab","system_id":"levelo_inurba_marseille","lat":43.313291,"lon":5.396838,"is_reserved":false,"is_disabled":false,"rental_uris":{"android":"levelo://app?vid=ba3cef4a-f0e3-4fa9-b1d6-1d3cd0d807ab","ios":"levelo://app?vid=ba3cef4a-f0e3-4fa9-b1d6-1d3cd0d807ab"},"vehicle_type_id":"4","last_reported":1705345521,"current_range_meters":8800,"station_id":"ce4bgvp2rcd13ifvqcu0","pricing_plan_id":"free"},{"bike_id":"7cb619bb-cd5d-4891-b238-2f4e98436201","system_id":"levelo_inurba_marseille","lat":43.313291,"lon":5.396838,"is_reserved":false,"is_disabled":false,"rental_uris":{"android":"levelo://app?vid=7cb619bb-cd5d-4891-b238-2f4e98436201","ios":"levelo://app?vid=7cb619bb-cd5d-4891-b238-2f4e98436201"},"vehicle_type_id":"4","last_reported":1705345521,"current_range_meters":8000,"station_id":"ce4bgvp2rcd13ifvqcu0","pricing_plan_id":"free"},{"bike_id":"a0a3e436-f134-47e5-ac13-980dabf9329c","system_id":"levelo_inurba_marseille","lat":43.313291,"lon":5.396838,"is_reserved":false,"is_disabled":false,"rental_uris":{"android":"levelo://app?vid=a0a3e436-f134-47e5-ac13-980dabf9329c","ios":"levelo://app?vid=a0a3e436-f134-47e5-ac13-980dabf9329c"},"vehicle_type_id":"4","last_reported":1705345521,"current_range_meters":24000,"station_id":"ce4bgvp2rcd13ifvqcu0","pricing_plan_id":"free"},{"bike_id":"9401e676-a838-49e0-abe4-8a414a8ce041","system_id":"levelo_inurba_marseille","lat":43.313291,"lon":5.396838,"is_reserved":false,"is_disabled":false,"rental_uris":{"android":"levelo://app?vid=9401e676-a838-49e0-abe4-8a414a8ce041","ios":"levelo://app?vid=9401e676-a838-49e0-abe4-8a414a8ce041"},"vehicle_type_id":"4","last_reported":1705345521,"current_range_meters":13600,"station_id":"ce4bgvp2rcd13ifvqcu0","pricing_plan_id":"free"},{"bike_id":"dc7fc9eb-be7e-48ed-b16e-98f66dd11501","system_id":"levelo_inurba_marseille","lat":43.313291,"lon":5.396838,"is_reserved":false,"is_disabled":false,"rental_uris":{"android":"levelo://app?vid=dc7fc9eb-be7e-48ed-b16e-98f66dd11501","ios":"levelo://app?vid=dc7fc9eb-be7e-48ed-b16e-98f66dd11501"},"vehicle_type_id":"4","last_reported":1705345521,"current_range_meters":16400,"station_id":"ce4bgvp2rcd13ifvqcu0","pricing_plan_id":"free"},{"bike_id":"e02c11c2-9959-4cf7-a61f-5572f7381533","system_id":"levelo_inurba_marseille","lat":43.313291,"lon":5.396838,"is_reserved":false,"is_disabled":false,"rental_uris":{"android":"levelo://app?vid=e02c11c2-9959-4cf7-a61f-5572f7381533","ios":"levelo://app?vid=e02c11c2-9959-4cf7-a61f-5572f7381533"},"vehicle_type_id":"4","last_reported":1705345521,"current_range_meters":18400,"station_id":"ce4bgvp2rcd13ifvqcu0","pricing_plan_id":"free"},{"bike_id":"6559cdb6-2faf-49f7-801e-39131101e175","system_id":"levelo_inurba_marseille","lat":43.313291,"lon":5.396838,"is_reserved":false,"is_disabled":false,"rental_uris":{"android":"levelo://app?vid=6559cdb6-2faf-49f7-801e-39131101e175","ios":"levelo://app?vid=6559cdb6-2faf-49f7-801e-39131101e175"},"vehicle_type_id":"4","last_reported":1705345521,"current_range_meters":22000,"station_id":"ce4bgvp2rcd13ifvqcu0","pricing_plan_id":"free"},{"bike_id":"f633d584-c7ae-4af1-8cf8-7c8c7d38dde4","system_id":"levelo_inurba_marseille","lat":43.313291,"lon":5.396838,"is_reserved":false,"is_disabled":false,"rental_uris":{"android":"levelo://app?vid=f633d584-c7ae-4af1-8cf8-7c8c7d38dde4","ios":"levelo://app?vid=f633d584-c7ae-4af1-8cf8-7c8c7d38dde4"},"vehicle_type_id":"4","last_reported":1705345521,"current_range_meters":32000,"station_id":"ce4bgvp2rcd13ifvqcu0","pricing_plan_id":"free"},{"bike_id":"d745d548-4b45-4abc-8a5c-fac4a834e3a5","system_id":"levelo_inurba_marseille","lat":43.313291,"lon":5.396838,"is_reserved":false,"is_disabled":false,"rental_uris":{"android":"levelo://app?vid=d745d548-4b45-4abc-8a5c-fac4a834e3a5","ios":"levelo://app?vid=d745d548-4b45-4abc-8a5c-fac4a834e3a5"},"vehicle_type_id":"4","last_reported":1705345521,"current_range_meters":25200,"station_id":"ce4bgvp2rcd13ifvqcu0","pricing_plan_id":"free"},{"bike_id":"02f83106-39a5-49c3-a82c-8c30b77acc8c","system_id":"levelo_inurba_marseille","lat":43.299724,"lon":5.384848,"is_reserved":false,"is_disabled":false,"rental_uris":{"android":"levelo://app?vid=02f83106-39a5-49c3-a82c-8c30b77acc8c","ios":"levelo://app?vid=02f83106-39a5-49c3-a82c-8c30b77acc8c"},"vehicle_type_id":"4","last_reported":1705345521,"current_range_meters":15600,"station_id":"ce4bgj92rcd13ifvqbd0","pricing_plan_id":"free"},{"bike_id":"8b757b99-17ea-4abc-a5a5-1b5325a5ddae","system_id":"levelo_inurba_marseille","lat":43.309038,"lon":5.396546,"is_reserved":false,"is_disabled":false,"rental_uris":{"android":"levelo://app?vid=8b757b99-17ea-4abc-a5a5-1b5325a5ddae","ios":"levelo://app?vid=8b757b99-17ea-4abc-a5a5-1b5325a5ddae"},"vehicle_type_id":"4","last_reported":1705345521,"current_range_meters":2400,"station_id":"ce4bh012rcd13ifvqcv0","pricing_plan_id":"free"},{"bike_id":"34481da4-989f-464f-a0c0-9cfb5ecfb22f","system_id":"levelo_inurba_marseille","lat":43.313291,"lon":5.396838,"is_reserved":false,"is_disabled":false,"rental_uris":{"android":"levelo://app?vid=34481da4-989f-464f-a0c0-9cfb5ecfb22f","ios":"levelo://app?vid=34481da4-989f-464f-a0c0-9cfb5ecfb22f"},"vehicle_type_id":"4","last_reported":1705345521,"current_range_meters":10800,"station_id":"ce4bgvp2rcd13ifvqcu0","pricing_plan_id":"free"},{"bike_id":"a1c6967d-d228-4492-82fd-a6cee292d07b","system_id":"levelo_inurba_marseille","lat":43.295338,"lon":5.385457,"is_reserved":false,"is_disabled":false,"rental_uris":{"android":"levelo://app?vid=a1c6967d-d228-4492-82fd-a6cee292d07b","ios":"levelo://app?vid=a1c6967d-d228-4492-82fd-a6cee292d07b"},"vehicle_type_id":"4","last_reported":1705345521,"current_range_meters":16400,"station_id":"ce4bgih2rcd13ifvqba0","pricing_plan_id":"free"},{"bike_id":"bd6223db-08e3-467f-92f2-48856eeb05b0","system_id":"levelo_inurba_marseille","lat":43.29526,"lon":5.38551,"is_reserved":false,"is_disabled":false,"rental_uris":{"android":"levelo://app?vid=bd6223db-08e3-467f-92f2-48856eeb05b0","ios":"levelo://app?vid=bd6223db-08e3-467f-92f2-48856eeb05b0"},"vehicle_type_id":"4","last_reported":1705345521,"current_range_meters":16000,"station_id":"","pricing_plan_id":"free"},{"bike_id":"e14a7cee-ca17-4d76-ab1d-df6298b1900a","system_id":"levelo_inurba_marseille","lat":43.290779,"lon":5.371482,"is_reserved":false,"is_disabled":false,"rental_uris":{"android":"levelo://app?vid=e14a7cee-ca17-4d76-ab1d-df6298b1900a","ios":"levelo://app?vid=e14a7cee-ca17-4d76-ab1d-df6298b1900a"},"vehicle_type_id":"4","last_reported":1705345521,"current_range_meters":2000,"station_id":"ce4bh5p2rcd13ifvqe4g","pricing_plan_id":"free"},{"bike_id":"5655e6b8-745f-4cc8-939a-ca7881b9fb61","system_id":"levelo_inurba_marseille","lat":43.290779,"lon":5.371482,"is_reserved":false,"is_disabled":false,"rental_uris":{"android":"levelo://app?vid=5655e6b8-745f-4cc8-939a-ca7881b9fb61","ios":"levelo://app?vid=5655e6b8-745f-4cc8-939a-ca7881b9fb61"},"vehicle_type_id":"4","last_reported":1705345521,"current_range_meters":24400,"station_id":"ce4bh5p2rcd13ifvqe4g","pricing_plan_id":"free"},{"bike_id":"79dd4e98-78c7-40ed-bb03-aca045016660","system_id":"levelo_inurba_marseille","lat":43.30197,"lon":5.394241,"is_reserved":false,"is_disabled":false,"rental_uris":{"android":"levelo://app?vid=79dd4e98-78c7-40ed-bb03-aca045016660","ios":"levelo://app?vid=79dd4e98-78c7-40ed-bb03-aca045016660"},"vehicle_type_id":"4","last_reported":1705345521,"current_range_meters":9200,"station_id":"ce4bh0p2rcd13ifvqd70","pricing_plan_id":"free"},{"bike_id":"213d0642-0c76-4374-88a7-d97024888068","system_id":"levelo_inurba_marseille","lat":43.302058,"lon":5.394467,"is_reserved":false,"is_disabled":false,"rental_uris":{"android":"levelo://app?vid=213d0642-0c76-4374-88a7-d97024888068","ios":"levelo://app?vid=213d0642-0c76-4374-88a7-d97024888068"},"vehicle_type_id":"4","last_reported":1705345521,"current_range_meters":14800,"station_id":"ce4bh0p2rcd13ifvqd70","pricing_plan_id":"free"},{"bike_id":"00de8398-7329-4cbf-bdb8-2d5a975755f2","system_id":"levelo_inurba_marseille","lat":43.302234,"lon":5.394657,"is_reserved":false,"is_disabled":false,"rental_uris":{"android":"levelo://app?vid=00de8398-7329-4cbf-bdb8-2d5a975755f2","ios":"levelo://app?vid=00de8398-7329-4cbf-bdb8-2d5a975755f2"},"vehicle_type_id":"4","last_reported":1705345521,"current_range_meters":12000,"station_id":"ce4bh0p2rcd13ifvqd70","pricing_plan_id":"free"},{"bike_id":"c0d1411d-5d07-42a7-b61d-84009262b054","system_id":"levelo_inurba_marseille","lat":43.302008,"lon":5.394694,"is_reserved":false,"is_disabled":false,"rental_uris":{"android":"levelo://app?vid=c0d1411d-5d07-42a7-b61d-84009262b054","ios":"levelo://app?vid=c0d1411d-5d07-42a7-b61d-84009262b054"},"vehicle_type_id":"4","last_reported":1705345521,"current_range_meters":26400,"station_id":"ce4bh0p2rcd13ifvqd70","pricing_plan_id":"free"},{"bike_id":"29a57fcc-5c15-4796-9c96-28e3e2a9859f","system_id":"levelo_inurba_marseille","lat":43.290631,"lon":5.359244,"is_reserved":false,"is_disabled":false,"rental_uris":{"android":"levelo://app?vid=29a57fcc-5c15-4796-9c96-28e3e2a9859f","ios":"levelo://app?vid=29a57fcc-5c15-4796-9c96-28e3e2a9859f"},"vehicle_type_id":"4","last_reported":1705345521,"current_range_meters":11200,"station_id":"ce4bha92rcd13ifvqeg0","pricing_plan_id":"free"},{"bike_id":"08b2e5aa-ea20-4922-b520-ef0f53dae965","system_id":"levelo_inurba_marseille","lat":43.299243,"lon":5.37481,"is_reserved":false,"is_disabled":false,"rental_uris":{"android":"levelo://app?vid=08b2e5aa-ea20-4922-b520-ef0f53dae965","ios":"levelo://app?vid=08b2e5aa-ea20-4922-b520-ef0f53dae965"},"vehicle_type_id":"4","last_reported":1705345521,"current_range_meters":21600,"station_id":"ce4bgjh2rcd13ifvqbg0","pricing_plan_id":"free"},{"bike_id":"8b8d0a2f-1a6d-4eb6-b11c-7de12f065d46","system_id":"levelo_inurba_marseille","lat":43.304296,"lon":5.397513,"is_reserved":false,"is_disabled":false,"rental_uris":{"android":"levelo://app?vid=8b8d0a2f-1a6d-4eb6-b11c-7de12f065d46","ios":"levelo://app?vid=8b8d0a2f-1a6d-4eb6-b11c-7de12f065d46"},"vehicle_type_id":"4","last_reported":1705345521,"current_range_meters":9600,"station_id":"ce4bh092rcd13ifvqd20","pricing_plan_id":"free"},{"bike_id":"6ec6d612-93f0-4f91-bbe1-e14341d18b9e","system_id":"levelo_inurba_marseille","lat":43.290631,"lon":5.359244,"is_reserved":false,"is_disabled":false,"rental_uris":{"android":"levelo://app?vid=6ec6d612-93f0-4f91-bbe1-e14341d18b9e","ios":"levelo://app?vid=6ec6d612-93f0-4f91-bbe1-e14341d18b9e"},"vehicle_type_id":"4","last_reported":1705345521,"current_range_meters":28800,"station_id":"ce4bha92rcd13ifvqeg0","pricing_plan_id":"free"},{"bike_id":"f73f0cef-7519-43ed-a3ec-dbbdcc85f643","system_id":"levelo_inurba_marseille","lat":43.290327,"lon":5.375711,"is_reserved":false,"is_disabled":false,"rental_uris":{"android":"levelo://app?vid=f73f0cef-7519-43ed-a3ec-dbbdcc85f643","ios":"levelo://app?vid=f73f0cef-7519-43ed-a3ec-dbbdcc85f643"},"vehicle_type_id":"4","last_reported":1705345521,"current_range_meters":0,"station_id":"ce4bh692rcd13ifvqe90","pricing_plan_id":"free"},{"bike_id":"6be50228-7d8a-4482-9243-e68a95846eac","system_id":"levelo_inurba_marseille","lat":43.294169,"lon":5.38625,"is_reserved":false,"is_disabled":false,"rental_uris":{"android":"levelo://app?vid=6be50228-7d8a-4482-9243-e68a95846eac","ios":"levelo://app?vid=6be50228-7d8a-4482-9243-e68a95846eac"},"vehicle_type_id":"4","last_reported":1705345521,"current_range_meters":0,"station_id":"ce4bh2h2rcd13ifvqdh0","pricing_plan_id":"free"},{"bike_id":"07cc2c2f-e973-44d0-913b-2b44b1f72033","system_id":"levelo_inurba_marseille","lat":43.2903,"lon":5.37552,"is_reserved":false,"is_disabled":false,"rental_uris":{"android":"levelo://app?vid=07cc2c2f-e973-44d0-913b-2b44b1f72033","ios":"levelo://app?vid=07cc2c2f-e973-44d0-913b-2b44b1f72033"},"vehicle_type_id":"4","last_reported":1705345521,"current_range_meters":0,"station_id":"ce4bh692rcd13ifvqe90","pricing_plan_id":"free"},{"bike_id":"c8264185-49ff-4b81-b55d-810d202ea7fc","system_id":"levelo_inurba_marseille","lat":43.29412,"lon":5.38617,"is_reserved":false,"is_disabled":false,"rental_uris":{"android":"levelo://app?vid=c8264185-49ff-4b81-b55d-810d202ea7fc","ios":"levelo://app?vid=c8264185-49ff-4b81-b55d-810d202ea7fc"},"vehicle_type_id":"4","last_reported":1705345521,"current_range_meters":0,"station_id":"ce4bh2h2rcd13ifvqdh0","pricing_plan_id":"free"},{"bike_id":"81212987-f1c0-46e4-a451-7ff891d8f286","system_id":"levelo_inurba_marseille","lat":43.290327,"lon":5.375711,"is_reserved":false,"is_disabled":false,"rental_uris":{"android":"levelo://app?vid=81212987-f1c0-46e4-a451-7ff891d8f286","ios":"levelo://app?vid=81212987-f1c0-46e4-a451-7ff891d8f286"},"vehicle_type_id":"4","last_reported":1705345521,"current_range_meters":28400,"station_id":"ce4bh692rcd13ifvqe90","pricing_plan_id":"free"},{"bike_id":"de559a31-3f51-403b-82f9-e78fe113abd5","system_id":"levelo_inurba_marseille","lat":43.290631,"lon":5.359244,"is_reserved":false,"is_disabled":false,"rental_uris":{"android":"levelo://app?vid=de559a31-3f51-403b-82f9-e78fe113abd5","ios":"levelo://app?vid=de559a31-3f51-403b-82f9-e78fe113abd5"},"vehicle_type_id":"4","last_reported":1705345521,"current_range_meters":14000,"station_id":"ce4bha92rcd13ifvqeg0","pricing_plan_id":"free"},{"bike_id":"9366f6e4-922e-4d2f-af58-7cde27151ff8","system_id":"levelo_inurba_marseille","lat":43.289468,"lon":5.363719,"is_reserved":false,"is_disabled":false,"rental_uris":{"android":"levelo://app?vid=9366f6e4-922e-4d2f-af58-7cde27151ff8","ios":"levelo://app?vid=9366f6e4-922e-4d2f-af58-7cde27151ff8"},"vehicle_type_id":"4","last_reported":1705345521,"current_range_meters":4000,"station_id":"ce4bhc92rcd13ifvqetg","pricing_plan_id":"free"},{"bike_id":"7d8a5d63-e1df-4572-a764-a43736ac99d8","system_id":"levelo_inurba_marseille","lat":43.289393,"lon":5.363758,"is_reserved":false,"is_disabled":false,"rental_uris":{"android":"levelo://app?vid=7d8a5d63-e1df-4572-a764-a43736ac99d8","ios":"levelo://app?vid=7d8a5d63-e1df-4572-a764-a43736ac99d8"},"vehicle_type_id":"4","last_reported":1705345521,"current_range_meters":21600,"station_id":"ce4bhc92rcd13ifvqetg","pricing_plan_id":"free"},{"bike_id":"3fc2f427-77c5-4794-a2d6-7d7ce948db31","system_id":"levelo_inurba_marseille","lat":43.289468,"lon":5.363719,"is_reserved":false,"is_disabled":false,"rental_uris":{"android":"levelo://app?vid=3fc2f427-77c5-4794-a2d6-7d7ce948db31","ios":"levelo://app?vid=3fc2f427-77c5-4794-a2d6-7d7ce948db31"},"vehicle_type_id":"4","last_reported":1705345521,"current_range_meters":0,"station_id":"ce4bhc92rcd13ifvqetg","pricing_plan_id":"free"},{"bike_id":"8c9bfe7b-2f4c-46eb-ac88-4593441aaf70","system_id":"levelo_inurba_marseille","lat":43.304274,"lon":5.397513,"is_reserved":false,"is_disabled":false,"rental_uris":{"android":"levelo://app?vid=8c9bfe7b-2f4c-46eb-ac88-4593441aaf70","ios":"levelo://app?vid=8c9bfe7b-2f4c-46eb-ac88-4593441aaf70"},"vehicle_type_id":"4","last_reported":1705345521,"current_range_meters":2800,"station_id":"ce4bh092rcd13ifvqd20","pricing_plan_id":"free"},{"bike_id":"32ed02f2-ef4f-4f42-9d7b-42bfebfde870","system_id":"levelo_inurba_marseille","lat":43.292642,"lon":5.384254,"is_reserved":false,"is_disabled":false,"rental_uris":{"android":"levelo://app?vid=32ed02f2-ef4f-4f42-9d7b-42bfebfde870","ios":"levelo://app?vid=32ed02f2-ef4f-4f42-9d7b-42bfebfde870"},"vehicle_type_id":"4","last_reported":1705345521,"current_range_meters":0,"station_id":"ce4bh692rcd13ifvqea0","pricing_plan_id":"free"},{"bike_id":"b948eb07-91a6-4d32-8f48-c3adb16fd935","system_id":"levelo_inurba_marseille","lat":43.292642,"lon":5.384254,"is_reserved":false,"is_disabled":false,"rental_uris":{"android":"levelo://app?vid=b948eb07-91a6-4d32-8f48-c3adb16fd935","ios":"levelo://app?vid=b948eb07-91a6-4d32-8f48-c3adb16fd935"},"vehicle_type_id":"4","last_reported":1705345521,"current_range_meters":9600,"station_id":"ce4bh692rcd13ifvqea0","pricing_plan_id":"free"},{"bike_id":"5f0f8e47-e695-46ca-8213-5a78e11cf55f","system_id":"levelo_inurba_marseille","lat":43.304296,"lon":5.397513,"is_reserved":false,"is_disabled":false,"rental_uris":{"android":"levelo://app?vid=5f0f8e47-e695-46ca-8213-5a78e11cf55f","ios":"levelo://app?vid=5f0f8e47-e695-46ca-8213-5a78e11cf55f"},"vehicle_type_id":"4","last_reported":1705345521,"current_range_meters":8000,"station_id":"ce4bh092rcd13ifvqd20","pricing_plan_id":"free"},{"bike_id":"226bb269-1d10-4f64-bdf3-296d273ae135","system_id":"levelo_inurba_marseille","lat":43.330442,"lon":5.389148,"is_reserved":false,"is_disabled":false,"rental_uris":{"android":"levelo://app?vid=226bb269-1d10-4f64-bdf3-296d273ae135","ios":"levelo://app?vid=226bb269-1d10-4f64-bdf3-296d273ae135"},"vehicle_type_id":"4","last_reported":1705345521,"current_range_meters":3600,"station_id":"ce4bhr92rcd13ifvqhrg","pricing_plan_id":"free"},{"bike_id":"4ffbc5bc-7668-4937-9470-52b6f70fe71c","system_id":"levelo_inurba_marseille","lat":43.290029,"lon":5.356247,"is_reserved":false,"is_disabled":false,"rental_uris":{"android":"levelo://app?vid=4ffbc5bc-7668-4937-9470-52b6f70fe71c","ios":"levelo://app?vid=4ffbc5bc-7668-4937-9470-52b6f70fe71c"},"vehicle_type_id":"4","last_reported":1705345521,"current_range_meters":26400,"station_id":"ce4bhb92rcd13ifvqen0","pricing_plan_id":"free"},{"bike_id":"520a96c4-e453-4881-96ab-826963bd667d","system_id":"levelo_inurba_marseille","lat":43.29006,"lon":5.35611,"is_reserved":false,"is_disabled":false,"rental_uris":{"android":"levelo://app?vid=520a96c4-e453-4881-96ab-826963bd667d","ios":"levelo://app?vid=520a96c4-e453-4881-96ab-826963bd667d"},"vehicle_type_id":"4","last_reported":1705345521,"current_range_meters":0,"station_id":"ce4bhb92rcd13ifvqen0","pricing_plan_id":"free"},{"bike_id":"4653e896-3f04-4ff7-b200-eefbfc87f7fa","system_id":"levelo_inurba_marseille","lat":43.28856,"lon":5.358371,"is_reserved":false,"is_disabled":false,"rental_uris":{"android":"levelo://app?vid=4653e896-3f04-4ff7-b200-eefbfc87f7fa","ios":"levelo://app?vid=4653e896-3f04-4ff7-b200-eefbfc87f7fa"},"vehicle_type_id":"4","last_reported":1705345521,"current_range_meters":20400,"station_id":"ce4bhb12rcd13ifvqem0","pricing_plan_id":"free"},{"bike_id":"da1d9746-c78f-450e-bbb6-b239efac7d77","system_id":"levelo_inurba_marseille","lat":43.295169,"lon":5.390426,"is_reserved":false,"is_disabled":false,"rental_uris":{"android":"levelo://app?vid=da1d9746-c78f-450e-bbb6-b239efac7d77","ios":"levelo://app?vid=da1d9746-c78f-450e-bbb6-b239efac7d77"},"vehicle_type_id":"4","last_reported":1705345521,"current_range_meters":16800,"station_id":"ce4bh3p2rcd13ifvqdp0","pricing_plan_id":"free"},{"bike_id":"1db7ec23-8692-4620-8f1f-882011002fb4","system_id":"levelo_inurba_marseille","lat":43.295169,"lon":5.390426,"is_reserved":false,"is_disabled":false,"rental_uris":{"android":"levelo://app?vid=1db7ec23-8692-4620-8f1f-882011002fb4","ios":"levelo://app?vid=1db7ec23-8692-4620-8f1f-882011002fb4"},"vehicle_type_id":"4","last_reported":1705345521,"current_range_meters":13200,"station_id":"ce4bh3p2rcd13ifvqdp0","pricing_plan_id":"free"},{"bike_id":"01e38aca-98ec-4cb6-92bd-560feff5052c","system_id":"levelo_inurba_marseille","lat":43.29789,"lon":5.39343,"is_reserved":false,"is_disabled":false,"rental_uris":{"android":"levelo://app?vid=01e38aca-98ec-4cb6-92bd-560feff5052c","ios":"levelo://app?vid=01e38aca-98ec-4cb6-92bd-560feff5052c"},"vehicle_type_id":"4","last_reported":1705345521,"current_range_meters":8000,"station_id":"chh1huq6cuj3fo74tm60","pricing_plan_id":"free"},{"bike_id":"933cb99c-9b87-494f-9df1-825c7c841cd7","system_id":"levelo_inurba_marseille","lat":43.297815,"lon":5.393548,"is_reserved":false,"is_disabled":false,"rental_uris":{"android":"levelo://app?vid=933cb99c-9b87-494f-9df1-825c7c841cd7","ios":"levelo://app?vid=933cb99c-9b87-494f-9df1-825c7c841cd7"},"vehicle_type_id":"4","last_reported":1705345521,"current_range_meters":2000,"station_id":"chh1huq6cuj3fo74tm60","pricing_plan_id":"free"},{"bike_id":"7c64a78d-cf44-415c-a807-707bdbdb0e66","system_id":"levelo_inurba_marseille","lat":43.3302,"lon":5.39028,"is_reserved":false,"is_disabled":false,"rental_uris":{"android":"levelo://app?vid=7c64a78d-cf44-415c-a807-707bdbdb0e66","ios":"levelo://app?vid=7c64a78d-cf44-415c-a807-707bdbdb0e66"},"vehicle_type_id":"4","last_reported":1705345521,"current_range_meters":5600,"station_id":"ce4bhr92rcd13ifvqhrg","pricing_plan_id":"free"},{"bike_id":"42fde5db-d54c-4b1d-8b46-33603db2d2d1","system_id":"levelo_inurba_marseille","lat":43.3302,"lon":5.39035,"is_reserved":false,"is_disabled":false,"rental_uris":{"android":"levelo://app?vid=42fde5db-d54c-4b1d-8b46-33603db2d2d1","ios":"levelo://app?vid=42fde5db-d54c-4b1d-8b46-33603db2d2d1"},"vehicle_type_id":"4","last_reported":1705345521,"current_range_meters":14000,"station_id":"ce4bhr92rcd13ifvqhrg","pricing_plan_id":"free"},{"bike_id":"1c911b6d-8c17-4da7-ab47-9a84f6bf8381","system_id":"levelo_inurba_marseille","lat":43.295169,"lon":5.390426,"is_reserved":false,"is_disabled":false,"rental_uris":{"android":"levelo://app?vid=1c911b6d-8c17-4da7-ab47-9a84f6bf8381","ios":"levelo://app?vid=1c911b6d-8c17-4da7-ab47-9a84f6bf8381"},"vehicle_type_id":"4","last_reported":1705345521,"current_range_meters":17200,"station_id":"ce4bh3p2rcd13ifvqdp0","pricing_plan_id":"free"},{"bike_id":"5e21ea74-79fb-445f-a1fd-0d2b8da69ae3","system_id":"levelo_inurba_marseille","lat":43.33022,"lon":5.39039,"is_reserved":false,"is_disabled":false,"rental_uris":{"android":"levelo://app?vid=5e21ea74-79fb-445f-a1fd-0d2b8da69ae3","ios":"levelo://app?vid=5e21ea74-79fb-445f-a1fd-0d2b8da69ae3"},"vehicle_type_id":"4","last_reported":1705345521,"current_range_meters":23200,"station_id":"ce4bhr92rcd13ifvqhrg","pricing_plan_id":"free"},{"bike_id":"8d2e7982-b1fd-42e5-9f73-d9ebc784f624","system_id":"levelo_inurba_marseille","lat":43.295169,"lon":5.390426,"is_reserved":false,"is_disabled":false,"rental_uris":{"android":"levelo://app?vid=8d2e7982-b1fd-42e5-9f73-d9ebc784f624","ios":"levelo://app?vid=8d2e7982-b1fd-42e5-9f73-d9ebc784f624"},"vehicle_type_id":"4","last_reported":1705345521,"current_range_meters":2800,"station_id":"ce4bh3p2rcd13ifvqdp0","pricing_plan_id":"free"},{"bike_id":"4ad09c07-340b-48b5-8920-3d4d6807c55a","system_id":"levelo_inurba_marseille","lat":43.289743,"lon":5.378304,"is_reserved":false,"is_disabled":false,"rental_uris":{"android":"levelo://app?vid=4ad09c07-340b-48b5-8920-3d4d6807c55a","ios":"levelo://app?vid=4ad09c07-340b-48b5-8920-3d4d6807c55a"},"vehicle_type_id":"4","last_reported":1705345521,"current_range_meters":26400,"station_id":"ce4bh9p2rcd13ifvqed0","pricing_plan_id":"free"},{"bike_id":"59bdac10-b5e9-4f03-b04f-68439b974a96","system_id":"levelo_inurba_marseille","lat":43.33025,"lon":5.39039,"is_reserved":false,"is_disabled":false,"rental_uris":{"android":"levelo://app?vid=59bdac10-b5e9-4f03-b04f-68439b974a96","ios":"levelo://app?vid=59bdac10-b5e9-4f03-b04f-68439b974a96"},"vehicle_type_id":"4","last_reported":1705345521,"current_range_meters":18400,"station_id":"ce4bhr92rcd13ifvqhrg","pricing_plan_id":"free"},{"bike_id":"cf2a8e79-1286-47b7-b507-ef7bebc2955c","system_id":"levelo_inurba_marseille","lat":43.330442,"lon":5.389148,"is_reserved":false,"is_disabled":false,"rental_uris":{"android":"levelo://app?vid=cf2a8e79-1286-47b7-b507-ef7bebc2955c","ios":"levelo://app?vid=cf2a8e79-1286-47b7-b507-ef7bebc2955c"},"vehicle_type_id":"4","last_reported":1705345521,"current_range_meters":6800,"station_id":"ce4bhr92rcd13ifvqhrg","pricing_plan_id":"free"},{"bike_id":"12cf2268-0c09-4f12-b5d8-7ee86d88a231","system_id":"levelo_inurba_marseille","lat":43.330442,"lon":5.389148,"is_reserved":false,"is_disabled":false,"rental_uris":{"android":"levelo://app?vid=12cf2268-0c09-4f12-b5d8-7ee86d88a231","ios":"levelo://app?vid=12cf2268-0c09-4f12-b5d8-7ee86d88a231"},"vehicle_type_id":"4","last_reported":1705345521,"current_range_meters":25200,"station_id":"ce4bhr92rcd13ifvqhrg","pricing_plan_id":"free"},{"bike_id":"517b0d0b-d608-45bf-9461-35b6ce418c5d","system_id":"levelo_inurba_marseille","lat":43.330442,"lon":5.389148,"is_reserved":false,"is_disabled":false,"rental_uris":{"android":"levelo://app?vid=517b0d0b-d608-45bf-9461-35b6ce418c5d","ios":"levelo://app?vid=517b0d0b-d608-45bf-9461-35b6ce418c5d"},"vehicle_type_id":"4","last_reported":1705345521,"current_range_meters":1200,"station_id":"ce4bhr92rcd13ifvqhrg","pricing_plan_id":"free"},{"bike_id":"1499407a-126a-498e-a253-793237301a99","system_id":"levelo_inurba_marseille","lat":43.292642,"lon":5.384254,"is_reserved":false,"is_disabled":false,"rental_uris":{"android":"levelo://app?vid=1499407a-126a-498e-a253-793237301a99","ios":"levelo://app?vid=1499407a-126a-498e-a253-793237301a99"},"vehicle_type_id":"4","last_reported":1705345521,"current_range_meters":22000,"station_id":"ce4bh692rcd13ifvqea0","pricing_plan_id":"free"},{"bike_id":"95d7b378-6f0f-43ff-a8e6-7582e575c578","system_id":"levelo_inurba_marseille","lat":43.330442,"lon":5.389148,"is_reserved":false,"is_disabled":false,"rental_uris":{"android":"levelo://app?vid=95d7b378-6f0f-43ff-a8e6-7582e575c578","ios":"levelo://app?vid=95d7b378-6f0f-43ff-a8e6-7582e575c578"},"vehicle_type_id":"4","last_reported":1705345521,"current_range_meters":20000,"station_id":"ce4bhr92rcd13ifvqhrg","pricing_plan_id":"free"},{"bike_id":"4e19a295-da7d-4a97-b37f-348040ba4092","system_id":"levelo_inurba_marseille","lat":43.292642,"lon":5.384254,"is_reserved":false,"is_disabled":false,"rental_uris":{"android":"levelo://app?vid=4e19a295-da7d-4a97-b37f-348040ba4092","ios":"levelo://app?vid=4e19a295-da7d-4a97-b37f-348040ba4092"},"vehicle_type_id":"4","last_reported":1705345521,"current_range_meters":23600,"station_id":"ce4bh692rcd13ifvqea0","pricing_plan_id":"free"},{"bike_id":"371c9102-10ae-492a-86a3-1422da8af1d0","system_id":"levelo_inurba_marseille","lat":43.295169,"lon":5.390426,"is_reserved":false,"is_disabled":false,"rental_uris":{"android":"levelo://app?vid=371c9102-10ae-492a-86a3-1422da8af1d0","ios":"levelo://app?vid=371c9102-10ae-492a-86a3-1422da8af1d0"},"vehicle_type_id":"4","last_reported":1705345521,"current_range_meters":16800,"station_id":"ce4bh3p2rcd13ifvqdp0","pricing_plan_id":"free"},{"bike_id":"151fe49a-05ca-4c1d-91c4-c37e963fad3d","system_id":"levelo_inurba_marseille","lat":43.28856,"lon":5.358371,"is_reserved":false,"is_disabled":false,"rental_uris":{"android":"levelo://app?vid=151fe49a-05ca-4c1d-91c4-c37e963fad3d","ios":"levelo://app?vid=151fe49a-05ca-4c1d-91c4-c37e963fad3d"},"vehicle_type_id":"4","last_reported":1705345521,"current_range_meters":10800,"station_id":"ce4bhb12rcd13ifvqem0","pricing_plan_id":"free"},{"bike_id":"09eb47b1-ddbd-4e09-88fa-70115c1b472e","system_id":"levelo_inurba_marseille","lat":43.28856,"lon":5.358371,"is_reserved":false,"is_disabled":false,"rental_uris":{"android":"levelo://app?vid=09eb47b1-ddbd-4e09-88fa-70115c1b472e","ios":"levelo://app?vid=09eb47b1-ddbd-4e09-88fa-70115c1b472e"},"vehicle_type_id":"4","last_reported":1705345521,"current_range_meters":3200,"station_id":"ce4bhb12rcd13ifvqem0","pricing_plan_id":"free"},{"bike_id":"c391eac3-7e2f-40f3-bc09-ab8fba2744c8","system_id":"levelo_inurba_marseille","lat":43.28856,"lon":5.358371,"is_reserved":false,"is_disabled":false,"rental_uris":{"android":"levelo://app?vid=c391eac3-7e2f-40f3-bc09-ab8fba2744c8","ios":"levelo://app?vid=c391eac3-7e2f-40f3-bc09-ab8fba2744c8"},"vehicle_type_id":"4","last_reported":1705345521,"current_range_meters":800,"station_id":"ce4bhb12rcd13ifvqem0","pricing_plan_id":"free"},{"bike_id":"c980ac14-baa5-4674-b800-34d3caeaa6b2","system_id":"levelo_inurba_marseille","lat":43.28856,"lon":5.358371,"is_reserved":false,"is_disabled":false,"rental_uris":{"android":"levelo://app?vid=c980ac14-baa5-4674-b800-34d3caeaa6b2","ios":"levelo://app?vid=c980ac14-baa5-4674-b800-34d3caeaa6b2"},"vehicle_type_id":"4","last_reported":1705345521,"current_range_meters":9200,"station_id":"ce4bhb12rcd13ifvqem0","pricing_plan_id":"free"},{"bike_id":"01c8fe3b-8929-45c4-8ddd-cf2f64cb3102","system_id":"levelo_inurba_marseille","lat":43.28856,"lon":5.358371,"is_reserved":false,"is_disabled":false,"rental_uris":{"android":"levelo://app?vid=01c8fe3b-8929-45c4-8ddd-cf2f64cb3102","ios":"levelo://app?vid=01c8fe3b-8929-45c4-8ddd-cf2f64cb3102"},"vehicle_type_id":"4","last_reported":1705345521,"current_range_meters":26800,"station_id":"ce4bhb12rcd13ifvqem0","pricing_plan_id":"free"},{"bike_id":"59d8c2f5-e469-4c63-8260-12b2c9040799","system_id":"levelo_inurba_marseille","lat":43.28856,"lon":5.358371,"is_reserved":false,"is_disabled":false,"rental_uris":{"android":"levelo://app?vid=59d8c2f5-e469-4c63-8260-12b2c9040799","ios":"levelo://app?vid=59d8c2f5-e469-4c63-8260-12b2c9040799"},"vehicle_type_id":"4","last_reported":1705345521,"current_range_meters":9200,"station_id":"ce4bhb12rcd13ifvqem0","pricing_plan_id":"free"},{"bike_id":"3a7bbca0-e061-4167-b547-c43f030b9074","system_id":"levelo_inurba_marseille","lat":43.31256,"lon":5.401623,"is_reserved":false,"is_disabled":false,"rental_uris":{"android":"levelo://app?vid=3a7bbca0-e061-4167-b547-c43f030b9074","ios":"levelo://app?vid=3a7bbca0-e061-4167-b547-c43f030b9074"},"vehicle_type_id":"4","last_reported":1705345521,"current_range_meters":24000,"station_id":"ce4bh092rcd13ifvqd30","pricing_plan_id":"free"},{"bike_id":"dd2b4e72-bc6f-4552-acd0-5003987b5300","system_id":"levelo_inurba_marseille","lat":43.30943,"lon":5.4014,"is_reserved":false,"is_disabled":false,"rental_uris":{"android":"levelo://app?vid=dd2b4e72-bc6f-4552-acd0-5003987b5300","ios":"levelo://app?vid=dd2b4e72-bc6f-4552-acd0-5003987b5300"},"vehicle_type_id":"4","last_reported":1705345521,"current_range_meters":12800,"station_id":"ce4bgvp2rcd13ifvqct0","pricing_plan_id":"free"},{"bike_id":"15b7aa37-4f4f-461b-bbc1-0bb278af3fce","system_id":"levelo_inurba_marseille","lat":43.30929,"lon":5.4014,"is_reserved":false,"is_disabled":false,"rental_uris":{"android":"levelo://app?vid=15b7aa37-4f4f-461b-bbc1-0bb278af3fce","ios":"levelo://app?vid=15b7aa37-4f4f-461b-bbc1-0bb278af3fce"},"vehicle_type_id":"4","last_reported":1705345521,"current_range_meters":28000,"station_id":"ce4bgvp2rcd13ifvqct0","pricing_plan_id":"free"},{"bike_id":"d536be21-aa76-4bfe-ba0e-52a8d14a39b7","system_id":"levelo_inurba_marseille","lat":43.309371,"lon":5.401449,"is_reserved":false,"is_disabled":false,"rental_uris":{"android":"levelo://app?vid=d536be21-aa76-4bfe-ba0e-52a8d14a39b7","ios":"levelo://app?vid=d536be21-aa76-4bfe-ba0e-52a8d14a39b7"},"vehicle_type_id":"4","last_reported":1705345521,"current_range_meters":18400,"station_id":"ce4bgvp2rcd13ifvqct0","pricing_plan_id":"free"},{"bike_id":"9e2935e8-d2b9-45f9-bd32-65d27fd3693d","system_id":"levelo_inurba_marseille","lat":43.309371,"lon":5.401449,"is_reserved":false,"is_disabled":false,"rental_uris":{"android":"levelo://app?vid=9e2935e8-d2b9-45f9-bd32-65d27fd3693d","ios":"levelo://app?vid=9e2935e8-d2b9-45f9-bd32-65d27fd3693d"},"vehicle_type_id":"4","last_reported":1705345521,"current_range_meters":1600,"station_id":"ce4bgvp2rcd13ifvqct0","pricing_plan_id":"free"},{"bike_id":"dc41b4fb-ec2d-4148-b3b6-3c66f748eeeb","system_id":"levelo_inurba_marseille","lat":43.309371,"lon":5.401449,"is_reserved":false,"is_disabled":false,"rental_uris":{"android":"levelo://app?vid=dc41b4fb-ec2d-4148-b3b6-3c66f748eeeb","ios":"levelo://app?vid=dc41b4fb-ec2d-4148-b3b6-3c66f748eeeb"},"vehicle_type_id":"4","last_reported":1705345521,"current_range_meters":17200,"station_id":"ce4bgvp2rcd13ifvqct0","pricing_plan_id":"free"},{"bike_id":"f7af55ed-57c7-4108-a75b-06b307aeb981","system_id":"levelo_inurba_marseille","lat":43.337649,"lon":5.374419,"is_reserved":false,"is_disabled":false,"rental_uris":{"android":"levelo://app?vid=f7af55ed-57c7-4108-a75b-06b307aeb981","ios":"levelo://app?vid=f7af55ed-57c7-4108-a75b-06b307aeb981"},"vehicle_type_id":"4","last_reported":1705345521,"current_range_meters":31200,"station_id":"ce4bh192rcd13ifvqdb0","pricing_plan_id":"free"},{"bike_id":"7264b8f1-efe4-4d8a-88f0-40cf3abdbd31","system_id":"levelo_inurba_marseille","lat":43.337677,"lon":5.374449,"is_reserved":false,"is_disabled":false,"rental_uris":{"android":"levelo://app?vid=7264b8f1-efe4-4d8a-88f0-40cf3abdbd31","ios":"levelo://app?vid=7264b8f1-efe4-4d8a-88f0-40cf3abdbd31"},"vehicle_type_id":"4","last_reported":1705345521,"current_range_meters":24400,"station_id":"ce4bh192rcd13ifvqdb0","pricing_plan_id":"free"},{"bike_id":"b2a82683-3d9e-415f-9c92-203ab05ecfaa","system_id":"levelo_inurba_marseille","lat":43.306412,"lon":5.401035,"is_reserved":false,"is_disabled":false,"rental_uris":{"android":"levelo://app?vid=b2a82683-3d9e-415f-9c92-203ab05ecfaa","ios":"levelo://app?vid=b2a82683-3d9e-415f-9c92-203ab05ecfaa"},"vehicle_type_id":"4","last_reported":1705345521,"current_range_meters":14400,"station_id":"ce4bh112rcd13ifvqda0","pricing_plan_id":"free"},