{"last_updated":1752531074,"ttl":60,"version":"2.2","data":{"bikes":[{"bike_id":"feb1ed1d-b0db-45cc-9e1b-7311a8d72058","system_id":"levelo_inurba_marseille","lat":43.33747,"lon":5.37463,"is_reserved":false,"is_disabled":false,"rental_uris":{"android":"levelo://app?vid=feb1ed1d-b0db-45cc-9e1b-7311a8d72058","ios":"levelo://app?vid=feb1ed1d-b0db-45cc-9e1b-7311a8d72058"},"vehicle_type_id":"1","last_reported":1752531075,"current_range_meters":36000,"station_id":"","pricing_plan_id":"cebpf4jnsgd1na2vs0mg"},{"bike_id":"e1a3ddd0-1634-4791-b71f-e7a6650f12e8","system_id":"levelo_inurba_marseille","lat":43.3025,"lon":5.40078,"is_reserved":false,"is_disabled":false,"rental_uris":{"android":"levelo://app?vid=e1a3ddd0-1634-4791-b71f-e7a6650f12e8","ios":"levelo://app?vid=e1a3ddd0-1634-4791-b71f-e7a6650f12e8"},"vehicle_type_id":"4","last_reported":1752531075,"current_range_meters":2800,"station_id":"ce4bgvh2rcd13ifvqcs0","pricing_plan_id":"cebpf4jnsgd1na2vs0mg"},{"bike_id":"560f858e-4654-4d3a-b2ea-58d09df71cbf","system_id":"levelo_inurba_marseille","lat":43.313324,"lon":5.396906,"is_reserved":false,"is_disabled":false,"rental_uris":{"android":"levelo://app?vid=560f858e-4654-4d3a-b2ea-58d09df71cbf","ios":"levelo://app?vid=560f858e-4654-4d3a-b2ea-58d09df71cbf"},"vehicle_type_id":"4","last_reported":1752531075,"current_range_meters":1600,"station_id":"ce4bgvp2rcd13ifvqcu0","pricing_plan_id":"cebpf4jnsgd1na2vs0mg"},{"bike_id":"77794ff1-13f2-4ca2-a9a2-c9713305d70c","system_id":"levelo_inurba_marseille","lat":43.28607,"lon":5.3706,"is_reserved":false,"is_disabled":true,"rental_uris":{"android":"levelo://app?vid=77794ff1-13f2-4ca2-a9a2-c9713305d70c","ios":"levelo://app?vid=77794ff1-13f2-4ca2-a9a2-c9713305d70c"},"vehicle_type_id":"4","last_reported":1752531075,"current_range_meters":2800,"station_id":"ce4bht12rcd13ifvqi60","pricing_plan_id":"cebpf4jnsgd1na2vs0mg"},{"bike_id":"ed2da812-2e76-467c-beb2-8a83494203d2","system_id":"levelo_inurba_marseille","lat":43.28041,"lon":5.36947,"is_reserved":false,"is_disabled":false,"rental_uris":{"android":"levelo://app?vid=ed2da812-2e76-467c-beb2-8a83494203d2","ios":"levelo://app?vid=ed2da812-2e76-467c-beb2-8a83494203d2"},"vehicle_type_id":"4","last_reported":1752531075,"current_range_meters":2800,"station_id":"ce4bha12rcd13ifvqef0","pricing_plan_id":"cebpf4jnsgd1na2vs0mg"},{"bike_id":"bf7c3041-5b69-458f-aa7d-a403996d9719","system_id":"levelo_inurba_marseille","lat":43.3014,"lon":5.37387,"is_reserved":false,"is_disabled":false,"rental_uris":{"android":"levelo://app?vid=bf7c3041-5b69-458f-aa7d-a403996d9719","ios":"levelo://app?vid=bf7c3041-5b69-458f-aa7d-a403996d9719"},"vehicle_type_id":"4","last_reported":1752531075,"current_range_meters":2000,"station_id":"ce4bgs92rcd13ifvqcc0","pricing_plan_id":"cebpf4jnsgd1na2vs0mg"},{"bike_id":"a402b987-ce83-4da0-b4f6-e6b6c481bfbf","system_id":"levelo_inurba_marseille","lat":43.295658,"lon":5.399796,"is_reserved":false,"is_disabled":false,"rental_uris":{"android":"levelo://app?vid=a402b987-ce83-4da0-b4f6-e6b6c481bfbf","ios":"levelo://app?vid=a402b987-ce83-4da0-b4f6-e6b6c481bfbf"},"vehicle_type_id":"4","last_reported":1752531075,"current_range_meters":3200,"station_id":"ce4bh312rcd13ifvqdj0","pricing_plan_id":"cebpf4jnsgd1na2vs0mg"},{"bike_id":"122e0d50-c3bd-46a1-aa87-128c183e0aa9","system_id":"levelo_inurba_marseille","lat":43.25087,"lon":5.39528,"is_reserved":false,"is_disabled":false,"rental_uris":{"android":"levelo://app?vid=122e0d50-c3bd-46a1-aa87-128c183e0aa9","ios":"levelo://app?vid=122e0d50-c3bd-46a1-aa87-128c183e0aa9"},"vehicle_type_id":"4","last_reported":1752531075,"current_range_meters":3200,"station_id":"ce4bhm12rcd13ifvqgkg","pricing_plan_id":"cebpf4jnsgd1na2vs0mg"},{"bike_id":"a82bf5c4-27e4-464a-97a6-01602a6974f9","system_id":"levelo_inurba_marseille","lat":43.278137,"lon":5.392181,"is_reserved":false,"is_disabled":false,"rental_uris":{"android":"levelo://app?vid=a82bf5c4-27e4-464a-97a6-01602a6974f9","ios":"levelo://app?vid=a82bf5c4-27e4-464a-97a6-01602a6974f9"},"vehicle_type_id":"4","last_reported":1752531075,"current_range_meters":3200,"station_id":"ce4bhjp2rcd13ifvqga0","pricing_plan_id":"cebpf4jnsgd1na2vs0mg"},{"bike_id":"b7b82335-3ff8-485f-b9a0-2b90a13543a3","system_id":"levelo_inurba_marseille","lat":43.2725,"lon":5.4114,"is_reserved":false,"is_disabled":false,"rental_uris":{"android":"levelo://app?vid=b7b82335-3ff8-485f-b9a0-2b90a13543a3","ios":"levelo://app?vid=b7b82335-3ff8-485f-b9a0-2b90a13543a3"},"vehicle_type_id":"4","last_reported":1752531075,"current_range_meters":3200,"station_id":"","pricing_plan_id":"cebpf4jnsgd1na2vs0mg"},{"bike_id":"0e525918-af12-4527-941b-af691837688f","system_id":"levelo_inurba_marseille","lat":43.29959,"lon":5.3851,"is_reserved":false,"is_disabled":false,"rental_uris":{"android":"levelo://app?vid=0e525918-af12-4527-941b-af691837688f","ios":"levelo://app?vid=0e525918-af12-4527-941b-af691837688f"},"vehicle_type_id":"4","last_reported":1752531075,"current_range_meters":3200,"station_id":"ce4bgj92rcd13ifvqbd0","pricing_plan_id":"cebpf4jnsgd1na2vs0mg"},{"bike_id":"5aa60148-7995-4c12-a5e5-cfcee9d47b88","system_id":"levelo_inurba_marseille","lat":43.29518,"lon":5.38523,"is_reserved":false,"is_disabled":false,"rental_uris":{"android":"levelo://app?vid=5aa60148-7995-4c12-a5e5-cfcee9d47b88","ios":"levelo://app?vid=5aa60148-7995-4c12-a5e5-cfcee9d47b88"},"vehicle_type_id":"4","last_reported":1752531075,"current_range_meters":3600,"station_id":"ce4bgih2rcd13ifvqba0","pricing_plan_id":"cebpf4jnsgd1na2vs0mg"},{"bike_id":"470d1e9d-8c05-40b8-a6b2-039f183b9f6a","system_id":"levelo_inurba_marseille","lat":43.231906,"lon":5.355579,"is_reserved":false,"is_disabled":true,"rental_uris":{"android":"levelo://app?vid=470d1e9d-8c05-40b8-a6b2-039f183b9f6a","ios":"levelo://app?vid=470d1e9d-8c05-40b8-a6b2-039f183b9f6a"},"vehicle_type_id":"4","last_reported":1752531075,"current_range_meters":3600,"station_id":"ce4bhu92rcd13ifvqi70","pricing_plan_id":"cebpf4jnsgd1na2vs0mg"},{"bike_id":"9efb8360-8563-45b9-96b2-a06e314abdb2","system_id":"levelo_inurba_marseille","lat":43.2118,"lon":5.35078,"is_reserved":false,"is_disabled":false,"rental_uris":{"android":"levelo://app?vid=9efb8360-8563-45b9-96b2-a06e314abdb2","ios":"levelo://app?vid=9efb8360-8563-45b9-96b2-a06e314abdb2"},"vehicle_type_id":"4","last_reported":1752531075,"current_range_meters":3600,"station_id":"st_cvj6sg6p6f1abm77japg","pricing_plan_id":"cebpf4jnsgd1na2vs0mg"},{"bike_id":"44dd919c-32df-4fe9-8b1c-c9988fb68d5b","system_id":"levelo_inurba_marseille","lat":43.269395,"lon":5.40268,"is_reserved":false,"is_disabled":true,"rental_uris":{"android":"levelo://app?vid=44dd919c-32df-4fe9-8b1c-c9988fb68d5b","ios":"levelo://app?vid=44dd919c-32df-4fe9-8b1c-c9988fb68d5b"},"vehicle_type_id":"4","last_reported":1752531075,"current_range_meters":4000,"station_id":"cjm6bp8fraef2m0cb0m0","pricing_plan_id":"cebpf4jnsgd1na2vs0mg"},{"bike_id":"f7b0c85f-dcef-48aa-947f-58d6aca30307","system_id":"levelo_inurba_marseille","lat":43.33607,"lon":5.41036,"is_reserved":false,"is_disabled":false,"rental_uris":{"android":"levelo://app?vid=f7b0c85f-dcef-48aa-947f-58d6aca30307","ios":"levelo://app?vid=f7b0c85f-dcef-48aa-947f-58d6aca30307"},"vehicle_type_id":"4","last_reported":1752531075,"current_range_meters":0,"station_id":"ce4bhqh2rcd13ifvqhmg","pricing_plan_id":"cebpf4jnsgd1na2vs0mg"},{"bike_id":"6e0e2f23-6c02-4390-9409-f61e67d0abc9","system_id":"levelo_inurba_marseille","lat":43.28529,"lon":5.37144,"is_reserved":false,"is_disabled":false,"rental_uris":{"android":"levelo://app?vid=6e0e2f23-6c02-4390-9409-f61e67d0abc9","ios":"levelo://app?vid=6e0e2f23-6c02-4390-9409-f61e67d0abc9"},"vehicle_type_id":"4","last_reported":1752531075,"current_range_meters":4000,"station_id":"","pricing_plan_id":"cebpf4jnsgd1na2vs0mg"},{"bike_id":"1236ee90-f1b5-412c-9703-d46c62e5f6c6","system_id":"levelo_inurba_marseille","lat":43.297513,"lon":5.400189,"is_reserved":false,"is_disabled":false,"rental_uris":{"android":"levelo://app?vid=1236ee90-f1b5-412c-9703-d46c62e5f6c6","ios":"levelo://app?vid=1236ee90-f1b5-412c-9703-d46c62e5f6c6"},"vehicle_type_id":"4","last_reported":1752531075,"current_range_meters":4000,"station_id":"ce4bh312rcd13ifvqdj0","pricing_plan_id":"cebpf4jnsgd1na2vs0mg"},{"bike_id":"f6c7a5fb-c58e-4e5e-afcb-96acd6c67947","system_id":"levelo_inurba_marseille","lat":43.284058,"lon":5.375108,"is_reserved":false,"is_disabled":false,"rental_uris":{"android":"levelo://app?vid=f6c7a5fb-c58e-4e5e-afcb-96acd6c67947","ios":"levelo://app?vid=f6c7a5fb-c58e-4e5e-afcb-96acd6c67947"},"vehicle_type_id":"4","last_reported":1752531075,"current_range_meters":4400,"station_id":"","pricing_plan_id":"cebpf4jnsgd1na2vs0mg"},{"bike_id":"61ccd7e5-2d18-42f3-a0dc-a80ef4380d7e","system_id":"levelo_inurba_marseille","lat":43.24991,"lon":5.38908,"is_reserved":false,"is_disabled":false,"rental_uris":{"android":"levelo://app?vid=61ccd7e5-2d18-42f3-a0dc-a80ef4380d7e","ios":"levelo://app?vid=61ccd7e5-2d18-42f3-a0dc-a80ef4380d7e"},"vehicle_type_id":"4","last_reported":1752531075,"current_range_meters":4000,"station_id":"ce4bhgp2rcd13ifvqfd0","pricing_plan_id":"cebpf4jnsgd1na2vs0mg"},{"bike_id":"7e435c41-890e-4d23-9c5f-05a7d0e68433","system_id":"levelo_inurba_marseille","lat":43.29632,"lon":5.40598,"is_reserved":false,"is_disabled":false,"rental_uris":{"android":"levelo://app?vid=7e435c41-890e-4d23-9c5f-05a7d0e68433","ios":"levelo://app?vid=7e435c41-890e-4d23-9c5f-05a7d0e68433"},"vehicle_type_id":"4","last_reported":1752531075,"current_range_meters":4400,"station_id":"ce4bh0h2rcd13ifvqd60","pricing_plan_id":"cebpf4jnsgd1na2vs0mg"},{"bike_id":"daee8bf7-3d37-45d5-9c45-ccbdb50d3f14","system_id":"levelo_inurba_marseille","lat":43.28487,"lon":5.38585,"is_reserved":false,"is_disabled":false,"rental_uris":{"android":"levelo://app?vid=daee8bf7-3d37-45d5-9c45-ccbdb50d3f14","ios":"levelo://app?vid=daee8bf7-3d37-45d5-9c45-ccbdb50d3f14"},"vehicle_type_id":"4","last_reported":1752531075,"current_range_meters":4800,"station_id":"ce4bh8p2rcd13ifvqeb0","pricing_plan_id":"cebpf4jnsgd1na2vs0mg"},{"bike_id":"706a5de4-f7e3-47d9-a0ac-fb37c1c295c2","system_id":"levelo_inurba_marseille","lat":43.2928,"lon":5.40122,"is_reserved":false,"is_disabled":false,"rental_uris":{"android":"levelo://app?vid=706a5de4-f7e3-47d9-a0ac-fb37c1c295c2","ios":"levelo://app?vid=706a5de4-f7e3-47d9-a0ac-fb37c1c295c2"},"vehicle_type_id":"4","last_reported":1752531075,"current_range_meters":4800,"station_id":"ce4bh312rcd13ifvqdk0","pricing_plan_id":"cebpf4jnsgd1na2vs0mg"},{"bike_id":"04b0912e-9afd-4748-b554-8e8b34939333","system_id":"levelo_inurba_marseille","lat":43.27965,"lon":5.38757,"is_reserved":false,"is_disabled":false,"rental_uris":{"android":"levelo://app?vid=04b0912e-9afd-4748-b554-8e8b34939333","ios":"levelo://app?vid=04b0912e-9afd-4748-b554-8e8b34939333"},"vehicle_type_id":"4","last_reported":1752531075,"current_range_meters":4800,"station_id":"ce4bhg12rcd13ifvqf80","pricing_plan_id":"cebpf4jnsgd1na2vs0mg"},{"bike_id":"07d60378-5d3f-4e61-ae3b-a5f347471ad4","system_id":"levelo_inurba_marseille","lat":43.25724,"lon":5.41111,"is_reserved":false,"is_disabled":false,"rental_uris":{"android":"levelo://app?vid=07d60378-5d3f-4e61-ae3b-a5f347471ad4","ios":"levelo://app?vid=07d60378-5d3f-4e61-ae3b-a5f347471ad4"},"vehicle_type_id":"4","last_reported":1752531075,"current_range_meters":4800,"station_id":"ce4bhkp2rcd13ifvqgd0","pricing_plan_id":"cebpf4jnsgd1na2vs0mg"},{"bike_id":"7925ee81-b61d-4c30-a4c2-3ac9fe862b7e","system_id":"levelo_inurba_marseille","lat":43.23177,"lon":5.39991,"is_reserved":false,"is_disabled":false,"rental_uris":{"android":"levelo://app?vid=7925ee81-b61d-4c30-a4c2-3ac9fe862b7e","ios":"levelo://app?vid=7925ee81-b61d-4c30-a4c2-3ac9fe862b7e"},"vehicle_type_id":"4","last_reported":1752531075,"current_range_meters":5600,"station_id":"ce4bhn12rcd13ifvqgqg","pricing_plan_id":"cebpf4jnsgd1na2vs0mg"},{"bike_id":"fdc45ad8-656e-456a-99f1-76dbbfd9e9af","system_id":"levelo_inurba_marseille","lat":43.3046,"lon":5.37912,"is_reserved":false,"is_disabled":false,"rental_uris":{"android":"levelo://app?vid=fdc45ad8-656e-456a-99f1-76dbbfd9e9af","ios":"levelo://app?vid=fdc45ad8-656e-456a-99f1-76dbbfd9e9af"},"vehicle_type_id":"4","last_reported":1752531075,"current_range_meters":5600,"station_id":"ce4bgup2rcd13ifvqcn0","pricing_plan_id":"cebpf4jnsgd1na2vs0mg"},{"bike_id":"8053f077-b52b-4691-8d72-af68fa753bbf","system_id":"levelo_inurba_marseille","lat":43.30249,"lon":5.40094,"is_reserved":false,"is_disabled":false,"rental_uris":{"android":"levelo://app?vid=8053f077-b52b-4691-8d72-af68fa753bbf","ios":"levelo://app?vid=8053f077-b52b-4691-8d72-af68fa753bbf"},"vehicle_type_id":"4","last_reported":1752531075,"current_range_meters":6000,"station_id":"ce4bgvh2rcd13ifvqcs0","pricing_plan_id":"cebpf4jnsgd1na2vs0mg"},{"bike_id":"f353a6d9-b0e4-48bb-86e3-d78bf87461fa","system_id":"levelo_inurba_marseille","lat":43.27603,"lon":5.36131,"is_reserved":false,"is_disabled":false,"rental_uris":{"android":"levelo://app?vid=f353a6d9-b0e4-48bb-86e3-d78bf87461fa","ios":"levelo://app?vid=f353a6d9-b0e4-48bb-86e3-d78bf87461fa"},"vehicle_type_id":"4","last_reported":1752531075,"current_range_meters":6000,"station_id":"ce4bgj92rcd13ifvqbe0","pricing_plan_id":"cebpf4jnsgd1na2vs0mg"},{"bike_id":"47c1e2d6-f1bc-4352-897a-61b40cf8c4c1","system_id":"levelo_inurba_marseille","lat":43.28842,"lon":5.39313,"is_reserved":false,"is_disabled":false,"rental_uris":{"android":"levelo://app?vid=47c1e2d6-f1bc-4352-897a-61b40cf8c4c1","ios":"levelo://app?vid=47c1e2d6-f1bc-4352-897a-61b40cf8c4c1"},"vehicle_type_id":"4","last_reported":1752531075,"current_range_meters":6000,"station_id":"ce4bh2p2rcd13ifvqdi0","pricing_plan_id":"cebpf4jnsgd1na2vs0mg"},{"bike_id":"d99f12e3-74ea-4f3d-ba0c-00877d4c3030","system_id":"levelo_inurba_marseille","lat":43.28255,"lon":5.3728,"is_reserved":false,"is_disabled":false,"rental_uris":{"android":"levelo://app?vid=d99f12e3-74ea-4f3d-ba0c-00877d4c3030","ios":"levelo://app?vid=d99f12e3-74ea-4f3d-ba0c-00877d4c3030"},"vehicle_type_id":"4","last_reported":1752531075,"current_range_meters":6000,"station_id":"","pricing_plan_id":"cebpf4jnsgd1na2vs0mg"},{"bike_id":"f323aae7-625e-4bcb-bd08-177c6bd5840e","system_id":"levelo_inurba_marseille","lat":43.29539,"lon":5.39007,"is_reserved":false,"is_disabled":false,"rental_uris":{"android":"levelo://app?vid=f323aae7-625e-4bcb-bd08-177c6bd5840e","ios":"levelo://app?vid=f323aae7-625e-4bcb-bd08-177c6bd5840e"},"vehicle_type_id":"4","last_reported":1752531075,"current_range_meters":6000,"station_id":"ce4bh3p2rcd13ifvqdp0","pricing_plan_id":"cebpf4jnsgd1na2vs0mg"},{"bike_id":"c5fe914d-a9c4-4784-aa86-5f55fad6ba5d","system_id":"levelo_inurba_marseille","lat":43.31072,"lon":5.3836,"is_reserved":false,"is_disabled":true,"rental_uris":{"android":"levelo://app?vid=c5fe914d-a9c4-4784-aa86-5f55fad6ba5d","ios":"levelo://app?vid=c5fe914d-a9c4-4784-aa86-5f55fad6ba5d"},"vehicle_type_id":"4","last_reported":1752531075,"current_range_meters":6400,"station_id":"ce4bgv92rcd13ifvqcr0","pricing_plan_id":"cebpf4jnsgd1na2vs0mg"},{"bike_id":"37311a7a-f59e-4e2c-a003-dca2068330cb","system_id":"levelo_inurba_marseille","lat":43.246589,"lon":5.389309,"is_reserved":false,"is_disabled":false,"rental_uris":{"android":"levelo://app?vid=37311a7a-f59e-4e2c-a003-dca2068330cb","ios":"levelo://app?vid=37311a7a-f59e-4e2c-a003-dca2068330cb"},"vehicle_type_id":"4","last_reported":1752531075,"current_range_meters":6400,"station_id":"ce4bhg12rcd13ifvqf60","pricing_plan_id":"cebpf4jnsgd1na2vs0mg"},{"bike_id":"0b06863f-4966-47f0-952b-7d4b2e1a10fa","system_id":"levelo_inurba_marseille","lat":43.26802,"lon":5.40274,"is_reserved":false,"is_disabled":false,"rental_uris":{"android":"levelo://app?vid=0b06863f-4966-47f0-952b-7d4b2e1a10fa","ios":"levelo://app?vid=0b06863f-4966-47f0-952b-7d4b2e1a10fa"},"vehicle_type_id":"4","last_reported":1752531075,"current_range_meters":6400,"station_id":"ce501612rcd8frsf0b60","pricing_plan_id":"cebpf4jnsgd1na2vs0mg"},{"bike_id":"595531ce-f2cf-4c4e-b59a-ab394323de09","system_id":"levelo_inurba_marseille","lat":43.29261,"lon":5.38437,"is_reserved":false,"is_disabled":false,"rental_uris":{"android":"levelo://app?vid=595531ce-f2cf-4c4e-b59a-ab394323de09","ios":"levelo://app?vid=595531ce-f2cf-4c4e-b59a-ab394323de09"},"vehicle_type_id":"4","last_reported":1752531075,"current_range_meters":6400,"station_id":"ce4bh692rcd13ifvqea0","pricing_plan_id":"cebpf4jnsgd1na2vs0mg"},{"bike_id":"f23760ff-ab61-4853-aa67-28aac93822c1","system_id":"levelo_inurba_marseille","lat":43.337444,"lon":5.374475,"is_reserved":false,"is_disabled":false,"rental_uris":{"android":"levelo://app?vid=f23760ff-ab61-4853-aa67-28aac93822c1","ios":"levelo://app?vid=f23760ff-ab61-4853-aa67-28aac93822c1"},"vehicle_type_id":"4","last_reported":1752531075,"current_range_meters":6400,"station_id":"","pricing_plan_id":"cebpf4jnsgd1na2vs0mg"},{"bike_id":"d148d3a6-a8d7-40ca-acb9-8508427174f8","system_id":"levelo_inurba_marseille","lat":43.27305,"lon":5.39093,"is_reserved":false,"is_disabled":false,"rental_uris":{"android":"levelo://app?vid=d148d3a6-a8d7-40ca-acb9-8508427174f8","ios":"levelo://app?vid=d148d3a6-a8d7-40ca-acb9-8508427174f8"},"vehicle_type_id":"4","last_reported":1752531075,"current_range_meters":6800,"station_id":"ce4bhgp2rcd13ifvqfe0","pricing_plan_id":"cebpf4jnsgd1na2vs0mg"},{"bike_id":"179325ae-20c5-4898-b3c4-772c22526f21","system_id":"levelo_inurba_marseille","lat":43.24389,"lon":5.3706,"is_reserved":false,"is_disabled":false,"rental_uris":{"android":"levelo://app?vid=179325ae-20c5-4898-b3c4-772c22526f21","ios":"levelo://app?vid=179325ae-20c5-4898-b3c4-772c22526f21"},"vehicle_type_id":"4","last_reported":1752531075,"current_range_meters":6800,"station_id":"ce4bhhh2rcd13ifvqfk0","pricing_plan_id":"cebpf4jnsgd1na2vs0mg"},{"bike_id":"96be654d-532c-4e1a-b517-4f378df84a30","system_id":"levelo_inurba_marseille","lat":43.2928,"lon":5.40121,"is_reserved":false,"is_disabled":false,"rental_uris":{"android":"levelo://app?vid=96be654d-532c-4e1a-b517-4f378df84a30","ios":"levelo://app?vid=96be654d-532c-4e1a-b517-4f378df84a30"},"vehicle_type_id":"4","last_reported":1752531075,"current_range_meters":6800,"station_id":"ce4bh312rcd13ifvqdk0","pricing_plan_id":"cebpf4jnsgd1na2vs0mg"},{"bike_id":"f4da7ccf-9342-4e90-87af-9107015ae7b4","system_id":"levelo_inurba_marseille","lat":43.284057,"lon":5.375127,"is_reserved":false,"is_disabled":false,"rental_uris":{"android":"levelo://app?vid=f4da7ccf-9342-4e90-87af-9107015ae7b4","ios":"levelo://app?vid=f4da7ccf-9342-4e90-87af-9107015ae7b4"},"vehicle_type_id":"4","last_reported":1752531075,"current_range_meters":7200,"station_id":"ce4bh412rcd13ifvqds0","pricing_plan_id":"cebpf4jnsgd1na2vs0mg"},{"bike_id":"a726d9cf-327f-4be1-a12d-2ef4391eff8d","system_id":"levelo_inurba_marseille","lat":43.31173,"lon":5.38726,"is_reserved":false,"is_disabled":false,"rental_uris":{"android":"levelo://app?vid=a726d9cf-327f-4be1-a12d-2ef4391eff8d","ios":"levelo://app?vid=a726d9cf-327f-4be1-a12d-2ef4391eff8d"},"vehicle_type_id":"4","last_reported":1752531075,"current_range_meters":7200,"station_id":"ce4bgv12rcd13ifvqcp0","pricing_plan_id":"cebpf4jnsgd1na2vs0mg"},{"bike_id":"02aef44e-f3b8-46e5-9110-703b5bb9def3","system_id":"levelo_inurba_marseille","lat":43.27052,"lon":5.40263,"is_reserved":false,"is_disabled":false,"rental_uris":{"android":"levelo://app?vid=02aef44e-f3b8-46e5-9110-703b5bb9def3","ios":"levelo://app?vid=02aef44e-f3b8-46e5-9110-703b5bb9def3"},"vehicle_type_id":"4","last_reported":1752531075,"current_range_meters":7200,"station_id":"ce4bhk92rcd13ifvqgc0","pricing_plan_id":"cebpf4jnsgd1na2vs0mg"},{"bike_id":"958a80c8-4ef3-4722-8fab-8b7900193b39","system_id":"levelo_inurba_marseille","lat":43.31893,"lon":5.40752,"is_reserved":false,"is_disabled":true,"rental_uris":{"android":"levelo://app?vid=958a80c8-4ef3-4722-8fab-8b7900193b39","ios":"levelo://app?vid=958a80c8-4ef3-4722-8fab-8b7900193b39"},"vehicle_type_id":"4","last_reported":1752531075,"current_range_meters":7200,"station_id":"ce4bhq12rcd13ifvqhig","pricing_plan_id":"cebpf4jnsgd1na2vs0mg"},{"bike_id":"cc0b20f8-791b-4744-a788-bc73d1838bca","system_id":"levelo_inurba_marseille","lat":43.295141,"lon":5.394072,"is_reserved":false,"is_disabled":false,"rental_uris":{"android":"levelo://app?vid=cc0b20f8-791b-4744-a788-bc73d1838bca","ios":"levelo://app?vid=cc0b20f8-791b-4744-a788-bc73d1838bca"},"vehicle_type_id":"4","last_reported":1752531075,"current_range_meters":7200,"station_id":"ce4bh292rcd13ifvqdf0","pricing_plan_id":"cebpf4jnsgd1na2vs0mg"},{"bike_id":"f2d56ee6-dc62-4b10-8762-b5022e54ee7d","system_id":"levelo_inurba_marseille","lat":43.24172,"lon":5.39733,"is_reserved":false,"is_disabled":false,"rental_uris":{"android":"levelo://app?vid=f2d56ee6-dc62-4b10-8762-b5022e54ee7d","ios":"levelo://app?vid=f2d56ee6-dc62-4b10-8762-b5022e54ee7d"},"vehicle_type_id":"4","last_reported":1752531075,"current_range_meters":7200,"station_id":"ce4bhn12rcd13ifvqgpg","pricing_plan_id":"cebpf4jnsgd1na2vs0mg"},{"bike_id":"7203c0d5-ea15-46c1-805c-8ecc9fe7f557","system_id":"levelo_inurba_marseille","lat":43.22503,"lon":5.34789,"is_reserved":false,"is_disabled":false,"rental_uris":{"android":"levelo://app?vid=7203c0d5-ea15-46c1-805c-8ecc9fe7f557","ios":"levelo://app?vid=7203c0d5-ea15-46c1-805c-8ecc9fe7f557"},"vehicle_type_id":"4","last_reported":1752531075,"current_range_meters":8000,"station_id":"st_cvj5dfep6f1abm77gieg","pricing_plan_id":"cebpf4jnsgd1na2vs0mg"},{"bike_id":"8ba3896f-e71e-400d-8c94-b0b390503a16","system_id":"levelo_inurba_marseille","lat":43.24388,"lon":5.37057,"is_reserved":false,"is_disabled":false,"rental_uris":{"android":"levelo://app?vid=8ba3896f-e71e-400d-8c94-b0b390503a16","ios":"levelo://app?vid=8ba3896f-e71e-400d-8c94-b0b390503a16"},"vehicle_type_id":"4","last_reported":1752531075,"current_range_meters":8000,"station_id":"ce4bhhh2rcd13ifvqfk0","pricing_plan_id":"cebpf4jnsgd1na2vs0mg"},{"bike_id":"7d04ad7f-7767-4616-aa7c-33a5653e1ec0","system_id":"levelo_inurba_marseille","lat":43.25576,"lon":5.38228,"is_reserved":false,"is_disabled":false,"rental_uris":{"android":"levelo://app?vid=7d04ad7f-7767-4616-aa7c-33a5653e1ec0","ios":"levelo://app?vid=7d04ad7f-7767-4616-aa7c-33a5653e1ec0"},"vehicle_type_id":"4","last_reported":1752531075,"current_range_meters":5600,"station_id":"ce4bhih2rcd13ifvqfs0","pricing_plan_id":"cebpf4jnsgd1na2vs0mg"},{"bike_id":"27b32ee6-1858-4231-b033-f5885fb4efdf","system_id":"levelo_inurba_marseille","lat":43.28471,"lon":5.35891,"is_reserved":false,"is_disabled":false,"rental_uris":{"android":"levelo://app?vid=27b32ee6-1858-4231-b033-f5885fb4efdf","ios":"levelo://app?vid=27b32ee6-1858-4231-b033-f5885fb4efdf"},"vehicle_type_id":"4","last_reported":1752531075,"current_range_meters":8000,"station_id":"ce4bhah2rcd13ifvqei0","pricing_plan_id":"cebpf4jnsgd1na2vs0mg"},{"bike_id":"5c41a4dd-64b9-4c1e-8e99-e6c86f72a684","system_id":"levelo_inurba_marseille","lat":43.31112,"lon":5.37768,"is_reserved":false,"is_disabled":false,"rental_uris":{"android":"levelo://app?vid=5c41a4dd-64b9-4c1e-8e99-e6c86f72a684","ios":"levelo://app?vid=5c41a4dd-64b9-4c1e-8e99-e6c86f72a684"},"vehicle_type_id":"4","last_reported":1752531075,"current_range_meters":8000,"station_id":"ce4bgt92rcd13ifvqcg0","pricing_plan_id":"cebpf4jnsgd1na2vs0mg"},{"bike_id":"42d24a7c-ba31-4df1-b0ab-d6a027c83fdf","system_id":"levelo_inurba_marseille","lat":43.24649,"lon":5.38895,"is_reserved":false,"is_disabled":false,"rental_uris":{"android":"levelo://app?vid=42d24a7c-ba31-4df1-b0ab-d6a027c83fdf","ios":"levelo://app?vid=42d24a7c-ba31-4df1-b0ab-d6a027c83fdf"},"vehicle_type_id":"4","last_reported":1752531075,"current_range_meters":8000,"station_id":"ce4bhg12rcd13ifvqf60","pricing_plan_id":"cebpf4jnsgd1na2vs0mg"},{"bike_id":"8bdef944-36c8-4c3a-ab63-3c76f139643a","system_id":"levelo_inurba_marseille","lat":43.29786,"lon":5.38142,"is_reserved":false,"is_disabled":false,"rental_uris":{"android":"levelo://app?vid=8bdef944-36c8-4c3a-ab63-3c76f139643a","ios":"levelo://app?vid=8bdef944-36c8-4c3a-ab63-3c76f139643a"},"vehicle_type_id":"4","last_reported":1752531075,"current_range_meters":8400,"station_id":"ce4bgip2rcd13ifvqbb0","pricing_plan_id":"cebpf4jnsgd1na2vs0mg"},{"bike_id":"ae3a9462-b7ce-4cf3-991f-4caf86b0223e","system_id":"levelo_inurba_marseille","lat":43.30294,"lon":5.37695,"is_reserved":false,"is_disabled":false,"rental_uris":{"android":"levelo://app?vid=ae3a9462-b7ce-4cf3-991f-4caf86b0223e","ios":"levelo://app?vid=ae3a9462-b7ce-4cf3-991f-4caf86b0223e"},"vehicle_type_id":"4","last_reported":1752531075,"current_range_meters":8000,"station_id":"ce4bguh2rcd13ifvqcj0","pricing_plan_id":"cebpf4jnsgd1na2vs0mg"},{"bike_id":"093d88b0-c884-4b3d-9c85-70f15b88a520","system_id":"levelo_inurba_marseille","lat":43.2867,"lon":5.41269,"is_reserved":false,"is_disabled":true,"rental_uris":{"android":"levelo://app?vid=093d88b0-c884-4b3d-9c85-70f15b88a520","ios":"levelo://app?vid=093d88b0-c884-4b3d-9c85-70f15b88a520"},"vehicle_type_id":"4","last_reported":1752531075,"current_range_meters":8400,"station_id":"","pricing_plan_id":"cebpf4jnsgd1na2vs0mg"},{"bike_id":"b35cf213-5314-49fe-9ba8-edb918be91db","system_id":"levelo_inurba_marseille","lat":43.29524,"lon":5.39055,"is_reserved":false,"is_disabled":false,"rental_uris":{"android":"levelo://app?vid=b35cf213-5314-49fe-9ba8-edb918be91db","ios":"levelo://app?vid=b35cf213-5314-49fe-9ba8-edb918be91db"},"vehicle_type_id":"4","last_reported":1752531075,"current_range_meters":8400,"station_id":"ce4bh3p2rcd13ifvqdp0","pricing_plan_id":"cebpf4jnsgd1na2vs0mg"},{"bike_id":"06e58a03-6e9a-4572-becf-9507cdf0a57d","system_id":"levelo_inurba_marseille","lat":43.28155,"lon":5.42644,"is_reserved":false,"is_disabled":false,"rental_uris":{"android":"levelo://app?vid=06e58a03-6e9a-4572-becf-9507cdf0a57d","ios":"levelo://app?vid=06e58a03-6e9a-4572-becf-9507cdf0a57d"},"vehicle_type_id":"4","last_reported":1752531075,"current_range_meters":8400,"station_id":"ce4bhnh2rcd13ifvqgug","pricing_plan_id":"cebpf4jnsgd1na2vs0mg"},{"bike_id":"c647dc3f-c8e8-4312-8090-efa08f27b7ba","system_id":"levelo_inurba_marseille","lat":43.265536,"lon":5.372844,"is_reserved":false,"is_disabled":false,"rental_uris":{"android":"levelo://app?vid=c647dc3f-c8e8-4312-8090-efa08f27b7ba","ios":"levelo://app?vid=c647dc3f-c8e8-4312-8090-efa08f27b7ba"},"vehicle_type_id":"4","last_reported":1752531075,"current_range_meters":8400,"station_id":"ce4bhbh2rcd13ifvqeo0","pricing_plan_id":"cebpf4jnsgd1na2vs0mg"},{"bike_id":"5b3d7543-08e3-498a-82c8-d3eb8eb29e78","system_id":"levelo_inurba_marseille","lat":43.30134,"lon":5.38066,"is_reserved":false,"is_disabled":false,"rental_uris":{"android":"levelo://app?vid=5b3d7543-08e3-498a-82c8-d3eb8eb29e78","ios":"levelo://app?vid=5b3d7543-08e3-498a-82c8-d3eb8eb29e78"},"vehicle_type_id":"4","last_reported":1752531075,"current_range_meters":8400,"station_id":"ce4bgjp2rcd13ifvqbh0","pricing_plan_id":"cebpf4jnsgd1na2vs0mg"},{"bike_id":"5271d84b-0fb6-4320-87e8-da33f7fe3909","system_id":"levelo_inurba_marseille","lat":43.31264,"lon":5.40168,"is_reserved":false,"is_disabled":false,"rental_uris":{"android":"levelo://app?vid=5271d84b-0fb6-4320-87e8-da33f7fe3909","ios":"levelo://app?vid=5271d84b-0fb6-4320-87e8-da33f7fe3909"},"vehicle_type_id":"4","last_reported":1752531075,"current_range_meters":8800,"station_id":"ce4bh092rcd13ifvqd30","pricing_plan_id":"cebpf4jnsgd1na2vs0mg"},{"bike_id":"07b80ba8-94f7-4006-b883-d44157aa02a8","system_id":"levelo_inurba_marseille","lat":43.21187,"lon":5.3508,"is_reserved":false,"is_disabled":false,"rental_uris":{"android":"levelo://app?vid=07b80ba8-94f7-4006-b883-d44157aa02a8","ios":"levelo://app?vid=07b80ba8-94f7-4006-b883-d44157aa02a8"},"vehicle_type_id":"4","last_reported":1752531075,"current_range_meters":8800,"station_id":"st_cvj6sg6p6f1abm77japg","pricing_plan_id":"cebpf4jnsgd1na2vs0mg"},{"bike_id":"e3b686d1-f0b1-4887-9c05-4bc370c43021","system_id":"levelo_inurba_marseille","lat":43.2719,"lon":5.41035,"is_reserved":false,"is_disabled":true,"rental_uris":{"android":"levelo://app?vid=e3b686d1-f0b1-4887-9c05-4bc370c43021","ios":"levelo://app?vid=e3b686d1-f0b1-4887-9c05-4bc370c43021"},"vehicle_type_id":"4","last_reported":1752531075,"current_range_meters":8800,"station_id":"ce4bhl12rcd13ifvqgf0","pricing_plan_id":"cebpf4jnsgd1na2vs0mg"},{"bike_id":"c753679b-8903-4691-931a-728d063bd014","system_id":"levelo_inurba_marseille","lat":43.27836,"lon":5.392,"is_reserved":false,"is_disabled":false,"rental_uris":{"android":"levelo://app?vid=c753679b-8903-4691-931a-728d063bd014","ios":"levelo://app?vid=c753679b-8903-4691-931a-728d063bd014"},"vehicle_type_id":"4","last_reported":1752531075,"current_range_meters":8800,"station_id":"ce4bhjp2rcd13ifvqga0","pricing_plan_id":"cebpf4jnsgd1na2vs0mg"},{"bike_id":"ea07ccd5-4bc0-429f-86b0-041e02908e66","system_id":"levelo_inurba_marseille","lat":43.29282,"lon":5.40123,"is_reserved":false,"is_disabled":false,"rental_uris":{"android":"levelo://app?vid=ea07ccd5-4bc0-429f-86b0-041e02908e66","ios":"levelo://app?vid=ea07ccd5-4bc0-429f-86b0-041e02908e66"},"vehicle_type_id":"4","last_reported":1752531075,"current_range_meters":8800,"station_id":"ce4bh312rcd13ifvqdk0","pricing_plan_id":"cebpf4jnsgd1na2vs0mg"},{"bike_id":"66dc43eb-bfa4-40a5-bb08-a86f2205e7bc","system_id":"levelo_inurba_marseille","lat":43.2843,"lon":5.37511,"is_reserved":false,"is_disabled":false,"rental_uris":{"android":"levelo://app?vid=66dc43eb-bfa4-40a5-bb08-a86f2205e7bc","ios":"levelo://app?vid=66dc43eb-bfa4-40a5-bb08-a86f2205e7bc"},"vehicle_type_id":"4","last_reported":1752531075,"current_range_meters":8800,"station_id":"ce4bh412rcd13ifvqds0","pricing_plan_id":"cebpf4jnsgd1na2vs0mg"},{"bike_id":"d544640d-e905-4f88-9156-759bbeb1fd17","system_id":"levelo_inurba_marseille","lat":43.32405,"lon":5.36535,"is_reserved":false,"is_disabled":false,"rental_uris":{"android":"levelo://app?vid=d544640d-e905-4f88-9156-759bbeb1fd17","ios":"levelo://app?vid=d544640d-e905-4f88-9156-759bbeb1fd17"},"vehicle_type_id":"4","last_reported":1752531075,"current_range_meters":8800,"station_id":"","pricing_plan_id":"cebpf4jnsgd1na2vs0mg"},{"bike_id":"573f25f5-ee23-45dc-9227-cad831c6166d","system_id":"levelo_inurba_marseille","lat":43.295691,"lon":5.399517,"is_reserved":false,"is_disabled":false,"rental_uris":{"android":"levelo://app?vid=573f25f5-ee23-45dc-9227-cad831c6166d","ios":"levelo://app?vid=573f25f5-ee23-45dc-9227-cad831c6166d"},"vehicle_type_id":"4","last_reported":1752531075,"current_range_meters":8800,"station_id":"ce4bh312rcd13ifvqdj0","pricing_plan_id":"cebpf4jnsgd1na2vs0mg"},{"bike_id":"03d1d790-f4a1-4958-b7a6-aa3decd22076","system_id":"levelo_inurba_marseille","lat":43.31329,"lon":5.39692,"is_reserved":false,"is_disabled":false,"rental_uris":{"android":"levelo://app?vid=03d1d790-f4a1-4958-b7a6-aa3decd22076","ios":"levelo://app?vid=03d1d790-f4a1-4958-b7a6-aa3decd22076"},"vehicle_type_id":"4","last_reported":1752531075,"current_range_meters":8800,"station_id":"ce4bgvp2rcd13ifvqcu0","pricing_plan_id":"cebpf4jnsgd1na2vs0mg"},{"bike_id":"582534ef-e1aa-4ba1-9731-769e26599756","system_id":"levelo_inurba_marseille","lat":43.30211,"lon":5.39463,"is_reserved":false,"is_disabled":false,"rental_uris":{"android":"levelo://app?vid=582534ef-e1aa-4ba1-9731-769e26599756","ios":"levelo://app?vid=582534ef-e1aa-4ba1-9731-769e26599756"},"vehicle_type_id":"4","last_reported":1752531075,"current_range_meters":8800,"station_id":"ce4bh0p2rcd13ifvqd70","pricing_plan_id":"cebpf4jnsgd1na2vs0mg"},{"bike_id":"471adae4-57e4-40a5-96a8-bae0aae686dd","system_id":"levelo_inurba_marseille","lat":43.29778,"lon":5.37096,"is_reserved":false,"is_disabled":false,"rental_uris":{"android":"levelo://app?vid=471adae4-57e4-40a5-96a8-bae0aae686dd","ios":"levelo://app?vid=471adae4-57e4-40a5-96a8-bae0aae686dd"},"vehicle_type_id":"4","last_reported":1752531075,"current_range_meters":8800,"station_id":"ce4bgop2rcd13ifvqc1g","pricing_plan_id":"cebpf4jnsgd1na2vs0mg"},{"bike_id":"6c28151a-b15f-4acc-9efc-89400b21dfe1","system_id":"levelo_inurba_marseille","lat":43.26017,"lon":5.3755,"is_reserved":false,"is_disabled":true,"rental_uris":{"android":"levelo://app?vid=6c28151a-b15f-4acc-9efc-89400b21dfe1","ios":"levelo://app?vid=6c28151a-b15f-4acc-9efc-89400b21dfe1"},"vehicle_type_id":"4","last_reported":1752531075,"current_range_meters":9200,"station_id":"ce4bhgh2rcd13ifvqfa0","pricing_plan_id":"cebpf4jnsgd1na2vs0mg"},{"bike_id":"c5cc6be2-de31-45bb-ac38-e8bc875ef104","system_id":"levelo_inurba_marseille","lat":43.30929,"lon":5.40149,"is_reserved":false,"is_disabled":false,"rental_uris":{"android":"levelo://app?vid=c5cc6be2-de31-45bb-ac38-e8bc875ef104","ios":"levelo://app?vid=c5cc6be2-de31-45bb-ac38-e8bc875ef104"},"vehicle_type_id":"4","last_reported":1752531075,"current_range_meters":9200,"station_id":"ce4bgvp2rcd13ifvqct0","pricing_plan_id":"cebpf4jnsgd1na2vs0mg"},{"bike_id":"ee7389e8-c70c-49d8-b3fa-0e61aa11e9c6","system_id":"levelo_inurba_marseille","lat":43.30947,"lon":5.39034,"is_reserved":false,"is_disabled":false,"rental_uris":{"android":"levelo://app?vid=ee7389e8-c70c-49d8-b3fa-0e61aa11e9c6","ios":"levelo://app?vid=ee7389e8-c70c-49d8-b3fa-0e61aa11e9c6"},"vehicle_type_id":"4","last_reported":1752531075,"current_range_meters":9200,"station_id":"ce4bgup2rcd13ifvqco0","pricing_plan_id":"cebpf4jnsgd1na2vs0mg"},{"bike_id":"7a241db5-b7c0-4a3a-8fc8-493d39a61928","system_id":"levelo_inurba_marseille","lat":43.25819,"lon":5.39452,"is_reserved":false,"is_disabled":false,"rental_uris":{"android":"levelo://app?vid=7a241db5-b7c0-4a3a-8fc8-493d39a61928","ios":"levelo://app?vid=7a241db5-b7c0-4a3a-8fc8-493d39a61928"},"vehicle_type_id":"4","last_reported":1752531075,"current_range_meters":9200,"station_id":"ce4bhip2rcd13ifvqft0","pricing_plan_id":"cebpf4jnsgd1na2vs0mg"},{"bike_id":"f7a6eb81-b304-409f-9c47-8dc0148920c4","system_id":"levelo_inurba_marseille","lat":43.27963,"lon":5.38741,"is_reserved":false,"is_disabled":false,"rental_uris":{"android":"levelo://app?vid=f7a6eb81-b304-409f-9c47-8dc0148920c4","ios":"levelo://app?vid=f7a6eb81-b304-409f-9c47-8dc0148920c4"},"vehicle_type_id":"4","last_reported":1752531075,"current_range_meters":9200,"station_id":"ce4bhg12rcd13ifvqf80","pricing_plan_id":"cebpf4jnsgd1na2vs0mg"},{"bike_id":"7c77688b-e72f-49f5-8cc3-96e6479dc842","system_id":"levelo_inurba_marseille","lat":43.30877,"lon":5.39619,"is_reserved":false,"is_disabled":false,"rental_uris":{"android":"levelo://app?vid=7c77688b-e72f-49f5-8cc3-96e6479dc842","ios":"levelo://app?vid=7c77688b-e72f-49f5-8cc3-96e6479dc842"},"vehicle_type_id":"4","last_reported":1752531075,"current_range_meters":9200,"station_id":"ce4bh012rcd13ifvqcv0","pricing_plan_id":"cebpf4jnsgd1na2vs0mg"},{"bike_id":"825ecf09-c6ac-4d28-98b9-0ce26c037406","system_id":"levelo_inurba_marseille","lat":43.30886,"lon":5.39626,"is_reserved":false,"is_disabled":false,"rental_uris":{"android":"levelo://app?vid=825ecf09-c6ac-4d28-98b9-0ce26c037406","ios":"levelo://app?vid=825ecf09-c6ac-4d28-98b9-0ce26c037406"},"vehicle_type_id":"4","last_reported":1752531075,"current_range_meters":9200,"station_id":"ce4bh012rcd13ifvqcv0","pricing_plan_id":"cebpf4jnsgd1na2vs0mg"},{"bike_id":"a95c6fdc-3c4d-46b1-8a87-d88e273d71b1","system_id":"levelo_inurba_marseille","lat":43.28936,"lon":5.363934,"is_reserved":false,"is_disabled":true,"rental_uris":{"android":"levelo://app?vid=a95c6fdc-3c4d-46b1-8a87-d88e273d71b1","ios":"levelo://app?vid=a95c6fdc-3c4d-46b1-8a87-d88e273d71b1"},"vehicle_type_id":"4","last_reported":1752531075,"current_range_meters":9200,"station_id":"ce4bhc92rcd13ifvqetg","pricing_plan_id":"cebpf4jnsgd1na2vs0mg"},{"bike_id":"58375fde-ca97-4dab-be52-59caf98323d3","system_id":"levelo_inurba_marseille","lat":43.26561,"lon":5.37288,"is_reserved":false,"is_disabled":true,"rental_uris":{"android":"levelo://app?vid=58375fde-ca97-4dab-be52-59caf98323d3","ios":"levelo://app?vid=58375fde-ca97-4dab-be52-59caf98323d3"},"vehicle_type_id":"4","last_reported":1752531075,"current_range_meters":9200,"station_id":"ce4bhg12rcd13ifvqf70","pricing_plan_id":"cebpf4jnsgd1na2vs0mg"},{"bike_id":"808c8058-d509-441b-8c12-dd62175494d1","system_id":"levelo_inurba_marseille","lat":43.27973,"lon":5.38739,"is_reserved":false,"is_disabled":false,"rental_uris":{"android":"levelo://app?vid=808c8058-d509-441b-8c12-dd62175494d1","ios":"levelo://app?vid=808c8058-d509-441b-8c12-dd62175494d1"},"vehicle_type_id":"4","last_reported":1752531075,"current_range_meters":9200,"station_id":"ce4bhg12rcd13ifvqf80","pricing_plan_id":"cebpf4jnsgd1na2vs0mg"},{"bike_id":"035a80a0-4c0f-4627-9ca2-a0121fdb60e7","system_id":"levelo_inurba_marseille","lat":43.28567,"lon":5.395,"is_reserved":false,"is_disabled":false,"rental_uris":{"android":"levelo://app?vid=035a80a0-4c0f-4627-9ca2-a0121fdb60e7","ios":"levelo://app?vid=035a80a0-4c0f-4627-9ca2-a0121fdb60e7"},"vehicle_type_id":"4","last_reported":1752531075,"current_range_meters":9200,"station_id":"ce4bh292rcd13ifvqdg0","pricing_plan_id":"cebpf4jnsgd1na2vs0mg"},{"bike_id":"10515eba-80be-4942-bc42-9e4dc0b36ef1","system_id":"levelo_inurba_marseille","lat":43.29256,"lon":5.40909,"is_reserved":false,"is_disabled":false,"rental_uris":{"android":"levelo://app?vid=10515eba-80be-4942-bc42-9e4dc0b36ef1","ios":"levelo://app?vid=10515eba-80be-4942-bc42-9e4dc0b36ef1"},"vehicle_type_id":"4","last_reported":1752531075,"current_range_meters":9200,"station_id":"ce4bh192rcd13ifvqdc0","pricing_plan_id":"cebpf4jnsgd1na2vs0mg"},{"bike_id":"d6be7a33-3ebf-46de-9066-e00a0e74a66f","system_id":"levelo_inurba_marseille","lat":43.24544,"lon":5.3952,"is_reserved":false,"is_disabled":false,"rental_uris":{"android":"levelo://app?vid=d6be7a33-3ebf-46de-9066-e00a0e74a66f","ios":"levelo://app?vid=d6be7a33-3ebf-46de-9066-e00a0e74a66f"},"vehicle_type_id":"4","last_reported":1752531075,"current_range_meters":9200,"station_id":"ce4bhlp2rcd13ifvqgjg","pricing_plan_id":"cebpf4jnsgd1na2vs0mg"},{"bike_id":"a26215aa-9cdf-47e4-a0de-c2e5eb0d8d4c","system_id":"levelo_inurba_marseille","lat":43.284058,"lon":5.37508,"is_reserved":false,"is_disabled":false,"rental_uris":{"android":"levelo://app?vid=a26215aa-9cdf-47e4-a0de-c2e5eb0d8d4c","ios":"levelo://app?vid=a26215aa-9cdf-47e4-a0de-c2e5eb0d8d4c"},"vehicle_type_id":"4","last_reported":1752531075,"current_range_meters":9600,"station_id":"","pricing_plan_id":"cebpf4jnsgd1na2vs0mg"},{"bike_id":"45f48a03-302d-40b7-bf87-2150a19a64e6","system_id":"levelo_inurba_marseille","lat":43.29529,"lon":5.38549,"is_reserved":false,"is_disabled":false,"rental_uris":{"android":"levelo://app?vid=45f48a03-302d-40b7-bf87-2150a19a64e6","ios":"levelo://app?vid=45f48a03-302d-40b7-bf87-2150a19a64e6"},"vehicle_type_id":"4","last_reported":1752531075,"current_range_meters":9600,"station_id":"ce4bgih2rcd13ifvqba0","pricing_plan_id":"cebpf4jnsgd1na2vs0mg"},{"bike_id":"185e4ad4-b114-4192-92cd-875ebd7a148a","system_id":"levelo_inurba_marseille","lat":43.30932,"lon":5.40148,"is_reserved":false,"is_disabled":false,"rental_uris":{"android":"levelo://app?vid=185e4ad4-b114-4192-92cd-875ebd7a148a","ios":"levelo://app?vid=185e4ad4-b114-4192-92cd-875ebd7a148a"},"vehicle_type_id":"4","last_reported":1752531075,"current_range_meters":9600,"station_id":"ce4bgvp2rcd13ifvqct0","pricing_plan_id":"cebpf4jnsgd1na2vs0mg"},{"bike_id":"b9ae7f73-6f96-4521-8527-84c30c43f344","system_id":"levelo_inurba_marseille","lat":43.301293,"lon":5.39859,"is_reserved":false,"is_disabled":false,"rental_uris":{"android":"levelo://app?vid=b9ae7f73-6f96-4521-8527-84c30c43f344","ios":"levelo://app?vid=b9ae7f73-6f96-4521-8527-84c30c43f344"},"vehicle_type_id":"4","last_reported":1752531075,"current_range_meters":9600,"station_id":"ce4bh0h2rcd13ifvqd40","pricing_plan_id":"cebpf4jnsgd1na2vs0mg"},{"bike_id":"d916aace-830c-451e-a376-c1312f1fc6af","system_id":"levelo_inurba_marseille","lat":43.22515,"lon":5.34806,"is_reserved":false,"is_disabled":false,"rental_uris":{"android":"levelo://app?vid=d916aace-830c-451e-a376-c1312f1fc6af","ios":"levelo://app?vid=d916aace-830c-451e-a376-c1312f1fc6af"},"vehicle_type_id":"4","last_reported":1752531075,"current_range_meters":9600,"station_id":"","pricing_plan_id":"cebpf4jnsgd1na2vs0mg"},{"bike_id":"b98a711e-034d-43be-84fc-6ada57242358","system_id":"levelo_inurba_marseille","lat":43.25572,"lon":5.38249,"is_reserved":false,"is_disabled":false,"rental_uris":{"android":"levelo://app?vid=b98a711e-034d-43be-84fc-6ada57242358","ios":"levelo://app?vid=b98a711e-034d-43be-84fc-6ada57242358"},"vehicle_type_id":"4","last_reported":1752531075,"current_range_meters":9600,"station_id":"ce4bhih2rcd13ifvqfs0","pricing_plan_id":"cebpf4jnsgd1na2vs0mg"},{"bike_id":"47f0980c-a3e6-4edb-b5fd-8eb22477987e","system_id":"levelo_inurba_marseille","lat":43.24544,"lon":5.39526,"is_reserved":false,"is_disabled":false,"rental_uris":{"android":"levelo://app?vid=47f0980c-a3e6-4edb-b5fd-8eb22477987e","ios":"levelo://app?vid=47f0980c-a3e6-4edb-b5fd-8eb22477987e"},"vehicle_type_id":"4","last_reported":1752531075,"current_range_meters":9600,"station_id":"ce4bhlp2rcd13ifvqgjg","pricing_plan_id":"cebpf4jnsgd1na2vs0mg"},{"bike_id":"e5246bc1-7830-41c1-8db0-6946790df81c","system_id":"levelo_inurba_marseille","lat":43.24803,"lon":5.37457,"is_reserved":false,"is_disabled":false,"rental_uris":{"android":"levelo://app?vid=e5246bc1-7830-41c1-8db0-6946790df81c","ios":"levelo://app?vid=e5246bc1-7830-41c1-8db0-6946790df81c"},"vehicle_type_id":"4","last_reported":1752531075,"current_range_meters":9600,"station_id":"ce4bhgh2rcd13ifvqfb0","pricing_plan_id":"cebpf4jnsgd1na2vs0mg"},{"bike_id":"f0fe41d6-0866-46cf-9931-71e6d2939ce1","system_id":"levelo_inurba_marseille","lat":43.30137,"lon":5.39846,"is_reserved":false,"is_disabled":false,"rental_uris":{"android":"levelo://app?vid=f0fe41d6-0866-46cf-9931-71e6d2939ce1","ios":"levelo://app?vid=f0fe41d6-0866-46cf-9931-71e6d2939ce1"},"vehicle_type_id":"4","last_reported":1752531075,"current_range_meters":10000,"station_id":"ce4bh0h2rcd13ifvqd40","pricing_plan_id":"cebpf4jnsgd1na2vs0mg"},{"bike_id":"8e4765f4-7e5d-466f-b6ac-f01e6ae9ea64","system_id":"levelo_inurba_marseille","lat":43.239661,"lon":5.366242,"is_reserved":false,"is_disabled":false,"rental_uris":{"android":"levelo://app?vid=8e4765f4-7e5d-466f-b6ac-f01e6ae9ea64","ios":"levelo://app?vid=8e4765f4-7e5d-466f-b6ac-f01e6ae9ea64"},"vehicle_type_id":"4","last_reported":1752531075,"current_range_meters":10000,"station_id":"ce4bhi12rcd13ifvqfp0","pricing_plan_id":"cebpf4jnsgd1na2vs0mg"},{"bike_id":"e91de2d8-ee7e-43dc-9d96-20d5d4b8e0b3","system_id":"levelo_inurba_marseille","lat":43.24646,"lon":5.38892,"is_reserved":false,"is_disabled":false,"rental_uris":{"android":"levelo://app?vid=e91de2d8-ee7e-43dc-9d96-20d5d4b8e0b3","ios":"levelo://app?vid=e91de2d8-ee7e-43dc-9d96-20d5d4b8e0b3"},"vehicle_type_id":"4","last_reported":1752531075,"current_range_meters":10000,"station_id":"ce4bhg12rcd13ifvqf60","pricing_plan_id":"cebpf4jnsgd1na2vs0mg"},{"bike_id":"6b3e6343-d77f-425c-8e1a-32a7e7ff6a17","system_id":"levelo_inurba_marseille","lat":43.27903,"lon":5.38021,"is_reserved":false,"is_disabled":false,"rental_uris":{"android":"levelo://app?vid=6b3e6343-d77f-425c-8e1a-32a7e7ff6a17","ios":"levelo://app?vid=6b3e6343-d77f-425c-8e1a-32a7e7ff6a17"},"vehicle_type_id":"4","last_reported":1752531075,"current_range_meters":9600,"station_id":"ce4bhf92rcd13ifvqf50","pricing_plan_id":"cebpf4jnsgd1na2vs0mg"},{"bike_id":"d7db3c4c-a5d4-42d0-a982-db7ede10d60e","system_id":"levelo_inurba_marseille","lat":43.29528,"lon":5.38539,"is_reserved":false,"is_disabled":false,"rental_uris":{"android":"levelo://app?vid=d7db3c4c-a5d4-42d0-a982-db7ede10d60e","ios":"levelo://app?vid=d7db3c4c-a5d4-42d0-a982-db7ede10d60e"},"vehicle_type_id":"4","last_reported":1752531075,"current_range_meters":9200,"station_id":"ce4bgih2rcd13ifvqba0","pricing_plan_id":"cebpf4jnsgd1na2vs0mg"},{"bike_id":"856f2d23-2d4b-4e7d-9b18-dff24c595dd3","system_id":"levelo_inurba_marseille","lat":43.26762,"lon":5.3942,"is_reserved":false,"is_disabled":true,"rental_uris":{"android":"levelo://app?vid=856f2d23-2d4b-4e7d-9b18-dff24c595dd3","ios":"levelo://app?vid=856f2d23-2d4b-4e7d-9b18-dff24c595dd3"},"vehicle_type_id":"4","last_reported":1752531075,"current_range_meters":10000,"station_id":"ce4bhh12rcd13ifvqfg0","pricing_plan_id":"cebpf4jnsgd1na2vs0mg"},{"bike_id":"37626eea-b4cd-413b-9338-cfc83a688dd1","system_id":"levelo_inurba_marseille","lat":43.2894,"lon":5.39638,"is_reserved":false,"is_disabled":false,"rental_uris":{"android":"levelo://app?vid=37626eea-b4cd-413b-9338-cfc83a688dd1","ios":"levelo://app?vid=37626eea-b4cd-413b-9338-cfc83a688dd1"},"vehicle_type_id":"4","last_reported":1752531075,"current_range_meters":10000,"station_id":"ce4bh3h2rcd13ifvqdn0","pricing_plan_id":"cebpf4jnsgd1na2vs0mg"},{"bike_id":"6c454220-1e3a-4cb3-8aa8-2ce16d9a3083","system_id":"levelo_inurba_marseille","lat":43.28845,"lon":5.39312,"is_reserved":false,"is_disabled":false,"rental_uris":{"android":"levelo://app?vid=6c454220-1e3a-4cb3-8aa8-2ce16d9a3083","ios":"levelo://app?vid=6c454220-1e3a-4cb3-8aa8-2ce16d9a3083"},"vehicle_type_id":"4","last_reported":1752531075,"current_range_meters":10000,"station_id":"ce4bh2p2rcd13ifvqdi0","pricing_plan_id":"cebpf4jnsgd1na2vs0mg"},{"bike_id":"6eb986d1-4c2f-4b83-9889-ad251efc9968","system_id":"levelo_inurba_marseille","lat":43.314909,"lon":5.372914,"is_reserved":false,"is_disabled":false,"rental_uris":{"android":"levelo://app?vid=6eb986d1-4c2f-4b83-9889-ad251efc9968","ios":"levelo://app?vid=6eb986d1-4c2f-4b83-9889-ad251efc9968"},"vehicle_type_id":"4","last_reported":1752531075,"current_range_meters":10000,"station_id":"ce4bgt12rcd13ifvqcd0","pricing_plan_id":"cebpf4jnsgd1na2vs0mg"},{"bike_id":"911e07c0-2fea-4a0c-a64f-c153d444424e","system_id":"levelo_inurba_marseille","lat":43.301294,"lon":5.387704,"is_reserved":false,"is_disabled":false,"rental_uris":{"android":"levelo://app?vid=911e07c0-2fea-4a0c-a64f-c153d444424e","ios":"levelo://app?vid=911e07c0-2fea-4a0c-a64f-c153d444424e"},"vehicle_type_id":"4","last_reported":1752531075,"current_range_meters":10800,"station_id":"ce4bghh2rcd13ifvqb60","pricing_plan_id":"cebpf4jnsgd1na2vs0mg"},{"bike_id":"1fbaf219-67be-45b8-aacc-64d6722df546","system_id":"levelo_inurba_marseille","lat":43.29024,"lon":5.38627,"is_reserved":false,"is_disabled":true,"rental_uris":{"android":"levelo://app?vid=1fbaf219-67be-45b8-aacc-64d6722df546","ios":"levelo://app?vid=1fbaf219-67be-45b8-aacc-64d6722df546"},"vehicle_type_id":"4","last_reported":1752531075,"current_range_meters":10800,"station_id":"ce4bh4p2rcd13ifvqe0g","pricing_plan_id":"cebpf4jnsgd1na2vs0mg"},{"bike_id":"c14947c2-7b5b-4c03-b04b-d7f22fccfd67","system_id":"levelo_inurba_marseille","lat":43.2117,"lon":5.35076,"is_reserved":false,"is_disabled":false,"rental_uris":{"android":"levelo://app?vid=c14947c2-7b5b-4c03-b04b-d7f22fccfd67","ios":"levelo://app?vid=c14947c2-7b5b-4c03-b04b-d7f22fccfd67"},"vehicle_type_id":"4","last_reported":1752531075,"current_range_meters":10800,"station_id":"st_cvj6sg6p6f1abm77japg","pricing_plan_id":"cebpf4jnsgd1na2vs0mg"},{"bike_id":"d960247e-fcb0-4551-a66f-dd83895a31f6","system_id":"levelo_inurba_marseille","lat":43.32294,"lon":5.38271,"is_reserved":false,"is_disabled":true,"rental_uris":{"android":"levelo://app?vid=d960247e-fcb0-4551-a66f-dd83895a31f6","ios":"levelo://app?vid=d960247e-fcb0-4551-a66f-dd83895a31f6"},"vehicle_type_id":"4","last_reported":1752531075,"current_range_meters":10800,"station_id":"ce4bhr12rcd13ifvqhqg","pricing_plan_id":"cebpf4jnsgd1na2vs0mg"},{"bike_id":"63e2cb16-8f73-4965-8e2b-49f73eefa587","system_id":"levelo_inurba_marseille","lat":43.28927,"lon":5.36665,"is_reserved":false,"is_disabled":false,"rental_uris":{"android":"levelo://app?vid=63e2cb16-8f73-4965-8e2b-49f73eefa587","ios":"levelo://app?vid=63e2cb16-8f73-4965-8e2b-49f73eefa587"},"vehicle_type_id":"4","last_reported":1752531075,"current_range_meters":10800,"station_id":"ce4bhap2rcd13ifvqek0","pricing_plan_id":"cebpf4jnsgd1na2vs0mg"},{"bike_id":"53fa3204-82f3-47fd-8b2c-868295442e3c","system_id":"levelo_inurba_marseille","lat":43.28684,"lon":5.39996,"is_reserved":false,"is_disabled":false,"rental_uris":{"android":"levelo://app?vid=53fa3204-82f3-47fd-8b2c-868295442e3c","ios":"levelo://app?vid=53fa3204-82f3-47fd-8b2c-868295442e3c"},"vehicle_type_id":"4","last_reported":1752531075,"current_range_meters":10000,"station_id":"ce4bho92rcd13ifvqh3g","pricing_plan_id":"cebpf4jnsgd1na2vs0mg"},{"bike_id":"59a860e9-cc23-49cc-9147-79034be56af1","system_id":"levelo_inurba_marseille","lat":43.29301,"lon":5.37436,"is_reserved":false,"is_disabled":true,"rental_uris":{"android":"levelo://app?vid=59a860e9-cc23-49cc-9147-79034be56af1","ios":"levelo://app?vid=59a860e9-cc23-49cc-9147-79034be56af1"},"vehicle_type_id":"4","last_reported":1752531075,"current_range_meters":10800,"station_id":"ce4bgi12rcd13ifvqb70","pricing_plan_id":"cebpf4jnsgd1na2vs0mg"},{"bike_id":"26c57933-10b3-416e-9bce-57e9400249fd","system_id":"levelo_inurba_marseille","lat":43.32106,"lon":5.36773,"is_reserved":false,"is_disabled":false,"rental_uris":{"android":"levelo://app?vid=26c57933-10b3-416e-9bce-57e9400249fd","ios":"levelo://app?vid=26c57933-10b3-416e-9bce-57e9400249fd"},"vehicle_type_id":"4","last_reported":1752531075,"current_range_meters":10800,"station_id":"ce4bhrh2rcd13ifvqhug","pricing_plan_id":"cebpf4jnsgd1na2vs0mg"},{"bike_id":"909003b7-f7cf-4ca8-8afd-79d4b8a17122","system_id":"levelo_inurba_marseille","lat":43.23964,"lon":5.36633,"is_reserved":false,"is_disabled":false,"rental_uris":{"android":"levelo://app?vid=909003b7-f7cf-4ca8-8afd-79d4b8a17122","ios":"levelo://app?vid=909003b7-f7cf-4ca8-8afd-79d4b8a17122"},"vehicle_type_id":"4","last_reported":1752531075,"current_range_meters":10800,"station_id":"ce4bhi12rcd13ifvqfp0","pricing_plan_id":"cebpf4jnsgd1na2vs0mg"},{"bike_id":"da4b526e-9943-4580-b1ae-ef2446d83bda","system_id":"levelo_inurba_marseille","lat":43.31686,"lon":5.40479,"is_reserved":false,"is_disabled":false,"rental_uris":{"android":"levelo://app?vid=da4b526e-9943-4580-b1ae-ef2446d83bda","ios":"levelo://app?vid=da4b526e-9943-4580-b1ae-ef2446d83bda"},"vehicle_type_id":"4","last_reported":1752531075,"current_range_meters":10800,"station_id":"ce4bh012rcd13ifvqd00","pricing_plan_id":"cebpf4jnsgd1na2vs0mg"},{"bike_id":"9500fa94-fc5b-4efa-8a35-8626fa5c4517","system_id":"levelo_inurba_marseille","lat":43.25575,"lon":5.38243,"is_reserved":false,"is_disabled":false,"rental_uris":{"android":"levelo://app?vid=9500fa94-fc5b-4efa-8a35-8626fa5c4517","ios":"levelo://app?vid=9500fa94-fc5b-4efa-8a35-8626fa5c4517"},"vehicle_type_id":"4","last_reported":1752531075,"current_range_meters":11200,"station_id":"ce4bhih2rcd13ifvqfs0","pricing_plan_id":"cebpf4jnsgd1na2vs0mg"},{"bike_id":"58b57eb2-7587-4636-ad4d-2cec9cf33009","system_id":"levelo_inurba_marseille","lat":43.29519,"lon":5.39404,"is_reserved":false,"is_disabled":false,"rental_uris":{"android":"levelo://app?vid=58b57eb2-7587-4636-ad4d-2cec9cf33009","ios":"levelo://app?vid=58b57eb2-7587-4636-ad4d-2cec9cf33009"},"vehicle_type_id":"4","last_reported":1752531075,"current_range_meters":11200,"station_id":"ce4bh292rcd13ifvqdf0","pricing_plan_id":"cebpf4jnsgd1na2vs0mg"},{"bike_id":"e9b3efd3-34f3-4b3e-ba50-8aa3df771f40","system_id":"levelo_inurba_marseille","lat":43.2894,"lon":5.3669,"is_reserved":false,"is_disabled":false,"rental_uris":{"android":"levelo://app?vid=e9b3efd3-34f3-4b3e-ba50-8aa3df771f40","ios":"levelo://app?vid=e9b3efd3-34f3-4b3e-ba50-8aa3df771f40"},"vehicle_type_id":"4","last_reported":1752531075,"current_range_meters":11200,"station_id":"ce4bhap2rcd13ifvqek0","pricing_plan_id":"cebpf4jnsgd1na2vs0mg"},{"bike_id":"b192ea21-550c-4c35-8bfe-b637cda677f1","system_id":"levelo_inurba_marseille","lat":43.27806,"lon":5.40727,"is_reserved":false,"is_disabled":false,"rental_uris":{"android":"levelo://app?vid=b192ea21-550c-4c35-8bfe-b637cda677f1","ios":"levelo://app?vid=b192ea21-550c-4c35-8bfe-b637cda677f1"},"vehicle_type_id":"4","last_reported":1752531075,"current_range_meters":11200,"station_id":"ce4bhnh2rcd13ifvqgtg","pricing_plan_id":"cebpf4jnsgd1na2vs0mg"},{"bike_id":"087d0547-a2e0-4b2f-a216-e42a3464a98a","system_id":"levelo_inurba_marseille","lat":43.289719,"lon":5.385483,"is_reserved":false,"is_disabled":false,"rental_uris":{"android":"levelo://app?vid=087d0547-a2e0-4b2f-a216-e42a3464a98a","ios":"levelo://app?vid=087d0547-a2e0-4b2f-a216-e42a3464a98a"},"vehicle_type_id":"4","last_reported":1752531075,"current_range_meters":11200,"station_id":"ce4bh4p2rcd13ifvqe0g","pricing_plan_id":"cebpf4jnsgd1na2vs0mg"},{"bike_id":"5e8b5442-de15-4738-b411-3a1df24874ad","system_id":"levelo_inurba_marseille","lat":43.24388,"lon":5.3707,"is_reserved":false,"is_disabled":false,"rental_uris":{"android":"levelo://app?vid=5e8b5442-de15-4738-b411-3a1df24874ad","ios":"levelo://app?vid=5e8b5442-de15-4738-b411-3a1df24874ad"},"vehicle_type_id":"4","last_reported":1752531075,"current_range_meters":11200,"station_id":"ce4bhhh2rcd13ifvqfk0","pricing_plan_id":"cebpf4jnsgd1na2vs0mg"},{"bike_id":"32ccccf2-c10b-425c-b6f0-9bdf5b867cb8","system_id":"levelo_inurba_marseille","lat":43.30895,"lon":5.37184,"is_reserved":false,"is_disabled":false,"rental_uris":{"android":"levelo://app?vid=32ccccf2-c10b-425c-b6f0-9bdf5b867cb8","ios":"levelo://app?vid=32ccccf2-c10b-425c-b6f0-9bdf5b867cb8"},"vehicle_type_id":"4","last_reported":1752531075,"current_range_meters":11200,"station_id":"ce4bguh2rcd13ifvqckg","pricing_plan_id":"cebpf4jnsgd1na2vs0mg"},{"bike_id":"be00edbe-4f9c-4486-b8b7-b87b0dedfbf8","system_id":"levelo_inurba_marseille","lat":43.28936,"lon":5.36643,"is_reserved":false,"is_disabled":false,"rental_uris":{"android":"levelo://app?vid=be00edbe-4f9c-4486-b8b7-b87b0dedfbf8","ios":"levelo://app?vid=be00edbe-4f9c-4486-b8b7-b87b0dedfbf8"},"vehicle_type_id":"4","last_reported":1752531075,"current_range_meters":11200,"station_id":"ce4bhap2rcd13ifvqek0","pricing_plan_id":"cebpf4jnsgd1na2vs0mg"},{"bike_id":"8a01e88a-8371-4085-9838-47ae11897cd3","system_id":"levelo_inurba_marseille","lat":43.28149,"lon":5.42656,"is_reserved":false,"is_disabled":true,"rental_uris":{"android":"levelo://app?vid=8a01e88a-8371-4085-9838-47ae11897cd3","ios":"levelo://app?vid=8a01e88a-8371-4085-9838-47ae11897cd3"},"vehicle_type_id":"4","last_reported":1752531075,"current_range_meters":11200,"station_id":"ce4bhnh2rcd13ifvqgug","pricing_plan_id":"cebpf4jnsgd1na2vs0mg"},{"bike_id":"5547f9ab-fa7e-4bd1-b168-955f96135e91","system_id":"levelo_inurba_marseille","lat":43.2926,"lon":5.38437,"is_reserved":false,"is_disabled":false,"rental_uris":{"android":"levelo://app?vid=5547f9ab-fa7e-4bd1-b168-955f96135e91","ios":"levelo://app?vid=5547f9ab-fa7e-4bd1-b168-955f96135e91"},"vehicle_type_id":"4","last_reported":1752531075,"current_range_meters":11200,"station_id":"ce4bh692rcd13ifvqea0","pricing_plan_id":"cebpf4jnsgd1na2vs0mg"},{"bike_id":"c8c4de1a-846f-4f5b-aace-9fb14bf7ad52","system_id":"levelo_inurba_marseille","lat":43.21191,"lon":5.350713,"is_reserved":false,"is_disabled":false,"rental_uris":{"android":"levelo://app?vid=c8c4de1a-846f-4f5b-aace-9fb14bf7ad52","ios":"levelo://app?vid=c8c4de1a-846f-4f5b-aace-9fb14bf7ad52"},"vehicle_type_id":"4","last_reported":1752531075,"current_range_meters":11200,"station_id":"st_cvj6sg6p6f1abm77japg","pricing_plan_id":"cebpf4jnsgd1na2vs0mg"},{"bike_id":"6e503e43-f522-474d-9f12-a9b267cfa6dd","system_id":"levelo_inurba_marseille","lat":43.29527,"lon":5.38546,"is_reserved":false,"is_disabled":false,"rental_uris":{"android":"levelo://app?vid=6e503e43-f522-474d-9f12-a9b267cfa6dd","ios":"levelo://app?vid=6e503e43-f522-474d-9f12-a9b267cfa6dd"},"vehicle_type_id":"4","last_reported":1752531075,"current_range_meters":11200,"station_id":"ce4bgih2rcd13ifvqba0","pricing_plan_id":"cebpf4jnsgd1na2vs0mg"},{"bike_id":"088e6b1d-8a81-47e0-9ad0-36233ed399c0","system_id":"levelo_inurba_marseille","lat":43.279238,"lon":5.395666,"is_reserved":false,"is_disabled":true,"rental_uris":{"android":"levelo://app?vid=088e6b1d-8a81-47e0-9ad0-36233ed399c0","ios":"levelo://app?vid=088e6b1d-8a81-47e0-9ad0-36233ed399c0"},"vehicle_type_id":"4","last_reported":1752531075,"current_range_meters":11200,"station_id":"ce4bhf92rcd13ifvqf40","pricing_plan_id":"cebpf4jnsgd1na2vs0mg"},{"bike_id":"ffa5ccb4-905c-4e50-802b-1c1f9b2cbe03","system_id":"levelo_inurba_marseille","lat":43.21187,"lon":5.35081,"is_reserved":false,"is_disabled":false,"rental_uris":{"android":"levelo://app?vid=ffa5ccb4-905c-4e50-802b-1c1f9b2cbe03","ios":"levelo://app?vid=ffa5ccb4-905c-4e50-802b-1c1f9b2cbe03"},"vehicle_type_id":"4","last_reported":1752531075,"current_range_meters":11600,"station_id":"","pricing_plan_id":"cebpf4jnsgd1na2vs0mg"},{"bike_id":"5f6ad6d6-74fc-457e-91b7-0613ff15d659","system_id":"levelo_inurba_marseille","lat":43.304306,"lon":5.388973,"is_reserved":false,"is_disabled":false,"rental_uris":{"android":"levelo://app?vid=5f6ad6d6-74fc-457e-91b7-0613ff15d659","ios":"levelo://app?vid=5f6ad6d6-74fc-457e-91b7-0613ff15d659"},"vehicle_type_id":"4","last_reported":1752531075,"current_range_meters":11600,"station_id":"ce4bgk12rcd13ifvqbi0","pricing_plan_id":"cebpf4jnsgd1na2vs0mg"},{"bike_id":"f5743c3c-bbb8-4a52-a86d-99c9f02990b6","system_id":"levelo_inurba_marseille","lat":43.31119,"lon":5.37758,"is_reserved":false,"is_disabled":false,"rental_uris":{"android":"levelo://app?vid=f5743c3c-bbb8-4a52-a86d-99c9f02990b6","ios":"levelo://app?vid=f5743c3c-bbb8-4a52-a86d-99c9f02990b6"},"vehicle_type_id":"4","last_reported":1752531075,"current_range_meters":11600,"station_id":"ce4bgt92rcd13ifvqcg0","pricing_plan_id":"cebpf4jnsgd1na2vs0mg"},{"bike_id":"a4d07f45-19f9-4df9-9728-be6623530a64","system_id":"levelo_inurba_marseille","lat":43.23702,"lon":5.38869,"is_reserved":false,"is_disabled":false,"rental_uris":{"android":"levelo://app?vid=a4d07f45-19f9-4df9-9728-be6623530a64","ios":"levelo://app?vid=a4d07f45-19f9-4df9-9728-be6623530a64"},"vehicle_type_id":"4","last_reported":1752531075,"current_range_meters":11600,"station_id":"","pricing_plan_id":"cebpf4jnsgd1na2vs0mg"},{"bike_id":"e91ced2f-2041-4b38-8446-0d5d97adec95","system_id":"levelo_inurba_marseille","lat":43.25571,"lon":5.38247,"is_reserved":false,"is_disabled":true,"rental_uris":{"android":"levelo://app?vid=e91ced2f-2041-4b38-8446-0d5d97adec95","ios":"levelo://app?vid=e91ced2f-2041-4b38-8446-0d5d97adec95"},"vehicle_type_id":"4","last_reported":1752531075,"current_range_meters":11600,"station_id":"ce4bhih2rcd13ifvqfs0","pricing_plan_id":"cebpf4jnsgd1na2vs0mg"},{"bike_id":"0179bf21-e753-4323-a63e-d69b5b2b3879","system_id":"levelo_inurba_marseille","lat":43.24645,"lon":5.38891,"is_reserved":false,"is_disabled":true,"rental_uris":{"android":"levelo://app?vid=0179bf21-e753-4323-a63e-d69b5b2b3879","ios":"levelo://app?vid=0179bf21-e753-4323-a63e-d69b5b2b3879"},"vehicle_type_id":"4","last_reported":1752531075,"current_range_meters":11600,"station_id":"ce4bhg12rcd13ifvqf60","pricing_plan_id":"cebpf4jnsgd1na2vs0mg"},{"bike_id":"9b1afee0-5d71-42b1-bfb3-0f11fa1e097d","system_id":"levelo_inurba_marseille","lat":43.292534,"lon":5.376396,"is_reserved":false,"is_disabled":false,"rental_uris":{"android":"levelo://app?vid=9b1afee0-5d71-42b1-bfb3-0f11fa1e097d","ios":"levelo://app?vid=9b1afee0-5d71-42b1-bfb3-0f11fa1e097d"},"vehicle_type_id":"4","last_reported":1752531075,"current_range_meters":12000,"station_id":"","pricing_plan_id":"cebpf4jnsgd1na2vs0mg"},{"bike_id":"c1ad5263-3edd-4ee9-bac2-3770913757b1","system_id":"levelo_inurba_marseille","lat":43.29959,"lon":5.41319,"is_reserved":false,"is_disabled":false,"rental_uris":{"android":"levelo://app?vid=c1ad5263-3edd-4ee9-bac2-3770913757b1","ios":"levelo://app?vid=c1ad5263-3edd-4ee9-bac2-3770913757b1"},"vehicle_type_id":"4","last_reported":1752531075,"current_range_meters":12000,"station_id":"ce4bhp12rcd13ifvqh9g","pricing_plan_id":"cebpf4jnsgd1na2vs0mg"},{"bike_id":"4a19e4ee-cbbe-4fd8-9e6c-310afa6ee6c9","system_id":"levelo_inurba_marseille","lat":43.2318,"lon":5.39983,"is_reserved":false,"is_disabled":true,"rental_uris":{"android":"levelo://app?vid=4a19e4ee-cbbe-4fd8-9e6c-310afa6ee6c9","ios":"levelo://app?vid=4a19e4ee-cbbe-4fd8-9e6c-310afa6ee6c9"},"vehicle_type_id":"4","last_reported":1752531075,"current_range_meters":12000,"station_id":"ce4bhn12rcd13ifvqgqg","pricing_plan_id":"cebpf4jnsgd1na2vs0mg"},{"bike_id":"f5a47db5-6fb2-46bd-a2de-efa4ad13bf60","system_id":"levelo_inurba_marseille","lat":43.21184,"lon":5.35086,"is_reserved":false,"is_disabled":false,"rental_uris":{"android":"levelo://app?vid=f5a47db5-6fb2-46bd-a2de-efa4ad13bf60","ios":"levelo://app?vid=f5a47db5-6fb2-46bd-a2de-efa4ad13bf60"},"vehicle_type_id":"4","last_reported":1752531075,"current_range_meters":12000,"station_id":"st_cvj6sg6p6f1abm77japg","pricing_plan_id":"cebpf4jnsgd1na2vs0mg"},{"bike_id":"4e058aa0-cf33-4c89-b60f-c4aa161574b8","system_id":"levelo_inurba_marseille","lat":43.27495,"lon":5.42449,"is_reserved":false,"is_disabled":false,"rental_uris":{"android":"levelo://app?vid=4e058aa0-cf33-4c89-b60f-c4aa161574b8","ios":"levelo://app?vid=4e058aa0-cf33-4c89-b60f-c4aa161574b8"},"vehicle_type_id":"4","last_reported":1752531075,"current_range_meters":12000,"station_id":"ce4bhn92rcd13ifvqgrg","pricing_plan_id":"cebpf4jnsgd1na2vs0mg"},{"bike_id":"5f2eb0d0-bf7b-4daf-bca6-ead9755d559f","system_id":"levelo_inurba_marseille","lat":43.28394,"lon":5.37521,"is_reserved":false,"is_disabled":false,"rental_uris":{"android":"levelo://app?vid=5f2eb0d0-bf7b-4daf-bca6-ead9755d559f","ios":"levelo://app?vid=5f2eb0d0-bf7b-4daf-bca6-ead9755d559f"},"vehicle_type_id":"4","last_reported":1752531075,"current_range_meters":12000,"station_id":"ce4bh412rcd13ifvqds0","pricing_plan_id":"cebpf4jnsgd1na2vs0mg"},{"bike_id":"9fce1b76-6a5b-447e-9a75-9acfd4eb229b","system_id":"levelo_inurba_marseille","lat":43.31358,"lon":5.38491,"is_reserved":false,"is_disabled":false,"rental_uris":{"android":"levelo://app?vid=9fce1b76-6a5b-447e-9a75-9acfd4eb229b","ios":"levelo://app?vid=9fce1b76-6a5b-447e-9a75-9acfd4eb229b"},"vehicle_type_id":"4","last_reported":1752531075,"current_range_meters":12000,"station_id":"ce4bgt92rcd13ifvqcf0","pricing_plan_id":"cebpf4jnsgd1na2vs0mg"},{"bike_id":"2a0aedde-7f30-493f-9aae-d292c759cf7c","system_id":"levelo_inurba_marseille","lat":43.2791,"lon":5.39583,"is_reserved":false,"is_disabled":false,"rental_uris":{"android":"levelo://app?vid=2a0aedde-7f30-493f-9aae-d292c759cf7c","ios":"levelo://app?vid=2a0aedde-7f30-493f-9aae-d292c759cf7c"},"vehicle_type_id":"4","last_reported":1752531075,"current_range_meters":12000,"station_id":"ce4bhf92rcd13ifvqf40","pricing_plan_id":"cebpf4jnsgd1na2vs0mg"},{"bike_id":"697d5fc4-b988-4a4e-8323-c1ce5ed61a61","system_id":"levelo_inurba_marseille","lat":43.21185,"lon":5.35088,"is_reserved":false,"is_disabled":false,"rental_uris":{"android":"levelo://app?vid=697d5fc4-b988-4a4e-8323-c1ce5ed61a61","ios":"levelo://app?vid=697d5fc4-b988-4a4e-8323-c1ce5ed61a61"},"vehicle_type_id":"4","last_reported":1752531075,"current_range_meters":12400,"station_id":"st_cvj6sg6p6f1abm77japg","pricing_plan_id":"cebpf4jnsgd1na2vs0mg"},{"bike_id":"df737b47-6e09-4542-8d35-f3681d0e6a4d","system_id":"levelo_inurba_marseille","lat":43.27613,"lon":5.36115,"is_reserved":false,"is_disabled":true,"rental_uris":{"android":"levelo://app?vid=df737b47-6e09-4542-8d35-f3681d0e6a4d","ios":"levelo://app?vid=df737b47-6e09-4542-8d35-f3681d0e6a4d"},"vehicle_type_id":"4","last_reported":1752531075,"current_range_meters":12400,"station_id":"ce4bgj92rcd13ifvqbe0","pricing_plan_id":"cebpf4jnsgd1na2vs0mg"},{"bike_id":"e1442ff3-c767-4bb3-901d-e5f60873ad13","system_id":"levelo_inurba_marseille","lat":43.23176,"lon":5.40014,"is_reserved":false,"is_disabled":false,"rental_uris":{"android":"levelo://app?vid=e1442ff3-c767-4bb3-901d-e5f60873ad13","ios":"levelo://app?vid=e1442ff3-c767-4bb3-901d-e5f60873ad13"},"vehicle_type_id":"4","last_reported":1752531075,"current_range_meters":12400,"station_id":"ce4bhn12rcd13ifvqgqg","pricing_plan_id":"cebpf4jnsgd1na2vs0mg"},{"bike_id":"08dbf31c-b540-4ca6-b57d-3481ea73d97b","system_id":"levelo_inurba_marseille","lat":43.22504,"lon":5.34787,"is_reserved":false,"is_disabled":false,"rental_uris":{"android":"levelo://app?vid=08dbf31c-b540-4ca6-b57d-3481ea73d97b","ios":"levelo://app?vid=08dbf31c-b540-4ca6-b57d-3481ea73d97b"},"vehicle_type_id":"4","last_reported":1752531075,"current_range_meters":12400,"station_id":"st_cvj5dfep6f1abm77gieg","pricing_plan_id":"cebpf4jnsgd1na2vs0mg"},{"bike_id":"60209f49-6ff6-4616-826f-98216f69ccd7","system_id":"levelo_inurba_marseille","lat":43.30425,"lon":5.38892,"is_reserved":false,"is_disabled":false,"rental_uris":{"android":"levelo://app?vid=60209f49-6ff6-4616-826f-98216f69ccd7","ios":"levelo://app?vid=60209f49-6ff6-4616-826f-98216f69ccd7"},"vehicle_type_id":"4","last_reported":1752531075,"current_range_meters":12400,"station_id":"ce4bgk12rcd13ifvqbi0","pricing_plan_id":"cebpf4jnsgd1na2vs0mg"},{"bike_id":"6ac174d4-75c5-4a9c-9699-97cd631c6e65","system_id":"levelo_inurba_marseille","lat":43.25475,"lon":5.39971,"is_reserved":false,"is_disabled":false,"rental_uris":{"android":"levelo://app?vid=6ac174d4-75c5-4a9c-9699-97cd631c6e65","ios":"levelo://app?vid=6ac174d4-75c5-4a9c-9699-97cd631c6e65"},"vehicle_type_id":"4","last_reported":1752531075,"current_range_meters":12800,"station_id":"","pricing_plan_id":"cebpf4jnsgd1na2vs0mg"},{"bike_id":"ebaa6aad-fb33-4f34-be38-4476a2ff67ca","system_id":"levelo_inurba_marseille","lat":43.29534,"lon":5.39029,"is_reserved":false,"is_disabled":false,"rental_uris":{"android":"levelo://app?vid=ebaa6aad-fb33-4f34-be38-4476a2ff67ca","ios":"levelo://app?vid=ebaa6aad-fb33-4f34-be38-4476a2ff67ca"},"vehicle_type_id":"4","last_reported":1752531075,"current_range_meters":12800,"station_id":"ce4bh3p2rcd13ifvqdp0","pricing_plan_id":"cebpf4jnsgd1na2vs0mg"},{"bike_id":"4c870332-d305-4911-b11e-97de461434d6","system_id":"levelo_inurba_marseille","lat":43.28151,"lon":5.42649,"is_reserved":false,"is_disabled":false,"rental_uris":{"android":"levelo://app?vid=4c870332-d305-4911-b11e-97de461434d6","ios":"levelo://app?vid=4c870332-d305-4911-b11e-97de461434d6"},"vehicle_type_id":"4","last_reported":1752531075,"current_range_meters":12800,"station_id":"ce4bhnh2rcd13ifvqgug","pricing_plan_id":"cebpf4jnsgd1na2vs0mg"},{"bike_id":"e39d72a8-1c3e-4dce-a3c9-7069cc0fb06f","system_id":"levelo_inurba_marseille","lat":43.27941,"lon":5.41054,"is_reserved":false,"is_disabled":false,"rental_uris":{"android":"levelo://app?vid=e39d72a8-1c3e-4dce-a3c9-7069cc0fb06f","ios":"levelo://app?vid=e39d72a8-1c3e-4dce-a3c9-7069cc0fb06f"},"vehicle_type_id":"4","last_reported":1752531075,"current_range_meters":12800,"station_id":"ce4bhnp2rcd13ifvqh0g","pricing_plan_id":"cebpf4jnsgd1na2vs0mg"},{"bike_id":"57545d49-1aed-428f-813d-e32110b798bd","system_id":"levelo_inurba_marseille","lat":43.27169,"lon":5.40998,"is_reserved":false,"is_disabled":false,"rental_uris":{"android":"levelo://app?vid=57545d49-1aed-428f-813d-e32110b798bd","ios":"levelo://app?vid=57545d49-1aed-428f-813d-e32110b798bd"},"vehicle_type_id":"4","last_reported":1752531075,"current_range_meters":12800,"station_id":"ce4bhl12rcd13ifvqgf0","pricing_plan_id":"cebpf4jnsgd1na2vs0mg"},{"bike_id":"cc6af2ce-5b0c-4719-bd90-b6aecaab6aae","system_id":"levelo_inurba_marseille","lat":43.30182,"lon":5.36635,"is_reserved":false,"is_disabled":false,"rental_uris":{"android":"levelo://app?vid=cc6af2ce-5b0c-4719-bd90-b6aecaab6aae","ios":"levelo://app?vid=cc6af2ce-5b0c-4719-bd90-b6aecaab6aae"},"vehicle_type_id":"4","last_reported":1752531075,"current_range_meters":12800,"station_id":"ce4bgrh2rcd13ifvqc8g","pricing_plan_id":"cebpf4jnsgd1na2vs0mg"},{"bike_id":"b55cf3b6-06d8-4edc-8bb1-b2f67a61831c","system_id":"levelo_inurba_marseille","lat":43.2979,"lon":5.3935,"is_reserved":false,"is_disabled":false,"rental_uris":{"android":"levelo://app?vid=b55cf3b6-06d8-4edc-8bb1-b2f67a61831c","ios":"levelo://app?vid=b55cf3b6-06d8-4edc-8bb1-b2f67a61831c"},"vehicle_type_id":"4","last_reported":1752531075,"current_range_meters":12800,"station_id":"chh1huq6cuj3fo74tm60","pricing_plan_id":"cebpf4jnsgd1na2vs0mg"},{"bike_id":"ed74f810-226b-4edb-a7d8-2c9a86d071a4","system_id":"levelo_inurba_marseille","lat":43.21192,"lon":5.35067,"is_reserved":false,"is_disabled":false,"rental_uris":{"android":"levelo://app?vid=ed74f810-226b-4edb-a7d8-2c9a86d071a4","ios":"levelo://app?vid=ed74f810-226b-4edb-a7d8-2c9a86d071a4"},"vehicle_type_id":"4","last_reported":1752531075,"current_range_meters":12800,"station_id":"st_cvj6sg6p6f1abm77japg","pricing_plan_id":"cebpf4jnsgd1na2vs0mg"},{"bike_id":"04e508ae-4496-4618-a0ed-ecd12fb2765f","system_id":"levelo_inurba_marseille","lat":43.2919,"lon":5.39313,"is_reserved":false,"is_disabled":false,"rental_uris":{"android":"levelo://app?vid=04e508ae-4496-4618-a0ed-ecd12fb2765f","ios":"levelo://app?vid=04e508ae-4496-4618-a0ed-ecd12fb2765f"},"vehicle_type_id":"4","last_reported":1752531075,"current_range_meters":12800,"station_id":"ce4bh192rcd13ifvqdd0","pricing_plan_id":"cebpf4jnsgd1na2vs0mg"},{"bike_id":"7ea577e7-1080-4e3d-9ece-a825e8e18d5b","system_id":"levelo_inurba_marseille","lat":43.30645,"lon":5.40093,"is_reserved":false,"is_disabled":false,"rental_uris":{"android":"levelo://app?vid=7ea577e7-1080-4e3d-9ece-a825e8e18d5b","ios":"levelo://app?vid=7ea577e7-1080-4e3d-9ece-a825e8e18d5b"},"vehicle_type_id":"4","last_reported":1752531075,"current_range_meters":12800,"station_id":"ce4bh112rcd13ifvqda0","pricing_plan_id":"cebpf4jnsgd1na2vs0mg"},{"bike_id":"665aa48b-06d9-4261-956c-175fa265d6eb","system_id":"levelo_inurba_marseille","lat":43.30322,"lon":5.40437,"is_reserved":false,"is_disabled":false,"rental_uris":{"android":"levelo://app?vid=665aa48b-06d9-4261-956c-175fa265d6eb","ios":"levelo://app?vid=665aa48b-06d9-4261-956c-175fa265d6eb"},"vehicle_type_id":"4","last_reported":1752531075,"current_range_meters":12800,"station_id":"ce4bh012rcd13ifvqd10","pricing_plan_id":"cebpf4jnsgd1na2vs0mg"},{"bike_id":"37cf8e09-e87a-4191-8687-e4c6c10aabb8","system_id":"levelo_inurba_marseille","lat":43.248155,"lon":5.37429,"is_reserved":false,"is_disabled":true,"rental_uris":{"android":"levelo://app?vid=37cf8e09-e87a-4191-8687-e4c6c10aabb8","ios":"levelo://app?vid=37cf8e09-e87a-4191-8687-e4c6c10aabb8"},"vehicle_type_id":"4","last_reported":1752531075,"current_range_meters":13600,"station_id":"ce4bhgh2rcd13ifvqfb0","pricing_plan_id":"cebpf4jnsgd1na2vs0mg"},{"bike_id":"b132f4f3-515c-4d18-ae2c-5d88fff80a67","system_id":"levelo_inurba_marseille","lat":43.3065,"lon":5.40083,"is_reserved":false,"is_disabled":false,"rental_uris":{"android":"levelo://app?vid=b132f4f3-515c-4d18-ae2c-5d88fff80a67","ios":"levelo://app?vid=b132f4f3-515c-4d18-ae2c-5d88fff80a67"},"vehicle_type_id":"4","last_reported":1752531075,"current_range_meters":13600,"station_id":"ce4bh112rcd13ifvqda0","pricing_plan_id":"cebpf4jnsgd1na2vs0mg"},{"bike_id":"68271f2c-d116-4bee-8e06-9f87e5a7a022","system_id":"levelo_inurba_marseille","lat":43.29289,"lon":5.40125,"is_reserved":false,"is_disabled":false,"rental_uris":{"android":"levelo://app?vid=68271f2c-d116-4bee-8e06-9f87e5a7a022","ios":"levelo://app?vid=68271f2c-d116-4bee-8e06-9f87e5a7a022"},"vehicle_type_id":"4","last_reported":1752531075,"current_range_meters":13600,"station_id":"ce4bh312rcd13ifvqdk0","pricing_plan_id":"cebpf4jnsgd1na2vs0mg"},{"bike_id":"8d9e4ffe-7817-4bc1-b790-9e378590e6fb","system_id":"levelo_inurba_marseille","lat":43.28981,"lon":5.37838,"is_reserved":false,"is_disabled":false,"rental_uris":{"android":"levelo://app?vid=8d9e4ffe-7817-4bc1-b790-9e378590e6fb","ios":"levelo://app?vid=8d9e4ffe-7817-4bc1-b790-9e378590e6fb"},"vehicle_type_id":"4","last_reported":1752531075,"current_range_meters":13600,"station_id":"ce4bh9p2rcd13ifvqed0","pricing_plan_id":"cebpf4jnsgd1na2vs0mg"},{"bike_id":"72f8acee-5900-49a7-8bc2-2c0e04103326","system_id":"levelo_inurba_marseille","lat":43.27206,"lon":5.39185,"is_reserved":false,"is_disabled":false,"rental_uris":{"android":"levelo://app?vid=72f8acee-5900-49a7-8bc2-2c0e04103326","ios":"levelo://app?vid=72f8acee-5900-49a7-8bc2-2c0e04103326"},"vehicle_type_id":"4","last_reported":1752531075,"current_range_meters":13600,"station_id":"ce4bhhp2rcd13ifvqfm0","pricing_plan_id":"cebpf4jnsgd1na2vs0mg"},{"bike_id":"e5c5b463-eda8-432a-9247-8659dc60f257","system_id":"levelo_inurba_marseille","lat":43.260282,"lon":5.375515,"is_reserved":false,"is_disabled":false,"rental_uris":{"android":"levelo://app?vid=e5c5b463-eda8-432a-9247-8659dc60f257","ios":"levelo://app?vid=e5c5b463-eda8-432a-9247-8659dc60f257"},"vehicle_type_id":"4","last_reported":1752531075,"current_range_meters":13600,"station_id":"ce4bhgh2rcd13ifvqfa0","pricing_plan_id":"cebpf4jnsgd1na2vs0mg"},{"bike_id":"4026c91c-d6e8-4686-b762-11d3714cecf8","system_id":"levelo_inurba_marseille","lat":43.29209,"lon":5.35955,"is_reserved":false,"is_disabled":true,"rental_uris":{"android":"levelo://app?vid=4026c91c-d6e8-4686-b762-11d3714cecf8","ios":"levelo://app?vid=4026c91c-d6e8-4686-b762-11d3714cecf8"},"vehicle_type_id":"4","last_reported":1752531075,"current_range_meters":14000,"station_id":"","pricing_plan_id":"cebpf4jnsgd1na2vs0mg"},{"bike_id":"890f6c93-fb08-4938-88e8-0541cb54dea6","system_id":"levelo_inurba_marseille","lat":43.29526,"lon":5.38546,"is_reserved":false,"is_disabled":false,"rental_uris":{"android":"levelo://app?vid=890f6c93-fb08-4938-88e8-0541cb54dea6","ios":"levelo://app?vid=890f6c93-fb08-4938-88e8-0541cb54dea6"},"vehicle_type_id":"4","last_reported":1752531075,"current_range_meters":14000,"station_id":"ce4bgih2rcd13ifvqba0","pricing_plan_id":"cebpf4jnsgd1na2vs0mg"},{"bike_id":"1e52cfe4-daa6-4f6d-b89a-ac2b466be504","system_id":"levelo_inurba_marseille","lat":43.287018,"lon":5.39986,"is_reserved":false,"is_disabled":false,"rental_uris":{"android":"levelo://app?vid=1e52cfe4-daa6-4f6d-b89a-ac2b466be504","ios":"levelo://app?vid=1e52cfe4-daa6-4f6d-b89a-ac2b466be504"},"vehicle_type_id":"4","last_reported":1752531075,"current_range_meters":14000,"station_id":"ce4bho92rcd13ifvqh3g","pricing_plan_id":"cebpf4jnsgd1na2vs0mg"},{"bike_id":"e4cc2d70-d95f-4ce5-bff7-2bb046858123","system_id":"levelo_inurba_marseille","lat":43.31663,"lon":5.39509,"is_reserved":false,"is_disabled":false,"rental_uris":{"android":"levelo://app?vid=e4cc2d70-d95f-4ce5-bff7-2bb046858123","ios":"levelo://app?vid=e4cc2d70-d95f-4ce5-bff7-2bb046858123"},"vehicle_type_id":"4","last_reported":1752531075,"current_range_meters":14800,"station_id":"","pricing_plan_id":"cebpf4jnsgd1na2vs0mg"},{"bike_id":"cbfd0f8a-e9a3-423b-9331-b58e6b5485dc","system_id":"levelo_inurba_marseille","lat":43.32476,"lon":5.3656,"is_reserved":false,"is_disabled":false,"rental_uris":{"android":"levelo://app?vid=cbfd0f8a-e9a3-423b-9331-b58e6b5485dc","ios":"levelo://app?vid=cbfd0f8a-e9a3-423b-9331-b58e6b5485dc"},"vehicle_type_id":"4","last_reported":1752531075,"current_range_meters":14400,"station_id":"ce4bhs12rcd13ifvqhvg","pricing_plan_id":"cebpf4jnsgd1na2vs0mg"},{"bike_id":"fbe9ab20-f369-400e-ad48-c426852d96df","system_id":"levelo_inurba_marseille","lat":43.23962,"lon":5.36643,"is_reserved":false,"is_disabled":false,"rental_uris":{"android":"levelo://app?vid=fbe9ab20-f369-400e-ad48-c426852d96df","ios":"levelo://app?vid=fbe9ab20-f369-400e-ad48-c426852d96df"},"vehicle_type_id":"4","last_reported":1752531075,"current_range_meters":14000,"station_id":"ce4bhi12rcd13ifvqfp0","pricing_plan_id":"cebpf4jnsgd1na2vs0mg"},{"bike_id":"fbd36f6d-1a26-471c-b9f9-63cca20698b3","system_id":"levelo_inurba_marseille","lat":43.28153,"lon":5.42647,"is_reserved":false,"is_disabled":false,"rental_uris":{"android":"levelo://app?vid=fbd36f6d-1a26-471c-b9f9-63cca20698b3","ios":"levelo://app?vid=fbd36f6d-1a26-471c-b9f9-63cca20698b3"},"vehicle_type_id":"4","last_reported":1752531075,"current_range_meters":14400,"station_id":"ce4bhnh2rcd13ifvqgug","pricing_plan_id":"cebpf4jnsgd1na2vs0mg"},{"bike_id":"be9c64de-59e2-4afd-aaa6-e6ec82cb54d8","system_id":"levelo_inurba_marseille","lat":43.2558,"lon":5.38227,"is_reserved":false,"is_disabled":false,"rental_uris":{"android":"levelo://app?vid=be9c64de-59e2-4afd-aaa6-e6ec82cb54d8","ios":"levelo://app?vid=be9c64de-59e2-4afd-aaa6-e6ec82cb54d8"},"vehicle_type_id":"4","last_reported":1752531075,"current_range_meters":14400,"station_id":"ce4bhih2rcd13ifvqfs0","pricing_plan_id":"cebpf4jnsgd1na2vs0mg"},{"bike_id":"92abda49-3ab7-4993-a4ee-dad11c1651fb","system_id":"levelo_inurba_marseille","lat":43.27809,"lon":5.40722,"is_reserved":false,"is_disabled":false,"rental_uris":{"android":"levelo://app?vid=92abda49-3ab7-4993-a4ee-dad11c1651fb","ios":"levelo://app?vid=92abda49-3ab7-4993-a4ee-dad11c1651fb"},"vehicle_type_id":"4","last_reported":1752531075,"current_range_meters":14400,"station_id":"ce4bhnh2rcd13ifvqgtg","pricing_plan_id":"cebpf4jnsgd1na2vs0mg"},{"bike_id":"e8f5ff82-b10c-436a-afbc-7681b3dccdfb","system_id":"levelo_inurba_marseille","lat":43.31486,"lon":5.37313,"is_reserved":false,"is_disabled":false,"rental_uris":{"android":"levelo://app?vid=e8f5ff82-b10c-436a-afbc-7681b3dccdfb","ios":"levelo://app?vid=e8f5ff82-b10c-436a-afbc-7681b3dccdfb"},"vehicle_type_id":"4","last_reported":1752531075,"current_range_meters":14400,"station_id":"ce4bgt12rcd13ifvqcd0","pricing_plan_id":"cebpf4jnsgd1na2vs0mg"},{"bike_id":"39bda38f-2629-4ae3-89b7-a0cdea6bdae8","system_id":"levelo_inurba_marseille","lat":43.27911,"lon":5.39579,"is_reserved":false,"is_disabled":false,"rental_uris":{"android":"levelo://app?vid=39bda38f-2629-4ae3-89b7-a0cdea6bdae8","ios":"levelo://app?vid=39bda38f-2629-4ae3-89b7-a0cdea6bdae8"},"vehicle_type_id":"4","last_reported":1752531075,"current_range_meters":14800,"station_id":"ce4bhf92rcd13ifvqf40","pricing_plan_id":"cebpf4jnsgd1na2vs0mg"},{"bike_id":"41e47ab4-31d6-4e54-b9bb-9741e0f94162","system_id":"levelo_inurba_marseille","lat":43.22929,"lon":5.35382,"is_reserved":false,"is_disabled":false,"rental_uris":{"android":"levelo://app?vid=41e47ab4-31d6-4e54-b9bb-9741e0f94162","ios":"levelo://app?vid=41e47ab4-31d6-4e54-b9bb-9741e0f94162"},"vehicle_type_id":"4","last_reported":1752531075,"current_range_meters":14800,"station_id":"cpo3532slgdg3j2ikp40","pricing_plan_id":"cebpf4jnsgd1na2vs0mg"},{"bike_id":"08e381b5-40e5-49fb-a425-a67d3d51f283","system_id":"levelo_inurba_marseille","lat":43.30587,"lon":5.3936,"is_reserved":false,"is_disabled":false,"rental_uris":{"android":"levelo://app?vid=08e381b5-40e5-49fb-a425-a67d3d51f283","ios":"levelo://app?vid=08e381b5-40e5-49fb-a425-a67d3d51f283"},"vehicle_type_id":"4","last_reported":1752531075,"current_range_meters":14800,"station_id":"ce4bh0p2rcd13ifvqd80","pricing_plan_id":"cebpf4jnsgd1na2vs0mg"},{"bike_id":"f05fe02e-364b-406d-9a08-714fdabc79da","system_id":"levelo_inurba_marseille","lat":43.29029,"lon":5.39963,"is_reserved":false,"is_disabled":false,"rental_uris":{"android":"levelo://app?vid=f05fe02e-364b-406d-9a08-714fdabc79da","ios":"levelo://app?vid=f05fe02e-364b-406d-9a08-714fdabc79da"},"vehicle_type_id":"4","last_reported":1752531075,"current_range_meters":14400,"station_id":"ce4bh392rcd13ifvqdm0","pricing_plan_id":"cebpf4jnsgd1na2vs0mg"},{"bike_id":"4afc4454-136a-4e63-8e32-645a3459b4e6","system_id":"levelo_inurba_marseille","lat":43.28961,"lon":5.36585,"is_reserved":false,"is_disabled":false,"rental_uris":{"android":"levelo://app?vid=4afc4454-136a-4e63-8e32-645a3459b4e6","ios":"levelo://app?vid=4afc4454-136a-4e63-8e32-645a3459b4e6"},"vehicle_type_id":"4","last_reported":1752531075,"current_range_meters":14800,"station_id":"","pricing_plan_id":"cebpf4jnsgd1na2vs0mg"},{"bike_id":"b5e996ed-4145-4f8b-8547-5dd47c4e3bb7","system_id":"levelo_inurba_marseille","lat":43.29448,"lon":5.38643,"is_reserved":false,"is_disabled":false,"rental_uris":{"android":"levelo://app?vid=b5e996ed-4145-4f8b-8547-5dd47c4e3bb7","ios":"levelo://app?vid=b5e996ed-4145-4f8b-8547-5dd47c4e3bb7"},"vehicle_type_id":"4","last_reported":1752531075,"current_range_meters":14800,"station_id":"ce4bh2h2rcd13ifvqdh0","pricing_plan_id":"cebpf4jnsgd1na2vs0mg"},{"bike_id":"c4394d8c-8102-4300-bdb5-758262918af2","system_id":"levelo_inurba_marseille","lat":43.30921,"lon":5.40166,"is_reserved":false,"is_disabled":true,"rental_uris":{"android":"levelo://app?vid=c4394d8c-8102-4300-bdb5-758262918af2","ios":"levelo://app?vid=c4394d8c-8102-4300-bdb5-758262918af2"},"vehicle_type_id":"4","last_reported":1752531075,"current_range_meters":14800,"station_id":"ce4bgvp2rcd13ifvqct0","pricing_plan_id":"cebpf4jnsgd1na2vs0mg"},{"bike_id":"96404d04-512d-4e45-b57c-350a79134d38","system_id":"levelo_inurba_marseille","lat":43.211962,"lon":5.350663,"is_reserved":false,"is_disabled":false,"rental_uris":{"android":"levelo://app?vid=96404d04-512d-4e45-b57c-350a79134d38","ios":"levelo://app?vid=96404d04-512d-4e45-b57c-350a79134d38"},"vehicle_type_id":"4","last_reported":1752531075,"current_range_meters":14800,"station_id":"st_cvj6sg6p6f1abm77japg","pricing_plan_id":"cebpf4jnsgd1na2vs0mg"},{"bike_id":"a043714e-0ca7-4bd2-9fac-0a949ab5c01f","system_id":"levelo_inurba_marseille","lat":43.28165,"lon":5.42356,"is_reserved":false,"is_disabled":false,"rental_uris":{"android":"levelo://app?vid=a043714e-0ca7-4bd2-9fac-0a949ab5c01f","ios":"levelo://app?vid=a043714e-0ca7-4bd2-9fac-0a949ab5c01f"},"vehicle_type_id":"4","last_reported":1752531075,"current_range_meters":14800,"station_id":"","pricing_plan_id":"cebpf4jnsgd1na2vs0mg"},{"bike_id":"e488f438-f273-403d-be0a-520a68dfa383","system_id":"levelo_inurba_marseille","lat":43.318882,"lon":5.407371,"is_reserved":false,"is_disabled":false,"rental_uris":{"android":"levelo://app?vid=e488f438-f273-403d-be0a-520a68dfa383","ios":"levelo://app?vid=e488f438-f273-403d-be0a-520a68dfa383"},"vehicle_type_id":"4","last_reported":1752531075,"current_range_meters":14800,"station_id":"ce4bhq12rcd13ifvqhig","pricing_plan_id":"cebpf4jnsgd1na2vs0mg"},{"bike_id":"db16217f-e88d-4697-9e70-6563414b33d3","system_id":"levelo_inurba_marseille","lat":43.30414,"lon":5.39758,"is_reserved":false,"is_disabled":false,"rental_uris":{"android":"levelo://app?vid=db16217f-e88d-4697-9e70-6563414b33d3","ios":"levelo://app?vid=db16217f-e88d-4697-9e70-6563414b33d3"},"vehicle_type_id":"4","last_reported":1752531075,"current_range_meters":10000,"station_id":"ce4bh092rcd13ifvqd20","pricing_plan_id":"cebpf4jnsgd1na2vs0mg"},{"bike_id":"054351ef-2466-4c27-8847-33bceb115cac","system_id":"levelo_inurba_marseille","lat":43.29438,"lon":5.39755,"is_reserved":false,"is_disabled":false,"rental_uris":{"android":"levelo://app?vid=054351ef-2466-4c27-8847-33bceb115cac","ios":"levelo://app?vid=054351ef-2466-4c27-8847-33bceb115cac"},"vehicle_type_id":"4","last_reported":1752531075,"current_range_meters":14400,"station_id":"ce4bh3h2rcd13ifvqdo0","pricing_plan_id":"cebpf4jnsgd1na2vs0mg"},{"bike_id":"1e893d1c-0142-4ecb-aff9-46308c98c984","system_id":"levelo_inurba_marseille","lat":43.28445,"lon":5.3919,"is_reserved":false,"is_disabled":false,"rental_uris":{"android":"levelo://app?vid=1e893d1c-0142-4ecb-aff9-46308c98c984","ios":"levelo://app?vid=1e893d1c-0142-4ecb-aff9-46308c98c984"},"vehicle_type_id":"4","last_reported":1752531075,"current_range_meters":11600,"station_id":"ce4bhoh2rcd13ifvqh5g","pricing_plan_id":"cebpf4jnsgd1na2vs0mg"},{"bike_id":"44e10618-e1b8-4569-bc24-980853c4bf04","system_id":"levelo_inurba_marseille","lat":43.22928,"lon":5.35383,"is_reserved":false,"is_disabled":true,"rental_uris":{"android":"levelo://app?vid=44e10618-e1b8-4569-bc24-980853c4bf04","ios":"levelo://app?vid=44e10618-e1b8-4569-bc24-980853c4bf04"},"vehicle_type_id":"4","last_reported":1752531075,"current_range_meters":15200,"station_id":"cpo3532slgdg3j2ikp40","pricing_plan_id":"cebpf4jnsgd1na2vs0mg"},{"bike_id":"d0f90c24-dd03-411b-9731-55305f76b7c8","system_id":"levelo_inurba_marseille","lat":43.21181,"lon":5.35085,"is_reserved":false,"is_disabled":false,"rental_uris":{"android":"levelo://app?vid=d0f90c24-dd03-411b-9731-55305f76b7c8","ios":"levelo://app?vid=d0f90c24-dd03-411b-9731-55305f76b7c8"},"vehicle_type_id":"4","last_reported":1752531075,"current_range_meters":15200,"station_id":"st_cvj6sg6p6f1abm77japg","pricing_plan_id":"cebpf4jnsgd1na2vs0mg"},{"bike_id":"b55543d7-2027-4e49-9180-ad1422aa0afe","system_id":"levelo_inurba_marseille","lat":43.3095,"lon":5.39042,"is_reserved":false,"is_disabled":false,"rental_uris":{"android":"levelo://app?vid=b55543d7-2027-4e49-9180-ad1422aa0afe","ios":"levelo://app?vid=b55543d7-2027-4e49-9180-ad1422aa0afe"},"vehicle_type_id":"4","last_reported":1752531075,"current_range_meters":15200,"station_id":"ce4bgup2rcd13ifvqco0","pricing_plan_id":"cebpf4jnsgd1na2vs0mg"},{"bike_id":"403880bc-8bea-46f6-8a81-b7f6860118ac","system_id":"levelo_inurba_marseille","lat":43.29253,"lon":5.38433,"is_reserved":false,"is_disabled":true,"rental_uris":{"android":"levelo://app?vid=403880bc-8bea-46f6-8a81-b7f6860118ac","ios":"levelo://app?vid=403880bc-8bea-46f6-8a81-b7f6860118ac"},"vehicle_type_id":"4","last_reported":1752531075,"current_range_meters":15200,"station_id":"ce4bh692rcd13ifvqea0","pricing_plan_id":"cebpf4jnsgd1na2vs0mg"},{"bike_id":"fa276589-3c58-4247-8849-8ef7105cdbd8","system_id":"levelo_inurba_marseille","lat":43.31166,"lon":5.38722,"is_reserved":false,"is_disabled":false,"rental_uris":{"android":"levelo://app?vid=fa276589-3c58-4247-8849-8ef7105cdbd8","ios":"levelo://app?vid=fa276589-3c58-4247-8849-8ef7105cdbd8"},"vehicle_type_id":"4","last_reported":1752531075,"current_range_meters":14800,"station_id":"ce4bgv12rcd13ifvqcp0","pricing_plan_id":"cebpf4jnsgd1na2vs0mg"},{"bike_id":"9bc1f4d5-a955-42b1-a6e4-741fc138dc97","system_id":"levelo_inurba_marseille","lat":43.28923,"lon":5.36664,"is_reserved":false,"is_disabled":false,"rental_uris":{"android":"levelo://app?vid=9bc1f4d5-a955-42b1-a6e4-741fc138dc97","ios":"levelo://app?vid=9bc1f4d5-a955-42b1-a6e4-741fc138dc97"},"vehicle_type_id":"4","last_reported":1752531075,"current_range_meters":16000,"station_id":"ce4bhap2rcd13ifvqek0","pricing_plan_id":"cebpf4jnsgd1na2vs0mg"},{"bike_id":"389b877c-7673-4bf4-aef3-951385c8536c","system_id":"levelo_inurba_marseille","lat":43.3064,"lon":5.40104,"is_reserved":false,"is_disabled":false,"rental_uris":{"android":"levelo://app?vid=389b877c-7673-4bf4-aef3-951385c8536c","ios":"levelo://app?vid=389b877c-7673-4bf4-aef3-951385c8536c"},"vehicle_type_id":"4","last_reported":1752531075,"current_range_meters":16000,"station_id":"ce4bh112rcd13ifvqda0","pricing_plan_id":"cebpf4jnsgd1na2vs0mg"},{"bike_id":"325a3bba-88cc-4fec-986b-41444143e5e0","system_id":"levelo_inurba_marseille","lat":43.31166,"lon":5.38709,"is_reserved":false,"is_disabled":false,"rental_uris":{"android":"levelo://app?vid=325a3bba-88cc-4fec-986b-41444143e5e0","ios":"levelo://app?vid=325a3bba-88cc-4fec-986b-41444143e5e0"},"vehicle_type_id":"4","last_reported":1752531075,"current_range_meters":16000,"station_id":"ce4bgv12rcd13ifvqcp0","pricing_plan_id":"cebpf4jnsgd1na2vs0mg"},{"bike_id":"3ad8f6d8-2c2f-423d-affd-1b09964a6406","system_id":"levelo_inurba_marseille","lat":43.281529,"lon":5.426441,"is_reserved":false,"is_disabled":false,"rental_uris":{"android":"levelo://app?vid=3ad8f6d8-2c2f-423d-affd-1b09964a6406","ios":"levelo://app?vid=3ad8f6d8-2c2f-423d-affd-1b09964a6406"},"vehicle_type_id":"4","last_reported":1752531075,"current_range_meters":16000,"station_id":"ce4bhnh2rcd13ifvqgug","pricing_plan_id":"cebpf4jnsgd1na2vs0mg"},{"bike_id":"f10941ce-d19a-4475-b0ba-1c38d332727e","system_id":"levelo_inurba_marseille","lat":43.3213,"lon":5.38719,"is_reserved":false,"is_disabled":false,"rental_uris":{"android":"levelo://app?vid=f10941ce-d19a-4475-b0ba-1c38d332727e","ios":"levelo://app?vid=f10941ce-d19a-4475-b0ba-1c38d332727e"},"vehicle_type_id":"4","last_reported":1752531075,"current_range_meters":16000,"station_id":"","pricing_plan_id":"cebpf4jnsgd1na2vs0mg"},{"bike_id":"48a72147-d63a-4fad-9403-9184689656c8","system_id":"levelo_inurba_marseille","lat":43.24386,"lon":5.37072,"is_reserved":false,"is_disabled":true,"rental_uris":{"android":"levelo://app?vid=48a72147-d63a-4fad-9403-9184689656c8","ios":"levelo://app?vid=48a72147-d63a-4fad-9403-9184689656c8"},"vehicle_type_id":"4","last_reported":1752531075,"current_range_meters":16000,"station_id":"ce4bhhh2rcd13ifvqfk0","pricing_plan_id":"cebpf4jnsgd1na2vs0mg"},{"bike_id":"e604067d-3800-4ac2-9860-8fea46e837e8","system_id":"levelo_inurba_marseille","lat":43.26563,"lon":5.403232,"is_reserved":false,"is_disabled":true,"rental_uris":{"android":"levelo://app?vid=e604067d-3800-4ac2-9860-8fea46e837e8","ios":"levelo://app?vid=e604067d-3800-4ac2-9860-8fea46e837e8"},"vehicle_type_id":"4","last_reported":1752531075,"current_range_meters":16000,"station_id":"","pricing_plan_id":"cebpf4jnsgd1na2vs0mg"},{"bike_id":"c741d013-f442-4f9e-b8fb-88385b77cf87","system_id":"levelo_inurba_marseille","lat":43.28439,"lon":5.392,"is_reserved":false,"is_disabled":false,"rental_uris":{"android":"levelo://app?vid=c741d013-f442-4f9e-b8fb-88385b77cf87","ios":"levelo://app?vid=c741d013-f442-4f9e-b8fb-88385b77cf87"},"vehicle_type_id":"4","last_reported":1752531075,"current_range_meters":16000,"station_id":"ce4bhoh2rcd13ifvqh5g","pricing_plan_id":"cebpf4jnsgd1na2vs0mg"},{"bike_id":"764467ca-8772-4f42-96b2-f88332d746d7","system_id":"levelo_inurba_marseille","lat":43.27809,"lon":5.4072,"is_reserved":false,"is_disabled":false,"rental_uris":{"android":"levelo://app?vid=764467ca-8772-4f42-96b2-f88332d746d7","ios":"levelo://app?vid=764467ca-8772-4f42-96b2-f88332d746d7"},"vehicle_type_id":"4","last_reported":1752531075,"current_range_meters":16000,"station_id":"ce4bhnh2rcd13ifvqgtg","pricing_plan_id":"cebpf4jnsgd1na2vs0mg"},{"bike_id":"08cd8cda-9886-45aa-a608-dcf813a47774","system_id":"levelo_inurba_marseille","lat":43.30926,"lon":5.4015,"is_reserved":false,"is_disabled":false,"rental_uris":{"android":"levelo://app?vid=08cd8cda-9886-45aa-a608-dcf813a47774","ios":"levelo://app?vid=08cd8cda-9886-45aa-a608-dcf813a47774"},"vehicle_type_id":"4","last_reported":1752531075,"current_range_meters":16400,"station_id":"ce4bgvp2rcd13ifvqct0","pricing_plan_id":"cebpf4jnsgd1na2vs0mg"},{"bike_id":"01beb3f2-c54f-4f68-af15-b28ae7c75196","system_id":"levelo_inurba_marseille","lat":43.30142,"lon":5.39929,"is_reserved":false,"is_disabled":true,"rental_uris":{"android":"levelo://app?vid=01beb3f2-c54f-4f68-af15-b28ae7c75196","ios":"levelo://app?vid=01beb3f2-c54f-4f68-af15-b28ae7c75196"},"vehicle_type_id":"4","last_reported":1752531075,"current_range_meters":16400,"station_id":"ce4bh0h2rcd13ifvqd40","pricing_plan_id":"cebpf4jnsgd1na2vs0mg"},{"bike_id":"21ae30fd-de13-4148-9dce-c89d4aa3368d","system_id":"levelo_inurba_marseille","lat":43.29434,"lon":5.39764,"is_reserved":false,"is_disabled":false,"rental_uris":{"android":"levelo://app?vid=21ae30fd-de13-4148-9dce-c89d4aa3368d","ios":"levelo://app?vid=21ae30fd-de13-4148-9dce-c89d4aa3368d"},"vehicle_type_id":"4","last_reported":1752531075,"current_range_meters":14400,"station_id":"ce4bh3h2rcd13ifvqdo0","pricing_plan_id":"cebpf4jnsgd1na2vs0mg"},{"bike_id":"f4a31c7a-7463-4205-aa02-aaaaf824cb91","system_id":"levelo_inurba_marseille","lat":43.30419,"lon":5.39758,"is_reserved":false,"is_disabled":false,"rental_uris":{"android":"levelo://app?vid=f4a31c7a-7463-4205-aa02-aaaaf824cb91","ios":"levelo://app?vid=f4a31c7a-7463-4205-aa02-aaaaf824cb91"},"vehicle_type_id":"4","last_reported":1752531075,"current_range_meters":16400,"station_id":"ce4bh092rcd13ifvqd20","pricing_plan_id":"cebpf4jnsgd1na2vs0mg"},{"bike_id":"6c6d4d9a-6141-481c-9c1a-8e61054bdc43","system_id":"levelo_inurba_marseille","lat":43.24737,"lon":5.41847,"is_reserved":false,"is_disabled":false,"rental_uris":{"android":"levelo://app?vid=6c6d4d9a-6141-481c-9c1a-8e61054bdc43","ios":"levelo://app?vid=6c6d4d9a-6141-481c-9c1a-8e61054bdc43"},"vehicle_type_id":"4","last_reported":1752531075,"current_range_meters":16400,"station_id":"","pricing_plan_id":"cebpf4jnsgd1na2vs0mg"},{"bike_id":"a9169505-65b5-4384-aac6-07a12936117d","system_id":"levelo_inurba_marseille","lat":43.291717,"lon":5.38449,"is_reserved":false,"is_disabled":false,"rental_uris":{"android":"levelo://app?vid=a9169505-65b5-4384-aac6-07a12936117d","ios":"levelo://app?vid=a9169505-65b5-4384-aac6-07a12936117d"},"vehicle_type_id":"4","last_reported":1752531075,"current_range_meters":16400,"station_id":"","pricing_plan_id":"cebpf4jnsgd1na2vs0mg"},{"bike_id":"2a74c118-5915-42ae-a5b6-acad51f5ceb5","system_id":"levelo_inurba_marseille","lat":43.27558,"lon":5.38432,"is_reserved":false,"is_disabled":true,"rental_uris":{"android":"levelo://app?vid=2a74c118-5915-42ae-a5b6-acad51f5ceb5","ios":"levelo://app?vid=2a74c118-5915-42ae-a5b6-acad51f5ceb5"},"vehicle_type_id":"4","last_reported":1752531075,"current_range_meters":16400,"station_id":"ce4bhh92rcd13ifvqfi0","pricing_plan_id":"cebpf4jnsgd1na2vs0mg"},{"bike_id":"e4cc9422-b66a-4b54-b535-b17a3b695b97","system_id":"levelo_inurba_marseille","lat":43.28366,"lon":5.37385,"is_reserved":false,"is_disabled":false,"rental_uris":{"android":"levelo://app?vid=e4cc9422-b66a-4b54-b535-b17a3b695b97","ios":"levelo://app?vid=e4cc9422-b66a-4b54-b535-b17a3b695b97"},"vehicle_type_id":"4","last_reported":1752531075,"current_range_meters":16400,"station_id":"","pricing_plan_id":"cebpf4jnsgd1na2vs0mg"},{"bike_id":"c3eb31c9-e106-4cd2-bb91-f2d0ee3e7a6f","system_id":"levelo_inurba_marseille","lat":43.24017,"lon":5.36255,"is_reserved":false,"is_disabled":false,"rental_uris":{"android":"levelo://app?vid=c3eb31c9-e106-4cd2-bb91-f2d0ee3e7a6f","ios":"levelo://app?vid=c3eb31c9-e106-4cd2-bb91-f2d0ee3e7a6f"},"vehicle_type_id":"4","last_reported":1752531075,"current_range_meters":16400,"station_id":"","pricing_plan_id":"cebpf4jnsgd1na2vs0mg"},{"bike_id":"ed2e0e1c-5686-47bd-89b3-af42f629970d","system_id":"levelo_inurba_marseille","lat":43.29201,"lon":5.39336,"is_reserved":false,"is_disabled":false,"rental_uris":{"android":"levelo://app?vid=ed2e0e1c-5686-47bd-89b3-af42f629970d","ios":"levelo://app?vid=ed2e0e1c-5686-47bd-89b3-af42f629970d"},"vehicle_type_id":"4","last_reported":1752531075,"current_range_meters":16400,"station_id":"ce4bh192rcd13ifvqdd0","pricing_plan_id":"cebpf4jnsgd1na2vs0mg"},{"bike_id":"95e52cb4-f592-4dd3-8def-ddd91cfeb2c2","system_id":"levelo_inurba_marseille","lat":43.27794,"lon":5.40724,"is_reserved":false,"is_disabled":false,"rental_uris":{"android":"levelo://app?vid=95e52cb4-f592-4dd3-8def-ddd91cfeb2c2","ios":"levelo://app?vid=95e52cb4-f592-4dd3-8def-ddd91cfeb2c2"},"vehicle_type_id":"4","last_reported":1752531075,"current_range_meters":16800,"station_id":"ce4bhnh2rcd13ifvqgtg","pricing_plan_id":"cebpf4jnsgd1na2vs0mg"},{"bike_id":"63a078e5-7463-444d-9aec-2ea1f37941e1","system_id":"levelo_inurba_marseille","lat":43.28567,"lon":5.39501,"is_reserved":false,"is_disabled":false,"rental_uris":{"android":"levelo://app?vid=63a078e5-7463-444d-9aec-2ea1f37941e1","ios":"levelo://app?vid=63a078e5-7463-444d-9aec-2ea1f37941e1"},"vehicle_type_id":"4","last_reported":1752531075,"current_range_meters":16400,"station_id":"ce4bh292rcd13ifvqdg0","pricing_plan_id":"cebpf4jnsgd1na2vs0mg"},{"bike_id":"8017085f-d27f-49fc-a294-412551452c92","system_id":"levelo_inurba_marseille","lat":43.24646,"lon":5.3889,"is_reserved":false,"is_disabled":false,"rental_uris":{"android":"levelo://app?vid=8017085f-d27f-49fc-a294-412551452c92","ios":"levelo://app?vid=8017085f-d27f-49fc-a294-412551452c92"},"vehicle_type_id":"4","last_reported":1752531075,"current_range_meters":16800,"station_id":"ce4bhg12rcd13ifvqf60","pricing_plan_id":"cebpf4jnsgd1na2vs0mg"},{"bike_id":"6a5bdfb5-44e8-42af-a1d8-aada0ea5cffd","system_id":"levelo_inurba_marseille","lat":43.29275,"lon":5.40142,"is_reserved":false,"is_disabled":false,"rental_uris":{"android":"levelo://app?vid=6a5bdfb5-44e8-42af-a1d8-aada0ea5cffd","ios":"levelo://app?vid=6a5bdfb5-44e8-42af-a1d8-aada0ea5cffd"},"vehicle_type_id":"4","last_reported":1752531075,"current_range_meters":16800,"station_id":"ce4bh312rcd13ifvqdk0","pricing_plan_id":"cebpf4jnsgd1na2vs0mg"},{"bike_id":"7633c823-f2dc-41dd-b029-cb3884896e43","system_id":"levelo_inurba_marseille","lat":43.292969,"lon":5.374511,"is_reserved":false,"is_disabled":false,"rental_uris":{"android":"levelo://app?vid=7633c823-f2dc-41dd-b029-cb3884896e43","ios":"levelo://app?vid=7633c823-f2dc-41dd-b029-cb3884896e43"},"vehicle_type_id":"4","last_reported":1752531075,"current_range_meters":16800,"station_id":"ce4bgi12rcd13ifvqb70","pricing_plan_id":"cebpf4jnsgd1na2vs0mg"},{"bike_id":"e6c2f9dd-e349-42e4-94a1-5516e80b6bb9","system_id":"levelo_inurba_marseille","lat":43.29533,"lon":5.38546,"is_reserved":false,"is_disabled":false,"rental_uris":{"android":"levelo://app?vid=e6c2f9dd-e349-42e4-94a1-5516e80b6bb9","ios":"levelo://app?vid=e6c2f9dd-e349-42e4-94a1-5516e80b6bb9"},"vehicle_type_id":"4","last_reported":1752531075,"current_range_meters":16400,"station_id":"ce4bgih2rcd13ifvqba0","pricing_plan_id":"cebpf4jnsgd1na2vs0mg"},{"bike_id":"d199b05c-bf49-40ff-8185-8d98f4140722","system_id":"levelo_inurba_marseille","lat":43.33136,"lon":5.38179,"is_reserved":false,"is_disabled":false,"rental_uris":{"android":"levelo://app?vid=d199b05c-bf49-40ff-8185-8d98f4140722","ios":"levelo://app?vid=d199b05c-bf49-40ff-8185-8d98f4140722"},"vehicle_type_id":"4","last_reported":1752531075,"current_range_meters":17200,"station_id":"","pricing_plan_id":"cebpf4jnsgd1na2vs0mg"},{"bike_id":"590e8a59-7dcc-42c4-80cd-31312d6a701b","system_id":"levelo_inurba_marseille","lat":43.23187,"lon":5.35555,"is_reserved":false,"is_disabled":true,"rental_uris":{"android":"levelo://app?vid=590e8a59-7dcc-42c4-80cd-31312d6a701b","ios":"levelo://app?vid=590e8a59-7dcc-42c4-80cd-31312d6a701b"},"vehicle_type_id":"4","last_reported":1752531075,"current_range_meters":17200,"station_id":"ce4bhu92rcd13ifvqi70","pricing_plan_id":"cebpf4jnsgd1na2vs0mg"},{"bike_id":"fd645ff6-c648-4a09-be76-1a48a05fedd0","system_id":"levelo_inurba_marseille","lat":43.30931,"lon":5.40157,"is_reserved":false,"is_disabled":false,"rental_uris":{"android":"levelo://app?vid=fd645ff6-c648-4a09-be76-1a48a05fedd0","ios":"levelo://app?vid=fd645ff6-c648-4a09-be76-1a48a05fedd0"},"vehicle_type_id":"4","last_reported":1752531075,"current_range_meters":17200,"station_id":"ce4bgvp2rcd13ifvqct0","pricing_plan_id":"cebpf4jnsgd1na2vs0mg"},{"bike_id":"d7159adf-94a3-498c-948b-458c9b026277","system_id":"levelo_inurba_marseille","lat":43.22541,"lon":5.34769,"is_reserved":false,"is_disabled":false,"rental_uris":{"android":"levelo://app?vid=d7159adf-94a3-498c-948b-458c9b026277","ios":"levelo://app?vid=d7159adf-94a3-498c-948b-458c9b026277"},"vehicle_type_id":"4","last_reported":1752531075,"current_range_meters":17200,"station_id":"","pricing_plan_id":"cebpf4jnsgd1na2vs0mg"},{"bike_id":"6b665749-5d83-4001-bfa6-ddbce97a8df7","system_id":"levelo_inurba_marseille","lat":43.23962,"lon":5.3663,"is_reserved":false,"is_disabled":false,"rental_uris":{"android":"levelo://app?vid=6b665749-5d83-4001-bfa6-ddbce97a8df7","ios":"levelo://app?vid=6b665749-5d83-4001-bfa6-ddbce97a8df7"},"vehicle_type_id":"4","last_reported":1752531075,"current_range_meters":17200,"station_id":"ce4bhi12rcd13ifvqfp0","pricing_plan_id":"cebpf4jnsgd1na2vs0mg"},{"bike_id":"551e96af-c059-4b3e-8628-a5837670c076","system_id":"levelo_inurba_marseille","lat":43.290421,"lon":5.359118,"is_reserved":false,"is_disabled":false,"rental_uris":{"android":"levelo://app?vid=551e96af-c059-4b3e-8628-a5837670c076","ios":"levelo://app?vid=551e96af-c059-4b3e-8628-a5837670c076"},"vehicle_type_id":"4","last_reported":1752531075,"current_range_meters":17200,"station_id":"","pricing_plan_id":"cebpf4jnsgd1na2vs0mg"},{"bike_id":"1bcaa836-2a84-4657-85a9-9155d8c6e91c","system_id":"levelo_inurba_marseille","lat":43.26931,"lon":5.38913,"is_reserved":false,"is_disabled":false,"rental_uris":{"android":"levelo://app?vid=1bcaa836-2a84-4657-85a9-9155d8c6e91c","ios":"levelo://app?vid=1bcaa836-2a84-4657-85a9-9155d8c6e91c"},"vehicle_type_id":"4","last_reported":1752531075,"current_range_meters":17200,"station_id":"ce4bhhh2rcd13ifvqfl0","pricing_plan_id":"cebpf4jnsgd1na2vs0mg"},{"bike_id":"903197e4-3da2-471b-9537-d88bae7e31c4","system_id":"levelo_inurba_marseille","lat":43.26487,"lon":5.39527,"is_reserved":false,"is_disabled":true,"rental_uris":{"android":"levelo://app?vid=903197e4-3da2-471b-9537-d88bae7e31c4","ios":"levelo://app?vid=903197e4-3da2-471b-9537-d88bae7e31c4"},"vehicle_type_id":"4","last_reported":1752531075,"current_range_meters":17600,"station_id":"ce4bhi12rcd13ifvqfq0","pricing_plan_id":"cebpf4jnsgd1na2vs0mg"},