{"last_updated":1731251275,"ttl":60,"version":"2.2","data":{"bikes":[{"bike_id":"dcd8b508-2c18-4839-ab68-7b52cc2d3fb7","system_id":"levelo_inurba_marseille","lat":43.27065,"lon":5.42284,"is_reserved":false,"is_disabled":false,"rental_uris":{"android":"levelo://app?vid=dcd8b508-2c18-4839-ab68-7b52cc2d3fb7","ios":"levelo://app?vid=dcd8b508-2c18-4839-ab68-7b52cc2d3fb7"},"vehicle_type_id":"4","last_reported":1731251275,"current_range_meters":30000,"station_id":"ce4bhk92rcd13ifvqgb0","pricing_plan_id":"cebpf4jnsgd1na2vs0mg"},{"bike_id":"417b1b24-9d8f-4872-a930-ff009e47f1ed","system_id":"levelo_inurba_marseille","lat":43.33726,"lon":5.39199,"is_reserved":false,"is_disabled":false,"rental_uris":{"android":"levelo://app?vid=417b1b24-9d8f-4872-a930-ff009e47f1ed","ios":"levelo://app?vid=417b1b24-9d8f-4872-a930-ff009e47f1ed"},"vehicle_type_id":"4","last_reported":1731251275,"current_range_meters":27600,"station_id":"ce4bhr92rcd13ifvqhsg","pricing_plan_id":"cebpf4jnsgd1na2vs0mg"},{"bike_id":"422db361-ac8e-44cb-9316-9bc88fa62b96","system_id":"levelo_inurba_marseille","lat":43.29538,"lon":5.42284,"is_reserved":false,"is_disabled":false,"rental_uris":{"android":"levelo://app?vid=422db361-ac8e-44cb-9316-9bc88fa62b96","ios":"levelo://app?vid=422db361-ac8e-44cb-9316-9bc88fa62b96"},"vehicle_type_id":"4","last_reported":1731251275,"current_range_meters":38800,"station_id":"ce4bhph2rcd13ifvqhdg","pricing_plan_id":"cebpf4jnsgd1na2vs0mg"},{"bike_id":"d9fcfa85-3c0a-4010-a24b-0cba4f520f0b","system_id":"levelo_inurba_marseille","lat":43.30878,"lon":5.37204,"is_reserved":false,"is_disabled":false,"rental_uris":{"android":"levelo://app?vid=d9fcfa85-3c0a-4010-a24b-0cba4f520f0b","ios":"levelo://app?vid=d9fcfa85-3c0a-4010-a24b-0cba4f520f0b"},"vehicle_type_id":"4","last_reported":1731251275,"current_range_meters":32400,"station_id":"ce4bguh2rcd13ifvqckg","pricing_plan_id":"cebpf4jnsgd1na2vs0mg"},{"bike_id":"f903ea29-30fe-46ae-8eeb-7a1975d030a7","system_id":"levelo_inurba_marseille","lat":43.31703,"lon":5.37773,"is_reserved":false,"is_disabled":false,"rental_uris":{"android":"levelo://app?vid=f903ea29-30fe-46ae-8eeb-7a1975d030a7","ios":"levelo://app?vid=f903ea29-30fe-46ae-8eeb-7a1975d030a7"},"vehicle_type_id":"4","last_reported":1731251275,"current_range_meters":24000,"station_id":"ce4bgth2rcd13ifvqch0","pricing_plan_id":"cebpf4jnsgd1na2vs0mg"},{"bike_id":"7b2d2620-106b-40fb-a2ac-855314c4d7a9","system_id":"levelo_inurba_marseille","lat":43.29298,"lon":5.37449,"is_reserved":false,"is_disabled":false,"rental_uris":{"android":"levelo://app?vid=7b2d2620-106b-40fb-a2ac-855314c4d7a9","ios":"levelo://app?vid=7b2d2620-106b-40fb-a2ac-855314c4d7a9"},"vehicle_type_id":"4","last_reported":1731251275,"current_range_meters":35200,"station_id":"ce4bgi12rcd13ifvqb70","pricing_plan_id":"cebpf4jnsgd1na2vs0mg"},{"bike_id":"5daf7e81-adca-4c69-ac49-7439dac41928","system_id":"levelo_inurba_marseille","lat":43.29551,"lon":5.4229,"is_reserved":false,"is_disabled":false,"rental_uris":{"android":"levelo://app?vid=5daf7e81-adca-4c69-ac49-7439dac41928","ios":"levelo://app?vid=5daf7e81-adca-4c69-ac49-7439dac41928"},"vehicle_type_id":"4","last_reported":1731251275,"current_range_meters":38800,"station_id":"ce4bhph2rcd13ifvqhdg","pricing_plan_id":"cebpf4jnsgd1na2vs0mg"},{"bike_id":"28fee574-5897-4c28-9cda-8bf087b0e3a5","system_id":"levelo_inurba_marseille","lat":43.22878,"lon":5.36503,"is_reserved":false,"is_disabled":false,"rental_uris":{"android":"levelo://app?vid=28fee574-5897-4c28-9cda-8bf087b0e3a5","ios":"levelo://app?vid=28fee574-5897-4c28-9cda-8bf087b0e3a5"},"vehicle_type_id":"4","last_reported":1731251275,"current_range_meters":8800,"station_id":"","pricing_plan_id":"cebpf4jnsgd1na2vs0mg"},{"bike_id":"7189f3bb-2a8f-406a-9a1f-badea22c40a7","system_id":"levelo_inurba_marseille","lat":43.28423,"lon":5.34992,"is_reserved":false,"is_disabled":false,"rental_uris":{"android":"levelo://app?vid=7189f3bb-2a8f-406a-9a1f-badea22c40a7","ios":"levelo://app?vid=7189f3bb-2a8f-406a-9a1f-badea22c40a7"},"vehicle_type_id":"4","last_reported":1731251275,"current_range_meters":27200,"station_id":"ce4bhbh2rcd13ifvqepg","pricing_plan_id":"cebpf4jnsgd1na2vs0mg"},{"bike_id":"0ef17787-4a13-4101-b355-dc4f6ee1d3ff","system_id":"levelo_inurba_marseille","lat":43.25867,"lon":5.39899,"is_reserved":false,"is_disabled":false,"rental_uris":{"android":"levelo://app?vid=0ef17787-4a13-4101-b355-dc4f6ee1d3ff","ios":"levelo://app?vid=0ef17787-4a13-4101-b355-dc4f6ee1d3ff"},"vehicle_type_id":"4","last_reported":1731251275,"current_range_meters":12400,"station_id":"ce4bhl92rcd13ifvqghg","pricing_plan_id":"cebpf4jnsgd1na2vs0mg"},{"bike_id":"605308ae-e328-49e6-83af-5dad5f553481","system_id":"levelo_inurba_marseille","lat":43.23962,"lon":5.36638,"is_reserved":false,"is_disabled":false,"rental_uris":{"android":"levelo://app?vid=605308ae-e328-49e6-83af-5dad5f553481","ios":"levelo://app?vid=605308ae-e328-49e6-83af-5dad5f553481"},"vehicle_type_id":"4","last_reported":1731251275,"current_range_meters":30000,"station_id":"ce4bhi12rcd13ifvqfp0","pricing_plan_id":"cebpf4jnsgd1na2vs0mg"},{"bike_id":"9e1e9e2b-a360-4b9d-92ff-627a409bbf2d","system_id":"levelo_inurba_marseille","lat":43.29285,"lon":5.40123,"is_reserved":false,"is_disabled":false,"rental_uris":{"android":"levelo://app?vid=9e1e9e2b-a360-4b9d-92ff-627a409bbf2d","ios":"levelo://app?vid=9e1e9e2b-a360-4b9d-92ff-627a409bbf2d"},"vehicle_type_id":"4","last_reported":1731251275,"current_range_meters":38400,"station_id":"ce4bh312rcd13ifvqdk0","pricing_plan_id":"cebpf4jnsgd1na2vs0mg"},{"bike_id":"4fb1a243-34c9-4332-94cb-037b4d1b16bf","system_id":"levelo_inurba_marseille","lat":43.2571,"lon":5.41119,"is_reserved":false,"is_disabled":false,"rental_uris":{"android":"levelo://app?vid=4fb1a243-34c9-4332-94cb-037b4d1b16bf","ios":"levelo://app?vid=4fb1a243-34c9-4332-94cb-037b4d1b16bf"},"vehicle_type_id":"4","last_reported":1731251275,"current_range_meters":3200,"station_id":"ce4bhkp2rcd13ifvqgd0","pricing_plan_id":"cebpf4jnsgd1na2vs0mg"},{"bike_id":"30037827-8659-4cce-803b-88835fb3f6b5","system_id":"levelo_inurba_marseille","lat":43.255,"lon":5.37651,"is_reserved":false,"is_disabled":false,"rental_uris":{"android":"levelo://app?vid=30037827-8659-4cce-803b-88835fb3f6b5","ios":"levelo://app?vid=30037827-8659-4cce-803b-88835fb3f6b5"},"vehicle_type_id":"4","last_reported":1731251275,"current_range_meters":38800,"station_id":"ce4bhh12rcd13ifvqff0","pricing_plan_id":"cebpf4jnsgd1na2vs0mg"},{"bike_id":"5812d5f1-a60f-473b-aee7-979906885a65","system_id":"levelo_inurba_marseille","lat":43.23053,"lon":5.35494,"is_reserved":false,"is_disabled":false,"rental_uris":{"android":"levelo://app?vid=5812d5f1-a60f-473b-aee7-979906885a65","ios":"levelo://app?vid=5812d5f1-a60f-473b-aee7-979906885a65"},"vehicle_type_id":"4","last_reported":1731251275,"current_range_meters":16000,"station_id":"cpo3342slgdg3j2ifvpg","pricing_plan_id":"cebpf4jnsgd1na2vs0mg"},{"bike_id":"eb280453-261a-4450-a2fd-1da204e75092","system_id":"levelo_inurba_marseille","lat":43.23149,"lon":5.43719,"is_reserved":false,"is_disabled":false,"rental_uris":{"android":"levelo://app?vid=eb280453-261a-4450-a2fd-1da204e75092","ios":"levelo://app?vid=eb280453-261a-4450-a2fd-1da204e75092"},"vehicle_type_id":"4","last_reported":1731251275,"current_range_meters":10000,"station_id":"ce4bhmp2rcd13ifvqgog","pricing_plan_id":"cebpf4jnsgd1na2vs0mg"},{"bike_id":"872e3e36-0776-436d-8769-b64ec6f87645","system_id":"levelo_inurba_marseille","lat":43.28151,"lon":5.42647,"is_reserved":false,"is_disabled":false,"rental_uris":{"android":"levelo://app?vid=872e3e36-0776-436d-8769-b64ec6f87645","ios":"levelo://app?vid=872e3e36-0776-436d-8769-b64ec6f87645"},"vehicle_type_id":"4","last_reported":1731251275,"current_range_meters":8800,"station_id":"ce4bhnh2rcd13ifvqgug","pricing_plan_id":"cebpf4jnsgd1na2vs0mg"},{"bike_id":"916d9852-7504-4791-ac52-5e27a0f62405","system_id":"levelo_inurba_marseille","lat":43.22926,"lon":5.35381,"is_reserved":false,"is_disabled":false,"rental_uris":{"android":"levelo://app?vid=916d9852-7504-4791-ac52-5e27a0f62405","ios":"levelo://app?vid=916d9852-7504-4791-ac52-5e27a0f62405"},"vehicle_type_id":"4","last_reported":1731251275,"current_range_meters":34000,"station_id":"cpo3532slgdg3j2ikp40","pricing_plan_id":"cebpf4jnsgd1na2vs0mg"},{"bike_id":"b9059161-bc2a-4853-8231-de961bd5f1e7","system_id":"levelo_inurba_marseille","lat":43.33713,"lon":5.39185,"is_reserved":false,"is_disabled":false,"rental_uris":{"android":"levelo://app?vid=b9059161-bc2a-4853-8231-de961bd5f1e7","ios":"levelo://app?vid=b9059161-bc2a-4853-8231-de961bd5f1e7"},"vehicle_type_id":"4","last_reported":1731251275,"current_range_meters":17200,"station_id":"ce4bhr92rcd13ifvqhsg","pricing_plan_id":"cebpf4jnsgd1na2vs0mg"},{"bike_id":"9e00ae8d-b3a9-4d4b-a691-62debbf0e14c","system_id":"levelo_inurba_marseille","lat":43.23182,"lon":5.39997,"is_reserved":false,"is_disabled":false,"rental_uris":{"android":"levelo://app?vid=9e00ae8d-b3a9-4d4b-a691-62debbf0e14c","ios":"levelo://app?vid=9e00ae8d-b3a9-4d4b-a691-62debbf0e14c"},"vehicle_type_id":"4","last_reported":1731251275,"current_range_meters":36800,"station_id":"ce4bhn12rcd13ifvqgqg","pricing_plan_id":"cebpf4jnsgd1na2vs0mg"},{"bike_id":"d1275ef7-15db-405e-b6ad-ebdaee806915","system_id":"levelo_inurba_marseille","lat":43.29624,"lon":5.37721,"is_reserved":false,"is_disabled":false,"rental_uris":{"android":"levelo://app?vid=d1275ef7-15db-405e-b6ad-ebdaee806915","ios":"levelo://app?vid=d1275ef7-15db-405e-b6ad-ebdaee806915"},"vehicle_type_id":"4","last_reported":1731251275,"current_range_meters":3200,"station_id":"ce4bgi92rcd13ifvqb90","pricing_plan_id":"cebpf4jnsgd1na2vs0mg"},{"bike_id":"c7c7882f-f4d1-462f-9860-e573d1886a14","system_id":"levelo_inurba_marseille","lat":43.24388,"lon":5.37069,"is_reserved":false,"is_disabled":false,"rental_uris":{"android":"levelo://app?vid=c7c7882f-f4d1-462f-9860-e573d1886a14","ios":"levelo://app?vid=c7c7882f-f4d1-462f-9860-e573d1886a14"},"vehicle_type_id":"4","last_reported":1731251275,"current_range_meters":20400,"station_id":"ce4bhhh2rcd13ifvqfk0","pricing_plan_id":"cebpf4jnsgd1na2vs0mg"},{"bike_id":"0f7ef8f2-c091-420e-be1a-8c1e2421ea9d","system_id":"levelo_inurba_marseille","lat":43.23057,"lon":5.35498,"is_reserved":false,"is_disabled":false,"rental_uris":{"android":"levelo://app?vid=0f7ef8f2-c091-420e-be1a-8c1e2421ea9d","ios":"levelo://app?vid=0f7ef8f2-c091-420e-be1a-8c1e2421ea9d"},"vehicle_type_id":"4","last_reported":1731251275,"current_range_meters":9600,"station_id":"cpo3342slgdg3j2ifvpg","pricing_plan_id":"cebpf4jnsgd1na2vs0mg"},{"bike_id":"4d8a39f0-cf9b-4574-b4b3-d359660c3302","system_id":"levelo_inurba_marseille","lat":43.2439,"lon":5.37065,"is_reserved":false,"is_disabled":false,"rental_uris":{"android":"levelo://app?vid=4d8a39f0-cf9b-4574-b4b3-d359660c3302","ios":"levelo://app?vid=4d8a39f0-cf9b-4574-b4b3-d359660c3302"},"vehicle_type_id":"4","last_reported":1731251275,"current_range_meters":38000,"station_id":"ce4bhhh2rcd13ifvqfk0","pricing_plan_id":"cebpf4jnsgd1na2vs0mg"},{"bike_id":"26e55983-f261-40b1-b1a0-30eef97145b0","system_id":"levelo_inurba_marseille","lat":43.25505,"lon":5.3765,"is_reserved":false,"is_disabled":false,"rental_uris":{"android":"levelo://app?vid=26e55983-f261-40b1-b1a0-30eef97145b0","ios":"levelo://app?vid=26e55983-f261-40b1-b1a0-30eef97145b0"},"vehicle_type_id":"4","last_reported":1731251275,"current_range_meters":38800,"station_id":"ce4bhh12rcd13ifvqff0","pricing_plan_id":"cebpf4jnsgd1na2vs0mg"},{"bike_id":"0af8b407-a194-4b1f-b983-5c2f2cb4da95","system_id":"levelo_inurba_marseille","lat":43.24806,"lon":5.37458,"is_reserved":false,"is_disabled":false,"rental_uris":{"android":"levelo://app?vid=0af8b407-a194-4b1f-b983-5c2f2cb4da95","ios":"levelo://app?vid=0af8b407-a194-4b1f-b983-5c2f2cb4da95"},"vehicle_type_id":"4","last_reported":1731251275,"current_range_meters":20800,"station_id":"ce4bhgh2rcd13ifvqfb0","pricing_plan_id":"cebpf4jnsgd1na2vs0mg"},{"bike_id":"32c29b50-e3b2-494a-8417-18400536c1ea","system_id":"levelo_inurba_marseille","lat":43.2306,"lon":5.35501,"is_reserved":false,"is_disabled":false,"rental_uris":{"android":"levelo://app?vid=32c29b50-e3b2-494a-8417-18400536c1ea","ios":"levelo://app?vid=32c29b50-e3b2-494a-8417-18400536c1ea"},"vehicle_type_id":"4","last_reported":1731251275,"current_range_meters":38800,"station_id":"cpo3342slgdg3j2ifvpg","pricing_plan_id":"cebpf4jnsgd1na2vs0mg"},{"bike_id":"ca9fff4b-8167-4a22-8439-685a9ee8dad5","system_id":"levelo_inurba_marseille","lat":43.24548,"lon":5.39523,"is_reserved":false,"is_disabled":false,"rental_uris":{"android":"levelo://app?vid=ca9fff4b-8167-4a22-8439-685a9ee8dad5","ios":"levelo://app?vid=ca9fff4b-8167-4a22-8439-685a9ee8dad5"},"vehicle_type_id":"4","last_reported":1731251275,"current_range_meters":12400,"station_id":"ce4bhlp2rcd13ifvqgjg","pricing_plan_id":"cebpf4jnsgd1na2vs0mg"},{"bike_id":"018cdcf7-93ec-4e24-8e3e-3f9d0d08d718","system_id":"levelo_inurba_marseille","lat":43.23963,"lon":5.36638,"is_reserved":false,"is_disabled":false,"rental_uris":{"android":"levelo://app?vid=018cdcf7-93ec-4e24-8e3e-3f9d0d08d718","ios":"levelo://app?vid=018cdcf7-93ec-4e24-8e3e-3f9d0d08d718"},"vehicle_type_id":"4","last_reported":1731251275,"current_range_meters":39200,"station_id":"ce4bhi12rcd13ifvqfp0","pricing_plan_id":"cebpf4jnsgd1na2vs0mg"},{"bike_id":"5474522c-ab23-48ff-8d4f-608ca8b7c65a","system_id":"levelo_inurba_marseille","lat":43.28253,"lon":5.35074,"is_reserved":false,"is_disabled":false,"rental_uris":{"android":"levelo://app?vid=5474522c-ab23-48ff-8d4f-608ca8b7c65a","ios":"levelo://app?vid=5474522c-ab23-48ff-8d4f-608ca8b7c65a"},"vehicle_type_id":"4","last_reported":1731251275,"current_range_meters":35600,"station_id":"ce4bhbp2rcd13ifvqerg","pricing_plan_id":"cebpf4jnsgd1na2vs0mg"},{"bike_id":"2d0a890a-414c-4ce8-9fcd-5ae2fa3ca79c","system_id":"levelo_inurba_marseille","lat":43.22934,"lon":5.35378,"is_reserved":false,"is_disabled":false,"rental_uris":{"android":"levelo://app?vid=2d0a890a-414c-4ce8-9fcd-5ae2fa3ca79c","ios":"levelo://app?vid=2d0a890a-414c-4ce8-9fcd-5ae2fa3ca79c"},"vehicle_type_id":"4","last_reported":1731251275,"current_range_meters":39200,"station_id":"cpo3532slgdg3j2ikp40","pricing_plan_id":"cebpf4jnsgd1na2vs0mg"},{"bike_id":"64dfea50-6426-4833-bf31-08a7c1a7d17c","system_id":"levelo_inurba_marseille","lat":43.31355,"lon":5.38497,"is_reserved":false,"is_disabled":false,"rental_uris":{"android":"levelo://app?vid=64dfea50-6426-4833-bf31-08a7c1a7d17c","ios":"levelo://app?vid=64dfea50-6426-4833-bf31-08a7c1a7d17c"},"vehicle_type_id":"4","last_reported":1731251275,"current_range_meters":39200,"station_id":"ce4bgt92rcd13ifvqcf0","pricing_plan_id":"cebpf4jnsgd1na2vs0mg"},{"bike_id":"9bf6f786-22cf-4277-bbf4-65a4a8e5ff8a","system_id":"levelo_inurba_marseille","lat":43.31184,"lon":5.40121,"is_reserved":false,"is_disabled":false,"rental_uris":{"android":"levelo://app?vid=9bf6f786-22cf-4277-bbf4-65a4a8e5ff8a","ios":"levelo://app?vid=9bf6f786-22cf-4277-bbf4-65a4a8e5ff8a"},"vehicle_type_id":"4","last_reported":1731251275,"current_range_meters":22000,"station_id":"ce4bhbh2rcd13ifvqepg","pricing_plan_id":"cebpf4jnsgd1na2vs0mg"},{"bike_id":"4bb9a85a-0d0c-4d55-8773-a9f717071e71","system_id":"levelo_inurba_marseille","lat":43.31711,"lon":5.37716,"is_reserved":false,"is_disabled":false,"rental_uris":{"android":"levelo://app?vid=4bb9a85a-0d0c-4d55-8773-a9f717071e71","ios":"levelo://app?vid=4bb9a85a-0d0c-4d55-8773-a9f717071e71"},"vehicle_type_id":"4","last_reported":1731251275,"current_range_meters":38800,"station_id":"ce4bgth2rcd13ifvqch0","pricing_plan_id":"cebpf4jnsgd1na2vs0mg"},{"bike_id":"c221efe7-efcb-49b8-a1b0-1dd8d171a453","system_id":"levelo_inurba_marseille","lat":43.3372,"lon":5.39197,"is_reserved":false,"is_disabled":false,"rental_uris":{"android":"levelo://app?vid=c221efe7-efcb-49b8-a1b0-1dd8d171a453","ios":"levelo://app?vid=c221efe7-efcb-49b8-a1b0-1dd8d171a453"},"vehicle_type_id":"4","last_reported":1731251275,"current_range_meters":38800,"station_id":"ce4bhr92rcd13ifvqhsg","pricing_plan_id":"cebpf4jnsgd1na2vs0mg"},{"bike_id":"b8fdd341-0697-41ca-82c9-e4253415f4e6","system_id":"levelo_inurba_marseille","lat":43.23055,"lon":5.3549,"is_reserved":false,"is_disabled":false,"rental_uris":{"android":"levelo://app?vid=b8fdd341-0697-41ca-82c9-e4253415f4e6","ios":"levelo://app?vid=b8fdd341-0697-41ca-82c9-e4253415f4e6"},"vehicle_type_id":"4","last_reported":1731251275,"current_range_meters":27600,"station_id":"cpo3342slgdg3j2ifvpg","pricing_plan_id":"cebpf4jnsgd1na2vs0mg"},{"bike_id":"cf9daf46-3bd1-47e7-80ac-0de06577c598","system_id":"levelo_inurba_marseille","lat":43.24389,"lon":5.37049,"is_reserved":false,"is_disabled":false,"rental_uris":{"android":"levelo://app?vid=cf9daf46-3bd1-47e7-80ac-0de06577c598","ios":"levelo://app?vid=cf9daf46-3bd1-47e7-80ac-0de06577c598"},"vehicle_type_id":"4","last_reported":1731251275,"current_range_meters":39200,"station_id":"ce4bhhh2rcd13ifvqfk0","pricing_plan_id":"cebpf4jnsgd1na2vs0mg"},{"bike_id":"0e680f47-7efb-47a4-8232-c0c12bb73ba8","system_id":"levelo_inurba_marseille","lat":43.28095,"lon":5.3784,"is_reserved":false,"is_disabled":false,"rental_uris":{"android":"levelo://app?vid=0e680f47-7efb-47a4-8232-c0c12bb73ba8","ios":"levelo://app?vid=0e680f47-7efb-47a4-8232-c0c12bb73ba8"},"vehicle_type_id":"4","last_reported":1731251275,"current_range_meters":8800,"station_id":"ce4bha12rcd13ifvqee0","pricing_plan_id":"cebpf4jnsgd1na2vs0mg"},{"bike_id":"ca8bfccf-259c-4954-bea3-183f172c52ee","system_id":"levelo_inurba_marseille","lat":43.2737,"lon":5.36261,"is_reserved":false,"is_disabled":false,"rental_uris":{"android":"levelo://app?vid=ca8bfccf-259c-4954-bea3-183f172c52ee","ios":"levelo://app?vid=ca8bfccf-259c-4954-bea3-183f172c52ee"},"vehicle_type_id":"4","last_reported":1731251275,"current_range_meters":38800,"station_id":"ce4bhbh2rcd13ifvqeo0","pricing_plan_id":"cebpf4jnsgd1na2vs0mg"},{"bike_id":"4e72c028-8eb6-45c9-948f-592264d3d6d7","system_id":"levelo_inurba_marseille","lat":43.23059,"lon":5.35495,"is_reserved":false,"is_disabled":false,"rental_uris":{"android":"levelo://app?vid=4e72c028-8eb6-45c9-948f-592264d3d6d7","ios":"levelo://app?vid=4e72c028-8eb6-45c9-948f-592264d3d6d7"},"vehicle_type_id":"4","last_reported":1731251275,"current_range_meters":35600,"station_id":"cpo3342slgdg3j2ifvpg","pricing_plan_id":"cebpf4jnsgd1na2vs0mg"},{"bike_id":"a2c94e1a-3858-41e6-aa7e-97346fb4829e","system_id":"levelo_inurba_marseille","lat":43.23061,"lon":5.355,"is_reserved":false,"is_disabled":false,"rental_uris":{"android":"levelo://app?vid=a2c94e1a-3858-41e6-aa7e-97346fb4829e","ios":"levelo://app?vid=a2c94e1a-3858-41e6-aa7e-97346fb4829e"},"vehicle_type_id":"4","last_reported":1731251275,"current_range_meters":18800,"station_id":"cpo3342slgdg3j2ifvpg","pricing_plan_id":"cebpf4jnsgd1na2vs0mg"},{"bike_id":"2972f759-c98e-4fe7-9758-85d215895273","system_id":"levelo_inurba_marseille","lat":43.23957,"lon":5.36627,"is_reserved":false,"is_disabled":false,"rental_uris":{"android":"levelo://app?vid=2972f759-c98e-4fe7-9758-85d215895273","ios":"levelo://app?vid=2972f759-c98e-4fe7-9758-85d215895273"},"vehicle_type_id":"4","last_reported":1731251275,"current_range_meters":36000,"station_id":"ce4bhi12rcd13ifvqfp0","pricing_plan_id":"cebpf4jnsgd1na2vs0mg"},{"bike_id":"010d3bc6-1da9-4e2e-9558-6436a5780c21","system_id":"levelo_inurba_marseille","lat":43.23196,"lon":5.35548,"is_reserved":false,"is_disabled":false,"rental_uris":{"android":"levelo://app?vid=010d3bc6-1da9-4e2e-9558-6436a5780c21","ios":"levelo://app?vid=010d3bc6-1da9-4e2e-9558-6436a5780c21"},"vehicle_type_id":"4","last_reported":1731251275,"current_range_meters":38800,"station_id":"ce4bhu92rcd13ifvqi70","pricing_plan_id":"cebpf4jnsgd1na2vs0mg"},{"bike_id":"37ca8915-c325-49ef-bc96-521954b406f3","system_id":"levelo_inurba_marseille","lat":43.24809,"lon":5.37457,"is_reserved":false,"is_disabled":false,"rental_uris":{"android":"levelo://app?vid=37ca8915-c325-49ef-bc96-521954b406f3","ios":"levelo://app?vid=37ca8915-c325-49ef-bc96-521954b406f3"},"vehicle_type_id":"4","last_reported":1731251275,"current_range_meters":4400,"station_id":"ce4bhgh2rcd13ifvqfb0","pricing_plan_id":"cebpf4jnsgd1na2vs0mg"},{"bike_id":"1a366d13-87fa-4c79-be4c-283f2bc932cd","system_id":"levelo_inurba_marseille","lat":43.2827,"lon":5.3508,"is_reserved":false,"is_disabled":false,"rental_uris":{"android":"levelo://app?vid=1a366d13-87fa-4c79-be4c-283f2bc932cd","ios":"levelo://app?vid=1a366d13-87fa-4c79-be4c-283f2bc932cd"},"vehicle_type_id":"4","last_reported":1731251275,"current_range_meters":17200,"station_id":"ce4bhbp2rcd13ifvqerg","pricing_plan_id":"cebpf4jnsgd1na2vs0mg"},{"bike_id":"1373a6fd-76c1-4e91-9a62-17709f3714b8","system_id":"levelo_inurba_marseille","lat":43.26176,"lon":5.37502,"is_reserved":false,"is_disabled":false,"rental_uris":{"android":"levelo://app?vid=1373a6fd-76c1-4e91-9a62-17709f3714b8","ios":"levelo://app?vid=1373a6fd-76c1-4e91-9a62-17709f3714b8"},"vehicle_type_id":"4","last_reported":1731251275,"current_range_meters":9600,"station_id":"ce4bhgp2rcd13ifvqfc0","pricing_plan_id":"cebpf4jnsgd1na2vs0mg"},{"bike_id":"aa985362-df16-4b96-bdea-13e50392f03f","system_id":"levelo_inurba_marseille","lat":43.29276,"lon":5.40115,"is_reserved":false,"is_disabled":false,"rental_uris":{"android":"levelo://app?vid=aa985362-df16-4b96-bdea-13e50392f03f","ios":"levelo://app?vid=aa985362-df16-4b96-bdea-13e50392f03f"},"vehicle_type_id":"4","last_reported":1731251275,"current_range_meters":14000,"station_id":"ce4bh312rcd13ifvqdk0","pricing_plan_id":"cebpf4jnsgd1na2vs0mg"},{"bike_id":"7e7604aa-bdc8-4e38-bcd6-efa3b76bfe81","system_id":"levelo_inurba_marseille","lat":43.29567,"lon":5.39987,"is_reserved":false,"is_disabled":false,"rental_uris":{"android":"levelo://app?vid=7e7604aa-bdc8-4e38-bcd6-efa3b76bfe81","ios":"levelo://app?vid=7e7604aa-bdc8-4e38-bcd6-efa3b76bfe81"},"vehicle_type_id":"4","last_reported":1731251275,"current_range_meters":31200,"station_id":"ce4bh312rcd13ifvqdj0","pricing_plan_id":"cebpf4jnsgd1na2vs0mg"},{"bike_id":"b9478b1d-79e3-44c9-ae60-496dd5151f62","system_id":"levelo_inurba_marseille","lat":43.291629,"lon":5.371461,"is_reserved":false,"is_disabled":false,"rental_uris":{"android":"levelo://app?vid=b9478b1d-79e3-44c9-ae60-496dd5151f62","ios":"levelo://app?vid=b9478b1d-79e3-44c9-ae60-496dd5151f62"},"vehicle_type_id":"4","last_reported":1731251275,"current_range_meters":30800,"station_id":"ce4bha92rcd13ifvqeh0","pricing_plan_id":"cebpf4jnsgd1na2vs0mg"},{"bike_id":"a6662f96-7914-4568-9644-1c4ba1cb159a","system_id":"levelo_inurba_marseille","lat":43.28403,"lon":5.34985,"is_reserved":false,"is_disabled":false,"rental_uris":{"android":"levelo://app?vid=a6662f96-7914-4568-9644-1c4ba1cb159a","ios":"levelo://app?vid=a6662f96-7914-4568-9644-1c4ba1cb159a"},"vehicle_type_id":"4","last_reported":1731251275,"current_range_meters":36800,"station_id":"ce4bhbh2rcd13ifvqepg","pricing_plan_id":"cebpf4jnsgd1na2vs0mg"},{"bike_id":"4204c697-9142-4d6f-a64b-20f319f8c9a7","system_id":"levelo_inurba_marseille","lat":43.27072,"lon":5.42287,"is_reserved":false,"is_disabled":false,"rental_uris":{"android":"levelo://app?vid=4204c697-9142-4d6f-a64b-20f319f8c9a7","ios":"levelo://app?vid=4204c697-9142-4d6f-a64b-20f319f8c9a7"},"vehicle_type_id":"4","last_reported":1731251275,"current_range_meters":39200,"station_id":"ce4bhk92rcd13ifvqgb0","pricing_plan_id":"cebpf4jnsgd1na2vs0mg"},{"bike_id":"88fa30e1-117f-468e-9b03-58114d278510","system_id":"levelo_inurba_marseille","lat":43.24178,"lon":5.39734,"is_reserved":false,"is_disabled":false,"rental_uris":{"android":"levelo://app?vid=88fa30e1-117f-468e-9b03-58114d278510","ios":"levelo://app?vid=88fa30e1-117f-468e-9b03-58114d278510"},"vehicle_type_id":"4","last_reported":1731251275,"current_range_meters":7200,"station_id":"ce4bhn12rcd13ifvqgpg","pricing_plan_id":"cebpf4jnsgd1na2vs0mg"},{"bike_id":"8da21488-64ce-4974-9b54-756b24959398","system_id":"levelo_inurba_marseille","lat":43.30606,"lon":5.37223,"is_reserved":false,"is_disabled":false,"rental_uris":{"android":"levelo://app?vid=8da21488-64ce-4974-9b54-756b24959398","ios":"levelo://app?vid=8da21488-64ce-4974-9b54-756b24959398"},"vehicle_type_id":"4","last_reported":1731251275,"current_range_meters":38800,"station_id":"ce4bgqh2rcd13ifvqc4g","pricing_plan_id":"cebpf4jnsgd1na2vs0mg"},{"bike_id":"5b1ecbe0-a0fe-45b3-b0ea-f76e5b19652b","system_id":"levelo_inurba_marseille","lat":43.23197,"lon":5.35543,"is_reserved":false,"is_disabled":false,"rental_uris":{"android":"levelo://app?vid=5b1ecbe0-a0fe-45b3-b0ea-f76e5b19652b","ios":"levelo://app?vid=5b1ecbe0-a0fe-45b3-b0ea-f76e5b19652b"},"vehicle_type_id":"4","last_reported":1731251275,"current_range_meters":7200,"station_id":"ce4bhu92rcd13ifvqi70","pricing_plan_id":"cebpf4jnsgd1na2vs0mg"},{"bike_id":"e6dc57cf-44da-4102-9d69-7c7b35161e11","system_id":"levelo_inurba_marseille","lat":43.24174,"lon":5.3641,"is_reserved":false,"is_disabled":false,"rental_uris":{"android":"levelo://app?vid=e6dc57cf-44da-4102-9d69-7c7b35161e11","ios":"levelo://app?vid=e6dc57cf-44da-4102-9d69-7c7b35161e11"},"vehicle_type_id":"4","last_reported":1731251275,"current_range_meters":35600,"station_id":"cpo36qri1sfpv3e86is0","pricing_plan_id":"cebpf4jnsgd1na2vs0mg"},{"bike_id":"eea89b14-e5f3-4242-9fbf-52d861894071","system_id":"levelo_inurba_marseille","lat":43.23185,"lon":5.35557,"is_reserved":false,"is_disabled":false,"rental_uris":{"android":"levelo://app?vid=eea89b14-e5f3-4242-9fbf-52d861894071","ios":"levelo://app?vid=eea89b14-e5f3-4242-9fbf-52d861894071"},"vehicle_type_id":"4","last_reported":1731251275,"current_range_meters":28000,"station_id":"ce4bhu92rcd13ifvqi70","pricing_plan_id":"cebpf4jnsgd1na2vs0mg"},{"bike_id":"42d6f295-5350-44da-8761-a50375c709f2","system_id":"levelo_inurba_marseille","lat":43.24391,"lon":5.37066,"is_reserved":false,"is_disabled":false,"rental_uris":{"android":"levelo://app?vid=42d6f295-5350-44da-8761-a50375c709f2","ios":"levelo://app?vid=42d6f295-5350-44da-8761-a50375c709f2"},"vehicle_type_id":"4","last_reported":1731251275,"current_range_meters":18800,"station_id":"ce4bhhh2rcd13ifvqfk0","pricing_plan_id":"cebpf4jnsgd1na2vs0mg"},{"bike_id":"79c4c7ed-edb4-4187-9601-02610951ee28","system_id":"levelo_inurba_marseille","lat":43.23051,"lon":5.35502,"is_reserved":false,"is_disabled":false,"rental_uris":{"android":"levelo://app?vid=79c4c7ed-edb4-4187-9601-02610951ee28","ios":"levelo://app?vid=79c4c7ed-edb4-4187-9601-02610951ee28"},"vehicle_type_id":"4","last_reported":1731251275,"current_range_meters":27600,"station_id":"cpo3342slgdg3j2ifvpg","pricing_plan_id":"cebpf4jnsgd1na2vs0mg"},{"bike_id":"7b65cf59-71da-498d-af55-fadd7a8875ed","system_id":"levelo_inurba_marseille","lat":43.3108,"lon":5.42432,"is_reserved":false,"is_disabled":false,"rental_uris":{"android":"levelo://app?vid=7b65cf59-71da-498d-af55-fadd7a8875ed","ios":"levelo://app?vid=7b65cf59-71da-498d-af55-fadd7a8875ed"},"vehicle_type_id":"4","last_reported":1731251275,"current_range_meters":7200,"station_id":"ce4bhp92rcd13ifvqhag","pricing_plan_id":"cebpf4jnsgd1na2vs0mg"},{"bike_id":"9dbfe221-39b8-4b28-abe6-5199de1041ec","system_id":"levelo_inurba_marseille","lat":43.29516,"lon":5.375,"is_reserved":false,"is_disabled":false,"rental_uris":{"android":"levelo://app?vid=9dbfe221-39b8-4b28-abe6-5199de1041ec","ios":"levelo://app?vid=9dbfe221-39b8-4b28-abe6-5199de1041ec"},"vehicle_type_id":"4","last_reported":1731251275,"current_range_meters":38800,"station_id":"ce4bgkp2rcd13ifvqbmg","pricing_plan_id":"cebpf4jnsgd1na2vs0mg"},{"bike_id":"7cad69db-708c-41c0-bf6e-66717395d4b9","system_id":"levelo_inurba_marseille","lat":43.27431,"lon":5.39416,"is_reserved":false,"is_disabled":false,"rental_uris":{"android":"levelo://app?vid=7cad69db-708c-41c0-bf6e-66717395d4b9","ios":"levelo://app?vid=7cad69db-708c-41c0-bf6e-66717395d4b9"},"vehicle_type_id":"4","last_reported":1731251275,"current_range_meters":16800,"station_id":"ce4bhdp2rcd13ifvqf20","pricing_plan_id":"cebpf4jnsgd1na2vs0mg"},{"bike_id":"d2a974a2-88bc-4638-8d41-7f094635c91a","system_id":"levelo_inurba_marseille","lat":43.271049,"lon":5.38184,"is_reserved":false,"is_disabled":false,"rental_uris":{"android":"levelo://app?vid=d2a974a2-88bc-4638-8d41-7f094635c91a","ios":"levelo://app?vid=d2a974a2-88bc-4638-8d41-7f094635c91a"},"vehicle_type_id":"4","last_reported":1731251275,"current_range_meters":6000,"station_id":"","pricing_plan_id":"cebpf4jnsgd1na2vs0mg"},{"bike_id":"85e2f4f3-6aa2-4c02-8cb0-3f10017cc61a","system_id":"levelo_inurba_marseille","lat":43.25084,"lon":5.39522,"is_reserved":false,"is_disabled":false,"rental_uris":{"android":"levelo://app?vid=85e2f4f3-6aa2-4c02-8cb0-3f10017cc61a","ios":"levelo://app?vid=85e2f4f3-6aa2-4c02-8cb0-3f10017cc61a"},"vehicle_type_id":"4","last_reported":1731251275,"current_range_meters":34800,"station_id":"ce4bhm12rcd13ifvqgkg","pricing_plan_id":"cebpf4jnsgd1na2vs0mg"},{"bike_id":"71832a18-fe68-4443-9e8a-01f60b4f649a","system_id":"levelo_inurba_marseille","lat":43.27497,"lon":5.42452,"is_reserved":false,"is_disabled":false,"rental_uris":{"android":"levelo://app?vid=71832a18-fe68-4443-9e8a-01f60b4f649a","ios":"levelo://app?vid=71832a18-fe68-4443-9e8a-01f60b4f649a"},"vehicle_type_id":"4","last_reported":1731251275,"current_range_meters":4400,"station_id":"ce4bhn92rcd13ifvqgrg","pricing_plan_id":"cebpf4jnsgd1na2vs0mg"},{"bike_id":"f75f38e8-dcae-474f-b067-a93a58616eaa","system_id":"levelo_inurba_marseille","lat":43.23191,"lon":5.35559,"is_reserved":false,"is_disabled":false,"rental_uris":{"android":"levelo://app?vid=f75f38e8-dcae-474f-b067-a93a58616eaa","ios":"levelo://app?vid=f75f38e8-dcae-474f-b067-a93a58616eaa"},"vehicle_type_id":"4","last_reported":1731251275,"current_range_meters":29600,"station_id":"ce4bhu92rcd13ifvqi70","pricing_plan_id":"cebpf4jnsgd1na2vs0mg"},{"bike_id":"d8b069df-29e1-4273-99b0-c9104446d9c3","system_id":"levelo_inurba_marseille","lat":43.2319,"lon":5.35559,"is_reserved":false,"is_disabled":false,"rental_uris":{"android":"levelo://app?vid=d8b069df-29e1-4273-99b0-c9104446d9c3","ios":"levelo://app?vid=d8b069df-29e1-4273-99b0-c9104446d9c3"},"vehicle_type_id":"4","last_reported":1731251275,"current_range_meters":38800,"station_id":"ce4bhu92rcd13ifvqi70","pricing_plan_id":"cebpf4jnsgd1na2vs0mg"},{"bike_id":"be0017f9-e1ad-4085-a97a-5901835912a2","system_id":"levelo_inurba_marseille","lat":43.25495,"lon":5.3765,"is_reserved":false,"is_disabled":false,"rental_uris":{"android":"levelo://app?vid=be0017f9-e1ad-4085-a97a-5901835912a2","ios":"levelo://app?vid=be0017f9-e1ad-4085-a97a-5901835912a2"},"vehicle_type_id":"4","last_reported":1731251275,"current_range_meters":7200,"station_id":"ce4bhh12rcd13ifvqff0","pricing_plan_id":"cebpf4jnsgd1na2vs0mg"},{"bike_id":"107d1d99-663c-4e7d-931a-ca91294d8aec","system_id":"levelo_inurba_marseille","lat":43.32478,"lon":5.36563,"is_reserved":false,"is_disabled":false,"rental_uris":{"android":"levelo://app?vid=107d1d99-663c-4e7d-931a-ca91294d8aec","ios":"levelo://app?vid=107d1d99-663c-4e7d-931a-ca91294d8aec"},"vehicle_type_id":"4","last_reported":1731251275,"current_range_meters":28000,"station_id":"ce4bhs12rcd13ifvqhvg","pricing_plan_id":"cebpf4jnsgd1na2vs0mg"},{"bike_id":"c4083a4a-ab6c-408e-8c08-bb3e6f71b400","system_id":"levelo_inurba_marseille","lat":43.29164,"lon":5.37152,"is_reserved":false,"is_disabled":false,"rental_uris":{"android":"levelo://app?vid=c4083a4a-ab6c-408e-8c08-bb3e6f71b400","ios":"levelo://app?vid=c4083a4a-ab6c-408e-8c08-bb3e6f71b400"},"vehicle_type_id":"4","last_reported":1731251275,"current_range_meters":38800,"station_id":"ce4bha92rcd13ifvqeh0","pricing_plan_id":"cebpf4jnsgd1na2vs0mg"},{"bike_id":"ef5eb824-3593-4ea7-bda4-016eaa757d10","system_id":"levelo_inurba_marseille","lat":43.31753,"lon":5.39021,"is_reserved":false,"is_disabled":false,"rental_uris":{"android":"levelo://app?vid=ef5eb824-3593-4ea7-bda4-016eaa757d10","ios":"levelo://app?vid=ef5eb824-3593-4ea7-bda4-016eaa757d10"},"vehicle_type_id":"4","last_reported":1731251275,"current_range_meters":36000,"station_id":"ce4bh192rcd13ifvqdb0","pricing_plan_id":"cebpf4jnsgd1na2vs0mg"},{"bike_id":"ba983a0d-ac09-4811-8023-66e9eeb2ebe6","system_id":"levelo_inurba_marseille","lat":43.27204,"lon":5.39183,"is_reserved":false,"is_disabled":false,"rental_uris":{"android":"levelo://app?vid=ba983a0d-ac09-4811-8023-66e9eeb2ebe6","ios":"levelo://app?vid=ba983a0d-ac09-4811-8023-66e9eeb2ebe6"},"vehicle_type_id":"4","last_reported":1731251275,"current_range_meters":23200,"station_id":"ce4bhhp2rcd13ifvqfm0","pricing_plan_id":"cebpf4jnsgd1na2vs0mg"},{"bike_id":"21b698aa-c273-467d-8ee8-9ca0763fcd67","system_id":"levelo_inurba_marseille","lat":43.30795,"lon":5.43531,"is_reserved":false,"is_disabled":false,"rental_uris":{"android":"levelo://app?vid=21b698aa-c273-467d-8ee8-9ca0763fcd67","ios":"levelo://app?vid=21b698aa-c273-467d-8ee8-9ca0763fcd67"},"vehicle_type_id":"4","last_reported":1731251275,"current_range_meters":34000,"station_id":"ce4bhph2rcd13ifvqheg","pricing_plan_id":"cebpf4jnsgd1na2vs0mg"},{"bike_id":"f75b560b-68c2-493f-b9f4-242a4efa4b9e","system_id":"levelo_inurba_marseille","lat":43.29265,"lon":5.38426,"is_reserved":false,"is_disabled":false,"rental_uris":{"android":"levelo://app?vid=f75b560b-68c2-493f-b9f4-242a4efa4b9e","ios":"levelo://app?vid=f75b560b-68c2-493f-b9f4-242a4efa4b9e"},"vehicle_type_id":"4","last_reported":1731251275,"current_range_meters":5600,"station_id":"ce4bh692rcd13ifvqea0","pricing_plan_id":"cebpf4jnsgd1na2vs0mg"},{"bike_id":"fe8cc63f-e207-4ef3-8c80-6fc0659da00a","system_id":"levelo_inurba_marseille","lat":43.24077,"lon":5.37751,"is_reserved":false,"is_disabled":false,"rental_uris":{"android":"levelo://app?vid=fe8cc63f-e207-4ef3-8c80-6fc0659da00a","ios":"levelo://app?vid=fe8cc63f-e207-4ef3-8c80-6fc0659da00a"},"vehicle_type_id":"4","last_reported":1731251275,"current_range_meters":28800,"station_id":"ce4bhnp2rcd13ifvqgvg","pricing_plan_id":"cebpf4jnsgd1na2vs0mg"},{"bike_id":"91159c09-9195-4483-a6be-99230f9de272","system_id":"levelo_inurba_marseille","lat":43.34151,"lon":5.40906,"is_reserved":false,"is_disabled":false,"rental_uris":{"android":"levelo://app?vid=91159c09-9195-4483-a6be-99230f9de272","ios":"levelo://app?vid=91159c09-9195-4483-a6be-99230f9de272"},"vehicle_type_id":"4","last_reported":1731251275,"current_range_meters":38400,"station_id":"ce4bhqh2rcd13ifvqhlg","pricing_plan_id":"cebpf4jnsgd1na2vs0mg"},{"bike_id":"55700614-4820-43a5-871e-d1005d570930","system_id":"levelo_inurba_marseille","lat":43.24075,"lon":5.37757,"is_reserved":false,"is_disabled":false,"rental_uris":{"android":"levelo://app?vid=55700614-4820-43a5-871e-d1005d570930","ios":"levelo://app?vid=55700614-4820-43a5-871e-d1005d570930"},"vehicle_type_id":"4","last_reported":1731251275,"current_range_meters":39200,"station_id":"ce4bhnp2rcd13ifvqgvg","pricing_plan_id":"cebpf4jnsgd1na2vs0mg"},{"bike_id":"497d24e9-e702-4709-b532-ee5e40ce76ad","system_id":"levelo_inurba_marseille","lat":43.243885,"lon":5.3707,"is_reserved":false,"is_disabled":false,"rental_uris":{"android":"levelo://app?vid=497d24e9-e702-4709-b532-ee5e40ce76ad","ios":"levelo://app?vid=497d24e9-e702-4709-b532-ee5e40ce76ad"},"vehicle_type_id":"4","last_reported":1731251275,"current_range_meters":7200,"station_id":"ce4bhhh2rcd13ifvqfk0","pricing_plan_id":"cebpf4jnsgd1na2vs0mg"},{"bike_id":"13541b6f-88fd-4535-8b27-d952d6b1825d","system_id":"levelo_inurba_marseille","lat":43.282715,"lon":5.350643,"is_reserved":false,"is_disabled":false,"rental_uris":{"android":"levelo://app?vid=13541b6f-88fd-4535-8b27-d952d6b1825d","ios":"levelo://app?vid=13541b6f-88fd-4535-8b27-d952d6b1825d"},"vehicle_type_id":"4","last_reported":1731251275,"current_range_meters":28400,"station_id":"ce4bhbp2rcd13ifvqerg","pricing_plan_id":"cebpf4jnsgd1na2vs0mg"},{"bike_id":"182225b8-1b71-4137-8c5b-4229e9cc131b","system_id":"levelo_inurba_marseille","lat":43.28702,"lon":5.39985,"is_reserved":false,"is_disabled":false,"rental_uris":{"android":"levelo://app?vid=182225b8-1b71-4137-8c5b-4229e9cc131b","ios":"levelo://app?vid=182225b8-1b71-4137-8c5b-4229e9cc131b"},"vehicle_type_id":"4","last_reported":1731251275,"current_range_meters":36000,"station_id":"ce4bho92rcd13ifvqh3g","pricing_plan_id":"cebpf4jnsgd1na2vs0mg"},{"bike_id":"96aef8c1-f007-442e-b872-036e6f6c58ad","system_id":"levelo_inurba_marseille","lat":43.3175,"lon":5.39027,"is_reserved":false,"is_disabled":false,"rental_uris":{"android":"levelo://app?vid=96aef8c1-f007-442e-b872-036e6f6c58ad","ios":"levelo://app?vid=96aef8c1-f007-442e-b872-036e6f6c58ad"},"vehicle_type_id":"4","last_reported":1731251275,"current_range_meters":39200,"station_id":"ce4bhqp2rcd13ifvqhng","pricing_plan_id":"cebpf4jnsgd1na2vs0mg"},{"bike_id":"134ce1ce-579d-4d82-bde6-b146c0c11c11","system_id":"levelo_inurba_marseille","lat":43.29887,"lon":5.43682,"is_reserved":false,"is_disabled":false,"rental_uris":{"android":"levelo://app?vid=134ce1ce-579d-4d82-bde6-b146c0c11c11","ios":"levelo://app?vid=134ce1ce-579d-4d82-bde6-b146c0c11c11"},"vehicle_type_id":"4","last_reported":1731251275,"current_range_meters":36800,"station_id":"ce4bhpp2rcd13ifvqhfg","pricing_plan_id":"cebpf4jnsgd1na2vs0mg"},{"bike_id":"24705ee6-4c84-4656-b0ff-5401a00ac406","system_id":"levelo_inurba_marseille","lat":43.28415,"lon":5.34981,"is_reserved":false,"is_disabled":false,"rental_uris":{"android":"levelo://app?vid=24705ee6-4c84-4656-b0ff-5401a00ac406","ios":"levelo://app?vid=24705ee6-4c84-4656-b0ff-5401a00ac406"},"vehicle_type_id":"4","last_reported":1731251275,"current_range_meters":37600,"station_id":"ce4bhbh2rcd13ifvqepg","pricing_plan_id":"cebpf4jnsgd1na2vs0mg"},{"bike_id":"906c8c14-efc9-453d-bfb5-3e3c60317e9c","system_id":"levelo_inurba_marseille","lat":43.26059,"lon":5.394,"is_reserved":false,"is_disabled":false,"rental_uris":{"android":"levelo://app?vid=906c8c14-efc9-453d-bfb5-3e3c60317e9c","ios":"levelo://app?vid=906c8c14-efc9-453d-bfb5-3e3c60317e9c"},"vehicle_type_id":"4","last_reported":1731251275,"current_range_meters":36000,"station_id":"ce4bhh92rcd13ifvqfj0","pricing_plan_id":"cebpf4jnsgd1na2vs0mg"},{"bike_id":"181fa628-fd06-4339-88f4-5d411c857699","system_id":"levelo_inurba_marseille","lat":43.27065,"lon":5.42282,"is_reserved":false,"is_disabled":false,"rental_uris":{"android":"levelo://app?vid=181fa628-fd06-4339-88f4-5d411c857699","ios":"levelo://app?vid=181fa628-fd06-4339-88f4-5d411c857699"},"vehicle_type_id":"4","last_reported":1731251275,"current_range_meters":8800,"station_id":"ce4bhk92rcd13ifvqgb0","pricing_plan_id":"cebpf4jnsgd1na2vs0mg"},{"bike_id":"4421dcf2-bd19-4c35-b810-9d3295dcc007","system_id":"levelo_inurba_marseille","lat":43.28274,"lon":5.35056,"is_reserved":false,"is_disabled":false,"rental_uris":{"android":"levelo://app?vid=4421dcf2-bd19-4c35-b810-9d3295dcc007","ios":"levelo://app?vid=4421dcf2-bd19-4c35-b810-9d3295dcc007"},"vehicle_type_id":"4","last_reported":1731251275,"current_range_meters":26800,"station_id":"ce4bhbp2rcd13ifvqerg","pricing_plan_id":"cebpf4jnsgd1na2vs0mg"},{"bike_id":"ecdb51f8-0018-4f79-a222-3936a2eef0af","system_id":"levelo_inurba_marseille","lat":43.27375,"lon":5.36255,"is_reserved":false,"is_disabled":false,"rental_uris":{"android":"levelo://app?vid=ecdb51f8-0018-4f79-a222-3936a2eef0af","ios":"levelo://app?vid=ecdb51f8-0018-4f79-a222-3936a2eef0af"},"vehicle_type_id":"4","last_reported":1731251275,"current_range_meters":25200,"station_id":"ce4bhbh2rcd13ifvqeo0","pricing_plan_id":"cebpf4jnsgd1na2vs0mg"},{"bike_id":"9a5eb101-92a2-4eeb-93bd-8d070d90c1ea","system_id":"levelo_inurba_marseille","lat":43.30433,"lon":5.42528,"is_reserved":false,"is_disabled":false,"rental_uris":{"android":"levelo://app?vid=9a5eb101-92a2-4eeb-93bd-8d070d90c1ea","ios":"levelo://app?vid=9a5eb101-92a2-4eeb-93bd-8d070d90c1ea"},"vehicle_type_id":"4","last_reported":1731251275,"current_range_meters":11200,"station_id":"","pricing_plan_id":"cebpf4jnsgd1na2vs0mg"},{"bike_id":"3ba567a2-e80d-4154-8ac4-aa6e78894b5a","system_id":"levelo_inurba_marseille","lat":43.27942,"lon":5.38755,"is_reserved":false,"is_disabled":false,"rental_uris":{"android":"levelo://app?vid=3ba567a2-e80d-4154-8ac4-aa6e78894b5a","ios":"levelo://app?vid=3ba567a2-e80d-4154-8ac4-aa6e78894b5a"},"vehicle_type_id":"4","last_reported":1731251275,"current_range_meters":8000,"station_id":"ce4bhg12rcd13ifvqf80","pricing_plan_id":"cebpf4jnsgd1na2vs0mg"},{"bike_id":"91a598a9-4284-4e88-ab7f-5e3a7e64ed8d","system_id":"levelo_inurba_marseille","lat":43.25484,"lon":5.37659,"is_reserved":false,"is_disabled":false,"rental_uris":{"android":"levelo://app?vid=91a598a9-4284-4e88-ab7f-5e3a7e64ed8d","ios":"levelo://app?vid=91a598a9-4284-4e88-ab7f-5e3a7e64ed8d"},"vehicle_type_id":"4","last_reported":1731251275,"current_range_meters":7200,"station_id":"ce4bhh12rcd13ifvqff0","pricing_plan_id":"cebpf4jnsgd1na2vs0mg"},{"bike_id":"e886f75a-6750-490b-b7f9-00a3f827bd38","system_id":"levelo_inurba_marseille","lat":43.26928,"lon":5.38908,"is_reserved":false,"is_disabled":false,"rental_uris":{"android":"levelo://app?vid=e886f75a-6750-490b-b7f9-00a3f827bd38","ios":"levelo://app?vid=e886f75a-6750-490b-b7f9-00a3f827bd38"},"vehicle_type_id":"4","last_reported":1731251275,"current_range_meters":15200,"station_id":"ce4bhhh2rcd13ifvqfl0","pricing_plan_id":"cebpf4jnsgd1na2vs0mg"},{"bike_id":"0d93b31b-854a-4c31-b287-70df5cbe7d07","system_id":"levelo_inurba_marseille","lat":43.24076,"lon":5.37733,"is_reserved":false,"is_disabled":false,"rental_uris":{"android":"levelo://app?vid=0d93b31b-854a-4c31-b287-70df5cbe7d07","ios":"levelo://app?vid=0d93b31b-854a-4c31-b287-70df5cbe7d07"},"vehicle_type_id":"4","last_reported":1731251275,"current_range_meters":10800,"station_id":"ce4bhnp2rcd13ifvqgvg","pricing_plan_id":"cebpf4jnsgd1na2vs0mg"},{"bike_id":"8e9a58c9-4fef-4aca-810f-eb47de85c9df","system_id":"levelo_inurba_marseille","lat":43.32474,"lon":5.36571,"is_reserved":false,"is_disabled":false,"rental_uris":{"android":"levelo://app?vid=8e9a58c9-4fef-4aca-810f-eb47de85c9df","ios":"levelo://app?vid=8e9a58c9-4fef-4aca-810f-eb47de85c9df"},"vehicle_type_id":"4","last_reported":1731251275,"current_range_meters":20000,"station_id":"ce4bhs12rcd13ifvqhvg","pricing_plan_id":"cebpf4jnsgd1na2vs0mg"},{"bike_id":"e6d1a132-a20c-41fa-8c9b-8833ace12b23","system_id":"levelo_inurba_marseille","lat":43.29218,"lon":5.36053,"is_reserved":false,"is_disabled":false,"rental_uris":{"android":"levelo://app?vid=e6d1a132-a20c-41fa-8c9b-8833ace12b23","ios":"levelo://app?vid=e6d1a132-a20c-41fa-8c9b-8833ace12b23"},"vehicle_type_id":"4","last_reported":1731251275,"current_range_meters":38800,"station_id":"ce4bhbh2rcd13ifvqeqg","pricing_plan_id":"cebpf4jnsgd1na2vs0mg"},{"bike_id":"0e83ce01-6760-4f0a-b2cd-0dccbba565b3","system_id":"levelo_inurba_marseille","lat":43.28422,"lon":5.34993,"is_reserved":false,"is_disabled":false,"rental_uris":{"android":"levelo://app?vid=0e83ce01-6760-4f0a-b2cd-0dccbba565b3","ios":"levelo://app?vid=0e83ce01-6760-4f0a-b2cd-0dccbba565b3"},"vehicle_type_id":"4","last_reported":1731251275,"current_range_meters":18000,"station_id":"ce4bhbh2rcd13ifvqepg","pricing_plan_id":"cebpf4jnsgd1na2vs0mg"},{"bike_id":"4fb6af20-dec9-436c-9f32-24edbd37e126","system_id":"levelo_inurba_marseille","lat":43.28406,"lon":5.3499,"is_reserved":false,"is_disabled":false,"rental_uris":{"android":"levelo://app?vid=4fb6af20-dec9-436c-9f32-24edbd37e126","ios":"levelo://app?vid=4fb6af20-dec9-436c-9f32-24edbd37e126"},"vehicle_type_id":"4","last_reported":1731251275,"current_range_meters":11600,"station_id":"ce4bhbh2rcd13ifvqepg","pricing_plan_id":"cebpf4jnsgd1na2vs0mg"},{"bike_id":"c6ae65bf-8d5e-4ea9-a3a9-adc79d0ebafe","system_id":"levelo_inurba_marseille","lat":43.24392,"lon":5.37057,"is_reserved":false,"is_disabled":false,"rental_uris":{"android":"levelo://app?vid=c6ae65bf-8d5e-4ea9-a3a9-adc79d0ebafe","ios":"levelo://app?vid=c6ae65bf-8d5e-4ea9-a3a9-adc79d0ebafe"},"vehicle_type_id":"4","last_reported":1731251275,"current_range_meters":22800,"station_id":"ce4bhhh2rcd13ifvqfk0","pricing_plan_id":"cebpf4jnsgd1na2vs0mg"},{"bike_id":"1b641421-2e55-46f2-aa52-a5bd61345632","system_id":"levelo_inurba_marseille","lat":43.24168,"lon":5.36392,"is_reserved":false,"is_disabled":false,"rental_uris":{"android":"levelo://app?vid=1b641421-2e55-46f2-aa52-a5bd61345632","ios":"levelo://app?vid=1b641421-2e55-46f2-aa52-a5bd61345632"},"vehicle_type_id":"4","last_reported":1731251275,"current_range_meters":11200,"station_id":"cpo36qri1sfpv3e86is0","pricing_plan_id":"cebpf4jnsgd1na2vs0mg"},{"bike_id":"17d9f265-25d5-4f9e-b698-ca6ac8592bac","system_id":"levelo_inurba_marseille","lat":43.2319,"lon":5.35558,"is_reserved":false,"is_disabled":false,"rental_uris":{"android":"levelo://app?vid=17d9f265-25d5-4f9e-b698-ca6ac8592bac","ios":"levelo://app?vid=17d9f265-25d5-4f9e-b698-ca6ac8592bac"},"vehicle_type_id":"4","last_reported":1731251275,"current_range_meters":34800,"station_id":"ce4bhu92rcd13ifvqi70","pricing_plan_id":"cebpf4jnsgd1na2vs0mg"},{"bike_id":"58f15559-a7ac-4641-95c1-2c8880350d68","system_id":"levelo_inurba_marseille","lat":43.28693,"lon":5.37391,"is_reserved":false,"is_disabled":false,"rental_uris":{"android":"levelo://app?vid=58f15559-a7ac-4641-95c1-2c8880350d68","ios":"levelo://app?vid=58f15559-a7ac-4641-95c1-2c8880350d68"},"vehicle_type_id":"4","last_reported":1731251275,"current_range_meters":39200,"station_id":"ce4bh3p2rcd13ifvqdq0","pricing_plan_id":"cebpf4jnsgd1na2vs0mg"},{"bike_id":"c00f4463-ff99-43aa-9e24-8e46ba70e38b","system_id":"levelo_inurba_marseille","lat":43.30531,"lon":5.36552,"is_reserved":false,"is_disabled":false,"rental_uris":{"android":"levelo://app?vid=c00f4463-ff99-43aa-9e24-8e46ba70e38b","ios":"levelo://app?vid=c00f4463-ff99-43aa-9e24-8e46ba70e38b"},"vehicle_type_id":"4","last_reported":1731251275,"current_range_meters":13600,"station_id":"ce4bgs12rcd13ifvqcag","pricing_plan_id":"cebpf4jnsgd1na2vs0mg"},{"bike_id":"f127fe7e-9aba-4670-a1f8-78e0359e7000","system_id":"levelo_inurba_marseille","lat":43.272884,"lon":5.412162,"is_reserved":false,"is_disabled":false,"rental_uris":{"android":"levelo://app?vid=f127fe7e-9aba-4670-a1f8-78e0359e7000","ios":"levelo://app?vid=f127fe7e-9aba-4670-a1f8-78e0359e7000"},"vehicle_type_id":"4","last_reported":1731251275,"current_range_meters":14400,"station_id":"ce4bhl12rcd13ifvqgf0","pricing_plan_id":"cebpf4jnsgd1na2vs0mg"},{"bike_id":"07704a86-dbed-425a-854d-11b1a4e3d84c","system_id":"levelo_inurba_marseille","lat":43.33753,"lon":5.37448,"is_reserved":false,"is_disabled":false,"rental_uris":{"android":"levelo://app?vid=07704a86-dbed-425a-854d-11b1a4e3d84c","ios":"levelo://app?vid=07704a86-dbed-425a-854d-11b1a4e3d84c"},"vehicle_type_id":"4","last_reported":1731251275,"current_range_meters":30400,"station_id":"","pricing_plan_id":"cebpf4jnsgd1na2vs0mg"},{"bike_id":"51df01a2-4c6f-4aff-a101-717cc8587d36","system_id":"levelo_inurba_marseille","lat":43.29002,"lon":5.35616,"is_reserved":false,"is_disabled":false,"rental_uris":{"android":"levelo://app?vid=51df01a2-4c6f-4aff-a101-717cc8587d36","ios":"levelo://app?vid=51df01a2-4c6f-4aff-a101-717cc8587d36"},"vehicle_type_id":"4","last_reported":1731251275,"current_range_meters":39200,"station_id":"ce4bhb92rcd13ifvqen0","pricing_plan_id":"cebpf4jnsgd1na2vs0mg"},{"bike_id":"ce4131eb-150c-483b-b9eb-6510a9d11e2d","system_id":"levelo_inurba_marseille","lat":43.3013,"lon":5.38074,"is_reserved":false,"is_disabled":false,"rental_uris":{"android":"levelo://app?vid=ce4131eb-150c-483b-b9eb-6510a9d11e2d","ios":"levelo://app?vid=ce4131eb-150c-483b-b9eb-6510a9d11e2d"},"vehicle_type_id":"4","last_reported":1731251275,"current_range_meters":38800,"station_id":"ce4bgjp2rcd13ifvqbh0","pricing_plan_id":"cebpf4jnsgd1na2vs0mg"},{"bike_id":"0b74ce83-e6b1-4485-8ca6-3897f29a426e","system_id":"levelo_inurba_marseille","lat":43.23957,"lon":5.36625,"is_reserved":false,"is_disabled":false,"rental_uris":{"android":"levelo://app?vid=0b74ce83-e6b1-4485-8ca6-3897f29a426e","ios":"levelo://app?vid=0b74ce83-e6b1-4485-8ca6-3897f29a426e"},"vehicle_type_id":"4","last_reported":1731251275,"current_range_meters":8800,"station_id":"ce4bhi12rcd13ifvqfp0","pricing_plan_id":"cebpf4jnsgd1na2vs0mg"},{"bike_id":"6c667f5f-b7e9-4c69-8c31-28fbbcdde478","system_id":"levelo_inurba_marseille","lat":43.23189,"lon":5.35564,"is_reserved":false,"is_disabled":false,"rental_uris":{"android":"levelo://app?vid=6c667f5f-b7e9-4c69-8c31-28fbbcdde478","ios":"levelo://app?vid=6c667f5f-b7e9-4c69-8c31-28fbbcdde478"},"vehicle_type_id":"4","last_reported":1731251275,"current_range_meters":8000,"station_id":"ce4bhu92rcd13ifvqi70","pricing_plan_id":"cebpf4jnsgd1na2vs0mg"},{"bike_id":"1bc42c89-6add-4f12-91a8-df4a8034b2db","system_id":"levelo_inurba_marseille","lat":43.23064,"lon":5.35491,"is_reserved":false,"is_disabled":false,"rental_uris":{"android":"levelo://app?vid=1bc42c89-6add-4f12-91a8-df4a8034b2db","ios":"levelo://app?vid=1bc42c89-6add-4f12-91a8-df4a8034b2db"},"vehicle_type_id":"4","last_reported":1731251275,"current_range_meters":7200,"station_id":"cpo3342slgdg3j2ifvpg","pricing_plan_id":"cebpf4jnsgd1na2vs0mg"},{"bike_id":"2016efc3-0c67-4b9f-a77c-4cad4e5226f3","system_id":"levelo_inurba_marseille","lat":43.281,"lon":5.3785,"is_reserved":false,"is_disabled":false,"rental_uris":{"android":"levelo://app?vid=2016efc3-0c67-4b9f-a77c-4cad4e5226f3","ios":"levelo://app?vid=2016efc3-0c67-4b9f-a77c-4cad4e5226f3"},"vehicle_type_id":"4","last_reported":1731251275,"current_range_meters":25200,"station_id":"ce4bha12rcd13ifvqee0","pricing_plan_id":"cebpf4jnsgd1na2vs0mg"},{"bike_id":"baac3be3-010c-4ab7-b814-2af962c842f8","system_id":"levelo_inurba_marseille","lat":43.28363,"lon":5.37521,"is_reserved":false,"is_disabled":false,"rental_uris":{"android":"levelo://app?vid=baac3be3-010c-4ab7-b814-2af962c842f8","ios":"levelo://app?vid=baac3be3-010c-4ab7-b814-2af962c842f8"},"vehicle_type_id":"4","last_reported":1731251275,"current_range_meters":26800,"station_id":"ce4bh412rcd13ifvqds0","pricing_plan_id":"cebpf4jnsgd1na2vs0mg"},{"bike_id":"77dd3adc-b198-48d6-979a-5394c6949845","system_id":"levelo_inurba_marseille","lat":43.28407,"lon":5.34977,"is_reserved":false,"is_disabled":false,"rental_uris":{"android":"levelo://app?vid=77dd3adc-b198-48d6-979a-5394c6949845","ios":"levelo://app?vid=77dd3adc-b198-48d6-979a-5394c6949845"},"vehicle_type_id":"4","last_reported":1731251275,"current_range_meters":10800,"station_id":"ce4bhbh2rcd13ifvqepg","pricing_plan_id":"cebpf4jnsgd1na2vs0mg"},{"bike_id":"59047fad-0d94-4849-b483-e6d0caaafb99","system_id":"levelo_inurba_marseille","lat":43.27486,"lon":5.42453,"is_reserved":false,"is_disabled":false,"rental_uris":{"android":"levelo://app?vid=59047fad-0d94-4849-b483-e6d0caaafb99","ios":"levelo://app?vid=59047fad-0d94-4849-b483-e6d0caaafb99"},"vehicle_type_id":"4","last_reported":1731251275,"current_range_meters":3200,"station_id":"ce4bhn92rcd13ifvqgrg","pricing_plan_id":"cebpf4jnsgd1na2vs0mg"},{"bike_id":"2b91e9cb-3180-42d7-bafd-f1fb7a2f9124","system_id":"levelo_inurba_marseille","lat":43.27914,"lon":5.39583,"is_reserved":false,"is_disabled":false,"rental_uris":{"android":"levelo://app?vid=2b91e9cb-3180-42d7-bafd-f1fb7a2f9124","ios":"levelo://app?vid=2b91e9cb-3180-42d7-bafd-f1fb7a2f9124"},"vehicle_type_id":"4","last_reported":1731251275,"current_range_meters":8800,"station_id":"ce4bhf92rcd13ifvqf40","pricing_plan_id":"cebpf4jnsgd1na2vs0mg"},{"bike_id":"7c59c113-339d-4f9b-b12b-18190bdaf895","system_id":"levelo_inurba_marseille","lat":43.25084,"lon":5.39527,"is_reserved":false,"is_disabled":false,"rental_uris":{"android":"levelo://app?vid=7c59c113-339d-4f9b-b12b-18190bdaf895","ios":"levelo://app?vid=7c59c113-339d-4f9b-b12b-18190bdaf895"},"vehicle_type_id":"4","last_reported":1731251275,"current_range_meters":39200,"station_id":"ce4bhm12rcd13ifvqgkg","pricing_plan_id":"cebpf4jnsgd1na2vs0mg"},{"bike_id":"74978fdb-6ca2-4d8b-9174-9b622ddf0e88","system_id":"levelo_inurba_marseille","lat":43.22879,"lon":5.36504,"is_reserved":false,"is_disabled":false,"rental_uris":{"android":"levelo://app?vid=74978fdb-6ca2-4d8b-9174-9b622ddf0e88","ios":"levelo://app?vid=74978fdb-6ca2-4d8b-9174-9b622ddf0e88"},"vehicle_type_id":"4","last_reported":1731251275,"current_range_meters":36800,"station_id":"","pricing_plan_id":"cebpf4jnsgd1na2vs0mg"},{"bike_id":"6fabbb8c-a56d-4a53-9f01-1bc3642318a0","system_id":"levelo_inurba_marseille","lat":43.23959,"lon":5.36633,"is_reserved":false,"is_disabled":false,"rental_uris":{"android":"levelo://app?vid=6fabbb8c-a56d-4a53-9f01-1bc3642318a0","ios":"levelo://app?vid=6fabbb8c-a56d-4a53-9f01-1bc3642318a0"},"vehicle_type_id":"4","last_reported":1731251275,"current_range_meters":15200,"station_id":"ce4bhi12rcd13ifvqfp0","pricing_plan_id":"cebpf4jnsgd1na2vs0mg"},{"bike_id":"b4eb30bc-dd09-4cbf-8ece-3b8ada662aaf","system_id":"levelo_inurba_marseille","lat":43.25,"lon":5.38916,"is_reserved":false,"is_disabled":false,"rental_uris":{"android":"levelo://app?vid=b4eb30bc-dd09-4cbf-8ece-3b8ada662aaf","ios":"levelo://app?vid=b4eb30bc-dd09-4cbf-8ece-3b8ada662aaf"},"vehicle_type_id":"4","last_reported":1731251275,"current_range_meters":12800,"station_id":"ce4bhgp2rcd13ifvqfd0","pricing_plan_id":"cebpf4jnsgd1na2vs0mg"},{"bike_id":"7df740c0-d4f2-467d-a2f3-0bb22e99eda6","system_id":"levelo_inurba_marseille","lat":43.281067,"lon":5.37834,"is_reserved":false,"is_disabled":false,"rental_uris":{"android":"levelo://app?vid=7df740c0-d4f2-467d-a2f3-0bb22e99eda6","ios":"levelo://app?vid=7df740c0-d4f2-467d-a2f3-0bb22e99eda6"},"vehicle_type_id":"4","last_reported":1731251275,"current_range_meters":27200,"station_id":"ce4bha12rcd13ifvqee0","pricing_plan_id":"cebpf4jnsgd1na2vs0mg"},{"bike_id":"35c9866e-9095-49c5-ba06-72a672a0ce24","system_id":"levelo_inurba_marseille","lat":43.22932,"lon":5.35373,"is_reserved":false,"is_disabled":false,"rental_uris":{"android":"levelo://app?vid=35c9866e-9095-49c5-ba06-72a672a0ce24","ios":"levelo://app?vid=35c9866e-9095-49c5-ba06-72a672a0ce24"},"vehicle_type_id":"4","last_reported":1731251275,"current_range_meters":24400,"station_id":"cpo3532slgdg3j2ikp40","pricing_plan_id":"cebpf4jnsgd1na2vs0mg"},{"bike_id":"c931e854-f671-4eae-be17-c754dc3c9917","system_id":"levelo_inurba_marseille","lat":43.29559,"lon":5.42288,"is_reserved":false,"is_disabled":false,"rental_uris":{"android":"levelo://app?vid=c931e854-f671-4eae-be17-c754dc3c9917","ios":"levelo://app?vid=c931e854-f671-4eae-be17-c754dc3c9917"},"vehicle_type_id":"4","last_reported":1731251275,"current_range_meters":8000,"station_id":"ce4bhph2rcd13ifvqhdg","pricing_plan_id":"cebpf4jnsgd1na2vs0mg"},{"bike_id":"110cf750-d933-48ee-868c-94a0d2c3f544","system_id":"levelo_inurba_marseille","lat":43.22932,"lon":5.35377,"is_reserved":false,"is_disabled":false,"rental_uris":{"android":"levelo://app?vid=110cf750-d933-48ee-868c-94a0d2c3f544","ios":"levelo://app?vid=110cf750-d933-48ee-868c-94a0d2c3f544"},"vehicle_type_id":"4","last_reported":1731251275,"current_range_meters":40000,"station_id":"cpo3532slgdg3j2ikp40","pricing_plan_id":"cebpf4jnsgd1na2vs0mg"},{"bike_id":"91701630-6635-42e5-8568-8ca77d12f6bd","system_id":"levelo_inurba_marseille","lat":43.28934,"lon":5.36638,"is_reserved":false,"is_disabled":false,"rental_uris":{"android":"levelo://app?vid=91701630-6635-42e5-8568-8ca77d12f6bd","ios":"levelo://app?vid=91701630-6635-42e5-8568-8ca77d12f6bd"},"vehicle_type_id":"4","last_reported":1731251275,"current_range_meters":6000,"station_id":"ce4bhap2rcd13ifvqek0","pricing_plan_id":"cebpf4jnsgd1na2vs0mg"},{"bike_id":"f9536705-6469-40fe-8b90-ba5d77388fb4","system_id":"levelo_inurba_marseille","lat":43.25483,"lon":5.37659,"is_reserved":false,"is_disabled":false,"rental_uris":{"android":"levelo://app?vid=f9536705-6469-40fe-8b90-ba5d77388fb4","ios":"levelo://app?vid=f9536705-6469-40fe-8b90-ba5d77388fb4"},"vehicle_type_id":"4","last_reported":1731251275,"current_range_meters":18000,"station_id":"ce4bhh12rcd13ifvqff0","pricing_plan_id":"cebpf4jnsgd1na2vs0mg"},{"bike_id":"336f6dd3-01d0-421e-98d3-245ae2db5930","system_id":"levelo_inurba_marseille","lat":43.31701,"lon":5.43703,"is_reserved":false,"is_disabled":false,"rental_uris":{"android":"levelo://app?vid=336f6dd3-01d0-421e-98d3-245ae2db5930","ios":"levelo://app?vid=336f6dd3-01d0-421e-98d3-245ae2db5930"},"vehicle_type_id":"4","last_reported":1731251275,"current_range_meters":6800,"station_id":"ce4bhp92rcd13ifvqhcg","pricing_plan_id":"cebpf4jnsgd1na2vs0mg"},{"bike_id":"34b046ac-5776-4eae-ad1d-7287cb7dcbe9","system_id":"levelo_inurba_marseille","lat":43.23961,"lon":5.36629,"is_reserved":false,"is_disabled":false,"rental_uris":{"android":"levelo://app?vid=34b046ac-5776-4eae-ad1d-7287cb7dcbe9","ios":"levelo://app?vid=34b046ac-5776-4eae-ad1d-7287cb7dcbe9"},"vehicle_type_id":"4","last_reported":1731251275,"current_range_meters":20000,"station_id":"ce4bhi12rcd13ifvqfp0","pricing_plan_id":"cebpf4jnsgd1na2vs0mg"},{"bike_id":"073207b6-dc59-42bb-9426-128e49a166f9","system_id":"levelo_inurba_marseille","lat":43.29594,"lon":5.38099,"is_reserved":false,"is_disabled":false,"rental_uris":{"android":"levelo://app?vid=073207b6-dc59-42bb-9426-128e49a166f9","ios":"levelo://app?vid=073207b6-dc59-42bb-9426-128e49a166f9"},"vehicle_type_id":"4","last_reported":1731251275,"current_range_meters":39200,"station_id":"ce4bgl12rcd13ifvqbo0","pricing_plan_id":"cebpf4jnsgd1na2vs0mg"},{"bike_id":"a747b089-717e-4770-9ab1-460a46333c79","system_id":"levelo_inurba_marseille","lat":43.301258,"lon":5.398635,"is_reserved":false,"is_disabled":false,"rental_uris":{"android":"levelo://app?vid=a747b089-717e-4770-9ab1-460a46333c79","ios":"levelo://app?vid=a747b089-717e-4770-9ab1-460a46333c79"},"vehicle_type_id":"4","last_reported":1731251275,"current_range_meters":5600,"station_id":"ce4bh0h2rcd13ifvqd40","pricing_plan_id":"cebpf4jnsgd1na2vs0mg"},{"bike_id":"6ec24a89-692f-4cd8-88f4-6ca2de4a4fba","system_id":"levelo_inurba_marseille","lat":43.26929,"lon":5.38925,"is_reserved":false,"is_disabled":false,"rental_uris":{"android":"levelo://app?vid=6ec24a89-692f-4cd8-88f4-6ca2de4a4fba","ios":"levelo://app?vid=6ec24a89-692f-4cd8-88f4-6ca2de4a4fba"},"vehicle_type_id":"4","last_reported":1731251275,"current_range_meters":17200,"station_id":"ce4bhhh2rcd13ifvqfl0","pricing_plan_id":"cebpf4jnsgd1na2vs0mg"},{"bike_id":"63f1750d-2b8a-4c0b-bc4a-80ca5018635c","system_id":"levelo_inurba_marseille","lat":43.28702,"lon":5.39981,"is_reserved":false,"is_disabled":false,"rental_uris":{"android":"levelo://app?vid=63f1750d-2b8a-4c0b-bc4a-80ca5018635c","ios":"levelo://app?vid=63f1750d-2b8a-4c0b-bc4a-80ca5018635c"},"vehicle_type_id":"4","last_reported":1731251275,"current_range_meters":6400,"station_id":"ce4bho92rcd13ifvqh3g","pricing_plan_id":"cebpf4jnsgd1na2vs0mg"},{"bike_id":"c43bfbe6-2bf2-47fb-80a7-057f382a90aa","system_id":"levelo_inurba_marseille","lat":43.23197,"lon":5.35545,"is_reserved":false,"is_disabled":false,"rental_uris":{"android":"levelo://app?vid=c43bfbe6-2bf2-47fb-80a7-057f382a90aa","ios":"levelo://app?vid=c43bfbe6-2bf2-47fb-80a7-057f382a90aa"},"vehicle_type_id":"4","last_reported":1731251275,"current_range_meters":24400,"station_id":"ce4bhu92rcd13ifvqi70","pricing_plan_id":"cebpf4jnsgd1na2vs0mg"},{"bike_id":"d604bdcf-1c29-4955-a92a-983bad3f66b9","system_id":"levelo_inurba_marseille","lat":43.28407,"lon":5.34985,"is_reserved":false,"is_disabled":false,"rental_uris":{"android":"levelo://app?vid=d604bdcf-1c29-4955-a92a-983bad3f66b9","ios":"levelo://app?vid=d604bdcf-1c29-4955-a92a-983bad3f66b9"},"vehicle_type_id":"4","last_reported":1731251275,"current_range_meters":30400,"station_id":"ce4bhbh2rcd13ifvqepg","pricing_plan_id":"cebpf4jnsgd1na2vs0mg"},{"bike_id":"721eeb2e-9c7a-4c75-a396-158a79915d46","system_id":"levelo_inurba_marseille","lat":43.31364,"lon":5.38487,"is_reserved":false,"is_disabled":false,"rental_uris":{"android":"levelo://app?vid=721eeb2e-9c7a-4c75-a396-158a79915d46","ios":"levelo://app?vid=721eeb2e-9c7a-4c75-a396-158a79915d46"},"vehicle_type_id":"4","last_reported":1731251275,"current_range_meters":16800,"station_id":"ce4bgt92rcd13ifvqcf0","pricing_plan_id":"cebpf4jnsgd1na2vs0mg"},{"bike_id":"e61e0940-c088-4879-95f6-2eeeebf20835","system_id":"levelo_inurba_marseille","lat":43.31689,"lon":5.37737,"is_reserved":false,"is_disabled":false,"rental_uris":{"android":"levelo://app?vid=e61e0940-c088-4879-95f6-2eeeebf20835","ios":"levelo://app?vid=e61e0940-c088-4879-95f6-2eeeebf20835"},"vehicle_type_id":"4","last_reported":1731251275,"current_range_meters":13600,"station_id":"ce4bgth2rcd13ifvqch0","pricing_plan_id":"cebpf4jnsgd1na2vs0mg"},{"bike_id":"e1871985-0fe4-4afb-99d5-0dd851faec4f","system_id":"levelo_inurba_marseille","lat":43.25496,"lon":5.37653,"is_reserved":false,"is_disabled":false,"rental_uris":{"android":"levelo://app?vid=e1871985-0fe4-4afb-99d5-0dd851faec4f","ios":"levelo://app?vid=e1871985-0fe4-4afb-99d5-0dd851faec4f"},"vehicle_type_id":"4","last_reported":1731251275,"current_range_meters":38800,"station_id":"ce4bhh12rcd13ifvqff0","pricing_plan_id":"cebpf4jnsgd1na2vs0mg"},{"bike_id":"daed64dd-02f6-4c40-9325-b28b46a59db3","system_id":"levelo_inurba_marseille","lat":43.23061,"lon":5.35488,"is_reserved":false,"is_disabled":false,"rental_uris":{"android":"levelo://app?vid=daed64dd-02f6-4c40-9325-b28b46a59db3","ios":"levelo://app?vid=daed64dd-02f6-4c40-9325-b28b46a59db3"},"vehicle_type_id":"4","last_reported":1731251275,"current_range_meters":24800,"station_id":"cpo3342slgdg3j2ifvpg","pricing_plan_id":"cebpf4jnsgd1na2vs0mg"},{"bike_id":"05d10818-c2b0-4d6a-a698-bd8b49865571","system_id":"levelo_inurba_marseille","lat":43.28355,"lon":5.38642,"is_reserved":false,"is_disabled":false,"rental_uris":{"android":"levelo://app?vid=05d10818-c2b0-4d6a-a698-bd8b49865571","ios":"levelo://app?vid=05d10818-c2b0-4d6a-a698-bd8b49865571"},"vehicle_type_id":"4","last_reported":1731251275,"current_range_meters":2800,"station_id":"ce4bh492rcd13ifvqdvg","pricing_plan_id":"cebpf4jnsgd1na2vs0mg"},{"bike_id":"909a647a-1873-4a50-b317-7e2ea07144d0","system_id":"levelo_inurba_marseille","lat":43.2961,"lon":5.38099,"is_reserved":false,"is_disabled":false,"rental_uris":{"android":"levelo://app?vid=909a647a-1873-4a50-b317-7e2ea07144d0","ios":"levelo://app?vid=909a647a-1873-4a50-b317-7e2ea07144d0"},"vehicle_type_id":"4","last_reported":1731251275,"current_range_meters":36000,"station_id":"ce4bgl12rcd13ifvqbo0","pricing_plan_id":"cebpf4jnsgd1na2vs0mg"},{"bike_id":"7e7be88e-2387-4ac1-8672-4e3f2accb589","system_id":"levelo_inurba_marseille","lat":43.23192,"lon":5.35553,"is_reserved":false,"is_disabled":false,"rental_uris":{"android":"levelo://app?vid=7e7be88e-2387-4ac1-8672-4e3f2accb589","ios":"levelo://app?vid=7e7be88e-2387-4ac1-8672-4e3f2accb589"},"vehicle_type_id":"4","last_reported":1731251275,"current_range_meters":9600,"station_id":"ce4bhu92rcd13ifvqi70","pricing_plan_id":"cebpf4jnsgd1na2vs0mg"},{"bike_id":"e2f539b2-1c9a-4c53-8dc2-a41bd1a14b91","system_id":"levelo_inurba_marseille","lat":43.28263,"lon":5.35076,"is_reserved":false,"is_disabled":false,"rental_uris":{"android":"levelo://app?vid=e2f539b2-1c9a-4c53-8dc2-a41bd1a14b91","ios":"levelo://app?vid=e2f539b2-1c9a-4c53-8dc2-a41bd1a14b91"},"vehicle_type_id":"4","last_reported":1731251275,"current_range_meters":29600,"station_id":"ce4bhbp2rcd13ifvqerg","pricing_plan_id":"cebpf4jnsgd1na2vs0mg"},{"bike_id":"7cbcc02e-b174-46f4-99d0-100529c6ebfd","system_id":"levelo_inurba_marseille","lat":43.23962,"lon":5.36632,"is_reserved":false,"is_disabled":false,"rental_uris":{"android":"levelo://app?vid=7cbcc02e-b174-46f4-99d0-100529c6ebfd","ios":"levelo://app?vid=7cbcc02e-b174-46f4-99d0-100529c6ebfd"},"vehicle_type_id":"4","last_reported":1731251275,"current_range_meters":20800,"station_id":"ce4bhi12rcd13ifvqfp0","pricing_plan_id":"cebpf4jnsgd1na2vs0mg"},{"bike_id":"1353dd95-4748-4b20-96e8-fb06f5f9fc6b","system_id":"levelo_inurba_marseille","lat":43.24175,"lon":5.3973,"is_reserved":false,"is_disabled":false,"rental_uris":{"android":"levelo://app?vid=1353dd95-4748-4b20-96e8-fb06f5f9fc6b","ios":"levelo://app?vid=1353dd95-4748-4b20-96e8-fb06f5f9fc6b"},"vehicle_type_id":"4","last_reported":1731251275,"current_range_meters":8400,"station_id":"ce4bhn12rcd13ifvqgpg","pricing_plan_id":"cebpf4jnsgd1na2vs0mg"},{"bike_id":"c2bf881a-f020-4e0e-819d-ec6a7c5dac04","system_id":"levelo_inurba_marseille","lat":43.31683,"lon":5.37756,"is_reserved":false,"is_disabled":false,"rental_uris":{"android":"levelo://app?vid=c2bf881a-f020-4e0e-819d-ec6a7c5dac04","ios":"levelo://app?vid=c2bf881a-f020-4e0e-819d-ec6a7c5dac04"},"vehicle_type_id":"4","last_reported":1731251275,"current_range_meters":17600,"station_id":"ce4bgth2rcd13ifvqch0","pricing_plan_id":"cebpf4jnsgd1na2vs0mg"},{"bike_id":"937ac8be-b0e1-4c54-8437-568df036b6a4","system_id":"levelo_inurba_marseille","lat":43.28415,"lon":5.34982,"is_reserved":false,"is_disabled":false,"rental_uris":{"android":"levelo://app?vid=937ac8be-b0e1-4c54-8437-568df036b6a4","ios":"levelo://app?vid=937ac8be-b0e1-4c54-8437-568df036b6a4"},"vehicle_type_id":"4","last_reported":1731251275,"current_range_meters":22000,"station_id":"ce4bhbh2rcd13ifvqepg","pricing_plan_id":"cebpf4jnsgd1na2vs0mg"},{"bike_id":"56b4ae21-99c4-40d9-a084-76388098d1c6","system_id":"levelo_inurba_marseille","lat":43.24804,"lon":5.37457,"is_reserved":false,"is_disabled":false,"rental_uris":{"android":"levelo://app?vid=56b4ae21-99c4-40d9-a084-76388098d1c6","ios":"levelo://app?vid=56b4ae21-99c4-40d9-a084-76388098d1c6"},"vehicle_type_id":"4","last_reported":1731251275,"current_range_meters":35600,"station_id":"ce4bhgh2rcd13ifvqfb0","pricing_plan_id":"cebpf4jnsgd1na2vs0mg"},{"bike_id":"2fd65b1d-d21b-4e4b-94ec-3cba01ab71ab","system_id":"levelo_inurba_marseille","lat":43.24391,"lon":5.3707,"is_reserved":false,"is_disabled":false,"rental_uris":{"android":"levelo://app?vid=2fd65b1d-d21b-4e4b-94ec-3cba01ab71ab","ios":"levelo://app?vid=2fd65b1d-d21b-4e4b-94ec-3cba01ab71ab"},"vehicle_type_id":"4","last_reported":1731251275,"current_range_meters":27200,"station_id":"ce4bhhh2rcd13ifvqfk0","pricing_plan_id":"cebpf4jnsgd1na2vs0mg"},{"bike_id":"db2e6139-0551-4de2-8e50-fffa4eceeafd","system_id":"levelo_inurba_marseille","lat":43.29268,"lon":5.36843,"is_reserved":false,"is_disabled":false,"rental_uris":{"android":"levelo://app?vid=db2e6139-0551-4de2-8e50-fffa4eceeafd","ios":"levelo://app?vid=db2e6139-0551-4de2-8e50-fffa4eceeafd"},"vehicle_type_id":"4","last_reported":1731251275,"current_range_meters":28000,"station_id":"ce4bhbp2rcd13ifvqesg","pricing_plan_id":"cebpf4jnsgd1na2vs0mg"},{"bike_id":"82c9d555-ea91-4e68-8f02-a2e16e2a61fd","system_id":"levelo_inurba_marseille","lat":43.28618,"lon":5.35103,"is_reserved":false,"is_disabled":false,"rental_uris":{"android":"levelo://app?vid=82c9d555-ea91-4e68-8f02-a2e16e2a61fd","ios":"levelo://app?vid=82c9d555-ea91-4e68-8f02-a2e16e2a61fd"},"vehicle_type_id":"4","last_reported":1731251275,"current_range_meters":33600,"station_id":"ce4bhch2rcd13ifvqeug","pricing_plan_id":"cebpf4jnsgd1na2vs0mg"},{"bike_id":"52a71ef5-8ef7-4a13-9edb-b931936b8cfb","system_id":"levelo_inurba_marseille","lat":43.33724,"lon":5.39182,"is_reserved":false,"is_disabled":false,"rental_uris":{"android":"levelo://app?vid=52a71ef5-8ef7-4a13-9edb-b931936b8cfb","ios":"levelo://app?vid=52a71ef5-8ef7-4a13-9edb-b931936b8cfb"},"vehicle_type_id":"4","last_reported":1731251275,"current_range_meters":38800,"station_id":"ce4bhr92rcd13ifvqhsg","pricing_plan_id":"cebpf4jnsgd1na2vs0mg"},{"bike_id":"6c55c68c-8072-4a7a-8968-0f76e76b364b","system_id":"levelo_inurba_marseille","lat":43.28414,"lon":5.34989,"is_reserved":false,"is_disabled":false,"rental_uris":{"android":"levelo://app?vid=6c55c68c-8072-4a7a-8968-0f76e76b364b","ios":"levelo://app?vid=6c55c68c-8072-4a7a-8968-0f76e76b364b"},"vehicle_type_id":"4","last_reported":1731251275,"current_range_meters":36800,"station_id":"ce4bhbh2rcd13ifvqepg","pricing_plan_id":"cebpf4jnsgd1na2vs0mg"},{"bike_id":"3ec3550b-0b0a-423a-846d-c6e23f763e6c","system_id":"levelo_inurba_marseille","lat":43.23061,"lon":5.35488,"is_reserved":false,"is_disabled":false,"rental_uris":{"android":"levelo://app?vid=3ec3550b-0b0a-423a-846d-c6e23f763e6c","ios":"levelo://app?vid=3ec3550b-0b0a-423a-846d-c6e23f763e6c"},"vehicle_type_id":"4","last_reported":1731251275,"current_range_meters":38800,"station_id":"cpo3342slgdg3j2ifvpg","pricing_plan_id":"cebpf4jnsgd1na2vs0mg"},{"bike_id":"f1d98e61-02d3-4784-8a33-477b4aaff813","system_id":"levelo_inurba_marseille","lat":43.312134,"lon":5.368448,"is_reserved":false,"is_disabled":false,"rental_uris":{"android":"levelo://app?vid=f1d98e61-02d3-4784-8a33-477b4aaff813","ios":"levelo://app?vid=f1d98e61-02d3-4784-8a33-477b4aaff813"},"vehicle_type_id":"4","last_reported":1731251275,"current_range_meters":38400,"station_id":"ce4bgl92rcd13ifvqbq0","pricing_plan_id":"cebpf4jnsgd1na2vs0mg"},{"bike_id":"b0ca4af2-a5d4-4df3-bbff-48880d0c5875","system_id":"levelo_inurba_marseille","lat":43.23062,"lon":5.35499,"is_reserved":false,"is_disabled":false,"rental_uris":{"android":"levelo://app?vid=b0ca4af2-a5d4-4df3-bbff-48880d0c5875","ios":"levelo://app?vid=b0ca4af2-a5d4-4df3-bbff-48880d0c5875"},"vehicle_type_id":"4","last_reported":1731251275,"current_range_meters":33600,"station_id":"cpo3342slgdg3j2ifvpg","pricing_plan_id":"cebpf4jnsgd1na2vs0mg"},{"bike_id":"1e7c44b2-e3c0-49b2-b9a4-cf7b088762ee","system_id":"levelo_inurba_marseille","lat":43.31976,"lon":5.40821,"is_reserved":false,"is_disabled":false,"rental_uris":{"android":"levelo://app?vid=1e7c44b2-e3c0-49b2-b9a4-cf7b088762ee","ios":"levelo://app?vid=1e7c44b2-e3c0-49b2-b9a4-cf7b088762ee"},"vehicle_type_id":"4","last_reported":1731251275,"current_range_meters":18000,"station_id":"ce4bhop2rcd13ifvqh8g","pricing_plan_id":"cebpf4jnsgd1na2vs0mg"},{"bike_id":"8c69f012-300b-4821-a16c-983df7d1abef","system_id":"levelo_inurba_marseille","lat":43.23962,"lon":5.36629,"is_reserved":false,"is_disabled":false,"rental_uris":{"android":"levelo://app?vid=8c69f012-300b-4821-a16c-983df7d1abef","ios":"levelo://app?vid=8c69f012-300b-4821-a16c-983df7d1abef"},"vehicle_type_id":"4","last_reported":1731251275,"current_range_meters":8800,"station_id":"ce4bhi12rcd13ifvqfp0","pricing_plan_id":"cebpf4jnsgd1na2vs0mg"},{"bike_id":"26563081-f5dd-4613-b100-48c7e8867ffd","system_id":"levelo_inurba_marseille","lat":43.24391,"lon":5.37052,"is_reserved":false,"is_disabled":false,"rental_uris":{"android":"levelo://app?vid=26563081-f5dd-4613-b100-48c7e8867ffd","ios":"levelo://app?vid=26563081-f5dd-4613-b100-48c7e8867ffd"},"vehicle_type_id":"4","last_reported":1731251275,"current_range_meters":38800,"station_id":"ce4bhhh2rcd13ifvqfk0","pricing_plan_id":"cebpf4jnsgd1na2vs0mg"},{"bike_id":"16edd5e5-0497-4831-bb6b-d18eb7e92293","system_id":"levelo_inurba_marseille","lat":43.24812,"lon":5.37457,"is_reserved":false,"is_disabled":false,"rental_uris":{"android":"levelo://app?vid=16edd5e5-0497-4831-bb6b-d18eb7e92293","ios":"levelo://app?vid=16edd5e5-0497-4831-bb6b-d18eb7e92293"},"vehicle_type_id":"4","last_reported":1731251275,"current_range_meters":29600,"station_id":"ce4bhgh2rcd13ifvqfb0","pricing_plan_id":"cebpf4jnsgd1na2vs0mg"},{"bike_id":"a05e16ff-fdba-40b4-933f-1b14dc881438","system_id":"levelo_inurba_marseille","lat":43.28418,"lon":5.34993,"is_reserved":false,"is_disabled":false,"rental_uris":{"android":"levelo://app?vid=a05e16ff-fdba-40b4-933f-1b14dc881438","ios":"levelo://app?vid=a05e16ff-fdba-40b4-933f-1b14dc881438"},"vehicle_type_id":"4","last_reported":1731251275,"current_range_meters":38000,"station_id":"ce4bhbh2rcd13ifvqepg","pricing_plan_id":"cebpf4jnsgd1na2vs0mg"},{"bike_id":"8993267e-c4d6-467e-81d5-120320751c89","system_id":"levelo_inurba_marseille","lat":43.23108,"lon":5.43753,"is_reserved":false,"is_disabled":false,"rental_uris":{"android":"levelo://app?vid=8993267e-c4d6-467e-81d5-120320751c89","ios":"levelo://app?vid=8993267e-c4d6-467e-81d5-120320751c89"},"vehicle_type_id":"4","last_reported":1731251275,"current_range_meters":17600,"station_id":"","pricing_plan_id":"cebpf4jnsgd1na2vs0mg"},{"bike_id":"3137f504-c340-4026-9855-d8abfc716841","system_id":"levelo_inurba_marseille","lat":43.23056,"lon":5.35502,"is_reserved":false,"is_disabled":false,"rental_uris":{"android":"levelo://app?vid=3137f504-c340-4026-9855-d8abfc716841","ios":"levelo://app?vid=3137f504-c340-4026-9855-d8abfc716841"},"vehicle_type_id":"4","last_reported":1731251275,"current_range_meters":38800,"station_id":"cpo3342slgdg3j2ifvpg","pricing_plan_id":"cebpf4jnsgd1na2vs0mg"},{"bike_id":"f37db93d-bc7b-4479-a652-71091fc9a389","system_id":"levelo_inurba_marseille","lat":43.23176,"lon":5.39992,"is_reserved":false,"is_disabled":false,"rental_uris":{"android":"levelo://app?vid=f37db93d-bc7b-4479-a652-71091fc9a389","ios":"levelo://app?vid=f37db93d-bc7b-4479-a652-71091fc9a389"},"vehicle_type_id":"4","last_reported":1731251275,"current_range_meters":36800,"station_id":"ce4bhn12rcd13ifvqgqg","pricing_plan_id":"cebpf4jnsgd1na2vs0mg"},{"bike_id":"e9802a84-405e-4ad3-8d22-dbd83363f66a","system_id":"levelo_inurba_marseille","lat":43.2306,"lon":5.35496,"is_reserved":false,"is_disabled":false,"rental_uris":{"android":"levelo://app?vid=e9802a84-405e-4ad3-8d22-dbd83363f66a","ios":"levelo://app?vid=e9802a84-405e-4ad3-8d22-dbd83363f66a"},"vehicle_type_id":"4","last_reported":1731251275,"current_range_meters":14000,"station_id":"cpo3342slgdg3j2ifvpg","pricing_plan_id":"cebpf4jnsgd1na2vs0mg"},{"bike_id":"3afe71be-4f71-4789-be9e-12150afa4010","system_id":"levelo_inurba_marseille","lat":43.2293,"lon":5.35381,"is_reserved":false,"is_disabled":false,"rental_uris":{"android":"levelo://app?vid=3afe71be-4f71-4789-be9e-12150afa4010","ios":"levelo://app?vid=3afe71be-4f71-4789-be9e-12150afa4010"},"vehicle_type_id":"4","last_reported":1731251275,"current_range_meters":40000,"station_id":"cpo3532slgdg3j2ikp40","pricing_plan_id":"cebpf4jnsgd1na2vs0mg"},{"bike_id":"a672c2ef-c813-4e06-b21a-38d83e20314d","system_id":"levelo_inurba_marseille","lat":43.28406,"lon":5.34994,"is_reserved":false,"is_disabled":false,"rental_uris":{"android":"levelo://app?vid=a672c2ef-c813-4e06-b21a-38d83e20314d","ios":"levelo://app?vid=a672c2ef-c813-4e06-b21a-38d83e20314d"},"vehicle_type_id":"4","last_reported":1731251275,"current_range_meters":20800,"station_id":"ce4bhbh2rcd13ifvqepg","pricing_plan_id":"cebpf4jnsgd1na2vs0mg"},{"bike_id":"4ce1138a-ec22-4153-bdd1-1174694d1dca","system_id":"levelo_inurba_marseille","lat":43.29869,"lon":5.39724,"is_reserved":false,"is_disabled":false,"rental_uris":{"android":"levelo://app?vid=4ce1138a-ec22-4153-bdd1-1174694d1dca","ios":"levelo://app?vid=4ce1138a-ec22-4153-bdd1-1174694d1dca"},"vehicle_type_id":"4","last_reported":1731251275,"current_range_meters":30000,"station_id":"ce4bh0h2rcd13ifvqd50","pricing_plan_id":"cebpf4jnsgd1na2vs0mg"},{"bike_id":"7e40d74d-e6f5-48a9-94b7-aa6095a0742a","system_id":"levelo_inurba_marseille","lat":43.26922,"lon":5.38915,"is_reserved":false,"is_disabled":false,"rental_uris":{"android":"levelo://app?vid=7e40d74d-e6f5-48a9-94b7-aa6095a0742a","ios":"levelo://app?vid=7e40d74d-e6f5-48a9-94b7-aa6095a0742a"},"vehicle_type_id":"4","last_reported":1731251275,"current_range_meters":24000,"station_id":"ce4bhhh2rcd13ifvqfl0","pricing_plan_id":"cebpf4jnsgd1na2vs0mg"},{"bike_id":"92d10030-6bbf-4b13-8747-6eaf1d5803ed","system_id":"levelo_inurba_marseille","lat":43.24083,"lon":5.37741,"is_reserved":false,"is_disabled":false,"rental_uris":{"android":"levelo://app?vid=92d10030-6bbf-4b13-8747-6eaf1d5803ed","ios":"levelo://app?vid=92d10030-6bbf-4b13-8747-6eaf1d5803ed"},"vehicle_type_id":"4","last_reported":1731251275,"current_range_meters":19600,"station_id":"ce4bhnp2rcd13ifvqgvg","pricing_plan_id":"cebpf4jnsgd1na2vs0mg"},{"bike_id":"7bd6649a-7cc7-4156-a2d2-a537934e1c08","system_id":"levelo_inurba_marseille","lat":43.28411,"lon":5.34979,"is_reserved":false,"is_disabled":false,"rental_uris":{"android":"levelo://app?vid=7bd6649a-7cc7-4156-a2d2-a537934e1c08","ios":"levelo://app?vid=7bd6649a-7cc7-4156-a2d2-a537934e1c08"},"vehicle_type_id":"4","last_reported":1731251275,"current_range_meters":23200,"station_id":"ce4bhbh2rcd13ifvqepg","pricing_plan_id":"cebpf4jnsgd1na2vs0mg"},{"bike_id":"884af005-1c9c-438b-b950-9e7eb819ba2a","system_id":"levelo_inurba_marseille","lat":43.24166,"lon":5.36399,"is_reserved":false,"is_disabled":false,"rental_uris":{"android":"levelo://app?vid=884af005-1c9c-438b-b950-9e7eb819ba2a","ios":"levelo://app?vid=884af005-1c9c-438b-b950-9e7eb819ba2a"},"vehicle_type_id":"4","last_reported":1731251275,"current_range_meters":16800,"station_id":"cpo36qri1sfpv3e86is0","pricing_plan_id":"cebpf4jnsgd1na2vs0mg"},{"bike_id":"a09cbe4a-ea7f-4315-850c-aee37d8f9de7","system_id":"levelo_inurba_marseille","lat":43.30162,"lon":5.38177,"is_reserved":false,"is_disabled":false,"rental_uris":{"android":"levelo://app?vid=a09cbe4a-ea7f-4315-850c-aee37d8f9de7","ios":"levelo://app?vid=a09cbe4a-ea7f-4315-850c-aee37d8f9de7"},"vehicle_type_id":"4","last_reported":1731251275,"current_range_meters":26000,"station_id":"","pricing_plan_id":"cebpf4jnsgd1na2vs0mg"},{"bike_id":"8a8655c3-0446-49f4-b251-2961912bcbfb","system_id":"levelo_inurba_marseille","lat":43.22935,"lon":5.35379,"is_reserved":false,"is_disabled":false,"rental_uris":{"android":"levelo://app?vid=8a8655c3-0446-49f4-b251-2961912bcbfb","ios":"levelo://app?vid=8a8655c3-0446-49f4-b251-2961912bcbfb"},"vehicle_type_id":"4","last_reported":1731251275,"current_range_meters":40000,"station_id":"cpo3532slgdg3j2ikp40","pricing_plan_id":"cebpf4jnsgd1na2vs0mg"},{"bike_id":"7330a06d-ac35-4c14-9e0c-675db5e1d478","system_id":"levelo_inurba_marseille","lat":43.27935,"lon":5.41049,"is_reserved":false,"is_disabled":false,"rental_uris":{"android":"levelo://app?vid=7330a06d-ac35-4c14-9e0c-675db5e1d478","ios":"levelo://app?vid=7330a06d-ac35-4c14-9e0c-675db5e1d478"},"vehicle_type_id":"4","last_reported":1731251275,"current_range_meters":12400,"station_id":"ce4bhnp2rcd13ifvqh0g","pricing_plan_id":"cebpf4jnsgd1na2vs0mg"},{"bike_id":"be0d3abb-a332-47bb-b8c5-a1eca0ec1cae","system_id":"levelo_inurba_marseille","lat":43.26814,"lon":5.40263,"is_reserved":false,"is_disabled":false,"rental_uris":{"android":"levelo://app?vid=be0d3abb-a332-47bb-b8c5-a1eca0ec1cae","ios":"levelo://app?vid=be0d3abb-a332-47bb-b8c5-a1eca0ec1cae"},"vehicle_type_id":"4","last_reported":1731251275,"current_range_meters":15200,"station_id":"ce501612rcd8frsf0b60","pricing_plan_id":"cebpf4jnsgd1na2vs0mg"},{"bike_id":"32cdd413-4cb5-4843-9eae-0f0e6432dedb","system_id":"levelo_inurba_marseille","lat":43.29894,"lon":5.43676,"is_reserved":false,"is_disabled":false,"rental_uris":{"android":"levelo://app?vid=32cdd413-4cb5-4843-9eae-0f0e6432dedb","ios":"levelo://app?vid=32cdd413-4cb5-4843-9eae-0f0e6432dedb"},"vehicle_type_id":"4","last_reported":1731251275,"current_range_meters":23200,"station_id":"ce4bhpp2rcd13ifvqhfg","pricing_plan_id":"cebpf4jnsgd1na2vs0mg"},{"bike_id":"739f406a-1133-4ca4-9a25-e084554f4c8d","system_id":"levelo_inurba_marseille","lat":43.28003,"lon":5.41667,"is_reserved":false,"is_disabled":false,"rental_uris":{"android":"levelo://app?vid=739f406a-1133-4ca4-9a25-e084554f4c8d","ios":"levelo://app?vid=739f406a-1133-4ca4-9a25-e084554f4c8d"},"vehicle_type_id":"4","last_reported":1731251275,"current_range_meters":18000,"station_id":"ce4bho12rcd13ifvqh1g","pricing_plan_id":"cebpf4jnsgd1na2vs0mg"},{"bike_id":"a347c9be-d588-4eb0-b9e9-73e02db827dd","system_id":"levelo_inurba_marseille","lat":43.28956,"lon":5.36467,"is_reserved":false,"is_disabled":false,"rental_uris":{"android":"levelo://app?vid=a347c9be-d588-4eb0-b9e9-73e02db827dd","ios":"levelo://app?vid=a347c9be-d588-4eb0-b9e9-73e02db827dd"},"vehicle_type_id":"4","last_reported":1731251275,"current_range_meters":33200,"station_id":"","pricing_plan_id":"cebpf4jnsgd1na2vs0mg"},{"bike_id":"9ad7d453-b585-434e-84e3-53f43f6aacc0","system_id":"levelo_inurba_marseille","lat":43.292509,"lon":5.378816,"is_reserved":false,"is_disabled":false,"rental_uris":{"android":"levelo://app?vid=9ad7d453-b585-434e-84e3-53f43f6aacc0","ios":"levelo://app?vid=9ad7d453-b585-434e-84e3-53f43f6aacc0"},"vehicle_type_id":"4","last_reported":1731251275,"current_range_meters":3200,"station_id":"ce4bgjh2rcd13ifvqbf0","pricing_plan_id":"cebpf4jnsgd1na2vs0mg"},{"bike_id":"db093d70-c430-482f-b75c-99ca802ea74b","system_id":"levelo_inurba_marseille","lat":43.28616,"lon":5.351,"is_reserved":false,"is_disabled":false,"rental_uris":{"android":"levelo://app?vid=db093d70-c430-482f-b75c-99ca802ea74b","ios":"levelo://app?vid=db093d70-c430-482f-b75c-99ca802ea74b"},"vehicle_type_id":"4","last_reported":1731251275,"current_range_meters":15200,"station_id":"ce4bhch2rcd13ifvqeug","pricing_plan_id":"cebpf4jnsgd1na2vs0mg"},{"bike_id":"a2832397-01d1-4e26-8268-011d7c454851","system_id":"levelo_inurba_marseille","lat":43.296021,"lon":5.386468,"is_reserved":false,"is_disabled":false,"rental_uris":{"android":"levelo://app?vid=a2832397-01d1-4e26-8268-011d7c454851","ios":"levelo://app?vid=a2832397-01d1-4e26-8268-011d7c454851"},"vehicle_type_id":"4","last_reported":1731251275,"current_range_meters":9200,"station_id":"ce4bgt12rcd13ifvqce0","pricing_plan_id":"cebpf4jnsgd1na2vs0mg"},{"bike_id":"6762171e-f051-42c7-b2f3-b9094feb4544","system_id":"levelo_inurba_marseille","lat":43.24804,"lon":5.37456,"is_reserved":false,"is_disabled":false,"rental_uris":{"android":"levelo://app?vid=6762171e-f051-42c7-b2f3-b9094feb4544","ios":"levelo://app?vid=6762171e-f051-42c7-b2f3-b9094feb4544"},"vehicle_type_id":"4","last_reported":1731251275,"current_range_meters":9600,"station_id":"ce4bhgh2rcd13ifvqfb0","pricing_plan_id":"cebpf4jnsgd1na2vs0mg"},{"bike_id":"7e514a83-c0dd-47db-9deb-0c35bed0ce43","system_id":"levelo_inurba_marseille","lat":43.246395,"lon":5.388827,"is_reserved":false,"is_disabled":false,"rental_uris":{"android":"levelo://app?vid=7e514a83-c0dd-47db-9deb-0c35bed0ce43","ios":"levelo://app?vid=7e514a83-c0dd-47db-9deb-0c35bed0ce43"},"vehicle_type_id":"4","last_reported":1731251275,"current_range_meters":11600,"station_id":"","pricing_plan_id":"cebpf4jnsgd1na2vs0mg"},{"bike_id":"bd8c90e1-842d-4b29-aa20-5d027002179b","system_id":"levelo_inurba_marseille","lat":43.255016,"lon":5.37653,"is_reserved":false,"is_disabled":false,"rental_uris":{"android":"levelo://app?vid=bd8c90e1-842d-4b29-aa20-5d027002179b","ios":"levelo://app?vid=bd8c90e1-842d-4b29-aa20-5d027002179b"},"vehicle_type_id":"4","last_reported":1731251275,"current_range_meters":38800,"station_id":"ce4bhh12rcd13ifvqff0","pricing_plan_id":"cebpf4jnsgd1na2vs0mg"},{"bike_id":"2a29933e-336f-4877-a982-8bf052b80f4c","system_id":"levelo_inurba_marseille","lat":43.2791,"lon":5.39584,"is_reserved":false,"is_disabled":false,"rental_uris":{"android":"levelo://app?vid=2a29933e-336f-4877-a982-8bf052b80f4c","ios":"levelo://app?vid=2a29933e-336f-4877-a982-8bf052b80f4c"},"vehicle_type_id":"4","last_reported":1731251275,"current_range_meters":28400,"station_id":"ce4bhf92rcd13ifvqf40","pricing_plan_id":"cebpf4jnsgd1na2vs0mg"},{"bike_id":"ae064493-3417-48da-a1c4-aa286db73079","system_id":"levelo_inurba_marseille","lat":43.23194,"lon":5.35555,"is_reserved":false,"is_disabled":false,"rental_uris":{"android":"levelo://app?vid=ae064493-3417-48da-a1c4-aa286db73079","ios":"levelo://app?vid=ae064493-3417-48da-a1c4-aa286db73079"},"vehicle_type_id":"4","last_reported":1731251275,"current_range_meters":38800,"station_id":"ce4bhu92rcd13ifvqi70","pricing_plan_id":"cebpf4jnsgd1na2vs0mg"},{"bike_id":"0407cb2d-14ca-4d18-ab0e-6f0e1d153c00","system_id":"levelo_inurba_marseille","lat":43.28267,"lon":5.35071,"is_reserved":false,"is_disabled":false,"rental_uris":{"android":"levelo://app?vid=0407cb2d-14ca-4d18-ab0e-6f0e1d153c00","ios":"levelo://app?vid=0407cb2d-14ca-4d18-ab0e-6f0e1d153c00"},"vehicle_type_id":"4","last_reported":1731251275,"current_range_meters":22400,"station_id":"ce4bhbp2rcd13ifvqerg","pricing_plan_id":"cebpf4jnsgd1na2vs0mg"},{"bike_id":"0805c5ae-159c-4c6b-ac80-29c92965bd48","system_id":"levelo_inurba_marseille","lat":43.287,"lon":5.39989,"is_reserved":false,"is_disabled":false,"rental_uris":{"android":"levelo://app?vid=0805c5ae-159c-4c6b-ac80-29c92965bd48","ios":"levelo://app?vid=0805c5ae-159c-4c6b-ac80-29c92965bd48"},"vehicle_type_id":"4","last_reported":1731251275,"current_range_meters":7200,"station_id":"ce4bho92rcd13ifvqh3g","pricing_plan_id":"cebpf4jnsgd1na2vs0mg"},{"bike_id":"ed662de5-e3fa-4b5c-b4b7-48ce2ab064bc","system_id":"levelo_inurba_marseille","lat":43.23189,"lon":5.35552,"is_reserved":false,"is_disabled":false,"rental_uris":{"android":"levelo://app?vid=ed662de5-e3fa-4b5c-b4b7-48ce2ab064bc","ios":"levelo://app?vid=ed662de5-e3fa-4b5c-b4b7-48ce2ab064bc"},"vehicle_type_id":"4","last_reported":1731251275,"current_range_meters":24400,"station_id":"ce4bhu92rcd13ifvqi70","pricing_plan_id":"cebpf4jnsgd1na2vs0mg"},{"bike_id":"47d698d4-39ed-4c01-8c9f-7dbfc2421a21","system_id":"levelo_inurba_marseille","lat":43.27651,"lon":5.37132,"is_reserved":false,"is_disabled":false,"rental_uris":{"android":"levelo://app?vid=47d698d4-39ed-4c01-8c9f-7dbfc2421a21","ios":"levelo://app?vid=47d698d4-39ed-4c01-8c9f-7dbfc2421a21"},"vehicle_type_id":"4","last_reported":1731251275,"current_range_meters":33200,"station_id":"","pricing_plan_id":"cebpf4jnsgd1na2vs0mg"},{"bike_id":"bbfd96ad-15a9-4148-b0af-ccd0be93937e","system_id":"levelo_inurba_marseille","lat":43.2794,"lon":5.41051,"is_reserved":false,"is_disabled":false,"rental_uris":{"android":"levelo://app?vid=bbfd96ad-15a9-4148-b0af-ccd0be93937e","ios":"levelo://app?vid=bbfd96ad-15a9-4148-b0af-ccd0be93937e"},"vehicle_type_id":"4","last_reported":1731251275,"current_range_meters":34800,"station_id":"ce4bhnp2rcd13ifvqh0g","pricing_plan_id":"cebpf4jnsgd1na2vs0mg"},{"bike_id":"f62c9599-8f94-4b77-a76c-d41630489314","system_id":"levelo_inurba_marseille","lat":43.31387,"lon":5.43214,"is_reserved":false,"is_disabled":false,"rental_uris":{"android":"levelo://app?vid=f62c9599-8f94-4b77-a76c-d41630489314","ios":"levelo://app?vid=f62c9599-8f94-4b77-a76c-d41630489314"},"vehicle_type_id":"4","last_reported":1731251275,"current_range_meters":14400,"station_id":"ce4bhp92rcd13ifvqhcg","pricing_plan_id":"cebpf4jnsgd1na2vs0mg"},{"bike_id":"bb44ed2a-abc6-4144-ac28-733cc22b0f8a","system_id":"levelo_inurba_marseille","lat":43.24393,"lon":5.37058,"is_reserved":false,"is_disabled":false,"rental_uris":{"android":"levelo://app?vid=bb44ed2a-abc6-4144-ac28-733cc22b0f8a","ios":"levelo://app?vid=bb44ed2a-abc6-4144-ac28-733cc22b0f8a"},"vehicle_type_id":"4","last_reported":1731251275,"current_range_meters":38800,"station_id":"ce4bhhh2rcd13ifvqfk0","pricing_plan_id":"cebpf4jnsgd1na2vs0mg"},{"bike_id":"8aad4c09-a982-4918-978d-95036838be5c","system_id":"levelo_inurba_marseille","lat":43.29005,"lon":5.356145,"is_reserved":false,"is_disabled":false,"rental_uris":{"android":"levelo://app?vid=8aad4c09-a982-4918-978d-95036838be5c","ios":"levelo://app?vid=8aad4c09-a982-4918-978d-95036838be5c"},"vehicle_type_id":"4","last_reported":1731251275,"current_range_meters":6800,"station_id":"ce4bhb92rcd13ifvqen0","pricing_plan_id":"cebpf4jnsgd1na2vs0mg"},{"bike_id":"fe6cd887-d4f8-423a-b1b7-d9556f6d12d6","system_id":"levelo_inurba_marseille","lat":43.28408,"lon":5.34999,"is_reserved":false,"is_disabled":false,"rental_uris":{"android":"levelo://app?vid=fe6cd887-d4f8-423a-b1b7-d9556f6d12d6","ios":"levelo://app?vid=fe6cd887-d4f8-423a-b1b7-d9556f6d12d6"},"vehicle_type_id":"4","last_reported":1731251275,"current_range_meters":40000,"station_id":"ce4bhbh2rcd13ifvqepg","pricing_plan_id":"cebpf4jnsgd1na2vs0mg"},{"bike_id":"f17ad613-4c62-4cc4-be8d-8ea84a8a7b16","system_id":"levelo_inurba_marseille","lat":43.24394,"lon":5.37068,"is_reserved":false,"is_disabled":false,"rental_uris":{"android":"levelo://app?vid=f17ad613-4c62-4cc4-be8d-8ea84a8a7b16","ios":"levelo://app?vid=f17ad613-4c62-4cc4-be8d-8ea84a8a7b16"},"vehicle_type_id":"4","last_reported":1731251275,"current_range_meters":31200,"station_id":"ce4bhhh2rcd13ifvqfk0","pricing_plan_id":"cebpf4jnsgd1na2vs0mg"},{"bike_id":"89a57a28-29d9-433a-8c92-c1756cdb1f95","system_id":"levelo_inurba_marseille","lat":43.24076,"lon":5.37746,"is_reserved":false,"is_disabled":false,"rental_uris":{"android":"levelo://app?vid=89a57a28-29d9-433a-8c92-c1756cdb1f95","ios":"levelo://app?vid=89a57a28-29d9-433a-8c92-c1756cdb1f95"},"vehicle_type_id":"4","last_reported":1731251275,"current_range_meters":11600,"station_id":"ce4bhnp2rcd13ifvqgvg","pricing_plan_id":"cebpf4jnsgd1na2vs0mg"},{"bike_id":"30b4c460-0032-4040-b03a-cd708154c7e4","system_id":"levelo_inurba_marseille","lat":43.27065,"lon":5.42283,"is_reserved":false,"is_disabled":false,"rental_uris":{"android":"levelo://app?vid=30b4c460-0032-4040-b03a-cd708154c7e4","ios":"levelo://app?vid=30b4c460-0032-4040-b03a-cd708154c7e4"},"vehicle_type_id":"4","last_reported":1731251275,"current_range_meters":38800,"station_id":"ce4bhk92rcd13ifvqgb0","pricing_plan_id":"cebpf4jnsgd1na2vs0mg"},{"bike_id":"a7eb5692-1f2b-48c6-af16-f2fe0b372124","system_id":"levelo_inurba_marseille","lat":43.3371,"lon":5.39195,"is_reserved":false,"is_disabled":false,"rental_uris":{"android":"levelo://app?vid=a7eb5692-1f2b-48c6-af16-f2fe0b372124","ios":"levelo://app?vid=a7eb5692-1f2b-48c6-af16-f2fe0b372124"},"vehicle_type_id":"4","last_reported":1731251275,"current_range_meters":10000,"station_id":"ce4bhr92rcd13ifvqhsg","pricing_plan_id":"cebpf4jnsgd1na2vs0mg"},{"bike_id":"4dc0e3bd-ab9c-461a-835f-d4784d7b8326","system_id":"levelo_inurba_marseille","lat":43.31322,"lon":5.42362,"is_reserved":false,"is_disabled":false,"rental_uris":{"android":"levelo://app?vid=4dc0e3bd-ab9c-461a-835f-d4784d7b8326","ios":"levelo://app?vid=4dc0e3bd-ab9c-461a-835f-d4784d7b8326"},"vehicle_type_id":"4","last_reported":1731251275,"current_range_meters":12800,"station_id":"ce4bhp92rcd13ifvqhcg","pricing_plan_id":"cebpf4jnsgd1na2vs0mg"},{"bike_id":"76b23abe-d4fa-4b4a-9ab9-b285bd2abab5","system_id":"levelo_inurba_marseille","lat":43.28753,"lon":5.38021,"is_reserved":false,"is_disabled":false,"rental_uris":{"android":"levelo://app?vid=76b23abe-d4fa-4b4a-9ab9-b285bd2abab5","ios":"levelo://app?vid=76b23abe-d4fa-4b4a-9ab9-b285bd2abab5"},"vehicle_type_id":"4","last_reported":1731251275,"current_range_meters":35200,"station_id":"","pricing_plan_id":"cebpf4jnsgd1na2vs0mg"},{"bike_id":"08be1abc-c04a-4406-bc2d-0d75ff6d01ef","system_id":"levelo_inurba_marseille","lat":43.25501,"lon":5.37654,"is_reserved":false,"is_disabled":false,"rental_uris":{"android":"levelo://app?vid=08be1abc-c04a-4406-bc2d-0d75ff6d01ef","ios":"levelo://app?vid=08be1abc-c04a-4406-bc2d-0d75ff6d01ef"},"vehicle_type_id":"4","last_reported":1731251275,"current_range_meters":16000,"station_id":"ce4bhh12rcd13ifvqff0","pricing_plan_id":"cebpf4jnsgd1na2vs0mg"},{"bike_id":"78518068-f992-41bc-84c9-ecc256aebdaf","system_id":"levelo_inurba_marseille","lat":43.31861,"lon":5.3879,"is_reserved":false,"is_disabled":false,"rental_uris":{"android":"levelo://app?vid=78518068-f992-41bc-84c9-ecc256aebdaf","ios":"levelo://app?vid=78518068-f992-41bc-84c9-ecc256aebdaf"},"vehicle_type_id":"4","last_reported":1731251275,"current_range_meters":27600,"station_id":"","pricing_plan_id":"cebpf4jnsgd1na2vs0mg"},{"bike_id":"bcec7bb5-33f2-475c-b4e7-fd38ecd30c51","system_id":"levelo_inurba_marseille","lat":43.30555,"lon":5.36565,"is_reserved":false,"is_disabled":false,"rental_uris":{"android":"levelo://app?vid=bcec7bb5-33f2-475c-b4e7-fd38ecd30c51","ios":"levelo://app?vid=bcec7bb5-33f2-475c-b4e7-fd38ecd30c51"},"vehicle_type_id":"4","last_reported":1731251275,"current_range_meters":4000,"station_id":"ce4bgs12rcd13ifvqcag","pricing_plan_id":"cebpf4jnsgd1na2vs0mg"},{"bike_id":"036455e2-1b63-4044-9247-7f01cfb51dc0","system_id":"levelo_inurba_marseille","lat":43.26942,"lon":5.40249,"is_reserved":false,"is_disabled":false,"rental_uris":{"android":"levelo://app?vid=036455e2-1b63-4044-9247-7f01cfb51dc0","ios":"levelo://app?vid=036455e2-1b63-4044-9247-7f01cfb51dc0"},"vehicle_type_id":"4","last_reported":1731251275,"current_range_meters":8000,"station_id":"cjm6bp8fraef2m0cb0m0","pricing_plan_id":"cebpf4jnsgd1na2vs0mg"},{"bike_id":"ea3b4043-c4e0-4442-9ef6-103ad80afb3d","system_id":"levelo_inurba_marseille","lat":43.2439,"lon":5.37055,"is_reserved":false,"is_disabled":false,"rental_uris":{"android":"levelo://app?vid=ea3b4043-c4e0-4442-9ef6-103ad80afb3d","ios":"levelo://app?vid=ea3b4043-c4e0-4442-9ef6-103ad80afb3d"},"vehicle_type_id":"4","last_reported":1731251275,"current_range_meters":14000,"station_id":"ce4bhhh2rcd13ifvqfk0","pricing_plan_id":"cebpf4jnsgd1na2vs0mg"},{"bike_id":"ada3df4f-4750-4776-b623-0bbb33c0ddc7","system_id":"levelo_inurba_marseille","lat":43.23187,"lon":5.35551,"is_reserved":false,"is_disabled":false,"rental_uris":{"android":"levelo://app?vid=ada3df4f-4750-4776-b623-0bbb33c0ddc7","ios":"levelo://app?vid=ada3df4f-4750-4776-b623-0bbb33c0ddc7"},"vehicle_type_id":"4","last_reported":1731251275,"current_range_meters":6400,"station_id":"ce4bhu92rcd13ifvqi70","pricing_plan_id":"cebpf4jnsgd1na2vs0mg"},{"bike_id":"2b92df52-f474-4b8c-84c5-3d6739cf76cd","system_id":"levelo_inurba_marseille","lat":43.31724,"lon":5.42399,"is_reserved":false,"is_disabled":false,"rental_uris":{"android":"levelo://app?vid=2b92df52-f474-4b8c-84c5-3d6739cf76cd","ios":"levelo://app?vid=2b92df52-f474-4b8c-84c5-3d6739cf76cd"},"vehicle_type_id":"4","last_reported":1731251275,"current_range_meters":39200,"station_id":"ce4bhp92rcd13ifvqhbg","pricing_plan_id":"cebpf4jnsgd1na2vs0mg"},{"bike_id":"4d14d31c-dd82-4bb5-8dd9-021528fdf095","system_id":"levelo_inurba_marseille","lat":43.23962,"lon":5.36632,"is_reserved":false,"is_disabled":false,"rental_uris":{"android":"levelo://app?vid=4d14d31c-dd82-4bb5-8dd9-021528fdf095","ios":"levelo://app?vid=4d14d31c-dd82-4bb5-8dd9-021528fdf095"},"vehicle_type_id":"4","last_reported":1731251275,"current_range_meters":39200,"station_id":"ce4bhi12rcd13ifvqfp0","pricing_plan_id":"cebpf4jnsgd1na2vs0mg"},{"bike_id":"24260375-973f-4262-a9da-36de4cc8c438","system_id":"levelo_inurba_marseille","lat":43.27933,"lon":5.3995,"is_reserved":false,"is_disabled":false,"rental_uris":{"android":"levelo://app?vid=24260375-973f-4262-a9da-36de4cc8c438","ios":"levelo://app?vid=24260375-973f-4262-a9da-36de4cc8c438"},"vehicle_type_id":"4","last_reported":1731251275,"current_range_meters":3200,"station_id":"ce4bho92rcd13ifvqh4g","pricing_plan_id":"cebpf4jnsgd1na2vs0mg"},{"bike_id":"8332f846-1305-413e-b1c9-a7058d37d094","system_id":"levelo_inurba_marseille","lat":43.24168,"lon":5.36402,"is_reserved":false,"is_disabled":false,"rental_uris":{"android":"levelo://app?vid=8332f846-1305-413e-b1c9-a7058d37d094","ios":"levelo://app?vid=8332f846-1305-413e-b1c9-a7058d37d094"},"vehicle_type_id":"4","last_reported":1731251275,"current_range_meters":22800,"station_id":"cpo36qri1sfpv3e86is0","pricing_plan_id":"cebpf4jnsgd1na2vs0mg"},{"bike_id":"0142e3d3-0d19-4adf-bd19-600a8e9bb9f5","system_id":"levelo_inurba_marseille","lat":43.28417,"lon":5.34984,"is_reserved":false,"is_disabled":false,"rental_uris":{"android":"levelo://app?vid=0142e3d3-0d19-4adf-bd19-600a8e9bb9f5","ios":"levelo://app?vid=0142e3d3-0d19-4adf-bd19-600a8e9bb9f5"},"vehicle_type_id":"4","last_reported":1731251275,"current_range_meters":36400,"station_id":"ce4bhbh2rcd13ifvqepg","pricing_plan_id":"cebpf4jnsgd1na2vs0mg"},{"bike_id":"af2fa318-8788-46f2-98c9-b332dd0bf23f","system_id":"levelo_inurba_marseille","lat":43.22934,"lon":5.35375,"is_reserved":false,"is_disabled":false,"rental_uris":{"android":"levelo://app?vid=af2fa318-8788-46f2-98c9-b332dd0bf23f","ios":"levelo://app?vid=af2fa318-8788-46f2-98c9-b332dd0bf23f"},"vehicle_type_id":"4","last_reported":1731251275,"current_range_meters":40000,"station_id":"cpo3532slgdg3j2ikp40","pricing_plan_id":"cebpf4jnsgd1na2vs0mg"},{"bike_id":"f60c6deb-2a91-423d-96d4-5d68e65e34f0","system_id":"levelo_inurba_marseille","lat":43.23191,"lon":5.35557,"is_reserved":false,"is_disabled":false,"rental_uris":{"android":"levelo://app?vid=f60c6deb-2a91-423d-96d4-5d68e65e34f0","ios":"levelo://app?vid=f60c6deb-2a91-423d-96d4-5d68e65e34f0"},"vehicle_type_id":"4","last_reported":1731251275,"current_range_meters":27600,"station_id":"ce4bhu92rcd13ifvqi70","pricing_plan_id":"cebpf4jnsgd1na2vs0mg"},{"bike_id":"8e6960b9-7b24-42b0-80b1-dc3c584f72af","system_id":"levelo_inurba_marseille","lat":43.265503,"lon":5.37283,"is_reserved":false,"is_disabled":false,"rental_uris":{"android":"levelo://app?vid=8e6960b9-7b24-42b0-80b1-dc3c584f72af","ios":"levelo://app?vid=8e6960b9-7b24-42b0-80b1-dc3c584f72af"},"vehicle_type_id":"4","last_reported":1731251275,"current_range_meters":22800,"station_id":"ce4bhg12rcd13ifvqf70","pricing_plan_id":"cebpf4jnsgd1na2vs0mg"},{"bike_id":"0d370b75-e3d1-456f-9115-d4ac7b891c96","system_id":"levelo_inurba_marseille","lat":43.2841,"lon":5.34985,"is_reserved":false,"is_disabled":false,"rental_uris":{"android":"levelo://app?vid=0d370b75-e3d1-456f-9115-d4ac7b891c96","ios":"levelo://app?vid=0d370b75-e3d1-456f-9115-d4ac7b891c96"},"vehicle_type_id":"4","last_reported":1731251275,"current_range_meters":36400,"station_id":"ce4bhbh2rcd13ifvqepg","pricing_plan_id":"cebpf4jnsgd1na2vs0mg"},{"bike_id":"f8bd1aa9-20af-443f-bff3-01e433777902","system_id":"levelo_inurba_marseille","lat":43.31527,"lon":5.38041,"is_reserved":false,"is_disabled":false,"rental_uris":{"android":"levelo://app?vid=f8bd1aa9-20af-443f-bff3-01e433777902","ios":"levelo://app?vid=f8bd1aa9-20af-443f-bff3-01e433777902"},"vehicle_type_id":"4","last_reported":1731251275,"current_range_meters":11200,"station_id":"ce4bhsp2rcd13ifvqi50","pricing_plan_id":"cebpf4jnsgd1na2vs0mg"},{"bike_id":"64ebd6a5-9bc6-472f-ab4a-4f4a033339b9","system_id":"levelo_inurba_marseille","lat":43.29551,"lon":5.42282,"is_reserved":false,"is_disabled":false,"rental_uris":{"android":"levelo://app?vid=64ebd6a5-9bc6-472f-ab4a-4f4a033339b9","ios":"levelo://app?vid=64ebd6a5-9bc6-472f-ab4a-4f4a033339b9"},"vehicle_type_id":"4","last_reported":1731251275,"current_range_meters":37600,"station_id":"ce4bhph2rcd13ifvqhdg","pricing_plan_id":"cebpf4jnsgd1na2vs0mg"},{"bike_id":"d45bb295-4e3a-44e4-9e21-8018a8b39bb6","system_id":"levelo_inurba_marseille","lat":43.24808,"lon":5.37457,"is_reserved":false,"is_disabled":false,"rental_uris":{"android":"levelo://app?vid=d45bb295-4e3a-44e4-9e21-8018a8b39bb6","ios":"levelo://app?vid=d45bb295-4e3a-44e4-9e21-8018a8b39bb6"},"vehicle_type_id":"4","last_reported":1731251275,"current_range_meters":24400,"station_id":"ce4bhgh2rcd13ifvqfb0","pricing_plan_id":"cebpf4jnsgd1na2vs0mg"},{"bike_id":"5c4573d0-edc8-410f-8be5-a7455448d98f","system_id":"levelo_inurba_marseille","lat":43.28408,"lon":5.34981,"is_reserved":false,"is_disabled":false,"rental_uris":{"android":"levelo://app?vid=5c4573d0-edc8-410f-8be5-a7455448d98f","ios":"levelo://app?vid=5c4573d0-edc8-410f-8be5-a7455448d98f"},"vehicle_type_id":"4","last_reported":1731251275,"current_range_meters":35600,"station_id":"ce4bhbh2rcd13ifvqepg","pricing_plan_id":"cebpf4jnsgd1na2vs0mg"},{"bike_id":"875fda72-5c1e-4be8-b8f0-c96a7a12efcb","system_id":"levelo_inurba_marseille","lat":43.28419,"lon":5.34996,"is_reserved":false,"is_disabled":false,"rental_uris":{"android":"levelo://app?vid=875fda72-5c1e-4be8-b8f0-c96a7a12efcb","ios":"levelo://app?vid=875fda72-5c1e-4be8-b8f0-c96a7a12efcb"},"vehicle_type_id":"4","last_reported":1731251275,"current_range_meters":30400,"station_id":"ce4bhbh2rcd13ifvqepg","pricing_plan_id":"cebpf4jnsgd1na2vs0mg"},{"bike_id":"3a341db7-e5a7-454a-89f5-e5cedc9113a8","system_id":"levelo_inurba_marseille","lat":43.32016,"lon":5.38055,"is_reserved":false,"is_disabled":false,"rental_uris":{"android":"levelo://app?vid=3a341db7-e5a7-454a-89f5-e5cedc9113a8","ios":"levelo://app?vid=3a341db7-e5a7-454a-89f5-e5cedc9113a8"},"vehicle_type_id":"4","last_reported":1731251275,"current_range_meters":31200,"station_id":"ce4bhr12rcd13ifvqhpg","pricing_plan_id":"cebpf4jnsgd1na2vs0mg"},{"bike_id":"6687d8c1-ef04-47df-a56c-94a25c0e90f0","system_id":"levelo_inurba_marseille","lat":43.24165,"lon":5.36398,"is_reserved":false,"is_disabled":false,"rental_uris":{"android":"levelo://app?vid=6687d8c1-ef04-47df-a56c-94a25c0e90f0","ios":"levelo://app?vid=6687d8c1-ef04-47df-a56c-94a25c0e90f0"},"vehicle_type_id":"4","last_reported":1731251275,"current_range_meters":10000,"station_id":"cpo36qri1sfpv3e86is0","pricing_plan_id":"cebpf4jnsgd1na2vs0mg"},