{"last_updated":1686999970,"ttl":30,"version":"2.2","data":{"bikes":[{"bike_id":"45793b6f-95d7-444f-b91b-9b99a482f802","system_id":"levelo_inurba_marseille","lat":43.31341,"lon":5.367098,"is_reserved":false,"is_disabled":false,"rental_uris":{"android":"levelo://app?vid=45793b6f-95d7-444f-b91b-9b99a482f802","ios":"levelo://app?vid=45793b6f-95d7-444f-b91b-9b99a482f802"},"vehicle_type_id":"4","last_reported":1686999971,"current_range_meters":22400,"station_id":"ce4bgr92rcd13ifvqc6g","pricing_plan_id":"free"},{"bike_id":"79fdfe61-0813-45b9-9793-b6ee3a6420c8","system_id":"levelo_inurba_marseille","lat":43.31344,"lon":5.36705,"is_reserved":false,"is_disabled":false,"rental_uris":{"android":"levelo://app?vid=79fdfe61-0813-45b9-9793-b6ee3a6420c8","ios":"levelo://app?vid=79fdfe61-0813-45b9-9793-b6ee3a6420c8"},"vehicle_type_id":"4","last_reported":1686999971,"current_range_meters":27600,"station_id":"ce4bgr92rcd13ifvqc6g","pricing_plan_id":"free"},{"bike_id":"04596c7c-1f6a-4b71-8f34-185e30423fbc","system_id":"levelo_inurba_marseille","lat":43.312239,"lon":5.368562,"is_reserved":false,"is_disabled":false,"rental_uris":{"android":"levelo://app?vid=04596c7c-1f6a-4b71-8f34-185e30423fbc","ios":"levelo://app?vid=04596c7c-1f6a-4b71-8f34-185e30423fbc"},"vehicle_type_id":"4","last_reported":1686999971,"current_range_meters":12000,"station_id":"ce4bgl92rcd13ifvqbq0","pricing_plan_id":"free"},{"bike_id":"65eff3f7-3682-4f49-8e5f-63f0330d1d96","system_id":"levelo_inurba_marseille","lat":43.312239,"lon":5.368562,"is_reserved":false,"is_disabled":false,"rental_uris":{"android":"levelo://app?vid=65eff3f7-3682-4f49-8e5f-63f0330d1d96","ios":"levelo://app?vid=65eff3f7-3682-4f49-8e5f-63f0330d1d96"},"vehicle_type_id":"4","last_reported":1686999971,"current_range_meters":19200,"station_id":"ce4bgl92rcd13ifvqbq0","pricing_plan_id":"free"},{"bike_id":"9c746439-937e-436d-8c66-cb90c42aae7f","system_id":"levelo_inurba_marseille","lat":43.314811,"lon":5.373103,"is_reserved":false,"is_disabled":false,"rental_uris":{"android":"levelo://app?vid=9c746439-937e-436d-8c66-cb90c42aae7f","ios":"levelo://app?vid=9c746439-937e-436d-8c66-cb90c42aae7f"},"vehicle_type_id":"4","last_reported":1686999971,"current_range_meters":30800,"station_id":"ce4bgt12rcd13ifvqcd0","pricing_plan_id":"free"},{"bike_id":"793d264d-fc1b-421c-ad03-35b115bf095b","system_id":"levelo_inurba_marseille","lat":43.30888,"lon":5.37195,"is_reserved":false,"is_disabled":false,"rental_uris":{"android":"levelo://app?vid=793d264d-fc1b-421c-ad03-35b115bf095b","ios":"levelo://app?vid=793d264d-fc1b-421c-ad03-35b115bf095b"},"vehicle_type_id":"4","last_reported":1686999971,"current_range_meters":2400,"station_id":"","pricing_plan_id":"free"},{"bike_id":"5d58951d-1035-40f9-93a5-30beed42552b","system_id":"levelo_inurba_marseille","lat":43.305368,"lon":5.367343,"is_reserved":false,"is_disabled":false,"rental_uris":{"android":"levelo://app?vid=5d58951d-1035-40f9-93a5-30beed42552b","ios":"levelo://app?vid=5d58951d-1035-40f9-93a5-30beed42552b"},"vehicle_type_id":"4","last_reported":1686999971,"current_range_meters":31600,"station_id":"ce4bgrp2rcd13ifvqc9g","pricing_plan_id":"free"},{"bike_id":"3f0bb909-06c7-44c8-8f44-0c1b69485993","system_id":"levelo_inurba_marseille","lat":43.305368,"lon":5.367343,"is_reserved":false,"is_disabled":false,"rental_uris":{"android":"levelo://app?vid=3f0bb909-06c7-44c8-8f44-0c1b69485993","ios":"levelo://app?vid=3f0bb909-06c7-44c8-8f44-0c1b69485993"},"vehicle_type_id":"4","last_reported":1686999971,"current_range_meters":31200,"station_id":"ce4bgrp2rcd13ifvqc9g","pricing_plan_id":"free"},{"bike_id":"43a6fcac-1291-4404-9d4d-4b1f83441a37","system_id":"levelo_inurba_marseille","lat":43.305368,"lon":5.367343,"is_reserved":false,"is_disabled":false,"rental_uris":{"android":"levelo://app?vid=43a6fcac-1291-4404-9d4d-4b1f83441a37","ios":"levelo://app?vid=43a6fcac-1291-4404-9d4d-4b1f83441a37"},"vehicle_type_id":"4","last_reported":1686999971,"current_range_meters":18000,"station_id":"ce4bgrp2rcd13ifvqc9g","pricing_plan_id":"free"},{"bike_id":"4fc0cd3c-5d78-4d83-92cd-c1d85333a18e","system_id":"levelo_inurba_marseille","lat":43.305368,"lon":5.367343,"is_reserved":false,"is_disabled":false,"rental_uris":{"android":"levelo://app?vid=4fc0cd3c-5d78-4d83-92cd-c1d85333a18e","ios":"levelo://app?vid=4fc0cd3c-5d78-4d83-92cd-c1d85333a18e"},"vehicle_type_id":"4","last_reported":1686999971,"current_range_meters":31200,"station_id":"ce4bgrp2rcd13ifvqc9g","pricing_plan_id":"free"},{"bike_id":"14ef585f-4a9e-4dce-9666-ffb12c973f25","system_id":"levelo_inurba_marseille","lat":43.305368,"lon":5.367343,"is_reserved":false,"is_disabled":false,"rental_uris":{"android":"levelo://app?vid=14ef585f-4a9e-4dce-9666-ffb12c973f25","ios":"levelo://app?vid=14ef585f-4a9e-4dce-9666-ffb12c973f25"},"vehicle_type_id":"4","last_reported":1686999971,"current_range_meters":31200,"station_id":"ce4bgrp2rcd13ifvqc9g","pricing_plan_id":"free"},{"bike_id":"b5b69181-4817-4cbf-b40b-e6ef465434e1","system_id":"levelo_inurba_marseille","lat":43.305714,"lon":5.365633,"is_reserved":false,"is_disabled":false,"rental_uris":{"android":"levelo://app?vid=b5b69181-4817-4cbf-b40b-e6ef465434e1","ios":"levelo://app?vid=b5b69181-4817-4cbf-b40b-e6ef465434e1"},"vehicle_type_id":"4","last_reported":1686999971,"current_range_meters":20000,"station_id":"ce4bgs12rcd13ifvqcag","pricing_plan_id":"free"},{"bike_id":"80049f59-4adf-4d31-bd06-706f96dc58bd","system_id":"levelo_inurba_marseille","lat":43.305383,"lon":5.365439,"is_reserved":false,"is_disabled":false,"rental_uris":{"android":"levelo://app?vid=80049f59-4adf-4d31-bd06-706f96dc58bd","ios":"levelo://app?vid=80049f59-4adf-4d31-bd06-706f96dc58bd"},"vehicle_type_id":"4","last_reported":1686999971,"current_range_meters":30800,"station_id":"ce4bgs12rcd13ifvqcag","pricing_plan_id":"free"},{"bike_id":"92eeb820-8e83-4f5f-b97e-a8847d4d718f","system_id":"levelo_inurba_marseille","lat":43.305361,"lon":5.365434,"is_reserved":false,"is_disabled":false,"rental_uris":{"android":"levelo://app?vid=92eeb820-8e83-4f5f-b97e-a8847d4d718f","ios":"levelo://app?vid=92eeb820-8e83-4f5f-b97e-a8847d4d718f"},"vehicle_type_id":"4","last_reported":1686999971,"current_range_meters":30400,"station_id":"ce4bgs12rcd13ifvqcag","pricing_plan_id":"free"},{"bike_id":"9c709c78-f88a-448e-aedf-60bf8617cf18","system_id":"levelo_inurba_marseille","lat":43.305706,"lon":5.365654,"is_reserved":false,"is_disabled":false,"rental_uris":{"android":"levelo://app?vid=9c709c78-f88a-448e-aedf-60bf8617cf18","ios":"levelo://app?vid=9c709c78-f88a-448e-aedf-60bf8617cf18"},"vehicle_type_id":"4","last_reported":1686999971,"current_range_meters":9600,"station_id":"ce4bgs12rcd13ifvqcag","pricing_plan_id":"free"},{"bike_id":"6693503e-c8c1-49f2-8cc9-b1982b7e93b0","system_id":"levelo_inurba_marseille","lat":43.305706,"lon":5.365654,"is_reserved":false,"is_disabled":false,"rental_uris":{"android":"levelo://app?vid=6693503e-c8c1-49f2-8cc9-b1982b7e93b0","ios":"levelo://app?vid=6693503e-c8c1-49f2-8cc9-b1982b7e93b0"},"vehicle_type_id":"4","last_reported":1686999971,"current_range_meters":21600,"station_id":"ce4bgs12rcd13ifvqcag","pricing_plan_id":"free"},{"bike_id":"579dbb1f-8bc9-4b4f-88e5-b50188f0967e","system_id":"levelo_inurba_marseille","lat":43.305368,"lon":5.367343,"is_reserved":false,"is_disabled":false,"rental_uris":{"android":"levelo://app?vid=579dbb1f-8bc9-4b4f-88e5-b50188f0967e","ios":"levelo://app?vid=579dbb1f-8bc9-4b4f-88e5-b50188f0967e"},"vehicle_type_id":"4","last_reported":1686999971,"current_range_meters":12800,"station_id":"ce4bgrp2rcd13ifvqc9g","pricing_plan_id":"free"},{"bike_id":"4320b2f8-18bc-4284-88c6-30809eeb0313","system_id":"levelo_inurba_marseille","lat":43.305259,"lon":5.365438,"is_reserved":false,"is_disabled":false,"rental_uris":{"android":"levelo://app?vid=4320b2f8-18bc-4284-88c6-30809eeb0313","ios":"levelo://app?vid=4320b2f8-18bc-4284-88c6-30809eeb0313"},"vehicle_type_id":"4","last_reported":1686999971,"current_range_meters":22400,"station_id":"","pricing_plan_id":"free"},{"bike_id":"2424216c-0462-4ad0-b127-d0366c91b61c","system_id":"levelo_inurba_marseille","lat":43.317075,"lon":5.377367,"is_reserved":false,"is_disabled":false,"rental_uris":{"android":"levelo://app?vid=2424216c-0462-4ad0-b127-d0366c91b61c","ios":"levelo://app?vid=2424216c-0462-4ad0-b127-d0366c91b61c"},"vehicle_type_id":"4","last_reported":1686999971,"current_range_meters":31200,"station_id":"ce4bgth2rcd13ifvqch0","pricing_plan_id":"free"},{"bike_id":"2d2f2c00-c908-43c2-8286-5f2b8c07efde","system_id":"levelo_inurba_marseille","lat":43.30307,"lon":5.36902,"is_reserved":false,"is_disabled":false,"rental_uris":{"android":"levelo://app?vid=2d2f2c00-c908-43c2-8286-5f2b8c07efde","ios":"levelo://app?vid=2d2f2c00-c908-43c2-8286-5f2b8c07efde"},"vehicle_type_id":"4","last_reported":1686999971,"current_range_meters":31200,"station_id":"ce4bgqh2rcd13ifvqc5g","pricing_plan_id":"free"},{"bike_id":"7afbf7e1-0b3e-4169-871c-7b236635dbc2","system_id":"levelo_inurba_marseille","lat":43.301939,"lon":5.366286,"is_reserved":false,"is_disabled":false,"rental_uris":{"android":"levelo://app?vid=7afbf7e1-0b3e-4169-871c-7b236635dbc2","ios":"levelo://app?vid=7afbf7e1-0b3e-4169-871c-7b236635dbc2"},"vehicle_type_id":"4","last_reported":1686999971,"current_range_meters":22800,"station_id":"ce4bgrh2rcd13ifvqc8g","pricing_plan_id":"free"},{"bike_id":"493f201b-219f-44ca-9c0b-c55da0bfa997","system_id":"levelo_inurba_marseille","lat":43.301939,"lon":5.366286,"is_reserved":false,"is_disabled":false,"rental_uris":{"android":"levelo://app?vid=493f201b-219f-44ca-9c0b-c55da0bfa997","ios":"levelo://app?vid=493f201b-219f-44ca-9c0b-c55da0bfa997"},"vehicle_type_id":"4","last_reported":1686999971,"current_range_meters":27600,"station_id":"ce4bgrh2rcd13ifvqc8g","pricing_plan_id":"free"},{"bike_id":"ae33307b-fcd5-479b-9ae1-9002ed226c6e","system_id":"levelo_inurba_marseille","lat":43.308012,"lon":5.381511,"is_reserved":false,"is_disabled":false,"rental_uris":{"android":"levelo://app?vid=ae33307b-fcd5-479b-9ae1-9002ed226c6e","ios":"levelo://app?vid=ae33307b-fcd5-479b-9ae1-9002ed226c6e"},"vehicle_type_id":"4","last_reported":1686999971,"current_range_meters":10800,"station_id":"ce4bgt12rcd13ifvqce0","pricing_plan_id":"free"},{"bike_id":"6d1e3012-968d-4d5d-8da7-b03de39810a8","system_id":"levelo_inurba_marseille","lat":43.308012,"lon":5.381511,"is_reserved":false,"is_disabled":false,"rental_uris":{"android":"levelo://app?vid=6d1e3012-968d-4d5d-8da7-b03de39810a8","ios":"levelo://app?vid=6d1e3012-968d-4d5d-8da7-b03de39810a8"},"vehicle_type_id":"4","last_reported":1686999971,"current_range_meters":21200,"station_id":"ce4bgt12rcd13ifvqce0","pricing_plan_id":"free"},{"bike_id":"df44f206-2e7e-4e97-92db-0839ab802227","system_id":"levelo_inurba_marseille","lat":43.308012,"lon":5.381511,"is_reserved":false,"is_disabled":false,"rental_uris":{"android":"levelo://app?vid=df44f206-2e7e-4e97-92db-0839ab802227","ios":"levelo://app?vid=df44f206-2e7e-4e97-92db-0839ab802227"},"vehicle_type_id":"4","last_reported":1686999971,"current_range_meters":27200,"station_id":"ce4bgt12rcd13ifvqce0","pricing_plan_id":"free"},{"bike_id":"c3bc744d-1fc5-468d-a0fc-204ac5f0726b","system_id":"levelo_inurba_marseille","lat":43.304606,"lon":5.379026,"is_reserved":false,"is_disabled":false,"rental_uris":{"android":"levelo://app?vid=c3bc744d-1fc5-468d-a0fc-204ac5f0726b","ios":"levelo://app?vid=c3bc744d-1fc5-468d-a0fc-204ac5f0726b"},"vehicle_type_id":"4","last_reported":1686999971,"current_range_meters":24000,"station_id":"ce4bgup2rcd13ifvqcn0","pricing_plan_id":"free"},{"bike_id":"cae49386-0d3f-4cd5-9814-453dc65bde05","system_id":"levelo_inurba_marseille","lat":43.304606,"lon":5.379026,"is_reserved":false,"is_disabled":false,"rental_uris":{"android":"levelo://app?vid=cae49386-0d3f-4cd5-9814-453dc65bde05","ios":"levelo://app?vid=cae49386-0d3f-4cd5-9814-453dc65bde05"},"vehicle_type_id":"4","last_reported":1686999971,"current_range_meters":20000,"station_id":"ce4bgup2rcd13ifvqcn0","pricing_plan_id":"free"},{"bike_id":"43fc693e-f2a9-4aec-8fd9-d094bb02cb70","system_id":"levelo_inurba_marseille","lat":43.304606,"lon":5.379026,"is_reserved":false,"is_disabled":false,"rental_uris":{"android":"levelo://app?vid=43fc693e-f2a9-4aec-8fd9-d094bb02cb70","ios":"levelo://app?vid=43fc693e-f2a9-4aec-8fd9-d094bb02cb70"},"vehicle_type_id":"4","last_reported":1686999971,"current_range_meters":21600,"station_id":"ce4bgup2rcd13ifvqcn0","pricing_plan_id":"free"},{"bike_id":"1edd8442-42fc-4b67-b28a-15342acd743f","system_id":"levelo_inurba_marseille","lat":43.30277,"lon":5.37691,"is_reserved":false,"is_disabled":false,"rental_uris":{"android":"levelo://app?vid=1edd8442-42fc-4b67-b28a-15342acd743f","ios":"levelo://app?vid=1edd8442-42fc-4b67-b28a-15342acd743f"},"vehicle_type_id":"4","last_reported":1686999971,"current_range_meters":31200,"station_id":"ce4bguh2rcd13ifvqcj0","pricing_plan_id":"free"},{"bike_id":"91601e57-fe5a-4a5c-85b8-2a247bec9aff","system_id":"levelo_inurba_marseille","lat":43.301429,"lon":5.37413,"is_reserved":false,"is_disabled":false,"rental_uris":{"android":"levelo://app?vid=91601e57-fe5a-4a5c-85b8-2a247bec9aff","ios":"levelo://app?vid=91601e57-fe5a-4a5c-85b8-2a247bec9aff"},"vehicle_type_id":"4","last_reported":1686999971,"current_range_meters":24400,"station_id":"ce4bgs92rcd13ifvqcc0","pricing_plan_id":"free"},{"bike_id":"7f8bb598-5691-46e8-bc73-6118a2742382","system_id":"levelo_inurba_marseille","lat":43.30141,"lon":5.3742,"is_reserved":false,"is_disabled":false,"rental_uris":{"android":"levelo://app?vid=7f8bb598-5691-46e8-bc73-6118a2742382","ios":"levelo://app?vid=7f8bb598-5691-46e8-bc73-6118a2742382"},"vehicle_type_id":"4","last_reported":1686999971,"current_range_meters":31200,"station_id":"ce4bgs92rcd13ifvqcc0","pricing_plan_id":"free"},{"bike_id":"d0505f39-e21c-4765-b1e6-2b52a49f12e1","system_id":"levelo_inurba_marseille","lat":43.301429,"lon":5.37413,"is_reserved":false,"is_disabled":false,"rental_uris":{"android":"levelo://app?vid=d0505f39-e21c-4765-b1e6-2b52a49f12e1","ios":"levelo://app?vid=d0505f39-e21c-4765-b1e6-2b52a49f12e1"},"vehicle_type_id":"4","last_reported":1686999971,"current_range_meters":25600,"station_id":"ce4bgs92rcd13ifvqcc0","pricing_plan_id":"free"},{"bike_id":"5003c2fa-8578-4b5b-aee0-bf9c6a52e3f5","system_id":"levelo_inurba_marseille","lat":43.31995,"lon":5.38152,"is_reserved":false,"is_disabled":false,"rental_uris":{"android":"levelo://app?vid=5003c2fa-8578-4b5b-aee0-bf9c6a52e3f5","ios":"levelo://app?vid=5003c2fa-8578-4b5b-aee0-bf9c6a52e3f5"},"vehicle_type_id":"4","last_reported":1686999971,"current_range_meters":0,"station_id":"ce4bhr12rcd13ifvqhpg","pricing_plan_id":"free"},{"bike_id":"cdeaa449-0aa0-4f69-a066-7b1a8bd8eb3f","system_id":"levelo_inurba_marseille","lat":43.299222,"lon":5.365554,"is_reserved":false,"is_disabled":false,"rental_uris":{"android":"levelo://app?vid=cdeaa449-0aa0-4f69-a066-7b1a8bd8eb3f","ios":"levelo://app?vid=cdeaa449-0aa0-4f69-a066-7b1a8bd8eb3f"},"vehicle_type_id":"4","last_reported":1686999971,"current_range_meters":27600,"station_id":"ce4bgm92rcd13ifvqbr0","pricing_plan_id":"free"},{"bike_id":"1ea6966d-43eb-43c5-9d3e-fe3ec65401bc","system_id":"levelo_inurba_marseille","lat":43.29934,"lon":5.36548,"is_reserved":false,"is_disabled":false,"rental_uris":{"android":"levelo://app?vid=1ea6966d-43eb-43c5-9d3e-fe3ec65401bc","ios":"levelo://app?vid=1ea6966d-43eb-43c5-9d3e-fe3ec65401bc"},"vehicle_type_id":"4","last_reported":1686999971,"current_range_meters":19200,"station_id":"ce4bgm92rcd13ifvqbr0","pricing_plan_id":"free"},{"bike_id":"8f776625-54f9-4191-8df1-d36eb2227099","system_id":"levelo_inurba_marseille","lat":43.299222,"lon":5.365554,"is_reserved":false,"is_disabled":false,"rental_uris":{"android":"levelo://app?vid=8f776625-54f9-4191-8df1-d36eb2227099","ios":"levelo://app?vid=8f776625-54f9-4191-8df1-d36eb2227099"},"vehicle_type_id":"4","last_reported":1686999971,"current_range_meters":31200,"station_id":"ce4bgm92rcd13ifvqbr0","pricing_plan_id":"free"},{"bike_id":"330412da-b9eb-49fa-9ba0-9288ee9ddd31","system_id":"levelo_inurba_marseille","lat":43.30038,"lon":5.37528,"is_reserved":false,"is_disabled":false,"rental_uris":{"android":"levelo://app?vid=330412da-b9eb-49fa-9ba0-9288ee9ddd31","ios":"levelo://app?vid=330412da-b9eb-49fa-9ba0-9288ee9ddd31"},"vehicle_type_id":"4","last_reported":1686999971,"current_range_meters":19200,"station_id":"","pricing_plan_id":"free"},{"bike_id":"2a742b94-5b27-4032-8d79-1a530007b32e","system_id":"levelo_inurba_marseille","lat":43.298531,"lon":5.362904,"is_reserved":false,"is_disabled":false,"rental_uris":{"android":"levelo://app?vid=2a742b94-5b27-4032-8d79-1a530007b32e","ios":"levelo://app?vid=2a742b94-5b27-4032-8d79-1a530007b32e"},"vehicle_type_id":"4","last_reported":1686999971,"current_range_meters":13600,"station_id":"ce4bgpp2rcd13ifvqc3g","pricing_plan_id":"free"},{"bike_id":"7382cb91-b17b-4cd5-98f1-ef3434ff2361","system_id":"levelo_inurba_marseille","lat":43.298531,"lon":5.362898,"is_reserved":false,"is_disabled":false,"rental_uris":{"android":"levelo://app?vid=7382cb91-b17b-4cd5-98f1-ef3434ff2361","ios":"levelo://app?vid=7382cb91-b17b-4cd5-98f1-ef3434ff2361"},"vehicle_type_id":"4","last_reported":1686999971,"current_range_meters":19600,"station_id":"ce4bgpp2rcd13ifvqc3g","pricing_plan_id":"free"},{"bike_id":"a6a80a5a-c873-4a24-a943-03c9b9f1a766","system_id":"levelo_inurba_marseille","lat":43.298528,"lon":5.362893,"is_reserved":false,"is_disabled":false,"rental_uris":{"android":"levelo://app?vid=a6a80a5a-c873-4a24-a943-03c9b9f1a766","ios":"levelo://app?vid=a6a80a5a-c873-4a24-a943-03c9b9f1a766"},"vehicle_type_id":"4","last_reported":1686999971,"current_range_meters":28400,"station_id":"ce4bgpp2rcd13ifvqc3g","pricing_plan_id":"free"},{"bike_id":"9fe47141-4d99-452c-b205-e90a05f2dcee","system_id":"levelo_inurba_marseille","lat":43.29853,"lon":5.36287,"is_reserved":false,"is_disabled":false,"rental_uris":{"android":"levelo://app?vid=9fe47141-4d99-452c-b205-e90a05f2dcee","ios":"levelo://app?vid=9fe47141-4d99-452c-b205-e90a05f2dcee"},"vehicle_type_id":"4","last_reported":1686999971,"current_range_meters":21200,"station_id":"ce4bgpp2rcd13ifvqc3g","pricing_plan_id":"free"},{"bike_id":"b10d6f7a-8a4b-4f85-b2d0-2baf1c242d4c","system_id":"levelo_inurba_marseille","lat":43.298433,"lon":5.362774,"is_reserved":false,"is_disabled":false,"rental_uris":{"android":"levelo://app?vid=b10d6f7a-8a4b-4f85-b2d0-2baf1c242d4c","ios":"levelo://app?vid=b10d6f7a-8a4b-4f85-b2d0-2baf1c242d4c"},"vehicle_type_id":"4","last_reported":1686999971,"current_range_meters":27200,"station_id":"ce4bgpp2rcd13ifvqc3g","pricing_plan_id":"free"},{"bike_id":"a64b92a2-9ecd-404f-8333-fb56287f289e","system_id":"levelo_inurba_marseille","lat":43.298454,"lon":5.36267,"is_reserved":false,"is_disabled":false,"rental_uris":{"android":"levelo://app?vid=a64b92a2-9ecd-404f-8333-fb56287f289e","ios":"levelo://app?vid=a64b92a2-9ecd-404f-8333-fb56287f289e"},"vehicle_type_id":"4","last_reported":1686999971,"current_range_meters":11600,"station_id":"","pricing_plan_id":"free"},{"bike_id":"5ec42d38-18fb-402a-8f93-519b756addf8","system_id":"levelo_inurba_marseille","lat":43.29841,"lon":5.36264,"is_reserved":false,"is_disabled":false,"rental_uris":{"android":"levelo://app?vid=5ec42d38-18fb-402a-8f93-519b756addf8","ios":"levelo://app?vid=5ec42d38-18fb-402a-8f93-519b756addf8"},"vehicle_type_id":"4","last_reported":1686999971,"current_range_meters":18400,"station_id":"ce4bgpp2rcd13ifvqc3g","pricing_plan_id":"free"},{"bike_id":"75bd8243-535e-43b8-86ec-3580e45cde44","system_id":"levelo_inurba_marseille","lat":43.299243,"lon":5.374807,"is_reserved":false,"is_disabled":false,"rental_uris":{"android":"levelo://app?vid=75bd8243-535e-43b8-86ec-3580e45cde44","ios":"levelo://app?vid=75bd8243-535e-43b8-86ec-3580e45cde44"},"vehicle_type_id":"4","last_reported":1686999971,"current_range_meters":24000,"station_id":"ce4bgjh2rcd13ifvqbg0","pricing_plan_id":"free"},{"bike_id":"2c508234-8969-4ae5-9301-cf0f8bed1516","system_id":"levelo_inurba_marseille","lat":43.311722,"lon":5.387247,"is_reserved":false,"is_disabled":false,"rental_uris":{"android":"levelo://app?vid=2c508234-8969-4ae5-9301-cf0f8bed1516","ios":"levelo://app?vid=2c508234-8969-4ae5-9301-cf0f8bed1516"},"vehicle_type_id":"4","last_reported":1686999971,"current_range_meters":30000,"station_id":"ce4bgv12rcd13ifvqcp0","pricing_plan_id":"free"},{"bike_id":"2904021f-61a5-4a80-b35a-8c3e76b8ed02","system_id":"levelo_inurba_marseille","lat":43.297794,"lon":5.370888,"is_reserved":false,"is_disabled":false,"rental_uris":{"android":"levelo://app?vid=2904021f-61a5-4a80-b35a-8c3e76b8ed02","ios":"levelo://app?vid=2904021f-61a5-4a80-b35a-8c3e76b8ed02"},"vehicle_type_id":"4","last_reported":1686999971,"current_range_meters":26800,"station_id":"ce4bgop2rcd13ifvqc1g","pricing_plan_id":"free"},{"bike_id":"a6972cf9-0407-4705-bbbf-451ed122c9ea","system_id":"levelo_inurba_marseille","lat":43.297794,"lon":5.370888,"is_reserved":false,"is_disabled":false,"rental_uris":{"android":"levelo://app?vid=a6972cf9-0407-4705-bbbf-451ed122c9ea","ios":"levelo://app?vid=a6972cf9-0407-4705-bbbf-451ed122c9ea"},"vehicle_type_id":"4","last_reported":1686999971,"current_range_meters":4800,"station_id":"ce4bgop2rcd13ifvqc1g","pricing_plan_id":"free"},{"bike_id":"bf417a54-f314-4e40-ab3a-99849ce8ea2b","system_id":"levelo_inurba_marseille","lat":43.297794,"lon":5.370888,"is_reserved":false,"is_disabled":false,"rental_uris":{"android":"levelo://app?vid=bf417a54-f314-4e40-ab3a-99849ce8ea2b","ios":"levelo://app?vid=bf417a54-f314-4e40-ab3a-99849ce8ea2b"},"vehicle_type_id":"4","last_reported":1686999971,"current_range_meters":21200,"station_id":"ce4bgop2rcd13ifvqc1g","pricing_plan_id":"free"},{"bike_id":"fcf4438e-464e-4ab6-8321-1ee56614ef18","system_id":"levelo_inurba_marseille","lat":43.297794,"lon":5.370888,"is_reserved":false,"is_disabled":false,"rental_uris":{"android":"levelo://app?vid=fcf4438e-464e-4ab6-8321-1ee56614ef18","ios":"levelo://app?vid=fcf4438e-464e-4ab6-8321-1ee56614ef18"},"vehicle_type_id":"4","last_reported":1686999971,"current_range_meters":29600,"station_id":"ce4bgop2rcd13ifvqc1g","pricing_plan_id":"free"},{"bike_id":"519a9111-344b-437a-af19-0f2a8950b7bd","system_id":"levelo_inurba_marseille","lat":43.328371,"lon":5.366912,"is_reserved":false,"is_disabled":false,"rental_uris":{"android":"levelo://app?vid=519a9111-344b-437a-af19-0f2a8950b7bd","ios":"levelo://app?vid=519a9111-344b-437a-af19-0f2a8950b7bd"},"vehicle_type_id":"4","last_reported":1686999971,"current_range_meters":20800,"station_id":"ce4bhs92rcd13ifvqi0g","pricing_plan_id":"free"},{"bike_id":"4bb85f49-7f9a-477c-abaa-23a093d581e6","system_id":"levelo_inurba_marseille","lat":43.32824,"lon":5.36694,"is_reserved":false,"is_disabled":false,"rental_uris":{"android":"levelo://app?vid=4bb85f49-7f9a-477c-abaa-23a093d581e6","ios":"levelo://app?vid=4bb85f49-7f9a-477c-abaa-23a093d581e6"},"vehicle_type_id":"4","last_reported":1686999971,"current_range_meters":20400,"station_id":"ce4bhs92rcd13ifvqi0g","pricing_plan_id":"free"},{"bike_id":"b332c37d-a2b6-4b97-8bc8-b9f716a8c2d6","system_id":"levelo_inurba_marseille","lat":43.328371,"lon":5.366912,"is_reserved":false,"is_disabled":false,"rental_uris":{"android":"levelo://app?vid=b332c37d-a2b6-4b97-8bc8-b9f716a8c2d6","ios":"levelo://app?vid=b332c37d-a2b6-4b97-8bc8-b9f716a8c2d6"},"vehicle_type_id":"4","last_reported":1686999971,"current_range_meters":26800,"station_id":"ce4bhs92rcd13ifvqi0g","pricing_plan_id":"free"},{"bike_id":"6d12bf08-ef93-4cae-ab6e-6233437e9a82","system_id":"levelo_inurba_marseille","lat":43.328371,"lon":5.366912,"is_reserved":false,"is_disabled":false,"rental_uris":{"android":"levelo://app?vid=6d12bf08-ef93-4cae-ab6e-6233437e9a82","ios":"levelo://app?vid=6d12bf08-ef93-4cae-ab6e-6233437e9a82"},"vehicle_type_id":"4","last_reported":1686999971,"current_range_meters":19600,"station_id":"ce4bhs92rcd13ifvqi0g","pricing_plan_id":"free"},{"bike_id":"5a5e3d8f-b983-46a7-9e9c-c922ae093802","system_id":"levelo_inurba_marseille","lat":43.328371,"lon":5.366912,"is_reserved":false,"is_disabled":false,"rental_uris":{"android":"levelo://app?vid=5a5e3d8f-b983-46a7-9e9c-c922ae093802","ios":"levelo://app?vid=5a5e3d8f-b983-46a7-9e9c-c922ae093802"},"vehicle_type_id":"4","last_reported":1686999971,"current_range_meters":31200,"station_id":"ce4bhs92rcd13ifvqi0g","pricing_plan_id":"free"},{"bike_id":"815c5fa8-0a8e-4539-a125-095f582ce681","system_id":"levelo_inurba_marseille","lat":43.328371,"lon":5.366912,"is_reserved":false,"is_disabled":false,"rental_uris":{"android":"levelo://app?vid=815c5fa8-0a8e-4539-a125-095f582ce681","ios":"levelo://app?vid=815c5fa8-0a8e-4539-a125-095f582ce681"},"vehicle_type_id":"4","last_reported":1686999971,"current_range_meters":15200,"station_id":"ce4bhs92rcd13ifvqi0g","pricing_plan_id":"free"},{"bike_id":"1516e766-27f3-4b1a-ad2e-ef9fdbdc2876","system_id":"levelo_inurba_marseille","lat":43.29717,"lon":5.36626,"is_reserved":false,"is_disabled":false,"rental_uris":{"android":"levelo://app?vid=1516e766-27f3-4b1a-ad2e-ef9fdbdc2876","ios":"levelo://app?vid=1516e766-27f3-4b1a-ad2e-ef9fdbdc2876"},"vehicle_type_id":"4","last_reported":1686999971,"current_range_meters":20000,"station_id":"","pricing_plan_id":"free"},{"bike_id":"4bf53da7-5b2e-4feb-ad64-d834c27b533d","system_id":"levelo_inurba_marseille","lat":43.328371,"lon":5.366912,"is_reserved":false,"is_disabled":false,"rental_uris":{"android":"levelo://app?vid=4bf53da7-5b2e-4feb-ad64-d834c27b533d","ios":"levelo://app?vid=4bf53da7-5b2e-4feb-ad64-d834c27b533d"},"vehicle_type_id":"4","last_reported":1686999971,"current_range_meters":26800,"station_id":"ce4bhs92rcd13ifvqi0g","pricing_plan_id":"free"},{"bike_id":"d08d01f8-b41e-4869-a9c9-7a964b732766","system_id":"levelo_inurba_marseille","lat":43.29713,"lon":5.3661,"is_reserved":false,"is_disabled":false,"rental_uris":{"android":"levelo://app?vid=d08d01f8-b41e-4869-a9c9-7a964b732766","ios":"levelo://app?vid=d08d01f8-b41e-4869-a9c9-7a964b732766"},"vehicle_type_id":"4","last_reported":1686999971,"current_range_meters":31200,"station_id":"ce4bgn12rcd13ifvqbt0","pricing_plan_id":"free"},{"bike_id":"176f4894-d7fc-460e-aa5d-7c8c1e206dc3","system_id":"levelo_inurba_marseille","lat":43.297033,"lon":5.365902,"is_reserved":false,"is_disabled":false,"rental_uris":{"android":"levelo://app?vid=176f4894-d7fc-460e-aa5d-7c8c1e206dc3","ios":"levelo://app?vid=176f4894-d7fc-460e-aa5d-7c8c1e206dc3"},"vehicle_type_id":"4","last_reported":1686999971,"current_range_meters":16000,"station_id":"ce4bgn12rcd13ifvqbt0","pricing_plan_id":"free"},{"bike_id":"99805b90-081b-4816-9ffd-bc71ddbe1eae","system_id":"levelo_inurba_marseille","lat":43.2968,"lon":5.37291,"is_reserved":false,"is_disabled":false,"rental_uris":{"android":"levelo://app?vid=99805b90-081b-4816-9ffd-bc71ddbe1eae","ios":"levelo://app?vid=99805b90-081b-4816-9ffd-bc71ddbe1eae"},"vehicle_type_id":"4","last_reported":1686999971,"current_range_meters":28800,"station_id":"ce4bgk12rcd13ifvqbj0","pricing_plan_id":"free"},{"bike_id":"68e5c3db-049e-4dd8-add9-b55621952703","system_id":"levelo_inurba_marseille","lat":43.2968,"lon":5.37291,"is_reserved":false,"is_disabled":false,"rental_uris":{"android":"levelo://app?vid=68e5c3db-049e-4dd8-add9-b55621952703","ios":"levelo://app?vid=68e5c3db-049e-4dd8-add9-b55621952703"},"vehicle_type_id":"4","last_reported":1686999971,"current_range_meters":27600,"station_id":"ce4bgk12rcd13ifvqbj0","pricing_plan_id":"free"},{"bike_id":"4f32fe38-be5f-466f-bed8-9c2673c2cd82","system_id":"levelo_inurba_marseille","lat":43.29679,"lon":5.37287,"is_reserved":false,"is_disabled":false,"rental_uris":{"android":"levelo://app?vid=4f32fe38-be5f-466f-bed8-9c2673c2cd82","ios":"levelo://app?vid=4f32fe38-be5f-466f-bed8-9c2673c2cd82"},"vehicle_type_id":"4","last_reported":1686999971,"current_range_meters":20000,"station_id":"ce4bgk12rcd13ifvqbj0","pricing_plan_id":"free"},{"bike_id":"7b65511e-257b-437a-b21a-e4165983d3a3","system_id":"levelo_inurba_marseille","lat":43.2968,"lon":5.37291,"is_reserved":false,"is_disabled":false,"rental_uris":{"android":"levelo://app?vid=7b65511e-257b-437a-b21a-e4165983d3a3","ios":"levelo://app?vid=7b65511e-257b-437a-b21a-e4165983d3a3"},"vehicle_type_id":"4","last_reported":1686999971,"current_range_meters":15200,"station_id":"ce4bgk12rcd13ifvqbj0","pricing_plan_id":"free"},{"bike_id":"88d0330c-5bb0-4a19-9b65-d4683b42e015","system_id":"levelo_inurba_marseille","lat":43.29683,"lon":5.36046,"is_reserved":false,"is_disabled":false,"rental_uris":{"android":"levelo://app?vid=88d0330c-5bb0-4a19-9b65-d4683b42e015","ios":"levelo://app?vid=88d0330c-5bb0-4a19-9b65-d4683b42e015"},"vehicle_type_id":"4","last_reported":1686999971,"current_range_meters":6800,"station_id":"ce4bgpp2rcd13ifvqc3g","pricing_plan_id":"free"},{"bike_id":"ea9a72fe-5e4e-4e95-87b0-85ca045c8349","system_id":"levelo_inurba_marseille","lat":43.29573,"lon":5.367355,"is_reserved":false,"is_disabled":false,"rental_uris":{"android":"levelo://app?vid=ea9a72fe-5e4e-4e95-87b0-85ca045c8349","ios":"levelo://app?vid=ea9a72fe-5e4e-4e95-87b0-85ca045c8349"},"vehicle_type_id":"4","last_reported":1686999971,"current_range_meters":31200,"station_id":"ce4bgph2rcd13ifvqc2g","pricing_plan_id":"free"},{"bike_id":"4f949cbb-0037-475d-ac43-a702cbfdf66b","system_id":"levelo_inurba_marseille","lat":43.296129,"lon":5.370777,"is_reserved":false,"is_disabled":false,"rental_uris":{"android":"levelo://app?vid=4f949cbb-0037-475d-ac43-a702cbfdf66b","ios":"levelo://app?vid=4f949cbb-0037-475d-ac43-a702cbfdf66b"},"vehicle_type_id":"4","last_reported":1686999971,"current_range_meters":30000,"station_id":"ce4bgnh2rcd13ifvqc0g","pricing_plan_id":"free"},{"bike_id":"d083a081-02a2-4850-8a95-4ebb1d45ae2c","system_id":"levelo_inurba_marseille","lat":43.29573,"lon":5.367355,"is_reserved":false,"is_disabled":false,"rental_uris":{"android":"levelo://app?vid=d083a081-02a2-4850-8a95-4ebb1d45ae2c","ios":"levelo://app?vid=d083a081-02a2-4850-8a95-4ebb1d45ae2c"},"vehicle_type_id":"4","last_reported":1686999971,"current_range_meters":30000,"station_id":"ce4bgph2rcd13ifvqc2g","pricing_plan_id":"free"},{"bike_id":"60993218-4b1d-40d6-90ca-a84a2781f5e7","system_id":"levelo_inurba_marseille","lat":43.296131,"lon":5.370773,"is_reserved":false,"is_disabled":false,"rental_uris":{"android":"levelo://app?vid=60993218-4b1d-40d6-90ca-a84a2781f5e7","ios":"levelo://app?vid=60993218-4b1d-40d6-90ca-a84a2781f5e7"},"vehicle_type_id":"4","last_reported":1686999971,"current_range_meters":7600,"station_id":"ce4bgnh2rcd13ifvqc0g","pricing_plan_id":"free"},{"bike_id":"822b2942-d2a0-4427-85b3-94710916d81c","system_id":"levelo_inurba_marseille","lat":43.29573,"lon":5.367355,"is_reserved":false,"is_disabled":false,"rental_uris":{"android":"levelo://app?vid=822b2942-d2a0-4427-85b3-94710916d81c","ios":"levelo://app?vid=822b2942-d2a0-4427-85b3-94710916d81c"},"vehicle_type_id":"4","last_reported":1686999971,"current_range_meters":31600,"station_id":"ce4bgph2rcd13ifvqc2g","pricing_plan_id":"free"},{"bike_id":"6f8600c2-6f08-4285-a5df-905b5572aef2","system_id":"levelo_inurba_marseille","lat":43.296129,"lon":5.370777,"is_reserved":false,"is_disabled":false,"rental_uris":{"android":"levelo://app?vid=6f8600c2-6f08-4285-a5df-905b5572aef2","ios":"levelo://app?vid=6f8600c2-6f08-4285-a5df-905b5572aef2"},"vehicle_type_id":"4","last_reported":1686999971,"current_range_meters":16000,"station_id":"ce4bgnh2rcd13ifvqc0g","pricing_plan_id":"free"},{"bike_id":"bf8fea17-a4bc-47fb-af0e-201b3cb78e63","system_id":"levelo_inurba_marseille","lat":43.29573,"lon":5.367355,"is_reserved":false,"is_disabled":false,"rental_uris":{"android":"levelo://app?vid=bf8fea17-a4bc-47fb-af0e-201b3cb78e63","ios":"levelo://app?vid=bf8fea17-a4bc-47fb-af0e-201b3cb78e63"},"vehicle_type_id":"4","last_reported":1686999971,"current_range_meters":31600,"station_id":"ce4bgph2rcd13ifvqc2g","pricing_plan_id":"free"},{"bike_id":"315a0702-eedd-4e76-9c24-1b33b353e63f","system_id":"levelo_inurba_marseille","lat":43.296129,"lon":5.370777,"is_reserved":false,"is_disabled":false,"rental_uris":{"android":"levelo://app?vid=315a0702-eedd-4e76-9c24-1b33b353e63f","ios":"levelo://app?vid=315a0702-eedd-4e76-9c24-1b33b353e63f"},"vehicle_type_id":"4","last_reported":1686999971,"current_range_meters":4400,"station_id":"ce4bgnh2rcd13ifvqc0g","pricing_plan_id":"free"},{"bike_id":"cf599cb1-4d4e-40a3-a1f6-e3b8d8d3f3dd","system_id":"levelo_inurba_marseille","lat":43.29573,"lon":5.367355,"is_reserved":false,"is_disabled":false,"rental_uris":{"android":"levelo://app?vid=cf599cb1-4d4e-40a3-a1f6-e3b8d8d3f3dd","ios":"levelo://app?vid=cf599cb1-4d4e-40a3-a1f6-e3b8d8d3f3dd"},"vehicle_type_id":"4","last_reported":1686999971,"current_range_meters":30000,"station_id":"ce4bgph2rcd13ifvqc2g","pricing_plan_id":"free"},{"bike_id":"68c25d70-fc05-4670-9de5-a5b50a51c4c7","system_id":"levelo_inurba_marseille","lat":43.296131,"lon":5.370773,"is_reserved":false,"is_disabled":false,"rental_uris":{"android":"levelo://app?vid=68c25d70-fc05-4670-9de5-a5b50a51c4c7","ios":"levelo://app?vid=68c25d70-fc05-4670-9de5-a5b50a51c4c7"},"vehicle_type_id":"4","last_reported":1686999971,"current_range_meters":31600,"station_id":"ce4bgnh2rcd13ifvqc0g","pricing_plan_id":"free"},{"bike_id":"ad70fb7c-325d-4482-ad41-038c908d2b86","system_id":"levelo_inurba_marseille","lat":43.29573,"lon":5.367355,"is_reserved":false,"is_disabled":false,"rental_uris":{"android":"levelo://app?vid=ad70fb7c-325d-4482-ad41-038c908d2b86","ios":"levelo://app?vid=ad70fb7c-325d-4482-ad41-038c908d2b86"},"vehicle_type_id":"4","last_reported":1686999971,"current_range_meters":12000,"station_id":"ce4bgph2rcd13ifvqc2g","pricing_plan_id":"free"},{"bike_id":"610d8802-9596-4a36-8bec-6bf93414a029","system_id":"levelo_inurba_marseille","lat":43.29573,"lon":5.367355,"is_reserved":false,"is_disabled":false,"rental_uris":{"android":"levelo://app?vid=610d8802-9596-4a36-8bec-6bf93414a029","ios":"levelo://app?vid=610d8802-9596-4a36-8bec-6bf93414a029"},"vehicle_type_id":"4","last_reported":1686999971,"current_range_meters":30000,"station_id":"ce4bgph2rcd13ifvqc2g","pricing_plan_id":"free"},{"bike_id":"a0524da5-0d15-4d80-bd5d-86ef58053ae4","system_id":"levelo_inurba_marseille","lat":43.29573,"lon":5.367355,"is_reserved":false,"is_disabled":false,"rental_uris":{"android":"levelo://app?vid=a0524da5-0d15-4d80-bd5d-86ef58053ae4","ios":"levelo://app?vid=a0524da5-0d15-4d80-bd5d-86ef58053ae4"},"vehicle_type_id":"4","last_reported":1686999971,"current_range_meters":26400,"station_id":"ce4bgph2rcd13ifvqc2g","pricing_plan_id":"free"},{"bike_id":"24f41ca5-b432-4feb-a0c8-a15026b97306","system_id":"levelo_inurba_marseille","lat":43.296131,"lon":5.370773,"is_reserved":false,"is_disabled":false,"rental_uris":{"android":"levelo://app?vid=24f41ca5-b432-4feb-a0c8-a15026b97306","ios":"levelo://app?vid=24f41ca5-b432-4feb-a0c8-a15026b97306"},"vehicle_type_id":"4","last_reported":1686999971,"current_range_meters":16400,"station_id":"ce4bgnh2rcd13ifvqc0g","pricing_plan_id":"free"},{"bike_id":"6067f692-ca1b-481c-be94-fc1eeaa199dc","system_id":"levelo_inurba_marseille","lat":43.29573,"lon":5.367355,"is_reserved":false,"is_disabled":false,"rental_uris":{"android":"levelo://app?vid=6067f692-ca1b-481c-be94-fc1eeaa199dc","ios":"levelo://app?vid=6067f692-ca1b-481c-be94-fc1eeaa199dc"},"vehicle_type_id":"4","last_reported":1686999971,"current_range_meters":24000,"station_id":"ce4bgph2rcd13ifvqc2g","pricing_plan_id":"free"},{"bike_id":"18b29a72-d326-4ca9-912f-b08e5b209b57","system_id":"levelo_inurba_marseille","lat":43.299028,"lon":5.381509,"is_reserved":false,"is_disabled":false,"rental_uris":{"android":"levelo://app?vid=18b29a72-d326-4ca9-912f-b08e5b209b57","ios":"levelo://app?vid=18b29a72-d326-4ca9-912f-b08e5b209b57"},"vehicle_type_id":"4","last_reported":1686999971,"current_range_meters":23200,"station_id":"ce4bgj12rcd13ifvqbc0","pricing_plan_id":"free"},{"bike_id":"3a522977-98a9-45ca-aafd-818f95868d4f","system_id":"levelo_inurba_marseille","lat":43.317557,"lon":5.390173,"is_reserved":false,"is_disabled":false,"rental_uris":{"android":"levelo://app?vid=3a522977-98a9-45ca-aafd-818f95868d4f","ios":"levelo://app?vid=3a522977-98a9-45ca-aafd-818f95868d4f"},"vehicle_type_id":"4","last_reported":1686999971,"current_range_meters":30000,"station_id":"ce4bhqp2rcd13ifvqhng","pricing_plan_id":"free"},{"bike_id":"0c925a74-40e0-419d-8e69-09bbd5cca2c1","system_id":"levelo_inurba_marseille","lat":43.317557,"lon":5.390173,"is_reserved":false,"is_disabled":false,"rental_uris":{"android":"levelo://app?vid=0c925a74-40e0-419d-8e69-09bbd5cca2c1","ios":"levelo://app?vid=0c925a74-40e0-419d-8e69-09bbd5cca2c1"},"vehicle_type_id":"4","last_reported":1686999971,"current_range_meters":19600,"station_id":"ce4bhqp2rcd13ifvqhng","pricing_plan_id":"free"},{"bike_id":"1fc9cb56-2d04-43d0-99c1-dd8149e32db2","system_id":"levelo_inurba_marseille","lat":43.29581,"lon":5.37429,"is_reserved":false,"is_disabled":false,"rental_uris":{"android":"levelo://app?vid=1fc9cb56-2d04-43d0-99c1-dd8149e32db2","ios":"levelo://app?vid=1fc9cb56-2d04-43d0-99c1-dd8149e32db2"},"vehicle_type_id":"4","last_reported":1686999971,"current_range_meters":15200,"station_id":"","pricing_plan_id":"free"},{"bike_id":"64921658-5c09-489e-8d4e-b9e4dac3f37b","system_id":"levelo_inurba_marseille","lat":43.298037,"lon":5.381066,"is_reserved":false,"is_disabled":false,"rental_uris":{"android":"levelo://app?vid=64921658-5c09-489e-8d4e-b9e4dac3f37b","ios":"levelo://app?vid=64921658-5c09-489e-8d4e-b9e4dac3f37b"},"vehicle_type_id":"4","last_reported":1686999971,"current_range_meters":6000,"station_id":"ce4bgip2rcd13ifvqbb0","pricing_plan_id":"free"},{"bike_id":"d5f88d72-d120-4a60-8885-3909e9f3a8ef","system_id":"levelo_inurba_marseille","lat":43.295748,"lon":5.37522,"is_reserved":false,"is_disabled":false,"rental_uris":{"android":"levelo://app?vid=d5f88d72-d120-4a60-8885-3909e9f3a8ef","ios":"levelo://app?vid=d5f88d72-d120-4a60-8885-3909e9f3a8ef"},"vehicle_type_id":"4","last_reported":1686999971,"current_range_meters":13600,"station_id":"ce4bgh92rcd13ifvqb50","pricing_plan_id":"free"},{"bike_id":"250c8a96-8498-4211-b8f3-1b00a8d1fbaf","system_id":"levelo_inurba_marseille","lat":43.296477,"lon":5.37768,"is_reserved":false,"is_disabled":false,"rental_uris":{"android":"levelo://app?vid=250c8a96-8498-4211-b8f3-1b00a8d1fbaf","ios":"levelo://app?vid=250c8a96-8498-4211-b8f3-1b00a8d1fbaf"},"vehicle_type_id":"4","last_reported":1686999971,"current_range_meters":16800,"station_id":"","pricing_plan_id":"free"},{"bike_id":"b9f0c2d1-81eb-4184-96fa-e91c7c7b4c7d","system_id":"levelo_inurba_marseille","lat":43.30434,"lon":5.38888,"is_reserved":false,"is_disabled":false,"rental_uris":{"android":"levelo://app?vid=b9f0c2d1-81eb-4184-96fa-e91c7c7b4c7d","ios":"levelo://app?vid=b9f0c2d1-81eb-4184-96fa-e91c7c7b4c7d"},"vehicle_type_id":"4","last_reported":1686999971,"current_range_meters":24000,"station_id":"ce4bgk12rcd13ifvqbi0","pricing_plan_id":"free"},{"bike_id":"f196b45e-d4fd-4985-864f-8751b22be6c3","system_id":"levelo_inurba_marseille","lat":43.304278,"lon":5.388868,"is_reserved":false,"is_disabled":false,"rental_uris":{"android":"levelo://app?vid=f196b45e-d4fd-4985-864f-8751b22be6c3","ios":"levelo://app?vid=f196b45e-d4fd-4985-864f-8751b22be6c3"},"vehicle_type_id":"4","last_reported":1686999971,"current_range_meters":12800,"station_id":"ce4bgk12rcd13ifvqbi0","pricing_plan_id":"free"},{"bike_id":"15c8e8ee-e893-469e-9f6b-4cc9856bc2b5","system_id":"levelo_inurba_marseille","lat":43.296263,"lon":5.377094,"is_reserved":false,"is_disabled":false,"rental_uris":{"android":"levelo://app?vid=15c8e8ee-e893-469e-9f6b-4cc9856bc2b5","ios":"levelo://app?vid=15c8e8ee-e893-469e-9f6b-4cc9856bc2b5"},"vehicle_type_id":"4","last_reported":1686999971,"current_range_meters":26400,"station_id":"ce4bgi92rcd13ifvqb90","pricing_plan_id":"free"},{"bike_id":"f8c15e6f-5ef1-405d-a458-0964c34fc897","system_id":"levelo_inurba_marseille","lat":43.296163,"lon":5.37717,"is_reserved":false,"is_disabled":false,"rental_uris":{"android":"levelo://app?vid=f8c15e6f-5ef1-405d-a458-0964c34fc897","ios":"levelo://app?vid=f8c15e6f-5ef1-405d-a458-0964c34fc897"},"vehicle_type_id":"4","last_reported":1686999971,"current_range_meters":14800,"station_id":"ce4bgkh2rcd13ifvqbl0","pricing_plan_id":"free"},{"bike_id":"a0e7e2f1-9aea-4b38-9503-5792b04bd8bd","system_id":"levelo_inurba_marseille","lat":43.305364,"lon":5.384119,"is_reserved":false,"is_disabled":false,"rental_uris":{"android":"levelo://app?vid=a0e7e2f1-9aea-4b38-9503-5792b04bd8bd","ios":"levelo://app?vid=a0e7e2f1-9aea-4b38-9503-5792b04bd8bd"},"vehicle_type_id":"4","last_reported":1686999971,"current_range_meters":12800,"station_id":"ce4bgg92rcd13ifvqb30","pricing_plan_id":"free"},{"bike_id":"7824de97-f8ae-434e-9cbf-e12b2924ccbe","system_id":"levelo_inurba_marseille","lat":43.29605,"lon":5.37718,"is_reserved":false,"is_disabled":false,"rental_uris":{"android":"levelo://app?vid=7824de97-f8ae-434e-9cbf-e12b2924ccbe","ios":"levelo://app?vid=7824de97-f8ae-434e-9cbf-e12b2924ccbe"},"vehicle_type_id":"4","last_reported":1686999971,"current_range_meters":31200,"station_id":"ce4bgi92rcd13ifvqb90","pricing_plan_id":"free"},{"bike_id":"34784bfe-36b5-4c7e-ae3d-ed448f179cae","system_id":"levelo_inurba_marseille","lat":43.29531,"lon":5.37508,"is_reserved":false,"is_disabled":false,"rental_uris":{"android":"levelo://app?vid=34784bfe-36b5-4c7e-ae3d-ed448f179cae","ios":"levelo://app?vid=34784bfe-36b5-4c7e-ae3d-ed448f179cae"},"vehicle_type_id":"4","last_reported":1686999971,"current_range_meters":15200,"station_id":"ce4bgkp2rcd13ifvqbmg","pricing_plan_id":"free"},{"bike_id":"9c3b1990-0568-4a51-aac5-6dea9900d00d","system_id":"levelo_inurba_marseille","lat":43.295279,"lon":5.375048,"is_reserved":false,"is_disabled":false,"rental_uris":{"android":"levelo://app?vid=9c3b1990-0568-4a51-aac5-6dea9900d00d","ios":"levelo://app?vid=9c3b1990-0568-4a51-aac5-6dea9900d00d"},"vehicle_type_id":"4","last_reported":1686999971,"current_range_meters":22400,"station_id":"ce4bgkp2rcd13ifvqbmg","pricing_plan_id":"free"},{"bike_id":"3822115c-59d9-488c-a2fe-9c14fea8f8a2","system_id":"levelo_inurba_marseille","lat":43.295279,"lon":5.375048,"is_reserved":false,"is_disabled":false,"rental_uris":{"android":"levelo://app?vid=3822115c-59d9-488c-a2fe-9c14fea8f8a2","ios":"levelo://app?vid=3822115c-59d9-488c-a2fe-9c14fea8f8a2"},"vehicle_type_id":"4","last_reported":1686999971,"current_range_meters":2400,"station_id":"ce4bgkp2rcd13ifvqbmg","pricing_plan_id":"free"},{"bike_id":"5e4117f9-fe7d-4c70-9e51-3e5e81381137","system_id":"levelo_inurba_marseille","lat":43.29525,"lon":5.37511,"is_reserved":false,"is_disabled":false,"rental_uris":{"android":"levelo://app?vid=5e4117f9-fe7d-4c70-9e51-3e5e81381137","ios":"levelo://app?vid=5e4117f9-fe7d-4c70-9e51-3e5e81381137"},"vehicle_type_id":"4","last_reported":1686999971,"current_range_meters":31200,"station_id":"ce4bgkp2rcd13ifvqbmg","pricing_plan_id":"free"},{"bike_id":"75a163d6-fa0f-4e77-9ad4-98105d731358","system_id":"levelo_inurba_marseille","lat":43.299717,"lon":5.384845,"is_reserved":false,"is_disabled":false,"rental_uris":{"android":"levelo://app?vid=75a163d6-fa0f-4e77-9ad4-98105d731358","ios":"levelo://app?vid=75a163d6-fa0f-4e77-9ad4-98105d731358"},"vehicle_type_id":"4","last_reported":1686999971,"current_range_meters":5200,"station_id":"ce4bgj92rcd13ifvqbd0","pricing_plan_id":"free"},{"bike_id":"eb56f040-d7e3-440c-9d05-82afe187dd21","system_id":"levelo_inurba_marseille","lat":43.299724,"lon":5.384848,"is_reserved":false,"is_disabled":false,"rental_uris":{"android":"levelo://app?vid=eb56f040-d7e3-440c-9d05-82afe187dd21","ios":"levelo://app?vid=eb56f040-d7e3-440c-9d05-82afe187dd21"},"vehicle_type_id":"4","last_reported":1686999971,"current_range_meters":31200,"station_id":"ce4bgj92rcd13ifvqbd0","pricing_plan_id":"free"},{"bike_id":"fe268e13-742c-4fe4-9737-283b7505cc45","system_id":"levelo_inurba_marseille","lat":43.32361,"lon":5.38881,"is_reserved":false,"is_disabled":false,"rental_uris":{"android":"levelo://app?vid=fe268e13-742c-4fe4-9737-283b7505cc45","ios":"levelo://app?vid=fe268e13-742c-4fe4-9737-283b7505cc45"},"vehicle_type_id":"4","last_reported":1686999971,"current_range_meters":30800,"station_id":"ce4bhqp2rcd13ifvqhog","pricing_plan_id":"free"},{"bike_id":"b0feaa57-edaa-49c4-b491-c39995650b2b","system_id":"levelo_inurba_marseille","lat":43.32367,"lon":5.388836,"is_reserved":false,"is_disabled":false,"rental_uris":{"android":"levelo://app?vid=b0feaa57-edaa-49c4-b491-c39995650b2b","ios":"levelo://app?vid=b0feaa57-edaa-49c4-b491-c39995650b2b"},"vehicle_type_id":"4","last_reported":1686999971,"current_range_meters":27200,"station_id":"ce4bhqp2rcd13ifvqhog","pricing_plan_id":"free"},{"bike_id":"2c9ad911-25e0-4222-8751-d809dfadd582","system_id":"levelo_inurba_marseille","lat":43.32368,"lon":5.38878,"is_reserved":false,"is_disabled":false,"rental_uris":{"android":"levelo://app?vid=2c9ad911-25e0-4222-8751-d809dfadd582","ios":"levelo://app?vid=2c9ad911-25e0-4222-8751-d809dfadd582"},"vehicle_type_id":"4","last_reported":1686999971,"current_range_meters":26000,"station_id":"ce4bhqp2rcd13ifvqhog","pricing_plan_id":"free"},{"bike_id":"0f5c2dd2-7e20-4789-abe3-cad6f474c2f7","system_id":"levelo_inurba_marseille","lat":43.32367,"lon":5.388836,"is_reserved":false,"is_disabled":false,"rental_uris":{"android":"levelo://app?vid=0f5c2dd2-7e20-4789-abe3-cad6f474c2f7","ios":"levelo://app?vid=0f5c2dd2-7e20-4789-abe3-cad6f474c2f7"},"vehicle_type_id":"4","last_reported":1686999971,"current_range_meters":22800,"station_id":"ce4bhqp2rcd13ifvqhog","pricing_plan_id":"free"},{"bike_id":"97f54d17-c97f-440f-89b4-ed27b9cb734f","system_id":"levelo_inurba_marseille","lat":43.32367,"lon":5.388836,"is_reserved":false,"is_disabled":false,"rental_uris":{"android":"levelo://app?vid=97f54d17-c97f-440f-89b4-ed27b9cb734f","ios":"levelo://app?vid=97f54d17-c97f-440f-89b4-ed27b9cb734f"},"vehicle_type_id":"4","last_reported":1686999971,"current_range_meters":30800,"station_id":"ce4bhqp2rcd13ifvqhog","pricing_plan_id":"free"},{"bike_id":"d6e305bc-5d76-4d9a-9d3b-c8ed3e174fd1","system_id":"levelo_inurba_marseille","lat":43.29621,"lon":5.38084,"is_reserved":false,"is_disabled":false,"rental_uris":{"android":"levelo://app?vid=d6e305bc-5d76-4d9a-9d3b-c8ed3e174fd1","ios":"levelo://app?vid=d6e305bc-5d76-4d9a-9d3b-c8ed3e174fd1"},"vehicle_type_id":"4","last_reported":1686999971,"current_range_meters":13200,"station_id":"","pricing_plan_id":"free"},{"bike_id":"54679cf6-164c-407c-90ba-902393e7e0a4","system_id":"levelo_inurba_marseille","lat":43.29609,"lon":5.38107,"is_reserved":false,"is_disabled":false,"rental_uris":{"android":"levelo://app?vid=54679cf6-164c-407c-90ba-902393e7e0a4","ios":"levelo://app?vid=54679cf6-164c-407c-90ba-902393e7e0a4"},"vehicle_type_id":"4","last_reported":1686999971,"current_range_meters":19600,"station_id":"ce4bgl12rcd13ifvqbo0","pricing_plan_id":"free"},{"bike_id":"19830262-b022-4ec0-a4f2-bb3c52867a0b","system_id":"levelo_inurba_marseille","lat":43.33032,"lon":5.37877,"is_reserved":false,"is_disabled":false,"rental_uris":{"android":"levelo://app?vid=19830262-b022-4ec0-a4f2-bb3c52867a0b","ios":"levelo://app?vid=19830262-b022-4ec0-a4f2-bb3c52867a0b"},"vehicle_type_id":"4","last_reported":1686999971,"current_range_meters":24000,"station_id":"","pricing_plan_id":"free"},{"bike_id":"4b8c6ca6-524a-48b6-b408-1b750309009d","system_id":"levelo_inurba_marseille","lat":43.292749,"lon":5.368402,"is_reserved":false,"is_disabled":false,"rental_uris":{"android":"levelo://app?vid=4b8c6ca6-524a-48b6-b408-1b750309009d","ios":"levelo://app?vid=4b8c6ca6-524a-48b6-b408-1b750309009d"},"vehicle_type_id":"4","last_reported":1686999971,"current_range_meters":15200,"station_id":"ce4bhbp2rcd13ifvqesg","pricing_plan_id":"free"},{"bike_id":"68242949-1b4d-4fe5-a143-242ba549b3f6","system_id":"levelo_inurba_marseille","lat":43.292749,"lon":5.368398,"is_reserved":false,"is_disabled":false,"rental_uris":{"android":"levelo://app?vid=68242949-1b4d-4fe5-a143-242ba549b3f6","ios":"levelo://app?vid=68242949-1b4d-4fe5-a143-242ba549b3f6"},"vehicle_type_id":"4","last_reported":1686999971,"current_range_meters":30400,"station_id":"ce4bhbp2rcd13ifvqesg","pricing_plan_id":"free"},{"bike_id":"4f6ff533-628b-486b-9887-375dbcbc843c","system_id":"levelo_inurba_marseille","lat":43.293009,"lon":5.374584,"is_reserved":false,"is_disabled":false,"rental_uris":{"android":"levelo://app?vid=4f6ff533-628b-486b-9887-375dbcbc843c","ios":"levelo://app?vid=4f6ff533-628b-486b-9887-375dbcbc843c"},"vehicle_type_id":"4","last_reported":1686999971,"current_range_meters":4800,"station_id":"ce4bgi12rcd13ifvqb70","pricing_plan_id":"free"},{"bike_id":"d991e010-46a5-4bcd-8dac-b2144a0b792b","system_id":"levelo_inurba_marseille","lat":43.293009,"lon":5.374584,"is_reserved":false,"is_disabled":false,"rental_uris":{"android":"levelo://app?vid=d991e010-46a5-4bcd-8dac-b2144a0b792b","ios":"levelo://app?vid=d991e010-46a5-4bcd-8dac-b2144a0b792b"},"vehicle_type_id":"4","last_reported":1686999971,"current_range_meters":31200,"station_id":"ce4bgi12rcd13ifvqb70","pricing_plan_id":"free"},{"bike_id":"e2b888b1-3f38-4254-a393-9890584b3416","system_id":"levelo_inurba_marseille","lat":43.29299,"lon":5.37463,"is_reserved":false,"is_disabled":false,"rental_uris":{"android":"levelo://app?vid=e2b888b1-3f38-4254-a393-9890584b3416","ios":"levelo://app?vid=e2b888b1-3f38-4254-a393-9890584b3416"},"vehicle_type_id":"4","last_reported":1686999971,"current_range_meters":23200,"station_id":"ce4bgi12rcd13ifvqb70","pricing_plan_id":"free"},{"bike_id":"8a8dfbaa-e4fb-4701-826e-2078a66516df","system_id":"levelo_inurba_marseille","lat":43.305994,"lon":5.393687,"is_reserved":false,"is_disabled":false,"rental_uris":{"android":"levelo://app?vid=8a8dfbaa-e4fb-4701-826e-2078a66516df","ios":"levelo://app?vid=8a8dfbaa-e4fb-4701-826e-2078a66516df"},"vehicle_type_id":"4","last_reported":1686999971,"current_range_meters":0,"station_id":"ce4bh0p2rcd13ifvqd80","pricing_plan_id":"free"},{"bike_id":"9a535fbd-ec69-4ed8-ab00-c4a4e01b39ba","system_id":"levelo_inurba_marseille","lat":43.302992,"lon":5.392136,"is_reserved":false,"is_disabled":false,"rental_uris":{"android":"levelo://app?vid=9a535fbd-ec69-4ed8-ab00-c4a4e01b39ba","ios":"levelo://app?vid=9a535fbd-ec69-4ed8-ab00-c4a4e01b39ba"},"vehicle_type_id":"4","last_reported":1686999971,"current_range_meters":1600,"station_id":"ce4bgkh2rcd13ifvqbk0","pricing_plan_id":"free"},{"bike_id":"4fc90ae0-ad88-4b93-af9d-59bd4a151755","system_id":"levelo_inurba_marseille","lat":43.302992,"lon":5.392136,"is_reserved":false,"is_disabled":false,"rental_uris":{"android":"levelo://app?vid=4fc90ae0-ad88-4b93-af9d-59bd4a151755","ios":"levelo://app?vid=4fc90ae0-ad88-4b93-af9d-59bd4a151755"},"vehicle_type_id":"4","last_reported":1686999971,"current_range_meters":7600,"station_id":"ce4bgkh2rcd13ifvqbk0","pricing_plan_id":"free"},{"bike_id":"6185aa85-701e-4b89-a795-982371ebffb2","system_id":"levelo_inurba_marseille","lat":43.2987,"lon":5.38911,"is_reserved":false,"is_disabled":false,"rental_uris":{"android":"levelo://app?vid=6185aa85-701e-4b89-a795-982371ebffb2","ios":"levelo://app?vid=6185aa85-701e-4b89-a795-982371ebffb2"},"vehicle_type_id":"4","last_reported":1686999971,"current_range_meters":30400,"station_id":"ce4bh392rcd13ifvqdl0","pricing_plan_id":"free"},{"bike_id":"2b8e4e4a-99df-44a6-99d6-6d22d7e55cb8","system_id":"levelo_inurba_marseille","lat":43.313291,"lon":5.396838,"is_reserved":false,"is_disabled":false,"rental_uris":{"android":"levelo://app?vid=2b8e4e4a-99df-44a6-99d6-6d22d7e55cb8","ios":"levelo://app?vid=2b8e4e4a-99df-44a6-99d6-6d22d7e55cb8"},"vehicle_type_id":"4","last_reported":1686999971,"current_range_meters":8800,"station_id":"ce4bgvp2rcd13ifvqcu0","pricing_plan_id":"free"},{"bike_id":"9bbecb4d-9e31-45ab-9dac-65633d81923e","system_id":"levelo_inurba_marseille","lat":43.313291,"lon":5.396838,"is_reserved":false,"is_disabled":false,"rental_uris":{"android":"levelo://app?vid=9bbecb4d-9e31-45ab-9dac-65633d81923e","ios":"levelo://app?vid=9bbecb4d-9e31-45ab-9dac-65633d81923e"},"vehicle_type_id":"4","last_reported":1686999971,"current_range_meters":19200,"station_id":"ce4bgvp2rcd13ifvqcu0","pricing_plan_id":"free"},{"bike_id":"bfc2320c-2303-4e48-9f1c-84a66d1e5f4a","system_id":"levelo_inurba_marseille","lat":43.309038,"lon":5.396546,"is_reserved":false,"is_disabled":false,"rental_uris":{"android":"levelo://app?vid=bfc2320c-2303-4e48-9f1c-84a66d1e5f4a","ios":"levelo://app?vid=bfc2320c-2303-4e48-9f1c-84a66d1e5f4a"},"vehicle_type_id":"4","last_reported":1686999971,"current_range_meters":31200,"station_id":"ce4bh012rcd13ifvqcv0","pricing_plan_id":"free"},{"bike_id":"edd27ecf-5e8a-44a0-82e6-021137b2b9de","system_id":"levelo_inurba_marseille","lat":43.29073,"lon":5.36611,"is_reserved":false,"is_disabled":false,"rental_uris":{"android":"levelo://app?vid=edd27ecf-5e8a-44a0-82e6-021137b2b9de","ios":"levelo://app?vid=edd27ecf-5e8a-44a0-82e6-021137b2b9de"},"vehicle_type_id":"4","last_reported":1686999971,"current_range_meters":0,"station_id":"","pricing_plan_id":"free"},{"bike_id":"3884dab2-ff85-4618-b139-108080afc1c8","system_id":"levelo_inurba_marseille","lat":43.30102,"lon":5.39278,"is_reserved":false,"is_disabled":false,"rental_uris":{"android":"levelo://app?vid=3884dab2-ff85-4618-b139-108080afc1c8","ios":"levelo://app?vid=3884dab2-ff85-4618-b139-108080afc1c8"},"vehicle_type_id":"4","last_reported":1686999971,"current_range_meters":7200,"station_id":"","pricing_plan_id":"free"},{"bike_id":"76e43cb8-5cae-490e-aac6-ffe6129b3dd8","system_id":"levelo_inurba_marseille","lat":43.29069,"lon":5.37168,"is_reserved":false,"is_disabled":false,"rental_uris":{"android":"levelo://app?vid=76e43cb8-5cae-490e-aac6-ffe6129b3dd8","ios":"levelo://app?vid=76e43cb8-5cae-490e-aac6-ffe6129b3dd8"},"vehicle_type_id":"4","last_reported":1686999971,"current_range_meters":27600,"station_id":"","pricing_plan_id":"free"},{"bike_id":"b799a90f-ea2d-4bf4-bb3d-bf90b9daae79","system_id":"levelo_inurba_marseille","lat":43.290327,"lon":5.375711,"is_reserved":false,"is_disabled":false,"rental_uris":{"android":"levelo://app?vid=b799a90f-ea2d-4bf4-bb3d-bf90b9daae79","ios":"levelo://app?vid=b799a90f-ea2d-4bf4-bb3d-bf90b9daae79"},"vehicle_type_id":"4","last_reported":1686999971,"current_range_meters":21600,"station_id":"ce4bh692rcd13ifvqe90","pricing_plan_id":"free"},{"bike_id":"93457696-c0ea-485f-94fa-9ffdeb52627c","system_id":"levelo_inurba_marseille","lat":43.289184,"lon":5.366408,"is_reserved":false,"is_disabled":false,"rental_uris":{"android":"levelo://app?vid=93457696-c0ea-485f-94fa-9ffdeb52627c","ios":"levelo://app?vid=93457696-c0ea-485f-94fa-9ffdeb52627c"},"vehicle_type_id":"4","last_reported":1686999971,"current_range_meters":20400,"station_id":"ce4bhap2rcd13ifvqek0","pricing_plan_id":"free"},{"bike_id":"886abfc1-fdef-4a8c-9dbd-0f7f95425808","system_id":"levelo_inurba_marseille","lat":43.304296,"lon":5.397513,"is_reserved":false,"is_disabled":false,"rental_uris":{"android":"levelo://app?vid=886abfc1-fdef-4a8c-9dbd-0f7f95425808","ios":"levelo://app?vid=886abfc1-fdef-4a8c-9dbd-0f7f95425808"},"vehicle_type_id":"4","last_reported":1686999971,"current_range_meters":18800,"station_id":"ce4bh092rcd13ifvqd20","pricing_plan_id":"free"},{"bike_id":"38eb09af-7166-42b9-865e-84246929498f","system_id":"levelo_inurba_marseille","lat":43.29257,"lon":5.38436,"is_reserved":false,"is_disabled":false,"rental_uris":{"android":"levelo://app?vid=38eb09af-7166-42b9-865e-84246929498f","ios":"levelo://app?vid=38eb09af-7166-42b9-865e-84246929498f"},"vehicle_type_id":"4","last_reported":1686999971,"current_range_meters":30000,"station_id":"ce4bh692rcd13ifvqea0","pricing_plan_id":"free"},{"bike_id":"2547df54-5ef4-42a8-8e9b-615e26215014","system_id":"levelo_inurba_marseille","lat":43.304274,"lon":5.397513,"is_reserved":false,"is_disabled":false,"rental_uris":{"android":"levelo://app?vid=2547df54-5ef4-42a8-8e9b-615e26215014","ios":"levelo://app?vid=2547df54-5ef4-42a8-8e9b-615e26215014"},"vehicle_type_id":"4","last_reported":1686999971,"current_range_meters":30000,"station_id":"ce4bh092rcd13ifvqd20","pricing_plan_id":"free"},{"bike_id":"33efefb8-a7c6-41ca-b7ff-92539cefc65c","system_id":"levelo_inurba_marseille","lat":43.3304,"lon":5.38919,"is_reserved":false,"is_disabled":false,"rental_uris":{"android":"levelo://app?vid=33efefb8-a7c6-41ca-b7ff-92539cefc65c","ios":"levelo://app?vid=33efefb8-a7c6-41ca-b7ff-92539cefc65c"},"vehicle_type_id":"4","last_reported":1686999971,"current_range_meters":29200,"station_id":"ce4bhr92rcd13ifvqhrg","pricing_plan_id":"free"},{"bike_id":"a7529cc0-d699-4db6-8637-90faa95d38cf","system_id":"levelo_inurba_marseille","lat":43.330442,"lon":5.389148,"is_reserved":false,"is_disabled":false,"rental_uris":{"android":"levelo://app?vid=a7529cc0-d699-4db6-8637-90faa95d38cf","ios":"levelo://app?vid=a7529cc0-d699-4db6-8637-90faa95d38cf"},"vehicle_type_id":"4","last_reported":1686999971,"current_range_meters":10800,"station_id":"ce4bhr92rcd13ifvqhrg","pricing_plan_id":"free"},{"bike_id":"8ff6b0fe-232a-4a1e-b233-188c70e9c997","system_id":"levelo_inurba_marseille","lat":43.330442,"lon":5.389148,"is_reserved":false,"is_disabled":false,"rental_uris":{"android":"levelo://app?vid=8ff6b0fe-232a-4a1e-b233-188c70e9c997","ios":"levelo://app?vid=8ff6b0fe-232a-4a1e-b233-188c70e9c997"},"vehicle_type_id":"4","last_reported":1686999971,"current_range_meters":30400,"station_id":"ce4bhr92rcd13ifvqhrg","pricing_plan_id":"free"},{"bike_id":"efd9ad73-20e4-48a8-9273-d79e81729f94","system_id":"levelo_inurba_marseille","lat":43.33044,"lon":5.3892,"is_reserved":false,"is_disabled":false,"rental_uris":{"android":"levelo://app?vid=efd9ad73-20e4-48a8-9273-d79e81729f94","ios":"levelo://app?vid=efd9ad73-20e4-48a8-9273-d79e81729f94"},"vehicle_type_id":"4","last_reported":1686999971,"current_range_meters":30800,"station_id":"ce4bhr92rcd13ifvqhrg","pricing_plan_id":"free"},{"bike_id":"47aa23d3-5a25-4654-b7ee-470855931374","system_id":"levelo_inurba_marseille","lat":43.290104,"lon":5.356111,"is_reserved":false,"is_disabled":false,"rental_uris":{"android":"levelo://app?vid=47aa23d3-5a25-4654-b7ee-470855931374","ios":"levelo://app?vid=47aa23d3-5a25-4654-b7ee-470855931374"},"vehicle_type_id":"4","last_reported":1686999971,"current_range_meters":8000,"station_id":"ce4bhb92rcd13ifvqen0","pricing_plan_id":"free"},{"bike_id":"af928287-9892-4393-a498-0a9d766cdc17","system_id":"levelo_inurba_marseille","lat":43.290104,"lon":5.356111,"is_reserved":false,"is_disabled":false,"rental_uris":{"android":"levelo://app?vid=af928287-9892-4393-a498-0a9d766cdc17","ios":"levelo://app?vid=af928287-9892-4393-a498-0a9d766cdc17"},"vehicle_type_id":"4","last_reported":1686999971,"current_range_meters":2000,"station_id":"ce4bhb92rcd13ifvqen0","pricing_plan_id":"free"},{"bike_id":"50ae903d-59dd-4b36-8fa0-333181fd6065","system_id":"levelo_inurba_marseille","lat":43.289743,"lon":5.378304,"is_reserved":false,"is_disabled":false,"rental_uris":{"android":"levelo://app?vid=50ae903d-59dd-4b36-8fa0-333181fd6065","ios":"levelo://app?vid=50ae903d-59dd-4b36-8fa0-333181fd6065"},"vehicle_type_id":"4","last_reported":1686999971,"current_range_meters":25600,"station_id":"ce4bh9p2rcd13ifvqed0","pricing_plan_id":"free"},{"bike_id":"a1c02577-bc95-481d-9702-a7e27aa79f62","system_id":"levelo_inurba_marseille","lat":43.297815,"lon":5.393548,"is_reserved":false,"is_disabled":false,"rental_uris":{"android":"levelo://app?vid=a1c02577-bc95-481d-9702-a7e27aa79f62","ios":"levelo://app?vid=a1c02577-bc95-481d-9702-a7e27aa79f62"},"vehicle_type_id":"4","last_reported":1686999971,"current_range_meters":18000,"station_id":"chh1huq6cuj3fo74tm60","pricing_plan_id":"free"},{"bike_id":"cc6b7ceb-2580-411b-b702-30b4cda7e8e6","system_id":"levelo_inurba_marseille","lat":43.29782,"lon":5.39341,"is_reserved":false,"is_disabled":false,"rental_uris":{"android":"levelo://app?vid=cc6b7ceb-2580-411b-b702-30b4cda7e8e6","ios":"levelo://app?vid=cc6b7ceb-2580-411b-b702-30b4cda7e8e6"},"vehicle_type_id":"4","last_reported":1686999971,"current_range_meters":14000,"station_id":"chh1huq6cuj3fo74tm60","pricing_plan_id":"free"},{"bike_id":"a5088225-d187-43ec-847a-02e7be9ed933","system_id":"levelo_inurba_marseille","lat":43.289741,"lon":5.378306,"is_reserved":false,"is_disabled":false,"rental_uris":{"android":"levelo://app?vid=a5088225-d187-43ec-847a-02e7be9ed933","ios":"levelo://app?vid=a5088225-d187-43ec-847a-02e7be9ed933"},"vehicle_type_id":"4","last_reported":1686999971,"current_range_meters":11600,"station_id":"ce4bh9p2rcd13ifvqed0","pricing_plan_id":"free"},{"bike_id":"b9b44b37-7edf-4ab6-8685-17eb58a26dbc","system_id":"levelo_inurba_marseille","lat":43.295169,"lon":5.390426,"is_reserved":false,"is_disabled":false,"rental_uris":{"android":"levelo://app?vid=b9b44b37-7edf-4ab6-8685-17eb58a26dbc","ios":"levelo://app?vid=b9b44b37-7edf-4ab6-8685-17eb58a26dbc"},"vehicle_type_id":"4","last_reported":1686999971,"current_range_meters":28400,"station_id":"ce4bh3p2rcd13ifvqdp0","pricing_plan_id":"free"},{"bike_id":"1807c577-050b-46db-8a00-33ca7d767b9c","system_id":"levelo_inurba_marseille","lat":43.289741,"lon":5.378306,"is_reserved":false,"is_disabled":false,"rental_uris":{"android":"levelo://app?vid=1807c577-050b-46db-8a00-33ca7d767b9c","ios":"levelo://app?vid=1807c577-050b-46db-8a00-33ca7d767b9c"},"vehicle_type_id":"4","last_reported":1686999971,"current_range_meters":15200,"station_id":"ce4bh9p2rcd13ifvqed0","pricing_plan_id":"free"},{"bike_id":"3f7e9663-36ab-4fc7-ac92-b042b93fab90","system_id":"levelo_inurba_marseille","lat":43.28852,"lon":5.35848,"is_reserved":false,"is_disabled":false,"rental_uris":{"android":"levelo://app?vid=3f7e9663-36ab-4fc7-ac92-b042b93fab90","ios":"levelo://app?vid=3f7e9663-36ab-4fc7-ac92-b042b93fab90"},"vehicle_type_id":"4","last_reported":1686999971,"current_range_meters":29600,"station_id":"ce4bhb12rcd13ifvqem0","pricing_plan_id":"free"},{"bike_id":"bbc615c2-cf7e-409d-bdba-b57208a0ccec","system_id":"levelo_inurba_marseille","lat":43.28856,"lon":5.358371,"is_reserved":false,"is_disabled":false,"rental_uris":{"android":"levelo://app?vid=bbc615c2-cf7e-409d-bdba-b57208a0ccec","ios":"levelo://app?vid=bbc615c2-cf7e-409d-bdba-b57208a0ccec"},"vehicle_type_id":"4","last_reported":1686999971,"current_range_meters":24400,"station_id":"ce4bhb12rcd13ifvqem0","pricing_plan_id":"free"},{"bike_id":"c0fb8083-e02d-4dec-b1b9-fa095e6c5b75","system_id":"levelo_inurba_marseille","lat":43.337396,"lon":5.374526,"is_reserved":false,"is_disabled":false,"rental_uris":{"android":"levelo://app?vid=c0fb8083-e02d-4dec-b1b9-fa095e6c5b75","ios":"levelo://app?vid=c0fb8083-e02d-4dec-b1b9-fa095e6c5b75"},"vehicle_type_id":"4","last_reported":1686999971,"current_range_meters":0,"station_id":"ce4bhp92rcd13ifvqhag","pricing_plan_id":"free"},{"bike_id":"64576cf2-0029-4130-8563-56816090e0b3","system_id":"levelo_inurba_marseille","lat":43.309371,"lon":5.401449,"is_reserved":false,"is_disabled":false,"rental_uris":{"android":"levelo://app?vid=64576cf2-0029-4130-8563-56816090e0b3","ios":"levelo://app?vid=64576cf2-0029-4130-8563-56816090e0b3"},"vehicle_type_id":"4","last_reported":1686999971,"current_range_meters":9600,"station_id":"ce4bgvp2rcd13ifvqct0","pricing_plan_id":"free"},{"bike_id":"d5e6bd0f-c204-4df0-a839-e4ec2e2e56d8","system_id":"levelo_inurba_marseille","lat":43.309371,"lon":5.401449,"is_reserved":false,"is_disabled":false,"rental_uris":{"android":"levelo://app?vid=d5e6bd0f-c204-4df0-a839-e4ec2e2e56d8","ios":"levelo://app?vid=d5e6bd0f-c204-4df0-a839-e4ec2e2e56d8"},"vehicle_type_id":"4","last_reported":1686999971,"current_range_meters":22000,"station_id":"ce4bgvp2rcd13ifvqct0","pricing_plan_id":"free"},{"bike_id":"bccc6814-e18b-401d-b4d7-b512449f523f","system_id":"levelo_inurba_marseille","lat":43.309371,"lon":5.401449,"is_reserved":false,"is_disabled":false,"rental_uris":{"android":"levelo://app?vid=bccc6814-e18b-401d-b4d7-b512449f523f","ios":"levelo://app?vid=bccc6814-e18b-401d-b4d7-b512449f523f"},"vehicle_type_id":"4","last_reported":1686999971,"current_range_meters":31200,"station_id":"ce4bgvp2rcd13ifvqct0","pricing_plan_id":"free"},{"bike_id":"41a8749b-6d93-4d1b-8e52-c5f60f65ae7c","system_id":"levelo_inurba_marseille","lat":43.33752,"lon":5.37443,"is_reserved":false,"is_disabled":false,"rental_uris":{"android":"levelo://app?vid=41a8749b-6d93-4d1b-8e52-c5f60f65ae7c","ios":"levelo://app?vid=41a8749b-6d93-4d1b-8e52-c5f60f65ae7c"},"vehicle_type_id":"4","last_reported":1686999971,"current_range_meters":31200,"station_id":"","pricing_plan_id":"free"},{"bike_id":"740b9160-4311-4479-a19d-66e7642db81c","system_id":"levelo_inurba_marseille","lat":43.309371,"lon":5.401449,"is_reserved":false,"is_disabled":false,"rental_uris":{"android":"levelo://app?vid=740b9160-4311-4479-a19d-66e7642db81c","ios":"levelo://app?vid=740b9160-4311-4479-a19d-66e7642db81c"},"vehicle_type_id":"4","last_reported":1686999971,"current_range_meters":25600,"station_id":"ce4bgvp2rcd13ifvqct0","pricing_plan_id":"free"},{"bike_id":"a9506e1f-f3eb-4a39-bc4f-33ee53327790","system_id":"levelo_inurba_marseille","lat":43.30643,"lon":5.40072,"is_reserved":false,"is_disabled":false,"rental_uris":{"android":"levelo://app?vid=a9506e1f-f3eb-4a39-bc4f-33ee53327790","ios":"levelo://app?vid=a9506e1f-f3eb-4a39-bc4f-33ee53327790"},"vehicle_type_id":"4","last_reported":1686999971,"current_range_meters":3200,"station_id":"ce4bh112rcd13ifvqda0","pricing_plan_id":"free"},{"bike_id":"619f5c8e-4ed6-4ac9-b1ea-febf4585366a","system_id":"levelo_inurba_marseille","lat":43.309371,"lon":5.401449,"is_reserved":false,"is_disabled":false,"rental_uris":{"android":"levelo://app?vid=619f5c8e-4ed6-4ac9-b1ea-febf4585366a","ios":"levelo://app?vid=619f5c8e-4ed6-4ac9-b1ea-febf4585366a"},"vehicle_type_id":"4","last_reported":1686999971,"current_range_meters":15200,"station_id":"ce4bgvp2rcd13ifvqct0","pricing_plan_id":"free"},{"bike_id":"0f3b0806-3d89-4b8f-b60b-0a49423355ab","system_id":"levelo_inurba_marseille","lat":43.3376,"lon":5.3746,"is_reserved":false,"is_disabled":false,"rental_uris":{"android":"levelo://app?vid=0f3b0806-3d89-4b8f-b60b-0a49423355ab","ios":"levelo://app?vid=0f3b0806-3d89-4b8f-b60b-0a49423355ab"},"vehicle_type_id":"4","last_reported":1686999971,"current_range_meters":24400,"station_id":"","pricing_plan_id":"free"},{"bike_id":"0d7eab26-9c6b-4ea6-8950-d468bb3e8803","system_id":"levelo_inurba_marseille","lat":43.30136,"lon":5.39848,"is_reserved":false,"is_disabled":false,"rental_uris":{"android":"levelo://app?vid=0d7eab26-9c6b-4ea6-8950-d468bb3e8803","ios":"levelo://app?vid=0d7eab26-9c6b-4ea6-8950-d468bb3e8803"},"vehicle_type_id":"4","last_reported":1686999971,"current_range_meters":20400,"station_id":"","pricing_plan_id":"free"},{"bike_id":"9a77b722-01a6-4309-8b81-b1343e5d2441","system_id":"levelo_inurba_marseille","lat":43.286961,"lon":5.373785,"is_reserved":false,"is_disabled":false,"rental_uris":{"android":"levelo://app?vid=9a77b722-01a6-4309-8b81-b1343e5d2441","ios":"levelo://app?vid=9a77b722-01a6-4309-8b81-b1343e5d2441"},"vehicle_type_id":"4","last_reported":1686999971,"current_range_meters":20000,"station_id":"ce4bh3p2rcd13ifvqdq0","pricing_plan_id":"free"},{"bike_id":"bd0e66b2-948c-4505-b544-242942e48c7f","system_id":"levelo_inurba_marseille","lat":43.286961,"lon":5.373785,"is_reserved":false,"is_disabled":false,"rental_uris":{"android":"levelo://app?vid=bd0e66b2-948c-4505-b544-242942e48c7f","ios":"levelo://app?vid=bd0e66b2-948c-4505-b544-242942e48c7f"},"vehicle_type_id":"4","last_reported":1686999971,"current_range_meters":28400,"station_id":"ce4bh3p2rcd13ifvqdq0","pricing_plan_id":"free"},{"bike_id":"fae480a8-c45e-4f89-8f88-0bd18c8a8498","system_id":"levelo_inurba_marseille","lat":43.302759,"lon":5.400793,"is_reserved":false,"is_disabled":false,"rental_uris":{"android":"levelo://app?vid=fae480a8-c45e-4f89-8f88-0bd18c8a8498","ios":"levelo://app?vid=fae480a8-c45e-4f89-8f88-0bd18c8a8498"},"vehicle_type_id":"4","last_reported":1686999971,"current_range_meters":22400,"station_id":"ce4bgvh2rcd13ifvqcs0","pricing_plan_id":"free"},{"bike_id":"da82e0a0-87f5-42bc-984b-2e34d38c4e6d","system_id":"levelo_inurba_marseille","lat":43.290336,"lon":5.386425,"is_reserved":false,"is_disabled":false,"rental_uris":{"android":"levelo://app?vid=da82e0a0-87f5-42bc-984b-2e34d38c4e6d","ios":"levelo://app?vid=da82e0a0-87f5-42bc-984b-2e34d38c4e6d"},"vehicle_type_id":"4","last_reported":1686999971,"current_range_meters":22000,"station_id":"ce4bh4p2rcd13ifvqe0g","pricing_plan_id":"free"},{"bike_id":"c8db2134-1b36-4b93-959c-a46225e21bf1","system_id":"levelo_inurba_marseille","lat":43.29022,"lon":5.38637,"is_reserved":false,"is_disabled":false,"rental_uris":{"android":"levelo://app?vid=c8db2134-1b36-4b93-959c-a46225e21bf1","ios":"levelo://app?vid=c8db2134-1b36-4b93-959c-a46225e21bf1"},"vehicle_type_id":"4","last_reported":1686999971,"current_range_meters":12400,"station_id":"ce4bh4p2rcd13ifvqe0g","pricing_plan_id":"free"},{"bike_id":"40a1b78f-ed99-43be-a63c-30e85225865f","system_id":"levelo_inurba_marseille","lat":43.28615,"lon":5.37059,"is_reserved":false,"is_disabled":false,"rental_uris":{"android":"levelo://app?vid=40a1b78f-ed99-43be-a63c-30e85225865f","ios":"levelo://app?vid=40a1b78f-ed99-43be-a63c-30e85225865f"},"vehicle_type_id":"4","last_reported":1686999971,"current_range_meters":32000,"station_id":"ce4bht12rcd13ifvqi60","pricing_plan_id":"free"},{"bike_id":"0c05a8b6-9b61-48c4-b2c5-a41e3ad6b9d4","system_id":"levelo_inurba_marseille","lat":43.286039,"lon":5.370679,"is_reserved":false,"is_disabled":false,"rental_uris":{"android":"levelo://app?vid=0c05a8b6-9b61-48c4-b2c5-a41e3ad6b9d4","ios":"levelo://app?vid=0c05a8b6-9b61-48c4-b2c5-a41e3ad6b9d4"},"vehicle_type_id":"4","last_reported":1686999971,"current_range_meters":22400,"station_id":"ce4bht12rcd13ifvqi60","pricing_plan_id":"free"},{"bike_id":"48b70b09-9bbd-4cfe-8fc0-61941a4dfc8a","system_id":"levelo_inurba_marseille","lat":43.28599,"lon":5.36713,"is_reserved":false,"is_disabled":false,"rental_uris":{"android":"levelo://app?vid=48b70b09-9bbd-4cfe-8fc0-61941a4dfc8a","ios":"levelo://app?vid=48b70b09-9bbd-4cfe-8fc0-61941a4dfc8a"},"vehicle_type_id":"4","last_reported":1686999971,"current_range_meters":25200,"station_id":"","pricing_plan_id":"free"},{"bike_id":"1d38c710-535a-448f-b674-d5a3909aaa63","system_id":"levelo_inurba_marseille","lat":43.31644,"lon":5.40432,"is_reserved":false,"is_disabled":false,"rental_uris":{"android":"levelo://app?vid=1d38c710-535a-448f-b674-d5a3909aaa63","ios":"levelo://app?vid=1d38c710-535a-448f-b674-d5a3909aaa63"},"vehicle_type_id":"4","last_reported":1686999971,"current_range_meters":16400,"station_id":"ce4bh012rcd13ifvqd00","pricing_plan_id":"free"},{"bike_id":"d43dc855-7531-4724-a556-e72b91069e6b","system_id":"levelo_inurba_marseille","lat":43.31639,"lon":5.40434,"is_reserved":false,"is_disabled":false,"rental_uris":{"android":"levelo://app?vid=d43dc855-7531-4724-a556-e72b91069e6b","ios":"levelo://app?vid=d43dc855-7531-4724-a556-e72b91069e6b"},"vehicle_type_id":"4","last_reported":1686999971,"current_range_meters":31200,"station_id":"ce4bh012rcd13ifvqd00","pricing_plan_id":"free"},{"bike_id":"0aa1a4dc-ff1d-459e-bac9-b81b2053f138","system_id":"levelo_inurba_marseille","lat":43.31649,"lon":5.40434,"is_reserved":false,"is_disabled":false,"rental_uris":{"android":"levelo://app?vid=0aa1a4dc-ff1d-459e-bac9-b81b2053f138","ios":"levelo://app?vid=0aa1a4dc-ff1d-459e-bac9-b81b2053f138"},"vehicle_type_id":"4","last_reported":1686999971,"current_range_meters":21600,"station_id":"ce4bh012rcd13ifvqd00","pricing_plan_id":"free"},{"bike_id":"f82cf2aa-4e66-4662-a087-aef04279b5af","system_id":"levelo_inurba_marseille","lat":43.31648,"lon":5.40435,"is_reserved":false,"is_disabled":false,"rental_uris":{"android":"levelo://app?vid=f82cf2aa-4e66-4662-a087-aef04279b5af","ios":"levelo://app?vid=f82cf2aa-4e66-4662-a087-aef04279b5af"},"vehicle_type_id":"4","last_reported":1686999971,"current_range_meters":28800,"station_id":"ce4bh012rcd13ifvqd00","pricing_plan_id":"free"},{"bike_id":"067795b1-5c6d-4a71-bf5e-a743a27c6528","system_id":"levelo_inurba_marseille","lat":43.316517,"lon":5.404375,"is_reserved":false,"is_disabled":false,"rental_uris":{"android":"levelo://app?vid=067795b1-5c6d-4a71-bf5e-a743a27c6528","ios":"levelo://app?vid=067795b1-5c6d-4a71-bf5e-a743a27c6528"},"vehicle_type_id":"4","last_reported":1686999971,"current_range_meters":13600,"station_id":"ce4bh012rcd13ifvqd00","pricing_plan_id":"free"},{"bike_id":"f4f0b91d-9677-4a6a-ac18-58347852ed7c","system_id":"levelo_inurba_marseille","lat":43.316517,"lon":5.404375,"is_reserved":false,"is_disabled":false,"rental_uris":{"android":"levelo://app?vid=f4f0b91d-9677-4a6a-ac18-58347852ed7c","ios":"levelo://app?vid=f4f0b91d-9677-4a6a-ac18-58347852ed7c"},"vehicle_type_id":"4","last_reported":1686999971,"current_range_meters":31200,"station_id":"ce4bh012rcd13ifvqd00","pricing_plan_id":"free"},{"bike_id":"87d910ac-bb96-4066-a1c0-0f248798d193","system_id":"levelo_inurba_marseille","lat":43.316517,"lon":5.404375,"is_reserved":false,"is_disabled":false,"rental_uris":{"android":"levelo://app?vid=87d910ac-bb96-4066-a1c0-0f248798d193","ios":"levelo://app?vid=87d910ac-bb96-4066-a1c0-0f248798d193"},"vehicle_type_id":"4","last_reported":1686999971,"current_range_meters":31200,"station_id":"ce4bh012rcd13ifvqd00","pricing_plan_id":"free"},{"bike_id":"7aaedaa1-01f7-4588-b5d0-7a1ac6a3d455","system_id":"levelo_inurba_marseille","lat":43.291994,"lon":5.392907,"is_reserved":false,"is_disabled":false,"rental_uris":{"android":"levelo://app?vid=7aaedaa1-01f7-4588-b5d0-7a1ac6a3d455","ios":"levelo://app?vid=7aaedaa1-01f7-4588-b5d0-7a1ac6a3d455"},"vehicle_type_id":"4","last_reported":1686999971,"current_range_meters":19600,"station_id":"ce4bh192rcd13ifvqdd0","pricing_plan_id":"free"},{"bike_id":"af74f7e9-5561-4062-a396-b081c4500996","system_id":"levelo_inurba_marseille","lat":43.291994,"lon":5.392907,"is_reserved":false,"is_disabled":false,"rental_uris":{"android":"levelo://app?vid=af74f7e9-5561-4062-a396-b081c4500996","ios":"levelo://app?vid=af74f7e9-5561-4062-a396-b081c4500996"},"vehicle_type_id":"4","last_reported":1686999971,"current_range_meters":0,"station_id":"ce4bh192rcd13ifvqdd0","pricing_plan_id":"free"},{"bike_id":"b798f782-8667-41f0-b3db-40acbd5d7f5a","system_id":"levelo_inurba_marseille","lat":43.284534,"lon":5.358662,"is_reserved":false,"is_disabled":false,"rental_uris":{"android":"levelo://app?vid=b798f782-8667-41f0-b3db-40acbd5d7f5a","ios":"levelo://app?vid=b798f782-8667-41f0-b3db-40acbd5d7f5a"},"vehicle_type_id":"4","last_reported":1686999971,"current_range_meters":28000,"station_id":"ce4bhah2rcd13ifvqei0","pricing_plan_id":"free"},{"bike_id":"c334b74d-d1f8-48fc-a501-737ddf54567f","system_id":"levelo_inurba_marseille","lat":43.284534,"lon":5.358662,"is_reserved":false,"is_disabled":false,"rental_uris":{"android":"levelo://app?vid=c334b74d-d1f8-48fc-a501-737ddf54567f","ios":"levelo://app?vid=c334b74d-d1f8-48fc-a501-737ddf54567f"},"vehicle_type_id":"4","last_reported":1686999971,"current_range_meters":15600,"station_id":"ce4bhah2rcd13ifvqei0","pricing_plan_id":"free"},{"bike_id":"0bbc677c-860f-4f3a-9bcf-a99cb22ecb4e","system_id":"levelo_inurba_marseille","lat":43.284534,"lon":5.358662,"is_reserved":false,"is_disabled":false,"rental_uris":{"android":"levelo://app?vid=0bbc677c-860f-4f3a-9bcf-a99cb22ecb4e","ios":"levelo://app?vid=0bbc677c-860f-4f3a-9bcf-a99cb22ecb4e"},"vehicle_type_id":"4","last_reported":1686999971,"current_range_meters":19600,"station_id":"ce4bhah2rcd13ifvqei0","pricing_plan_id":"free"},{"bike_id":"ef80c01d-23ec-4974-9efa-220927071b4a","system_id":"levelo_inurba_marseille","lat":43.2843,"lon":5.3753,"is_reserved":false,"is_disabled":false,"rental_uris":{"android":"levelo://app?vid=ef80c01d-23ec-4974-9efa-220927071b4a","ios":"levelo://app?vid=ef80c01d-23ec-4974-9efa-220927071b4a"},"vehicle_type_id":"4","last_reported":1686999971,"current_range_meters":31200,"station_id":"","pricing_plan_id":"free"},{"bike_id":"d2755f58-4be3-4881-a152-edcd5204dfb4","system_id":"levelo_inurba_marseille","lat":43.28416,"lon":5.37511,"is_reserved":false,"is_disabled":false,"rental_uris":{"android":"levelo://app?vid=d2755f58-4be3-4881-a152-edcd5204dfb4","ios":"levelo://app?vid=d2755f58-4be3-4881-a152-edcd5204dfb4"},"vehicle_type_id":"4","last_reported":1686999971,"current_range_meters":29600,"station_id":"","pricing_plan_id":"free"},{"bike_id":"d3a2e25b-2ee2-4f69-ac8e-b0a72feb9b37","system_id":"levelo_inurba_marseille","lat":43.28408,"lon":5.37514,"is_reserved":false,"is_disabled":false,"rental_uris":{"android":"levelo://app?vid=d3a2e25b-2ee2-4f69-ac8e-b0a72feb9b37","ios":"levelo://app?vid=d3a2e25b-2ee2-4f69-ac8e-b0a72feb9b37"},"vehicle_type_id":"4","last_reported":1686999971,"current_range_meters":31200,"station_id":"ce4bh412rcd13ifvqds0","pricing_plan_id":"free"},{"bike_id":"031796fb-dba7-4423-a8dc-d5f34d805489","system_id":"levelo_inurba_marseille","lat":43.29573,"lon":5.3998,"is_reserved":false,"is_disabled":false,"rental_uris":{"android":"levelo://app?vid=031796fb-dba7-4423-a8dc-d5f34d805489","ios":"levelo://app?vid=031796fb-dba7-4423-a8dc-d5f34d805489"},"vehicle_type_id":"4","last_reported":1686999971,"current_range_meters":21600,"station_id":"","pricing_plan_id":"free"},{"bike_id":"828fcad5-4e1a-4b3b-b2ff-f6f8be3d9589","system_id":"levelo_inurba_marseille","lat":43.284,"lon":5.37515,"is_reserved":false,"is_disabled":false,"rental_uris":{"android":"levelo://app?vid=828fcad5-4e1a-4b3b-b2ff-f6f8be3d9589","ios":"levelo://app?vid=828fcad5-4e1a-4b3b-b2ff-f6f8be3d9589"},"vehicle_type_id":"4","last_reported":1686999971,"current_range_meters":31200,"station_id":"","pricing_plan_id":"free"},{"bike_id":"f4dc4588-90e0-464d-9f4b-f3169f438754","system_id":"levelo_inurba_marseille","lat":43.295713,"lon":5.399639,"is_reserved":false,"is_disabled":false,"rental_uris":{"android":"levelo://app?vid=f4dc4588-90e0-464d-9f4b-f3169f438754","ios":"levelo://app?vid=f4dc4588-90e0-464d-9f4b-f3169f438754"},"vehicle_type_id":"4","last_reported":1686999971,"current_range_meters":6800,"station_id":"ce4bh312rcd13ifvqdj0","pricing_plan_id":"free"},{"bike_id":"43275ef6-770c-4f0e-926c-1c3aecd7abec","system_id":"levelo_inurba_marseille","lat":43.287909,"lon":5.390554,"is_reserved":false,"is_disabled":false,"rental_uris":{"android":"levelo://app?vid=43275ef6-770c-4f0e-926c-1c3aecd7abec","ios":"levelo://app?vid=43275ef6-770c-4f0e-926c-1c3aecd7abec"},"vehicle_type_id":"4","last_reported":1686999971,"current_range_meters":16800,"station_id":"","pricing_plan_id":"free"},{"bike_id":"1373957b-76f6-46ca-a56e-c1a9dfcdfcfa","system_id":"levelo_inurba_marseille","lat":43.323464,"lon":5.406297,"is_reserved":false,"is_disabled":false,"rental_uris":{"android":"levelo://app?vid=1373957b-76f6-46ca-a56e-c1a9dfcdfcfa","ios":"levelo://app?vid=1373957b-76f6-46ca-a56e-c1a9dfcdfcfa"},"vehicle_type_id":"4","last_reported":1686999971,"current_range_meters":30400,"station_id":"ce4bhq92rcd13ifvqhjg","pricing_plan_id":"free"},{"bike_id":"014d20b7-e462-4a0d-ba50-980b631f8f4e","system_id":"levelo_inurba_marseille","lat":43.323464,"lon":5.406297,"is_reserved":false,"is_disabled":false,"rental_uris":{"android":"levelo://app?vid=014d20b7-e462-4a0d-ba50-980b631f8f4e","ios":"levelo://app?vid=014d20b7-e462-4a0d-ba50-980b631f8f4e"},"vehicle_type_id":"4","last_reported":1686999971,"current_range_meters":29600,"station_id":"ce4bhq92rcd13ifvqhjg","pricing_plan_id":"free"},{"bike_id":"16e5fedd-6e86-436a-a0a2-72c7cd60a6ea","system_id":"levelo_inurba_marseille","lat":43.32344,"lon":5.40621,"is_reserved":false,"is_disabled":false,"rental_uris":{"android":"levelo://app?vid=16e5fedd-6e86-436a-a0a2-72c7cd60a6ea","ios":"levelo://app?vid=16e5fedd-6e86-436a-a0a2-72c7cd60a6ea"},"vehicle_type_id":"4","last_reported":1686999971,"current_range_meters":30000,"station_id":"ce4bhq92rcd13ifvqhjg","pricing_plan_id":"free"},{"bike_id":"a3e18934-ee50-4634-b329-546a025643cb","system_id":"levelo_inurba_marseille","lat":43.323464,"lon":5.406297,"is_reserved":false,"is_disabled":false,"rental_uris":{"android":"levelo://app?vid=a3e18934-ee50-4634-b329-546a025643cb","ios":"levelo://app?vid=a3e18934-ee50-4634-b329-546a025643cb"},"vehicle_type_id":"4","last_reported":1686999971,"current_range_meters":31200,"station_id":"ce4bhq92rcd13ifvqhjg","pricing_plan_id":"free"},{"bike_id":"7b0f454d-174c-458c-8c17-e27436cb6d60","system_id":"levelo_inurba_marseille","lat":43.323464,"lon":5.406297,"is_reserved":false,"is_disabled":false,"rental_uris":{"android":"levelo://app?vid=7b0f454d-174c-458c-8c17-e27436cb6d60","ios":"levelo://app?vid=7b0f454d-174c-458c-8c17-e27436cb6d60"},"vehicle_type_id":"4","last_reported":1686999971,"current_range_meters":31200,"station_id":"ce4bhq92rcd13ifvqhjg","pricing_plan_id":"free"},{"bike_id":"a80ada00-7b41-41c0-92ab-01c0ff01d555","system_id":"levelo_inurba_marseille","lat":43.284787,"lon":5.384116,"is_reserved":false,"is_disabled":false,"rental_uris":{"android":"levelo://app?vid=a80ada00-7b41-41c0-92ab-01c0ff01d555","ios":"levelo://app?vid=a80ada00-7b41-41c0-92ab-01c0ff01d555"},"vehicle_type_id":"4","last_reported":1686999971,"current_range_meters":20000,"station_id":"ce4bh512rcd13ifvqe3g","pricing_plan_id":"free"},{"bike_id":"00b4d942-d645-4a17-a320-9c02b5ecca68","system_id":"levelo_inurba_marseille","lat":43.288501,"lon":5.393087,"is_reserved":false,"is_disabled":false,"rental_uris":{"android":"levelo://app?vid=00b4d942-d645-4a17-a320-9c02b5ecca68","ios":"levelo://app?vid=00b4d942-d645-4a17-a320-9c02b5ecca68"},"vehicle_type_id":"4","last_reported":1686999971,"current_range_meters":26000,"station_id":"ce4bh2p2rcd13ifvqdi0","pricing_plan_id":"free"},{"bike_id":"9d45d51b-f728-4406-8e3b-e181f7faa055","system_id":"levelo_inurba_marseille","lat":43.283494,"lon":5.380945,"is_reserved":false,"is_disabled":false,"rental_uris":{"android":"levelo://app?vid=9d45d51b-f728-4406-8e3b-e181f7faa055","ios":"levelo://app?vid=9d45d51b-f728-4406-8e3b-e181f7faa055"},"vehicle_type_id":"4","last_reported":1686999971,"current_range_meters":24000,"station_id":"ce4bh412rcd13ifvqdr0","pricing_plan_id":"free"},{"bike_id":"8501090f-0616-4fbf-b834-4ef8e5317796","system_id":"levelo_inurba_marseille","lat":43.284217,"lon":5.349697,"is_reserved":false,"is_disabled":false,"rental_uris":{"android":"levelo://app?vid=8501090f-0616-4fbf-b834-4ef8e5317796","ios":"levelo://app?vid=8501090f-0616-4fbf-b834-4ef8e5317796"},"vehicle_type_id":"4","last_reported":1686999971,"current_range_meters":24400,"station_id":"ce4bhbh2rcd13ifvqepg","pricing_plan_id":"free"},{"bike_id":"fd34b3b0-e913-4905-aa01-a34fab4d64e4","system_id":"levelo_inurba_marseille","lat":43.28426,"lon":5.34992,"is_reserved":false,"is_disabled":false,"rental_uris":{"android":"levelo://app?vid=fd34b3b0-e913-4905-aa01-a34fab4d64e4","ios":"levelo://app?vid=fd34b3b0-e913-4905-aa01-a34fab4d64e4"},"vehicle_type_id":"4","last_reported":1686999971,"current_range_meters":24800,"station_id":"ce4bhbh2rcd13ifvqepg","pricing_plan_id":"free"},{"bike_id":"614c4371-d73c-47b5-bbde-dca076efde5a","system_id":"levelo_inurba_marseille","lat":43.283494,"lon":5.380945,"is_reserved":false,"is_disabled":false,"rental_uris":{"android":"levelo://app?vid=614c4371-d73c-47b5-bbde-dca076efde5a","ios":"levelo://app?vid=614c4371-d73c-47b5-bbde-dca076efde5a"},"vehicle_type_id":"4","last_reported":1686999971,"current_range_meters":20400,"station_id":"ce4bh412rcd13ifvqdr0","pricing_plan_id":"free"},{"bike_id":"11e6f3e8-fb98-4942-b05b-d0860077cc2e","system_id":"levelo_inurba_marseille","lat":43.28424,"lon":5.34987,"is_reserved":false,"is_disabled":false,"rental_uris":{"android":"levelo://app?vid=11e6f3e8-fb98-4942-b05b-d0860077cc2e","ios":"levelo://app?vid=11e6f3e8-fb98-4942-b05b-d0860077cc2e"},"vehicle_type_id":"4","last_reported":1686999971,"current_range_meters":19200,"station_id":"ce4bhbh2rcd13ifvqepg","pricing_plan_id":"free"},{"bike_id":"517a06bd-6a1d-47b9-b901-fcc72401338d","system_id":"levelo_inurba_marseille","lat":43.28421,"lon":5.34995,"is_reserved":false,"is_disabled":false,"rental_uris":{"android":"levelo://app?vid=517a06bd-6a1d-47b9-b901-fcc72401338d","ios":"levelo://app?vid=517a06bd-6a1d-47b9-b901-fcc72401338d"},"vehicle_type_id":"4","last_reported":1686999971,"current_range_meters":13600,"station_id":"ce4bhbh2rcd13ifvqepg","pricing_plan_id":"free"},{"bike_id":"1b4df381-a570-45b9-a486-dcbe0e566bc4","system_id":"levelo_inurba_marseille","lat":43.284217,"lon":5.349697,"is_reserved":false,"is_disabled":false,"rental_uris":{"android":"levelo://app?vid=1b4df381-a570-45b9-a486-dcbe0e566bc4","ios":"levelo://app?vid=1b4df381-a570-45b9-a486-dcbe0e566bc4"},"vehicle_type_id":"4","last_reported":1686999971,"current_range_meters":30000,"station_id":"ce4bhbh2rcd13ifvqepg","pricing_plan_id":"free"},{"bike_id":"8943697f-dfdc-4cd3-877b-d6105a1ecddc","system_id":"levelo_inurba_marseille","lat":43.28422,"lon":5.34988,"is_reserved":false,"is_disabled":false,"rental_uris":{"android":"levelo://app?vid=8943697f-dfdc-4cd3-877b-d6105a1ecddc","ios":"levelo://app?vid=8943697f-dfdc-4cd3-877b-d6105a1ecddc"},"vehicle_type_id":"4","last_reported":1686999971,"current_range_meters":21600,"station_id":"ce4bhbh2rcd13ifvqepg","pricing_plan_id":"free"},{"bike_id":"3a2c3005-9f02-4f68-801f-822ce084562a","system_id":"levelo_inurba_marseille","lat":43.28418,"lon":5.34992,"is_reserved":false,"is_disabled":false,"rental_uris":{"android":"levelo://app?vid=3a2c3005-9f02-4f68-801f-822ce084562a","ios":"levelo://app?vid=3a2c3005-9f02-4f68-801f-822ce084562a"},"vehicle_type_id":"4","last_reported":1686999971,"current_range_meters":19600,"station_id":"ce4bhbh2rcd13ifvqepg","pricing_plan_id":"free"},{"bike_id":"ad1434f8-d599-4c8d-a820-d597c2e56a40","system_id":"levelo_inurba_marseille","lat":43.28422,"lon":5.34978,"is_reserved":false,"is_disabled":false,"rental_uris":{"android":"levelo://app?vid=ad1434f8-d599-4c8d-a820-d597c2e56a40","ios":"levelo://app?vid=ad1434f8-d599-4c8d-a820-d597c2e56a40"},"vehicle_type_id":"4","last_reported":1686999971,"current_range_meters":16000,"station_id":"ce4bhbh2rcd13ifvqepg","pricing_plan_id":"free"},{"bike_id":"e4e46a87-f928-42c7-a87d-49b93a92942e","system_id":"levelo_inurba_marseille","lat":43.2842,"lon":5.34983,"is_reserved":false,"is_disabled":false,"rental_uris":{"android":"levelo://app?vid=e4e46a87-f928-42c7-a87d-49b93a92942e","ios":"levelo://app?vid=e4e46a87-f928-42c7-a87d-49b93a92942e"},"vehicle_type_id":"4","last_reported":1686999971,"current_range_meters":23200,"station_id":"ce4bhbh2rcd13ifvqepg","pricing_plan_id":"free"},{"bike_id":"90a1384b-427d-4d40-9165-9a91cb9fc4c2","system_id":"levelo_inurba_marseille","lat":43.284217,"lon":5.349697,"is_reserved":false,"is_disabled":false,"rental_uris":{"android":"levelo://app?vid=90a1384b-427d-4d40-9165-9a91cb9fc4c2","ios":"levelo://app?vid=90a1384b-427d-4d40-9165-9a91cb9fc4c2"},"vehicle_type_id":"4","last_reported":1686999971,"current_range_meters":15600,"station_id":"ce4bhbh2rcd13ifvqepg","pricing_plan_id":"free"},{"bike_id":"5b2c6572-d16b-49eb-a7d1-67c48bcd1f17","system_id":"levelo_inurba_marseille","lat":43.284217,"lon":5.349697,"is_reserved":false,"is_disabled":false,"rental_uris":{"android":"levelo://app?vid=5b2c6572-d16b-49eb-a7d1-67c48bcd1f17","ios":"levelo://app?vid=5b2c6572-d16b-49eb-a7d1-67c48bcd1f17"},"vehicle_type_id":"4","last_reported":1686999971,"current_range_meters":21200,"station_id":"ce4bhbh2rcd13ifvqepg","pricing_plan_id":"free"},{"bike_id":"7068dcb0-4a58-4523-8b70-125eccae817d","system_id":"levelo_inurba_marseille","lat":43.28417,"lon":5.34977,"is_reserved":false,"is_disabled":false,"rental_uris":{"android":"levelo://app?vid=7068dcb0-4a58-4523-8b70-125eccae817d","ios":"levelo://app?vid=7068dcb0-4a58-4523-8b70-125eccae817d"},"vehicle_type_id":"4","last_reported":1686999971,"current_range_meters":0,"station_id":"ce4bhbh2rcd13ifvqepg","pricing_plan_id":"free"},{"bike_id":"035194fb-f93b-415b-99a3-59451eba7a69","system_id":"levelo_inurba_marseille","lat":43.284217,"lon":5.349697,"is_reserved":false,"is_disabled":false,"rental_uris":{"android":"levelo://app?vid=035194fb-f93b-415b-99a3-59451eba7a69","ios":"levelo://app?vid=035194fb-f93b-415b-99a3-59451eba7a69"},"vehicle_type_id":"4","last_reported":1686999971,"current_range_meters":16400,"station_id":"ce4bhbh2rcd13ifvqepg","pricing_plan_id":"free"},{"bike_id":"3d693432-ef53-4f06-bcec-7bb9bbc1e5e6","system_id":"levelo_inurba_marseille","lat":43.33917,"lon":5.39054,"is_reserved":false,"is_disabled":false,"rental_uris":{"android":"levelo://app?vid=3d693432-ef53-4f06-bcec-7bb9bbc1e5e6","ios":"levelo://app?vid=3d693432-ef53-4f06-bcec-7bb9bbc1e5e6"},"vehicle_type_id":"4","last_reported":1686999971,"current_range_meters":21600,"station_id":"","pricing_plan_id":"free"},{"bike_id":"b4d971b0-ece6-4c24-91c5-846c399eb313","system_id":"levelo_inurba_marseille","lat":43.28276,"lon":5.35077,"is_reserved":false,"is_disabled":false,"rental_uris":{"android":"levelo://app?vid=b4d971b0-ece6-4c24-91c5-846c399eb313","ios":"levelo://app?vid=b4d971b0-ece6-4c24-91c5-846c399eb313"},"vehicle_type_id":"4","last_reported":1686999971,"current_range_meters":20800,"station_id":"ce4bhbp2rcd13ifvqerg","pricing_plan_id":"free"},{"bike_id":"fb2e6138-7a4c-43fe-ab6c-f844b18c24e5","system_id":"levelo_inurba_marseille","lat":43.28276,"lon":5.35073,"is_reserved":false,"is_disabled":false,"rental_uris":{"android":"levelo://app?vid=fb2e6138-7a4c-43fe-ab6c-f844b18c24e5","ios":"levelo://app?vid=fb2e6138-7a4c-43fe-ab6c-f844b18c24e5"},"vehicle_type_id":"4","last_reported":1686999971,"current_range_meters":30800,"station_id":"ce4bhbp2rcd13ifvqerg","pricing_plan_id":"free"},{"bike_id":"6ad15646-647d-4dd5-87cb-503659ae7358","system_id":"levelo_inurba_marseille","lat":43.28275,"lon":5.35076,"is_reserved":false,"is_disabled":false,"rental_uris":{"android":"levelo://app?vid=6ad15646-647d-4dd5-87cb-503659ae7358","ios":"levelo://app?vid=6ad15646-647d-4dd5-87cb-503659ae7358"},"vehicle_type_id":"4","last_reported":1686999971,"current_range_meters":30800,"station_id":"ce4bhbp2rcd13ifvqerg","pricing_plan_id":"free"},{"bike_id":"9feefd28-d20d-462a-a690-7e0b84cd5183","system_id":"levelo_inurba_marseille","lat":43.28271,"lon":5.35062,"is_reserved":false,"is_disabled":false,"rental_uris":{"android":"levelo://app?vid=9feefd28-d20d-462a-a690-7e0b84cd5183","ios":"levelo://app?vid=9feefd28-d20d-462a-a690-7e0b84cd5183"},"vehicle_type_id":"4","last_reported":1686999971,"current_range_meters":27200,"station_id":"ce4bhbp2rcd13ifvqerg","pricing_plan_id":"free"},{"bike_id":"921efbd2-8373-4796-9761-3165da617594","system_id":"levelo_inurba_marseille","lat":43.282744,"lon":5.350533,"is_reserved":false,"is_disabled":false,"rental_uris":{"android":"levelo://app?vid=921efbd2-8373-4796-9761-3165da617594","ios":"levelo://app?vid=921efbd2-8373-4796-9761-3165da617594"},"vehicle_type_id":"4","last_reported":1686999971,"current_range_meters":31200,"station_id":"ce4bhbp2rcd13ifvqerg","pricing_plan_id":"free"},{"bike_id":"8fde730a-509a-44ef-a8dd-01f0a4762dd7","system_id":"levelo_inurba_marseille","lat":43.282754,"lon":5.350519,"is_reserved":false,"is_disabled":false,"rental_uris":{"android":"levelo://app?vid=8fde730a-509a-44ef-a8dd-01f0a4762dd7","ios":"levelo://app?vid=8fde730a-509a-44ef-a8dd-01f0a4762dd7"},"vehicle_type_id":"4","last_reported":1686999971,"current_range_meters":24000,"station_id":"ce4bhbp2rcd13ifvqerg","pricing_plan_id":"free"},{"bike_id":"f7bd7238-3901-4469-a475-ca09694602f6","system_id":"levelo_inurba_marseille","lat":43.28039,"lon":5.369297,"is_reserved":false,"is_disabled":false,"rental_uris":{"android":"levelo://app?vid=f7bd7238-3901-4469-a475-ca09694602f6","ios":"levelo://app?vid=f7bd7238-3901-4469-a475-ca09694602f6"},"vehicle_type_id":"4","last_reported":1686999971,"current_range_meters":11200,"station_id":"ce4bha12rcd13ifvqef0","pricing_plan_id":"free"},{"bike_id":"1d72436d-db89-4099-b90a-700d3b1b33fc","system_id":"levelo_inurba_marseille","lat":43.290412,"lon":5.399633,"is_reserved":false,"is_disabled":false,"rental_uris":{"android":"levelo://app?vid=1d72436d-db89-4099-b90a-700d3b1b33fc","ios":"levelo://app?vid=1d72436d-db89-4099-b90a-700d3b1b33fc"},"vehicle_type_id":"4","last_reported":1686999971,"current_range_meters":20000,"station_id":"ce4bh392rcd13ifvqdm0","pricing_plan_id":"free"},{"bike_id":"082f80a2-c8d7-47f8-8641-ed6f17280a11","system_id":"levelo_inurba_marseille","lat":43.28108,"lon":5.37845,"is_reserved":false,"is_disabled":false,"rental_uris":{"android":"levelo://app?vid=082f80a2-c8d7-47f8-8641-ed6f17280a11","ios":"levelo://app?vid=082f80a2-c8d7-47f8-8641-ed6f17280a11"},"vehicle_type_id":"4","last_reported":1686999971,"current_range_meters":6000,"station_id":"ce4bha12rcd13ifvqee0","pricing_plan_id":"free"},{"bike_id":"ed05c473-8d87-41a7-8c19-e9f6693d939c","system_id":"levelo_inurba_marseille","lat":43.28105,"lon":5.37842,"is_reserved":false,"is_disabled":false,"rental_uris":{"android":"levelo://app?vid=ed05c473-8d87-41a7-8c19-e9f6693d939c","ios":"levelo://app?vid=ed05c473-8d87-41a7-8c19-e9f6693d939c"},"vehicle_type_id":"4","last_reported":1686999971,"current_range_meters":8800,"station_id":"ce4bha12rcd13ifvqee0","pricing_plan_id":"free"},{"bike_id":"af02e46b-bb3c-4e61-b292-8b4e66cace83","system_id":"levelo_inurba_marseille","lat":43.28101,"lon":5.37829,"is_reserved":false,"is_disabled":false,"rental_uris":{"android":"levelo://app?vid=af02e46b-bb3c-4e61-b292-8b4e66cace83","ios":"levelo://app?vid=af02e46b-bb3c-4e61-b292-8b4e66cace83"},"vehicle_type_id":"4","last_reported":1686999971,"current_range_meters":24400,"station_id":"ce4bha12rcd13ifvqee0","pricing_plan_id":"free"},{"bike_id":"f8df8e7d-b3ef-4a52-94d3-a382b64ad8f0","system_id":"levelo_inurba_marseille","lat":43.296263,"lon":5.40601,"is_reserved":false,"is_disabled":false,"rental_uris":{"android":"levelo://app?vid=f8df8e7d-b3ef-4a52-94d3-a382b64ad8f0","ios":"levelo://app?vid=f8df8e7d-b3ef-4a52-94d3-a382b64ad8f0"},"vehicle_type_id":"4","last_reported":1686999971,"current_range_meters":19200,"station_id":"ce4bh0h2rcd13ifvqd60","pricing_plan_id":"free"},{"bike_id":"23f305af-997b-4049-8316-76cfc3e090cd","system_id":"levelo_inurba_marseille","lat":43.296263,"lon":5.40601,"is_reserved":false,"is_disabled":false,"rental_uris":{"android":"levelo://app?vid=23f305af-997b-4049-8316-76cfc3e090cd","ios":"levelo://app?vid=23f305af-997b-4049-8316-76cfc3e090cd"},"vehicle_type_id":"4","last_reported":1686999971,"current_range_meters":19200,"station_id":"ce4bh0h2rcd13ifvqd60","pricing_plan_id":"free"},{"bike_id":"d8fa76e8-69ea-4286-bd3a-0135edfb363e","system_id":"levelo_inurba_marseille","lat":43.32659,"lon":5.40988,"is_reserved":false,"is_disabled":false,"rental_uris":{"android":"levelo://app?vid=d8fa76e8-69ea-4286-bd3a-0135edfb363e","ios":"levelo://app?vid=d8fa76e8-69ea-4286-bd3a-0135edfb363e"},"vehicle_type_id":"4","last_reported":1686999971,"current_range_meters":22000,"station_id":"ce4bhpp2rcd13ifvqhgg","pricing_plan_id":"free"},{"bike_id":"1fbc387b-3662-43be-bf02-35ff8bceccb8","system_id":"levelo_inurba_marseille","lat":43.326605,"lon":5.409903,"is_reserved":false,"is_disabled":false,"rental_uris":{"android":"levelo://app?vid=1fbc387b-3662-43be-bf02-35ff8bceccb8","ios":"levelo://app?vid=1fbc387b-3662-43be-bf02-35ff8bceccb8"},"vehicle_type_id":"4","last_reported":1686999971,"current_range_meters":23200,"station_id":"ce4bhpp2rcd13ifvqhgg","pricing_plan_id":"free"},{"bike_id":"c9a1c437-13eb-475e-ab61-4519edcba5f4","system_id":"levelo_inurba_marseille","lat":43.28705,"lon":5.39987,"is_reserved":false,"is_disabled":false,"rental_uris":{"android":"levelo://app?vid=c9a1c437-13eb-475e-ab61-4519edcba5f4","ios":"levelo://app?vid=c9a1c437-13eb-475e-ab61-4519edcba5f4"},"vehicle_type_id":"4","last_reported":1686999971,"current_range_meters":14800,"station_id":"ce4bho92rcd13ifvqh3g","pricing_plan_id":"free"},{"bike_id":"df9fa669-5b02-419d-8415-3ab606b01c0f","system_id":"levelo_inurba_marseille","lat":43.28716,"lon":5.40011,"is_reserved":false,"is_disabled":false,"rental_uris":{"android":"levelo://app?vid=df9fa669-5b02-419d-8415-3ab606b01c0f","ios":"levelo://app?vid=df9fa669-5b02-419d-8415-3ab606b01c0f"},"vehicle_type_id":"4","last_reported":1686999971,"current_range_meters":16400,"station_id":"ce4bho92rcd13ifvqh3g","pricing_plan_id":"free"},{"bike_id":"46fbfaf0-deab-4a2f-961c-0558bc02d562","system_id":"levelo_inurba_marseille","lat":43.32046,"lon":5.41527,"is_reserved":false,"is_disabled":false,"rental_uris":{"android":"levelo://app?vid=46fbfaf0-deab-4a2f-961c-0558bc02d562","ios":"levelo://app?vid=46fbfaf0-deab-4a2f-961c-0558bc02d562"},"vehicle_type_id":"4","last_reported":1686999971,"current_range_meters":11600,"station_id":"ce4bhq92rcd13ifvqhkg","pricing_plan_id":"free"},{"bike_id":"b06092ec-cc2b-425e-933e-3ca82f812fd1","system_id":"levelo_inurba_marseille","lat":43.32047,"lon":5.4155,"is_reserved":false,"is_disabled":false,"rental_uris":{"android":"levelo://app?vid=b06092ec-cc2b-425e-933e-3ca82f812fd1","ios":"levelo://app?vid=b06092ec-cc2b-425e-933e-3ca82f812fd1"},"vehicle_type_id":"4","last_reported":1686999971,"current_range_meters":28400,"station_id":"ce4bhq92rcd13ifvqhkg","pricing_plan_id":"free"},{"bike_id":"3bec1694-852b-4d5a-8a36-a1b667af8e31","system_id":"levelo_inurba_marseille","lat":43.320045,"lon":5.415048,"is_reserved":false,"is_disabled":false,"rental_uris":{"android":"levelo://app?vid=3bec1694-852b-4d5a-8a36-a1b667af8e31","ios":"levelo://app?vid=3bec1694-852b-4d5a-8a36-a1b667af8e31"},"vehicle_type_id":"4","last_reported":1686999971,"current_range_meters":31200,"station_id":"ce4bhq92rcd13ifvqhkg","pricing_plan_id":"free"},{"bike_id":"877ff724-3110-498a-b0d3-6c25ac275dd5","system_id":"levelo_inurba_marseille","lat":43.27975,"lon":5.38742,"is_reserved":false,"is_disabled":false,"rental_uris":{"android":"levelo://app?vid=877ff724-3110-498a-b0d3-6c25ac275dd5","ios":"levelo://app?vid=877ff724-3110-498a-b0d3-6c25ac275dd5"},"vehicle_type_id":"4","last_reported":1686999971,"current_range_meters":20000,"station_id":"ce4bhg12rcd13ifvqf80","pricing_plan_id":"free"},{"bike_id":"8674cfa9-36db-4346-bf25-fe89aade0f9d","system_id":"levelo_inurba_marseille","lat":43.32044,"lon":5.41571,"is_reserved":false,"is_disabled":false,"rental_uris":{"android":"levelo://app?vid=8674cfa9-36db-4346-bf25-fe89aade0f9d","ios":"levelo://app?vid=8674cfa9-36db-4346-bf25-fe89aade0f9d"},"vehicle_type_id":"4","last_reported":1686999971,"current_range_meters":28400,"station_id":"ce4bhq92rcd13ifvqhkg","pricing_plan_id":"free"},{"bike_id":"78288556-bc23-44fa-914a-b5ccc89beb31","system_id":"levelo_inurba_marseille","lat":43.292569,"lon":5.409107,"is_reserved":false,"is_disabled":false,"rental_uris":{"android":"levelo://app?vid=78288556-bc23-44fa-914a-b5ccc89beb31","ios":"levelo://app?vid=78288556-bc23-44fa-914a-b5ccc89beb31"},"vehicle_type_id":"4","last_reported":1686999971,"current_range_meters":22800,"station_id":"ce4bh192rcd13ifvqdc0","pricing_plan_id":"free"},{"bike_id":"ccb2ef36-c9cb-4774-9f2b-8dc913378c4b","system_id":"levelo_inurba_marseille","lat":43.292569,"lon":5.409107,"is_reserved":false,"is_disabled":false,"rental_uris":{"android":"levelo://app?vid=ccb2ef36-c9cb-4774-9f2b-8dc913378c4b","ios":"levelo://app?vid=ccb2ef36-c9cb-4774-9f2b-8dc913378c4b"},"vehicle_type_id":"4","last_reported":1686999971,"current_range_meters":26800,"station_id":"ce4bh192rcd13ifvqdc0","pricing_plan_id":"free"},{"bike_id":"4ef47863-72ed-4b3c-937b-e9146bb72081","system_id":"levelo_inurba_marseille","lat":43.292571,"lon":5.409107,"is_reserved":false,"is_disabled":false,"rental_uris":{"android":"levelo://app?vid=4ef47863-72ed-4b3c-937b-e9146bb72081","ios":"levelo://app?vid=4ef47863-72ed-4b3c-937b-e9146bb72081"},"vehicle_type_id":"4","last_reported":1686999971,"current_range_meters":8800,"station_id":"ce4bh192rcd13ifvqdc0","pricing_plan_id":"free"},{"bike_id":"a4c07c77-d286-4e98-b8ad-6587dfceabe6","system_id":"levelo_inurba_marseille","lat":43.27618,"lon":5.361009,"is_reserved":false,"is_disabled":false,"rental_uris":{"android":"levelo://app?vid=a4c07c77-d286-4e98-b8ad-6587dfceabe6","ios":"levelo://app?vid=a4c07c77-d286-4e98-b8ad-6587dfceabe6"},"vehicle_type_id":"4","last_reported":1686999971,"current_range_meters":14000,"station_id":"ce4bgj92rcd13ifvqbe0","pricing_plan_id":"free"},