{"last_updated":1761840800,"ttl":60,"version":"2.2","data":{"bikes":[{"bike_id":"aacc01e3-6d9f-491a-b1ed-d10f639e29e2","system_id":"levelo_inurba_marseille","lat":43.337444,"lon":5.374475,"is_reserved":false,"is_disabled":false,"rental_uris":{"android":"levelo://app?vid=aacc01e3-6d9f-491a-b1ed-d10f639e29e2","ios":"levelo://app?vid=aacc01e3-6d9f-491a-b1ed-d10f639e29e2"},"vehicle_type_id":"4","last_reported":1761840800,"current_range_meters":0,"station_id":"","pricing_plan_id":"cebpf4jnsgd1na2vs0mg"},{"bike_id":"35ef2eb9-fe09-4124-a7ab-f792dcbd6ddc","system_id":"levelo_inurba_marseille","lat":43.337444,"lon":5.374475,"is_reserved":false,"is_disabled":false,"rental_uris":{"android":"levelo://app?vid=35ef2eb9-fe09-4124-a7ab-f792dcbd6ddc","ios":"levelo://app?vid=35ef2eb9-fe09-4124-a7ab-f792dcbd6ddc"},"vehicle_type_id":"4","last_reported":1761840800,"current_range_meters":0,"station_id":"","pricing_plan_id":"cebpf4jnsgd1na2vs0mg"},{"bike_id":"49ddb7e7-127c-434c-8992-2e05f2e3428d","system_id":"levelo_inurba_marseille","lat":43.337444,"lon":5.374475,"is_reserved":false,"is_disabled":false,"rental_uris":{"android":"levelo://app?vid=49ddb7e7-127c-434c-8992-2e05f2e3428d","ios":"levelo://app?vid=49ddb7e7-127c-434c-8992-2e05f2e3428d"},"vehicle_type_id":"4","last_reported":1761840800,"current_range_meters":0,"station_id":"","pricing_plan_id":"cebpf4jnsgd1na2vs0mg"},{"bike_id":"b3b460c5-2faa-45c2-8fde-7b54e8b4eaf5","system_id":"levelo_inurba_marseille","lat":43.337444,"lon":5.374475,"is_reserved":false,"is_disabled":false,"rental_uris":{"android":"levelo://app?vid=b3b460c5-2faa-45c2-8fde-7b54e8b4eaf5","ios":"levelo://app?vid=b3b460c5-2faa-45c2-8fde-7b54e8b4eaf5"},"vehicle_type_id":"4","last_reported":1761840800,"current_range_meters":0,"station_id":"","pricing_plan_id":"cebpf4jnsgd1na2vs0mg"},{"bike_id":"6b8eeff3-ec31-445f-be43-f1e3ba63fb37","system_id":"levelo_inurba_marseille","lat":43.337416,"lon":5.374586,"is_reserved":false,"is_disabled":false,"rental_uris":{"android":"levelo://app?vid=6b8eeff3-ec31-445f-be43-f1e3ba63fb37","ios":"levelo://app?vid=6b8eeff3-ec31-445f-be43-f1e3ba63fb37"},"vehicle_type_id":"4","last_reported":1761840800,"current_range_meters":0,"station_id":"","pricing_plan_id":"cebpf4jnsgd1na2vs0mg"},{"bike_id":"e0e86d10-d79a-47b9-82ad-a00ae7a62a8a","system_id":"levelo_inurba_marseille","lat":43.337444,"lon":5.374475,"is_reserved":false,"is_disabled":false,"rental_uris":{"android":"levelo://app?vid=e0e86d10-d79a-47b9-82ad-a00ae7a62a8a","ios":"levelo://app?vid=e0e86d10-d79a-47b9-82ad-a00ae7a62a8a"},"vehicle_type_id":"4","last_reported":1761840800,"current_range_meters":0,"station_id":"","pricing_plan_id":"cebpf4jnsgd1na2vs0mg"},{"bike_id":"548f1c45-4f2a-4cfe-b981-5bc1daecb21b","system_id":"levelo_inurba_marseille","lat":43.337444,"lon":5.374475,"is_reserved":false,"is_disabled":false,"rental_uris":{"android":"levelo://app?vid=548f1c45-4f2a-4cfe-b981-5bc1daecb21b","ios":"levelo://app?vid=548f1c45-4f2a-4cfe-b981-5bc1daecb21b"},"vehicle_type_id":"4","last_reported":1761840800,"current_range_meters":0,"station_id":"","pricing_plan_id":"cebpf4jnsgd1na2vs0mg"},{"bike_id":"5260dce0-6ede-4de4-b006-1466527b5fbe","system_id":"levelo_inurba_marseille","lat":43.337444,"lon":5.374475,"is_reserved":false,"is_disabled":false,"rental_uris":{"android":"levelo://app?vid=5260dce0-6ede-4de4-b006-1466527b5fbe","ios":"levelo://app?vid=5260dce0-6ede-4de4-b006-1466527b5fbe"},"vehicle_type_id":"4","last_reported":1761840800,"current_range_meters":0,"station_id":"","pricing_plan_id":"cebpf4jnsgd1na2vs0mg"},{"bike_id":"fb1816a3-8e74-463a-88d2-d6b63cf0a426","system_id":"levelo_inurba_marseille","lat":43.337444,"lon":5.374475,"is_reserved":false,"is_disabled":false,"rental_uris":{"android":"levelo://app?vid=fb1816a3-8e74-463a-88d2-d6b63cf0a426","ios":"levelo://app?vid=fb1816a3-8e74-463a-88d2-d6b63cf0a426"},"vehicle_type_id":"4","last_reported":1761840800,"current_range_meters":0,"station_id":"","pricing_plan_id":"cebpf4jnsgd1na2vs0mg"},{"bike_id":"3c881d8d-608f-4c39-9df3-b2aa54f8afcf","system_id":"levelo_inurba_marseille","lat":43.337444,"lon":5.374475,"is_reserved":false,"is_disabled":false,"rental_uris":{"android":"levelo://app?vid=3c881d8d-608f-4c39-9df3-b2aa54f8afcf","ios":"levelo://app?vid=3c881d8d-608f-4c39-9df3-b2aa54f8afcf"},"vehicle_type_id":"4","last_reported":1761840800,"current_range_meters":0,"station_id":"","pricing_plan_id":"cebpf4jnsgd1na2vs0mg"},{"bike_id":"a26e4937-215f-44d2-a8de-a7d3ec75d32b","system_id":"levelo_inurba_marseille","lat":43.337444,"lon":5.374475,"is_reserved":false,"is_disabled":false,"rental_uris":{"android":"levelo://app?vid=a26e4937-215f-44d2-a8de-a7d3ec75d32b","ios":"levelo://app?vid=a26e4937-215f-44d2-a8de-a7d3ec75d32b"},"vehicle_type_id":"4","last_reported":1761840800,"current_range_meters":0,"station_id":"","pricing_plan_id":"cebpf4jnsgd1na2vs0mg"},{"bike_id":"fadc4e19-b9ad-4402-a5bc-a0eff5c2b634","system_id":"levelo_inurba_marseille","lat":43.337444,"lon":5.374475,"is_reserved":false,"is_disabled":false,"rental_uris":{"android":"levelo://app?vid=fadc4e19-b9ad-4402-a5bc-a0eff5c2b634","ios":"levelo://app?vid=fadc4e19-b9ad-4402-a5bc-a0eff5c2b634"},"vehicle_type_id":"4","last_reported":1761840800,"current_range_meters":0,"station_id":"","pricing_plan_id":"cebpf4jnsgd1na2vs0mg"},{"bike_id":"e294c151-4441-4e4a-a116-13c66dfb9429","system_id":"levelo_inurba_marseille","lat":43.337444,"lon":5.374475,"is_reserved":false,"is_disabled":false,"rental_uris":{"android":"levelo://app?vid=e294c151-4441-4e4a-a116-13c66dfb9429","ios":"levelo://app?vid=e294c151-4441-4e4a-a116-13c66dfb9429"},"vehicle_type_id":"4","last_reported":1761840800,"current_range_meters":0,"station_id":"","pricing_plan_id":"cebpf4jnsgd1na2vs0mg"},{"bike_id":"0baff1cc-f548-40f7-a934-77958566d6a5","system_id":"levelo_inurba_marseille","lat":43.337444,"lon":5.374475,"is_reserved":false,"is_disabled":false,"rental_uris":{"android":"levelo://app?vid=0baff1cc-f548-40f7-a934-77958566d6a5","ios":"levelo://app?vid=0baff1cc-f548-40f7-a934-77958566d6a5"},"vehicle_type_id":"4","last_reported":1761840800,"current_range_meters":0,"station_id":"","pricing_plan_id":"cebpf4jnsgd1na2vs0mg"},{"bike_id":"1310c5d0-e39d-4b9c-84d7-1872f297ff18","system_id":"levelo_inurba_marseille","lat":43.337444,"lon":5.374475,"is_reserved":false,"is_disabled":false,"rental_uris":{"android":"levelo://app?vid=1310c5d0-e39d-4b9c-84d7-1872f297ff18","ios":"levelo://app?vid=1310c5d0-e39d-4b9c-84d7-1872f297ff18"},"vehicle_type_id":"4","last_reported":1761840800,"current_range_meters":0,"station_id":"","pricing_plan_id":"cebpf4jnsgd1na2vs0mg"},{"bike_id":"01eaacf7-8682-4054-bf38-52456d06e6f6","system_id":"levelo_inurba_marseille","lat":43.337444,"lon":5.374475,"is_reserved":false,"is_disabled":false,"rental_uris":{"android":"levelo://app?vid=01eaacf7-8682-4054-bf38-52456d06e6f6","ios":"levelo://app?vid=01eaacf7-8682-4054-bf38-52456d06e6f6"},"vehicle_type_id":"4","last_reported":1761840800,"current_range_meters":0,"station_id":"","pricing_plan_id":"cebpf4jnsgd1na2vs0mg"},{"bike_id":"4dbab57a-b708-409a-b815-3b9a5d92f753","system_id":"levelo_inurba_marseille","lat":43.337444,"lon":5.374475,"is_reserved":false,"is_disabled":false,"rental_uris":{"android":"levelo://app?vid=4dbab57a-b708-409a-b815-3b9a5d92f753","ios":"levelo://app?vid=4dbab57a-b708-409a-b815-3b9a5d92f753"},"vehicle_type_id":"4","last_reported":1761840800,"current_range_meters":0,"station_id":"","pricing_plan_id":"cebpf4jnsgd1na2vs0mg"},{"bike_id":"00f1260a-63f9-4663-ac1e-51258f9213bd","system_id":"levelo_inurba_marseille","lat":43.337444,"lon":5.374475,"is_reserved":false,"is_disabled":false,"rental_uris":{"android":"levelo://app?vid=00f1260a-63f9-4663-ac1e-51258f9213bd","ios":"levelo://app?vid=00f1260a-63f9-4663-ac1e-51258f9213bd"},"vehicle_type_id":"4","last_reported":1761840800,"current_range_meters":0,"station_id":"","pricing_plan_id":"cebpf4jnsgd1na2vs0mg"},{"bike_id":"50aa746e-d71a-437c-bb7a-ed648a03f81b","system_id":"levelo_inurba_marseille","lat":43.337444,"lon":5.374475,"is_reserved":false,"is_disabled":false,"rental_uris":{"android":"levelo://app?vid=50aa746e-d71a-437c-bb7a-ed648a03f81b","ios":"levelo://app?vid=50aa746e-d71a-437c-bb7a-ed648a03f81b"},"vehicle_type_id":"4","last_reported":1761840800,"current_range_meters":0,"station_id":"","pricing_plan_id":"cebpf4jnsgd1na2vs0mg"},{"bike_id":"3e68cf6e-17b6-46f5-8b08-d049449e0ca4","system_id":"levelo_inurba_marseille","lat":43.337444,"lon":5.374475,"is_reserved":false,"is_disabled":false,"rental_uris":{"android":"levelo://app?vid=3e68cf6e-17b6-46f5-8b08-d049449e0ca4","ios":"levelo://app?vid=3e68cf6e-17b6-46f5-8b08-d049449e0ca4"},"vehicle_type_id":"4","last_reported":1761840800,"current_range_meters":0,"station_id":"","pricing_plan_id":"cebpf4jnsgd1na2vs0mg"},{"bike_id":"b06c4997-7e4f-467a-922f-92f2f2e27e9d","system_id":"levelo_inurba_marseille","lat":43.337444,"lon":5.374475,"is_reserved":false,"is_disabled":false,"rental_uris":{"android":"levelo://app?vid=b06c4997-7e4f-467a-922f-92f2f2e27e9d","ios":"levelo://app?vid=b06c4997-7e4f-467a-922f-92f2f2e27e9d"},"vehicle_type_id":"4","last_reported":1761840800,"current_range_meters":0,"station_id":"","pricing_plan_id":"cebpf4jnsgd1na2vs0mg"},{"bike_id":"bb49b980-4cfb-49a5-9add-f3f9d4fc6db5","system_id":"levelo_inurba_marseille","lat":43.337444,"lon":5.374475,"is_reserved":false,"is_disabled":false,"rental_uris":{"android":"levelo://app?vid=bb49b980-4cfb-49a5-9add-f3f9d4fc6db5","ios":"levelo://app?vid=bb49b980-4cfb-49a5-9add-f3f9d4fc6db5"},"vehicle_type_id":"4","last_reported":1761840800,"current_range_meters":0,"station_id":"","pricing_plan_id":"cebpf4jnsgd1na2vs0mg"},{"bike_id":"b97206fc-6c94-4378-926a-a788d4f71c09","system_id":"levelo_inurba_marseille","lat":43.337444,"lon":5.374475,"is_reserved":false,"is_disabled":false,"rental_uris":{"android":"levelo://app?vid=b97206fc-6c94-4378-926a-a788d4f71c09","ios":"levelo://app?vid=b97206fc-6c94-4378-926a-a788d4f71c09"},"vehicle_type_id":"4","last_reported":1761840800,"current_range_meters":0,"station_id":"","pricing_plan_id":"cebpf4jnsgd1na2vs0mg"},{"bike_id":"37d7ebf5-2b3d-4af3-a7cd-4f29f464d5a0","system_id":"levelo_inurba_marseille","lat":43.337444,"lon":5.374475,"is_reserved":false,"is_disabled":false,"rental_uris":{"android":"levelo://app?vid=37d7ebf5-2b3d-4af3-a7cd-4f29f464d5a0","ios":"levelo://app?vid=37d7ebf5-2b3d-4af3-a7cd-4f29f464d5a0"},"vehicle_type_id":"4","last_reported":1761840800,"current_range_meters":0,"station_id":"","pricing_plan_id":"cebpf4jnsgd1na2vs0mg"},{"bike_id":"4ce4318f-b763-4325-8589-2aecbcc80add","system_id":"levelo_inurba_marseille","lat":43.337444,"lon":5.374475,"is_reserved":false,"is_disabled":false,"rental_uris":{"android":"levelo://app?vid=4ce4318f-b763-4325-8589-2aecbcc80add","ios":"levelo://app?vid=4ce4318f-b763-4325-8589-2aecbcc80add"},"vehicle_type_id":"4","last_reported":1761840800,"current_range_meters":0,"station_id":"","pricing_plan_id":"cebpf4jnsgd1na2vs0mg"},{"bike_id":"a6a3a590-5c2a-4683-a516-e9f5572de0f8","system_id":"levelo_inurba_marseille","lat":43.337444,"lon":5.374475,"is_reserved":false,"is_disabled":false,"rental_uris":{"android":"levelo://app?vid=a6a3a590-5c2a-4683-a516-e9f5572de0f8","ios":"levelo://app?vid=a6a3a590-5c2a-4683-a516-e9f5572de0f8"},"vehicle_type_id":"4","last_reported":1761840800,"current_range_meters":0,"station_id":"","pricing_plan_id":"cebpf4jnsgd1na2vs0mg"},{"bike_id":"111bdd74-3ae9-48f5-979c-2e177e7747d9","system_id":"levelo_inurba_marseille","lat":43.337444,"lon":5.374475,"is_reserved":false,"is_disabled":false,"rental_uris":{"android":"levelo://app?vid=111bdd74-3ae9-48f5-979c-2e177e7747d9","ios":"levelo://app?vid=111bdd74-3ae9-48f5-979c-2e177e7747d9"},"vehicle_type_id":"4","last_reported":1761840800,"current_range_meters":0,"station_id":"","pricing_plan_id":"cebpf4jnsgd1na2vs0mg"},{"bike_id":"b9d871b8-65b0-40af-afa3-0bf2492a45a9","system_id":"levelo_inurba_marseille","lat":43.337444,"lon":5.374475,"is_reserved":false,"is_disabled":false,"rental_uris":{"android":"levelo://app?vid=b9d871b8-65b0-40af-afa3-0bf2492a45a9","ios":"levelo://app?vid=b9d871b8-65b0-40af-afa3-0bf2492a45a9"},"vehicle_type_id":"4","last_reported":1761840800,"current_range_meters":0,"station_id":"","pricing_plan_id":"cebpf4jnsgd1na2vs0mg"},{"bike_id":"5bec735e-fcf4-48c7-8bdc-29590fc410b1","system_id":"levelo_inurba_marseille","lat":43.337444,"lon":5.374475,"is_reserved":false,"is_disabled":false,"rental_uris":{"android":"levelo://app?vid=5bec735e-fcf4-48c7-8bdc-29590fc410b1","ios":"levelo://app?vid=5bec735e-fcf4-48c7-8bdc-29590fc410b1"},"vehicle_type_id":"4","last_reported":1761840800,"current_range_meters":0,"station_id":"","pricing_plan_id":"cebpf4jnsgd1na2vs0mg"},{"bike_id":"026e76ec-bb30-48a3-8407-a17635ff5e4d","system_id":"levelo_inurba_marseille","lat":43.337444,"lon":5.374475,"is_reserved":false,"is_disabled":false,"rental_uris":{"android":"levelo://app?vid=026e76ec-bb30-48a3-8407-a17635ff5e4d","ios":"levelo://app?vid=026e76ec-bb30-48a3-8407-a17635ff5e4d"},"vehicle_type_id":"4","last_reported":1761840800,"current_range_meters":0,"station_id":"","pricing_plan_id":"cebpf4jnsgd1na2vs0mg"},{"bike_id":"46d34bff-7ac4-476c-bd3e-8e7dba53c807","system_id":"levelo_inurba_marseille","lat":43.337444,"lon":5.374475,"is_reserved":false,"is_disabled":false,"rental_uris":{"android":"levelo://app?vid=46d34bff-7ac4-476c-bd3e-8e7dba53c807","ios":"levelo://app?vid=46d34bff-7ac4-476c-bd3e-8e7dba53c807"},"vehicle_type_id":"4","last_reported":1761840800,"current_range_meters":0,"station_id":"","pricing_plan_id":"cebpf4jnsgd1na2vs0mg"},{"bike_id":"2c7e37d6-d4ca-47ae-a0e0-a648dd4e1706","system_id":"levelo_inurba_marseille","lat":43.337444,"lon":5.374475,"is_reserved":false,"is_disabled":false,"rental_uris":{"android":"levelo://app?vid=2c7e37d6-d4ca-47ae-a0e0-a648dd4e1706","ios":"levelo://app?vid=2c7e37d6-d4ca-47ae-a0e0-a648dd4e1706"},"vehicle_type_id":"4","last_reported":1761840800,"current_range_meters":0,"station_id":"","pricing_plan_id":"cebpf4jnsgd1na2vs0mg"},{"bike_id":"94eee6a6-2463-4d2a-b222-3ef19356212a","system_id":"levelo_inurba_marseille","lat":43.337444,"lon":5.374475,"is_reserved":false,"is_disabled":false,"rental_uris":{"android":"levelo://app?vid=94eee6a6-2463-4d2a-b222-3ef19356212a","ios":"levelo://app?vid=94eee6a6-2463-4d2a-b222-3ef19356212a"},"vehicle_type_id":"4","last_reported":1761840800,"current_range_meters":0,"station_id":"","pricing_plan_id":"cebpf4jnsgd1na2vs0mg"},{"bike_id":"4592e008-320c-4bcd-ae3b-d140e613f684","system_id":"levelo_inurba_marseille","lat":43.337444,"lon":5.374475,"is_reserved":false,"is_disabled":false,"rental_uris":{"android":"levelo://app?vid=4592e008-320c-4bcd-ae3b-d140e613f684","ios":"levelo://app?vid=4592e008-320c-4bcd-ae3b-d140e613f684"},"vehicle_type_id":"4","last_reported":1761840800,"current_range_meters":0,"station_id":"","pricing_plan_id":"cebpf4jnsgd1na2vs0mg"},{"bike_id":"5807ce94-1b62-42db-8c77-9488accc83d5","system_id":"levelo_inurba_marseille","lat":43.337444,"lon":5.374475,"is_reserved":false,"is_disabled":false,"rental_uris":{"android":"levelo://app?vid=5807ce94-1b62-42db-8c77-9488accc83d5","ios":"levelo://app?vid=5807ce94-1b62-42db-8c77-9488accc83d5"},"vehicle_type_id":"4","last_reported":1761840800,"current_range_meters":0,"station_id":"","pricing_plan_id":"cebpf4jnsgd1na2vs0mg"},{"bike_id":"7078a501-3fa0-438e-9988-f0799b0e1d6d","system_id":"levelo_inurba_marseille","lat":43.295776,"lon":5.375229,"is_reserved":false,"is_disabled":false,"rental_uris":{"android":"levelo://app?vid=7078a501-3fa0-438e-9988-f0799b0e1d6d","ios":"levelo://app?vid=7078a501-3fa0-438e-9988-f0799b0e1d6d"},"vehicle_type_id":"4","last_reported":1761840800,"current_range_meters":2800,"station_id":"","pricing_plan_id":"cebpf4jnsgd1na2vs0mg"},{"bike_id":"ebe01ff8-3c2c-48ff-a7a8-62c283ffec23","system_id":"levelo_inurba_marseille","lat":43.29264,"lon":5.38439,"is_reserved":false,"is_disabled":false,"rental_uris":{"android":"levelo://app?vid=ebe01ff8-3c2c-48ff-a7a8-62c283ffec23","ios":"levelo://app?vid=ebe01ff8-3c2c-48ff-a7a8-62c283ffec23"},"vehicle_type_id":"4","last_reported":1761840800,"current_range_meters":2800,"station_id":"ce4bh692rcd13ifvqea0","pricing_plan_id":"cebpf4jnsgd1na2vs0mg"},{"bike_id":"dce179ca-85bd-4799-b0c4-79f7540f6db6","system_id":"levelo_inurba_marseille","lat":43.28707,"lon":5.37391,"is_reserved":false,"is_disabled":false,"rental_uris":{"android":"levelo://app?vid=dce179ca-85bd-4799-b0c4-79f7540f6db6","ios":"levelo://app?vid=dce179ca-85bd-4799-b0c4-79f7540f6db6"},"vehicle_type_id":"4","last_reported":1761840800,"current_range_meters":2800,"station_id":"ce4bh3p2rcd13ifvqdq0","pricing_plan_id":"cebpf4jnsgd1na2vs0mg"},{"bike_id":"eb8f13ff-065d-4e4e-b5e0-9c6d6156824b","system_id":"levelo_inurba_marseille","lat":43.21189,"lon":5.35083,"is_reserved":false,"is_disabled":false,"rental_uris":{"android":"levelo://app?vid=eb8f13ff-065d-4e4e-b5e0-9c6d6156824b","ios":"levelo://app?vid=eb8f13ff-065d-4e4e-b5e0-9c6d6156824b"},"vehicle_type_id":"4","last_reported":1761840800,"current_range_meters":2800,"station_id":"st_cvj6sg6p6f1abm77japg","pricing_plan_id":"cebpf4jnsgd1na2vs0mg"},{"bike_id":"28f72888-df1c-4589-a9d2-57b8f5fc1324","system_id":"levelo_inurba_marseille","lat":43.292949,"lon":5.37462,"is_reserved":false,"is_disabled":false,"rental_uris":{"android":"levelo://app?vid=28f72888-df1c-4589-a9d2-57b8f5fc1324","ios":"levelo://app?vid=28f72888-df1c-4589-a9d2-57b8f5fc1324"},"vehicle_type_id":"4","last_reported":1761840800,"current_range_meters":2800,"station_id":"ce4bgi12rcd13ifvqb70","pricing_plan_id":"cebpf4jnsgd1na2vs0mg"},{"bike_id":"eeac5c68-e59a-45ed-ab07-29f709eaf3ea","system_id":"levelo_inurba_marseille","lat":43.30774,"lon":5.40287,"is_reserved":false,"is_disabled":false,"rental_uris":{"android":"levelo://app?vid=eeac5c68-e59a-45ed-ab07-29f709eaf3ea","ios":"levelo://app?vid=eeac5c68-e59a-45ed-ab07-29f709eaf3ea"},"vehicle_type_id":"4","last_reported":1761840800,"current_range_meters":3200,"station_id":"","pricing_plan_id":"cebpf4jnsgd1na2vs0mg"},{"bike_id":"c06be8ce-2470-411f-a065-6dff01c731ed","system_id":"levelo_inurba_marseille","lat":43.31704,"lon":5.43787,"is_reserved":false,"is_disabled":false,"rental_uris":{"android":"levelo://app?vid=c06be8ce-2470-411f-a065-6dff01c731ed","ios":"levelo://app?vid=c06be8ce-2470-411f-a065-6dff01c731ed"},"vehicle_type_id":"4","last_reported":1761840800,"current_range_meters":3200,"station_id":"","pricing_plan_id":"cebpf4jnsgd1na2vs0mg"},{"bike_id":"ba7f280a-0427-4f03-ae24-16833c309ee2","system_id":"levelo_inurba_marseille","lat":43.29906,"lon":5.43659,"is_reserved":false,"is_disabled":false,"rental_uris":{"android":"levelo://app?vid=ba7f280a-0427-4f03-ae24-16833c309ee2","ios":"levelo://app?vid=ba7f280a-0427-4f03-ae24-16833c309ee2"},"vehicle_type_id":"4","last_reported":1761840800,"current_range_meters":3200,"station_id":"ce4bhpp2rcd13ifvqhfg","pricing_plan_id":"cebpf4jnsgd1na2vs0mg"},{"bike_id":"405325d8-c03c-4a6e-a576-6d767f0eedfe","system_id":"levelo_inurba_marseille","lat":43.27317,"lon":5.39077,"is_reserved":false,"is_disabled":false,"rental_uris":{"android":"levelo://app?vid=405325d8-c03c-4a6e-a576-6d767f0eedfe","ios":"levelo://app?vid=405325d8-c03c-4a6e-a576-6d767f0eedfe"},"vehicle_type_id":"4","last_reported":1761840800,"current_range_meters":3600,"station_id":"ce4bhgp2rcd13ifvqfe0","pricing_plan_id":"cebpf4jnsgd1na2vs0mg"},{"bike_id":"42673695-35eb-43c8-960a-3d0d776b753c","system_id":"levelo_inurba_marseille","lat":43.284081,"lon":5.375017,"is_reserved":false,"is_disabled":true,"rental_uris":{"android":"levelo://app?vid=42673695-35eb-43c8-960a-3d0d776b753c","ios":"levelo://app?vid=42673695-35eb-43c8-960a-3d0d776b753c"},"vehicle_type_id":"4","last_reported":1761840800,"current_range_meters":3600,"station_id":"","pricing_plan_id":"cebpf4jnsgd1na2vs0mg"},{"bike_id":"d5ca831f-8041-403e-ada8-7b4196c3d5be","system_id":"levelo_inurba_marseille","lat":43.293714,"lon":5.379385,"is_reserved":false,"is_disabled":false,"rental_uris":{"android":"levelo://app?vid=d5ca831f-8041-403e-ada8-7b4196c3d5be","ios":"levelo://app?vid=d5ca831f-8041-403e-ada8-7b4196c3d5be"},"vehicle_type_id":"4","last_reported":1761840800,"current_range_meters":3600,"station_id":"","pricing_plan_id":"cebpf4jnsgd1na2vs0mg"},{"bike_id":"9a0b4949-effe-48a4-aa9c-bde3eaca8d2e","system_id":"levelo_inurba_marseille","lat":43.29272,"lon":5.38438,"is_reserved":false,"is_disabled":false,"rental_uris":{"android":"levelo://app?vid=9a0b4949-effe-48a4-aa9c-bde3eaca8d2e","ios":"levelo://app?vid=9a0b4949-effe-48a4-aa9c-bde3eaca8d2e"},"vehicle_type_id":"4","last_reported":1761840800,"current_range_meters":3600,"station_id":"ce4bh692rcd13ifvqea0","pricing_plan_id":"cebpf4jnsgd1na2vs0mg"},{"bike_id":"e63f9cc5-84ea-4b6f-bb7d-a0d0ebca342a","system_id":"levelo_inurba_marseille","lat":43.22932,"lon":5.35377,"is_reserved":false,"is_disabled":false,"rental_uris":{"android":"levelo://app?vid=e63f9cc5-84ea-4b6f-bb7d-a0d0ebca342a","ios":"levelo://app?vid=e63f9cc5-84ea-4b6f-bb7d-a0d0ebca342a"},"vehicle_type_id":"4","last_reported":1761840800,"current_range_meters":4000,"station_id":"cpo3532slgdg3j2ikp40","pricing_plan_id":"cebpf4jnsgd1na2vs0mg"},{"bike_id":"50d940b6-4375-4d29-a8ce-85543b9de9c3","system_id":"levelo_inurba_marseille","lat":43.32109,"lon":5.3677,"is_reserved":false,"is_disabled":false,"rental_uris":{"android":"levelo://app?vid=50d940b6-4375-4d29-a8ce-85543b9de9c3","ios":"levelo://app?vid=50d940b6-4375-4d29-a8ce-85543b9de9c3"},"vehicle_type_id":"4","last_reported":1761840800,"current_range_meters":4000,"station_id":"ce4bhrh2rcd13ifvqhug","pricing_plan_id":"cebpf4jnsgd1na2vs0mg"},{"bike_id":"6cf957d5-9d30-413b-9bf4-83181ad5e52f","system_id":"levelo_inurba_marseille","lat":43.217712,"lon":5.345978,"is_reserved":false,"is_disabled":false,"rental_uris":{"android":"levelo://app?vid=6cf957d5-9d30-413b-9bf4-83181ad5e52f","ios":"levelo://app?vid=6cf957d5-9d30-413b-9bf4-83181ad5e52f"},"vehicle_type_id":"4","last_reported":1761840800,"current_range_meters":4400,"station_id":"","pricing_plan_id":"cebpf4jnsgd1na2vs0mg"},{"bike_id":"ce9d1214-ab90-4d91-a5dd-ed88d991721d","system_id":"levelo_inurba_marseille","lat":43.24635,"lon":5.43151,"is_reserved":false,"is_disabled":false,"rental_uris":{"android":"levelo://app?vid=ce9d1214-ab90-4d91-a5dd-ed88d991721d","ios":"levelo://app?vid=ce9d1214-ab90-4d91-a5dd-ed88d991721d"},"vehicle_type_id":"4","last_reported":1761840800,"current_range_meters":4400,"station_id":"st_d2m6c4gdas8pm72e190g","pricing_plan_id":"cebpf4jnsgd1na2vs0mg"},{"bike_id":"83e39cb3-b6cf-49b0-bff6-760d7a010c53","system_id":"levelo_inurba_marseille","lat":43.28665,"lon":5.3635,"is_reserved":false,"is_disabled":false,"rental_uris":{"android":"levelo://app?vid=83e39cb3-b6cf-49b0-bff6-760d7a010c53","ios":"levelo://app?vid=83e39cb3-b6cf-49b0-bff6-760d7a010c53"},"vehicle_type_id":"4","last_reported":1761840800,"current_range_meters":4400,"station_id":"ce4bhah2rcd13ifvqej0","pricing_plan_id":"cebpf4jnsgd1na2vs0mg"},{"bike_id":"e90d1f15-d334-4125-a386-80a108cbf2cd","system_id":"levelo_inurba_marseille","lat":43.29205,"lon":5.39329,"is_reserved":false,"is_disabled":false,"rental_uris":{"android":"levelo://app?vid=e90d1f15-d334-4125-a386-80a108cbf2cd","ios":"levelo://app?vid=e90d1f15-d334-4125-a386-80a108cbf2cd"},"vehicle_type_id":"4","last_reported":1761840800,"current_range_meters":4400,"station_id":"ce4bh192rcd13ifvqdd0","pricing_plan_id":"cebpf4jnsgd1na2vs0mg"},{"bike_id":"3c26ee23-6e9a-484c-91bb-10925ddf818f","system_id":"levelo_inurba_marseille","lat":43.29714,"lon":5.36613,"is_reserved":false,"is_disabled":false,"rental_uris":{"android":"levelo://app?vid=3c26ee23-6e9a-484c-91bb-10925ddf818f","ios":"levelo://app?vid=3c26ee23-6e9a-484c-91bb-10925ddf818f"},"vehicle_type_id":"4","last_reported":1761840800,"current_range_meters":4400,"station_id":"ce4bgn12rcd13ifvqbt0","pricing_plan_id":"cebpf4jnsgd1na2vs0mg"},{"bike_id":"332e8338-6599-47e1-b753-f9e0949cfd30","system_id":"levelo_inurba_marseille","lat":43.29599,"lon":5.38103,"is_reserved":false,"is_disabled":false,"rental_uris":{"android":"levelo://app?vid=332e8338-6599-47e1-b753-f9e0949cfd30","ios":"levelo://app?vid=332e8338-6599-47e1-b753-f9e0949cfd30"},"vehicle_type_id":"4","last_reported":1761840800,"current_range_meters":4400,"station_id":"ce4bgl12rcd13ifvqbo0","pricing_plan_id":"cebpf4jnsgd1na2vs0mg"},{"bike_id":"ead59928-e84c-47f1-972d-8178cd242b52","system_id":"levelo_inurba_marseille","lat":43.29961,"lon":5.38502,"is_reserved":false,"is_disabled":false,"rental_uris":{"android":"levelo://app?vid=ead59928-e84c-47f1-972d-8178cd242b52","ios":"levelo://app?vid=ead59928-e84c-47f1-972d-8178cd242b52"},"vehicle_type_id":"4","last_reported":1761840800,"current_range_meters":4800,"station_id":"ce4bgj92rcd13ifvqbd0","pricing_plan_id":"cebpf4jnsgd1na2vs0mg"},{"bike_id":"f6adb9c1-4a78-4322-baec-aa5f6f5d93b6","system_id":"levelo_inurba_marseille","lat":43.33766,"lon":5.37431,"is_reserved":false,"is_disabled":false,"rental_uris":{"android":"levelo://app?vid=f6adb9c1-4a78-4322-baec-aa5f6f5d93b6","ios":"levelo://app?vid=f6adb9c1-4a78-4322-baec-aa5f6f5d93b6"},"vehicle_type_id":"4","last_reported":1761840800,"current_range_meters":4800,"station_id":"","pricing_plan_id":"cebpf4jnsgd1na2vs0mg"},{"bike_id":"df4a7072-9a99-4388-960f-688f83a92f17","system_id":"levelo_inurba_marseille","lat":43.29575,"lon":5.42287,"is_reserved":false,"is_disabled":false,"rental_uris":{"android":"levelo://app?vid=df4a7072-9a99-4388-960f-688f83a92f17","ios":"levelo://app?vid=df4a7072-9a99-4388-960f-688f83a92f17"},"vehicle_type_id":"4","last_reported":1761840800,"current_range_meters":5600,"station_id":"ce4bhph2rcd13ifvqhdg","pricing_plan_id":"cebpf4jnsgd1na2vs0mg"},{"bike_id":"f1e34f19-c7b9-4b80-a8cc-b830c59016a0","system_id":"levelo_inurba_marseille","lat":43.287415,"lon":5.4047,"is_reserved":false,"is_disabled":false,"rental_uris":{"android":"levelo://app?vid=f1e34f19-c7b9-4b80-a8cc-b830c59016a0","ios":"levelo://app?vid=f1e34f19-c7b9-4b80-a8cc-b830c59016a0"},"vehicle_type_id":"4","last_reported":1761840800,"current_range_meters":5600,"station_id":"ce4bh412rcd13ifvqds0","pricing_plan_id":"cebpf4jnsgd1na2vs0mg"},{"bike_id":"2b63857f-2181-4a67-b424-d3d57de510db","system_id":"levelo_inurba_marseille","lat":43.292,"lon":5.39328,"is_reserved":false,"is_disabled":false,"rental_uris":{"android":"levelo://app?vid=2b63857f-2181-4a67-b424-d3d57de510db","ios":"levelo://app?vid=2b63857f-2181-4a67-b424-d3d57de510db"},"vehicle_type_id":"4","last_reported":1761840800,"current_range_meters":5600,"station_id":"ce4bh192rcd13ifvqdd0","pricing_plan_id":"cebpf4jnsgd1na2vs0mg"},{"bike_id":"5cb3f363-ac2f-4bc2-ad50-da3965e1e89b","system_id":"levelo_inurba_marseille","lat":43.24558,"lon":5.41611,"is_reserved":false,"is_disabled":false,"rental_uris":{"android":"levelo://app?vid=5cb3f363-ac2f-4bc2-ad50-da3965e1e89b","ios":"levelo://app?vid=5cb3f363-ac2f-4bc2-ad50-da3965e1e89b"},"vehicle_type_id":"4","last_reported":1761840800,"current_range_meters":5600,"station_id":"","pricing_plan_id":"cebpf4jnsgd1na2vs0mg"},{"bike_id":"e630aa76-7911-438d-a389-e51af5eed725","system_id":"levelo_inurba_marseille","lat":43.24662,"lon":5.38169,"is_reserved":false,"is_disabled":false,"rental_uris":{"android":"levelo://app?vid=e630aa76-7911-438d-a389-e51af5eed725","ios":"levelo://app?vid=e630aa76-7911-438d-a389-e51af5eed725"},"vehicle_type_id":"4","last_reported":1761840800,"current_range_meters":6000,"station_id":"ce4bhih2rcd13ifvqfr0","pricing_plan_id":"cebpf4jnsgd1na2vs0mg"},{"bike_id":"d2ca4ca9-c3cf-4df9-936a-55c585554146","system_id":"levelo_inurba_marseille","lat":43.22563,"lon":5.41628,"is_reserved":false,"is_disabled":false,"rental_uris":{"android":"levelo://app?vid=d2ca4ca9-c3cf-4df9-936a-55c585554146","ios":"levelo://app?vid=d2ca4ca9-c3cf-4df9-936a-55c585554146"},"vehicle_type_id":"4","last_reported":1761840800,"current_range_meters":6000,"station_id":"st_d2o4gvlbi1j2169b742g","pricing_plan_id":"cebpf4jnsgd1na2vs0mg"},{"bike_id":"051913dc-42b2-4e4e-a8d6-f6067fc22a27","system_id":"levelo_inurba_marseille","lat":43.28707,"lon":5.37404,"is_reserved":false,"is_disabled":false,"rental_uris":{"android":"levelo://app?vid=051913dc-42b2-4e4e-a8d6-f6067fc22a27","ios":"levelo://app?vid=051913dc-42b2-4e4e-a8d6-f6067fc22a27"},"vehicle_type_id":"4","last_reported":1761840800,"current_range_meters":6000,"station_id":"ce4bh3p2rcd13ifvqdq0","pricing_plan_id":"cebpf4jnsgd1na2vs0mg"},{"bike_id":"ae8ebe94-fc0f-4409-8f77-39eb5c613a67","system_id":"levelo_inurba_marseille","lat":43.337444,"lon":5.374475,"is_reserved":false,"is_disabled":false,"rental_uris":{"android":"levelo://app?vid=ae8ebe94-fc0f-4409-8f77-39eb5c613a67","ios":"levelo://app?vid=ae8ebe94-fc0f-4409-8f77-39eb5c613a67"},"vehicle_type_id":"4","last_reported":1761840800,"current_range_meters":6400,"station_id":"","pricing_plan_id":"cebpf4jnsgd1na2vs0mg"},{"bike_id":"15b73920-3121-43bf-9d1a-dec32adf6b33","system_id":"levelo_inurba_marseille","lat":43.276168,"lon":5.361018,"is_reserved":false,"is_disabled":false,"rental_uris":{"android":"levelo://app?vid=15b73920-3121-43bf-9d1a-dec32adf6b33","ios":"levelo://app?vid=15b73920-3121-43bf-9d1a-dec32adf6b33"},"vehicle_type_id":"4","last_reported":1761840800,"current_range_meters":6400,"station_id":"ce4bgj92rcd13ifvqbe0","pricing_plan_id":"cebpf4jnsgd1na2vs0mg"},{"bike_id":"f81578a6-d747-4b82-a409-b0cf9c41f8a8","system_id":"levelo_inurba_marseille","lat":43.26216,"lon":5.37928,"is_reserved":false,"is_disabled":false,"rental_uris":{"android":"levelo://app?vid=f81578a6-d747-4b82-a409-b0cf9c41f8a8","ios":"levelo://app?vid=f81578a6-d747-4b82-a409-b0cf9c41f8a8"},"vehicle_type_id":"4","last_reported":1761840800,"current_range_meters":6400,"station_id":"ce4bhjp2rcd13ifvqg90","pricing_plan_id":"cebpf4jnsgd1na2vs0mg"},{"bike_id":"e77eb836-aa3e-45d2-ba35-542917b8eb1c","system_id":"levelo_inurba_marseille","lat":43.3133,"lon":5.39692,"is_reserved":false,"is_disabled":false,"rental_uris":{"android":"levelo://app?vid=e77eb836-aa3e-45d2-ba35-542917b8eb1c","ios":"levelo://app?vid=e77eb836-aa3e-45d2-ba35-542917b8eb1c"},"vehicle_type_id":"4","last_reported":1761840800,"current_range_meters":6400,"station_id":"ce4bgvp2rcd13ifvqcu0","pricing_plan_id":"cebpf4jnsgd1na2vs0mg"},{"bike_id":"fa74ee88-1934-48b3-b69d-6b920facf8a5","system_id":"levelo_inurba_marseille","lat":43.31484,"lon":5.37312,"is_reserved":false,"is_disabled":false,"rental_uris":{"android":"levelo://app?vid=fa74ee88-1934-48b3-b69d-6b920facf8a5","ios":"levelo://app?vid=fa74ee88-1934-48b3-b69d-6b920facf8a5"},"vehicle_type_id":"4","last_reported":1761840800,"current_range_meters":6400,"station_id":"ce4bgt12rcd13ifvqcd0","pricing_plan_id":"cebpf4jnsgd1na2vs0mg"},{"bike_id":"4ef307fa-e21a-40e9-959a-f60793152a45","system_id":"levelo_inurba_marseille","lat":43.26593,"lon":5.39039,"is_reserved":false,"is_disabled":false,"rental_uris":{"android":"levelo://app?vid=4ef307fa-e21a-40e9-959a-f60793152a45","ios":"levelo://app?vid=4ef307fa-e21a-40e9-959a-f60793152a45"},"vehicle_type_id":"4","last_reported":1761840800,"current_range_meters":6400,"station_id":"ce4bhe12rcd13ifvqf30","pricing_plan_id":"cebpf4jnsgd1na2vs0mg"},{"bike_id":"a31599bb-07d8-427f-b328-1e11ec8cac5b","system_id":"levelo_inurba_marseille","lat":43.24082,"lon":5.37755,"is_reserved":false,"is_disabled":false,"rental_uris":{"android":"levelo://app?vid=a31599bb-07d8-427f-b328-1e11ec8cac5b","ios":"levelo://app?vid=a31599bb-07d8-427f-b328-1e11ec8cac5b"},"vehicle_type_id":"4","last_reported":1761840800,"current_range_meters":6400,"station_id":"ce4bhnp2rcd13ifvqgvg","pricing_plan_id":"cebpf4jnsgd1na2vs0mg"},{"bike_id":"e127be25-73d3-460e-8803-0e1fff25cf49","system_id":"levelo_inurba_marseille","lat":43.30158,"lon":5.38803,"is_reserved":false,"is_disabled":false,"rental_uris":{"android":"levelo://app?vid=e127be25-73d3-460e-8803-0e1fff25cf49","ios":"levelo://app?vid=e127be25-73d3-460e-8803-0e1fff25cf49"},"vehicle_type_id":"4","last_reported":1761840800,"current_range_meters":6800,"station_id":"ce4bghh2rcd13ifvqb60","pricing_plan_id":"cebpf4jnsgd1na2vs0mg"},{"bike_id":"8cf7e467-ca97-4c6e-87ff-1cd579b39787","system_id":"levelo_inurba_marseille","lat":43.3121,"lon":5.36788,"is_reserved":false,"is_disabled":false,"rental_uris":{"android":"levelo://app?vid=8cf7e467-ca97-4c6e-87ff-1cd579b39787","ios":"levelo://app?vid=8cf7e467-ca97-4c6e-87ff-1cd579b39787"},"vehicle_type_id":"4","last_reported":1761840800,"current_range_meters":7200,"station_id":"","pricing_plan_id":"cebpf4jnsgd1na2vs0mg"},{"bike_id":"bb3c1118-6a26-4232-9aa2-5f3833c426fb","system_id":"levelo_inurba_marseille","lat":43.24665,"lon":5.38172,"is_reserved":false,"is_disabled":false,"rental_uris":{"android":"levelo://app?vid=bb3c1118-6a26-4232-9aa2-5f3833c426fb","ios":"levelo://app?vid=bb3c1118-6a26-4232-9aa2-5f3833c426fb"},"vehicle_type_id":"4","last_reported":1761840800,"current_range_meters":8000,"station_id":"ce4bhih2rcd13ifvqfr0","pricing_plan_id":"cebpf4jnsgd1na2vs0mg"},{"bike_id":"6ff98c49-df16-4063-b8b3-f38b3c5e0783","system_id":"levelo_inurba_marseille","lat":43.30101,"lon":5.39075,"is_reserved":false,"is_disabled":false,"rental_uris":{"android":"levelo://app?vid=6ff98c49-df16-4063-b8b3-f38b3c5e0783","ios":"levelo://app?vid=6ff98c49-df16-4063-b8b3-f38b3c5e0783"},"vehicle_type_id":"4","last_reported":1761840800,"current_range_meters":8400,"station_id":"ce4bh192rcd13ifvqdb0","pricing_plan_id":"cebpf4jnsgd1na2vs0mg"},{"bike_id":"64b6a00f-c8cf-4d57-b266-bd0bc30be1ad","system_id":"levelo_inurba_marseille","lat":43.2836,"lon":5.38641,"is_reserved":false,"is_disabled":false,"rental_uris":{"android":"levelo://app?vid=64b6a00f-c8cf-4d57-b266-bd0bc30be1ad","ios":"levelo://app?vid=64b6a00f-c8cf-4d57-b266-bd0bc30be1ad"},"vehicle_type_id":"4","last_reported":1761840800,"current_range_meters":8400,"station_id":"ce4bh492rcd13ifvqdvg","pricing_plan_id":"cebpf4jnsgd1na2vs0mg"},{"bike_id":"45a76be9-6001-45dd-8819-954d54fcc49e","system_id":"levelo_inurba_marseille","lat":43.26577,"lon":5.39018,"is_reserved":false,"is_disabled":false,"rental_uris":{"android":"levelo://app?vid=45a76be9-6001-45dd-8819-954d54fcc49e","ios":"levelo://app?vid=45a76be9-6001-45dd-8819-954d54fcc49e"},"vehicle_type_id":"4","last_reported":1761840800,"current_range_meters":8400,"station_id":"ce4bhe12rcd13ifvqf30","pricing_plan_id":"cebpf4jnsgd1na2vs0mg"},{"bike_id":"c7065131-a204-4205-b7ae-ded5f228f892","system_id":"levelo_inurba_marseille","lat":43.2949,"lon":5.43312,"is_reserved":false,"is_disabled":false,"rental_uris":{"android":"levelo://app?vid=c7065131-a204-4205-b7ae-ded5f228f892","ios":"levelo://app?vid=c7065131-a204-4205-b7ae-ded5f228f892"},"vehicle_type_id":"4","last_reported":1761840800,"current_range_meters":8800,"station_id":"st_d3j5ugp08ojc73fj9d10","pricing_plan_id":"cebpf4jnsgd1na2vs0mg"},{"bike_id":"4644b8ac-affa-4d50-b2ae-974d32d38290","system_id":"levelo_inurba_marseille","lat":43.30802,"lon":5.43532,"is_reserved":false,"is_disabled":false,"rental_uris":{"android":"levelo://app?vid=4644b8ac-affa-4d50-b2ae-974d32d38290","ios":"levelo://app?vid=4644b8ac-affa-4d50-b2ae-974d32d38290"},"vehicle_type_id":"4","last_reported":1761840800,"current_range_meters":8800,"station_id":"","pricing_plan_id":"cebpf4jnsgd1na2vs0mg"},{"bike_id":"faee4aed-34d1-4e59-9f3e-bc2337688920","system_id":"levelo_inurba_marseille","lat":43.3172,"lon":5.43703,"is_reserved":false,"is_disabled":true,"rental_uris":{"android":"levelo://app?vid=faee4aed-34d1-4e59-9f3e-bc2337688920","ios":"levelo://app?vid=faee4aed-34d1-4e59-9f3e-bc2337688920"},"vehicle_type_id":"4","last_reported":1761840800,"current_range_meters":8800,"station_id":"ce4bhp92rcd13ifvqhcg","pricing_plan_id":"cebpf4jnsgd1na2vs0mg"},{"bike_id":"122b8fa3-48aa-4896-8499-9d05cff3be98","system_id":"levelo_inurba_marseille","lat":43.30269,"lon":5.37724,"is_reserved":false,"is_disabled":false,"rental_uris":{"android":"levelo://app?vid=122b8fa3-48aa-4896-8499-9d05cff3be98","ios":"levelo://app?vid=122b8fa3-48aa-4896-8499-9d05cff3be98"},"vehicle_type_id":"4","last_reported":1761840800,"current_range_meters":9200,"station_id":"ce4bguh2rcd13ifvqcj0","pricing_plan_id":"cebpf4jnsgd1na2vs0mg"},{"bike_id":"8c830576-9a11-4ace-905f-fcf50c13e22a","system_id":"levelo_inurba_marseille","lat":43.31268,"lon":5.36811,"is_reserved":false,"is_disabled":false,"rental_uris":{"android":"levelo://app?vid=8c830576-9a11-4ace-905f-fcf50c13e22a","ios":"levelo://app?vid=8c830576-9a11-4ace-905f-fcf50c13e22a"},"vehicle_type_id":"4","last_reported":1761840800,"current_range_meters":9200,"station_id":"","pricing_plan_id":"cebpf4jnsgd1na2vs0mg"},{"bike_id":"99cb73ed-3c17-4e5c-a8ba-a44aedd6810f","system_id":"levelo_inurba_marseille","lat":43.29265,"lon":5.37624,"is_reserved":false,"is_disabled":false,"rental_uris":{"android":"levelo://app?vid=99cb73ed-3c17-4e5c-a8ba-a44aedd6810f","ios":"levelo://app?vid=99cb73ed-3c17-4e5c-a8ba-a44aedd6810f"},"vehicle_type_id":"4","last_reported":1761840800,"current_range_meters":9200,"station_id":"ce4bgi12rcd13ifvqb80","pricing_plan_id":"cebpf4jnsgd1na2vs0mg"},{"bike_id":"ab136956-9bee-4a88-837f-77edf78d5343","system_id":"levelo_inurba_marseille","lat":43.261988,"lon":5.37936,"is_reserved":false,"is_disabled":false,"rental_uris":{"android":"levelo://app?vid=ab136956-9bee-4a88-837f-77edf78d5343","ios":"levelo://app?vid=ab136956-9bee-4a88-837f-77edf78d5343"},"vehicle_type_id":"4","last_reported":1761840800,"current_range_meters":9600,"station_id":"ce4bhjp2rcd13ifvqg90","pricing_plan_id":"cebpf4jnsgd1na2vs0mg"},{"bike_id":"e4d22b0d-e37e-4178-b50f-b7559ecae206","system_id":"levelo_inurba_marseille","lat":43.29853,"lon":5.36292,"is_reserved":false,"is_disabled":false,"rental_uris":{"android":"levelo://app?vid=e4d22b0d-e37e-4178-b50f-b7559ecae206","ios":"levelo://app?vid=e4d22b0d-e37e-4178-b50f-b7559ecae206"},"vehicle_type_id":"4","last_reported":1761840800,"current_range_meters":9600,"station_id":"ce4bgpp2rcd13ifvqc3g","pricing_plan_id":"cebpf4jnsgd1na2vs0mg"},{"bike_id":"cabe4d65-1c42-4754-b217-cd153685833e","system_id":"levelo_inurba_marseille","lat":43.27997,"lon":5.41664,"is_reserved":false,"is_disabled":false,"rental_uris":{"android":"levelo://app?vid=cabe4d65-1c42-4754-b217-cd153685833e","ios":"levelo://app?vid=cabe4d65-1c42-4754-b217-cd153685833e"},"vehicle_type_id":"4","last_reported":1761840800,"current_range_meters":9600,"station_id":"ce4bho12rcd13ifvqh1g","pricing_plan_id":"cebpf4jnsgd1na2vs0mg"},{"bike_id":"7a049e89-41bc-49ac-ac13-cd12915858fa","system_id":"levelo_inurba_marseille","lat":43.2988,"lon":5.39734,"is_reserved":false,"is_disabled":false,"rental_uris":{"android":"levelo://app?vid=7a049e89-41bc-49ac-ac13-cd12915858fa","ios":"levelo://app?vid=7a049e89-41bc-49ac-ac13-cd12915858fa"},"vehicle_type_id":"4","last_reported":1761840800,"current_range_meters":9600,"station_id":"ce4bh0h2rcd13ifvqd50","pricing_plan_id":"cebpf4jnsgd1na2vs0mg"},{"bike_id":"1181a107-0581-4b4d-95b1-c0d08477e7e8","system_id":"levelo_inurba_marseille","lat":43.28156,"lon":5.42652,"is_reserved":false,"is_disabled":false,"rental_uris":{"android":"levelo://app?vid=1181a107-0581-4b4d-95b1-c0d08477e7e8","ios":"levelo://app?vid=1181a107-0581-4b4d-95b1-c0d08477e7e8"},"vehicle_type_id":"4","last_reported":1761840800,"current_range_meters":9600,"station_id":"ce4bhnh2rcd13ifvqgug","pricing_plan_id":"cebpf4jnsgd1na2vs0mg"},{"bike_id":"a44ef578-5b02-42fe-b77e-21e39c1ee502","system_id":"levelo_inurba_marseille","lat":43.28942,"lon":5.36641,"is_reserved":false,"is_disabled":false,"rental_uris":{"android":"levelo://app?vid=a44ef578-5b02-42fe-b77e-21e39c1ee502","ios":"levelo://app?vid=a44ef578-5b02-42fe-b77e-21e39c1ee502"},"vehicle_type_id":"4","last_reported":1761840800,"current_range_meters":9600,"station_id":"ce4bhap2rcd13ifvqek0","pricing_plan_id":"cebpf4jnsgd1na2vs0mg"},{"bike_id":"ecf55ac4-b322-46b8-bbe9-2f581c3e69c0","system_id":"levelo_inurba_marseille","lat":43.2971,"lon":5.36613,"is_reserved":false,"is_disabled":false,"rental_uris":{"android":"levelo://app?vid=ecf55ac4-b322-46b8-bbe9-2f581c3e69c0","ios":"levelo://app?vid=ecf55ac4-b322-46b8-bbe9-2f581c3e69c0"},"vehicle_type_id":"4","last_reported":1761840800,"current_range_meters":9600,"station_id":"ce4bgn12rcd13ifvqbt0","pricing_plan_id":"cebpf4jnsgd1na2vs0mg"},{"bike_id":"81ca8b54-c7ea-4416-8c8d-cb945792bc5b","system_id":"levelo_inurba_marseille","lat":43.22568,"lon":5.41636,"is_reserved":false,"is_disabled":false,"rental_uris":{"android":"levelo://app?vid=81ca8b54-c7ea-4416-8c8d-cb945792bc5b","ios":"levelo://app?vid=81ca8b54-c7ea-4416-8c8d-cb945792bc5b"},"vehicle_type_id":"4","last_reported":1761840800,"current_range_meters":10000,"station_id":"st_d2o4gvlbi1j2169b742g","pricing_plan_id":"cebpf4jnsgd1na2vs0mg"},{"bike_id":"380b74fa-5b82-44ab-be88-00290216b7a0","system_id":"levelo_inurba_marseille","lat":43.29886,"lon":5.39735,"is_reserved":false,"is_disabled":false,"rental_uris":{"android":"levelo://app?vid=380b74fa-5b82-44ab-be88-00290216b7a0","ios":"levelo://app?vid=380b74fa-5b82-44ab-be88-00290216b7a0"},"vehicle_type_id":"4","last_reported":1761840800,"current_range_meters":10000,"station_id":"ce4bh0h2rcd13ifvqd50","pricing_plan_id":"cebpf4jnsgd1na2vs0mg"},{"bike_id":"ecf9cbde-aa43-490c-bcd5-930e59bee927","system_id":"levelo_inurba_marseille","lat":43.309042,"lon":5.36841,"is_reserved":false,"is_disabled":false,"rental_uris":{"android":"levelo://app?vid=ecf9cbde-aa43-490c-bcd5-930e59bee927","ios":"levelo://app?vid=ecf9cbde-aa43-490c-bcd5-930e59bee927"},"vehicle_type_id":"4","last_reported":1761840800,"current_range_meters":10800,"station_id":"ce4bgn92rcd13ifvqbvg","pricing_plan_id":"cebpf4jnsgd1na2vs0mg"},{"bike_id":"fa80ca9d-dc34-4f41-8f88-0ca5b229eb59","system_id":"levelo_inurba_marseille","lat":43.29278,"lon":5.36856,"is_reserved":false,"is_disabled":false,"rental_uris":{"android":"levelo://app?vid=fa80ca9d-dc34-4f41-8f88-0ca5b229eb59","ios":"levelo://app?vid=fa80ca9d-dc34-4f41-8f88-0ca5b229eb59"},"vehicle_type_id":"4","last_reported":1761840800,"current_range_meters":10800,"station_id":"ce4bhbp2rcd13ifvqesg","pricing_plan_id":"cebpf4jnsgd1na2vs0mg"},{"bike_id":"569160a4-e207-4db9-b243-c638f0330d62","system_id":"levelo_inurba_marseille","lat":43.32104,"lon":5.36771,"is_reserved":false,"is_disabled":false,"rental_uris":{"android":"levelo://app?vid=569160a4-e207-4db9-b243-c638f0330d62","ios":"levelo://app?vid=569160a4-e207-4db9-b243-c638f0330d62"},"vehicle_type_id":"4","last_reported":1761840800,"current_range_meters":10800,"station_id":"ce4bhrh2rcd13ifvqhug","pricing_plan_id":"cebpf4jnsgd1na2vs0mg"},{"bike_id":"6d612ef1-b084-4f6f-b294-2cbc1c242ea8","system_id":"levelo_inurba_marseille","lat":43.24652,"lon":5.38892,"is_reserved":false,"is_disabled":false,"rental_uris":{"android":"levelo://app?vid=6d612ef1-b084-4f6f-b294-2cbc1c242ea8","ios":"levelo://app?vid=6d612ef1-b084-4f6f-b294-2cbc1c242ea8"},"vehicle_type_id":"4","last_reported":1761840800,"current_range_meters":10800,"station_id":"ce4bhg12rcd13ifvqf60","pricing_plan_id":"cebpf4jnsgd1na2vs0mg"},{"bike_id":"eace18a4-48f6-45dd-b5d9-08454053b397","system_id":"levelo_inurba_marseille","lat":43.31331,"lon":5.39699,"is_reserved":false,"is_disabled":false,"rental_uris":{"android":"levelo://app?vid=eace18a4-48f6-45dd-b5d9-08454053b397","ios":"levelo://app?vid=eace18a4-48f6-45dd-b5d9-08454053b397"},"vehicle_type_id":"4","last_reported":1761840800,"current_range_meters":11200,"station_id":"ce4bgvp2rcd13ifvqcu0","pricing_plan_id":"cebpf4jnsgd1na2vs0mg"},{"bike_id":"6fff56e2-dc33-4322-9554-e738206d1bc0","system_id":"levelo_inurba_marseille","lat":43.21191,"lon":5.350908,"is_reserved":false,"is_disabled":false,"rental_uris":{"android":"levelo://app?vid=6fff56e2-dc33-4322-9554-e738206d1bc0","ios":"levelo://app?vid=6fff56e2-dc33-4322-9554-e738206d1bc0"},"vehicle_type_id":"4","last_reported":1761840800,"current_range_meters":11200,"station_id":"st_cvj6sg6p6f1abm77japg","pricing_plan_id":"cebpf4jnsgd1na2vs0mg"},{"bike_id":"c593a7d5-1c0c-4a1c-ba43-52ad3c0078f0","system_id":"levelo_inurba_marseille","lat":43.31111,"lon":5.37769,"is_reserved":false,"is_disabled":false,"rental_uris":{"android":"levelo://app?vid=c593a7d5-1c0c-4a1c-ba43-52ad3c0078f0","ios":"levelo://app?vid=c593a7d5-1c0c-4a1c-ba43-52ad3c0078f0"},"vehicle_type_id":"4","last_reported":1761840800,"current_range_meters":11200,"station_id":"ce4bgt92rcd13ifvqcg0","pricing_plan_id":"cebpf4jnsgd1na2vs0mg"},{"bike_id":"b66a1a4a-723a-4c64-988a-47177ffc6230","system_id":"levelo_inurba_marseille","lat":43.29028,"lon":5.38635,"is_reserved":false,"is_disabled":false,"rental_uris":{"android":"levelo://app?vid=b66a1a4a-723a-4c64-988a-47177ffc6230","ios":"levelo://app?vid=b66a1a4a-723a-4c64-988a-47177ffc6230"},"vehicle_type_id":"4","last_reported":1761840800,"current_range_meters":11200,"station_id":"ce4bh4p2rcd13ifvqe0g","pricing_plan_id":"cebpf4jnsgd1na2vs0mg"},{"bike_id":"5fc04316-9149-4183-962b-946fee960650","system_id":"levelo_inurba_marseille","lat":43.30953,"lon":5.39039,"is_reserved":false,"is_disabled":false,"rental_uris":{"android":"levelo://app?vid=5fc04316-9149-4183-962b-946fee960650","ios":"levelo://app?vid=5fc04316-9149-4183-962b-946fee960650"},"vehicle_type_id":"4","last_reported":1761840800,"current_range_meters":11200,"station_id":"ce4bgup2rcd13ifvqco0","pricing_plan_id":"cebpf4jnsgd1na2vs0mg"},{"bike_id":"db36e2e0-5ca3-43ec-8b89-546d3547e290","system_id":"levelo_inurba_marseille","lat":43.289063,"lon":5.39524,"is_reserved":false,"is_disabled":false,"rental_uris":{"android":"levelo://app?vid=db36e2e0-5ca3-43ec-8b89-546d3547e290","ios":"levelo://app?vid=db36e2e0-5ca3-43ec-8b89-546d3547e290"},"vehicle_type_id":"4","last_reported":1761840800,"current_range_meters":11600,"station_id":"ce4bh2p2rcd13ifvqdi0","pricing_plan_id":"cebpf4jnsgd1na2vs0mg"},{"bike_id":"c8b86af0-0933-4782-90ee-9501585685a7","system_id":"levelo_inurba_marseille","lat":43.22935,"lon":5.35381,"is_reserved":false,"is_disabled":false,"rental_uris":{"android":"levelo://app?vid=c8b86af0-0933-4782-90ee-9501585685a7","ios":"levelo://app?vid=c8b86af0-0933-4782-90ee-9501585685a7"},"vehicle_type_id":"4","last_reported":1761840800,"current_range_meters":11600,"station_id":"cpo3532slgdg3j2ikp40","pricing_plan_id":"cebpf4jnsgd1na2vs0mg"},{"bike_id":"2cc2f046-b518-4da1-b572-daffa118971e","system_id":"levelo_inurba_marseille","lat":43.26562,"lon":5.40327,"is_reserved":false,"is_disabled":false,"rental_uris":{"android":"levelo://app?vid=2cc2f046-b518-4da1-b572-daffa118971e","ios":"levelo://app?vid=2cc2f046-b518-4da1-b572-daffa118971e"},"vehicle_type_id":"4","last_reported":1761840800,"current_range_meters":11600,"station_id":"ce4bhmp2rcd13ifvqgng","pricing_plan_id":"cebpf4jnsgd1na2vs0mg"},{"bike_id":"8c1dfc7f-b02e-4691-8cf9-6dd976a488c4","system_id":"levelo_inurba_marseille","lat":43.2175,"lon":5.34606,"is_reserved":false,"is_disabled":false,"rental_uris":{"android":"levelo://app?vid=8c1dfc7f-b02e-4691-8cf9-6dd976a488c4","ios":"levelo://app?vid=8c1dfc7f-b02e-4691-8cf9-6dd976a488c4"},"vehicle_type_id":"4","last_reported":1761840800,"current_range_meters":11600,"station_id":"st_cvj6r9ubvosntc0bgbag","pricing_plan_id":"cebpf4jnsgd1na2vs0mg"},{"bike_id":"3126ce35-4101-4b06-a7b2-19548fb25089","system_id":"levelo_inurba_marseille","lat":43.21194,"lon":5.3508,"is_reserved":false,"is_disabled":false,"rental_uris":{"android":"levelo://app?vid=3126ce35-4101-4b06-a7b2-19548fb25089","ios":"levelo://app?vid=3126ce35-4101-4b06-a7b2-19548fb25089"},"vehicle_type_id":"4","last_reported":1761840800,"current_range_meters":12000,"station_id":"st_cvj6sg6p6f1abm77japg","pricing_plan_id":"cebpf4jnsgd1na2vs0mg"},{"bike_id":"b4cf4ddc-86c6-4aa3-bbef-f67b3166fb08","system_id":"levelo_inurba_marseille","lat":43.32097,"lon":5.36755,"is_reserved":false,"is_disabled":false,"rental_uris":{"android":"levelo://app?vid=b4cf4ddc-86c6-4aa3-bbef-f67b3166fb08","ios":"levelo://app?vid=b4cf4ddc-86c6-4aa3-bbef-f67b3166fb08"},"vehicle_type_id":"4","last_reported":1761840800,"current_range_meters":12400,"station_id":"ce4bhrh2rcd13ifvqhug","pricing_plan_id":"cebpf4jnsgd1na2vs0mg"},{"bike_id":"106d9eb9-0bf9-44ff-b226-3957474f220a","system_id":"levelo_inurba_marseille","lat":43.29975,"lon":5.41333,"is_reserved":false,"is_disabled":false,"rental_uris":{"android":"levelo://app?vid=106d9eb9-0bf9-44ff-b226-3957474f220a","ios":"levelo://app?vid=106d9eb9-0bf9-44ff-b226-3957474f220a"},"vehicle_type_id":"4","last_reported":1761840800,"current_range_meters":12400,"station_id":"ce4bhp12rcd13ifvqh9g","pricing_plan_id":"cebpf4jnsgd1na2vs0mg"},{"bike_id":"007a2f90-f745-4bee-a51b-98c80260fd5e","system_id":"levelo_inurba_marseille","lat":43.28115,"lon":5.37823,"is_reserved":false,"is_disabled":false,"rental_uris":{"android":"levelo://app?vid=007a2f90-f745-4bee-a51b-98c80260fd5e","ios":"levelo://app?vid=007a2f90-f745-4bee-a51b-98c80260fd5e"},"vehicle_type_id":"4","last_reported":1761840800,"current_range_meters":12400,"station_id":"ce4bha12rcd13ifvqee0","pricing_plan_id":"cebpf4jnsgd1na2vs0mg"},{"bike_id":"18cdcc3f-e930-4adb-9b3c-172478094266","system_id":"levelo_inurba_marseille","lat":43.29605,"lon":5.37648,"is_reserved":false,"is_disabled":false,"rental_uris":{"android":"levelo://app?vid=18cdcc3f-e930-4adb-9b3c-172478094266","ios":"levelo://app?vid=18cdcc3f-e930-4adb-9b3c-172478094266"},"vehicle_type_id":"4","last_reported":1761840800,"current_range_meters":12400,"station_id":"","pricing_plan_id":"cebpf4jnsgd1na2vs0mg"},{"bike_id":"e7fbda8d-e4b1-4d1d-8e59-650ead40058d","system_id":"levelo_inurba_marseille","lat":43.24643,"lon":5.43161,"is_reserved":false,"is_disabled":false,"rental_uris":{"android":"levelo://app?vid=e7fbda8d-e4b1-4d1d-8e59-650ead40058d","ios":"levelo://app?vid=e7fbda8d-e4b1-4d1d-8e59-650ead40058d"},"vehicle_type_id":"4","last_reported":1761840800,"current_range_meters":12800,"station_id":"st_d2m6c4gdas8pm72e190g","pricing_plan_id":"cebpf4jnsgd1na2vs0mg"},{"bike_id":"293a366c-ad33-464f-be66-4c308271167a","system_id":"levelo_inurba_marseille","lat":43.2417,"lon":5.36404,"is_reserved":false,"is_disabled":false,"rental_uris":{"android":"levelo://app?vid=293a366c-ad33-464f-be66-4c308271167a","ios":"levelo://app?vid=293a366c-ad33-464f-be66-4c308271167a"},"vehicle_type_id":"4","last_reported":1761840800,"current_range_meters":12800,"station_id":"cpo36qri1sfpv3e86is0","pricing_plan_id":"cebpf4jnsgd1na2vs0mg"},{"bike_id":"20afdf51-fa04-4c54-84a1-ea8e81b5abdb","system_id":"levelo_inurba_marseille","lat":43.26555,"lon":5.37289,"is_reserved":false,"is_disabled":false,"rental_uris":{"android":"levelo://app?vid=20afdf51-fa04-4c54-84a1-ea8e81b5abdb","ios":"levelo://app?vid=20afdf51-fa04-4c54-84a1-ea8e81b5abdb"},"vehicle_type_id":"4","last_reported":1761840800,"current_range_meters":12800,"station_id":"ce4bhg12rcd13ifvqf70","pricing_plan_id":"cebpf4jnsgd1na2vs0mg"},{"bike_id":"868c9f67-46db-40c2-8054-2388a5f9841e","system_id":"levelo_inurba_marseille","lat":43.32321,"lon":5.36756,"is_reserved":false,"is_disabled":false,"rental_uris":{"android":"levelo://app?vid=868c9f67-46db-40c2-8054-2388a5f9841e","ios":"levelo://app?vid=868c9f67-46db-40c2-8054-2388a5f9841e"},"vehicle_type_id":"4","last_reported":1761840800,"current_range_meters":12800,"station_id":"ce4bhsh2rcd13ifvqi2g","pricing_plan_id":"cebpf4jnsgd1na2vs0mg"},{"bike_id":"7168787f-424e-4fa3-a19a-a58bbe8bc4c9","system_id":"levelo_inurba_marseille","lat":43.3054,"lon":5.36719,"is_reserved":false,"is_disabled":false,"rental_uris":{"android":"levelo://app?vid=7168787f-424e-4fa3-a19a-a58bbe8bc4c9","ios":"levelo://app?vid=7168787f-424e-4fa3-a19a-a58bbe8bc4c9"},"vehicle_type_id":"4","last_reported":1761840800,"current_range_meters":12800,"station_id":"ce4bgrp2rcd13ifvqc9g","pricing_plan_id":"cebpf4jnsgd1na2vs0mg"},{"bike_id":"003dc589-afc6-47c4-a84a-e90cd5f91109","system_id":"levelo_inurba_marseille","lat":43.2951,"lon":5.39041,"is_reserved":false,"is_disabled":true,"rental_uris":{"android":"levelo://app?vid=003dc589-afc6-47c4-a84a-e90cd5f91109","ios":"levelo://app?vid=003dc589-afc6-47c4-a84a-e90cd5f91109"},"vehicle_type_id":"4","last_reported":1761840800,"current_range_meters":13600,"station_id":"ce4bh3p2rcd13ifvqdp0","pricing_plan_id":"cebpf4jnsgd1na2vs0mg"},{"bike_id":"2ec8fd1b-3b42-4f93-a828-68bd711efa51","system_id":"levelo_inurba_marseille","lat":43.24623,"lon":5.43161,"is_reserved":false,"is_disabled":false,"rental_uris":{"android":"levelo://app?vid=2ec8fd1b-3b42-4f93-a828-68bd711efa51","ios":"levelo://app?vid=2ec8fd1b-3b42-4f93-a828-68bd711efa51"},"vehicle_type_id":"4","last_reported":1761840800,"current_range_meters":13600,"station_id":"st_d2m6c4gdas8pm72e190g","pricing_plan_id":"cebpf4jnsgd1na2vs0mg"},{"bike_id":"ece027da-824a-47d0-bc54-5da75c26caf2","system_id":"levelo_inurba_marseille","lat":43.305422,"lon":5.367005,"is_reserved":false,"is_disabled":false,"rental_uris":{"android":"levelo://app?vid=ece027da-824a-47d0-bc54-5da75c26caf2","ios":"levelo://app?vid=ece027da-824a-47d0-bc54-5da75c26caf2"},"vehicle_type_id":"4","last_reported":1761840800,"current_range_meters":13600,"station_id":"ce4bgrp2rcd13ifvqc9g","pricing_plan_id":"cebpf4jnsgd1na2vs0mg"},{"bike_id":"04383163-4c87-4c5b-b8cd-c4a6b9a36354","system_id":"levelo_inurba_marseille","lat":43.28662,"lon":5.36358,"is_reserved":false,"is_disabled":false,"rental_uris":{"android":"levelo://app?vid=04383163-4c87-4c5b-b8cd-c4a6b9a36354","ios":"levelo://app?vid=04383163-4c87-4c5b-b8cd-c4a6b9a36354"},"vehicle_type_id":"4","last_reported":1761840800,"current_range_meters":13600,"station_id":"ce4bhah2rcd13ifvqej0","pricing_plan_id":"cebpf4jnsgd1na2vs0mg"},{"bike_id":"87f07427-7afa-4c61-8863-cee86bfb2232","system_id":"levelo_inurba_marseille","lat":43.271949,"lon":5.409934,"is_reserved":false,"is_disabled":false,"rental_uris":{"android":"levelo://app?vid=87f07427-7afa-4c61-8863-cee86bfb2232","ios":"levelo://app?vid=87f07427-7afa-4c61-8863-cee86bfb2232"},"vehicle_type_id":"4","last_reported":1761840800,"current_range_meters":13600,"station_id":"ce4bhl12rcd13ifvqgf0","pricing_plan_id":"cebpf4jnsgd1na2vs0mg"},{"bike_id":"f6946de9-6fd5-486c-846e-6aac0ac8e59f","system_id":"levelo_inurba_marseille","lat":43.21197,"lon":5.35083,"is_reserved":false,"is_disabled":false,"rental_uris":{"android":"levelo://app?vid=f6946de9-6fd5-486c-846e-6aac0ac8e59f","ios":"levelo://app?vid=f6946de9-6fd5-486c-846e-6aac0ac8e59f"},"vehicle_type_id":"4","last_reported":1761840800,"current_range_meters":13600,"station_id":"st_cvj6sg6p6f1abm77japg","pricing_plan_id":"cebpf4jnsgd1na2vs0mg"},{"bike_id":"15e2c5dd-bae1-46fb-906a-d29fa37d6e53","system_id":"levelo_inurba_marseille","lat":43.31335,"lon":5.37307,"is_reserved":false,"is_disabled":false,"rental_uris":{"android":"levelo://app?vid=15e2c5dd-bae1-46fb-906a-d29fa37d6e53","ios":"levelo://app?vid=15e2c5dd-bae1-46fb-906a-d29fa37d6e53"},"vehicle_type_id":"4","last_reported":1761840800,"current_range_meters":13600,"station_id":"","pricing_plan_id":"cebpf4jnsgd1na2vs0mg"},{"bike_id":"e1e2a457-df19-4b98-90a8-25aeb1c4995a","system_id":"levelo_inurba_marseille","lat":43.26019,"lon":5.41742,"is_reserved":false,"is_disabled":false,"rental_uris":{"android":"levelo://app?vid=e1e2a457-df19-4b98-90a8-25aeb1c4995a","ios":"levelo://app?vid=e1e2a457-df19-4b98-90a8-25aeb1c4995a"},"vehicle_type_id":"4","last_reported":1761840800,"current_range_meters":14000,"station_id":"","pricing_plan_id":"cebpf4jnsgd1na2vs0mg"},{"bike_id":"5fc793f7-59ab-466d-be19-6bbac5c3af12","system_id":"levelo_inurba_marseille","lat":43.29525,"lon":5.385497,"is_reserved":false,"is_disabled":false,"rental_uris":{"android":"levelo://app?vid=5fc793f7-59ab-466d-be19-6bbac5c3af12","ios":"levelo://app?vid=5fc793f7-59ab-466d-be19-6bbac5c3af12"},"vehicle_type_id":"4","last_reported":1761840800,"current_range_meters":14000,"station_id":"ce4bgih2rcd13ifvqba0","pricing_plan_id":"cebpf4jnsgd1na2vs0mg"},{"bike_id":"ac104b9e-ba57-4797-b735-1a88156f493f","system_id":"levelo_inurba_marseille","lat":43.28427,"lon":5.34981,"is_reserved":false,"is_disabled":false,"rental_uris":{"android":"levelo://app?vid=ac104b9e-ba57-4797-b735-1a88156f493f","ios":"levelo://app?vid=ac104b9e-ba57-4797-b735-1a88156f493f"},"vehicle_type_id":"4","last_reported":1761840800,"current_range_meters":14000,"station_id":"ce4bhbh2rcd13ifvqepg","pricing_plan_id":"cebpf4jnsgd1na2vs0mg"},{"bike_id":"5dc87291-9fbe-46c2-aeb9-036d0773db59","system_id":"levelo_inurba_marseille","lat":43.28612,"lon":5.370642,"is_reserved":false,"is_disabled":false,"rental_uris":{"android":"levelo://app?vid=5dc87291-9fbe-46c2-aeb9-036d0773db59","ios":"levelo://app?vid=5dc87291-9fbe-46c2-aeb9-036d0773db59"},"vehicle_type_id":"4","last_reported":1761840800,"current_range_meters":14000,"station_id":"ce4bht12rcd13ifvqi60","pricing_plan_id":"cebpf4jnsgd1na2vs0mg"},{"bike_id":"a159c7fa-4c33-479a-9130-82f09aa8b34d","system_id":"levelo_inurba_marseille","lat":43.25088,"lon":5.39521,"is_reserved":false,"is_disabled":false,"rental_uris":{"android":"levelo://app?vid=a159c7fa-4c33-479a-9130-82f09aa8b34d","ios":"levelo://app?vid=a159c7fa-4c33-479a-9130-82f09aa8b34d"},"vehicle_type_id":"4","last_reported":1761840800,"current_range_meters":14000,"station_id":"ce4bhm12rcd13ifvqgkg","pricing_plan_id":"cebpf4jnsgd1na2vs0mg"},{"bike_id":"4defedff-bdc1-4df7-a2cc-4ddd7e68c438","system_id":"levelo_inurba_marseille","lat":43.24948,"lon":5.40487,"is_reserved":false,"is_disabled":false,"rental_uris":{"android":"levelo://app?vid=4defedff-bdc1-4df7-a2cc-4ddd7e68c438","ios":"levelo://app?vid=4defedff-bdc1-4df7-a2cc-4ddd7e68c438"},"vehicle_type_id":"4","last_reported":1761840800,"current_range_meters":14400,"station_id":"st_d2ngiaodas8pm72gd1h0","pricing_plan_id":"cebpf4jnsgd1na2vs0mg"},{"bike_id":"fa88341c-d625-4abb-9e76-24ef98987684","system_id":"levelo_inurba_marseille","lat":43.302277,"lon":5.395111,"is_reserved":false,"is_disabled":false,"rental_uris":{"android":"levelo://app?vid=fa88341c-d625-4abb-9e76-24ef98987684","ios":"levelo://app?vid=fa88341c-d625-4abb-9e76-24ef98987684"},"vehicle_type_id":"4","last_reported":1761840800,"current_range_meters":14400,"station_id":"","pricing_plan_id":"cebpf4jnsgd1na2vs0mg"},{"bike_id":"a18dbf48-2c4d-4fa4-a4c5-c9871d73c9a0","system_id":"levelo_inurba_marseille","lat":43.301994,"lon":5.383462,"is_reserved":false,"is_disabled":false,"rental_uris":{"android":"levelo://app?vid=a18dbf48-2c4d-4fa4-a4c5-c9871d73c9a0","ios":"levelo://app?vid=a18dbf48-2c4d-4fa4-a4c5-c9871d73c9a0"},"vehicle_type_id":"4","last_reported":1761840800,"current_range_meters":14400,"station_id":"ce4bgup2rcd13ifvqcn0","pricing_plan_id":"cebpf4jnsgd1na2vs0mg"},{"bike_id":"d3a8516c-574b-4c22-a7bb-4c7116b8137f","system_id":"levelo_inurba_marseille","lat":43.29046,"lon":5.35918,"is_reserved":false,"is_disabled":false,"rental_uris":{"android":"levelo://app?vid=d3a8516c-574b-4c22-a7bb-4c7116b8137f","ios":"levelo://app?vid=d3a8516c-574b-4c22-a7bb-4c7116b8137f"},"vehicle_type_id":"4","last_reported":1761840800,"current_range_meters":14400,"station_id":"ce4bha92rcd13ifvqeg0","pricing_plan_id":"cebpf4jnsgd1na2vs0mg"},{"bike_id":"d0fc7e0a-373e-4e7b-a97b-d9e3f6b2c7d8","system_id":"levelo_inurba_marseille","lat":43.30794,"lon":5.38161,"is_reserved":false,"is_disabled":false,"rental_uris":{"android":"levelo://app?vid=d0fc7e0a-373e-4e7b-a97b-d9e3f6b2c7d8","ios":"levelo://app?vid=d0fc7e0a-373e-4e7b-a97b-d9e3f6b2c7d8"},"vehicle_type_id":"4","last_reported":1761840800,"current_range_meters":14800,"station_id":"ce4bgt12rcd13ifvqce0","pricing_plan_id":"cebpf4jnsgd1na2vs0mg"},{"bike_id":"49eabeb8-91e9-4fed-9256-a94ef104e5f4","system_id":"levelo_inurba_marseille","lat":43.29595,"lon":5.36749,"is_reserved":false,"is_disabled":false,"rental_uris":{"android":"levelo://app?vid=49eabeb8-91e9-4fed-9256-a94ef104e5f4","ios":"levelo://app?vid=49eabeb8-91e9-4fed-9256-a94ef104e5f4"},"vehicle_type_id":"4","last_reported":1761840800,"current_range_meters":14800,"station_id":"ce4bgph2rcd13ifvqc2g","pricing_plan_id":"cebpf4jnsgd1na2vs0mg"},{"bike_id":"da360f8c-9223-4089-99fa-feee1511d380","system_id":"levelo_inurba_marseille","lat":43.30882,"lon":5.39662,"is_reserved":false,"is_disabled":false,"rental_uris":{"android":"levelo://app?vid=da360f8c-9223-4089-99fa-feee1511d380","ios":"levelo://app?vid=da360f8c-9223-4089-99fa-feee1511d380"},"vehicle_type_id":"4","last_reported":1761840800,"current_range_meters":14800,"station_id":"ce4bh012rcd13ifvqcv0","pricing_plan_id":"cebpf4jnsgd1na2vs0mg"},{"bike_id":"8f9c3be1-dcf5-4f61-be35-6ea98fc54277","system_id":"levelo_inurba_marseille","lat":43.299342,"lon":5.365671,"is_reserved":false,"is_disabled":false,"rental_uris":{"android":"levelo://app?vid=8f9c3be1-dcf5-4f61-be35-6ea98fc54277","ios":"levelo://app?vid=8f9c3be1-dcf5-4f61-be35-6ea98fc54277"},"vehicle_type_id":"4","last_reported":1761840800,"current_range_meters":14800,"station_id":"ce4bgm92rcd13ifvqbr0","pricing_plan_id":"cebpf4jnsgd1na2vs0mg"},{"bike_id":"a0d564f2-5ac0-4238-b3be-1fed830781ea","system_id":"levelo_inurba_marseille","lat":43.273801,"lon":5.362358,"is_reserved":false,"is_disabled":false,"rental_uris":{"android":"levelo://app?vid=a0d564f2-5ac0-4238-b3be-1fed830781ea","ios":"levelo://app?vid=a0d564f2-5ac0-4238-b3be-1fed830781ea"},"vehicle_type_id":"4","last_reported":1761840800,"current_range_meters":14800,"station_id":"","pricing_plan_id":"cebpf4jnsgd1na2vs0mg"},{"bike_id":"c3b81cf8-7993-4fcc-978a-d7d3afbd07ee","system_id":"levelo_inurba_marseille","lat":43.29007,"lon":5.35627,"is_reserved":false,"is_disabled":false,"rental_uris":{"android":"levelo://app?vid=c3b81cf8-7993-4fcc-978a-d7d3afbd07ee","ios":"levelo://app?vid=c3b81cf8-7993-4fcc-978a-d7d3afbd07ee"},"vehicle_type_id":"4","last_reported":1761840800,"current_range_meters":14800,"station_id":"ce4bhb92rcd13ifvqen0","pricing_plan_id":"cebpf4jnsgd1na2vs0mg"},{"bike_id":"9b93b5e1-c939-4745-bf85-2d21945442dc","system_id":"levelo_inurba_marseille","lat":43.30002,"lon":5.36412,"is_reserved":false,"is_disabled":false,"rental_uris":{"android":"levelo://app?vid=9b93b5e1-c939-4745-bf85-2d21945442dc","ios":"levelo://app?vid=9b93b5e1-c939-4745-bf85-2d21945442dc"},"vehicle_type_id":"4","last_reported":1761840800,"current_range_meters":15200,"station_id":"","pricing_plan_id":"cebpf4jnsgd1na2vs0mg"},{"bike_id":"f02f40a3-827a-481c-8343-a1a3a7254fc4","system_id":"levelo_inurba_marseille","lat":43.28993,"lon":5.35607,"is_reserved":false,"is_disabled":false,"rental_uris":{"android":"levelo://app?vid=f02f40a3-827a-481c-8343-a1a3a7254fc4","ios":"levelo://app?vid=f02f40a3-827a-481c-8343-a1a3a7254fc4"},"vehicle_type_id":"4","last_reported":1761840800,"current_range_meters":15200,"station_id":"ce4bhb92rcd13ifvqen0","pricing_plan_id":"cebpf4jnsgd1na2vs0mg"},{"bike_id":"5e9babda-c695-4417-9b92-a210142d7585","system_id":"levelo_inurba_marseille","lat":43.26566,"lon":5.39025,"is_reserved":false,"is_disabled":false,"rental_uris":{"android":"levelo://app?vid=5e9babda-c695-4417-9b92-a210142d7585","ios":"levelo://app?vid=5e9babda-c695-4417-9b92-a210142d7585"},"vehicle_type_id":"4","last_reported":1761840800,"current_range_meters":15200,"station_id":"ce4bhe12rcd13ifvqf30","pricing_plan_id":"cebpf4jnsgd1na2vs0mg"},{"bike_id":"79ab418a-79c0-4a6e-993b-761280f132d6","system_id":"levelo_inurba_marseille","lat":43.284839,"lon":5.485351,"is_reserved":false,"is_disabled":false,"rental_uris":{"android":"levelo://app?vid=79ab418a-79c0-4a6e-993b-761280f132d6","ios":"levelo://app?vid=79ab418a-79c0-4a6e-993b-761280f132d6"},"vehicle_type_id":"4","last_reported":1761840800,"current_range_meters":15200,"station_id":"","pricing_plan_id":"cebpf4jnsgd1na2vs0mg"},{"bike_id":"2d42802e-64b0-49af-a2fa-67bc92973a07","system_id":"levelo_inurba_marseille","lat":43.29491,"lon":5.43317,"is_reserved":false,"is_disabled":false,"rental_uris":{"android":"levelo://app?vid=2d42802e-64b0-49af-a2fa-67bc92973a07","ios":"levelo://app?vid=2d42802e-64b0-49af-a2fa-67bc92973a07"},"vehicle_type_id":"4","last_reported":1761840800,"current_range_meters":15200,"station_id":"st_d3j5ugp08ojc73fj9d10","pricing_plan_id":"cebpf4jnsgd1na2vs0mg"},{"bike_id":"5ac76b08-9fce-4235-b6a9-a15fce067341","system_id":"levelo_inurba_marseille","lat":43.24552,"lon":5.36396,"is_reserved":false,"is_disabled":false,"rental_uris":{"android":"levelo://app?vid=5ac76b08-9fce-4235-b6a9-a15fce067341","ios":"levelo://app?vid=5ac76b08-9fce-4235-b6a9-a15fce067341"},"vehicle_type_id":"4","last_reported":1761840800,"current_range_meters":16000,"station_id":"","pricing_plan_id":"cebpf4jnsgd1na2vs0mg"},{"bike_id":"ba788733-903e-423c-b3ef-9eb006fc7786","system_id":"levelo_inurba_marseille","lat":43.2886,"lon":5.42515,"is_reserved":false,"is_disabled":false,"rental_uris":{"android":"levelo://app?vid=ba788733-903e-423c-b3ef-9eb006fc7786","ios":"levelo://app?vid=ba788733-903e-423c-b3ef-9eb006fc7786"},"vehicle_type_id":"4","last_reported":1761840800,"current_range_meters":16000,"station_id":"st_d3b462108ojc7389ooeg","pricing_plan_id":"cebpf4jnsgd1na2vs0mg"},{"bike_id":"875bb686-526d-4759-aa99-d563e41a08a4","system_id":"levelo_inurba_marseille","lat":43.30129,"lon":5.39871,"is_reserved":false,"is_disabled":false,"rental_uris":{"android":"levelo://app?vid=875bb686-526d-4759-aa99-d563e41a08a4","ios":"levelo://app?vid=875bb686-526d-4759-aa99-d563e41a08a4"},"vehicle_type_id":"4","last_reported":1761840800,"current_range_meters":16000,"station_id":"ce4bh0h2rcd13ifvqd40","pricing_plan_id":"cebpf4jnsgd1na2vs0mg"},{"bike_id":"ca69f22e-5ca1-495c-8cdf-a08039f746d1","system_id":"levelo_inurba_marseille","lat":43.22565,"lon":5.43837,"is_reserved":false,"is_disabled":false,"rental_uris":{"android":"levelo://app?vid=ca69f22e-5ca1-495c-8cdf-a08039f746d1","ios":"levelo://app?vid=ca69f22e-5ca1-495c-8cdf-a08039f746d1"},"vehicle_type_id":"4","last_reported":1761840800,"current_range_meters":16000,"station_id":"","pricing_plan_id":"cebpf4jnsgd1na2vs0mg"},{"bike_id":"0f7902dd-d9e2-4204-948e-bdeb696eec15","system_id":"levelo_inurba_marseille","lat":43.250484,"lon":5.403519,"is_reserved":false,"is_disabled":false,"rental_uris":{"android":"levelo://app?vid=0f7902dd-d9e2-4204-948e-bdeb696eec15","ios":"levelo://app?vid=0f7902dd-d9e2-4204-948e-bdeb696eec15"},"vehicle_type_id":"4","last_reported":1761840800,"current_range_meters":16000,"station_id":"ce4bhh12rcd13ifvqfg0","pricing_plan_id":"cebpf4jnsgd1na2vs0mg"},{"bike_id":"7b1bd4f2-582d-4239-b5dd-dd9f4c38846b","system_id":"levelo_inurba_marseille","lat":43.28265,"lon":5.35064,"is_reserved":false,"is_disabled":false,"rental_uris":{"android":"levelo://app?vid=7b1bd4f2-582d-4239-b5dd-dd9f4c38846b","ios":"levelo://app?vid=7b1bd4f2-582d-4239-b5dd-dd9f4c38846b"},"vehicle_type_id":"4","last_reported":1761840800,"current_range_meters":16000,"station_id":"ce4bhbp2rcd13ifvqerg","pricing_plan_id":"cebpf4jnsgd1na2vs0mg"},{"bike_id":"2fd86c53-d195-4ab3-a5e6-984f6c0f4c38","system_id":"levelo_inurba_marseille","lat":43.26556,"lon":5.37296,"is_reserved":false,"is_disabled":false,"rental_uris":{"android":"levelo://app?vid=2fd86c53-d195-4ab3-a5e6-984f6c0f4c38","ios":"levelo://app?vid=2fd86c53-d195-4ab3-a5e6-984f6c0f4c38"},"vehicle_type_id":"4","last_reported":1761840800,"current_range_meters":16400,"station_id":"ce4bhg12rcd13ifvqf70","pricing_plan_id":"cebpf4jnsgd1na2vs0mg"},{"bike_id":"13b5bebc-2277-4643-9efc-b419c3a09bbd","system_id":"levelo_inurba_marseille","lat":43.2293,"lon":5.35384,"is_reserved":false,"is_disabled":false,"rental_uris":{"android":"levelo://app?vid=13b5bebc-2277-4643-9efc-b419c3a09bbd","ios":"levelo://app?vid=13b5bebc-2277-4643-9efc-b419c3a09bbd"},"vehicle_type_id":"4","last_reported":1761840800,"current_range_meters":16400,"station_id":"cpo3532slgdg3j2ikp40","pricing_plan_id":"cebpf4jnsgd1na2vs0mg"},{"bike_id":"dd2ac55c-9748-4416-b097-e9b0e27ade8d","system_id":"levelo_inurba_marseille","lat":43.28862,"lon":5.35865,"is_reserved":false,"is_disabled":false,"rental_uris":{"android":"levelo://app?vid=dd2ac55c-9748-4416-b097-e9b0e27ade8d","ios":"levelo://app?vid=dd2ac55c-9748-4416-b097-e9b0e27ade8d"},"vehicle_type_id":"4","last_reported":1761840800,"current_range_meters":16400,"station_id":"ce4bhb12rcd13ifvqem0","pricing_plan_id":"cebpf4jnsgd1na2vs0mg"},{"bike_id":"31a4b71c-a9cf-44a2-86d1-77d746675aae","system_id":"levelo_inurba_marseille","lat":43.29011,"lon":5.35614,"is_reserved":false,"is_disabled":false,"rental_uris":{"android":"levelo://app?vid=31a4b71c-a9cf-44a2-86d1-77d746675aae","ios":"levelo://app?vid=31a4b71c-a9cf-44a2-86d1-77d746675aae"},"vehicle_type_id":"4","last_reported":1761840800,"current_range_meters":16400,"station_id":"ce4bhb92rcd13ifvqen0","pricing_plan_id":"cebpf4jnsgd1na2vs0mg"},{"bike_id":"da0420b8-69e2-4ddf-9915-f492ed723756","system_id":"levelo_inurba_marseille","lat":43.30175,"lon":5.36619,"is_reserved":false,"is_disabled":false,"rental_uris":{"android":"levelo://app?vid=da0420b8-69e2-4ddf-9915-f492ed723756","ios":"levelo://app?vid=da0420b8-69e2-4ddf-9915-f492ed723756"},"vehicle_type_id":"4","last_reported":1761840800,"current_range_meters":16400,"station_id":"ce4bgrh2rcd13ifvqc8g","pricing_plan_id":"cebpf4jnsgd1na2vs0mg"},{"bike_id":"c2b29e2a-9ddf-4599-9569-ebeda3771708","system_id":"levelo_inurba_marseille","lat":43.21205,"lon":5.35086,"is_reserved":false,"is_disabled":false,"rental_uris":{"android":"levelo://app?vid=c2b29e2a-9ddf-4599-9569-ebeda3771708","ios":"levelo://app?vid=c2b29e2a-9ddf-4599-9569-ebeda3771708"},"vehicle_type_id":"4","last_reported":1761840800,"current_range_meters":16400,"station_id":"st_cvj6sg6p6f1abm77japg","pricing_plan_id":"cebpf4jnsgd1na2vs0mg"},{"bike_id":"b03cd87f-e13f-4665-a0b9-db2abb9f5895","system_id":"levelo_inurba_marseille","lat":43.30216,"lon":5.39472,"is_reserved":false,"is_disabled":false,"rental_uris":{"android":"levelo://app?vid=b03cd87f-e13f-4665-a0b9-db2abb9f5895","ios":"levelo://app?vid=b03cd87f-e13f-4665-a0b9-db2abb9f5895"},"vehicle_type_id":"4","last_reported":1761840800,"current_range_meters":16400,"station_id":"ce4bh0p2rcd13ifvqd70","pricing_plan_id":"cebpf4jnsgd1na2vs0mg"},{"bike_id":"bb9a697b-08ee-4a5e-b9eb-b274d6026d59","system_id":"levelo_inurba_marseille","lat":43.29882,"lon":5.39738,"is_reserved":false,"is_disabled":false,"rental_uris":{"android":"levelo://app?vid=bb9a697b-08ee-4a5e-b9eb-b274d6026d59","ios":"levelo://app?vid=bb9a697b-08ee-4a5e-b9eb-b274d6026d59"},"vehicle_type_id":"4","last_reported":1761840800,"current_range_meters":16400,"station_id":"ce4bh0h2rcd13ifvqd50","pricing_plan_id":"cebpf4jnsgd1na2vs0mg"},{"bike_id":"091b1cc6-ee35-4c11-88b4-b45025ecb805","system_id":"levelo_inurba_marseille","lat":43.27372,"lon":5.36253,"is_reserved":false,"is_disabled":false,"rental_uris":{"android":"levelo://app?vid=091b1cc6-ee35-4c11-88b4-b45025ecb805","ios":"levelo://app?vid=091b1cc6-ee35-4c11-88b4-b45025ecb805"},"vehicle_type_id":"4","last_reported":1761840800,"current_range_meters":16400,"station_id":"ce4bhbh2rcd13ifvqeo0","pricing_plan_id":"cebpf4jnsgd1na2vs0mg"},{"bike_id":"0e8e0a18-4139-452e-bab3-cb99f058b247","system_id":"levelo_inurba_marseille","lat":43.2947,"lon":5.41959,"is_reserved":false,"is_disabled":true,"rental_uris":{"android":"levelo://app?vid=0e8e0a18-4139-452e-bab3-cb99f058b247","ios":"levelo://app?vid=0e8e0a18-4139-452e-bab3-cb99f058b247"},"vehicle_type_id":"4","last_reported":1761840800,"current_range_meters":16800,"station_id":"","pricing_plan_id":"cebpf4jnsgd1na2vs0mg"},{"bike_id":"88327406-ba65-4ce0-831c-3da476dbb691","system_id":"levelo_inurba_marseille","lat":43.23788,"lon":5.36613,"is_reserved":false,"is_disabled":false,"rental_uris":{"android":"levelo://app?vid=88327406-ba65-4ce0-831c-3da476dbb691","ios":"levelo://app?vid=88327406-ba65-4ce0-831c-3da476dbb691"},"vehicle_type_id":"4","last_reported":1761840800,"current_range_meters":16800,"station_id":"st_d3nk18o9ro0c73en2l3g","pricing_plan_id":"cebpf4jnsgd1na2vs0mg"},{"bike_id":"80c53fab-d9fd-4b9a-94e7-e3f3183e35da","system_id":"levelo_inurba_marseille","lat":43.33018,"lon":5.39036,"is_reserved":false,"is_disabled":false,"rental_uris":{"android":"levelo://app?vid=80c53fab-d9fd-4b9a-94e7-e3f3183e35da","ios":"levelo://app?vid=80c53fab-d9fd-4b9a-94e7-e3f3183e35da"},"vehicle_type_id":"4","last_reported":1761840800,"current_range_meters":16800,"station_id":"ce4bhr92rcd13ifvqhrg","pricing_plan_id":"cebpf4jnsgd1na2vs0mg"},{"bike_id":"a657bfed-2a8a-41a5-8d2c-2d032f3588c4","system_id":"levelo_inurba_marseille","lat":43.25511,"lon":5.37667,"is_reserved":false,"is_disabled":false,"rental_uris":{"android":"levelo://app?vid=a657bfed-2a8a-41a5-8d2c-2d032f3588c4","ios":"levelo://app?vid=a657bfed-2a8a-41a5-8d2c-2d032f3588c4"},"vehicle_type_id":"4","last_reported":1761840800,"current_range_meters":16800,"station_id":"ce4bhh12rcd13ifvqff0","pricing_plan_id":"cebpf4jnsgd1na2vs0mg"},{"bike_id":"02b285d4-7ef3-4913-8c2a-070451d4d145","system_id":"levelo_inurba_marseille","lat":43.301544,"lon":5.380965,"is_reserved":false,"is_disabled":false,"rental_uris":{"android":"levelo://app?vid=02b285d4-7ef3-4913-8c2a-070451d4d145","ios":"levelo://app?vid=02b285d4-7ef3-4913-8c2a-070451d4d145"},"vehicle_type_id":"4","last_reported":1761840800,"current_range_meters":16800,"station_id":"ce4bgjp2rcd13ifvqbh0","pricing_plan_id":"cebpf4jnsgd1na2vs0mg"},{"bike_id":"eeaa6ee9-1601-4a9a-8764-79ff25307f0e","system_id":"levelo_inurba_marseille","lat":43.29311,"lon":5.37464,"is_reserved":false,"is_disabled":false,"rental_uris":{"android":"levelo://app?vid=eeaa6ee9-1601-4a9a-8764-79ff25307f0e","ios":"levelo://app?vid=eeaa6ee9-1601-4a9a-8764-79ff25307f0e"},"vehicle_type_id":"4","last_reported":1761840800,"current_range_meters":17200,"station_id":"ce4bgi12rcd13ifvqb70","pricing_plan_id":"cebpf4jnsgd1na2vs0mg"},{"bike_id":"e4cad650-c88e-41d1-a1d2-977127e987ec","system_id":"levelo_inurba_marseille","lat":43.292708,"lon":5.384343,"is_reserved":false,"is_disabled":false,"rental_uris":{"android":"levelo://app?vid=e4cad650-c88e-41d1-a1d2-977127e987ec","ios":"levelo://app?vid=e4cad650-c88e-41d1-a1d2-977127e987ec"},"vehicle_type_id":"4","last_reported":1761840800,"current_range_meters":17200,"station_id":"chh1huq6cuj3fo74tm60","pricing_plan_id":"cebpf4jnsgd1na2vs0mg"},{"bike_id":"6a0c8e6a-c805-4569-a5ad-f5fc839f27c8","system_id":"levelo_inurba_marseille","lat":43.279282,"lon":5.410369,"is_reserved":false,"is_disabled":false,"rental_uris":{"android":"levelo://app?vid=6a0c8e6a-c805-4569-a5ad-f5fc839f27c8","ios":"levelo://app?vid=6a0c8e6a-c805-4569-a5ad-f5fc839f27c8"},"vehicle_type_id":"4","last_reported":1761840800,"current_range_meters":17200,"station_id":"ce4bhnp2rcd13ifvqh0g","pricing_plan_id":"cebpf4jnsgd1na2vs0mg"},{"bike_id":"8a0ff850-cf9f-4e75-bc3f-994489f28f31","system_id":"levelo_inurba_marseille","lat":43.2256,"lon":5.41628,"is_reserved":false,"is_disabled":false,"rental_uris":{"android":"levelo://app?vid=8a0ff850-cf9f-4e75-bc3f-994489f28f31","ios":"levelo://app?vid=8a0ff850-cf9f-4e75-bc3f-994489f28f31"},"vehicle_type_id":"4","last_reported":1761840800,"current_range_meters":17200,"station_id":"st_d2o4gvlbi1j2169b742g","pricing_plan_id":"cebpf4jnsgd1na2vs0mg"},{"bike_id":"05a47c24-c74d-4482-aade-5974399cb310","system_id":"levelo_inurba_marseille","lat":43.29606,"lon":5.37672,"is_reserved":false,"is_disabled":false,"rental_uris":{"android":"levelo://app?vid=05a47c24-c74d-4482-aade-5974399cb310","ios":"levelo://app?vid=05a47c24-c74d-4482-aade-5974399cb310"},"vehicle_type_id":"4","last_reported":1761840800,"current_range_meters":17200,"station_id":"ce4bgi92rcd13ifvqb90","pricing_plan_id":"cebpf4jnsgd1na2vs0mg"},{"bike_id":"b8f404d3-62c4-4489-a471-d37212346558","system_id":"levelo_inurba_marseille","lat":43.310536,"lon":5.378617,"is_reserved":false,"is_disabled":false,"rental_uris":{"android":"levelo://app?vid=b8f404d3-62c4-4489-a471-d37212346558","ios":"levelo://app?vid=b8f404d3-62c4-4489-a471-d37212346558"},"vehicle_type_id":"4","last_reported":1761840800,"current_range_meters":17200,"station_id":"","pricing_plan_id":"cebpf4jnsgd1na2vs0mg"},{"bike_id":"d5d36145-9aa3-4f58-8d79-cc723be7e1aa","system_id":"levelo_inurba_marseille","lat":43.24804,"lon":5.37465,"is_reserved":false,"is_disabled":false,"rental_uris":{"android":"levelo://app?vid=d5d36145-9aa3-4f58-8d79-cc723be7e1aa","ios":"levelo://app?vid=d5d36145-9aa3-4f58-8d79-cc723be7e1aa"},"vehicle_type_id":"4","last_reported":1761840800,"current_range_meters":17600,"station_id":"ce4bhgh2rcd13ifvqfb0","pricing_plan_id":"cebpf4jnsgd1na2vs0mg"},{"bike_id":"1884d5c9-bd91-4658-bea4-a53682273fa1","system_id":"levelo_inurba_marseille","lat":43.279825,"lon":5.400235,"is_reserved":false,"is_disabled":false,"rental_uris":{"android":"levelo://app?vid=1884d5c9-bd91-4658-bea4-a53682273fa1","ios":"levelo://app?vid=1884d5c9-bd91-4658-bea4-a53682273fa1"},"vehicle_type_id":"4","last_reported":1761840800,"current_range_meters":17600,"station_id":"ce4bho92rcd13ifvqh4g","pricing_plan_id":"cebpf4jnsgd1na2vs0mg"},{"bike_id":"a4dac4fa-66e6-48be-a654-6e17cdc7ca0b","system_id":"levelo_inurba_marseille","lat":43.337571,"lon":5.374323,"is_reserved":false,"is_disabled":false,"rental_uris":{"android":"levelo://app?vid=a4dac4fa-66e6-48be-a654-6e17cdc7ca0b","ios":"levelo://app?vid=a4dac4fa-66e6-48be-a654-6e17cdc7ca0b"},"vehicle_type_id":"4","last_reported":1761840800,"current_range_meters":17600,"station_id":"","pricing_plan_id":"cebpf4jnsgd1na2vs0mg"},{"bike_id":"70e3e0f4-e383-46a4-93e3-5cb9990c4fa0","system_id":"levelo_inurba_marseille","lat":43.29112,"lon":5.38145,"is_reserved":false,"is_disabled":false,"rental_uris":{"android":"levelo://app?vid=70e3e0f4-e383-46a4-93e3-5cb9990c4fa0","ios":"levelo://app?vid=70e3e0f4-e383-46a4-93e3-5cb9990c4fa0"},"vehicle_type_id":"4","last_reported":1761840800,"current_range_meters":17600,"station_id":"ce4bh512rcd13ifvqe2g","pricing_plan_id":"cebpf4jnsgd1na2vs0mg"},{"bike_id":"4a269658-efc3-43fb-9a59-9805d56ddae4","system_id":"levelo_inurba_marseille","lat":43.26554,"lon":5.37295,"is_reserved":false,"is_disabled":false,"rental_uris":{"android":"levelo://app?vid=4a269658-efc3-43fb-9a59-9805d56ddae4","ios":"levelo://app?vid=4a269658-efc3-43fb-9a59-9805d56ddae4"},"vehicle_type_id":"4","last_reported":1761840800,"current_range_meters":17600,"station_id":"ce4bhg12rcd13ifvqf70","pricing_plan_id":"cebpf4jnsgd1na2vs0mg"},{"bike_id":"296f7425-e505-4d0d-8eb3-bc2db800b52b","system_id":"levelo_inurba_marseille","lat":43.23178,"lon":5.39987,"is_reserved":false,"is_disabled":false,"rental_uris":{"android":"levelo://app?vid=296f7425-e505-4d0d-8eb3-bc2db800b52b","ios":"levelo://app?vid=296f7425-e505-4d0d-8eb3-bc2db800b52b"},"vehicle_type_id":"4","last_reported":1761840800,"current_range_meters":17600,"station_id":"ce4bhn12rcd13ifvqgqg","pricing_plan_id":"cebpf4jnsgd1na2vs0mg"},{"bike_id":"c0a1ab8d-72ff-4114-b274-fdab8f1c3cb0","system_id":"levelo_inurba_marseille","lat":43.24186,"lon":5.39728,"is_reserved":false,"is_disabled":false,"rental_uris":{"android":"levelo://app?vid=c0a1ab8d-72ff-4114-b274-fdab8f1c3cb0","ios":"levelo://app?vid=c0a1ab8d-72ff-4114-b274-fdab8f1c3cb0"},"vehicle_type_id":"4","last_reported":1761840800,"current_range_meters":18000,"station_id":"ce4bhn12rcd13ifvqgpg","pricing_plan_id":"cebpf4jnsgd1na2vs0mg"},{"bike_id":"9da932a5-8f71-41d5-90d3-bb657dc1c603","system_id":"levelo_inurba_marseille","lat":43.276635,"lon":5.388816,"is_reserved":false,"is_disabled":false,"rental_uris":{"android":"levelo://app?vid=9da932a5-8f71-41d5-90d3-bb657dc1c603","ios":"levelo://app?vid=9da932a5-8f71-41d5-90d3-bb657dc1c603"},"vehicle_type_id":"4","last_reported":1761840800,"current_range_meters":18000,"station_id":"ce4bhi12rcd13ifvqfo0","pricing_plan_id":"cebpf4jnsgd1na2vs0mg"},{"bike_id":"a2d649be-bc5d-449d-b4cd-e3d48723cbc0","system_id":"levelo_inurba_marseille","lat":43.311311,"lon":5.378096,"is_reserved":false,"is_disabled":false,"rental_uris":{"android":"levelo://app?vid=a2d649be-bc5d-449d-b4cd-e3d48723cbc0","ios":"levelo://app?vid=a2d649be-bc5d-449d-b4cd-e3d48723cbc0"},"vehicle_type_id":"4","last_reported":1761840800,"current_range_meters":18000,"station_id":"","pricing_plan_id":"cebpf4jnsgd1na2vs0mg"},{"bike_id":"a27ea015-9d73-41b0-aa36-b3953f30b56d","system_id":"levelo_inurba_marseille","lat":43.24634,"lon":5.38906,"is_reserved":false,"is_disabled":false,"rental_uris":{"android":"levelo://app?vid=a27ea015-9d73-41b0-aa36-b3953f30b56d","ios":"levelo://app?vid=a27ea015-9d73-41b0-aa36-b3953f30b56d"},"vehicle_type_id":"4","last_reported":1761840800,"current_range_meters":18800,"station_id":"ce4bhg12rcd13ifvqf60","pricing_plan_id":"cebpf4jnsgd1na2vs0mg"},{"bike_id":"75b632ee-b322-427a-9c83-012aabefdddb","system_id":"levelo_inurba_marseille","lat":43.30133,"lon":5.38789,"is_reserved":false,"is_disabled":false,"rental_uris":{"android":"levelo://app?vid=75b632ee-b322-427a-9c83-012aabefdddb","ios":"levelo://app?vid=75b632ee-b322-427a-9c83-012aabefdddb"},"vehicle_type_id":"4","last_reported":1761840800,"current_range_meters":18800,"station_id":"ce4bghh2rcd13ifvqb60","pricing_plan_id":"cebpf4jnsgd1na2vs0mg"},{"bike_id":"c35d959d-7200-4d76-a300-166976c418c8","system_id":"levelo_inurba_marseille","lat":43.29571,"lon":5.37532,"is_reserved":false,"is_disabled":false,"rental_uris":{"android":"levelo://app?vid=c35d959d-7200-4d76-a300-166976c418c8","ios":"levelo://app?vid=c35d959d-7200-4d76-a300-166976c418c8"},"vehicle_type_id":"4","last_reported":1761840800,"current_range_meters":18800,"station_id":"ce4bgh92rcd13ifvqb50","pricing_plan_id":"cebpf4jnsgd1na2vs0mg"},{"bike_id":"ee261a32-9de1-4b9e-a923-6c91e1e26176","system_id":"levelo_inurba_marseille","lat":43.28481,"lon":5.48425,"is_reserved":false,"is_disabled":false,"rental_uris":{"android":"levelo://app?vid=ee261a32-9de1-4b9e-a923-6c91e1e26176","ios":"levelo://app?vid=ee261a32-9de1-4b9e-a923-6c91e1e26176"},"vehicle_type_id":"4","last_reported":1761840800,"current_range_meters":18800,"station_id":"st_d3svhcjqgbts73a3dn0g","pricing_plan_id":"cebpf4jnsgd1na2vs0mg"},{"bike_id":"0a9abdf5-79f0-47db-9743-c4be71bd0ac0","system_id":"levelo_inurba_marseille","lat":43.30129,"lon":5.43117,"is_reserved":false,"is_disabled":false,"rental_uris":{"android":"levelo://app?vid=0a9abdf5-79f0-47db-9743-c4be71bd0ac0","ios":"levelo://app?vid=0a9abdf5-79f0-47db-9743-c4be71bd0ac0"},"vehicle_type_id":"4","last_reported":1761840800,"current_range_meters":18800,"station_id":"st_d3js3co5814s73ftftug","pricing_plan_id":"cebpf4jnsgd1na2vs0mg"},{"bike_id":"ade39380-d3ac-4843-aac0-8d8c294215d1","system_id":"levelo_inurba_marseille","lat":43.273745,"lon":5.362607,"is_reserved":false,"is_disabled":false,"rental_uris":{"android":"levelo://app?vid=ade39380-d3ac-4843-aac0-8d8c294215d1","ios":"levelo://app?vid=ade39380-d3ac-4843-aac0-8d8c294215d1"},"vehicle_type_id":"4","last_reported":1761840800,"current_range_meters":18800,"station_id":"ce4bhbh2rcd13ifvqeo0","pricing_plan_id":"cebpf4jnsgd1na2vs0mg"},{"bike_id":"ac054415-4e37-4567-b95e-73970b5e64bc","system_id":"levelo_inurba_marseille","lat":43.32503,"lon":5.36563,"is_reserved":false,"is_disabled":false,"rental_uris":{"android":"levelo://app?vid=ac054415-4e37-4567-b95e-73970b5e64bc","ios":"levelo://app?vid=ac054415-4e37-4567-b95e-73970b5e64bc"},"vehicle_type_id":"4","last_reported":1761840800,"current_range_meters":18800,"station_id":"ce4bhs12rcd13ifvqhvg","pricing_plan_id":"cebpf4jnsgd1na2vs0mg"},{"bike_id":"61121756-fb97-412c-8132-feb74a262f31","system_id":"levelo_inurba_marseille","lat":43.28861,"lon":5.35853,"is_reserved":false,"is_disabled":false,"rental_uris":{"android":"levelo://app?vid=61121756-fb97-412c-8132-feb74a262f31","ios":"levelo://app?vid=61121756-fb97-412c-8132-feb74a262f31"},"vehicle_type_id":"4","last_reported":1761840800,"current_range_meters":18800,"station_id":"ce4bhb12rcd13ifvqem0","pricing_plan_id":"cebpf4jnsgd1na2vs0mg"},{"bike_id":"4dfe3a7a-891b-4a3a-a7d8-8b0c8654af30","system_id":"levelo_inurba_marseille","lat":43.260404,"lon":5.37568,"is_reserved":false,"is_disabled":false,"rental_uris":{"android":"levelo://app?vid=4dfe3a7a-891b-4a3a-a7d8-8b0c8654af30","ios":"levelo://app?vid=4dfe3a7a-891b-4a3a-a7d8-8b0c8654af30"},"vehicle_type_id":"4","last_reported":1761840800,"current_range_meters":19200,"station_id":"ce4bhgh2rcd13ifvqfa0","pricing_plan_id":"cebpf4jnsgd1na2vs0mg"},{"bike_id":"245e8705-03ee-4c40-9184-1a1bf02c04f4","system_id":"levelo_inurba_marseille","lat":43.28419,"lon":5.34981,"is_reserved":false,"is_disabled":false,"rental_uris":{"android":"levelo://app?vid=245e8705-03ee-4c40-9184-1a1bf02c04f4","ios":"levelo://app?vid=245e8705-03ee-4c40-9184-1a1bf02c04f4"},"vehicle_type_id":"4","last_reported":1761840800,"current_range_meters":19200,"station_id":"ce4bhbh2rcd13ifvqepg","pricing_plan_id":"cebpf4jnsgd1na2vs0mg"},{"bike_id":"80628eeb-4f05-4a9e-af26-302f18c5c9d1","system_id":"levelo_inurba_marseille","lat":43.296478,"lon":5.405741,"is_reserved":false,"is_disabled":false,"rental_uris":{"android":"levelo://app?vid=80628eeb-4f05-4a9e-af26-302f18c5c9d1","ios":"levelo://app?vid=80628eeb-4f05-4a9e-af26-302f18c5c9d1"},"vehicle_type_id":"4","last_reported":1761840800,"current_range_meters":19200,"station_id":"ce4bh0h2rcd13ifvqd60","pricing_plan_id":"cebpf4jnsgd1na2vs0mg"},{"bike_id":"179ce6e6-2ed9-442e-92a4-9e439bdae226","system_id":"levelo_inurba_marseille","lat":43.31221,"lon":5.36868,"is_reserved":false,"is_disabled":false,"rental_uris":{"android":"levelo://app?vid=179ce6e6-2ed9-442e-92a4-9e439bdae226","ios":"levelo://app?vid=179ce6e6-2ed9-442e-92a4-9e439bdae226"},"vehicle_type_id":"4","last_reported":1761840800,"current_range_meters":19200,"station_id":"ce4bgl92rcd13ifvqbq0","pricing_plan_id":"cebpf4jnsgd1na2vs0mg"},{"bike_id":"88dd3473-3e9f-46c4-8270-d9049276e7a2","system_id":"levelo_inurba_marseille","lat":43.29267,"lon":5.38449,"is_reserved":false,"is_disabled":false,"rental_uris":{"android":"levelo://app?vid=88dd3473-3e9f-46c4-8270-d9049276e7a2","ios":"levelo://app?vid=88dd3473-3e9f-46c4-8270-d9049276e7a2"},"vehicle_type_id":"4","last_reported":1761840800,"current_range_meters":19200,"station_id":"ce4bh692rcd13ifvqea0","pricing_plan_id":"cebpf4jnsgd1na2vs0mg"},{"bike_id":"3e147cc7-1c05-4c10-88db-3d10fe34fe3a","system_id":"levelo_inurba_marseille","lat":43.2462,"lon":5.43159,"is_reserved":false,"is_disabled":false,"rental_uris":{"android":"levelo://app?vid=3e147cc7-1c05-4c10-88db-3d10fe34fe3a","ios":"levelo://app?vid=3e147cc7-1c05-4c10-88db-3d10fe34fe3a"},"vehicle_type_id":"4","last_reported":1761840800,"current_range_meters":19200,"station_id":"st_d2m6c4gdas8pm72e190g","pricing_plan_id":"cebpf4jnsgd1na2vs0mg"},{"bike_id":"dedb4f63-ea54-40fc-9c19-5ff9807fc89a","system_id":"levelo_inurba_marseille","lat":43.27376,"lon":5.36262,"is_reserved":false,"is_disabled":false,"rental_uris":{"android":"levelo://app?vid=dedb4f63-ea54-40fc-9c19-5ff9807fc89a","ios":"levelo://app?vid=dedb4f63-ea54-40fc-9c19-5ff9807fc89a"},"vehicle_type_id":"4","last_reported":1761840800,"current_range_meters":19200,"station_id":"ce4bhbh2rcd13ifvqeo0","pricing_plan_id":"cebpf4jnsgd1na2vs0mg"},{"bike_id":"0c450ae0-3bd3-4844-a578-2e3540a5ce9a","system_id":"levelo_inurba_marseille","lat":43.290052,"lon":5.356202,"is_reserved":false,"is_disabled":false,"rental_uris":{"android":"levelo://app?vid=0c450ae0-3bd3-4844-a578-2e3540a5ce9a","ios":"levelo://app?vid=0c450ae0-3bd3-4844-a578-2e3540a5ce9a"},"vehicle_type_id":"4","last_reported":1761840800,"current_range_meters":19600,"station_id":"ce4bhb92rcd13ifvqen0","pricing_plan_id":"cebpf4jnsgd1na2vs0mg"},{"bike_id":"92d3bb10-cecc-45f5-8772-050b6ea4a201","system_id":"levelo_inurba_marseille","lat":43.29606,"lon":5.38109,"is_reserved":false,"is_disabled":false,"rental_uris":{"android":"levelo://app?vid=92d3bb10-cecc-45f5-8772-050b6ea4a201","ios":"levelo://app?vid=92d3bb10-cecc-45f5-8772-050b6ea4a201"},"vehicle_type_id":"4","last_reported":1761840800,"current_range_meters":19600,"station_id":"ce4bgl12rcd13ifvqbo0","pricing_plan_id":"cebpf4jnsgd1na2vs0mg"},{"bike_id":"57f5f8a3-a2e5-4738-be30-d9e787bb4b56","system_id":"levelo_inurba_marseille","lat":43.31162,"lon":5.38722,"is_reserved":false,"is_disabled":false,"rental_uris":{"android":"levelo://app?vid=57f5f8a3-a2e5-4738-be30-d9e787bb4b56","ios":"levelo://app?vid=57f5f8a3-a2e5-4738-be30-d9e787bb4b56"},"vehicle_type_id":"4","last_reported":1761840800,"current_range_meters":19600,"station_id":"ce4bgv12rcd13ifvqcp0","pricing_plan_id":"cebpf4jnsgd1na2vs0mg"},{"bike_id":"e974006c-e3c8-4c1a-9a8d-ea5c7e7acb49","system_id":"levelo_inurba_marseille","lat":43.28533,"lon":5.4411,"is_reserved":false,"is_disabled":false,"rental_uris":{"android":"levelo://app?vid=e974006c-e3c8-4c1a-9a8d-ea5c7e7acb49","ios":"levelo://app?vid=e974006c-e3c8-4c1a-9a8d-ea5c7e7acb49"},"vehicle_type_id":"4","last_reported":1761840800,"current_range_meters":19600,"station_id":"st_d3j3df2ikq2c7380ej80","pricing_plan_id":"cebpf4jnsgd1na2vs0mg"},{"bike_id":"e8fb471d-6704-4a2b-9621-894774c671ec","system_id":"levelo_inurba_marseille","lat":43.303,"lon":5.36906,"is_reserved":false,"is_disabled":false,"rental_uris":{"android":"levelo://app?vid=e8fb471d-6704-4a2b-9621-894774c671ec","ios":"levelo://app?vid=e8fb471d-6704-4a2b-9621-894774c671ec"},"vehicle_type_id":"4","last_reported":1761840800,"current_range_meters":19600,"station_id":"ce4bgqh2rcd13ifvqc5g","pricing_plan_id":"cebpf4jnsgd1na2vs0mg"},{"bike_id":"17860370-b709-464a-ae87-ef07a5744ace","system_id":"levelo_inurba_marseille","lat":43.26698,"lon":5.38273,"is_reserved":false,"is_disabled":false,"rental_uris":{"android":"levelo://app?vid=17860370-b709-464a-ae87-ef07a5744ace","ios":"levelo://app?vid=17860370-b709-464a-ae87-ef07a5744ace"},"vehicle_type_id":"4","last_reported":1761840800,"current_range_meters":19600,"station_id":"ce4bhg92rcd13ifvqf90","pricing_plan_id":"cebpf4jnsgd1na2vs0mg"},{"bike_id":"9f32e64d-ec77-47ef-8987-a99a93efa581","system_id":"levelo_inurba_marseille","lat":43.2926,"lon":5.38439,"is_reserved":false,"is_disabled":false,"rental_uris":{"android":"levelo://app?vid=9f32e64d-ec77-47ef-8987-a99a93efa581","ios":"levelo://app?vid=9f32e64d-ec77-47ef-8987-a99a93efa581"},"vehicle_type_id":"4","last_reported":1761840800,"current_range_meters":19600,"station_id":"ce4bh692rcd13ifvqea0","pricing_plan_id":"cebpf4jnsgd1na2vs0mg"},{"bike_id":"85530c84-bfa4-4ce9-bfb6-2e22b08fbd71","system_id":"levelo_inurba_marseille","lat":43.265685,"lon":5.390392,"is_reserved":false,"is_disabled":false,"rental_uris":{"android":"levelo://app?vid=85530c84-bfa4-4ce9-bfb6-2e22b08fbd71","ios":"levelo://app?vid=85530c84-bfa4-4ce9-bfb6-2e22b08fbd71"},"vehicle_type_id":"4","last_reported":1761840800,"current_range_meters":19600,"station_id":"ce4bhe12rcd13ifvqf30","pricing_plan_id":"cebpf4jnsgd1na2vs0mg"},{"bike_id":"47546dc0-bf8c-4532-b842-7606b6752862","system_id":"levelo_inurba_marseille","lat":43.29235,"lon":5.36062,"is_reserved":false,"is_disabled":false,"rental_uris":{"android":"levelo://app?vid=47546dc0-bf8c-4532-b842-7606b6752862","ios":"levelo://app?vid=47546dc0-bf8c-4532-b842-7606b6752862"},"vehicle_type_id":"4","last_reported":1761840800,"current_range_meters":19600,"station_id":"ce4bhbh2rcd13ifvqeqg","pricing_plan_id":"cebpf4jnsgd1na2vs0mg"},{"bike_id":"90cc4e35-1e9a-4d48-878d-a3997094c0ce","system_id":"levelo_inurba_marseille","lat":43.24641,"lon":5.43163,"is_reserved":false,"is_disabled":false,"rental_uris":{"android":"levelo://app?vid=90cc4e35-1e9a-4d48-878d-a3997094c0ce","ios":"levelo://app?vid=90cc4e35-1e9a-4d48-878d-a3997094c0ce"},"vehicle_type_id":"4","last_reported":1761840800,"current_range_meters":19600,"station_id":"st_d2m6c4gdas8pm72e190g","pricing_plan_id":"cebpf4jnsgd1na2vs0mg"},{"bike_id":"eedf5c72-24ff-4ffb-9512-9a1b7bf39ee7","system_id":"levelo_inurba_marseille","lat":43.2857,"lon":5.39498,"is_reserved":false,"is_disabled":false,"rental_uris":{"android":"levelo://app?vid=eedf5c72-24ff-4ffb-9512-9a1b7bf39ee7","ios":"levelo://app?vid=eedf5c72-24ff-4ffb-9512-9a1b7bf39ee7"},"vehicle_type_id":"4","last_reported":1761840800,"current_range_meters":20000,"station_id":"ce4bh292rcd13ifvqdg0","pricing_plan_id":"cebpf4jnsgd1na2vs0mg"},{"bike_id":"12ac807a-213a-49c5-b2fc-79721add691c","system_id":"levelo_inurba_marseille","lat":43.28707,"lon":5.39991,"is_reserved":false,"is_disabled":false,"rental_uris":{"android":"levelo://app?vid=12ac807a-213a-49c5-b2fc-79721add691c","ios":"levelo://app?vid=12ac807a-213a-49c5-b2fc-79721add691c"},"vehicle_type_id":"4","last_reported":1761840800,"current_range_meters":20000,"station_id":"ce4bho92rcd13ifvqh3g","pricing_plan_id":"cebpf4jnsgd1na2vs0mg"},{"bike_id":"fee781e3-8f99-4f92-a4b8-8dfdec2644b9","system_id":"levelo_inurba_marseille","lat":43.23053,"lon":5.35495,"is_reserved":false,"is_disabled":false,"rental_uris":{"android":"levelo://app?vid=fee781e3-8f99-4f92-a4b8-8dfdec2644b9","ios":"levelo://app?vid=fee781e3-8f99-4f92-a4b8-8dfdec2644b9"},"vehicle_type_id":"4","last_reported":1761840800,"current_range_meters":20000,"station_id":"cpo3342slgdg3j2ifvpg","pricing_plan_id":"cebpf4jnsgd1na2vs0mg"},{"bike_id":"8bd76c8d-f5a7-49ff-b58b-3b6e9febc7f1","system_id":"levelo_inurba_marseille","lat":43.28537,"lon":5.44112,"is_reserved":false,"is_disabled":false,"rental_uris":{"android":"levelo://app?vid=8bd76c8d-f5a7-49ff-b58b-3b6e9febc7f1","ios":"levelo://app?vid=8bd76c8d-f5a7-49ff-b58b-3b6e9febc7f1"},"vehicle_type_id":"4","last_reported":1761840800,"current_range_meters":20000,"station_id":"st_d3j3df2ikq2c7380ej80","pricing_plan_id":"cebpf4jnsgd1na2vs0mg"},{"bike_id":"bddb8693-ae26-4187-b437-2afcc4363043","system_id":"levelo_inurba_marseille","lat":43.29875,"lon":5.39733,"is_reserved":false,"is_disabled":false,"rental_uris":{"android":"levelo://app?vid=bddb8693-ae26-4187-b437-2afcc4363043","ios":"levelo://app?vid=bddb8693-ae26-4187-b437-2afcc4363043"},"vehicle_type_id":"4","last_reported":1761840800,"current_range_meters":20000,"station_id":"ce4bh0h2rcd13ifvqd50","pricing_plan_id":"cebpf4jnsgd1na2vs0mg"},{"bike_id":"26d7ae0a-4f0b-4377-82b8-aef3e7a0fca5","system_id":"levelo_inurba_marseille","lat":43.26593,"lon":5.39037,"is_reserved":false,"is_disabled":true,"rental_uris":{"android":"levelo://app?vid=26d7ae0a-4f0b-4377-82b8-aef3e7a0fca5","ios":"levelo://app?vid=26d7ae0a-4f0b-4377-82b8-aef3e7a0fca5"},"vehicle_type_id":"4","last_reported":1761840800,"current_range_meters":20000,"station_id":"ce4bhe12rcd13ifvqf30","pricing_plan_id":"cebpf4jnsgd1na2vs0mg"},{"bike_id":"ad554042-17be-4e7a-abcb-5142fefcc30a","system_id":"levelo_inurba_marseille","lat":43.228089,"lon":5.349684,"is_reserved":false,"is_disabled":false,"rental_uris":{"android":"levelo://app?vid=ad554042-17be-4e7a-abcb-5142fefcc30a","ios":"levelo://app?vid=ad554042-17be-4e7a-abcb-5142fefcc30a"},"vehicle_type_id":"4","last_reported":1761840800,"current_range_meters":20000,"station_id":"","pricing_plan_id":"cebpf4jnsgd1na2vs0mg"},{"bike_id":"c0a3e8e0-9e54-4e46-9b5b-fec2b0c05196","system_id":"levelo_inurba_marseille","lat":43.295121,"lon":5.373667,"is_reserved":false,"is_disabled":false,"rental_uris":{"android":"levelo://app?vid=c0a3e8e0-9e54-4e46-9b5b-fec2b0c05196","ios":"levelo://app?vid=c0a3e8e0-9e54-4e46-9b5b-fec2b0c05196"},"vehicle_type_id":"4","last_reported":1761840800,"current_range_meters":20000,"station_id":"ce4bgnh2rcd13ifvqc0g","pricing_plan_id":"cebpf4jnsgd1na2vs0mg"},{"bike_id":"a967b23e-47e3-4971-bcc9-9e620855f851","system_id":"levelo_inurba_marseille","lat":43.304331,"lon":5.389031,"is_reserved":false,"is_disabled":false,"rental_uris":{"android":"levelo://app?vid=a967b23e-47e3-4971-bcc9-9e620855f851","ios":"levelo://app?vid=a967b23e-47e3-4971-bcc9-9e620855f851"},"vehicle_type_id":"4","last_reported":1761840800,"current_range_meters":20000,"station_id":"ce4bgk12rcd13ifvqbi0","pricing_plan_id":"cebpf4jnsgd1na2vs0mg"},{"bike_id":"a9cdbb07-222c-4ae2-b8a0-add1896b5ebf","system_id":"levelo_inurba_marseille","lat":43.2607,"lon":5.39401,"is_reserved":false,"is_disabled":false,"rental_uris":{"android":"levelo://app?vid=a9cdbb07-222c-4ae2-b8a0-add1896b5ebf","ios":"levelo://app?vid=a9cdbb07-222c-4ae2-b8a0-add1896b5ebf"},"vehicle_type_id":"4","last_reported":1761840800,"current_range_meters":20400,"station_id":"ce4bhh92rcd13ifvqfj0","pricing_plan_id":"cebpf4jnsgd1na2vs0mg"},{"bike_id":"4c048a96-d103-4561-9dfa-cea6174628b6","system_id":"levelo_inurba_marseille","lat":43.32108,"lon":5.36773,"is_reserved":false,"is_disabled":false,"rental_uris":{"android":"levelo://app?vid=4c048a96-d103-4561-9dfa-cea6174628b6","ios":"levelo://app?vid=4c048a96-d103-4561-9dfa-cea6174628b6"},"vehicle_type_id":"4","last_reported":1761840800,"current_range_meters":20400,"station_id":"ce4bhrh2rcd13ifvqhug","pricing_plan_id":"cebpf4jnsgd1na2vs0mg"},{"bike_id":"a7bd560b-94cf-4013-8850-d2a90f9b3ea1","system_id":"levelo_inurba_marseille","lat":43.29199,"lon":5.35802,"is_reserved":false,"is_disabled":false,"rental_uris":{"android":"levelo://app?vid=a7bd560b-94cf-4013-8850-d2a90f9b3ea1","ios":"levelo://app?vid=a7bd560b-94cf-4013-8850-d2a90f9b3ea1"},"vehicle_type_id":"4","last_reported":1761840800,"current_range_meters":20400,"station_id":"ce4bhb12rcd13ifvqel0","pricing_plan_id":"cebpf4jnsgd1na2vs0mg"},{"bike_id":"b1e81361-2b17-4ef1-8a58-6def5753471b","system_id":"levelo_inurba_marseille","lat":43.33753,"lon":5.37484,"is_reserved":false,"is_disabled":false,"rental_uris":{"android":"levelo://app?vid=b1e81361-2b17-4ef1-8a58-6def5753471b","ios":"levelo://app?vid=b1e81361-2b17-4ef1-8a58-6def5753471b"},"vehicle_type_id":"4","last_reported":1761840800,"current_range_meters":20400,"station_id":"","pricing_plan_id":"cebpf4jnsgd1na2vs0mg"},{"bike_id":"58af4d7b-5010-4db8-9b36-4c2806453fbd","system_id":"levelo_inurba_marseille","lat":43.29203,"lon":5.39322,"is_reserved":false,"is_disabled":false,"rental_uris":{"android":"levelo://app?vid=58af4d7b-5010-4db8-9b36-4c2806453fbd","ios":"levelo://app?vid=58af4d7b-5010-4db8-9b36-4c2806453fbd"},"vehicle_type_id":"4","last_reported":1761840800,"current_range_meters":20400,"station_id":"ce4bh192rcd13ifvqdd0","pricing_plan_id":"cebpf4jnsgd1na2vs0mg"},{"bike_id":"dd7effdd-b4d0-4944-b416-eed0dda84790","system_id":"levelo_inurba_marseille","lat":43.286154,"lon":5.370665,"is_reserved":false,"is_disabled":false,"rental_uris":{"android":"levelo://app?vid=dd7effdd-b4d0-4944-b416-eed0dda84790","ios":"levelo://app?vid=dd7effdd-b4d0-4944-b416-eed0dda84790"},"vehicle_type_id":"4","last_reported":1761840800,"current_range_meters":20400,"station_id":"","pricing_plan_id":"cebpf4jnsgd1na2vs0mg"},{"bike_id":"3384779c-ddef-4070-a2b8-a321b3b71fab","system_id":"levelo_inurba_marseille","lat":43.28038,"lon":5.369467,"is_reserved":false,"is_disabled":false,"rental_uris":{"android":"levelo://app?vid=3384779c-ddef-4070-a2b8-a321b3b71fab","ios":"levelo://app?vid=3384779c-ddef-4070-a2b8-a321b3b71fab"},"vehicle_type_id":"4","last_reported":1761840800,"current_range_meters":20400,"station_id":"ce4bha12rcd13ifvqef0","pricing_plan_id":"cebpf4jnsgd1na2vs0mg"},{"bike_id":"6b3658f9-7b9c-4b9a-8abf-f3260d6b9b76","system_id":"levelo_inurba_marseille","lat":43.24628,"lon":5.43154,"is_reserved":false,"is_disabled":false,"rental_uris":{"android":"levelo://app?vid=6b3658f9-7b9c-4b9a-8abf-f3260d6b9b76","ios":"levelo://app?vid=6b3658f9-7b9c-4b9a-8abf-f3260d6b9b76"},"vehicle_type_id":"4","last_reported":1761840800,"current_range_meters":20800,"station_id":"st_d2m6c4gdas8pm72e190g","pricing_plan_id":"cebpf4jnsgd1na2vs0mg"},{"bike_id":"9ea9f5b7-d963-4546-b85c-1d443d48cac7","system_id":"levelo_inurba_marseille","lat":43.27218,"lon":5.39214,"is_reserved":false,"is_disabled":true,"rental_uris":{"android":"levelo://app?vid=9ea9f5b7-d963-4546-b85c-1d443d48cac7","ios":"levelo://app?vid=9ea9f5b7-d963-4546-b85c-1d443d48cac7"},"vehicle_type_id":"4","last_reported":1761840800,"current_range_meters":20800,"station_id":"ce4bhhp2rcd13ifvqfm0","pricing_plan_id":"cebpf4jnsgd1na2vs0mg"},{"bike_id":"52b117f2-4c01-4f66-887d-006722496528","system_id":"levelo_inurba_marseille","lat":43.3088,"lon":5.37163,"is_reserved":false,"is_disabled":false,"rental_uris":{"android":"levelo://app?vid=52b117f2-4c01-4f66-887d-006722496528","ios":"levelo://app?vid=52b117f2-4c01-4f66-887d-006722496528"},"vehicle_type_id":"4","last_reported":1761840800,"current_range_meters":20800,"station_id":"ce4bguh2rcd13ifvqckg","pricing_plan_id":"cebpf4jnsgd1na2vs0mg"},