{"last_updated":1743890912,"ttl":60,"version":"2.2","data":{"bikes":[{"bike_id":"24d27b9b-7728-4a6b-a836-25729f51d285","system_id":"levelo_inurba_marseille","lat":43.33067,"lon":5.40819,"is_reserved":false,"is_disabled":false,"rental_uris":{"android":"levelo://app?vid=24d27b9b-7728-4a6b-a836-25729f51d285","ios":"levelo://app?vid=24d27b9b-7728-4a6b-a836-25729f51d285"},"vehicle_type_id":"4","last_reported":1743890912,"current_range_meters":2800,"station_id":"","pricing_plan_id":"cebpf4jnsgd1na2vs0mg"},{"bike_id":"d67c0e53-3448-4f64-9fd6-8f8ed88cd213","system_id":"levelo_inurba_marseille","lat":43.28457,"lon":5.35888,"is_reserved":false,"is_disabled":false,"rental_uris":{"android":"levelo://app?vid=d67c0e53-3448-4f64-9fd6-8f8ed88cd213","ios":"levelo://app?vid=d67c0e53-3448-4f64-9fd6-8f8ed88cd213"},"vehicle_type_id":"4","last_reported":1743890912,"current_range_meters":2800,"station_id":"ce4bhah2rcd13ifvqei0","pricing_plan_id":"cebpf4jnsgd1na2vs0mg"},{"bike_id":"9562a87a-effb-4db3-91b0-0d3af03d5db7","system_id":"levelo_inurba_marseille","lat":43.30722,"lon":5.38051,"is_reserved":false,"is_disabled":false,"rental_uris":{"android":"levelo://app?vid=9562a87a-effb-4db3-91b0-0d3af03d5db7","ios":"levelo://app?vid=9562a87a-effb-4db3-91b0-0d3af03d5db7"},"vehicle_type_id":"4","last_reported":1743890912,"current_range_meters":3200,"station_id":"","pricing_plan_id":"cebpf4jnsgd1na2vs0mg"},{"bike_id":"a6c104ac-021c-44cb-82fc-905b948e3586","system_id":"levelo_inurba_marseille","lat":43.28032,"lon":5.3695,"is_reserved":false,"is_disabled":false,"rental_uris":{"android":"levelo://app?vid=a6c104ac-021c-44cb-82fc-905b948e3586","ios":"levelo://app?vid=a6c104ac-021c-44cb-82fc-905b948e3586"},"vehicle_type_id":"4","last_reported":1743890912,"current_range_meters":3200,"station_id":"ce4bha12rcd13ifvqef0","pricing_plan_id":"cebpf4jnsgd1na2vs0mg"},{"bike_id":"b337ffe0-857c-475c-bdaf-551b41050ced","system_id":"levelo_inurba_marseille","lat":43.27204,"lon":5.39182,"is_reserved":false,"is_disabled":false,"rental_uris":{"android":"levelo://app?vid=b337ffe0-857c-475c-bdaf-551b41050ced","ios":"levelo://app?vid=b337ffe0-857c-475c-bdaf-551b41050ced"},"vehicle_type_id":"4","last_reported":1743890912,"current_range_meters":3200,"station_id":"ce4bhhp2rcd13ifvqfm0","pricing_plan_id":"cebpf4jnsgd1na2vs0mg"},{"bike_id":"5956c6e8-906f-4edb-9df9-1831a0aee554","system_id":"levelo_inurba_marseille","lat":43.2396,"lon":5.36648,"is_reserved":false,"is_disabled":false,"rental_uris":{"android":"levelo://app?vid=5956c6e8-906f-4edb-9df9-1831a0aee554","ios":"levelo://app?vid=5956c6e8-906f-4edb-9df9-1831a0aee554"},"vehicle_type_id":"4","last_reported":1743890912,"current_range_meters":3200,"station_id":"ce4bhi12rcd13ifvqfp0","pricing_plan_id":"cebpf4jnsgd1na2vs0mg"},{"bike_id":"944a2e5d-7a2e-4a71-9248-ee2789c87c75","system_id":"levelo_inurba_marseille","lat":43.2903,"lon":5.39968,"is_reserved":false,"is_disabled":false,"rental_uris":{"android":"levelo://app?vid=944a2e5d-7a2e-4a71-9248-ee2789c87c75","ios":"levelo://app?vid=944a2e5d-7a2e-4a71-9248-ee2789c87c75"},"vehicle_type_id":"4","last_reported":1743890912,"current_range_meters":4000,"station_id":"ce4bh392rcd13ifvqdm0","pricing_plan_id":"cebpf4jnsgd1na2vs0mg"},{"bike_id":"c789be55-0770-4fb1-8ae7-89f7e7ef741e","system_id":"levelo_inurba_marseille","lat":43.28934,"lon":5.36629,"is_reserved":false,"is_disabled":false,"rental_uris":{"android":"levelo://app?vid=c789be55-0770-4fb1-8ae7-89f7e7ef741e","ios":"levelo://app?vid=c789be55-0770-4fb1-8ae7-89f7e7ef741e"},"vehicle_type_id":"4","last_reported":1743890912,"current_range_meters":4000,"station_id":"ce4bhap2rcd13ifvqek0","pricing_plan_id":"cebpf4jnsgd1na2vs0mg"},{"bike_id":"037a3688-1113-4c7f-803b-25f60b7d4e3b","system_id":"levelo_inurba_marseille","lat":43.24796,"lon":5.3747,"is_reserved":false,"is_disabled":false,"rental_uris":{"android":"levelo://app?vid=037a3688-1113-4c7f-803b-25f60b7d4e3b","ios":"levelo://app?vid=037a3688-1113-4c7f-803b-25f60b7d4e3b"},"vehicle_type_id":"4","last_reported":1743890912,"current_range_meters":4400,"station_id":"ce4bhgh2rcd13ifvqfb0","pricing_plan_id":"cebpf4jnsgd1na2vs0mg"},{"bike_id":"1af2debf-908d-4323-b3c9-7531c01fb6bc","system_id":"levelo_inurba_marseille","lat":43.290619,"lon":5.37153,"is_reserved":false,"is_disabled":false,"rental_uris":{"android":"levelo://app?vid=1af2debf-908d-4323-b3c9-7531c01fb6bc","ios":"levelo://app?vid=1af2debf-908d-4323-b3c9-7531c01fb6bc"},"vehicle_type_id":"4","last_reported":1743890912,"current_range_meters":4400,"station_id":"","pricing_plan_id":"cebpf4jnsgd1na2vs0mg"},{"bike_id":"50297066-959d-45c5-a71e-b062cc3724ec","system_id":"levelo_inurba_marseille","lat":43.30771,"lon":5.37333,"is_reserved":false,"is_disabled":false,"rental_uris":{"android":"levelo://app?vid=50297066-959d-45c5-a71e-b062cc3724ec","ios":"levelo://app?vid=50297066-959d-45c5-a71e-b062cc3724ec"},"vehicle_type_id":"4","last_reported":1743890912,"current_range_meters":4400,"station_id":"","pricing_plan_id":"cebpf4jnsgd1na2vs0mg"},{"bike_id":"b991118a-b3fd-4081-a6c6-23b69168496a","system_id":"levelo_inurba_marseille","lat":43.21757,"lon":5.34597,"is_reserved":false,"is_disabled":true,"rental_uris":{"android":"levelo://app?vid=b991118a-b3fd-4081-a6c6-23b69168496a","ios":"levelo://app?vid=b991118a-b3fd-4081-a6c6-23b69168496a"},"vehicle_type_id":"4","last_reported":1743890912,"current_range_meters":4800,"station_id":"st_cvj6r9ubvosntc0bgbag","pricing_plan_id":"cebpf4jnsgd1na2vs0mg"},{"bike_id":"351fe75b-eb04-4abc-9eb5-865028629e1f","system_id":"levelo_inurba_marseille","lat":43.29276,"lon":5.40118,"is_reserved":false,"is_disabled":false,"rental_uris":{"android":"levelo://app?vid=351fe75b-eb04-4abc-9eb5-865028629e1f","ios":"levelo://app?vid=351fe75b-eb04-4abc-9eb5-865028629e1f"},"vehicle_type_id":"4","last_reported":1743890912,"current_range_meters":4800,"station_id":"ce4bh312rcd13ifvqdk0","pricing_plan_id":"cebpf4jnsgd1na2vs0mg"},{"bike_id":"9f11ddad-f9cf-432b-8e0c-b6536f5e7092","system_id":"levelo_inurba_marseille","lat":43.27951,"lon":5.4104,"is_reserved":false,"is_disabled":false,"rental_uris":{"android":"levelo://app?vid=9f11ddad-f9cf-432b-8e0c-b6536f5e7092","ios":"levelo://app?vid=9f11ddad-f9cf-432b-8e0c-b6536f5e7092"},"vehicle_type_id":"4","last_reported":1743890912,"current_range_meters":4800,"station_id":"ce4bhnp2rcd13ifvqh0g","pricing_plan_id":"cebpf4jnsgd1na2vs0mg"},{"bike_id":"02dd5f37-e4ce-4efc-9ce6-2776472fc632","system_id":"levelo_inurba_marseille","lat":43.25114,"lon":5.40334,"is_reserved":false,"is_disabled":false,"rental_uris":{"android":"levelo://app?vid=02dd5f37-e4ce-4efc-9ce6-2776472fc632","ios":"levelo://app?vid=02dd5f37-e4ce-4efc-9ce6-2776472fc632"},"vehicle_type_id":"4","last_reported":1743890912,"current_range_meters":4800,"station_id":"ce4bhlh2rcd13ifvqgig","pricing_plan_id":"cebpf4jnsgd1na2vs0mg"},{"bike_id":"4de2753b-47dd-45d8-8907-cb5207b9492d","system_id":"levelo_inurba_marseille","lat":43.2836,"lon":5.38634,"is_reserved":false,"is_disabled":false,"rental_uris":{"android":"levelo://app?vid=4de2753b-47dd-45d8-8907-cb5207b9492d","ios":"levelo://app?vid=4de2753b-47dd-45d8-8907-cb5207b9492d"},"vehicle_type_id":"4","last_reported":1743890912,"current_range_meters":4800,"station_id":"ce4bh492rcd13ifvqdvg","pricing_plan_id":"cebpf4jnsgd1na2vs0mg"},{"bike_id":"9cc20211-f30a-43fc-9b70-61b96538b62e","system_id":"levelo_inurba_marseille","lat":43.292965,"lon":5.374536,"is_reserved":false,"is_disabled":false,"rental_uris":{"android":"levelo://app?vid=9cc20211-f30a-43fc-9b70-61b96538b62e","ios":"levelo://app?vid=9cc20211-f30a-43fc-9b70-61b96538b62e"},"vehicle_type_id":"4","last_reported":1743890912,"current_range_meters":4800,"station_id":"ce4bh512rcd13ifvqe2g","pricing_plan_id":"cebpf4jnsgd1na2vs0mg"},{"bike_id":"7a529d93-91ff-457c-ad5d-8cf2106c01dd","system_id":"levelo_inurba_marseille","lat":43.29904,"lon":5.38144,"is_reserved":false,"is_disabled":false,"rental_uris":{"android":"levelo://app?vid=7a529d93-91ff-457c-ad5d-8cf2106c01dd","ios":"levelo://app?vid=7a529d93-91ff-457c-ad5d-8cf2106c01dd"},"vehicle_type_id":"4","last_reported":1743890912,"current_range_meters":5600,"station_id":"ce4bgj12rcd13ifvqbc0","pricing_plan_id":"cebpf4jnsgd1na2vs0mg"},{"bike_id":"43fe2ba1-31d3-42fc-b0e3-8377005f35b2","system_id":"levelo_inurba_marseille","lat":43.29276,"lon":5.37664,"is_reserved":false,"is_disabled":false,"rental_uris":{"android":"levelo://app?vid=43fe2ba1-31d3-42fc-b0e3-8377005f35b2","ios":"levelo://app?vid=43fe2ba1-31d3-42fc-b0e3-8377005f35b2"},"vehicle_type_id":"4","last_reported":1743890912,"current_range_meters":5600,"station_id":"ce4bgi12rcd13ifvqb80","pricing_plan_id":"cebpf4jnsgd1na2vs0mg"},{"bike_id":"c73a85e2-fb2d-4d21-bea0-c717ffa7bb89","system_id":"levelo_inurba_marseille","lat":43.30483,"lon":5.36724,"is_reserved":false,"is_disabled":true,"rental_uris":{"android":"levelo://app?vid=c73a85e2-fb2d-4d21-bea0-c717ffa7bb89","ios":"levelo://app?vid=c73a85e2-fb2d-4d21-bea0-c717ffa7bb89"},"vehicle_type_id":"4","last_reported":1743890912,"current_range_meters":6000,"station_id":"","pricing_plan_id":"cebpf4jnsgd1na2vs0mg"},{"bike_id":"25c634ee-0bb9-4abc-bd46-d14941c874ab","system_id":"levelo_inurba_marseille","lat":43.2954,"lon":5.38539,"is_reserved":false,"is_disabled":false,"rental_uris":{"android":"levelo://app?vid=25c634ee-0bb9-4abc-bd46-d14941c874ab","ios":"levelo://app?vid=25c634ee-0bb9-4abc-bd46-d14941c874ab"},"vehicle_type_id":"4","last_reported":1743890912,"current_range_meters":6000,"station_id":"ce4bgih2rcd13ifvqba0","pricing_plan_id":"cebpf4jnsgd1na2vs0mg"},{"bike_id":"146424eb-ad4b-4294-8e36-7879ac45325f","system_id":"levelo_inurba_marseille","lat":43.2906,"lon":5.37561,"is_reserved":false,"is_disabled":false,"rental_uris":{"android":"levelo://app?vid=146424eb-ad4b-4294-8e36-7879ac45325f","ios":"levelo://app?vid=146424eb-ad4b-4294-8e36-7879ac45325f"},"vehicle_type_id":"4","last_reported":1743890912,"current_range_meters":6000,"station_id":"ce4bh692rcd13ifvqe90","pricing_plan_id":"cebpf4jnsgd1na2vs0mg"},{"bike_id":"a4d2c98f-6cdc-4d59-a681-294db74d27dd","system_id":"levelo_inurba_marseille","lat":43.29248,"lon":5.3846,"is_reserved":false,"is_disabled":false,"rental_uris":{"android":"levelo://app?vid=a4d2c98f-6cdc-4d59-a681-294db74d27dd","ios":"levelo://app?vid=a4d2c98f-6cdc-4d59-a681-294db74d27dd"},"vehicle_type_id":"4","last_reported":1743890912,"current_range_meters":6000,"station_id":"ce4bh692rcd13ifvqea0","pricing_plan_id":"cebpf4jnsgd1na2vs0mg"},{"bike_id":"11101b03-02c0-4bb4-a9dc-326497f91f4e","system_id":"levelo_inurba_marseille","lat":43.29251,"lon":5.40909,"is_reserved":false,"is_disabled":true,"rental_uris":{"android":"levelo://app?vid=11101b03-02c0-4bb4-a9dc-326497f91f4e","ios":"levelo://app?vid=11101b03-02c0-4bb4-a9dc-326497f91f4e"},"vehicle_type_id":"4","last_reported":1743890912,"current_range_meters":6000,"station_id":"ce4bh192rcd13ifvqdc0","pricing_plan_id":"cebpf4jnsgd1na2vs0mg"},{"bike_id":"22262cf3-15a4-4e17-921e-c550abc5d390","system_id":"levelo_inurba_marseille","lat":43.29801,"lon":5.40399,"is_reserved":false,"is_disabled":false,"rental_uris":{"android":"levelo://app?vid=22262cf3-15a4-4e17-921e-c550abc5d390","ios":"levelo://app?vid=22262cf3-15a4-4e17-921e-c550abc5d390"},"vehicle_type_id":"4","last_reported":1743890912,"current_range_meters":6000,"station_id":"ce4bh112rcd13ifvqd90","pricing_plan_id":"cebpf4jnsgd1na2vs0mg"},{"bike_id":"95ebc31d-ba2c-4855-9413-141191b5e202","system_id":"levelo_inurba_marseille","lat":43.29269,"lon":5.40102,"is_reserved":false,"is_disabled":true,"rental_uris":{"android":"levelo://app?vid=95ebc31d-ba2c-4855-9413-141191b5e202","ios":"levelo://app?vid=95ebc31d-ba2c-4855-9413-141191b5e202"},"vehicle_type_id":"4","last_reported":1743890912,"current_range_meters":6000,"station_id":"ce4bh312rcd13ifvqdk0","pricing_plan_id":"cebpf4jnsgd1na2vs0mg"},{"bike_id":"98029cca-f186-4647-94d9-9bf796bef8e2","system_id":"levelo_inurba_marseille","lat":43.296128,"lon":5.405906,"is_reserved":false,"is_disabled":false,"rental_uris":{"android":"levelo://app?vid=98029cca-f186-4647-94d9-9bf796bef8e2","ios":"levelo://app?vid=98029cca-f186-4647-94d9-9bf796bef8e2"},"vehicle_type_id":"4","last_reported":1743890912,"current_range_meters":6400,"station_id":"ce4bh0h2rcd13ifvqd60","pricing_plan_id":"cebpf4jnsgd1na2vs0mg"},{"bike_id":"39237df4-8f62-4cb5-a036-656d1819ab2c","system_id":"levelo_inurba_marseille","lat":43.28459,"lon":5.35886,"is_reserved":false,"is_disabled":false,"rental_uris":{"android":"levelo://app?vid=39237df4-8f62-4cb5-a036-656d1819ab2c","ios":"levelo://app?vid=39237df4-8f62-4cb5-a036-656d1819ab2c"},"vehicle_type_id":"4","last_reported":1743890912,"current_range_meters":6400,"station_id":"ce4bhah2rcd13ifvqei0","pricing_plan_id":"cebpf4jnsgd1na2vs0mg"},{"bike_id":"e7b956ce-2ab2-4301-8fd3-6312d753e8f6","system_id":"levelo_inurba_marseille","lat":43.24659,"lon":5.38181,"is_reserved":false,"is_disabled":true,"rental_uris":{"android":"levelo://app?vid=e7b956ce-2ab2-4301-8fd3-6312d753e8f6","ios":"levelo://app?vid=e7b956ce-2ab2-4301-8fd3-6312d753e8f6"},"vehicle_type_id":"4","last_reported":1743890912,"current_range_meters":6400,"station_id":"ce4bhih2rcd13ifvqfr0","pricing_plan_id":"cebpf4jnsgd1na2vs0mg"},{"bike_id":"acfcd978-a8ec-43a5-a06d-6c2c74aa15df","system_id":"levelo_inurba_marseille","lat":43.31324,"lon":5.39707,"is_reserved":false,"is_disabled":false,"rental_uris":{"android":"levelo://app?vid=acfcd978-a8ec-43a5-a06d-6c2c74aa15df","ios":"levelo://app?vid=acfcd978-a8ec-43a5-a06d-6c2c74aa15df"},"vehicle_type_id":"4","last_reported":1743890912,"current_range_meters":6000,"station_id":"ce4bgvp2rcd13ifvqcu0","pricing_plan_id":"cebpf4jnsgd1na2vs0mg"},{"bike_id":"91e4debf-07a4-43bf-a7ee-f20203975cd1","system_id":"levelo_inurba_marseille","lat":43.30143,"lon":5.38764,"is_reserved":false,"is_disabled":false,"rental_uris":{"android":"levelo://app?vid=91e4debf-07a4-43bf-a7ee-f20203975cd1","ios":"levelo://app?vid=91e4debf-07a4-43bf-a7ee-f20203975cd1"},"vehicle_type_id":"4","last_reported":1743890912,"current_range_meters":6400,"station_id":"ce4bghh2rcd13ifvqb60","pricing_plan_id":"cebpf4jnsgd1na2vs0mg"},{"bike_id":"35c9202c-c7ef-461a-b2ba-3d42fdf0d204","system_id":"levelo_inurba_marseille","lat":43.28267,"lon":5.35054,"is_reserved":false,"is_disabled":false,"rental_uris":{"android":"levelo://app?vid=35c9202c-c7ef-461a-b2ba-3d42fdf0d204","ios":"levelo://app?vid=35c9202c-c7ef-461a-b2ba-3d42fdf0d204"},"vehicle_type_id":"4","last_reported":1743890912,"current_range_meters":6400,"station_id":"ce4bhbp2rcd13ifvqerg","pricing_plan_id":"cebpf4jnsgd1na2vs0mg"},{"bike_id":"d5723f1b-5903-4c2e-9d0a-d6e42437d339","system_id":"levelo_inurba_marseille","lat":43.29557,"lon":5.39801,"is_reserved":false,"is_disabled":false,"rental_uris":{"android":"levelo://app?vid=d5723f1b-5903-4c2e-9d0a-d6e42437d339","ios":"levelo://app?vid=d5723f1b-5903-4c2e-9d0a-d6e42437d339"},"vehicle_type_id":"4","last_reported":1743890912,"current_range_meters":6400,"station_id":"","pricing_plan_id":"cebpf4jnsgd1na2vs0mg"},{"bike_id":"de50bbab-1368-4da3-a92a-1e482f1dcc12","system_id":"levelo_inurba_marseille","lat":43.29046,"lon":5.37156,"is_reserved":false,"is_disabled":false,"rental_uris":{"android":"levelo://app?vid=de50bbab-1368-4da3-a92a-1e482f1dcc12","ios":"levelo://app?vid=de50bbab-1368-4da3-a92a-1e482f1dcc12"},"vehicle_type_id":"4","last_reported":1743890912,"current_range_meters":6400,"station_id":"ce4bh5p2rcd13ifvqe4g","pricing_plan_id":"cebpf4jnsgd1na2vs0mg"},{"bike_id":"ca519737-f34f-4e55-baab-dc89f354b8df","system_id":"levelo_inurba_marseille","lat":43.30321,"lon":5.40421,"is_reserved":false,"is_disabled":false,"rental_uris":{"android":"levelo://app?vid=ca519737-f34f-4e55-baab-dc89f354b8df","ios":"levelo://app?vid=ca519737-f34f-4e55-baab-dc89f354b8df"},"vehicle_type_id":"4","last_reported":1743890912,"current_range_meters":6400,"station_id":"ce4bh012rcd13ifvqd10","pricing_plan_id":"cebpf4jnsgd1na2vs0mg"},{"bike_id":"d42d1ca2-fc34-45cb-a5a6-db2cf3989dd8","system_id":"levelo_inurba_marseille","lat":43.29096,"lon":5.38106,"is_reserved":false,"is_disabled":false,"rental_uris":{"android":"levelo://app?vid=d42d1ca2-fc34-45cb-a5a6-db2cf3989dd8","ios":"levelo://app?vid=d42d1ca2-fc34-45cb-a5a6-db2cf3989dd8"},"vehicle_type_id":"4","last_reported":1743890912,"current_range_meters":6400,"station_id":"ce4bh512rcd13ifvqe2g","pricing_plan_id":"cebpf4jnsgd1na2vs0mg"},{"bike_id":"d486c753-0489-4c2c-988c-7dfc9dda183a","system_id":"levelo_inurba_marseille","lat":43.29258,"lon":5.38448,"is_reserved":false,"is_disabled":false,"rental_uris":{"android":"levelo://app?vid=d486c753-0489-4c2c-988c-7dfc9dda183a","ios":"levelo://app?vid=d486c753-0489-4c2c-988c-7dfc9dda183a"},"vehicle_type_id":"4","last_reported":1743890912,"current_range_meters":6400,"station_id":"ce4bh692rcd13ifvqea0","pricing_plan_id":"cebpf4jnsgd1na2vs0mg"},{"bike_id":"2148bd29-323e-49b7-945c-369e0ae50c2c","system_id":"levelo_inurba_marseille","lat":43.290277,"lon":5.386383,"is_reserved":false,"is_disabled":false,"rental_uris":{"android":"levelo://app?vid=2148bd29-323e-49b7-945c-369e0ae50c2c","ios":"levelo://app?vid=2148bd29-323e-49b7-945c-369e0ae50c2c"},"vehicle_type_id":"4","last_reported":1743890912,"current_range_meters":6800,"station_id":"ce4bh4p2rcd13ifvqe0g","pricing_plan_id":"cebpf4jnsgd1na2vs0mg"},{"bike_id":"3f83aad8-3e3b-4d5a-9f28-c15287cc1e10","system_id":"levelo_inurba_marseille","lat":43.28421,"lon":5.37514,"is_reserved":false,"is_disabled":false,"rental_uris":{"android":"levelo://app?vid=3f83aad8-3e3b-4d5a-9f28-c15287cc1e10","ios":"levelo://app?vid=3f83aad8-3e3b-4d5a-9f28-c15287cc1e10"},"vehicle_type_id":"4","last_reported":1743890912,"current_range_meters":6800,"station_id":"ce4bh412rcd13ifvqds0","pricing_plan_id":"cebpf4jnsgd1na2vs0mg"},{"bike_id":"8fa92ff1-c2cb-4fa2-b3ce-e14c12ce1bf4","system_id":"levelo_inurba_marseille","lat":43.281546,"lon":5.426427,"is_reserved":false,"is_disabled":false,"rental_uris":{"android":"levelo://app?vid=8fa92ff1-c2cb-4fa2-b3ce-e14c12ce1bf4","ios":"levelo://app?vid=8fa92ff1-c2cb-4fa2-b3ce-e14c12ce1bf4"},"vehicle_type_id":"4","last_reported":1743890912,"current_range_meters":6800,"station_id":"ce4bhnh2rcd13ifvqgug","pricing_plan_id":"cebpf4jnsgd1na2vs0mg"},{"bike_id":"fd368e52-28cf-414d-a46d-b367645ec73e","system_id":"levelo_inurba_marseille","lat":43.29263,"lon":5.38431,"is_reserved":false,"is_disabled":false,"rental_uris":{"android":"levelo://app?vid=fd368e52-28cf-414d-a46d-b367645ec73e","ios":"levelo://app?vid=fd368e52-28cf-414d-a46d-b367645ec73e"},"vehicle_type_id":"4","last_reported":1743890912,"current_range_meters":6800,"station_id":"ce4bh692rcd13ifvqea0","pricing_plan_id":"cebpf4jnsgd1na2vs0mg"},{"bike_id":"91c1edaf-977d-4632-affd-dc0004bc3721","system_id":"levelo_inurba_marseille","lat":43.27913,"lon":5.39585,"is_reserved":false,"is_disabled":false,"rental_uris":{"android":"levelo://app?vid=91c1edaf-977d-4632-affd-dc0004bc3721","ios":"levelo://app?vid=91c1edaf-977d-4632-affd-dc0004bc3721"},"vehicle_type_id":"4","last_reported":1743890912,"current_range_meters":6800,"station_id":"ce4bhf92rcd13ifvqf40","pricing_plan_id":"cebpf4jnsgd1na2vs0mg"},{"bike_id":"b7a6d371-4cea-45c6-b168-85005dec8f56","system_id":"levelo_inurba_marseille","lat":43.31313,"lon":5.39709,"is_reserved":false,"is_disabled":false,"rental_uris":{"android":"levelo://app?vid=b7a6d371-4cea-45c6-b168-85005dec8f56","ios":"levelo://app?vid=b7a6d371-4cea-45c6-b168-85005dec8f56"},"vehicle_type_id":"4","last_reported":1743890912,"current_range_meters":6800,"station_id":"ce4bgvp2rcd13ifvqcu0","pricing_plan_id":"cebpf4jnsgd1na2vs0mg"},{"bike_id":"05736583-a4df-4140-bff4-80483d983a4a","system_id":"levelo_inurba_marseille","lat":43.30044,"lon":5.39998,"is_reserved":false,"is_disabled":false,"rental_uris":{"android":"levelo://app?vid=05736583-a4df-4140-bff4-80483d983a4a","ios":"levelo://app?vid=05736583-a4df-4140-bff4-80483d983a4a"},"vehicle_type_id":"4","last_reported":1743890912,"current_range_meters":6800,"station_id":"","pricing_plan_id":"cebpf4jnsgd1na2vs0mg"},{"bike_id":"b99b22b7-f55d-4ca6-8467-b58f42c7ab87","system_id":"levelo_inurba_marseille","lat":43.29027,"lon":5.38639,"is_reserved":false,"is_disabled":false,"rental_uris":{"android":"levelo://app?vid=b99b22b7-f55d-4ca6-8467-b58f42c7ab87","ios":"levelo://app?vid=b99b22b7-f55d-4ca6-8467-b58f42c7ab87"},"vehicle_type_id":"4","last_reported":1743890912,"current_range_meters":6800,"station_id":"ce4bh4p2rcd13ifvqe0g","pricing_plan_id":"cebpf4jnsgd1na2vs0mg"},{"bike_id":"0bce86d9-3b90-4522-9e6c-7e55bb10c6f2","system_id":"levelo_inurba_marseille","lat":43.28906,"lon":5.36603,"is_reserved":false,"is_disabled":false,"rental_uris":{"android":"levelo://app?vid=0bce86d9-3b90-4522-9e6c-7e55bb10c6f2","ios":"levelo://app?vid=0bce86d9-3b90-4522-9e6c-7e55bb10c6f2"},"vehicle_type_id":"4","last_reported":1743890912,"current_range_meters":7200,"station_id":"ce4bhap2rcd13ifvqek0","pricing_plan_id":"cebpf4jnsgd1na2vs0mg"},{"bike_id":"9a36e749-313f-43fc-ac90-b52b5015306e","system_id":"levelo_inurba_marseille","lat":43.212,"lon":5.35072,"is_reserved":false,"is_disabled":false,"rental_uris":{"android":"levelo://app?vid=9a36e749-313f-43fc-ac90-b52b5015306e","ios":"levelo://app?vid=9a36e749-313f-43fc-ac90-b52b5015306e"},"vehicle_type_id":"4","last_reported":1743890912,"current_range_meters":7200,"station_id":"st_cvj6sg6p6f1abm77japg","pricing_plan_id":"cebpf4jnsgd1na2vs0mg"},{"bike_id":"c129ecbc-fa81-4169-8f04-cc6466a8fd4b","system_id":"levelo_inurba_marseille","lat":43.29561,"lon":5.42274,"is_reserved":false,"is_disabled":false,"rental_uris":{"android":"levelo://app?vid=c129ecbc-fa81-4169-8f04-cc6466a8fd4b","ios":"levelo://app?vid=c129ecbc-fa81-4169-8f04-cc6466a8fd4b"},"vehicle_type_id":"4","last_reported":1743890912,"current_range_meters":7200,"station_id":"ce4bhph2rcd13ifvqhdg","pricing_plan_id":"cebpf4jnsgd1na2vs0mg"},{"bike_id":"82e42512-0143-41e9-8304-aae55767297b","system_id":"levelo_inurba_marseille","lat":43.29256,"lon":5.38447,"is_reserved":false,"is_disabled":false,"rental_uris":{"android":"levelo://app?vid=82e42512-0143-41e9-8304-aae55767297b","ios":"levelo://app?vid=82e42512-0143-41e9-8304-aae55767297b"},"vehicle_type_id":"4","last_reported":1743890912,"current_range_meters":7200,"station_id":"ce4bh692rcd13ifvqea0","pricing_plan_id":"cebpf4jnsgd1na2vs0mg"},{"bike_id":"feb6e46c-3fb2-45a9-a2fb-22ac62feb505","system_id":"levelo_inurba_marseille","lat":43.23037,"lon":5.35497,"is_reserved":false,"is_disabled":true,"rental_uris":{"android":"levelo://app?vid=feb6e46c-3fb2-45a9-a2fb-22ac62feb505","ios":"levelo://app?vid=feb6e46c-3fb2-45a9-a2fb-22ac62feb505"},"vehicle_type_id":"4","last_reported":1743890912,"current_range_meters":7200,"station_id":"cpo3342slgdg3j2ifvpg","pricing_plan_id":"cebpf4jnsgd1na2vs0mg"},{"bike_id":"c5201898-8ffd-4577-a88e-8d08852b4bce","system_id":"levelo_inurba_marseille","lat":43.28266,"lon":5.35056,"is_reserved":false,"is_disabled":false,"rental_uris":{"android":"levelo://app?vid=c5201898-8ffd-4577-a88e-8d08852b4bce","ios":"levelo://app?vid=c5201898-8ffd-4577-a88e-8d08852b4bce"},"vehicle_type_id":"4","last_reported":1743890912,"current_range_meters":8000,"station_id":"ce4bhbp2rcd13ifvqerg","pricing_plan_id":"cebpf4jnsgd1na2vs0mg"},{"bike_id":"da0e9045-bc14-4ec2-b282-cd935baf3500","system_id":"levelo_inurba_marseille","lat":43.25107,"lon":5.40322,"is_reserved":false,"is_disabled":false,"rental_uris":{"android":"levelo://app?vid=da0e9045-bc14-4ec2-b282-cd935baf3500","ios":"levelo://app?vid=da0e9045-bc14-4ec2-b282-cd935baf3500"},"vehicle_type_id":"4","last_reported":1743890912,"current_range_meters":8000,"station_id":"ce4bhlh2rcd13ifvqgig","pricing_plan_id":"cebpf4jnsgd1na2vs0mg"},{"bike_id":"fb0d4993-67fa-4314-9525-ef2ba9197c72","system_id":"levelo_inurba_marseille","lat":43.30321,"lon":5.4059,"is_reserved":false,"is_disabled":false,"rental_uris":{"android":"levelo://app?vid=fb0d4993-67fa-4314-9525-ef2ba9197c72","ios":"levelo://app?vid=fb0d4993-67fa-4314-9525-ef2ba9197c72"},"vehicle_type_id":"4","last_reported":1743890912,"current_range_meters":8000,"station_id":"","pricing_plan_id":"cebpf4jnsgd1na2vs0mg"},{"bike_id":"ac7a85da-6a1d-42f4-b3e0-decaec458451","system_id":"levelo_inurba_marseille","lat":43.22926,"lon":5.35364,"is_reserved":false,"is_disabled":true,"rental_uris":{"android":"levelo://app?vid=ac7a85da-6a1d-42f4-b3e0-decaec458451","ios":"levelo://app?vid=ac7a85da-6a1d-42f4-b3e0-decaec458451"},"vehicle_type_id":"4","last_reported":1743890912,"current_range_meters":8000,"station_id":"cpo3532slgdg3j2ikp40","pricing_plan_id":"cebpf4jnsgd1na2vs0mg"},{"bike_id":"2e19e402-4062-4cc8-b410-daa8cef6a001","system_id":"levelo_inurba_marseille","lat":43.28616,"lon":5.35109,"is_reserved":false,"is_disabled":false,"rental_uris":{"android":"levelo://app?vid=2e19e402-4062-4cc8-b410-daa8cef6a001","ios":"levelo://app?vid=2e19e402-4062-4cc8-b410-daa8cef6a001"},"vehicle_type_id":"4","last_reported":1743890912,"current_range_meters":8000,"station_id":"ce4bhch2rcd13ifvqeug","pricing_plan_id":"cebpf4jnsgd1na2vs0mg"},{"bike_id":"58f2ce45-fc04-4c4b-9865-0e114db3c331","system_id":"levelo_inurba_marseille","lat":43.248055,"lon":5.374679,"is_reserved":false,"is_disabled":false,"rental_uris":{"android":"levelo://app?vid=58f2ce45-fc04-4c4b-9865-0e114db3c331","ios":"levelo://app?vid=58f2ce45-fc04-4c4b-9865-0e114db3c331"},"vehicle_type_id":"4","last_reported":1743890912,"current_range_meters":8000,"station_id":"ce4bhgh2rcd13ifvqfb0","pricing_plan_id":"cebpf4jnsgd1na2vs0mg"},{"bike_id":"eb79d1f9-7c91-4ea2-b5f8-796189743e1a","system_id":"levelo_inurba_marseille","lat":43.33757,"lon":5.39185,"is_reserved":false,"is_disabled":false,"rental_uris":{"android":"levelo://app?vid=eb79d1f9-7c91-4ea2-b5f8-796189743e1a","ios":"levelo://app?vid=eb79d1f9-7c91-4ea2-b5f8-796189743e1a"},"vehicle_type_id":"4","last_reported":1743890912,"current_range_meters":8400,"station_id":"ce4bhr92rcd13ifvqhsg","pricing_plan_id":"cebpf4jnsgd1na2vs0mg"},{"bike_id":"ed33f895-d65e-495f-abb8-b8f6df67f426","system_id":"levelo_inurba_marseille","lat":43.29259,"lon":5.3844,"is_reserved":false,"is_disabled":false,"rental_uris":{"android":"levelo://app?vid=ed33f895-d65e-495f-abb8-b8f6df67f426","ios":"levelo://app?vid=ed33f895-d65e-495f-abb8-b8f6df67f426"},"vehicle_type_id":"4","last_reported":1743890912,"current_range_meters":8400,"station_id":"ce4bh692rcd13ifvqea0","pricing_plan_id":"cebpf4jnsgd1na2vs0mg"},{"bike_id":"189b3b09-044a-400d-99d2-186ac1ef3887","system_id":"levelo_inurba_marseille","lat":43.27175,"lon":5.40983,"is_reserved":false,"is_disabled":false,"rental_uris":{"android":"levelo://app?vid=189b3b09-044a-400d-99d2-186ac1ef3887","ios":"levelo://app?vid=189b3b09-044a-400d-99d2-186ac1ef3887"},"vehicle_type_id":"4","last_reported":1743890912,"current_range_meters":8400,"station_id":"ce4bhl12rcd13ifvqgf0","pricing_plan_id":"cebpf4jnsgd1na2vs0mg"},{"bike_id":"da2c0523-95d2-4536-9674-1400e7cb2212","system_id":"levelo_inurba_marseille","lat":43.24182,"lon":5.39727,"is_reserved":false,"is_disabled":false,"rental_uris":{"android":"levelo://app?vid=da2c0523-95d2-4536-9674-1400e7cb2212","ios":"levelo://app?vid=da2c0523-95d2-4536-9674-1400e7cb2212"},"vehicle_type_id":"4","last_reported":1743890912,"current_range_meters":8400,"station_id":"ce4bhn12rcd13ifvqgpg","pricing_plan_id":"cebpf4jnsgd1na2vs0mg"},{"bike_id":"fdad6e5e-1467-4616-9d72-68b29d343e00","system_id":"levelo_inurba_marseille","lat":43.32291,"lon":5.38289,"is_reserved":false,"is_disabled":false,"rental_uris":{"android":"levelo://app?vid=fdad6e5e-1467-4616-9d72-68b29d343e00","ios":"levelo://app?vid=fdad6e5e-1467-4616-9d72-68b29d343e00"},"vehicle_type_id":"4","last_reported":1743890912,"current_range_meters":8400,"station_id":"ce4bhr12rcd13ifvqhqg","pricing_plan_id":"cebpf4jnsgd1na2vs0mg"},{"bike_id":"67cc2dc7-658f-4218-aefd-4fa0eb14328b","system_id":"levelo_inurba_marseille","lat":43.29536,"lon":5.3855,"is_reserved":false,"is_disabled":false,"rental_uris":{"android":"levelo://app?vid=67cc2dc7-658f-4218-aefd-4fa0eb14328b","ios":"levelo://app?vid=67cc2dc7-658f-4218-aefd-4fa0eb14328b"},"vehicle_type_id":"4","last_reported":1743890912,"current_range_meters":8400,"station_id":"ce4bgih2rcd13ifvqba0","pricing_plan_id":"cebpf4jnsgd1na2vs0mg"},{"bike_id":"d144cdeb-94c3-4a1d-92d5-9d5462e2a94e","system_id":"levelo_inurba_marseille","lat":43.28034,"lon":5.36943,"is_reserved":false,"is_disabled":false,"rental_uris":{"android":"levelo://app?vid=d144cdeb-94c3-4a1d-92d5-9d5462e2a94e","ios":"levelo://app?vid=d144cdeb-94c3-4a1d-92d5-9d5462e2a94e"},"vehicle_type_id":"4","last_reported":1743890912,"current_range_meters":8400,"station_id":"ce4bha12rcd13ifvqef0","pricing_plan_id":"cebpf4jnsgd1na2vs0mg"},{"bike_id":"8e8105ce-63e2-4441-9ebe-d6a09a08a22e","system_id":"levelo_inurba_marseille","lat":43.29668,"lon":5.36204,"is_reserved":false,"is_disabled":false,"rental_uris":{"android":"levelo://app?vid=8e8105ce-63e2-4441-9ebe-d6a09a08a22e","ios":"levelo://app?vid=8e8105ce-63e2-4441-9ebe-d6a09a08a22e"},"vehicle_type_id":"4","last_reported":1743890912,"current_range_meters":8400,"station_id":"","pricing_plan_id":"cebpf4jnsgd1na2vs0mg"},{"bike_id":"06b3eb39-a6d7-4a45-939c-b459a5c1bea3","system_id":"levelo_inurba_marseille","lat":43.31074,"lon":5.38342,"is_reserved":false,"is_disabled":false,"rental_uris":{"android":"levelo://app?vid=06b3eb39-a6d7-4a45-939c-b459a5c1bea3","ios":"levelo://app?vid=06b3eb39-a6d7-4a45-939c-b459a5c1bea3"},"vehicle_type_id":"4","last_reported":1743890912,"current_range_meters":8400,"station_id":"ce4bgv92rcd13ifvqcr0","pricing_plan_id":"cebpf4jnsgd1na2vs0mg"},{"bike_id":"20441dc7-dc53-4ae0-9823-3c81cdd5dac5","system_id":"levelo_inurba_marseille","lat":43.27957,"lon":5.41047,"is_reserved":false,"is_disabled":false,"rental_uris":{"android":"levelo://app?vid=20441dc7-dc53-4ae0-9823-3c81cdd5dac5","ios":"levelo://app?vid=20441dc7-dc53-4ae0-9823-3c81cdd5dac5"},"vehicle_type_id":"4","last_reported":1743890912,"current_range_meters":8400,"station_id":"ce4bhnp2rcd13ifvqh0g","pricing_plan_id":"cebpf4jnsgd1na2vs0mg"},{"bike_id":"86950742-2a83-439a-b6d7-c0601bd4f799","system_id":"levelo_inurba_marseille","lat":43.28039,"lon":5.36928,"is_reserved":false,"is_disabled":false,"rental_uris":{"android":"levelo://app?vid=86950742-2a83-439a-b6d7-c0601bd4f799","ios":"levelo://app?vid=86950742-2a83-439a-b6d7-c0601bd4f799"},"vehicle_type_id":"4","last_reported":1743890912,"current_range_meters":8400,"station_id":"ce4bha12rcd13ifvqef0","pricing_plan_id":"cebpf4jnsgd1na2vs0mg"},{"bike_id":"4ac6dfb0-5fb3-41d5-9e83-0029602112f6","system_id":"levelo_inurba_marseille","lat":43.29693,"lon":5.36591,"is_reserved":false,"is_disabled":true,"rental_uris":{"android":"levelo://app?vid=4ac6dfb0-5fb3-41d5-9e83-0029602112f6","ios":"levelo://app?vid=4ac6dfb0-5fb3-41d5-9e83-0029602112f6"},"vehicle_type_id":"4","last_reported":1743890912,"current_range_meters":8800,"station_id":"ce4bgn12rcd13ifvqbt0","pricing_plan_id":"cebpf4jnsgd1na2vs0mg"},{"bike_id":"597e3cb0-7bf1-4c5c-814c-bff699977597","system_id":"levelo_inurba_marseille","lat":43.33164,"lon":5.38184,"is_reserved":false,"is_disabled":false,"rental_uris":{"android":"levelo://app?vid=597e3cb0-7bf1-4c5c-814c-bff699977597","ios":"levelo://app?vid=597e3cb0-7bf1-4c5c-814c-bff699977597"},"vehicle_type_id":"4","last_reported":1743890912,"current_range_meters":8800,"station_id":"","pricing_plan_id":"cebpf4jnsgd1na2vs0mg"},{"bike_id":"1c600046-fb8a-47c3-8c47-03c4e2502051","system_id":"levelo_inurba_marseille","lat":43.29029,"lon":5.38649,"is_reserved":false,"is_disabled":false,"rental_uris":{"android":"levelo://app?vid=1c600046-fb8a-47c3-8c47-03c4e2502051","ios":"levelo://app?vid=1c600046-fb8a-47c3-8c47-03c4e2502051"},"vehicle_type_id":"4","last_reported":1743890912,"current_range_meters":8800,"station_id":"ce4bh4p2rcd13ifvqe0g","pricing_plan_id":"cebpf4jnsgd1na2vs0mg"},{"bike_id":"c38496df-4bf6-4c97-91c3-17abcf370a7f","system_id":"levelo_inurba_marseille","lat":43.29267,"lon":5.38446,"is_reserved":false,"is_disabled":false,"rental_uris":{"android":"levelo://app?vid=c38496df-4bf6-4c97-91c3-17abcf370a7f","ios":"levelo://app?vid=c38496df-4bf6-4c97-91c3-17abcf370a7f"},"vehicle_type_id":"4","last_reported":1743890912,"current_range_meters":8800,"station_id":"ce4bh692rcd13ifvqea0","pricing_plan_id":"cebpf4jnsgd1na2vs0mg"},{"bike_id":"7ef2be62-90dd-4dbc-90f2-e5533bbe1e96","system_id":"levelo_inurba_marseille","lat":43.29534,"lon":5.38514,"is_reserved":false,"is_disabled":false,"rental_uris":{"android":"levelo://app?vid=7ef2be62-90dd-4dbc-90f2-e5533bbe1e96","ios":"levelo://app?vid=7ef2be62-90dd-4dbc-90f2-e5533bbe1e96"},"vehicle_type_id":"4","last_reported":1743890912,"current_range_meters":8800,"station_id":"ce4bgih2rcd13ifvqba0","pricing_plan_id":"cebpf4jnsgd1na2vs0mg"},{"bike_id":"f825fa0b-561d-4b58-a029-a279b1a7e45d","system_id":"levelo_inurba_marseille","lat":43.310702,"lon":5.383528,"is_reserved":false,"is_disabled":false,"rental_uris":{"android":"levelo://app?vid=f825fa0b-561d-4b58-a029-a279b1a7e45d","ios":"levelo://app?vid=f825fa0b-561d-4b58-a029-a279b1a7e45d"},"vehicle_type_id":"4","last_reported":1743890912,"current_range_meters":8800,"station_id":"ce4bgv92rcd13ifvqcr0","pricing_plan_id":"cebpf4jnsgd1na2vs0mg"},{"bike_id":"0c76f3c9-bc89-4414-9c4b-485533d7e18d","system_id":"levelo_inurba_marseille","lat":43.29256,"lon":5.3845,"is_reserved":false,"is_disabled":false,"rental_uris":{"android":"levelo://app?vid=0c76f3c9-bc89-4414-9c4b-485533d7e18d","ios":"levelo://app?vid=0c76f3c9-bc89-4414-9c4b-485533d7e18d"},"vehicle_type_id":"4","last_reported":1743890912,"current_range_meters":8800,"station_id":"ce4bh692rcd13ifvqea0","pricing_plan_id":"cebpf4jnsgd1na2vs0mg"},{"bike_id":"f5fa4226-36bc-42ce-a357-0fa20405f593","system_id":"levelo_inurba_marseille","lat":43.28414,"lon":5.34987,"is_reserved":false,"is_disabled":false,"rental_uris":{"android":"levelo://app?vid=f5fa4226-36bc-42ce-a357-0fa20405f593","ios":"levelo://app?vid=f5fa4226-36bc-42ce-a357-0fa20405f593"},"vehicle_type_id":"4","last_reported":1743890912,"current_range_meters":8800,"station_id":"ce4bhbh2rcd13ifvqepg","pricing_plan_id":"cebpf4jnsgd1na2vs0mg"},{"bike_id":"d5e984d3-343e-4e16-bd54-bc3ebbd48639","system_id":"levelo_inurba_marseille","lat":43.301424,"lon":5.3877,"is_reserved":false,"is_disabled":true,"rental_uris":{"android":"levelo://app?vid=d5e984d3-343e-4e16-bd54-bc3ebbd48639","ios":"levelo://app?vid=d5e984d3-343e-4e16-bd54-bc3ebbd48639"},"vehicle_type_id":"4","last_reported":1743890912,"current_range_meters":9200,"station_id":"ce4bghh2rcd13ifvqb60","pricing_plan_id":"cebpf4jnsgd1na2vs0mg"},{"bike_id":"db5b074a-d935-442f-b4d3-96df771d91d1","system_id":"levelo_inurba_marseille","lat":43.24814,"lon":5.37461,"is_reserved":false,"is_disabled":false,"rental_uris":{"android":"levelo://app?vid=db5b074a-d935-442f-b4d3-96df771d91d1","ios":"levelo://app?vid=db5b074a-d935-442f-b4d3-96df771d91d1"},"vehicle_type_id":"4","last_reported":1743890912,"current_range_meters":9200,"station_id":"ce4bhgh2rcd13ifvqfb0","pricing_plan_id":"cebpf4jnsgd1na2vs0mg"},{"bike_id":"1622461e-25a5-4ec6-9188-643400d8cf0e","system_id":"levelo_inurba_marseille","lat":43.30809,"lon":5.43524,"is_reserved":false,"is_disabled":false,"rental_uris":{"android":"levelo://app?vid=1622461e-25a5-4ec6-9188-643400d8cf0e","ios":"levelo://app?vid=1622461e-25a5-4ec6-9188-643400d8cf0e"},"vehicle_type_id":"4","last_reported":1743890912,"current_range_meters":9200,"station_id":"ce4bhph2rcd13ifvqheg","pricing_plan_id":"cebpf4jnsgd1na2vs0mg"},{"bike_id":"267eeb16-6453-4fb7-8038-3b408a6bb427","system_id":"levelo_inurba_marseille","lat":43.31438,"lon":5.3697,"is_reserved":false,"is_disabled":false,"rental_uris":{"android":"levelo://app?vid=267eeb16-6453-4fb7-8038-3b408a6bb427","ios":"levelo://app?vid=267eeb16-6453-4fb7-8038-3b408a6bb427"},"vehicle_type_id":"4","last_reported":1743890912,"current_range_meters":9200,"station_id":"","pricing_plan_id":"cebpf4jnsgd1na2vs0mg"},{"bike_id":"74aa386e-40bb-4033-8cf4-8be7f9c96b67","system_id":"levelo_inurba_marseille","lat":43.26223,"lon":5.37922,"is_reserved":false,"is_disabled":true,"rental_uris":{"android":"levelo://app?vid=74aa386e-40bb-4033-8cf4-8be7f9c96b67","ios":"levelo://app?vid=74aa386e-40bb-4033-8cf4-8be7f9c96b67"},"vehicle_type_id":"4","last_reported":1743890912,"current_range_meters":9200,"station_id":"","pricing_plan_id":"cebpf4jnsgd1na2vs0mg"},{"bike_id":"0d48af84-cd52-408c-82a4-bf5f154abd59","system_id":"levelo_inurba_marseille","lat":43.28455,"lon":5.35893,"is_reserved":false,"is_disabled":false,"rental_uris":{"android":"levelo://app?vid=0d48af84-cd52-408c-82a4-bf5f154abd59","ios":"levelo://app?vid=0d48af84-cd52-408c-82a4-bf5f154abd59"},"vehicle_type_id":"4","last_reported":1743890912,"current_range_meters":9200,"station_id":"ce4bhah2rcd13ifvqei0","pricing_plan_id":"cebpf4jnsgd1na2vs0mg"},{"bike_id":"dd6c187d-e7f2-4b79-b994-26095a3af323","system_id":"levelo_inurba_marseille","lat":43.2582,"lon":5.39436,"is_reserved":false,"is_disabled":false,"rental_uris":{"android":"levelo://app?vid=dd6c187d-e7f2-4b79-b994-26095a3af323","ios":"levelo://app?vid=dd6c187d-e7f2-4b79-b994-26095a3af323"},"vehicle_type_id":"4","last_reported":1743890912,"current_range_meters":8800,"station_id":"ce4bhip2rcd13ifvqft0","pricing_plan_id":"cebpf4jnsgd1na2vs0mg"},{"bike_id":"19e5e026-6d23-4689-a279-bec1f0dfe8ef","system_id":"levelo_inurba_marseille","lat":43.22933,"lon":5.35373,"is_reserved":false,"is_disabled":false,"rental_uris":{"android":"levelo://app?vid=19e5e026-6d23-4689-a279-bec1f0dfe8ef","ios":"levelo://app?vid=19e5e026-6d23-4689-a279-bec1f0dfe8ef"},"vehicle_type_id":"4","last_reported":1743890912,"current_range_meters":9200,"station_id":"cpo3532slgdg3j2ikp40","pricing_plan_id":"cebpf4jnsgd1na2vs0mg"},{"bike_id":"30b57730-cb66-4122-bd93-7dabcaba84e7","system_id":"levelo_inurba_marseille","lat":43.24918,"lon":5.40672,"is_reserved":false,"is_disabled":false,"rental_uris":{"android":"levelo://app?vid=30b57730-cb66-4122-bd93-7dabcaba84e7","ios":"levelo://app?vid=30b57730-cb66-4122-bd93-7dabcaba84e7"},"vehicle_type_id":"4","last_reported":1743890912,"current_range_meters":9200,"station_id":"","pricing_plan_id":"cebpf4jnsgd1na2vs0mg"},{"bike_id":"1e72d3fb-accb-4636-a1fd-813f0b952e02","system_id":"levelo_inurba_marseille","lat":43.30866,"lon":5.3962,"is_reserved":false,"is_disabled":false,"rental_uris":{"android":"levelo://app?vid=1e72d3fb-accb-4636-a1fd-813f0b952e02","ios":"levelo://app?vid=1e72d3fb-accb-4636-a1fd-813f0b952e02"},"vehicle_type_id":"4","last_reported":1743890912,"current_range_meters":9200,"station_id":"","pricing_plan_id":"cebpf4jnsgd1na2vs0mg"},{"bike_id":"f67f451a-3f30-47a9-a56a-4c537a88315d","system_id":"levelo_inurba_marseille","lat":43.297067,"lon":5.36612,"is_reserved":false,"is_disabled":false,"rental_uris":{"android":"levelo://app?vid=f67f451a-3f30-47a9-a56a-4c537a88315d","ios":"levelo://app?vid=f67f451a-3f30-47a9-a56a-4c537a88315d"},"vehicle_type_id":"4","last_reported":1743890912,"current_range_meters":9200,"station_id":"ce4bgn12rcd13ifvqbt0","pricing_plan_id":"cebpf4jnsgd1na2vs0mg"},{"bike_id":"f026eb80-b911-4274-bb5d-af622566135d","system_id":"levelo_inurba_marseille","lat":43.29269,"lon":5.38407,"is_reserved":false,"is_disabled":false,"rental_uris":{"android":"levelo://app?vid=f026eb80-b911-4274-bb5d-af622566135d","ios":"levelo://app?vid=f026eb80-b911-4274-bb5d-af622566135d"},"vehicle_type_id":"4","last_reported":1743890912,"current_range_meters":9600,"station_id":"ce4bh692rcd13ifvqea0","pricing_plan_id":"cebpf4jnsgd1na2vs0mg"},{"bike_id":"cbd682bb-35da-4589-966b-b522540c219e","system_id":"levelo_inurba_marseille","lat":43.29659,"lon":5.38137,"is_reserved":false,"is_disabled":false,"rental_uris":{"android":"levelo://app?vid=cbd682bb-35da-4589-966b-b522540c219e","ios":"levelo://app?vid=cbd682bb-35da-4589-966b-b522540c219e"},"vehicle_type_id":"4","last_reported":1743890912,"current_range_meters":9600,"station_id":"","pricing_plan_id":"cebpf4jnsgd1na2vs0mg"},{"bike_id":"fb7a6658-65a4-4af9-acc1-679ce624548f","system_id":"levelo_inurba_marseille","lat":43.26274,"lon":5.40529,"is_reserved":false,"is_disabled":false,"rental_uris":{"android":"levelo://app?vid=fb7a6658-65a4-4af9-acc1-679ce624548f","ios":"levelo://app?vid=fb7a6658-65a4-4af9-acc1-679ce624548f"},"vehicle_type_id":"4","last_reported":1743890912,"current_range_meters":9600,"station_id":"ce4bhmh2rcd13ifvqgmg","pricing_plan_id":"cebpf4jnsgd1na2vs0mg"},{"bike_id":"db29433a-c7f6-40d6-b0e1-3a1f0abf15ab","system_id":"levelo_inurba_marseille","lat":43.241712,"lon":5.364041,"is_reserved":false,"is_disabled":true,"rental_uris":{"android":"levelo://app?vid=db29433a-c7f6-40d6-b0e1-3a1f0abf15ab","ios":"levelo://app?vid=db29433a-c7f6-40d6-b0e1-3a1f0abf15ab"},"vehicle_type_id":"4","last_reported":1743890912,"current_range_meters":9600,"station_id":"ce4bh412rcd13ifvqdr0","pricing_plan_id":"cebpf4jnsgd1na2vs0mg"},{"bike_id":"a6a4aada-4dec-4c66-9029-bd9ebff46b38","system_id":"levelo_inurba_marseille","lat":43.31336,"lon":5.39703,"is_reserved":false,"is_disabled":false,"rental_uris":{"android":"levelo://app?vid=a6a4aada-4dec-4c66-9029-bd9ebff46b38","ios":"levelo://app?vid=a6a4aada-4dec-4c66-9029-bd9ebff46b38"},"vehicle_type_id":"4","last_reported":1743890912,"current_range_meters":9600,"station_id":"ce4bgvp2rcd13ifvqcu0","pricing_plan_id":"cebpf4jnsgd1na2vs0mg"},{"bike_id":"fdfd01fc-093d-4c48-8c80-06fe1b4633e3","system_id":"levelo_inurba_marseille","lat":43.292572,"lon":5.384317,"is_reserved":false,"is_disabled":true,"rental_uris":{"android":"levelo://app?vid=fdfd01fc-093d-4c48-8c80-06fe1b4633e3","ios":"levelo://app?vid=fdfd01fc-093d-4c48-8c80-06fe1b4633e3"},"vehicle_type_id":"4","last_reported":1743890912,"current_range_meters":9600,"station_id":"ce4bh692rcd13ifvqea0","pricing_plan_id":"cebpf4jnsgd1na2vs0mg"},{"bike_id":"301b6729-c45c-4915-8ef6-dadde3959d3d","system_id":"levelo_inurba_marseille","lat":43.26538,"lon":5.39034,"is_reserved":false,"is_disabled":true,"rental_uris":{"android":"levelo://app?vid=301b6729-c45c-4915-8ef6-dadde3959d3d","ios":"levelo://app?vid=301b6729-c45c-4915-8ef6-dadde3959d3d"},"vehicle_type_id":"4","last_reported":1743890912,"current_range_meters":9600,"station_id":"ce4bhe12rcd13ifvqf30","pricing_plan_id":"cebpf4jnsgd1na2vs0mg"},{"bike_id":"ba07485e-78cc-4466-bdb9-0cbdabba71f1","system_id":"levelo_inurba_marseille","lat":43.24812,"lon":5.37454,"is_reserved":false,"is_disabled":false,"rental_uris":{"android":"levelo://app?vid=ba07485e-78cc-4466-bdb9-0cbdabba71f1","ios":"levelo://app?vid=ba07485e-78cc-4466-bdb9-0cbdabba71f1"},"vehicle_type_id":"4","last_reported":1743890912,"current_range_meters":9600,"station_id":"ce4bhgh2rcd13ifvqfb0","pricing_plan_id":"cebpf4jnsgd1na2vs0mg"},{"bike_id":"0fd423f4-42b2-47ef-be8d-1258a1f21589","system_id":"levelo_inurba_marseille","lat":43.29276,"lon":5.38444,"is_reserved":false,"is_disabled":false,"rental_uris":{"android":"levelo://app?vid=0fd423f4-42b2-47ef-be8d-1258a1f21589","ios":"levelo://app?vid=0fd423f4-42b2-47ef-be8d-1258a1f21589"},"vehicle_type_id":"4","last_reported":1743890912,"current_range_meters":9600,"station_id":"ce4bh692rcd13ifvqea0","pricing_plan_id":"cebpf4jnsgd1na2vs0mg"},{"bike_id":"25314db0-1249-4b49-9956-f519e7c8e80f","system_id":"levelo_inurba_marseille","lat":43.32099,"lon":5.36777,"is_reserved":false,"is_disabled":false,"rental_uris":{"android":"levelo://app?vid=25314db0-1249-4b49-9956-f519e7c8e80f","ios":"levelo://app?vid=25314db0-1249-4b49-9956-f519e7c8e80f"},"vehicle_type_id":"4","last_reported":1743890912,"current_range_meters":9600,"station_id":"ce4bhrh2rcd13ifvqhug","pricing_plan_id":"cebpf4jnsgd1na2vs0mg"},{"bike_id":"3f44b04b-9556-4c14-bd9b-fcc283cc5ef4","system_id":"levelo_inurba_marseille","lat":43.30135,"lon":5.39857,"is_reserved":false,"is_disabled":false,"rental_uris":{"android":"levelo://app?vid=3f44b04b-9556-4c14-bd9b-fcc283cc5ef4","ios":"levelo://app?vid=3f44b04b-9556-4c14-bd9b-fcc283cc5ef4"},"vehicle_type_id":"4","last_reported":1743890912,"current_range_meters":9600,"station_id":"ce4bh0h2rcd13ifvqd40","pricing_plan_id":"cebpf4jnsgd1na2vs0mg"},{"bike_id":"990da929-1cb7-46ce-a5e3-a46343bfffe7","system_id":"levelo_inurba_marseille","lat":43.29801,"lon":5.38092,"is_reserved":false,"is_disabled":true,"rental_uris":{"android":"levelo://app?vid=990da929-1cb7-46ce-a5e3-a46343bfffe7","ios":"levelo://app?vid=990da929-1cb7-46ce-a5e3-a46343bfffe7"},"vehicle_type_id":"4","last_reported":1743890912,"current_range_meters":9600,"station_id":"ce4bgip2rcd13ifvqbb0","pricing_plan_id":"cebpf4jnsgd1na2vs0mg"},{"bike_id":"4c25fb76-cd0e-4544-8837-d2585ee48375","system_id":"levelo_inurba_marseille","lat":43.29918,"lon":5.43676,"is_reserved":false,"is_disabled":false,"rental_uris":{"android":"levelo://app?vid=4c25fb76-cd0e-4544-8837-d2585ee48375","ios":"levelo://app?vid=4c25fb76-cd0e-4544-8837-d2585ee48375"},"vehicle_type_id":"4","last_reported":1743890912,"current_range_meters":9600,"station_id":"","pricing_plan_id":"cebpf4jnsgd1na2vs0mg"},{"bike_id":"e5a7e6b1-2168-407f-8739-469989498272","system_id":"levelo_inurba_marseille","lat":43.31716,"lon":5.437,"is_reserved":false,"is_disabled":false,"rental_uris":{"android":"levelo://app?vid=e5a7e6b1-2168-407f-8739-469989498272","ios":"levelo://app?vid=e5a7e6b1-2168-407f-8739-469989498272"},"vehicle_type_id":"4","last_reported":1743890912,"current_range_meters":9600,"station_id":"ce4bhp92rcd13ifvqhcg","pricing_plan_id":"cebpf4jnsgd1na2vs0mg"},{"bike_id":"e1f66bb9-2be3-4329-a231-e2a1576c083e","system_id":"levelo_inurba_marseille","lat":43.29199,"lon":5.35819,"is_reserved":false,"is_disabled":false,"rental_uris":{"android":"levelo://app?vid=e1f66bb9-2be3-4329-a231-e2a1576c083e","ios":"levelo://app?vid=e1f66bb9-2be3-4329-a231-e2a1576c083e"},"vehicle_type_id":"4","last_reported":1743890912,"current_range_meters":9600,"station_id":"ce4bhb12rcd13ifvqel0","pricing_plan_id":"cebpf4jnsgd1na2vs0mg"},{"bike_id":"f55328fb-7b72-44da-9b81-340e43b1fc54","system_id":"levelo_inurba_marseille","lat":43.24074,"lon":5.37758,"is_reserved":false,"is_disabled":false,"rental_uris":{"android":"levelo://app?vid=f55328fb-7b72-44da-9b81-340e43b1fc54","ios":"levelo://app?vid=f55328fb-7b72-44da-9b81-340e43b1fc54"},"vehicle_type_id":"4","last_reported":1743890912,"current_range_meters":9600,"station_id":"ce4bhnp2rcd13ifvqgvg","pricing_plan_id":"cebpf4jnsgd1na2vs0mg"},{"bike_id":"c9bc89cd-58d1-4a47-b4fa-ac99803a3fe2","system_id":"levelo_inurba_marseille","lat":43.28422,"lon":5.37523,"is_reserved":false,"is_disabled":false,"rental_uris":{"android":"levelo://app?vid=c9bc89cd-58d1-4a47-b4fa-ac99803a3fe2","ios":"levelo://app?vid=c9bc89cd-58d1-4a47-b4fa-ac99803a3fe2"},"vehicle_type_id":"4","last_reported":1743890912,"current_range_meters":9600,"station_id":"ce4bh412rcd13ifvqds0","pricing_plan_id":"cebpf4jnsgd1na2vs0mg"},{"bike_id":"5519561e-6a78-4e38-8de4-84b7f76a38b0","system_id":"levelo_inurba_marseille","lat":43.30936,"lon":5.40156,"is_reserved":false,"is_disabled":true,"rental_uris":{"android":"levelo://app?vid=5519561e-6a78-4e38-8de4-84b7f76a38b0","ios":"levelo://app?vid=5519561e-6a78-4e38-8de4-84b7f76a38b0"},"vehicle_type_id":"4","last_reported":1743890912,"current_range_meters":9600,"station_id":"ce4bgvp2rcd13ifvqct0","pricing_plan_id":"cebpf4jnsgd1na2vs0mg"},{"bike_id":"742fbda3-e508-4ac8-896a-9433c72be044","system_id":"levelo_inurba_marseille","lat":43.29445,"lon":5.3975,"is_reserved":false,"is_disabled":false,"rental_uris":{"android":"levelo://app?vid=742fbda3-e508-4ac8-896a-9433c72be044","ios":"levelo://app?vid=742fbda3-e508-4ac8-896a-9433c72be044"},"vehicle_type_id":"4","last_reported":1743890912,"current_range_meters":9600,"station_id":"ce4bh3h2rcd13ifvqdo0","pricing_plan_id":"cebpf4jnsgd1na2vs0mg"},{"bike_id":"02779b29-7a5d-439e-936a-d77d08eab911","system_id":"levelo_inurba_marseille","lat":43.25003,"lon":5.38907,"is_reserved":false,"is_disabled":false,"rental_uris":{"android":"levelo://app?vid=02779b29-7a5d-439e-936a-d77d08eab911","ios":"levelo://app?vid=02779b29-7a5d-439e-936a-d77d08eab911"},"vehicle_type_id":"4","last_reported":1743890912,"current_range_meters":9600,"station_id":"ce4bhgp2rcd13ifvqfd0","pricing_plan_id":"cebpf4jnsgd1na2vs0mg"},{"bike_id":"c696b8c0-bbca-4d80-bb76-3599ab27ad48","system_id":"levelo_inurba_marseille","lat":43.31066,"lon":5.3835,"is_reserved":false,"is_disabled":false,"rental_uris":{"android":"levelo://app?vid=c696b8c0-bbca-4d80-bb76-3599ab27ad48","ios":"levelo://app?vid=c696b8c0-bbca-4d80-bb76-3599ab27ad48"},"vehicle_type_id":"4","last_reported":1743890912,"current_range_meters":9600,"station_id":"ce4bgv92rcd13ifvqcr0","pricing_plan_id":"cebpf4jnsgd1na2vs0mg"},{"bike_id":"c6e3cf12-1b23-49f1-bfc6-3113350fc1f8","system_id":"levelo_inurba_marseille","lat":43.31184,"lon":5.38711,"is_reserved":false,"is_disabled":false,"rental_uris":{"android":"levelo://app?vid=c6e3cf12-1b23-49f1-bfc6-3113350fc1f8","ios":"levelo://app?vid=c6e3cf12-1b23-49f1-bfc6-3113350fc1f8"},"vehicle_type_id":"4","last_reported":1743890912,"current_range_meters":10000,"station_id":"ce4bgv12rcd13ifvqcp0","pricing_plan_id":"cebpf4jnsgd1na2vs0mg"},{"bike_id":"58b17406-9bc6-4a67-b002-5d6db4195932","system_id":"levelo_inurba_marseille","lat":43.26227,"lon":5.40453,"is_reserved":false,"is_disabled":false,"rental_uris":{"android":"levelo://app?vid=58b17406-9bc6-4a67-b002-5d6db4195932","ios":"levelo://app?vid=58b17406-9bc6-4a67-b002-5d6db4195932"},"vehicle_type_id":"4","last_reported":1743890912,"current_range_meters":10000,"station_id":"ce4bhmh2rcd13ifvqgmg","pricing_plan_id":"cebpf4jnsgd1na2vs0mg"},{"bike_id":"1ca37a98-ac68-4fc2-8dc5-cbad2b4a34af","system_id":"levelo_inurba_marseille","lat":43.28032,"lon":5.36941,"is_reserved":false,"is_disabled":false,"rental_uris":{"android":"levelo://app?vid=1ca37a98-ac68-4fc2-8dc5-cbad2b4a34af","ios":"levelo://app?vid=1ca37a98-ac68-4fc2-8dc5-cbad2b4a34af"},"vehicle_type_id":"4","last_reported":1743890912,"current_range_meters":10000,"station_id":"ce4bha12rcd13ifvqef0","pricing_plan_id":"cebpf4jnsgd1na2vs0mg"},{"bike_id":"7a935817-47e2-4cb3-8324-a647fdf3a140","system_id":"levelo_inurba_marseille","lat":43.29543,"lon":5.38545,"is_reserved":false,"is_disabled":true,"rental_uris":{"android":"levelo://app?vid=7a935817-47e2-4cb3-8324-a647fdf3a140","ios":"levelo://app?vid=7a935817-47e2-4cb3-8324-a647fdf3a140"},"vehicle_type_id":"4","last_reported":1743890912,"current_range_meters":10000,"station_id":"ce4bgih2rcd13ifvqba0","pricing_plan_id":"cebpf4jnsgd1na2vs0mg"},{"bike_id":"ae2491ec-6c71-4a54-8266-8b04f74c4c6b","system_id":"levelo_inurba_marseille","lat":43.31987,"lon":5.38173,"is_reserved":false,"is_disabled":false,"rental_uris":{"android":"levelo://app?vid=ae2491ec-6c71-4a54-8266-8b04f74c4c6b","ios":"levelo://app?vid=ae2491ec-6c71-4a54-8266-8b04f74c4c6b"},"vehicle_type_id":"4","last_reported":1743890912,"current_range_meters":10800,"station_id":"ce4bhr12rcd13ifvqhpg","pricing_plan_id":"cebpf4jnsgd1na2vs0mg"},{"bike_id":"9d5e033b-05b5-411f-8f82-5b44142c931e","system_id":"levelo_inurba_marseille","lat":43.25826,"lon":5.39436,"is_reserved":false,"is_disabled":false,"rental_uris":{"android":"levelo://app?vid=9d5e033b-05b5-411f-8f82-5b44142c931e","ios":"levelo://app?vid=9d5e033b-05b5-411f-8f82-5b44142c931e"},"vehicle_type_id":"4","last_reported":1743890912,"current_range_meters":10800,"station_id":"ce4bhip2rcd13ifvqft0","pricing_plan_id":"cebpf4jnsgd1na2vs0mg"},{"bike_id":"1d16e172-d477-4a96-8d7d-42ff6a622d2e","system_id":"levelo_inurba_marseille","lat":43.24706,"lon":5.41194,"is_reserved":false,"is_disabled":false,"rental_uris":{"android":"levelo://app?vid=1d16e172-d477-4a96-8d7d-42ff6a622d2e","ios":"levelo://app?vid=1d16e172-d477-4a96-8d7d-42ff6a622d2e"},"vehicle_type_id":"4","last_reported":1743890912,"current_range_meters":10800,"station_id":"","pricing_plan_id":"cebpf4jnsgd1na2vs0mg"},{"bike_id":"b70cced5-dc6e-4ac4-aef4-4cfbee9a2e11","system_id":"levelo_inurba_marseille","lat":43.29608,"lon":5.37698,"is_reserved":false,"is_disabled":true,"rental_uris":{"android":"levelo://app?vid=b70cced5-dc6e-4ac4-aef4-4cfbee9a2e11","ios":"levelo://app?vid=b70cced5-dc6e-4ac4-aef4-4cfbee9a2e11"},"vehicle_type_id":"4","last_reported":1743890912,"current_range_meters":10800,"station_id":"ce4bgi92rcd13ifvqb90","pricing_plan_id":"cebpf4jnsgd1na2vs0mg"},{"bike_id":"b68383c0-8ba2-4e91-ba89-6e692f8a437e","system_id":"levelo_inurba_marseille","lat":43.3127,"lon":5.40165,"is_reserved":false,"is_disabled":false,"rental_uris":{"android":"levelo://app?vid=b68383c0-8ba2-4e91-ba89-6e692f8a437e","ios":"levelo://app?vid=b68383c0-8ba2-4e91-ba89-6e692f8a437e"},"vehicle_type_id":"4","last_reported":1743890912,"current_range_meters":10000,"station_id":"ce4bh092rcd13ifvqd30","pricing_plan_id":"cebpf4jnsgd1na2vs0mg"},{"bike_id":"bead49ad-4f08-409b-b5dc-f17872424c3c","system_id":"levelo_inurba_marseille","lat":43.29539,"lon":5.42263,"is_reserved":false,"is_disabled":false,"rental_uris":{"android":"levelo://app?vid=bead49ad-4f08-409b-b5dc-f17872424c3c","ios":"levelo://app?vid=bead49ad-4f08-409b-b5dc-f17872424c3c"},"vehicle_type_id":"4","last_reported":1743890912,"current_range_meters":10800,"station_id":"ce4bhph2rcd13ifvqhdg","pricing_plan_id":"cebpf4jnsgd1na2vs0mg"},{"bike_id":"ead2f46e-40fb-45c8-8a51-cd63d9889ae4","system_id":"levelo_inurba_marseille","lat":43.28698,"lon":5.37381,"is_reserved":false,"is_disabled":false,"rental_uris":{"android":"levelo://app?vid=ead2f46e-40fb-45c8-8a51-cd63d9889ae4","ios":"levelo://app?vid=ead2f46e-40fb-45c8-8a51-cd63d9889ae4"},"vehicle_type_id":"4","last_reported":1743890912,"current_range_meters":10800,"station_id":"ce4bh3p2rcd13ifvqdq0","pricing_plan_id":"cebpf4jnsgd1na2vs0mg"},{"bike_id":"c0c32109-6a50-479a-af98-9197d74a4182","system_id":"levelo_inurba_marseille","lat":43.28101,"lon":5.37834,"is_reserved":false,"is_disabled":false,"rental_uris":{"android":"levelo://app?vid=c0c32109-6a50-479a-af98-9197d74a4182","ios":"levelo://app?vid=c0c32109-6a50-479a-af98-9197d74a4182"},"vehicle_type_id":"4","last_reported":1743890912,"current_range_meters":10800,"station_id":"ce4bha12rcd13ifvqee0","pricing_plan_id":"cebpf4jnsgd1na2vs0mg"},{"bike_id":"25ab24b5-b311-4a08-b362-36380a20f6db","system_id":"levelo_inurba_marseille","lat":43.2928,"lon":5.3844,"is_reserved":false,"is_disabled":false,"rental_uris":{"android":"levelo://app?vid=25ab24b5-b311-4a08-b362-36380a20f6db","ios":"levelo://app?vid=25ab24b5-b311-4a08-b362-36380a20f6db"},"vehicle_type_id":"4","last_reported":1743890912,"current_range_meters":10800,"station_id":"ce4bh692rcd13ifvqea0","pricing_plan_id":"cebpf4jnsgd1na2vs0mg"},{"bike_id":"ef3ed027-e957-494f-aa8a-e96410cf8481","system_id":"levelo_inurba_marseille","lat":43.23152,"lon":5.437171,"is_reserved":false,"is_disabled":false,"rental_uris":{"android":"levelo://app?vid=ef3ed027-e957-494f-aa8a-e96410cf8481","ios":"levelo://app?vid=ef3ed027-e957-494f-aa8a-e96410cf8481"},"vehicle_type_id":"4","last_reported":1743890912,"current_range_meters":10800,"station_id":"ce4bhlh2rcd13ifvqgig","pricing_plan_id":"cebpf4jnsgd1na2vs0mg"},{"bike_id":"aeaafdce-072b-410b-bb71-bd5216dc505b","system_id":"levelo_inurba_marseille","lat":43.2313,"lon":5.40048,"is_reserved":false,"is_disabled":false,"rental_uris":{"android":"levelo://app?vid=aeaafdce-072b-410b-bb71-bd5216dc505b","ios":"levelo://app?vid=aeaafdce-072b-410b-bb71-bd5216dc505b"},"vehicle_type_id":"4","last_reported":1743890912,"current_range_meters":11200,"station_id":"","pricing_plan_id":"cebpf4jnsgd1na2vs0mg"},{"bike_id":"54ef9cd1-9398-4ce6-90ff-1753c98aa91e","system_id":"levelo_inurba_marseille","lat":43.30933,"lon":5.40142,"is_reserved":false,"is_disabled":false,"rental_uris":{"android":"levelo://app?vid=54ef9cd1-9398-4ce6-90ff-1753c98aa91e","ios":"levelo://app?vid=54ef9cd1-9398-4ce6-90ff-1753c98aa91e"},"vehicle_type_id":"4","last_reported":1743890912,"current_range_meters":11200,"station_id":"ce4bgvp2rcd13ifvqct0","pricing_plan_id":"cebpf4jnsgd1na2vs0mg"},{"bike_id":"12095ccb-6f38-4ea3-8f75-94bec0f83432","system_id":"levelo_inurba_marseille","lat":43.29267,"lon":5.38446,"is_reserved":false,"is_disabled":false,"rental_uris":{"android":"levelo://app?vid=12095ccb-6f38-4ea3-8f75-94bec0f83432","ios":"levelo://app?vid=12095ccb-6f38-4ea3-8f75-94bec0f83432"},"vehicle_type_id":"4","last_reported":1743890912,"current_range_meters":11200,"station_id":"ce4bh692rcd13ifvqea0","pricing_plan_id":"cebpf4jnsgd1na2vs0mg"},{"bike_id":"e82f7598-ef71-4a7a-9107-2754e23fe2bf","system_id":"levelo_inurba_marseille","lat":43.2841,"lon":5.37503,"is_reserved":false,"is_disabled":false,"rental_uris":{"android":"levelo://app?vid=e82f7598-ef71-4a7a-9107-2754e23fe2bf","ios":"levelo://app?vid=e82f7598-ef71-4a7a-9107-2754e23fe2bf"},"vehicle_type_id":"4","last_reported":1743890912,"current_range_meters":11200,"station_id":"ce4bh412rcd13ifvqds0","pricing_plan_id":"cebpf4jnsgd1na2vs0mg"},{"bike_id":"0f3d6cb8-7efe-42ee-ab50-2a663f90e5af","system_id":"levelo_inurba_marseille","lat":43.27615,"lon":5.36115,"is_reserved":false,"is_disabled":false,"rental_uris":{"android":"levelo://app?vid=0f3d6cb8-7efe-42ee-ab50-2a663f90e5af","ios":"levelo://app?vid=0f3d6cb8-7efe-42ee-ab50-2a663f90e5af"},"vehicle_type_id":"4","last_reported":1743890912,"current_range_meters":11200,"station_id":"ce4bgj92rcd13ifvqbe0","pricing_plan_id":"cebpf4jnsgd1na2vs0mg"},{"bike_id":"93ea9c16-7acb-4a84-af54-cf68ede44553","system_id":"levelo_inurba_marseille","lat":43.31166,"lon":5.38724,"is_reserved":false,"is_disabled":false,"rental_uris":{"android":"levelo://app?vid=93ea9c16-7acb-4a84-af54-cf68ede44553","ios":"levelo://app?vid=93ea9c16-7acb-4a84-af54-cf68ede44553"},"vehicle_type_id":"4","last_reported":1743890912,"current_range_meters":11200,"station_id":"ce4bgv12rcd13ifvqcp0","pricing_plan_id":"cebpf4jnsgd1na2vs0mg"},{"bike_id":"9bcfd999-b11b-4ca8-b821-f99eb3a571dd","system_id":"levelo_inurba_marseille","lat":43.28738,"lon":5.39986,"is_reserved":false,"is_disabled":false,"rental_uris":{"android":"levelo://app?vid=9bcfd999-b11b-4ca8-b821-f99eb3a571dd","ios":"levelo://app?vid=9bcfd999-b11b-4ca8-b821-f99eb3a571dd"},"vehicle_type_id":"4","last_reported":1743890912,"current_range_meters":11200,"station_id":"ce4bho92rcd13ifvqh3g","pricing_plan_id":"cebpf4jnsgd1na2vs0mg"},{"bike_id":"5ed85862-8a09-4b95-a2aa-7fe225e41cfe","system_id":"levelo_inurba_marseille","lat":43.30787,"lon":5.37651,"is_reserved":false,"is_disabled":false,"rental_uris":{"android":"levelo://app?vid=5ed85862-8a09-4b95-a2aa-7fe225e41cfe","ios":"levelo://app?vid=5ed85862-8a09-4b95-a2aa-7fe225e41cfe"},"vehicle_type_id":"4","last_reported":1743890912,"current_range_meters":11600,"station_id":"ce4bgv92rcd13ifvqcq0","pricing_plan_id":"cebpf4jnsgd1na2vs0mg"},{"bike_id":"8aa2f50a-af52-4d35-8aee-4bac71f3a133","system_id":"levelo_inurba_marseille","lat":43.294717,"lon":5.385917,"is_reserved":false,"is_disabled":false,"rental_uris":{"android":"levelo://app?vid=8aa2f50a-af52-4d35-8aee-4bac71f3a133","ios":"levelo://app?vid=8aa2f50a-af52-4d35-8aee-4bac71f3a133"},"vehicle_type_id":"4","last_reported":1743890912,"current_range_meters":11600,"station_id":"ce4bh092rcd13ifvqd20","pricing_plan_id":"cebpf4jnsgd1na2vs0mg"},{"bike_id":"64928ba1-df5f-4bed-a597-6dab5f3f4879","system_id":"levelo_inurba_marseille","lat":43.21754,"lon":5.34603,"is_reserved":false,"is_disabled":false,"rental_uris":{"android":"levelo://app?vid=64928ba1-df5f-4bed-a597-6dab5f3f4879","ios":"levelo://app?vid=64928ba1-df5f-4bed-a597-6dab5f3f4879"},"vehicle_type_id":"4","last_reported":1743890912,"current_range_meters":11600,"station_id":"ce4bhgh2rcd13ifvqfb0","pricing_plan_id":"cebpf4jnsgd1na2vs0mg"},{"bike_id":"66e4125d-e33c-48ae-8483-a7dcb8318b6e","system_id":"levelo_inurba_marseille","lat":43.24823,"lon":5.37463,"is_reserved":false,"is_disabled":false,"rental_uris":{"android":"levelo://app?vid=66e4125d-e33c-48ae-8483-a7dcb8318b6e","ios":"levelo://app?vid=66e4125d-e33c-48ae-8483-a7dcb8318b6e"},"vehicle_type_id":"4","last_reported":1743890912,"current_range_meters":11600,"station_id":"ce4bhgh2rcd13ifvqfb0","pricing_plan_id":"cebpf4jnsgd1na2vs0mg"},{"bike_id":"559ef334-e00c-4400-9db7-2be88fe13599","system_id":"levelo_inurba_marseille","lat":43.2926,"lon":5.38449,"is_reserved":false,"is_disabled":false,"rental_uris":{"android":"levelo://app?vid=559ef334-e00c-4400-9db7-2be88fe13599","ios":"levelo://app?vid=559ef334-e00c-4400-9db7-2be88fe13599"},"vehicle_type_id":"4","last_reported":1743890912,"current_range_meters":11600,"station_id":"ce4bh692rcd13ifvqea0","pricing_plan_id":"cebpf4jnsgd1na2vs0mg"},{"bike_id":"6023584e-870f-454d-88b0-bf3dc0e21fbe","system_id":"levelo_inurba_marseille","lat":43.24401,"lon":5.37056,"is_reserved":false,"is_disabled":true,"rental_uris":{"android":"levelo://app?vid=6023584e-870f-454d-88b0-bf3dc0e21fbe","ios":"levelo://app?vid=6023584e-870f-454d-88b0-bf3dc0e21fbe"},"vehicle_type_id":"4","last_reported":1743890912,"current_range_meters":11600,"station_id":"ce4bhhh2rcd13ifvqfk0","pricing_plan_id":"cebpf4jnsgd1na2vs0mg"},{"bike_id":"6b652b17-4709-4398-8896-6b070cee45a3","system_id":"levelo_inurba_marseille","lat":43.31504,"lon":5.38039,"is_reserved":false,"is_disabled":false,"rental_uris":{"android":"levelo://app?vid=6b652b17-4709-4398-8896-6b070cee45a3","ios":"levelo://app?vid=6b652b17-4709-4398-8896-6b070cee45a3"},"vehicle_type_id":"4","last_reported":1743890912,"current_range_meters":12000,"station_id":"ce4bhsp2rcd13ifvqi50","pricing_plan_id":"cebpf4jnsgd1na2vs0mg"},{"bike_id":"325c3c6d-6005-44a8-99d4-363787f80db1","system_id":"levelo_inurba_marseille","lat":43.28617,"lon":5.35108,"is_reserved":false,"is_disabled":false,"rental_uris":{"android":"levelo://app?vid=325c3c6d-6005-44a8-99d4-363787f80db1","ios":"levelo://app?vid=325c3c6d-6005-44a8-99d4-363787f80db1"},"vehicle_type_id":"4","last_reported":1743890912,"current_range_meters":12000,"station_id":"ce4bhch2rcd13ifvqeug","pricing_plan_id":"cebpf4jnsgd1na2vs0mg"},{"bike_id":"97d77224-5748-4443-848a-6ab951c45d6d","system_id":"levelo_inurba_marseille","lat":43.32292,"lon":5.38386,"is_reserved":false,"is_disabled":false,"rental_uris":{"android":"levelo://app?vid=97d77224-5748-4443-848a-6ab951c45d6d","ios":"levelo://app?vid=97d77224-5748-4443-848a-6ab951c45d6d"},"vehicle_type_id":"4","last_reported":1743890912,"current_range_meters":12000,"station_id":"ce4bhr12rcd13ifvqhqg","pricing_plan_id":"cebpf4jnsgd1na2vs0mg"},{"bike_id":"1bf28fcd-357a-43a7-b215-31bb2951a59c","system_id":"levelo_inurba_marseille","lat":43.29592,"lon":5.42261,"is_reserved":false,"is_disabled":false,"rental_uris":{"android":"levelo://app?vid=1bf28fcd-357a-43a7-b215-31bb2951a59c","ios":"levelo://app?vid=1bf28fcd-357a-43a7-b215-31bb2951a59c"},"vehicle_type_id":"4","last_reported":1743890912,"current_range_meters":12000,"station_id":"","pricing_plan_id":"cebpf4jnsgd1na2vs0mg"},{"bike_id":"867fb900-f56e-4c6b-83c4-e5102d4bd393","system_id":"levelo_inurba_marseille","lat":43.32352,"lon":5.40623,"is_reserved":false,"is_disabled":false,"rental_uris":{"android":"levelo://app?vid=867fb900-f56e-4c6b-83c4-e5102d4bd393","ios":"levelo://app?vid=867fb900-f56e-4c6b-83c4-e5102d4bd393"},"vehicle_type_id":"4","last_reported":1743890912,"current_range_meters":12000,"station_id":"ce4bhq92rcd13ifvqhjg","pricing_plan_id":"cebpf4jnsgd1na2vs0mg"},{"bike_id":"f470b7ff-8985-4014-b9d1-2d1b82ce3088","system_id":"levelo_inurba_marseille","lat":43.28716,"lon":5.37924,"is_reserved":false,"is_disabled":false,"rental_uris":{"android":"levelo://app?vid=f470b7ff-8985-4014-b9d1-2d1b82ce3088","ios":"levelo://app?vid=f470b7ff-8985-4014-b9d1-2d1b82ce3088"},"vehicle_type_id":"4","last_reported":1743890912,"current_range_meters":12000,"station_id":"ce4bh9p2rcd13ifvqec0","pricing_plan_id":"cebpf4jnsgd1na2vs0mg"},{"bike_id":"5c3af35e-2d22-4e5d-ade4-f93f3e1bf189","system_id":"levelo_inurba_marseille","lat":43.29044,"lon":5.38652,"is_reserved":false,"is_disabled":false,"rental_uris":{"android":"levelo://app?vid=5c3af35e-2d22-4e5d-ade4-f93f3e1bf189","ios":"levelo://app?vid=5c3af35e-2d22-4e5d-ade4-f93f3e1bf189"},"vehicle_type_id":"4","last_reported":1743890912,"current_range_meters":12000,"station_id":"ce4bh4p2rcd13ifvqe0g","pricing_plan_id":"cebpf4jnsgd1na2vs0mg"},{"bike_id":"4cfb0c94-e533-4d52-a051-239d80ee9e83","system_id":"levelo_inurba_marseille","lat":43.27959,"lon":5.41045,"is_reserved":false,"is_disabled":false,"rental_uris":{"android":"levelo://app?vid=4cfb0c94-e533-4d52-a051-239d80ee9e83","ios":"levelo://app?vid=4cfb0c94-e533-4d52-a051-239d80ee9e83"},"vehicle_type_id":"4","last_reported":1743890912,"current_range_meters":12000,"station_id":"ce4bhnp2rcd13ifvqh0g","pricing_plan_id":"cebpf4jnsgd1na2vs0mg"},{"bike_id":"99e5b21e-a3df-45b2-9bc9-67781fdcf11c","system_id":"levelo_inurba_marseille","lat":43.28705,"lon":5.39997,"is_reserved":false,"is_disabled":false,"rental_uris":{"android":"levelo://app?vid=99e5b21e-a3df-45b2-9bc9-67781fdcf11c","ios":"levelo://app?vid=99e5b21e-a3df-45b2-9bc9-67781fdcf11c"},"vehicle_type_id":"4","last_reported":1743890912,"current_range_meters":12000,"station_id":"ce4bho92rcd13ifvqh3g","pricing_plan_id":"cebpf4jnsgd1na2vs0mg"},{"bike_id":"9c9e91df-e133-414a-8295-3f6a292805f6","system_id":"levelo_inurba_marseille","lat":43.23183,"lon":5.35576,"is_reserved":false,"is_disabled":true,"rental_uris":{"android":"levelo://app?vid=9c9e91df-e133-414a-8295-3f6a292805f6","ios":"levelo://app?vid=9c9e91df-e133-414a-8295-3f6a292805f6"},"vehicle_type_id":"4","last_reported":1743890912,"current_range_meters":12400,"station_id":"ce4bhu92rcd13ifvqi70","pricing_plan_id":"cebpf4jnsgd1na2vs0mg"},{"bike_id":"3a45d79d-f040-4d44-b43c-a5960338e178","system_id":"levelo_inurba_marseille","lat":43.2894,"lon":5.36632,"is_reserved":false,"is_disabled":false,"rental_uris":{"android":"levelo://app?vid=3a45d79d-f040-4d44-b43c-a5960338e178","ios":"levelo://app?vid=3a45d79d-f040-4d44-b43c-a5960338e178"},"vehicle_type_id":"4","last_reported":1743890912,"current_range_meters":12400,"station_id":"ce4bhap2rcd13ifvqek0","pricing_plan_id":"cebpf4jnsgd1na2vs0mg"},{"bike_id":"73272853-088e-4b39-8e6e-94fe10fc353c","system_id":"levelo_inurba_marseille","lat":43.33759,"lon":5.37479,"is_reserved":false,"is_disabled":false,"rental_uris":{"android":"levelo://app?vid=73272853-088e-4b39-8e6e-94fe10fc353c","ios":"levelo://app?vid=73272853-088e-4b39-8e6e-94fe10fc353c"},"vehicle_type_id":"4","last_reported":1743890912,"current_range_meters":12400,"station_id":"","pricing_plan_id":"cebpf4jnsgd1na2vs0mg"},{"bike_id":"80ea1bb0-32e0-4e3d-a8a3-f124120dc5ec","system_id":"levelo_inurba_marseille","lat":43.29256,"lon":5.38436,"is_reserved":false,"is_disabled":false,"rental_uris":{"android":"levelo://app?vid=80ea1bb0-32e0-4e3d-a8a3-f124120dc5ec","ios":"levelo://app?vid=80ea1bb0-32e0-4e3d-a8a3-f124120dc5ec"},"vehicle_type_id":"4","last_reported":1743890912,"current_range_meters":12400,"station_id":"ce4bh692rcd13ifvqea0","pricing_plan_id":"cebpf4jnsgd1na2vs0mg"},{"bike_id":"22bb8e72-b882-45b0-8ef0-48c0d733be7f","system_id":"levelo_inurba_marseille","lat":43.30326,"lon":5.4045,"is_reserved":false,"is_disabled":false,"rental_uris":{"android":"levelo://app?vid=22bb8e72-b882-45b0-8ef0-48c0d733be7f","ios":"levelo://app?vid=22bb8e72-b882-45b0-8ef0-48c0d733be7f"},"vehicle_type_id":"4","last_reported":1743890912,"current_range_meters":12800,"station_id":"ce4bh012rcd13ifvqd10","pricing_plan_id":"cebpf4jnsgd1na2vs0mg"},{"bike_id":"b72f13c1-f36f-4dac-924a-b92be052ba70","system_id":"levelo_inurba_marseille","lat":43.281,"lon":5.37833,"is_reserved":false,"is_disabled":false,"rental_uris":{"android":"levelo://app?vid=b72f13c1-f36f-4dac-924a-b92be052ba70","ios":"levelo://app?vid=b72f13c1-f36f-4dac-924a-b92be052ba70"},"vehicle_type_id":"4","last_reported":1743890912,"current_range_meters":12800,"station_id":"ce4bha12rcd13ifvqee0","pricing_plan_id":"cebpf4jnsgd1na2vs0mg"},{"bike_id":"625c7f88-f421-41b1-8bda-76b07c36098e","system_id":"levelo_inurba_marseille","lat":43.26564,"lon":5.39025,"is_reserved":false,"is_disabled":false,"rental_uris":{"android":"levelo://app?vid=625c7f88-f421-41b1-8bda-76b07c36098e","ios":"levelo://app?vid=625c7f88-f421-41b1-8bda-76b07c36098e"},"vehicle_type_id":"4","last_reported":1743890912,"current_range_meters":12800,"station_id":"ce4bhe12rcd13ifvqf30","pricing_plan_id":"cebpf4jnsgd1na2vs0mg"},{"bike_id":"041a64d4-c209-47e3-9bde-273215841e33","system_id":"levelo_inurba_marseille","lat":43.28708,"lon":5.3738,"is_reserved":false,"is_disabled":false,"rental_uris":{"android":"levelo://app?vid=041a64d4-c209-47e3-9bde-273215841e33","ios":"levelo://app?vid=041a64d4-c209-47e3-9bde-273215841e33"},"vehicle_type_id":"4","last_reported":1743890912,"current_range_meters":12800,"station_id":"ce4bh3p2rcd13ifvqdq0","pricing_plan_id":"cebpf4jnsgd1na2vs0mg"},{"bike_id":"c13a3738-67c7-45b1-ba39-6d8894dbef0a","system_id":"levelo_inurba_marseille","lat":43.29417,"lon":5.3863,"is_reserved":false,"is_disabled":false,"rental_uris":{"android":"levelo://app?vid=c13a3738-67c7-45b1-ba39-6d8894dbef0a","ios":"levelo://app?vid=c13a3738-67c7-45b1-ba39-6d8894dbef0a"},"vehicle_type_id":"4","last_reported":1743890912,"current_range_meters":12800,"station_id":"ce4bh2h2rcd13ifvqdh0","pricing_plan_id":"cebpf4jnsgd1na2vs0mg"},{"bike_id":"d62d4c89-7646-4a3b-821d-35fdcb8b5cd0","system_id":"levelo_inurba_marseille","lat":43.31521,"lon":5.38046,"is_reserved":false,"is_disabled":false,"rental_uris":{"android":"levelo://app?vid=d62d4c89-7646-4a3b-821d-35fdcb8b5cd0","ios":"levelo://app?vid=d62d4c89-7646-4a3b-821d-35fdcb8b5cd0"},"vehicle_type_id":"4","last_reported":1743890912,"current_range_meters":12800,"station_id":"ce4bhsp2rcd13ifvqi50","pricing_plan_id":"cebpf4jnsgd1na2vs0mg"},{"bike_id":"d1912703-2e25-4246-a08b-e3890eefa7aa","system_id":"levelo_inurba_marseille","lat":43.28267,"lon":5.35055,"is_reserved":false,"is_disabled":false,"rental_uris":{"android":"levelo://app?vid=d1912703-2e25-4246-a08b-e3890eefa7aa","ios":"levelo://app?vid=d1912703-2e25-4246-a08b-e3890eefa7aa"},"vehicle_type_id":"4","last_reported":1743890912,"current_range_meters":12800,"station_id":"ce4bhbp2rcd13ifvqerg","pricing_plan_id":"cebpf4jnsgd1na2vs0mg"},{"bike_id":"c89a749e-492a-4edb-8fe9-5254d4113a2d","system_id":"levelo_inurba_marseille","lat":43.27992,"lon":5.41658,"is_reserved":false,"is_disabled":false,"rental_uris":{"android":"levelo://app?vid=c89a749e-492a-4edb-8fe9-5254d4113a2d","ios":"levelo://app?vid=c89a749e-492a-4edb-8fe9-5254d4113a2d"},"vehicle_type_id":"4","last_reported":1743890912,"current_range_meters":12800,"station_id":"ce4bho12rcd13ifvqh1g","pricing_plan_id":"cebpf4jnsgd1na2vs0mg"},{"bike_id":"abde5d83-9b30-4b2f-8a88-f914ca452329","system_id":"levelo_inurba_marseille","lat":43.31218,"lon":5.38714,"is_reserved":false,"is_disabled":false,"rental_uris":{"android":"levelo://app?vid=abde5d83-9b30-4b2f-8a88-f914ca452329","ios":"levelo://app?vid=abde5d83-9b30-4b2f-8a88-f914ca452329"},"vehicle_type_id":"4","last_reported":1743890912,"current_range_meters":13600,"station_id":"","pricing_plan_id":"cebpf4jnsgd1na2vs0mg"},{"bike_id":"b598b6b8-69a3-4491-bd9b-eb0a2b32b0cf","system_id":"levelo_inurba_marseille","lat":43.31059,"lon":5.38057,"is_reserved":false,"is_disabled":false,"rental_uris":{"android":"levelo://app?vid=b598b6b8-69a3-4491-bd9b-eb0a2b32b0cf","ios":"levelo://app?vid=b598b6b8-69a3-4491-bd9b-eb0a2b32b0cf"},"vehicle_type_id":"4","last_reported":1743890912,"current_range_meters":13600,"station_id":"","pricing_plan_id":"cebpf4jnsgd1na2vs0mg"},{"bike_id":"9e1f46dd-51ba-486e-b9ab-934a97d8751d","system_id":"levelo_inurba_marseille","lat":43.29593,"lon":5.38101,"is_reserved":false,"is_disabled":false,"rental_uris":{"android":"levelo://app?vid=9e1f46dd-51ba-486e-b9ab-934a97d8751d","ios":"levelo://app?vid=9e1f46dd-51ba-486e-b9ab-934a97d8751d"},"vehicle_type_id":"4","last_reported":1743890912,"current_range_meters":13600,"station_id":"ce4bgl12rcd13ifvqbo0","pricing_plan_id":"cebpf4jnsgd1na2vs0mg"},{"bike_id":"5c85ae70-5519-4a79-a1a8-b8f21d7e1683","system_id":"levelo_inurba_marseille","lat":43.28701,"lon":5.37397,"is_reserved":false,"is_disabled":false,"rental_uris":{"android":"levelo://app?vid=5c85ae70-5519-4a79-a1a8-b8f21d7e1683","ios":"levelo://app?vid=5c85ae70-5519-4a79-a1a8-b8f21d7e1683"},"vehicle_type_id":"4","last_reported":1743890912,"current_range_meters":13600,"station_id":"ce4bh3p2rcd13ifvqdq0","pricing_plan_id":"cebpf4jnsgd1na2vs0mg"},{"bike_id":"b1ce8b7b-c4b8-4a00-be3c-16a99eebf500","system_id":"levelo_inurba_marseille","lat":43.27093,"lon":5.42296,"is_reserved":false,"is_disabled":false,"rental_uris":{"android":"levelo://app?vid=b1ce8b7b-c4b8-4a00-be3c-16a99eebf500","ios":"levelo://app?vid=b1ce8b7b-c4b8-4a00-be3c-16a99eebf500"},"vehicle_type_id":"4","last_reported":1743890912,"current_range_meters":13600,"station_id":"ce4bhk92rcd13ifvqgb0","pricing_plan_id":"cebpf4jnsgd1na2vs0mg"},{"bike_id":"1b0f2b83-0e4e-48f0-805f-48633619073a","system_id":"levelo_inurba_marseille","lat":43.27172,"lon":5.40987,"is_reserved":false,"is_disabled":false,"rental_uris":{"android":"levelo://app?vid=1b0f2b83-0e4e-48f0-805f-48633619073a","ios":"levelo://app?vid=1b0f2b83-0e4e-48f0-805f-48633619073a"},"vehicle_type_id":"4","last_reported":1743890912,"current_range_meters":13600,"station_id":"ce4bhl12rcd13ifvqgf0","pricing_plan_id":"cebpf4jnsgd1na2vs0mg"},{"bike_id":"3d493450-e8ca-4b1c-aa4d-f726d1db6185","system_id":"levelo_inurba_marseille","lat":43.292633,"lon":5.384451,"is_reserved":false,"is_disabled":false,"rental_uris":{"android":"levelo://app?vid=3d493450-e8ca-4b1c-aa4d-f726d1db6185","ios":"levelo://app?vid=3d493450-e8ca-4b1c-aa4d-f726d1db6185"},"vehicle_type_id":"4","last_reported":1743890912,"current_range_meters":13600,"station_id":"ce4bh0h2rcd13ifvqd40","pricing_plan_id":"cebpf4jnsgd1na2vs0mg"},{"bike_id":"5420e474-5232-43f0-bd62-51e2359e3157","system_id":"levelo_inurba_marseille","lat":43.313626,"lon":5.370152,"is_reserved":false,"is_disabled":false,"rental_uris":{"android":"levelo://app?vid=5420e474-5232-43f0-bd62-51e2359e3157","ios":"levelo://app?vid=5420e474-5232-43f0-bd62-51e2359e3157"},"vehicle_type_id":"4","last_reported":1743890912,"current_range_meters":14000,"station_id":"","pricing_plan_id":"cebpf4jnsgd1na2vs0mg"},{"bike_id":"ceba594e-ff69-4140-828e-f8a961103e51","system_id":"levelo_inurba_marseille","lat":43.24164,"lon":5.36406,"is_reserved":false,"is_disabled":false,"rental_uris":{"android":"levelo://app?vid=ceba594e-ff69-4140-828e-f8a961103e51","ios":"levelo://app?vid=ceba594e-ff69-4140-828e-f8a961103e51"},"vehicle_type_id":"4","last_reported":1743890912,"current_range_meters":14000,"station_id":"cpo36qri1sfpv3e86is0","pricing_plan_id":"cebpf4jnsgd1na2vs0mg"},{"bike_id":"8f6dc4df-021c-4b49-b773-41ad9c5221cf","system_id":"levelo_inurba_marseille","lat":43.31075,"lon":5.37132,"is_reserved":false,"is_disabled":false,"rental_uris":{"android":"levelo://app?vid=8f6dc4df-021c-4b49-b773-41ad9c5221cf","ios":"levelo://app?vid=8f6dc4df-021c-4b49-b773-41ad9c5221cf"},"vehicle_type_id":"4","last_reported":1743890912,"current_range_meters":14000,"station_id":"","pricing_plan_id":"cebpf4jnsgd1na2vs0mg"},{"bike_id":"7fd0635d-68ad-4ce6-a52b-daef56987b4b","system_id":"levelo_inurba_marseille","lat":43.30865,"lon":5.38573,"is_reserved":false,"is_disabled":false,"rental_uris":{"android":"levelo://app?vid=7fd0635d-68ad-4ce6-a52b-daef56987b4b","ios":"levelo://app?vid=7fd0635d-68ad-4ce6-a52b-daef56987b4b"},"vehicle_type_id":"4","last_reported":1743890912,"current_range_meters":14000,"station_id":"","pricing_plan_id":"cebpf4jnsgd1na2vs0mg"},{"bike_id":"ec0bf281-e954-492a-92f4-c156bb0bbc3f","system_id":"levelo_inurba_marseille","lat":43.299768,"lon":5.3848,"is_reserved":false,"is_disabled":false,"rental_uris":{"android":"levelo://app?vid=ec0bf281-e954-492a-92f4-c156bb0bbc3f","ios":"levelo://app?vid=ec0bf281-e954-492a-92f4-c156bb0bbc3f"},"vehicle_type_id":"4","last_reported":1743890912,"current_range_meters":14000,"station_id":"ce4bhbh2rcd13ifvqeqg","pricing_plan_id":"cebpf4jnsgd1na2vs0mg"},{"bike_id":"bcf7c07f-b391-45d6-a419-1493f771d4df","system_id":"levelo_inurba_marseille","lat":43.30589,"lon":5.39353,"is_reserved":false,"is_disabled":false,"rental_uris":{"android":"levelo://app?vid=bcf7c07f-b391-45d6-a419-1493f771d4df","ios":"levelo://app?vid=bcf7c07f-b391-45d6-a419-1493f771d4df"},"vehicle_type_id":"4","last_reported":1743890912,"current_range_meters":14000,"station_id":"ce4bh0p2rcd13ifvqd80","pricing_plan_id":"cebpf4jnsgd1na2vs0mg"},{"bike_id":"136b6e45-ee21-453e-aa22-e07947db9071","system_id":"levelo_inurba_marseille","lat":43.23153,"lon":5.4369,"is_reserved":false,"is_disabled":true,"rental_uris":{"android":"levelo://app?vid=136b6e45-ee21-453e-aa22-e07947db9071","ios":"levelo://app?vid=136b6e45-ee21-453e-aa22-e07947db9071"},"vehicle_type_id":"4","last_reported":1743890912,"current_range_meters":14000,"station_id":"ce4bhmp2rcd13ifvqgog","pricing_plan_id":"cebpf4jnsgd1na2vs0mg"},{"bike_id":"41f6d09d-da8c-4652-ab73-8ed907cad195","system_id":"levelo_inurba_marseille","lat":43.308,"lon":5.38175,"is_reserved":false,"is_disabled":false,"rental_uris":{"android":"levelo://app?vid=41f6d09d-da8c-4652-ab73-8ed907cad195","ios":"levelo://app?vid=41f6d09d-da8c-4652-ab73-8ed907cad195"},"vehicle_type_id":"4","last_reported":1743890912,"current_range_meters":14400,"station_id":"ce4bgt12rcd13ifvqce0","pricing_plan_id":"cebpf4jnsgd1na2vs0mg"},{"bike_id":"8c489d95-029f-4ac0-a27b-76ae1e70ef5c","system_id":"levelo_inurba_marseille","lat":43.24806,"lon":5.37455,"is_reserved":false,"is_disabled":false,"rental_uris":{"android":"levelo://app?vid=8c489d95-029f-4ac0-a27b-76ae1e70ef5c","ios":"levelo://app?vid=8c489d95-029f-4ac0-a27b-76ae1e70ef5c"},"vehicle_type_id":"4","last_reported":1743890912,"current_range_meters":14400,"station_id":"ce4bhgh2rcd13ifvqfb0","pricing_plan_id":"cebpf4jnsgd1na2vs0mg"},{"bike_id":"f1648ae8-340b-4b27-8541-1d195afe5da1","system_id":"levelo_inurba_marseille","lat":43.28038,"lon":5.36949,"is_reserved":false,"is_disabled":false,"rental_uris":{"android":"levelo://app?vid=f1648ae8-340b-4b27-8541-1d195afe5da1","ios":"levelo://app?vid=f1648ae8-340b-4b27-8541-1d195afe5da1"},"vehicle_type_id":"4","last_reported":1743890912,"current_range_meters":14400,"station_id":"ce4bha12rcd13ifvqef0","pricing_plan_id":"cebpf4jnsgd1na2vs0mg"},{"bike_id":"77fb35d2-28de-4101-8dd2-278f833d51b4","system_id":"levelo_inurba_marseille","lat":43.30785,"lon":5.37653,"is_reserved":false,"is_disabled":false,"rental_uris":{"android":"levelo://app?vid=77fb35d2-28de-4101-8dd2-278f833d51b4","ios":"levelo://app?vid=77fb35d2-28de-4101-8dd2-278f833d51b4"},"vehicle_type_id":"4","last_reported":1743890912,"current_range_meters":14400,"station_id":"ce4bgv92rcd13ifvqcq0","pricing_plan_id":"cebpf4jnsgd1na2vs0mg"},{"bike_id":"2d98fbaf-3767-4072-a84a-ed542a1a04f7","system_id":"levelo_inurba_marseille","lat":43.25123,"lon":5.40324,"is_reserved":false,"is_disabled":false,"rental_uris":{"android":"levelo://app?vid=2d98fbaf-3767-4072-a84a-ed542a1a04f7","ios":"levelo://app?vid=2d98fbaf-3767-4072-a84a-ed542a1a04f7"},"vehicle_type_id":"4","last_reported":1743890912,"current_range_meters":14400,"station_id":"ce4bhlh2rcd13ifvqgig","pricing_plan_id":"cebpf4jnsgd1na2vs0mg"},{"bike_id":"a6461aec-87d0-41b0-acc2-875d5180a60d","system_id":"levelo_inurba_marseille","lat":43.30468,"lon":5.3792,"is_reserved":false,"is_disabled":false,"rental_uris":{"android":"levelo://app?vid=a6461aec-87d0-41b0-acc2-875d5180a60d","ios":"levelo://app?vid=a6461aec-87d0-41b0-acc2-875d5180a60d"},"vehicle_type_id":"4","last_reported":1743890912,"current_range_meters":14800,"station_id":"ce4bgup2rcd13ifvqcn0","pricing_plan_id":"cebpf4jnsgd1na2vs0mg"},{"bike_id":"bff1f6ae-49dc-4b51-83a2-55b35b74eafe","system_id":"levelo_inurba_marseille","lat":43.30876,"lon":5.39652,"is_reserved":false,"is_disabled":false,"rental_uris":{"android":"levelo://app?vid=bff1f6ae-49dc-4b51-83a2-55b35b74eafe","ios":"levelo://app?vid=bff1f6ae-49dc-4b51-83a2-55b35b74eafe"},"vehicle_type_id":"4","last_reported":1743890912,"current_range_meters":14800,"station_id":"ce4bh012rcd13ifvqcv0","pricing_plan_id":"cebpf4jnsgd1na2vs0mg"},{"bike_id":"c9bcb9ed-89fa-4f1d-bf29-12fb5d644696","system_id":"levelo_inurba_marseille","lat":43.27992,"lon":5.41664,"is_reserved":false,"is_disabled":false,"rental_uris":{"android":"levelo://app?vid=c9bcb9ed-89fa-4f1d-bf29-12fb5d644696","ios":"levelo://app?vid=c9bcb9ed-89fa-4f1d-bf29-12fb5d644696"},"vehicle_type_id":"4","last_reported":1743890912,"current_range_meters":14800,"station_id":"ce4bho12rcd13ifvqh1g","pricing_plan_id":"cebpf4jnsgd1na2vs0mg"},{"bike_id":"7afda8a2-fa95-4781-be89-80b687076b94","system_id":"levelo_inurba_marseille","lat":43.33603,"lon":5.41026,"is_reserved":false,"is_disabled":false,"rental_uris":{"android":"levelo://app?vid=7afda8a2-fa95-4781-be89-80b687076b94","ios":"levelo://app?vid=7afda8a2-fa95-4781-be89-80b687076b94"},"vehicle_type_id":"4","last_reported":1743890912,"current_range_meters":14800,"station_id":"ce4bhqh2rcd13ifvqhmg","pricing_plan_id":"cebpf4jnsgd1na2vs0mg"},{"bike_id":"c3e6d442-6282-4c88-9f90-93d85aff9e76","system_id":"levelo_inurba_marseille","lat":43.2816,"lon":5.42644,"is_reserved":false,"is_disabled":false,"rental_uris":{"android":"levelo://app?vid=c3e6d442-6282-4c88-9f90-93d85aff9e76","ios":"levelo://app?vid=c3e6d442-6282-4c88-9f90-93d85aff9e76"},"vehicle_type_id":"4","last_reported":1743890912,"current_range_meters":14800,"station_id":"ce4bhnh2rcd13ifvqgug","pricing_plan_id":"cebpf4jnsgd1na2vs0mg"},{"bike_id":"c7e7d181-f711-4b9b-95cd-f2c368ee7892","system_id":"levelo_inurba_marseille","lat":43.2942,"lon":5.3864,"is_reserved":false,"is_disabled":false,"rental_uris":{"android":"levelo://app?vid=c7e7d181-f711-4b9b-95cd-f2c368ee7892","ios":"levelo://app?vid=c7e7d181-f711-4b9b-95cd-f2c368ee7892"},"vehicle_type_id":"4","last_reported":1743890912,"current_range_meters":14800,"station_id":"ce4bh2h2rcd13ifvqdh0","pricing_plan_id":"cebpf4jnsgd1na2vs0mg"},{"bike_id":"dcbda0cf-387f-4a49-9cea-9150d36eb52a","system_id":"levelo_inurba_marseille","lat":43.29877,"lon":5.38907,"is_reserved":false,"is_disabled":false,"rental_uris":{"android":"levelo://app?vid=dcbda0cf-387f-4a49-9cea-9150d36eb52a","ios":"levelo://app?vid=dcbda0cf-387f-4a49-9cea-9150d36eb52a"},"vehicle_type_id":"4","last_reported":1743890912,"current_range_meters":14800,"station_id":"ce4bh392rcd13ifvqdl0","pricing_plan_id":"cebpf4jnsgd1na2vs0mg"},{"bike_id":"b64b0ef8-0c9c-4a7d-975b-661d7d86ad1c","system_id":"levelo_inurba_marseille","lat":43.25824,"lon":5.39419,"is_reserved":false,"is_disabled":false,"rental_uris":{"android":"levelo://app?vid=b64b0ef8-0c9c-4a7d-975b-661d7d86ad1c","ios":"levelo://app?vid=b64b0ef8-0c9c-4a7d-975b-661d7d86ad1c"},"vehicle_type_id":"4","last_reported":1743890912,"current_range_meters":15200,"station_id":"ce4bhip2rcd13ifvqft0","pricing_plan_id":"cebpf4jnsgd1na2vs0mg"},{"bike_id":"71960d29-7082-4621-887b-5e1dee23a67f","system_id":"levelo_inurba_marseille","lat":43.29026,"lon":5.38626,"is_reserved":false,"is_disabled":false,"rental_uris":{"android":"levelo://app?vid=71960d29-7082-4621-887b-5e1dee23a67f","ios":"levelo://app?vid=71960d29-7082-4621-887b-5e1dee23a67f"},"vehicle_type_id":"4","last_reported":1743890912,"current_range_meters":15200,"station_id":"ce4bh4p2rcd13ifvqe0g","pricing_plan_id":"cebpf4jnsgd1na2vs0mg"},{"bike_id":"f30ac105-01c5-46a4-a875-a7359aeff3cc","system_id":"levelo_inurba_marseille","lat":43.30937,"lon":5.4014,"is_reserved":false,"is_disabled":false,"rental_uris":{"android":"levelo://app?vid=f30ac105-01c5-46a4-a875-a7359aeff3cc","ios":"levelo://app?vid=f30ac105-01c5-46a4-a875-a7359aeff3cc"},"vehicle_type_id":"4","last_reported":1743890912,"current_range_meters":15200,"station_id":"ce4bgvp2rcd13ifvqct0","pricing_plan_id":"cebpf4jnsgd1na2vs0mg"},{"bike_id":"0120caac-5738-49fa-b811-17c50fc2bc93","system_id":"levelo_inurba_marseille","lat":43.28978,"lon":5.37827,"is_reserved":false,"is_disabled":false,"rental_uris":{"android":"levelo://app?vid=0120caac-5738-49fa-b811-17c50fc2bc93","ios":"levelo://app?vid=0120caac-5738-49fa-b811-17c50fc2bc93"},"vehicle_type_id":"4","last_reported":1743890912,"current_range_meters":15200,"station_id":"ce4bh9p2rcd13ifvqed0","pricing_plan_id":"cebpf4jnsgd1na2vs0mg"},{"bike_id":"f2a4a726-900d-43d4-8328-76c9d2f6012d","system_id":"levelo_inurba_marseille","lat":43.29013,"lon":5.35587,"is_reserved":false,"is_disabled":true,"rental_uris":{"android":"levelo://app?vid=f2a4a726-900d-43d4-8328-76c9d2f6012d","ios":"levelo://app?vid=f2a4a726-900d-43d4-8328-76c9d2f6012d"},"vehicle_type_id":"4","last_reported":1743890912,"current_range_meters":15200,"station_id":"ce4bhb92rcd13ifvqen0","pricing_plan_id":"cebpf4jnsgd1na2vs0mg"},{"bike_id":"7d2dde4f-5a6a-4005-a47e-231c9dacefe3","system_id":"levelo_inurba_marseille","lat":43.30793,"lon":5.43524,"is_reserved":false,"is_disabled":false,"rental_uris":{"android":"levelo://app?vid=7d2dde4f-5a6a-4005-a47e-231c9dacefe3","ios":"levelo://app?vid=7d2dde4f-5a6a-4005-a47e-231c9dacefe3"},"vehicle_type_id":"4","last_reported":1743890912,"current_range_meters":16000,"station_id":"ce4bhph2rcd13ifvqheg","pricing_plan_id":"cebpf4jnsgd1na2vs0mg"},{"bike_id":"51635caa-badd-4ae8-bb2c-58717c74b2db","system_id":"levelo_inurba_marseille","lat":43.28411,"lon":5.37526,"is_reserved":false,"is_disabled":false,"rental_uris":{"android":"levelo://app?vid=51635caa-badd-4ae8-bb2c-58717c74b2db","ios":"levelo://app?vid=51635caa-badd-4ae8-bb2c-58717c74b2db"},"vehicle_type_id":"4","last_reported":1743890912,"current_range_meters":16000,"station_id":"ce4bh412rcd13ifvqds0","pricing_plan_id":"cebpf4jnsgd1na2vs0mg"},{"bike_id":"a409c3f0-8991-4228-afb5-57b19bb06658","system_id":"levelo_inurba_marseille","lat":43.32401,"lon":5.38997,"is_reserved":false,"is_disabled":false,"rental_uris":{"android":"levelo://app?vid=a409c3f0-8991-4228-afb5-57b19bb06658","ios":"levelo://app?vid=a409c3f0-8991-4228-afb5-57b19bb06658"},"vehicle_type_id":"4","last_reported":1743890912,"current_range_meters":16000,"station_id":"","pricing_plan_id":"cebpf4jnsgd1na2vs0mg"},{"bike_id":"9d9ecd7f-1e89-42e7-a812-6a77504eca65","system_id":"levelo_inurba_marseille","lat":43.26807,"lon":5.40266,"is_reserved":false,"is_disabled":false,"rental_uris":{"android":"levelo://app?vid=9d9ecd7f-1e89-42e7-a812-6a77504eca65","ios":"levelo://app?vid=9d9ecd7f-1e89-42e7-a812-6a77504eca65"},"vehicle_type_id":"4","last_reported":1743890912,"current_range_meters":16000,"station_id":"ce501612rcd8frsf0b60","pricing_plan_id":"cebpf4jnsgd1na2vs0mg"},{"bike_id":"3f9f60e9-46e5-408d-a83f-6ffb283e0d47","system_id":"levelo_inurba_marseille","lat":43.24186,"lon":5.39732,"is_reserved":false,"is_disabled":false,"rental_uris":{"android":"levelo://app?vid=3f9f60e9-46e5-408d-a83f-6ffb283e0d47","ios":"levelo://app?vid=3f9f60e9-46e5-408d-a83f-6ffb283e0d47"},"vehicle_type_id":"4","last_reported":1743890912,"current_range_meters":16000,"station_id":"ce4bhn12rcd13ifvqgpg","pricing_plan_id":"cebpf4jnsgd1na2vs0mg"},{"bike_id":"bd245284-22e8-4236-abad-cf2c32383ade","system_id":"levelo_inurba_marseille","lat":43.29446,"lon":5.3975,"is_reserved":false,"is_disabled":false,"rental_uris":{"android":"levelo://app?vid=bd245284-22e8-4236-abad-cf2c32383ade","ios":"levelo://app?vid=bd245284-22e8-4236-abad-cf2c32383ade"},"vehicle_type_id":"4","last_reported":1743890912,"current_range_meters":16000,"station_id":"ce4bh3h2rcd13ifvqdo0","pricing_plan_id":"cebpf4jnsgd1na2vs0mg"},{"bike_id":"44df7aff-1d0c-472e-acd6-8a923c10b123","system_id":"levelo_inurba_marseille","lat":43.29266,"lon":5.38425,"is_reserved":false,"is_disabled":false,"rental_uris":{"android":"levelo://app?vid=44df7aff-1d0c-472e-acd6-8a923c10b123","ios":"levelo://app?vid=44df7aff-1d0c-472e-acd6-8a923c10b123"},"vehicle_type_id":"4","last_reported":1743890912,"current_range_meters":16000,"station_id":"ce4bh692rcd13ifvqea0","pricing_plan_id":"cebpf4jnsgd1na2vs0mg"},{"bike_id":"de5f18d1-bd54-4f9d-8dcc-b4250b9ab69c","system_id":"levelo_inurba_marseille","lat":43.31163,"lon":5.38722,"is_reserved":false,"is_disabled":false,"rental_uris":{"android":"levelo://app?vid=de5f18d1-bd54-4f9d-8dcc-b4250b9ab69c","ios":"levelo://app?vid=de5f18d1-bd54-4f9d-8dcc-b4250b9ab69c"},"vehicle_type_id":"4","last_reported":1743890912,"current_range_meters":16000,"station_id":"ce4bgv12rcd13ifvqcp0","pricing_plan_id":"cebpf4jnsgd1na2vs0mg"},{"bike_id":"c2c27c97-cdb9-4118-84ef-b2dc6e9357e6","system_id":"levelo_inurba_marseille","lat":43.30601,"lon":5.37183,"is_reserved":false,"is_disabled":false,"rental_uris":{"android":"levelo://app?vid=c2c27c97-cdb9-4118-84ef-b2dc6e9357e6","ios":"levelo://app?vid=c2c27c97-cdb9-4118-84ef-b2dc6e9357e6"},"vehicle_type_id":"4","last_reported":1743890912,"current_range_meters":16000,"station_id":"ce4bgqh2rcd13ifvqc4g","pricing_plan_id":"cebpf4jnsgd1na2vs0mg"},{"bike_id":"a6064373-4863-4de1-99db-ff063ca1121f","system_id":"levelo_inurba_marseille","lat":43.27566,"lon":5.38429,"is_reserved":false,"is_disabled":false,"rental_uris":{"android":"levelo://app?vid=a6064373-4863-4de1-99db-ff063ca1121f","ios":"levelo://app?vid=a6064373-4863-4de1-99db-ff063ca1121f"},"vehicle_type_id":"4","last_reported":1743890912,"current_range_meters":16000,"station_id":"ce4bhh92rcd13ifvqfi0","pricing_plan_id":"cebpf4jnsgd1na2vs0mg"},{"bike_id":"6b7280c6-b479-4e4f-9d27-6da15c693679","system_id":"levelo_inurba_marseille","lat":43.28939,"lon":5.36626,"is_reserved":false,"is_disabled":false,"rental_uris":{"android":"levelo://app?vid=6b7280c6-b479-4e4f-9d27-6da15c693679","ios":"levelo://app?vid=6b7280c6-b479-4e4f-9d27-6da15c693679"},"vehicle_type_id":"4","last_reported":1743890912,"current_range_meters":16000,"station_id":"ce4bhap2rcd13ifvqek0","pricing_plan_id":"cebpf4jnsgd1na2vs0mg"},{"bike_id":"f7e3b8fa-9062-4469-bcee-58c5aa5cfb6e","system_id":"levelo_inurba_marseille","lat":43.29522,"lon":5.38584,"is_reserved":false,"is_disabled":true,"rental_uris":{"android":"levelo://app?vid=f7e3b8fa-9062-4469-bcee-58c5aa5cfb6e","ios":"levelo://app?vid=f7e3b8fa-9062-4469-bcee-58c5aa5cfb6e"},"vehicle_type_id":"4","last_reported":1743890912,"current_range_meters":16000,"station_id":"ce4bgih2rcd13ifvqba0","pricing_plan_id":"cebpf4jnsgd1na2vs0mg"},{"bike_id":"0787e976-b031-4ee4-ab9b-38dc341c39e3","system_id":"levelo_inurba_marseille","lat":43.30883,"lon":5.3965,"is_reserved":false,"is_disabled":false,"rental_uris":{"android":"levelo://app?vid=0787e976-b031-4ee4-ab9b-38dc341c39e3","ios":"levelo://app?vid=0787e976-b031-4ee4-ab9b-38dc341c39e3"},"vehicle_type_id":"4","last_reported":1743890912,"current_range_meters":16000,"station_id":"ce4bh012rcd13ifvqcv0","pricing_plan_id":"cebpf4jnsgd1na2vs0mg"},{"bike_id":"e332aab8-1fe3-40e9-8086-1f7d5ff35118","system_id":"levelo_inurba_marseille","lat":43.33166,"lon":5.38181,"is_reserved":false,"is_disabled":false,"rental_uris":{"android":"levelo://app?vid=e332aab8-1fe3-40e9-8086-1f7d5ff35118","ios":"levelo://app?vid=e332aab8-1fe3-40e9-8086-1f7d5ff35118"},"vehicle_type_id":"4","last_reported":1743890912,"current_range_meters":16400,"station_id":"","pricing_plan_id":"cebpf4jnsgd1na2vs0mg"},{"bike_id":"873b9cb9-411d-441c-81fa-204f209e04e7","system_id":"levelo_inurba_marseille","lat":43.308461,"lon":5.373922,"is_reserved":false,"is_disabled":false,"rental_uris":{"android":"levelo://app?vid=873b9cb9-411d-441c-81fa-204f209e04e7","ios":"levelo://app?vid=873b9cb9-411d-441c-81fa-204f209e04e7"},"vehicle_type_id":"4","last_reported":1743890912,"current_range_meters":16400,"station_id":"","pricing_plan_id":"cebpf4jnsgd1na2vs0mg"},{"bike_id":"8a38320c-a733-4cf5-8c8e-152497fe8f8f","system_id":"levelo_inurba_marseille","lat":43.28169,"lon":5.42646,"is_reserved":false,"is_disabled":false,"rental_uris":{"android":"levelo://app?vid=8a38320c-a733-4cf5-8c8e-152497fe8f8f","ios":"levelo://app?vid=8a38320c-a733-4cf5-8c8e-152497fe8f8f"},"vehicle_type_id":"4","last_reported":1743890912,"current_range_meters":16400,"station_id":"ce4bhnh2rcd13ifvqgug","pricing_plan_id":"cebpf4jnsgd1na2vs0mg"},{"bike_id":"68e4b715-612b-4ec0-8d3d-3281ac4ec608","system_id":"levelo_inurba_marseille","lat":43.29253,"lon":5.38432,"is_reserved":false,"is_disabled":false,"rental_uris":{"android":"levelo://app?vid=68e4b715-612b-4ec0-8d3d-3281ac4ec608","ios":"levelo://app?vid=68e4b715-612b-4ec0-8d3d-3281ac4ec608"},"vehicle_type_id":"4","last_reported":1743890912,"current_range_meters":16400,"station_id":"ce4bh692rcd13ifvqea0","pricing_plan_id":"cebpf4jnsgd1na2vs0mg"},{"bike_id":"6ee85d75-9576-48a6-9ea1-92da0dac2d73","system_id":"levelo_inurba_marseille","lat":43.30799,"lon":5.43527,"is_reserved":false,"is_disabled":false,"rental_uris":{"android":"levelo://app?vid=6ee85d75-9576-48a6-9ea1-92da0dac2d73","ios":"levelo://app?vid=6ee85d75-9576-48a6-9ea1-92da0dac2d73"},"vehicle_type_id":"4","last_reported":1743890912,"current_range_meters":16400,"station_id":"ce4bhph2rcd13ifvqheg","pricing_plan_id":"cebpf4jnsgd1na2vs0mg"},{"bike_id":"40a621c0-90fc-49e7-b4b6-60f8184e982f","system_id":"levelo_inurba_marseille","lat":43.32317,"lon":5.38344,"is_reserved":false,"is_disabled":false,"rental_uris":{"android":"levelo://app?vid=40a621c0-90fc-49e7-b4b6-60f8184e982f","ios":"levelo://app?vid=40a621c0-90fc-49e7-b4b6-60f8184e982f"},"vehicle_type_id":"4","last_reported":1743890912,"current_range_meters":16400,"station_id":"","pricing_plan_id":"cebpf4jnsgd1na2vs0mg"},{"bike_id":"e947b700-3de6-49b5-90ff-572dec54db21","system_id":"levelo_inurba_marseille","lat":43.28268,"lon":5.35053,"is_reserved":false,"is_disabled":false,"rental_uris":{"android":"levelo://app?vid=e947b700-3de6-49b5-90ff-572dec54db21","ios":"levelo://app?vid=e947b700-3de6-49b5-90ff-572dec54db21"},"vehicle_type_id":"4","last_reported":1743890912,"current_range_meters":16400,"station_id":"ce4bhbp2rcd13ifvqerg","pricing_plan_id":"cebpf4jnsgd1na2vs0mg"},{"bike_id":"0eb63064-fdac-46db-8828-83c6999ff221","system_id":"levelo_inurba_marseille","lat":43.28659,"lon":5.3854,"is_reserved":false,"is_disabled":false,"rental_uris":{"android":"levelo://app?vid=0eb63064-fdac-46db-8828-83c6999ff221","ios":"levelo://app?vid=0eb63064-fdac-46db-8828-83c6999ff221"},"vehicle_type_id":"4","last_reported":1743890912,"current_range_meters":16400,"station_id":"","pricing_plan_id":"cebpf4jnsgd1na2vs0mg"},{"bike_id":"63e1d95c-79be-4b82-a868-e312bf827ceb","system_id":"levelo_inurba_marseille","lat":43.29005,"lon":5.38615,"is_reserved":false,"is_disabled":true,"rental_uris":{"android":"levelo://app?vid=63e1d95c-79be-4b82-a868-e312bf827ceb","ios":"levelo://app?vid=63e1d95c-79be-4b82-a868-e312bf827ceb"},"vehicle_type_id":"4","last_reported":1743890912,"current_range_meters":16400,"station_id":"ce4bh4p2rcd13ifvqe0g","pricing_plan_id":"cebpf4jnsgd1na2vs0mg"},{"bike_id":"28b08876-aa27-4b49-aa26-386ac99a9990","system_id":"levelo_inurba_marseille","lat":43.27949,"lon":5.41044,"is_reserved":false,"is_disabled":false,"rental_uris":{"android":"levelo://app?vid=28b08876-aa27-4b49-aa26-386ac99a9990","ios":"levelo://app?vid=28b08876-aa27-4b49-aa26-386ac99a9990"},"vehicle_type_id":"4","last_reported":1743890912,"current_range_meters":16400,"station_id":"ce4bhnp2rcd13ifvqh0g","pricing_plan_id":"cebpf4jnsgd1na2vs0mg"},{"bike_id":"b4d8a77e-27be-413d-afe1-7fbf06adc613","system_id":"levelo_inurba_marseille","lat":43.251,"lon":5.39488,"is_reserved":false,"is_disabled":false,"rental_uris":{"android":"levelo://app?vid=b4d8a77e-27be-413d-afe1-7fbf06adc613","ios":"levelo://app?vid=b4d8a77e-27be-413d-afe1-7fbf06adc613"},"vehicle_type_id":"4","last_reported":1743890912,"current_range_meters":16400,"station_id":"ce4bhm12rcd13ifvqgkg","pricing_plan_id":"cebpf4jnsgd1na2vs0mg"},{"bike_id":"772d9e3c-48b4-4bb6-9a76-6b61b74a32a9","system_id":"levelo_inurba_marseille","lat":43.29582,"lon":5.39972,"is_reserved":false,"is_disabled":true,"rental_uris":{"android":"levelo://app?vid=772d9e3c-48b4-4bb6-9a76-6b61b74a32a9","ios":"levelo://app?vid=772d9e3c-48b4-4bb6-9a76-6b61b74a32a9"},"vehicle_type_id":"4","last_reported":1743890912,"current_range_meters":16400,"station_id":"ce4bh312rcd13ifvqdj0","pricing_plan_id":"cebpf4jnsgd1na2vs0mg"},{"bike_id":"99958bc5-fd11-4128-80a3-0fdcbb4ddd2d","system_id":"levelo_inurba_marseille","lat":43.29262,"lon":5.38456,"is_reserved":false,"is_disabled":false,"rental_uris":{"android":"levelo://app?vid=99958bc5-fd11-4128-80a3-0fdcbb4ddd2d","ios":"levelo://app?vid=99958bc5-fd11-4128-80a3-0fdcbb4ddd2d"},"vehicle_type_id":"4","last_reported":1743890912,"current_range_meters":16400,"station_id":"ce4bh692rcd13ifvqea0","pricing_plan_id":"cebpf4jnsgd1na2vs0mg"},{"bike_id":"8b3b09a6-71eb-412f-96d0-4a8c6c961b6c","system_id":"levelo_inurba_marseille","lat":43.281,"lon":5.37833,"is_reserved":false,"is_disabled":false,"rental_uris":{"android":"levelo://app?vid=8b3b09a6-71eb-412f-96d0-4a8c6c961b6c","ios":"levelo://app?vid=8b3b09a6-71eb-412f-96d0-4a8c6c961b6c"},"vehicle_type_id":"4","last_reported":1743890912,"current_range_meters":16400,"station_id":"ce4bha12rcd13ifvqee0","pricing_plan_id":"cebpf4jnsgd1na2vs0mg"},{"bike_id":"74157f86-074d-454c-9a36-ea55e1110ec5","system_id":"levelo_inurba_marseille","lat":43.26062,"lon":5.39395,"is_reserved":false,"is_disabled":false,"rental_uris":{"android":"levelo://app?vid=74157f86-074d-454c-9a36-ea55e1110ec5","ios":"levelo://app?vid=74157f86-074d-454c-9a36-ea55e1110ec5"},"vehicle_type_id":"4","last_reported":1743890912,"current_range_meters":16400,"station_id":"ce4bhh92rcd13ifvqfj0","pricing_plan_id":"cebpf4jnsgd1na2vs0mg"},{"bike_id":"099618dd-621c-4f71-b545-c17756b3eefa","system_id":"levelo_inurba_marseille","lat":43.29435,"lon":5.39752,"is_reserved":false,"is_disabled":false,"rental_uris":{"android":"levelo://app?vid=099618dd-621c-4f71-b545-c17756b3eefa","ios":"levelo://app?vid=099618dd-621c-4f71-b545-c17756b3eefa"},"vehicle_type_id":"4","last_reported":1743890912,"current_range_meters":16400,"station_id":"ce4bh3h2rcd13ifvqdo0","pricing_plan_id":"cebpf4jnsgd1na2vs0mg"},{"bike_id":"fefe83d6-22ae-4bdc-9846-80fca8c3f8b6","system_id":"levelo_inurba_marseille","lat":43.26218,"lon":5.40471,"is_reserved":false,"is_disabled":false,"rental_uris":{"android":"levelo://app?vid=fefe83d6-22ae-4bdc-9846-80fca8c3f8b6","ios":"levelo://app?vid=fefe83d6-22ae-4bdc-9846-80fca8c3f8b6"},"vehicle_type_id":"4","last_reported":1743890912,"current_range_meters":16400,"station_id":"ce4bhmh2rcd13ifvqgmg","pricing_plan_id":"cebpf4jnsgd1na2vs0mg"},{"bike_id":"d6c3d7f4-760c-422c-8667-25e15a7934b3","system_id":"levelo_inurba_marseille","lat":43.307765,"lon":5.374565,"is_reserved":false,"is_disabled":false,"rental_uris":{"android":"levelo://app?vid=d6c3d7f4-760c-422c-8667-25e15a7934b3","ios":"levelo://app?vid=d6c3d7f4-760c-422c-8667-25e15a7934b3"},"vehicle_type_id":"4","last_reported":1743890912,"current_range_meters":16800,"station_id":"","pricing_plan_id":"cebpf4jnsgd1na2vs0mg"},{"bike_id":"3f7cfa94-fd81-4ae8-ad46-e49235a7e73d","system_id":"levelo_inurba_marseille","lat":43.27943,"lon":5.41047,"is_reserved":false,"is_disabled":false,"rental_uris":{"android":"levelo://app?vid=3f7cfa94-fd81-4ae8-ad46-e49235a7e73d","ios":"levelo://app?vid=3f7cfa94-fd81-4ae8-ad46-e49235a7e73d"},"vehicle_type_id":"4","last_reported":1743890912,"current_range_meters":16800,"station_id":"ce4bhnp2rcd13ifvqh0g","pricing_plan_id":"cebpf4jnsgd1na2vs0mg"},{"bike_id":"7bdc8e10-e0df-47e6-812e-a932544d2ad3","system_id":"levelo_inurba_marseille","lat":43.29284,"lon":5.40127,"is_reserved":false,"is_disabled":false,"rental_uris":{"android":"levelo://app?vid=7bdc8e10-e0df-47e6-812e-a932544d2ad3","ios":"levelo://app?vid=7bdc8e10-e0df-47e6-812e-a932544d2ad3"},"vehicle_type_id":"4","last_reported":1743890912,"current_range_meters":16800,"station_id":"ce4bh312rcd13ifvqdk0","pricing_plan_id":"cebpf4jnsgd1na2vs0mg"},{"bike_id":"e896077d-dd64-4c9e-993e-05fedb7630a7","system_id":"levelo_inurba_marseille","lat":43.25123,"lon":5.40332,"is_reserved":false,"is_disabled":false,"rental_uris":{"android":"levelo://app?vid=e896077d-dd64-4c9e-993e-05fedb7630a7","ios":"levelo://app?vid=e896077d-dd64-4c9e-993e-05fedb7630a7"},"vehicle_type_id":"4","last_reported":1743890912,"current_range_meters":16800,"station_id":"ce4bhlh2rcd13ifvqgig","pricing_plan_id":"cebpf4jnsgd1na2vs0mg"},