{"last_updated":1749798651,"ttl":60,"version":"2.2","data":{"bikes":[{"bike_id":"b31f0139-170f-4194-984f-4386218a1e9d","system_id":"levelo_inurba_marseille","lat":43.33771,"lon":5.37424,"is_reserved":false,"is_disabled":true,"rental_uris":{"android":"levelo://app?vid=b31f0139-170f-4194-984f-4386218a1e9d","ios":"levelo://app?vid=b31f0139-170f-4194-984f-4386218a1e9d"},"vehicle_type_id":"4","last_reported":1749798651,"current_range_meters":0,"station_id":"","pricing_plan_id":"cebpf4jnsgd1na2vs0mg"},{"bike_id":"1acfb620-cad7-48c0-8901-d7a5b74a5b65","system_id":"levelo_inurba_marseille","lat":43.33751,"lon":5.37456,"is_reserved":false,"is_disabled":false,"rental_uris":{"android":"levelo://app?vid=1acfb620-cad7-48c0-8901-d7a5b74a5b65","ios":"levelo://app?vid=1acfb620-cad7-48c0-8901-d7a5b74a5b65"},"vehicle_type_id":"4","last_reported":1749798651,"current_range_meters":4800,"station_id":"","pricing_plan_id":"cebpf4jnsgd1na2vs0mg"},{"bike_id":"bf89d78c-eb96-40d5-beb0-f402ef102cc1","system_id":"levelo_inurba_marseille","lat":43.337444,"lon":5.374475,"is_reserved":false,"is_disabled":true,"rental_uris":{"android":"levelo://app?vid=bf89d78c-eb96-40d5-beb0-f402ef102cc1","ios":"levelo://app?vid=bf89d78c-eb96-40d5-beb0-f402ef102cc1"},"vehicle_type_id":"4","last_reported":1749798651,"current_range_meters":0,"station_id":"","pricing_plan_id":"cebpf4jnsgd1na2vs0mg"},{"bike_id":"7c6a9c32-3bbe-4d4c-8294-1969d0688a87","system_id":"levelo_inurba_marseille","lat":43.28451,"lon":5.42083,"is_reserved":false,"is_disabled":true,"rental_uris":{"android":"levelo://app?vid=7c6a9c32-3bbe-4d4c-8294-1969d0688a87","ios":"levelo://app?vid=7c6a9c32-3bbe-4d4c-8294-1969d0688a87"},"vehicle_type_id":"4","last_reported":1749798651,"current_range_meters":0,"station_id":"","pricing_plan_id":"cebpf4jnsgd1na2vs0mg"},{"bike_id":"66b1cbfb-c132-4ef4-922c-0beab9b5a350","system_id":"levelo_inurba_marseille","lat":43.29819,"lon":5.46042,"is_reserved":false,"is_disabled":true,"rental_uris":{"android":"levelo://app?vid=66b1cbfb-c132-4ef4-922c-0beab9b5a350","ios":"levelo://app?vid=66b1cbfb-c132-4ef4-922c-0beab9b5a350"},"vehicle_type_id":"4","last_reported":1749798651,"current_range_meters":0,"station_id":"","pricing_plan_id":"cebpf4jnsgd1na2vs0mg"},{"bike_id":"492f4bbd-1190-4ef2-b66a-479ffe91b09b","system_id":"levelo_inurba_marseille","lat":43.337444,"lon":5.374475,"is_reserved":false,"is_disabled":true,"rental_uris":{"android":"levelo://app?vid=492f4bbd-1190-4ef2-b66a-479ffe91b09b","ios":"levelo://app?vid=492f4bbd-1190-4ef2-b66a-479ffe91b09b"},"vehicle_type_id":"4","last_reported":1749798651,"current_range_meters":0,"station_id":"","pricing_plan_id":"cebpf4jnsgd1na2vs0mg"},{"bike_id":"b7223bce-535c-4df5-bb89-a04f8cb64b97","system_id":"levelo_inurba_marseille","lat":43.313027,"lon":5.375233,"is_reserved":false,"is_disabled":true,"rental_uris":{"android":"levelo://app?vid=b7223bce-535c-4df5-bb89-a04f8cb64b97","ios":"levelo://app?vid=b7223bce-535c-4df5-bb89-a04f8cb64b97"},"vehicle_type_id":"4","last_reported":1749798651,"current_range_meters":0,"station_id":"","pricing_plan_id":"cebpf4jnsgd1na2vs0mg"},{"bike_id":"a9b6bf99-4070-4437-bb20-72962ae30b90","system_id":"levelo_inurba_marseille","lat":43.27468,"lon":5.36388,"is_reserved":false,"is_disabled":true,"rental_uris":{"android":"levelo://app?vid=a9b6bf99-4070-4437-bb20-72962ae30b90","ios":"levelo://app?vid=a9b6bf99-4070-4437-bb20-72962ae30b90"},"vehicle_type_id":"4","last_reported":1749798651,"current_range_meters":0,"station_id":"","pricing_plan_id":"cebpf4jnsgd1na2vs0mg"},{"bike_id":"e1fb58d4-cf63-42e8-8c59-41deed2ff97f","system_id":"levelo_inurba_marseille","lat":43.30308,"lon":5.36886,"is_reserved":false,"is_disabled":true,"rental_uris":{"android":"levelo://app?vid=e1fb58d4-cf63-42e8-8c59-41deed2ff97f","ios":"levelo://app?vid=e1fb58d4-cf63-42e8-8c59-41deed2ff97f"},"vehicle_type_id":"4","last_reported":1749798651,"current_range_meters":0,"station_id":"ce4bgqh2rcd13ifvqc5g","pricing_plan_id":"cebpf4jnsgd1na2vs0mg"},{"bike_id":"915ad2b1-7600-48d8-874e-2481dd9ca06d","system_id":"levelo_inurba_marseille","lat":43.30947,"lon":5.3903,"is_reserved":false,"is_disabled":true,"rental_uris":{"android":"levelo://app?vid=915ad2b1-7600-48d8-874e-2481dd9ca06d","ios":"levelo://app?vid=915ad2b1-7600-48d8-874e-2481dd9ca06d"},"vehicle_type_id":"4","last_reported":1749798651,"current_range_meters":0,"station_id":"ce4bgup2rcd13ifvqco0","pricing_plan_id":"cebpf4jnsgd1na2vs0mg"},{"bike_id":"28939657-8c6e-4adf-8f9e-f4678b18073c","system_id":"levelo_inurba_marseille","lat":43.24083,"lon":5.37748,"is_reserved":false,"is_disabled":true,"rental_uris":{"android":"levelo://app?vid=28939657-8c6e-4adf-8f9e-f4678b18073c","ios":"levelo://app?vid=28939657-8c6e-4adf-8f9e-f4678b18073c"},"vehicle_type_id":"4","last_reported":1749798651,"current_range_meters":0,"station_id":"ce4bhnp2rcd13ifvqgvg","pricing_plan_id":"cebpf4jnsgd1na2vs0mg"},{"bike_id":"a6059978-6375-44f1-965f-99de05c08aaf","system_id":"levelo_inurba_marseille","lat":43.303543,"lon":5.418853,"is_reserved":false,"is_disabled":true,"rental_uris":{"android":"levelo://app?vid=a6059978-6375-44f1-965f-99de05c08aaf","ios":"levelo://app?vid=a6059978-6375-44f1-965f-99de05c08aaf"},"vehicle_type_id":"4","last_reported":1749798651,"current_range_meters":0,"station_id":"ce4bhop2rcd13ifvqh7g","pricing_plan_id":"cebpf4jnsgd1na2vs0mg"},{"bike_id":"b3e697f7-00b4-4362-b589-55d2d2ef404d","system_id":"levelo_inurba_marseille","lat":43.34183,"lon":5.40865,"is_reserved":false,"is_disabled":true,"rental_uris":{"android":"levelo://app?vid=b3e697f7-00b4-4362-b589-55d2d2ef404d","ios":"levelo://app?vid=b3e697f7-00b4-4362-b589-55d2d2ef404d"},"vehicle_type_id":"4","last_reported":1749798651,"current_range_meters":0,"station_id":"ce4bhqh2rcd13ifvqhlg","pricing_plan_id":"cebpf4jnsgd1na2vs0mg"},{"bike_id":"9431b63e-953a-469f-aa9c-9f4c3bba54a2","system_id":"levelo_inurba_marseille","lat":43.292999,"lon":5.376631,"is_reserved":false,"is_disabled":true,"rental_uris":{"android":"levelo://app?vid=9431b63e-953a-469f-aa9c-9f4c3bba54a2","ios":"levelo://app?vid=9431b63e-953a-469f-aa9c-9f4c3bba54a2"},"vehicle_type_id":"4","last_reported":1749798651,"current_range_meters":400,"station_id":"ce4bgi12rcd13ifvqb80","pricing_plan_id":"cebpf4jnsgd1na2vs0mg"},{"bike_id":"378106bf-445a-4ca9-8b32-89b28c5f3486","system_id":"levelo_inurba_marseille","lat":43.24175,"lon":5.3973,"is_reserved":false,"is_disabled":true,"rental_uris":{"android":"levelo://app?vid=378106bf-445a-4ca9-8b32-89b28c5f3486","ios":"levelo://app?vid=378106bf-445a-4ca9-8b32-89b28c5f3486"},"vehicle_type_id":"4","last_reported":1749798651,"current_range_meters":400,"station_id":"ce4bhn12rcd13ifvqgpg","pricing_plan_id":"cebpf4jnsgd1na2vs0mg"},{"bike_id":"5077581b-cebb-46fc-ba69-4fa8272d4810","system_id":"levelo_inurba_marseille","lat":43.21357,"lon":5.35512,"is_reserved":false,"is_disabled":true,"rental_uris":{"android":"levelo://app?vid=5077581b-cebb-46fc-ba69-4fa8272d4810","ios":"levelo://app?vid=5077581b-cebb-46fc-ba69-4fa8272d4810"},"vehicle_type_id":"4","last_reported":1749798651,"current_range_meters":800,"station_id":"","pricing_plan_id":"cebpf4jnsgd1na2vs0mg"},{"bike_id":"d095f971-1e10-4677-a18d-d984077f0439","system_id":"levelo_inurba_marseille","lat":43.31224,"lon":5.36863,"is_reserved":false,"is_disabled":true,"rental_uris":{"android":"levelo://app?vid=d095f971-1e10-4677-a18d-d984077f0439","ios":"levelo://app?vid=d095f971-1e10-4677-a18d-d984077f0439"},"vehicle_type_id":"4","last_reported":1749798651,"current_range_meters":1200,"station_id":"ce4bgl92rcd13ifvqbq0","pricing_plan_id":"cebpf4jnsgd1na2vs0mg"},{"bike_id":"0be39d2a-f5e7-4a1e-88e8-863238ac921e","system_id":"levelo_inurba_marseille","lat":43.26164,"lon":5.40505,"is_reserved":false,"is_disabled":true,"rental_uris":{"android":"levelo://app?vid=0be39d2a-f5e7-4a1e-88e8-863238ac921e","ios":"levelo://app?vid=0be39d2a-f5e7-4a1e-88e8-863238ac921e"},"vehicle_type_id":"4","last_reported":1749798651,"current_range_meters":1200,"station_id":"ce4bhmh2rcd13ifvqgmg","pricing_plan_id":"cebpf4jnsgd1na2vs0mg"},{"bike_id":"e1982154-916e-4f61-befa-5d8dec3bf6ad","system_id":"levelo_inurba_marseille","lat":43.32535,"lon":5.41459,"is_reserved":false,"is_disabled":true,"rental_uris":{"android":"levelo://app?vid=e1982154-916e-4f61-befa-5d8dec3bf6ad","ios":"levelo://app?vid=e1982154-916e-4f61-befa-5d8dec3bf6ad"},"vehicle_type_id":"4","last_reported":1749798651,"current_range_meters":1200,"station_id":"ce4bhq12rcd13ifvqhhg","pricing_plan_id":"cebpf4jnsgd1na2vs0mg"},{"bike_id":"a5652db6-c4dd-41f1-afe5-06a93e19d8ff","system_id":"levelo_inurba_marseille","lat":43.24608,"lon":5.39322,"is_reserved":false,"is_disabled":true,"rental_uris":{"android":"levelo://app?vid=a5652db6-c4dd-41f1-afe5-06a93e19d8ff","ios":"levelo://app?vid=a5652db6-c4dd-41f1-afe5-06a93e19d8ff"},"vehicle_type_id":"4","last_reported":1749798651,"current_range_meters":1600,"station_id":"","pricing_plan_id":"cebpf4jnsgd1na2vs0mg"},{"bike_id":"197a2e17-e64a-4fff-a993-f35d0bf9c001","system_id":"levelo_inurba_marseille","lat":43.272126,"lon":5.391823,"is_reserved":false,"is_disabled":true,"rental_uris":{"android":"levelo://app?vid=197a2e17-e64a-4fff-a993-f35d0bf9c001","ios":"levelo://app?vid=197a2e17-e64a-4fff-a993-f35d0bf9c001"},"vehicle_type_id":"4","last_reported":1749798651,"current_range_meters":2000,"station_id":"ce4bhhp2rcd13ifvqfm0","pricing_plan_id":"cebpf4jnsgd1na2vs0mg"},{"bike_id":"f7fe2a9a-9df5-4e72-b1f3-81e468422d91","system_id":"levelo_inurba_marseille","lat":43.27944,"lon":5.41052,"is_reserved":false,"is_disabled":true,"rental_uris":{"android":"levelo://app?vid=f7fe2a9a-9df5-4e72-b1f3-81e468422d91","ios":"levelo://app?vid=f7fe2a9a-9df5-4e72-b1f3-81e468422d91"},"vehicle_type_id":"4","last_reported":1749798651,"current_range_meters":2000,"station_id":"ce4bhnp2rcd13ifvqh0g","pricing_plan_id":"cebpf4jnsgd1na2vs0mg"},{"bike_id":"62c58c41-f54f-4240-b112-323a724e685a","system_id":"levelo_inurba_marseille","lat":43.279413,"lon":5.410517,"is_reserved":false,"is_disabled":true,"rental_uris":{"android":"levelo://app?vid=62c58c41-f54f-4240-b112-323a724e685a","ios":"levelo://app?vid=62c58c41-f54f-4240-b112-323a724e685a"},"vehicle_type_id":"4","last_reported":1749798651,"current_range_meters":2000,"station_id":"ce4bhnp2rcd13ifvqh0g","pricing_plan_id":"cebpf4jnsgd1na2vs0mg"},{"bike_id":"5c219ba0-bd6f-4ec1-8199-9fc28d07f25c","system_id":"levelo_inurba_marseille","lat":43.32307,"lon":5.44684,"is_reserved":false,"is_disabled":false,"rental_uris":{"android":"levelo://app?vid=5c219ba0-bd6f-4ec1-8199-9fc28d07f25c","ios":"levelo://app?vid=5c219ba0-bd6f-4ec1-8199-9fc28d07f25c"},"vehicle_type_id":"4","last_reported":1749798651,"current_range_meters":2800,"station_id":"","pricing_plan_id":"cebpf4jnsgd1na2vs0mg"},{"bike_id":"c0950962-bfe5-435d-99dd-b6c029e05d6c","system_id":"levelo_inurba_marseille","lat":43.29913,"lon":5.3748,"is_reserved":false,"is_disabled":false,"rental_uris":{"android":"levelo://app?vid=c0950962-bfe5-435d-99dd-b6c029e05d6c","ios":"levelo://app?vid=c0950962-bfe5-435d-99dd-b6c029e05d6c"},"vehicle_type_id":"4","last_reported":1749798651,"current_range_meters":2800,"station_id":"ce4bgjh2rcd13ifvqbg0","pricing_plan_id":"cebpf4jnsgd1na2vs0mg"},{"bike_id":"520e2e13-e7c7-4dd3-a040-758437cbaf7c","system_id":"levelo_inurba_marseille","lat":43.29275,"lon":5.40128,"is_reserved":false,"is_disabled":false,"rental_uris":{"android":"levelo://app?vid=520e2e13-e7c7-4dd3-a040-758437cbaf7c","ios":"levelo://app?vid=520e2e13-e7c7-4dd3-a040-758437cbaf7c"},"vehicle_type_id":"4","last_reported":1749798651,"current_range_meters":2800,"station_id":"ce4bh312rcd13ifvqdk0","pricing_plan_id":"cebpf4jnsgd1na2vs0mg"},{"bike_id":"8e108a83-e2bf-43e0-9b41-3765b051abd1","system_id":"levelo_inurba_marseille","lat":43.28068,"lon":5.34954,"is_reserved":false,"is_disabled":false,"rental_uris":{"android":"levelo://app?vid=8e108a83-e2bf-43e0-9b41-3765b051abd1","ios":"levelo://app?vid=8e108a83-e2bf-43e0-9b41-3765b051abd1"},"vehicle_type_id":"4","last_reported":1749798651,"current_range_meters":3600,"station_id":"","pricing_plan_id":"cebpf4jnsgd1na2vs0mg"},{"bike_id":"719f55b2-45c2-4027-b4b8-146d5540416e","system_id":"levelo_inurba_marseille","lat":43.30547,"lon":5.36675,"is_reserved":false,"is_disabled":false,"rental_uris":{"android":"levelo://app?vid=719f55b2-45c2-4027-b4b8-146d5540416e","ios":"levelo://app?vid=719f55b2-45c2-4027-b4b8-146d5540416e"},"vehicle_type_id":"4","last_reported":1749798651,"current_range_meters":3600,"station_id":"ce4bgrp2rcd13ifvqc9g","pricing_plan_id":"cebpf4jnsgd1na2vs0mg"},{"bike_id":"badeeaa2-d7f7-4b22-8c7e-425d3f5fba9d","system_id":"levelo_inurba_marseille","lat":43.28663,"lon":5.3635,"is_reserved":false,"is_disabled":false,"rental_uris":{"android":"levelo://app?vid=badeeaa2-d7f7-4b22-8c7e-425d3f5fba9d","ios":"levelo://app?vid=badeeaa2-d7f7-4b22-8c7e-425d3f5fba9d"},"vehicle_type_id":"4","last_reported":1749798651,"current_range_meters":3600,"station_id":"ce4bhah2rcd13ifvqej0","pricing_plan_id":"cebpf4jnsgd1na2vs0mg"},{"bike_id":"2591baac-ec70-4676-9c62-770b3db610e4","system_id":"levelo_inurba_marseille","lat":43.29291,"lon":5.40109,"is_reserved":false,"is_disabled":false,"rental_uris":{"android":"levelo://app?vid=2591baac-ec70-4676-9c62-770b3db610e4","ios":"levelo://app?vid=2591baac-ec70-4676-9c62-770b3db610e4"},"vehicle_type_id":"4","last_reported":1749798651,"current_range_meters":4000,"station_id":"ce4bh312rcd13ifvqdk0","pricing_plan_id":"cebpf4jnsgd1na2vs0mg"},{"bike_id":"57da9616-2dc1-40f2-b27d-a68fbadb7cd5","system_id":"levelo_inurba_marseille","lat":43.33606,"lon":5.41036,"is_reserved":false,"is_disabled":false,"rental_uris":{"android":"levelo://app?vid=57da9616-2dc1-40f2-b27d-a68fbadb7cd5","ios":"levelo://app?vid=57da9616-2dc1-40f2-b27d-a68fbadb7cd5"},"vehicle_type_id":"4","last_reported":1749798651,"current_range_meters":4400,"station_id":"ce4bhqh2rcd13ifvqhmg","pricing_plan_id":"cebpf4jnsgd1na2vs0mg"},{"bike_id":"f2914c5f-40ee-433b-bf3f-dbdd419b3dbc","system_id":"levelo_inurba_marseille","lat":43.29367,"lon":5.37852,"is_reserved":false,"is_disabled":false,"rental_uris":{"android":"levelo://app?vid=f2914c5f-40ee-433b-bf3f-dbdd419b3dbc","ios":"levelo://app?vid=f2914c5f-40ee-433b-bf3f-dbdd419b3dbc"},"vehicle_type_id":"4","last_reported":1749798651,"current_range_meters":4800,"station_id":"ce4bgjh2rcd13ifvqbf0","pricing_plan_id":"cebpf4jnsgd1na2vs0mg"},{"bike_id":"905d5fe3-4db1-4286-98ff-85eed2fdd8a4","system_id":"levelo_inurba_marseille","lat":43.31481,"lon":5.37307,"is_reserved":false,"is_disabled":false,"rental_uris":{"android":"levelo://app?vid=905d5fe3-4db1-4286-98ff-85eed2fdd8a4","ios":"levelo://app?vid=905d5fe3-4db1-4286-98ff-85eed2fdd8a4"},"vehicle_type_id":"4","last_reported":1749798651,"current_range_meters":4800,"station_id":"ce4bgt12rcd13ifvqcd0","pricing_plan_id":"cebpf4jnsgd1na2vs0mg"},{"bike_id":"54c0f556-7726-4cf8-a8ef-d84182b0bd14","system_id":"levelo_inurba_marseille","lat":43.29276,"lon":5.40116,"is_reserved":false,"is_disabled":false,"rental_uris":{"android":"levelo://app?vid=54c0f556-7726-4cf8-a8ef-d84182b0bd14","ios":"levelo://app?vid=54c0f556-7726-4cf8-a8ef-d84182b0bd14"},"vehicle_type_id":"4","last_reported":1749798651,"current_range_meters":5600,"station_id":"ce4bh312rcd13ifvqdk0","pricing_plan_id":"cebpf4jnsgd1na2vs0mg"},{"bike_id":"82416e42-df25-4b65-be1c-29ecea8d39f0","system_id":"levelo_inurba_marseille","lat":43.26565,"lon":5.39002,"is_reserved":false,"is_disabled":false,"rental_uris":{"android":"levelo://app?vid=82416e42-df25-4b65-be1c-29ecea8d39f0","ios":"levelo://app?vid=82416e42-df25-4b65-be1c-29ecea8d39f0"},"vehicle_type_id":"4","last_reported":1749798651,"current_range_meters":5600,"station_id":"ce4bhe12rcd13ifvqf30","pricing_plan_id":"cebpf4jnsgd1na2vs0mg"},{"bike_id":"e5ff82fd-cc37-4e1f-aade-050998fb0f61","system_id":"levelo_inurba_marseille","lat":43.2626,"lon":5.37125,"is_reserved":false,"is_disabled":false,"rental_uris":{"android":"levelo://app?vid=e5ff82fd-cc37-4e1f-aade-050998fb0f61","ios":"levelo://app?vid=e5ff82fd-cc37-4e1f-aade-050998fb0f61"},"vehicle_type_id":"4","last_reported":1749798651,"current_range_meters":6400,"station_id":"","pricing_plan_id":"cebpf4jnsgd1na2vs0mg"},{"bike_id":"3ec797b0-3a3d-45bf-9c77-51660ece44e0","system_id":"levelo_inurba_marseille","lat":43.29804,"lon":5.40406,"is_reserved":false,"is_disabled":false,"rental_uris":{"android":"levelo://app?vid=3ec797b0-3a3d-45bf-9c77-51660ece44e0","ios":"levelo://app?vid=3ec797b0-3a3d-45bf-9c77-51660ece44e0"},"vehicle_type_id":"4","last_reported":1749798651,"current_range_meters":6400,"station_id":"ce4bh112rcd13ifvqd90","pricing_plan_id":"cebpf4jnsgd1na2vs0mg"},{"bike_id":"8335d652-66f3-448a-a7b5-fde21ed402fd","system_id":"levelo_inurba_marseille","lat":43.27811,"lon":5.40712,"is_reserved":false,"is_disabled":false,"rental_uris":{"android":"levelo://app?vid=8335d652-66f3-448a-a7b5-fde21ed402fd","ios":"levelo://app?vid=8335d652-66f3-448a-a7b5-fde21ed402fd"},"vehicle_type_id":"4","last_reported":1749798651,"current_range_meters":6400,"station_id":"ce4bhnh2rcd13ifvqgtg","pricing_plan_id":"cebpf4jnsgd1na2vs0mg"},{"bike_id":"308cbf69-b866-4a48-b377-e4f7d5e7c70b","system_id":"levelo_inurba_marseille","lat":43.32923,"lon":5.38985,"is_reserved":false,"is_disabled":false,"rental_uris":{"android":"levelo://app?vid=308cbf69-b866-4a48-b377-e4f7d5e7c70b","ios":"levelo://app?vid=308cbf69-b866-4a48-b377-e4f7d5e7c70b"},"vehicle_type_id":"4","last_reported":1749798651,"current_range_meters":6800,"station_id":"","pricing_plan_id":"cebpf4jnsgd1na2vs0mg"},{"bike_id":"87f17351-3bf1-4461-8c14-9020d756df90","system_id":"levelo_inurba_marseille","lat":43.29838,"lon":5.36265,"is_reserved":false,"is_disabled":false,"rental_uris":{"android":"levelo://app?vid=87f17351-3bf1-4461-8c14-9020d756df90","ios":"levelo://app?vid=87f17351-3bf1-4461-8c14-9020d756df90"},"vehicle_type_id":"4","last_reported":1749798651,"current_range_meters":6800,"station_id":"ce4bgpp2rcd13ifvqc3g","pricing_plan_id":"cebpf4jnsgd1na2vs0mg"},{"bike_id":"9be6034f-5a67-45b8-ad1f-b3cf90fc3066","system_id":"levelo_inurba_marseille","lat":43.31352,"lon":5.36722,"is_reserved":false,"is_disabled":false,"rental_uris":{"android":"levelo://app?vid=9be6034f-5a67-45b8-ad1f-b3cf90fc3066","ios":"levelo://app?vid=9be6034f-5a67-45b8-ad1f-b3cf90fc3066"},"vehicle_type_id":"4","last_reported":1749798651,"current_range_meters":6800,"station_id":"ce4bgr92rcd13ifvqc6g","pricing_plan_id":"cebpf4jnsgd1na2vs0mg"},{"bike_id":"da619c0e-e85e-45f7-aefd-4b6757f7379c","system_id":"levelo_inurba_marseille","lat":43.30426,"lon":5.39742,"is_reserved":false,"is_disabled":false,"rental_uris":{"android":"levelo://app?vid=da619c0e-e85e-45f7-aefd-4b6757f7379c","ios":"levelo://app?vid=da619c0e-e85e-45f7-aefd-4b6757f7379c"},"vehicle_type_id":"4","last_reported":1749798651,"current_range_meters":6800,"station_id":"ce4bh092rcd13ifvqd20","pricing_plan_id":"cebpf4jnsgd1na2vs0mg"},{"bike_id":"7091c271-4fc4-450d-b90d-34f6f279e4b3","system_id":"levelo_inurba_marseille","lat":43.25867,"lon":5.39895,"is_reserved":false,"is_disabled":false,"rental_uris":{"android":"levelo://app?vid=7091c271-4fc4-450d-b90d-34f6f279e4b3","ios":"levelo://app?vid=7091c271-4fc4-450d-b90d-34f6f279e4b3"},"vehicle_type_id":"4","last_reported":1749798651,"current_range_meters":6800,"station_id":"ce4bhl92rcd13ifvqghg","pricing_plan_id":"cebpf4jnsgd1na2vs0mg"},{"bike_id":"bd1a489a-1070-4007-8c0a-1dcc413c2770","system_id":"levelo_inurba_marseille","lat":43.32477,"lon":5.3658,"is_reserved":false,"is_disabled":false,"rental_uris":{"android":"levelo://app?vid=bd1a489a-1070-4007-8c0a-1dcc413c2770","ios":"levelo://app?vid=bd1a489a-1070-4007-8c0a-1dcc413c2770"},"vehicle_type_id":"4","last_reported":1749798651,"current_range_meters":6800,"station_id":"ce4bhs12rcd13ifvqhvg","pricing_plan_id":"cebpf4jnsgd1na2vs0mg"},{"bike_id":"e45ee780-d3b2-4c1b-b50f-1bfdf09ab688","system_id":"levelo_inurba_marseille","lat":43.30605,"lon":5.37218,"is_reserved":false,"is_disabled":false,"rental_uris":{"android":"levelo://app?vid=e45ee780-d3b2-4c1b-b50f-1bfdf09ab688","ios":"levelo://app?vid=e45ee780-d3b2-4c1b-b50f-1bfdf09ab688"},"vehicle_type_id":"4","last_reported":1749798651,"current_range_meters":7200,"station_id":"ce4bgqh2rcd13ifvqc4g","pricing_plan_id":"cebpf4jnsgd1na2vs0mg"},{"bike_id":"4d239061-6c70-4e42-9aee-a6c0fccd81bb","system_id":"levelo_inurba_marseille","lat":43.24176,"lon":5.39734,"is_reserved":false,"is_disabled":false,"rental_uris":{"android":"levelo://app?vid=4d239061-6c70-4e42-9aee-a6c0fccd81bb","ios":"levelo://app?vid=4d239061-6c70-4e42-9aee-a6c0fccd81bb"},"vehicle_type_id":"4","last_reported":1749798651,"current_range_meters":7200,"station_id":"ce4bhn12rcd13ifvqgpg","pricing_plan_id":"cebpf4jnsgd1na2vs0mg"},{"bike_id":"417544dd-0fd1-4b74-acff-12b412446d99","system_id":"levelo_inurba_marseille","lat":43.23179,"lon":5.39993,"is_reserved":false,"is_disabled":false,"rental_uris":{"android":"levelo://app?vid=417544dd-0fd1-4b74-acff-12b412446d99","ios":"levelo://app?vid=417544dd-0fd1-4b74-acff-12b412446d99"},"vehicle_type_id":"4","last_reported":1749798651,"current_range_meters":7200,"station_id":"ce4bhn12rcd13ifvqgqg","pricing_plan_id":"cebpf4jnsgd1na2vs0mg"},{"bike_id":"a426bcb6-9733-433a-b425-ccc13f254a65","system_id":"levelo_inurba_marseille","lat":43.29565,"lon":5.44256,"is_reserved":false,"is_disabled":false,"rental_uris":{"android":"levelo://app?vid=a426bcb6-9733-433a-b425-ccc13f254a65","ios":"levelo://app?vid=a426bcb6-9733-433a-b425-ccc13f254a65"},"vehicle_type_id":"4","last_reported":1749798651,"current_range_meters":8000,"station_id":"","pricing_plan_id":"cebpf4jnsgd1na2vs0mg"},{"bike_id":"538be204-294c-44d3-be2e-ddd41840eef1","system_id":"levelo_inurba_marseille","lat":43.21681,"lon":5.34667,"is_reserved":false,"is_disabled":false,"rental_uris":{"android":"levelo://app?vid=538be204-294c-44d3-be2e-ddd41840eef1","ios":"levelo://app?vid=538be204-294c-44d3-be2e-ddd41840eef1"},"vehicle_type_id":"4","last_reported":1749798651,"current_range_meters":8000,"station_id":"","pricing_plan_id":"cebpf4jnsgd1na2vs0mg"},{"bike_id":"f53151ce-87df-4609-a347-706b7abb3af3","system_id":"levelo_inurba_marseille","lat":43.30536,"lon":5.36711,"is_reserved":false,"is_disabled":false,"rental_uris":{"android":"levelo://app?vid=f53151ce-87df-4609-a347-706b7abb3af3","ios":"levelo://app?vid=f53151ce-87df-4609-a347-706b7abb3af3"},"vehicle_type_id":"4","last_reported":1749798651,"current_range_meters":8000,"station_id":"ce4bgrp2rcd13ifvqc9g","pricing_plan_id":"cebpf4jnsgd1na2vs0mg"},{"bike_id":"5b291245-a7dd-433e-af0b-afe790334f4d","system_id":"levelo_inurba_marseille","lat":43.27314,"lon":5.39061,"is_reserved":false,"is_disabled":false,"rental_uris":{"android":"levelo://app?vid=5b291245-a7dd-433e-af0b-afe790334f4d","ios":"levelo://app?vid=5b291245-a7dd-433e-af0b-afe790334f4d"},"vehicle_type_id":"4","last_reported":1749798651,"current_range_meters":8000,"station_id":"ce4bhgp2rcd13ifvqfe0","pricing_plan_id":"cebpf4jnsgd1na2vs0mg"},{"bike_id":"38fa0ff2-58cb-450d-9fbe-40ba7dce71ba","system_id":"levelo_inurba_marseille","lat":43.317125,"lon":5.389961,"is_reserved":false,"is_disabled":false,"rental_uris":{"android":"levelo://app?vid=38fa0ff2-58cb-450d-9fbe-40ba7dce71ba","ios":"levelo://app?vid=38fa0ff2-58cb-450d-9fbe-40ba7dce71ba"},"vehicle_type_id":"4","last_reported":1749798651,"current_range_meters":8000,"station_id":"ce4bhqp2rcd13ifvqhng","pricing_plan_id":"cebpf4jnsgd1na2vs0mg"},{"bike_id":"ac6dfcbb-1806-40ee-b61c-5cbb73114693","system_id":"levelo_inurba_marseille","lat":43.32106,"lon":5.36775,"is_reserved":false,"is_disabled":false,"rental_uris":{"android":"levelo://app?vid=ac6dfcbb-1806-40ee-b61c-5cbb73114693","ios":"levelo://app?vid=ac6dfcbb-1806-40ee-b61c-5cbb73114693"},"vehicle_type_id":"4","last_reported":1749798651,"current_range_meters":8000,"station_id":"ce4bhrh2rcd13ifvqhug","pricing_plan_id":"cebpf4jnsgd1na2vs0mg"},{"bike_id":"a2421370-e442-436f-a98a-844d44299694","system_id":"levelo_inurba_marseille","lat":43.32363,"lon":5.36768,"is_reserved":false,"is_disabled":false,"rental_uris":{"android":"levelo://app?vid=a2421370-e442-436f-a98a-844d44299694","ios":"levelo://app?vid=a2421370-e442-436f-a98a-844d44299694"},"vehicle_type_id":"4","last_reported":1749798651,"current_range_meters":8000,"station_id":"ce4bhsh2rcd13ifvqi2g","pricing_plan_id":"cebpf4jnsgd1na2vs0mg"},{"bike_id":"501fe5cc-ec9f-4031-8e12-9c9a87dfd25d","system_id":"levelo_inurba_marseille","lat":43.31809,"lon":5.40587,"is_reserved":false,"is_disabled":false,"rental_uris":{"android":"levelo://app?vid=501fe5cc-ec9f-4031-8e12-9c9a87dfd25d","ios":"levelo://app?vid=501fe5cc-ec9f-4031-8e12-9c9a87dfd25d"},"vehicle_type_id":"4","last_reported":1749798651,"current_range_meters":8400,"station_id":"","pricing_plan_id":"cebpf4jnsgd1na2vs0mg"},{"bike_id":"a25b84b4-c252-4eda-97fb-1a1f22303c5d","system_id":"levelo_inurba_marseille","lat":43.31361,"lon":5.37436,"is_reserved":false,"is_disabled":false,"rental_uris":{"android":"levelo://app?vid=a25b84b4-c252-4eda-97fb-1a1f22303c5d","ios":"levelo://app?vid=a25b84b4-c252-4eda-97fb-1a1f22303c5d"},"vehicle_type_id":"4","last_reported":1749798651,"current_range_meters":8400,"station_id":"","pricing_plan_id":"cebpf4jnsgd1na2vs0mg"},{"bike_id":"387de618-0f6f-4072-93cd-0644a20a635f","system_id":"levelo_inurba_marseille","lat":43.29369,"lon":5.37869,"is_reserved":false,"is_disabled":false,"rental_uris":{"android":"levelo://app?vid=387de618-0f6f-4072-93cd-0644a20a635f","ios":"levelo://app?vid=387de618-0f6f-4072-93cd-0644a20a635f"},"vehicle_type_id":"4","last_reported":1749798651,"current_range_meters":8400,"station_id":"ce4bgjh2rcd13ifvqbf0","pricing_plan_id":"cebpf4jnsgd1na2vs0mg"},{"bike_id":"32061525-bea0-4411-b7ed-f0817b132ff9","system_id":"levelo_inurba_marseille","lat":43.26683,"lon":5.38269,"is_reserved":false,"is_disabled":false,"rental_uris":{"android":"levelo://app?vid=32061525-bea0-4411-b7ed-f0817b132ff9","ios":"levelo://app?vid=32061525-bea0-4411-b7ed-f0817b132ff9"},"vehicle_type_id":"4","last_reported":1749798651,"current_range_meters":8400,"station_id":"ce4bhg92rcd13ifvqf90","pricing_plan_id":"cebpf4jnsgd1na2vs0mg"},{"bike_id":"e1f61fd2-d299-41f8-81fc-4866f750fe56","system_id":"levelo_inurba_marseille","lat":43.26029,"lon":5.37543,"is_reserved":false,"is_disabled":false,"rental_uris":{"android":"levelo://app?vid=e1f61fd2-d299-41f8-81fc-4866f750fe56","ios":"levelo://app?vid=e1f61fd2-d299-41f8-81fc-4866f750fe56"},"vehicle_type_id":"4","last_reported":1749798651,"current_range_meters":8400,"station_id":"ce4bhgh2rcd13ifvqfa0","pricing_plan_id":"cebpf4jnsgd1na2vs0mg"},{"bike_id":"354e1ed3-3b21-4228-95e2-811b1e126665","system_id":"levelo_inurba_marseille","lat":43.25496,"lon":5.37648,"is_reserved":false,"is_disabled":false,"rental_uris":{"android":"levelo://app?vid=354e1ed3-3b21-4228-95e2-811b1e126665","ios":"levelo://app?vid=354e1ed3-3b21-4228-95e2-811b1e126665"},"vehicle_type_id":"4","last_reported":1749798651,"current_range_meters":8400,"station_id":"ce4bhh12rcd13ifvqff0","pricing_plan_id":"cebpf4jnsgd1na2vs0mg"},{"bike_id":"6a4b81b7-4b8b-419b-9607-1a66d458493b","system_id":"levelo_inurba_marseille","lat":43.25731,"lon":5.41103,"is_reserved":false,"is_disabled":false,"rental_uris":{"android":"levelo://app?vid=6a4b81b7-4b8b-419b-9607-1a66d458493b","ios":"levelo://app?vid=6a4b81b7-4b8b-419b-9607-1a66d458493b"},"vehicle_type_id":"4","last_reported":1749798651,"current_range_meters":8400,"station_id":"ce4bhkp2rcd13ifvqgd0","pricing_plan_id":"cebpf4jnsgd1na2vs0mg"},{"bike_id":"151acd1e-28c3-4589-88dc-6ed1b919e78b","system_id":"levelo_inurba_marseille","lat":43.33719,"lon":5.39196,"is_reserved":false,"is_disabled":false,"rental_uris":{"android":"levelo://app?vid=151acd1e-28c3-4589-88dc-6ed1b919e78b","ios":"levelo://app?vid=151acd1e-28c3-4589-88dc-6ed1b919e78b"},"vehicle_type_id":"4","last_reported":1749798651,"current_range_meters":8400,"station_id":"ce4bhr92rcd13ifvqhsg","pricing_plan_id":"cebpf4jnsgd1na2vs0mg"},{"bike_id":"085e827d-2900-440a-9453-7e29eb4fffea","system_id":"levelo_inurba_marseille","lat":43.31692,"lon":5.37771,"is_reserved":false,"is_disabled":false,"rental_uris":{"android":"levelo://app?vid=085e827d-2900-440a-9453-7e29eb4fffea","ios":"levelo://app?vid=085e827d-2900-440a-9453-7e29eb4fffea"},"vehicle_type_id":"4","last_reported":1749798651,"current_range_meters":8800,"station_id":"ce4bgth2rcd13ifvqch0","pricing_plan_id":"cebpf4jnsgd1na2vs0mg"},{"bike_id":"26d9a823-9e8f-4894-85f6-a3986a4d415d","system_id":"levelo_inurba_marseille","lat":43.2657,"lon":5.39007,"is_reserved":false,"is_disabled":false,"rental_uris":{"android":"levelo://app?vid=26d9a823-9e8f-4894-85f6-a3986a4d415d","ios":"levelo://app?vid=26d9a823-9e8f-4894-85f6-a3986a4d415d"},"vehicle_type_id":"4","last_reported":1749798651,"current_range_meters":8800,"station_id":"ce4bhe12rcd13ifvqf30","pricing_plan_id":"cebpf4jnsgd1na2vs0mg"},{"bike_id":"21c6a92f-de23-49ca-a99b-c6d8d68dd18d","system_id":"levelo_inurba_marseille","lat":43.259,"lon":5.40891,"is_reserved":false,"is_disabled":false,"rental_uris":{"android":"levelo://app?vid=21c6a92f-de23-49ca-a99b-c6d8d68dd18d","ios":"levelo://app?vid=21c6a92f-de23-49ca-a99b-c6d8d68dd18d"},"vehicle_type_id":"4","last_reported":1749798651,"current_range_meters":8800,"station_id":"ce4bhm92rcd13ifvqglg","pricing_plan_id":"cebpf4jnsgd1na2vs0mg"},{"bike_id":"3bdb47fe-0f4d-4e36-bfdb-2d2509b0a553","system_id":"levelo_inurba_marseille","lat":43.25081,"lon":5.37896,"is_reserved":false,"is_disabled":false,"rental_uris":{"android":"levelo://app?vid=3bdb47fe-0f4d-4e36-bfdb-2d2509b0a553","ios":"levelo://app?vid=3bdb47fe-0f4d-4e36-bfdb-2d2509b0a553"},"vehicle_type_id":"4","last_reported":1749798651,"current_range_meters":9200,"station_id":"","pricing_plan_id":"cebpf4jnsgd1na2vs0mg"},{"bike_id":"f9fd3463-cf9c-46ea-8305-4847b4ac3ce4","system_id":"levelo_inurba_marseille","lat":43.30949,"lon":5.3903,"is_reserved":false,"is_disabled":false,"rental_uris":{"android":"levelo://app?vid=f9fd3463-cf9c-46ea-8305-4847b4ac3ce4","ios":"levelo://app?vid=f9fd3463-cf9c-46ea-8305-4847b4ac3ce4"},"vehicle_type_id":"4","last_reported":1749798651,"current_range_meters":9200,"station_id":"ce4bgup2rcd13ifvqco0","pricing_plan_id":"cebpf4jnsgd1na2vs0mg"},{"bike_id":"7db892a7-47b2-4df3-86a0-1a095197db95","system_id":"levelo_inurba_marseille","lat":43.31729,"lon":5.404309,"is_reserved":false,"is_disabled":false,"rental_uris":{"android":"levelo://app?vid=7db892a7-47b2-4df3-86a0-1a095197db95","ios":"levelo://app?vid=7db892a7-47b2-4df3-86a0-1a095197db95"},"vehicle_type_id":"4","last_reported":1749798651,"current_range_meters":9200,"station_id":"ce4bh012rcd13ifvqd00","pricing_plan_id":"cebpf4jnsgd1na2vs0mg"},{"bike_id":"8f91a10d-9abe-4686-aa3a-0e246dd61794","system_id":"levelo_inurba_marseille","lat":43.30427,"lon":5.39756,"is_reserved":false,"is_disabled":false,"rental_uris":{"android":"levelo://app?vid=8f91a10d-9abe-4686-aa3a-0e246dd61794","ios":"levelo://app?vid=8f91a10d-9abe-4686-aa3a-0e246dd61794"},"vehicle_type_id":"4","last_reported":1749798651,"current_range_meters":9200,"station_id":"ce4bh092rcd13ifvqd20","pricing_plan_id":"cebpf4jnsgd1na2vs0mg"},{"bike_id":"334ca4fe-1c59-4830-b157-be5ac16af9c7","system_id":"levelo_inurba_marseille","lat":43.24176,"lon":5.39726,"is_reserved":false,"is_disabled":false,"rental_uris":{"android":"levelo://app?vid=334ca4fe-1c59-4830-b157-be5ac16af9c7","ios":"levelo://app?vid=334ca4fe-1c59-4830-b157-be5ac16af9c7"},"vehicle_type_id":"4","last_reported":1749798651,"current_range_meters":9200,"station_id":"ce4bhn12rcd13ifvqgpg","pricing_plan_id":"cebpf4jnsgd1na2vs0mg"},{"bike_id":"040bd027-fa7d-42c9-807f-e534b24621e0","system_id":"levelo_inurba_marseille","lat":43.32335,"lon":5.4063,"is_reserved":false,"is_disabled":false,"rental_uris":{"android":"levelo://app?vid=040bd027-fa7d-42c9-807f-e534b24621e0","ios":"levelo://app?vid=040bd027-fa7d-42c9-807f-e534b24621e0"},"vehicle_type_id":"4","last_reported":1749798651,"current_range_meters":9200,"station_id":"ce4bhq92rcd13ifvqhjg","pricing_plan_id":"cebpf4jnsgd1na2vs0mg"},{"bike_id":"97421c04-2630-4fc1-9da9-b17d88602c5f","system_id":"levelo_inurba_marseille","lat":43.337687,"lon":5.37437,"is_reserved":false,"is_disabled":false,"rental_uris":{"android":"levelo://app?vid=97421c04-2630-4fc1-9da9-b17d88602c5f","ios":"levelo://app?vid=97421c04-2630-4fc1-9da9-b17d88602c5f"},"vehicle_type_id":"4","last_reported":1749798651,"current_range_meters":9600,"station_id":"","pricing_plan_id":"cebpf4jnsgd1na2vs0mg"},{"bike_id":"8d60347d-541c-40fb-90ca-203bf6bd520a","system_id":"levelo_inurba_marseille","lat":43.271256,"lon":5.364009,"is_reserved":false,"is_disabled":false,"rental_uris":{"android":"levelo://app?vid=8d60347d-541c-40fb-90ca-203bf6bd520a","ios":"levelo://app?vid=8d60347d-541c-40fb-90ca-203bf6bd520a"},"vehicle_type_id":"4","last_reported":1749798651,"current_range_meters":9600,"station_id":"","pricing_plan_id":"cebpf4jnsgd1na2vs0mg"},{"bike_id":"ca5067cb-a583-4fb8-8162-e401d0ea4549","system_id":"levelo_inurba_marseille","lat":43.30143,"lon":5.38086,"is_reserved":false,"is_disabled":false,"rental_uris":{"android":"levelo://app?vid=ca5067cb-a583-4fb8-8162-e401d0ea4549","ios":"levelo://app?vid=ca5067cb-a583-4fb8-8162-e401d0ea4549"},"vehicle_type_id":"4","last_reported":1749798651,"current_range_meters":9600,"station_id":"ce4bgjp2rcd13ifvqbh0","pricing_plan_id":"cebpf4jnsgd1na2vs0mg"},{"bike_id":"94ba6f4b-428d-4ab6-ab1a-43165113acc6","system_id":"levelo_inurba_marseille","lat":43.3111,"lon":5.37763,"is_reserved":false,"is_disabled":false,"rental_uris":{"android":"levelo://app?vid=94ba6f4b-428d-4ab6-ab1a-43165113acc6","ios":"levelo://app?vid=94ba6f4b-428d-4ab6-ab1a-43165113acc6"},"vehicle_type_id":"4","last_reported":1749798651,"current_range_meters":9600,"station_id":"ce4bgt92rcd13ifvqcg0","pricing_plan_id":"cebpf4jnsgd1na2vs0mg"},{"bike_id":"8d077453-18da-4e23-9305-ee493a72b0b4","system_id":"levelo_inurba_marseille","lat":43.34149,"lon":5.409,"is_reserved":false,"is_disabled":false,"rental_uris":{"android":"levelo://app?vid=8d077453-18da-4e23-9305-ee493a72b0b4","ios":"levelo://app?vid=8d077453-18da-4e23-9305-ee493a72b0b4"},"vehicle_type_id":"4","last_reported":1749798651,"current_range_meters":9600,"station_id":"ce4bhqh2rcd13ifvqhlg","pricing_plan_id":"cebpf4jnsgd1na2vs0mg"},{"bike_id":"3ddfd4d4-8440-48b5-b498-c84959c0b657","system_id":"levelo_inurba_marseille","lat":43.23191,"lon":5.35554,"is_reserved":false,"is_disabled":false,"rental_uris":{"android":"levelo://app?vid=3ddfd4d4-8440-48b5-b498-c84959c0b657","ios":"levelo://app?vid=3ddfd4d4-8440-48b5-b498-c84959c0b657"},"vehicle_type_id":"4","last_reported":1749798651,"current_range_meters":9600,"station_id":"ce4bhu92rcd13ifvqi70","pricing_plan_id":"cebpf4jnsgd1na2vs0mg"},{"bike_id":"1268e070-f02d-4537-93df-0bfd5c4daa05","system_id":"levelo_inurba_marseille","lat":43.32679,"lon":5.37639,"is_reserved":false,"is_disabled":false,"rental_uris":{"android":"levelo://app?vid=1268e070-f02d-4537-93df-0bfd5c4daa05","ios":"levelo://app?vid=1268e070-f02d-4537-93df-0bfd5c4daa05"},"vehicle_type_id":"4","last_reported":1749798651,"current_range_meters":10000,"station_id":"","pricing_plan_id":"cebpf4jnsgd1na2vs0mg"},{"bike_id":"2ae3497c-45b2-474e-a61b-246541dfb5a5","system_id":"levelo_inurba_marseille","lat":43.31343,"lon":5.36728,"is_reserved":false,"is_disabled":false,"rental_uris":{"android":"levelo://app?vid=2ae3497c-45b2-474e-a61b-246541dfb5a5","ios":"levelo://app?vid=2ae3497c-45b2-474e-a61b-246541dfb5a5"},"vehicle_type_id":"4","last_reported":1749798651,"current_range_meters":10000,"station_id":"ce4bgr92rcd13ifvqc6g","pricing_plan_id":"cebpf4jnsgd1na2vs0mg"},{"bike_id":"dc421049-780a-4fae-8790-3ed705d3cab6","system_id":"levelo_inurba_marseille","lat":43.31708,"lon":5.37751,"is_reserved":false,"is_disabled":false,"rental_uris":{"android":"levelo://app?vid=dc421049-780a-4fae-8790-3ed705d3cab6","ios":"levelo://app?vid=dc421049-780a-4fae-8790-3ed705d3cab6"},"vehicle_type_id":"4","last_reported":1749798651,"current_range_meters":10000,"station_id":"ce4bgth2rcd13ifvqch0","pricing_plan_id":"cebpf4jnsgd1na2vs0mg"},{"bike_id":"d868bd62-3c5e-4130-a7d2-3bd9b314843a","system_id":"levelo_inurba_marseille","lat":43.26995,"lon":5.42806,"is_reserved":false,"is_disabled":false,"rental_uris":{"android":"levelo://app?vid=d868bd62-3c5e-4130-a7d2-3bd9b314843a","ios":"levelo://app?vid=d868bd62-3c5e-4130-a7d2-3bd9b314843a"},"vehicle_type_id":"4","last_reported":1749798651,"current_range_meters":10800,"station_id":"","pricing_plan_id":"cebpf4jnsgd1na2vs0mg"},{"bike_id":"e5ef7447-82af-477b-846f-d44631249354","system_id":"levelo_inurba_marseille","lat":43.324841,"lon":5.388212,"is_reserved":false,"is_disabled":false,"rental_uris":{"android":"levelo://app?vid=e5ef7447-82af-477b-846f-d44631249354","ios":"levelo://app?vid=e5ef7447-82af-477b-846f-d44631249354"},"vehicle_type_id":"4","last_reported":1749798651,"current_range_meters":10800,"station_id":"","pricing_plan_id":"cebpf4jnsgd1na2vs0mg"},{"bike_id":"dc4783ac-dae4-4478-ba63-4cac9e0f5f60","system_id":"levelo_inurba_marseille","lat":43.30115,"lon":5.37426,"is_reserved":false,"is_disabled":false,"rental_uris":{"android":"levelo://app?vid=dc4783ac-dae4-4478-ba63-4cac9e0f5f60","ios":"levelo://app?vid=dc4783ac-dae4-4478-ba63-4cac9e0f5f60"},"vehicle_type_id":"4","last_reported":1749798651,"current_range_meters":10800,"station_id":"ce4bgs92rcd13ifvqcc0","pricing_plan_id":"cebpf4jnsgd1na2vs0mg"},{"bike_id":"ce015bee-f8cd-44a6-bda6-6e40afc0914e","system_id":"levelo_inurba_marseille","lat":43.309393,"lon":5.401287,"is_reserved":false,"is_disabled":false,"rental_uris":{"android":"levelo://app?vid=ce015bee-f8cd-44a6-bda6-6e40afc0914e","ios":"levelo://app?vid=ce015bee-f8cd-44a6-bda6-6e40afc0914e"},"vehicle_type_id":"4","last_reported":1749798651,"current_range_meters":10800,"station_id":"ce4bgvp2rcd13ifvqct0","pricing_plan_id":"cebpf4jnsgd1na2vs0mg"},{"bike_id":"46a7bc7a-8db4-47d9-926d-7fd442b35c07","system_id":"levelo_inurba_marseille","lat":43.29164,"lon":5.37168,"is_reserved":false,"is_disabled":false,"rental_uris":{"android":"levelo://app?vid=46a7bc7a-8db4-47d9-926d-7fd442b35c07","ios":"levelo://app?vid=46a7bc7a-8db4-47d9-926d-7fd442b35c07"},"vehicle_type_id":"4","last_reported":1749798651,"current_range_meters":10800,"station_id":"ce4bha92rcd13ifvqeh0","pricing_plan_id":"cebpf4jnsgd1na2vs0mg"},{"bike_id":"dd0db329-349e-41be-a4d3-65def3190f5d","system_id":"levelo_inurba_marseille","lat":43.32479,"lon":5.36567,"is_reserved":false,"is_disabled":false,"rental_uris":{"android":"levelo://app?vid=dd0db329-349e-41be-a4d3-65def3190f5d","ios":"levelo://app?vid=dd0db329-349e-41be-a4d3-65def3190f5d"},"vehicle_type_id":"4","last_reported":1749798651,"current_range_meters":10800,"station_id":"ce4bhs12rcd13ifvqhvg","pricing_plan_id":"cebpf4jnsgd1na2vs0mg"},{"bike_id":"62c0da7f-aff9-4ffa-86b8-6966d8f0e555","system_id":"levelo_inurba_marseille","lat":43.21206,"lon":5.35079,"is_reserved":false,"is_disabled":false,"rental_uris":{"android":"levelo://app?vid=62c0da7f-aff9-4ffa-86b8-6966d8f0e555","ios":"levelo://app?vid=62c0da7f-aff9-4ffa-86b8-6966d8f0e555"},"vehicle_type_id":"4","last_reported":1749798651,"current_range_meters":10800,"station_id":"st_cvj6sg6p6f1abm77japg","pricing_plan_id":"cebpf4jnsgd1na2vs0mg"},{"bike_id":"063eff84-b62e-4128-85ed-5896eed2f5f4","system_id":"levelo_inurba_marseille","lat":43.31309,"lon":5.37525,"is_reserved":false,"is_disabled":false,"rental_uris":{"android":"levelo://app?vid=063eff84-b62e-4128-85ed-5896eed2f5f4","ios":"levelo://app?vid=063eff84-b62e-4128-85ed-5896eed2f5f4"},"vehicle_type_id":"4","last_reported":1749798651,"current_range_meters":11200,"station_id":"","pricing_plan_id":"cebpf4jnsgd1na2vs0mg"},{"bike_id":"efef7ea9-dfe7-4a71-9a42-eb2cee9bc37e","system_id":"levelo_inurba_marseille","lat":43.31172,"lon":5.37197,"is_reserved":false,"is_disabled":false,"rental_uris":{"android":"levelo://app?vid=efef7ea9-dfe7-4a71-9a42-eb2cee9bc37e","ios":"levelo://app?vid=efef7ea9-dfe7-4a71-9a42-eb2cee9bc37e"},"vehicle_type_id":"4","last_reported":1749798651,"current_range_meters":11200,"station_id":"","pricing_plan_id":"cebpf4jnsgd1na2vs0mg"},{"bike_id":"cac16850-0e6d-465a-bbca-79973376e09f","system_id":"levelo_inurba_marseille","lat":43.275063,"lon":5.389783,"is_reserved":false,"is_disabled":false,"rental_uris":{"android":"levelo://app?vid=cac16850-0e6d-465a-bbca-79973376e09f","ios":"levelo://app?vid=cac16850-0e6d-465a-bbca-79973376e09f"},"vehicle_type_id":"4","last_reported":1749798651,"current_range_meters":11200,"station_id":"","pricing_plan_id":"cebpf4jnsgd1na2vs0mg"},{"bike_id":"6e464720-93b0-4699-80fe-881649eb71cd","system_id":"levelo_inurba_marseille","lat":43.23246,"lon":5.355858,"is_reserved":false,"is_disabled":false,"rental_uris":{"android":"levelo://app?vid=6e464720-93b0-4699-80fe-881649eb71cd","ios":"levelo://app?vid=6e464720-93b0-4699-80fe-881649eb71cd"},"vehicle_type_id":"4","last_reported":1749798651,"current_range_meters":11200,"station_id":"","pricing_plan_id":"cebpf4jnsgd1na2vs0mg"},{"bike_id":"6829c49f-85c7-44c9-aab4-95a341d6204c","system_id":"levelo_inurba_marseille","lat":43.30467,"lon":5.37915,"is_reserved":false,"is_disabled":false,"rental_uris":{"android":"levelo://app?vid=6829c49f-85c7-44c9-aab4-95a341d6204c","ios":"levelo://app?vid=6829c49f-85c7-44c9-aab4-95a341d6204c"},"vehicle_type_id":"4","last_reported":1749798651,"current_range_meters":11200,"station_id":"ce4bgup2rcd13ifvqcn0","pricing_plan_id":"cebpf4jnsgd1na2vs0mg"},{"bike_id":"4a916dc6-8f0f-4487-8724-68eb3e657c5b","system_id":"levelo_inurba_marseille","lat":43.24075,"lon":5.37756,"is_reserved":false,"is_disabled":false,"rental_uris":{"android":"levelo://app?vid=4a916dc6-8f0f-4487-8724-68eb3e657c5b","ios":"levelo://app?vid=4a916dc6-8f0f-4487-8724-68eb3e657c5b"},"vehicle_type_id":"4","last_reported":1749798651,"current_range_meters":11200,"station_id":"ce4bhnp2rcd13ifvqgvg","pricing_plan_id":"cebpf4jnsgd1na2vs0mg"},{"bike_id":"6914bf7d-7a94-4971-bffa-4aea2f3a6177","system_id":"levelo_inurba_marseille","lat":43.241374,"lon":5.37678,"is_reserved":false,"is_disabled":false,"rental_uris":{"android":"levelo://app?vid=6914bf7d-7a94-4971-bffa-4aea2f3a6177","ios":"levelo://app?vid=6914bf7d-7a94-4971-bffa-4aea2f3a6177"},"vehicle_type_id":"4","last_reported":1749798651,"current_range_meters":11200,"station_id":"ce4bhnp2rcd13ifvqgvg","pricing_plan_id":"cebpf4jnsgd1na2vs0mg"},{"bike_id":"db4b43d2-2d11-4c47-83cd-2a38575cb3f3","system_id":"levelo_inurba_marseille","lat":43.30917,"lon":5.36864,"is_reserved":false,"is_disabled":false,"rental_uris":{"android":"levelo://app?vid=db4b43d2-2d11-4c47-83cd-2a38575cb3f3","ios":"levelo://app?vid=db4b43d2-2d11-4c47-83cd-2a38575cb3f3"},"vehicle_type_id":"4","last_reported":1749798651,"current_range_meters":11600,"station_id":"ce4bgn92rcd13ifvqbvg","pricing_plan_id":"cebpf4jnsgd1na2vs0mg"},{"bike_id":"1a5bde47-bf3b-4cd4-b091-da658f66aa67","system_id":"levelo_inurba_marseille","lat":43.32526,"lon":5.41435,"is_reserved":false,"is_disabled":false,"rental_uris":{"android":"levelo://app?vid=1a5bde47-bf3b-4cd4-b091-da658f66aa67","ios":"levelo://app?vid=1a5bde47-bf3b-4cd4-b091-da658f66aa67"},"vehicle_type_id":"4","last_reported":1749798651,"current_range_meters":11600,"station_id":"ce4bhq12rcd13ifvqhhg","pricing_plan_id":"cebpf4jnsgd1na2vs0mg"},{"bike_id":"3fe50ebb-7407-4c5c-803b-1cd761668abb","system_id":"levelo_inurba_marseille","lat":43.22932,"lon":5.35376,"is_reserved":false,"is_disabled":false,"rental_uris":{"android":"levelo://app?vid=3fe50ebb-7407-4c5c-803b-1cd761668abb","ios":"levelo://app?vid=3fe50ebb-7407-4c5c-803b-1cd761668abb"},"vehicle_type_id":"4","last_reported":1749798651,"current_range_meters":11600,"station_id":"cpo3532slgdg3j2ikp40","pricing_plan_id":"cebpf4jnsgd1na2vs0mg"},{"bike_id":"78e4331f-c67f-4812-a1cf-4af0acc5e2d6","system_id":"levelo_inurba_marseille","lat":43.32405,"lon":5.36727,"is_reserved":false,"is_disabled":false,"rental_uris":{"android":"levelo://app?vid=78e4331f-c67f-4812-a1cf-4af0acc5e2d6","ios":"levelo://app?vid=78e4331f-c67f-4812-a1cf-4af0acc5e2d6"},"vehicle_type_id":"4","last_reported":1749798651,"current_range_meters":12000,"station_id":"ce4bhsh2rcd13ifvqi2g","pricing_plan_id":"cebpf4jnsgd1na2vs0mg"},{"bike_id":"3a11c5a8-e636-4a8e-97c5-5f95a0b7cfbb","system_id":"levelo_inurba_marseille","lat":43.33839,"lon":5.39311,"is_reserved":false,"is_disabled":false,"rental_uris":{"android":"levelo://app?vid=3a11c5a8-e636-4a8e-97c5-5f95a0b7cfbb","ios":"levelo://app?vid=3a11c5a8-e636-4a8e-97c5-5f95a0b7cfbb"},"vehicle_type_id":"4","last_reported":1749798651,"current_range_meters":12400,"station_id":"","pricing_plan_id":"cebpf4jnsgd1na2vs0mg"},{"bike_id":"41902e46-3363-402b-89a9-77321257c96b","system_id":"levelo_inurba_marseille","lat":43.323579,"lon":5.367364,"is_reserved":false,"is_disabled":false,"rental_uris":{"android":"levelo://app?vid=41902e46-3363-402b-89a9-77321257c96b","ios":"levelo://app?vid=41902e46-3363-402b-89a9-77321257c96b"},"vehicle_type_id":"4","last_reported":1749798651,"current_range_meters":12400,"station_id":"ce4bhsh2rcd13ifvqi2g","pricing_plan_id":"cebpf4jnsgd1na2vs0mg"},{"bike_id":"346f3f80-6b15-4406-b905-bb78596f5bac","system_id":"levelo_inurba_marseille","lat":43.32345,"lon":5.36744,"is_reserved":false,"is_disabled":false,"rental_uris":{"android":"levelo://app?vid=346f3f80-6b15-4406-b905-bb78596f5bac","ios":"levelo://app?vid=346f3f80-6b15-4406-b905-bb78596f5bac"},"vehicle_type_id":"4","last_reported":1749798651,"current_range_meters":12400,"station_id":"ce4bhsh2rcd13ifvqi2g","pricing_plan_id":"cebpf4jnsgd1na2vs0mg"},{"bike_id":"dfe86e4d-732f-444a-affa-bc91e3d641f2","system_id":"levelo_inurba_marseille","lat":43.31687,"lon":5.40468,"is_reserved":false,"is_disabled":false,"rental_uris":{"android":"levelo://app?vid=dfe86e4d-732f-444a-affa-bc91e3d641f2","ios":"levelo://app?vid=dfe86e4d-732f-444a-affa-bc91e3d641f2"},"vehicle_type_id":"4","last_reported":1749798651,"current_range_meters":12800,"station_id":"ce4bh012rcd13ifvqd00","pricing_plan_id":"cebpf4jnsgd1na2vs0mg"},{"bike_id":"3b1aa8d6-29c6-4d9a-9b94-98e4f7865148","system_id":"levelo_inurba_marseille","lat":43.24168,"lon":5.39734,"is_reserved":false,"is_disabled":false,"rental_uris":{"android":"levelo://app?vid=3b1aa8d6-29c6-4d9a-9b94-98e4f7865148","ios":"levelo://app?vid=3b1aa8d6-29c6-4d9a-9b94-98e4f7865148"},"vehicle_type_id":"4","last_reported":1749798651,"current_range_meters":12800,"station_id":"ce4bhn12rcd13ifvqgpg","pricing_plan_id":"cebpf4jnsgd1na2vs0mg"},{"bike_id":"566c7291-85cb-414c-ace7-f588a8181d84","system_id":"levelo_inurba_marseille","lat":43.240663,"lon":5.377563,"is_reserved":false,"is_disabled":false,"rental_uris":{"android":"levelo://app?vid=566c7291-85cb-414c-ace7-f588a8181d84","ios":"levelo://app?vid=566c7291-85cb-414c-ace7-f588a8181d84"},"vehicle_type_id":"4","last_reported":1749798651,"current_range_meters":12800,"station_id":"ce4bhnp2rcd13ifvqgvg","pricing_plan_id":"cebpf4jnsgd1na2vs0mg"},{"bike_id":"7389b02b-e562-41c8-9cc6-01c25d9fca9a","system_id":"levelo_inurba_marseille","lat":43.336,"lon":5.4102,"is_reserved":false,"is_disabled":false,"rental_uris":{"android":"levelo://app?vid=7389b02b-e562-41c8-9cc6-01c25d9fca9a","ios":"levelo://app?vid=7389b02b-e562-41c8-9cc6-01c25d9fca9a"},"vehicle_type_id":"4","last_reported":1749798651,"current_range_meters":12800,"station_id":"ce4bhqh2rcd13ifvqhmg","pricing_plan_id":"cebpf4jnsgd1na2vs0mg"},{"bike_id":"b8be75ca-a70d-4aee-a2e8-3271c5b2ff0f","system_id":"levelo_inurba_marseille","lat":43.31348,"lon":5.36716,"is_reserved":false,"is_disabled":false,"rental_uris":{"android":"levelo://app?vid=b8be75ca-a70d-4aee-a2e8-3271c5b2ff0f","ios":"levelo://app?vid=b8be75ca-a70d-4aee-a2e8-3271c5b2ff0f"},"vehicle_type_id":"4","last_reported":1749798651,"current_range_meters":13600,"station_id":"ce4bgr92rcd13ifvqc6g","pricing_plan_id":"cebpf4jnsgd1na2vs0mg"},{"bike_id":"37a64c8b-230f-4d36-94de-7db209419664","system_id":"levelo_inurba_marseille","lat":43.29277,"lon":5.40127,"is_reserved":false,"is_disabled":false,"rental_uris":{"android":"levelo://app?vid=37a64c8b-230f-4d36-94de-7db209419664","ios":"levelo://app?vid=37a64c8b-230f-4d36-94de-7db209419664"},"vehicle_type_id":"4","last_reported":1749798651,"current_range_meters":14000,"station_id":"ce4bh312rcd13ifvqdk0","pricing_plan_id":"cebpf4jnsgd1na2vs0mg"},{"bike_id":"6033bfef-13cf-4c76-80da-c11cf54926f1","system_id":"levelo_inurba_marseille","lat":43.29034,"lon":5.39968,"is_reserved":false,"is_disabled":false,"rental_uris":{"android":"levelo://app?vid=6033bfef-13cf-4c76-80da-c11cf54926f1","ios":"levelo://app?vid=6033bfef-13cf-4c76-80da-c11cf54926f1"},"vehicle_type_id":"4","last_reported":1749798651,"current_range_meters":14000,"station_id":"ce4bh392rcd13ifvqdm0","pricing_plan_id":"cebpf4jnsgd1na2vs0mg"},{"bike_id":"0e8c2439-a6f4-4f6d-b1ff-bf30801cd276","system_id":"levelo_inurba_marseille","lat":43.295055,"lon":5.389953,"is_reserved":false,"is_disabled":false,"rental_uris":{"android":"levelo://app?vid=0e8c2439-a6f4-4f6d-b1ff-bf30801cd276","ios":"levelo://app?vid=0e8c2439-a6f4-4f6d-b1ff-bf30801cd276"},"vehicle_type_id":"4","last_reported":1749798651,"current_range_meters":14000,"station_id":"ce4bh3p2rcd13ifvqdp0","pricing_plan_id":"cebpf4jnsgd1na2vs0mg"},{"bike_id":"713f94e3-c67e-4836-bdd5-cfe7bb1b1281","system_id":"levelo_inurba_marseille","lat":43.22504,"lon":5.34788,"is_reserved":false,"is_disabled":false,"rental_uris":{"android":"levelo://app?vid=713f94e3-c67e-4836-bdd5-cfe7bb1b1281","ios":"levelo://app?vid=713f94e3-c67e-4836-bdd5-cfe7bb1b1281"},"vehicle_type_id":"4","last_reported":1749798651,"current_range_meters":14000,"station_id":"st_cvj5dfep6f1abm77gieg","pricing_plan_id":"cebpf4jnsgd1na2vs0mg"},{"bike_id":"f38ab1a7-3078-4364-a5da-31d8874fee8e","system_id":"levelo_inurba_marseille","lat":43.308838,"lon":5.368428,"is_reserved":false,"is_disabled":false,"rental_uris":{"android":"levelo://app?vid=f38ab1a7-3078-4364-a5da-31d8874fee8e","ios":"levelo://app?vid=f38ab1a7-3078-4364-a5da-31d8874fee8e"},"vehicle_type_id":"4","last_reported":1749798651,"current_range_meters":14400,"station_id":"ce4bgn92rcd13ifvqbvg","pricing_plan_id":"cebpf4jnsgd1na2vs0mg"},{"bike_id":"145bbb23-c52a-4a58-9ff2-a6ddf23757e5","system_id":"levelo_inurba_marseille","lat":43.24543,"lon":5.39522,"is_reserved":false,"is_disabled":false,"rental_uris":{"android":"levelo://app?vid=145bbb23-c52a-4a58-9ff2-a6ddf23757e5","ios":"levelo://app?vid=145bbb23-c52a-4a58-9ff2-a6ddf23757e5"},"vehicle_type_id":"4","last_reported":1749798651,"current_range_meters":14400,"station_id":"ce4bhlp2rcd13ifvqgjg","pricing_plan_id":"cebpf4jnsgd1na2vs0mg"},{"bike_id":"6b7135ce-cce1-474c-96d0-0b3d4b709e28","system_id":"levelo_inurba_marseille","lat":43.26222,"lon":5.40448,"is_reserved":false,"is_disabled":false,"rental_uris":{"android":"levelo://app?vid=6b7135ce-cce1-474c-96d0-0b3d4b709e28","ios":"levelo://app?vid=6b7135ce-cce1-474c-96d0-0b3d4b709e28"},"vehicle_type_id":"4","last_reported":1749798651,"current_range_meters":14400,"station_id":"ce4bhmh2rcd13ifvqgmg","pricing_plan_id":"cebpf4jnsgd1na2vs0mg"},{"bike_id":"6facbc0d-f1b5-4dc3-86d4-5c1204834925","system_id":"levelo_inurba_marseille","lat":43.28051,"lon":5.3479,"is_reserved":false,"is_disabled":false,"rental_uris":{"android":"levelo://app?vid=6facbc0d-f1b5-4dc3-86d4-5c1204834925","ios":"levelo://app?vid=6facbc0d-f1b5-4dc3-86d4-5c1204834925"},"vehicle_type_id":"4","last_reported":1749798651,"current_range_meters":14800,"station_id":"","pricing_plan_id":"cebpf4jnsgd1na2vs0mg"},{"bike_id":"4befabab-b2ad-40ca-8a59-2e8290dfa17a","system_id":"levelo_inurba_marseille","lat":43.30141,"lon":5.37418,"is_reserved":false,"is_disabled":false,"rental_uris":{"android":"levelo://app?vid=4befabab-b2ad-40ca-8a59-2e8290dfa17a","ios":"levelo://app?vid=4befabab-b2ad-40ca-8a59-2e8290dfa17a"},"vehicle_type_id":"4","last_reported":1749798651,"current_range_meters":14800,"station_id":"ce4bgs92rcd13ifvqcc0","pricing_plan_id":"cebpf4jnsgd1na2vs0mg"},{"bike_id":"b9744627-1737-453c-b7ed-c1681c0ddfbb","system_id":"levelo_inurba_marseille","lat":43.27495,"lon":5.42443,"is_reserved":false,"is_disabled":false,"rental_uris":{"android":"levelo://app?vid=b9744627-1737-453c-b7ed-c1681c0ddfbb","ios":"levelo://app?vid=b9744627-1737-453c-b7ed-c1681c0ddfbb"},"vehicle_type_id":"4","last_reported":1749798651,"current_range_meters":14800,"station_id":"ce4bhn92rcd13ifvqgrg","pricing_plan_id":"cebpf4jnsgd1na2vs0mg"},{"bike_id":"326cc913-bdbc-48c2-9a88-414846f09512","system_id":"levelo_inurba_marseille","lat":43.32385,"lon":5.36767,"is_reserved":false,"is_disabled":false,"rental_uris":{"android":"levelo://app?vid=326cc913-bdbc-48c2-9a88-414846f09512","ios":"levelo://app?vid=326cc913-bdbc-48c2-9a88-414846f09512"},"vehicle_type_id":"4","last_reported":1749798651,"current_range_meters":15200,"station_id":"ce4bhsh2rcd13ifvqi2g","pricing_plan_id":"cebpf4jnsgd1na2vs0mg"},{"bike_id":"075c05ec-b3c9-44c3-b57f-1083abf2ca61","system_id":"levelo_inurba_marseille","lat":43.27114,"lon":5.42628,"is_reserved":false,"is_disabled":false,"rental_uris":{"android":"levelo://app?vid=075c05ec-b3c9-44c3-b57f-1083abf2ca61","ios":"levelo://app?vid=075c05ec-b3c9-44c3-b57f-1083abf2ca61"},"vehicle_type_id":"4","last_reported":1749798651,"current_range_meters":16000,"station_id":"","pricing_plan_id":"cebpf4jnsgd1na2vs0mg"},{"bike_id":"c0bd4251-d527-48a7-9378-e4e80c1c274f","system_id":"levelo_inurba_marseille","lat":43.31821,"lon":5.37367,"is_reserved":false,"is_disabled":false,"rental_uris":{"android":"levelo://app?vid=c0bd4251-d527-48a7-9378-e4e80c1c274f","ios":"levelo://app?vid=c0bd4251-d527-48a7-9378-e4e80c1c274f"},"vehicle_type_id":"4","last_reported":1749798651,"current_range_meters":16000,"station_id":"","pricing_plan_id":"cebpf4jnsgd1na2vs0mg"},{"bike_id":"f8af74af-8f41-4136-9b82-bf7d4f87baeb","system_id":"levelo_inurba_marseille","lat":43.30154,"lon":5.38078,"is_reserved":false,"is_disabled":false,"rental_uris":{"android":"levelo://app?vid=f8af74af-8f41-4136-9b82-bf7d4f87baeb","ios":"levelo://app?vid=f8af74af-8f41-4136-9b82-bf7d4f87baeb"},"vehicle_type_id":"4","last_reported":1749798651,"current_range_meters":16000,"station_id":"ce4bgjp2rcd13ifvqbh0","pricing_plan_id":"cebpf4jnsgd1na2vs0mg"},{"bike_id":"5ea37827-fbd3-4e1d-b49d-18972d09672a","system_id":"levelo_inurba_marseille","lat":43.30901,"lon":5.36866,"is_reserved":false,"is_disabled":false,"rental_uris":{"android":"levelo://app?vid=5ea37827-fbd3-4e1d-b49d-18972d09672a","ios":"levelo://app?vid=5ea37827-fbd3-4e1d-b49d-18972d09672a"},"vehicle_type_id":"4","last_reported":1749798651,"current_range_meters":16000,"station_id":"ce4bgn92rcd13ifvqbvg","pricing_plan_id":"cebpf4jnsgd1na2vs0mg"},{"bike_id":"89511dfc-7d62-45cd-a94a-940e5444bd92","system_id":"levelo_inurba_marseille","lat":43.31344,"lon":5.36705,"is_reserved":false,"is_disabled":false,"rental_uris":{"android":"levelo://app?vid=89511dfc-7d62-45cd-a94a-940e5444bd92","ios":"levelo://app?vid=89511dfc-7d62-45cd-a94a-940e5444bd92"},"vehicle_type_id":"4","last_reported":1749798651,"current_range_meters":16000,"station_id":"ce4bgr92rcd13ifvqc6g","pricing_plan_id":"cebpf4jnsgd1na2vs0mg"},{"bike_id":"3073188d-082e-46e4-8436-3c3817f82cfc","system_id":"levelo_inurba_marseille","lat":43.306584,"lon":5.400956,"is_reserved":false,"is_disabled":false,"rental_uris":{"android":"levelo://app?vid=3073188d-082e-46e4-8436-3c3817f82cfc","ios":"levelo://app?vid=3073188d-082e-46e4-8436-3c3817f82cfc"},"vehicle_type_id":"4","last_reported":1749798651,"current_range_meters":16000,"station_id":"ce4bh112rcd13ifvqda0","pricing_plan_id":"cebpf4jnsgd1na2vs0mg"},{"bike_id":"84581356-95d1-4995-94ed-7f0c7018ef20","system_id":"levelo_inurba_marseille","lat":43.337444,"lon":5.374475,"is_reserved":false,"is_disabled":false,"rental_uris":{"android":"levelo://app?vid=84581356-95d1-4995-94ed-7f0c7018ef20","ios":"levelo://app?vid=84581356-95d1-4995-94ed-7f0c7018ef20"},"vehicle_type_id":"4","last_reported":1749798651,"current_range_meters":16000,"station_id":"ce4bh8p2rcd13ifvqeb0","pricing_plan_id":"cebpf4jnsgd1na2vs0mg"},{"bike_id":"2fec8dfd-3439-46d1-ae47-5755d8c4756d","system_id":"levelo_inurba_marseille","lat":43.26782,"lon":5.39428,"is_reserved":false,"is_disabled":false,"rental_uris":{"android":"levelo://app?vid=2fec8dfd-3439-46d1-ae47-5755d8c4756d","ios":"levelo://app?vid=2fec8dfd-3439-46d1-ae47-5755d8c4756d"},"vehicle_type_id":"4","last_reported":1749798651,"current_range_meters":16000,"station_id":"ce4bhh12rcd13ifvqfg0","pricing_plan_id":"cebpf4jnsgd1na2vs0mg"},{"bike_id":"c6c38e3c-8bc6-4973-96fe-75d10e8751f4","system_id":"levelo_inurba_marseille","lat":43.30385,"lon":5.425,"is_reserved":false,"is_disabled":false,"rental_uris":{"android":"levelo://app?vid=c6c38e3c-8bc6-4973-96fe-75d10e8751f4","ios":"levelo://app?vid=c6c38e3c-8bc6-4973-96fe-75d10e8751f4"},"vehicle_type_id":"4","last_reported":1749798651,"current_range_meters":16000,"station_id":"ce4bhoh2rcd13ifvqh6g","pricing_plan_id":"cebpf4jnsgd1na2vs0mg"},{"bike_id":"7835a476-bf82-41b7-87e3-950cf4d733b9","system_id":"levelo_inurba_marseille","lat":43.28088,"lon":5.35675,"is_reserved":false,"is_disabled":false,"rental_uris":{"android":"levelo://app?vid=7835a476-bf82-41b7-87e3-950cf4d733b9","ios":"levelo://app?vid=7835a476-bf82-41b7-87e3-950cf4d733b9"},"vehicle_type_id":"4","last_reported":1749798651,"current_range_meters":16400,"station_id":"","pricing_plan_id":"cebpf4jnsgd1na2vs0mg"},{"bike_id":"e4d880f2-94a5-49f0-803f-028fb257d4b8","system_id":"levelo_inurba_marseille","lat":43.29822,"lon":5.38109,"is_reserved":false,"is_disabled":false,"rental_uris":{"android":"levelo://app?vid=e4d880f2-94a5-49f0-803f-028fb257d4b8","ios":"levelo://app?vid=e4d880f2-94a5-49f0-803f-028fb257d4b8"},"vehicle_type_id":"4","last_reported":1749798651,"current_range_meters":16400,"station_id":"ce4bgip2rcd13ifvqbb0","pricing_plan_id":"cebpf4jnsgd1na2vs0mg"},{"bike_id":"afe7bdb2-7008-414f-9869-f42ce1a264bd","system_id":"levelo_inurba_marseille","lat":43.259195,"lon":5.408564,"is_reserved":false,"is_disabled":false,"rental_uris":{"android":"levelo://app?vid=afe7bdb2-7008-414f-9869-f42ce1a264bd","ios":"levelo://app?vid=afe7bdb2-7008-414f-9869-f42ce1a264bd"},"vehicle_type_id":"4","last_reported":1749798651,"current_range_meters":16400,"station_id":"ce4bhm92rcd13ifvqglg","pricing_plan_id":"cebpf4jnsgd1na2vs0mg"},{"bike_id":"0b2c2936-0e3a-41c8-925f-657d267402c3","system_id":"levelo_inurba_marseille","lat":43.2408,"lon":5.3775,"is_reserved":false,"is_disabled":false,"rental_uris":{"android":"levelo://app?vid=0b2c2936-0e3a-41c8-925f-657d267402c3","ios":"levelo://app?vid=0b2c2936-0e3a-41c8-925f-657d267402c3"},"vehicle_type_id":"4","last_reported":1749798651,"current_range_meters":16400,"station_id":"ce4bhnp2rcd13ifvqgvg","pricing_plan_id":"cebpf4jnsgd1na2vs0mg"},{"bike_id":"3b2851dc-cdc3-4c74-bb7a-6b50ea5674bc","system_id":"levelo_inurba_marseille","lat":43.31165,"lon":5.38012,"is_reserved":false,"is_disabled":false,"rental_uris":{"android":"levelo://app?vid=3b2851dc-cdc3-4c74-bb7a-6b50ea5674bc","ios":"levelo://app?vid=3b2851dc-cdc3-4c74-bb7a-6b50ea5674bc"},"vehicle_type_id":"4","last_reported":1749798651,"current_range_meters":16800,"station_id":"","pricing_plan_id":"cebpf4jnsgd1na2vs0mg"},{"bike_id":"fa097bec-ac91-4c72-8c98-ebbb2366f8c7","system_id":"levelo_inurba_marseille","lat":43.28887,"lon":5.39108,"is_reserved":false,"is_disabled":false,"rental_uris":{"android":"levelo://app?vid=fa097bec-ac91-4c72-8c98-ebbb2366f8c7","ios":"levelo://app?vid=fa097bec-ac91-4c72-8c98-ebbb2366f8c7"},"vehicle_type_id":"4","last_reported":1749798651,"current_range_meters":16800,"station_id":"","pricing_plan_id":"cebpf4jnsgd1na2vs0mg"},{"bike_id":"f4fcc72f-9aa5-4912-8688-3e149a031712","system_id":"levelo_inurba_marseille","lat":43.24999,"lon":5.38922,"is_reserved":false,"is_disabled":false,"rental_uris":{"android":"levelo://app?vid=f4fcc72f-9aa5-4912-8688-3e149a031712","ios":"levelo://app?vid=f4fcc72f-9aa5-4912-8688-3e149a031712"},"vehicle_type_id":"4","last_reported":1749798651,"current_range_meters":16800,"station_id":"ce4bhgp2rcd13ifvqfd0","pricing_plan_id":"cebpf4jnsgd1na2vs0mg"},{"bike_id":"ba0042d0-63d3-4ad7-809b-aef890f577cf","system_id":"levelo_inurba_marseille","lat":43.25886,"lon":5.40902,"is_reserved":false,"is_disabled":false,"rental_uris":{"android":"levelo://app?vid=ba0042d0-63d3-4ad7-809b-aef890f577cf","ios":"levelo://app?vid=ba0042d0-63d3-4ad7-809b-aef890f577cf"},"vehicle_type_id":"4","last_reported":1749798651,"current_range_meters":16800,"station_id":"ce4bhm92rcd13ifvqglg","pricing_plan_id":"cebpf4jnsgd1na2vs0mg"},{"bike_id":"bdc5a330-457d-4912-b76a-c30a160326aa","system_id":"levelo_inurba_marseille","lat":43.24174,"lon":5.39736,"is_reserved":false,"is_disabled":false,"rental_uris":{"android":"levelo://app?vid=bdc5a330-457d-4912-b76a-c30a160326aa","ios":"levelo://app?vid=bdc5a330-457d-4912-b76a-c30a160326aa"},"vehicle_type_id":"4","last_reported":1749798651,"current_range_meters":16800,"station_id":"ce4bhn12rcd13ifvqgpg","pricing_plan_id":"cebpf4jnsgd1na2vs0mg"},{"bike_id":"1151164c-a783-482a-885d-91ad970c509f","system_id":"levelo_inurba_marseille","lat":43.2751,"lon":5.42431,"is_reserved":false,"is_disabled":false,"rental_uris":{"android":"levelo://app?vid=1151164c-a783-482a-885d-91ad970c509f","ios":"levelo://app?vid=1151164c-a783-482a-885d-91ad970c509f"},"vehicle_type_id":"4","last_reported":1749798651,"current_range_meters":16800,"station_id":"ce4bhn92rcd13ifvqgrg","pricing_plan_id":"cebpf4jnsgd1na2vs0mg"},{"bike_id":"2d9eb491-ef60-4c87-8fa5-c0a977f848da","system_id":"levelo_inurba_marseille","lat":43.211918,"lon":5.350754,"is_reserved":false,"is_disabled":false,"rental_uris":{"android":"levelo://app?vid=2d9eb491-ef60-4c87-8fa5-c0a977f848da","ios":"levelo://app?vid=2d9eb491-ef60-4c87-8fa5-c0a977f848da"},"vehicle_type_id":"4","last_reported":1749798651,"current_range_meters":16800,"station_id":"st_cvj6sg6p6f1abm77japg","pricing_plan_id":"cebpf4jnsgd1na2vs0mg"},{"bike_id":"fd6b5e11-40a0-48ad-b103-670eaf142a0c","system_id":"levelo_inurba_marseille","lat":43.3095,"lon":5.39036,"is_reserved":false,"is_disabled":false,"rental_uris":{"android":"levelo://app?vid=fd6b5e11-40a0-48ad-b103-670eaf142a0c","ios":"levelo://app?vid=fd6b5e11-40a0-48ad-b103-670eaf142a0c"},"vehicle_type_id":"4","last_reported":1749798651,"current_range_meters":17200,"station_id":"ce4bgup2rcd13ifvqco0","pricing_plan_id":"cebpf4jnsgd1na2vs0mg"},{"bike_id":"799f38eb-6af1-43c6-ab6e-41230c87ee8b","system_id":"levelo_inurba_marseille","lat":43.29046,"lon":5.39967,"is_reserved":false,"is_disabled":false,"rental_uris":{"android":"levelo://app?vid=799f38eb-6af1-43c6-ab6e-41230c87ee8b","ios":"levelo://app?vid=799f38eb-6af1-43c6-ab6e-41230c87ee8b"},"vehicle_type_id":"4","last_reported":1749798651,"current_range_meters":17200,"station_id":"ce4bh392rcd13ifvqdm0","pricing_plan_id":"cebpf4jnsgd1na2vs0mg"},{"bike_id":"c58714d6-34da-4fb7-9435-5a44c6a6c5db","system_id":"levelo_inurba_marseille","lat":43.282612,"lon":5.35065,"is_reserved":false,"is_disabled":false,"rental_uris":{"android":"levelo://app?vid=c58714d6-34da-4fb7-9435-5a44c6a6c5db","ios":"levelo://app?vid=c58714d6-34da-4fb7-9435-5a44c6a6c5db"},"vehicle_type_id":"4","last_reported":1749798651,"current_range_meters":17200,"station_id":"ce4bhbp2rcd13ifvqerg","pricing_plan_id":"cebpf4jnsgd1na2vs0mg"},{"bike_id":"b22f88d3-92b3-4abe-995c-f46e5ad0f13c","system_id":"levelo_inurba_marseille","lat":43.25714,"lon":5.41122,"is_reserved":false,"is_disabled":false,"rental_uris":{"android":"levelo://app?vid=b22f88d3-92b3-4abe-995c-f46e5ad0f13c","ios":"levelo://app?vid=b22f88d3-92b3-4abe-995c-f46e5ad0f13c"},"vehicle_type_id":"4","last_reported":1749798651,"current_range_meters":17200,"station_id":"ce4bhkp2rcd13ifvqgd0","pricing_plan_id":"cebpf4jnsgd1na2vs0mg"},{"bike_id":"a6faf63a-d7fa-4f1a-bece-6fcd31a2d496","system_id":"levelo_inurba_marseille","lat":43.240624,"lon":5.377796,"is_reserved":false,"is_disabled":false,"rental_uris":{"android":"levelo://app?vid=a6faf63a-d7fa-4f1a-bece-6fcd31a2d496","ios":"levelo://app?vid=a6faf63a-d7fa-4f1a-bece-6fcd31a2d496"},"vehicle_type_id":"4","last_reported":1749798651,"current_range_meters":17200,"station_id":"ce4bhnp2rcd13ifvqgvg","pricing_plan_id":"cebpf4jnsgd1na2vs0mg"},{"bike_id":"370797df-7a54-4279-83d7-5eca14579627","system_id":"levelo_inurba_marseille","lat":43.30376,"lon":5.42491,"is_reserved":false,"is_disabled":false,"rental_uris":{"android":"levelo://app?vid=370797df-7a54-4279-83d7-5eca14579627","ios":"levelo://app?vid=370797df-7a54-4279-83d7-5eca14579627"},"vehicle_type_id":"4","last_reported":1749798651,"current_range_meters":17200,"station_id":"ce4bhoh2rcd13ifvqh6g","pricing_plan_id":"cebpf4jnsgd1na2vs0mg"},{"bike_id":"a3d8ed61-ad96-4794-9377-3745ebafc863","system_id":"levelo_inurba_marseille","lat":43.291012,"lon":5.380905,"is_reserved":false,"is_disabled":false,"rental_uris":{"android":"levelo://app?vid=a3d8ed61-ad96-4794-9377-3745ebafc863","ios":"levelo://app?vid=a3d8ed61-ad96-4794-9377-3745ebafc863"},"vehicle_type_id":"4","last_reported":1749798651,"current_range_meters":17600,"station_id":"ce4bh512rcd13ifvqe2g","pricing_plan_id":"cebpf4jnsgd1na2vs0mg"},{"bike_id":"21ea434b-7650-43d1-9121-9aaac977d92f","system_id":"levelo_inurba_marseille","lat":43.26556,"lon":5.37279,"is_reserved":false,"is_disabled":false,"rental_uris":{"android":"levelo://app?vid=21ea434b-7650-43d1-9121-9aaac977d92f","ios":"levelo://app?vid=21ea434b-7650-43d1-9121-9aaac977d92f"},"vehicle_type_id":"4","last_reported":1749798651,"current_range_meters":17600,"station_id":"ce4bhg12rcd13ifvqf70","pricing_plan_id":"cebpf4jnsgd1na2vs0mg"},{"bike_id":"c440f76c-e8a2-4bd4-9bce-4f53b1e2e5ee","system_id":"levelo_inurba_marseille","lat":43.26494,"lon":5.39533,"is_reserved":false,"is_disabled":false,"rental_uris":{"android":"levelo://app?vid=c440f76c-e8a2-4bd4-9bce-4f53b1e2e5ee","ios":"levelo://app?vid=c440f76c-e8a2-4bd4-9bce-4f53b1e2e5ee"},"vehicle_type_id":"4","last_reported":1749798651,"current_range_meters":17600,"station_id":"ce4bhi12rcd13ifvqfq0","pricing_plan_id":"cebpf4jnsgd1na2vs0mg"},{"bike_id":"8f831077-cb20-4c40-8a3b-06c2e84e8201","system_id":"levelo_inurba_marseille","lat":43.295513,"lon":5.422896,"is_reserved":false,"is_disabled":false,"rental_uris":{"android":"levelo://app?vid=8f831077-cb20-4c40-8a3b-06c2e84e8201","ios":"levelo://app?vid=8f831077-cb20-4c40-8a3b-06c2e84e8201"},"vehicle_type_id":"4","last_reported":1749798651,"current_range_meters":17600,"station_id":"ce4bhph2rcd13ifvqhdg","pricing_plan_id":"cebpf4jnsgd1na2vs0mg"},{"bike_id":"f3ec16b2-8afd-4ecb-8d58-15a6a90ff603","system_id":"levelo_inurba_marseille","lat":43.323567,"lon":5.367523,"is_reserved":false,"is_disabled":false,"rental_uris":{"android":"levelo://app?vid=f3ec16b2-8afd-4ecb-8d58-15a6a90ff603","ios":"levelo://app?vid=f3ec16b2-8afd-4ecb-8d58-15a6a90ff603"},"vehicle_type_id":"4","last_reported":1749798651,"current_range_meters":17600,"station_id":"ce4bhsh2rcd13ifvqi2g","pricing_plan_id":"cebpf4jnsgd1na2vs0mg"},{"bike_id":"a172b0cf-62c4-4c52-a818-ce564350df02","system_id":"levelo_inurba_marseille","lat":43.21207,"lon":5.3506,"is_reserved":false,"is_disabled":false,"rental_uris":{"android":"levelo://app?vid=a172b0cf-62c4-4c52-a818-ce564350df02","ios":"levelo://app?vid=a172b0cf-62c4-4c52-a818-ce564350df02"},"vehicle_type_id":"4","last_reported":1749798651,"current_range_meters":17600,"station_id":"st_cvj6sg6p6f1abm77japg","pricing_plan_id":"cebpf4jnsgd1na2vs0mg"},{"bike_id":"2ab31527-f915-4286-b3a0-0beafd2cdd50","system_id":"levelo_inurba_marseille","lat":43.29983,"lon":5.36988,"is_reserved":false,"is_disabled":false,"rental_uris":{"android":"levelo://app?vid=2ab31527-f915-4286-b3a0-0beafd2cdd50","ios":"levelo://app?vid=2ab31527-f915-4286-b3a0-0beafd2cdd50"},"vehicle_type_id":"4","last_reported":1749798651,"current_range_meters":18000,"station_id":"","pricing_plan_id":"cebpf4jnsgd1na2vs0mg"},{"bike_id":"cac0bf79-57e7-4ccd-9038-2121ab4d2c18","system_id":"levelo_inurba_marseille","lat":43.29301,"lon":5.37447,"is_reserved":false,"is_disabled":false,"rental_uris":{"android":"levelo://app?vid=cac0bf79-57e7-4ccd-9038-2121ab4d2c18","ios":"levelo://app?vid=cac0bf79-57e7-4ccd-9038-2121ab4d2c18"},"vehicle_type_id":"4","last_reported":1749798651,"current_range_meters":18000,"station_id":"ce4bgi12rcd13ifvqb70","pricing_plan_id":"cebpf4jnsgd1na2vs0mg"},{"bike_id":"df60d3c8-3dab-4f09-89b3-85a6660ead58","system_id":"levelo_inurba_marseille","lat":43.30945,"lon":5.39026,"is_reserved":false,"is_disabled":false,"rental_uris":{"android":"levelo://app?vid=df60d3c8-3dab-4f09-89b3-85a6660ead58","ios":"levelo://app?vid=df60d3c8-3dab-4f09-89b3-85a6660ead58"},"vehicle_type_id":"4","last_reported":1749798651,"current_range_meters":18000,"station_id":"ce4bgup2rcd13ifvqco0","pricing_plan_id":"cebpf4jnsgd1na2vs0mg"},{"bike_id":"378b1ac1-2dc3-4274-b432-78da9da04e21","system_id":"levelo_inurba_marseille","lat":43.27978,"lon":5.38745,"is_reserved":false,"is_disabled":false,"rental_uris":{"android":"levelo://app?vid=378b1ac1-2dc3-4274-b432-78da9da04e21","ios":"levelo://app?vid=378b1ac1-2dc3-4274-b432-78da9da04e21"},"vehicle_type_id":"4","last_reported":1749798651,"current_range_meters":18000,"station_id":"ce4bhg12rcd13ifvqf80","pricing_plan_id":"cebpf4jnsgd1na2vs0mg"},{"bike_id":"2a580a26-d80d-449e-806f-9387192f9cb0","system_id":"levelo_inurba_marseille","lat":43.274908,"lon":5.424581,"is_reserved":false,"is_disabled":false,"rental_uris":{"android":"levelo://app?vid=2a580a26-d80d-449e-806f-9387192f9cb0","ios":"levelo://app?vid=2a580a26-d80d-449e-806f-9387192f9cb0"},"vehicle_type_id":"4","last_reported":1749798651,"current_range_meters":18000,"station_id":"ce4bhn92rcd13ifvqgrg","pricing_plan_id":"cebpf4jnsgd1na2vs0mg"},{"bike_id":"fc0df0ee-8e51-44e3-8c2c-d86989e554e5","system_id":"levelo_inurba_marseille","lat":43.31359,"lon":5.3669,"is_reserved":false,"is_disabled":false,"rental_uris":{"android":"levelo://app?vid=fc0df0ee-8e51-44e3-8c2c-d86989e554e5","ios":"levelo://app?vid=fc0df0ee-8e51-44e3-8c2c-d86989e554e5"},"vehicle_type_id":"4","last_reported":1749798651,"current_range_meters":18800,"station_id":"ce4bgr92rcd13ifvqc6g","pricing_plan_id":"cebpf4jnsgd1na2vs0mg"},{"bike_id":"9efc39d0-778e-4a60-982f-5199b444ef48","system_id":"levelo_inurba_marseille","lat":43.2894,"lon":5.39631,"is_reserved":false,"is_disabled":false,"rental_uris":{"android":"levelo://app?vid=9efc39d0-778e-4a60-982f-5199b444ef48","ios":"levelo://app?vid=9efc39d0-778e-4a60-982f-5199b444ef48"},"vehicle_type_id":"4","last_reported":1749798651,"current_range_meters":18800,"station_id":"ce4bh3h2rcd13ifvqdn0","pricing_plan_id":"cebpf4jnsgd1na2vs0mg"},{"bike_id":"f1c160cf-2487-4cad-80b6-5d7679e0d40e","system_id":"levelo_inurba_marseille","lat":43.25939,"lon":5.40901,"is_reserved":false,"is_disabled":false,"rental_uris":{"android":"levelo://app?vid=f1c160cf-2487-4cad-80b6-5d7679e0d40e","ios":"levelo://app?vid=f1c160cf-2487-4cad-80b6-5d7679e0d40e"},"vehicle_type_id":"4","last_reported":1749798651,"current_range_meters":18800,"station_id":"ce4bhm92rcd13ifvqglg","pricing_plan_id":"cebpf4jnsgd1na2vs0mg"},{"bike_id":"b35d1f8f-1c2e-4129-81c1-4e7af758d967","system_id":"levelo_inurba_marseille","lat":43.2418,"lon":5.39729,"is_reserved":false,"is_disabled":false,"rental_uris":{"android":"levelo://app?vid=b35d1f8f-1c2e-4129-81c1-4e7af758d967","ios":"levelo://app?vid=b35d1f8f-1c2e-4129-81c1-4e7af758d967"},"vehicle_type_id":"4","last_reported":1749798651,"current_range_meters":18800,"station_id":"ce4bhn12rcd13ifvqgpg","pricing_plan_id":"cebpf4jnsgd1na2vs0mg"},{"bike_id":"bbd760fa-d352-4297-a396-2b6a00e1baa5","system_id":"levelo_inurba_marseille","lat":43.24073,"lon":5.37755,"is_reserved":false,"is_disabled":false,"rental_uris":{"android":"levelo://app?vid=bbd760fa-d352-4297-a396-2b6a00e1baa5","ios":"levelo://app?vid=bbd760fa-d352-4297-a396-2b6a00e1baa5"},"vehicle_type_id":"4","last_reported":1749798651,"current_range_meters":18800,"station_id":"ce4bhnp2rcd13ifvqgvg","pricing_plan_id":"cebpf4jnsgd1na2vs0mg"},{"bike_id":"e1e7bdb4-e820-4ffb-b6a7-06084909fb4b","system_id":"levelo_inurba_marseille","lat":43.34139,"lon":5.40897,"is_reserved":false,"is_disabled":false,"rental_uris":{"android":"levelo://app?vid=e1e7bdb4-e820-4ffb-b6a7-06084909fb4b","ios":"levelo://app?vid=e1e7bdb4-e820-4ffb-b6a7-06084909fb4b"},"vehicle_type_id":"4","last_reported":1749798651,"current_range_meters":18800,"station_id":"ce4bhqh2rcd13ifvqhlg","pricing_plan_id":"cebpf4jnsgd1na2vs0mg"},{"bike_id":"033f15e1-5ed0-4098-a7ec-2a49aba179ae","system_id":"levelo_inurba_marseille","lat":43.285105,"lon":5.353524,"is_reserved":false,"is_disabled":false,"rental_uris":{"android":"levelo://app?vid=033f15e1-5ed0-4098-a7ec-2a49aba179ae","ios":"levelo://app?vid=033f15e1-5ed0-4098-a7ec-2a49aba179ae"},"vehicle_type_id":"4","last_reported":1749798651,"current_range_meters":19200,"station_id":"","pricing_plan_id":"cebpf4jnsgd1na2vs0mg"},{"bike_id":"8314b3f1-a2f3-4b81-b6c9-56e270114080","system_id":"levelo_inurba_marseille","lat":43.312245,"lon":5.368589,"is_reserved":false,"is_disabled":false,"rental_uris":{"android":"levelo://app?vid=8314b3f1-a2f3-4b81-b6c9-56e270114080","ios":"levelo://app?vid=8314b3f1-a2f3-4b81-b6c9-56e270114080"},"vehicle_type_id":"4","last_reported":1749798651,"current_range_meters":19200,"station_id":"ce4bgl92rcd13ifvqbq0","pricing_plan_id":"cebpf4jnsgd1na2vs0mg"},{"bike_id":"a9a3c763-64c4-4a09-8204-c7a1d150f8ca","system_id":"levelo_inurba_marseille","lat":43.30548,"lon":5.36685,"is_reserved":false,"is_disabled":false,"rental_uris":{"android":"levelo://app?vid=a9a3c763-64c4-4a09-8204-c7a1d150f8ca","ios":"levelo://app?vid=a9a3c763-64c4-4a09-8204-c7a1d150f8ca"},"vehicle_type_id":"4","last_reported":1749798651,"current_range_meters":19200,"station_id":"ce4bgrp2rcd13ifvqc9g","pricing_plan_id":"cebpf4jnsgd1na2vs0mg"},{"bike_id":"a1372259-d154-487a-b87a-3afcd26d1bdc","system_id":"levelo_inurba_marseille","lat":43.31109,"lon":5.3777,"is_reserved":false,"is_disabled":false,"rental_uris":{"android":"levelo://app?vid=a1372259-d154-487a-b87a-3afcd26d1bdc","ios":"levelo://app?vid=a1372259-d154-487a-b87a-3afcd26d1bdc"},"vehicle_type_id":"4","last_reported":1749798651,"current_range_meters":19200,"station_id":"ce4bgt92rcd13ifvqcg0","pricing_plan_id":"cebpf4jnsgd1na2vs0mg"},{"bike_id":"0ec9defd-0e2a-4009-8545-dad67a44be7c","system_id":"levelo_inurba_marseille","lat":43.30461,"lon":5.37905,"is_reserved":false,"is_disabled":false,"rental_uris":{"android":"levelo://app?vid=0ec9defd-0e2a-4009-8545-dad67a44be7c","ios":"levelo://app?vid=0ec9defd-0e2a-4009-8545-dad67a44be7c"},"vehicle_type_id":"4","last_reported":1749798651,"current_range_meters":19200,"station_id":"ce4bgup2rcd13ifvqcn0","pricing_plan_id":"cebpf4jnsgd1na2vs0mg"},{"bike_id":"ed4d4d61-a8c0-43f7-ba65-bc830f94dbe9","system_id":"levelo_inurba_marseille","lat":43.24068,"lon":5.37749,"is_reserved":false,"is_disabled":false,"rental_uris":{"android":"levelo://app?vid=ed4d4d61-a8c0-43f7-ba65-bc830f94dbe9","ios":"levelo://app?vid=ed4d4d61-a8c0-43f7-ba65-bc830f94dbe9"},"vehicle_type_id":"4","last_reported":1749798651,"current_range_meters":19200,"station_id":"ce4bhnp2rcd13ifvqgvg","pricing_plan_id":"cebpf4jnsgd1na2vs0mg"},{"bike_id":"fb73b060-099f-47c8-ae78-248486eafa7e","system_id":"levelo_inurba_marseille","lat":43.32039,"lon":5.41554,"is_reserved":false,"is_disabled":false,"rental_uris":{"android":"levelo://app?vid=fb73b060-099f-47c8-ae78-248486eafa7e","ios":"levelo://app?vid=fb73b060-099f-47c8-ae78-248486eafa7e"},"vehicle_type_id":"4","last_reported":1749798651,"current_range_meters":19200,"station_id":"ce4bhq92rcd13ifvqhkg","pricing_plan_id":"cebpf4jnsgd1na2vs0mg"},{"bike_id":"1bb47bc4-ac4c-4fbc-a363-58471cffd209","system_id":"levelo_inurba_marseille","lat":43.34147,"lon":5.40899,"is_reserved":false,"is_disabled":false,"rental_uris":{"android":"levelo://app?vid=1bb47bc4-ac4c-4fbc-a363-58471cffd209","ios":"levelo://app?vid=1bb47bc4-ac4c-4fbc-a363-58471cffd209"},"vehicle_type_id":"4","last_reported":1749798651,"current_range_meters":19200,"station_id":"ce4bhqh2rcd13ifvqhlg","pricing_plan_id":"cebpf4jnsgd1na2vs0mg"},{"bike_id":"c8446c6b-b0c7-4c52-bb72-de9ec52c8f43","system_id":"levelo_inurba_marseille","lat":43.287459,"lon":5.361857,"is_reserved":false,"is_disabled":false,"rental_uris":{"android":"levelo://app?vid=c8446c6b-b0c7-4c52-bb72-de9ec52c8f43","ios":"levelo://app?vid=c8446c6b-b0c7-4c52-bb72-de9ec52c8f43"},"vehicle_type_id":"4","last_reported":1749798651,"current_range_meters":19600,"station_id":"","pricing_plan_id":"cebpf4jnsgd1na2vs0mg"},{"bike_id":"5e0b15ef-199c-41c2-9216-ab8a10d76320","system_id":"levelo_inurba_marseille","lat":43.30882,"lon":5.3965,"is_reserved":false,"is_disabled":false,"rental_uris":{"android":"levelo://app?vid=5e0b15ef-199c-41c2-9216-ab8a10d76320","ios":"levelo://app?vid=5e0b15ef-199c-41c2-9216-ab8a10d76320"},"vehicle_type_id":"4","last_reported":1749798651,"current_range_meters":19600,"station_id":"ce4bh012rcd13ifvqcv0","pricing_plan_id":"cebpf4jnsgd1na2vs0mg"},{"bike_id":"2fbe8c15-79da-4f15-8b47-b73267124d85","system_id":"levelo_inurba_marseille","lat":43.270757,"lon":5.42277,"is_reserved":false,"is_disabled":false,"rental_uris":{"android":"levelo://app?vid=2fbe8c15-79da-4f15-8b47-b73267124d85","ios":"levelo://app?vid=2fbe8c15-79da-4f15-8b47-b73267124d85"},"vehicle_type_id":"4","last_reported":1749798651,"current_range_meters":19600,"station_id":"ce4bhk92rcd13ifvqgb0","pricing_plan_id":"cebpf4jnsgd1na2vs0mg"},{"bike_id":"c3c5e2ae-f869-49fd-9524-cf505693e6b5","system_id":"levelo_inurba_marseille","lat":43.27497,"lon":5.42444,"is_reserved":false,"is_disabled":false,"rental_uris":{"android":"levelo://app?vid=c3c5e2ae-f869-49fd-9524-cf505693e6b5","ios":"levelo://app?vid=c3c5e2ae-f869-49fd-9524-cf505693e6b5"},"vehicle_type_id":"4","last_reported":1749798651,"current_range_meters":19600,"station_id":"ce4bhn92rcd13ifvqgrg","pricing_plan_id":"cebpf4jnsgd1na2vs0mg"},{"bike_id":"42ca11fa-7774-4479-a9c0-41d431473e6b","system_id":"levelo_inurba_marseille","lat":43.31881,"lon":5.40723,"is_reserved":false,"is_disabled":false,"rental_uris":{"android":"levelo://app?vid=42ca11fa-7774-4479-a9c0-41d431473e6b","ios":"levelo://app?vid=42ca11fa-7774-4479-a9c0-41d431473e6b"},"vehicle_type_id":"4","last_reported":1749798651,"current_range_meters":19600,"station_id":"ce4bhq12rcd13ifvqhig","pricing_plan_id":"cebpf4jnsgd1na2vs0mg"},{"bike_id":"d0e0617d-5016-40ba-b4c5-1a83d3add731","system_id":"levelo_inurba_marseille","lat":43.32364,"lon":5.36761,"is_reserved":false,"is_disabled":false,"rental_uris":{"android":"levelo://app?vid=d0e0617d-5016-40ba-b4c5-1a83d3add731","ios":"levelo://app?vid=d0e0617d-5016-40ba-b4c5-1a83d3add731"},"vehicle_type_id":"4","last_reported":1749798651,"current_range_meters":19600,"station_id":"ce4bhsh2rcd13ifvqi2g","pricing_plan_id":"cebpf4jnsgd1na2vs0mg"},{"bike_id":"ccb9975b-34a8-47da-b755-e17344ae18d3","system_id":"levelo_inurba_marseille","lat":43.23181,"lon":5.35565,"is_reserved":false,"is_disabled":false,"rental_uris":{"android":"levelo://app?vid=ccb9975b-34a8-47da-b755-e17344ae18d3","ios":"levelo://app?vid=ccb9975b-34a8-47da-b755-e17344ae18d3"},"vehicle_type_id":"4","last_reported":1749798651,"current_range_meters":19600,"station_id":"ce4bhu92rcd13ifvqi70","pricing_plan_id":"cebpf4jnsgd1na2vs0mg"},{"bike_id":"dd465b6f-c5e8-43db-9c13-41f811d86d80","system_id":"levelo_inurba_marseille","lat":43.29031,"lon":5.39964,"is_reserved":false,"is_disabled":false,"rental_uris":{"android":"levelo://app?vid=dd465b6f-c5e8-43db-9c13-41f811d86d80","ios":"levelo://app?vid=dd465b6f-c5e8-43db-9c13-41f811d86d80"},"vehicle_type_id":"4","last_reported":1749798651,"current_range_meters":20000,"station_id":"ce4bh392rcd13ifvqdm0","pricing_plan_id":"cebpf4jnsgd1na2vs0mg"},{"bike_id":"8892d8eb-00c3-4b9e-be61-e2f9dfcd2e60","system_id":"levelo_inurba_marseille","lat":43.25496,"lon":5.37647,"is_reserved":false,"is_disabled":false,"rental_uris":{"android":"levelo://app?vid=8892d8eb-00c3-4b9e-be61-e2f9dfcd2e60","ios":"levelo://app?vid=8892d8eb-00c3-4b9e-be61-e2f9dfcd2e60"},"vehicle_type_id":"4","last_reported":1749798651,"current_range_meters":20000,"station_id":"ce4bhh12rcd13ifvqff0","pricing_plan_id":"cebpf4jnsgd1na2vs0mg"},{"bike_id":"61ec544e-374e-45c8-a04e-96fc5192d082","system_id":"levelo_inurba_marseille","lat":43.25718,"lon":5.41113,"is_reserved":false,"is_disabled":false,"rental_uris":{"android":"levelo://app?vid=61ec544e-374e-45c8-a04e-96fc5192d082","ios":"levelo://app?vid=61ec544e-374e-45c8-a04e-96fc5192d082"},"vehicle_type_id":"4","last_reported":1749798651,"current_range_meters":20000,"station_id":"ce4bhkp2rcd13ifvqgd0","pricing_plan_id":"cebpf4jnsgd1na2vs0mg"},{"bike_id":"cb6fde58-267b-4acf-95e6-99425e18e595","system_id":"levelo_inurba_marseille","lat":43.25924,"lon":5.40911,"is_reserved":false,"is_disabled":false,"rental_uris":{"android":"levelo://app?vid=cb6fde58-267b-4acf-95e6-99425e18e595","ios":"levelo://app?vid=cb6fde58-267b-4acf-95e6-99425e18e595"},"vehicle_type_id":"4","last_reported":1749798651,"current_range_meters":20000,"station_id":"ce4bhm92rcd13ifvqglg","pricing_plan_id":"cebpf4jnsgd1na2vs0mg"},{"bike_id":"3f7ba403-0c40-4699-b73a-a91a135adabd","system_id":"levelo_inurba_marseille","lat":43.34135,"lon":5.40932,"is_reserved":false,"is_disabled":false,"rental_uris":{"android":"levelo://app?vid=3f7ba403-0c40-4699-b73a-a91a135adabd","ios":"levelo://app?vid=3f7ba403-0c40-4699-b73a-a91a135adabd"},"vehicle_type_id":"4","last_reported":1749798651,"current_range_meters":20000,"station_id":"ce4bhqh2rcd13ifvqhlg","pricing_plan_id":"cebpf4jnsgd1na2vs0mg"},{"bike_id":"5c04d2c3-d5dc-4e26-a137-ccc18cf00c2f","system_id":"levelo_inurba_marseille","lat":43.32475,"lon":5.36569,"is_reserved":false,"is_disabled":false,"rental_uris":{"android":"levelo://app?vid=5c04d2c3-d5dc-4e26-a137-ccc18cf00c2f","ios":"levelo://app?vid=5c04d2c3-d5dc-4e26-a137-ccc18cf00c2f"},"vehicle_type_id":"4","last_reported":1749798651,"current_range_meters":20000,"station_id":"ce4bhs12rcd13ifvqhvg","pricing_plan_id":"cebpf4jnsgd1na2vs0mg"},{"bike_id":"ab397cef-f29c-445d-ac29-b4089dce55fc","system_id":"levelo_inurba_marseille","lat":43.29947,"lon":5.38641,"is_reserved":false,"is_disabled":false,"rental_uris":{"android":"levelo://app?vid=ab397cef-f29c-445d-ac29-b4089dce55fc","ios":"levelo://app?vid=ab397cef-f29c-445d-ac29-b4089dce55fc"},"vehicle_type_id":"4","last_reported":1749798651,"current_range_meters":20400,"station_id":"","pricing_plan_id":"cebpf4jnsgd1na2vs0mg"},{"bike_id":"3c50d737-1c05-4bc7-b2f8-4d7f8d67d6de","system_id":"levelo_inurba_marseille","lat":43.24622,"lon":5.38898,"is_reserved":false,"is_disabled":false,"rental_uris":{"android":"levelo://app?vid=3c50d737-1c05-4bc7-b2f8-4d7f8d67d6de","ios":"levelo://app?vid=3c50d737-1c05-4bc7-b2f8-4d7f8d67d6de"},"vehicle_type_id":"4","last_reported":1749798651,"current_range_meters":20400,"station_id":"ce4bhg12rcd13ifvqf60","pricing_plan_id":"cebpf4jnsgd1na2vs0mg"},{"bike_id":"af7bffa4-a64a-4093-9034-f30d1010dc83","system_id":"levelo_inurba_marseille","lat":43.279744,"lon":5.387442,"is_reserved":false,"is_disabled":false,"rental_uris":{"android":"levelo://app?vid=af7bffa4-a64a-4093-9034-f30d1010dc83","ios":"levelo://app?vid=af7bffa4-a64a-4093-9034-f30d1010dc83"},"vehicle_type_id":"4","last_reported":1749798651,"current_range_meters":20400,"station_id":"ce4bhg12rcd13ifvqf80","pricing_plan_id":"cebpf4jnsgd1na2vs0mg"},{"bike_id":"4c56bb79-1f3f-4a01-acb9-b3567eadfc0e","system_id":"levelo_inurba_marseille","lat":43.24994,"lon":5.38933,"is_reserved":false,"is_disabled":false,"rental_uris":{"android":"levelo://app?vid=4c56bb79-1f3f-4a01-acb9-b3567eadfc0e","ios":"levelo://app?vid=4c56bb79-1f3f-4a01-acb9-b3567eadfc0e"},"vehicle_type_id":"4","last_reported":1749798651,"current_range_meters":20400,"station_id":"ce4bhgp2rcd13ifvqfd0","pricing_plan_id":"cebpf4jnsgd1na2vs0mg"},{"bike_id":"558cd456-1017-4899-a5e0-10f264e95a8c","system_id":"levelo_inurba_marseille","lat":43.32228,"lon":5.38106,"is_reserved":false,"is_disabled":false,"rental_uris":{"android":"levelo://app?vid=558cd456-1017-4899-a5e0-10f264e95a8c","ios":"levelo://app?vid=558cd456-1017-4899-a5e0-10f264e95a8c"},"vehicle_type_id":"4","last_reported":1749798651,"current_range_meters":20800,"station_id":"","pricing_plan_id":"cebpf4jnsgd1na2vs0mg"},{"bike_id":"c505c4d5-ce21-4974-b709-08f2d3440062","system_id":"levelo_inurba_marseille","lat":43.33749,"lon":5.37465,"is_reserved":false,"is_disabled":false,"rental_uris":{"android":"levelo://app?vid=c505c4d5-ce21-4974-b709-08f2d3440062","ios":"levelo://app?vid=c505c4d5-ce21-4974-b709-08f2d3440062"},"vehicle_type_id":"4","last_reported":1749798651,"current_range_meters":20800,"station_id":"","pricing_plan_id":"cebpf4jnsgd1na2vs0mg"},{"bike_id":"a6bd8c46-d7a0-4e49-a02a-be5d2a1e84d6","system_id":"levelo_inurba_marseille","lat":43.29301,"lon":5.37453,"is_reserved":false,"is_disabled":false,"rental_uris":{"android":"levelo://app?vid=a6bd8c46-d7a0-4e49-a02a-be5d2a1e84d6","ios":"levelo://app?vid=a6bd8c46-d7a0-4e49-a02a-be5d2a1e84d6"},"vehicle_type_id":"4","last_reported":1749798651,"current_range_meters":20800,"station_id":"ce4bgi12rcd13ifvqb70","pricing_plan_id":"cebpf4jnsgd1na2vs0mg"},{"bike_id":"1ed6f09e-dd60-4212-8df6-1c8c75503c94","system_id":"levelo_inurba_marseille","lat":43.31228,"lon":5.3687,"is_reserved":false,"is_disabled":false,"rental_uris":{"android":"levelo://app?vid=1ed6f09e-dd60-4212-8df6-1c8c75503c94","ios":"levelo://app?vid=1ed6f09e-dd60-4212-8df6-1c8c75503c94"},"vehicle_type_id":"4","last_reported":1749798651,"current_range_meters":20800,"station_id":"ce4bgl92rcd13ifvqbq0","pricing_plan_id":"cebpf4jnsgd1na2vs0mg"},{"bike_id":"e1b2088a-7f39-44c8-981b-62cf83aaff52","system_id":"levelo_inurba_marseille","lat":43.31345,"lon":5.36712,"is_reserved":false,"is_disabled":false,"rental_uris":{"android":"levelo://app?vid=e1b2088a-7f39-44c8-981b-62cf83aaff52","ios":"levelo://app?vid=e1b2088a-7f39-44c8-981b-62cf83aaff52"},"vehicle_type_id":"4","last_reported":1749798651,"current_range_meters":20800,"station_id":"ce4bgr92rcd13ifvqc6g","pricing_plan_id":"cebpf4jnsgd1na2vs0mg"},{"bike_id":"576531e6-a646-40fa-a66b-c2e9e1018c90","system_id":"levelo_inurba_marseille","lat":43.30993,"lon":5.389868,"is_reserved":false,"is_disabled":false,"rental_uris":{"android":"levelo://app?vid=576531e6-a646-40fa-a66b-c2e9e1018c90","ios":"levelo://app?vid=576531e6-a646-40fa-a66b-c2e9e1018c90"},"vehicle_type_id":"4","last_reported":1749798651,"current_range_meters":20800,"station_id":"ce4bgup2rcd13ifvqco0","pricing_plan_id":"cebpf4jnsgd1na2vs0mg"},{"bike_id":"0aee95d5-474d-444c-9d31-3f5785730b82","system_id":"levelo_inurba_marseille","lat":43.30946,"lon":5.39039,"is_reserved":false,"is_disabled":false,"rental_uris":{"android":"levelo://app?vid=0aee95d5-474d-444c-9d31-3f5785730b82","ios":"levelo://app?vid=0aee95d5-474d-444c-9d31-3f5785730b82"},"vehicle_type_id":"4","last_reported":1749798651,"current_range_meters":20800,"station_id":"ce4bgup2rcd13ifvqco0","pricing_plan_id":"cebpf4jnsgd1na2vs0mg"},{"bike_id":"70c14a17-5d4d-4858-af06-97c69f30d14b","system_id":"levelo_inurba_marseille","lat":43.3107,"lon":5.3836,"is_reserved":false,"is_disabled":false,"rental_uris":{"android":"levelo://app?vid=70c14a17-5d4d-4858-af06-97c69f30d14b","ios":"levelo://app?vid=70c14a17-5d4d-4858-af06-97c69f30d14b"},"vehicle_type_id":"4","last_reported":1749798651,"current_range_meters":20800,"station_id":"ce4bgv92rcd13ifvqcr0","pricing_plan_id":"cebpf4jnsgd1na2vs0mg"},{"bike_id":"817ac332-679d-4336-ac1d-41abedfb7bc6","system_id":"levelo_inurba_marseille","lat":43.25724,"lon":5.41105,"is_reserved":false,"is_disabled":false,"rental_uris":{"android":"levelo://app?vid=817ac332-679d-4336-ac1d-41abedfb7bc6","ios":"levelo://app?vid=817ac332-679d-4336-ac1d-41abedfb7bc6"},"vehicle_type_id":"4","last_reported":1749798651,"current_range_meters":20800,"station_id":"ce4bhkp2rcd13ifvqgd0","pricing_plan_id":"cebpf4jnsgd1na2vs0mg"},{"bike_id":"5cde8349-6ec3-4886-88b7-be6262c0cbd4","system_id":"levelo_inurba_marseille","lat":43.31347,"lon":5.36713,"is_reserved":false,"is_disabled":false,"rental_uris":{"android":"levelo://app?vid=5cde8349-6ec3-4886-88b7-be6262c0cbd4","ios":"levelo://app?vid=5cde8349-6ec3-4886-88b7-be6262c0cbd4"},"vehicle_type_id":"4","last_reported":1749798651,"current_range_meters":21600,"station_id":"ce4bgr92rcd13ifvqc6g","pricing_plan_id":"cebpf4jnsgd1na2vs0mg"},{"bike_id":"8e677c3e-cc67-459f-ab3b-6ab15246b62f","system_id":"levelo_inurba_marseille","lat":43.28928,"lon":5.39621,"is_reserved":false,"is_disabled":false,"rental_uris":{"android":"levelo://app?vid=8e677c3e-cc67-459f-ab3b-6ab15246b62f","ios":"levelo://app?vid=8e677c3e-cc67-459f-ab3b-6ab15246b62f"},"vehicle_type_id":"4","last_reported":1749798651,"current_range_meters":21600,"station_id":"ce4bh3h2rcd13ifvqdn0","pricing_plan_id":"cebpf4jnsgd1na2vs0mg"},{"bike_id":"7de09d50-88e3-4b1f-ae3e-c16cc2933e4e","system_id":"levelo_inurba_marseille","lat":43.25936,"lon":5.40904,"is_reserved":false,"is_disabled":false,"rental_uris":{"android":"levelo://app?vid=7de09d50-88e3-4b1f-ae3e-c16cc2933e4e","ios":"levelo://app?vid=7de09d50-88e3-4b1f-ae3e-c16cc2933e4e"},"vehicle_type_id":"4","last_reported":1749798651,"current_range_meters":21600,"station_id":"ce4bhm92rcd13ifvqglg","pricing_plan_id":"cebpf4jnsgd1na2vs0mg"},{"bike_id":"ae4a6b74-6f75-4ea4-89ab-161b49657272","system_id":"levelo_inurba_marseille","lat":43.2418,"lon":5.39726,"is_reserved":false,"is_disabled":false,"rental_uris":{"android":"levelo://app?vid=ae4a6b74-6f75-4ea4-89ab-161b49657272","ios":"levelo://app?vid=ae4a6b74-6f75-4ea4-89ab-161b49657272"},"vehicle_type_id":"4","last_reported":1749798651,"current_range_meters":21600,"station_id":"ce4bhn12rcd13ifvqgpg","pricing_plan_id":"cebpf4jnsgd1na2vs0mg"},{"bike_id":"064cc326-3958-4f3a-b58c-cea44cd579b9","system_id":"levelo_inurba_marseille","lat":43.30139,"lon":5.39924,"is_reserved":false,"is_disabled":false,"rental_uris":{"android":"levelo://app?vid=064cc326-3958-4f3a-b58c-cea44cd579b9","ios":"levelo://app?vid=064cc326-3958-4f3a-b58c-cea44cd579b9"},"vehicle_type_id":"4","last_reported":1749798651,"current_range_meters":22000,"station_id":"","pricing_plan_id":"cebpf4jnsgd1na2vs0mg"},{"bike_id":"c82f75f2-635c-40da-9f67-77d82cb74c97","system_id":"levelo_inurba_marseille","lat":43.21168,"lon":5.3509,"is_reserved":false,"is_disabled":false,"rental_uris":{"android":"levelo://app?vid=c82f75f2-635c-40da-9f67-77d82cb74c97","ios":"levelo://app?vid=c82f75f2-635c-40da-9f67-77d82cb74c97"},"vehicle_type_id":"4","last_reported":1749798651,"current_range_meters":22000,"station_id":"","pricing_plan_id":"cebpf4jnsgd1na2vs0mg"},{"bike_id":"679d881d-2dfe-4ec2-babb-8b09d0832382","system_id":"levelo_inurba_marseille","lat":43.3281,"lon":5.39167,"is_reserved":false,"is_disabled":false,"rental_uris":{"android":"levelo://app?vid=679d881d-2dfe-4ec2-babb-8b09d0832382","ios":"levelo://app?vid=679d881d-2dfe-4ec2-babb-8b09d0832382"},"vehicle_type_id":"4","last_reported":1749798651,"current_range_meters":22000,"station_id":"","pricing_plan_id":"cebpf4jnsgd1na2vs0mg"},{"bike_id":"3846a65f-4042-4767-b383-d304a0a6435b","system_id":"levelo_inurba_marseille","lat":43.30895,"lon":5.36843,"is_reserved":false,"is_disabled":false,"rental_uris":{"android":"levelo://app?vid=3846a65f-4042-4767-b383-d304a0a6435b","ios":"levelo://app?vid=3846a65f-4042-4767-b383-d304a0a6435b"},"vehicle_type_id":"4","last_reported":1749798651,"current_range_meters":22000,"station_id":"ce4bgn92rcd13ifvqbvg","pricing_plan_id":"cebpf4jnsgd1na2vs0mg"},{"bike_id":"b746a59e-82db-4f74-98f4-a9bcd1e86805","system_id":"levelo_inurba_marseille","lat":43.26949,"lon":5.38629,"is_reserved":false,"is_disabled":false,"rental_uris":{"android":"levelo://app?vid=b746a59e-82db-4f74-98f4-a9bcd1e86805","ios":"levelo://app?vid=b746a59e-82db-4f74-98f4-a9bcd1e86805"},"vehicle_type_id":"4","last_reported":1749798651,"current_range_meters":22000,"station_id":"ce4bhh92rcd13ifvqfh0","pricing_plan_id":"cebpf4jnsgd1na2vs0mg"},{"bike_id":"00167165-4fc7-4470-b198-ce35681182e3","system_id":"levelo_inurba_marseille","lat":43.30544,"lon":5.36706,"is_reserved":false,"is_disabled":false,"rental_uris":{"android":"levelo://app?vid=00167165-4fc7-4470-b198-ce35681182e3","ios":"levelo://app?vid=00167165-4fc7-4470-b198-ce35681182e3"},"vehicle_type_id":"4","last_reported":1749798651,"current_range_meters":22400,"station_id":"ce4bgrp2rcd13ifvqc9g","pricing_plan_id":"cebpf4jnsgd1na2vs0mg"},{"bike_id":"9657cbc6-92a6-46eb-8524-a1202c5063b8","system_id":"levelo_inurba_marseille","lat":43.28555,"lon":5.39487,"is_reserved":false,"is_disabled":false,"rental_uris":{"android":"levelo://app?vid=9657cbc6-92a6-46eb-8524-a1202c5063b8","ios":"levelo://app?vid=9657cbc6-92a6-46eb-8524-a1202c5063b8"},"vehicle_type_id":"4","last_reported":1749798651,"current_range_meters":22400,"station_id":"ce4bh292rcd13ifvqdg0","pricing_plan_id":"cebpf4jnsgd1na2vs0mg"},{"bike_id":"7cc59caf-e03b-471c-aaf9-c81fc322cfd2","system_id":"levelo_inurba_marseille","lat":43.254766,"lon":5.37644,"is_reserved":false,"is_disabled":false,"rental_uris":{"android":"levelo://app?vid=7cc59caf-e03b-471c-aaf9-c81fc322cfd2","ios":"levelo://app?vid=7cc59caf-e03b-471c-aaf9-c81fc322cfd2"},"vehicle_type_id":"4","last_reported":1749798651,"current_range_meters":22400,"station_id":"ce4bhh12rcd13ifvqff0","pricing_plan_id":"cebpf4jnsgd1na2vs0mg"},{"bike_id":"9d9958b9-cabb-4426-ab54-28b46016aeaa","system_id":"levelo_inurba_marseille","lat":43.25718,"lon":5.41108,"is_reserved":false,"is_disabled":false,"rental_uris":{"android":"levelo://app?vid=9d9958b9-cabb-4426-ab54-28b46016aeaa","ios":"levelo://app?vid=9d9958b9-cabb-4426-ab54-28b46016aeaa"},"vehicle_type_id":"4","last_reported":1749798651,"current_range_meters":22400,"station_id":"ce4bhkp2rcd13ifvqgd0","pricing_plan_id":"cebpf4jnsgd1na2vs0mg"},{"bike_id":"f2c9af96-1c1f-4ce9-b7e8-1282fcb6fec2","system_id":"levelo_inurba_marseille","lat":43.24348,"lon":5.41157,"is_reserved":false,"is_disabled":false,"rental_uris":{"android":"levelo://app?vid=f2c9af96-1c1f-4ce9-b7e8-1282fcb6fec2","ios":"levelo://app?vid=f2c9af96-1c1f-4ce9-b7e8-1282fcb6fec2"},"vehicle_type_id":"4","last_reported":1749798651,"current_range_meters":22800,"station_id":"","pricing_plan_id":"cebpf4jnsgd1na2vs0mg"},{"bike_id":"d81ebef1-def3-4b3b-8a2c-e915262efa10","system_id":"levelo_inurba_marseille","lat":43.32874,"lon":5.39158,"is_reserved":false,"is_disabled":false,"rental_uris":{"android":"levelo://app?vid=d81ebef1-def3-4b3b-8a2c-e915262efa10","ios":"levelo://app?vid=d81ebef1-def3-4b3b-8a2c-e915262efa10"},"vehicle_type_id":"4","last_reported":1749798651,"current_range_meters":22800,"station_id":"","pricing_plan_id":"cebpf4jnsgd1na2vs0mg"},{"bike_id":"1b6472b4-4a77-49e6-a940-ad9ba799651a","system_id":"levelo_inurba_marseille","lat":43.30149,"lon":5.38084,"is_reserved":false,"is_disabled":false,"rental_uris":{"android":"levelo://app?vid=1b6472b4-4a77-49e6-a940-ad9ba799651a","ios":"levelo://app?vid=1b6472b4-4a77-49e6-a940-ad9ba799651a"},"vehicle_type_id":"4","last_reported":1749798651,"current_range_meters":22800,"station_id":"ce4bgjp2rcd13ifvqbh0","pricing_plan_id":"cebpf4jnsgd1na2vs0mg"},{"bike_id":"f78fbd1b-0dbc-4632-b66b-307929312301","system_id":"levelo_inurba_marseille","lat":43.30906,"lon":5.36848,"is_reserved":false,"is_disabled":false,"rental_uris":{"android":"levelo://app?vid=f78fbd1b-0dbc-4632-b66b-307929312301","ios":"levelo://app?vid=f78fbd1b-0dbc-4632-b66b-307929312301"},"vehicle_type_id":"4","last_reported":1749798651,"current_range_meters":22800,"station_id":"ce4bgn92rcd13ifvqbvg","pricing_plan_id":"cebpf4jnsgd1na2vs0mg"},{"bike_id":"20f95c71-b040-48ef-8179-2a842e4db563","system_id":"levelo_inurba_marseille","lat":43.30539,"lon":5.36699,"is_reserved":false,"is_disabled":false,"rental_uris":{"android":"levelo://app?vid=20f95c71-b040-48ef-8179-2a842e4db563","ios":"levelo://app?vid=20f95c71-b040-48ef-8179-2a842e4db563"},"vehicle_type_id":"4","last_reported":1749798651,"current_range_meters":22800,"station_id":"ce4bgrp2rcd13ifvqc9g","pricing_plan_id":"cebpf4jnsgd1na2vs0mg"},{"bike_id":"67629646-603b-4123-8da2-4405d5b2de88","system_id":"levelo_inurba_marseille","lat":43.30944,"lon":5.39036,"is_reserved":false,"is_disabled":false,"rental_uris":{"android":"levelo://app?vid=67629646-603b-4123-8da2-4405d5b2de88","ios":"levelo://app?vid=67629646-603b-4123-8da2-4405d5b2de88"},"vehicle_type_id":"4","last_reported":1749798651,"current_range_meters":22800,"station_id":"ce4bgup2rcd13ifvqco0","pricing_plan_id":"cebpf4jnsgd1na2vs0mg"},{"bike_id":"66e2c539-55e7-4971-9677-5d1e18456e38","system_id":"levelo_inurba_marseille","lat":43.29872,"lon":5.39732,"is_reserved":false,"is_disabled":false,"rental_uris":{"android":"levelo://app?vid=66e2c539-55e7-4971-9677-5d1e18456e38","ios":"levelo://app?vid=66e2c539-55e7-4971-9677-5d1e18456e38"},"vehicle_type_id":"4","last_reported":1749798651,"current_range_meters":22800,"station_id":"ce4bh0h2rcd13ifvqd50","pricing_plan_id":"cebpf4jnsgd1na2vs0mg"},{"bike_id":"e7ebdfef-22b3-44eb-9e7c-7cd48d2b48a7","system_id":"levelo_inurba_marseille","lat":43.26782,"lon":5.39405,"is_reserved":false,"is_disabled":false,"rental_uris":{"android":"levelo://app?vid=e7ebdfef-22b3-44eb-9e7c-7cd48d2b48a7","ios":"levelo://app?vid=e7ebdfef-22b3-44eb-9e7c-7cd48d2b48a7"},"vehicle_type_id":"4","last_reported":1749798651,"current_range_meters":22800,"station_id":"ce4bhh12rcd13ifvqfg0","pricing_plan_id":"cebpf4jnsgd1na2vs0mg"},{"bike_id":"f9969638-0418-4e91-828e-e46b3fb6406e","system_id":"levelo_inurba_marseille","lat":43.24169,"lon":5.39733,"is_reserved":false,"is_disabled":false,"rental_uris":{"android":"levelo://app?vid=f9969638-0418-4e91-828e-e46b3fb6406e","ios":"levelo://app?vid=f9969638-0418-4e91-828e-e46b3fb6406e"},"vehicle_type_id":"4","last_reported":1749798651,"current_range_meters":22800,"station_id":"ce4bhn12rcd13ifvqgpg","pricing_plan_id":"cebpf4jnsgd1na2vs0mg"},{"bike_id":"2fc429b0-96ec-4879-8eb8-7f7e4eda84a7","system_id":"levelo_inurba_marseille","lat":43.24064,"lon":5.37761,"is_reserved":false,"is_disabled":false,"rental_uris":{"android":"levelo://app?vid=2fc429b0-96ec-4879-8eb8-7f7e4eda84a7","ios":"levelo://app?vid=2fc429b0-96ec-4879-8eb8-7f7e4eda84a7"},"vehicle_type_id":"4","last_reported":1749798651,"current_range_meters":22800,"station_id":"ce4bhnp2rcd13ifvqgvg","pricing_plan_id":"cebpf4jnsgd1na2vs0mg"},{"bike_id":"6dffafd5-1a4c-4101-bc3f-c64cd1754739","system_id":"levelo_inurba_marseille","lat":43.295546,"lon":5.422788,"is_reserved":false,"is_disabled":false,"rental_uris":{"android":"levelo://app?vid=6dffafd5-1a4c-4101-bc3f-c64cd1754739","ios":"levelo://app?vid=6dffafd5-1a4c-4101-bc3f-c64cd1754739"},"vehicle_type_id":"4","last_reported":1749798651,"current_range_meters":22800,"station_id":"ce4bhph2rcd13ifvqhdg","pricing_plan_id":"cebpf4jnsgd1na2vs0mg"},{"bike_id":"b7de2daa-196c-4111-9244-8dff16c1dcca","system_id":"levelo_inurba_marseille","lat":43.32063,"lon":5.36772,"is_reserved":false,"is_disabled":false,"rental_uris":{"android":"levelo://app?vid=b7de2daa-196c-4111-9244-8dff16c1dcca","ios":"levelo://app?vid=b7de2daa-196c-4111-9244-8dff16c1dcca"},"vehicle_type_id":"4","last_reported":1749798651,"current_range_meters":22800,"station_id":"ce4bhrh2rcd13ifvqhug","pricing_plan_id":"cebpf4jnsgd1na2vs0mg"},{"bike_id":"2e9d2a29-3a8b-4cc2-b9d5-138614a8517d","system_id":"levelo_inurba_marseille","lat":43.29222,"lon":5.40023,"is_reserved":false,"is_disabled":false,"rental_uris":{"android":"levelo://app?vid=2e9d2a29-3a8b-4cc2-b9d5-138614a8517d","ios":"levelo://app?vid=2e9d2a29-3a8b-4cc2-b9d5-138614a8517d"},"vehicle_type_id":"4","last_reported":1749798651,"current_range_meters":23200,"station_id":"","pricing_plan_id":"cebpf4jnsgd1na2vs0mg"},{"bike_id":"8095149a-75c8-4ae8-a473-b53f49c795f7","system_id":"levelo_inurba_marseille","lat":43.30144,"lon":5.38086,"is_reserved":false,"is_disabled":false,"rental_uris":{"android":"levelo://app?vid=8095149a-75c8-4ae8-a473-b53f49c795f7","ios":"levelo://app?vid=8095149a-75c8-4ae8-a473-b53f49c795f7"},