{"last_updated":1706990869,"ttl":30,"version":"2.2","data":{"bikes":[{"bike_id":"cce1a80a-ed28-4048-ac80-53b066423f28","system_id":"levelo_inurba_marseille","lat":43.30915,"lon":5.36853,"is_reserved":false,"is_disabled":false,"rental_uris":{"android":"levelo://app?vid=cce1a80a-ed28-4048-ac80-53b066423f28","ios":"levelo://app?vid=cce1a80a-ed28-4048-ac80-53b066423f28"},"vehicle_type_id":"4","last_reported":1706990869,"current_range_meters":0,"station_id":"ce4bgn92rcd13ifvqbvg","pricing_plan_id":"free"},{"bike_id":"7340e3be-86b2-404d-a38b-76f45fa758c1","system_id":"levelo_inurba_marseille","lat":43.314811,"lon":5.373103,"is_reserved":false,"is_disabled":false,"rental_uris":{"android":"levelo://app?vid=7340e3be-86b2-404d-a38b-76f45fa758c1","ios":"levelo://app?vid=7340e3be-86b2-404d-a38b-76f45fa758c1"},"vehicle_type_id":"4","last_reported":1706990869,"current_range_meters":4800,"station_id":"ce4bgt12rcd13ifvqcd0","pricing_plan_id":"free"},{"bike_id":"e51f6394-8f5e-40c7-9e8d-d7ccc4bcbdb3","system_id":"levelo_inurba_marseille","lat":43.314811,"lon":5.373103,"is_reserved":false,"is_disabled":false,"rental_uris":{"android":"levelo://app?vid=e51f6394-8f5e-40c7-9e8d-d7ccc4bcbdb3","ios":"levelo://app?vid=e51f6394-8f5e-40c7-9e8d-d7ccc4bcbdb3"},"vehicle_type_id":"4","last_reported":1706990869,"current_range_meters":10000,"station_id":"ce4bgt12rcd13ifvqcd0","pricing_plan_id":"free"},{"bike_id":"cbf95b32-e7d8-4a0c-82ec-4f29a8932d29","system_id":"levelo_inurba_marseille","lat":43.314811,"lon":5.373104,"is_reserved":false,"is_disabled":false,"rental_uris":{"android":"levelo://app?vid=cbf95b32-e7d8-4a0c-82ec-4f29a8932d29","ios":"levelo://app?vid=cbf95b32-e7d8-4a0c-82ec-4f29a8932d29"},"vehicle_type_id":"4","last_reported":1706990869,"current_range_meters":22000,"station_id":"ce4bgt12rcd13ifvqcd0","pricing_plan_id":"free"},{"bike_id":"dfc31605-ec99-41f2-9f9a-e8573a843219","system_id":"levelo_inurba_marseille","lat":43.309039,"lon":5.371797,"is_reserved":false,"is_disabled":false,"rental_uris":{"android":"levelo://app?vid=dfc31605-ec99-41f2-9f9a-e8573a843219","ios":"levelo://app?vid=dfc31605-ec99-41f2-9f9a-e8573a843219"},"vehicle_type_id":"4","last_reported":1706990869,"current_range_meters":20800,"station_id":"ce4bguh2rcd13ifvqckg","pricing_plan_id":"free"},{"bike_id":"b28e2a74-88c9-451e-9aa8-f98051e82d73","system_id":"levelo_inurba_marseille","lat":43.305706,"lon":5.365654,"is_reserved":false,"is_disabled":false,"rental_uris":{"android":"levelo://app?vid=b28e2a74-88c9-451e-9aa8-f98051e82d73","ios":"levelo://app?vid=b28e2a74-88c9-451e-9aa8-f98051e82d73"},"vehicle_type_id":"4","last_reported":1706990869,"current_range_meters":6800,"station_id":"ce4bgs12rcd13ifvqcag","pricing_plan_id":"free"},{"bike_id":"2dd49487-8a0d-41e1-b33e-35d223e30916","system_id":"levelo_inurba_marseille","lat":43.311125,"lon":5.377624,"is_reserved":false,"is_disabled":false,"rental_uris":{"android":"levelo://app?vid=2dd49487-8a0d-41e1-b33e-35d223e30916","ios":"levelo://app?vid=2dd49487-8a0d-41e1-b33e-35d223e30916"},"vehicle_type_id":"4","last_reported":1706990869,"current_range_meters":0,"station_id":"ce4bgt92rcd13ifvqcg0","pricing_plan_id":"free"},{"bike_id":"aab95363-182c-4648-a7d6-1c6fd7a6fdd7","system_id":"levelo_inurba_marseille","lat":43.311166,"lon":5.377666,"is_reserved":false,"is_disabled":false,"rental_uris":{"android":"levelo://app?vid=aab95363-182c-4648-a7d6-1c6fd7a6fdd7","ios":"levelo://app?vid=aab95363-182c-4648-a7d6-1c6fd7a6fdd7"},"vehicle_type_id":"4","last_reported":1706990869,"current_range_meters":24800,"station_id":"ce4bgt92rcd13ifvqcg0","pricing_plan_id":"free"},{"bike_id":"0a9158ea-66fd-4ada-97ed-e7695690ddef","system_id":"levelo_inurba_marseille","lat":43.311131,"lon":5.377651,"is_reserved":false,"is_disabled":false,"rental_uris":{"android":"levelo://app?vid=0a9158ea-66fd-4ada-97ed-e7695690ddef","ios":"levelo://app?vid=0a9158ea-66fd-4ada-97ed-e7695690ddef"},"vehicle_type_id":"4","last_reported":1706990869,"current_range_meters":3200,"station_id":"ce4bgt92rcd13ifvqcg0","pricing_plan_id":"free"},{"bike_id":"79d6f42a-b318-48aa-966b-3bad59cb11aa","system_id":"levelo_inurba_marseille","lat":43.311125,"lon":5.377624,"is_reserved":false,"is_disabled":false,"rental_uris":{"android":"levelo://app?vid=79d6f42a-b318-48aa-966b-3bad59cb11aa","ios":"levelo://app?vid=79d6f42a-b318-48aa-966b-3bad59cb11aa"},"vehicle_type_id":"4","last_reported":1706990869,"current_range_meters":0,"station_id":"ce4bgt92rcd13ifvqcg0","pricing_plan_id":"free"},{"bike_id":"9f8f8c4c-ba49-4e33-b8a5-887f32b8a5e2","system_id":"levelo_inurba_marseille","lat":43.311131,"lon":5.377651,"is_reserved":false,"is_disabled":false,"rental_uris":{"android":"levelo://app?vid=9f8f8c4c-ba49-4e33-b8a5-887f32b8a5e2","ios":"levelo://app?vid=9f8f8c4c-ba49-4e33-b8a5-887f32b8a5e2"},"vehicle_type_id":"4","last_reported":1706990869,"current_range_meters":0,"station_id":"ce4bgt92rcd13ifvqcg0","pricing_plan_id":"free"},{"bike_id":"8e2f942e-d2d5-4be4-b148-787bc3f0c9ae","system_id":"levelo_inurba_marseille","lat":43.311125,"lon":5.377624,"is_reserved":false,"is_disabled":false,"rental_uris":{"android":"levelo://app?vid=8e2f942e-d2d5-4be4-b148-787bc3f0c9ae","ios":"levelo://app?vid=8e2f942e-d2d5-4be4-b148-787bc3f0c9ae"},"vehicle_type_id":"4","last_reported":1706990869,"current_range_meters":2400,"station_id":"ce4bgt92rcd13ifvqcg0","pricing_plan_id":"free"},{"bike_id":"152dc322-7e9a-41d8-8d53-2369cb50cfeb","system_id":"levelo_inurba_marseille","lat":43.311125,"lon":5.377624,"is_reserved":false,"is_disabled":false,"rental_uris":{"android":"levelo://app?vid=152dc322-7e9a-41d8-8d53-2369cb50cfeb","ios":"levelo://app?vid=152dc322-7e9a-41d8-8d53-2369cb50cfeb"},"vehicle_type_id":"4","last_reported":1706990869,"current_range_meters":3200,"station_id":"ce4bgt92rcd13ifvqcg0","pricing_plan_id":"free"},{"bike_id":"7990937b-7025-4041-ae07-d0d631c4b855","system_id":"levelo_inurba_marseille","lat":43.317077,"lon":5.377453,"is_reserved":false,"is_disabled":false,"rental_uris":{"android":"levelo://app?vid=7990937b-7025-4041-ae07-d0d631c4b855","ios":"levelo://app?vid=7990937b-7025-4041-ae07-d0d631c4b855"},"vehicle_type_id":"4","last_reported":1706990869,"current_range_meters":0,"station_id":"ce4bgth2rcd13ifvqch0","pricing_plan_id":"free"},{"bike_id":"5350492e-9a31-4cc2-9dd3-24bb9c6e20c8","system_id":"levelo_inurba_marseille","lat":43.317083,"lon":5.377467,"is_reserved":false,"is_disabled":false,"rental_uris":{"android":"levelo://app?vid=5350492e-9a31-4cc2-9dd3-24bb9c6e20c8","ios":"levelo://app?vid=5350492e-9a31-4cc2-9dd3-24bb9c6e20c8"},"vehicle_type_id":"4","last_reported":1706990869,"current_range_meters":0,"station_id":"ce4bgth2rcd13ifvqch0","pricing_plan_id":"free"},{"bike_id":"b3fdee80-37a0-47bb-b8ca-a3c133c6ab3b","system_id":"levelo_inurba_marseille","lat":43.303046,"lon":5.368981,"is_reserved":false,"is_disabled":false,"rental_uris":{"android":"levelo://app?vid=b3fdee80-37a0-47bb-b8ca-a3c133c6ab3b","ios":"levelo://app?vid=b3fdee80-37a0-47bb-b8ca-a3c133c6ab3b"},"vehicle_type_id":"4","last_reported":1706990869,"current_range_meters":14000,"station_id":"ce4bgqh2rcd13ifvqc5g","pricing_plan_id":"free"},{"bike_id":"d26371b5-2ae4-44cc-9101-a1b52894f775","system_id":"levelo_inurba_marseille","lat":43.30304,"lon":5.368987,"is_reserved":false,"is_disabled":false,"rental_uris":{"android":"levelo://app?vid=d26371b5-2ae4-44cc-9101-a1b52894f775","ios":"levelo://app?vid=d26371b5-2ae4-44cc-9101-a1b52894f775"},"vehicle_type_id":"4","last_reported":1706990869,"current_range_meters":10800,"station_id":"ce4bgqh2rcd13ifvqc5g","pricing_plan_id":"free"},{"bike_id":"7cff3bef-b381-4d0c-a6aa-548ec737dc42","system_id":"levelo_inurba_marseille","lat":43.303046,"lon":5.368981,"is_reserved":false,"is_disabled":false,"rental_uris":{"android":"levelo://app?vid=7cff3bef-b381-4d0c-a6aa-548ec737dc42","ios":"levelo://app?vid=7cff3bef-b381-4d0c-a6aa-548ec737dc42"},"vehicle_type_id":"4","last_reported":1706990869,"current_range_meters":22800,"station_id":"ce4bgqh2rcd13ifvqc5g","pricing_plan_id":"free"},{"bike_id":"df263e01-f7c5-46ec-93b4-d42a2aa09734","system_id":"levelo_inurba_marseille","lat":43.303046,"lon":5.368981,"is_reserved":false,"is_disabled":false,"rental_uris":{"android":"levelo://app?vid=df263e01-f7c5-46ec-93b4-d42a2aa09734","ios":"levelo://app?vid=df263e01-f7c5-46ec-93b4-d42a2aa09734"},"vehicle_type_id":"4","last_reported":1706990869,"current_range_meters":17600,"station_id":"ce4bgqh2rcd13ifvqc5g","pricing_plan_id":"free"},{"bike_id":"083b5ed0-d60b-4ae4-8c3b-8fd379837c99","system_id":"levelo_inurba_marseille","lat":43.30304,"lon":5.368987,"is_reserved":false,"is_disabled":false,"rental_uris":{"android":"levelo://app?vid=083b5ed0-d60b-4ae4-8c3b-8fd379837c99","ios":"levelo://app?vid=083b5ed0-d60b-4ae4-8c3b-8fd379837c99"},"vehicle_type_id":"4","last_reported":1706990869,"current_range_meters":23200,"station_id":"ce4bgqh2rcd13ifvqc5g","pricing_plan_id":"free"},{"bike_id":"61e7bb9b-97da-4b81-bada-17ae0b233613","system_id":"levelo_inurba_marseille","lat":43.30304,"lon":5.368987,"is_reserved":false,"is_disabled":false,"rental_uris":{"android":"levelo://app?vid=61e7bb9b-97da-4b81-bada-17ae0b233613","ios":"levelo://app?vid=61e7bb9b-97da-4b81-bada-17ae0b233613"},"vehicle_type_id":"4","last_reported":1706990869,"current_range_meters":8000,"station_id":"ce4bgqh2rcd13ifvqc5g","pricing_plan_id":"free"},{"bike_id":"adcad12f-a841-49e7-8325-aefff59fe17a","system_id":"levelo_inurba_marseille","lat":43.315293,"lon":5.380349,"is_reserved":false,"is_disabled":false,"rental_uris":{"android":"levelo://app?vid=adcad12f-a841-49e7-8325-aefff59fe17a","ios":"levelo://app?vid=adcad12f-a841-49e7-8325-aefff59fe17a"},"vehicle_type_id":"4","last_reported":1706990869,"current_range_meters":23200,"station_id":"ce4bhsp2rcd13ifvqi50","pricing_plan_id":"free"},{"bike_id":"e1d71705-c7b3-46f2-8728-10e9a8b57101","system_id":"levelo_inurba_marseille","lat":43.301939,"lon":5.366286,"is_reserved":false,"is_disabled":false,"rental_uris":{"android":"levelo://app?vid=e1d71705-c7b3-46f2-8728-10e9a8b57101","ios":"levelo://app?vid=e1d71705-c7b3-46f2-8728-10e9a8b57101"},"vehicle_type_id":"4","last_reported":1706990869,"current_range_meters":5200,"station_id":"ce4bgrh2rcd13ifvqc8g","pricing_plan_id":"free"},{"bike_id":"4e849d44-950a-4b2c-8153-b70003171aba","system_id":"levelo_inurba_marseille","lat":43.301939,"lon":5.366286,"is_reserved":false,"is_disabled":false,"rental_uris":{"android":"levelo://app?vid=4e849d44-950a-4b2c-8153-b70003171aba","ios":"levelo://app?vid=4e849d44-950a-4b2c-8153-b70003171aba"},"vehicle_type_id":"4","last_reported":1706990869,"current_range_meters":12400,"station_id":"ce4bgrh2rcd13ifvqc8g","pricing_plan_id":"free"},{"bike_id":"60f2122f-510e-41c0-b632-b1e3ca9d2267","system_id":"levelo_inurba_marseille","lat":43.301939,"lon":5.366286,"is_reserved":false,"is_disabled":false,"rental_uris":{"android":"levelo://app?vid=60f2122f-510e-41c0-b632-b1e3ca9d2267","ios":"levelo://app?vid=60f2122f-510e-41c0-b632-b1e3ca9d2267"},"vehicle_type_id":"4","last_reported":1706990869,"current_range_meters":7600,"station_id":"ce4bgrh2rcd13ifvqc8g","pricing_plan_id":"free"},{"bike_id":"dde3bdde-6bb8-4d23-9ba4-65e07f8f79fc","system_id":"levelo_inurba_marseille","lat":43.301939,"lon":5.366286,"is_reserved":false,"is_disabled":false,"rental_uris":{"android":"levelo://app?vid=dde3bdde-6bb8-4d23-9ba4-65e07f8f79fc","ios":"levelo://app?vid=dde3bdde-6bb8-4d23-9ba4-65e07f8f79fc"},"vehicle_type_id":"4","last_reported":1706990869,"current_range_meters":2000,"station_id":"ce4bgrh2rcd13ifvqc8g","pricing_plan_id":"free"},{"bike_id":"5ccdb525-3a29-4881-8d55-a5fb752af242","system_id":"levelo_inurba_marseille","lat":43.301939,"lon":5.366286,"is_reserved":false,"is_disabled":false,"rental_uris":{"android":"levelo://app?vid=5ccdb525-3a29-4881-8d55-a5fb752af242","ios":"levelo://app?vid=5ccdb525-3a29-4881-8d55-a5fb752af242"},"vehicle_type_id":"4","last_reported":1706990869,"current_range_meters":1600,"station_id":"ce4bgrh2rcd13ifvqc8g","pricing_plan_id":"free"},{"bike_id":"735c50ad-d80a-4ca6-88c3-abdb3c3fced6","system_id":"levelo_inurba_marseille","lat":43.301939,"lon":5.366286,"is_reserved":false,"is_disabled":false,"rental_uris":{"android":"levelo://app?vid=735c50ad-d80a-4ca6-88c3-abdb3c3fced6","ios":"levelo://app?vid=735c50ad-d80a-4ca6-88c3-abdb3c3fced6"},"vehicle_type_id":"4","last_reported":1706990869,"current_range_meters":6800,"station_id":"ce4bgrh2rcd13ifvqc8g","pricing_plan_id":"free"},{"bike_id":"6f90a78e-3bd4-47fd-bc1f-5d18a0092fcc","system_id":"levelo_inurba_marseille","lat":43.301939,"lon":5.366286,"is_reserved":false,"is_disabled":false,"rental_uris":{"android":"levelo://app?vid=6f90a78e-3bd4-47fd-bc1f-5d18a0092fcc","ios":"levelo://app?vid=6f90a78e-3bd4-47fd-bc1f-5d18a0092fcc"},"vehicle_type_id":"4","last_reported":1706990869,"current_range_meters":17600,"station_id":"ce4bgrh2rcd13ifvqc8g","pricing_plan_id":"free"},{"bike_id":"f354ce07-53cc-4c1d-ad1e-13b42fe7001e","system_id":"levelo_inurba_marseille","lat":43.301939,"lon":5.366286,"is_reserved":false,"is_disabled":false,"rental_uris":{"android":"levelo://app?vid=f354ce07-53cc-4c1d-ad1e-13b42fe7001e","ios":"levelo://app?vid=f354ce07-53cc-4c1d-ad1e-13b42fe7001e"},"vehicle_type_id":"4","last_reported":1706990869,"current_range_meters":26800,"station_id":"ce4bgrh2rcd13ifvqc8g","pricing_plan_id":"free"},{"bike_id":"85b3887b-a606-409c-a4e1-4b7556ee044e","system_id":"levelo_inurba_marseille","lat":43.301939,"lon":5.366286,"is_reserved":false,"is_disabled":false,"rental_uris":{"android":"levelo://app?vid=85b3887b-a606-409c-a4e1-4b7556ee044e","ios":"levelo://app?vid=85b3887b-a606-409c-a4e1-4b7556ee044e"},"vehicle_type_id":"4","last_reported":1706990869,"current_range_meters":29600,"station_id":"ce4bgrh2rcd13ifvqc8g","pricing_plan_id":"free"},{"bike_id":"532654a0-4b95-48cc-b919-8bc35c0e2009","system_id":"levelo_inurba_marseille","lat":43.30178,"lon":5.36633,"is_reserved":false,"is_disabled":false,"rental_uris":{"android":"levelo://app?vid=532654a0-4b95-48cc-b919-8bc35c0e2009","ios":"levelo://app?vid=532654a0-4b95-48cc-b919-8bc35c0e2009"},"vehicle_type_id":"4","last_reported":1706990869,"current_range_meters":31200,"station_id":"ce4bgrh2rcd13ifvqc8g","pricing_plan_id":"free"},{"bike_id":"99a787cb-232b-4fb7-85f2-c3354ae36a10","system_id":"levelo_inurba_marseille","lat":43.301939,"lon":5.366286,"is_reserved":false,"is_disabled":false,"rental_uris":{"android":"levelo://app?vid=99a787cb-232b-4fb7-85f2-c3354ae36a10","ios":"levelo://app?vid=99a787cb-232b-4fb7-85f2-c3354ae36a10"},"vehicle_type_id":"4","last_reported":1706990869,"current_range_meters":31200,"station_id":"ce4bgrh2rcd13ifvqc8g","pricing_plan_id":"free"},{"bike_id":"1d7858e4-b370-46e1-b0a2-da8fd6a451f0","system_id":"levelo_inurba_marseille","lat":43.308012,"lon":5.381511,"is_reserved":false,"is_disabled":false,"rental_uris":{"android":"levelo://app?vid=1d7858e4-b370-46e1-b0a2-da8fd6a451f0","ios":"levelo://app?vid=1d7858e4-b370-46e1-b0a2-da8fd6a451f0"},"vehicle_type_id":"4","last_reported":1706990869,"current_range_meters":25200,"station_id":"ce4bgt12rcd13ifvqce0","pricing_plan_id":"free"},{"bike_id":"9ff0caa3-6d8f-4617-aec9-8222820144e1","system_id":"levelo_inurba_marseille","lat":43.308012,"lon":5.381511,"is_reserved":false,"is_disabled":false,"rental_uris":{"android":"levelo://app?vid=9ff0caa3-6d8f-4617-aec9-8222820144e1","ios":"levelo://app?vid=9ff0caa3-6d8f-4617-aec9-8222820144e1"},"vehicle_type_id":"4","last_reported":1706990869,"current_range_meters":2800,"station_id":"ce4bgt12rcd13ifvqce0","pricing_plan_id":"free"},{"bike_id":"6405c038-95ab-4022-9545-c9d9b5987a91","system_id":"levelo_inurba_marseille","lat":43.304606,"lon":5.379026,"is_reserved":false,"is_disabled":false,"rental_uris":{"android":"levelo://app?vid=6405c038-95ab-4022-9545-c9d9b5987a91","ios":"levelo://app?vid=6405c038-95ab-4022-9545-c9d9b5987a91"},"vehicle_type_id":"4","last_reported":1706990869,"current_range_meters":23200,"station_id":"ce4bgup2rcd13ifvqcn0","pricing_plan_id":"free"},{"bike_id":"16c453ae-fa58-488b-809a-e7cd1c664b94","system_id":"levelo_inurba_marseille","lat":43.304606,"lon":5.379026,"is_reserved":false,"is_disabled":false,"rental_uris":{"android":"levelo://app?vid=16c453ae-fa58-488b-809a-e7cd1c664b94","ios":"levelo://app?vid=16c453ae-fa58-488b-809a-e7cd1c664b94"},"vehicle_type_id":"4","last_reported":1706990869,"current_range_meters":0,"station_id":"ce4bgup2rcd13ifvqcn0","pricing_plan_id":"free"},{"bike_id":"3afd96f5-310f-4873-bc5f-83651d54c8df","system_id":"levelo_inurba_marseille","lat":43.32481,"lon":5.36571,"is_reserved":false,"is_disabled":false,"rental_uris":{"android":"levelo://app?vid=3afd96f5-310f-4873-bc5f-83651d54c8df","ios":"levelo://app?vid=3afd96f5-310f-4873-bc5f-83651d54c8df"},"vehicle_type_id":"4","last_reported":1706990869,"current_range_meters":20400,"station_id":"ce4bhs12rcd13ifvqhvg","pricing_plan_id":"free"},{"bike_id":"e3d3782c-aad7-4ee4-839c-29342838b574","system_id":"levelo_inurba_marseille","lat":43.324771,"lon":5.36557,"is_reserved":false,"is_disabled":false,"rental_uris":{"android":"levelo://app?vid=e3d3782c-aad7-4ee4-839c-29342838b574","ios":"levelo://app?vid=e3d3782c-aad7-4ee4-839c-29342838b574"},"vehicle_type_id":"4","last_reported":1706990869,"current_range_meters":15200,"station_id":"ce4bhs12rcd13ifvqhvg","pricing_plan_id":"free"},{"bike_id":"5f03f1c4-3daf-4132-9b83-4053847d344c","system_id":"levelo_inurba_marseille","lat":43.31068,"lon":5.3835,"is_reserved":false,"is_disabled":false,"rental_uris":{"android":"levelo://app?vid=5f03f1c4-3daf-4132-9b83-4053847d344c","ios":"levelo://app?vid=5f03f1c4-3daf-4132-9b83-4053847d344c"},"vehicle_type_id":"4","last_reported":1706990869,"current_range_meters":0,"station_id":"ce4bgv92rcd13ifvqcr0","pricing_plan_id":"free"},{"bike_id":"62d73b02-0263-4d82-b3a3-8cd251bf0bf4","system_id":"levelo_inurba_marseille","lat":43.310804,"lon":5.38359,"is_reserved":false,"is_disabled":false,"rental_uris":{"android":"levelo://app?vid=62d73b02-0263-4d82-b3a3-8cd251bf0bf4","ios":"levelo://app?vid=62d73b02-0263-4d82-b3a3-8cd251bf0bf4"},"vehicle_type_id":"4","last_reported":1706990869,"current_range_meters":0,"station_id":"ce4bgv92rcd13ifvqcr0","pricing_plan_id":"free"},{"bike_id":"8a88da53-1c73-49d0-9d2d-787fd8a3b4d5","system_id":"levelo_inurba_marseille","lat":43.302784,"lon":5.377158,"is_reserved":false,"is_disabled":false,"rental_uris":{"android":"levelo://app?vid=8a88da53-1c73-49d0-9d2d-787fd8a3b4d5","ios":"levelo://app?vid=8a88da53-1c73-49d0-9d2d-787fd8a3b4d5"},"vehicle_type_id":"4","last_reported":1706990869,"current_range_meters":0,"station_id":"ce4bguh2rcd13ifvqcj0","pricing_plan_id":"free"},{"bike_id":"52df8464-f948-42cf-8f4e-3cacac34045c","system_id":"levelo_inurba_marseille","lat":43.301429,"lon":5.37413,"is_reserved":false,"is_disabled":false,"rental_uris":{"android":"levelo://app?vid=52df8464-f948-42cf-8f4e-3cacac34045c","ios":"levelo://app?vid=52df8464-f948-42cf-8f4e-3cacac34045c"},"vehicle_type_id":"4","last_reported":1706990869,"current_range_meters":15200,"station_id":"ce4bgs92rcd13ifvqcc0","pricing_plan_id":"free"},{"bike_id":"09af8e1b-27da-4a25-8a22-6c45042b486f","system_id":"levelo_inurba_marseille","lat":43.30135,"lon":5.37409,"is_reserved":false,"is_disabled":false,"rental_uris":{"android":"levelo://app?vid=09af8e1b-27da-4a25-8a22-6c45042b486f","ios":"levelo://app?vid=09af8e1b-27da-4a25-8a22-6c45042b486f"},"vehicle_type_id":"4","last_reported":1706990869,"current_range_meters":6000,"station_id":"ce4bgs92rcd13ifvqcc0","pricing_plan_id":"free"},{"bike_id":"58f6962a-4afe-4053-b5a4-f736e3070019","system_id":"levelo_inurba_marseille","lat":43.301429,"lon":5.37413,"is_reserved":false,"is_disabled":false,"rental_uris":{"android":"levelo://app?vid=58f6962a-4afe-4053-b5a4-f736e3070019","ios":"levelo://app?vid=58f6962a-4afe-4053-b5a4-f736e3070019"},"vehicle_type_id":"4","last_reported":1706990869,"current_range_meters":16400,"station_id":"ce4bgs92rcd13ifvqcc0","pricing_plan_id":"free"},{"bike_id":"3c58f41d-9a7a-4d49-8cec-b2ba77af198c","system_id":"levelo_inurba_marseille","lat":43.319935,"lon":5.381699,"is_reserved":false,"is_disabled":false,"rental_uris":{"android":"levelo://app?vid=3c58f41d-9a7a-4d49-8cec-b2ba77af198c","ios":"levelo://app?vid=3c58f41d-9a7a-4d49-8cec-b2ba77af198c"},"vehicle_type_id":"4","last_reported":1706990869,"current_range_meters":0,"station_id":"ce4bhr12rcd13ifvqhpg","pricing_plan_id":"free"},{"bike_id":"245843ad-bfeb-465e-a2d5-e97ffa7d3f53","system_id":"levelo_inurba_marseille","lat":43.31357,"lon":5.3848,"is_reserved":false,"is_disabled":false,"rental_uris":{"android":"levelo://app?vid=245843ad-bfeb-465e-a2d5-e97ffa7d3f53","ios":"levelo://app?vid=245843ad-bfeb-465e-a2d5-e97ffa7d3f53"},"vehicle_type_id":"4","last_reported":1706990869,"current_range_meters":28400,"station_id":"ce4bgt92rcd13ifvqcf0","pricing_plan_id":"free"},{"bike_id":"661461d7-eb6d-45a0-a026-7ec1903cd028","system_id":"levelo_inurba_marseille","lat":43.313571,"lon":5.384829,"is_reserved":false,"is_disabled":false,"rental_uris":{"android":"levelo://app?vid=661461d7-eb6d-45a0-a026-7ec1903cd028","ios":"levelo://app?vid=661461d7-eb6d-45a0-a026-7ec1903cd028"},"vehicle_type_id":"4","last_reported":1706990869,"current_range_meters":26800,"station_id":"ce4bgt92rcd13ifvqcf0","pricing_plan_id":"free"},{"bike_id":"ca0c5030-70d0-43db-aed9-13e4b8bf6323","system_id":"levelo_inurba_marseille","lat":43.313571,"lon":5.384829,"is_reserved":false,"is_disabled":false,"rental_uris":{"android":"levelo://app?vid=ca0c5030-70d0-43db-aed9-13e4b8bf6323","ios":"levelo://app?vid=ca0c5030-70d0-43db-aed9-13e4b8bf6323"},"vehicle_type_id":"4","last_reported":1706990869,"current_range_meters":3600,"station_id":"ce4bgt92rcd13ifvqcf0","pricing_plan_id":"free"},{"bike_id":"66db58e9-b0d4-4e9d-9cd1-c80ea0c7f267","system_id":"levelo_inurba_marseille","lat":43.313571,"lon":5.384829,"is_reserved":false,"is_disabled":false,"rental_uris":{"android":"levelo://app?vid=66db58e9-b0d4-4e9d-9cd1-c80ea0c7f267","ios":"levelo://app?vid=66db58e9-b0d4-4e9d-9cd1-c80ea0c7f267"},"vehicle_type_id":"4","last_reported":1706990869,"current_range_meters":19600,"station_id":"ce4bgt92rcd13ifvqcf0","pricing_plan_id":"free"},{"bike_id":"8f531f80-8b24-4109-942d-3b19a83bb2c7","system_id":"levelo_inurba_marseille","lat":43.299222,"lon":5.365554,"is_reserved":false,"is_disabled":false,"rental_uris":{"android":"levelo://app?vid=8f531f80-8b24-4109-942d-3b19a83bb2c7","ios":"levelo://app?vid=8f531f80-8b24-4109-942d-3b19a83bb2c7"},"vehicle_type_id":"4","last_reported":1706990869,"current_range_meters":16000,"station_id":"ce4bgm92rcd13ifvqbr0","pricing_plan_id":"free"},{"bike_id":"75e76b14-f86e-4677-b22a-cdbdc6404b1a","system_id":"levelo_inurba_marseille","lat":43.299724,"lon":5.371829,"is_reserved":false,"is_disabled":false,"rental_uris":{"android":"levelo://app?vid=75e76b14-f86e-4677-b22a-cdbdc6404b1a","ios":"levelo://app?vid=75e76b14-f86e-4677-b22a-cdbdc6404b1a"},"vehicle_type_id":"4","last_reported":1706990869,"current_range_meters":0,"station_id":"ce4bgr92rcd13ifvqc7g","pricing_plan_id":"free"},{"bike_id":"a571844c-4ae1-499f-a6f0-d5dbdf18d198","system_id":"levelo_inurba_marseille","lat":43.305364,"lon":5.384119,"is_reserved":false,"is_disabled":false,"rental_uris":{"android":"levelo://app?vid=a571844c-4ae1-499f-a6f0-d5dbdf18d198","ios":"levelo://app?vid=a571844c-4ae1-499f-a6f0-d5dbdf18d198"},"vehicle_type_id":"4","last_reported":1706990869,"current_range_meters":14400,"station_id":"ce4bgg92rcd13ifvqb30","pricing_plan_id":"free"},{"bike_id":"059d1d7c-cf59-4cb3-9669-17eb95a7d4e8","system_id":"levelo_inurba_marseille","lat":43.298433,"lon":5.362774,"is_reserved":false,"is_disabled":false,"rental_uris":{"android":"levelo://app?vid=059d1d7c-cf59-4cb3-9669-17eb95a7d4e8","ios":"levelo://app?vid=059d1d7c-cf59-4cb3-9669-17eb95a7d4e8"},"vehicle_type_id":"4","last_reported":1706990869,"current_range_meters":4400,"station_id":"ce4bgpp2rcd13ifvqc3g","pricing_plan_id":"free"},{"bike_id":"24591a25-3727-45d4-946a-4bc60857cd81","system_id":"levelo_inurba_marseille","lat":43.305364,"lon":5.384119,"is_reserved":false,"is_disabled":false,"rental_uris":{"android":"levelo://app?vid=24591a25-3727-45d4-946a-4bc60857cd81","ios":"levelo://app?vid=24591a25-3727-45d4-946a-4bc60857cd81"},"vehicle_type_id":"4","last_reported":1706990869,"current_range_meters":0,"station_id":"ce4bgg92rcd13ifvqb30","pricing_plan_id":"free"},{"bike_id":"431a0a06-0108-4095-b45f-f507c714dbbc","system_id":"levelo_inurba_marseille","lat":43.298433,"lon":5.362774,"is_reserved":false,"is_disabled":false,"rental_uris":{"android":"levelo://app?vid=431a0a06-0108-4095-b45f-f507c714dbbc","ios":"levelo://app?vid=431a0a06-0108-4095-b45f-f507c714dbbc"},"vehicle_type_id":"4","last_reported":1706990869,"current_range_meters":21200,"station_id":"ce4bgpp2rcd13ifvqc3g","pricing_plan_id":"free"},{"bike_id":"1966ba41-97e7-40ea-9f25-e60a0d24b074","system_id":"levelo_inurba_marseille","lat":43.298433,"lon":5.362774,"is_reserved":false,"is_disabled":false,"rental_uris":{"android":"levelo://app?vid=1966ba41-97e7-40ea-9f25-e60a0d24b074","ios":"levelo://app?vid=1966ba41-97e7-40ea-9f25-e60a0d24b074"},"vehicle_type_id":"4","last_reported":1706990869,"current_range_meters":6000,"station_id":"ce4bgpp2rcd13ifvqc3g","pricing_plan_id":"free"},{"bike_id":"85cd3f38-71be-40ae-9221-347a85f9afd2","system_id":"levelo_inurba_marseille","lat":43.298433,"lon":5.362774,"is_reserved":false,"is_disabled":false,"rental_uris":{"android":"levelo://app?vid=85cd3f38-71be-40ae-9221-347a85f9afd2","ios":"levelo://app?vid=85cd3f38-71be-40ae-9221-347a85f9afd2"},"vehicle_type_id":"4","last_reported":1706990869,"current_range_meters":0,"station_id":"ce4bgpp2rcd13ifvqc3g","pricing_plan_id":"free"},{"bike_id":"23f36b18-8d1a-440c-a80f-3e2fbd063538","system_id":"levelo_inurba_marseille","lat":43.305364,"lon":5.384119,"is_reserved":false,"is_disabled":false,"rental_uris":{"android":"levelo://app?vid=23f36b18-8d1a-440c-a80f-3e2fbd063538","ios":"levelo://app?vid=23f36b18-8d1a-440c-a80f-3e2fbd063538"},"vehicle_type_id":"4","last_reported":1706990869,"current_range_meters":21600,"station_id":"ce4bgg92rcd13ifvqb30","pricing_plan_id":"free"},{"bike_id":"a823bae4-d77a-4f0d-888b-ed0d6b906b83","system_id":"levelo_inurba_marseille","lat":43.298433,"lon":5.362774,"is_reserved":false,"is_disabled":false,"rental_uris":{"android":"levelo://app?vid=a823bae4-d77a-4f0d-888b-ed0d6b906b83","ios":"levelo://app?vid=a823bae4-d77a-4f0d-888b-ed0d6b906b83"},"vehicle_type_id":"4","last_reported":1706990869,"current_range_meters":16000,"station_id":"ce4bgpp2rcd13ifvqc3g","pricing_plan_id":"free"},{"bike_id":"1d60e557-d319-4fad-b4f4-260cd0016986","system_id":"levelo_inurba_marseille","lat":43.29916,"lon":5.37451,"is_reserved":false,"is_disabled":false,"rental_uris":{"android":"levelo://app?vid=1d60e557-d319-4fad-b4f4-260cd0016986","ios":"levelo://app?vid=1d60e557-d319-4fad-b4f4-260cd0016986"},"vehicle_type_id":"4","last_reported":1706990869,"current_range_meters":0,"station_id":"ce4bgjh2rcd13ifvqbg0","pricing_plan_id":"free"},{"bike_id":"b6caa35e-af12-4fb2-a4be-23d823c21f00","system_id":"levelo_inurba_marseille","lat":43.298433,"lon":5.362774,"is_reserved":false,"is_disabled":false,"rental_uris":{"android":"levelo://app?vid=b6caa35e-af12-4fb2-a4be-23d823c21f00","ios":"levelo://app?vid=b6caa35e-af12-4fb2-a4be-23d823c21f00"},"vehicle_type_id":"4","last_reported":1706990869,"current_range_meters":8400,"station_id":"ce4bgpp2rcd13ifvqc3g","pricing_plan_id":"free"},{"bike_id":"8e7ce4ae-b373-4095-b5f3-316785451a75","system_id":"levelo_inurba_marseille","lat":43.298433,"lon":5.362774,"is_reserved":false,"is_disabled":false,"rental_uris":{"android":"levelo://app?vid=8e7ce4ae-b373-4095-b5f3-316785451a75","ios":"levelo://app?vid=8e7ce4ae-b373-4095-b5f3-316785451a75"},"vehicle_type_id":"4","last_reported":1706990869,"current_range_meters":5200,"station_id":"ce4bgpp2rcd13ifvqc3g","pricing_plan_id":"free"},{"bike_id":"b5328ea9-154c-4016-a636-b0962a42f351","system_id":"levelo_inurba_marseille","lat":43.299187,"lon":5.374743,"is_reserved":false,"is_disabled":false,"rental_uris":{"android":"levelo://app?vid=b5328ea9-154c-4016-a636-b0962a42f351","ios":"levelo://app?vid=b5328ea9-154c-4016-a636-b0962a42f351"},"vehicle_type_id":"4","last_reported":1706990869,"current_range_meters":0,"station_id":"ce4bgjh2rcd13ifvqbg0","pricing_plan_id":"free"},{"bike_id":"77f211bf-d461-40d0-ba8d-7517acad18bc","system_id":"levelo_inurba_marseille","lat":43.311722,"lon":5.387247,"is_reserved":false,"is_disabled":false,"rental_uris":{"android":"levelo://app?vid=77f211bf-d461-40d0-ba8d-7517acad18bc","ios":"levelo://app?vid=77f211bf-d461-40d0-ba8d-7517acad18bc"},"vehicle_type_id":"4","last_reported":1706990869,"current_range_meters":20800,"station_id":"ce4bgv12rcd13ifvqcp0","pricing_plan_id":"free"},{"bike_id":"1eeed3ec-ee0c-4b35-bd80-fbb0c5c60a1e","system_id":"levelo_inurba_marseille","lat":43.311722,"lon":5.387247,"is_reserved":false,"is_disabled":false,"rental_uris":{"android":"levelo://app?vid=1eeed3ec-ee0c-4b35-bd80-fbb0c5c60a1e","ios":"levelo://app?vid=1eeed3ec-ee0c-4b35-bd80-fbb0c5c60a1e"},"vehicle_type_id":"4","last_reported":1706990869,"current_range_meters":14000,"station_id":"ce4bgv12rcd13ifvqcp0","pricing_plan_id":"free"},{"bike_id":"1c0ee3ec-24c7-4c1c-a687-d92aa435bf2b","system_id":"levelo_inurba_marseille","lat":43.29902,"lon":5.37475,"is_reserved":false,"is_disabled":false,"rental_uris":{"android":"levelo://app?vid=1c0ee3ec-24c7-4c1c-a687-d92aa435bf2b","ios":"levelo://app?vid=1c0ee3ec-24c7-4c1c-a687-d92aa435bf2b"},"vehicle_type_id":"4","last_reported":1706990869,"current_range_meters":6400,"station_id":"ce4bgjh2rcd13ifvqbg0","pricing_plan_id":"free"},{"bike_id":"2bc6ab6d-0ba7-43bf-b187-95a5ee68859b","system_id":"levelo_inurba_marseille","lat":43.29901,"lon":5.37473,"is_reserved":false,"is_disabled":false,"rental_uris":{"android":"levelo://app?vid=2bc6ab6d-0ba7-43bf-b187-95a5ee68859b","ios":"levelo://app?vid=2bc6ab6d-0ba7-43bf-b187-95a5ee68859b"},"vehicle_type_id":"4","last_reported":1706990869,"current_range_meters":2400,"station_id":"ce4bgjh2rcd13ifvqbg0","pricing_plan_id":"free"},{"bike_id":"5a51313f-e536-4058-8566-6a58517eac52","system_id":"levelo_inurba_marseille","lat":43.29896,"lon":5.37475,"is_reserved":false,"is_disabled":false,"rental_uris":{"android":"levelo://app?vid=5a51313f-e536-4058-8566-6a58517eac52","ios":"levelo://app?vid=5a51313f-e536-4058-8566-6a58517eac52"},"vehicle_type_id":"4","last_reported":1706990869,"current_range_meters":16800,"station_id":"ce4bgjh2rcd13ifvqbg0","pricing_plan_id":"free"},{"bike_id":"d3067c66-e7e2-46f1-8f0d-eabc61ae0d41","system_id":"levelo_inurba_marseille","lat":43.32288,"lon":5.38263,"is_reserved":false,"is_disabled":false,"rental_uris":{"android":"levelo://app?vid=d3067c66-e7e2-46f1-8f0d-eabc61ae0d41","ios":"levelo://app?vid=d3067c66-e7e2-46f1-8f0d-eabc61ae0d41"},"vehicle_type_id":"4","last_reported":1706990869,"current_range_meters":7200,"station_id":"ce4bhr12rcd13ifvqhqg","pricing_plan_id":"free"},{"bike_id":"8b023912-5267-4e1c-a403-4d70b425cebe","system_id":"levelo_inurba_marseille","lat":43.32294,"lon":5.38274,"is_reserved":false,"is_disabled":false,"rental_uris":{"android":"levelo://app?vid=8b023912-5267-4e1c-a403-4d70b425cebe","ios":"levelo://app?vid=8b023912-5267-4e1c-a403-4d70b425cebe"},"vehicle_type_id":"4","last_reported":1706990869,"current_range_meters":31200,"station_id":"ce4bhr12rcd13ifvqhqg","pricing_plan_id":"free"},{"bike_id":"dec8b008-992e-4c64-b540-1c9b2b5e6fc3","system_id":"levelo_inurba_marseille","lat":43.32294,"lon":5.38284,"is_reserved":false,"is_disabled":false,"rental_uris":{"android":"levelo://app?vid=dec8b008-992e-4c64-b540-1c9b2b5e6fc3","ios":"levelo://app?vid=dec8b008-992e-4c64-b540-1c9b2b5e6fc3"},"vehicle_type_id":"4","last_reported":1706990869,"current_range_meters":5200,"station_id":"ce4bhr12rcd13ifvqhqg","pricing_plan_id":"free"},{"bike_id":"1900e2ea-9239-49b1-933e-57903fa99707","system_id":"levelo_inurba_marseille","lat":43.32826,"lon":5.36695,"is_reserved":false,"is_disabled":false,"rental_uris":{"android":"levelo://app?vid=1900e2ea-9239-49b1-933e-57903fa99707","ios":"levelo://app?vid=1900e2ea-9239-49b1-933e-57903fa99707"},"vehicle_type_id":"4","last_reported":1706990869,"current_range_meters":13600,"station_id":"ce4bhs92rcd13ifvqi0g","pricing_plan_id":"free"},{"bike_id":"a3cfb0d8-66c6-4b02-980d-6e0838737d96","system_id":"levelo_inurba_marseille","lat":43.328371,"lon":5.366909,"is_reserved":false,"is_disabled":false,"rental_uris":{"android":"levelo://app?vid=a3cfb0d8-66c6-4b02-980d-6e0838737d96","ios":"levelo://app?vid=a3cfb0d8-66c6-4b02-980d-6e0838737d96"},"vehicle_type_id":"4","last_reported":1706990869,"current_range_meters":15200,"station_id":"ce4bhs92rcd13ifvqi0g","pricing_plan_id":"free"},{"bike_id":"757c94ef-0260-4e65-8f42-9a2ff02436ff","system_id":"levelo_inurba_marseille","lat":43.3283,"lon":5.36681,"is_reserved":false,"is_disabled":false,"rental_uris":{"android":"levelo://app?vid=757c94ef-0260-4e65-8f42-9a2ff02436ff","ios":"levelo://app?vid=757c94ef-0260-4e65-8f42-9a2ff02436ff"},"vehicle_type_id":"4","last_reported":1706990869,"current_range_meters":0,"station_id":"ce4bhs92rcd13ifvqi0g","pricing_plan_id":"free"},{"bike_id":"4c60f124-983d-4709-a95c-31ae5c64ae30","system_id":"levelo_inurba_marseille","lat":43.328317,"lon":5.366803,"is_reserved":false,"is_disabled":false,"rental_uris":{"android":"levelo://app?vid=4c60f124-983d-4709-a95c-31ae5c64ae30","ios":"levelo://app?vid=4c60f124-983d-4709-a95c-31ae5c64ae30"},"vehicle_type_id":"4","last_reported":1706990869,"current_range_meters":0,"station_id":"ce4bhs92rcd13ifvqi0g","pricing_plan_id":"free"},{"bike_id":"cd766519-893f-42bc-9d4d-40ec2595fe3b","system_id":"levelo_inurba_marseille","lat":43.328325,"lon":5.366755,"is_reserved":false,"is_disabled":false,"rental_uris":{"android":"levelo://app?vid=cd766519-893f-42bc-9d4d-40ec2595fe3b","ios":"levelo://app?vid=cd766519-893f-42bc-9d4d-40ec2595fe3b"},"vehicle_type_id":"4","last_reported":1706990869,"current_range_meters":8400,"station_id":"ce4bhs92rcd13ifvqi0g","pricing_plan_id":"free"},{"bike_id":"63fdb5e0-d01f-4003-bcb3-b69d8f457f45","system_id":"levelo_inurba_marseille","lat":43.32833,"lon":5.36685,"is_reserved":false,"is_disabled":false,"rental_uris":{"android":"levelo://app?vid=63fdb5e0-d01f-4003-bcb3-b69d8f457f45","ios":"levelo://app?vid=63fdb5e0-d01f-4003-bcb3-b69d8f457f45"},"vehicle_type_id":"4","last_reported":1706990869,"current_range_meters":6000,"station_id":"ce4bhs92rcd13ifvqi0g","pricing_plan_id":"free"},{"bike_id":"eb693acf-24cc-46c6-9dfc-6a5e5c4efea8","system_id":"levelo_inurba_marseille","lat":43.297163,"lon":5.365866,"is_reserved":false,"is_disabled":false,"rental_uris":{"android":"levelo://app?vid=eb693acf-24cc-46c6-9dfc-6a5e5c4efea8","ios":"levelo://app?vid=eb693acf-24cc-46c6-9dfc-6a5e5c4efea8"},"vehicle_type_id":"4","last_reported":1706990869,"current_range_meters":18800,"station_id":"ce4bgn12rcd13ifvqbt0","pricing_plan_id":"free"},{"bike_id":"13cfdce7-10cc-4fa8-985b-0951b1a76fc1","system_id":"levelo_inurba_marseille","lat":43.297163,"lon":5.365866,"is_reserved":false,"is_disabled":false,"rental_uris":{"android":"levelo://app?vid=13cfdce7-10cc-4fa8-985b-0951b1a76fc1","ios":"levelo://app?vid=13cfdce7-10cc-4fa8-985b-0951b1a76fc1"},"vehicle_type_id":"4","last_reported":1706990869,"current_range_meters":6000,"station_id":"ce4bgn12rcd13ifvqbt0","pricing_plan_id":"free"},{"bike_id":"a43029a4-6bf7-48a1-93fb-f538a9716136","system_id":"levelo_inurba_marseille","lat":43.2968,"lon":5.37291,"is_reserved":false,"is_disabled":false,"rental_uris":{"android":"levelo://app?vid=a43029a4-6bf7-48a1-93fb-f538a9716136","ios":"levelo://app?vid=a43029a4-6bf7-48a1-93fb-f538a9716136"},"vehicle_type_id":"4","last_reported":1706990869,"current_range_meters":23600,"station_id":"ce4bgk12rcd13ifvqbj0","pricing_plan_id":"free"},{"bike_id":"cf1c4ed4-2b53-4719-9d69-b44bdf3f79d5","system_id":"levelo_inurba_marseille","lat":43.2968,"lon":5.37291,"is_reserved":false,"is_disabled":false,"rental_uris":{"android":"levelo://app?vid=cf1c4ed4-2b53-4719-9d69-b44bdf3f79d5","ios":"levelo://app?vid=cf1c4ed4-2b53-4719-9d69-b44bdf3f79d5"},"vehicle_type_id":"4","last_reported":1706990869,"current_range_meters":20000,"station_id":"ce4bgk12rcd13ifvqbj0","pricing_plan_id":"free"},{"bike_id":"24a77e25-dbb7-4e10-a2e3-ef2a37137b9f","system_id":"levelo_inurba_marseille","lat":43.2968,"lon":5.37291,"is_reserved":false,"is_disabled":false,"rental_uris":{"android":"levelo://app?vid=24a77e25-dbb7-4e10-a2e3-ef2a37137b9f","ios":"levelo://app?vid=24a77e25-dbb7-4e10-a2e3-ef2a37137b9f"},"vehicle_type_id":"4","last_reported":1706990869,"current_range_meters":16000,"station_id":"ce4bgk12rcd13ifvqbj0","pricing_plan_id":"free"},{"bike_id":"758a4e2a-e62e-4f04-990d-b778ddf7c7d4","system_id":"levelo_inurba_marseille","lat":43.2968,"lon":5.37291,"is_reserved":false,"is_disabled":false,"rental_uris":{"android":"levelo://app?vid=758a4e2a-e62e-4f04-990d-b778ddf7c7d4","ios":"levelo://app?vid=758a4e2a-e62e-4f04-990d-b778ddf7c7d4"},"vehicle_type_id":"4","last_reported":1706990869,"current_range_meters":10800,"station_id":"ce4bgk12rcd13ifvqbj0","pricing_plan_id":"free"},{"bike_id":"4a162a07-9827-4581-b43a-e610ce807deb","system_id":"levelo_inurba_marseille","lat":43.29671,"lon":5.37288,"is_reserved":false,"is_disabled":false,"rental_uris":{"android":"levelo://app?vid=4a162a07-9827-4581-b43a-e610ce807deb","ios":"levelo://app?vid=4a162a07-9827-4581-b43a-e610ce807deb"},"vehicle_type_id":"4","last_reported":1706990869,"current_range_meters":5200,"station_id":"ce4bgk12rcd13ifvqbj0","pricing_plan_id":"free"},{"bike_id":"a714b53e-9806-4833-b171-edd8e87daf6c","system_id":"levelo_inurba_marseille","lat":43.29733,"lon":5.37685,"is_reserved":false,"is_disabled":false,"rental_uris":{"android":"levelo://app?vid=a714b53e-9806-4833-b171-edd8e87daf6c","ios":"levelo://app?vid=a714b53e-9806-4833-b171-edd8e87daf6c"},"vehicle_type_id":"4","last_reported":1706990869,"current_range_meters":0,"station_id":"ce4bgkh2rcd13ifvqbl0","pricing_plan_id":"free"},{"bike_id":"c4707585-fa42-435e-ae2b-8d0fd9e245fe","system_id":"levelo_inurba_marseille","lat":43.299028,"lon":5.381509,"is_reserved":false,"is_disabled":false,"rental_uris":{"android":"levelo://app?vid=c4707585-fa42-435e-ae2b-8d0fd9e245fe","ios":"levelo://app?vid=c4707585-fa42-435e-ae2b-8d0fd9e245fe"},"vehicle_type_id":"4","last_reported":1706990869,"current_range_meters":28400,"station_id":"ce4bgj12rcd13ifvqbc0","pricing_plan_id":"free"},{"bike_id":"5f039725-6951-4040-a4c8-beca64de16b8","system_id":"levelo_inurba_marseille","lat":43.309589,"lon":5.390258,"is_reserved":false,"is_disabled":false,"rental_uris":{"android":"levelo://app?vid=5f039725-6951-4040-a4c8-beca64de16b8","ios":"levelo://app?vid=5f039725-6951-4040-a4c8-beca64de16b8"},"vehicle_type_id":"4","last_reported":1706990869,"current_range_meters":24000,"station_id":"ce4bgup2rcd13ifvqco0","pricing_plan_id":"free"},{"bike_id":"e71dbeb2-bdcd-41a9-9e92-b0477debf34d","system_id":"levelo_inurba_marseille","lat":43.29644,"lon":5.374788,"is_reserved":false,"is_disabled":false,"rental_uris":{"android":"levelo://app?vid=e71dbeb2-bdcd-41a9-9e92-b0477debf34d","ios":"levelo://app?vid=e71dbeb2-bdcd-41a9-9e92-b0477debf34d"},"vehicle_type_id":"4","last_reported":1706990869,"current_range_meters":15600,"station_id":"","pricing_plan_id":"free"},{"bike_id":"85b77fa4-36c1-48b9-bae4-74fbfc2c9e15","system_id":"levelo_inurba_marseille","lat":43.309589,"lon":5.390258,"is_reserved":false,"is_disabled":false,"rental_uris":{"android":"levelo://app?vid=85b77fa4-36c1-48b9-bae4-74fbfc2c9e15","ios":"levelo://app?vid=85b77fa4-36c1-48b9-bae4-74fbfc2c9e15"},"vehicle_type_id":"4","last_reported":1706990869,"current_range_meters":10000,"station_id":"ce4bgup2rcd13ifvqco0","pricing_plan_id":"free"},{"bike_id":"c8fcaf83-deca-4697-81a1-4be5d91d9f1d","system_id":"levelo_inurba_marseille","lat":43.29704,"lon":5.37698,"is_reserved":false,"is_disabled":false,"rental_uris":{"android":"levelo://app?vid=c8fcaf83-deca-4697-81a1-4be5d91d9f1d","ios":"levelo://app?vid=c8fcaf83-deca-4697-81a1-4be5d91d9f1d"},"vehicle_type_id":"4","last_reported":1706990869,"current_range_meters":2400,"station_id":"ce4bgkh2rcd13ifvqbl0","pricing_plan_id":"free"},{"bike_id":"e9e3c594-7adc-43f1-9493-aaabb7eee0e6","system_id":"levelo_inurba_marseille","lat":43.29896,"lon":5.38154,"is_reserved":false,"is_disabled":false,"rental_uris":{"android":"levelo://app?vid=e9e3c594-7adc-43f1-9493-aaabb7eee0e6","ios":"levelo://app?vid=e9e3c594-7adc-43f1-9493-aaabb7eee0e6"},"vehicle_type_id":"4","last_reported":1706990869,"current_range_meters":0,"station_id":"ce4bgj12rcd13ifvqbc0","pricing_plan_id":"free"},{"bike_id":"0b49491c-81b8-4ed9-9fa4-1ac082e034fe","system_id":"levelo_inurba_marseille","lat":43.317557,"lon":5.390173,"is_reserved":false,"is_disabled":false,"rental_uris":{"android":"levelo://app?vid=0b49491c-81b8-4ed9-9fa4-1ac082e034fe","ios":"levelo://app?vid=0b49491c-81b8-4ed9-9fa4-1ac082e034fe"},"vehicle_type_id":"4","last_reported":1706990869,"current_range_meters":31600,"station_id":"ce4bhqp2rcd13ifvqhng","pricing_plan_id":"free"},{"bike_id":"43c1133e-c332-43dd-a408-54dcc1f59aef","system_id":"levelo_inurba_marseille","lat":43.302992,"lon":5.392136,"is_reserved":false,"is_disabled":false,"rental_uris":{"android":"levelo://app?vid=43c1133e-c332-43dd-a408-54dcc1f59aef","ios":"levelo://app?vid=43c1133e-c332-43dd-a408-54dcc1f59aef"},"vehicle_type_id":"4","last_reported":1706990869,"current_range_meters":28000,"station_id":"ce4bgkh2rcd13ifvqbk0","pricing_plan_id":"free"},{"bike_id":"86eba5ee-3f3e-465e-879d-a26eca611b6f","system_id":"levelo_inurba_marseille","lat":43.31825,"lon":5.39018,"is_reserved":false,"is_disabled":false,"rental_uris":{"android":"levelo://app?vid=86eba5ee-3f3e-465e-879d-a26eca611b6f","ios":"levelo://app?vid=86eba5ee-3f3e-465e-879d-a26eca611b6f"},"vehicle_type_id":"4","last_reported":1706990869,"current_range_meters":20400,"station_id":"","pricing_plan_id":"free"},{"bike_id":"4ab7af74-6693-47d1-98ac-64caf9f2f3e9","system_id":"levelo_inurba_marseille","lat":43.298037,"lon":5.381066,"is_reserved":false,"is_disabled":false,"rental_uris":{"android":"levelo://app?vid=4ab7af74-6693-47d1-98ac-64caf9f2f3e9","ios":"levelo://app?vid=4ab7af74-6693-47d1-98ac-64caf9f2f3e9"},"vehicle_type_id":"4","last_reported":1706990869,"current_range_meters":20800,"station_id":"ce4bgip2rcd13ifvqbb0","pricing_plan_id":"free"},{"bike_id":"de0a6de6-7884-415d-91f7-94f7dea3cf30","system_id":"levelo_inurba_marseille","lat":43.298037,"lon":5.380938,"is_reserved":false,"is_disabled":false,"rental_uris":{"android":"levelo://app?vid=de0a6de6-7884-415d-91f7-94f7dea3cf30","ios":"levelo://app?vid=de0a6de6-7884-415d-91f7-94f7dea3cf30"},"vehicle_type_id":"4","last_reported":1706990869,"current_range_meters":0,"station_id":"ce4bgip2rcd13ifvqbb0","pricing_plan_id":"free"},{"bike_id":"2beb2790-65d1-4a69-9667-45bd607fc632","system_id":"levelo_inurba_marseille","lat":43.298037,"lon":5.381066,"is_reserved":false,"is_disabled":false,"rental_uris":{"android":"levelo://app?vid=2beb2790-65d1-4a69-9667-45bd607fc632","ios":"levelo://app?vid=2beb2790-65d1-4a69-9667-45bd607fc632"},"vehicle_type_id":"4","last_reported":1706990869,"current_range_meters":13600,"station_id":"ce4bgip2rcd13ifvqbb0","pricing_plan_id":"free"},{"bike_id":"02c1d5ca-dc12-4e89-a5d0-4f50b329119b","system_id":"levelo_inurba_marseille","lat":43.30432,"lon":5.38884,"is_reserved":false,"is_disabled":false,"rental_uris":{"android":"levelo://app?vid=02c1d5ca-dc12-4e89-a5d0-4f50b329119b","ios":"levelo://app?vid=02c1d5ca-dc12-4e89-a5d0-4f50b329119b"},"vehicle_type_id":"4","last_reported":1706990869,"current_range_meters":1200,"station_id":"ce4bgk12rcd13ifvqbi0","pricing_plan_id":"free"},{"bike_id":"99e84a08-11f3-4126-a650-ecbf99c05657","system_id":"levelo_inurba_marseille","lat":43.295748,"lon":5.37522,"is_reserved":false,"is_disabled":false,"rental_uris":{"android":"levelo://app?vid=99e84a08-11f3-4126-a650-ecbf99c05657","ios":"levelo://app?vid=99e84a08-11f3-4126-a650-ecbf99c05657"},"vehicle_type_id":"4","last_reported":1706990869,"current_range_meters":7200,"station_id":"ce4bgh92rcd13ifvqb50","pricing_plan_id":"free"},{"bike_id":"ec317815-3fb8-40a1-abec-cc0abf2ea51e","system_id":"levelo_inurba_marseille","lat":43.30431,"lon":5.38889,"is_reserved":false,"is_disabled":false,"rental_uris":{"android":"levelo://app?vid=ec317815-3fb8-40a1-abec-cc0abf2ea51e","ios":"levelo://app?vid=ec317815-3fb8-40a1-abec-cc0abf2ea51e"},"vehicle_type_id":"4","last_reported":1706990869,"current_range_meters":3200,"station_id":"ce4bgk12rcd13ifvqbi0","pricing_plan_id":"free"},{"bike_id":"8ddab245-0e20-4598-a0a8-f2d329f28666","system_id":"levelo_inurba_marseille","lat":43.304324,"lon":5.388942,"is_reserved":false,"is_disabled":false,"rental_uris":{"android":"levelo://app?vid=8ddab245-0e20-4598-a0a8-f2d329f28666","ios":"levelo://app?vid=8ddab245-0e20-4598-a0a8-f2d329f28666"},"vehicle_type_id":"4","last_reported":1706990869,"current_range_meters":5600,"station_id":"ce4bgk12rcd13ifvqbi0","pricing_plan_id":"free"},{"bike_id":"bf6cb17b-c68d-4463-8517-ac0b6075e752","system_id":"levelo_inurba_marseille","lat":43.30426,"lon":5.38894,"is_reserved":false,"is_disabled":false,"rental_uris":{"android":"levelo://app?vid=bf6cb17b-c68d-4463-8517-ac0b6075e752","ios":"levelo://app?vid=bf6cb17b-c68d-4463-8517-ac0b6075e752"},"vehicle_type_id":"4","last_reported":1706990869,"current_range_meters":3600,"station_id":"ce4bgk12rcd13ifvqbi0","pricing_plan_id":"free"},{"bike_id":"fef4f448-289d-4857-a2a1-25dd96b158a5","system_id":"levelo_inurba_marseille","lat":43.304211,"lon":5.388911,"is_reserved":false,"is_disabled":false,"rental_uris":{"android":"levelo://app?vid=fef4f448-289d-4857-a2a1-25dd96b158a5","ios":"levelo://app?vid=fef4f448-289d-4857-a2a1-25dd96b158a5"},"vehicle_type_id":"4","last_reported":1706990869,"current_range_meters":30400,"station_id":"ce4bgk12rcd13ifvqbi0","pricing_plan_id":"free"},{"bike_id":"a234ecca-4f1d-40fd-a9c9-fbb135769320","system_id":"levelo_inurba_marseille","lat":43.304215,"lon":5.388955,"is_reserved":false,"is_disabled":false,"rental_uris":{"android":"levelo://app?vid=a234ecca-4f1d-40fd-a9c9-fbb135769320","ios":"levelo://app?vid=a234ecca-4f1d-40fd-a9c9-fbb135769320"},"vehicle_type_id":"4","last_reported":1706990869,"current_range_meters":3200,"station_id":"ce4bgk12rcd13ifvqbi0","pricing_plan_id":"free"},{"bike_id":"99324dd8-9912-4a52-b85f-a3ae85079896","system_id":"levelo_inurba_marseille","lat":43.295279,"lon":5.375048,"is_reserved":false,"is_disabled":false,"rental_uris":{"android":"levelo://app?vid=99324dd8-9912-4a52-b85f-a3ae85079896","ios":"levelo://app?vid=99324dd8-9912-4a52-b85f-a3ae85079896"},"vehicle_type_id":"4","last_reported":1706990869,"current_range_meters":24400,"station_id":"ce4bgkp2rcd13ifvqbmg","pricing_plan_id":"free"},{"bike_id":"48af7761-1324-408e-b44b-1e5bceca3953","system_id":"levelo_inurba_marseille","lat":43.295279,"lon":5.375048,"is_reserved":false,"is_disabled":false,"rental_uris":{"android":"levelo://app?vid=48af7761-1324-408e-b44b-1e5bceca3953","ios":"levelo://app?vid=48af7761-1324-408e-b44b-1e5bceca3953"},"vehicle_type_id":"4","last_reported":1706990869,"current_range_meters":6800,"station_id":"ce4bgkp2rcd13ifvqbmg","pricing_plan_id":"free"},{"bike_id":"b099ffe3-72ed-420c-bc66-69dfe55e23f7","system_id":"levelo_inurba_marseille","lat":43.299717,"lon":5.384845,"is_reserved":false,"is_disabled":false,"rental_uris":{"android":"levelo://app?vid=b099ffe3-72ed-420c-bc66-69dfe55e23f7","ios":"levelo://app?vid=b099ffe3-72ed-420c-bc66-69dfe55e23f7"},"vehicle_type_id":"4","last_reported":1706990869,"current_range_meters":21600,"station_id":"ce4bgj92rcd13ifvqbd0","pricing_plan_id":"free"},{"bike_id":"c7df2dca-4ee4-4668-80da-8b3aa49b3572","system_id":"levelo_inurba_marseille","lat":43.299724,"lon":5.384848,"is_reserved":false,"is_disabled":false,"rental_uris":{"android":"levelo://app?vid=c7df2dca-4ee4-4668-80da-8b3aa49b3572","ios":"levelo://app?vid=c7df2dca-4ee4-4668-80da-8b3aa49b3572"},"vehicle_type_id":"4","last_reported":1706990869,"current_range_meters":14400,"station_id":"ce4bgj92rcd13ifvqbd0","pricing_plan_id":"free"},{"bike_id":"c714173a-7dd5-472c-9846-cae7edc614de","system_id":"levelo_inurba_marseille","lat":43.299724,"lon":5.371829,"is_reserved":false,"is_disabled":false,"rental_uris":{"android":"levelo://app?vid=c714173a-7dd5-472c-9846-cae7edc614de","ios":"levelo://app?vid=c714173a-7dd5-472c-9846-cae7edc614de"},"vehicle_type_id":"4","last_reported":1706990869,"current_range_meters":11600,"station_id":"ce4bgr92rcd13ifvqc7g","pricing_plan_id":"free"},{"bike_id":"de5e15a5-66a6-4ef8-b5ea-f895a7593010","system_id":"levelo_inurba_marseille","lat":43.299717,"lon":5.384845,"is_reserved":false,"is_disabled":false,"rental_uris":{"android":"levelo://app?vid=de5e15a5-66a6-4ef8-b5ea-f895a7593010","ios":"levelo://app?vid=de5e15a5-66a6-4ef8-b5ea-f895a7593010"},"vehicle_type_id":"4","last_reported":1706990869,"current_range_meters":22800,"station_id":"ce4bgj92rcd13ifvqbd0","pricing_plan_id":"free"},{"bike_id":"b564cad4-c581-46c7-9c50-8440bce08863","system_id":"levelo_inurba_marseille","lat":43.29965,"lon":5.38493,"is_reserved":false,"is_disabled":false,"rental_uris":{"android":"levelo://app?vid=b564cad4-c581-46c7-9c50-8440bce08863","ios":"levelo://app?vid=b564cad4-c581-46c7-9c50-8440bce08863"},"vehicle_type_id":"4","last_reported":1706990869,"current_range_meters":16400,"station_id":"ce4bgj92rcd13ifvqbd0","pricing_plan_id":"free"},{"bike_id":"9885463c-53ee-4795-aa17-1dd46cf57501","system_id":"levelo_inurba_marseille","lat":43.299724,"lon":5.384848,"is_reserved":false,"is_disabled":false,"rental_uris":{"android":"levelo://app?vid=9885463c-53ee-4795-aa17-1dd46cf57501","ios":"levelo://app?vid=9885463c-53ee-4795-aa17-1dd46cf57501"},"vehicle_type_id":"4","last_reported":1706990869,"current_range_meters":15200,"station_id":"ce4bgj92rcd13ifvqbd0","pricing_plan_id":"free"},{"bike_id":"02e5c3ba-d57f-45cd-83a5-34e8a95ace48","system_id":"levelo_inurba_marseille","lat":43.32367,"lon":5.388836,"is_reserved":false,"is_disabled":false,"rental_uris":{"android":"levelo://app?vid=02e5c3ba-d57f-45cd-83a5-34e8a95ace48","ios":"levelo://app?vid=02e5c3ba-d57f-45cd-83a5-34e8a95ace48"},"vehicle_type_id":"4","last_reported":1706990869,"current_range_meters":14400,"station_id":"ce4bhqp2rcd13ifvqhog","pricing_plan_id":"free"},{"bike_id":"c6478534-8a92-48aa-87e2-bf565bc04fb6","system_id":"levelo_inurba_marseille","lat":43.32367,"lon":5.388836,"is_reserved":false,"is_disabled":false,"rental_uris":{"android":"levelo://app?vid=c6478534-8a92-48aa-87e2-bf565bc04fb6","ios":"levelo://app?vid=c6478534-8a92-48aa-87e2-bf565bc04fb6"},"vehicle_type_id":"4","last_reported":1706990869,"current_range_meters":6000,"station_id":"ce4bhqp2rcd13ifvqhog","pricing_plan_id":"free"},{"bike_id":"cee66d04-5de1-4164-8450-732819dac0ea","system_id":"levelo_inurba_marseille","lat":43.32362,"lon":5.38883,"is_reserved":false,"is_disabled":false,"rental_uris":{"android":"levelo://app?vid=cee66d04-5de1-4164-8450-732819dac0ea","ios":"levelo://app?vid=cee66d04-5de1-4164-8450-732819dac0ea"},"vehicle_type_id":"4","last_reported":1706990869,"current_range_meters":1200,"station_id":"ce4bhqp2rcd13ifvqhog","pricing_plan_id":"free"},{"bike_id":"62a9b393-09b1-4b3b-91a3-6352eceb9b04","system_id":"levelo_inurba_marseille","lat":43.32367,"lon":5.388836,"is_reserved":false,"is_disabled":false,"rental_uris":{"android":"levelo://app?vid=62a9b393-09b1-4b3b-91a3-6352eceb9b04","ios":"levelo://app?vid=62a9b393-09b1-4b3b-91a3-6352eceb9b04"},"vehicle_type_id":"4","last_reported":1706990869,"current_range_meters":8000,"station_id":"ce4bhqp2rcd13ifvqhog","pricing_plan_id":"free"},{"bike_id":"5301d215-ac37-4c0b-8c85-e55b2e7ac30e","system_id":"levelo_inurba_marseille","lat":43.32367,"lon":5.38883,"is_reserved":false,"is_disabled":false,"rental_uris":{"android":"levelo://app?vid=5301d215-ac37-4c0b-8c85-e55b2e7ac30e","ios":"levelo://app?vid=5301d215-ac37-4c0b-8c85-e55b2e7ac30e"},"vehicle_type_id":"4","last_reported":1706990869,"current_range_meters":18800,"station_id":"ce4bhqp2rcd13ifvqhog","pricing_plan_id":"free"},{"bike_id":"6ddd6644-0475-4d38-97ea-3c5cc97bcc31","system_id":"levelo_inurba_marseille","lat":43.32367,"lon":5.388836,"is_reserved":false,"is_disabled":false,"rental_uris":{"android":"levelo://app?vid=6ddd6644-0475-4d38-97ea-3c5cc97bcc31","ios":"levelo://app?vid=6ddd6644-0475-4d38-97ea-3c5cc97bcc31"},"vehicle_type_id":"4","last_reported":1706990869,"current_range_meters":12400,"station_id":"ce4bhqp2rcd13ifvqhog","pricing_plan_id":"free"},{"bike_id":"75ed1df4-b7df-4e88-9e9a-696a19f1762a","system_id":"levelo_inurba_marseille","lat":43.32364,"lon":5.38888,"is_reserved":false,"is_disabled":false,"rental_uris":{"android":"levelo://app?vid=75ed1df4-b7df-4e88-9e9a-696a19f1762a","ios":"levelo://app?vid=75ed1df4-b7df-4e88-9e9a-696a19f1762a"},"vehicle_type_id":"4","last_reported":1706990869,"current_range_meters":9600,"station_id":"ce4bhqp2rcd13ifvqhog","pricing_plan_id":"free"},{"bike_id":"86690f2d-bc79-4602-9fc0-888cbe1590d1","system_id":"levelo_inurba_marseille","lat":43.32369,"lon":5.38886,"is_reserved":false,"is_disabled":false,"rental_uris":{"android":"levelo://app?vid=86690f2d-bc79-4602-9fc0-888cbe1590d1","ios":"levelo://app?vid=86690f2d-bc79-4602-9fc0-888cbe1590d1"},"vehicle_type_id":"4","last_reported":1706990869,"current_range_meters":21600,"station_id":"ce4bhqp2rcd13ifvqhog","pricing_plan_id":"free"},{"bike_id":"c25fc67a-bf97-4f21-9916-d0fe78b3e657","system_id":"levelo_inurba_marseille","lat":43.32363,"lon":5.38892,"is_reserved":false,"is_disabled":false,"rental_uris":{"android":"levelo://app?vid=c25fc67a-bf97-4f21-9916-d0fe78b3e657","ios":"levelo://app?vid=c25fc67a-bf97-4f21-9916-d0fe78b3e657"},"vehicle_type_id":"4","last_reported":1706990869,"current_range_meters":24000,"station_id":"ce4bhqp2rcd13ifvqhog","pricing_plan_id":"free"},{"bike_id":"9b081c91-637e-47ff-a6d8-ba13bb5f1be4","system_id":"levelo_inurba_marseille","lat":43.32367,"lon":5.388836,"is_reserved":false,"is_disabled":false,"rental_uris":{"android":"levelo://app?vid=9b081c91-637e-47ff-a6d8-ba13bb5f1be4","ios":"levelo://app?vid=9b081c91-637e-47ff-a6d8-ba13bb5f1be4"},"vehicle_type_id":"4","last_reported":1706990869,"current_range_meters":30000,"station_id":"ce4bhqp2rcd13ifvqhog","pricing_plan_id":"free"},{"bike_id":"bada326b-f60e-4997-aea3-efa7efb925a2","system_id":"levelo_inurba_marseille","lat":43.29602,"lon":5.381084,"is_reserved":false,"is_disabled":false,"rental_uris":{"android":"levelo://app?vid=bada326b-f60e-4997-aea3-efa7efb925a2","ios":"levelo://app?vid=bada326b-f60e-4997-aea3-efa7efb925a2"},"vehicle_type_id":"4","last_reported":1706990869,"current_range_meters":21600,"station_id":"ce4bgl12rcd13ifvqbo0","pricing_plan_id":"free"},{"bike_id":"82110ded-4b75-4ac7-932f-5c18b62855c3","system_id":"levelo_inurba_marseille","lat":43.29602,"lon":5.381084,"is_reserved":false,"is_disabled":false,"rental_uris":{"android":"levelo://app?vid=82110ded-4b75-4ac7-932f-5c18b62855c3","ios":"levelo://app?vid=82110ded-4b75-4ac7-932f-5c18b62855c3"},"vehicle_type_id":"4","last_reported":1706990869,"current_range_meters":0,"station_id":"ce4bgl12rcd13ifvqbo0","pricing_plan_id":"free"},{"bike_id":"b58f6d08-53ca-4365-a518-aa98e59fb592","system_id":"levelo_inurba_marseille","lat":43.29602,"lon":5.381084,"is_reserved":false,"is_disabled":false,"rental_uris":{"android":"levelo://app?vid=b58f6d08-53ca-4365-a518-aa98e59fb592","ios":"levelo://app?vid=b58f6d08-53ca-4365-a518-aa98e59fb592"},"vehicle_type_id":"4","last_reported":1706990869,"current_range_meters":4000,"station_id":"ce4bgl12rcd13ifvqbo0","pricing_plan_id":"free"},{"bike_id":"0d5e9b41-dd05-4089-9fe8-0d2e1981e447","system_id":"levelo_inurba_marseille","lat":43.29602,"lon":5.381084,"is_reserved":false,"is_disabled":false,"rental_uris":{"android":"levelo://app?vid=0d5e9b41-dd05-4089-9fe8-0d2e1981e447","ios":"levelo://app?vid=0d5e9b41-dd05-4089-9fe8-0d2e1981e447"},"vehicle_type_id":"4","last_reported":1706990869,"current_range_meters":5200,"station_id":"ce4bgl12rcd13ifvqbo0","pricing_plan_id":"free"},{"bike_id":"ea20a2ce-90d6-4516-8bd0-120a1b11094e","system_id":"levelo_inurba_marseille","lat":43.29602,"lon":5.381084,"is_reserved":false,"is_disabled":false,"rental_uris":{"android":"levelo://app?vid=ea20a2ce-90d6-4516-8bd0-120a1b11094e","ios":"levelo://app?vid=ea20a2ce-90d6-4516-8bd0-120a1b11094e"},"vehicle_type_id":"4","last_reported":1706990869,"current_range_meters":9600,"station_id":"ce4bgl12rcd13ifvqbo0","pricing_plan_id":"free"},{"bike_id":"816f64e3-f285-49a2-be08-54797e0cf38e","system_id":"levelo_inurba_marseille","lat":43.29602,"lon":5.381084,"is_reserved":false,"is_disabled":false,"rental_uris":{"android":"levelo://app?vid=816f64e3-f285-49a2-be08-54797e0cf38e","ios":"levelo://app?vid=816f64e3-f285-49a2-be08-54797e0cf38e"},"vehicle_type_id":"4","last_reported":1706990869,"current_range_meters":2400,"station_id":"ce4bgl12rcd13ifvqbo0","pricing_plan_id":"free"},{"bike_id":"f43885c6-2f10-482c-943c-32fa24148b8a","system_id":"levelo_inurba_marseille","lat":43.29601,"lon":5.381084,"is_reserved":false,"is_disabled":false,"rental_uris":{"android":"levelo://app?vid=f43885c6-2f10-482c-943c-32fa24148b8a","ios":"levelo://app?vid=f43885c6-2f10-482c-943c-32fa24148b8a"},"vehicle_type_id":"4","last_reported":1706990869,"current_range_meters":26000,"station_id":"ce4bgl12rcd13ifvqbo0","pricing_plan_id":"free"},{"bike_id":"eb4b0f1c-2468-4e49-b385-e79bb7f3f706","system_id":"levelo_inurba_marseille","lat":43.29602,"lon":5.381084,"is_reserved":false,"is_disabled":false,"rental_uris":{"android":"levelo://app?vid=eb4b0f1c-2468-4e49-b385-e79bb7f3f706","ios":"levelo://app?vid=eb4b0f1c-2468-4e49-b385-e79bb7f3f706"},"vehicle_type_id":"4","last_reported":1706990869,"current_range_meters":2800,"station_id":"ce4bgl12rcd13ifvqbo0","pricing_plan_id":"free"},{"bike_id":"20071613-30c5-4b0d-b994-0116ed78292f","system_id":"levelo_inurba_marseille","lat":43.296169,"lon":5.381288,"is_reserved":false,"is_disabled":false,"rental_uris":{"android":"levelo://app?vid=20071613-30c5-4b0d-b994-0116ed78292f","ios":"levelo://app?vid=20071613-30c5-4b0d-b994-0116ed78292f"},"vehicle_type_id":"4","last_reported":1706990869,"current_range_meters":0,"station_id":"","pricing_plan_id":"free"},{"bike_id":"bedab96a-b426-4cc7-b2df-e3e94c4b3676","system_id":"levelo_inurba_marseille","lat":43.29601,"lon":5.381084,"is_reserved":false,"is_disabled":false,"rental_uris":{"android":"levelo://app?vid=bedab96a-b426-4cc7-b2df-e3e94c4b3676","ios":"levelo://app?vid=bedab96a-b426-4cc7-b2df-e3e94c4b3676"},"vehicle_type_id":"4","last_reported":1706990869,"current_range_meters":24400,"station_id":"ce4bgl12rcd13ifvqbo0","pricing_plan_id":"free"},{"bike_id":"cfcabc92-1047-4aa6-8623-574de7ed9b59","system_id":"levelo_inurba_marseille","lat":43.29602,"lon":5.381084,"is_reserved":false,"is_disabled":false,"rental_uris":{"android":"levelo://app?vid=cfcabc92-1047-4aa6-8623-574de7ed9b59","ios":"levelo://app?vid=cfcabc92-1047-4aa6-8623-574de7ed9b59"},"vehicle_type_id":"4","last_reported":1706990869,"current_range_meters":14000,"station_id":"ce4bgl12rcd13ifvqbo0","pricing_plan_id":"free"},{"bike_id":"e8c08b90-43da-49c6-9e84-a9bc91bb7921","system_id":"levelo_inurba_marseille","lat":43.29601,"lon":5.381084,"is_reserved":false,"is_disabled":false,"rental_uris":{"android":"levelo://app?vid=e8c08b90-43da-49c6-9e84-a9bc91bb7921","ios":"levelo://app?vid=e8c08b90-43da-49c6-9e84-a9bc91bb7921"},"vehicle_type_id":"4","last_reported":1706990869,"current_range_meters":19600,"station_id":"ce4bgl12rcd13ifvqbo0","pricing_plan_id":"free"},{"bike_id":"32146f22-f5a7-45ff-8a2d-b77d3fb9a5cb","system_id":"levelo_inurba_marseille","lat":43.29601,"lon":5.38107,"is_reserved":false,"is_disabled":false,"rental_uris":{"android":"levelo://app?vid=32146f22-f5a7-45ff-8a2d-b77d3fb9a5cb","ios":"levelo://app?vid=32146f22-f5a7-45ff-8a2d-b77d3fb9a5cb"},"vehicle_type_id":"4","last_reported":1706990869,"current_range_meters":0,"station_id":"ce4bgl12rcd13ifvqbo0","pricing_plan_id":"free"},{"bike_id":"6700a312-67ce-49bd-a956-7dc370402ede","system_id":"levelo_inurba_marseille","lat":43.293259,"lon":5.371586,"is_reserved":false,"is_disabled":false,"rental_uris":{"android":"levelo://app?vid=6700a312-67ce-49bd-a956-7dc370402ede","ios":"levelo://app?vid=6700a312-67ce-49bd-a956-7dc370402ede"},"vehicle_type_id":"4","last_reported":1706990869,"current_range_meters":29600,"station_id":"ce4bgh92rcd13ifvqb40","pricing_plan_id":"free"},{"bike_id":"21d84b42-646e-4270-91dc-4fe18949c184","system_id":"levelo_inurba_marseille","lat":43.292749,"lon":5.368402,"is_reserved":false,"is_disabled":false,"rental_uris":{"android":"levelo://app?vid=21d84b42-646e-4270-91dc-4fe18949c184","ios":"levelo://app?vid=21d84b42-646e-4270-91dc-4fe18949c184"},"vehicle_type_id":"4","last_reported":1706990869,"current_range_meters":3200,"station_id":"ce4bhbp2rcd13ifvqesg","pricing_plan_id":"free"},{"bike_id":"e6b525b6-1a90-4612-aea8-5f501996728a","system_id":"levelo_inurba_marseille","lat":43.292749,"lon":5.368402,"is_reserved":false,"is_disabled":false,"rental_uris":{"android":"levelo://app?vid=e6b525b6-1a90-4612-aea8-5f501996728a","ios":"levelo://app?vid=e6b525b6-1a90-4612-aea8-5f501996728a"},"vehicle_type_id":"4","last_reported":1706990869,"current_range_meters":0,"station_id":"ce4bhbp2rcd13ifvqesg","pricing_plan_id":"free"},{"bike_id":"4d7527d5-5b3c-4d1a-a13e-998fc6d0566a","system_id":"levelo_inurba_marseille","lat":43.292749,"lon":5.368402,"is_reserved":false,"is_disabled":false,"rental_uris":{"android":"levelo://app?vid=4d7527d5-5b3c-4d1a-a13e-998fc6d0566a","ios":"levelo://app?vid=4d7527d5-5b3c-4d1a-a13e-998fc6d0566a"},"vehicle_type_id":"4","last_reported":1706990869,"current_range_meters":21600,"station_id":"ce4bhbp2rcd13ifvqesg","pricing_plan_id":"free"},{"bike_id":"0219a104-7b81-47d3-9374-d93d13fac6b3","system_id":"levelo_inurba_marseille","lat":43.293259,"lon":5.371586,"is_reserved":false,"is_disabled":false,"rental_uris":{"android":"levelo://app?vid=0219a104-7b81-47d3-9374-d93d13fac6b3","ios":"levelo://app?vid=0219a104-7b81-47d3-9374-d93d13fac6b3"},"vehicle_type_id":"4","last_reported":1706990869,"current_range_meters":8400,"station_id":"ce4bgh92rcd13ifvqb40","pricing_plan_id":"free"},{"bike_id":"5f80181c-d7f1-4311-a895-05d5414cced1","system_id":"levelo_inurba_marseille","lat":43.293249,"lon":5.371578,"is_reserved":false,"is_disabled":false,"rental_uris":{"android":"levelo://app?vid=5f80181c-d7f1-4311-a895-05d5414cced1","ios":"levelo://app?vid=5f80181c-d7f1-4311-a895-05d5414cced1"},"vehicle_type_id":"4","last_reported":1706990869,"current_range_meters":10000,"station_id":"ce4bgh92rcd13ifvqb40","pricing_plan_id":"free"},{"bike_id":"c66b07cd-dd48-4a2a-913e-08cdb77474a1","system_id":"levelo_inurba_marseille","lat":43.29268,"lon":5.36842,"is_reserved":false,"is_disabled":false,"rental_uris":{"android":"levelo://app?vid=c66b07cd-dd48-4a2a-913e-08cdb77474a1","ios":"levelo://app?vid=c66b07cd-dd48-4a2a-913e-08cdb77474a1"},"vehicle_type_id":"4","last_reported":1706990869,"current_range_meters":28000,"station_id":"ce4bhbp2rcd13ifvqesg","pricing_plan_id":"free"},{"bike_id":"a5fe5087-d221-4814-84af-d60a17492723","system_id":"levelo_inurba_marseille","lat":43.305994,"lon":5.393687,"is_reserved":false,"is_disabled":false,"rental_uris":{"android":"levelo://app?vid=a5fe5087-d221-4814-84af-d60a17492723","ios":"levelo://app?vid=a5fe5087-d221-4814-84af-d60a17492723"},"vehicle_type_id":"4","last_reported":1706990869,"current_range_meters":6800,"station_id":"ce4bh0p2rcd13ifvqd80","pricing_plan_id":"free"},{"bike_id":"43df9064-4bae-4055-b31b-3c57815886c1","system_id":"levelo_inurba_marseille","lat":43.305994,"lon":5.393687,"is_reserved":false,"is_disabled":false,"rental_uris":{"android":"levelo://app?vid=43df9064-4bae-4055-b31b-3c57815886c1","ios":"levelo://app?vid=43df9064-4bae-4055-b31b-3c57815886c1"},"vehicle_type_id":"4","last_reported":1706990869,"current_range_meters":12800,"station_id":"ce4bh0p2rcd13ifvqd80","pricing_plan_id":"free"},{"bike_id":"8c0e7f60-2783-4d9e-8a14-997e9f640f66","system_id":"levelo_inurba_marseille","lat":43.305994,"lon":5.393687,"is_reserved":false,"is_disabled":false,"rental_uris":{"android":"levelo://app?vid=8c0e7f60-2783-4d9e-8a14-997e9f640f66","ios":"levelo://app?vid=8c0e7f60-2783-4d9e-8a14-997e9f640f66"},"vehicle_type_id":"4","last_reported":1706990869,"current_range_meters":18000,"station_id":"ce4bh0p2rcd13ifvqd80","pricing_plan_id":"free"},{"bike_id":"28a9718f-78fd-4e10-8fa8-8be404049ec9","system_id":"levelo_inurba_marseille","lat":43.305994,"lon":5.393687,"is_reserved":false,"is_disabled":false,"rental_uris":{"android":"levelo://app?vid=28a9718f-78fd-4e10-8fa8-8be404049ec9","ios":"levelo://app?vid=28a9718f-78fd-4e10-8fa8-8be404049ec9"},"vehicle_type_id":"4","last_reported":1706990869,"current_range_meters":0,"station_id":"ce4bh0p2rcd13ifvqd80","pricing_plan_id":"free"},{"bike_id":"23ef7f18-f2f6-4c9a-99e0-8b5996a1cce3","system_id":"levelo_inurba_marseille","lat":43.305994,"lon":5.393687,"is_reserved":false,"is_disabled":false,"rental_uris":{"android":"levelo://app?vid=23ef7f18-f2f6-4c9a-99e0-8b5996a1cce3","ios":"levelo://app?vid=23ef7f18-f2f6-4c9a-99e0-8b5996a1cce3"},"vehicle_type_id":"4","last_reported":1706990869,"current_range_meters":3600,"station_id":"ce4bh0p2rcd13ifvqd80","pricing_plan_id":"free"},{"bike_id":"55066bd2-1a93-4ec9-9251-38d3ed8faf7d","system_id":"levelo_inurba_marseille","lat":43.305994,"lon":5.393687,"is_reserved":false,"is_disabled":false,"rental_uris":{"android":"levelo://app?vid=55066bd2-1a93-4ec9-9251-38d3ed8faf7d","ios":"levelo://app?vid=55066bd2-1a93-4ec9-9251-38d3ed8faf7d"},"vehicle_type_id":"4","last_reported":1706990869,"current_range_meters":0,"station_id":"ce4bh0p2rcd13ifvqd80","pricing_plan_id":"free"},{"bike_id":"fa328822-48f6-4f94-943c-09beb1b6b590","system_id":"levelo_inurba_marseille","lat":43.305994,"lon":5.393687,"is_reserved":false,"is_disabled":false,"rental_uris":{"android":"levelo://app?vid=fa328822-48f6-4f94-943c-09beb1b6b590","ios":"levelo://app?vid=fa328822-48f6-4f94-943c-09beb1b6b590"},"vehicle_type_id":"4","last_reported":1706990869,"current_range_meters":6400,"station_id":"ce4bh0p2rcd13ifvqd80","pricing_plan_id":"free"},{"bike_id":"96cccf2d-f550-44c7-856b-89a6fd93b509","system_id":"levelo_inurba_marseille","lat":43.305994,"lon":5.393687,"is_reserved":false,"is_disabled":false,"rental_uris":{"android":"levelo://app?vid=96cccf2d-f550-44c7-856b-89a6fd93b509","ios":"levelo://app?vid=96cccf2d-f550-44c7-856b-89a6fd93b509"},"vehicle_type_id":"4","last_reported":1706990869,"current_range_meters":14800,"station_id":"ce4bh0p2rcd13ifvqd80","pricing_plan_id":"free"},{"bike_id":"0d03b5d0-0d6f-4d58-b071-302283e78e27","system_id":"levelo_inurba_marseille","lat":43.303002,"lon":5.392142,"is_reserved":false,"is_disabled":false,"rental_uris":{"android":"levelo://app?vid=0d03b5d0-0d6f-4d58-b071-302283e78e27","ios":"levelo://app?vid=0d03b5d0-0d6f-4d58-b071-302283e78e27"},"vehicle_type_id":"4","last_reported":1706990869,"current_range_meters":11200,"station_id":"ce4bgkh2rcd13ifvqbk0","pricing_plan_id":"free"},{"bike_id":"ed66fb10-7b4d-4627-866e-36e61059c879","system_id":"levelo_inurba_marseille","lat":43.303002,"lon":5.392142,"is_reserved":false,"is_disabled":false,"rental_uris":{"android":"levelo://app?vid=ed66fb10-7b4d-4627-866e-36e61059c879","ios":"levelo://app?vid=ed66fb10-7b4d-4627-866e-36e61059c879"},"vehicle_type_id":"4","last_reported":1706990869,"current_range_meters":9600,"station_id":"ce4bgkh2rcd13ifvqbk0","pricing_plan_id":"free"},{"bike_id":"965f0f0c-006e-4f19-a6d3-d16807ff03b6","system_id":"levelo_inurba_marseille","lat":43.2936,"lon":5.37835,"is_reserved":false,"is_disabled":false,"rental_uris":{"android":"levelo://app?vid=965f0f0c-006e-4f19-a6d3-d16807ff03b6","ios":"levelo://app?vid=965f0f0c-006e-4f19-a6d3-d16807ff03b6"},"vehicle_type_id":"4","last_reported":1706990869,"current_range_meters":26000,"station_id":"ce4bgjh2rcd13ifvqbf0","pricing_plan_id":"free"},{"bike_id":"d7911617-a709-4225-b178-437780b0daf3","system_id":"levelo_inurba_marseille","lat":43.303002,"lon":5.392142,"is_reserved":false,"is_disabled":false,"rental_uris":{"android":"levelo://app?vid=d7911617-a709-4225-b178-437780b0daf3","ios":"levelo://app?vid=d7911617-a709-4225-b178-437780b0daf3"},"vehicle_type_id":"4","last_reported":1706990869,"current_range_meters":26400,"station_id":"ce4bgkh2rcd13ifvqbk0","pricing_plan_id":"free"},{"bike_id":"1eef9dc6-2fa9-4240-b54c-1f857cadc2a6","system_id":"levelo_inurba_marseille","lat":43.303002,"lon":5.392142,"is_reserved":false,"is_disabled":false,"rental_uris":{"android":"levelo://app?vid=1eef9dc6-2fa9-4240-b54c-1f857cadc2a6","ios":"levelo://app?vid=1eef9dc6-2fa9-4240-b54c-1f857cadc2a6"},"vehicle_type_id":"4","last_reported":1706990869,"current_range_meters":28000,"station_id":"ce4bgkh2rcd13ifvqbk0","pricing_plan_id":"free"},{"bike_id":"ab1fcf89-4c49-411c-b188-d8895c0a2567","system_id":"levelo_inurba_marseille","lat":43.303002,"lon":5.392142,"is_reserved":false,"is_disabled":false,"rental_uris":{"android":"levelo://app?vid=ab1fcf89-4c49-411c-b188-d8895c0a2567","ios":"levelo://app?vid=ab1fcf89-4c49-411c-b188-d8895c0a2567"},"vehicle_type_id":"4","last_reported":1706990869,"current_range_meters":31200,"station_id":"ce4bgkh2rcd13ifvqbk0","pricing_plan_id":"free"},{"bike_id":"1094c511-f24d-4a91-a4d0-491d32597f75","system_id":"levelo_inurba_marseille","lat":43.302992,"lon":5.392136,"is_reserved":false,"is_disabled":false,"rental_uris":{"android":"levelo://app?vid=1094c511-f24d-4a91-a4d0-491d32597f75","ios":"levelo://app?vid=1094c511-f24d-4a91-a4d0-491d32597f75"},"vehicle_type_id":"4","last_reported":1706990869,"current_range_meters":10400,"station_id":"ce4bgkh2rcd13ifvqbk0","pricing_plan_id":"free"},{"bike_id":"c128334d-f46c-4159-abab-27bf5dcc281e","system_id":"levelo_inurba_marseille","lat":43.302953,"lon":5.39212,"is_reserved":false,"is_disabled":false,"rental_uris":{"android":"levelo://app?vid=c128334d-f46c-4159-abab-27bf5dcc281e","ios":"levelo://app?vid=c128334d-f46c-4159-abab-27bf5dcc281e"},"vehicle_type_id":"4","last_reported":1706990869,"current_range_meters":5200,"station_id":"ce4bgkh2rcd13ifvqbk0","pricing_plan_id":"free"},{"bike_id":"9a22c1d5-7d6e-4d10-9045-0de62abc57b0","system_id":"levelo_inurba_marseille","lat":43.302992,"lon":5.392136,"is_reserved":false,"is_disabled":false,"rental_uris":{"android":"levelo://app?vid=9a22c1d5-7d6e-4d10-9045-0de62abc57b0","ios":"levelo://app?vid=9a22c1d5-7d6e-4d10-9045-0de62abc57b0"},"vehicle_type_id":"4","last_reported":1706990869,"current_range_meters":19600,"station_id":"ce4bgkh2rcd13ifvqbk0","pricing_plan_id":"free"},{"bike_id":"b8fc969a-6ce3-4dcd-85e0-e6d0afe0964d","system_id":"levelo_inurba_marseille","lat":43.292311,"lon":5.360731,"is_reserved":false,"is_disabled":false,"rental_uris":{"android":"levelo://app?vid=b8fc969a-6ce3-4dcd-85e0-e6d0afe0964d","ios":"levelo://app?vid=b8fc969a-6ce3-4dcd-85e0-e6d0afe0964d"},"vehicle_type_id":"4","last_reported":1706990869,"current_range_meters":11200,"station_id":"ce4bhbh2rcd13ifvqeqg","pricing_plan_id":"free"},{"bike_id":"3ca1ccad-b215-4a4c-8cf9-b4e48a44cf0d","system_id":"levelo_inurba_marseille","lat":43.292311,"lon":5.360731,"is_reserved":false,"is_disabled":false,"rental_uris":{"android":"levelo://app?vid=3ca1ccad-b215-4a4c-8cf9-b4e48a44cf0d","ios":"levelo://app?vid=3ca1ccad-b215-4a4c-8cf9-b4e48a44cf0d"},"vehicle_type_id":"4","last_reported":1706990869,"current_range_meters":0,"station_id":"ce4bhbh2rcd13ifvqeqg","pricing_plan_id":"free"},{"bike_id":"f20ebac8-851c-4e23-93e7-e3113c7f799a","system_id":"levelo_inurba_marseille","lat":43.293009,"lon":5.374584,"is_reserved":false,"is_disabled":false,"rental_uris":{"android":"levelo://app?vid=f20ebac8-851c-4e23-93e7-e3113c7f799a","ios":"levelo://app?vid=f20ebac8-851c-4e23-93e7-e3113c7f799a"},"vehicle_type_id":"4","last_reported":1706990869,"current_range_meters":11600,"station_id":"ce4bgi12rcd13ifvqb70","pricing_plan_id":"free"},{"bike_id":"95e75154-bb11-4fe7-a421-5a0718287c4b","system_id":"levelo_inurba_marseille","lat":43.293009,"lon":5.374584,"is_reserved":false,"is_disabled":false,"rental_uris":{"android":"levelo://app?vid=95e75154-bb11-4fe7-a421-5a0718287c4b","ios":"levelo://app?vid=95e75154-bb11-4fe7-a421-5a0718287c4b"},"vehicle_type_id":"4","last_reported":1706990869,"current_range_meters":14400,"station_id":"ce4bgi12rcd13ifvqb70","pricing_plan_id":"free"},{"bike_id":"74f2d920-ccf9-4c3b-9cd7-57a24e774103","system_id":"levelo_inurba_marseille","lat":43.293009,"lon":5.374584,"is_reserved":false,"is_disabled":false,"rental_uris":{"android":"levelo://app?vid=74f2d920-ccf9-4c3b-9cd7-57a24e774103","ios":"levelo://app?vid=74f2d920-ccf9-4c3b-9cd7-57a24e774103"},"vehicle_type_id":"4","last_reported":1706990869,"current_range_meters":16400,"station_id":"ce4bgi12rcd13ifvqb70","pricing_plan_id":"free"},{"bike_id":"8a1c4b07-0889-448e-9cf3-e1932a74a2dd","system_id":"levelo_inurba_marseille","lat":43.291675,"lon":5.371583,"is_reserved":false,"is_disabled":false,"rental_uris":{"android":"levelo://app?vid=8a1c4b07-0889-448e-9cf3-e1932a74a2dd","ios":"levelo://app?vid=8a1c4b07-0889-448e-9cf3-e1932a74a2dd"},"vehicle_type_id":"4","last_reported":1706990869,"current_range_meters":24800,"station_id":"ce4bha92rcd13ifvqeh0","pricing_plan_id":"free"},{"bike_id":"90190fbd-f073-40ac-aeec-1c5257224979","system_id":"levelo_inurba_marseille","lat":43.298764,"lon":5.388973,"is_reserved":false,"is_disabled":false,"rental_uris":{"android":"levelo://app?vid=90190fbd-f073-40ac-aeec-1c5257224979","ios":"levelo://app?vid=90190fbd-f073-40ac-aeec-1c5257224979"},"vehicle_type_id":"4","last_reported":1706990869,"current_range_meters":400,"station_id":"ce4bh392rcd13ifvqdl0","pricing_plan_id":"free"},{"bike_id":"4c8982e9-a056-466d-b0fe-bf3661d7ce7c","system_id":"levelo_inurba_marseille","lat":43.2936,"lon":5.37835,"is_reserved":false,"is_disabled":false,"rental_uris":{"android":"levelo://app?vid=4c8982e9-a056-466d-b0fe-bf3661d7ce7c","ios":"levelo://app?vid=4c8982e9-a056-466d-b0fe-bf3661d7ce7c"},"vehicle_type_id":"4","last_reported":1706990869,"current_range_meters":24000,"station_id":"ce4bgjh2rcd13ifvqbf0","pricing_plan_id":"free"},{"bike_id":"71d892ca-8afa-4fb8-84fd-1f52ae6d230a","system_id":"levelo_inurba_marseille","lat":43.313291,"lon":5.396838,"is_reserved":false,"is_disabled":false,"rental_uris":{"android":"levelo://app?vid=71d892ca-8afa-4fb8-84fd-1f52ae6d230a","ios":"levelo://app?vid=71d892ca-8afa-4fb8-84fd-1f52ae6d230a"},"vehicle_type_id":"4","last_reported":1706990869,"current_range_meters":28400,"station_id":"ce4bgvp2rcd13ifvqcu0","pricing_plan_id":"free"},{"bike_id":"1a4ab157-e027-4016-98c9-e3d9a903b38f","system_id":"levelo_inurba_marseille","lat":43.313291,"lon":5.396838,"is_reserved":false,"is_disabled":false,"rental_uris":{"android":"levelo://app?vid=1a4ab157-e027-4016-98c9-e3d9a903b38f","ios":"levelo://app?vid=1a4ab157-e027-4016-98c9-e3d9a903b38f"},"vehicle_type_id":"4","last_reported":1706990869,"current_range_meters":24000,"station_id":"ce4bgvp2rcd13ifvqcu0","pricing_plan_id":"free"},{"bike_id":"61386ac0-ab9d-47f6-bacc-e27511b3bdf0","system_id":"levelo_inurba_marseille","lat":43.309038,"lon":5.396546,"is_reserved":false,"is_disabled":false,"rental_uris":{"android":"levelo://app?vid=61386ac0-ab9d-47f6-bacc-e27511b3bdf0","ios":"levelo://app?vid=61386ac0-ab9d-47f6-bacc-e27511b3bdf0"},"vehicle_type_id":"4","last_reported":1706990869,"current_range_meters":3600,"station_id":"ce4bh012rcd13ifvqcv0","pricing_plan_id":"free"},{"bike_id":"68b762b9-a01d-499d-978b-ae9efd62da50","system_id":"levelo_inurba_marseille","lat":43.313291,"lon":5.396838,"is_reserved":false,"is_disabled":false,"rental_uris":{"android":"levelo://app?vid=68b762b9-a01d-499d-978b-ae9efd62da50","ios":"levelo://app?vid=68b762b9-a01d-499d-978b-ae9efd62da50"},"vehicle_type_id":"4","last_reported":1706990869,"current_range_meters":24000,"station_id":"ce4bgvp2rcd13ifvqcu0","pricing_plan_id":"free"},{"bike_id":"e3834bf4-d60c-4991-afc9-80694ad18539","system_id":"levelo_inurba_marseille","lat":43.313208,"lon":5.397035,"is_reserved":false,"is_disabled":false,"rental_uris":{"android":"levelo://app?vid=e3834bf4-d60c-4991-afc9-80694ad18539","ios":"levelo://app?vid=e3834bf4-d60c-4991-afc9-80694ad18539"},"vehicle_type_id":"4","last_reported":1706990869,"current_range_meters":30000,"station_id":"ce4bgvp2rcd13ifvqcu0","pricing_plan_id":"free"},{"bike_id":"b9756c65-bc7a-471d-9836-4020b0d7f2fd","system_id":"levelo_inurba_marseille","lat":43.295325,"lon":5.38539,"is_reserved":false,"is_disabled":false,"rental_uris":{"android":"levelo://app?vid=b9756c65-bc7a-471d-9836-4020b0d7f2fd","ios":"levelo://app?vid=b9756c65-bc7a-471d-9836-4020b0d7f2fd"},"vehicle_type_id":"4","last_reported":1706990869,"current_range_meters":29200,"station_id":"ce4bgih2rcd13ifvqba0","pricing_plan_id":"free"},{"bike_id":"89c02aec-6259-4c1c-a08e-2fa151b567ae","system_id":"levelo_inurba_marseille","lat":43.29529,"lon":5.385581,"is_reserved":false,"is_disabled":false,"rental_uris":{"android":"levelo://app?vid=89c02aec-6259-4c1c-a08e-2fa151b567ae","ios":"levelo://app?vid=89c02aec-6259-4c1c-a08e-2fa151b567ae"},"vehicle_type_id":"4","last_reported":1706990869,"current_range_meters":2400,"station_id":"ce4bgih2rcd13ifvqba0","pricing_plan_id":"free"},{"bike_id":"573585d4-d406-4efe-9c81-6bf96590a98f","system_id":"levelo_inurba_marseille","lat":43.295329,"lon":5.38545,"is_reserved":false,"is_disabled":false,"rental_uris":{"android":"levelo://app?vid=573585d4-d406-4efe-9c81-6bf96590a98f","ios":"levelo://app?vid=573585d4-d406-4efe-9c81-6bf96590a98f"},"vehicle_type_id":"4","last_reported":1706990869,"current_range_meters":21200,"station_id":"ce4bgih2rcd13ifvqba0","pricing_plan_id":"free"},{"bike_id":"b419e424-22b8-44a1-be74-4eea51d4beef","system_id":"levelo_inurba_marseille","lat":43.29529,"lon":5.385581,"is_reserved":false,"is_disabled":false,"rental_uris":{"android":"levelo://app?vid=b419e424-22b8-44a1-be74-4eea51d4beef","ios":"levelo://app?vid=b419e424-22b8-44a1-be74-4eea51d4beef"},"vehicle_type_id":"4","last_reported":1706990869,"current_range_meters":6400,"station_id":"ce4bgih2rcd13ifvqba0","pricing_plan_id":"free"},{"bike_id":"828b32d8-493f-411d-836b-fd38a1777927","system_id":"levelo_inurba_marseille","lat":43.29529,"lon":5.38544,"is_reserved":false,"is_disabled":false,"rental_uris":{"android":"levelo://app?vid=828b32d8-493f-411d-836b-fd38a1777927","ios":"levelo://app?vid=828b32d8-493f-411d-836b-fd38a1777927"},"vehicle_type_id":"4","last_reported":1706990869,"current_range_meters":1600,"station_id":"ce4bgih2rcd13ifvqba0","pricing_plan_id":"free"},{"bike_id":"31721019-c595-405f-84a5-8c32dfbedc9f","system_id":"levelo_inurba_marseille","lat":43.29531,"lon":5.38549,"is_reserved":false,"is_disabled":false,"rental_uris":{"android":"levelo://app?vid=31721019-c595-405f-84a5-8c32dfbedc9f","ios":"levelo://app?vid=31721019-c595-405f-84a5-8c32dfbedc9f"},"vehicle_type_id":"4","last_reported":1706990869,"current_range_meters":21200,"station_id":"ce4bgih2rcd13ifvqba0","pricing_plan_id":"free"},{"bike_id":"07e76bd0-05a4-4ac7-91ce-a5223c00e267","system_id":"levelo_inurba_marseille","lat":43.29529,"lon":5.385581,"is_reserved":false,"is_disabled":false,"rental_uris":{"android":"levelo://app?vid=07e76bd0-05a4-4ac7-91ce-a5223c00e267","ios":"levelo://app?vid=07e76bd0-05a4-4ac7-91ce-a5223c00e267"},"vehicle_type_id":"4","last_reported":1706990869,"current_range_meters":29600,"station_id":"ce4bgih2rcd13ifvqba0","pricing_plan_id":"free"},{"bike_id":"a1a9a077-3678-4c11-a2ce-095917fb7f22","system_id":"levelo_inurba_marseille","lat":43.29529,"lon":5.385581,"is_reserved":false,"is_disabled":false,"rental_uris":{"android":"levelo://app?vid=a1a9a077-3678-4c11-a2ce-095917fb7f22","ios":"levelo://app?vid=a1a9a077-3678-4c11-a2ce-095917fb7f22"},"vehicle_type_id":"4","last_reported":1706990869,"current_range_meters":20800,"station_id":"ce4bgih2rcd13ifvqba0","pricing_plan_id":"free"},{"bike_id":"40047c88-cca7-4cca-a302-08146e9e2b5c","system_id":"levelo_inurba_marseille","lat":43.302145,"lon":5.394498,"is_reserved":false,"is_disabled":false,"rental_uris":{"android":"levelo://app?vid=40047c88-cca7-4cca-a302-08146e9e2b5c","ios":"levelo://app?vid=40047c88-cca7-4cca-a302-08146e9e2b5c"},"vehicle_type_id":"4","last_reported":1706990869,"current_range_meters":0,"station_id":"","pricing_plan_id":"free"},{"bike_id":"63c18ee3-d98d-473a-a2a6-09d601e8b1bb","system_id":"levelo_inurba_marseille","lat":43.30212,"lon":5.39454,"is_reserved":false,"is_disabled":false,"rental_uris":{"android":"levelo://app?vid=63c18ee3-d98d-473a-a2a6-09d601e8b1bb","ios":"levelo://app?vid=63c18ee3-d98d-473a-a2a6-09d601e8b1bb"},"vehicle_type_id":"4","last_reported":1706990869,"current_range_meters":4400,"station_id":"ce4bh0p2rcd13ifvqd70","pricing_plan_id":"free"},{"bike_id":"630604a2-1e3a-4c24-8713-6030b5c93e00","system_id":"levelo_inurba_marseille","lat":43.30213,"lon":5.39458,"is_reserved":false,"is_disabled":false,"rental_uris":{"android":"levelo://app?vid=630604a2-1e3a-4c24-8713-6030b5c93e00","ios":"levelo://app?vid=630604a2-1e3a-4c24-8713-6030b5c93e00"},"vehicle_type_id":"4","last_reported":1706990869,"current_range_meters":27600,"station_id":"ce4bh0p2rcd13ifvqd70","pricing_plan_id":"free"},{"bike_id":"accef661-0fc8-46f5-8498-194658a1b481","system_id":"levelo_inurba_marseille","lat":43.302105,"lon":5.394735,"is_reserved":false,"is_disabled":false,"rental_uris":{"android":"levelo://app?vid=accef661-0fc8-46f5-8498-194658a1b481","ios":"levelo://app?vid=accef661-0fc8-46f5-8498-194658a1b481"},"vehicle_type_id":"4","last_reported":1706990869,"current_range_meters":8800,"station_id":"ce4bh0p2rcd13ifvqd70","pricing_plan_id":"free"},{"bike_id":"02a39fd0-5de0-434f-bd36-bc28f49d8a49","system_id":"levelo_inurba_marseille","lat":43.30208,"lon":5.39482,"is_reserved":false,"is_disabled":false,"rental_uris":{"android":"levelo://app?vid=02a39fd0-5de0-434f-bd36-bc28f49d8a49","ios":"levelo://app?vid=02a39fd0-5de0-434f-bd36-bc28f49d8a49"},"vehicle_type_id":"4","last_reported":1706990869,"current_range_meters":0,"station_id":"ce4bh0p2rcd13ifvqd70","pricing_plan_id":"free"},{"bike_id":"7c755874-04f4-49a7-881c-3dccfea2f0df","system_id":"levelo_inurba_marseille","lat":43.290441,"lon":5.359123,"is_reserved":false,"is_disabled":false,"rental_uris":{"android":"levelo://app?vid=7c755874-04f4-49a7-881c-3dccfea2f0df","ios":"levelo://app?vid=7c755874-04f4-49a7-881c-3dccfea2f0df"},"vehicle_type_id":"4","last_reported":1706990869,"current_range_meters":1600,"station_id":"","pricing_plan_id":"free"},{"bike_id":"8243b683-e2bf-4de0-8f7e-ad7e6c26283d","system_id":"levelo_inurba_marseille","lat":43.29426,"lon":5.38616,"is_reserved":false,"is_disabled":false,"rental_uris":{"android":"levelo://app?vid=8243b683-e2bf-4de0-8f7e-ad7e6c26283d","ios":"levelo://app?vid=8243b683-e2bf-4de0-8f7e-ad7e6c26283d"},"vehicle_type_id":"4","last_reported":1706990869,"current_range_meters":400,"station_id":"ce4bh2h2rcd13ifvqdh0","pricing_plan_id":"free"},{"bike_id":"ebf272b7-1cff-4c06-a4bd-8bc535caa77b","system_id":"levelo_inurba_marseille","lat":43.29427,"lon":5.3862,"is_reserved":false,"is_disabled":false,"rental_uris":{"android":"levelo://app?vid=ebf272b7-1cff-4c06-a4bd-8bc535caa77b","ios":"levelo://app?vid=ebf272b7-1cff-4c06-a4bd-8bc535caa77b"},"vehicle_type_id":"4","last_reported":1706990869,"current_range_meters":7200,"station_id":"ce4bh2h2rcd13ifvqdh0","pricing_plan_id":"free"},{"bike_id":"4b922d65-da28-43ff-8566-e7a2faaec821","system_id":"levelo_inurba_marseille","lat":43.29425,"lon":5.38617,"is_reserved":false,"is_disabled":false,"rental_uris":{"android":"levelo://app?vid=4b922d65-da28-43ff-8566-e7a2faaec821","ios":"levelo://app?vid=4b922d65-da28-43ff-8566-e7a2faaec821"},"vehicle_type_id":"4","last_reported":1706990869,"current_range_meters":9200,"station_id":"ce4bh2h2rcd13ifvqdh0","pricing_plan_id":"free"},{"bike_id":"1ef796cc-5886-4f6d-9af8-5c6417fcf41e","system_id":"levelo_inurba_marseille","lat":43.294217,"lon":5.38619,"is_reserved":false,"is_disabled":false,"rental_uris":{"android":"levelo://app?vid=1ef796cc-5886-4f6d-9af8-5c6417fcf41e","ios":"levelo://app?vid=1ef796cc-5886-4f6d-9af8-5c6417fcf41e"},"vehicle_type_id":"4","last_reported":1706990869,"current_range_meters":25600,"station_id":"ce4bh2h2rcd13ifvqdh0","pricing_plan_id":"free"},{"bike_id":"5487031a-2a84-46e0-b610-f4bfd6922271","system_id":"levelo_inurba_marseille","lat":43.29419,"lon":5.38616,"is_reserved":false,"is_disabled":false,"rental_uris":{"android":"levelo://app?vid=5487031a-2a84-46e0-b610-f4bfd6922271","ios":"levelo://app?vid=5487031a-2a84-46e0-b610-f4bfd6922271"},"vehicle_type_id":"4","last_reported":1706990869,"current_range_meters":9600,"station_id":"ce4bh2h2rcd13ifvqdh0","pricing_plan_id":"free"},{"bike_id":"8ea5725e-f694-4591-8b09-bdf71cc64971","system_id":"levelo_inurba_marseille","lat":43.29424,"lon":5.38628,"is_reserved":false,"is_disabled":false,"rental_uris":{"android":"levelo://app?vid=8ea5725e-f694-4591-8b09-bdf71cc64971","ios":"levelo://app?vid=8ea5725e-f694-4591-8b09-bdf71cc64971"},"vehicle_type_id":"4","last_reported":1706990869,"current_range_meters":20400,"station_id":"ce4bh2h2rcd13ifvqdh0","pricing_plan_id":"free"},{"bike_id":"dc5762a4-2cb1-4177-bb3f-faef7a31d073","system_id":"levelo_inurba_marseille","lat":43.294172,"lon":5.386187,"is_reserved":false,"is_disabled":false,"rental_uris":{"android":"levelo://app?vid=dc5762a4-2cb1-4177-bb3f-faef7a31d073","ios":"levelo://app?vid=dc5762a4-2cb1-4177-bb3f-faef7a31d073"},"vehicle_type_id":"4","last_reported":1706990869,"current_range_meters":3200,"station_id":"ce4bh2h2rcd13ifvqdh0","pricing_plan_id":"free"},{"bike_id":"dc84bcd3-8cd6-4f1c-a8e9-158f2664e737","system_id":"levelo_inurba_marseille","lat":43.29422,"lon":5.38628,"is_reserved":false,"is_disabled":false,"rental_uris":{"android":"levelo://app?vid=dc84bcd3-8cd6-4f1c-a8e9-158f2664e737","ios":"levelo://app?vid=dc84bcd3-8cd6-4f1c-a8e9-158f2664e737"},"vehicle_type_id":"4","last_reported":1706990869,"current_range_meters":4800,"station_id":"ce4bh2h2rcd13ifvqdh0","pricing_plan_id":"free"},{"bike_id":"f3c2e51f-f255-4543-b4f1-9bcda47b5c4b","system_id":"levelo_inurba_marseille","lat":43.294153,"lon":5.386189,"is_reserved":false,"is_disabled":false,"rental_uris":{"android":"levelo://app?vid=f3c2e51f-f255-4543-b4f1-9bcda47b5c4b","ios":"levelo://app?vid=f3c2e51f-f255-4543-b4f1-9bcda47b5c4b"},"vehicle_type_id":"4","last_reported":1706990869,"current_range_meters":24400,"station_id":"ce4bh2h2rcd13ifvqdh0","pricing_plan_id":"free"},{"bike_id":"fb513d5c-4ac7-44de-8998-fc9bd9635ac6","system_id":"levelo_inurba_marseille","lat":43.289184,"lon":5.366408,"is_reserved":false,"is_disabled":false,"rental_uris":{"android":"levelo://app?vid=fb513d5c-4ac7-44de-8998-fc9bd9635ac6","ios":"levelo://app?vid=fb513d5c-4ac7-44de-8998-fc9bd9635ac6"},"vehicle_type_id":"4","last_reported":1706990869,"current_range_meters":16000,"station_id":"ce4bhap2rcd13ifvqek0","pricing_plan_id":"free"},{"bike_id":"2e0ca400-2d0c-4bbf-95b6-9290c083d3c1","system_id":"levelo_inurba_marseille","lat":43.29417,"lon":5.38623,"is_reserved":false,"is_disabled":false,"rental_uris":{"android":"levelo://app?vid=2e0ca400-2d0c-4bbf-95b6-9290c083d3c1","ios":"levelo://app?vid=2e0ca400-2d0c-4bbf-95b6-9290c083d3c1"},"vehicle_type_id":"4","last_reported":1706990869,"current_range_meters":15600,"station_id":"ce4bh2h2rcd13ifvqdh0","pricing_plan_id":"free"},{"bike_id":"e8a89ce3-d196-49dc-aa5f-c46a96854818","system_id":"levelo_inurba_marseille","lat":43.29417,"lon":5.38623,"is_reserved":false,"is_disabled":false,"rental_uris":{"android":"levelo://app?vid=e8a89ce3-d196-49dc-aa5f-c46a96854818","ios":"levelo://app?vid=e8a89ce3-d196-49dc-aa5f-c46a96854818"},"vehicle_type_id":"4","last_reported":1706990869,"current_range_meters":26400,"station_id":"ce4bh2h2rcd13ifvqdh0","pricing_plan_id":"free"},{"bike_id":"1a02061d-9da2-41db-947a-db71348b5675","system_id":"levelo_inurba_marseille","lat":43.29414,"lon":5.38618,"is_reserved":false,"is_disabled":false,"rental_uris":{"android":"levelo://app?vid=1a02061d-9da2-41db-947a-db71348b5675","ios":"levelo://app?vid=1a02061d-9da2-41db-947a-db71348b5675"},"vehicle_type_id":"4","last_reported":1706990869,"current_range_meters":15600,"station_id":"ce4bh2h2rcd13ifvqdh0","pricing_plan_id":"free"},{"bike_id":"1df83f75-787a-4bd5-9532-598b4a173ab6","system_id":"levelo_inurba_marseille","lat":43.29418,"lon":5.38626,"is_reserved":false,"is_disabled":false,"rental_uris":{"android":"levelo://app?vid=1df83f75-787a-4bd5-9532-598b4a173ab6","ios":"levelo://app?vid=1df83f75-787a-4bd5-9532-598b4a173ab6"},"vehicle_type_id":"4","last_reported":1706990869,"current_range_meters":8000,"station_id":"ce4bh2h2rcd13ifvqdh0","pricing_plan_id":"free"},{"bike_id":"21c05452-db41-4f8d-8627-a5a8a81a41e7","system_id":"levelo_inurba_marseille","lat":43.289184,"lon":5.366408,"is_reserved":false,"is_disabled":false,"rental_uris":{"android":"levelo://app?vid=21c05452-db41-4f8d-8627-a5a8a81a41e7","ios":"levelo://app?vid=21c05452-db41-4f8d-8627-a5a8a81a41e7"},"vehicle_type_id":"4","last_reported":1706990869,"current_range_meters":12800,"station_id":"ce4bhap2rcd13ifvqek0","pricing_plan_id":"free"},{"bike_id":"de40eb8c-9ad8-44c7-88ed-a36f83e9d2cd","system_id":"levelo_inurba_marseille","lat":43.29416,"lon":5.38626,"is_reserved":false,"is_disabled":false,"rental_uris":{"android":"levelo://app?vid=de40eb8c-9ad8-44c7-88ed-a36f83e9d2cd","ios":"levelo://app?vid=de40eb8c-9ad8-44c7-88ed-a36f83e9d2cd"},"vehicle_type_id":"4","last_reported":1706990869,"current_range_meters":23600,"station_id":"ce4bh2h2rcd13ifvqdh0","pricing_plan_id":"free"},{"bike_id":"a05ed984-489a-47db-82d1-e1760450fef8","system_id":"levelo_inurba_marseille","lat":43.29416,"lon":5.38626,"is_reserved":false,"is_disabled":false,"rental_uris":{"android":"levelo://app?vid=a05ed984-489a-47db-82d1-e1760450fef8","ios":"levelo://app?vid=a05ed984-489a-47db-82d1-e1760450fef8"},"vehicle_type_id":"4","last_reported":1706990869,"current_range_meters":10000,"station_id":"ce4bh2h2rcd13ifvqdh0","pricing_plan_id":"free"},{"bike_id":"40f6dcc8-e239-40d9-a896-5dcb7e11d058","system_id":"levelo_inurba_marseille","lat":43.289184,"lon":5.366408,"is_reserved":false,"is_disabled":false,"rental_uris":{"android":"levelo://app?vid=40f6dcc8-e239-40d9-a896-5dcb7e11d058","ios":"levelo://app?vid=40f6dcc8-e239-40d9-a896-5dcb7e11d058"},"vehicle_type_id":"4","last_reported":1706990869,"current_range_meters":10400,"station_id":"ce4bhap2rcd13ifvqek0","pricing_plan_id":"free"},{"bike_id":"f7a565cb-a2d5-43a1-bee7-37efa3e6f4cb","system_id":"levelo_inurba_marseille","lat":43.289184,"lon":5.366408,"is_reserved":false,"is_disabled":false,"rental_uris":{"android":"levelo://app?vid=f7a565cb-a2d5-43a1-bee7-37efa3e6f4cb","ios":"levelo://app?vid=f7a565cb-a2d5-43a1-bee7-37efa3e6f4cb"},"vehicle_type_id":"4","last_reported":1706990869,"current_range_meters":29600,"station_id":"ce4bhap2rcd13ifvqek0","pricing_plan_id":"free"},{"bike_id":"c2e52dd0-2c31-4941-a9ad-8b4da2daea66","system_id":"levelo_inurba_marseille","lat":43.2941,"lon":5.38629,"is_reserved":false,"is_disabled":false,"rental_uris":{"android":"levelo://app?vid=c2e52dd0-2c31-4941-a9ad-8b4da2daea66","ios":"levelo://app?vid=c2e52dd0-2c31-4941-a9ad-8b4da2daea66"},"vehicle_type_id":"4","last_reported":1706990869,"current_range_meters":16000,"station_id":"ce4bh2h2rcd13ifvqdh0","pricing_plan_id":"free"},{"bike_id":"2a09a33d-d5eb-443f-a660-33c05bc1bb9e","system_id":"levelo_inurba_marseille","lat":43.289184,"lon":5.366408,"is_reserved":false,"is_disabled":false,"rental_uris":{"android":"levelo://app?vid=2a09a33d-d5eb-443f-a660-33c05bc1bb9e","ios":"levelo://app?vid=2a09a33d-d5eb-443f-a660-33c05bc1bb9e"},"vehicle_type_id":"4","last_reported":1706990869,"current_range_meters":16000,"station_id":"ce4bhap2rcd13ifvqek0","pricing_plan_id":"free"},{"bike_id":"90615a0e-770e-4983-8ffd-cacdd2df2ec2","system_id":"levelo_inurba_marseille","lat":43.289468,"lon":5.363719,"is_reserved":false,"is_disabled":false,"rental_uris":{"android":"levelo://app?vid=90615a0e-770e-4983-8ffd-cacdd2df2ec2","ios":"levelo://app?vid=90615a0e-770e-4983-8ffd-cacdd2df2ec2"},"vehicle_type_id":"4","last_reported":1706990869,"current_range_meters":0,"station_id":"ce4bhc92rcd13ifvqetg","pricing_plan_id":"free"},{"bike_id":"1084e3d5-abae-4222-85e4-bf9038db7525","system_id":"levelo_inurba_marseille","lat":43.290667,"lon":5.35595,"is_reserved":false,"is_disabled":false,"rental_uris":{"android":"levelo://app?vid=1084e3d5-abae-4222-85e4-bf9038db7525","ios":"levelo://app?vid=1084e3d5-abae-4222-85e4-bf9038db7525"},"vehicle_type_id":"4","last_reported":1706990869,"current_range_meters":31200,"station_id":"","pricing_plan_id":"free"},{"bike_id":"377de5f4-7ecc-4ee1-a721-5ab2345ad284","system_id":"levelo_inurba_marseille","lat":43.292642,"lon":5.384254,"is_reserved":false,"is_disabled":false,"rental_uris":{"android":"levelo://app?vid=377de5f4-7ecc-4ee1-a721-5ab2345ad284","ios":"levelo://app?vid=377de5f4-7ecc-4ee1-a721-5ab2345ad284"},"vehicle_type_id":"4","last_reported":1706990869,"current_range_meters":3200,"station_id":"ce4bh692rcd13ifvqea0","pricing_plan_id":"free"},{"bike_id":"8860d9f3-2520-457b-ba00-b78c4412dea4","system_id":"levelo_inurba_marseille","lat":43.29276,"lon":5.38432,"is_reserved":false,"is_disabled":false,"rental_uris":{"android":"levelo://app?vid=8860d9f3-2520-457b-ba00-b78c4412dea4","ios":"levelo://app?vid=8860d9f3-2520-457b-ba00-b78c4412dea4"},"vehicle_type_id":"4","last_reported":1706990869,"current_range_meters":12400,"station_id":"ce4bh692rcd13ifvqea0","pricing_plan_id":"free"},{"bike_id":"fcb3f6b4-6384-4aeb-abe6-befa04f95874","system_id":"levelo_inurba_marseille","lat":43.292644,"lon":5.384257,"is_reserved":false,"is_disabled":false,"rental_uris":{"android":"levelo://app?vid=fcb3f6b4-6384-4aeb-abe6-befa04f95874","ios":"levelo://app?vid=fcb3f6b4-6384-4aeb-abe6-befa04f95874"},"vehicle_type_id":"4","last_reported":1706990869,"current_range_meters":16800,"station_id":"ce4bh692rcd13ifvqea0","pricing_plan_id":"free"},{"bike_id":"a551f69f-23c2-403e-a4eb-1c90f13a2a3e","system_id":"levelo_inurba_marseille","lat":43.292642,"lon":5.384254,"is_reserved":false,"is_disabled":false,"rental_uris":{"android":"levelo://app?vid=a551f69f-23c2-403e-a4eb-1c90f13a2a3e","ios":"levelo://app?vid=a551f69f-23c2-403e-a4eb-1c90f13a2a3e"},"vehicle_type_id":"4","last_reported":1706990869,"current_range_meters":16000,"station_id":"ce4bh692rcd13ifvqea0","pricing_plan_id":"free"},{"bike_id":"72ae8e4d-e832-4ee3-99f5-f9f32284e4c0","system_id":"levelo_inurba_marseille","lat":43.29276,"lon":5.38442,"is_reserved":false,"is_disabled":false,"rental_uris":{"android":"levelo://app?vid=72ae8e4d-e832-4ee3-99f5-f9f32284e4c0","ios":"levelo://app?vid=72ae8e4d-e832-4ee3-99f5-f9f32284e4c0"},"vehicle_type_id":"4","last_reported":1706990869,"current_range_meters":18400,"station_id":"ce4bh692rcd13ifvqea0","pricing_plan_id":"free"},{"bike_id":"ec091992-c8a9-4745-94bf-b33704923c21","system_id":"levelo_inurba_marseille","lat":43.292642,"lon":5.384254,"is_reserved":false,"is_disabled":false,"rental_uris":{"android":"levelo://app?vid=ec091992-c8a9-4745-94bf-b33704923c21","ios":"levelo://app?vid=ec091992-c8a9-4745-94bf-b33704923c21"},"vehicle_type_id":"4","last_reported":1706990869,"current_range_meters":5200,"station_id":"ce4bh692rcd13ifvqea0","pricing_plan_id":"free"},{"bike_id":"fbfc43e4-be8d-4ccf-af14-f13566906234","system_id":"levelo_inurba_marseille","lat":43.292642,"lon":5.384254,"is_reserved":false,"is_disabled":false,"rental_uris":{"android":"levelo://app?vid=fbfc43e4-be8d-4ccf-af14-f13566906234","ios":"levelo://app?vid=fbfc43e4-be8d-4ccf-af14-f13566906234"},"vehicle_type_id":"4","last_reported":1706990869,"current_range_meters":24000,"station_id":"ce4bh692rcd13ifvqea0","pricing_plan_id":"free"},{"bike_id":"c962390a-2bc9-49d9-a368-b54515269491","system_id":"levelo_inurba_marseille","lat":43.292642,"lon":5.384254,"is_reserved":false,"is_disabled":false,"rental_uris":{"android":"levelo://app?vid=c962390a-2bc9-49d9-a368-b54515269491","ios":"levelo://app?vid=c962390a-2bc9-49d9-a368-b54515269491"},"vehicle_type_id":"4","last_reported":1706990869,"current_range_meters":7600,"station_id":"ce4bh692rcd13ifvqea0","pricing_plan_id":"free"},{"bike_id":"3ec79603-f20c-4f51-a833-f132ef4b68d1","system_id":"levelo_inurba_marseille","lat":43.292644,"lon":5.384257,"is_reserved":false,"is_disabled":false,"rental_uris":{"android":"levelo://app?vid=3ec79603-f20c-4f51-a833-f132ef4b68d1","ios":"levelo://app?vid=3ec79603-f20c-4f51-a833-f132ef4b68d1"},"vehicle_type_id":"4","last_reported":1706990869,"current_range_meters":4000,"station_id":"ce4bh692rcd13ifvqea0","pricing_plan_id":"free"},{"bike_id":"d58c80d0-1ba8-45e2-ac7f-27bc719c3e32","system_id":"levelo_inurba_marseille","lat":43.292644,"lon":5.384257,"is_reserved":false,"is_disabled":false,"rental_uris":{"android":"levelo://app?vid=d58c80d0-1ba8-45e2-ac7f-27bc719c3e32","ios":"levelo://app?vid=d58c80d0-1ba8-45e2-ac7f-27bc719c3e32"},"vehicle_type_id":"4","last_reported":1706990869,"current_range_meters":4400,"station_id":"ce4bh692rcd13ifvqea0","pricing_plan_id":"free"},{"bike_id":"d9bf2a45-4eea-46cb-ba90-89d977e571aa","system_id":"levelo_inurba_marseille","lat":43.292642,"lon":5.384254,"is_reserved":false,"is_disabled":false,"rental_uris":{"android":"levelo://app?vid=d9bf2a45-4eea-46cb-ba90-89d977e571aa","ios":"levelo://app?vid=d9bf2a45-4eea-46cb-ba90-89d977e571aa"},"vehicle_type_id":"4","last_reported":1706990869,"current_range_meters":17600,"station_id":"ce4bh692rcd13ifvqea0","pricing_plan_id":"free"},{"bike_id":"80263db5-507b-4e6d-bc60-35b4b72d3dbc","system_id":"levelo_inurba_marseille","lat":43.292642,"lon":5.384254,"is_reserved":false,"is_disabled":false,"rental_uris":{"android":"levelo://app?vid=80263db5-507b-4e6d-bc60-35b4b72d3dbc","ios":"levelo://app?vid=80263db5-507b-4e6d-bc60-35b4b72d3dbc"},"vehicle_type_id":"4","last_reported":1706990869,"current_range_meters":14000,"station_id":"ce4bh692rcd13ifvqea0","pricing_plan_id":"free"},{"bike_id":"06824ab9-6011-449a-8c6b-6d4569ca9bf3","system_id":"levelo_inurba_marseille","lat":43.2927,"lon":5.38455,"is_reserved":false,"is_disabled":false,"rental_uris":{"android":"levelo://app?vid=06824ab9-6011-449a-8c6b-6d4569ca9bf3","ios":"levelo://app?vid=06824ab9-6011-449a-8c6b-6d4569ca9bf3"},"vehicle_type_id":"4","last_reported":1706990869,"current_range_meters":13200,"station_id":"ce4bh692rcd13ifvqea0","pricing_plan_id":"free"},{"bike_id":"52fa2a2d-9a40-4417-89d6-99d84be2536a","system_id":"levelo_inurba_marseille","lat":43.292642,"lon":5.384254,"is_reserved":false,"is_disabled":false,"rental_uris":{"android":"levelo://app?vid=52fa2a2d-9a40-4417-89d6-99d84be2536a","ios":"levelo://app?vid=52fa2a2d-9a40-4417-89d6-99d84be2536a"},"vehicle_type_id":"4","last_reported":1706990869,"current_range_meters":27600,"station_id":"ce4bh692rcd13ifvqea0","pricing_plan_id":"free"},{"bike_id":"066862ef-ec48-469d-a3d1-76111dc51716","system_id":"levelo_inurba_marseille","lat":43.29266,"lon":5.38448,"is_reserved":false,"is_disabled":false,"rental_uris":{"android":"levelo://app?vid=066862ef-ec48-469d-a3d1-76111dc51716","ios":"levelo://app?vid=066862ef-ec48-469d-a3d1-76111dc51716"},"vehicle_type_id":"4","last_reported":1706990869,"current_range_meters":15200,"station_id":"ce4bh692rcd13ifvqea0","pricing_plan_id":"free"},{"bike_id":"954f85cf-6591-4540-b493-92c1f830e4fe","system_id":"levelo_inurba_marseille","lat":43.29259,"lon":5.38438,"is_reserved":false,"is_disabled":false,"rental_uris":{"android":"levelo://app?vid=954f85cf-6591-4540-b493-92c1f830e4fe","ios":"levelo://app?vid=954f85cf-6591-4540-b493-92c1f830e4fe"},"vehicle_type_id":"4","last_reported":1706990869,"current_range_meters":4400,"station_id":"ce4bh692rcd13ifvqea0","pricing_plan_id":"free"},