{"last_updated":1704982022,"ttl":30,"version":"2.2","data":{"bikes":[{"bike_id":"a4582dc0-d8ee-4d1b-a4ba-f9d2a95e8afa","system_id":"levelo_inurba_marseille","lat":43.31341,"lon":5.367098,"is_reserved":false,"is_disabled":false,"rental_uris":{"android":"levelo://app?vid=a4582dc0-d8ee-4d1b-a4ba-f9d2a95e8afa","ios":"levelo://app?vid=a4582dc0-d8ee-4d1b-a4ba-f9d2a95e8afa"},"vehicle_type_id":"4","last_reported":1704982023,"current_range_meters":31600,"station_id":"ce4bgr92rcd13ifvqc6g","pricing_plan_id":"free"},{"bike_id":"be0a8f26-6b54-4ea0-bd92-f87016f02d32","system_id":"levelo_inurba_marseille","lat":43.31341,"lon":5.367098,"is_reserved":false,"is_disabled":false,"rental_uris":{"android":"levelo://app?vid=be0a8f26-6b54-4ea0-bd92-f87016f02d32","ios":"levelo://app?vid=be0a8f26-6b54-4ea0-bd92-f87016f02d32"},"vehicle_type_id":"4","last_reported":1704982023,"current_range_meters":26000,"station_id":"ce4bgr92rcd13ifvqc6g","pricing_plan_id":"free"},{"bike_id":"ea833814-08a4-46f3-9734-1ebaa4bfd0cd","system_id":"levelo_inurba_marseille","lat":43.313391,"lon":5.36706,"is_reserved":false,"is_disabled":false,"rental_uris":{"android":"levelo://app?vid=ea833814-08a4-46f3-9734-1ebaa4bfd0cd","ios":"levelo://app?vid=ea833814-08a4-46f3-9734-1ebaa4bfd0cd"},"vehicle_type_id":"4","last_reported":1704982023,"current_range_meters":31600,"station_id":"ce4bgr92rcd13ifvqc6g","pricing_plan_id":"free"},{"bike_id":"8321b409-3bdb-447f-83b1-4d5187783fc4","system_id":"levelo_inurba_marseille","lat":43.31341,"lon":5.367098,"is_reserved":false,"is_disabled":false,"rental_uris":{"android":"levelo://app?vid=8321b409-3bdb-447f-83b1-4d5187783fc4","ios":"levelo://app?vid=8321b409-3bdb-447f-83b1-4d5187783fc4"},"vehicle_type_id":"4","last_reported":1704982023,"current_range_meters":16000,"station_id":"ce4bgr92rcd13ifvqc6g","pricing_plan_id":"free"},{"bike_id":"465908d4-acca-4a87-ab5b-335d9fb4cfca","system_id":"levelo_inurba_marseille","lat":43.313391,"lon":5.36706,"is_reserved":false,"is_disabled":false,"rental_uris":{"android":"levelo://app?vid=465908d4-acca-4a87-ab5b-335d9fb4cfca","ios":"levelo://app?vid=465908d4-acca-4a87-ab5b-335d9fb4cfca"},"vehicle_type_id":"4","last_reported":1704982023,"current_range_meters":4400,"station_id":"ce4bgr92rcd13ifvqc6g","pricing_plan_id":"free"},{"bike_id":"2b0a700f-35b7-4a30-9474-c1e17ee3bcfe","system_id":"levelo_inurba_marseille","lat":43.31341,"lon":5.367098,"is_reserved":false,"is_disabled":false,"rental_uris":{"android":"levelo://app?vid=2b0a700f-35b7-4a30-9474-c1e17ee3bcfe","ios":"levelo://app?vid=2b0a700f-35b7-4a30-9474-c1e17ee3bcfe"},"vehicle_type_id":"4","last_reported":1704982023,"current_range_meters":31600,"station_id":"ce4bgr92rcd13ifvqc6g","pricing_plan_id":"free"},{"bike_id":"f016485e-2d65-40e4-adf5-6a554fefcd16","system_id":"levelo_inurba_marseille","lat":43.313391,"lon":5.36706,"is_reserved":false,"is_disabled":false,"rental_uris":{"android":"levelo://app?vid=f016485e-2d65-40e4-adf5-6a554fefcd16","ios":"levelo://app?vid=f016485e-2d65-40e4-adf5-6a554fefcd16"},"vehicle_type_id":"4","last_reported":1704982023,"current_range_meters":26000,"station_id":"ce4bgr92rcd13ifvqc6g","pricing_plan_id":"free"},{"bike_id":"d13fb0d0-dfae-459a-b542-08b761171e81","system_id":"levelo_inurba_marseille","lat":43.313391,"lon":5.36706,"is_reserved":false,"is_disabled":false,"rental_uris":{"android":"levelo://app?vid=d13fb0d0-dfae-459a-b542-08b761171e81","ios":"levelo://app?vid=d13fb0d0-dfae-459a-b542-08b761171e81"},"vehicle_type_id":"4","last_reported":1704982023,"current_range_meters":30800,"station_id":"ce4bgr92rcd13ifvqc6g","pricing_plan_id":"free"},{"bike_id":"7554fd6e-16ec-4521-88c4-b73368054538","system_id":"levelo_inurba_marseille","lat":43.31341,"lon":5.367098,"is_reserved":false,"is_disabled":false,"rental_uris":{"android":"levelo://app?vid=7554fd6e-16ec-4521-88c4-b73368054538","ios":"levelo://app?vid=7554fd6e-16ec-4521-88c4-b73368054538"},"vehicle_type_id":"4","last_reported":1704982023,"current_range_meters":7600,"station_id":"ce4bgr92rcd13ifvqc6g","pricing_plan_id":"free"},{"bike_id":"0ac9ca09-867d-4f8a-8afb-4ad4563f1073","system_id":"levelo_inurba_marseille","lat":43.31341,"lon":5.367098,"is_reserved":false,"is_disabled":false,"rental_uris":{"android":"levelo://app?vid=0ac9ca09-867d-4f8a-8afb-4ad4563f1073","ios":"levelo://app?vid=0ac9ca09-867d-4f8a-8afb-4ad4563f1073"},"vehicle_type_id":"4","last_reported":1704982023,"current_range_meters":20000,"station_id":"ce4bgr92rcd13ifvqc6g","pricing_plan_id":"free"},{"bike_id":"2f7f7806-2042-4e6f-b6bb-3ac62ee9e25e","system_id":"levelo_inurba_marseille","lat":43.312239,"lon":5.368562,"is_reserved":false,"is_disabled":false,"rental_uris":{"android":"levelo://app?vid=2f7f7806-2042-4e6f-b6bb-3ac62ee9e25e","ios":"levelo://app?vid=2f7f7806-2042-4e6f-b6bb-3ac62ee9e25e"},"vehicle_type_id":"4","last_reported":1704982023,"current_range_meters":28000,"station_id":"ce4bgl92rcd13ifvqbq0","pricing_plan_id":"free"},{"bike_id":"e9aaa316-6a17-4234-930f-1c8d41a7245e","system_id":"levelo_inurba_marseille","lat":43.312239,"lon":5.368562,"is_reserved":false,"is_disabled":false,"rental_uris":{"android":"levelo://app?vid=e9aaa316-6a17-4234-930f-1c8d41a7245e","ios":"levelo://app?vid=e9aaa316-6a17-4234-930f-1c8d41a7245e"},"vehicle_type_id":"4","last_reported":1704982023,"current_range_meters":30800,"station_id":"ce4bgl92rcd13ifvqbq0","pricing_plan_id":"free"},{"bike_id":"b6eab470-9a21-45ef-9550-87eba21afb24","system_id":"levelo_inurba_marseille","lat":43.309076,"lon":5.368465,"is_reserved":false,"is_disabled":false,"rental_uris":{"android":"levelo://app?vid=b6eab470-9a21-45ef-9550-87eba21afb24","ios":"levelo://app?vid=b6eab470-9a21-45ef-9550-87eba21afb24"},"vehicle_type_id":"4","last_reported":1704982023,"current_range_meters":31200,"station_id":"ce4bgn92rcd13ifvqbvg","pricing_plan_id":"free"},{"bike_id":"0a376513-190f-4197-a727-7583645252f5","system_id":"levelo_inurba_marseille","lat":43.309076,"lon":5.368465,"is_reserved":false,"is_disabled":false,"rental_uris":{"android":"levelo://app?vid=0a376513-190f-4197-a727-7583645252f5","ios":"levelo://app?vid=0a376513-190f-4197-a727-7583645252f5"},"vehicle_type_id":"4","last_reported":1704982023,"current_range_meters":29200,"station_id":"ce4bgn92rcd13ifvqbvg","pricing_plan_id":"free"},{"bike_id":"7d31b69e-8275-4300-a965-f1ebf38fde33","system_id":"levelo_inurba_marseille","lat":43.309076,"lon":5.368465,"is_reserved":false,"is_disabled":false,"rental_uris":{"android":"levelo://app?vid=7d31b69e-8275-4300-a965-f1ebf38fde33","ios":"levelo://app?vid=7d31b69e-8275-4300-a965-f1ebf38fde33"},"vehicle_type_id":"4","last_reported":1704982023,"current_range_meters":31200,"station_id":"ce4bgn92rcd13ifvqbvg","pricing_plan_id":"free"},{"bike_id":"bca6b3a0-ba6a-49f9-81d9-5c3cac7f116e","system_id":"levelo_inurba_marseille","lat":43.314811,"lon":5.373104,"is_reserved":false,"is_disabled":false,"rental_uris":{"android":"levelo://app?vid=bca6b3a0-ba6a-49f9-81d9-5c3cac7f116e","ios":"levelo://app?vid=bca6b3a0-ba6a-49f9-81d9-5c3cac7f116e"},"vehicle_type_id":"4","last_reported":1704982023,"current_range_meters":31200,"station_id":"ce4bgt12rcd13ifvqcd0","pricing_plan_id":"free"},{"bike_id":"7b3b699f-3f99-4e35-89af-d56ef1f73cc7","system_id":"levelo_inurba_marseille","lat":43.31503,"lon":5.37288,"is_reserved":false,"is_disabled":false,"rental_uris":{"android":"levelo://app?vid=7b3b699f-3f99-4e35-89af-d56ef1f73cc7","ios":"levelo://app?vid=7b3b699f-3f99-4e35-89af-d56ef1f73cc7"},"vehicle_type_id":"4","last_reported":1704982023,"current_range_meters":20400,"station_id":"ce4bgt12rcd13ifvqcd0","pricing_plan_id":"free"},{"bike_id":"436c442e-ff76-4474-8f52-9a44458c32d0","system_id":"levelo_inurba_marseille","lat":43.314811,"lon":5.373103,"is_reserved":false,"is_disabled":false,"rental_uris":{"android":"levelo://app?vid=436c442e-ff76-4474-8f52-9a44458c32d0","ios":"levelo://app?vid=436c442e-ff76-4474-8f52-9a44458c32d0"},"vehicle_type_id":"4","last_reported":1704982023,"current_range_meters":31600,"station_id":"ce4bgt12rcd13ifvqcd0","pricing_plan_id":"free"},{"bike_id":"c95dc28e-5086-475c-b07e-8f5a2cfb01f3","system_id":"levelo_inurba_marseille","lat":43.314811,"lon":5.373104,"is_reserved":false,"is_disabled":false,"rental_uris":{"android":"levelo://app?vid=c95dc28e-5086-475c-b07e-8f5a2cfb01f3","ios":"levelo://app?vid=c95dc28e-5086-475c-b07e-8f5a2cfb01f3"},"vehicle_type_id":"4","last_reported":1704982023,"current_range_meters":30800,"station_id":"ce4bgt12rcd13ifvqcd0","pricing_plan_id":"free"},{"bike_id":"27181424-0862-4d8a-ac90-b8ab2b380983","system_id":"levelo_inurba_marseille","lat":43.314811,"lon":5.373103,"is_reserved":false,"is_disabled":false,"rental_uris":{"android":"levelo://app?vid=27181424-0862-4d8a-ac90-b8ab2b380983","ios":"levelo://app?vid=27181424-0862-4d8a-ac90-b8ab2b380983"},"vehicle_type_id":"4","last_reported":1704982023,"current_range_meters":31600,"station_id":"ce4bgt12rcd13ifvqcd0","pricing_plan_id":"free"},{"bike_id":"53c6a9a1-76e0-4964-8feb-685f030c6c64","system_id":"levelo_inurba_marseille","lat":43.314811,"lon":5.373103,"is_reserved":false,"is_disabled":false,"rental_uris":{"android":"levelo://app?vid=53c6a9a1-76e0-4964-8feb-685f030c6c64","ios":"levelo://app?vid=53c6a9a1-76e0-4964-8feb-685f030c6c64"},"vehicle_type_id":"4","last_reported":1704982023,"current_range_meters":21600,"station_id":"ce4bgt12rcd13ifvqcd0","pricing_plan_id":"free"},{"bike_id":"35237119-e23c-40e7-b051-ed055c93e41a","system_id":"levelo_inurba_marseille","lat":43.31481,"lon":5.37313,"is_reserved":false,"is_disabled":false,"rental_uris":{"android":"levelo://app?vid=35237119-e23c-40e7-b051-ed055c93e41a","ios":"levelo://app?vid=35237119-e23c-40e7-b051-ed055c93e41a"},"vehicle_type_id":"4","last_reported":1704982023,"current_range_meters":22000,"station_id":"ce4bgt12rcd13ifvqcd0","pricing_plan_id":"free"},{"bike_id":"2b93041a-d2a4-4bfe-afc8-bfc5f1b84446","system_id":"levelo_inurba_marseille","lat":43.309039,"lon":5.371797,"is_reserved":false,"is_disabled":false,"rental_uris":{"android":"levelo://app?vid=2b93041a-d2a4-4bfe-afc8-bfc5f1b84446","ios":"levelo://app?vid=2b93041a-d2a4-4bfe-afc8-bfc5f1b84446"},"vehicle_type_id":"4","last_reported":1704982023,"current_range_meters":28400,"station_id":"ce4bguh2rcd13ifvqckg","pricing_plan_id":"free"},{"bike_id":"4ee3535d-451d-4e97-a771-2b6d90823c8d","system_id":"levelo_inurba_marseille","lat":43.30878,"lon":5.372,"is_reserved":false,"is_disabled":false,"rental_uris":{"android":"levelo://app?vid=4ee3535d-451d-4e97-a771-2b6d90823c8d","ios":"levelo://app?vid=4ee3535d-451d-4e97-a771-2b6d90823c8d"},"vehicle_type_id":"4","last_reported":1704982023,"current_range_meters":18800,"station_id":"ce4bguh2rcd13ifvqckg","pricing_plan_id":"free"},{"bike_id":"2003e1e4-c5c4-42d0-873e-ac89e80cb7d7","system_id":"levelo_inurba_marseille","lat":43.306169,"lon":5.367231,"is_reserved":false,"is_disabled":false,"rental_uris":{"android":"levelo://app?vid=2003e1e4-c5c4-42d0-873e-ac89e80cb7d7","ios":"levelo://app?vid=2003e1e4-c5c4-42d0-873e-ac89e80cb7d7"},"vehicle_type_id":"4","last_reported":1704982023,"current_range_meters":18400,"station_id":"","pricing_plan_id":"free"},{"bike_id":"5ba8bf84-a7e9-44a5-bbf7-de8c887d6ce9","system_id":"levelo_inurba_marseille","lat":43.305368,"lon":5.367343,"is_reserved":false,"is_disabled":false,"rental_uris":{"android":"levelo://app?vid=5ba8bf84-a7e9-44a5-bbf7-de8c887d6ce9","ios":"levelo://app?vid=5ba8bf84-a7e9-44a5-bbf7-de8c887d6ce9"},"vehicle_type_id":"4","last_reported":1704982023,"current_range_meters":22800,"station_id":"ce4bgrp2rcd13ifvqc9g","pricing_plan_id":"free"},{"bike_id":"d6e5a1a5-1909-4221-8de2-6b05c9678dcf","system_id":"levelo_inurba_marseille","lat":43.305368,"lon":5.367343,"is_reserved":false,"is_disabled":false,"rental_uris":{"android":"levelo://app?vid=d6e5a1a5-1909-4221-8de2-6b05c9678dcf","ios":"levelo://app?vid=d6e5a1a5-1909-4221-8de2-6b05c9678dcf"},"vehicle_type_id":"4","last_reported":1704982023,"current_range_meters":20400,"station_id":"ce4bgrp2rcd13ifvqc9g","pricing_plan_id":"free"},{"bike_id":"53fc194b-c6ec-4c70-92c1-9f715e9dfbfc","system_id":"levelo_inurba_marseille","lat":43.305714,"lon":5.365633,"is_reserved":false,"is_disabled":false,"rental_uris":{"android":"levelo://app?vid=53fc194b-c6ec-4c70-92c1-9f715e9dfbfc","ios":"levelo://app?vid=53fc194b-c6ec-4c70-92c1-9f715e9dfbfc"},"vehicle_type_id":"4","last_reported":1704982023,"current_range_meters":31200,"station_id":"ce4bgs12rcd13ifvqcag","pricing_plan_id":"free"},{"bike_id":"f8f2aeff-31e2-4eff-847e-6f782dafbae9","system_id":"levelo_inurba_marseille","lat":43.305706,"lon":5.365654,"is_reserved":false,"is_disabled":false,"rental_uris":{"android":"levelo://app?vid=f8f2aeff-31e2-4eff-847e-6f782dafbae9","ios":"levelo://app?vid=f8f2aeff-31e2-4eff-847e-6f782dafbae9"},"vehicle_type_id":"4","last_reported":1704982023,"current_range_meters":26000,"station_id":"ce4bgs12rcd13ifvqcag","pricing_plan_id":"free"},{"bike_id":"c7be06e3-5125-4bd3-b6a6-cc535d34ba95","system_id":"levelo_inurba_marseille","lat":43.305706,"lon":5.365654,"is_reserved":false,"is_disabled":false,"rental_uris":{"android":"levelo://app?vid=c7be06e3-5125-4bd3-b6a6-cc535d34ba95","ios":"levelo://app?vid=c7be06e3-5125-4bd3-b6a6-cc535d34ba95"},"vehicle_type_id":"4","last_reported":1704982023,"current_range_meters":26800,"station_id":"ce4bgs12rcd13ifvqcag","pricing_plan_id":"free"},{"bike_id":"f66f28ba-39e7-48b9-a2e5-8c7d5196986b","system_id":"levelo_inurba_marseille","lat":43.305706,"lon":5.365654,"is_reserved":false,"is_disabled":false,"rental_uris":{"android":"levelo://app?vid=f66f28ba-39e7-48b9-a2e5-8c7d5196986b","ios":"levelo://app?vid=f66f28ba-39e7-48b9-a2e5-8c7d5196986b"},"vehicle_type_id":"4","last_reported":1704982023,"current_range_meters":8800,"station_id":"ce4bgs12rcd13ifvqcag","pricing_plan_id":"free"},{"bike_id":"93812adc-2e9b-4c26-afc3-652c32ca6fd7","system_id":"levelo_inurba_marseille","lat":43.305706,"lon":5.365654,"is_reserved":false,"is_disabled":false,"rental_uris":{"android":"levelo://app?vid=93812adc-2e9b-4c26-afc3-652c32ca6fd7","ios":"levelo://app?vid=93812adc-2e9b-4c26-afc3-652c32ca6fd7"},"vehicle_type_id":"4","last_reported":1704982023,"current_range_meters":24000,"station_id":"ce4bgs12rcd13ifvqcag","pricing_plan_id":"free"},{"bike_id":"10519b12-2e79-4c72-94d6-0e582932887e","system_id":"levelo_inurba_marseille","lat":43.305706,"lon":5.365654,"is_reserved":false,"is_disabled":false,"rental_uris":{"android":"levelo://app?vid=10519b12-2e79-4c72-94d6-0e582932887e","ios":"levelo://app?vid=10519b12-2e79-4c72-94d6-0e582932887e"},"vehicle_type_id":"4","last_reported":1704982023,"current_range_meters":28000,"station_id":"ce4bgs12rcd13ifvqcag","pricing_plan_id":"free"},{"bike_id":"9a3ee7e2-7126-42cc-a34c-432e183fe796","system_id":"levelo_inurba_marseille","lat":43.305368,"lon":5.367343,"is_reserved":false,"is_disabled":false,"rental_uris":{"android":"levelo://app?vid=9a3ee7e2-7126-42cc-a34c-432e183fe796","ios":"levelo://app?vid=9a3ee7e2-7126-42cc-a34c-432e183fe796"},"vehicle_type_id":"4","last_reported":1704982023,"current_range_meters":24000,"station_id":"ce4bgrp2rcd13ifvqc9g","pricing_plan_id":"free"},{"bike_id":"eed8c79d-14f0-4974-97b2-52699b5cd58b","system_id":"levelo_inurba_marseille","lat":43.305706,"lon":5.365654,"is_reserved":false,"is_disabled":false,"rental_uris":{"android":"levelo://app?vid=eed8c79d-14f0-4974-97b2-52699b5cd58b","ios":"levelo://app?vid=eed8c79d-14f0-4974-97b2-52699b5cd58b"},"vehicle_type_id":"4","last_reported":1704982023,"current_range_meters":31200,"station_id":"ce4bgs12rcd13ifvqcag","pricing_plan_id":"free"},{"bike_id":"7d184e1d-b6ce-40c2-8486-ad5df2eb87d5","system_id":"levelo_inurba_marseille","lat":43.305368,"lon":5.367343,"is_reserved":false,"is_disabled":false,"rental_uris":{"android":"levelo://app?vid=7d184e1d-b6ce-40c2-8486-ad5df2eb87d5","ios":"levelo://app?vid=7d184e1d-b6ce-40c2-8486-ad5df2eb87d5"},"vehicle_type_id":"4","last_reported":1704982023,"current_range_meters":20800,"station_id":"ce4bgrp2rcd13ifvqc9g","pricing_plan_id":"free"},{"bike_id":"56f19692-3670-461d-b20e-12fa44dc8b06","system_id":"levelo_inurba_marseille","lat":43.305714,"lon":5.365633,"is_reserved":false,"is_disabled":false,"rental_uris":{"android":"levelo://app?vid=56f19692-3670-461d-b20e-12fa44dc8b06","ios":"levelo://app?vid=56f19692-3670-461d-b20e-12fa44dc8b06"},"vehicle_type_id":"4","last_reported":1704982023,"current_range_meters":19200,"station_id":"ce4bgs12rcd13ifvqcag","pricing_plan_id":"free"},{"bike_id":"7d06f086-f5b6-4fcd-8132-1f7d131e5246","system_id":"levelo_inurba_marseille","lat":43.305989,"lon":5.37225,"is_reserved":false,"is_disabled":false,"rental_uris":{"android":"levelo://app?vid=7d06f086-f5b6-4fcd-8132-1f7d131e5246","ios":"levelo://app?vid=7d06f086-f5b6-4fcd-8132-1f7d131e5246"},"vehicle_type_id":"4","last_reported":1704982023,"current_range_meters":19600,"station_id":"ce4bgqh2rcd13ifvqc4g","pricing_plan_id":"free"},{"bike_id":"fc6bb212-a09a-46f0-b4cd-d138da0f6fc0","system_id":"levelo_inurba_marseille","lat":43.311131,"lon":5.377651,"is_reserved":false,"is_disabled":false,"rental_uris":{"android":"levelo://app?vid=fc6bb212-a09a-46f0-b4cd-d138da0f6fc0","ios":"levelo://app?vid=fc6bb212-a09a-46f0-b4cd-d138da0f6fc0"},"vehicle_type_id":"4","last_reported":1704982023,"current_range_meters":10800,"station_id":"ce4bgt92rcd13ifvqcg0","pricing_plan_id":"free"},{"bike_id":"24424948-fccd-4483-9033-6af167e41b60","system_id":"levelo_inurba_marseille","lat":43.311227,"lon":5.377657,"is_reserved":false,"is_disabled":false,"rental_uris":{"android":"levelo://app?vid=24424948-fccd-4483-9033-6af167e41b60","ios":"levelo://app?vid=24424948-fccd-4483-9033-6af167e41b60"},"vehicle_type_id":"4","last_reported":1704982023,"current_range_meters":22800,"station_id":"ce4bgt92rcd13ifvqcg0","pricing_plan_id":"free"},{"bike_id":"d3a0f49f-c5c3-40ab-bbe8-35e89175ed07","system_id":"levelo_inurba_marseille","lat":43.311131,"lon":5.377651,"is_reserved":false,"is_disabled":false,"rental_uris":{"android":"levelo://app?vid=d3a0f49f-c5c3-40ab-bbe8-35e89175ed07","ios":"levelo://app?vid=d3a0f49f-c5c3-40ab-bbe8-35e89175ed07"},"vehicle_type_id":"4","last_reported":1704982023,"current_range_meters":3200,"station_id":"ce4bgt92rcd13ifvqcg0","pricing_plan_id":"free"},{"bike_id":"160e5d29-4a22-4889-803a-54437ce05139","system_id":"levelo_inurba_marseille","lat":43.311131,"lon":5.377651,"is_reserved":false,"is_disabled":false,"rental_uris":{"android":"levelo://app?vid=160e5d29-4a22-4889-803a-54437ce05139","ios":"levelo://app?vid=160e5d29-4a22-4889-803a-54437ce05139"},"vehicle_type_id":"4","last_reported":1704982023,"current_range_meters":26000,"station_id":"ce4bgt92rcd13ifvqcg0","pricing_plan_id":"free"},{"bike_id":"5b2dd3a1-9697-45fc-8be7-22b1867b70bc","system_id":"levelo_inurba_marseille","lat":43.307945,"lon":5.376487,"is_reserved":false,"is_disabled":false,"rental_uris":{"android":"levelo://app?vid=5b2dd3a1-9697-45fc-8be7-22b1867b70bc","ios":"levelo://app?vid=5b2dd3a1-9697-45fc-8be7-22b1867b70bc"},"vehicle_type_id":"4","last_reported":1704982023,"current_range_meters":26000,"station_id":"ce4bgv92rcd13ifvqcq0","pricing_plan_id":"free"},{"bike_id":"165c44c3-e8a0-4172-8aad-c6feef469871","system_id":"levelo_inurba_marseille","lat":43.307945,"lon":5.376487,"is_reserved":false,"is_disabled":false,"rental_uris":{"android":"levelo://app?vid=165c44c3-e8a0-4172-8aad-c6feef469871","ios":"levelo://app?vid=165c44c3-e8a0-4172-8aad-c6feef469871"},"vehicle_type_id":"4","last_reported":1704982023,"current_range_meters":22000,"station_id":"ce4bgv92rcd13ifvqcq0","pricing_plan_id":"free"},{"bike_id":"6037dcd5-149c-4903-b2fd-d261e491b3b8","system_id":"levelo_inurba_marseille","lat":43.317075,"lon":5.377367,"is_reserved":false,"is_disabled":false,"rental_uris":{"android":"levelo://app?vid=6037dcd5-149c-4903-b2fd-d261e491b3b8","ios":"levelo://app?vid=6037dcd5-149c-4903-b2fd-d261e491b3b8"},"vehicle_type_id":"4","last_reported":1704982023,"current_range_meters":12000,"station_id":"ce4bgth2rcd13ifvqch0","pricing_plan_id":"free"},{"bike_id":"4d461b85-1a0e-4623-8399-e9448b273b12","system_id":"levelo_inurba_marseille","lat":43.317075,"lon":5.377367,"is_reserved":false,"is_disabled":false,"rental_uris":{"android":"levelo://app?vid=4d461b85-1a0e-4623-8399-e9448b273b12","ios":"levelo://app?vid=4d461b85-1a0e-4623-8399-e9448b273b12"},"vehicle_type_id":"4","last_reported":1704982023,"current_range_meters":31600,"station_id":"ce4bgth2rcd13ifvqch0","pricing_plan_id":"free"},{"bike_id":"4703778a-a799-41e5-b078-4160f07f1fec","system_id":"levelo_inurba_marseille","lat":43.317075,"lon":5.377367,"is_reserved":false,"is_disabled":false,"rental_uris":{"android":"levelo://app?vid=4703778a-a799-41e5-b078-4160f07f1fec","ios":"levelo://app?vid=4703778a-a799-41e5-b078-4160f07f1fec"},"vehicle_type_id":"4","last_reported":1704982023,"current_range_meters":23600,"station_id":"ce4bgth2rcd13ifvqch0","pricing_plan_id":"free"},{"bike_id":"4fb6c33f-6a2d-4cb9-b5f5-71a4f8b0b1b3","system_id":"levelo_inurba_marseille","lat":43.317075,"lon":5.377367,"is_reserved":false,"is_disabled":false,"rental_uris":{"android":"levelo://app?vid=4fb6c33f-6a2d-4cb9-b5f5-71a4f8b0b1b3","ios":"levelo://app?vid=4fb6c33f-6a2d-4cb9-b5f5-71a4f8b0b1b3"},"vehicle_type_id":"4","last_reported":1704982023,"current_range_meters":25200,"station_id":"ce4bgth2rcd13ifvqch0","pricing_plan_id":"free"},{"bike_id":"c0adc87d-1ce8-4057-b45c-a68df8d309fa","system_id":"levelo_inurba_marseille","lat":43.303046,"lon":5.368981,"is_reserved":false,"is_disabled":false,"rental_uris":{"android":"levelo://app?vid=c0adc87d-1ce8-4057-b45c-a68df8d309fa","ios":"levelo://app?vid=c0adc87d-1ce8-4057-b45c-a68df8d309fa"},"vehicle_type_id":"4","last_reported":1704982023,"current_range_meters":11200,"station_id":"ce4bgqh2rcd13ifvqc5g","pricing_plan_id":"free"},{"bike_id":"34f12004-4071-4ea4-ab9e-c7ceb500640d","system_id":"levelo_inurba_marseille","lat":43.30304,"lon":5.368987,"is_reserved":false,"is_disabled":false,"rental_uris":{"android":"levelo://app?vid=34f12004-4071-4ea4-ab9e-c7ceb500640d","ios":"levelo://app?vid=34f12004-4071-4ea4-ab9e-c7ceb500640d"},"vehicle_type_id":"4","last_reported":1704982023,"current_range_meters":27600,"station_id":"ce4bgqh2rcd13ifvqc5g","pricing_plan_id":"free"},{"bike_id":"fc209209-5a6c-4876-b0df-4a9ed3d716c4","system_id":"levelo_inurba_marseille","lat":43.303046,"lon":5.368981,"is_reserved":false,"is_disabled":false,"rental_uris":{"android":"levelo://app?vid=fc209209-5a6c-4876-b0df-4a9ed3d716c4","ios":"levelo://app?vid=fc209209-5a6c-4876-b0df-4a9ed3d716c4"},"vehicle_type_id":"4","last_reported":1704982023,"current_range_meters":31600,"station_id":"ce4bgqh2rcd13ifvqc5g","pricing_plan_id":"free"},{"bike_id":"aa9056d8-efea-412e-919e-a855806cb0ca","system_id":"levelo_inurba_marseille","lat":43.30304,"lon":5.368987,"is_reserved":false,"is_disabled":false,"rental_uris":{"android":"levelo://app?vid=aa9056d8-efea-412e-919e-a855806cb0ca","ios":"levelo://app?vid=aa9056d8-efea-412e-919e-a855806cb0ca"},"vehicle_type_id":"4","last_reported":1704982023,"current_range_meters":15200,"station_id":"ce4bgqh2rcd13ifvqc5g","pricing_plan_id":"free"},{"bike_id":"fe9fb674-2dcb-49d0-8a69-e325ce1e7b1e","system_id":"levelo_inurba_marseille","lat":43.301939,"lon":5.366286,"is_reserved":false,"is_disabled":false,"rental_uris":{"android":"levelo://app?vid=fe9fb674-2dcb-49d0-8a69-e325ce1e7b1e","ios":"levelo://app?vid=fe9fb674-2dcb-49d0-8a69-e325ce1e7b1e"},"vehicle_type_id":"4","last_reported":1704982023,"current_range_meters":27200,"station_id":"ce4bgrh2rcd13ifvqc8g","pricing_plan_id":"free"},{"bike_id":"e1060d01-36ad-4fba-90c1-8bae714fdee2","system_id":"levelo_inurba_marseille","lat":43.308012,"lon":5.381511,"is_reserved":false,"is_disabled":false,"rental_uris":{"android":"levelo://app?vid=e1060d01-36ad-4fba-90c1-8bae714fdee2","ios":"levelo://app?vid=e1060d01-36ad-4fba-90c1-8bae714fdee2"},"vehicle_type_id":"4","last_reported":1704982023,"current_range_meters":20800,"station_id":"ce4bgt12rcd13ifvqce0","pricing_plan_id":"free"},{"bike_id":"9203acbd-754f-4309-8747-42858901fccd","system_id":"levelo_inurba_marseille","lat":43.308012,"lon":5.381511,"is_reserved":false,"is_disabled":false,"rental_uris":{"android":"levelo://app?vid=9203acbd-754f-4309-8747-42858901fccd","ios":"levelo://app?vid=9203acbd-754f-4309-8747-42858901fccd"},"vehicle_type_id":"4","last_reported":1704982023,"current_range_meters":29200,"station_id":"ce4bgt12rcd13ifvqce0","pricing_plan_id":"free"},{"bike_id":"1c2196ac-2daa-4536-8145-c38f86efcaf0","system_id":"levelo_inurba_marseille","lat":43.308012,"lon":5.381511,"is_reserved":false,"is_disabled":false,"rental_uris":{"android":"levelo://app?vid=1c2196ac-2daa-4536-8145-c38f86efcaf0","ios":"levelo://app?vid=1c2196ac-2daa-4536-8145-c38f86efcaf0"},"vehicle_type_id":"4","last_reported":1704982023,"current_range_meters":18400,"station_id":"ce4bgt12rcd13ifvqce0","pricing_plan_id":"free"},{"bike_id":"1f870116-b2d4-4ef6-91b7-023cb8587099","system_id":"levelo_inurba_marseille","lat":43.300827,"lon":5.365856,"is_reserved":false,"is_disabled":false,"rental_uris":{"android":"levelo://app?vid=1f870116-b2d4-4ef6-91b7-023cb8587099","ios":"levelo://app?vid=1f870116-b2d4-4ef6-91b7-023cb8587099"},"vehicle_type_id":"4","last_reported":1704982023,"current_range_meters":8800,"station_id":"","pricing_plan_id":"free"},{"bike_id":"e9c69fd6-e743-448e-bd9b-c5ba0d5b18cc","system_id":"levelo_inurba_marseille","lat":43.304606,"lon":5.379026,"is_reserved":false,"is_disabled":false,"rental_uris":{"android":"levelo://app?vid=e9c69fd6-e743-448e-bd9b-c5ba0d5b18cc","ios":"levelo://app?vid=e9c69fd6-e743-448e-bd9b-c5ba0d5b18cc"},"vehicle_type_id":"4","last_reported":1704982023,"current_range_meters":31200,"station_id":"ce4bgup2rcd13ifvqcn0","pricing_plan_id":"free"},{"bike_id":"d87878fe-c014-49a9-9d0e-cdbe7f6f57eb","system_id":"levelo_inurba_marseille","lat":43.304606,"lon":5.379026,"is_reserved":false,"is_disabled":false,"rental_uris":{"android":"levelo://app?vid=d87878fe-c014-49a9-9d0e-cdbe7f6f57eb","ios":"levelo://app?vid=d87878fe-c014-49a9-9d0e-cdbe7f6f57eb"},"vehicle_type_id":"4","last_reported":1704982023,"current_range_meters":25600,"station_id":"ce4bgup2rcd13ifvqcn0","pricing_plan_id":"free"},{"bike_id":"3b078a72-eed3-41bd-9757-7d4e6700ca12","system_id":"levelo_inurba_marseille","lat":43.304606,"lon":5.379026,"is_reserved":false,"is_disabled":false,"rental_uris":{"android":"levelo://app?vid=3b078a72-eed3-41bd-9757-7d4e6700ca12","ios":"levelo://app?vid=3b078a72-eed3-41bd-9757-7d4e6700ca12"},"vehicle_type_id":"4","last_reported":1704982023,"current_range_meters":18400,"station_id":"ce4bgup2rcd13ifvqcn0","pricing_plan_id":"free"},{"bike_id":"77686f85-998f-44fb-a6e7-aa9ac58706d4","system_id":"levelo_inurba_marseille","lat":43.304606,"lon":5.379026,"is_reserved":false,"is_disabled":false,"rental_uris":{"android":"levelo://app?vid=77686f85-998f-44fb-a6e7-aa9ac58706d4","ios":"levelo://app?vid=77686f85-998f-44fb-a6e7-aa9ac58706d4"},"vehicle_type_id":"4","last_reported":1704982023,"current_range_meters":24800,"station_id":"ce4bgup2rcd13ifvqcn0","pricing_plan_id":"free"},{"bike_id":"79068c44-f70d-4655-88bf-876197e77b4d","system_id":"levelo_inurba_marseille","lat":43.304606,"lon":5.379026,"is_reserved":false,"is_disabled":false,"rental_uris":{"android":"levelo://app?vid=79068c44-f70d-4655-88bf-876197e77b4d","ios":"levelo://app?vid=79068c44-f70d-4655-88bf-876197e77b4d"},"vehicle_type_id":"4","last_reported":1704982023,"current_range_meters":25200,"station_id":"ce4bgup2rcd13ifvqcn0","pricing_plan_id":"free"},{"bike_id":"1b7e4e21-205e-4ea6-8a6a-8a0b3bd52437","system_id":"levelo_inurba_marseille","lat":43.304606,"lon":5.379026,"is_reserved":false,"is_disabled":false,"rental_uris":{"android":"levelo://app?vid=1b7e4e21-205e-4ea6-8a6a-8a0b3bd52437","ios":"levelo://app?vid=1b7e4e21-205e-4ea6-8a6a-8a0b3bd52437"},"vehicle_type_id":"4","last_reported":1704982023,"current_range_meters":27200,"station_id":"ce4bgup2rcd13ifvqcn0","pricing_plan_id":"free"},{"bike_id":"951bc322-f5f6-4901-9646-5b41cd8e4a5a","system_id":"levelo_inurba_marseille","lat":43.304606,"lon":5.379026,"is_reserved":false,"is_disabled":false,"rental_uris":{"android":"levelo://app?vid=951bc322-f5f6-4901-9646-5b41cd8e4a5a","ios":"levelo://app?vid=951bc322-f5f6-4901-9646-5b41cd8e4a5a"},"vehicle_type_id":"4","last_reported":1704982023,"current_range_meters":26400,"station_id":"ce4bgup2rcd13ifvqcn0","pricing_plan_id":"free"},{"bike_id":"29564113-1124-4aa0-ae9a-6a8e5fa1c16e","system_id":"levelo_inurba_marseille","lat":43.304606,"lon":5.379026,"is_reserved":false,"is_disabled":false,"rental_uris":{"android":"levelo://app?vid=29564113-1124-4aa0-ae9a-6a8e5fa1c16e","ios":"levelo://app?vid=29564113-1124-4aa0-ae9a-6a8e5fa1c16e"},"vehicle_type_id":"4","last_reported":1704982023,"current_range_meters":22800,"station_id":"ce4bgup2rcd13ifvqcn0","pricing_plan_id":"free"},{"bike_id":"5e2c9d6a-6f8a-49b5-bc98-a2690a4ce8d4","system_id":"levelo_inurba_marseille","lat":43.30306,"lon":5.37694,"is_reserved":false,"is_disabled":false,"rental_uris":{"android":"levelo://app?vid=5e2c9d6a-6f8a-49b5-bc98-a2690a4ce8d4","ios":"levelo://app?vid=5e2c9d6a-6f8a-49b5-bc98-a2690a4ce8d4"},"vehicle_type_id":"4","last_reported":1704982023,"current_range_meters":31200,"station_id":"","pricing_plan_id":"free"},{"bike_id":"05a5d235-715d-4947-88c0-0caae1d16909","system_id":"levelo_inurba_marseille","lat":43.30286,"lon":5.37691,"is_reserved":false,"is_disabled":false,"rental_uris":{"android":"levelo://app?vid=05a5d235-715d-4947-88c0-0caae1d16909","ios":"levelo://app?vid=05a5d235-715d-4947-88c0-0caae1d16909"},"vehicle_type_id":"4","last_reported":1704982023,"current_range_meters":30000,"station_id":"","pricing_plan_id":"free"},{"bike_id":"67b62639-fe7b-4dbe-b4a5-7ade4da41df4","system_id":"levelo_inurba_marseille","lat":43.302823,"lon":5.376925,"is_reserved":false,"is_disabled":false,"rental_uris":{"android":"levelo://app?vid=67b62639-fe7b-4dbe-b4a5-7ade4da41df4","ios":"levelo://app?vid=67b62639-fe7b-4dbe-b4a5-7ade4da41df4"},"vehicle_type_id":"4","last_reported":1704982023,"current_range_meters":24400,"station_id":"","pricing_plan_id":"free"},{"bike_id":"7ca3b0a2-a91e-431a-9f72-f68959586fd2","system_id":"levelo_inurba_marseille","lat":43.302816,"lon":5.37693,"is_reserved":false,"is_disabled":false,"rental_uris":{"android":"levelo://app?vid=7ca3b0a2-a91e-431a-9f72-f68959586fd2","ios":"levelo://app?vid=7ca3b0a2-a91e-431a-9f72-f68959586fd2"},"vehicle_type_id":"4","last_reported":1704982023,"current_range_meters":11600,"station_id":"","pricing_plan_id":"free"},{"bike_id":"1ccb12aa-fdb0-42a1-9d33-ed9f8e087304","system_id":"levelo_inurba_marseille","lat":43.302819,"lon":5.376954,"is_reserved":false,"is_disabled":false,"rental_uris":{"android":"levelo://app?vid=1ccb12aa-fdb0-42a1-9d33-ed9f8e087304","ios":"levelo://app?vid=1ccb12aa-fdb0-42a1-9d33-ed9f8e087304"},"vehicle_type_id":"4","last_reported":1704982023,"current_range_meters":8800,"station_id":"","pricing_plan_id":"free"},{"bike_id":"40f5bbf9-2b0d-40fc-ae8d-10ef39c5202d","system_id":"levelo_inurba_marseille","lat":43.30283,"lon":5.377,"is_reserved":false,"is_disabled":false,"rental_uris":{"android":"levelo://app?vid=40f5bbf9-2b0d-40fc-ae8d-10ef39c5202d","ios":"levelo://app?vid=40f5bbf9-2b0d-40fc-ae8d-10ef39c5202d"},"vehicle_type_id":"4","last_reported":1704982023,"current_range_meters":25200,"station_id":"","pricing_plan_id":"free"},{"bike_id":"bf95e61e-92ab-4018-96df-d4e76510edef","system_id":"levelo_inurba_marseille","lat":43.302803,"lon":5.376992,"is_reserved":false,"is_disabled":false,"rental_uris":{"android":"levelo://app?vid=bf95e61e-92ab-4018-96df-d4e76510edef","ios":"levelo://app?vid=bf95e61e-92ab-4018-96df-d4e76510edef"},"vehicle_type_id":"4","last_reported":1704982023,"current_range_meters":24000,"station_id":"","pricing_plan_id":"free"},{"bike_id":"222b8521-90b5-4521-9c37-1b0a0821f31a","system_id":"levelo_inurba_marseille","lat":43.30276,"lon":5.37692,"is_reserved":false,"is_disabled":false,"rental_uris":{"android":"levelo://app?vid=222b8521-90b5-4521-9c37-1b0a0821f31a","ios":"levelo://app?vid=222b8521-90b5-4521-9c37-1b0a0821f31a"},"vehicle_type_id":"4","last_reported":1704982023,"current_range_meters":0,"station_id":"","pricing_plan_id":"free"},{"bike_id":"5a5b963d-2f46-43c5-bd32-725ae18a0845","system_id":"levelo_inurba_marseille","lat":43.302785,"lon":5.376984,"is_reserved":false,"is_disabled":false,"rental_uris":{"android":"levelo://app?vid=5a5b963d-2f46-43c5-bd32-725ae18a0845","ios":"levelo://app?vid=5a5b963d-2f46-43c5-bd32-725ae18a0845"},"vehicle_type_id":"4","last_reported":1704982023,"current_range_meters":16000,"station_id":"","pricing_plan_id":"free"},{"bike_id":"8d024766-55c0-4d06-b514-89e05c14b392","system_id":"levelo_inurba_marseille","lat":43.30281,"lon":5.37706,"is_reserved":false,"is_disabled":false,"rental_uris":{"android":"levelo://app?vid=8d024766-55c0-4d06-b514-89e05c14b392","ios":"levelo://app?vid=8d024766-55c0-4d06-b514-89e05c14b392"},"vehicle_type_id":"4","last_reported":1704982023,"current_range_meters":21600,"station_id":"","pricing_plan_id":"free"},{"bike_id":"00e3bdca-d528-41a5-a675-0e304c1e98df","system_id":"levelo_inurba_marseille","lat":43.30273,"lon":5.37697,"is_reserved":false,"is_disabled":false,"rental_uris":{"android":"levelo://app?vid=00e3bdca-d528-41a5-a675-0e304c1e98df","ios":"levelo://app?vid=00e3bdca-d528-41a5-a675-0e304c1e98df"},"vehicle_type_id":"4","last_reported":1704982023,"current_range_meters":18400,"station_id":"","pricing_plan_id":"free"},{"bike_id":"0e120b6a-4e49-47f1-a2f9-d23738d981f2","system_id":"levelo_inurba_marseille","lat":43.30143,"lon":5.37413,"is_reserved":false,"is_disabled":false,"rental_uris":{"android":"levelo://app?vid=0e120b6a-4e49-47f1-a2f9-d23738d981f2","ios":"levelo://app?vid=0e120b6a-4e49-47f1-a2f9-d23738d981f2"},"vehicle_type_id":"4","last_reported":1704982023,"current_range_meters":31200,"station_id":"ce4bgs92rcd13ifvqcc0","pricing_plan_id":"free"},{"bike_id":"1a5cb9e4-9d0c-4573-84c0-638901506922","system_id":"levelo_inurba_marseille","lat":43.301429,"lon":5.37413,"is_reserved":false,"is_disabled":false,"rental_uris":{"android":"levelo://app?vid=1a5cb9e4-9d0c-4573-84c0-638901506922","ios":"levelo://app?vid=1a5cb9e4-9d0c-4573-84c0-638901506922"},"vehicle_type_id":"4","last_reported":1704982023,"current_range_meters":20800,"station_id":"ce4bgs92rcd13ifvqcc0","pricing_plan_id":"free"},{"bike_id":"9c33977d-5347-40f4-99de-d76782e12f27","system_id":"levelo_inurba_marseille","lat":43.30139,"lon":5.37414,"is_reserved":false,"is_disabled":false,"rental_uris":{"android":"levelo://app?vid=9c33977d-5347-40f4-99de-d76782e12f27","ios":"levelo://app?vid=9c33977d-5347-40f4-99de-d76782e12f27"},"vehicle_type_id":"4","last_reported":1704982023,"current_range_meters":7600,"station_id":"ce4bgs92rcd13ifvqcc0","pricing_plan_id":"free"},{"bike_id":"dbb23607-5523-4f3d-bfc4-54ab513f673d","system_id":"levelo_inurba_marseille","lat":43.301429,"lon":5.37413,"is_reserved":false,"is_disabled":false,"rental_uris":{"android":"levelo://app?vid=dbb23607-5523-4f3d-bfc4-54ab513f673d","ios":"levelo://app?vid=dbb23607-5523-4f3d-bfc4-54ab513f673d"},"vehicle_type_id":"4","last_reported":1704982023,"current_range_meters":31600,"station_id":"ce4bgs92rcd13ifvqcc0","pricing_plan_id":"free"},{"bike_id":"255948e0-99b4-4db2-8c48-761d691f2255","system_id":"levelo_inurba_marseille","lat":43.30143,"lon":5.37413,"is_reserved":false,"is_disabled":false,"rental_uris":{"android":"levelo://app?vid=255948e0-99b4-4db2-8c48-761d691f2255","ios":"levelo://app?vid=255948e0-99b4-4db2-8c48-761d691f2255"},"vehicle_type_id":"4","last_reported":1704982023,"current_range_meters":31200,"station_id":"ce4bgs92rcd13ifvqcc0","pricing_plan_id":"free"},{"bike_id":"9750d696-a31a-44fa-85b2-608bf760aea9","system_id":"levelo_inurba_marseille","lat":43.301429,"lon":5.37413,"is_reserved":false,"is_disabled":false,"rental_uris":{"android":"levelo://app?vid=9750d696-a31a-44fa-85b2-608bf760aea9","ios":"levelo://app?vid=9750d696-a31a-44fa-85b2-608bf760aea9"},"vehicle_type_id":"4","last_reported":1704982023,"current_range_meters":8000,"station_id":"ce4bgs92rcd13ifvqcc0","pricing_plan_id":"free"},{"bike_id":"f8610476-36bf-463a-848b-e94b63a4af72","system_id":"levelo_inurba_marseille","lat":43.31996,"lon":5.38148,"is_reserved":false,"is_disabled":false,"rental_uris":{"android":"levelo://app?vid=f8610476-36bf-463a-848b-e94b63a4af72","ios":"levelo://app?vid=f8610476-36bf-463a-848b-e94b63a4af72"},"vehicle_type_id":"4","last_reported":1704982023,"current_range_meters":16800,"station_id":"ce4bhr12rcd13ifvqhpg","pricing_plan_id":"free"},{"bike_id":"e9f62a0e-f294-43ee-8997-35c2f12fe7c5","system_id":"levelo_inurba_marseille","lat":43.313571,"lon":5.384829,"is_reserved":false,"is_disabled":false,"rental_uris":{"android":"levelo://app?vid=e9f62a0e-f294-43ee-8997-35c2f12fe7c5","ios":"levelo://app?vid=e9f62a0e-f294-43ee-8997-35c2f12fe7c5"},"vehicle_type_id":"4","last_reported":1704982023,"current_range_meters":12800,"station_id":"ce4bgt92rcd13ifvqcf0","pricing_plan_id":"free"},{"bike_id":"a274ec9b-8155-46cc-b080-f7af4179862b","system_id":"levelo_inurba_marseille","lat":43.299724,"lon":5.371829,"is_reserved":false,"is_disabled":false,"rental_uris":{"android":"levelo://app?vid=a274ec9b-8155-46cc-b080-f7af4179862b","ios":"levelo://app?vid=a274ec9b-8155-46cc-b080-f7af4179862b"},"vehicle_type_id":"4","last_reported":1704982023,"current_range_meters":11600,"station_id":"ce4bgr92rcd13ifvqc7g","pricing_plan_id":"free"},{"bike_id":"3136eb2e-036b-44f3-92e3-cc25f392eadf","system_id":"levelo_inurba_marseille","lat":43.299842,"lon":5.371792,"is_reserved":false,"is_disabled":false,"rental_uris":{"android":"levelo://app?vid=3136eb2e-036b-44f3-92e3-cc25f392eadf","ios":"levelo://app?vid=3136eb2e-036b-44f3-92e3-cc25f392eadf"},"vehicle_type_id":"4","last_reported":1704982023,"current_range_meters":15600,"station_id":"ce4bgr92rcd13ifvqc7g","pricing_plan_id":"free"},{"bike_id":"ce69bfaa-d49b-4308-a891-4e2bb9076ab8","system_id":"levelo_inurba_marseille","lat":43.299724,"lon":5.371829,"is_reserved":false,"is_disabled":false,"rental_uris":{"android":"levelo://app?vid=ce69bfaa-d49b-4308-a891-4e2bb9076ab8","ios":"levelo://app?vid=ce69bfaa-d49b-4308-a891-4e2bb9076ab8"},"vehicle_type_id":"4","last_reported":1704982023,"current_range_meters":30400,"station_id":"ce4bgr92rcd13ifvqc7g","pricing_plan_id":"free"},{"bike_id":"03bcda57-e34e-401d-aaf2-e05573d3e6d2","system_id":"levelo_inurba_marseille","lat":43.299819,"lon":5.371748,"is_reserved":false,"is_disabled":false,"rental_uris":{"android":"levelo://app?vid=03bcda57-e34e-401d-aaf2-e05573d3e6d2","ios":"levelo://app?vid=03bcda57-e34e-401d-aaf2-e05573d3e6d2"},"vehicle_type_id":"4","last_reported":1704982023,"current_range_meters":23200,"station_id":"ce4bgr92rcd13ifvqc7g","pricing_plan_id":"free"},{"bike_id":"b62f7d26-c044-4f4a-b426-c213ad70df4a","system_id":"levelo_inurba_marseille","lat":43.299724,"lon":5.371829,"is_reserved":false,"is_disabled":false,"rental_uris":{"android":"levelo://app?vid=b62f7d26-c044-4f4a-b426-c213ad70df4a","ios":"levelo://app?vid=b62f7d26-c044-4f4a-b426-c213ad70df4a"},"vehicle_type_id":"4","last_reported":1704982023,"current_range_meters":31200,"station_id":"ce4bgr92rcd13ifvqc7g","pricing_plan_id":"free"},{"bike_id":"5e3ae350-92fc-4f1a-91e5-fca6c6157e9c","system_id":"levelo_inurba_marseille","lat":43.314305,"lon":5.385497,"is_reserved":false,"is_disabled":false,"rental_uris":{"android":"levelo://app?vid=5e3ae350-92fc-4f1a-91e5-fca6c6157e9c","ios":"levelo://app?vid=5e3ae350-92fc-4f1a-91e5-fca6c6157e9c"},"vehicle_type_id":"4","last_reported":1704982023,"current_range_meters":4400,"station_id":"","pricing_plan_id":"free"},{"bike_id":"e8ddc595-fad5-46a0-83db-2c52b6202f5d","system_id":"levelo_inurba_marseille","lat":43.305364,"lon":5.384119,"is_reserved":false,"is_disabled":false,"rental_uris":{"android":"levelo://app?vid=e8ddc595-fad5-46a0-83db-2c52b6202f5d","ios":"levelo://app?vid=e8ddc595-fad5-46a0-83db-2c52b6202f5d"},"vehicle_type_id":"4","last_reported":1704982023,"current_range_meters":28800,"station_id":"ce4bgg92rcd13ifvqb30","pricing_plan_id":"free"},{"bike_id":"51a163b7-0f11-42ce-a608-fed9856b8cb9","system_id":"levelo_inurba_marseille","lat":43.298433,"lon":5.362774,"is_reserved":false,"is_disabled":false,"rental_uris":{"android":"levelo://app?vid=51a163b7-0f11-42ce-a608-fed9856b8cb9","ios":"levelo://app?vid=51a163b7-0f11-42ce-a608-fed9856b8cb9"},"vehicle_type_id":"4","last_reported":1704982023,"current_range_meters":26000,"station_id":"ce4bgpp2rcd13ifvqc3g","pricing_plan_id":"free"},{"bike_id":"2d75fc77-7216-47af-8687-dcbdc3215ec6","system_id":"levelo_inurba_marseille","lat":43.298433,"lon":5.362774,"is_reserved":false,"is_disabled":false,"rental_uris":{"android":"levelo://app?vid=2d75fc77-7216-47af-8687-dcbdc3215ec6","ios":"levelo://app?vid=2d75fc77-7216-47af-8687-dcbdc3215ec6"},"vehicle_type_id":"4","last_reported":1704982023,"current_range_meters":25200,"station_id":"ce4bgpp2rcd13ifvqc3g","pricing_plan_id":"free"},{"bike_id":"377361e6-8f0e-4d3c-9f1a-de47c7dac79c","system_id":"levelo_inurba_marseille","lat":43.299243,"lon":5.374807,"is_reserved":false,"is_disabled":false,"rental_uris":{"android":"levelo://app?vid=377361e6-8f0e-4d3c-9f1a-de47c7dac79c","ios":"levelo://app?vid=377361e6-8f0e-4d3c-9f1a-de47c7dac79c"},"vehicle_type_id":"4","last_reported":1704982023,"current_range_meters":17600,"station_id":"ce4bgjh2rcd13ifvqbg0","pricing_plan_id":"free"},{"bike_id":"aaf48a55-b782-43c8-be19-bf65593feb19","system_id":"levelo_inurba_marseille","lat":43.298433,"lon":5.362774,"is_reserved":false,"is_disabled":false,"rental_uris":{"android":"levelo://app?vid=aaf48a55-b782-43c8-be19-bf65593feb19","ios":"levelo://app?vid=aaf48a55-b782-43c8-be19-bf65593feb19"},"vehicle_type_id":"4","last_reported":1704982023,"current_range_meters":31200,"station_id":"ce4bgpp2rcd13ifvqc3g","pricing_plan_id":"free"},{"bike_id":"85576727-0b95-4003-83c8-311edd0535e8","system_id":"levelo_inurba_marseille","lat":43.298433,"lon":5.362774,"is_reserved":false,"is_disabled":false,"rental_uris":{"android":"levelo://app?vid=85576727-0b95-4003-83c8-311edd0535e8","ios":"levelo://app?vid=85576727-0b95-4003-83c8-311edd0535e8"},"vehicle_type_id":"4","last_reported":1704982023,"current_range_meters":26800,"station_id":"ce4bgpp2rcd13ifvqc3g","pricing_plan_id":"free"},{"bike_id":"3d2fd564-a67a-4c73-8275-7690881686c5","system_id":"levelo_inurba_marseille","lat":43.311722,"lon":5.387247,"is_reserved":false,"is_disabled":false,"rental_uris":{"android":"levelo://app?vid=3d2fd564-a67a-4c73-8275-7690881686c5","ios":"levelo://app?vid=3d2fd564-a67a-4c73-8275-7690881686c5"},"vehicle_type_id":"4","last_reported":1704982023,"current_range_meters":30000,"station_id":"ce4bgv12rcd13ifvqcp0","pricing_plan_id":"free"},{"bike_id":"ea0ab605-d4ec-4d61-96cf-154039be21dd","system_id":"levelo_inurba_marseille","lat":43.299243,"lon":5.37481,"is_reserved":false,"is_disabled":false,"rental_uris":{"android":"levelo://app?vid=ea0ab605-d4ec-4d61-96cf-154039be21dd","ios":"levelo://app?vid=ea0ab605-d4ec-4d61-96cf-154039be21dd"},"vehicle_type_id":"4","last_reported":1704982023,"current_range_meters":31600,"station_id":"ce4bgjh2rcd13ifvqbg0","pricing_plan_id":"free"},{"bike_id":"e1b3c021-bad1-4388-b6fa-350f25eecda6","system_id":"levelo_inurba_marseille","lat":43.311722,"lon":5.387247,"is_reserved":false,"is_disabled":false,"rental_uris":{"android":"levelo://app?vid=e1b3c021-bad1-4388-b6fa-350f25eecda6","ios":"levelo://app?vid=e1b3c021-bad1-4388-b6fa-350f25eecda6"},"vehicle_type_id":"4","last_reported":1704982023,"current_range_meters":31200,"station_id":"ce4bgv12rcd13ifvqcp0","pricing_plan_id":"free"},{"bike_id":"a121b6c9-0e15-4325-96d1-9dea0858e316","system_id":"levelo_inurba_marseille","lat":43.299243,"lon":5.37481,"is_reserved":false,"is_disabled":false,"rental_uris":{"android":"levelo://app?vid=a121b6c9-0e15-4325-96d1-9dea0858e316","ios":"levelo://app?vid=a121b6c9-0e15-4325-96d1-9dea0858e316"},"vehicle_type_id":"4","last_reported":1704982023,"current_range_meters":12400,"station_id":"ce4bgjh2rcd13ifvqbg0","pricing_plan_id":"free"},{"bike_id":"93935146-64df-45cf-82cb-43cce37922b6","system_id":"levelo_inurba_marseille","lat":43.297883,"lon":5.370913,"is_reserved":false,"is_disabled":false,"rental_uris":{"android":"levelo://app?vid=93935146-64df-45cf-82cb-43cce37922b6","ios":"levelo://app?vid=93935146-64df-45cf-82cb-43cce37922b6"},"vehicle_type_id":"4","last_reported":1704982023,"current_range_meters":31200,"station_id":"ce4bgop2rcd13ifvqc1g","pricing_plan_id":"free"},{"bike_id":"ef0c794b-15f2-4514-92c1-7fbcde7bcb7e","system_id":"levelo_inurba_marseille","lat":43.297875,"lon":5.370857,"is_reserved":false,"is_disabled":false,"rental_uris":{"android":"levelo://app?vid=ef0c794b-15f2-4514-92c1-7fbcde7bcb7e","ios":"levelo://app?vid=ef0c794b-15f2-4514-92c1-7fbcde7bcb7e"},"vehicle_type_id":"4","last_reported":1704982023,"current_range_meters":31200,"station_id":"ce4bgop2rcd13ifvqc1g","pricing_plan_id":"free"},{"bike_id":"7da8fe3c-1a0b-4128-9586-dc532e83f94f","system_id":"levelo_inurba_marseille","lat":43.297794,"lon":5.370888,"is_reserved":false,"is_disabled":false,"rental_uris":{"android":"levelo://app?vid=7da8fe3c-1a0b-4128-9586-dc532e83f94f","ios":"levelo://app?vid=7da8fe3c-1a0b-4128-9586-dc532e83f94f"},"vehicle_type_id":"4","last_reported":1704982023,"current_range_meters":8800,"station_id":"ce4bgop2rcd13ifvqc1g","pricing_plan_id":"free"},{"bike_id":"5774f667-cb68-43ad-b4f0-28ea326e3f48","system_id":"levelo_inurba_marseille","lat":43.297774,"lon":5.370875,"is_reserved":false,"is_disabled":false,"rental_uris":{"android":"levelo://app?vid=5774f667-cb68-43ad-b4f0-28ea326e3f48","ios":"levelo://app?vid=5774f667-cb68-43ad-b4f0-28ea326e3f48"},"vehicle_type_id":"4","last_reported":1704982023,"current_range_meters":27600,"station_id":"ce4bgop2rcd13ifvqc1g","pricing_plan_id":"free"},{"bike_id":"c0c847ea-83f0-4e06-9678-e7646050a3c7","system_id":"levelo_inurba_marseille","lat":43.322872,"lon":5.382756,"is_reserved":false,"is_disabled":false,"rental_uris":{"android":"levelo://app?vid=c0c847ea-83f0-4e06-9678-e7646050a3c7","ios":"levelo://app?vid=c0c847ea-83f0-4e06-9678-e7646050a3c7"},"vehicle_type_id":"4","last_reported":1704982023,"current_range_meters":28800,"station_id":"ce4bhr12rcd13ifvqhqg","pricing_plan_id":"free"},{"bike_id":"023b7195-bcfa-445e-9cbf-5c958831af50","system_id":"levelo_inurba_marseille","lat":43.303046,"lon":5.368981,"is_reserved":false,"is_disabled":false,"rental_uris":{"android":"levelo://app?vid=023b7195-bcfa-445e-9cbf-5c958831af50","ios":"levelo://app?vid=023b7195-bcfa-445e-9cbf-5c958831af50"},"vehicle_type_id":"4","last_reported":1704982023,"current_range_meters":16000,"station_id":"ce4bgqh2rcd13ifvqc5g","pricing_plan_id":"free"},{"bike_id":"fb45f142-a2e6-4b54-b6fd-5660ca2c1fe5","system_id":"levelo_inurba_marseille","lat":43.32824,"lon":5.366771,"is_reserved":false,"is_disabled":false,"rental_uris":{"android":"levelo://app?vid=fb45f142-a2e6-4b54-b6fd-5660ca2c1fe5","ios":"levelo://app?vid=fb45f142-a2e6-4b54-b6fd-5660ca2c1fe5"},"vehicle_type_id":"4","last_reported":1704982023,"current_range_meters":18400,"station_id":"ce4bhs92rcd13ifvqi0g","pricing_plan_id":"free"},{"bike_id":"a70069dc-f773-452d-9d3a-320d0014d11e","system_id":"levelo_inurba_marseille","lat":43.32824,"lon":5.36669,"is_reserved":false,"is_disabled":false,"rental_uris":{"android":"levelo://app?vid=a70069dc-f773-452d-9d3a-320d0014d11e","ios":"levelo://app?vid=a70069dc-f773-452d-9d3a-320d0014d11e"},"vehicle_type_id":"4","last_reported":1704982023,"current_range_meters":13600,"station_id":"ce4bhs92rcd13ifvqi0g","pricing_plan_id":"free"},{"bike_id":"d68ce626-ef98-4d52-b3b3-f34d703a806b","system_id":"levelo_inurba_marseille","lat":43.32826,"lon":5.36697,"is_reserved":false,"is_disabled":false,"rental_uris":{"android":"levelo://app?vid=d68ce626-ef98-4d52-b3b3-f34d703a806b","ios":"levelo://app?vid=d68ce626-ef98-4d52-b3b3-f34d703a806b"},"vehicle_type_id":"4","last_reported":1704982023,"current_range_meters":21200,"station_id":"ce4bhs92rcd13ifvqi0g","pricing_plan_id":"free"},{"bike_id":"e1e3a1c2-ded9-4b32-80b4-852bd4467a76","system_id":"levelo_inurba_marseille","lat":43.328267,"lon":5.36678,"is_reserved":false,"is_disabled":false,"rental_uris":{"android":"levelo://app?vid=e1e3a1c2-ded9-4b32-80b4-852bd4467a76","ios":"levelo://app?vid=e1e3a1c2-ded9-4b32-80b4-852bd4467a76"},"vehicle_type_id":"4","last_reported":1704982023,"current_range_meters":16800,"station_id":"ce4bhs92rcd13ifvqi0g","pricing_plan_id":"free"},{"bike_id":"331410e4-8362-40e5-8b58-6a53f46a25bd","system_id":"levelo_inurba_marseille","lat":43.3283,"lon":5.3668,"is_reserved":false,"is_disabled":false,"rental_uris":{"android":"levelo://app?vid=331410e4-8362-40e5-8b58-6a53f46a25bd","ios":"levelo://app?vid=331410e4-8362-40e5-8b58-6a53f46a25bd"},"vehicle_type_id":"4","last_reported":1704982023,"current_range_meters":27600,"station_id":"ce4bhs92rcd13ifvqi0g","pricing_plan_id":"free"},{"bike_id":"1f1a5220-6426-49f4-89de-c9c79ed6428d","system_id":"levelo_inurba_marseille","lat":43.3283,"lon":5.36678,"is_reserved":false,"is_disabled":false,"rental_uris":{"android":"levelo://app?vid=1f1a5220-6426-49f4-89de-c9c79ed6428d","ios":"levelo://app?vid=1f1a5220-6426-49f4-89de-c9c79ed6428d"},"vehicle_type_id":"4","last_reported":1704982023,"current_range_meters":26800,"station_id":"ce4bhs92rcd13ifvqi0g","pricing_plan_id":"free"},{"bike_id":"7b9958fe-cb69-4b86-8077-c6eefd22d5f1","system_id":"levelo_inurba_marseille","lat":43.3283,"lon":5.36676,"is_reserved":false,"is_disabled":false,"rental_uris":{"android":"levelo://app?vid=7b9958fe-cb69-4b86-8077-c6eefd22d5f1","ios":"levelo://app?vid=7b9958fe-cb69-4b86-8077-c6eefd22d5f1"},"vehicle_type_id":"4","last_reported":1704982023,"current_range_meters":26000,"station_id":"ce4bhs92rcd13ifvqi0g","pricing_plan_id":"free"},{"bike_id":"37d52d17-31bf-4889-b7ec-16ae5eacb7e0","system_id":"levelo_inurba_marseille","lat":43.3283,"lon":5.366738,"is_reserved":false,"is_disabled":false,"rental_uris":{"android":"levelo://app?vid=37d52d17-31bf-4889-b7ec-16ae5eacb7e0","ios":"levelo://app?vid=37d52d17-31bf-4889-b7ec-16ae5eacb7e0"},"vehicle_type_id":"4","last_reported":1704982023,"current_range_meters":16000,"station_id":"ce4bhs92rcd13ifvqi0g","pricing_plan_id":"free"},{"bike_id":"30f8693f-6be0-48b2-9028-bcba9d6c72a0","system_id":"levelo_inurba_marseille","lat":43.328303,"lon":5.366754,"is_reserved":false,"is_disabled":false,"rental_uris":{"android":"levelo://app?vid=30f8693f-6be0-48b2-9028-bcba9d6c72a0","ios":"levelo://app?vid=30f8693f-6be0-48b2-9028-bcba9d6c72a0"},"vehicle_type_id":"4","last_reported":1704982023,"current_range_meters":30400,"station_id":"ce4bhs92rcd13ifvqi0g","pricing_plan_id":"free"},{"bike_id":"b417e045-2acd-45ab-8543-5d87cc32d878","system_id":"levelo_inurba_marseille","lat":43.328326,"lon":5.366832,"is_reserved":false,"is_disabled":false,"rental_uris":{"android":"levelo://app?vid=b417e045-2acd-45ab-8543-5d87cc32d878","ios":"levelo://app?vid=b417e045-2acd-45ab-8543-5d87cc32d878"},"vehicle_type_id":"4","last_reported":1704982023,"current_range_meters":25200,"station_id":"ce4bhs92rcd13ifvqi0g","pricing_plan_id":"free"},{"bike_id":"d5f29070-6449-49ad-9492-09212d675041","system_id":"levelo_inurba_marseille","lat":43.328329,"lon":5.366789,"is_reserved":false,"is_disabled":false,"rental_uris":{"android":"levelo://app?vid=d5f29070-6449-49ad-9492-09212d675041","ios":"levelo://app?vid=d5f29070-6449-49ad-9492-09212d675041"},"vehicle_type_id":"4","last_reported":1704982023,"current_range_meters":24800,"station_id":"ce4bhs92rcd13ifvqi0g","pricing_plan_id":"free"},{"bike_id":"468fb52e-8015-4911-9ee7-fb97a172526a","system_id":"levelo_inurba_marseille","lat":43.32833,"lon":5.3668,"is_reserved":false,"is_disabled":false,"rental_uris":{"android":"levelo://app?vid=468fb52e-8015-4911-9ee7-fb97a172526a","ios":"levelo://app?vid=468fb52e-8015-4911-9ee7-fb97a172526a"},"vehicle_type_id":"4","last_reported":1704982023,"current_range_meters":31200,"station_id":"ce4bhs92rcd13ifvqi0g","pricing_plan_id":"free"},{"bike_id":"9051e57c-6fa5-4ca0-b770-167b99757d01","system_id":"levelo_inurba_marseille","lat":43.296828,"lon":5.372943,"is_reserved":false,"is_disabled":false,"rental_uris":{"android":"levelo://app?vid=9051e57c-6fa5-4ca0-b770-167b99757d01","ios":"levelo://app?vid=9051e57c-6fa5-4ca0-b770-167b99757d01"},"vehicle_type_id":"4","last_reported":1704982023,"current_range_meters":24000,"station_id":"ce4bgk12rcd13ifvqbj0","pricing_plan_id":"free"},{"bike_id":"0e21c0e1-cd91-41f5-a668-23429ce9066e","system_id":"levelo_inurba_marseille","lat":43.296801,"lon":5.372822,"is_reserved":false,"is_disabled":false,"rental_uris":{"android":"levelo://app?vid=0e21c0e1-cd91-41f5-a668-23429ce9066e","ios":"levelo://app?vid=0e21c0e1-cd91-41f5-a668-23429ce9066e"},"vehicle_type_id":"4","last_reported":1704982023,"current_range_meters":7600,"station_id":"","pricing_plan_id":"free"},{"bike_id":"adb011d1-d3e3-46c5-b1ec-5b5a9768b382","system_id":"levelo_inurba_marseille","lat":43.296131,"lon":5.370791,"is_reserved":false,"is_disabled":false,"rental_uris":{"android":"levelo://app?vid=adb011d1-d3e3-46c5-b1ec-5b5a9768b382","ios":"levelo://app?vid=adb011d1-d3e3-46c5-b1ec-5b5a9768b382"},"vehicle_type_id":"4","last_reported":1704982023,"current_range_meters":30400,"station_id":"ce4bgnh2rcd13ifvqc0g","pricing_plan_id":"free"},{"bike_id":"616f464b-8a2d-4a3b-9044-eb674f0fcd1d","system_id":"levelo_inurba_marseille","lat":43.29573,"lon":5.367355,"is_reserved":false,"is_disabled":false,"rental_uris":{"android":"levelo://app?vid=616f464b-8a2d-4a3b-9044-eb674f0fcd1d","ios":"levelo://app?vid=616f464b-8a2d-4a3b-9044-eb674f0fcd1d"},"vehicle_type_id":"4","last_reported":1704982023,"current_range_meters":28800,"station_id":"ce4bgph2rcd13ifvqc2g","pricing_plan_id":"free"},{"bike_id":"f7b436a8-86a6-4907-b5de-58f6accf51cf","system_id":"levelo_inurba_marseille","lat":43.296129,"lon":5.370777,"is_reserved":false,"is_disabled":false,"rental_uris":{"android":"levelo://app?vid=f7b436a8-86a6-4907-b5de-58f6accf51cf","ios":"levelo://app?vid=f7b436a8-86a6-4907-b5de-58f6accf51cf"},"vehicle_type_id":"4","last_reported":1704982023,"current_range_meters":30000,"station_id":"ce4bgnh2rcd13ifvqc0g","pricing_plan_id":"free"},{"bike_id":"7f1a6b77-f987-4632-9260-0d3f73e0bcb1","system_id":"levelo_inurba_marseille","lat":43.296921,"lon":5.376579,"is_reserved":false,"is_disabled":false,"rental_uris":{"android":"levelo://app?vid=7f1a6b77-f987-4632-9260-0d3f73e0bcb1","ios":"levelo://app?vid=7f1a6b77-f987-4632-9260-0d3f73e0bcb1"},"vehicle_type_id":"4","last_reported":1704982023,"current_range_meters":24400,"station_id":"ce4bgkh2rcd13ifvqbl0","pricing_plan_id":"free"},{"bike_id":"3adda4c1-9677-4f9b-b952-bfbfba2efff7","system_id":"levelo_inurba_marseille","lat":43.296935,"lon":5.376544,"is_reserved":false,"is_disabled":false,"rental_uris":{"android":"levelo://app?vid=3adda4c1-9677-4f9b-b952-bfbfba2efff7","ios":"levelo://app?vid=3adda4c1-9677-4f9b-b952-bfbfba2efff7"},"vehicle_type_id":"4","last_reported":1704982023,"current_range_meters":16400,"station_id":"ce4bgkh2rcd13ifvqbl0","pricing_plan_id":"free"},{"bike_id":"b9470094-4555-4f89-9bb3-8b648ab442a3","system_id":"levelo_inurba_marseille","lat":43.299202,"lon":5.381513,"is_reserved":false,"is_disabled":false,"rental_uris":{"android":"levelo://app?vid=b9470094-4555-4f89-9bb3-8b648ab442a3","ios":"levelo://app?vid=b9470094-4555-4f89-9bb3-8b648ab442a3"},"vehicle_type_id":"4","last_reported":1704982023,"current_range_meters":10000,"station_id":"","pricing_plan_id":"free"},{"bike_id":"53d74c07-eb2a-4bf1-bee7-9a75bc98fafc","system_id":"levelo_inurba_marseille","lat":43.299028,"lon":5.381509,"is_reserved":false,"is_disabled":false,"rental_uris":{"android":"levelo://app?vid=53d74c07-eb2a-4bf1-bee7-9a75bc98fafc","ios":"levelo://app?vid=53d74c07-eb2a-4bf1-bee7-9a75bc98fafc"},"vehicle_type_id":"4","last_reported":1704982023,"current_range_meters":25600,"station_id":"ce4bgj12rcd13ifvqbc0","pricing_plan_id":"free"},{"bike_id":"d2bada01-159a-4c98-bb13-21bde4ff623d","system_id":"levelo_inurba_marseille","lat":43.296921,"lon":5.376579,"is_reserved":false,"is_disabled":false,"rental_uris":{"android":"levelo://app?vid=d2bada01-159a-4c98-bb13-21bde4ff623d","ios":"levelo://app?vid=d2bada01-159a-4c98-bb13-21bde4ff623d"},"vehicle_type_id":"4","last_reported":1704982023,"current_range_meters":25200,"station_id":"ce4bgkh2rcd13ifvqbl0","pricing_plan_id":"free"},{"bike_id":"f4b7b3a8-7e21-4a35-88cf-5cf3dd35801f","system_id":"levelo_inurba_marseille","lat":43.296921,"lon":5.376579,"is_reserved":false,"is_disabled":false,"rental_uris":{"android":"levelo://app?vid=f4b7b3a8-7e21-4a35-88cf-5cf3dd35801f","ios":"levelo://app?vid=f4b7b3a8-7e21-4a35-88cf-5cf3dd35801f"},"vehicle_type_id":"4","last_reported":1704982023,"current_range_meters":20000,"station_id":"ce4bgkh2rcd13ifvqbl0","pricing_plan_id":"free"},{"bike_id":"04f3ed91-b75e-4c58-8486-5e17d16ee08a","system_id":"levelo_inurba_marseille","lat":43.296921,"lon":5.376579,"is_reserved":false,"is_disabled":false,"rental_uris":{"android":"levelo://app?vid=04f3ed91-b75e-4c58-8486-5e17d16ee08a","ios":"levelo://app?vid=04f3ed91-b75e-4c58-8486-5e17d16ee08a"},"vehicle_type_id":"4","last_reported":1704982023,"current_range_meters":24800,"station_id":"ce4bgkh2rcd13ifvqbl0","pricing_plan_id":"free"},{"bike_id":"e98362b8-b1b6-4745-82a5-8b7b1129d0f0","system_id":"levelo_inurba_marseille","lat":43.299028,"lon":5.381509,"is_reserved":false,"is_disabled":false,"rental_uris":{"android":"levelo://app?vid=e98362b8-b1b6-4745-82a5-8b7b1129d0f0","ios":"levelo://app?vid=e98362b8-b1b6-4745-82a5-8b7b1129d0f0"},"vehicle_type_id":"4","last_reported":1704982023,"current_range_meters":16000,"station_id":"ce4bgj12rcd13ifvqbc0","pricing_plan_id":"free"},{"bike_id":"ade86ffd-869d-4226-a39e-5482747ab837","system_id":"levelo_inurba_marseille","lat":43.299028,"lon":5.381509,"is_reserved":false,"is_disabled":false,"rental_uris":{"android":"levelo://app?vid=ade86ffd-869d-4226-a39e-5482747ab837","ios":"levelo://app?vid=ade86ffd-869d-4226-a39e-5482747ab837"},"vehicle_type_id":"4","last_reported":1704982023,"current_range_meters":29200,"station_id":"ce4bgj12rcd13ifvqbc0","pricing_plan_id":"free"},{"bike_id":"f2d0e7ce-b1e1-4644-b01a-cf9ccee89444","system_id":"levelo_inurba_marseille","lat":43.296935,"lon":5.376544,"is_reserved":false,"is_disabled":false,"rental_uris":{"android":"levelo://app?vid=f2d0e7ce-b1e1-4644-b01a-cf9ccee89444","ios":"levelo://app?vid=f2d0e7ce-b1e1-4644-b01a-cf9ccee89444"},"vehicle_type_id":"4","last_reported":1704982023,"current_range_meters":6000,"station_id":"ce4bgkh2rcd13ifvqbl0","pricing_plan_id":"free"},{"bike_id":"4df23415-84bc-4cd5-97d5-d762c3c5079b","system_id":"levelo_inurba_marseille","lat":43.299028,"lon":5.381509,"is_reserved":false,"is_disabled":false,"rental_uris":{"android":"levelo://app?vid=4df23415-84bc-4cd5-97d5-d762c3c5079b","ios":"levelo://app?vid=4df23415-84bc-4cd5-97d5-d762c3c5079b"},"vehicle_type_id":"4","last_reported":1704982023,"current_range_meters":31200,"station_id":"ce4bgj12rcd13ifvqbc0","pricing_plan_id":"free"},{"bike_id":"ae116d32-b423-437f-8fae-8fa1b6817edb","system_id":"levelo_inurba_marseille","lat":43.309589,"lon":5.390258,"is_reserved":false,"is_disabled":false,"rental_uris":{"android":"levelo://app?vid=ae116d32-b423-437f-8fae-8fa1b6817edb","ios":"levelo://app?vid=ae116d32-b423-437f-8fae-8fa1b6817edb"},"vehicle_type_id":"4","last_reported":1704982023,"current_range_meters":19200,"station_id":"ce4bgup2rcd13ifvqco0","pricing_plan_id":"free"},{"bike_id":"d136b611-7669-4b33-8a25-ab378fe8ec28","system_id":"levelo_inurba_marseille","lat":43.296935,"lon":5.376544,"is_reserved":false,"is_disabled":false,"rental_uris":{"android":"levelo://app?vid=d136b611-7669-4b33-8a25-ab378fe8ec28","ios":"levelo://app?vid=d136b611-7669-4b33-8a25-ab378fe8ec28"},"vehicle_type_id":"4","last_reported":1704982023,"current_range_meters":23600,"station_id":"ce4bgkh2rcd13ifvqbl0","pricing_plan_id":"free"},{"bike_id":"28415176-8d43-4a80-afff-081ce6f91c45","system_id":"levelo_inurba_marseille","lat":43.296935,"lon":5.376544,"is_reserved":false,"is_disabled":false,"rental_uris":{"android":"levelo://app?vid=28415176-8d43-4a80-afff-081ce6f91c45","ios":"levelo://app?vid=28415176-8d43-4a80-afff-081ce6f91c45"},"vehicle_type_id":"4","last_reported":1704982023,"current_range_meters":24400,"station_id":"ce4bgkh2rcd13ifvqbl0","pricing_plan_id":"free"},{"bike_id":"77298570-3361-480a-9eb9-f8150cf55eaf","system_id":"levelo_inurba_marseille","lat":43.296935,"lon":5.376544,"is_reserved":false,"is_disabled":false,"rental_uris":{"android":"levelo://app?vid=77298570-3361-480a-9eb9-f8150cf55eaf","ios":"levelo://app?vid=77298570-3361-480a-9eb9-f8150cf55eaf"},"vehicle_type_id":"4","last_reported":1704982023,"current_range_meters":24400,"station_id":"ce4bgkh2rcd13ifvqbl0","pricing_plan_id":"free"},{"bike_id":"d9199065-f067-496b-90ea-f9b36d15049e","system_id":"levelo_inurba_marseille","lat":43.296921,"lon":5.376579,"is_reserved":false,"is_disabled":false,"rental_uris":{"android":"levelo://app?vid=d9199065-f067-496b-90ea-f9b36d15049e","ios":"levelo://app?vid=d9199065-f067-496b-90ea-f9b36d15049e"},"vehicle_type_id":"4","last_reported":1704982023,"current_range_meters":26000,"station_id":"ce4bgkh2rcd13ifvqbl0","pricing_plan_id":"free"},{"bike_id":"9423283c-c139-430c-a4e8-e643f7a60daa","system_id":"levelo_inurba_marseille","lat":43.309589,"lon":5.390258,"is_reserved":false,"is_disabled":false,"rental_uris":{"android":"levelo://app?vid=9423283c-c139-430c-a4e8-e643f7a60daa","ios":"levelo://app?vid=9423283c-c139-430c-a4e8-e643f7a60daa"},"vehicle_type_id":"4","last_reported":1704982023,"current_range_meters":28000,"station_id":"ce4bgup2rcd13ifvqco0","pricing_plan_id":"free"},{"bike_id":"53cb7742-a143-4522-bc6f-d57bcfcf2f82","system_id":"levelo_inurba_marseille","lat":43.309589,"lon":5.390258,"is_reserved":false,"is_disabled":false,"rental_uris":{"android":"levelo://app?vid=53cb7742-a143-4522-bc6f-d57bcfcf2f82","ios":"levelo://app?vid=53cb7742-a143-4522-bc6f-d57bcfcf2f82"},"vehicle_type_id":"4","last_reported":1704982023,"current_range_meters":22800,"station_id":"ce4bgup2rcd13ifvqco0","pricing_plan_id":"free"},{"bike_id":"aecee3b6-544c-4396-a512-e2ea042be3b8","system_id":"levelo_inurba_marseille","lat":43.296921,"lon":5.376579,"is_reserved":false,"is_disabled":false,"rental_uris":{"android":"levelo://app?vid=aecee3b6-544c-4396-a512-e2ea042be3b8","ios":"levelo://app?vid=aecee3b6-544c-4396-a512-e2ea042be3b8"},"vehicle_type_id":"4","last_reported":1704982023,"current_range_meters":29600,"station_id":"ce4bgkh2rcd13ifvqbl0","pricing_plan_id":"free"},{"bike_id":"036c0b45-c635-4300-8d30-209c5136829b","system_id":"levelo_inurba_marseille","lat":43.317557,"lon":5.390173,"is_reserved":false,"is_disabled":false,"rental_uris":{"android":"levelo://app?vid=036c0b45-c635-4300-8d30-209c5136829b","ios":"levelo://app?vid=036c0b45-c635-4300-8d30-209c5136829b"},"vehicle_type_id":"4","last_reported":1704982023,"current_range_meters":30400,"station_id":"ce4bhqp2rcd13ifvqhng","pricing_plan_id":"free"},{"bike_id":"e5fe3264-2519-4d05-acee-04964fbbcb57","system_id":"levelo_inurba_marseille","lat":43.317557,"lon":5.390173,"is_reserved":false,"is_disabled":false,"rental_uris":{"android":"levelo://app?vid=e5fe3264-2519-4d05-acee-04964fbbcb57","ios":"levelo://app?vid=e5fe3264-2519-4d05-acee-04964fbbcb57"},"vehicle_type_id":"4","last_reported":1704982023,"current_range_meters":15600,"station_id":"ce4bhqp2rcd13ifvqhng","pricing_plan_id":"free"},{"bike_id":"a91c056c-b951-42e7-8905-a641d5f78fd6","system_id":"levelo_inurba_marseille","lat":43.296129,"lon":5.370777,"is_reserved":false,"is_disabled":false,"rental_uris":{"android":"levelo://app?vid=a91c056c-b951-42e7-8905-a641d5f78fd6","ios":"levelo://app?vid=a91c056c-b951-42e7-8905-a641d5f78fd6"},"vehicle_type_id":"4","last_reported":1704982023,"current_range_meters":30800,"station_id":"ce4bgnh2rcd13ifvqc0g","pricing_plan_id":"free"},{"bike_id":"507b1578-e2dc-462e-aeb6-9104eeb219ee","system_id":"levelo_inurba_marseille","lat":43.298037,"lon":5.381066,"is_reserved":false,"is_disabled":false,"rental_uris":{"android":"levelo://app?vid=507b1578-e2dc-462e-aeb6-9104eeb219ee","ios":"levelo://app?vid=507b1578-e2dc-462e-aeb6-9104eeb219ee"},"vehicle_type_id":"4","last_reported":1704982023,"current_range_meters":26400,"station_id":"ce4bgip2rcd13ifvqbb0","pricing_plan_id":"free"},{"bike_id":"6c9d17c3-39d1-4b4b-ac02-8bedd6168311","system_id":"levelo_inurba_marseille","lat":43.298037,"lon":5.381066,"is_reserved":false,"is_disabled":false,"rental_uris":{"android":"levelo://app?vid=6c9d17c3-39d1-4b4b-ac02-8bedd6168311","ios":"levelo://app?vid=6c9d17c3-39d1-4b4b-ac02-8bedd6168311"},"vehicle_type_id":"4","last_reported":1704982023,"current_range_meters":21600,"station_id":"ce4bgip2rcd13ifvqbb0","pricing_plan_id":"free"},{"bike_id":"fbbd5124-0472-4a76-b7e2-770265d30677","system_id":"levelo_inurba_marseille","lat":43.298037,"lon":5.381066,"is_reserved":false,"is_disabled":false,"rental_uris":{"android":"levelo://app?vid=fbbd5124-0472-4a76-b7e2-770265d30677","ios":"levelo://app?vid=fbbd5124-0472-4a76-b7e2-770265d30677"},"vehicle_type_id":"4","last_reported":1704982023,"current_range_meters":30800,"station_id":"ce4bgip2rcd13ifvqbb0","pricing_plan_id":"free"},{"bike_id":"307fbcd0-5568-4c9c-883d-7be0540b7a5a","system_id":"levelo_inurba_marseille","lat":43.295748,"lon":5.37522,"is_reserved":false,"is_disabled":false,"rental_uris":{"android":"levelo://app?vid=307fbcd0-5568-4c9c-883d-7be0540b7a5a","ios":"levelo://app?vid=307fbcd0-5568-4c9c-883d-7be0540b7a5a"},"vehicle_type_id":"4","last_reported":1704982023,"current_range_meters":7200,"station_id":"ce4bgh92rcd13ifvqb50","pricing_plan_id":"free"},{"bike_id":"c01b97e2-bbd1-4b77-9775-fbe898df9127","system_id":"levelo_inurba_marseille","lat":43.298037,"lon":5.381066,"is_reserved":false,"is_disabled":false,"rental_uris":{"android":"levelo://app?vid=c01b97e2-bbd1-4b77-9775-fbe898df9127","ios":"levelo://app?vid=c01b97e2-bbd1-4b77-9775-fbe898df9127"},"vehicle_type_id":"4","last_reported":1704982023,"current_range_meters":22800,"station_id":"ce4bgip2rcd13ifvqbb0","pricing_plan_id":"free"},{"bike_id":"33df6b8a-bd99-47d8-a06a-81bcb7edbe29","system_id":"levelo_inurba_marseille","lat":43.298037,"lon":5.381066,"is_reserved":false,"is_disabled":false,"rental_uris":{"android":"levelo://app?vid=33df6b8a-bd99-47d8-a06a-81bcb7edbe29","ios":"levelo://app?vid=33df6b8a-bd99-47d8-a06a-81bcb7edbe29"},"vehicle_type_id":"4","last_reported":1704982023,"current_range_meters":22800,"station_id":"ce4bgip2rcd13ifvqbb0","pricing_plan_id":"free"},{"bike_id":"7032d17f-c326-4a95-999b-06be05ba4ca3","system_id":"levelo_inurba_marseille","lat":43.298037,"lon":5.381066,"is_reserved":false,"is_disabled":false,"rental_uris":{"android":"levelo://app?vid=7032d17f-c326-4a95-999b-06be05ba4ca3","ios":"levelo://app?vid=7032d17f-c326-4a95-999b-06be05ba4ca3"},"vehicle_type_id":"4","last_reported":1704982023,"current_range_meters":31200,"station_id":"ce4bgip2rcd13ifvqbb0","pricing_plan_id":"free"},{"bike_id":"dc4e079b-2b87-4cc8-96b7-0007a508b5dc","system_id":"levelo_inurba_marseille","lat":43.298037,"lon":5.381066,"is_reserved":false,"is_disabled":false,"rental_uris":{"android":"levelo://app?vid=dc4e079b-2b87-4cc8-96b7-0007a508b5dc","ios":"levelo://app?vid=dc4e079b-2b87-4cc8-96b7-0007a508b5dc"},"vehicle_type_id":"4","last_reported":1704982023,"current_range_meters":26000,"station_id":"ce4bgip2rcd13ifvqbb0","pricing_plan_id":"free"},{"bike_id":"b59719fb-5912-48a9-9b2a-07e35e03e006","system_id":"levelo_inurba_marseille","lat":43.295752,"lon":5.375058,"is_reserved":false,"is_disabled":false,"rental_uris":{"android":"levelo://app?vid=b59719fb-5912-48a9-9b2a-07e35e03e006","ios":"levelo://app?vid=b59719fb-5912-48a9-9b2a-07e35e03e006"},"vehicle_type_id":"4","last_reported":1704982023,"current_range_meters":31200,"station_id":"ce4bgh92rcd13ifvqb50","pricing_plan_id":"free"},{"bike_id":"e42b5e7b-1d35-4c1d-8a0d-5e91b60471ec","system_id":"levelo_inurba_marseille","lat":43.29572,"lon":5.374944,"is_reserved":false,"is_disabled":false,"rental_uris":{"android":"levelo://app?vid=e42b5e7b-1d35-4c1d-8a0d-5e91b60471ec","ios":"levelo://app?vid=e42b5e7b-1d35-4c1d-8a0d-5e91b60471ec"},"vehicle_type_id":"4","last_reported":1704982023,"current_range_meters":28400,"station_id":"ce4bgh92rcd13ifvqb50","pricing_plan_id":"free"},{"bike_id":"53eea277-e110-4360-9fd8-9f55e8576ea5","system_id":"levelo_inurba_marseille","lat":43.298037,"lon":5.381066,"is_reserved":false,"is_disabled":false,"rental_uris":{"android":"levelo://app?vid=53eea277-e110-4360-9fd8-9f55e8576ea5","ios":"levelo://app?vid=53eea277-e110-4360-9fd8-9f55e8576ea5"},"vehicle_type_id":"4","last_reported":1704982023,"current_range_meters":28400,"station_id":"ce4bgip2rcd13ifvqbb0","pricing_plan_id":"free"},{"bike_id":"63e07b46-983a-4b9d-85d6-a956b7573154","system_id":"levelo_inurba_marseille","lat":43.295748,"lon":5.37522,"is_reserved":false,"is_disabled":false,"rental_uris":{"android":"levelo://app?vid=63e07b46-983a-4b9d-85d6-a956b7573154","ios":"levelo://app?vid=63e07b46-983a-4b9d-85d6-a956b7573154"},"vehicle_type_id":"4","last_reported":1704982023,"current_range_meters":14000,"station_id":"ce4bgh92rcd13ifvqb50","pricing_plan_id":"free"},{"bike_id":"04304dc1-cbe3-4606-ae83-a70de0d6ef6f","system_id":"levelo_inurba_marseille","lat":43.304274,"lon":5.388873,"is_reserved":false,"is_disabled":false,"rental_uris":{"android":"levelo://app?vid=04304dc1-cbe3-4606-ae83-a70de0d6ef6f","ios":"levelo://app?vid=04304dc1-cbe3-4606-ae83-a70de0d6ef6f"},"vehicle_type_id":"4","last_reported":1704982023,"current_range_meters":31200,"station_id":"ce4bgk12rcd13ifvqbi0","pricing_plan_id":"free"},{"bike_id":"1d2e4166-b731-4cd9-a86e-bfac7b4b01f0","system_id":"levelo_inurba_marseille","lat":43.30437,"lon":5.3889,"is_reserved":false,"is_disabled":false,"rental_uris":{"android":"levelo://app?vid=1d2e4166-b731-4cd9-a86e-bfac7b4b01f0","ios":"levelo://app?vid=1d2e4166-b731-4cd9-a86e-bfac7b4b01f0"},"vehicle_type_id":"4","last_reported":1704982023,"current_range_meters":16000,"station_id":"ce4bgk12rcd13ifvqbi0","pricing_plan_id":"free"},{"bike_id":"52cc7989-a4b3-4111-a8cd-05a35a7f0ae1","system_id":"levelo_inurba_marseille","lat":43.304274,"lon":5.388873,"is_reserved":false,"is_disabled":false,"rental_uris":{"android":"levelo://app?vid=52cc7989-a4b3-4111-a8cd-05a35a7f0ae1","ios":"levelo://app?vid=52cc7989-a4b3-4111-a8cd-05a35a7f0ae1"},"vehicle_type_id":"4","last_reported":1704982023,"current_range_meters":25600,"station_id":"ce4bgk12rcd13ifvqbi0","pricing_plan_id":"free"},{"bike_id":"0959bf12-ba24-4a35-b1c0-819bdab9b3ca","system_id":"levelo_inurba_marseille","lat":43.296263,"lon":5.377094,"is_reserved":false,"is_disabled":false,"rental_uris":{"android":"levelo://app?vid=0959bf12-ba24-4a35-b1c0-819bdab9b3ca","ios":"levelo://app?vid=0959bf12-ba24-4a35-b1c0-819bdab9b3ca"},"vehicle_type_id":"4","last_reported":1704982023,"current_range_meters":23200,"station_id":"ce4bgi92rcd13ifvqb90","pricing_plan_id":"free"},{"bike_id":"40e84d44-d481-4777-a4d5-9f50d4c96c5f","system_id":"levelo_inurba_marseille","lat":43.296263,"lon":5.377094,"is_reserved":false,"is_disabled":false,"rental_uris":{"android":"levelo://app?vid=40e84d44-d481-4777-a4d5-9f50d4c96c5f","ios":"levelo://app?vid=40e84d44-d481-4777-a4d5-9f50d4c96c5f"},"vehicle_type_id":"4","last_reported":1704982023,"current_range_meters":18800,"station_id":"ce4bgi92rcd13ifvqb90","pricing_plan_id":"free"},{"bike_id":"396b6564-478d-464d-80c0-d7158eec388e","system_id":"levelo_inurba_marseille","lat":43.295279,"lon":5.375048,"is_reserved":false,"is_disabled":false,"rental_uris":{"android":"levelo://app?vid=396b6564-478d-464d-80c0-d7158eec388e","ios":"levelo://app?vid=396b6564-478d-464d-80c0-d7158eec388e"},"vehicle_type_id":"4","last_reported":1704982023,"current_range_meters":25200,"station_id":"ce4bgkp2rcd13ifvqbmg","pricing_plan_id":"free"},{"bike_id":"85f59fab-8ee0-48e3-b1c5-f74886269d2b","system_id":"levelo_inurba_marseille","lat":43.296277,"lon":5.377108,"is_reserved":false,"is_disabled":false,"rental_uris":{"android":"levelo://app?vid=85f59fab-8ee0-48e3-b1c5-f74886269d2b","ios":"levelo://app?vid=85f59fab-8ee0-48e3-b1c5-f74886269d2b"},"vehicle_type_id":"4","last_reported":1704982023,"current_range_meters":30000,"station_id":"ce4bgi92rcd13ifvqb90","pricing_plan_id":"free"},{"bike_id":"81ddc5ba-e9a9-42e4-bca9-327aabad3567","system_id":"levelo_inurba_marseille","lat":43.29536,"lon":5.37501,"is_reserved":false,"is_disabled":false,"rental_uris":{"android":"levelo://app?vid=81ddc5ba-e9a9-42e4-bca9-327aabad3567","ios":"levelo://app?vid=81ddc5ba-e9a9-42e4-bca9-327aabad3567"},"vehicle_type_id":"4","last_reported":1704982023,"current_range_meters":2800,"station_id":"ce4bgkp2rcd13ifvqbmg","pricing_plan_id":"free"},{"bike_id":"bfd4e160-74d9-47d6-83ef-466f5c6026a4","system_id":"levelo_inurba_marseille","lat":43.295279,"lon":5.375048,"is_reserved":false,"is_disabled":false,"rental_uris":{"android":"levelo://app?vid=bfd4e160-74d9-47d6-83ef-466f5c6026a4","ios":"levelo://app?vid=bfd4e160-74d9-47d6-83ef-466f5c6026a4"},"vehicle_type_id":"4","last_reported":1704982023,"current_range_meters":28800,"station_id":"ce4bgkp2rcd13ifvqbmg","pricing_plan_id":"free"},{"bike_id":"76e9903b-b52b-473a-9f1d-142734df3d79","system_id":"levelo_inurba_marseille","lat":43.298037,"lon":5.381066,"is_reserved":false,"is_disabled":false,"rental_uris":{"android":"levelo://app?vid=76e9903b-b52b-473a-9f1d-142734df3d79","ios":"levelo://app?vid=76e9903b-b52b-473a-9f1d-142734df3d79"},"vehicle_type_id":"4","last_reported":1704982023,"current_range_meters":0,"station_id":"ce4bgip2rcd13ifvqbb0","pricing_plan_id":"free"},{"bike_id":"8a644e35-61be-4ba9-9d06-387474933391","system_id":"levelo_inurba_marseille","lat":43.299717,"lon":5.384845,"is_reserved":false,"is_disabled":false,"rental_uris":{"android":"levelo://app?vid=8a644e35-61be-4ba9-9d06-387474933391","ios":"levelo://app?vid=8a644e35-61be-4ba9-9d06-387474933391"},"vehicle_type_id":"4","last_reported":1704982023,"current_range_meters":26000,"station_id":"ce4bgj92rcd13ifvqbd0","pricing_plan_id":"free"},{"bike_id":"38fb15e2-97fd-4f68-ae2d-4c0fe510a864","system_id":"levelo_inurba_marseille","lat":43.323632,"lon":5.388753,"is_reserved":false,"is_disabled":false,"rental_uris":{"android":"levelo://app?vid=38fb15e2-97fd-4f68-ae2d-4c0fe510a864","ios":"levelo://app?vid=38fb15e2-97fd-4f68-ae2d-4c0fe510a864"},"vehicle_type_id":"4","last_reported":1704982023,"current_range_meters":22000,"station_id":"ce4bhqp2rcd13ifvqhog","pricing_plan_id":"free"},{"bike_id":"5ce5cb11-75ff-4ac2-b66c-9357d583daca","system_id":"levelo_inurba_marseille","lat":43.32367,"lon":5.38873,"is_reserved":false,"is_disabled":false,"rental_uris":{"android":"levelo://app?vid=5ce5cb11-75ff-4ac2-b66c-9357d583daca","ios":"levelo://app?vid=5ce5cb11-75ff-4ac2-b66c-9357d583daca"},"vehicle_type_id":"4","last_reported":1704982023,"current_range_meters":12000,"station_id":"ce4bhqp2rcd13ifvqhog","pricing_plan_id":"free"},{"bike_id":"53bcccdd-f8f4-4713-a7f0-5bfceffa3b71","system_id":"levelo_inurba_marseille","lat":43.32367,"lon":5.388836,"is_reserved":false,"is_disabled":false,"rental_uris":{"android":"levelo://app?vid=53bcccdd-f8f4-4713-a7f0-5bfceffa3b71","ios":"levelo://app?vid=53bcccdd-f8f4-4713-a7f0-5bfceffa3b71"},"vehicle_type_id":"4","last_reported":1704982023,"current_range_meters":26400,"station_id":"ce4bhqp2rcd13ifvqhog","pricing_plan_id":"free"},{"bike_id":"1eec63a5-d851-4bb3-9e9e-79960d82514b","system_id":"levelo_inurba_marseille","lat":43.32368,"lon":5.38881,"is_reserved":false,"is_disabled":false,"rental_uris":{"android":"levelo://app?vid=1eec63a5-d851-4bb3-9e9e-79960d82514b","ios":"levelo://app?vid=1eec63a5-d851-4bb3-9e9e-79960d82514b"},"vehicle_type_id":"4","last_reported":1704982023,"current_range_meters":13200,"station_id":"ce4bhqp2rcd13ifvqhog","pricing_plan_id":"free"},{"bike_id":"0ab7a87b-f568-4965-a7d5-d547f8364640","system_id":"levelo_inurba_marseille","lat":43.323632,"lon":5.388864,"is_reserved":false,"is_disabled":false,"rental_uris":{"android":"levelo://app?vid=0ab7a87b-f568-4965-a7d5-d547f8364640","ios":"levelo://app?vid=0ab7a87b-f568-4965-a7d5-d547f8364640"},"vehicle_type_id":"4","last_reported":1704982023,"current_range_meters":9200,"station_id":"ce4bhqp2rcd13ifvqhog","pricing_plan_id":"free"},{"bike_id":"be7361aa-80f1-438b-9ce8-d142d1e331c4","system_id":"levelo_inurba_marseille","lat":43.32364,"lon":5.38888,"is_reserved":false,"is_disabled":false,"rental_uris":{"android":"levelo://app?vid=be7361aa-80f1-438b-9ce8-d142d1e331c4","ios":"levelo://app?vid=be7361aa-80f1-438b-9ce8-d142d1e331c4"},"vehicle_type_id":"4","last_reported":1704982023,"current_range_meters":22800,"station_id":"ce4bhqp2rcd13ifvqhog","pricing_plan_id":"free"},{"bike_id":"c2c9dde6-44b3-4592-a746-1f7036c5d271","system_id":"levelo_inurba_marseille","lat":43.29602,"lon":5.381084,"is_reserved":false,"is_disabled":false,"rental_uris":{"android":"levelo://app?vid=c2c9dde6-44b3-4592-a746-1f7036c5d271","ios":"levelo://app?vid=c2c9dde6-44b3-4592-a746-1f7036c5d271"},"vehicle_type_id":"4","last_reported":1704982023,"current_range_meters":16000,"station_id":"ce4bgl12rcd13ifvqbo0","pricing_plan_id":"free"},{"bike_id":"892df443-ffcd-4b07-9853-1d306628b67e","system_id":"levelo_inurba_marseille","lat":43.29602,"lon":5.381084,"is_reserved":false,"is_disabled":false,"rental_uris":{"android":"levelo://app?vid=892df443-ffcd-4b07-9853-1d306628b67e","ios":"levelo://app?vid=892df443-ffcd-4b07-9853-1d306628b67e"},"vehicle_type_id":"4","last_reported":1704982023,"current_range_meters":14000,"station_id":"ce4bgl12rcd13ifvqbo0","pricing_plan_id":"free"},{"bike_id":"a991f270-a327-4468-8d5a-904738fec9ca","system_id":"levelo_inurba_marseille","lat":43.29602,"lon":5.381084,"is_reserved":false,"is_disabled":false,"rental_uris":{"android":"levelo://app?vid=a991f270-a327-4468-8d5a-904738fec9ca","ios":"levelo://app?vid=a991f270-a327-4468-8d5a-904738fec9ca"},"vehicle_type_id":"4","last_reported":1704982023,"current_range_meters":28000,"station_id":"ce4bgl12rcd13ifvqbo0","pricing_plan_id":"free"},{"bike_id":"14a9865d-2c6b-4180-879f-1747da7ec2ae","system_id":"levelo_inurba_marseille","lat":43.292749,"lon":5.368402,"is_reserved":false,"is_disabled":false,"rental_uris":{"android":"levelo://app?vid=14a9865d-2c6b-4180-879f-1747da7ec2ae","ios":"levelo://app?vid=14a9865d-2c6b-4180-879f-1747da7ec2ae"},"vehicle_type_id":"4","last_reported":1704982023,"current_range_meters":22000,"station_id":"ce4bhbp2rcd13ifvqesg","pricing_plan_id":"free"},{"bike_id":"77869feb-ffa7-49f7-a714-f9a734dc0b4c","system_id":"levelo_inurba_marseille","lat":43.305994,"lon":5.393687,"is_reserved":false,"is_disabled":false,"rental_uris":{"android":"levelo://app?vid=77869feb-ffa7-49f7-a714-f9a734dc0b4c","ios":"levelo://app?vid=77869feb-ffa7-49f7-a714-f9a734dc0b4c"},"vehicle_type_id":"4","last_reported":1704982023,"current_range_meters":23600,"station_id":"ce4bh0p2rcd13ifvqd80","pricing_plan_id":"free"},{"bike_id":"abcc6563-d9b1-4249-973f-ce10c435d26f","system_id":"levelo_inurba_marseille","lat":43.305994,"lon":5.393687,"is_reserved":false,"is_disabled":false,"rental_uris":{"android":"levelo://app?vid=abcc6563-d9b1-4249-973f-ce10c435d26f","ios":"levelo://app?vid=abcc6563-d9b1-4249-973f-ce10c435d26f"},"vehicle_type_id":"4","last_reported":1704982023,"current_range_meters":24800,"station_id":"ce4bh0p2rcd13ifvqd80","pricing_plan_id":"free"},{"bike_id":"72d073ad-7ee3-4afa-b17c-80997cb17ec2","system_id":"levelo_inurba_marseille","lat":43.305994,"lon":5.393687,"is_reserved":false,"is_disabled":false,"rental_uris":{"android":"levelo://app?vid=72d073ad-7ee3-4afa-b17c-80997cb17ec2","ios":"levelo://app?vid=72d073ad-7ee3-4afa-b17c-80997cb17ec2"},"vehicle_type_id":"4","last_reported":1704982023,"current_range_meters":3600,"station_id":"ce4bh0p2rcd13ifvqd80","pricing_plan_id":"free"},{"bike_id":"959e52cf-c649-41ca-a2e0-597730c53185","system_id":"levelo_inurba_marseille","lat":43.305994,"lon":5.393687,"is_reserved":false,"is_disabled":false,"rental_uris":{"android":"levelo://app?vid=959e52cf-c649-41ca-a2e0-597730c53185","ios":"levelo://app?vid=959e52cf-c649-41ca-a2e0-597730c53185"},"vehicle_type_id":"4","last_reported":1704982023,"current_range_meters":25200,"station_id":"ce4bh0p2rcd13ifvqd80","pricing_plan_id":"free"},{"bike_id":"4cfebeb3-f37b-4733-816f-7dd7274dee0e","system_id":"levelo_inurba_marseille","lat":43.305994,"lon":5.393687,"is_reserved":false,"is_disabled":false,"rental_uris":{"android":"levelo://app?vid=4cfebeb3-f37b-4733-816f-7dd7274dee0e","ios":"levelo://app?vid=4cfebeb3-f37b-4733-816f-7dd7274dee0e"},"vehicle_type_id":"4","last_reported":1704982023,"current_range_meters":18400,"station_id":"ce4bh0p2rcd13ifvqd80","pricing_plan_id":"free"},{"bike_id":"5b993f79-e5e4-48f8-8e04-428d7c661d56","system_id":"levelo_inurba_marseille","lat":43.305994,"lon":5.393687,"is_reserved":false,"is_disabled":false,"rental_uris":{"android":"levelo://app?vid=5b993f79-e5e4-48f8-8e04-428d7c661d56","ios":"levelo://app?vid=5b993f79-e5e4-48f8-8e04-428d7c661d56"},"vehicle_type_id":"4","last_reported":1704982023,"current_range_meters":21600,"station_id":"ce4bh0p2rcd13ifvqd80","pricing_plan_id":"free"},{"bike_id":"9a92b336-08b8-43c6-8386-7442670c2eb6","system_id":"levelo_inurba_marseille","lat":43.303002,"lon":5.392142,"is_reserved":false,"is_disabled":false,"rental_uris":{"android":"levelo://app?vid=9a92b336-08b8-43c6-8386-7442670c2eb6","ios":"levelo://app?vid=9a92b336-08b8-43c6-8386-7442670c2eb6"},"vehicle_type_id":"4","last_reported":1704982023,"current_range_meters":16000,"station_id":"ce4bgkh2rcd13ifvqbk0","pricing_plan_id":"free"},{"bike_id":"ad4cbf14-1d2c-45ec-977c-fab5dbd5b5d2","system_id":"levelo_inurba_marseille","lat":43.303002,"lon":5.392142,"is_reserved":false,"is_disabled":false,"rental_uris":{"android":"levelo://app?vid=ad4cbf14-1d2c-45ec-977c-fab5dbd5b5d2","ios":"levelo://app?vid=ad4cbf14-1d2c-45ec-977c-fab5dbd5b5d2"},"vehicle_type_id":"4","last_reported":1704982023,"current_range_meters":30400,"station_id":"ce4bgkh2rcd13ifvqbk0","pricing_plan_id":"free"},{"bike_id":"4b463938-faf8-4f32-b904-1c456a532fe7","system_id":"levelo_inurba_marseille","lat":43.303002,"lon":5.392142,"is_reserved":false,"is_disabled":false,"rental_uris":{"android":"levelo://app?vid=4b463938-faf8-4f32-b904-1c456a532fe7","ios":"levelo://app?vid=4b463938-faf8-4f32-b904-1c456a532fe7"},"vehicle_type_id":"4","last_reported":1704982023,"current_range_meters":13600,"station_id":"ce4bgkh2rcd13ifvqbk0","pricing_plan_id":"free"},{"bike_id":"f406a306-59ae-4c32-9f82-38483d1d5c27","system_id":"levelo_inurba_marseille","lat":43.303002,"lon":5.392142,"is_reserved":false,"is_disabled":false,"rental_uris":{"android":"levelo://app?vid=f406a306-59ae-4c32-9f82-38483d1d5c27","ios":"levelo://app?vid=f406a306-59ae-4c32-9f82-38483d1d5c27"},"vehicle_type_id":"4","last_reported":1704982023,"current_range_meters":11600,"station_id":"ce4bgkh2rcd13ifvqbk0","pricing_plan_id":"free"},{"bike_id":"45c8d696-82a1-407f-aa77-372f1b0990c0","system_id":"levelo_inurba_marseille","lat":43.30085,"lon":5.390856,"is_reserved":false,"is_disabled":false,"rental_uris":{"android":"levelo://app?vid=45c8d696-82a1-407f-aa77-372f1b0990c0","ios":"levelo://app?vid=45c8d696-82a1-407f-aa77-372f1b0990c0"},"vehicle_type_id":"4","last_reported":1704982023,"current_range_meters":30000,"station_id":"ce4bh192rcd13ifvqdb0","pricing_plan_id":"free"},{"bike_id":"5e665bee-0da5-4452-9333-4aeecffc4e22","system_id":"levelo_inurba_marseille","lat":43.292311,"lon":5.360731,"is_reserved":false,"is_disabled":false,"rental_uris":{"android":"levelo://app?vid=5e665bee-0da5-4452-9333-4aeecffc4e22","ios":"levelo://app?vid=5e665bee-0da5-4452-9333-4aeecffc4e22"},"vehicle_type_id":"4","last_reported":1704982023,"current_range_meters":12400,"station_id":"ce4bhbh2rcd13ifvqeqg","pricing_plan_id":"free"},{"bike_id":"e6c5b37b-21bc-4058-b0f2-044ce5159eac","system_id":"levelo_inurba_marseille","lat":43.292311,"lon":5.360731,"is_reserved":false,"is_disabled":false,"rental_uris":{"android":"levelo://app?vid=e6c5b37b-21bc-4058-b0f2-044ce5159eac","ios":"levelo://app?vid=e6c5b37b-21bc-4058-b0f2-044ce5159eac"},"vehicle_type_id":"4","last_reported":1704982023,"current_range_meters":29600,"station_id":"ce4bhbh2rcd13ifvqeqg","pricing_plan_id":"free"},{"bike_id":"55ec213f-939b-415b-9fab-4e7b4540cfe2","system_id":"levelo_inurba_marseille","lat":43.292231,"lon":5.360716,"is_reserved":false,"is_disabled":false,"rental_uris":{"android":"levelo://app?vid=55ec213f-939b-415b-9fab-4e7b4540cfe2","ios":"levelo://app?vid=55ec213f-939b-415b-9fab-4e7b4540cfe2"},"vehicle_type_id":"4","last_reported":1704982023,"current_range_meters":6800,"station_id":"ce4bhbh2rcd13ifvqeqg","pricing_plan_id":"free"},{"bike_id":"f665e80b-025b-43fa-a7e1-c58ffc82e9eb","system_id":"levelo_inurba_marseille","lat":43.292311,"lon":5.360731,"is_reserved":false,"is_disabled":false,"rental_uris":{"android":"levelo://app?vid=f665e80b-025b-43fa-a7e1-c58ffc82e9eb","ios":"levelo://app?vid=f665e80b-025b-43fa-a7e1-c58ffc82e9eb"},"vehicle_type_id":"4","last_reported":1704982023,"current_range_meters":2000,"station_id":"ce4bhbh2rcd13ifvqeqg","pricing_plan_id":"free"},{"bike_id":"c13309b7-e52f-4e91-ab60-b23fe8e18546","system_id":"levelo_inurba_marseille","lat":43.300852,"lon":5.390859,"is_reserved":false,"is_disabled":false,"rental_uris":{"android":"levelo://app?vid=c13309b7-e52f-4e91-ab60-b23fe8e18546","ios":"levelo://app?vid=c13309b7-e52f-4e91-ab60-b23fe8e18546"},"vehicle_type_id":"4","last_reported":1704982023,"current_range_meters":26400,"station_id":"ce4bh192rcd13ifvqdb0","pricing_plan_id":"free"},{"bike_id":"da562df3-20d9-4768-84ec-ca4fd3e90ed3","system_id":"levelo_inurba_marseille","lat":43.300852,"lon":5.390859,"is_reserved":false,"is_disabled":false,"rental_uris":{"android":"levelo://app?vid=da562df3-20d9-4768-84ec-ca4fd3e90ed3","ios":"levelo://app?vid=da562df3-20d9-4768-84ec-ca4fd3e90ed3"},"vehicle_type_id":"4","last_reported":1704982023,"current_range_meters":25600,"station_id":"ce4bh192rcd13ifvqdb0","pricing_plan_id":"free"},{"bike_id":"4f50f396-8ab1-4c81-9e15-7fa8f7ce6fcc","system_id":"levelo_inurba_marseille","lat":43.29883,"lon":5.38897,"is_reserved":false,"is_disabled":false,"rental_uris":{"android":"levelo://app?vid=4f50f396-8ab1-4c81-9e15-7fa8f7ce6fcc","ios":"levelo://app?vid=4f50f396-8ab1-4c81-9e15-7fa8f7ce6fcc"},"vehicle_type_id":"4","last_reported":1704982023,"current_range_meters":15600,"station_id":"","pricing_plan_id":"free"},{"bike_id":"43e3c829-2deb-43ef-8b69-a848c378c386","system_id":"levelo_inurba_marseille","lat":43.313291,"lon":5.396838,"is_reserved":false,"is_disabled":false,"rental_uris":{"android":"levelo://app?vid=43e3c829-2deb-43ef-8b69-a848c378c386","ios":"levelo://app?vid=43e3c829-2deb-43ef-8b69-a848c378c386"},"vehicle_type_id":"4","last_reported":1704982023,"current_range_meters":23200,"station_id":"ce4bgvp2rcd13ifvqcu0","pricing_plan_id":"free"},{"bike_id":"a46ac0a0-15f6-49ab-90cb-31e315446361","system_id":"levelo_inurba_marseille","lat":43.31332,"lon":5.39689,"is_reserved":false,"is_disabled":false,"rental_uris":{"android":"levelo://app?vid=a46ac0a0-15f6-49ab-90cb-31e315446361","ios":"levelo://app?vid=a46ac0a0-15f6-49ab-90cb-31e315446361"},"vehicle_type_id":"4","last_reported":1704982023,"current_range_meters":0,"station_id":"ce4bgvp2rcd13ifvqcu0","pricing_plan_id":"free"},{"bike_id":"0dee0b75-d1f0-45ec-9dbc-14cf2ecd02e3","system_id":"levelo_inurba_marseille","lat":43.313288,"lon":5.396928,"is_reserved":false,"is_disabled":false,"rental_uris":{"android":"levelo://app?vid=0dee0b75-d1f0-45ec-9dbc-14cf2ecd02e3","ios":"levelo://app?vid=0dee0b75-d1f0-45ec-9dbc-14cf2ecd02e3"},"vehicle_type_id":"4","last_reported":1704982023,"current_range_meters":29600,"station_id":"ce4bgvp2rcd13ifvqcu0","pricing_plan_id":"free"},{"bike_id":"400e0841-ffb1-4a64-9069-e3961362af73","system_id":"levelo_inurba_marseille","lat":43.313291,"lon":5.396838,"is_reserved":false,"is_disabled":false,"rental_uris":{"android":"levelo://app?vid=400e0841-ffb1-4a64-9069-e3961362af73","ios":"levelo://app?vid=400e0841-ffb1-4a64-9069-e3961362af73"},"vehicle_type_id":"4","last_reported":1704982023,"current_range_meters":31200,"station_id":"ce4bgvp2rcd13ifvqcu0","pricing_plan_id":"free"},{"bike_id":"ce6af3a4-0a7a-4ccb-9e78-784b5a23ca21","system_id":"levelo_inurba_marseille","lat":43.31331,"lon":5.39695,"is_reserved":false,"is_disabled":false,"rental_uris":{"android":"levelo://app?vid=ce6af3a4-0a7a-4ccb-9e78-784b5a23ca21","ios":"levelo://app?vid=ce6af3a4-0a7a-4ccb-9e78-784b5a23ca21"},"vehicle_type_id":"4","last_reported":1704982023,"current_range_meters":8800,"station_id":"ce4bgvp2rcd13ifvqcu0","pricing_plan_id":"free"},{"bike_id":"ed9e40e3-bf16-4ca0-aa68-21bc35fe57f1","system_id":"levelo_inurba_marseille","lat":43.309047,"lon":5.396551,"is_reserved":false,"is_disabled":false,"rental_uris":{"android":"levelo://app?vid=ed9e40e3-bf16-4ca0-aa68-21bc35fe57f1","ios":"levelo://app?vid=ed9e40e3-bf16-4ca0-aa68-21bc35fe57f1"},"vehicle_type_id":"4","last_reported":1704982023,"current_range_meters":20000,"station_id":"ce4bh012rcd13ifvqcv0","pricing_plan_id":"free"},{"bike_id":"7e774733-9be3-463c-8b8a-18427807ec58","system_id":"levelo_inurba_marseille","lat":43.31328,"lon":5.39699,"is_reserved":false,"is_disabled":false,"rental_uris":{"android":"levelo://app?vid=7e774733-9be3-463c-8b8a-18427807ec58","ios":"levelo://app?vid=7e774733-9be3-463c-8b8a-18427807ec58"},"vehicle_type_id":"4","last_reported":1704982023,"current_range_meters":20400,"station_id":"ce4bgvp2rcd13ifvqcu0","pricing_plan_id":"free"},{"bike_id":"25e73d19-1a29-4693-80c2-5157b3beecfe","system_id":"levelo_inurba_marseille","lat":43.309038,"lon":5.396546,"is_reserved":false,"is_disabled":false,"rental_uris":{"android":"levelo://app?vid=25e73d19-1a29-4693-80c2-5157b3beecfe","ios":"levelo://app?vid=25e73d19-1a29-4693-80c2-5157b3beecfe"},"vehicle_type_id":"4","last_reported":1704982023,"current_range_meters":31200,"station_id":"ce4bh012rcd13ifvqcv0","pricing_plan_id":"free"},{"bike_id":"540e3a2d-e825-4bdf-9152-1d7ebf355fc0","system_id":"levelo_inurba_marseille","lat":43.309038,"lon":5.396546,"is_reserved":false,"is_disabled":false,"rental_uris":{"android":"levelo://app?vid=540e3a2d-e825-4bdf-9152-1d7ebf355fc0","ios":"levelo://app?vid=540e3a2d-e825-4bdf-9152-1d7ebf355fc0"},"vehicle_type_id":"4","last_reported":1704982023,"current_range_meters":4000,"station_id":"ce4bh012rcd13ifvqcv0","pricing_plan_id":"free"},{"bike_id":"b5ef4803-4160-420f-8e61-9ecd89b26255","system_id":"levelo_inurba_marseille","lat":43.313291,"lon":5.396838,"is_reserved":false,"is_disabled":false,"rental_uris":{"android":"levelo://app?vid=b5ef4803-4160-420f-8e61-9ecd89b26255","ios":"levelo://app?vid=b5ef4803-4160-420f-8e61-9ecd89b26255"},"vehicle_type_id":"4","last_reported":1704982023,"current_range_meters":22000,"station_id":"ce4bgvp2rcd13ifvqcu0","pricing_plan_id":"free"},{"bike_id":"358036cf-51f9-4667-8ab5-838afb714bf3","system_id":"levelo_inurba_marseille","lat":43.309047,"lon":5.396551,"is_reserved":false,"is_disabled":false,"rental_uris":{"android":"levelo://app?vid=358036cf-51f9-4667-8ab5-838afb714bf3","ios":"levelo://app?vid=358036cf-51f9-4667-8ab5-838afb714bf3"},"vehicle_type_id":"4","last_reported":1704982023,"current_range_meters":18800,"station_id":"ce4bh012rcd13ifvqcv0","pricing_plan_id":"free"},{"bike_id":"df06ddd8-7f64-49f9-a54a-ba6261bd9a39","system_id":"levelo_inurba_marseille","lat":43.309038,"lon":5.396546,"is_reserved":false,"is_disabled":false,"rental_uris":{"android":"levelo://app?vid=df06ddd8-7f64-49f9-a54a-ba6261bd9a39","ios":"levelo://app?vid=df06ddd8-7f64-49f9-a54a-ba6261bd9a39"},"vehicle_type_id":"4","last_reported":1704982023,"current_range_meters":10400,"station_id":"ce4bh012rcd13ifvqcv0","pricing_plan_id":"free"},{"bike_id":"fa90f463-1b70-495e-8fb4-456a5738a650","system_id":"levelo_inurba_marseille","lat":43.309038,"lon":5.396546,"is_reserved":false,"is_disabled":false,"rental_uris":{"android":"levelo://app?vid=fa90f463-1b70-495e-8fb4-456a5738a650","ios":"levelo://app?vid=fa90f463-1b70-495e-8fb4-456a5738a650"},"vehicle_type_id":"4","last_reported":1704982023,"current_range_meters":31200,"station_id":"ce4bh012rcd13ifvqcv0","pricing_plan_id":"free"},{"bike_id":"95cae602-7d94-4c67-9727-862708709c61","system_id":"levelo_inurba_marseille","lat":43.29529,"lon":5.385581,"is_reserved":false,"is_disabled":false,"rental_uris":{"android":"levelo://app?vid=95cae602-7d94-4c67-9727-862708709c61","ios":"levelo://app?vid=95cae602-7d94-4c67-9727-862708709c61"},"vehicle_type_id":"4","last_reported":1704982023,"current_range_meters":22000,"station_id":"ce4bgih2rcd13ifvqba0","pricing_plan_id":"free"},{"bike_id":"d7c5a9bf-217e-4e50-9996-aeb6e3bdfc05","system_id":"levelo_inurba_marseille","lat":43.29529,"lon":5.385581,"is_reserved":false,"is_disabled":false,"rental_uris":{"android":"levelo://app?vid=d7c5a9bf-217e-4e50-9996-aeb6e3bdfc05","ios":"levelo://app?vid=d7c5a9bf-217e-4e50-9996-aeb6e3bdfc05"},"vehicle_type_id":"4","last_reported":1704982023,"current_range_meters":13600,"station_id":"ce4bgih2rcd13ifvqba0","pricing_plan_id":"free"},{"bike_id":"c65542fe-6da5-4b0e-b7bb-462e7d3e01ef","system_id":"levelo_inurba_marseille","lat":43.29529,"lon":5.385581,"is_reserved":false,"is_disabled":false,"rental_uris":{"android":"levelo://app?vid=c65542fe-6da5-4b0e-b7bb-462e7d3e01ef","ios":"levelo://app?vid=c65542fe-6da5-4b0e-b7bb-462e7d3e01ef"},"vehicle_type_id":"4","last_reported":1704982023,"current_range_meters":30000,"station_id":"ce4bgih2rcd13ifvqba0","pricing_plan_id":"free"},{"bike_id":"46f7910f-b038-476a-adec-302b96106754","system_id":"levelo_inurba_marseille","lat":43.29529,"lon":5.385581,"is_reserved":false,"is_disabled":false,"rental_uris":{"android":"levelo://app?vid=46f7910f-b038-476a-adec-302b96106754","ios":"levelo://app?vid=46f7910f-b038-476a-adec-302b96106754"},"vehicle_type_id":"4","last_reported":1704982023,"current_range_meters":29200,"station_id":"ce4bgih2rcd13ifvqba0","pricing_plan_id":"free"},{"bike_id":"7744434e-a25d-4043-b758-18f34d30797e","system_id":"levelo_inurba_marseille","lat":43.302008,"lon":5.394694,"is_reserved":false,"is_disabled":false,"rental_uris":{"android":"levelo://app?vid=7744434e-a25d-4043-b758-18f34d30797e","ios":"levelo://app?vid=7744434e-a25d-4043-b758-18f34d30797e"},"vehicle_type_id":"4","last_reported":1704982023,"current_range_meters":29600,"station_id":"ce4bh0p2rcd13ifvqd70","pricing_plan_id":"free"},{"bike_id":"c9193d68-c771-43b6-83dd-bfb46644f9a6","system_id":"levelo_inurba_marseille","lat":43.302008,"lon":5.394694,"is_reserved":false,"is_disabled":false,"rental_uris":{"android":"levelo://app?vid=c9193d68-c771-43b6-83dd-bfb46644f9a6","ios":"levelo://app?vid=c9193d68-c771-43b6-83dd-bfb46644f9a6"},"vehicle_type_id":"4","last_reported":1704982023,"current_range_meters":31200,"station_id":"ce4bh0p2rcd13ifvqd70","pricing_plan_id":"free"},{"bike_id":"436b95fc-223e-4e41-8485-554f429ec8c0","system_id":"levelo_inurba_marseille","lat":43.302008,"lon":5.394694,"is_reserved":false,"is_disabled":false,"rental_uris":{"android":"levelo://app?vid=436b95fc-223e-4e41-8485-554f429ec8c0","ios":"levelo://app?vid=436b95fc-223e-4e41-8485-554f429ec8c0"},"vehicle_type_id":"4","last_reported":1704982023,"current_range_meters":30000,"station_id":"ce4bh0p2rcd13ifvqd70","pricing_plan_id":"free"},{"bike_id":"ac83fd42-5263-4493-811f-03da96dd9f0c","system_id":"levelo_inurba_marseille","lat":43.30207,"lon":5.39467,"is_reserved":false,"is_disabled":false,"rental_uris":{"android":"levelo://app?vid=ac83fd42-5263-4493-811f-03da96dd9f0c","ios":"levelo://app?vid=ac83fd42-5263-4493-811f-03da96dd9f0c"},"vehicle_type_id":"4","last_reported":1704982023,"current_range_meters":2000,"station_id":"ce4bh0p2rcd13ifvqd70","pricing_plan_id":"free"},{"bike_id":"ca41e8d7-0dac-496e-821e-54dbdeb36dcd","system_id":"levelo_inurba_marseille","lat":43.294153,"lon":5.386305,"is_reserved":false,"is_disabled":false,"rental_uris":{"android":"levelo://app?vid=ca41e8d7-0dac-496e-821e-54dbdeb36dcd","ios":"levelo://app?vid=ca41e8d7-0dac-496e-821e-54dbdeb36dcd"},"vehicle_type_id":"4","last_reported":1704982023,"current_range_meters":29200,"station_id":"ce4bh2h2rcd13ifvqdh0","pricing_plan_id":"free"},{"bike_id":"e7b893e7-cb04-4358-8cea-849b0cc9292b","system_id":"levelo_inurba_marseille","lat":43.289184,"lon":5.366408,"is_reserved":false,"is_disabled":false,"rental_uris":{"android":"levelo://app?vid=e7b893e7-cb04-4358-8cea-849b0cc9292b","ios":"levelo://app?vid=e7b893e7-cb04-4358-8cea-849b0cc9292b"},"vehicle_type_id":"4","last_reported":1704982023,"current_range_meters":18800,"station_id":"ce4bhap2rcd13ifvqek0","pricing_plan_id":"free"},{"bike_id":"cf875339-4afd-4a40-8194-2d79a67f981c","system_id":"levelo_inurba_marseille","lat":43.28937,"lon":5.364,"is_reserved":false,"is_disabled":false,"rental_uris":{"android":"levelo://app?vid=cf875339-4afd-4a40-8194-2d79a67f981c","ios":"levelo://app?vid=cf875339-4afd-4a40-8194-2d79a67f981c"},"vehicle_type_id":"4","last_reported":1704982023,"current_range_meters":16800,"station_id":"ce4bhc92rcd13ifvqetg","pricing_plan_id":"free"},{"bike_id":"9fab4deb-94c4-470d-b325-2f268561611d","system_id":"levelo_inurba_marseille","lat":43.294153,"lon":5.386305,"is_reserved":false,"is_disabled":false,"rental_uris":{"android":"levelo://app?vid=9fab4deb-94c4-470d-b325-2f268561611d","ios":"levelo://app?vid=9fab4deb-94c4-470d-b325-2f268561611d"},"vehicle_type_id":"4","last_reported":1704982023,"current_range_meters":25600,"station_id":"ce4bh2h2rcd13ifvqdh0","pricing_plan_id":"free"},{"bike_id":"b673260c-0804-4ce8-b96c-cf33d53c5471","system_id":"levelo_inurba_marseille","lat":43.290327,"lon":5.375711,"is_reserved":false,"is_disabled":false,"rental_uris":{"android":"levelo://app?vid=b673260c-0804-4ce8-b96c-cf33d53c5471","ios":"levelo://app?vid=b673260c-0804-4ce8-b96c-cf33d53c5471"},"vehicle_type_id":"4","last_reported":1704982023,"current_range_meters":29200,"station_id":"ce4bh692rcd13ifvqe90","pricing_plan_id":"free"},{"bike_id":"217045f6-9813-4533-8951-2b6f83798a4b","system_id":"levelo_inurba_marseille","lat":43.304274,"lon":5.397513,"is_reserved":false,"is_disabled":false,"rental_uris":{"android":"levelo://app?vid=217045f6-9813-4533-8951-2b6f83798a4b","ios":"levelo://app?vid=217045f6-9813-4533-8951-2b6f83798a4b"},"vehicle_type_id":"4","last_reported":1704982023,"current_range_meters":23600,"station_id":"ce4bh092rcd13ifvqd20","pricing_plan_id":"free"},{"bike_id":"d8953265-c517-4be3-b4e0-ea2aa6464613","system_id":"levelo_inurba_marseille","lat":43.290104,"lon":5.356111,"is_reserved":false,"is_disabled":false,"rental_uris":{"android":"levelo://app?vid=d8953265-c517-4be3-b4e0-ea2aa6464613","ios":"levelo://app?vid=d8953265-c517-4be3-b4e0-ea2aa6464613"},"vehicle_type_id":"4","last_reported":1704982023,"current_range_meters":19600,"station_id":"ce4bhb92rcd13ifvqen0","pricing_plan_id":"free"},{"bike_id":"c74e356e-76b7-4675-96ae-d5c5ea4ea02e","system_id":"levelo_inurba_marseille","lat":43.290995,"lon":5.381361,"is_reserved":false,"is_disabled":false,"rental_uris":{"android":"levelo://app?vid=c74e356e-76b7-4675-96ae-d5c5ea4ea02e","ios":"levelo://app?vid=c74e356e-76b7-4675-96ae-d5c5ea4ea02e"},"vehicle_type_id":"4","last_reported":1704982023,"current_range_meters":25200,"station_id":"ce4bh512rcd13ifvqe2g","pricing_plan_id":"free"},{"bike_id":"f584a4d4-6c64-41e9-89b5-8607e66c9ce0","system_id":"levelo_inurba_marseille","lat":43.290995,"lon":5.381361,"is_reserved":false,"is_disabled":false,"rental_uris":{"android":"levelo://app?vid=f584a4d4-6c64-41e9-89b5-8607e66c9ce0","ios":"levelo://app?vid=f584a4d4-6c64-41e9-89b5-8607e66c9ce0"},"vehicle_type_id":"4","last_reported":1704982023,"current_range_meters":7600,"station_id":"ce4bh512rcd13ifvqe2g","pricing_plan_id":"free"},