{"last_updated":1747080707,"ttl":60,"version":"2.2","data":{"bikes":[{"bike_id":"c0b9fd4f-e181-46ce-b0bf-f5119973334f","system_id":"levelo_inurba_marseille","lat":43.33771,"lon":5.37424,"is_reserved":false,"is_disabled":false,"rental_uris":{"android":"levelo://app?vid=c0b9fd4f-e181-46ce-b0bf-f5119973334f","ios":"levelo://app?vid=c0b9fd4f-e181-46ce-b0bf-f5119973334f"},"vehicle_type_id":"4","last_reported":1747080707,"current_range_meters":26800,"station_id":"","pricing_plan_id":"cebpf4jnsgd1na2vs0mg"},{"bike_id":"229001d2-7627-43e0-aeea-2d75580fd339","system_id":"levelo_inurba_marseille","lat":43.33774,"lon":5.37472,"is_reserved":false,"is_disabled":true,"rental_uris":{"android":"levelo://app?vid=229001d2-7627-43e0-aeea-2d75580fd339","ios":"levelo://app?vid=229001d2-7627-43e0-aeea-2d75580fd339"},"vehicle_type_id":"4","last_reported":1747080707,"current_range_meters":0,"station_id":"","pricing_plan_id":"cebpf4jnsgd1na2vs0mg"},{"bike_id":"828418bc-b6f3-4668-865d-c3a8b014b129","system_id":"levelo_inurba_marseille","lat":43.337717,"lon":5.374689,"is_reserved":false,"is_disabled":true,"rental_uris":{"android":"levelo://app?vid=828418bc-b6f3-4668-865d-c3a8b014b129","ios":"levelo://app?vid=828418bc-b6f3-4668-865d-c3a8b014b129"},"vehicle_type_id":"4","last_reported":1747080707,"current_range_meters":0,"station_id":"","pricing_plan_id":"cebpf4jnsgd1na2vs0mg"},{"bike_id":"792567c6-0442-4011-aff0-9c05e25deb48","system_id":"levelo_inurba_marseille","lat":43.281,"lon":5.4418,"is_reserved":false,"is_disabled":true,"rental_uris":{"android":"levelo://app?vid=792567c6-0442-4011-aff0-9c05e25deb48","ios":"levelo://app?vid=792567c6-0442-4011-aff0-9c05e25deb48"},"vehicle_type_id":"4","last_reported":1747080707,"current_range_meters":0,"station_id":"","pricing_plan_id":"cebpf4jnsgd1na2vs0mg"},{"bike_id":"cdccf006-f1f3-4007-ad2a-4fa8078a52cb","system_id":"levelo_inurba_marseille","lat":43.2866,"lon":5.36367,"is_reserved":false,"is_disabled":true,"rental_uris":{"android":"levelo://app?vid=cdccf006-f1f3-4007-ad2a-4fa8078a52cb","ios":"levelo://app?vid=cdccf006-f1f3-4007-ad2a-4fa8078a52cb"},"vehicle_type_id":"4","last_reported":1747080707,"current_range_meters":0,"station_id":"ce4bhah2rcd13ifvqej0","pricing_plan_id":"cebpf4jnsgd1na2vs0mg"},{"bike_id":"d020dbd6-56f3-46f3-96c3-9a073768576d","system_id":"levelo_inurba_marseille","lat":43.26232,"lon":5.40451,"is_reserved":false,"is_disabled":true,"rental_uris":{"android":"levelo://app?vid=d020dbd6-56f3-46f3-96c3-9a073768576d","ios":"levelo://app?vid=d020dbd6-56f3-46f3-96c3-9a073768576d"},"vehicle_type_id":"4","last_reported":1747080707,"current_range_meters":0,"station_id":"ce4bhmh2rcd13ifvqgmg","pricing_plan_id":"cebpf4jnsgd1na2vs0mg"},{"bike_id":"b82fa79d-ba0f-48d1-a101-c4dac4b7de4e","system_id":"levelo_inurba_marseille","lat":43.299024,"lon":5.436632,"is_reserved":false,"is_disabled":true,"rental_uris":{"android":"levelo://app?vid=b82fa79d-ba0f-48d1-a101-c4dac4b7de4e","ios":"levelo://app?vid=b82fa79d-ba0f-48d1-a101-c4dac4b7de4e"},"vehicle_type_id":"4","last_reported":1747080707,"current_range_meters":0,"station_id":"ce4bhpp2rcd13ifvqhfg","pricing_plan_id":"cebpf4jnsgd1na2vs0mg"},{"bike_id":"07269f3f-9fb3-45e8-9b39-4105415a8c0c","system_id":"levelo_inurba_marseille","lat":43.21184,"lon":5.35072,"is_reserved":false,"is_disabled":true,"rental_uris":{"android":"levelo://app?vid=07269f3f-9fb3-45e8-9b39-4105415a8c0c","ios":"levelo://app?vid=07269f3f-9fb3-45e8-9b39-4105415a8c0c"},"vehicle_type_id":"4","last_reported":1747080707,"current_range_meters":0,"station_id":"st_cvj6sg6p6f1abm77japg","pricing_plan_id":"cebpf4jnsgd1na2vs0mg"},{"bike_id":"13df265c-a60a-4291-a786-34d6e6b4abbe","system_id":"levelo_inurba_marseille","lat":43.30323,"lon":5.40434,"is_reserved":false,"is_disabled":true,"rental_uris":{"android":"levelo://app?vid=13df265c-a60a-4291-a786-34d6e6b4abbe","ios":"levelo://app?vid=13df265c-a60a-4291-a786-34d6e6b4abbe"},"vehicle_type_id":"4","last_reported":1747080707,"current_range_meters":400,"station_id":"ce4bh012rcd13ifvqd10","pricing_plan_id":"cebpf4jnsgd1na2vs0mg"},{"bike_id":"5af64732-df9d-4abc-bab9-ed19e2e31a08","system_id":"levelo_inurba_marseille","lat":43.27972,"lon":5.38747,"is_reserved":false,"is_disabled":true,"rental_uris":{"android":"levelo://app?vid=5af64732-df9d-4abc-bab9-ed19e2e31a08","ios":"levelo://app?vid=5af64732-df9d-4abc-bab9-ed19e2e31a08"},"vehicle_type_id":"4","last_reported":1747080707,"current_range_meters":400,"station_id":"ce4bhg12rcd13ifvqf80","pricing_plan_id":"cebpf4jnsgd1na2vs0mg"},{"bike_id":"cf119389-8c06-4449-a205-2b18fbb577ee","system_id":"levelo_inurba_marseille","lat":43.31106,"lon":5.40099,"is_reserved":false,"is_disabled":true,"rental_uris":{"android":"levelo://app?vid=cf119389-8c06-4449-a205-2b18fbb577ee","ios":"levelo://app?vid=cf119389-8c06-4449-a205-2b18fbb577ee"},"vehicle_type_id":"4","last_reported":1747080707,"current_range_meters":800,"station_id":"","pricing_plan_id":"cebpf4jnsgd1na2vs0mg"},{"bike_id":"d22b79c1-2534-41d3-9923-d3e9fec38569","system_id":"levelo_inurba_marseille","lat":43.288586,"lon":5.358632,"is_reserved":false,"is_disabled":true,"rental_uris":{"android":"levelo://app?vid=d22b79c1-2534-41d3-9923-d3e9fec38569","ios":"levelo://app?vid=d22b79c1-2534-41d3-9923-d3e9fec38569"},"vehicle_type_id":"4","last_reported":1747080707,"current_range_meters":800,"station_id":"ce4bhb12rcd13ifvqem0","pricing_plan_id":"cebpf4jnsgd1na2vs0mg"},{"bike_id":"0fedde00-40eb-40d2-8fc2-e61ecce46b7b","system_id":"levelo_inurba_marseille","lat":43.28298,"lon":5.43209,"is_reserved":false,"is_disabled":true,"rental_uris":{"android":"levelo://app?vid=0fedde00-40eb-40d2-8fc2-e61ecce46b7b","ios":"levelo://app?vid=0fedde00-40eb-40d2-8fc2-e61ecce46b7b"},"vehicle_type_id":"4","last_reported":1747080707,"current_range_meters":1200,"station_id":"","pricing_plan_id":"cebpf4jnsgd1na2vs0mg"},{"bike_id":"79c1b035-cbbf-49b9-b793-b52f4aaa4be8","system_id":"levelo_inurba_marseille","lat":43.30814,"lon":5.3812,"is_reserved":false,"is_disabled":true,"rental_uris":{"android":"levelo://app?vid=79c1b035-cbbf-49b9-b793-b52f4aaa4be8","ios":"levelo://app?vid=79c1b035-cbbf-49b9-b793-b52f4aaa4be8"},"vehicle_type_id":"4","last_reported":1747080707,"current_range_meters":1200,"station_id":"ce4bgt12rcd13ifvqce0","pricing_plan_id":"cebpf4jnsgd1na2vs0mg"},{"bike_id":"25684216-a3fc-4916-8e05-9505382e4ab5","system_id":"levelo_inurba_marseille","lat":43.27407,"lon":5.39039,"is_reserved":false,"is_disabled":false,"rental_uris":{"android":"levelo://app?vid=25684216-a3fc-4916-8e05-9505382e4ab5","ios":"levelo://app?vid=25684216-a3fc-4916-8e05-9505382e4ab5"},"vehicle_type_id":"4","last_reported":1747080707,"current_range_meters":2800,"station_id":"","pricing_plan_id":"cebpf4jnsgd1na2vs0mg"},{"bike_id":"a0920cd3-75e0-4245-895a-992ad88ad8a7","system_id":"levelo_inurba_marseille","lat":43.28439,"lon":5.41051,"is_reserved":false,"is_disabled":false,"rental_uris":{"android":"levelo://app?vid=a0920cd3-75e0-4245-895a-992ad88ad8a7","ios":"levelo://app?vid=a0920cd3-75e0-4245-895a-992ad88ad8a7"},"vehicle_type_id":"4","last_reported":1747080707,"current_range_meters":2800,"station_id":"","pricing_plan_id":"cebpf4jnsgd1na2vs0mg"},{"bike_id":"f0a7f02b-1b5b-42fe-b44c-8ea138167a3e","system_id":"levelo_inurba_marseille","lat":43.302948,"lon":5.392056,"is_reserved":false,"is_disabled":false,"rental_uris":{"android":"levelo://app?vid=f0a7f02b-1b5b-42fe-b44c-8ea138167a3e","ios":"levelo://app?vid=f0a7f02b-1b5b-42fe-b44c-8ea138167a3e"},"vehicle_type_id":"4","last_reported":1747080707,"current_range_meters":3200,"station_id":"ce4bgkh2rcd13ifvqbk0","pricing_plan_id":"cebpf4jnsgd1na2vs0mg"},{"bike_id":"529c28d0-7dca-4af9-a608-1f09b19dc357","system_id":"levelo_inurba_marseille","lat":43.31484,"lon":5.37303,"is_reserved":false,"is_disabled":false,"rental_uris":{"android":"levelo://app?vid=529c28d0-7dca-4af9-a608-1f09b19dc357","ios":"levelo://app?vid=529c28d0-7dca-4af9-a608-1f09b19dc357"},"vehicle_type_id":"4","last_reported":1747080707,"current_range_meters":3600,"station_id":"","pricing_plan_id":"cebpf4jnsgd1na2vs0mg"},{"bike_id":"4621bc8f-7b4f-4d14-9b97-f07cb6a7100f","system_id":"levelo_inurba_marseille","lat":43.2866,"lon":5.36351,"is_reserved":false,"is_disabled":false,"rental_uris":{"android":"levelo://app?vid=4621bc8f-7b4f-4d14-9b97-f07cb6a7100f","ios":"levelo://app?vid=4621bc8f-7b4f-4d14-9b97-f07cb6a7100f"},"vehicle_type_id":"4","last_reported":1747080707,"current_range_meters":3600,"station_id":"ce4bhah2rcd13ifvqej0","pricing_plan_id":"cebpf4jnsgd1na2vs0mg"},{"bike_id":"5afee8a2-dc87-45dc-aec3-019d2fe2c8f6","system_id":"levelo_inurba_marseille","lat":43.25087,"lon":5.39524,"is_reserved":false,"is_disabled":false,"rental_uris":{"android":"levelo://app?vid=5afee8a2-dc87-45dc-aec3-019d2fe2c8f6","ios":"levelo://app?vid=5afee8a2-dc87-45dc-aec3-019d2fe2c8f6"},"vehicle_type_id":"4","last_reported":1747080707,"current_range_meters":3600,"station_id":"ce4bhm12rcd13ifvqgkg","pricing_plan_id":"cebpf4jnsgd1na2vs0mg"},{"bike_id":"bdf2004e-1885-4112-bbdd-79a6c4b8d1e3","system_id":"levelo_inurba_marseille","lat":43.31902,"lon":5.40711,"is_reserved":false,"is_disabled":false,"rental_uris":{"android":"levelo://app?vid=bdf2004e-1885-4112-bbdd-79a6c4b8d1e3","ios":"levelo://app?vid=bdf2004e-1885-4112-bbdd-79a6c4b8d1e3"},"vehicle_type_id":"4","last_reported":1747080707,"current_range_meters":3600,"station_id":"ce4bhq12rcd13ifvqhig","pricing_plan_id":"cebpf4jnsgd1na2vs0mg"},{"bike_id":"b2e8f874-de9c-484f-9976-af989bbdd976","system_id":"levelo_inurba_marseille","lat":43.3063,"lon":5.4009,"is_reserved":false,"is_disabled":false,"rental_uris":{"android":"levelo://app?vid=b2e8f874-de9c-484f-9976-af989bbdd976","ios":"levelo://app?vid=b2e8f874-de9c-484f-9976-af989bbdd976"},"vehicle_type_id":"4","last_reported":1747080707,"current_range_meters":4000,"station_id":"ce4bh112rcd13ifvqda0","pricing_plan_id":"cebpf4jnsgd1na2vs0mg"},{"bike_id":"90b021fb-2272-4016-a6d1-feb42d39ea05","system_id":"levelo_inurba_marseille","lat":43.27938,"lon":5.41046,"is_reserved":false,"is_disabled":false,"rental_uris":{"android":"levelo://app?vid=90b021fb-2272-4016-a6d1-feb42d39ea05","ios":"levelo://app?vid=90b021fb-2272-4016-a6d1-feb42d39ea05"},"vehicle_type_id":"4","last_reported":1747080707,"current_range_meters":4000,"station_id":"ce4bhnp2rcd13ifvqh0g","pricing_plan_id":"cebpf4jnsgd1na2vs0mg"},{"bike_id":"59848781-c342-494c-8628-e18ed66e1ac9","system_id":"levelo_inurba_marseille","lat":43.27981,"lon":5.41664,"is_reserved":false,"is_disabled":false,"rental_uris":{"android":"levelo://app?vid=59848781-c342-494c-8628-e18ed66e1ac9","ios":"levelo://app?vid=59848781-c342-494c-8628-e18ed66e1ac9"},"vehicle_type_id":"4","last_reported":1747080707,"current_range_meters":4000,"station_id":"ce4bho12rcd13ifvqh1g","pricing_plan_id":"cebpf4jnsgd1na2vs0mg"},{"bike_id":"fc2577e7-1497-425b-9d4f-ab8d7dc843c6","system_id":"levelo_inurba_marseille","lat":43.33771,"lon":5.37485,"is_reserved":false,"is_disabled":false,"rental_uris":{"android":"levelo://app?vid=fc2577e7-1497-425b-9d4f-ab8d7dc843c6","ios":"levelo://app?vid=fc2577e7-1497-425b-9d4f-ab8d7dc843c6"},"vehicle_type_id":"4","last_reported":1747080707,"current_range_meters":4400,"station_id":"","pricing_plan_id":"cebpf4jnsgd1na2vs0mg"},{"bike_id":"5648f3cd-51f0-444a-96d0-90720f4f9a85","system_id":"levelo_inurba_marseille","lat":43.31363,"lon":5.38493,"is_reserved":false,"is_disabled":false,"rental_uris":{"android":"levelo://app?vid=5648f3cd-51f0-444a-96d0-90720f4f9a85","ios":"levelo://app?vid=5648f3cd-51f0-444a-96d0-90720f4f9a85"},"vehicle_type_id":"4","last_reported":1747080707,"current_range_meters":4400,"station_id":"ce4bgt92rcd13ifvqcf0","pricing_plan_id":"cebpf4jnsgd1na2vs0mg"},{"bike_id":"ad300670-c1e8-4eb8-b4cf-758bbb5e605b","system_id":"levelo_inurba_marseille","lat":43.28725,"lon":5.37946,"is_reserved":false,"is_disabled":false,"rental_uris":{"android":"levelo://app?vid=ad300670-c1e8-4eb8-b4cf-758bbb5e605b","ios":"levelo://app?vid=ad300670-c1e8-4eb8-b4cf-758bbb5e605b"},"vehicle_type_id":"4","last_reported":1747080707,"current_range_meters":4400,"station_id":"ce4bh9p2rcd13ifvqec0","pricing_plan_id":"cebpf4jnsgd1na2vs0mg"},{"bike_id":"b1b8c807-8597-4a9c-bbcd-a2746fd63865","system_id":"levelo_inurba_marseille","lat":43.252811,"lon":5.39921,"is_reserved":false,"is_disabled":false,"rental_uris":{"android":"levelo://app?vid=b1b8c807-8597-4a9c-bbcd-a2746fd63865","ios":"levelo://app?vid=b1b8c807-8597-4a9c-bbcd-a2746fd63865"},"vehicle_type_id":"4","last_reported":1747080707,"current_range_meters":4800,"station_id":"","pricing_plan_id":"cebpf4jnsgd1na2vs0mg"},{"bike_id":"2a765ad3-7dc3-4138-b887-7dab38f30947","system_id":"levelo_inurba_marseille","lat":43.29528,"lon":5.38543,"is_reserved":false,"is_disabled":false,"rental_uris":{"android":"levelo://app?vid=2a765ad3-7dc3-4138-b887-7dab38f30947","ios":"levelo://app?vid=2a765ad3-7dc3-4138-b887-7dab38f30947"},"vehicle_type_id":"4","last_reported":1747080707,"current_range_meters":5600,"station_id":"ce4bgih2rcd13ifvqba0","pricing_plan_id":"cebpf4jnsgd1na2vs0mg"},{"bike_id":"1838afde-afc3-4eda-8678-62b4dcd0e305","system_id":"levelo_inurba_marseille","lat":43.24066,"lon":5.37763,"is_reserved":false,"is_disabled":false,"rental_uris":{"android":"levelo://app?vid=1838afde-afc3-4eda-8678-62b4dcd0e305","ios":"levelo://app?vid=1838afde-afc3-4eda-8678-62b4dcd0e305"},"vehicle_type_id":"4","last_reported":1747080707,"current_range_meters":5600,"station_id":"ce4bhnp2rcd13ifvqgvg","pricing_plan_id":"cebpf4jnsgd1na2vs0mg"},{"bike_id":"3ae1cd74-71fb-47ba-ac9b-3b9bc8cd8449","system_id":"levelo_inurba_marseille","lat":43.21751,"lon":5.34597,"is_reserved":false,"is_disabled":false,"rental_uris":{"android":"levelo://app?vid=3ae1cd74-71fb-47ba-ac9b-3b9bc8cd8449","ios":"levelo://app?vid=3ae1cd74-71fb-47ba-ac9b-3b9bc8cd8449"},"vehicle_type_id":"4","last_reported":1747080707,"current_range_meters":5600,"station_id":"st_cvj6r9ubvosntc0bgbag","pricing_plan_id":"cebpf4jnsgd1na2vs0mg"},{"bike_id":"4ba650a2-d272-499d-8e59-1ef34806724c","system_id":"levelo_inurba_marseille","lat":43.29782,"lon":5.37103,"is_reserved":false,"is_disabled":false,"rental_uris":{"android":"levelo://app?vid=4ba650a2-d272-499d-8e59-1ef34806724c","ios":"levelo://app?vid=4ba650a2-d272-499d-8e59-1ef34806724c"},"vehicle_type_id":"4","last_reported":1747080707,"current_range_meters":6000,"station_id":"ce4bgop2rcd13ifvqc1g","pricing_plan_id":"cebpf4jnsgd1na2vs0mg"},{"bike_id":"ae301357-347a-4795-882d-3bb40e8cb6a4","system_id":"levelo_inurba_marseille","lat":43.2467,"lon":5.38169,"is_reserved":false,"is_disabled":false,"rental_uris":{"android":"levelo://app?vid=ae301357-347a-4795-882d-3bb40e8cb6a4","ios":"levelo://app?vid=ae301357-347a-4795-882d-3bb40e8cb6a4"},"vehicle_type_id":"4","last_reported":1747080707,"current_range_meters":6000,"station_id":"ce4bhih2rcd13ifvqfr0","pricing_plan_id":"cebpf4jnsgd1na2vs0mg"},{"bike_id":"8f226f63-1a42-406a-aed4-0e11d042d950","system_id":"levelo_inurba_marseille","lat":43.27167,"lon":5.40993,"is_reserved":false,"is_disabled":false,"rental_uris":{"android":"levelo://app?vid=8f226f63-1a42-406a-aed4-0e11d042d950","ios":"levelo://app?vid=8f226f63-1a42-406a-aed4-0e11d042d950"},"vehicle_type_id":"4","last_reported":1747080707,"current_range_meters":6000,"station_id":"ce4bhl12rcd13ifvqgf0","pricing_plan_id":"cebpf4jnsgd1na2vs0mg"},{"bike_id":"cb4aa7f8-5e58-4103-827e-f5aa7f653469","system_id":"levelo_inurba_marseille","lat":43.23204,"lon":5.35549,"is_reserved":false,"is_disabled":false,"rental_uris":{"android":"levelo://app?vid=cb4aa7f8-5e58-4103-827e-f5aa7f653469","ios":"levelo://app?vid=cb4aa7f8-5e58-4103-827e-f5aa7f653469"},"vehicle_type_id":"4","last_reported":1747080707,"current_range_meters":6000,"station_id":"ce4bhu92rcd13ifvqi70","pricing_plan_id":"cebpf4jnsgd1na2vs0mg"},{"bike_id":"83a81ffb-3d1c-4122-a406-60b114a380fc","system_id":"levelo_inurba_marseille","lat":43.21183,"lon":5.35085,"is_reserved":false,"is_disabled":false,"rental_uris":{"android":"levelo://app?vid=83a81ffb-3d1c-4122-a406-60b114a380fc","ios":"levelo://app?vid=83a81ffb-3d1c-4122-a406-60b114a380fc"},"vehicle_type_id":"4","last_reported":1747080707,"current_range_meters":6000,"station_id":"st_cvj6sg6p6f1abm77japg","pricing_plan_id":"cebpf4jnsgd1na2vs0mg"},{"bike_id":"48240e5c-7c9e-49a2-842e-ff0433810550","system_id":"levelo_inurba_marseille","lat":43.30807,"lon":5.38144,"is_reserved":false,"is_disabled":false,"rental_uris":{"android":"levelo://app?vid=48240e5c-7c9e-49a2-842e-ff0433810550","ios":"levelo://app?vid=48240e5c-7c9e-49a2-842e-ff0433810550"},"vehicle_type_id":"4","last_reported":1747080707,"current_range_meters":6400,"station_id":"ce4bgt12rcd13ifvqce0","pricing_plan_id":"cebpf4jnsgd1na2vs0mg"},{"bike_id":"acce4d2b-3bc1-4fa3-bca5-05847750d5c3","system_id":"levelo_inurba_marseille","lat":43.31685,"lon":5.40463,"is_reserved":false,"is_disabled":false,"rental_uris":{"android":"levelo://app?vid=acce4d2b-3bc1-4fa3-bca5-05847750d5c3","ios":"levelo://app?vid=acce4d2b-3bc1-4fa3-bca5-05847750d5c3"},"vehicle_type_id":"4","last_reported":1747080707,"current_range_meters":6400,"station_id":"ce4bh012rcd13ifvqd00","pricing_plan_id":"cebpf4jnsgd1na2vs0mg"},{"bike_id":"5f9b62df-1db7-4452-8caf-5538e3287ca8","system_id":"levelo_inurba_marseille","lat":43.293595,"lon":5.428339,"is_reserved":false,"is_disabled":false,"rental_uris":{"android":"levelo://app?vid=5f9b62df-1db7-4452-8caf-5538e3287ca8","ios":"levelo://app?vid=5f9b62df-1db7-4452-8caf-5538e3287ca8"},"vehicle_type_id":"4","last_reported":1747080707,"current_range_meters":6800,"station_id":"","pricing_plan_id":"cebpf4jnsgd1na2vs0mg"},{"bike_id":"57541229-bf45-48b8-887b-fc752d6d94a6","system_id":"levelo_inurba_marseille","lat":43.28943,"lon":5.36641,"is_reserved":false,"is_disabled":false,"rental_uris":{"android":"levelo://app?vid=57541229-bf45-48b8-887b-fc752d6d94a6","ios":"levelo://app?vid=57541229-bf45-48b8-887b-fc752d6d94a6"},"vehicle_type_id":"4","last_reported":1747080707,"current_range_meters":6800,"station_id":"ce4bhap2rcd13ifvqek0","pricing_plan_id":"cebpf4jnsgd1na2vs0mg"},{"bike_id":"546c745c-997b-4426-9d39-f715ef005a03","system_id":"levelo_inurba_marseille","lat":43.28932,"lon":5.36629,"is_reserved":false,"is_disabled":false,"rental_uris":{"android":"levelo://app?vid=546c745c-997b-4426-9d39-f715ef005a03","ios":"levelo://app?vid=546c745c-997b-4426-9d39-f715ef005a03"},"vehicle_type_id":"4","last_reported":1747080707,"current_range_meters":6800,"station_id":"ce4bhap2rcd13ifvqek0","pricing_plan_id":"cebpf4jnsgd1na2vs0mg"},{"bike_id":"79f767b1-523b-4188-996e-cfe61a261e86","system_id":"levelo_inurba_marseille","lat":43.2418,"lon":5.397298,"is_reserved":false,"is_disabled":false,"rental_uris":{"android":"levelo://app?vid=79f767b1-523b-4188-996e-cfe61a261e86","ios":"levelo://app?vid=79f767b1-523b-4188-996e-cfe61a261e86"},"vehicle_type_id":"4","last_reported":1747080707,"current_range_meters":6800,"station_id":"ce4bhn12rcd13ifvqgpg","pricing_plan_id":"cebpf4jnsgd1na2vs0mg"},{"bike_id":"83e32c55-e90e-4c5f-80a2-9f7433e1877f","system_id":"levelo_inurba_marseille","lat":43.31382,"lon":5.38487,"is_reserved":false,"is_disabled":false,"rental_uris":{"android":"levelo://app?vid=83e32c55-e90e-4c5f-80a2-9f7433e1877f","ios":"levelo://app?vid=83e32c55-e90e-4c5f-80a2-9f7433e1877f"},"vehicle_type_id":"4","last_reported":1747080707,"current_range_meters":7200,"station_id":"ce4bgt92rcd13ifvqcf0","pricing_plan_id":"cebpf4jnsgd1na2vs0mg"},{"bike_id":"a6f76d4d-3bf3-4601-9711-d2be4511763e","system_id":"levelo_inurba_marseille","lat":43.30662,"lon":5.40071,"is_reserved":false,"is_disabled":false,"rental_uris":{"android":"levelo://app?vid=a6f76d4d-3bf3-4601-9711-d2be4511763e","ios":"levelo://app?vid=a6f76d4d-3bf3-4601-9711-d2be4511763e"},"vehicle_type_id":"4","last_reported":1747080707,"current_range_meters":7200,"station_id":"ce4bh112rcd13ifvqda0","pricing_plan_id":"cebpf4jnsgd1na2vs0mg"},{"bike_id":"b0cd3a5a-9b74-463b-b163-f8b7f838fc39","system_id":"levelo_inurba_marseille","lat":43.24072,"lon":5.37765,"is_reserved":false,"is_disabled":false,"rental_uris":{"android":"levelo://app?vid=b0cd3a5a-9b74-463b-b163-f8b7f838fc39","ios":"levelo://app?vid=b0cd3a5a-9b74-463b-b163-f8b7f838fc39"},"vehicle_type_id":"4","last_reported":1747080707,"current_range_meters":7200,"station_id":"ce4bhnp2rcd13ifvqgvg","pricing_plan_id":"cebpf4jnsgd1na2vs0mg"},{"bike_id":"864ce70f-1098-4973-90a9-d5c9b927170c","system_id":"levelo_inurba_marseille","lat":43.30376,"lon":5.42487,"is_reserved":false,"is_disabled":false,"rental_uris":{"android":"levelo://app?vid=864ce70f-1098-4973-90a9-d5c9b927170c","ios":"levelo://app?vid=864ce70f-1098-4973-90a9-d5c9b927170c"},"vehicle_type_id":"4","last_reported":1747080707,"current_range_meters":7200,"station_id":"ce4bhoh2rcd13ifvqh6g","pricing_plan_id":"cebpf4jnsgd1na2vs0mg"},{"bike_id":"6e5c91eb-f4c3-4748-8248-e56e7fa8d9e4","system_id":"levelo_inurba_marseille","lat":43.32315,"lon":5.38877,"is_reserved":false,"is_disabled":false,"rental_uris":{"android":"levelo://app?vid=6e5c91eb-f4c3-4748-8248-e56e7fa8d9e4","ios":"levelo://app?vid=6e5c91eb-f4c3-4748-8248-e56e7fa8d9e4"},"vehicle_type_id":"4","last_reported":1747080707,"current_range_meters":7200,"station_id":"ce4bhqp2rcd13ifvqhog","pricing_plan_id":"cebpf4jnsgd1na2vs0mg"},{"bike_id":"c166edd6-904a-4bc0-bde0-4462b8738864","system_id":"levelo_inurba_marseille","lat":43.2417,"lon":5.36404,"is_reserved":false,"is_disabled":false,"rental_uris":{"android":"levelo://app?vid=c166edd6-904a-4bc0-bde0-4462b8738864","ios":"levelo://app?vid=c166edd6-904a-4bc0-bde0-4462b8738864"},"vehicle_type_id":"4","last_reported":1747080707,"current_range_meters":7200,"station_id":"cpo36qri1sfpv3e86is0","pricing_plan_id":"cebpf4jnsgd1na2vs0mg"},{"bike_id":"b0ac8040-90e0-41ee-a2e3-e5462910fefc","system_id":"levelo_inurba_marseille","lat":43.27562,"lon":5.41315,"is_reserved":false,"is_disabled":false,"rental_uris":{"android":"levelo://app?vid=b0ac8040-90e0-41ee-a2e3-e5462910fefc","ios":"levelo://app?vid=b0ac8040-90e0-41ee-a2e3-e5462910fefc"},"vehicle_type_id":"4","last_reported":1747080707,"current_range_meters":8000,"station_id":"","pricing_plan_id":"cebpf4jnsgd1na2vs0mg"},{"bike_id":"35549ef6-d405-43aa-acff-f88d84a1c138","system_id":"levelo_inurba_marseille","lat":43.30807,"lon":5.3815,"is_reserved":false,"is_disabled":false,"rental_uris":{"android":"levelo://app?vid=35549ef6-d405-43aa-acff-f88d84a1c138","ios":"levelo://app?vid=35549ef6-d405-43aa-acff-f88d84a1c138"},"vehicle_type_id":"4","last_reported":1747080707,"current_range_meters":8000,"station_id":"ce4bgt12rcd13ifvqce0","pricing_plan_id":"cebpf4jnsgd1na2vs0mg"},{"bike_id":"4193b3ff-7911-46cf-aafe-21c4ebe7fd24","system_id":"levelo_inurba_marseille","lat":43.23184,"lon":5.39996,"is_reserved":false,"is_disabled":false,"rental_uris":{"android":"levelo://app?vid=4193b3ff-7911-46cf-aafe-21c4ebe7fd24","ios":"levelo://app?vid=4193b3ff-7911-46cf-aafe-21c4ebe7fd24"},"vehicle_type_id":"4","last_reported":1747080707,"current_range_meters":8000,"station_id":"ce4bhn12rcd13ifvqgqg","pricing_plan_id":"cebpf4jnsgd1na2vs0mg"},{"bike_id":"8cad80b9-40f1-4238-b3c2-e7e97d51aeba","system_id":"levelo_inurba_marseille","lat":43.323653,"lon":5.388949,"is_reserved":false,"is_disabled":false,"rental_uris":{"android":"levelo://app?vid=8cad80b9-40f1-4238-b3c2-e7e97d51aeba","ios":"levelo://app?vid=8cad80b9-40f1-4238-b3c2-e7e97d51aeba"},"vehicle_type_id":"4","last_reported":1747080707,"current_range_meters":8000,"station_id":"ce4bhqp2rcd13ifvqhog","pricing_plan_id":"cebpf4jnsgd1na2vs0mg"},{"bike_id":"10c13dcf-6a5b-4e8f-b2e8-8184f1e14591","system_id":"levelo_inurba_marseille","lat":43.30137,"lon":5.38786,"is_reserved":false,"is_disabled":false,"rental_uris":{"android":"levelo://app?vid=10c13dcf-6a5b-4e8f-b2e8-8184f1e14591","ios":"levelo://app?vid=10c13dcf-6a5b-4e8f-b2e8-8184f1e14591"},"vehicle_type_id":"4","last_reported":1747080707,"current_range_meters":8400,"station_id":"ce4bghh2rcd13ifvqb60","pricing_plan_id":"cebpf4jnsgd1na2vs0mg"},{"bike_id":"d6defe93-e44a-481d-a104-e0a4d7584d2f","system_id":"levelo_inurba_marseille","lat":43.31329,"lon":5.39697,"is_reserved":false,"is_disabled":false,"rental_uris":{"android":"levelo://app?vid=d6defe93-e44a-481d-a104-e0a4d7584d2f","ios":"levelo://app?vid=d6defe93-e44a-481d-a104-e0a4d7584d2f"},"vehicle_type_id":"4","last_reported":1747080707,"current_range_meters":8400,"station_id":"ce4bgvp2rcd13ifvqcu0","pricing_plan_id":"cebpf4jnsgd1na2vs0mg"},{"bike_id":"a603d8cf-e634-4858-95b6-44004ed85a84","system_id":"levelo_inurba_marseille","lat":43.25867,"lon":5.399,"is_reserved":false,"is_disabled":false,"rental_uris":{"android":"levelo://app?vid=a603d8cf-e634-4858-95b6-44004ed85a84","ios":"levelo://app?vid=a603d8cf-e634-4858-95b6-44004ed85a84"},"vehicle_type_id":"4","last_reported":1747080707,"current_range_meters":8400,"station_id":"ce4bhl92rcd13ifvqghg","pricing_plan_id":"cebpf4jnsgd1na2vs0mg"},{"bike_id":"671f1f53-8d82-4ed4-ade1-f1720e0973b5","system_id":"levelo_inurba_marseille","lat":43.28151,"lon":5.42631,"is_reserved":false,"is_disabled":false,"rental_uris":{"android":"levelo://app?vid=671f1f53-8d82-4ed4-ade1-f1720e0973b5","ios":"levelo://app?vid=671f1f53-8d82-4ed4-ade1-f1720e0973b5"},"vehicle_type_id":"4","last_reported":1747080707,"current_range_meters":8400,"station_id":"ce4bhnh2rcd13ifvqgug","pricing_plan_id":"cebpf4jnsgd1na2vs0mg"},{"bike_id":"4a75e9fa-6290-47ef-a0e7-ac722e86a830","system_id":"levelo_inurba_marseille","lat":43.28706,"lon":5.39994,"is_reserved":false,"is_disabled":false,"rental_uris":{"android":"levelo://app?vid=4a75e9fa-6290-47ef-a0e7-ac722e86a830","ios":"levelo://app?vid=4a75e9fa-6290-47ef-a0e7-ac722e86a830"},"vehicle_type_id":"4","last_reported":1747080707,"current_range_meters":8400,"station_id":"ce4bho92rcd13ifvqh3g","pricing_plan_id":"cebpf4jnsgd1na2vs0mg"},{"bike_id":"a6ecfd5d-2dbd-4d80-a465-e2504f522cb0","system_id":"levelo_inurba_marseille","lat":43.28709,"lon":5.39998,"is_reserved":false,"is_disabled":false,"rental_uris":{"android":"levelo://app?vid=a6ecfd5d-2dbd-4d80-a465-e2504f522cb0","ios":"levelo://app?vid=a6ecfd5d-2dbd-4d80-a465-e2504f522cb0"},"vehicle_type_id":"4","last_reported":1747080707,"current_range_meters":8400,"station_id":"ce4bho92rcd13ifvqh3g","pricing_plan_id":"cebpf4jnsgd1na2vs0mg"},{"bike_id":"de4a530f-3b17-41b9-bd98-d22e64d46bdc","system_id":"levelo_inurba_marseille","lat":43.32132,"lon":5.36768,"is_reserved":false,"is_disabled":false,"rental_uris":{"android":"levelo://app?vid=de4a530f-3b17-41b9-bd98-d22e64d46bdc","ios":"levelo://app?vid=de4a530f-3b17-41b9-bd98-d22e64d46bdc"},"vehicle_type_id":"4","last_reported":1747080707,"current_range_meters":8400,"station_id":"ce4bhrh2rcd13ifvqhug","pricing_plan_id":"cebpf4jnsgd1na2vs0mg"},{"bike_id":"c45660a4-2a75-4fe5-babc-ce5f32b31b47","system_id":"levelo_inurba_marseille","lat":43.30929,"lon":5.4015,"is_reserved":false,"is_disabled":false,"rental_uris":{"android":"levelo://app?vid=c45660a4-2a75-4fe5-babc-ce5f32b31b47","ios":"levelo://app?vid=c45660a4-2a75-4fe5-babc-ce5f32b31b47"},"vehicle_type_id":"4","last_reported":1747080707,"current_range_meters":8800,"station_id":"ce4bgvp2rcd13ifvqct0","pricing_plan_id":"cebpf4jnsgd1na2vs0mg"},{"bike_id":"1a770ac8-f695-431f-b034-edb44b90e1f9","system_id":"levelo_inurba_marseille","lat":43.28571,"lon":5.39499,"is_reserved":false,"is_disabled":false,"rental_uris":{"android":"levelo://app?vid=1a770ac8-f695-431f-b034-edb44b90e1f9","ios":"levelo://app?vid=1a770ac8-f695-431f-b034-edb44b90e1f9"},"vehicle_type_id":"4","last_reported":1747080707,"current_range_meters":8800,"station_id":"ce4bh292rcd13ifvqdg0","pricing_plan_id":"cebpf4jnsgd1na2vs0mg"},{"bike_id":"c39ffec0-bf54-4b94-892c-11b3ef277137","system_id":"levelo_inurba_marseille","lat":43.23182,"lon":5.39987,"is_reserved":false,"is_disabled":false,"rental_uris":{"android":"levelo://app?vid=c39ffec0-bf54-4b94-892c-11b3ef277137","ios":"levelo://app?vid=c39ffec0-bf54-4b94-892c-11b3ef277137"},"vehicle_type_id":"4","last_reported":1747080707,"current_range_meters":8800,"station_id":"ce4bhn12rcd13ifvqgqg","pricing_plan_id":"cebpf4jnsgd1na2vs0mg"},{"bike_id":"3b606703-3067-4d3e-9877-b0b954710008","system_id":"levelo_inurba_marseille","lat":43.29786,"lon":5.3717,"is_reserved":false,"is_disabled":false,"rental_uris":{"android":"levelo://app?vid=3b606703-3067-4d3e-9877-b0b954710008","ios":"levelo://app?vid=3b606703-3067-4d3e-9877-b0b954710008"},"vehicle_type_id":"4","last_reported":1747080707,"current_range_meters":9200,"station_id":"","pricing_plan_id":"cebpf4jnsgd1na2vs0mg"},{"bike_id":"f8504ee6-720d-47fc-9000-9f0ef348c5f3","system_id":"levelo_inurba_marseille","lat":43.30887,"lon":5.3965,"is_reserved":false,"is_disabled":false,"rental_uris":{"android":"levelo://app?vid=f8504ee6-720d-47fc-9000-9f0ef348c5f3","ios":"levelo://app?vid=f8504ee6-720d-47fc-9000-9f0ef348c5f3"},"vehicle_type_id":"4","last_reported":1747080707,"current_range_meters":9200,"station_id":"ce4bh012rcd13ifvqcv0","pricing_plan_id":"cebpf4jnsgd1na2vs0mg"},{"bike_id":"c899402d-15b4-4bd3-b79a-4ecbfbf73aa2","system_id":"levelo_inurba_marseille","lat":43.298663,"lon":5.39733,"is_reserved":false,"is_disabled":false,"rental_uris":{"android":"levelo://app?vid=c899402d-15b4-4bd3-b79a-4ecbfbf73aa2","ios":"levelo://app?vid=c899402d-15b4-4bd3-b79a-4ecbfbf73aa2"},"vehicle_type_id":"4","last_reported":1747080707,"current_range_meters":9200,"station_id":"ce4bh0h2rcd13ifvqd50","pricing_plan_id":"cebpf4jnsgd1na2vs0mg"},{"bike_id":"49754b6c-94ee-4a75-bee5-6b2ffb7ca5e8","system_id":"levelo_inurba_marseille","lat":43.28669,"lon":5.38676,"is_reserved":false,"is_disabled":false,"rental_uris":{"android":"levelo://app?vid=49754b6c-94ee-4a75-bee5-6b2ffb7ca5e8","ios":"levelo://app?vid=49754b6c-94ee-4a75-bee5-6b2ffb7ca5e8"},"vehicle_type_id":"4","last_reported":1747080707,"current_range_meters":9200,"station_id":"ce4bh492rcd13ifvqdug","pricing_plan_id":"cebpf4jnsgd1na2vs0mg"},{"bike_id":"7dd23b04-e01a-4802-ba75-c88e8a8178ae","system_id":"levelo_inurba_marseille","lat":43.29775,"lon":5.39327,"is_reserved":false,"is_disabled":false,"rental_uris":{"android":"levelo://app?vid=7dd23b04-e01a-4802-ba75-c88e8a8178ae","ios":"levelo://app?vid=7dd23b04-e01a-4802-ba75-c88e8a8178ae"},"vehicle_type_id":"4","last_reported":1747080707,"current_range_meters":9200,"station_id":"chh1huq6cuj3fo74tm60","pricing_plan_id":"cebpf4jnsgd1na2vs0mg"},{"bike_id":"2b738d9b-5c87-4067-857e-2dded64f5263","system_id":"levelo_inurba_marseille","lat":43.30682,"lon":5.400398,"is_reserved":false,"is_disabled":false,"rental_uris":{"android":"levelo://app?vid=2b738d9b-5c87-4067-857e-2dded64f5263","ios":"levelo://app?vid=2b738d9b-5c87-4067-857e-2dded64f5263"},"vehicle_type_id":"4","last_reported":1747080707,"current_range_meters":9600,"station_id":"ce4bgjp2rcd13ifvqbh0","pricing_plan_id":"cebpf4jnsgd1na2vs0mg"},{"bike_id":"8f22a717-4ce8-42f7-9922-ecd69d0f4e5e","system_id":"levelo_inurba_marseille","lat":43.29258,"lon":5.40916,"is_reserved":false,"is_disabled":false,"rental_uris":{"android":"levelo://app?vid=8f22a717-4ce8-42f7-9922-ecd69d0f4e5e","ios":"levelo://app?vid=8f22a717-4ce8-42f7-9922-ecd69d0f4e5e"},"vehicle_type_id":"4","last_reported":1747080707,"current_range_meters":9600,"station_id":"ce4bh192rcd13ifvqdc0","pricing_plan_id":"cebpf4jnsgd1na2vs0mg"},{"bike_id":"8317c2a7-b7c4-40ba-bcf7-d27e52b36e7f","system_id":"levelo_inurba_marseille","lat":43.26497,"lon":5.39548,"is_reserved":false,"is_disabled":false,"rental_uris":{"android":"levelo://app?vid=8317c2a7-b7c4-40ba-bcf7-d27e52b36e7f","ios":"levelo://app?vid=8317c2a7-b7c4-40ba-bcf7-d27e52b36e7f"},"vehicle_type_id":"4","last_reported":1747080707,"current_range_meters":9600,"station_id":"ce4bhi12rcd13ifvqfq0","pricing_plan_id":"cebpf4jnsgd1na2vs0mg"},{"bike_id":"e0b16578-b75c-49a0-be9b-59a4685629b7","system_id":"levelo_inurba_marseille","lat":43.28163,"lon":5.42644,"is_reserved":false,"is_disabled":false,"rental_uris":{"android":"levelo://app?vid=e0b16578-b75c-49a0-be9b-59a4685629b7","ios":"levelo://app?vid=e0b16578-b75c-49a0-be9b-59a4685629b7"},"vehicle_type_id":"4","last_reported":1747080707,"current_range_meters":9600,"station_id":"ce4bhnh2rcd13ifvqgug","pricing_plan_id":"cebpf4jnsgd1na2vs0mg"},{"bike_id":"2ee4d910-0ee1-4bc5-86c8-c77afad12b4f","system_id":"levelo_inurba_marseille","lat":43.32113,"lon":5.36767,"is_reserved":false,"is_disabled":false,"rental_uris":{"android":"levelo://app?vid=2ee4d910-0ee1-4bc5-86c8-c77afad12b4f","ios":"levelo://app?vid=2ee4d910-0ee1-4bc5-86c8-c77afad12b4f"},"vehicle_type_id":"4","last_reported":1747080707,"current_range_meters":9600,"station_id":"ce4bhrh2rcd13ifvqhug","pricing_plan_id":"cebpf4jnsgd1na2vs0mg"},{"bike_id":"4d1360bc-c1e4-4928-9a43-13c25871c98a","system_id":"levelo_inurba_marseille","lat":43.29861,"lon":5.39735,"is_reserved":false,"is_disabled":false,"rental_uris":{"android":"levelo://app?vid=4d1360bc-c1e4-4928-9a43-13c25871c98a","ios":"levelo://app?vid=4d1360bc-c1e4-4928-9a43-13c25871c98a"},"vehicle_type_id":"4","last_reported":1747080707,"current_range_meters":10000,"station_id":"ce4bh0h2rcd13ifvqd50","pricing_plan_id":"cebpf4jnsgd1na2vs0mg"},{"bike_id":"04641abb-fe02-49ce-bcc8-72c9cbcad829","system_id":"levelo_inurba_marseille","lat":43.288485,"lon":5.3933,"is_reserved":false,"is_disabled":false,"rental_uris":{"android":"levelo://app?vid=04641abb-fe02-49ce-bcc8-72c9cbcad829","ios":"levelo://app?vid=04641abb-fe02-49ce-bcc8-72c9cbcad829"},"vehicle_type_id":"4","last_reported":1747080707,"current_range_meters":10000,"station_id":"ce4bh2p2rcd13ifvqdi0","pricing_plan_id":"cebpf4jnsgd1na2vs0mg"},{"bike_id":"a439c417-a336-45da-adc8-50442959e8dc","system_id":"levelo_inurba_marseille","lat":43.29524,"lon":5.39021,"is_reserved":false,"is_disabled":false,"rental_uris":{"android":"levelo://app?vid=a439c417-a336-45da-adc8-50442959e8dc","ios":"levelo://app?vid=a439c417-a336-45da-adc8-50442959e8dc"},"vehicle_type_id":"4","last_reported":1747080707,"current_range_meters":10000,"station_id":"ce4bh3p2rcd13ifvqdp0","pricing_plan_id":"cebpf4jnsgd1na2vs0mg"},{"bike_id":"acca8498-5f9b-48da-a0fd-34e73dfe9abc","system_id":"levelo_inurba_marseille","lat":43.28398,"lon":5.37525,"is_reserved":false,"is_disabled":false,"rental_uris":{"android":"levelo://app?vid=acca8498-5f9b-48da-a0fd-34e73dfe9abc","ios":"levelo://app?vid=acca8498-5f9b-48da-a0fd-34e73dfe9abc"},"vehicle_type_id":"4","last_reported":1747080707,"current_range_meters":10000,"station_id":"ce4bh412rcd13ifvqds0","pricing_plan_id":"cebpf4jnsgd1na2vs0mg"},{"bike_id":"0a8bb0eb-e18a-4601-8b9c-10cedd4593aa","system_id":"levelo_inurba_marseille","lat":43.25109,"lon":5.40327,"is_reserved":false,"is_disabled":false,"rental_uris":{"android":"levelo://app?vid=0a8bb0eb-e18a-4601-8b9c-10cedd4593aa","ios":"levelo://app?vid=0a8bb0eb-e18a-4601-8b9c-10cedd4593aa"},"vehicle_type_id":"4","last_reported":1747080707,"current_range_meters":10000,"station_id":"ce4bhlh2rcd13ifvqgig","pricing_plan_id":"cebpf4jnsgd1na2vs0mg"},{"bike_id":"c5eb53b8-783c-4568-bc58-af7e2dd00aa0","system_id":"levelo_inurba_marseille","lat":43.32351,"lon":5.36755,"is_reserved":false,"is_disabled":false,"rental_uris":{"android":"levelo://app?vid=c5eb53b8-783c-4568-bc58-af7e2dd00aa0","ios":"levelo://app?vid=c5eb53b8-783c-4568-bc58-af7e2dd00aa0"},"vehicle_type_id":"4","last_reported":1747080707,"current_range_meters":10000,"station_id":"ce4bhsh2rcd13ifvqi2g","pricing_plan_id":"cebpf4jnsgd1na2vs0mg"},{"bike_id":"b29cd197-f0d5-40a7-a1a8-cdcae63d1eb7","system_id":"levelo_inurba_marseille","lat":43.309386,"lon":5.401368,"is_reserved":false,"is_disabled":false,"rental_uris":{"android":"levelo://app?vid=b29cd197-f0d5-40a7-a1a8-cdcae63d1eb7","ios":"levelo://app?vid=b29cd197-f0d5-40a7-a1a8-cdcae63d1eb7"},"vehicle_type_id":"4","last_reported":1747080707,"current_range_meters":10800,"station_id":"ce4bgvp2rcd13ifvqct0","pricing_plan_id":"cebpf4jnsgd1na2vs0mg"},{"bike_id":"4acebf5d-90de-4f34-bd54-e2958ed913ff","system_id":"levelo_inurba_marseille","lat":43.29273,"lon":5.40128,"is_reserved":false,"is_disabled":false,"rental_uris":{"android":"levelo://app?vid=4acebf5d-90de-4f34-bd54-e2958ed913ff","ios":"levelo://app?vid=4acebf5d-90de-4f34-bd54-e2958ed913ff"},"vehicle_type_id":"4","last_reported":1747080707,"current_range_meters":11200,"station_id":"ce4bh312rcd13ifvqdk0","pricing_plan_id":"cebpf4jnsgd1na2vs0mg"},{"bike_id":"a07af238-1d5a-492e-88df-35771675e17b","system_id":"levelo_inurba_marseille","lat":43.28703,"lon":5.37396,"is_reserved":false,"is_disabled":false,"rental_uris":{"android":"levelo://app?vid=a07af238-1d5a-492e-88df-35771675e17b","ios":"levelo://app?vid=a07af238-1d5a-492e-88df-35771675e17b"},"vehicle_type_id":"4","last_reported":1747080707,"current_range_meters":11200,"station_id":"ce4bh3p2rcd13ifvqdq0","pricing_plan_id":"cebpf4jnsgd1na2vs0mg"},{"bike_id":"09667552-604c-472f-b05c-2be0e1fd2bf4","system_id":"levelo_inurba_marseille","lat":43.280402,"lon":5.369398,"is_reserved":false,"is_disabled":false,"rental_uris":{"android":"levelo://app?vid=09667552-604c-472f-b05c-2be0e1fd2bf4","ios":"levelo://app?vid=09667552-604c-472f-b05c-2be0e1fd2bf4"},"vehicle_type_id":"4","last_reported":1747080707,"current_range_meters":11200,"station_id":"ce4bha12rcd13ifvqef0","pricing_plan_id":"cebpf4jnsgd1na2vs0mg"},{"bike_id":"a16a5225-a9f3-4574-93f1-917416829b59","system_id":"levelo_inurba_marseille","lat":43.25117,"lon":5.40315,"is_reserved":false,"is_disabled":false,"rental_uris":{"android":"levelo://app?vid=a16a5225-a9f3-4574-93f1-917416829b59","ios":"levelo://app?vid=a16a5225-a9f3-4574-93f1-917416829b59"},"vehicle_type_id":"4","last_reported":1747080707,"current_range_meters":11200,"station_id":"ce4bhlh2rcd13ifvqgig","pricing_plan_id":"cebpf4jnsgd1na2vs0mg"},{"bike_id":"41da10f9-c4df-4a4d-81d7-007f46c00b73","system_id":"levelo_inurba_marseille","lat":43.23196,"lon":5.39976,"is_reserved":false,"is_disabled":false,"rental_uris":{"android":"levelo://app?vid=41da10f9-c4df-4a4d-81d7-007f46c00b73","ios":"levelo://app?vid=41da10f9-c4df-4a4d-81d7-007f46c00b73"},"vehicle_type_id":"4","last_reported":1747080707,"current_range_meters":11200,"station_id":"ce4bhn12rcd13ifvqgqg","pricing_plan_id":"cebpf4jnsgd1na2vs0mg"},{"bike_id":"8acf2063-92cb-4014-9618-27961b9bd647","system_id":"levelo_inurba_marseille","lat":43.27171,"lon":5.40994,"is_reserved":false,"is_disabled":false,"rental_uris":{"android":"levelo://app?vid=8acf2063-92cb-4014-9618-27961b9bd647","ios":"levelo://app?vid=8acf2063-92cb-4014-9618-27961b9bd647"},"vehicle_type_id":"4","last_reported":1747080707,"current_range_meters":11600,"station_id":"ce4bhl12rcd13ifvqgf0","pricing_plan_id":"cebpf4jnsgd1na2vs0mg"},{"bike_id":"857697bb-8d3c-4e67-810a-cc1ced64ae38","system_id":"levelo_inurba_marseille","lat":43.309399,"lon":5.390402,"is_reserved":false,"is_disabled":false,"rental_uris":{"android":"levelo://app?vid=857697bb-8d3c-4e67-810a-cc1ced64ae38","ios":"levelo://app?vid=857697bb-8d3c-4e67-810a-cc1ced64ae38"},"vehicle_type_id":"4","last_reported":1747080707,"current_range_meters":12000,"station_id":"ce4bgup2rcd13ifvqco0","pricing_plan_id":"cebpf4jnsgd1na2vs0mg"},{"bike_id":"7cbe2c1e-547b-4cac-8534-f8686f887179","system_id":"levelo_inurba_marseille","lat":43.30934,"lon":5.40143,"is_reserved":false,"is_disabled":false,"rental_uris":{"android":"levelo://app?vid=7cbe2c1e-547b-4cac-8534-f8686f887179","ios":"levelo://app?vid=7cbe2c1e-547b-4cac-8534-f8686f887179"},"vehicle_type_id":"4","last_reported":1747080707,"current_range_meters":12000,"station_id":"ce4bgvp2rcd13ifvqct0","pricing_plan_id":"cebpf4jnsgd1na2vs0mg"},{"bike_id":"f06e0beb-6181-4a30-9a7f-b34472152bf3","system_id":"levelo_inurba_marseille","lat":43.2844,"lon":5.39206,"is_reserved":false,"is_disabled":false,"rental_uris":{"android":"levelo://app?vid=f06e0beb-6181-4a30-9a7f-b34472152bf3","ios":"levelo://app?vid=f06e0beb-6181-4a30-9a7f-b34472152bf3"},"vehicle_type_id":"4","last_reported":1747080707,"current_range_meters":12000,"station_id":"ce4bhoh2rcd13ifvqh5g","pricing_plan_id":"cebpf4jnsgd1na2vs0mg"},{"bike_id":"73b925a4-d8dc-4fba-aa27-407fbb0adf5a","system_id":"levelo_inurba_marseille","lat":43.31703,"lon":5.37714,"is_reserved":false,"is_disabled":false,"rental_uris":{"android":"levelo://app?vid=73b925a4-d8dc-4fba-aa27-407fbb0adf5a","ios":"levelo://app?vid=73b925a4-d8dc-4fba-aa27-407fbb0adf5a"},"vehicle_type_id":"4","last_reported":1747080707,"current_range_meters":12400,"station_id":"ce4bgth2rcd13ifvqch0","pricing_plan_id":"cebpf4jnsgd1na2vs0mg"},{"bike_id":"84daf3e2-01ed-48ee-8b76-11525731e098","system_id":"levelo_inurba_marseille","lat":43.31326,"lon":5.3969,"is_reserved":false,"is_disabled":false,"rental_uris":{"android":"levelo://app?vid=84daf3e2-01ed-48ee-8b76-11525731e098","ios":"levelo://app?vid=84daf3e2-01ed-48ee-8b76-11525731e098"},"vehicle_type_id":"4","last_reported":1747080707,"current_range_meters":12400,"station_id":"ce4bgvp2rcd13ifvqcu0","pricing_plan_id":"cebpf4jnsgd1na2vs0mg"},{"bike_id":"4c7e96ca-fe51-4c09-80d5-67f96169d049","system_id":"levelo_inurba_marseille","lat":43.31326,"lon":5.39699,"is_reserved":false,"is_disabled":false,"rental_uris":{"android":"levelo://app?vid=4c7e96ca-fe51-4c09-80d5-67f96169d049","ios":"levelo://app?vid=4c7e96ca-fe51-4c09-80d5-67f96169d049"},"vehicle_type_id":"4","last_reported":1747080707,"current_range_meters":12400,"station_id":"ce4bgvp2rcd13ifvqcu0","pricing_plan_id":"cebpf4jnsgd1na2vs0mg"},{"bike_id":"435ddf23-07b6-4fa7-b988-31f3b4ec7576","system_id":"levelo_inurba_marseille","lat":43.30335,"lon":5.40442,"is_reserved":false,"is_disabled":false,"rental_uris":{"android":"levelo://app?vid=435ddf23-07b6-4fa7-b988-31f3b4ec7576","ios":"levelo://app?vid=435ddf23-07b6-4fa7-b988-31f3b4ec7576"},"vehicle_type_id":"4","last_reported":1747080707,"current_range_meters":12400,"station_id":"ce4bh012rcd13ifvqd10","pricing_plan_id":"cebpf4jnsgd1na2vs0mg"},{"bike_id":"0e89a721-196d-4572-b905-e39e1dafff7a","system_id":"levelo_inurba_marseille","lat":43.32108,"lon":5.36783,"is_reserved":false,"is_disabled":false,"rental_uris":{"android":"levelo://app?vid=0e89a721-196d-4572-b905-e39e1dafff7a","ios":"levelo://app?vid=0e89a721-196d-4572-b905-e39e1dafff7a"},"vehicle_type_id":"4","last_reported":1747080707,"current_range_meters":12400,"station_id":"ce4bhrh2rcd13ifvqhug","pricing_plan_id":"cebpf4jnsgd1na2vs0mg"},{"bike_id":"3bc82939-abcb-468f-afaf-ed8fa3e3693e","system_id":"levelo_inurba_marseille","lat":43.287233,"lon":5.360857,"is_reserved":false,"is_disabled":false,"rental_uris":{"android":"levelo://app?vid=3bc82939-abcb-468f-afaf-ed8fa3e3693e","ios":"levelo://app?vid=3bc82939-abcb-468f-afaf-ed8fa3e3693e"},"vehicle_type_id":"4","last_reported":1747080707,"current_range_meters":12400,"station_id":"cki0cbj6b192h4jlfktg","pricing_plan_id":"cebpf4jnsgd1na2vs0mg"},{"bike_id":"89c550d1-b31b-49dc-bb41-cd52ba1ad9f2","system_id":"levelo_inurba_marseille","lat":43.241665,"lon":5.364117,"is_reserved":false,"is_disabled":false,"rental_uris":{"android":"levelo://app?vid=89c550d1-b31b-49dc-bb41-cd52ba1ad9f2","ios":"levelo://app?vid=89c550d1-b31b-49dc-bb41-cd52ba1ad9f2"},"vehicle_type_id":"4","last_reported":1747080707,"current_range_meters":12400,"station_id":"cpo36qri1sfpv3e86is0","pricing_plan_id":"cebpf4jnsgd1na2vs0mg"},{"bike_id":"b95a3da1-d84f-4349-bc15-21030c7174b6","system_id":"levelo_inurba_marseille","lat":43.29281,"lon":5.40121,"is_reserved":false,"is_disabled":false,"rental_uris":{"android":"levelo://app?vid=b95a3da1-d84f-4349-bc15-21030c7174b6","ios":"levelo://app?vid=b95a3da1-d84f-4349-bc15-21030c7174b6"},"vehicle_type_id":"4","last_reported":1747080707,"current_range_meters":12800,"station_id":"ce4bh312rcd13ifvqdk0","pricing_plan_id":"cebpf4jnsgd1na2vs0mg"},{"bike_id":"53786682-85f6-4326-82eb-181e03c1803a","system_id":"levelo_inurba_marseille","lat":43.22923,"lon":5.354,"is_reserved":false,"is_disabled":false,"rental_uris":{"android":"levelo://app?vid=53786682-85f6-4326-82eb-181e03c1803a","ios":"levelo://app?vid=53786682-85f6-4326-82eb-181e03c1803a"},"vehicle_type_id":"4","last_reported":1747080707,"current_range_meters":12800,"station_id":"cpo3532slgdg3j2ikp40","pricing_plan_id":"cebpf4jnsgd1na2vs0mg"},{"bike_id":"d9b91c76-9420-4248-9ccc-54ae67080ef3","system_id":"levelo_inurba_marseille","lat":43.3107,"lon":5.38357,"is_reserved":false,"is_disabled":false,"rental_uris":{"android":"levelo://app?vid=d9b91c76-9420-4248-9ccc-54ae67080ef3","ios":"levelo://app?vid=d9b91c76-9420-4248-9ccc-54ae67080ef3"},"vehicle_type_id":"4","last_reported":1747080707,"current_range_meters":13600,"station_id":"ce4bgv92rcd13ifvqcr0","pricing_plan_id":"cebpf4jnsgd1na2vs0mg"},{"bike_id":"c0c86cad-7e11-4988-a2b8-41a6734d4888","system_id":"levelo_inurba_marseille","lat":43.29435,"lon":5.39757,"is_reserved":false,"is_disabled":false,"rental_uris":{"android":"levelo://app?vid=c0c86cad-7e11-4988-a2b8-41a6734d4888","ios":"levelo://app?vid=c0c86cad-7e11-4988-a2b8-41a6734d4888"},"vehicle_type_id":"4","last_reported":1747080707,"current_range_meters":13600,"station_id":"ce4bh3h2rcd13ifvqdo0","pricing_plan_id":"cebpf4jnsgd1na2vs0mg"},{"bike_id":"60cfea43-65dd-49c5-be74-cbe13c14c76d","system_id":"levelo_inurba_marseille","lat":43.2845,"lon":5.35898,"is_reserved":false,"is_disabled":false,"rental_uris":{"android":"levelo://app?vid=60cfea43-65dd-49c5-be74-cbe13c14c76d","ios":"levelo://app?vid=60cfea43-65dd-49c5-be74-cbe13c14c76d"},"vehicle_type_id":"4","last_reported":1747080707,"current_range_meters":13600,"station_id":"ce4bhah2rcd13ifvqei0","pricing_plan_id":"cebpf4jnsgd1na2vs0mg"},{"bike_id":"a5f06fbc-6809-49f5-9466-5898ee9095b4","system_id":"levelo_inurba_marseille","lat":43.3053,"lon":5.38434,"is_reserved":false,"is_disabled":false,"rental_uris":{"android":"levelo://app?vid=a5f06fbc-6809-49f5-9466-5898ee9095b4","ios":"levelo://app?vid=a5f06fbc-6809-49f5-9466-5898ee9095b4"},"vehicle_type_id":"4","last_reported":1747080707,"current_range_meters":14000,"station_id":"ce4bgg92rcd13ifvqb30","pricing_plan_id":"cebpf4jnsgd1na2vs0mg"},{"bike_id":"588f249a-572f-484f-966f-45a1b8ea2f40","system_id":"levelo_inurba_marseille","lat":43.29415,"lon":5.39753,"is_reserved":false,"is_disabled":false,"rental_uris":{"android":"levelo://app?vid=588f249a-572f-484f-966f-45a1b8ea2f40","ios":"levelo://app?vid=588f249a-572f-484f-966f-45a1b8ea2f40"},"vehicle_type_id":"4","last_reported":1747080707,"current_range_meters":14000,"station_id":"ce4bh3h2rcd13ifvqdo0","pricing_plan_id":"cebpf4jnsgd1na2vs0mg"},{"bike_id":"315c9aa5-cd9f-4a60-8ba2-a8f8830c3824","system_id":"levelo_inurba_marseille","lat":43.32339,"lon":5.406,"is_reserved":false,"is_disabled":false,"rental_uris":{"android":"levelo://app?vid=315c9aa5-cd9f-4a60-8ba2-a8f8830c3824","ios":"levelo://app?vid=315c9aa5-cd9f-4a60-8ba2-a8f8830c3824"},"vehicle_type_id":"4","last_reported":1747080707,"current_range_meters":14000,"station_id":"ce4bhq92rcd13ifvqhjg","pricing_plan_id":"cebpf4jnsgd1na2vs0mg"},{"bike_id":"2432e267-a540-4daf-8f78-8355ccecee41","system_id":"levelo_inurba_marseille","lat":43.29417,"lon":5.38617,"is_reserved":false,"is_disabled":false,"rental_uris":{"android":"levelo://app?vid=2432e267-a540-4daf-8f78-8355ccecee41","ios":"levelo://app?vid=2432e267-a540-4daf-8f78-8355ccecee41"},"vehicle_type_id":"4","last_reported":1747080707,"current_range_meters":14400,"station_id":"ce4bh2h2rcd13ifvqdh0","pricing_plan_id":"cebpf4jnsgd1na2vs0mg"},{"bike_id":"b10eb417-38c8-4ba1-beaa-8d184d5cc491","system_id":"levelo_inurba_marseille","lat":43.25855,"lon":5.39902,"is_reserved":false,"is_disabled":false,"rental_uris":{"android":"levelo://app?vid=b10eb417-38c8-4ba1-beaa-8d184d5cc491","ios":"levelo://app?vid=b10eb417-38c8-4ba1-beaa-8d184d5cc491"},"vehicle_type_id":"4","last_reported":1747080707,"current_range_meters":14400,"station_id":"ce4bhl92rcd13ifvqghg","pricing_plan_id":"cebpf4jnsgd1na2vs0mg"},{"bike_id":"b18201df-c91e-40b2-9c13-d5dbd93743f7","system_id":"levelo_inurba_marseille","lat":43.29374,"lon":5.37854,"is_reserved":false,"is_disabled":false,"rental_uris":{"android":"levelo://app?vid=b18201df-c91e-40b2-9c13-d5dbd93743f7","ios":"levelo://app?vid=b18201df-c91e-40b2-9c13-d5dbd93743f7"},"vehicle_type_id":"4","last_reported":1747080707,"current_range_meters":14800,"station_id":"ce4bgjh2rcd13ifvqbf0","pricing_plan_id":"cebpf4jnsgd1na2vs0mg"},{"bike_id":"2ce6a204-dba9-4a32-b731-f15dd189ede7","system_id":"levelo_inurba_marseille","lat":43.30433,"lon":5.38886,"is_reserved":false,"is_disabled":false,"rental_uris":{"android":"levelo://app?vid=2ce6a204-dba9-4a32-b731-f15dd189ede7","ios":"levelo://app?vid=2ce6a204-dba9-4a32-b731-f15dd189ede7"},"vehicle_type_id":"4","last_reported":1747080707,"current_range_meters":14800,"station_id":"ce4bgk12rcd13ifvqbi0","pricing_plan_id":"cebpf4jnsgd1na2vs0mg"},{"bike_id":"79bb0198-c0e7-4a4d-971f-338c22111321","system_id":"levelo_inurba_marseille","lat":43.30635,"lon":5.40083,"is_reserved":false,"is_disabled":false,"rental_uris":{"android":"levelo://app?vid=79bb0198-c0e7-4a4d-971f-338c22111321","ios":"levelo://app?vid=79bb0198-c0e7-4a4d-971f-338c22111321"},"vehicle_type_id":"4","last_reported":1747080707,"current_range_meters":14800,"station_id":"ce4bh112rcd13ifvqda0","pricing_plan_id":"cebpf4jnsgd1na2vs0mg"},{"bike_id":"71dcef97-5ca8-4f84-8ca3-ae96d0a35658","system_id":"levelo_inurba_marseille","lat":43.28735,"lon":5.37927,"is_reserved":false,"is_disabled":false,"rental_uris":{"android":"levelo://app?vid=71dcef97-5ca8-4f84-8ca3-ae96d0a35658","ios":"levelo://app?vid=71dcef97-5ca8-4f84-8ca3-ae96d0a35658"},"vehicle_type_id":"4","last_reported":1747080707,"current_range_meters":14800,"station_id":"ce4bh9p2rcd13ifvqec0","pricing_plan_id":"cebpf4jnsgd1na2vs0mg"},{"bike_id":"95a0d2cf-3dcf-4399-aff5-f2ea98ab6cc8","system_id":"levelo_inurba_marseille","lat":43.24385,"lon":5.37064,"is_reserved":false,"is_disabled":false,"rental_uris":{"android":"levelo://app?vid=95a0d2cf-3dcf-4399-aff5-f2ea98ab6cc8","ios":"levelo://app?vid=95a0d2cf-3dcf-4399-aff5-f2ea98ab6cc8"},"vehicle_type_id":"4","last_reported":1747080707,"current_range_meters":14800,"station_id":"ce4bhhh2rcd13ifvqfk0","pricing_plan_id":"cebpf4jnsgd1na2vs0mg"},{"bike_id":"f37ade65-3032-4bd0-bb71-67b6dc3c7b33","system_id":"levelo_inurba_marseille","lat":43.30882,"lon":5.39641,"is_reserved":false,"is_disabled":false,"rental_uris":{"android":"levelo://app?vid=f37ade65-3032-4bd0-bb71-67b6dc3c7b33","ios":"levelo://app?vid=f37ade65-3032-4bd0-bb71-67b6dc3c7b33"},"vehicle_type_id":"4","last_reported":1747080707,"current_range_meters":15200,"station_id":"ce4bh012rcd13ifvqcv0","pricing_plan_id":"cebpf4jnsgd1na2vs0mg"},{"bike_id":"d8fe3826-423a-4d2d-bb0e-ee70f24c4091","system_id":"levelo_inurba_marseille","lat":43.29568,"lon":5.39967,"is_reserved":false,"is_disabled":false,"rental_uris":{"android":"levelo://app?vid=d8fe3826-423a-4d2d-bb0e-ee70f24c4091","ios":"levelo://app?vid=d8fe3826-423a-4d2d-bb0e-ee70f24c4091"},"vehicle_type_id":"4","last_reported":1747080707,"current_range_meters":15200,"station_id":"ce4bh312rcd13ifvqdj0","pricing_plan_id":"cebpf4jnsgd1na2vs0mg"},{"bike_id":"dc8472a8-1e0e-48c9-8d42-8e60b4ffb2cb","system_id":"levelo_inurba_marseille","lat":43.286706,"lon":5.363504,"is_reserved":false,"is_disabled":false,"rental_uris":{"android":"levelo://app?vid=dc8472a8-1e0e-48c9-8d42-8e60b4ffb2cb","ios":"levelo://app?vid=dc8472a8-1e0e-48c9-8d42-8e60b4ffb2cb"},"vehicle_type_id":"4","last_reported":1747080707,"current_range_meters":15200,"station_id":"ce4bhah2rcd13ifvqej0","pricing_plan_id":"cebpf4jnsgd1na2vs0mg"},{"bike_id":"2755da5d-53bb-4b5b-83a9-1ecbaa55925d","system_id":"levelo_inurba_marseille","lat":43.29966,"lon":5.37182,"is_reserved":false,"is_disabled":false,"rental_uris":{"android":"levelo://app?vid=2755da5d-53bb-4b5b-83a9-1ecbaa55925d","ios":"levelo://app?vid=2755da5d-53bb-4b5b-83a9-1ecbaa55925d"},"vehicle_type_id":"4","last_reported":1747080707,"current_range_meters":16000,"station_id":"ce4bgr92rcd13ifvqc7g","pricing_plan_id":"cebpf4jnsgd1na2vs0mg"},{"bike_id":"de95d53c-a8d8-42e2-bf5c-cb50d31548c5","system_id":"levelo_inurba_marseille","lat":43.28106,"lon":5.37841,"is_reserved":false,"is_disabled":false,"rental_uris":{"android":"levelo://app?vid=de95d53c-a8d8-42e2-bf5c-cb50d31548c5","ios":"levelo://app?vid=de95d53c-a8d8-42e2-bf5c-cb50d31548c5"},"vehicle_type_id":"4","last_reported":1747080707,"current_range_meters":16000,"station_id":"ce4bha12rcd13ifvqee0","pricing_plan_id":"cebpf4jnsgd1na2vs0mg"},{"bike_id":"e6ad97f1-b73e-46fd-a80f-360ecb6587de","system_id":"levelo_inurba_marseille","lat":43.27989,"lon":5.40033,"is_reserved":false,"is_disabled":false,"rental_uris":{"android":"levelo://app?vid=e6ad97f1-b73e-46fd-a80f-360ecb6587de","ios":"levelo://app?vid=e6ad97f1-b73e-46fd-a80f-360ecb6587de"},"vehicle_type_id":"4","last_reported":1747080707,"current_range_meters":16000,"station_id":"ce4bho92rcd13ifvqh4g","pricing_plan_id":"cebpf4jnsgd1na2vs0mg"},{"bike_id":"ed3fff22-f120-41ec-80ac-a8a2d51d248b","system_id":"levelo_inurba_marseille","lat":43.28346,"lon":5.38118,"is_reserved":false,"is_disabled":false,"rental_uris":{"android":"levelo://app?vid=ed3fff22-f120-41ec-80ac-a8a2d51d248b","ios":"levelo://app?vid=ed3fff22-f120-41ec-80ac-a8a2d51d248b"},"vehicle_type_id":"4","last_reported":1747080707,"current_range_meters":16400,"station_id":"ce4bh412rcd13ifvqdr0","pricing_plan_id":"cebpf4jnsgd1na2vs0mg"},{"bike_id":"39dbaf81-bc49-42f6-96c5-50b162f92bd5","system_id":"levelo_inurba_marseille","lat":43.28456,"lon":5.35894,"is_reserved":false,"is_disabled":false,"rental_uris":{"android":"levelo://app?vid=39dbaf81-bc49-42f6-96c5-50b162f92bd5","ios":"levelo://app?vid=39dbaf81-bc49-42f6-96c5-50b162f92bd5"},"vehicle_type_id":"4","last_reported":1747080707,"current_range_meters":16400,"station_id":"ce4bhah2rcd13ifvqei0","pricing_plan_id":"cebpf4jnsgd1na2vs0mg"},{"bike_id":"fda46159-6355-4236-a085-60a24fc1c842","system_id":"levelo_inurba_marseille","lat":43.29559,"lon":5.42283,"is_reserved":false,"is_disabled":false,"rental_uris":{"android":"levelo://app?vid=fda46159-6355-4236-a085-60a24fc1c842","ios":"levelo://app?vid=fda46159-6355-4236-a085-60a24fc1c842"},"vehicle_type_id":"4","last_reported":1747080707,"current_range_meters":16400,"station_id":"ce4bhph2rcd13ifvqhdg","pricing_plan_id":"cebpf4jnsgd1na2vs0mg"},{"bike_id":"002ef7fa-f707-40e5-9c86-0629335eaaf5","system_id":"levelo_inurba_marseille","lat":43.3088,"lon":5.39657,"is_reserved":false,"is_disabled":false,"rental_uris":{"android":"levelo://app?vid=002ef7fa-f707-40e5-9c86-0629335eaaf5","ios":"levelo://app?vid=002ef7fa-f707-40e5-9c86-0629335eaaf5"},"vehicle_type_id":"4","last_reported":1747080707,"current_range_meters":16800,"station_id":"ce4bh012rcd13ifvqcv0","pricing_plan_id":"cebpf4jnsgd1na2vs0mg"},{"bike_id":"ea2babe7-339b-4342-9e69-8137155408c4","system_id":"levelo_inurba_marseille","lat":43.30142,"lon":5.39849,"is_reserved":false,"is_disabled":false,"rental_uris":{"android":"levelo://app?vid=ea2babe7-339b-4342-9e69-8137155408c4","ios":"levelo://app?vid=ea2babe7-339b-4342-9e69-8137155408c4"},"vehicle_type_id":"4","last_reported":1747080707,"current_range_meters":16800,"station_id":"ce4bh0h2rcd13ifvqd40","pricing_plan_id":"cebpf4jnsgd1na2vs0mg"},{"bike_id":"82a7e5bb-1d79-4b21-9ffd-52ee599b627a","system_id":"levelo_inurba_marseille","lat":43.28932,"lon":5.38406,"is_reserved":false,"is_disabled":false,"rental_uris":{"android":"levelo://app?vid=82a7e5bb-1d79-4b21-9ffd-52ee599b627a","ios":"levelo://app?vid=82a7e5bb-1d79-4b21-9ffd-52ee599b627a"},"vehicle_type_id":"4","last_reported":1747080707,"current_range_meters":16800,"station_id":"ce4bh612rcd13ifvqe6g","pricing_plan_id":"cebpf4jnsgd1na2vs0mg"},{"bike_id":"9377c43b-18a9-4f62-9d57-c53d9e2cc649","system_id":"levelo_inurba_marseille","lat":43.30887,"lon":5.37188,"is_reserved":false,"is_disabled":false,"rental_uris":{"android":"levelo://app?vid=9377c43b-18a9-4f62-9d57-c53d9e2cc649","ios":"levelo://app?vid=9377c43b-18a9-4f62-9d57-c53d9e2cc649"},"vehicle_type_id":"4","last_reported":1747080707,"current_range_meters":17200,"station_id":"ce4bguh2rcd13ifvqckg","pricing_plan_id":"cebpf4jnsgd1na2vs0mg"},{"bike_id":"cfe6e305-1e67-4b1e-9c3c-515358a5b86a","system_id":"levelo_inurba_marseille","lat":43.29201,"lon":5.39317,"is_reserved":false,"is_disabled":false,"rental_uris":{"android":"levelo://app?vid=cfe6e305-1e67-4b1e-9c3c-515358a5b86a","ios":"levelo://app?vid=cfe6e305-1e67-4b1e-9c3c-515358a5b86a"},"vehicle_type_id":"4","last_reported":1747080707,"current_range_meters":17200,"station_id":"ce4bh192rcd13ifvqdd0","pricing_plan_id":"cebpf4jnsgd1na2vs0mg"},{"bike_id":"86689108-8b6c-425a-98ae-946b288cf2c2","system_id":"levelo_inurba_marseille","lat":43.28449,"lon":5.35909,"is_reserved":false,"is_disabled":false,"rental_uris":{"android":"levelo://app?vid=86689108-8b6c-425a-98ae-946b288cf2c2","ios":"levelo://app?vid=86689108-8b6c-425a-98ae-946b288cf2c2"},"vehicle_type_id":"4","last_reported":1747080707,"current_range_meters":17200,"station_id":"ce4bhah2rcd13ifvqei0","pricing_plan_id":"cebpf4jnsgd1na2vs0mg"},{"bike_id":"fb11fd6a-5fed-4f33-9bc3-fde63d37c35d","system_id":"levelo_inurba_marseille","lat":43.27994,"lon":5.40011,"is_reserved":false,"is_disabled":false,"rental_uris":{"android":"levelo://app?vid=fb11fd6a-5fed-4f33-9bc3-fde63d37c35d","ios":"levelo://app?vid=fb11fd6a-5fed-4f33-9bc3-fde63d37c35d"},"vehicle_type_id":"4","last_reported":1747080707,"current_range_meters":17200,"station_id":"ce4bho92rcd13ifvqh4g","pricing_plan_id":"cebpf4jnsgd1na2vs0mg"},{"bike_id":"7297acbc-71e1-465d-991b-a7192f377bca","system_id":"levelo_inurba_marseille","lat":43.32287,"lon":5.38277,"is_reserved":false,"is_disabled":false,"rental_uris":{"android":"levelo://app?vid=7297acbc-71e1-465d-991b-a7192f377bca","ios":"levelo://app?vid=7297acbc-71e1-465d-991b-a7192f377bca"},"vehicle_type_id":"4","last_reported":1747080707,"current_range_meters":17200,"station_id":"ce4bhr12rcd13ifvqhqg","pricing_plan_id":"cebpf4jnsgd1na2vs0mg"},{"bike_id":"d4c612a6-28e3-4d31-84a4-e9b6b3a754ad","system_id":"levelo_inurba_marseille","lat":43.30204,"lon":5.36627,"is_reserved":false,"is_disabled":false,"rental_uris":{"android":"levelo://app?vid=d4c612a6-28e3-4d31-84a4-e9b6b3a754ad","ios":"levelo://app?vid=d4c612a6-28e3-4d31-84a4-e9b6b3a754ad"},"vehicle_type_id":"4","last_reported":1747080707,"current_range_meters":17600,"station_id":"ce4bgrh2rcd13ifvqc8g","pricing_plan_id":"cebpf4jnsgd1na2vs0mg"},{"bike_id":"d72719ec-6d7b-4f82-8b79-2d86a6f7b21e","system_id":"levelo_inurba_marseille","lat":43.29868,"lon":5.39731,"is_reserved":false,"is_disabled":false,"rental_uris":{"android":"levelo://app?vid=d72719ec-6d7b-4f82-8b79-2d86a6f7b21e","ios":"levelo://app?vid=d72719ec-6d7b-4f82-8b79-2d86a6f7b21e"},"vehicle_type_id":"4","last_reported":1747080707,"current_range_meters":17600,"station_id":"ce4bh0h2rcd13ifvqd50","pricing_plan_id":"cebpf4jnsgd1na2vs0mg"},{"bike_id":"56091b93-661b-480b-a314-f2bf895a78d7","system_id":"levelo_inurba_marseille","lat":43.29197,"lon":5.39319,"is_reserved":false,"is_disabled":false,"rental_uris":{"android":"levelo://app?vid=56091b93-661b-480b-a314-f2bf895a78d7","ios":"levelo://app?vid=56091b93-661b-480b-a314-f2bf895a78d7"},"vehicle_type_id":"4","last_reported":1747080707,"current_range_meters":17600,"station_id":"ce4bh192rcd13ifvqdd0","pricing_plan_id":"cebpf4jnsgd1na2vs0mg"},{"bike_id":"337ef7e8-467e-4f05-96c1-cf8489ead9eb","system_id":"levelo_inurba_marseille","lat":43.28843,"lon":5.39315,"is_reserved":false,"is_disabled":false,"rental_uris":{"android":"levelo://app?vid=337ef7e8-467e-4f05-96c1-cf8489ead9eb","ios":"levelo://app?vid=337ef7e8-467e-4f05-96c1-cf8489ead9eb"},"vehicle_type_id":"4","last_reported":1747080707,"current_range_meters":17600,"station_id":"ce4bh2p2rcd13ifvqdi0","pricing_plan_id":"cebpf4jnsgd1na2vs0mg"},{"bike_id":"520f07fc-e2a5-442e-bcdc-caa8376efe3e","system_id":"levelo_inurba_marseille","lat":43.31683,"lon":5.4047,"is_reserved":false,"is_disabled":false,"rental_uris":{"android":"levelo://app?vid=520f07fc-e2a5-442e-bcdc-caa8376efe3e","ios":"levelo://app?vid=520f07fc-e2a5-442e-bcdc-caa8376efe3e"},"vehicle_type_id":"4","last_reported":1747080707,"current_range_meters":18000,"station_id":"ce4bh012rcd13ifvqd00","pricing_plan_id":"cebpf4jnsgd1na2vs0mg"},{"bike_id":"3b9dfe81-d467-4da7-b17b-a8bfbc5154f0","system_id":"levelo_inurba_marseille","lat":43.30351,"lon":5.39418,"is_reserved":false,"is_disabled":false,"rental_uris":{"android":"levelo://app?vid=3b9dfe81-d467-4da7-b17b-a8bfbc5154f0","ios":"levelo://app?vid=3b9dfe81-d467-4da7-b17b-a8bfbc5154f0"},"vehicle_type_id":"4","last_reported":1747080707,"current_range_meters":18000,"station_id":"ce4bh112rcd13ifvqd90","pricing_plan_id":"cebpf4jnsgd1na2vs0mg"},{"bike_id":"6612848c-309d-4d62-ac1d-f61c33129268","system_id":"levelo_inurba_marseille","lat":43.30637,"lon":5.40074,"is_reserved":false,"is_disabled":false,"rental_uris":{"android":"levelo://app?vid=6612848c-309d-4d62-ac1d-f61c33129268","ios":"levelo://app?vid=6612848c-309d-4d62-ac1d-f61c33129268"},"vehicle_type_id":"4","last_reported":1747080707,"current_range_meters":18000,"station_id":"ce4bh112rcd13ifvqda0","pricing_plan_id":"cebpf4jnsgd1na2vs0mg"},{"bike_id":"70b5f00f-76ba-4976-ba92-eb4bde29f0f5","system_id":"levelo_inurba_marseille","lat":43.30421,"lon":5.39742,"is_reserved":false,"is_disabled":false,"rental_uris":{"android":"levelo://app?vid=70b5f00f-76ba-4976-ba92-eb4bde29f0f5","ios":"levelo://app?vid=70b5f00f-76ba-4976-ba92-eb4bde29f0f5"},"vehicle_type_id":"4","last_reported":1747080707,"current_range_meters":18800,"station_id":"ce4bh092rcd13ifvqd20","pricing_plan_id":"cebpf4jnsgd1na2vs0mg"},{"bike_id":"849551c5-240b-48cd-88b2-3e23f9d3b406","system_id":"levelo_inurba_marseille","lat":43.284106,"lon":5.37513,"is_reserved":false,"is_disabled":false,"rental_uris":{"android":"levelo://app?vid=849551c5-240b-48cd-88b2-3e23f9d3b406","ios":"levelo://app?vid=849551c5-240b-48cd-88b2-3e23f9d3b406"},"vehicle_type_id":"4","last_reported":1747080707,"current_range_meters":18800,"station_id":"ce4bh412rcd13ifvqds0","pricing_plan_id":"cebpf4jnsgd1na2vs0mg"},{"bike_id":"cdb582d4-026f-4c94-abbb-a3b4013f07dd","system_id":"levelo_inurba_marseille","lat":43.302141,"lon":5.394762,"is_reserved":false,"is_disabled":false,"rental_uris":{"android":"levelo://app?vid=cdb582d4-026f-4c94-abbb-a3b4013f07dd","ios":"levelo://app?vid=cdb582d4-026f-4c94-abbb-a3b4013f07dd"},"vehicle_type_id":"4","last_reported":1747080707,"current_range_meters":19200,"station_id":"ce4bh0p2rcd13ifvqd70","pricing_plan_id":"cebpf4jnsgd1na2vs0mg"},{"bike_id":"4e8a8b94-334e-47e1-8ace-00d56e09f1b9","system_id":"levelo_inurba_marseille","lat":43.310779,"lon":5.383493,"is_reserved":false,"is_disabled":false,"rental_uris":{"android":"levelo://app?vid=4e8a8b94-334e-47e1-8ace-00d56e09f1b9","ios":"levelo://app?vid=4e8a8b94-334e-47e1-8ace-00d56e09f1b9"},"vehicle_type_id":"4","last_reported":1747080707,"current_range_meters":19200,"station_id":"ce4bh392rcd13ifvqdl0","pricing_plan_id":"cebpf4jnsgd1na2vs0mg"},{"bike_id":"e2b7593a-dbbc-4a30-b5c1-ee286ff2c1a1","system_id":"levelo_inurba_marseille","lat":43.24683,"lon":5.38159,"is_reserved":false,"is_disabled":false,"rental_uris":{"android":"levelo://app?vid=e2b7593a-dbbc-4a30-b5c1-ee286ff2c1a1","ios":"levelo://app?vid=e2b7593a-dbbc-4a30-b5c1-ee286ff2c1a1"},"vehicle_type_id":"4","last_reported":1747080707,"current_range_meters":19200,"station_id":"ce4bhih2rcd13ifvqfr0","pricing_plan_id":"cebpf4jnsgd1na2vs0mg"},{"bike_id":"50430f31-2a9a-48c3-8b6e-472d8b4d5616","system_id":"levelo_inurba_marseille","lat":43.278601,"lon":5.392097,"is_reserved":false,"is_disabled":false,"rental_uris":{"android":"levelo://app?vid=50430f31-2a9a-48c3-8b6e-472d8b4d5616","ios":"levelo://app?vid=50430f31-2a9a-48c3-8b6e-472d8b4d5616"},"vehicle_type_id":"4","last_reported":1747080707,"current_range_meters":19200,"station_id":"ce4bhjp2rcd13ifvqga0","pricing_plan_id":"cebpf4jnsgd1na2vs0mg"},{"bike_id":"ae2670a2-585e-4081-a3e0-8ca36e005485","system_id":"levelo_inurba_marseille","lat":43.24069,"lon":5.37757,"is_reserved":false,"is_disabled":false,"rental_uris":{"android":"levelo://app?vid=ae2670a2-585e-4081-a3e0-8ca36e005485","ios":"levelo://app?vid=ae2670a2-585e-4081-a3e0-8ca36e005485"},"vehicle_type_id":"4","last_reported":1747080707,"current_range_meters":19200,"station_id":"ce4bhnp2rcd13ifvqgvg","pricing_plan_id":"cebpf4jnsgd1na2vs0mg"},{"bike_id":"59bd68ff-a61f-444d-9496-d2f88e27ccd4","system_id":"levelo_inurba_marseille","lat":43.28703,"lon":5.399837,"is_reserved":false,"is_disabled":false,"rental_uris":{"android":"levelo://app?vid=59bd68ff-a61f-444d-9496-d2f88e27ccd4","ios":"levelo://app?vid=59bd68ff-a61f-444d-9496-d2f88e27ccd4"},"vehicle_type_id":"4","last_reported":1747080707,"current_range_meters":19200,"station_id":"ce4bho92rcd13ifvqh3g","pricing_plan_id":"cebpf4jnsgd1na2vs0mg"},{"bike_id":"39a6bd1f-7072-469f-8856-342cea40130d","system_id":"levelo_inurba_marseille","lat":43.24645,"lon":5.38897,"is_reserved":false,"is_disabled":false,"rental_uris":{"android":"levelo://app?vid=39a6bd1f-7072-469f-8856-342cea40130d","ios":"levelo://app?vid=39a6bd1f-7072-469f-8856-342cea40130d"},"vehicle_type_id":"4","last_reported":1747080707,"current_range_meters":19600,"station_id":"ce4bhg12rcd13ifvqf60","pricing_plan_id":"cebpf4jnsgd1na2vs0mg"},{"bike_id":"2b02467a-5ffd-42c5-bd01-79712910f637","system_id":"levelo_inurba_marseille","lat":43.28156,"lon":5.42643,"is_reserved":false,"is_disabled":false,"rental_uris":{"android":"levelo://app?vid=2b02467a-5ffd-42c5-bd01-79712910f637","ios":"levelo://app?vid=2b02467a-5ffd-42c5-bd01-79712910f637"},"vehicle_type_id":"4","last_reported":1747080707,"current_range_meters":19600,"station_id":"ce4bhnh2rcd13ifvqgug","pricing_plan_id":"cebpf4jnsgd1na2vs0mg"},{"bike_id":"63fb28b9-258e-4580-8e31-1efaa0aeb238","system_id":"levelo_inurba_marseille","lat":43.28087,"lon":5.3965,"is_reserved":false,"is_disabled":false,"rental_uris":{"android":"levelo://app?vid=63fb28b9-258e-4580-8e31-1efaa0aeb238","ios":"levelo://app?vid=63fb28b9-258e-4580-8e31-1efaa0aeb238"},"vehicle_type_id":"4","last_reported":1747080707,"current_range_meters":19600,"station_id":"ce4bho12rcd13ifvqh2g","pricing_plan_id":"cebpf4jnsgd1na2vs0mg"},{"bike_id":"acc5833a-6427-49df-a603-fbea78aca361","system_id":"levelo_inurba_marseille","lat":43.30935,"lon":5.40142,"is_reserved":false,"is_disabled":false,"rental_uris":{"android":"levelo://app?vid=acc5833a-6427-49df-a603-fbea78aca361","ios":"levelo://app?vid=acc5833a-6427-49df-a603-fbea78aca361"},"vehicle_type_id":"4","last_reported":1747080707,"current_range_meters":20000,"station_id":"ce4bgvp2rcd13ifvqct0","pricing_plan_id":"cebpf4jnsgd1na2vs0mg"},{"bike_id":"6da352b4-a4e6-4fc4-8dba-bfa8f3d7ead1","system_id":"levelo_inurba_marseille","lat":43.3043,"lon":5.39748,"is_reserved":false,"is_disabled":false,"rental_uris":{"android":"levelo://app?vid=6da352b4-a4e6-4fc4-8dba-bfa8f3d7ead1","ios":"levelo://app?vid=6da352b4-a4e6-4fc4-8dba-bfa8f3d7ead1"},"vehicle_type_id":"4","last_reported":1747080707,"current_range_meters":20000,"station_id":"ce4bh092rcd13ifvqd20","pricing_plan_id":"cebpf4jnsgd1na2vs0mg"},{"bike_id":"69fa6c47-1d9a-4e67-af02-74d7a50e207f","system_id":"levelo_inurba_marseille","lat":43.29529,"lon":5.39401,"is_reserved":false,"is_disabled":false,"rental_uris":{"android":"levelo://app?vid=69fa6c47-1d9a-4e67-af02-74d7a50e207f","ios":"levelo://app?vid=69fa6c47-1d9a-4e67-af02-74d7a50e207f"},"vehicle_type_id":"4","last_reported":1747080707,"current_range_meters":20000,"station_id":"ce4bh292rcd13ifvqdf0","pricing_plan_id":"cebpf4jnsgd1na2vs0mg"},{"bike_id":"14974396-773a-4225-b2c9-f2fca04895a5","system_id":"levelo_inurba_marseille","lat":43.28443,"lon":5.35857,"is_reserved":false,"is_disabled":false,"rental_uris":{"android":"levelo://app?vid=14974396-773a-4225-b2c9-f2fca04895a5","ios":"levelo://app?vid=14974396-773a-4225-b2c9-f2fca04895a5"},"vehicle_type_id":"4","last_reported":1747080707,"current_range_meters":20000,"station_id":"ce4bhah2rcd13ifvqei0","pricing_plan_id":"cebpf4jnsgd1na2vs0mg"},{"bike_id":"ff8e17fb-9d3b-431b-a82a-cf10aaf6e8b3","system_id":"levelo_inurba_marseille","lat":43.297763,"lon":5.393417,"is_reserved":false,"is_disabled":false,"rental_uris":{"android":"levelo://app?vid=ff8e17fb-9d3b-431b-a82a-cf10aaf6e8b3","ios":"levelo://app?vid=ff8e17fb-9d3b-431b-a82a-cf10aaf6e8b3"},"vehicle_type_id":"4","last_reported":1747080707,"current_range_meters":20000,"station_id":"chh1huq6cuj3fo74tm60","pricing_plan_id":"cebpf4jnsgd1na2vs0mg"},{"bike_id":"ba6512bb-d26d-4de4-b448-daf31c6f22e5","system_id":"levelo_inurba_marseille","lat":43.29973,"lon":5.37186,"is_reserved":false,"is_disabled":false,"rental_uris":{"android":"levelo://app?vid=ba6512bb-d26d-4de4-b448-daf31c6f22e5","ios":"levelo://app?vid=ba6512bb-d26d-4de4-b448-daf31c6f22e5"},"vehicle_type_id":"4","last_reported":1747080707,"current_range_meters":20400,"station_id":"ce4bgr92rcd13ifvqc7g","pricing_plan_id":"cebpf4jnsgd1na2vs0mg"},{"bike_id":"48885c7c-ac28-4550-827d-5a9d78329cfc","system_id":"levelo_inurba_marseille","lat":43.23963,"lon":5.36632,"is_reserved":false,"is_disabled":false,"rental_uris":{"android":"levelo://app?vid=48885c7c-ac28-4550-827d-5a9d78329cfc","ios":"levelo://app?vid=48885c7c-ac28-4550-827d-5a9d78329cfc"},"vehicle_type_id":"4","last_reported":1747080707,"current_range_meters":20400,"station_id":"ce4bhi12rcd13ifvqfp0","pricing_plan_id":"cebpf4jnsgd1na2vs0mg"},{"bike_id":"53c2c5b1-547e-454a-9252-c33846187b27","system_id":"levelo_inurba_marseille","lat":43.32337,"lon":5.40619,"is_reserved":false,"is_disabled":false,"rental_uris":{"android":"levelo://app?vid=53c2c5b1-547e-454a-9252-c33846187b27","ios":"levelo://app?vid=53c2c5b1-547e-454a-9252-c33846187b27"},"vehicle_type_id":"4","last_reported":1747080707,"current_range_meters":20400,"station_id":"ce4bhq92rcd13ifvqhjg","pricing_plan_id":"cebpf4jnsgd1na2vs0mg"},{"bike_id":"c1234833-9229-4e89-b9fe-8e9717a034dd","system_id":"levelo_inurba_marseille","lat":43.32358,"lon":5.38896,"is_reserved":false,"is_disabled":false,"rental_uris":{"android":"levelo://app?vid=c1234833-9229-4e89-b9fe-8e9717a034dd","ios":"levelo://app?vid=c1234833-9229-4e89-b9fe-8e9717a034dd"},"vehicle_type_id":"4","last_reported":1747080707,"current_range_meters":20400,"station_id":"ce4bhqp2rcd13ifvqhog","pricing_plan_id":"cebpf4jnsgd1na2vs0mg"},{"bike_id":"6eb0004f-6ee3-4804-97a0-f050ea148c7b","system_id":"levelo_inurba_marseille","lat":43.29789,"lon":5.39355,"is_reserved":false,"is_disabled":false,"rental_uris":{"android":"levelo://app?vid=6eb0004f-6ee3-4804-97a0-f050ea148c7b","ios":"levelo://app?vid=6eb0004f-6ee3-4804-97a0-f050ea148c7b"},"vehicle_type_id":"4","last_reported":1747080707,"current_range_meters":20400,"station_id":"chh1huq6cuj3fo74tm60","pricing_plan_id":"cebpf4jnsgd1na2vs0mg"},{"bike_id":"0c893fb7-8626-4706-85bf-f404b871dea5","system_id":"levelo_inurba_marseille","lat":43.28136,"lon":5.44594,"is_reserved":false,"is_disabled":false,"rental_uris":{"android":"levelo://app?vid=0c893fb7-8626-4706-85bf-f404b871dea5","ios":"levelo://app?vid=0c893fb7-8626-4706-85bf-f404b871dea5"},"vehicle_type_id":"4","last_reported":1747080707,"current_range_meters":20800,"station_id":"","pricing_plan_id":"cebpf4jnsgd1na2vs0mg"},{"bike_id":"73210a5b-c270-4bc6-8e2a-57d79d3457d2","system_id":"levelo_inurba_marseille","lat":43.31378,"lon":5.38506,"is_reserved":false,"is_disabled":false,"rental_uris":{"android":"levelo://app?vid=73210a5b-c270-4bc6-8e2a-57d79d3457d2","ios":"levelo://app?vid=73210a5b-c270-4bc6-8e2a-57d79d3457d2"},"vehicle_type_id":"4","last_reported":1747080707,"current_range_meters":20800,"station_id":"ce4bgt92rcd13ifvqcf0","pricing_plan_id":"cebpf4jnsgd1na2vs0mg"},{"bike_id":"1095b252-790e-4155-ab4e-86136a24d6fc","system_id":"levelo_inurba_marseille","lat":43.28484,"lon":5.35869,"is_reserved":false,"is_disabled":false,"rental_uris":{"android":"levelo://app?vid=1095b252-790e-4155-ab4e-86136a24d6fc","ios":"levelo://app?vid=1095b252-790e-4155-ab4e-86136a24d6fc"},"vehicle_type_id":"4","last_reported":1747080707,"current_range_meters":20800,"station_id":"ce4bhah2rcd13ifvqei0","pricing_plan_id":"cebpf4jnsgd1na2vs0mg"},{"bike_id":"feb33fa4-99f6-482b-8dac-af020956948e","system_id":"levelo_inurba_marseille","lat":43.28658,"lon":5.36344,"is_reserved":false,"is_disabled":false,"rental_uris":{"android":"levelo://app?vid=feb33fa4-99f6-482b-8dac-af020956948e","ios":"levelo://app?vid=feb33fa4-99f6-482b-8dac-af020956948e"},"vehicle_type_id":"4","last_reported":1747080707,"current_range_meters":20800,"station_id":"ce4bhah2rcd13ifvqej0","pricing_plan_id":"cebpf4jnsgd1na2vs0mg"},{"bike_id":"50838afa-4db6-4810-a427-67691cd7c935","system_id":"levelo_inurba_marseille","lat":43.27913,"lon":5.39583,"is_reserved":false,"is_disabled":false,"rental_uris":{"android":"levelo://app?vid=50838afa-4db6-4810-a427-67691cd7c935","ios":"levelo://app?vid=50838afa-4db6-4810-a427-67691cd7c935"},"vehicle_type_id":"4","last_reported":1747080707,"current_range_meters":20800,"station_id":"ce4bhf92rcd13ifvqf40","pricing_plan_id":"cebpf4jnsgd1na2vs0mg"},{"bike_id":"1da0eeca-6e59-40b8-a976-b9e38a336ed5","system_id":"levelo_inurba_marseille","lat":43.2439,"lon":5.37053,"is_reserved":false,"is_disabled":false,"rental_uris":{"android":"levelo://app?vid=1da0eeca-6e59-40b8-a976-b9e38a336ed5","ios":"levelo://app?vid=1da0eeca-6e59-40b8-a976-b9e38a336ed5"},"vehicle_type_id":"4","last_reported":1747080707,"current_range_meters":20800,"station_id":"ce4bhhh2rcd13ifvqfk0","pricing_plan_id":"cebpf4jnsgd1na2vs0mg"},{"bike_id":"93ebfeda-43c5-4ff4-b6c2-87d01d28f3cb","system_id":"levelo_inurba_marseille","lat":43.29958,"lon":5.38502,"is_reserved":false,"is_disabled":false,"rental_uris":{"android":"levelo://app?vid=93ebfeda-43c5-4ff4-b6c2-87d01d28f3cb","ios":"levelo://app?vid=93ebfeda-43c5-4ff4-b6c2-87d01d28f3cb"},"vehicle_type_id":"4","last_reported":1747080707,"current_range_meters":21600,"station_id":"ce4bgj92rcd13ifvqbd0","pricing_plan_id":"cebpf4jnsgd1na2vs0mg"},{"bike_id":"aa9a901d-2a7e-41ed-97e8-9ff553b5fe0f","system_id":"levelo_inurba_marseille","lat":43.3065,"lon":5.40067,"is_reserved":false,"is_disabled":false,"rental_uris":{"android":"levelo://app?vid=aa9a901d-2a7e-41ed-97e8-9ff553b5fe0f","ios":"levelo://app?vid=aa9a901d-2a7e-41ed-97e8-9ff553b5fe0f"},"vehicle_type_id":"4","last_reported":1747080707,"current_range_meters":21600,"station_id":"ce4bh112rcd13ifvqda0","pricing_plan_id":"cebpf4jnsgd1na2vs0mg"},{"bike_id":"bc27e407-c8e9-43d7-832f-c6fac0c3cd0b","system_id":"levelo_inurba_marseille","lat":43.30068,"lon":5.39094,"is_reserved":false,"is_disabled":false,"rental_uris":{"android":"levelo://app?vid=bc27e407-c8e9-43d7-832f-c6fac0c3cd0b","ios":"levelo://app?vid=bc27e407-c8e9-43d7-832f-c6fac0c3cd0b"},"vehicle_type_id":"4","last_reported":1747080707,"current_range_meters":21600,"station_id":"ce4bh192rcd13ifvqdb0","pricing_plan_id":"cebpf4jnsgd1na2vs0mg"},{"bike_id":"d192745d-fe67-43f8-aa53-156f802599d0","system_id":"levelo_inurba_marseille","lat":43.29423,"lon":5.38623,"is_reserved":false,"is_disabled":false,"rental_uris":{"android":"levelo://app?vid=d192745d-fe67-43f8-aa53-156f802599d0","ios":"levelo://app?vid=d192745d-fe67-43f8-aa53-156f802599d0"},"vehicle_type_id":"4","last_reported":1747080707,"current_range_meters":21600,"station_id":"ce4bh2h2rcd13ifvqdh0","pricing_plan_id":"cebpf4jnsgd1na2vs0mg"},{"bike_id":"79a159ab-e07d-4aaa-a58e-b008b50fb3e3","system_id":"levelo_inurba_marseille","lat":43.283433,"lon":5.381167,"is_reserved":false,"is_disabled":false,"rental_uris":{"android":"levelo://app?vid=79a159ab-e07d-4aaa-a58e-b008b50fb3e3","ios":"levelo://app?vid=79a159ab-e07d-4aaa-a58e-b008b50fb3e3"},"vehicle_type_id":"4","last_reported":1747080707,"current_range_meters":21600,"station_id":"ce4bh412rcd13ifvqdr0","pricing_plan_id":"cebpf4jnsgd1na2vs0mg"},{"bike_id":"6c361fad-d8e1-4658-b355-5daeda2f41a4","system_id":"levelo_inurba_marseille","lat":43.28403,"lon":5.37508,"is_reserved":false,"is_disabled":false,"rental_uris":{"android":"levelo://app?vid=6c361fad-d8e1-4658-b355-5daeda2f41a4","ios":"levelo://app?vid=6c361fad-d8e1-4658-b355-5daeda2f41a4"},"vehicle_type_id":"4","last_reported":1747080707,"current_range_meters":21600,"station_id":"ce4bh412rcd13ifvqds0","pricing_plan_id":"cebpf4jnsgd1na2vs0mg"},{"bike_id":"94a56d00-e51a-49fe-8515-81faf65d104f","system_id":"levelo_inurba_marseille","lat":43.28072,"lon":5.39642,"is_reserved":false,"is_disabled":false,"rental_uris":{"android":"levelo://app?vid=94a56d00-e51a-49fe-8515-81faf65d104f","ios":"levelo://app?vid=94a56d00-e51a-49fe-8515-81faf65d104f"},"vehicle_type_id":"4","last_reported":1747080707,"current_range_meters":21600,"station_id":"ce4bho12rcd13ifvqh2g","pricing_plan_id":"cebpf4jnsgd1na2vs0mg"},{"bike_id":"e83dcaca-181c-4b02-bf44-8d4da8809b5b","system_id":"levelo_inurba_marseille","lat":43.31714,"lon":5.43705,"is_reserved":false,"is_disabled":false,"rental_uris":{"android":"levelo://app?vid=e83dcaca-181c-4b02-bf44-8d4da8809b5b","ios":"levelo://app?vid=e83dcaca-181c-4b02-bf44-8d4da8809b5b"},"vehicle_type_id":"4","last_reported":1747080707,"current_range_meters":21600,"station_id":"ce4bhp92rcd13ifvqhcg","pricing_plan_id":"cebpf4jnsgd1na2vs0mg"},{"bike_id":"2dbf98d6-81a5-475d-871f-b7c9e274f4cf","system_id":"levelo_inurba_marseille","lat":43.30125,"lon":5.38783,"is_reserved":false,"is_disabled":false,"rental_uris":{"android":"levelo://app?vid=2dbf98d6-81a5-475d-871f-b7c9e274f4cf","ios":"levelo://app?vid=2dbf98d6-81a5-475d-871f-b7c9e274f4cf"},"vehicle_type_id":"4","last_reported":1747080707,"current_range_meters":22000,"station_id":"ce4bghh2rcd13ifvqb60","pricing_plan_id":"cebpf4jnsgd1na2vs0mg"},{"bike_id":"eb4396a8-c929-40d2-b029-223aa5683702","system_id":"levelo_inurba_marseille","lat":43.29582,"lon":5.38104,"is_reserved":false,"is_disabled":false,"rental_uris":{"android":"levelo://app?vid=eb4396a8-c929-40d2-b029-223aa5683702","ios":"levelo://app?vid=eb4396a8-c929-40d2-b029-223aa5683702"},"vehicle_type_id":"4","last_reported":1747080707,"current_range_meters":22000,"station_id":"ce4bgl12rcd13ifvqbo0","pricing_plan_id":"cebpf4jnsgd1na2vs0mg"},{"bike_id":"2a8d6c84-f97c-47ac-97e8-b5252d886c6b","system_id":"levelo_inurba_marseille","lat":43.30636,"lon":5.40071,"is_reserved":false,"is_disabled":false,"rental_uris":{"android":"levelo://app?vid=2a8d6c84-f97c-47ac-97e8-b5252d886c6b","ios":"levelo://app?vid=2a8d6c84-f97c-47ac-97e8-b5252d886c6b"},"vehicle_type_id":"4","last_reported":1747080707,"current_range_meters":22000,"station_id":"ce4bh112rcd13ifvqda0","pricing_plan_id":"cebpf4jnsgd1na2vs0mg"},{"bike_id":"581a76c6-406f-436c-80cf-424046378536","system_id":"levelo_inurba_marseille","lat":43.23155,"lon":5.43711,"is_reserved":false,"is_disabled":false,"rental_uris":{"android":"levelo://app?vid=581a76c6-406f-436c-80cf-424046378536","ios":"levelo://app?vid=581a76c6-406f-436c-80cf-424046378536"},"vehicle_type_id":"4","last_reported":1747080707,"current_range_meters":22000,"station_id":"ce4bhmp2rcd13ifvqgog","pricing_plan_id":"cebpf4jnsgd1na2vs0mg"},{"bike_id":"495588fb-8b7a-49b7-a16e-4fe9eb211694","system_id":"levelo_inurba_marseille","lat":43.298727,"lon":5.39725,"is_reserved":false,"is_disabled":false,"rental_uris":{"android":"levelo://app?vid=495588fb-8b7a-49b7-a16e-4fe9eb211694","ios":"levelo://app?vid=495588fb-8b7a-49b7-a16e-4fe9eb211694"},"vehicle_type_id":"4","last_reported":1747080707,"current_range_meters":22400,"station_id":"ce4bh0h2rcd13ifvqd50","pricing_plan_id":"cebpf4jnsgd1na2vs0mg"},{"bike_id":"77057332-57f5-40ff-9e96-18201c6e9282","system_id":"levelo_inurba_marseille","lat":43.29866,"lon":5.3974,"is_reserved":false,"is_disabled":false,"rental_uris":{"android":"levelo://app?vid=77057332-57f5-40ff-9e96-18201c6e9282","ios":"levelo://app?vid=77057332-57f5-40ff-9e96-18201c6e9282"},"vehicle_type_id":"4","last_reported":1747080707,"current_range_meters":22400,"station_id":"ce4bh0h2rcd13ifvqd50","pricing_plan_id":"cebpf4jnsgd1na2vs0mg"},{"bike_id":"11608808-3cff-4357-b243-53a57562fec9","system_id":"levelo_inurba_marseille","lat":43.29254,"lon":5.40901,"is_reserved":false,"is_disabled":false,"rental_uris":{"android":"levelo://app?vid=11608808-3cff-4357-b243-53a57562fec9","ios":"levelo://app?vid=11608808-3cff-4357-b243-53a57562fec9"},"vehicle_type_id":"4","last_reported":1747080707,"current_range_meters":22400,"station_id":"ce4bh192rcd13ifvqdc0","pricing_plan_id":"cebpf4jnsgd1na2vs0mg"},{"bike_id":"e20c0ab0-90ea-460e-bcc0-e5fa98547380","system_id":"levelo_inurba_marseille","lat":43.31705,"lon":5.43715,"is_reserved":false,"is_disabled":false,"rental_uris":{"android":"levelo://app?vid=e20c0ab0-90ea-460e-bcc0-e5fa98547380","ios":"levelo://app?vid=e20c0ab0-90ea-460e-bcc0-e5fa98547380"},"vehicle_type_id":"4","last_reported":1747080707,"current_range_meters":22400,"station_id":"ce4bhp92rcd13ifvqhcg","pricing_plan_id":"cebpf4jnsgd1na2vs0mg"},{"bike_id":"e2f0454c-732f-4304-b8d1-eead66bd6be4","system_id":"levelo_inurba_marseille","lat":43.30277,"lon":5.37703,"is_reserved":false,"is_disabled":false,"rental_uris":{"android":"levelo://app?vid=e2f0454c-732f-4304-b8d1-eead66bd6be4","ios":"levelo://app?vid=e2f0454c-732f-4304-b8d1-eead66bd6be4"},"vehicle_type_id":"4","last_reported":1747080707,"current_range_meters":22800,"station_id":"ce4bguh2rcd13ifvqcj0","pricing_plan_id":"cebpf4jnsgd1na2vs0mg"},{"bike_id":"f7380b7c-f82e-4341-bfa9-b3575f900723","system_id":"levelo_inurba_marseille","lat":43.26939,"lon":5.40261,"is_reserved":false,"is_disabled":false,"rental_uris":{"android":"levelo://app?vid=f7380b7c-f82e-4341-bfa9-b3575f900723","ios":"levelo://app?vid=f7380b7c-f82e-4341-bfa9-b3575f900723"},"vehicle_type_id":"4","last_reported":1747080707,"current_range_meters":22800,"station_id":"cjm6bp8fraef2m0cb0m0","pricing_plan_id":"cebpf4jnsgd1na2vs0mg"},{"bike_id":"7fd7ca3b-b039-4a62-9bc4-cd1844b7f099","system_id":"levelo_inurba_marseille","lat":43.29874,"lon":5.39727,"is_reserved":false,"is_disabled":false,"rental_uris":{"android":"levelo://app?vid=7fd7ca3b-b039-4a62-9bc4-cd1844b7f099","ios":"levelo://app?vid=7fd7ca3b-b039-4a62-9bc4-cd1844b7f099"},"vehicle_type_id":"4","last_reported":1747080707,"current_range_meters":23200,"station_id":"ce4bh0h2rcd13ifvqd50","pricing_plan_id":"cebpf4jnsgd1na2vs0mg"},{"bike_id":"a6613d3f-10bf-4275-a3fe-2d2c08b0abd0","system_id":"levelo_inurba_marseille","lat":43.24653,"lon":5.389002,"is_reserved":false,"is_disabled":false,"rental_uris":{"android":"levelo://app?vid=a6613d3f-10bf-4275-a3fe-2d2c08b0abd0","ios":"levelo://app?vid=a6613d3f-10bf-4275-a3fe-2d2c08b0abd0"},"vehicle_type_id":"4","last_reported":1747080707,"current_range_meters":23200,"station_id":"ce4bhg12rcd13ifvqf60","pricing_plan_id":"cebpf4jnsgd1na2vs0mg"},{"bike_id":"09328e24-df9c-4c7e-8043-7939e7ac3492","system_id":"levelo_inurba_marseille","lat":43.28706,"lon":5.39972,"is_reserved":false,"is_disabled":false,"rental_uris":{"android":"levelo://app?vid=09328e24-df9c-4c7e-8043-7939e7ac3492","ios":"levelo://app?vid=09328e24-df9c-4c7e-8043-7939e7ac3492"},"vehicle_type_id":"4","last_reported":1747080707,"current_range_meters":23200,"station_id":"ce4bho92rcd13ifvqh3g","pricing_plan_id":"cebpf4jnsgd1na2vs0mg"},{"bike_id":"84951397-69e9-4cc4-a9b3-8bac0d4c150d","system_id":"levelo_inurba_marseille","lat":43.30374,"lon":5.42491,"is_reserved":false,"is_disabled":false,"rental_uris":{"android":"levelo://app?vid=84951397-69e9-4cc4-a9b3-8bac0d4c150d","ios":"levelo://app?vid=84951397-69e9-4cc4-a9b3-8bac0d4c150d"},"vehicle_type_id":"4","last_reported":1747080707,"current_range_meters":23200,"station_id":"ce4bhoh2rcd13ifvqh6g","pricing_plan_id":"cebpf4jnsgd1na2vs0mg"},{"bike_id":"57adef39-f5a5-4860-80da-d281227ea4a2","system_id":"levelo_inurba_marseille","lat":43.33602,"lon":5.41031,"is_reserved":false,"is_disabled":false,"rental_uris":{"android":"levelo://app?vid=57adef39-f5a5-4860-80da-d281227ea4a2","ios":"levelo://app?vid=57adef39-f5a5-4860-80da-d281227ea4a2"},"vehicle_type_id":"4","last_reported":1747080707,"current_range_meters":23200,"station_id":"ce4bhqh2rcd13ifvqhmg","pricing_plan_id":"cebpf4jnsgd1na2vs0mg"},{"bike_id":"2e9a1bb6-b9ff-4e0b-be40-2437411ffe1f","system_id":"levelo_inurba_marseille","lat":43.30642,"lon":5.40102,"is_reserved":false,"is_disabled":false,"rental_uris":{"android":"levelo://app?vid=2e9a1bb6-b9ff-4e0b-be40-2437411ffe1f","ios":"levelo://app?vid=2e9a1bb6-b9ff-4e0b-be40-2437411ffe1f"},"vehicle_type_id":"4","last_reported":1747080707,"current_range_meters":24000,"station_id":"ce4bh112rcd13ifvqda0","pricing_plan_id":"cebpf4jnsgd1na2vs0mg"},{"bike_id":"5cb13f10-276f-4306-abd4-5aa4bc8113aa","system_id":"levelo_inurba_marseille","lat":43.25119,"lon":5.40315,"is_reserved":false,"is_disabled":false,"rental_uris":{"android":"levelo://app?vid=5cb13f10-276f-4306-abd4-5aa4bc8113aa","ios":"levelo://app?vid=5cb13f10-276f-4306-abd4-5aa4bc8113aa"},"vehicle_type_id":"4","last_reported":1747080707,"current_range_meters":24000,"station_id":"ce4bhlh2rcd13ifvqgig","pricing_plan_id":"cebpf4jnsgd1na2vs0mg"},{"bike_id":"746d6870-f129-46ea-9cce-9733ae5747f5","system_id":"levelo_inurba_marseille","lat":43.24188,"lon":5.39735,"is_reserved":false,"is_disabled":false,"rental_uris":{"android":"levelo://app?vid=746d6870-f129-46ea-9cce-9733ae5747f5","ios":"levelo://app?vid=746d6870-f129-46ea-9cce-9733ae5747f5"},"vehicle_type_id":"4","last_reported":1747080707,"current_range_meters":24000,"station_id":"ce4bhn12rcd13ifvqgpg","pricing_plan_id":"cebpf4jnsgd1na2vs0mg"},{"bike_id":"54dccec5-997c-4548-a730-38e5a707ae50","system_id":"levelo_inurba_marseille","lat":43.27986,"lon":5.41644,"is_reserved":false,"is_disabled":false,"rental_uris":{"android":"levelo://app?vid=54dccec5-997c-4548-a730-38e5a707ae50","ios":"levelo://app?vid=54dccec5-997c-4548-a730-38e5a707ae50"},"vehicle_type_id":"4","last_reported":1747080707,"current_range_meters":24000,"station_id":"ce4bho12rcd13ifvqh1g","pricing_plan_id":"cebpf4jnsgd1na2vs0mg"},{"bike_id":"106eb206-51bf-43cb-a6c5-ca9ab95c5e14","system_id":"levelo_inurba_marseille","lat":43.31689,"lon":5.43725,"is_reserved":false,"is_disabled":false,"rental_uris":{"android":"levelo://app?vid=106eb206-51bf-43cb-a6c5-ca9ab95c5e14","ios":"levelo://app?vid=106eb206-51bf-43cb-a6c5-ca9ab95c5e14"},"vehicle_type_id":"4","last_reported":1747080707,"current_range_meters":24000,"station_id":"ce4bhp92rcd13ifvqhcg","pricing_plan_id":"cebpf4jnsgd1na2vs0mg"},{"bike_id":"c67a8e6e-7966-4d78-9401-977e1ba92ad8","system_id":"levelo_inurba_marseille","lat":43.29785,"lon":5.3936,"is_reserved":false,"is_disabled":false,"rental_uris":{"android":"levelo://app?vid=c67a8e6e-7966-4d78-9401-977e1ba92ad8","ios":"levelo://app?vid=c67a8e6e-7966-4d78-9401-977e1ba92ad8"},"vehicle_type_id":"4","last_reported":1747080707,"current_range_meters":24000,"station_id":"chh1huq6cuj3fo74tm60","pricing_plan_id":"cebpf4jnsgd1na2vs0mg"},{"bike_id":"456a5f23-42f8-4274-94a5-ce186549a6e0","system_id":"levelo_inurba_marseille","lat":43.30245,"lon":5.40069,"is_reserved":false,"is_disabled":false,"rental_uris":{"android":"levelo://app?vid=456a5f23-42f8-4274-94a5-ce186549a6e0","ios":"levelo://app?vid=456a5f23-42f8-4274-94a5-ce186549a6e0"},"vehicle_type_id":"4","last_reported":1747080707,"current_range_meters":24400,"station_id":"ce4bgvh2rcd13ifvqcs0","pricing_plan_id":"cebpf4jnsgd1na2vs0mg"},{"bike_id":"14e1760a-e172-409d-bb8e-421c803ef4f2","system_id":"levelo_inurba_marseille","lat":43.23189,"lon":5.39968,"is_reserved":false,"is_disabled":false,"rental_uris":{"android":"levelo://app?vid=14e1760a-e172-409d-bb8e-421c803ef4f2","ios":"levelo://app?vid=14e1760a-e172-409d-bb8e-421c803ef4f2"},"vehicle_type_id":"4","last_reported":1747080707,"current_range_meters":24400,"station_id":"ce4bhn12rcd13ifvqgqg","pricing_plan_id":"cebpf4jnsgd1na2vs0mg"},{"bike_id":"b963eb7d-609a-45f1-bafd-6ea623ae7fbf","system_id":"levelo_inurba_marseille","lat":43.28147,"lon":5.42625,"is_reserved":false,"is_disabled":false,"rental_uris":{"android":"levelo://app?vid=b963eb7d-609a-45f1-bafd-6ea623ae7fbf","ios":"levelo://app?vid=b963eb7d-609a-45f1-bafd-6ea623ae7fbf"},"vehicle_type_id":"4","last_reported":1747080707,"current_range_meters":24400,"station_id":"ce4bhnh2rcd13ifvqgug","pricing_plan_id":"cebpf4jnsgd1na2vs0mg"},{"bike_id":"24dea86b-f038-4b9a-989c-82db780e5bdc","system_id":"levelo_inurba_marseille","lat":43.27996,"lon":5.41667,"is_reserved":false,"is_disabled":false,"rental_uris":{"android":"levelo://app?vid=24dea86b-f038-4b9a-989c-82db780e5bdc","ios":"levelo://app?vid=24dea86b-f038-4b9a-989c-82db780e5bdc"},"vehicle_type_id":"4","last_reported":1747080707,"current_range_meters":24400,"station_id":"ce4bho12rcd13ifvqh1g","pricing_plan_id":"cebpf4jnsgd1na2vs0mg"},{"bike_id":"cf7bf50a-9787-4df9-9279-dc78aee23686","system_id":"levelo_inurba_marseille","lat":43.31723,"lon":5.43702,"is_reserved":false,"is_disabled":false,"rental_uris":{"android":"levelo://app?vid=cf7bf50a-9787-4df9-9279-dc78aee23686","ios":"levelo://app?vid=cf7bf50a-9787-4df9-9279-dc78aee23686"},"vehicle_type_id":"4","last_reported":1747080707,"current_range_meters":24400,"station_id":"ce4bhp92rcd13ifvqhcg","pricing_plan_id":"cebpf4jnsgd1na2vs0mg"},{"bike_id":"0a416c61-b935-49d0-af70-029d3d3d0ab0","system_id":"levelo_inurba_marseille","lat":43.30794,"lon":5.43533,"is_reserved":false,"is_disabled":false,"rental_uris":{"android":"levelo://app?vid=0a416c61-b935-49d0-af70-029d3d3d0ab0","ios":"levelo://app?vid=0a416c61-b935-49d0-af70-029d3d3d0ab0"},"vehicle_type_id":"4","last_reported":1747080707,"current_range_meters":24400,"station_id":"ce4bhph2rcd13ifvqheg","pricing_plan_id":"cebpf4jnsgd1na2vs0mg"},{"bike_id":"ebcc075d-08ea-4ae7-94ec-4c5085349efc","system_id":"levelo_inurba_marseille","lat":43.31885,"lon":5.40738,"is_reserved":false,"is_disabled":false,"rental_uris":{"android":"levelo://app?vid=ebcc075d-08ea-4ae7-94ec-4c5085349efc","ios":"levelo://app?vid=ebcc075d-08ea-4ae7-94ec-4c5085349efc"},"vehicle_type_id":"4","last_reported":1747080707,"current_range_meters":24400,"station_id":"ce4bhq12rcd13ifvqhig","pricing_plan_id":"cebpf4jnsgd1na2vs0mg"},{"bike_id":"d6827c15-a9b9-471d-a8db-15e4478d7960","system_id":"levelo_inurba_marseille","lat":43.28687,"lon":5.37406,"is_reserved":false,"is_disabled":false,"rental_uris":{"android":"levelo://app?vid=d6827c15-a9b9-471d-a8db-15e4478d7960","ios":"levelo://app?vid=d6827c15-a9b9-471d-a8db-15e4478d7960"},"vehicle_type_id":"4","last_reported":1747080707,"current_range_meters":24800,"station_id":"ce4bh3p2rcd13ifvqdq0","pricing_plan_id":"cebpf4jnsgd1na2vs0mg"},{"bike_id":"a55a8e89-7507-44c1-8a58-75c7621a3117","system_id":"levelo_inurba_marseille","lat":43.24066,"lon":5.37764,"is_reserved":false,"is_disabled":false,"rental_uris":{"android":"levelo://app?vid=a55a8e89-7507-44c1-8a58-75c7621a3117","ios":"levelo://app?vid=a55a8e89-7507-44c1-8a58-75c7621a3117"},"vehicle_type_id":"4","last_reported":1747080707,"current_range_meters":24800,"station_id":"ce4bhnp2rcd13ifvqgvg","pricing_plan_id":"cebpf4jnsgd1na2vs0mg"},{"bike_id":"c8f6f9c3-7c0e-49e9-99b2-73fad95e8765","system_id":"levelo_inurba_marseille","lat":43.31883,"lon":5.40736,"is_reserved":false,"is_disabled":false,"rental_uris":{"android":"levelo://app?vid=c8f6f9c3-7c0e-49e9-99b2-73fad95e8765","ios":"levelo://app?vid=c8f6f9c3-7c0e-49e9-99b2-73fad95e8765"},"vehicle_type_id":"4","last_reported":1747080707,"current_range_meters":24800,"station_id":"ce4bhq12rcd13ifvqhig","pricing_plan_id":"cebpf4jnsgd1na2vs0mg"},{"bike_id":"5647a91f-31a6-41fb-82bb-83893a94fc73","system_id":"levelo_inurba_marseille","lat":43.21198,"lon":5.35066,"is_reserved":false,"is_disabled":false,"rental_uris":{"android":"levelo://app?vid=5647a91f-31a6-41fb-82bb-83893a94fc73","ios":"levelo://app?vid=5647a91f-31a6-41fb-82bb-83893a94fc73"},"vehicle_type_id":"4","last_reported":1747080707,"current_range_meters":24800,"station_id":"st_cvj6sg6p6f1abm77japg","pricing_plan_id":"cebpf4jnsgd1na2vs0mg"},{"bike_id":"f9c8597a-f788-47c6-adc2-7b0bfb94c7c1","system_id":"levelo_inurba_marseille","lat":43.30141,"lon":5.39845,"is_reserved":false,"is_disabled":false,"rental_uris":{"android":"levelo://app?vid=f9c8597a-f788-47c6-adc2-7b0bfb94c7c1","ios":"levelo://app?vid=f9c8597a-f788-47c6-adc2-7b0bfb94c7c1"},"vehicle_type_id":"4","last_reported":1747080707,"current_range_meters":25200,"station_id":"ce4bh0h2rcd13ifvqd40","pricing_plan_id":"cebpf4jnsgd1na2vs0mg"},{"bike_id":"5a1674e1-6fcf-436c-837a-728506aea12f","system_id":"levelo_inurba_marseille","lat":43.29871,"lon":5.39735,"is_reserved":false,"is_disabled":false,"rental_uris":{"android":"levelo://app?vid=5a1674e1-6fcf-436c-837a-728506aea12f","ios":"levelo://app?vid=5a1674e1-6fcf-436c-837a-728506aea12f"},"vehicle_type_id":"4","last_reported":1747080707,"current_range_meters":25200,"station_id":"ce4bh0h2rcd13ifvqd50","pricing_plan_id":"cebpf4jnsgd1na2vs0mg"},{"bike_id":"9e24d2d4-cd24-49ed-a24a-82a321ce0db1","system_id":"levelo_inurba_marseille","lat":43.294093,"lon":5.401699,"is_reserved":false,"is_disabled":false,"rental_uris":{"android":"levelo://app?vid=9e24d2d4-cd24-49ed-a24a-82a321ce0db1","ios":"levelo://app?vid=9e24d2d4-cd24-49ed-a24a-82a321ce0db1"},"vehicle_type_id":"4","last_reported":1747080707,"current_range_meters":25200,"station_id":"ce4bh192rcd13ifvqdc0","pricing_plan_id":"cebpf4jnsgd1na2vs0mg"},{"bike_id":"6a823f1a-6318-4c59-8ef1-0310574389dd","system_id":"levelo_inurba_marseille","lat":43.29573,"lon":5.39965,"is_reserved":false,"is_disabled":false,"rental_uris":{"android":"levelo://app?vid=6a823f1a-6318-4c59-8ef1-0310574389dd","ios":"levelo://app?vid=6a823f1a-6318-4c59-8ef1-0310574389dd"},"vehicle_type_id":"4","last_reported":1747080707,"current_range_meters":25200,"station_id":"ce4bh312rcd13ifvqdj0","pricing_plan_id":"cebpf4jnsgd1na2vs0mg"},{"bike_id":"3ea93f15-db04-4894-a901-ee3874ff2ab2","system_id":"levelo_inurba_marseille","lat":43.28332,"lon":5.38085,"is_reserved":false,"is_disabled":false,"rental_uris":{"android":"levelo://app?vid=3ea93f15-db04-4894-a901-ee3874ff2ab2","ios":"levelo://app?vid=3ea93f15-db04-4894-a901-ee3874ff2ab2"},"vehicle_type_id":"4","last_reported":1747080707,"current_range_meters":25200,"station_id":"ce4bh412rcd13ifvqdr0","pricing_plan_id":"cebpf4jnsgd1na2vs0mg"},{"bike_id":"4a5a05b0-a415-4c11-90b3-e4d7a4e6d246","system_id":"levelo_inurba_marseille","lat":43.28348,"lon":5.38099,"is_reserved":false,"is_disabled":false,"rental_uris":{"android":"levelo://app?vid=4a5a05b0-a415-4c11-90b3-e4d7a4e6d246","ios":"levelo://app?vid=4a5a05b0-a415-4c11-90b3-e4d7a4e6d246"},"vehicle_type_id":"4","last_reported":1747080707,"current_range_meters":25200,"station_id":"ce4bh412rcd13ifvqdr0","pricing_plan_id":"cebpf4jnsgd1na2vs0mg"},{"bike_id":"909763f2-ad07-42f6-9c11-e3788326a499","system_id":"levelo_inurba_marseille","lat":43.28354,"lon":5.38107,"is_reserved":false,"is_disabled":false,"rental_uris":{"android":"levelo://app?vid=909763f2-ad07-42f6-9c11-e3788326a499","ios":"levelo://app?vid=909763f2-ad07-42f6-9c11-e3788326a499"},"vehicle_type_id":"4","last_reported":1747080707,"current_range_meters":25200,"station_id":"ce4bh412rcd13ifvqdr0","pricing_plan_id":"cebpf4jnsgd1na2vs0mg"},{"bike_id":"2ae94a23-94fc-4708-9bd5-fb9a8837b686","system_id":"levelo_inurba_marseille","lat":43.28942,"lon":5.36407,"is_reserved":false,"is_disabled":false,"rental_uris":{"android":"levelo://app?vid=2ae94a23-94fc-4708-9bd5-fb9a8837b686","ios":"levelo://app?vid=2ae94a23-94fc-4708-9bd5-fb9a8837b686"},"vehicle_type_id":"4","last_reported":1747080707,"current_range_meters":25200,"station_id":"ce4bhc92rcd13ifvqetg","pricing_plan_id":"cebpf4jnsgd1na2vs0mg"},{"bike_id":"fbe1a290-f52f-439e-b97c-04f5045931d7","system_id":"levelo_inurba_marseille","lat":43.281477,"lon":5.4266,"is_reserved":false,"is_disabled":false,"rental_uris":{"android":"levelo://app?vid=fbe1a290-f52f-439e-b97c-04f5045931d7","ios":"levelo://app?vid=fbe1a290-f52f-439e-b97c-04f5045931d7"},"vehicle_type_id":"4","last_reported":1747080707,"current_range_meters":25200,"station_id":"ce4bhnh2rcd13ifvqgug","pricing_plan_id":"cebpf4jnsgd1na2vs0mg"},{"bike_id":"af250bf1-9940-4e84-9989-8978c946967d","system_id":"levelo_inurba_marseille","lat":43.28569,"lon":5.39496,"is_reserved":false,"is_disabled":false,"rental_uris":{"android":"levelo://app?vid=af250bf1-9940-4e84-9989-8978c946967d","ios":"levelo://app?vid=af250bf1-9940-4e84-9989-8978c946967d"},"vehicle_type_id":"4","last_reported":1747080707,"current_range_meters":25600,"station_id":"ce4bh292rcd13ifvqdg0","pricing_plan_id":"cebpf4jnsgd1na2vs0mg"},{"bike_id":"d87791ac-08e3-4274-a601-857a0e7a67a0","system_id":"levelo_inurba_marseille","lat":43.2846,"lon":5.35883,"is_reserved":false,"is_disabled":false,"rental_uris":{"android":"levelo://app?vid=d87791ac-08e3-4274-a601-857a0e7a67a0","ios":"levelo://app?vid=d87791ac-08e3-4274-a601-857a0e7a67a0"},"vehicle_type_id":"4","last_reported":1747080707,"current_range_meters":25600,"station_id":"ce4bhah2rcd13ifvqei0","pricing_plan_id":"cebpf4jnsgd1na2vs0mg"},{"bike_id":"f6aefb67-db6b-4e82-a524-cdac3ada133c","system_id":"levelo_inurba_marseille","lat":43.28457,"lon":5.3589,"is_reserved":false,"is_disabled":false,"rental_uris":{"android":"levelo://app?vid=f6aefb67-db6b-4e82-a524-cdac3ada133c","ios":"levelo://app?vid=f6aefb67-db6b-4e82-a524-cdac3ada133c"},"vehicle_type_id":"4","last_reported":1747080707,"current_range_meters":25600,"station_id":"ce4bhah2rcd13ifvqei0","pricing_plan_id":"cebpf4jnsgd1na2vs0mg"},{"bike_id":"b4d9795b-84c0-4782-b7a3-101f82719e66","system_id":"levelo_inurba_marseille","lat":43.27178,"lon":5.40993,"is_reserved":false,"is_disabled":false,"rental_uris":{"android":"levelo://app?vid=b4d9795b-84c0-4782-b7a3-101f82719e66","ios":"levelo://app?vid=b4d9795b-84c0-4782-b7a3-101f82719e66"},"vehicle_type_id":"4","last_reported":1747080707,"current_range_meters":25600,"station_id":"ce4bhl12rcd13ifvqgf0","pricing_plan_id":"cebpf4jnsgd1na2vs0mg"},{"bike_id":"78f9818b-2915-40da-96a6-acc93f26a518","system_id":"levelo_inurba_marseille","lat":43.24547,"lon":5.39522,"is_reserved":false,"is_disabled":false,"rental_uris":{"android":"levelo://app?vid=78f9818b-2915-40da-96a6-acc93f26a518","ios":"levelo://app?vid=78f9818b-2915-40da-96a6-acc93f26a518"},"vehicle_type_id":"4","last_reported":1747080707,"current_range_meters":25600,"station_id":"ce4bhlp2rcd13ifvqgjg","pricing_plan_id":"cebpf4jnsgd1na2vs0mg"},{"bike_id":"8deafdb0-b72e-42a8-9144-f28ecef9389d","system_id":"levelo_inurba_marseille","lat":43.321141,"lon":5.367757,"is_reserved":false,"is_disabled":false,"rental_uris":{"android":"levelo://app?vid=8deafdb0-b72e-42a8-9144-f28ecef9389d","ios":"levelo://app?vid=8deafdb0-b72e-42a8-9144-f28ecef9389d"},"vehicle_type_id":"4","last_reported":1747080707,"current_range_meters":25600,"station_id":"ce4bhrh2rcd13ifvqhug","pricing_plan_id":"cebpf4jnsgd1na2vs0mg"},{"bike_id":"d43ccc23-1880-48b1-a739-503ff33b7464","system_id":"levelo_inurba_marseille","lat":43.30782,"lon":5.37657,"is_reserved":false,"is_disabled":false,"rental_uris":{"android":"levelo://app?vid=d43ccc23-1880-48b1-a739-503ff33b7464","ios":"levelo://app?vid=d43ccc23-1880-48b1-a739-503ff33b7464"},"vehicle_type_id":"4","last_reported":1747080707,"current_range_meters":26000,"station_id":"ce4bgv92rcd13ifvqcq0","pricing_plan_id":"cebpf4jnsgd1na2vs0mg"},{"bike_id":"e0c98606-9d74-411e-979e-ba241d6d1672","system_id":"levelo_inurba_marseille","lat":43.28934,"lon":5.36632,"is_reserved":false,"is_disabled":false,"rental_uris":{"android":"levelo://app?vid=e0c98606-9d74-411e-979e-ba241d6d1672","ios":"levelo://app?vid=e0c98606-9d74-411e-979e-ba241d6d1672"},"vehicle_type_id":"4","last_reported":1747080707,"current_range_meters":26000,"station_id":"ce4bhap2rcd13ifvqek0","pricing_plan_id":"cebpf4jnsgd1na2vs0mg"},{"bike_id":"18556955-6e5e-44de-8de6-34b971734618","system_id":"levelo_inurba_marseille","lat":43.32113,"lon":5.36773,"is_reserved":false,"is_disabled":false,"rental_uris":{"android":"levelo://app?vid=18556955-6e5e-44de-8de6-34b971734618","ios":"levelo://app?vid=18556955-6e5e-44de-8de6-34b971734618"},"vehicle_type_id":"4","last_reported":1747080707,"current_range_meters":26000,"station_id":"ce4bhrh2rcd13ifvqhug","pricing_plan_id":"cebpf4jnsgd1na2vs0mg"},