{"last_updated":1744913617,"ttl":60,"version":"2.2","data":{"bikes":[{"bike_id":"dfc12a08-d43f-4149-8553-b45154fce02c","system_id":"levelo_inurba_marseille","lat":43.30141,"lon":5.3878,"is_reserved":false,"is_disabled":false,"rental_uris":{"android":"levelo://app?vid=dfc12a08-d43f-4149-8553-b45154fce02c","ios":"levelo://app?vid=dfc12a08-d43f-4149-8553-b45154fce02c"},"vehicle_type_id":"4","last_reported":1744913617,"current_range_meters":2800,"station_id":"ce4bghh2rcd13ifvqb60","pricing_plan_id":"cebpf4jnsgd1na2vs0mg"},{"bike_id":"df1c338c-dda5-405a-8c7a-0657844eea6b","system_id":"levelo_inurba_marseille","lat":43.29535,"lon":5.38543,"is_reserved":false,"is_disabled":false,"rental_uris":{"android":"levelo://app?vid=df1c338c-dda5-405a-8c7a-0657844eea6b","ios":"levelo://app?vid=df1c338c-dda5-405a-8c7a-0657844eea6b"},"vehicle_type_id":"4","last_reported":1744913617,"current_range_meters":3200,"station_id":"ce4bgih2rcd13ifvqba0","pricing_plan_id":"cebpf4jnsgd1na2vs0mg"},{"bike_id":"290cddca-488d-4c64-803c-d654446083be","system_id":"levelo_inurba_marseille","lat":43.28462,"lon":5.35886,"is_reserved":false,"is_disabled":false,"rental_uris":{"android":"levelo://app?vid=290cddca-488d-4c64-803c-d654446083be","ios":"levelo://app?vid=290cddca-488d-4c64-803c-d654446083be"},"vehicle_type_id":"4","last_reported":1744913617,"current_range_meters":3600,"station_id":"ce4bhah2rcd13ifvqei0","pricing_plan_id":"cebpf4jnsgd1na2vs0mg"},{"bike_id":"d1dbe62c-4b73-44ba-b7e8-ecb8b3e5593c","system_id":"levelo_inurba_marseille","lat":43.2844,"lon":5.39215,"is_reserved":false,"is_disabled":false,"rental_uris":{"android":"levelo://app?vid=d1dbe62c-4b73-44ba-b7e8-ecb8b3e5593c","ios":"levelo://app?vid=d1dbe62c-4b73-44ba-b7e8-ecb8b3e5593c"},"vehicle_type_id":"4","last_reported":1744913617,"current_range_meters":3600,"station_id":"ce4bhoh2rcd13ifvqh5g","pricing_plan_id":"cebpf4jnsgd1na2vs0mg"},{"bike_id":"90f49bd0-c379-4274-b388-8e29c11a825c","system_id":"levelo_inurba_marseille","lat":43.291515,"lon":5.374097,"is_reserved":false,"is_disabled":false,"rental_uris":{"android":"levelo://app?vid=90f49bd0-c379-4274-b388-8e29c11a825c","ios":"levelo://app?vid=90f49bd0-c379-4274-b388-8e29c11a825c"},"vehicle_type_id":"4","last_reported":1744913617,"current_range_meters":0,"station_id":"ce4bh0h2rcd13ifvqd40","pricing_plan_id":"cebpf4jnsgd1na2vs0mg"},{"bike_id":"47d772b1-a0b8-4e08-873c-ce7a23c259a0","system_id":"levelo_inurba_marseille","lat":43.3095,"lon":5.39043,"is_reserved":false,"is_disabled":false,"rental_uris":{"android":"levelo://app?vid=47d772b1-a0b8-4e08-873c-ce7a23c259a0","ios":"levelo://app?vid=47d772b1-a0b8-4e08-873c-ce7a23c259a0"},"vehicle_type_id":"4","last_reported":1744913617,"current_range_meters":4400,"station_id":"ce4bgup2rcd13ifvqco0","pricing_plan_id":"cebpf4jnsgd1na2vs0mg"},{"bike_id":"fe3076c3-0b74-4beb-b268-6e4ff5de25cc","system_id":"levelo_inurba_marseille","lat":43.27554,"lon":5.38428,"is_reserved":false,"is_disabled":false,"rental_uris":{"android":"levelo://app?vid=fe3076c3-0b74-4beb-b268-6e4ff5de25cc","ios":"levelo://app?vid=fe3076c3-0b74-4beb-b268-6e4ff5de25cc"},"vehicle_type_id":"4","last_reported":1744913617,"current_range_meters":4400,"station_id":"ce4bhh92rcd13ifvqfi0","pricing_plan_id":"cebpf4jnsgd1na2vs0mg"},{"bike_id":"833ea10f-7b59-4d9e-943b-3fe9ceabb574","system_id":"levelo_inurba_marseille","lat":43.295761,"lon":5.375154,"is_reserved":false,"is_disabled":false,"rental_uris":{"android":"levelo://app?vid=833ea10f-7b59-4d9e-943b-3fe9ceabb574","ios":"levelo://app?vid=833ea10f-7b59-4d9e-943b-3fe9ceabb574"},"vehicle_type_id":"4","last_reported":1744913617,"current_range_meters":4800,"station_id":"","pricing_plan_id":"cebpf4jnsgd1na2vs0mg"},{"bike_id":"19587994-4076-45f4-b6ef-f4d59dcd04a7","system_id":"levelo_inurba_marseille","lat":43.29897,"lon":5.38896,"is_reserved":false,"is_disabled":false,"rental_uris":{"android":"levelo://app?vid=19587994-4076-45f4-b6ef-f4d59dcd04a7","ios":"levelo://app?vid=19587994-4076-45f4-b6ef-f4d59dcd04a7"},"vehicle_type_id":"4","last_reported":1744913617,"current_range_meters":4800,"station_id":"ce4bh392rcd13ifvqdl0","pricing_plan_id":"cebpf4jnsgd1na2vs0mg"},{"bike_id":"fe6d7058-3eeb-452f-a659-1b2f55d09e4f","system_id":"levelo_inurba_marseille","lat":43.29436,"lon":5.3975,"is_reserved":false,"is_disabled":false,"rental_uris":{"android":"levelo://app?vid=fe6d7058-3eeb-452f-a659-1b2f55d09e4f","ios":"levelo://app?vid=fe6d7058-3eeb-452f-a659-1b2f55d09e4f"},"vehicle_type_id":"4","last_reported":1744913617,"current_range_meters":6800,"station_id":"ce4bh3h2rcd13ifvqdo0","pricing_plan_id":"cebpf4jnsgd1na2vs0mg"},{"bike_id":"1ac58392-fc8f-486e-92d4-4d3a9fa55c3c","system_id":"levelo_inurba_marseille","lat":43.30595,"lon":5.3937,"is_reserved":false,"is_disabled":false,"rental_uris":{"android":"levelo://app?vid=1ac58392-fc8f-486e-92d4-4d3a9fa55c3c","ios":"levelo://app?vid=1ac58392-fc8f-486e-92d4-4d3a9fa55c3c"},"vehicle_type_id":"4","last_reported":1744913617,"current_range_meters":5600,"station_id":"ce4bh0p2rcd13ifvqd80","pricing_plan_id":"cebpf4jnsgd1na2vs0mg"},{"bike_id":"c9840ebd-d167-4346-8b89-2c076efe67d8","system_id":"levelo_inurba_marseille","lat":43.28265,"lon":5.35098,"is_reserved":false,"is_disabled":false,"rental_uris":{"android":"levelo://app?vid=c9840ebd-d167-4346-8b89-2c076efe67d8","ios":"levelo://app?vid=c9840ebd-d167-4346-8b89-2c076efe67d8"},"vehicle_type_id":"4","last_reported":1744913617,"current_range_meters":5600,"station_id":"ce4bhbp2rcd13ifvqerg","pricing_plan_id":"cebpf4jnsgd1na2vs0mg"},{"bike_id":"0848e126-26ee-4292-b9c8-0bc76e58671e","system_id":"levelo_inurba_marseille","lat":43.32478,"lon":5.36564,"is_reserved":false,"is_disabled":false,"rental_uris":{"android":"levelo://app?vid=0848e126-26ee-4292-b9c8-0bc76e58671e","ios":"levelo://app?vid=0848e126-26ee-4292-b9c8-0bc76e58671e"},"vehicle_type_id":"4","last_reported":1744913617,"current_range_meters":5600,"station_id":"ce4bhs12rcd13ifvqhvg","pricing_plan_id":"cebpf4jnsgd1na2vs0mg"},{"bike_id":"6fa125ed-e3dd-4f9c-93d3-cb2e8b07922e","system_id":"levelo_inurba_marseille","lat":43.30325,"lon":5.40434,"is_reserved":false,"is_disabled":false,"rental_uris":{"android":"levelo://app?vid=6fa125ed-e3dd-4f9c-93d3-cb2e8b07922e","ios":"levelo://app?vid=6fa125ed-e3dd-4f9c-93d3-cb2e8b07922e"},"vehicle_type_id":"4","last_reported":1744913617,"current_range_meters":5600,"station_id":"ce4bh012rcd13ifvqd10","pricing_plan_id":"cebpf4jnsgd1na2vs0mg"},{"bike_id":"51308e42-1800-43d1-9660-020c4479c9ce","system_id":"levelo_inurba_marseille","lat":43.27375,"lon":5.36257,"is_reserved":false,"is_disabled":false,"rental_uris":{"android":"levelo://app?vid=51308e42-1800-43d1-9660-020c4479c9ce","ios":"levelo://app?vid=51308e42-1800-43d1-9660-020c4479c9ce"},"vehicle_type_id":"4","last_reported":1744913617,"current_range_meters":6000,"station_id":"ce4bhbh2rcd13ifvqeo0","pricing_plan_id":"cebpf4jnsgd1na2vs0mg"},{"bike_id":"0fc20b87-3eaa-44f8-8b22-9a9dad5b04e9","system_id":"levelo_inurba_marseille","lat":43.27828,"lon":5.39211,"is_reserved":false,"is_disabled":false,"rental_uris":{"android":"levelo://app?vid=0fc20b87-3eaa-44f8-8b22-9a9dad5b04e9","ios":"levelo://app?vid=0fc20b87-3eaa-44f8-8b22-9a9dad5b04e9"},"vehicle_type_id":"4","last_reported":1744913617,"current_range_meters":6000,"station_id":"ce4bhjp2rcd13ifvqga0","pricing_plan_id":"cebpf4jnsgd1na2vs0mg"},{"bike_id":"cdd7dc60-c0bf-48ab-a81e-5429bfea1148","system_id":"levelo_inurba_marseille","lat":43.32361,"lon":5.38882,"is_reserved":false,"is_disabled":false,"rental_uris":{"android":"levelo://app?vid=cdd7dc60-c0bf-48ab-a81e-5429bfea1148","ios":"levelo://app?vid=cdd7dc60-c0bf-48ab-a81e-5429bfea1148"},"vehicle_type_id":"4","last_reported":1744913617,"current_range_meters":6000,"station_id":"ce4bhqp2rcd13ifvqhog","pricing_plan_id":"cebpf4jnsgd1na2vs0mg"},{"bike_id":"5c37c543-52ea-4ca0-b815-01718a2d50c7","system_id":"levelo_inurba_marseille","lat":43.27917,"lon":5.396,"is_reserved":false,"is_disabled":true,"rental_uris":{"android":"levelo://app?vid=5c37c543-52ea-4ca0-b815-01718a2d50c7","ios":"levelo://app?vid=5c37c543-52ea-4ca0-b815-01718a2d50c7"},"vehicle_type_id":"4","last_reported":1744913617,"current_range_meters":6000,"station_id":"ce4bhf92rcd13ifvqf40","pricing_plan_id":"cebpf4jnsgd1na2vs0mg"},{"bike_id":"6807357d-8560-4f8b-b2e8-f3e691bccd4b","system_id":"levelo_inurba_marseille","lat":43.28106,"lon":5.37848,"is_reserved":false,"is_disabled":false,"rental_uris":{"android":"levelo://app?vid=6807357d-8560-4f8b-b2e8-f3e691bccd4b","ios":"levelo://app?vid=6807357d-8560-4f8b-b2e8-f3e691bccd4b"},"vehicle_type_id":"4","last_reported":1744913617,"current_range_meters":6400,"station_id":"ce4bha12rcd13ifvqee0","pricing_plan_id":"cebpf4jnsgd1na2vs0mg"},{"bike_id":"76e6d708-8a73-4c2f-bbbd-4ebbc87a4e0a","system_id":"levelo_inurba_marseille","lat":43.29424,"lon":5.38612,"is_reserved":false,"is_disabled":false,"rental_uris":{"android":"levelo://app?vid=76e6d708-8a73-4c2f-bbbd-4ebbc87a4e0a","ios":"levelo://app?vid=76e6d708-8a73-4c2f-bbbd-4ebbc87a4e0a"},"vehicle_type_id":"4","last_reported":1744913617,"current_range_meters":6400,"station_id":"ce4bh2h2rcd13ifvqdh0","pricing_plan_id":"cebpf4jnsgd1na2vs0mg"},{"bike_id":"101bf9aa-8f05-45e9-b683-421af2ccf862","system_id":"levelo_inurba_marseille","lat":43.28617,"lon":5.35095,"is_reserved":false,"is_disabled":false,"rental_uris":{"android":"levelo://app?vid=101bf9aa-8f05-45e9-b683-421af2ccf862","ios":"levelo://app?vid=101bf9aa-8f05-45e9-b683-421af2ccf862"},"vehicle_type_id":"4","last_reported":1744913617,"current_range_meters":6400,"station_id":"ce4bhch2rcd13ifvqeug","pricing_plan_id":"cebpf4jnsgd1na2vs0mg"},{"bike_id":"ef73a336-cdac-4c0b-9fad-2684e657fbf1","system_id":"levelo_inurba_marseille","lat":43.31545,"lon":5.38063,"is_reserved":false,"is_disabled":false,"rental_uris":{"android":"levelo://app?vid=ef73a336-cdac-4c0b-9fad-2684e657fbf1","ios":"levelo://app?vid=ef73a336-cdac-4c0b-9fad-2684e657fbf1"},"vehicle_type_id":"4","last_reported":1744913617,"current_range_meters":6400,"station_id":"ce4bhsp2rcd13ifvqi50","pricing_plan_id":"cebpf4jnsgd1na2vs0mg"},{"bike_id":"6e6a72e9-7ed5-4a6c-a732-77c41f63d352","system_id":"levelo_inurba_marseille","lat":43.290299,"lon":5.386341,"is_reserved":false,"is_disabled":false,"rental_uris":{"android":"levelo://app?vid=6e6a72e9-7ed5-4a6c-a732-77c41f63d352","ios":"levelo://app?vid=6e6a72e9-7ed5-4a6c-a732-77c41f63d352"},"vehicle_type_id":"4","last_reported":1744913617,"current_range_meters":6400,"station_id":"ce4bhb12rcd13ifvqel0","pricing_plan_id":"cebpf4jnsgd1na2vs0mg"},{"bike_id":"8ddc90fe-6ef8-4817-9bb2-83937c8b6b32","system_id":"levelo_inurba_marseille","lat":43.28607,"lon":5.35136,"is_reserved":false,"is_disabled":false,"rental_uris":{"android":"levelo://app?vid=8ddc90fe-6ef8-4817-9bb2-83937c8b6b32","ios":"levelo://app?vid=8ddc90fe-6ef8-4817-9bb2-83937c8b6b32"},"vehicle_type_id":"4","last_reported":1744913617,"current_range_meters":6400,"station_id":"ce4bhch2rcd13ifvqeug","pricing_plan_id":"cebpf4jnsgd1na2vs0mg"},{"bike_id":"d8073c6f-5299-469d-bf81-c56b2c08a257","system_id":"levelo_inurba_marseille","lat":43.28417,"lon":5.35003,"is_reserved":false,"is_disabled":false,"rental_uris":{"android":"levelo://app?vid=d8073c6f-5299-469d-bf81-c56b2c08a257","ios":"levelo://app?vid=d8073c6f-5299-469d-bf81-c56b2c08a257"},"vehicle_type_id":"4","last_reported":1744913617,"current_range_meters":6400,"station_id":"ce4bhbh2rcd13ifvqepg","pricing_plan_id":"cebpf4jnsgd1na2vs0mg"},{"bike_id":"5e6ca147-f495-4f28-9132-1242b28c2bb7","system_id":"levelo_inurba_marseille","lat":43.30322,"lon":5.40431,"is_reserved":false,"is_disabled":false,"rental_uris":{"android":"levelo://app?vid=5e6ca147-f495-4f28-9132-1242b28c2bb7","ios":"levelo://app?vid=5e6ca147-f495-4f28-9132-1242b28c2bb7"},"vehicle_type_id":"4","last_reported":1744913617,"current_range_meters":6800,"station_id":"ce4bh012rcd13ifvqd10","pricing_plan_id":"cebpf4jnsgd1na2vs0mg"},{"bike_id":"91b0dab0-0518-49eb-8290-d184265d7445","system_id":"levelo_inurba_marseille","lat":43.23961,"lon":5.36662,"is_reserved":false,"is_disabled":false,"rental_uris":{"android":"levelo://app?vid=91b0dab0-0518-49eb-8290-d184265d7445","ios":"levelo://app?vid=91b0dab0-0518-49eb-8290-d184265d7445"},"vehicle_type_id":"4","last_reported":1744913617,"current_range_meters":6800,"station_id":"ce4bhi12rcd13ifvqfp0","pricing_plan_id":"cebpf4jnsgd1na2vs0mg"},{"bike_id":"ca67e7ed-2248-4f0e-9f8c-998b2981cd09","system_id":"levelo_inurba_marseille","lat":43.27173,"lon":5.40993,"is_reserved":false,"is_disabled":false,"rental_uris":{"android":"levelo://app?vid=ca67e7ed-2248-4f0e-9f8c-998b2981cd09","ios":"levelo://app?vid=ca67e7ed-2248-4f0e-9f8c-998b2981cd09"},"vehicle_type_id":"4","last_reported":1744913617,"current_range_meters":6800,"station_id":"ce4bhl12rcd13ifvqgf0","pricing_plan_id":"cebpf4jnsgd1na2vs0mg"},{"bike_id":"d976c440-f3f7-4f1c-9489-ffda1a154c93","system_id":"levelo_inurba_marseille","lat":43.27939,"lon":5.410451,"is_reserved":false,"is_disabled":false,"rental_uris":{"android":"levelo://app?vid=d976c440-f3f7-4f1c-9489-ffda1a154c93","ios":"levelo://app?vid=d976c440-f3f7-4f1c-9489-ffda1a154c93"},"vehicle_type_id":"4","last_reported":1744913617,"current_range_meters":6800,"station_id":"","pricing_plan_id":"cebpf4jnsgd1na2vs0mg"},{"bike_id":"b77b53aa-d73c-46e7-ab6f-7e3e42c72a8c","system_id":"levelo_inurba_marseille","lat":43.31356,"lon":5.39684,"is_reserved":false,"is_disabled":false,"rental_uris":{"android":"levelo://app?vid=b77b53aa-d73c-46e7-ab6f-7e3e42c72a8c","ios":"levelo://app?vid=b77b53aa-d73c-46e7-ab6f-7e3e42c72a8c"},"vehicle_type_id":"4","last_reported":1744913617,"current_range_meters":7200,"station_id":"ce4bgvp2rcd13ifvqcu0","pricing_plan_id":"cebpf4jnsgd1na2vs0mg"},{"bike_id":"994695a9-98fd-4da6-9191-c96330e6cffb","system_id":"levelo_inurba_marseille","lat":43.21786,"lon":5.34652,"is_reserved":false,"is_disabled":false,"rental_uris":{"android":"levelo://app?vid=994695a9-98fd-4da6-9191-c96330e6cffb","ios":"levelo://app?vid=994695a9-98fd-4da6-9191-c96330e6cffb"},"vehicle_type_id":"4","last_reported":1744913617,"current_range_meters":7200,"station_id":"","pricing_plan_id":"cebpf4jnsgd1na2vs0mg"},{"bike_id":"409a79ab-dcd7-4c74-9be6-a03c63711a18","system_id":"levelo_inurba_marseille","lat":43.28146,"lon":5.42643,"is_reserved":false,"is_disabled":false,"rental_uris":{"android":"levelo://app?vid=409a79ab-dcd7-4c74-9be6-a03c63711a18","ios":"levelo://app?vid=409a79ab-dcd7-4c74-9be6-a03c63711a18"},"vehicle_type_id":"4","last_reported":1744913617,"current_range_meters":7200,"station_id":"ce4bhnh2rcd13ifvqgug","pricing_plan_id":"cebpf4jnsgd1na2vs0mg"},{"bike_id":"53003448-7a35-4228-a8c8-80f52f602da8","system_id":"levelo_inurba_marseille","lat":43.294159,"lon":5.386179,"is_reserved":false,"is_disabled":false,"rental_uris":{"android":"levelo://app?vid=53003448-7a35-4228-a8c8-80f52f602da8","ios":"levelo://app?vid=53003448-7a35-4228-a8c8-80f52f602da8"},"vehicle_type_id":"4","last_reported":1744913617,"current_range_meters":7200,"station_id":"ce4bh2h2rcd13ifvqdh0","pricing_plan_id":"cebpf4jnsgd1na2vs0mg"},{"bike_id":"06dfd0e8-6b40-40a2-ab89-3038c83551e5","system_id":"levelo_inurba_marseille","lat":43.29522,"lon":5.39411,"is_reserved":false,"is_disabled":false,"rental_uris":{"android":"levelo://app?vid=06dfd0e8-6b40-40a2-ab89-3038c83551e5","ios":"levelo://app?vid=06dfd0e8-6b40-40a2-ab89-3038c83551e5"},"vehicle_type_id":"4","last_reported":1744913617,"current_range_meters":7200,"station_id":"ce4bh292rcd13ifvqdf0","pricing_plan_id":"cebpf4jnsgd1na2vs0mg"},{"bike_id":"e937491b-7f34-49a1-b39a-a503dea146c9","system_id":"levelo_inurba_marseille","lat":43.29842,"lon":5.36265,"is_reserved":false,"is_disabled":false,"rental_uris":{"android":"levelo://app?vid=e937491b-7f34-49a1-b39a-a503dea146c9","ios":"levelo://app?vid=e937491b-7f34-49a1-b39a-a503dea146c9"},"vehicle_type_id":"4","last_reported":1744913617,"current_range_meters":8000,"station_id":"ce4bgpp2rcd13ifvqc3g","pricing_plan_id":"cebpf4jnsgd1na2vs0mg"},{"bike_id":"d359a322-dc36-49f1-9f5b-208743c3b6b7","system_id":"levelo_inurba_marseille","lat":43.28616,"lon":5.35104,"is_reserved":false,"is_disabled":false,"rental_uris":{"android":"levelo://app?vid=d359a322-dc36-49f1-9f5b-208743c3b6b7","ios":"levelo://app?vid=d359a322-dc36-49f1-9f5b-208743c3b6b7"},"vehicle_type_id":"4","last_reported":1744913617,"current_range_meters":8000,"station_id":"ce4bhch2rcd13ifvqeug","pricing_plan_id":"cebpf4jnsgd1na2vs0mg"},{"bike_id":"de0a9db6-850e-46eb-a001-c3e117ffd11c","system_id":"levelo_inurba_marseille","lat":43.28413,"lon":5.34992,"is_reserved":false,"is_disabled":false,"rental_uris":{"android":"levelo://app?vid=de0a9db6-850e-46eb-a001-c3e117ffd11c","ios":"levelo://app?vid=de0a9db6-850e-46eb-a001-c3e117ffd11c"},"vehicle_type_id":"4","last_reported":1744913617,"current_range_meters":8000,"station_id":"ce4bhbh2rcd13ifvqepg","pricing_plan_id":"cebpf4jnsgd1na2vs0mg"},{"bike_id":"b104b93d-3486-4201-976f-3dc4f542d5a3","system_id":"levelo_inurba_marseille","lat":43.301208,"lon":5.398706,"is_reserved":false,"is_disabled":false,"rental_uris":{"android":"levelo://app?vid=b104b93d-3486-4201-976f-3dc4f542d5a3","ios":"levelo://app?vid=b104b93d-3486-4201-976f-3dc4f542d5a3"},"vehicle_type_id":"4","last_reported":1744913617,"current_range_meters":8000,"station_id":"ce4bh0h2rcd13ifvqd40","pricing_plan_id":"cebpf4jnsgd1na2vs0mg"},{"bike_id":"8ccdb2db-4207-413d-b8a6-560e131019b4","system_id":"levelo_inurba_marseille","lat":43.27832,"lon":5.39187,"is_reserved":false,"is_disabled":false,"rental_uris":{"android":"levelo://app?vid=8ccdb2db-4207-413d-b8a6-560e131019b4","ios":"levelo://app?vid=8ccdb2db-4207-413d-b8a6-560e131019b4"},"vehicle_type_id":"4","last_reported":1744913617,"current_range_meters":8000,"station_id":"ce4bhjp2rcd13ifvqga0","pricing_plan_id":"cebpf4jnsgd1na2vs0mg"},{"bike_id":"08545b9c-147f-4096-92e8-2af1c560447d","system_id":"levelo_inurba_marseille","lat":43.27494,"lon":5.42453,"is_reserved":false,"is_disabled":false,"rental_uris":{"android":"levelo://app?vid=08545b9c-147f-4096-92e8-2af1c560447d","ios":"levelo://app?vid=08545b9c-147f-4096-92e8-2af1c560447d"},"vehicle_type_id":"4","last_reported":1744913617,"current_range_meters":8000,"station_id":"ce4bhn92rcd13ifvqgrg","pricing_plan_id":"cebpf4jnsgd1na2vs0mg"},{"bike_id":"47287eac-2a83-4be7-83a5-03e4c801bfe5","system_id":"levelo_inurba_marseille","lat":43.28615,"lon":5.35109,"is_reserved":false,"is_disabled":false,"rental_uris":{"android":"levelo://app?vid=47287eac-2a83-4be7-83a5-03e4c801bfe5","ios":"levelo://app?vid=47287eac-2a83-4be7-83a5-03e4c801bfe5"},"vehicle_type_id":"4","last_reported":1744913617,"current_range_meters":8400,"station_id":"ce4bhch2rcd13ifvqeug","pricing_plan_id":"cebpf4jnsgd1na2vs0mg"},{"bike_id":"1344b4f9-8027-4a71-b2a2-c36cdaa38758","system_id":"levelo_inurba_marseille","lat":43.27376,"lon":5.36261,"is_reserved":false,"is_disabled":false,"rental_uris":{"android":"levelo://app?vid=1344b4f9-8027-4a71-b2a2-c36cdaa38758","ios":"levelo://app?vid=1344b4f9-8027-4a71-b2a2-c36cdaa38758"},"vehicle_type_id":"4","last_reported":1744913617,"current_range_meters":8400,"station_id":"ce4bhbh2rcd13ifvqeo0","pricing_plan_id":"cebpf4jnsgd1na2vs0mg"},{"bike_id":"2c85d733-8bec-4ab8-b842-10773d937359","system_id":"levelo_inurba_marseille","lat":43.28028,"lon":5.41672,"is_reserved":false,"is_disabled":false,"rental_uris":{"android":"levelo://app?vid=2c85d733-8bec-4ab8-b842-10773d937359","ios":"levelo://app?vid=2c85d733-8bec-4ab8-b842-10773d937359"},"vehicle_type_id":"4","last_reported":1744913617,"current_range_meters":8400,"station_id":"ce4bho12rcd13ifvqh1g","pricing_plan_id":"cebpf4jnsgd1na2vs0mg"},{"bike_id":"ff1f076b-df2d-45a1-bbe8-f93909d4bb45","system_id":"levelo_inurba_marseille","lat":43.2903,"lon":5.38659,"is_reserved":false,"is_disabled":false,"rental_uris":{"android":"levelo://app?vid=ff1f076b-df2d-45a1-bbe8-f93909d4bb45","ios":"levelo://app?vid=ff1f076b-df2d-45a1-bbe8-f93909d4bb45"},"vehicle_type_id":"4","last_reported":1744913617,"current_range_meters":8400,"station_id":"ce4bh4p2rcd13ifvqe0g","pricing_plan_id":"cebpf4jnsgd1na2vs0mg"},{"bike_id":"72823705-7f07-4adb-897d-e1709234e554","system_id":"levelo_inurba_marseille","lat":43.23178,"lon":5.39982,"is_reserved":false,"is_disabled":false,"rental_uris":{"android":"levelo://app?vid=72823705-7f07-4adb-897d-e1709234e554","ios":"levelo://app?vid=72823705-7f07-4adb-897d-e1709234e554"},"vehicle_type_id":"4","last_reported":1744913617,"current_range_meters":8400,"station_id":"ce4bhn12rcd13ifvqgqg","pricing_plan_id":"cebpf4jnsgd1na2vs0mg"},{"bike_id":"181c019a-931f-4e18-bb92-1ea6b6b71d81","system_id":"levelo_inurba_marseille","lat":43.28677,"lon":5.3867,"is_reserved":false,"is_disabled":false,"rental_uris":{"android":"levelo://app?vid=181c019a-931f-4e18-bb92-1ea6b6b71d81","ios":"levelo://app?vid=181c019a-931f-4e18-bb92-1ea6b6b71d81"},"vehicle_type_id":"4","last_reported":1744913617,"current_range_meters":8400,"station_id":"ce4bh492rcd13ifvqdug","pricing_plan_id":"cebpf4jnsgd1na2vs0mg"},{"bike_id":"fc2f8c20-3bd6-4bd6-bd7c-d1d1eb2e8258","system_id":"levelo_inurba_marseille","lat":43.3046,"lon":5.37914,"is_reserved":false,"is_disabled":false,"rental_uris":{"android":"levelo://app?vid=fc2f8c20-3bd6-4bd6-bd7c-d1d1eb2e8258","ios":"levelo://app?vid=fc2f8c20-3bd6-4bd6-bd7c-d1d1eb2e8258"},"vehicle_type_id":"4","last_reported":1744913617,"current_range_meters":8400,"station_id":"ce4bgup2rcd13ifvqcn0","pricing_plan_id":"cebpf4jnsgd1na2vs0mg"},{"bike_id":"1baf8c67-1643-4af6-baa5-2241c9fed90c","system_id":"levelo_inurba_marseille","lat":43.28708,"lon":5.3999,"is_reserved":false,"is_disabled":false,"rental_uris":{"android":"levelo://app?vid=1baf8c67-1643-4af6-baa5-2241c9fed90c","ios":"levelo://app?vid=1baf8c67-1643-4af6-baa5-2241c9fed90c"},"vehicle_type_id":"4","last_reported":1744913617,"current_range_meters":8400,"station_id":"ce4bho92rcd13ifvqh3g","pricing_plan_id":"cebpf4jnsgd1na2vs0mg"},{"bike_id":"1bdba7a7-a82e-4252-906c-80db6beb180e","system_id":"levelo_inurba_marseille","lat":43.33799,"lon":5.37467,"is_reserved":false,"is_disabled":false,"rental_uris":{"android":"levelo://app?vid=1bdba7a7-a82e-4252-906c-80db6beb180e","ios":"levelo://app?vid=1bdba7a7-a82e-4252-906c-80db6beb180e"},"vehicle_type_id":"4","last_reported":1744913617,"current_range_meters":8800,"station_id":"","pricing_plan_id":"cebpf4jnsgd1na2vs0mg"},{"bike_id":"ce90eeb4-f81d-4b80-9b35-94fd4698915f","system_id":"levelo_inurba_marseille","lat":43.28428,"lon":5.35005,"is_reserved":false,"is_disabled":false,"rental_uris":{"android":"levelo://app?vid=ce90eeb4-f81d-4b80-9b35-94fd4698915f","ios":"levelo://app?vid=ce90eeb4-f81d-4b80-9b35-94fd4698915f"},"vehicle_type_id":"4","last_reported":1744913617,"current_range_meters":8800,"station_id":"ce4bhbh2rcd13ifvqepg","pricing_plan_id":"cebpf4jnsgd1na2vs0mg"},{"bike_id":"6a52c25e-e42a-4237-a980-f6f82f2e061e","system_id":"levelo_inurba_marseille","lat":43.21211,"lon":5.35071,"is_reserved":false,"is_disabled":false,"rental_uris":{"android":"levelo://app?vid=6a52c25e-e42a-4237-a980-f6f82f2e061e","ios":"levelo://app?vid=6a52c25e-e42a-4237-a980-f6f82f2e061e"},"vehicle_type_id":"4","last_reported":1744913617,"current_range_meters":9200,"station_id":"st_cvj6sg6p6f1abm77japg","pricing_plan_id":"cebpf4jnsgd1na2vs0mg"},{"bike_id":"5a4af8af-f6ab-4196-9a79-20a09f0315b9","system_id":"levelo_inurba_marseille","lat":43.294128,"lon":5.386201,"is_reserved":false,"is_disabled":false,"rental_uris":{"android":"levelo://app?vid=5a4af8af-f6ab-4196-9a79-20a09f0315b9","ios":"levelo://app?vid=5a4af8af-f6ab-4196-9a79-20a09f0315b9"},"vehicle_type_id":"4","last_reported":1744913617,"current_range_meters":9200,"station_id":"ce4bh2h2rcd13ifvqdh0","pricing_plan_id":"cebpf4jnsgd1na2vs0mg"},{"bike_id":"a5cd902a-048d-4a22-bc63-6cd42cbdcef4","system_id":"levelo_inurba_marseille","lat":43.30267,"lon":5.40056,"is_reserved":false,"is_disabled":false,"rental_uris":{"android":"levelo://app?vid=a5cd902a-048d-4a22-bc63-6cd42cbdcef4","ios":"levelo://app?vid=a5cd902a-048d-4a22-bc63-6cd42cbdcef4"},"vehicle_type_id":"4","last_reported":1744913617,"current_range_meters":14400,"station_id":"ce4bgvh2rcd13ifvqcs0","pricing_plan_id":"cebpf4jnsgd1na2vs0mg"},{"bike_id":"ad5ab741-8ae1-49a9-8367-6f3d31d8ee55","system_id":"levelo_inurba_marseille","lat":43.31171,"lon":5.38726,"is_reserved":false,"is_disabled":false,"rental_uris":{"android":"levelo://app?vid=ad5ab741-8ae1-49a9-8367-6f3d31d8ee55","ios":"levelo://app?vid=ad5ab741-8ae1-49a9-8367-6f3d31d8ee55"},"vehicle_type_id":"4","last_reported":1744913617,"current_range_meters":8800,"station_id":"ce4bgv12rcd13ifvqcp0","pricing_plan_id":"cebpf4jnsgd1na2vs0mg"},{"bike_id":"2df22311-bac1-4b8f-abff-11893969de63","system_id":"levelo_inurba_marseille","lat":43.31081,"lon":5.37835,"is_reserved":false,"is_disabled":false,"rental_uris":{"android":"levelo://app?vid=2df22311-bac1-4b8f-abff-11893969de63","ios":"levelo://app?vid=2df22311-bac1-4b8f-abff-11893969de63"},"vehicle_type_id":"4","last_reported":1744913617,"current_range_meters":9200,"station_id":"","pricing_plan_id":"cebpf4jnsgd1na2vs0mg"},{"bike_id":"09e29c8d-0531-4ea0-befd-5427ca701da3","system_id":"levelo_inurba_marseille","lat":43.306,"lon":5.37243,"is_reserved":false,"is_disabled":true,"rental_uris":{"android":"levelo://app?vid=09e29c8d-0531-4ea0-befd-5427ca701da3","ios":"levelo://app?vid=09e29c8d-0531-4ea0-befd-5427ca701da3"},"vehicle_type_id":"4","last_reported":1744913617,"current_range_meters":9200,"station_id":"ce4bgqh2rcd13ifvqc4g","pricing_plan_id":"cebpf4jnsgd1na2vs0mg"},{"bike_id":"68af2840-a57c-4bdc-9bfa-05f4569d1f9f","system_id":"levelo_inurba_marseille","lat":43.29315,"lon":5.37175,"is_reserved":false,"is_disabled":false,"rental_uris":{"android":"levelo://app?vid=68af2840-a57c-4bdc-9bfa-05f4569d1f9f","ios":"levelo://app?vid=68af2840-a57c-4bdc-9bfa-05f4569d1f9f"},"vehicle_type_id":"4","last_reported":1744913617,"current_range_meters":9200,"station_id":"ce4bgh92rcd13ifvqb40","pricing_plan_id":"cebpf4jnsgd1na2vs0mg"},{"bike_id":"8ee49884-4076-402b-bdc6-b1b75f8b478d","system_id":"levelo_inurba_marseille","lat":43.279076,"lon":5.395915,"is_reserved":false,"is_disabled":false,"rental_uris":{"android":"levelo://app?vid=8ee49884-4076-402b-bdc6-b1b75f8b478d","ios":"levelo://app?vid=8ee49884-4076-402b-bdc6-b1b75f8b478d"},"vehicle_type_id":"4","last_reported":1744913617,"current_range_meters":9200,"station_id":"ce4bhf92rcd13ifvqf40","pricing_plan_id":"cebpf4jnsgd1na2vs0mg"},{"bike_id":"0ca59641-7bd3-47a8-b6e9-ff12f1af00f3","system_id":"levelo_inurba_marseille","lat":43.30943,"lon":5.39036,"is_reserved":false,"is_disabled":false,"rental_uris":{"android":"levelo://app?vid=0ca59641-7bd3-47a8-b6e9-ff12f1af00f3","ios":"levelo://app?vid=0ca59641-7bd3-47a8-b6e9-ff12f1af00f3"},"vehicle_type_id":"4","last_reported":1744913617,"current_range_meters":9200,"station_id":"ce4bgup2rcd13ifvqco0","pricing_plan_id":"cebpf4jnsgd1na2vs0mg"},{"bike_id":"8ee7ae49-7b6d-4b48-9fb1-547fbea007bb","system_id":"levelo_inurba_marseille","lat":43.27927,"lon":5.39594,"is_reserved":false,"is_disabled":false,"rental_uris":{"android":"levelo://app?vid=8ee7ae49-7b6d-4b48-9fb1-547fbea007bb","ios":"levelo://app?vid=8ee7ae49-7b6d-4b48-9fb1-547fbea007bb"},"vehicle_type_id":"4","last_reported":1744913617,"current_range_meters":9200,"station_id":"ce4bhf92rcd13ifvqf40","pricing_plan_id":"cebpf4jnsgd1na2vs0mg"},{"bike_id":"6a42fdd6-075d-4748-811a-29f5845c8920","system_id":"levelo_inurba_marseille","lat":43.21752,"lon":5.34603,"is_reserved":false,"is_disabled":false,"rental_uris":{"android":"levelo://app?vid=6a42fdd6-075d-4748-811a-29f5845c8920","ios":"levelo://app?vid=6a42fdd6-075d-4748-811a-29f5845c8920"},"vehicle_type_id":"4","last_reported":1744913617,"current_range_meters":9600,"station_id":"st_cvj6r9ubvosntc0bgbag","pricing_plan_id":"cebpf4jnsgd1na2vs0mg"},{"bike_id":"691f8f51-ab66-4b3b-950f-477019a9a901","system_id":"levelo_inurba_marseille","lat":43.289896,"lon":5.366372,"is_reserved":false,"is_disabled":false,"rental_uris":{"android":"levelo://app?vid=691f8f51-ab66-4b3b-950f-477019a9a901","ios":"levelo://app?vid=691f8f51-ab66-4b3b-950f-477019a9a901"},"vehicle_type_id":"4","last_reported":1744913617,"current_range_meters":9600,"station_id":"ce4bhap2rcd13ifvqek0","pricing_plan_id":"cebpf4jnsgd1na2vs0mg"},{"bike_id":"e13fe702-0495-44fb-95ce-385c3d218ea4","system_id":"levelo_inurba_marseille","lat":43.268585,"lon":5.388687,"is_reserved":false,"is_disabled":false,"rental_uris":{"android":"levelo://app?vid=e13fe702-0495-44fb-95ce-385c3d218ea4","ios":"levelo://app?vid=e13fe702-0495-44fb-95ce-385c3d218ea4"},"vehicle_type_id":"4","last_reported":1744913617,"current_range_meters":9600,"station_id":"ce4bhhh2rcd13ifvqfl0","pricing_plan_id":"cebpf4jnsgd1na2vs0mg"},{"bike_id":"9af7eca4-0f29-45ae-8741-3af4cfbb69ef","system_id":"levelo_inurba_marseille","lat":43.25833,"lon":5.39434,"is_reserved":false,"is_disabled":false,"rental_uris":{"android":"levelo://app?vid=9af7eca4-0f29-45ae-8741-3af4cfbb69ef","ios":"levelo://app?vid=9af7eca4-0f29-45ae-8741-3af4cfbb69ef"},"vehicle_type_id":"4","last_reported":1744913617,"current_range_meters":9600,"station_id":"ce4bhip2rcd13ifvqft0","pricing_plan_id":"cebpf4jnsgd1na2vs0mg"},{"bike_id":"28163f4f-c4de-4b1c-9a52-664b8f12f97a","system_id":"levelo_inurba_marseille","lat":43.29307,"lon":5.37179,"is_reserved":false,"is_disabled":false,"rental_uris":{"android":"levelo://app?vid=28163f4f-c4de-4b1c-9a52-664b8f12f97a","ios":"levelo://app?vid=28163f4f-c4de-4b1c-9a52-664b8f12f97a"},"vehicle_type_id":"4","last_reported":1744913617,"current_range_meters":9600,"station_id":"ce4bgh92rcd13ifvqb40","pricing_plan_id":"cebpf4jnsgd1na2vs0mg"},{"bike_id":"5e597b4d-5ca7-4755-ba50-0a9ee3e37a49","system_id":"levelo_inurba_marseille","lat":43.29419,"lon":5.38635,"is_reserved":false,"is_disabled":false,"rental_uris":{"android":"levelo://app?vid=5e597b4d-5ca7-4755-ba50-0a9ee3e37a49","ios":"levelo://app?vid=5e597b4d-5ca7-4755-ba50-0a9ee3e37a49"},"vehicle_type_id":"4","last_reported":1744913617,"current_range_meters":9600,"station_id":"ce4bh2h2rcd13ifvqdh0","pricing_plan_id":"cebpf4jnsgd1na2vs0mg"},{"bike_id":"ad0ec46c-cdd0-4d3b-8c79-b3898cfe8883","system_id":"levelo_inurba_marseille","lat":43.26212,"lon":5.37437,"is_reserved":false,"is_disabled":false,"rental_uris":{"android":"levelo://app?vid=ad0ec46c-cdd0-4d3b-8c79-b3898cfe8883","ios":"levelo://app?vid=ad0ec46c-cdd0-4d3b-8c79-b3898cfe8883"},"vehicle_type_id":"4","last_reported":1744913617,"current_range_meters":9600,"station_id":"ce4bhgp2rcd13ifvqfc0","pricing_plan_id":"cebpf4jnsgd1na2vs0mg"},{"bike_id":"0a0b0a73-2b27-49fb-801a-3111dcebfbac","system_id":"levelo_inurba_marseille","lat":43.27514,"lon":5.42475,"is_reserved":false,"is_disabled":false,"rental_uris":{"android":"levelo://app?vid=0a0b0a73-2b27-49fb-801a-3111dcebfbac","ios":"levelo://app?vid=0a0b0a73-2b27-49fb-801a-3111dcebfbac"},"vehicle_type_id":"4","last_reported":1744913617,"current_range_meters":9600,"station_id":"ce4bhn92rcd13ifvqgrg","pricing_plan_id":"cebpf4jnsgd1na2vs0mg"},{"bike_id":"fb533f7d-f32d-4b92-9ec4-5ddd9b15e1b8","system_id":"levelo_inurba_marseille","lat":43.26209,"lon":5.374404,"is_reserved":false,"is_disabled":false,"rental_uris":{"android":"levelo://app?vid=fb533f7d-f32d-4b92-9ec4-5ddd9b15e1b8","ios":"levelo://app?vid=fb533f7d-f32d-4b92-9ec4-5ddd9b15e1b8"},"vehicle_type_id":"4","last_reported":1744913617,"current_range_meters":9600,"station_id":"ce4bgv92rcd13ifvqcr0","pricing_plan_id":"cebpf4jnsgd1na2vs0mg"},{"bike_id":"6652b3f4-fcf5-43bf-aeb8-5cca365447d3","system_id":"levelo_inurba_marseille","lat":43.23965,"lon":5.36642,"is_reserved":false,"is_disabled":false,"rental_uris":{"android":"levelo://app?vid=6652b3f4-fcf5-43bf-aeb8-5cca365447d3","ios":"levelo://app?vid=6652b3f4-fcf5-43bf-aeb8-5cca365447d3"},"vehicle_type_id":"4","last_reported":1744913617,"current_range_meters":9600,"station_id":"ce4bhi12rcd13ifvqfp0","pricing_plan_id":"cebpf4jnsgd1na2vs0mg"},{"bike_id":"09121f7e-4de3-487b-8796-71d867ca3962","system_id":"levelo_inurba_marseille","lat":43.24651,"lon":5.38898,"is_reserved":false,"is_disabled":false,"rental_uris":{"android":"levelo://app?vid=09121f7e-4de3-487b-8796-71d867ca3962","ios":"levelo://app?vid=09121f7e-4de3-487b-8796-71d867ca3962"},"vehicle_type_id":"4","last_reported":1744913617,"current_range_meters":10000,"station_id":"ce4bhg12rcd13ifvqf60","pricing_plan_id":"cebpf4jnsgd1na2vs0mg"},{"bike_id":"e3061286-add2-4bc6-a803-66a4d7d63e42","system_id":"levelo_inurba_marseille","lat":43.28612,"lon":5.35102,"is_reserved":false,"is_disabled":false,"rental_uris":{"android":"levelo://app?vid=e3061286-add2-4bc6-a803-66a4d7d63e42","ios":"levelo://app?vid=e3061286-add2-4bc6-a803-66a4d7d63e42"},"vehicle_type_id":"4","last_reported":1744913617,"current_range_meters":10000,"station_id":"ce4bhch2rcd13ifvqeug","pricing_plan_id":"cebpf4jnsgd1na2vs0mg"},{"bike_id":"7b96111b-7974-4fe6-9610-4556870a2e07","system_id":"levelo_inurba_marseille","lat":43.24393,"lon":5.37058,"is_reserved":false,"is_disabled":false,"rental_uris":{"android":"levelo://app?vid=7b96111b-7974-4fe6-9610-4556870a2e07","ios":"levelo://app?vid=7b96111b-7974-4fe6-9610-4556870a2e07"},"vehicle_type_id":"4","last_reported":1744913617,"current_range_meters":10000,"station_id":"ce4bhhh2rcd13ifvqfk0","pricing_plan_id":"cebpf4jnsgd1na2vs0mg"},{"bike_id":"15f162f4-889b-49df-a2b0-d9c85f51b70a","system_id":"levelo_inurba_marseille","lat":43.29523,"lon":5.39059,"is_reserved":false,"is_disabled":false,"rental_uris":{"android":"levelo://app?vid=15f162f4-889b-49df-a2b0-d9c85f51b70a","ios":"levelo://app?vid=15f162f4-889b-49df-a2b0-d9c85f51b70a"},"vehicle_type_id":"4","last_reported":1744913617,"current_range_meters":10000,"station_id":"ce4bh3p2rcd13ifvqdp0","pricing_plan_id":"cebpf4jnsgd1na2vs0mg"},{"bike_id":"98804a59-d1dc-4993-b5cb-8dd604e44caf","system_id":"levelo_inurba_marseille","lat":43.29975,"lon":5.38516,"is_reserved":false,"is_disabled":false,"rental_uris":{"android":"levelo://app?vid=98804a59-d1dc-4993-b5cb-8dd604e44caf","ios":"levelo://app?vid=98804a59-d1dc-4993-b5cb-8dd604e44caf"},"vehicle_type_id":"4","last_reported":1744913617,"current_range_meters":10800,"station_id":"ce4bgj92rcd13ifvqbd0","pricing_plan_id":"cebpf4jnsgd1na2vs0mg"},{"bike_id":"aeb94c2c-953a-42a5-9d2d-6e4c6680613a","system_id":"levelo_inurba_marseille","lat":43.28976,"lon":5.37828,"is_reserved":false,"is_disabled":false,"rental_uris":{"android":"levelo://app?vid=aeb94c2c-953a-42a5-9d2d-6e4c6680613a","ios":"levelo://app?vid=aeb94c2c-953a-42a5-9d2d-6e4c6680613a"},"vehicle_type_id":"4","last_reported":1744913617,"current_range_meters":10800,"station_id":"ce4bh9p2rcd13ifvqed0","pricing_plan_id":"cebpf4jnsgd1na2vs0mg"},{"bike_id":"889988eb-016b-4bb9-aed5-d67f82e18ca2","system_id":"levelo_inurba_marseille","lat":43.2942,"lon":5.38623,"is_reserved":false,"is_disabled":false,"rental_uris":{"android":"levelo://app?vid=889988eb-016b-4bb9-aed5-d67f82e18ca2","ios":"levelo://app?vid=889988eb-016b-4bb9-aed5-d67f82e18ca2"},"vehicle_type_id":"4","last_reported":1744913617,"current_range_meters":10800,"station_id":"ce4bh2h2rcd13ifvqdh0","pricing_plan_id":"cebpf4jnsgd1na2vs0mg"},{"bike_id":"625b40b7-f9d1-4417-8a0d-f61eb4836c3f","system_id":"levelo_inurba_marseille","lat":43.29568,"lon":5.37533,"is_reserved":false,"is_disabled":false,"rental_uris":{"android":"levelo://app?vid=625b40b7-f9d1-4417-8a0d-f61eb4836c3f","ios":"levelo://app?vid=625b40b7-f9d1-4417-8a0d-f61eb4836c3f"},"vehicle_type_id":"4","last_reported":1744913617,"current_range_meters":10800,"station_id":"ce4bgh92rcd13ifvqb50","pricing_plan_id":"cebpf4jnsgd1na2vs0mg"},{"bike_id":"bb5ebe3a-e46b-4883-a89c-a7fba27be6ad","system_id":"levelo_inurba_marseille","lat":43.30679,"lon":5.39271,"is_reserved":false,"is_disabled":false,"rental_uris":{"android":"levelo://app?vid=bb5ebe3a-e46b-4883-a89c-a7fba27be6ad","ios":"levelo://app?vid=bb5ebe3a-e46b-4883-a89c-a7fba27be6ad"},"vehicle_type_id":"4","last_reported":1744913617,"current_range_meters":10800,"station_id":"ce4bh0p2rcd13ifvqd80","pricing_plan_id":"cebpf4jnsgd1na2vs0mg"},{"bike_id":"6182d45b-191a-4249-88bd-5fad61239bca","system_id":"levelo_inurba_marseille","lat":43.21751,"lon":5.34614,"is_reserved":false,"is_disabled":false,"rental_uris":{"android":"levelo://app?vid=6182d45b-191a-4249-88bd-5fad61239bca","ios":"levelo://app?vid=6182d45b-191a-4249-88bd-5fad61239bca"},"vehicle_type_id":"4","last_reported":1744913617,"current_range_meters":10800,"station_id":"st_cvj6r9ubvosntc0bgbag","pricing_plan_id":"cebpf4jnsgd1na2vs0mg"},{"bike_id":"122ca227-2a95-4318-9241-b199edc76663","system_id":"levelo_inurba_marseille","lat":43.29034,"lon":5.39965,"is_reserved":false,"is_disabled":false,"rental_uris":{"android":"levelo://app?vid=122ca227-2a95-4318-9241-b199edc76663","ios":"levelo://app?vid=122ca227-2a95-4318-9241-b199edc76663"},"vehicle_type_id":"4","last_reported":1744913617,"current_range_meters":10800,"station_id":"ce4bh392rcd13ifvqdm0","pricing_plan_id":"cebpf4jnsgd1na2vs0mg"},{"bike_id":"cd821d9a-2cb7-4826-be16-c85da0e29200","system_id":"levelo_inurba_marseille","lat":43.27167,"lon":5.40995,"is_reserved":false,"is_disabled":false,"rental_uris":{"android":"levelo://app?vid=cd821d9a-2cb7-4826-be16-c85da0e29200","ios":"levelo://app?vid=cd821d9a-2cb7-4826-be16-c85da0e29200"},"vehicle_type_id":"4","last_reported":1744913617,"current_range_meters":10800,"station_id":"ce4bhl12rcd13ifvqgf0","pricing_plan_id":"cebpf4jnsgd1na2vs0mg"},{"bike_id":"e35e6fae-3839-4213-8afe-1fd8b2f59700","system_id":"levelo_inurba_marseille","lat":43.29524,"lon":5.38516,"is_reserved":false,"is_disabled":false,"rental_uris":{"android":"levelo://app?vid=e35e6fae-3839-4213-8afe-1fd8b2f59700","ios":"levelo://app?vid=e35e6fae-3839-4213-8afe-1fd8b2f59700"},"vehicle_type_id":"4","last_reported":1744913617,"current_range_meters":11200,"station_id":"ce4bgih2rcd13ifvqba0","pricing_plan_id":"cebpf4jnsgd1na2vs0mg"},{"bike_id":"ff935f1c-246d-4e07-a399-40ad7e059de5","system_id":"levelo_inurba_marseille","lat":43.25529,"lon":5.37657,"is_reserved":false,"is_disabled":true,"rental_uris":{"android":"levelo://app?vid=ff935f1c-246d-4e07-a399-40ad7e059de5","ios":"levelo://app?vid=ff935f1c-246d-4e07-a399-40ad7e059de5"},"vehicle_type_id":"4","last_reported":1744913617,"current_range_meters":11200,"station_id":"ce4bhh12rcd13ifvqff0","pricing_plan_id":"cebpf4jnsgd1na2vs0mg"},{"bike_id":"0b5e9abd-ed34-4d44-9887-1793c13ace65","system_id":"levelo_inurba_marseille","lat":43.31168,"lon":5.38725,"is_reserved":false,"is_disabled":false,"rental_uris":{"android":"levelo://app?vid=0b5e9abd-ed34-4d44-9887-1793c13ace65","ios":"levelo://app?vid=0b5e9abd-ed34-4d44-9887-1793c13ace65"},"vehicle_type_id":"4","last_reported":1744913617,"current_range_meters":11200,"station_id":"ce4bgv12rcd13ifvqcp0","pricing_plan_id":"cebpf4jnsgd1na2vs0mg"},{"bike_id":"7fe53eb4-c0fd-499f-b587-582bcda6776e","system_id":"levelo_inurba_marseille","lat":43.2904,"lon":5.39947,"is_reserved":false,"is_disabled":false,"rental_uris":{"android":"levelo://app?vid=7fe53eb4-c0fd-499f-b587-582bcda6776e","ios":"levelo://app?vid=7fe53eb4-c0fd-499f-b587-582bcda6776e"},"vehicle_type_id":"4","last_reported":1744913617,"current_range_meters":11200,"station_id":"ce4bh392rcd13ifvqdm0","pricing_plan_id":"cebpf4jnsgd1na2vs0mg"},{"bike_id":"882e7edc-22c4-4eb1-a0c1-f753fed0094f","system_id":"levelo_inurba_marseille","lat":43.29531,"lon":5.3751,"is_reserved":false,"is_disabled":false,"rental_uris":{"android":"levelo://app?vid=882e7edc-22c4-4eb1-a0c1-f753fed0094f","ios":"levelo://app?vid=882e7edc-22c4-4eb1-a0c1-f753fed0094f"},"vehicle_type_id":"4","last_reported":1744913617,"current_range_meters":11200,"station_id":"ce4bgkp2rcd13ifvqbmg","pricing_plan_id":"cebpf4jnsgd1na2vs0mg"},{"bike_id":"e52ea668-064f-4357-8adb-5b82bbc496a1","system_id":"levelo_inurba_marseille","lat":43.29973,"lon":5.38485,"is_reserved":false,"is_disabled":false,"rental_uris":{"android":"levelo://app?vid=e52ea668-064f-4357-8adb-5b82bbc496a1","ios":"levelo://app?vid=e52ea668-064f-4357-8adb-5b82bbc496a1"},"vehicle_type_id":"4","last_reported":1744913617,"current_range_meters":11600,"station_id":"ce4bgj92rcd13ifvqbd0","pricing_plan_id":"cebpf4jnsgd1na2vs0mg"},{"bike_id":"ab671081-8e11-4e3c-b820-56aba6ec4fec","system_id":"levelo_inurba_marseille","lat":43.29261,"lon":5.3686,"is_reserved":false,"is_disabled":false,"rental_uris":{"android":"levelo://app?vid=ab671081-8e11-4e3c-b820-56aba6ec4fec","ios":"levelo://app?vid=ab671081-8e11-4e3c-b820-56aba6ec4fec"},"vehicle_type_id":"4","last_reported":1744913617,"current_range_meters":11600,"station_id":"ce4bhbp2rcd13ifvqesg","pricing_plan_id":"cebpf4jnsgd1na2vs0mg"},{"bike_id":"2e3d1586-39b9-4f2e-a808-4f2fbc6116b5","system_id":"levelo_inurba_marseille","lat":43.28412,"lon":5.37479,"is_reserved":false,"is_disabled":false,"rental_uris":{"android":"levelo://app?vid=2e3d1586-39b9-4f2e-a808-4f2fbc6116b5","ios":"levelo://app?vid=2e3d1586-39b9-4f2e-a808-4f2fbc6116b5"},"vehicle_type_id":"4","last_reported":1744913617,"current_range_meters":11600,"station_id":"ce4bh412rcd13ifvqds0","pricing_plan_id":"cebpf4jnsgd1na2vs0mg"},{"bike_id":"c5ad34a5-de23-413d-9e8b-ec61ed7009c1","system_id":"levelo_inurba_marseille","lat":43.28618,"lon":5.35106,"is_reserved":false,"is_disabled":false,"rental_uris":{"android":"levelo://app?vid=c5ad34a5-de23-413d-9e8b-ec61ed7009c1","ios":"levelo://app?vid=c5ad34a5-de23-413d-9e8b-ec61ed7009c1"},"vehicle_type_id":"4","last_reported":1744913617,"current_range_meters":11600,"station_id":"ce4bhch2rcd13ifvqeug","pricing_plan_id":"cebpf4jnsgd1na2vs0mg"},{"bike_id":"310dc8f5-43be-48f3-8127-054bdac177f2","system_id":"levelo_inurba_marseille","lat":43.25828,"lon":5.39425,"is_reserved":false,"is_disabled":true,"rental_uris":{"android":"levelo://app?vid=310dc8f5-43be-48f3-8127-054bdac177f2","ios":"levelo://app?vid=310dc8f5-43be-48f3-8127-054bdac177f2"},"vehicle_type_id":"4","last_reported":1744913617,"current_range_meters":11600,"station_id":"ce4bhip2rcd13ifvqft0","pricing_plan_id":"cebpf4jnsgd1na2vs0mg"},{"bike_id":"cbf29fce-b821-4cbd-8ecd-022dab6930e8","system_id":"levelo_inurba_marseille","lat":43.28408,"lon":5.37553,"is_reserved":false,"is_disabled":false,"rental_uris":{"android":"levelo://app?vid=cbf29fce-b821-4cbd-8ecd-022dab6930e8","ios":"levelo://app?vid=cbf29fce-b821-4cbd-8ecd-022dab6930e8"},"vehicle_type_id":"4","last_reported":1744913617,"current_range_meters":11600,"station_id":"ce4bh412rcd13ifvqds0","pricing_plan_id":"cebpf4jnsgd1na2vs0mg"},{"bike_id":"ec8c9ac7-1e95-4171-97f3-226ce1e3c951","system_id":"levelo_inurba_marseille","lat":43.32125,"lon":5.36785,"is_reserved":false,"is_disabled":false,"rental_uris":{"android":"levelo://app?vid=ec8c9ac7-1e95-4171-97f3-226ce1e3c951","ios":"levelo://app?vid=ec8c9ac7-1e95-4171-97f3-226ce1e3c951"},"vehicle_type_id":"4","last_reported":1744913617,"current_range_meters":12400,"station_id":"ce4bhrh2rcd13ifvqhug","pricing_plan_id":"cebpf4jnsgd1na2vs0mg"},{"bike_id":"15377006-3615-4dbe-a453-226e5c1fd0bb","system_id":"levelo_inurba_marseille","lat":43.29964,"lon":5.38493,"is_reserved":false,"is_disabled":true,"rental_uris":{"android":"levelo://app?vid=15377006-3615-4dbe-a453-226e5c1fd0bb","ios":"levelo://app?vid=15377006-3615-4dbe-a453-226e5c1fd0bb"},"vehicle_type_id":"4","last_reported":1744913617,"current_range_meters":12400,"station_id":"ce4bgj92rcd13ifvqbd0","pricing_plan_id":"cebpf4jnsgd1na2vs0mg"},{"bike_id":"76b20bbf-8914-4a94-8874-37067e89a32c","system_id":"levelo_inurba_marseille","lat":43.2862,"lon":5.35107,"is_reserved":false,"is_disabled":false,"rental_uris":{"android":"levelo://app?vid=76b20bbf-8914-4a94-8874-37067e89a32c","ios":"levelo://app?vid=76b20bbf-8914-4a94-8874-37067e89a32c"},"vehicle_type_id":"4","last_reported":1744913617,"current_range_meters":12400,"station_id":"ce4bhch2rcd13ifvqeug","pricing_plan_id":"cebpf4jnsgd1na2vs0mg"},{"bike_id":"421b9cfd-c9c4-46a9-841a-21dffb0178c6","system_id":"levelo_inurba_marseille","lat":43.290771,"lon":5.371652,"is_reserved":false,"is_disabled":false,"rental_uris":{"android":"levelo://app?vid=421b9cfd-c9c4-46a9-841a-21dffb0178c6","ios":"levelo://app?vid=421b9cfd-c9c4-46a9-841a-21dffb0178c6"},"vehicle_type_id":"4","last_reported":1744913617,"current_range_meters":12000,"station_id":"ce4bh012rcd13ifvqd10","pricing_plan_id":"cebpf4jnsgd1na2vs0mg"},{"bike_id":"70589ef8-dd6c-4f7f-a79f-84c70296d5cb","system_id":"levelo_inurba_marseille","lat":43.27834,"lon":5.39201,"is_reserved":false,"is_disabled":false,"rental_uris":{"android":"levelo://app?vid=70589ef8-dd6c-4f7f-a79f-84c70296d5cb","ios":"levelo://app?vid=70589ef8-dd6c-4f7f-a79f-84c70296d5cb"},"vehicle_type_id":"4","last_reported":1744913617,"current_range_meters":12000,"station_id":"ce4bhjp2rcd13ifvqga0","pricing_plan_id":"cebpf4jnsgd1na2vs0mg"},{"bike_id":"04657881-18eb-45ab-8fbd-9926a7c863cf","system_id":"levelo_inurba_marseille","lat":43.286205,"lon":5.351108,"is_reserved":false,"is_disabled":false,"rental_uris":{"android":"levelo://app?vid=04657881-18eb-45ab-8fbd-9926a7c863cf","ios":"levelo://app?vid=04657881-18eb-45ab-8fbd-9926a7c863cf"},"vehicle_type_id":"4","last_reported":1744913617,"current_range_meters":12400,"station_id":"ce4bhch2rcd13ifvqeug","pricing_plan_id":"cebpf4jnsgd1na2vs0mg"},{"bike_id":"0fe7d780-e55e-4606-964b-e95ba9100bfe","system_id":"levelo_inurba_marseille","lat":43.29529,"lon":5.37503,"is_reserved":false,"is_disabled":false,"rental_uris":{"android":"levelo://app?vid=0fe7d780-e55e-4606-964b-e95ba9100bfe","ios":"levelo://app?vid=0fe7d780-e55e-4606-964b-e95ba9100bfe"},"vehicle_type_id":"4","last_reported":1744913617,"current_range_meters":12800,"station_id":"ce4bgkp2rcd13ifvqbmg","pricing_plan_id":"cebpf4jnsgd1na2vs0mg"},{"bike_id":"17861b67-e087-481f-b0bc-93568f9216e7","system_id":"levelo_inurba_marseille","lat":43.29618,"lon":5.37164,"is_reserved":false,"is_disabled":false,"rental_uris":{"android":"levelo://app?vid=17861b67-e087-481f-b0bc-93568f9216e7","ios":"levelo://app?vid=17861b67-e087-481f-b0bc-93568f9216e7"},"vehicle_type_id":"4","last_reported":1744913617,"current_range_meters":12400,"station_id":"ce4bgnh2rcd13ifvqc0g","pricing_plan_id":"cebpf4jnsgd1na2vs0mg"},{"bike_id":"2bc57539-fcba-468f-bf5a-417ebb99a30c","system_id":"levelo_inurba_marseille","lat":43.29303,"lon":5.37173,"is_reserved":false,"is_disabled":false,"rental_uris":{"android":"levelo://app?vid=2bc57539-fcba-468f-bf5a-417ebb99a30c","ios":"levelo://app?vid=2bc57539-fcba-468f-bf5a-417ebb99a30c"},"vehicle_type_id":"4","last_reported":1744913617,"current_range_meters":12800,"station_id":"ce4bgh92rcd13ifvqb40","pricing_plan_id":"cebpf4jnsgd1na2vs0mg"},{"bike_id":"6f75c22d-1a4e-43a3-a191-bd9760ed76cd","system_id":"levelo_inurba_marseille","lat":43.30649,"lon":5.40098,"is_reserved":false,"is_disabled":false,"rental_uris":{"android":"levelo://app?vid=6f75c22d-1a4e-43a3-a191-bd9760ed76cd","ios":"levelo://app?vid=6f75c22d-1a4e-43a3-a191-bd9760ed76cd"},"vehicle_type_id":"4","last_reported":1744913617,"current_range_meters":12800,"station_id":"ce4bh112rcd13ifvqda0","pricing_plan_id":"cebpf4jnsgd1na2vs0mg"},{"bike_id":"4a17a27b-4979-4133-9ae1-996785f8fee4","system_id":"levelo_inurba_marseille","lat":43.23078,"lon":5.35511,"is_reserved":false,"is_disabled":false,"rental_uris":{"android":"levelo://app?vid=4a17a27b-4979-4133-9ae1-996785f8fee4","ios":"levelo://app?vid=4a17a27b-4979-4133-9ae1-996785f8fee4"},"vehicle_type_id":"4","last_reported":1744913617,"current_range_meters":12800,"station_id":"cpo3342slgdg3j2ifvpg","pricing_plan_id":"cebpf4jnsgd1na2vs0mg"},{"bike_id":"04ec26a8-4208-43e5-8d7a-1632a980f8b8","system_id":"levelo_inurba_marseille","lat":43.28939,"lon":5.36639,"is_reserved":false,"is_disabled":false,"rental_uris":{"android":"levelo://app?vid=04ec26a8-4208-43e5-8d7a-1632a980f8b8","ios":"levelo://app?vid=04ec26a8-4208-43e5-8d7a-1632a980f8b8"},"vehicle_type_id":"4","last_reported":1744913617,"current_range_meters":12800,"station_id":"ce4bhap2rcd13ifvqek0","pricing_plan_id":"cebpf4jnsgd1na2vs0mg"},{"bike_id":"98da1440-ddaf-41c4-ae43-8bc3e685a3bb","system_id":"levelo_inurba_marseille","lat":43.28419,"lon":5.35007,"is_reserved":false,"is_disabled":false,"rental_uris":{"android":"levelo://app?vid=98da1440-ddaf-41c4-ae43-8bc3e685a3bb","ios":"levelo://app?vid=98da1440-ddaf-41c4-ae43-8bc3e685a3bb"},"vehicle_type_id":"4","last_reported":1744913617,"current_range_meters":13600,"station_id":"ce4bhbh2rcd13ifvqepg","pricing_plan_id":"cebpf4jnsgd1na2vs0mg"},{"bike_id":"052c1e66-ad00-44b3-8533-68e1a0be0cc6","system_id":"levelo_inurba_marseille","lat":43.3266,"lon":5.40997,"is_reserved":false,"is_disabled":false,"rental_uris":{"android":"levelo://app?vid=052c1e66-ad00-44b3-8533-68e1a0be0cc6","ios":"levelo://app?vid=052c1e66-ad00-44b3-8533-68e1a0be0cc6"},"vehicle_type_id":"4","last_reported":1744913617,"current_range_meters":12800,"station_id":"ce4bhpp2rcd13ifvqhgg","pricing_plan_id":"cebpf4jnsgd1na2vs0mg"},{"bike_id":"173d39b4-7a97-4693-9385-db8bda0fe199","system_id":"levelo_inurba_marseille","lat":43.21752,"lon":5.34595,"is_reserved":false,"is_disabled":false,"rental_uris":{"android":"levelo://app?vid=173d39b4-7a97-4693-9385-db8bda0fe199","ios":"levelo://app?vid=173d39b4-7a97-4693-9385-db8bda0fe199"},"vehicle_type_id":"4","last_reported":1744913617,"current_range_meters":13600,"station_id":"st_cvj6r9ubvosntc0bgbag","pricing_plan_id":"cebpf4jnsgd1na2vs0mg"},{"bike_id":"64a47f4a-f4e2-4e1b-949e-3e6cf7bc5e72","system_id":"levelo_inurba_marseille","lat":43.2718,"lon":5.410042,"is_reserved":false,"is_disabled":true,"rental_uris":{"android":"levelo://app?vid=64a47f4a-f4e2-4e1b-949e-3e6cf7bc5e72","ios":"levelo://app?vid=64a47f4a-f4e2-4e1b-949e-3e6cf7bc5e72"},"vehicle_type_id":"4","last_reported":1744913617,"current_range_meters":13600,"station_id":"ce4bhl12rcd13ifvqgf0","pricing_plan_id":"cebpf4jnsgd1na2vs0mg"},{"bike_id":"8fbc98c0-0170-4556-80f2-5f643dac8b77","system_id":"levelo_inurba_marseille","lat":43.28411,"lon":5.37507,"is_reserved":false,"is_disabled":false,"rental_uris":{"android":"levelo://app?vid=8fbc98c0-0170-4556-80f2-5f643dac8b77","ios":"levelo://app?vid=8fbc98c0-0170-4556-80f2-5f643dac8b77"},"vehicle_type_id":"4","last_reported":1744913617,"current_range_meters":13600,"station_id":"ce4bh412rcd13ifvqds0","pricing_plan_id":"cebpf4jnsgd1na2vs0mg"},{"bike_id":"ae0e1566-e631-4bc5-9aed-0ebca70f0554","system_id":"levelo_inurba_marseille","lat":43.28642,"lon":5.35088,"is_reserved":false,"is_disabled":false,"rental_uris":{"android":"levelo://app?vid=ae0e1566-e631-4bc5-9aed-0ebca70f0554","ios":"levelo://app?vid=ae0e1566-e631-4bc5-9aed-0ebca70f0554"},"vehicle_type_id":"4","last_reported":1744913617,"current_range_meters":13600,"station_id":"ce4bhch2rcd13ifvqeug","pricing_plan_id":"cebpf4jnsgd1na2vs0mg"},{"bike_id":"41fb0398-f2fe-4abb-ae37-a38f47615ea9","system_id":"levelo_inurba_marseille","lat":43.323579,"lon":5.3676,"is_reserved":false,"is_disabled":false,"rental_uris":{"android":"levelo://app?vid=41fb0398-f2fe-4abb-ae37-a38f47615ea9","ios":"levelo://app?vid=41fb0398-f2fe-4abb-ae37-a38f47615ea9"},"vehicle_type_id":"4","last_reported":1744913617,"current_range_meters":14000,"station_id":"ce4bhsh2rcd13ifvqi2g","pricing_plan_id":"cebpf4jnsgd1na2vs0mg"},{"bike_id":"5ccae0ed-ba8f-4ff9-bad4-ac4f9112cc92","system_id":"levelo_inurba_marseille","lat":43.28627,"lon":5.35104,"is_reserved":false,"is_disabled":false,"rental_uris":{"android":"levelo://app?vid=5ccae0ed-ba8f-4ff9-bad4-ac4f9112cc92","ios":"levelo://app?vid=5ccae0ed-ba8f-4ff9-bad4-ac4f9112cc92"},"vehicle_type_id":"4","last_reported":1744913617,"current_range_meters":14000,"station_id":"ce4bhch2rcd13ifvqeug","pricing_plan_id":"cebpf4jnsgd1na2vs0mg"},{"bike_id":"853c25cd-da27-4de4-a04a-16a1f2d5adc9","system_id":"levelo_inurba_marseille","lat":43.273682,"lon":5.362275,"is_reserved":false,"is_disabled":false,"rental_uris":{"android":"levelo://app?vid=853c25cd-da27-4de4-a04a-16a1f2d5adc9","ios":"levelo://app?vid=853c25cd-da27-4de4-a04a-16a1f2d5adc9"},"vehicle_type_id":"4","last_reported":1744913617,"current_range_meters":14400,"station_id":"","pricing_plan_id":"cebpf4jnsgd1na2vs0mg"},{"bike_id":"2da19230-f53a-427c-9cf4-a00e50b76f57","system_id":"levelo_inurba_marseille","lat":43.24083,"lon":5.37772,"is_reserved":false,"is_disabled":false,"rental_uris":{"android":"levelo://app?vid=2da19230-f53a-427c-9cf4-a00e50b76f57","ios":"levelo://app?vid=2da19230-f53a-427c-9cf4-a00e50b76f57"},"vehicle_type_id":"4","last_reported":1744913617,"current_range_meters":14400,"station_id":"ce4bhnp2rcd13ifvqgvg","pricing_plan_id":"cebpf4jnsgd1na2vs0mg"},{"bike_id":"f690738c-7184-40d0-8e24-653d6c176a31","system_id":"levelo_inurba_marseille","lat":43.29562,"lon":5.42286,"is_reserved":false,"is_disabled":false,"rental_uris":{"android":"levelo://app?vid=f690738c-7184-40d0-8e24-653d6c176a31","ios":"levelo://app?vid=f690738c-7184-40d0-8e24-653d6c176a31"},"vehicle_type_id":"4","last_reported":1744913617,"current_range_meters":14400,"station_id":"ce4bhph2rcd13ifvqhdg","pricing_plan_id":"cebpf4jnsgd1na2vs0mg"},{"bike_id":"559306d4-8b23-4192-b8d5-28a38ab3887f","system_id":"levelo_inurba_marseille","lat":43.29928,"lon":5.36516,"is_reserved":false,"is_disabled":false,"rental_uris":{"android":"levelo://app?vid=559306d4-8b23-4192-b8d5-28a38ab3887f","ios":"levelo://app?vid=559306d4-8b23-4192-b8d5-28a38ab3887f"},"vehicle_type_id":"4","last_reported":1744913617,"current_range_meters":14800,"station_id":"ce4bgm92rcd13ifvqbr0","pricing_plan_id":"cebpf4jnsgd1na2vs0mg"},{"bike_id":"2a25cd21-fe94-4e90-b470-09fd879214ea","system_id":"levelo_inurba_marseille","lat":43.29429,"lon":5.38619,"is_reserved":false,"is_disabled":false,"rental_uris":{"android":"levelo://app?vid=2a25cd21-fe94-4e90-b470-09fd879214ea","ios":"levelo://app?vid=2a25cd21-fe94-4e90-b470-09fd879214ea"},"vehicle_type_id":"4","last_reported":1744913617,"current_range_meters":14800,"station_id":"ce4bh2h2rcd13ifvqdh0","pricing_plan_id":"cebpf4jnsgd1na2vs0mg"},{"bike_id":"e14c265e-eca3-4791-a3e7-f534121ae166","system_id":"levelo_inurba_marseille","lat":43.22956,"lon":5.35429,"is_reserved":false,"is_disabled":false,"rental_uris":{"android":"levelo://app?vid=e14c265e-eca3-4791-a3e7-f534121ae166","ios":"levelo://app?vid=e14c265e-eca3-4791-a3e7-f534121ae166"},"vehicle_type_id":"4","last_reported":1744913617,"current_range_meters":14800,"station_id":"cpo3532slgdg3j2ikp40","pricing_plan_id":"cebpf4jnsgd1na2vs0mg"},{"bike_id":"03a7648f-b656-4a23-a76c-a0f37bd69fa2","system_id":"levelo_inurba_marseille","lat":43.31214,"lon":5.36847,"is_reserved":false,"is_disabled":false,"rental_uris":{"android":"levelo://app?vid=03a7648f-b656-4a23-a76c-a0f37bd69fa2","ios":"levelo://app?vid=03a7648f-b656-4a23-a76c-a0f37bd69fa2"},"vehicle_type_id":"4","last_reported":1744913617,"current_range_meters":14800,"station_id":"ce4bgl92rcd13ifvqbq0","pricing_plan_id":"cebpf4jnsgd1na2vs0mg"},{"bike_id":"7d77b22e-64eb-4401-bd0f-e83eb9b00225","system_id":"levelo_inurba_marseille","lat":43.2942,"lon":5.38629,"is_reserved":false,"is_disabled":false,"rental_uris":{"android":"levelo://app?vid=7d77b22e-64eb-4401-bd0f-e83eb9b00225","ios":"levelo://app?vid=7d77b22e-64eb-4401-bd0f-e83eb9b00225"},"vehicle_type_id":"4","last_reported":1744913617,"current_range_meters":14800,"station_id":"ce4bh2h2rcd13ifvqdh0","pricing_plan_id":"cebpf4jnsgd1na2vs0mg"},{"bike_id":"386b66dd-54dd-4f23-9399-5feab1b083fa","system_id":"levelo_inurba_marseille","lat":43.29687,"lon":5.37856,"is_reserved":false,"is_disabled":false,"rental_uris":{"android":"levelo://app?vid=386b66dd-54dd-4f23-9399-5feab1b083fa","ios":"levelo://app?vid=386b66dd-54dd-4f23-9399-5feab1b083fa"},"vehicle_type_id":"4","last_reported":1744913617,"current_range_meters":14800,"station_id":"","pricing_plan_id":"cebpf4jnsgd1na2vs0mg"},{"bike_id":"799fd552-dbb8-4e4f-8a9f-cf3ed7e77450","system_id":"levelo_inurba_marseille","lat":43.29426,"lon":5.38632,"is_reserved":false,"is_disabled":false,"rental_uris":{"android":"levelo://app?vid=799fd552-dbb8-4e4f-8a9f-cf3ed7e77450","ios":"levelo://app?vid=799fd552-dbb8-4e4f-8a9f-cf3ed7e77450"},"vehicle_type_id":"4","last_reported":1744913617,"current_range_meters":15200,"station_id":"ce4bh2h2rcd13ifvqdh0","pricing_plan_id":"cebpf4jnsgd1na2vs0mg"},{"bike_id":"efb84f9c-3aa1-43e2-97ac-cb40e0853479","system_id":"levelo_inurba_marseille","lat":43.25128,"lon":5.40333,"is_reserved":false,"is_disabled":false,"rental_uris":{"android":"levelo://app?vid=efb84f9c-3aa1-43e2-97ac-cb40e0853479","ios":"levelo://app?vid=efb84f9c-3aa1-43e2-97ac-cb40e0853479"},"vehicle_type_id":"4","last_reported":1744913617,"current_range_meters":15200,"station_id":"ce4bhlh2rcd13ifvqgig","pricing_plan_id":"cebpf4jnsgd1na2vs0mg"},{"bike_id":"833e8336-20e5-4266-86ef-b039277bafca","system_id":"levelo_inurba_marseille","lat":43.29524,"lon":5.39034,"is_reserved":false,"is_disabled":false,"rental_uris":{"android":"levelo://app?vid=833e8336-20e5-4266-86ef-b039277bafca","ios":"levelo://app?vid=833e8336-20e5-4266-86ef-b039277bafca"},"vehicle_type_id":"4","last_reported":1744913617,"current_range_meters":15200,"station_id":"ce4bh3p2rcd13ifvqdp0","pricing_plan_id":"cebpf4jnsgd1na2vs0mg"},{"bike_id":"536dde2f-0bf5-4e85-aeb1-cb0580493ff9","system_id":"levelo_inurba_marseille","lat":43.31075,"lon":5.38349,"is_reserved":false,"is_disabled":false,"rental_uris":{"android":"levelo://app?vid=536dde2f-0bf5-4e85-aeb1-cb0580493ff9","ios":"levelo://app?vid=536dde2f-0bf5-4e85-aeb1-cb0580493ff9"},"vehicle_type_id":"4","last_reported":1744913617,"current_range_meters":16000,"station_id":"ce4bgv92rcd13ifvqcr0","pricing_plan_id":"cebpf4jnsgd1na2vs0mg"},{"bike_id":"2daa1a4a-afb7-470b-9fac-d2f8da0290d5","system_id":"levelo_inurba_marseille","lat":43.25576,"lon":5.38248,"is_reserved":false,"is_disabled":false,"rental_uris":{"android":"levelo://app?vid=2daa1a4a-afb7-470b-9fac-d2f8da0290d5","ios":"levelo://app?vid=2daa1a4a-afb7-470b-9fac-d2f8da0290d5"},"vehicle_type_id":"4","last_reported":1744913617,"current_range_meters":16000,"station_id":"ce4bhih2rcd13ifvqfs0","pricing_plan_id":"cebpf4jnsgd1na2vs0mg"},{"bike_id":"4c6db52c-3996-4a46-8c4c-80caf57b6692","system_id":"levelo_inurba_marseille","lat":43.28413,"lon":5.37508,"is_reserved":false,"is_disabled":false,"rental_uris":{"android":"levelo://app?vid=4c6db52c-3996-4a46-8c4c-80caf57b6692","ios":"levelo://app?vid=4c6db52c-3996-4a46-8c4c-80caf57b6692"},"vehicle_type_id":"4","last_reported":1744913617,"current_range_meters":16000,"station_id":"ce4bh412rcd13ifvqds0","pricing_plan_id":"cebpf4jnsgd1na2vs0mg"},{"bike_id":"11130263-b96e-43f6-88d5-469f0add08ef","system_id":"levelo_inurba_marseille","lat":43.29966,"lon":5.38501,"is_reserved":false,"is_disabled":false,"rental_uris":{"android":"levelo://app?vid=11130263-b96e-43f6-88d5-469f0add08ef","ios":"levelo://app?vid=11130263-b96e-43f6-88d5-469f0add08ef"},"vehicle_type_id":"4","last_reported":1744913617,"current_range_meters":16000,"station_id":"ce4bgj92rcd13ifvqbd0","pricing_plan_id":"cebpf4jnsgd1na2vs0mg"},{"bike_id":"53be8479-aed0-4dff-88b6-163117aed28c","system_id":"levelo_inurba_marseille","lat":43.291924,"lon":5.393293,"is_reserved":false,"is_disabled":false,"rental_uris":{"android":"levelo://app?vid=53be8479-aed0-4dff-88b6-163117aed28c","ios":"levelo://app?vid=53be8479-aed0-4dff-88b6-163117aed28c"},"vehicle_type_id":"4","last_reported":1744913617,"current_range_meters":16000,"station_id":"ce4bh192rcd13ifvqdd0","pricing_plan_id":"cebpf4jnsgd1na2vs0mg"},{"bike_id":"0fb1a105-b046-4c66-baab-c2dec6ff86a2","system_id":"levelo_inurba_marseille","lat":43.28607,"lon":5.37065,"is_reserved":false,"is_disabled":false,"rental_uris":{"android":"levelo://app?vid=0fb1a105-b046-4c66-baab-c2dec6ff86a2","ios":"levelo://app?vid=0fb1a105-b046-4c66-baab-c2dec6ff86a2"},"vehicle_type_id":"4","last_reported":1744913617,"current_range_meters":16000,"station_id":"ce4bht12rcd13ifvqi60","pricing_plan_id":"cebpf4jnsgd1na2vs0mg"},{"bike_id":"65d858b6-e5a3-4feb-ac7a-a79c6ffb3f98","system_id":"levelo_inurba_marseille","lat":43.29265,"lon":5.38444,"is_reserved":false,"is_disabled":false,"rental_uris":{"android":"levelo://app?vid=65d858b6-e5a3-4feb-ac7a-a79c6ffb3f98","ios":"levelo://app?vid=65d858b6-e5a3-4feb-ac7a-a79c6ffb3f98"},"vehicle_type_id":"4","last_reported":1744913617,"current_range_meters":16000,"station_id":"ce4bh692rcd13ifvqea0","pricing_plan_id":"cebpf4jnsgd1na2vs0mg"},{"bike_id":"582194ef-7a33-488b-b761-11452d250b35","system_id":"levelo_inurba_marseille","lat":43.30125,"lon":5.39849,"is_reserved":false,"is_disabled":false,"rental_uris":{"android":"levelo://app?vid=582194ef-7a33-488b-b761-11452d250b35","ios":"levelo://app?vid=582194ef-7a33-488b-b761-11452d250b35"},"vehicle_type_id":"4","last_reported":1744913617,"current_range_meters":18800,"station_id":"ce4bh0h2rcd13ifvqd40","pricing_plan_id":"cebpf4jnsgd1na2vs0mg"},{"bike_id":"9b3bb13d-66c0-4eb1-8f75-b31ca5a75a7d","system_id":"levelo_inurba_marseille","lat":43.2893,"lon":5.38408,"is_reserved":false,"is_disabled":false,"rental_uris":{"android":"levelo://app?vid=9b3bb13d-66c0-4eb1-8f75-b31ca5a75a7d","ios":"levelo://app?vid=9b3bb13d-66c0-4eb1-8f75-b31ca5a75a7d"},"vehicle_type_id":"4","last_reported":1744913617,"current_range_meters":16400,"station_id":"ce4bh612rcd13ifvqe6g","pricing_plan_id":"cebpf4jnsgd1na2vs0mg"},{"bike_id":"510ae69c-2759-4414-9425-d7a06ed0a5fe","system_id":"levelo_inurba_marseille","lat":43.29039,"lon":5.38661,"is_reserved":false,"is_disabled":false,"rental_uris":{"android":"levelo://app?vid=510ae69c-2759-4414-9425-d7a06ed0a5fe","ios":"levelo://app?vid=510ae69c-2759-4414-9425-d7a06ed0a5fe"},"vehicle_type_id":"4","last_reported":1744913617,"current_range_meters":12000,"station_id":"ce4bh4p2rcd13ifvqe0g","pricing_plan_id":"cebpf4jnsgd1na2vs0mg"},{"bike_id":"88a589cb-7e6a-4c2c-aba2-f8667b2c7927","system_id":"levelo_inurba_marseille","lat":43.29863,"lon":5.39737,"is_reserved":false,"is_disabled":false,"rental_uris":{"android":"levelo://app?vid=88a589cb-7e6a-4c2c-aba2-f8667b2c7927","ios":"levelo://app?vid=88a589cb-7e6a-4c2c-aba2-f8667b2c7927"},"vehicle_type_id":"4","last_reported":1744913617,"current_range_meters":16400,"station_id":"ce4bh0h2rcd13ifvqd50","pricing_plan_id":"cebpf4jnsgd1na2vs0mg"},{"bike_id":"c891c811-4387-4717-a98d-b5fc21399698","system_id":"levelo_inurba_marseille","lat":43.23955,"lon":5.36634,"is_reserved":false,"is_disabled":false,"rental_uris":{"android":"levelo://app?vid=c891c811-4387-4717-a98d-b5fc21399698","ios":"levelo://app?vid=c891c811-4387-4717-a98d-b5fc21399698"},"vehicle_type_id":"4","last_reported":1744913617,"current_range_meters":16000,"station_id":"ce4bhi12rcd13ifvqfp0","pricing_plan_id":"cebpf4jnsgd1na2vs0mg"},{"bike_id":"f8fc12fd-017f-4762-9135-8b3c5a08cdaf","system_id":"levelo_inurba_marseille","lat":43.31072,"lon":5.38341,"is_reserved":false,"is_disabled":false,"rental_uris":{"android":"levelo://app?vid=f8fc12fd-017f-4762-9135-8b3c5a08cdaf","ios":"levelo://app?vid=f8fc12fd-017f-4762-9135-8b3c5a08cdaf"},"vehicle_type_id":"4","last_reported":1744913617,"current_range_meters":16400,"station_id":"ce4bgv92rcd13ifvqcr0","pricing_plan_id":"cebpf4jnsgd1na2vs0mg"},{"bike_id":"5bdc7201-5a9e-4c6f-adb3-ac2aa03dc20b","system_id":"levelo_inurba_marseille","lat":43.28425,"lon":5.34992,"is_reserved":false,"is_disabled":false,"rental_uris":{"android":"levelo://app?vid=5bdc7201-5a9e-4c6f-adb3-ac2aa03dc20b","ios":"levelo://app?vid=5bdc7201-5a9e-4c6f-adb3-ac2aa03dc20b"},"vehicle_type_id":"4","last_reported":1744913617,"current_range_meters":16400,"station_id":"ce4bhbh2rcd13ifvqepg","pricing_plan_id":"cebpf4jnsgd1na2vs0mg"},{"bike_id":"59c83b5b-986b-4ac1-bace-cd6db0184351","system_id":"levelo_inurba_marseille","lat":43.24647,"lon":5.3889,"is_reserved":false,"is_disabled":false,"rental_uris":{"android":"levelo://app?vid=59c83b5b-986b-4ac1-bace-cd6db0184351","ios":"levelo://app?vid=59c83b5b-986b-4ac1-bace-cd6db0184351"},"vehicle_type_id":"4","last_reported":1744913617,"current_range_meters":16400,"station_id":"ce4bhg12rcd13ifvqf60","pricing_plan_id":"cebpf4jnsgd1na2vs0mg"},{"bike_id":"2a24f5c7-83bd-428d-8583-d613ec856560","system_id":"levelo_inurba_marseille","lat":43.28932,"lon":5.36644,"is_reserved":false,"is_disabled":false,"rental_uris":{"android":"levelo://app?vid=2a24f5c7-83bd-428d-8583-d613ec856560","ios":"levelo://app?vid=2a24f5c7-83bd-428d-8583-d613ec856560"},"vehicle_type_id":"4","last_reported":1744913617,"current_range_meters":16800,"station_id":"ce4bhap2rcd13ifvqek0","pricing_plan_id":"cebpf4jnsgd1na2vs0mg"},{"bike_id":"9fe6b68c-b08e-4d81-8c7d-760938ace4d6","system_id":"levelo_inurba_marseille","lat":43.29228,"lon":5.36065,"is_reserved":false,"is_disabled":false,"rental_uris":{"android":"levelo://app?vid=9fe6b68c-b08e-4d81-8c7d-760938ace4d6","ios":"levelo://app?vid=9fe6b68c-b08e-4d81-8c7d-760938ace4d6"},"vehicle_type_id":"4","last_reported":1744913617,"current_range_meters":16800,"station_id":"ce4bhbh2rcd13ifvqeqg","pricing_plan_id":"cebpf4jnsgd1na2vs0mg"},{"bike_id":"67556227-2659-4401-bd0d-bc966367d5cc","system_id":"levelo_inurba_marseille","lat":43.29305,"lon":5.37457,"is_reserved":false,"is_disabled":false,"rental_uris":{"android":"levelo://app?vid=67556227-2659-4401-bd0d-bc966367d5cc","ios":"levelo://app?vid=67556227-2659-4401-bd0d-bc966367d5cc"},"vehicle_type_id":"4","last_reported":1744913617,"current_range_meters":16800,"station_id":"ce4bgi12rcd13ifvqb70","pricing_plan_id":"cebpf4jnsgd1na2vs0mg"},{"bike_id":"bbb1c662-cc65-4c72-8489-de78d2f0f12f","system_id":"levelo_inurba_marseille","lat":43.23068,"lon":5.35508,"is_reserved":false,"is_disabled":false,"rental_uris":{"android":"levelo://app?vid=bbb1c662-cc65-4c72-8489-de78d2f0f12f","ios":"levelo://app?vid=bbb1c662-cc65-4c72-8489-de78d2f0f12f"},"vehicle_type_id":"4","last_reported":1744913617,"current_range_meters":16800,"station_id":"cpo3342slgdg3j2ifvpg","pricing_plan_id":"cebpf4jnsgd1na2vs0mg"},{"bike_id":"be1e5c7a-cd63-42d3-aad0-f0762edc7779","system_id":"levelo_inurba_marseille","lat":43.25084,"lon":5.39523,"is_reserved":false,"is_disabled":false,"rental_uris":{"android":"levelo://app?vid=be1e5c7a-cd63-42d3-aad0-f0762edc7779","ios":"levelo://app?vid=be1e5c7a-cd63-42d3-aad0-f0762edc7779"},"vehicle_type_id":"4","last_reported":1744913617,"current_range_meters":16800,"station_id":"ce4bhm12rcd13ifvqgkg","pricing_plan_id":"cebpf4jnsgd1na2vs0mg"},{"bike_id":"f67c914a-531e-4ad5-b41c-cc8fccfce3a3","system_id":"levelo_inurba_marseille","lat":43.26069,"lon":5.39403,"is_reserved":false,"is_disabled":false,"rental_uris":{"android":"levelo://app?vid=f67c914a-531e-4ad5-b41c-cc8fccfce3a3","ios":"levelo://app?vid=f67c914a-531e-4ad5-b41c-cc8fccfce3a3"},"vehicle_type_id":"4","last_reported":1744913617,"current_range_meters":16800,"station_id":"ce4bhh92rcd13ifvqfj0","pricing_plan_id":"cebpf4jnsgd1na2vs0mg"},{"bike_id":"12273512-bacd-4ba2-a35d-82c4a4edbb17","system_id":"levelo_inurba_marseille","lat":43.29036,"lon":5.38645,"is_reserved":false,"is_disabled":false,"rental_uris":{"android":"levelo://app?vid=12273512-bacd-4ba2-a35d-82c4a4edbb17","ios":"levelo://app?vid=12273512-bacd-4ba2-a35d-82c4a4edbb17"},"vehicle_type_id":"4","last_reported":1744913617,"current_range_meters":16800,"station_id":"ce4bh4p2rcd13ifvqe0g","pricing_plan_id":"cebpf4jnsgd1na2vs0mg"},{"bike_id":"c41facca-8ed6-4772-99bb-68f11d75fa62","system_id":"levelo_inurba_marseille","lat":43.28413,"lon":5.3753,"is_reserved":false,"is_disabled":false,"rental_uris":{"android":"levelo://app?vid=c41facca-8ed6-4772-99bb-68f11d75fa62","ios":"levelo://app?vid=c41facca-8ed6-4772-99bb-68f11d75fa62"},"vehicle_type_id":"4","last_reported":1744913617,"current_range_meters":16800,"station_id":"ce4bh412rcd13ifvqds0","pricing_plan_id":"cebpf4jnsgd1na2vs0mg"},{"bike_id":"00845e1e-292e-4db5-9c9b-86ee55be5fc2","system_id":"levelo_inurba_marseille","lat":43.28723,"lon":5.36088,"is_reserved":false,"is_disabled":false,"rental_uris":{"android":"levelo://app?vid=00845e1e-292e-4db5-9c9b-86ee55be5fc2","ios":"levelo://app?vid=00845e1e-292e-4db5-9c9b-86ee55be5fc2"},"vehicle_type_id":"4","last_reported":1744913617,"current_range_meters":16800,"station_id":"cki0cbj6b192h4jlfktg","pricing_plan_id":"cebpf4jnsgd1na2vs0mg"},{"bike_id":"675ad18c-1a33-48b2-8f4a-1a3348f40d25","system_id":"levelo_inurba_marseille","lat":43.29599,"lon":5.3811,"is_reserved":false,"is_disabled":false,"rental_uris":{"android":"levelo://app?vid=675ad18c-1a33-48b2-8f4a-1a3348f40d25","ios":"levelo://app?vid=675ad18c-1a33-48b2-8f4a-1a3348f40d25"},"vehicle_type_id":"4","last_reported":1744913617,"current_range_meters":16800,"station_id":"ce4bgl12rcd13ifvqbo0","pricing_plan_id":"cebpf4jnsgd1na2vs0mg"},{"bike_id":"d57023a8-ca84-4d44-ba60-11037d1468ea","system_id":"levelo_inurba_marseille","lat":43.29258,"lon":5.38453,"is_reserved":false,"is_disabled":false,"rental_uris":{"android":"levelo://app?vid=d57023a8-ca84-4d44-ba60-11037d1468ea","ios":"levelo://app?vid=d57023a8-ca84-4d44-ba60-11037d1468ea"},"vehicle_type_id":"4","last_reported":1744913617,"current_range_meters":16800,"station_id":"ce4bh692rcd13ifvqea0","pricing_plan_id":"cebpf4jnsgd1na2vs0mg"},{"bike_id":"007ee9c7-c769-4de9-a218-517ff098b9cd","system_id":"levelo_inurba_marseille","lat":43.314505,"lon":5.373787,"is_reserved":false,"is_disabled":false,"rental_uris":{"android":"levelo://app?vid=007ee9c7-c769-4de9-a218-517ff098b9cd","ios":"levelo://app?vid=007ee9c7-c769-4de9-a218-517ff098b9cd"},"vehicle_type_id":"4","last_reported":1744913617,"current_range_meters":16800,"station_id":"","pricing_plan_id":"cebpf4jnsgd1na2vs0mg"},{"bike_id":"0ced172e-d267-48f8-823b-595463e3fa07","system_id":"levelo_inurba_marseille","lat":43.2943,"lon":5.38621,"is_reserved":false,"is_disabled":false,"rental_uris":{"android":"levelo://app?vid=0ced172e-d267-48f8-823b-595463e3fa07","ios":"levelo://app?vid=0ced172e-d267-48f8-823b-595463e3fa07"},"vehicle_type_id":"4","last_reported":1744913617,"current_range_meters":16800,"station_id":"ce4bh2h2rcd13ifvqdh0","pricing_plan_id":"cebpf4jnsgd1na2vs0mg"},{"bike_id":"68394fd5-d634-485e-8029-a1a9192346ae","system_id":"levelo_inurba_marseille","lat":43.29273,"lon":5.38436,"is_reserved":false,"is_disabled":false,"rental_uris":{"android":"levelo://app?vid=68394fd5-d634-485e-8029-a1a9192346ae","ios":"levelo://app?vid=68394fd5-d634-485e-8029-a1a9192346ae"},"vehicle_type_id":"4","last_reported":1744913617,"current_range_meters":16800,"station_id":"ce4bh692rcd13ifvqea0","pricing_plan_id":"cebpf4jnsgd1na2vs0mg"},{"bike_id":"297f3b65-a925-49c9-aa4f-5ecf6282f989","system_id":"levelo_inurba_marseille","lat":43.27693,"lon":5.38958,"is_reserved":false,"is_disabled":false,"rental_uris":{"android":"levelo://app?vid=297f3b65-a925-49c9-aa4f-5ecf6282f989","ios":"levelo://app?vid=297f3b65-a925-49c9-aa4f-5ecf6282f989"},"vehicle_type_id":"4","last_reported":1744913617,"current_range_meters":16800,"station_id":"","pricing_plan_id":"cebpf4jnsgd1na2vs0mg"},{"bike_id":"e8ef03ec-94c2-4894-82ab-b33906d66d0f","system_id":"levelo_inurba_marseille","lat":43.2557,"lon":5.38252,"is_reserved":false,"is_disabled":false,"rental_uris":{"android":"levelo://app?vid=e8ef03ec-94c2-4894-82ab-b33906d66d0f","ios":"levelo://app?vid=e8ef03ec-94c2-4894-82ab-b33906d66d0f"},"vehicle_type_id":"4","last_reported":1744913617,"current_range_meters":16800,"station_id":"ce4bhih2rcd13ifvqfs0","pricing_plan_id":"cebpf4jnsgd1na2vs0mg"},{"bike_id":"a0ddb0a5-f7f0-4281-aa27-9e82747cc573","system_id":"levelo_inurba_marseille","lat":43.33754,"lon":5.37491,"is_reserved":false,"is_disabled":false,"rental_uris":{"android":"levelo://app?vid=a0ddb0a5-f7f0-4281-aa27-9e82747cc573","ios":"levelo://app?vid=a0ddb0a5-f7f0-4281-aa27-9e82747cc573"},"vehicle_type_id":"4","last_reported":1744913617,"current_range_meters":16800,"station_id":"","pricing_plan_id":"cebpf4jnsgd1na2vs0mg"},{"bike_id":"135f0758-d03d-42f1-a2d6-49e93dc7a634","system_id":"levelo_inurba_marseille","lat":43.29882,"lon":5.36271,"is_reserved":false,"is_disabled":false,"rental_uris":{"android":"levelo://app?vid=135f0758-d03d-42f1-a2d6-49e93dc7a634","ios":"levelo://app?vid=135f0758-d03d-42f1-a2d6-49e93dc7a634"},"vehicle_type_id":"4","last_reported":1744913617,"current_range_meters":16800,"station_id":"ce4bgpp2rcd13ifvqc3g","pricing_plan_id":"cebpf4jnsgd1na2vs0mg"},{"bike_id":"e3b9c86b-9e49-41d1-83da-e803d37c2cf4","system_id":"levelo_inurba_marseille","lat":43.30135,"lon":5.387863,"is_reserved":false,"is_disabled":true,"rental_uris":{"android":"levelo://app?vid=e3b9c86b-9e49-41d1-83da-e803d37c2cf4","ios":"levelo://app?vid=e3b9c86b-9e49-41d1-83da-e803d37c2cf4"},"vehicle_type_id":"4","last_reported":1744913617,"current_range_meters":17200,"station_id":"ce4bghh2rcd13ifvqb60","pricing_plan_id":"cebpf4jnsgd1na2vs0mg"},{"bike_id":"bd492354-2d79-4427-82ee-84e4a12dea30","system_id":"levelo_inurba_marseille","lat":43.21223,"lon":5.35056,"is_reserved":false,"is_disabled":false,"rental_uris":{"android":"levelo://app?vid=bd492354-2d79-4427-82ee-84e4a12dea30","ios":"levelo://app?vid=bd492354-2d79-4427-82ee-84e4a12dea30"},"vehicle_type_id":"4","last_reported":1744913617,"current_range_meters":17200,"station_id":"","pricing_plan_id":"cebpf4jnsgd1na2vs0mg"},{"bike_id":"7bfb2bb5-dbdf-4c27-a5c3-33892675f1d2","system_id":"levelo_inurba_marseille","lat":43.251038,"lon":5.395098,"is_reserved":false,"is_disabled":false,"rental_uris":{"android":"levelo://app?vid=7bfb2bb5-dbdf-4c27-a5c3-33892675f1d2","ios":"levelo://app?vid=7bfb2bb5-dbdf-4c27-a5c3-33892675f1d2"},"vehicle_type_id":"4","last_reported":1744913617,"current_range_meters":17200,"station_id":"ce4bhm12rcd13ifvqgkg","pricing_plan_id":"cebpf4jnsgd1na2vs0mg"},{"bike_id":"7ed91d22-3d5b-4254-83bf-64eb2a7d5481","system_id":"levelo_inurba_marseille","lat":43.22512,"lon":5.34785,"is_reserved":false,"is_disabled":false,"rental_uris":{"android":"levelo://app?vid=7ed91d22-3d5b-4254-83bf-64eb2a7d5481","ios":"levelo://app?vid=7ed91d22-3d5b-4254-83bf-64eb2a7d5481"},"vehicle_type_id":"4","last_reported":1744913617,"current_range_meters":17200,"station_id":"","pricing_plan_id":"cebpf4jnsgd1na2vs0mg"},{"bike_id":"e8f06769-5a86-4d38-9dd4-fda86f2d00bc","system_id":"levelo_inurba_marseille","lat":43.29223,"lon":5.36075,"is_reserved":false,"is_disabled":false,"rental_uris":{"android":"levelo://app?vid=e8f06769-5a86-4d38-9dd4-fda86f2d00bc","ios":"levelo://app?vid=e8f06769-5a86-4d38-9dd4-fda86f2d00bc"},"vehicle_type_id":"4","last_reported":1744913617,"current_range_meters":17200,"station_id":"ce4bhbh2rcd13ifvqeqg","pricing_plan_id":"cebpf4jnsgd1na2vs0mg"},{"bike_id":"796a6822-c16b-4283-8e25-c148db169258","system_id":"levelo_inurba_marseille","lat":43.28087,"lon":5.3966,"is_reserved":false,"is_disabled":false,"rental_uris":{"android":"levelo://app?vid=796a6822-c16b-4283-8e25-c148db169258","ios":"levelo://app?vid=796a6822-c16b-4283-8e25-c148db169258"},"vehicle_type_id":"4","last_reported":1744913617,"current_range_meters":17200,"station_id":"ce4bho12rcd13ifvqh2g","pricing_plan_id":"cebpf4jnsgd1na2vs0mg"},{"bike_id":"ddb81e49-3ca3-408e-bb7e-97e32c56d0f7","system_id":"levelo_inurba_marseille","lat":43.27913,"lon":5.38017,"is_reserved":false,"is_disabled":false,"rental_uris":{"android":"levelo://app?vid=ddb81e49-3ca3-408e-bb7e-97e32c56d0f7","ios":"levelo://app?vid=ddb81e49-3ca3-408e-bb7e-97e32c56d0f7"},"vehicle_type_id":"4","last_reported":1744913617,"current_range_meters":17200,"station_id":"ce4bhf92rcd13ifvqf50","pricing_plan_id":"cebpf4jnsgd1na2vs0mg"},{"bike_id":"0e4796d5-2ff6-492f-b274-873781237fc6","system_id":"levelo_inurba_marseille","lat":43.31069,"lon":5.38361,"is_reserved":false,"is_disabled":false,"rental_uris":{"android":"levelo://app?vid=0e4796d5-2ff6-492f-b274-873781237fc6","ios":"levelo://app?vid=0e4796d5-2ff6-492f-b274-873781237fc6"},"vehicle_type_id":"4","last_reported":1744913617,"current_range_meters":17200,"station_id":"ce4bgv92rcd13ifvqcr0","pricing_plan_id":"cebpf4jnsgd1na2vs0mg"},{"bike_id":"f140dafb-375c-4b17-b432-e235d8ffa619","system_id":"levelo_inurba_marseille","lat":43.309019,"lon":5.368434,"is_reserved":false,"is_disabled":false,"rental_uris":{"android":"levelo://app?vid=f140dafb-375c-4b17-b432-e235d8ffa619","ios":"levelo://app?vid=f140dafb-375c-4b17-b432-e235d8ffa619"},"vehicle_type_id":"4","last_reported":1744913617,"current_range_meters":17200,"station_id":"ce4bgn92rcd13ifvqbvg","pricing_plan_id":"cebpf4jnsgd1na2vs0mg"},{"bike_id":"566bd714-3608-4373-8f38-fccb28c27f59","system_id":"levelo_inurba_marseille","lat":43.29398,"lon":5.386275,"is_reserved":false,"is_disabled":false,"rental_uris":{"android":"levelo://app?vid=566bd714-3608-4373-8f38-fccb28c27f59","ios":"levelo://app?vid=566bd714-3608-4373-8f38-fccb28c27f59"},"vehicle_type_id":"4","last_reported":1744913617,"current_range_meters":17600,"station_id":"ce4bh2h2rcd13ifvqdh0","pricing_plan_id":"cebpf4jnsgd1na2vs0mg"},{"bike_id":"9b90d56b-16e2-48f3-abf1-981d0e0a59ea","system_id":"levelo_inurba_marseille","lat":43.309543,"lon":5.390325,"is_reserved":false,"is_disabled":false,"rental_uris":{"android":"levelo://app?vid=9b90d56b-16e2-48f3-abf1-981d0e0a59ea","ios":"levelo://app?vid=9b90d56b-16e2-48f3-abf1-981d0e0a59ea"},"vehicle_type_id":"4","last_reported":1744913617,"current_range_meters":17600,"station_id":"ce4bgup2rcd13ifvqco0","pricing_plan_id":"cebpf4jnsgd1na2vs0mg"},{"bike_id":"51f32d2c-1879-464c-acba-93c57bc66ab6","system_id":"levelo_inurba_marseille","lat":43.290336,"lon":5.359173,"is_reserved":false,"is_disabled":true,"rental_uris":{"android":"levelo://app?vid=51f32d2c-1879-464c-acba-93c57bc66ab6","ios":"levelo://app?vid=51f32d2c-1879-464c-acba-93c57bc66ab6"},"vehicle_type_id":"4","last_reported":1744913617,"current_range_meters":17600,"station_id":"ce4bha92rcd13ifvqeg0","pricing_plan_id":"cebpf4jnsgd1na2vs0mg"},{"bike_id":"4cdeb94d-6b8c-4d5b-a59f-49def5ff14db","system_id":"levelo_inurba_marseille","lat":43.27496,"lon":5.42447,"is_reserved":false,"is_disabled":false,"rental_uris":{"android":"levelo://app?vid=4cdeb94d-6b8c-4d5b-a59f-49def5ff14db","ios":"levelo://app?vid=4cdeb94d-6b8c-4d5b-a59f-49def5ff14db"},"vehicle_type_id":"4","last_reported":1744913617,"current_range_meters":17600,"station_id":"ce4bhn92rcd13ifvqgrg","pricing_plan_id":"cebpf4jnsgd1na2vs0mg"},{"bike_id":"ef6e9c6f-8f69-4fcf-9727-b556a001e5bc","system_id":"levelo_inurba_marseille","lat":43.29555,"lon":5.42292,"is_reserved":false,"is_disabled":false,"rental_uris":{"android":"levelo://app?vid=ef6e9c6f-8f69-4fcf-9727-b556a001e5bc","ios":"levelo://app?vid=ef6e9c6f-8f69-4fcf-9727-b556a001e5bc"},"vehicle_type_id":"4","last_reported":1744913617,"current_range_meters":17600,"station_id":"ce4bhph2rcd13ifvqhdg","pricing_plan_id":"cebpf4jnsgd1na2vs0mg"},{"bike_id":"65ffc7fa-837f-40b4-9d1e-493b05ae6d41","system_id":"levelo_inurba_marseille","lat":43.29953,"lon":5.41317,"is_reserved":false,"is_disabled":false,"rental_uris":{"android":"levelo://app?vid=65ffc7fa-837f-40b4-9d1e-493b05ae6d41","ios":"levelo://app?vid=65ffc7fa-837f-40b4-9d1e-493b05ae6d41"},"vehicle_type_id":"4","last_reported":1744913617,"current_range_meters":17200,"station_id":"ce4bhp12rcd13ifvqh9g","pricing_plan_id":"cebpf4jnsgd1na2vs0mg"},{"bike_id":"076355f1-ba05-4b14-94f8-7678f1392346","system_id":"levelo_inurba_marseille","lat":43.2842,"lon":5.34998,"is_reserved":false,"is_disabled":false,"rental_uris":{"android":"levelo://app?vid=076355f1-ba05-4b14-94f8-7678f1392346","ios":"levelo://app?vid=076355f1-ba05-4b14-94f8-7678f1392346"},"vehicle_type_id":"4","last_reported":1744913617,"current_range_meters":17600,"station_id":"ce4bhbh2rcd13ifvqepg","pricing_plan_id":"cebpf4jnsgd1na2vs0mg"},{"bike_id":"98e351b6-e429-4e97-993e-f876c4c93767","system_id":"levelo_inurba_marseille","lat":43.30533,"lon":5.38449,"is_reserved":false,"is_disabled":false,"rental_uris":{"android":"levelo://app?vid=98e351b6-e429-4e97-993e-f876c4c93767","ios":"levelo://app?vid=98e351b6-e429-4e97-993e-f876c4c93767"},"vehicle_type_id":"4","last_reported":1744913617,"current_range_meters":17600,"station_id":"ce4bgg92rcd13ifvqb30","pricing_plan_id":"cebpf4jnsgd1na2vs0mg"},{"bike_id":"934a8fc0-98f8-4aaf-a145-d485dee937c7","system_id":"levelo_inurba_marseille","lat":43.32358,"lon":5.36766,"is_reserved":false,"is_disabled":false,"rental_uris":{"android":"levelo://app?vid=934a8fc0-98f8-4aaf-a145-d485dee937c7","ios":"levelo://app?vid=934a8fc0-98f8-4aaf-a145-d485dee937c7"},"vehicle_type_id":"4","last_reported":1744913617,"current_range_meters":17600,"station_id":"ce4bhsh2rcd13ifvqi2g","pricing_plan_id":"cebpf4jnsgd1na2vs0mg"},{"bike_id":"47c271c6-4ea8-4388-a3f0-a245ec407889","system_id":"levelo_inurba_marseille","lat":43.29534,"lon":5.38552,"is_reserved":false,"is_disabled":false,"rental_uris":{"android":"levelo://app?vid=47c271c6-4ea8-4388-a3f0-a245ec407889","ios":"levelo://app?vid=47c271c6-4ea8-4388-a3f0-a245ec407889"},"vehicle_type_id":"4","last_reported":1744913617,"current_range_meters":17600,"station_id":"ce4bgih2rcd13ifvqba0","pricing_plan_id":"cebpf4jnsgd1na2vs0mg"},{"bike_id":"9ca678fd-592a-4fab-9113-2b455df97c8a","system_id":"levelo_inurba_marseille","lat":43.29516,"lon":5.39051,"is_reserved":false,"is_disabled":false,"rental_uris":{"android":"levelo://app?vid=9ca678fd-592a-4fab-9113-2b455df97c8a","ios":"levelo://app?vid=9ca678fd-592a-4fab-9113-2b455df97c8a"},"vehicle_type_id":"4","last_reported":1744913617,"current_range_meters":18000,"station_id":"ce4bh3p2rcd13ifvqdp0","pricing_plan_id":"cebpf4jnsgd1na2vs0mg"},{"bike_id":"791b2289-d015-45a4-b3a3-090c7aebd71b","system_id":"levelo_inurba_marseille","lat":43.29932,"lon":5.36538,"is_reserved":false,"is_disabled":false,"rental_uris":{"android":"levelo://app?vid=791b2289-d015-45a4-b3a3-090c7aebd71b","ios":"levelo://app?vid=791b2289-d015-45a4-b3a3-090c7aebd71b"},"vehicle_type_id":"4","last_reported":1744913617,"current_range_meters":18000,"station_id":"ce4bgm92rcd13ifvqbr0","pricing_plan_id":"cebpf4jnsgd1na2vs0mg"},{"bike_id":"16272467-376b-4c3d-b24f-85b6246af5bb","system_id":"levelo_inurba_marseille","lat":43.31075,"lon":5.38353,"is_reserved":false,"is_disabled":false,"rental_uris":{"android":"levelo://app?vid=16272467-376b-4c3d-b24f-85b6246af5bb","ios":"levelo://app?vid=16272467-376b-4c3d-b24f-85b6246af5bb"},"vehicle_type_id":"4","last_reported":1744913617,"current_range_meters":18000,"station_id":"ce4bgv92rcd13ifvqcr0","pricing_plan_id":"cebpf4jnsgd1na2vs0mg"},{"bike_id":"853124ae-2332-4e0c-8670-2859db17564d","system_id":"levelo_inurba_marseille","lat":43.26213,"lon":5.37415,"is_reserved":false,"is_disabled":false,"rental_uris":{"android":"levelo://app?vid=853124ae-2332-4e0c-8670-2859db17564d","ios":"levelo://app?vid=853124ae-2332-4e0c-8670-2859db17564d"},"vehicle_type_id":"4","last_reported":1744913617,"current_range_meters":18000,"station_id":"ce4bhgp2rcd13ifvqfc0","pricing_plan_id":"cebpf4jnsgd1na2vs0mg"},{"bike_id":"33efbe4e-e642-4271-be29-4926b421ca5b","system_id":"levelo_inurba_marseille","lat":43.241644,"lon":5.363976,"is_reserved":false,"is_disabled":false,"rental_uris":{"android":"levelo://app?vid=33efbe4e-e642-4271-be29-4926b421ca5b","ios":"levelo://app?vid=33efbe4e-e642-4271-be29-4926b421ca5b"},"vehicle_type_id":"4","last_reported":1744913617,"current_range_meters":18000,"station_id":"cpo36qri1sfpv3e86is0","pricing_plan_id":"cebpf4jnsgd1na2vs0mg"},{"bike_id":"d3ff1a2f-e64a-4812-9961-e977180d93dd","system_id":"levelo_inurba_marseille","lat":43.28154,"lon":5.42646,"is_reserved":false,"is_disabled":false,"rental_uris":{"android":"levelo://app?vid=d3ff1a2f-e64a-4812-9961-e977180d93dd","ios":"levelo://app?vid=d3ff1a2f-e64a-4812-9961-e977180d93dd"},"vehicle_type_id":"4","last_reported":1744913617,"current_range_meters":18000,"station_id":"ce4bhnh2rcd13ifvqgug","pricing_plan_id":"cebpf4jnsgd1na2vs0mg"},{"bike_id":"7eb8853e-3665-40f5-8308-1299f0674652","system_id":"levelo_inurba_marseille","lat":43.30405,"lon":5.42474,"is_reserved":false,"is_disabled":false,"rental_uris":{"android":"levelo://app?vid=7eb8853e-3665-40f5-8308-1299f0674652","ios":"levelo://app?vid=7eb8853e-3665-40f5-8308-1299f0674652"},"vehicle_type_id":"4","last_reported":1744913617,"current_range_meters":18000,"station_id":"ce4bghh2rcd13ifvqb60","pricing_plan_id":"cebpf4jnsgd1na2vs0mg"},{"bike_id":"f0e0f650-7618-4ada-a966-72539e24b14f","system_id":"levelo_inurba_marseille","lat":43.27971,"lon":5.38758,"is_reserved":false,"is_disabled":false,"rental_uris":{"android":"levelo://app?vid=f0e0f650-7618-4ada-a966-72539e24b14f","ios":"levelo://app?vid=f0e0f650-7618-4ada-a966-72539e24b14f"},"vehicle_type_id":"4","last_reported":1744913617,"current_range_meters":18800,"station_id":"ce4bhg12rcd13ifvqf80","pricing_plan_id":"cebpf4jnsgd1na2vs0mg"},{"bike_id":"b1ef82b0-7a77-4486-8ec7-83765358e14a","system_id":"levelo_inurba_marseille","lat":43.29042,"lon":5.38645,"is_reserved":false,"is_disabled":true,"rental_uris":{"android":"levelo://app?vid=b1ef82b0-7a77-4486-8ec7-83765358e14a","ios":"levelo://app?vid=b1ef82b0-7a77-4486-8ec7-83765358e14a"},"vehicle_type_id":"4","last_reported":1744913617,"current_range_meters":18800,"station_id":"ce4bh4p2rcd13ifvqe0g","pricing_plan_id":"cebpf4jnsgd1na2vs0mg"},{"bike_id":"68342d9f-f0b6-47e7-b690-b27078e67a77","system_id":"levelo_inurba_marseille","lat":43.24165,"lon":5.36394,"is_reserved":false,"is_disabled":false,"rental_uris":{"android":"levelo://app?vid=68342d9f-f0b6-47e7-b690-b27078e67a77","ios":"levelo://app?vid=68342d9f-f0b6-47e7-b690-b27078e67a77"},"vehicle_type_id":"4","last_reported":1744913617,"current_range_meters":18800,"station_id":"cpo36qri1sfpv3e86is0","pricing_plan_id":"cebpf4jnsgd1na2vs0mg"},{"bike_id":"f332932e-b174-483a-8274-751626cfe4bb","system_id":"levelo_inurba_marseille","lat":43.28008,"lon":5.40035,"is_reserved":false,"is_disabled":false,"rental_uris":{"android":"levelo://app?vid=f332932e-b174-483a-8274-751626cfe4bb","ios":"levelo://app?vid=f332932e-b174-483a-8274-751626cfe4bb"},"vehicle_type_id":"4","last_reported":1744913617,"current_range_meters":18800,"station_id":"ce4bho92rcd13ifvqh4g","pricing_plan_id":"cebpf4jnsgd1na2vs0mg"},{"bike_id":"1eae06a0-1762-4e76-8997-af8f05f64b63","system_id":"levelo_inurba_marseille","lat":43.31075,"lon":5.3836,"is_reserved":false,"is_disabled":false,"rental_uris":{"android":"levelo://app?vid=1eae06a0-1762-4e76-8997-af8f05f64b63","ios":"levelo://app?vid=1eae06a0-1762-4e76-8997-af8f05f64b63"},"vehicle_type_id":"4","last_reported":1744913617,"current_range_meters":18800,"station_id":"ce4bgv92rcd13ifvqcr0","pricing_plan_id":"cebpf4jnsgd1na2vs0mg"},{"bike_id":"3910a374-2199-4e97-a483-65b2cd02ef4b","system_id":"levelo_inurba_marseille","lat":43.29289,"lon":5.38446,"is_reserved":false,"is_disabled":false,"rental_uris":{"android":"levelo://app?vid=3910a374-2199-4e97-a483-65b2cd02ef4b","ios":"levelo://app?vid=3910a374-2199-4e97-a483-65b2cd02ef4b"},"vehicle_type_id":"4","last_reported":1744913617,"current_range_meters":18800,"station_id":"ce4bh692rcd13ifvqea0","pricing_plan_id":"cebpf4jnsgd1na2vs0mg"},{"bike_id":"789c3822-56ca-4769-bcd4-8845bdea2fda","system_id":"levelo_inurba_marseille","lat":43.24162,"lon":5.36404,"is_reserved":false,"is_disabled":false,"rental_uris":{"android":"levelo://app?vid=789c3822-56ca-4769-bcd4-8845bdea2fda","ios":"levelo://app?vid=789c3822-56ca-4769-bcd4-8845bdea2fda"},"vehicle_type_id":"4","last_reported":1744913617,"current_range_meters":18800,"station_id":"cpo36qri1sfpv3e86is0","pricing_plan_id":"cebpf4jnsgd1na2vs0mg"},{"bike_id":"6e24b769-fafe-416b-9978-7dcd840dee30","system_id":"levelo_inurba_marseille","lat":43.29306,"lon":5.37166,"is_reserved":false,"is_disabled":false,"rental_uris":{"android":"levelo://app?vid=6e24b769-fafe-416b-9978-7dcd840dee30","ios":"levelo://app?vid=6e24b769-fafe-416b-9978-7dcd840dee30"},"vehicle_type_id":"4","last_reported":1744913617,"current_range_meters":18800,"station_id":"ce4bgh92rcd13ifvqb40","pricing_plan_id":"cebpf4jnsgd1na2vs0mg"},{"bike_id":"85ac49b9-718c-4937-ab2a-8e998e69b6ca","system_id":"levelo_inurba_marseille","lat":43.24389,"lon":5.37073,"is_reserved":false,"is_disabled":false,"rental_uris":{"android":"levelo://app?vid=85ac49b9-718c-4937-ab2a-8e998e69b6ca","ios":"levelo://app?vid=85ac49b9-718c-4937-ab2a-8e998e69b6ca"},"vehicle_type_id":"4","last_reported":1744913617,"current_range_meters":18800,"station_id":"ce4bhhh2rcd13ifvqfk0","pricing_plan_id":"cebpf4jnsgd1na2vs0mg"},{"bike_id":"4c05fc04-5a3e-4846-ae6c-06609c17f5be","system_id":"levelo_inurba_marseille","lat":43.26226,"lon":5.4045,"is_reserved":false,"is_disabled":false,"rental_uris":{"android":"levelo://app?vid=4c05fc04-5a3e-4846-ae6c-06609c17f5be","ios":"levelo://app?vid=4c05fc04-5a3e-4846-ae6c-06609c17f5be"},"vehicle_type_id":"4","last_reported":1744913617,"current_range_meters":18800,"station_id":"ce4bhmh2rcd13ifvqgmg","pricing_plan_id":"cebpf4jnsgd1na2vs0mg"},{"bike_id":"f9d3fbe6-73e5-424e-af02-f446d5b07152","system_id":"levelo_inurba_marseille","lat":43.2175,"lon":5.34632,"is_reserved":false,"is_disabled":false,"rental_uris":{"android":"levelo://app?vid=f9d3fbe6-73e5-424e-af02-f446d5b07152","ios":"levelo://app?vid=f9d3fbe6-73e5-424e-af02-f446d5b07152"},"vehicle_type_id":"4","last_reported":1744913617,"current_range_meters":18800,"station_id":"st_cvj6r9ubvosntc0bgbag","pricing_plan_id":"cebpf4jnsgd1na2vs0mg"},{"bike_id":"3fd528ef-d5b3-4789-aaf2-84f47952b936","system_id":"levelo_inurba_marseille","lat":43.29847,"lon":5.36283,"is_reserved":false,"is_disabled":false,"rental_uris":{"android":"levelo://app?vid=3fd528ef-d5b3-4789-aaf2-84f47952b936","ios":"levelo://app?vid=3fd528ef-d5b3-4789-aaf2-84f47952b936"},"vehicle_type_id":"4","last_reported":1744913617,"current_range_meters":19200,"station_id":"ce4bgpp2rcd13ifvqc3g","pricing_plan_id":"cebpf4jnsgd1na2vs0mg"},{"bike_id":"782d740b-7733-4ae7-b7ff-e87d2f954865","system_id":"levelo_inurba_marseille","lat":43.31527,"lon":5.3803,"is_reserved":false,"is_disabled":false,"rental_uris":{"android":"levelo://app?vid=782d740b-7733-4ae7-b7ff-e87d2f954865","ios":"levelo://app?vid=782d740b-7733-4ae7-b7ff-e87d2f954865"},"vehicle_type_id":"4","last_reported":1744913617,"current_range_meters":19200,"station_id":"ce4bhsp2rcd13ifvqi50","pricing_plan_id":"cebpf4jnsgd1na2vs0mg"},{"bike_id":"7877aa13-8a12-468e-895f-ab0928240523","system_id":"levelo_inurba_marseille","lat":43.28406,"lon":5.37534,"is_reserved":false,"is_disabled":false,"rental_uris":{"android":"levelo://app?vid=7877aa13-8a12-468e-895f-ab0928240523","ios":"levelo://app?vid=7877aa13-8a12-468e-895f-ab0928240523"},"vehicle_type_id":"4","last_reported":1744913617,"current_range_meters":19200,"station_id":"ce4bh412rcd13ifvqds0","pricing_plan_id":"cebpf4jnsgd1na2vs0mg"},{"bike_id":"fa29827a-4d46-4789-9a59-bb974f69bf9b","system_id":"levelo_inurba_marseille","lat":43.24806,"lon":5.37457,"is_reserved":false,"is_disabled":false,"rental_uris":{"android":"levelo://app?vid=fa29827a-4d46-4789-9a59-bb974f69bf9b","ios":"levelo://app?vid=fa29827a-4d46-4789-9a59-bb974f69bf9b"},"vehicle_type_id":"4","last_reported":1744913617,"current_range_meters":19200,"station_id":"ce4bhgh2rcd13ifvqfb0","pricing_plan_id":"cebpf4jnsgd1na2vs0mg"},{"bike_id":"bef8b381-82c5-4642-8eff-fc9e5c026bfe","system_id":"levelo_inurba_marseille","lat":43.30593,"lon":5.39359,"is_reserved":false,"is_disabled":false,"rental_uris":{"android":"levelo://app?vid=bef8b381-82c5-4642-8eff-fc9e5c026bfe","ios":"levelo://app?vid=bef8b381-82c5-4642-8eff-fc9e5c026bfe"},"vehicle_type_id":"4","last_reported":1744913617,"current_range_meters":19200,"station_id":"ce4bh0p2rcd13ifvqd80","pricing_plan_id":"cebpf4jnsgd1na2vs0mg"},{"bike_id":"6f2557eb-0d5a-4485-9266-3e00d4394830","system_id":"levelo_inurba_marseille","lat":43.2929,"lon":5.37434,"is_reserved":false,"is_disabled":false,"rental_uris":{"android":"levelo://app?vid=6f2557eb-0d5a-4485-9266-3e00d4394830","ios":"levelo://app?vid=6f2557eb-0d5a-4485-9266-3e00d4394830"},"vehicle_type_id":"4","last_reported":1744913617,"current_range_meters":19200,"station_id":"ce4bgi12rcd13ifvqb70","pricing_plan_id":"cebpf4jnsgd1na2vs0mg"},{"bike_id":"2bacea3f-0614-416e-9520-b63b25e8e44c","system_id":"levelo_inurba_marseille","lat":43.29417,"lon":5.386254,"is_reserved":false,"is_disabled":false,"rental_uris":{"android":"levelo://app?vid=2bacea3f-0614-416e-9520-b63b25e8e44c","ios":"levelo://app?vid=2bacea3f-0614-416e-9520-b63b25e8e44c"},"vehicle_type_id":"4","last_reported":1744913617,"current_range_meters":19200,"station_id":"ce4bh2h2rcd13ifvqdh0","pricing_plan_id":"cebpf4jnsgd1na2vs0mg"},{"bike_id":"eb665c2d-92c3-454e-ac5f-057a0c59722f","system_id":"levelo_inurba_marseille","lat":43.25751,"lon":5.41127,"is_reserved":false,"is_disabled":false,"rental_uris":{"android":"levelo://app?vid=eb665c2d-92c3-454e-ac5f-057a0c59722f","ios":"levelo://app?vid=eb665c2d-92c3-454e-ac5f-057a0c59722f"},"vehicle_type_id":"4","last_reported":1744913617,"current_range_meters":19200,"station_id":"ce4bhkp2rcd13ifvqgd0","pricing_plan_id":"cebpf4jnsgd1na2vs0mg"},{"bike_id":"fd48b57a-e9eb-405b-b049-ce75c69b46c9","system_id":"levelo_inurba_marseille","lat":43.29006,"lon":5.3561,"is_reserved":false,"is_disabled":false,"rental_uris":{"android":"levelo://app?vid=fd48b57a-e9eb-405b-b049-ce75c69b46c9","ios":"levelo://app?vid=fd48b57a-e9eb-405b-b049-ce75c69b46c9"},"vehicle_type_id":"4","last_reported":1744913617,"current_range_meters":19200,"station_id":"ce4bhb92rcd13ifvqen0","pricing_plan_id":"cebpf4jnsgd1na2vs0mg"},{"bike_id":"ecd9b5fe-4b17-4d30-a270-9ff21e0a9ad2","system_id":"levelo_inurba_marseille","lat":43.2418,"lon":5.36405,"is_reserved":false,"is_disabled":false,"rental_uris":{"android":"levelo://app?vid=ecd9b5fe-4b17-4d30-a270-9ff21e0a9ad2","ios":"levelo://app?vid=ecd9b5fe-4b17-4d30-a270-9ff21e0a9ad2"},"vehicle_type_id":"4","last_reported":1744913617,"current_range_meters":19200,"station_id":"cpo36qri1sfpv3e86is0","pricing_plan_id":"cebpf4jnsgd1na2vs0mg"},{"bike_id":"cc937bc8-27c1-44e9-a469-8b24e9cfd941","system_id":"levelo_inurba_marseille","lat":43.29882,"lon":5.36286,"is_reserved":false,"is_disabled":false,"rental_uris":{"android":"levelo://app?vid=cc937bc8-27c1-44e9-a469-8b24e9cfd941","ios":"levelo://app?vid=cc937bc8-27c1-44e9-a469-8b24e9cfd941"},"vehicle_type_id":"4","last_reported":1744913617,"current_range_meters":19600,"station_id":"ce4bgpp2rcd13ifvqc3g","pricing_plan_id":"cebpf4jnsgd1na2vs0mg"},{"bike_id":"3efba3c6-091f-42f0-a6b1-6019d320c613","system_id":"levelo_inurba_marseille","lat":43.3043,"lon":5.39725,"is_reserved":false,"is_disabled":true,"rental_uris":{"android":"levelo://app?vid=3efba3c6-091f-42f0-a6b1-6019d320c613","ios":"levelo://app?vid=3efba3c6-091f-42f0-a6b1-6019d320c613"},"vehicle_type_id":"4","last_reported":1744913617,"current_range_meters":19600,"station_id":"ce4bh092rcd13ifvqd20","pricing_plan_id":"cebpf4jnsgd1na2vs0mg"},{"bike_id":"d0c391d8-8b9b-440c-b68b-1528bb943556","system_id":"levelo_inurba_marseille","lat":43.28413,"lon":5.34998,"is_reserved":false,"is_disabled":false,"rental_uris":{"android":"levelo://app?vid=d0c391d8-8b9b-440c-b68b-1528bb943556","ios":"levelo://app?vid=d0c391d8-8b9b-440c-b68b-1528bb943556"},"vehicle_type_id":"4","last_reported":1744913617,"current_range_meters":19600,"station_id":"ce4bhbh2rcd13ifvqepg","pricing_plan_id":"cebpf4jnsgd1na2vs0mg"},{"bike_id":"07b96fa7-3074-4ee9-a4ac-7a20632a47b6","system_id":"levelo_inurba_marseille","lat":43.29001,"lon":5.35631,"is_reserved":false,"is_disabled":false,"rental_uris":{"android":"levelo://app?vid=07b96fa7-3074-4ee9-a4ac-7a20632a47b6","ios":"levelo://app?vid=07b96fa7-3074-4ee9-a4ac-7a20632a47b6"},"vehicle_type_id":"4","last_reported":1744913617,"current_range_meters":19600,"station_id":"ce4bhb92rcd13ifvqen0","pricing_plan_id":"cebpf4jnsgd1na2vs0mg"},{"bike_id":"5602e25b-b6d1-4029-9b61-4770f34bc1ea","system_id":"levelo_inurba_marseille","lat":43.24115,"lon":5.37762,"is_reserved":false,"is_disabled":false,"rental_uris":{"android":"levelo://app?vid=5602e25b-b6d1-4029-9b61-4770f34bc1ea","ios":"levelo://app?vid=5602e25b-b6d1-4029-9b61-4770f34bc1ea"},"vehicle_type_id":"4","last_reported":1744913617,"current_range_meters":19600,"station_id":"ce4bhnp2rcd13ifvqgvg","pricing_plan_id":"cebpf4jnsgd1na2vs0mg"},{"bike_id":"cae77720-4e05-43c1-81a7-1ef3c41feaeb","system_id":"levelo_inurba_marseille","lat":43.32112,"lon":5.36772,"is_reserved":false,"is_disabled":false,"rental_uris":{"android":"levelo://app?vid=cae77720-4e05-43c1-81a7-1ef3c41feaeb","ios":"levelo://app?vid=cae77720-4e05-43c1-81a7-1ef3c41feaeb"},"vehicle_type_id":"4","last_reported":1744913617,"current_range_meters":19600,"station_id":"ce4bhrh2rcd13ifvqhug","pricing_plan_id":"cebpf4jnsgd1na2vs0mg"},{"bike_id":"1f4520e3-87e9-4526-b289-4f9d45f13aa7","system_id":"levelo_inurba_marseille","lat":43.28628,"lon":5.37086,"is_reserved":false,"is_disabled":false,"rental_uris":{"android":"levelo://app?vid=1f4520e3-87e9-4526-b289-4f9d45f13aa7","ios":"levelo://app?vid=1f4520e3-87e9-4526-b289-4f9d45f13aa7"},"vehicle_type_id":"4","last_reported":1744913617,"current_range_meters":19600,"station_id":"ce4bht12rcd13ifvqi60","pricing_plan_id":"cebpf4jnsgd1na2vs0mg"},{"bike_id":"5a250938-a547-47a9-bfd0-3ef65b1f46a8","system_id":"levelo_inurba_marseille","lat":43.29052,"lon":5.35899,"is_reserved":false,"is_disabled":false,"rental_uris":{"android":"levelo://app?vid=5a250938-a547-47a9-bfd0-3ef65b1f46a8","ios":"levelo://app?vid=5a250938-a547-47a9-bfd0-3ef65b1f46a8"},"vehicle_type_id":"4","last_reported":1744913617,"current_range_meters":19200,"station_id":"ce4bha92rcd13ifvqeg0","pricing_plan_id":"cebpf4jnsgd1na2vs0mg"},{"bike_id":"a4e79fb8-2c38-4b76-aa7c-44db97b37522","system_id":"levelo_inurba_marseille","lat":43.29521,"lon":5.39044,"is_reserved":false,"is_disabled":false,"rental_uris":{"android":"levelo://app?vid=a4e79fb8-2c38-4b76-aa7c-44db97b37522","ios":"levelo://app?vid=a4e79fb8-2c38-4b76-aa7c-44db97b37522"},"vehicle_type_id":"4","last_reported":1744913617,"current_range_meters":20000,"station_id":"ce4bh3p2rcd13ifvqdp0","pricing_plan_id":"cebpf4jnsgd1na2vs0mg"},{"bike_id":"8ecf4e01-d2fb-40fe-8ca8-cc87934d5b6e","system_id":"levelo_inurba_marseille","lat":43.25036,"lon":5.38921,"is_reserved":false,"is_disabled":false,"rental_uris":{"android":"levelo://app?vid=8ecf4e01-d2fb-40fe-8ca8-cc87934d5b6e","ios":"levelo://app?vid=8ecf4e01-d2fb-40fe-8ca8-cc87934d5b6e"},"vehicle_type_id":"4","last_reported":1744913617,"current_range_meters":20000,"station_id":"ce4bhgp2rcd13ifvqfd0","pricing_plan_id":"cebpf4jnsgd1na2vs0mg"},{"bike_id":"18f21c6c-ed57-4942-bf13-db101b731b19","system_id":"levelo_inurba_marseille","lat":43.29406,"lon":5.3862,"is_reserved":false,"is_disabled":false,"rental_uris":{"android":"levelo://app?vid=18f21c6c-ed57-4942-bf13-db101b731b19","ios":"levelo://app?vid=18f21c6c-ed57-4942-bf13-db101b731b19"},"vehicle_type_id":"4","last_reported":1744913617,"current_range_meters":20000,"station_id":"ce4bh2h2rcd13ifvqdh0","pricing_plan_id":"cebpf4jnsgd1na2vs0mg"},{"bike_id":"f1d513e7-93f2-472b-b840-4c42490aad95","system_id":"levelo_inurba_marseille","lat":43.24171,"lon":5.36391,"is_reserved":false,"is_disabled":false,"rental_uris":{"android":"levelo://app?vid=f1d513e7-93f2-472b-b840-4c42490aad95","ios":"levelo://app?vid=f1d513e7-93f2-472b-b840-4c42490aad95"},"vehicle_type_id":"4","last_reported":1744913617,"current_range_meters":20000,"station_id":"cpo36qri1sfpv3e86is0","pricing_plan_id":"cebpf4jnsgd1na2vs0mg"},{"bike_id":"81978459-3408-4c6d-86e2-7ce850b8cad3","system_id":"levelo_inurba_marseille","lat":43.29977,"lon":5.38493,"is_reserved":false,"is_disabled":false,"rental_uris":{"android":"levelo://app?vid=81978459-3408-4c6d-86e2-7ce850b8cad3","ios":"levelo://app?vid=81978459-3408-4c6d-86e2-7ce850b8cad3"},"vehicle_type_id":"4","last_reported":1744913617,"current_range_meters":20000,"station_id":"ce4bgj92rcd13ifvqbd0","pricing_plan_id":"cebpf4jnsgd1na2vs0mg"},{"bike_id":"5db7c5ab-73d5-47e4-9713-3ef31de4325c","system_id":"levelo_inurba_marseille","lat":43.30809,"lon":5.37334,"is_reserved":false,"is_disabled":false,"rental_uris":{"android":"levelo://app?vid=5db7c5ab-73d5-47e4-9713-3ef31de4325c","ios":"levelo://app?vid=5db7c5ab-73d5-47e4-9713-3ef31de4325c"},"vehicle_type_id":"4","last_reported":1744913617,"current_range_meters":20400,"station_id":"","pricing_plan_id":"cebpf4jnsgd1na2vs0mg"},