{"last_updated":1743887291,"ttl":60,"version":"2.2","data":{"bikes":[{"bike_id":"635725c6-1e25-4bf5-afe8-428858730378","system_id":"levelo_inurba_marseille","lat":43.26551,"lon":5.3905,"is_reserved":false,"is_disabled":false,"rental_uris":{"android":"levelo://app?vid=635725c6-1e25-4bf5-afe8-428858730378","ios":"levelo://app?vid=635725c6-1e25-4bf5-afe8-428858730378"},"vehicle_type_id":"4","last_reported":1743887291,"current_range_meters":2800,"station_id":"ce4bhe12rcd13ifvqf30","pricing_plan_id":"cebpf4jnsgd1na2vs0mg"},{"bike_id":"476f1fe5-e6d8-4df2-9217-867dc96ea041","system_id":"levelo_inurba_marseille","lat":43.28442,"lon":5.39178,"is_reserved":false,"is_disabled":false,"rental_uris":{"android":"levelo://app?vid=476f1fe5-e6d8-4df2-9217-867dc96ea041","ios":"levelo://app?vid=476f1fe5-e6d8-4df2-9217-867dc96ea041"},"vehicle_type_id":"4","last_reported":1743887291,"current_range_meters":2800,"station_id":"ce4bhoh2rcd13ifvqh5g","pricing_plan_id":"cebpf4jnsgd1na2vs0mg"},{"bike_id":"c450ef08-e212-49f1-80d8-0c7d3dfd83d9","system_id":"levelo_inurba_marseille","lat":43.24668,"lon":5.40116,"is_reserved":false,"is_disabled":false,"rental_uris":{"android":"levelo://app?vid=c450ef08-e212-49f1-80d8-0c7d3dfd83d9","ios":"levelo://app?vid=c450ef08-e212-49f1-80d8-0c7d3dfd83d9"},"vehicle_type_id":"4","last_reported":1743887291,"current_range_meters":2800,"station_id":"","pricing_plan_id":"cebpf4jnsgd1na2vs0mg"},{"bike_id":"2dd2ca3d-4991-4739-a46f-831a32895452","system_id":"levelo_inurba_marseille","lat":43.29114,"lon":5.35564,"is_reserved":false,"is_disabled":true,"rental_uris":{"android":"levelo://app?vid=2dd2ca3d-4991-4739-a46f-831a32895452","ios":"levelo://app?vid=2dd2ca3d-4991-4739-a46f-831a32895452"},"vehicle_type_id":"4","last_reported":1743887291,"current_range_meters":2800,"station_id":"","pricing_plan_id":"cebpf4jnsgd1na2vs0mg"},{"bike_id":"d2cad865-9482-4d47-b6ac-d930ad5fc231","system_id":"levelo_inurba_marseille","lat":43.26506,"lon":5.3954,"is_reserved":false,"is_disabled":false,"rental_uris":{"android":"levelo://app?vid=d2cad865-9482-4d47-b6ac-d930ad5fc231","ios":"levelo://app?vid=d2cad865-9482-4d47-b6ac-d930ad5fc231"},"vehicle_type_id":"4","last_reported":1743887291,"current_range_meters":2800,"station_id":"ce4bhi12rcd13ifvqfq0","pricing_plan_id":"cebpf4jnsgd1na2vs0mg"},{"bike_id":"a9d57c7d-b934-4b16-8e57-353e5bfbda8a","system_id":"levelo_inurba_marseille","lat":43.27172,"lon":5.40989,"is_reserved":false,"is_disabled":false,"rental_uris":{"android":"levelo://app?vid=a9d57c7d-b934-4b16-8e57-353e5bfbda8a","ios":"levelo://app?vid=a9d57c7d-b934-4b16-8e57-353e5bfbda8a"},"vehicle_type_id":"4","last_reported":1743887291,"current_range_meters":2800,"station_id":"ce4bhl12rcd13ifvqgf0","pricing_plan_id":"cebpf4jnsgd1na2vs0mg"},{"bike_id":"7b858873-3ffb-4dcc-8815-157571c6f534","system_id":"levelo_inurba_marseille","lat":43.29784,"lon":5.38118,"is_reserved":false,"is_disabled":true,"rental_uris":{"android":"levelo://app?vid=7b858873-3ffb-4dcc-8815-157571c6f534","ios":"levelo://app?vid=7b858873-3ffb-4dcc-8815-157571c6f534"},"vehicle_type_id":"4","last_reported":1743887291,"current_range_meters":2800,"station_id":"ce4bgip2rcd13ifvqbb0","pricing_plan_id":"cebpf4jnsgd1na2vs0mg"},{"bike_id":"225846bc-4bf9-4d12-8d25-5bfe9ef88a4d","system_id":"levelo_inurba_marseille","lat":43.29794,"lon":5.38085,"is_reserved":false,"is_disabled":false,"rental_uris":{"android":"levelo://app?vid=225846bc-4bf9-4d12-8d25-5bfe9ef88a4d","ios":"levelo://app?vid=225846bc-4bf9-4d12-8d25-5bfe9ef88a4d"},"vehicle_type_id":"4","last_reported":1743887291,"current_range_meters":2800,"station_id":"ce4bgip2rcd13ifvqbb0","pricing_plan_id":"cebpf4jnsgd1na2vs0mg"},{"bike_id":"ec4c7057-f0ea-47ac-b573-6bcf329e341d","system_id":"levelo_inurba_marseille","lat":43.294196,"lon":5.386257,"is_reserved":false,"is_disabled":false,"rental_uris":{"android":"levelo://app?vid=ec4c7057-f0ea-47ac-b573-6bcf329e341d","ios":"levelo://app?vid=ec4c7057-f0ea-47ac-b573-6bcf329e341d"},"vehicle_type_id":"4","last_reported":1743887291,"current_range_meters":3200,"station_id":"ce4bhbh2rcd13ifvqeo0","pricing_plan_id":"cebpf4jnsgd1na2vs0mg"},{"bike_id":"96bf19ee-f9ba-4b2d-a612-acab51dfeaca","system_id":"levelo_inurba_marseille","lat":43.30251,"lon":5.40058,"is_reserved":false,"is_disabled":false,"rental_uris":{"android":"levelo://app?vid=96bf19ee-f9ba-4b2d-a612-acab51dfeaca","ios":"levelo://app?vid=96bf19ee-f9ba-4b2d-a612-acab51dfeaca"},"vehicle_type_id":"4","last_reported":1743887291,"current_range_meters":3600,"station_id":"ce4bgvh2rcd13ifvqcs0","pricing_plan_id":"cebpf4jnsgd1na2vs0mg"},{"bike_id":"a3d23492-0974-4180-8ba5-f4ee53117284","system_id":"levelo_inurba_marseille","lat":43.2795,"lon":5.4105,"is_reserved":false,"is_disabled":false,"rental_uris":{"android":"levelo://app?vid=a3d23492-0974-4180-8ba5-f4ee53117284","ios":"levelo://app?vid=a3d23492-0974-4180-8ba5-f4ee53117284"},"vehicle_type_id":"4","last_reported":1743887291,"current_range_meters":4000,"station_id":"ce4bhnp2rcd13ifvqh0g","pricing_plan_id":"cebpf4jnsgd1na2vs0mg"},{"bike_id":"90c9a786-af01-4c75-a783-41c80bf2275e","system_id":"levelo_inurba_marseille","lat":43.28929,"lon":5.36631,"is_reserved":false,"is_disabled":false,"rental_uris":{"android":"levelo://app?vid=90c9a786-af01-4c75-a783-41c80bf2275e","ios":"levelo://app?vid=90c9a786-af01-4c75-a783-41c80bf2275e"},"vehicle_type_id":"4","last_reported":1743887291,"current_range_meters":4000,"station_id":"ce4bhap2rcd13ifvqek0","pricing_plan_id":"cebpf4jnsgd1na2vs0mg"},{"bike_id":"53d33f80-5bd2-453a-b100-79f259c5f04c","system_id":"levelo_inurba_marseille","lat":43.29796,"lon":5.37121,"is_reserved":false,"is_disabled":false,"rental_uris":{"android":"levelo://app?vid=53d33f80-5bd2-453a-b100-79f259c5f04c","ios":"levelo://app?vid=53d33f80-5bd2-453a-b100-79f259c5f04c"},"vehicle_type_id":"4","last_reported":1743887291,"current_range_meters":4000,"station_id":"ce4bgop2rcd13ifvqc1g","pricing_plan_id":"cebpf4jnsgd1na2vs0mg"},{"bike_id":"bfb5803f-ab44-4d85-84ef-00da06e80038","system_id":"levelo_inurba_marseille","lat":43.31063,"lon":5.38355,"is_reserved":false,"is_disabled":false,"rental_uris":{"android":"levelo://app?vid=bfb5803f-ab44-4d85-84ef-00da06e80038","ios":"levelo://app?vid=bfb5803f-ab44-4d85-84ef-00da06e80038"},"vehicle_type_id":"4","last_reported":1743887291,"current_range_meters":4400,"station_id":"ce4bgv92rcd13ifvqcr0","pricing_plan_id":"cebpf4jnsgd1na2vs0mg"},{"bike_id":"900cc1f8-7651-4113-8058-69adfe25a0d3","system_id":"levelo_inurba_marseille","lat":43.2988,"lon":5.37452,"is_reserved":false,"is_disabled":false,"rental_uris":{"android":"levelo://app?vid=900cc1f8-7651-4113-8058-69adfe25a0d3","ios":"levelo://app?vid=900cc1f8-7651-4113-8058-69adfe25a0d3"},"vehicle_type_id":"4","last_reported":1743887291,"current_range_meters":4400,"station_id":"","pricing_plan_id":"cebpf4jnsgd1na2vs0mg"},{"bike_id":"b38a7d58-0fe8-412e-9838-e019085f6e1b","system_id":"levelo_inurba_marseille","lat":43.29095,"lon":5.37159,"is_reserved":false,"is_disabled":false,"rental_uris":{"android":"levelo://app?vid=b38a7d58-0fe8-412e-9838-e019085f6e1b","ios":"levelo://app?vid=b38a7d58-0fe8-412e-9838-e019085f6e1b"},"vehicle_type_id":"4","last_reported":1743887291,"current_range_meters":4400,"station_id":"ce4bh5p2rcd13ifvqe4g","pricing_plan_id":"cebpf4jnsgd1na2vs0mg"},{"bike_id":"fc178cc9-fe10-4349-9b86-fdb5fdcc72cd","system_id":"levelo_inurba_marseille","lat":43.28934,"lon":5.36637,"is_reserved":false,"is_disabled":false,"rental_uris":{"android":"levelo://app?vid=fc178cc9-fe10-4349-9b86-fdb5fdcc72cd","ios":"levelo://app?vid=fc178cc9-fe10-4349-9b86-fdb5fdcc72cd"},"vehicle_type_id":"4","last_reported":1743887291,"current_range_meters":4400,"station_id":"ce4bhap2rcd13ifvqek0","pricing_plan_id":"cebpf4jnsgd1na2vs0mg"},{"bike_id":"037a3688-1113-4c7f-803b-25f60b7d4e3b","system_id":"levelo_inurba_marseille","lat":43.24801,"lon":5.37457,"is_reserved":false,"is_disabled":false,"rental_uris":{"android":"levelo://app?vid=037a3688-1113-4c7f-803b-25f60b7d4e3b","ios":"levelo://app?vid=037a3688-1113-4c7f-803b-25f60b7d4e3b"},"vehicle_type_id":"4","last_reported":1743887291,"current_range_meters":4800,"station_id":"ce4bhgh2rcd13ifvqfb0","pricing_plan_id":"cebpf4jnsgd1na2vs0mg"},{"bike_id":"b991118a-b3fd-4081-a6c6-23b69168496a","system_id":"levelo_inurba_marseille","lat":43.21749,"lon":5.34597,"is_reserved":false,"is_disabled":true,"rental_uris":{"android":"levelo://app?vid=b991118a-b3fd-4081-a6c6-23b69168496a","ios":"levelo://app?vid=b991118a-b3fd-4081-a6c6-23b69168496a"},"vehicle_type_id":"4","last_reported":1743887291,"current_range_meters":4800,"station_id":"st_cvj6r9ubvosntc0bgbag","pricing_plan_id":"cebpf4jnsgd1na2vs0mg"},{"bike_id":"65f0f0b4-54bc-4b5d-b148-2e165a19c387","system_id":"levelo_inurba_marseille","lat":43.31261,"lon":5.4017,"is_reserved":false,"is_disabled":false,"rental_uris":{"android":"levelo://app?vid=65f0f0b4-54bc-4b5d-b148-2e165a19c387","ios":"levelo://app?vid=65f0f0b4-54bc-4b5d-b148-2e165a19c387"},"vehicle_type_id":"4","last_reported":1743887291,"current_range_meters":4800,"station_id":"ce4bh092rcd13ifvqd30","pricing_plan_id":"cebpf4jnsgd1na2vs0mg"},{"bike_id":"50297066-959d-45c5-a71e-b062cc3724ec","system_id":"levelo_inurba_marseille","lat":43.30788,"lon":5.37323,"is_reserved":false,"is_disabled":false,"rental_uris":{"android":"levelo://app?vid=50297066-959d-45c5-a71e-b062cc3724ec","ios":"levelo://app?vid=50297066-959d-45c5-a71e-b062cc3724ec"},"vehicle_type_id":"4","last_reported":1743887291,"current_range_meters":4800,"station_id":"","pricing_plan_id":"cebpf4jnsgd1na2vs0mg"},{"bike_id":"bc9f6be4-fbe7-4bf0-9acc-d6204452afca","system_id":"levelo_inurba_marseille","lat":43.3113,"lon":5.37764,"is_reserved":false,"is_disabled":false,"rental_uris":{"android":"levelo://app?vid=bc9f6be4-fbe7-4bf0-9acc-d6204452afca","ios":"levelo://app?vid=bc9f6be4-fbe7-4bf0-9acc-d6204452afca"},"vehicle_type_id":"4","last_reported":1743887291,"current_range_meters":4800,"station_id":"ce4bgt92rcd13ifvqcg0","pricing_plan_id":"cebpf4jnsgd1na2vs0mg"},{"bike_id":"02dd5f37-e4ce-4efc-9ce6-2776472fc632","system_id":"levelo_inurba_marseille","lat":43.25118,"lon":5.40343,"is_reserved":false,"is_disabled":false,"rental_uris":{"android":"levelo://app?vid=02dd5f37-e4ce-4efc-9ce6-2776472fc632","ios":"levelo://app?vid=02dd5f37-e4ce-4efc-9ce6-2776472fc632"},"vehicle_type_id":"4","last_reported":1743887291,"current_range_meters":4800,"station_id":"ce4bhlh2rcd13ifvqgig","pricing_plan_id":"cebpf4jnsgd1na2vs0mg"},{"bike_id":"2d98fbaf-3767-4072-a84a-ed542a1a04f7","system_id":"levelo_inurba_marseille","lat":43.25112,"lon":5.40319,"is_reserved":false,"is_disabled":false,"rental_uris":{"android":"levelo://app?vid=2d98fbaf-3767-4072-a84a-ed542a1a04f7","ios":"levelo://app?vid=2d98fbaf-3767-4072-a84a-ed542a1a04f7"},"vehicle_type_id":"4","last_reported":1743887291,"current_range_meters":4800,"station_id":"ce4bhlh2rcd13ifvqgig","pricing_plan_id":"cebpf4jnsgd1na2vs0mg"},{"bike_id":"f7f3c388-6278-4229-9095-8583a8534778","system_id":"levelo_inurba_marseille","lat":43.304008,"lon":5.377731,"is_reserved":false,"is_disabled":false,"rental_uris":{"android":"levelo://app?vid=f7f3c388-6278-4229-9095-8583a8534778","ios":"levelo://app?vid=f7f3c388-6278-4229-9095-8583a8534778"},"vehicle_type_id":"4","last_reported":1743887291,"current_range_meters":4800,"station_id":"ce4bhb12rcd13ifvqem0","pricing_plan_id":"cebpf4jnsgd1na2vs0mg"},{"bike_id":"9f11ddad-f9cf-432b-8e0c-b6536f5e7092","system_id":"levelo_inurba_marseille","lat":43.27941,"lon":5.41053,"is_reserved":false,"is_disabled":false,"rental_uris":{"android":"levelo://app?vid=9f11ddad-f9cf-432b-8e0c-b6536f5e7092","ios":"levelo://app?vid=9f11ddad-f9cf-432b-8e0c-b6536f5e7092"},"vehicle_type_id":"4","last_reported":1743887291,"current_range_meters":5600,"station_id":"ce4bhnp2rcd13ifvqh0g","pricing_plan_id":"cebpf4jnsgd1na2vs0mg"},{"bike_id":"77fb35d2-28de-4101-8dd2-278f833d51b4","system_id":"levelo_inurba_marseille","lat":43.30782,"lon":5.37657,"is_reserved":false,"is_disabled":false,"rental_uris":{"android":"levelo://app?vid=77fb35d2-28de-4101-8dd2-278f833d51b4","ios":"levelo://app?vid=77fb35d2-28de-4101-8dd2-278f833d51b4"},"vehicle_type_id":"4","last_reported":1743887291,"current_range_meters":5600,"station_id":"ce4bgv92rcd13ifvqcq0","pricing_plan_id":"cebpf4jnsgd1na2vs0mg"},{"bike_id":"6f3a6914-3c5f-44e7-92b3-61c0f872dcac","system_id":"levelo_inurba_marseille","lat":43.25114,"lon":5.40321,"is_reserved":false,"is_disabled":false,"rental_uris":{"android":"levelo://app?vid=6f3a6914-3c5f-44e7-92b3-61c0f872dcac","ios":"levelo://app?vid=6f3a6914-3c5f-44e7-92b3-61c0f872dcac"},"vehicle_type_id":"4","last_reported":1743887291,"current_range_meters":5600,"station_id":"ce4bhlh2rcd13ifvqgig","pricing_plan_id":"cebpf4jnsgd1na2vs0mg"},{"bike_id":"93ea9c16-7acb-4a84-af54-cf68ede44553","system_id":"levelo_inurba_marseille","lat":43.31166,"lon":5.38721,"is_reserved":false,"is_disabled":false,"rental_uris":{"android":"levelo://app?vid=93ea9c16-7acb-4a84-af54-cf68ede44553","ios":"levelo://app?vid=93ea9c16-7acb-4a84-af54-cf68ede44553"},"vehicle_type_id":"4","last_reported":1743887291,"current_range_meters":5600,"station_id":"ce4bgv12rcd13ifvqcp0","pricing_plan_id":"cebpf4jnsgd1na2vs0mg"},{"bike_id":"c73a85e2-fb2d-4d21-bea0-c717ffa7bb89","system_id":"levelo_inurba_marseille","lat":43.30464,"lon":5.36727,"is_reserved":false,"is_disabled":true,"rental_uris":{"android":"levelo://app?vid=c73a85e2-fb2d-4d21-bea0-c717ffa7bb89","ios":"levelo://app?vid=c73a85e2-fb2d-4d21-bea0-c717ffa7bb89"},"vehicle_type_id":"4","last_reported":1743887291,"current_range_meters":6000,"station_id":"","pricing_plan_id":"cebpf4jnsgd1na2vs0mg"},{"bike_id":"3852bc5d-2a0c-4b6c-8fb4-cc1c0cd9b4fd","system_id":"levelo_inurba_marseille","lat":43.29166,"lon":5.37163,"is_reserved":false,"is_disabled":false,"rental_uris":{"android":"levelo://app?vid=3852bc5d-2a0c-4b6c-8fb4-cc1c0cd9b4fd","ios":"levelo://app?vid=3852bc5d-2a0c-4b6c-8fb4-cc1c0cd9b4fd"},"vehicle_type_id":"4","last_reported":1743887291,"current_range_meters":6000,"station_id":"ce4bha92rcd13ifvqeh0","pricing_plan_id":"cebpf4jnsgd1na2vs0mg"},{"bike_id":"146424eb-ad4b-4294-8e36-7879ac45325f","system_id":"levelo_inurba_marseille","lat":43.29043,"lon":5.37581,"is_reserved":false,"is_disabled":false,"rental_uris":{"android":"levelo://app?vid=146424eb-ad4b-4294-8e36-7879ac45325f","ios":"levelo://app?vid=146424eb-ad4b-4294-8e36-7879ac45325f"},"vehicle_type_id":"4","last_reported":1743887291,"current_range_meters":6000,"station_id":"ce4bh692rcd13ifvqe90","pricing_plan_id":"cebpf4jnsgd1na2vs0mg"},{"bike_id":"43fe2ba1-31d3-42fc-b0e3-8377005f35b2","system_id":"levelo_inurba_marseille","lat":43.29265,"lon":5.37627,"is_reserved":false,"is_disabled":false,"rental_uris":{"android":"levelo://app?vid=43fe2ba1-31d3-42fc-b0e3-8377005f35b2","ios":"levelo://app?vid=43fe2ba1-31d3-42fc-b0e3-8377005f35b2"},"vehicle_type_id":"4","last_reported":1743887291,"current_range_meters":6000,"station_id":"ce4bgi12rcd13ifvqb80","pricing_plan_id":"cebpf4jnsgd1na2vs0mg"},{"bike_id":"81f8279c-ce59-4a6f-9e48-35b3c08a5d17","system_id":"levelo_inurba_marseille","lat":43.26804,"lon":5.40254,"is_reserved":false,"is_disabled":false,"rental_uris":{"android":"levelo://app?vid=81f8279c-ce59-4a6f-9e48-35b3c08a5d17","ios":"levelo://app?vid=81f8279c-ce59-4a6f-9e48-35b3c08a5d17"},"vehicle_type_id":"4","last_reported":1743887291,"current_range_meters":6000,"station_id":"ce501612rcd8frsf0b60","pricing_plan_id":"cebpf4jnsgd1na2vs0mg"},{"bike_id":"95ebc31d-ba2c-4855-9413-141191b5e202","system_id":"levelo_inurba_marseille","lat":43.29217,"lon":5.40162,"is_reserved":false,"is_disabled":true,"rental_uris":{"android":"levelo://app?vid=95ebc31d-ba2c-4855-9413-141191b5e202","ios":"levelo://app?vid=95ebc31d-ba2c-4855-9413-141191b5e202"},"vehicle_type_id":"4","last_reported":1743887291,"current_range_meters":6000,"station_id":"","pricing_plan_id":"cebpf4jnsgd1na2vs0mg"},{"bike_id":"25c634ee-0bb9-4abc-bd46-d14941c874ab","system_id":"levelo_inurba_marseille","lat":43.2953,"lon":5.38542,"is_reserved":false,"is_disabled":false,"rental_uris":{"android":"levelo://app?vid=25c634ee-0bb9-4abc-bd46-d14941c874ab","ios":"levelo://app?vid=25c634ee-0bb9-4abc-bd46-d14941c874ab"},"vehicle_type_id":"4","last_reported":1743887291,"current_range_meters":6400,"station_id":"ce4bgih2rcd13ifvqba0","pricing_plan_id":"cebpf4jnsgd1na2vs0mg"},{"bike_id":"03d5eb58-0181-4bc7-9fdf-aa7f53d0f5d0","system_id":"levelo_inurba_marseille","lat":43.25114,"lon":5.40327,"is_reserved":false,"is_disabled":false,"rental_uris":{"android":"levelo://app?vid=03d5eb58-0181-4bc7-9fdf-aa7f53d0f5d0","ios":"levelo://app?vid=03d5eb58-0181-4bc7-9fdf-aa7f53d0f5d0"},"vehicle_type_id":"4","last_reported":1743887291,"current_range_meters":6400,"station_id":"ce4bhlh2rcd13ifvqgig","pricing_plan_id":"cebpf4jnsgd1na2vs0mg"},{"bike_id":"267eeb16-6453-4fb7-8038-3b408a6bb427","system_id":"levelo_inurba_marseille","lat":43.31416,"lon":5.36976,"is_reserved":false,"is_disabled":false,"rental_uris":{"android":"levelo://app?vid=267eeb16-6453-4fb7-8038-3b408a6bb427","ios":"levelo://app?vid=267eeb16-6453-4fb7-8038-3b408a6bb427"},"vehicle_type_id":"4","last_reported":1743887291,"current_range_meters":10000,"station_id":"","pricing_plan_id":"cebpf4jnsgd1na2vs0mg"},{"bike_id":"54ef9cd1-9398-4ce6-90ff-1753c98aa91e","system_id":"levelo_inurba_marseille","lat":43.3093,"lon":5.40138,"is_reserved":false,"is_disabled":false,"rental_uris":{"android":"levelo://app?vid=54ef9cd1-9398-4ce6-90ff-1753c98aa91e","ios":"levelo://app?vid=54ef9cd1-9398-4ce6-90ff-1753c98aa91e"},"vehicle_type_id":"4","last_reported":1743887291,"current_range_meters":6400,"station_id":"ce4bgvp2rcd13ifvqct0","pricing_plan_id":"cebpf4jnsgd1na2vs0mg"},{"bike_id":"91c1edaf-977d-4632-affd-dc0004bc3721","system_id":"levelo_inurba_marseille","lat":43.27917,"lon":5.39577,"is_reserved":false,"is_disabled":false,"rental_uris":{"android":"levelo://app?vid=91c1edaf-977d-4632-affd-dc0004bc3721","ios":"levelo://app?vid=91c1edaf-977d-4632-affd-dc0004bc3721"},"vehicle_type_id":"4","last_reported":1743887291,"current_range_meters":6400,"station_id":"ce4bhf92rcd13ifvqf40","pricing_plan_id":"cebpf4jnsgd1na2vs0mg"},{"bike_id":"a4d2c98f-6cdc-4d59-a681-294db74d27dd","system_id":"levelo_inurba_marseille","lat":43.29252,"lon":5.38451,"is_reserved":false,"is_disabled":false,"rental_uris":{"android":"levelo://app?vid=a4d2c98f-6cdc-4d59-a681-294db74d27dd","ios":"levelo://app?vid=a4d2c98f-6cdc-4d59-a681-294db74d27dd"},"vehicle_type_id":"4","last_reported":1743887291,"current_range_meters":6400,"station_id":"ce4bh692rcd13ifvqea0","pricing_plan_id":"cebpf4jnsgd1na2vs0mg"},{"bike_id":"c129ecbc-fa81-4169-8f04-cc6466a8fd4b","system_id":"levelo_inurba_marseille","lat":43.29548,"lon":5.42279,"is_reserved":false,"is_disabled":false,"rental_uris":{"android":"levelo://app?vid=c129ecbc-fa81-4169-8f04-cc6466a8fd4b","ios":"levelo://app?vid=c129ecbc-fa81-4169-8f04-cc6466a8fd4b"},"vehicle_type_id":"4","last_reported":1743887291,"current_range_meters":6400,"station_id":"ce4bhph2rcd13ifvqhdg","pricing_plan_id":"cebpf4jnsgd1na2vs0mg"},{"bike_id":"3edf9e14-b6af-44da-bc34-749991055fd4","system_id":"levelo_inurba_marseille","lat":43.29863,"lon":5.39738,"is_reserved":false,"is_disabled":false,"rental_uris":{"android":"levelo://app?vid=3edf9e14-b6af-44da-bc34-749991055fd4","ios":"levelo://app?vid=3edf9e14-b6af-44da-bc34-749991055fd4"},"vehicle_type_id":"4","last_reported":1743887291,"current_range_meters":6400,"station_id":"ce4bh0h2rcd13ifvqd50","pricing_plan_id":"cebpf4jnsgd1na2vs0mg"},{"bike_id":"de50bbab-1368-4da3-a92a-1e482f1dcc12","system_id":"levelo_inurba_marseille","lat":43.29085,"lon":5.3715,"is_reserved":false,"is_disabled":false,"rental_uris":{"android":"levelo://app?vid=de50bbab-1368-4da3-a92a-1e482f1dcc12","ios":"levelo://app?vid=de50bbab-1368-4da3-a92a-1e482f1dcc12"},"vehicle_type_id":"4","last_reported":1743887291,"current_range_meters":6400,"station_id":"ce4bh5p2rcd13ifvqe4g","pricing_plan_id":"cebpf4jnsgd1na2vs0mg"},{"bike_id":"11101b03-02c0-4bb4-a9dc-326497f91f4e","system_id":"levelo_inurba_marseille","lat":43.29258,"lon":5.40912,"is_reserved":false,"is_disabled":true,"rental_uris":{"android":"levelo://app?vid=11101b03-02c0-4bb4-a9dc-326497f91f4e","ios":"levelo://app?vid=11101b03-02c0-4bb4-a9dc-326497f91f4e"},"vehicle_type_id":"4","last_reported":1743887291,"current_range_meters":6400,"station_id":"ce4bh192rcd13ifvqdc0","pricing_plan_id":"cebpf4jnsgd1na2vs0mg"},{"bike_id":"4338caf8-49d1-4a61-93b5-fb08a3d9f264","system_id":"levelo_inurba_marseille","lat":43.29262,"lon":5.38437,"is_reserved":false,"is_disabled":false,"rental_uris":{"android":"levelo://app?vid=4338caf8-49d1-4a61-93b5-fb08a3d9f264","ios":"levelo://app?vid=4338caf8-49d1-4a61-93b5-fb08a3d9f264"},"vehicle_type_id":"4","last_reported":1743887291,"current_range_meters":6400,"station_id":"ce4bh692rcd13ifvqea0","pricing_plan_id":"cebpf4jnsgd1na2vs0mg"},{"bike_id":"20441dc7-dc53-4ae0-9823-3c81cdd5dac5","system_id":"levelo_inurba_marseille","lat":43.27962,"lon":5.41042,"is_reserved":false,"is_disabled":false,"rental_uris":{"android":"levelo://app?vid=20441dc7-dc53-4ae0-9823-3c81cdd5dac5","ios":"levelo://app?vid=20441dc7-dc53-4ae0-9823-3c81cdd5dac5"},"vehicle_type_id":"4","last_reported":1743887291,"current_range_meters":6400,"station_id":"","pricing_plan_id":"cebpf4jnsgd1na2vs0mg"},{"bike_id":"d486c753-0489-4c2c-988c-7dfc9dda183a","system_id":"levelo_inurba_marseille","lat":43.292477,"lon":5.384517,"is_reserved":false,"is_disabled":false,"rental_uris":{"android":"levelo://app?vid=d486c753-0489-4c2c-988c-7dfc9dda183a","ios":"levelo://app?vid=d486c753-0489-4c2c-988c-7dfc9dda183a"},"vehicle_type_id":"4","last_reported":1743887291,"current_range_meters":6400,"station_id":"ce4bh692rcd13ifvqea0","pricing_plan_id":"cebpf4jnsgd1na2vs0mg"},{"bike_id":"2148bd29-323e-49b7-945c-369e0ae50c2c","system_id":"levelo_inurba_marseille","lat":43.29029,"lon":5.38642,"is_reserved":false,"is_disabled":false,"rental_uris":{"android":"levelo://app?vid=2148bd29-323e-49b7-945c-369e0ae50c2c","ios":"levelo://app?vid=2148bd29-323e-49b7-945c-369e0ae50c2c"},"vehicle_type_id":"4","last_reported":1743887291,"current_range_meters":6800,"station_id":"ce4bh4p2rcd13ifvqe0g","pricing_plan_id":"cebpf4jnsgd1na2vs0mg"},{"bike_id":"3f83aad8-3e3b-4d5a-9f28-c15287cc1e10","system_id":"levelo_inurba_marseille","lat":43.28408,"lon":5.37522,"is_reserved":false,"is_disabled":false,"rental_uris":{"android":"levelo://app?vid=3f83aad8-3e3b-4d5a-9f28-c15287cc1e10","ios":"levelo://app?vid=3f83aad8-3e3b-4d5a-9f28-c15287cc1e10"},"vehicle_type_id":"4","last_reported":1743887291,"current_range_meters":6800,"station_id":"ce4bh412rcd13ifvqds0","pricing_plan_id":"cebpf4jnsgd1na2vs0mg"},{"bike_id":"8fa92ff1-c2cb-4fa2-b3ce-e14c12ce1bf4","system_id":"levelo_inurba_marseille","lat":43.28153,"lon":5.42646,"is_reserved":false,"is_disabled":false,"rental_uris":{"android":"levelo://app?vid=8fa92ff1-c2cb-4fa2-b3ce-e14c12ce1bf4","ios":"levelo://app?vid=8fa92ff1-c2cb-4fa2-b3ce-e14c12ce1bf4"},"vehicle_type_id":"4","last_reported":1743887291,"current_range_meters":6800,"station_id":"ce4bhnh2rcd13ifvqgug","pricing_plan_id":"cebpf4jnsgd1na2vs0mg"},{"bike_id":"e7b956ce-2ab2-4301-8fd3-6312d753e8f6","system_id":"levelo_inurba_marseille","lat":43.24644,"lon":5.38163,"is_reserved":false,"is_disabled":true,"rental_uris":{"android":"levelo://app?vid=e7b956ce-2ab2-4301-8fd3-6312d753e8f6","ios":"levelo://app?vid=e7b956ce-2ab2-4301-8fd3-6312d753e8f6"},"vehicle_type_id":"4","last_reported":1743887291,"current_range_meters":6800,"station_id":"ce4bhih2rcd13ifvqfr0","pricing_plan_id":"cebpf4jnsgd1na2vs0mg"},{"bike_id":"783ef245-163c-4c81-b038-df23059b7c57","system_id":"levelo_inurba_marseille","lat":43.310755,"lon":5.383546,"is_reserved":false,"is_disabled":false,"rental_uris":{"android":"levelo://app?vid=783ef245-163c-4c81-b038-df23059b7c57","ios":"levelo://app?vid=783ef245-163c-4c81-b038-df23059b7c57"},"vehicle_type_id":"4","last_reported":1743887291,"current_range_meters":6800,"station_id":"","pricing_plan_id":"cebpf4jnsgd1na2vs0mg"},{"bike_id":"b8ea7543-4f4d-43dd-964e-6d7060acec98","system_id":"levelo_inurba_marseille","lat":43.293,"lon":5.37181,"is_reserved":false,"is_disabled":false,"rental_uris":{"android":"levelo://app?vid=b8ea7543-4f4d-43dd-964e-6d7060acec98","ios":"levelo://app?vid=b8ea7543-4f4d-43dd-964e-6d7060acec98"},"vehicle_type_id":"4","last_reported":1743887291,"current_range_meters":6800,"station_id":"ce4bgh92rcd13ifvqb40","pricing_plan_id":"cebpf4jnsgd1na2vs0mg"},{"bike_id":"05736583-a4df-4140-bff4-80483d983a4a","system_id":"levelo_inurba_marseille","lat":43.30044,"lon":5.39986,"is_reserved":false,"is_disabled":false,"rental_uris":{"android":"levelo://app?vid=05736583-a4df-4140-bff4-80483d983a4a","ios":"levelo://app?vid=05736583-a4df-4140-bff4-80483d983a4a"},"vehicle_type_id":"4","last_reported":1743887291,"current_range_meters":6800,"station_id":"","pricing_plan_id":"cebpf4jnsgd1na2vs0mg"},{"bike_id":"5fe2d280-b6d7-49eb-9cc3-3d3e1f41a97a","system_id":"levelo_inurba_marseille","lat":43.28484,"lon":5.3845,"is_reserved":false,"is_disabled":false,"rental_uris":{"android":"levelo://app?vid=5fe2d280-b6d7-49eb-9cc3-3d3e1f41a97a","ios":"levelo://app?vid=5fe2d280-b6d7-49eb-9cc3-3d3e1f41a97a"},"vehicle_type_id":"4","last_reported":1743887291,"current_range_meters":6800,"station_id":"ce4bh512rcd13ifvqe3g","pricing_plan_id":"cebpf4jnsgd1na2vs0mg"},{"bike_id":"ca519737-f34f-4e55-baab-dc89f354b8df","system_id":"levelo_inurba_marseille","lat":43.30326,"lon":5.40436,"is_reserved":false,"is_disabled":false,"rental_uris":{"android":"levelo://app?vid=ca519737-f34f-4e55-baab-dc89f354b8df","ios":"levelo://app?vid=ca519737-f34f-4e55-baab-dc89f354b8df"},"vehicle_type_id":"4","last_reported":1743887291,"current_range_meters":6800,"station_id":"ce4bh012rcd13ifvqd10","pricing_plan_id":"cebpf4jnsgd1na2vs0mg"},{"bike_id":"f825fa0b-561d-4b58-a029-a279b1a7e45d","system_id":"levelo_inurba_marseille","lat":43.31044,"lon":5.38356,"is_reserved":false,"is_disabled":false,"rental_uris":{"android":"levelo://app?vid=f825fa0b-561d-4b58-a029-a279b1a7e45d","ios":"levelo://app?vid=f825fa0b-561d-4b58-a029-a279b1a7e45d"},"vehicle_type_id":"4","last_reported":1743887291,"current_range_meters":6800,"station_id":"ce4bgv92rcd13ifvqcr0","pricing_plan_id":"cebpf4jnsgd1na2vs0mg"},{"bike_id":"0bce86d9-3b90-4522-9e6c-7e55bb10c6f2","system_id":"levelo_inurba_marseille","lat":43.28921,"lon":5.36617,"is_reserved":false,"is_disabled":false,"rental_uris":{"android":"levelo://app?vid=0bce86d9-3b90-4522-9e6c-7e55bb10c6f2","ios":"levelo://app?vid=0bce86d9-3b90-4522-9e6c-7e55bb10c6f2"},"vehicle_type_id":"4","last_reported":1743887291,"current_range_meters":7200,"station_id":"ce4bhap2rcd13ifvqek0","pricing_plan_id":"cebpf4jnsgd1na2vs0mg"},{"bike_id":"75133a2a-09df-4595-933e-d59bcdf3b01d","system_id":"levelo_inurba_marseille","lat":43.29422,"lon":5.38658,"is_reserved":false,"is_disabled":false,"rental_uris":{"android":"levelo://app?vid=75133a2a-09df-4595-933e-d59bcdf3b01d","ios":"levelo://app?vid=75133a2a-09df-4595-933e-d59bcdf3b01d"},"vehicle_type_id":"4","last_reported":1743887291,"current_range_meters":7200,"station_id":"ce4bh2h2rcd13ifvqdh0","pricing_plan_id":"cebpf4jnsgd1na2vs0mg"},{"bike_id":"76b14284-ad0a-4c49-a8d1-99995c9139dc","system_id":"levelo_inurba_marseille","lat":43.287,"lon":5.37941,"is_reserved":false,"is_disabled":false,"rental_uris":{"android":"levelo://app?vid=76b14284-ad0a-4c49-a8d1-99995c9139dc","ios":"levelo://app?vid=76b14284-ad0a-4c49-a8d1-99995c9139dc"},"vehicle_type_id":"4","last_reported":1743887291,"current_range_meters":7200,"station_id":"ce4bh9p2rcd13ifvqec0","pricing_plan_id":"cebpf4jnsgd1na2vs0mg"},{"bike_id":"d7f5d9e5-94ad-4e87-9546-49e5a15ec074","system_id":"levelo_inurba_marseille","lat":43.29964,"lon":5.37188,"is_reserved":false,"is_disabled":false,"rental_uris":{"android":"levelo://app?vid=d7f5d9e5-94ad-4e87-9546-49e5a15ec074","ios":"levelo://app?vid=d7f5d9e5-94ad-4e87-9546-49e5a15ec074"},"vehicle_type_id":"4","last_reported":1743887291,"current_range_meters":7200,"station_id":"ce4bgr92rcd13ifvqc7g","pricing_plan_id":"cebpf4jnsgd1na2vs0mg"},{"bike_id":"9a36e749-313f-43fc-ac90-b52b5015306e","system_id":"levelo_inurba_marseille","lat":43.21216,"lon":5.35069,"is_reserved":false,"is_disabled":false,"rental_uris":{"android":"levelo://app?vid=9a36e749-313f-43fc-ac90-b52b5015306e","ios":"levelo://app?vid=9a36e749-313f-43fc-ac90-b52b5015306e"},"vehicle_type_id":"4","last_reported":1743887291,"current_range_meters":7200,"station_id":"st_cvj6sg6p6f1abm77japg","pricing_plan_id":"cebpf4jnsgd1na2vs0mg"},{"bike_id":"fd368e52-28cf-414d-a46d-b367645ec73e","system_id":"levelo_inurba_marseille","lat":43.29225,"lon":5.38422,"is_reserved":false,"is_disabled":false,"rental_uris":{"android":"levelo://app?vid=fd368e52-28cf-414d-a46d-b367645ec73e","ios":"levelo://app?vid=fd368e52-28cf-414d-a46d-b367645ec73e"},"vehicle_type_id":"4","last_reported":1743887291,"current_range_meters":7200,"station_id":"ce4bh692rcd13ifvqea0","pricing_plan_id":"cebpf4jnsgd1na2vs0mg"},{"bike_id":"781f10c5-ff3f-4f63-a191-3417c63b7f08","system_id":"levelo_inurba_marseille","lat":43.30944,"lon":5.40143,"is_reserved":false,"is_disabled":false,"rental_uris":{"android":"levelo://app?vid=781f10c5-ff3f-4f63-a191-3417c63b7f08","ios":"levelo://app?vid=781f10c5-ff3f-4f63-a191-3417c63b7f08"},"vehicle_type_id":"4","last_reported":1743887291,"current_range_meters":7200,"station_id":"ce4bgvp2rcd13ifvqct0","pricing_plan_id":"cebpf4jnsgd1na2vs0mg"},{"bike_id":"11de09e5-abbf-45ed-8af2-abab070b9f29","system_id":"levelo_inurba_marseille","lat":43.28443,"lon":5.39182,"is_reserved":false,"is_disabled":false,"rental_uris":{"android":"levelo://app?vid=11de09e5-abbf-45ed-8af2-abab070b9f29","ios":"levelo://app?vid=11de09e5-abbf-45ed-8af2-abab070b9f29"},"vehicle_type_id":"4","last_reported":1743887291,"current_range_meters":7200,"station_id":"ce4bhoh2rcd13ifvqh5g","pricing_plan_id":"cebpf4jnsgd1na2vs0mg"},{"bike_id":"808d75ab-1368-4527-aa63-09f6b964bbac","system_id":"levelo_inurba_marseille","lat":43.30305,"lon":5.36902,"is_reserved":false,"is_disabled":false,"rental_uris":{"android":"levelo://app?vid=808d75ab-1368-4527-aa63-09f6b964bbac","ios":"levelo://app?vid=808d75ab-1368-4527-aa63-09f6b964bbac"},"vehicle_type_id":"4","last_reported":1743887291,"current_range_meters":7200,"station_id":"ce4bgqh2rcd13ifvqc5g","pricing_plan_id":"cebpf4jnsgd1na2vs0mg"},{"bike_id":"d043da4c-8593-477c-a3f7-8e7748e47725","system_id":"levelo_inurba_marseille","lat":43.32452,"lon":5.38958,"is_reserved":false,"is_disabled":false,"rental_uris":{"android":"levelo://app?vid=d043da4c-8593-477c-a3f7-8e7748e47725","ios":"levelo://app?vid=d043da4c-8593-477c-a3f7-8e7748e47725"},"vehicle_type_id":"4","last_reported":1743887291,"current_range_meters":7200,"station_id":"","pricing_plan_id":"cebpf4jnsgd1na2vs0mg"},{"bike_id":"bef052f2-2d3a-4b9f-a5db-0df626e48d8a","system_id":"levelo_inurba_marseille","lat":43.29422,"lon":5.38632,"is_reserved":false,"is_disabled":false,"rental_uris":{"android":"levelo://app?vid=bef052f2-2d3a-4b9f-a5db-0df626e48d8a","ios":"levelo://app?vid=bef052f2-2d3a-4b9f-a5db-0df626e48d8a"},"vehicle_type_id":"4","last_reported":1743887291,"current_range_meters":7200,"station_id":"ce4bh2h2rcd13ifvqdh0","pricing_plan_id":"cebpf4jnsgd1na2vs0mg"},{"bike_id":"82e42512-0143-41e9-8304-aae55767297b","system_id":"levelo_inurba_marseille","lat":43.2926,"lon":5.38436,"is_reserved":false,"is_disabled":false,"rental_uris":{"android":"levelo://app?vid=82e42512-0143-41e9-8304-aae55767297b","ios":"levelo://app?vid=82e42512-0143-41e9-8304-aae55767297b"},"vehicle_type_id":"4","last_reported":1743887291,"current_range_meters":7200,"station_id":"ce4bh692rcd13ifvqea0","pricing_plan_id":"cebpf4jnsgd1na2vs0mg"},{"bike_id":"feb6e46c-3fb2-45a9-a2fb-22ac62feb505","system_id":"levelo_inurba_marseille","lat":43.23054,"lon":5.35485,"is_reserved":false,"is_disabled":true,"rental_uris":{"android":"levelo://app?vid=feb6e46c-3fb2-45a9-a2fb-22ac62feb505","ios":"levelo://app?vid=feb6e46c-3fb2-45a9-a2fb-22ac62feb505"},"vehicle_type_id":"4","last_reported":1743887291,"current_range_meters":7200,"station_id":"cpo3342slgdg3j2ifvpg","pricing_plan_id":"cebpf4jnsgd1na2vs0mg"},{"bike_id":"f8b5af23-c1af-4cdf-ba8b-28c11e3b8319","system_id":"levelo_inurba_marseille","lat":43.2764,"lon":5.38941,"is_reserved":false,"is_disabled":false,"rental_uris":{"android":"levelo://app?vid=f8b5af23-c1af-4cdf-ba8b-28c11e3b8319","ios":"levelo://app?vid=f8b5af23-c1af-4cdf-ba8b-28c11e3b8319"},"vehicle_type_id":"4","last_reported":1743887291,"current_range_meters":8000,"station_id":"ce4bhi12rcd13ifvqfo0","pricing_plan_id":"cebpf4jnsgd1na2vs0mg"},{"bike_id":"8c8b51f5-f52c-4826-844f-5ebfd0bed1b4","system_id":"levelo_inurba_marseille","lat":43.27834,"lon":5.39211,"is_reserved":false,"is_disabled":false,"rental_uris":{"android":"levelo://app?vid=8c8b51f5-f52c-4826-844f-5ebfd0bed1b4","ios":"levelo://app?vid=8c8b51f5-f52c-4826-844f-5ebfd0bed1b4"},"vehicle_type_id":"4","last_reported":1743887291,"current_range_meters":8000,"station_id":"ce4bhjp2rcd13ifvqga0","pricing_plan_id":"cebpf4jnsgd1na2vs0mg"},{"bike_id":"53a11f89-40eb-4330-bc9a-6296858b1122","system_id":"levelo_inurba_marseille","lat":43.26941,"lon":5.40256,"is_reserved":false,"is_disabled":false,"rental_uris":{"android":"levelo://app?vid=53a11f89-40eb-4330-bc9a-6296858b1122","ios":"levelo://app?vid=53a11f89-40eb-4330-bc9a-6296858b1122"},"vehicle_type_id":"4","last_reported":1743887291,"current_range_meters":8000,"station_id":"cjm6bp8fraef2m0cb0m0","pricing_plan_id":"cebpf4jnsgd1na2vs0mg"},{"bike_id":"0f0a5ed4-1944-4ffb-b0ee-241d54ffa49c","system_id":"levelo_inurba_marseille","lat":43.28927,"lon":5.38412,"is_reserved":false,"is_disabled":false,"rental_uris":{"android":"levelo://app?vid=0f0a5ed4-1944-4ffb-b0ee-241d54ffa49c","ios":"levelo://app?vid=0f0a5ed4-1944-4ffb-b0ee-241d54ffa49c"},"vehicle_type_id":"4","last_reported":1743887291,"current_range_meters":8000,"station_id":"ce4bh612rcd13ifvqe6g","pricing_plan_id":"cebpf4jnsgd1na2vs0mg"},{"bike_id":"b4c0fae1-9641-47e3-b51f-24e5c6754244","system_id":"levelo_inurba_marseille","lat":43.29265,"lon":5.38451,"is_reserved":false,"is_disabled":false,"rental_uris":{"android":"levelo://app?vid=b4c0fae1-9641-47e3-b51f-24e5c6754244","ios":"levelo://app?vid=b4c0fae1-9641-47e3-b51f-24e5c6754244"},"vehicle_type_id":"4","last_reported":1743887291,"current_range_meters":8000,"station_id":"ce4bh692rcd13ifvqea0","pricing_plan_id":"cebpf4jnsgd1na2vs0mg"},{"bike_id":"020181d2-31a5-4ed0-9ac7-23a9efb5c985","system_id":"levelo_inurba_marseille","lat":43.26956,"lon":5.38641,"is_reserved":false,"is_disabled":false,"rental_uris":{"android":"levelo://app?vid=020181d2-31a5-4ed0-9ac7-23a9efb5c985","ios":"levelo://app?vid=020181d2-31a5-4ed0-9ac7-23a9efb5c985"},"vehicle_type_id":"4","last_reported":1743887291,"current_range_meters":8000,"station_id":"ce4bhh92rcd13ifvqfh0","pricing_plan_id":"cebpf4jnsgd1na2vs0mg"},{"bike_id":"58f2ce45-fc04-4c4b-9865-0e114db3c331","system_id":"levelo_inurba_marseille","lat":43.248032,"lon":5.374688,"is_reserved":false,"is_disabled":false,"rental_uris":{"android":"levelo://app?vid=58f2ce45-fc04-4c4b-9865-0e114db3c331","ios":"levelo://app?vid=58f2ce45-fc04-4c4b-9865-0e114db3c331"},"vehicle_type_id":"4","last_reported":1743887291,"current_range_meters":8000,"station_id":"ce4bhgh2rcd13ifvqfb0","pricing_plan_id":"cebpf4jnsgd1na2vs0mg"},{"bike_id":"ed33f895-d65e-495f-abb8-b8f6df67f426","system_id":"levelo_inurba_marseille","lat":43.292586,"lon":5.384338,"is_reserved":false,"is_disabled":false,"rental_uris":{"android":"levelo://app?vid=ed33f895-d65e-495f-abb8-b8f6df67f426","ios":"levelo://app?vid=ed33f895-d65e-495f-abb8-b8f6df67f426"},"vehicle_type_id":"4","last_reported":1743887291,"current_range_meters":8400,"station_id":"ce4bh692rcd13ifvqea0","pricing_plan_id":"cebpf4jnsgd1na2vs0mg"},{"bike_id":"8e57cd7b-c598-4f21-8ad7-b61a53cae66e","system_id":"levelo_inurba_marseille","lat":43.23181,"lon":5.39993,"is_reserved":false,"is_disabled":false,"rental_uris":{"android":"levelo://app?vid=8e57cd7b-c598-4f21-8ad7-b61a53cae66e","ios":"levelo://app?vid=8e57cd7b-c598-4f21-8ad7-b61a53cae66e"},"vehicle_type_id":"4","last_reported":1743887291,"current_range_meters":8400,"station_id":"ce4bhn12rcd13ifvqgqg","pricing_plan_id":"cebpf4jnsgd1na2vs0mg"},{"bike_id":"fb0d4993-67fa-4314-9525-ef2ba9197c72","system_id":"levelo_inurba_marseille","lat":43.30321,"lon":5.4059,"is_reserved":false,"is_disabled":false,"rental_uris":{"android":"levelo://app?vid=fb0d4993-67fa-4314-9525-ef2ba9197c72","ios":"levelo://app?vid=fb0d4993-67fa-4314-9525-ef2ba9197c72"},"vehicle_type_id":"4","last_reported":1743887291,"current_range_meters":8400,"station_id":"","pricing_plan_id":"cebpf4jnsgd1na2vs0mg"},{"bike_id":"c3da230f-b1cd-4c60-afdc-862e2979b486","system_id":"levelo_inurba_marseille","lat":43.29426,"lon":5.38623,"is_reserved":false,"is_disabled":false,"rental_uris":{"android":"levelo://app?vid=c3da230f-b1cd-4c60-afdc-862e2979b486","ios":"levelo://app?vid=c3da230f-b1cd-4c60-afdc-862e2979b486"},"vehicle_type_id":"4","last_reported":1743887291,"current_range_meters":8400,"station_id":"ce4bh2h2rcd13ifvqdh0","pricing_plan_id":"cebpf4jnsgd1na2vs0mg"},{"bike_id":"da2c0523-95d2-4536-9674-1400e7cb2212","system_id":"levelo_inurba_marseille","lat":43.24175,"lon":5.39686,"is_reserved":false,"is_disabled":false,"rental_uris":{"android":"levelo://app?vid=da2c0523-95d2-4536-9674-1400e7cb2212","ios":"levelo://app?vid=da2c0523-95d2-4536-9674-1400e7cb2212"},"vehicle_type_id":"4","last_reported":1743887291,"current_range_meters":8400,"station_id":"ce4bhn12rcd13ifvqgpg","pricing_plan_id":"cebpf4jnsgd1na2vs0mg"},{"bike_id":"ac7a85da-6a1d-42f4-b3e0-decaec458451","system_id":"levelo_inurba_marseille","lat":43.22922,"lon":5.35371,"is_reserved":false,"is_disabled":true,"rental_uris":{"android":"levelo://app?vid=ac7a85da-6a1d-42f4-b3e0-decaec458451","ios":"levelo://app?vid=ac7a85da-6a1d-42f4-b3e0-decaec458451"},"vehicle_type_id":"4","last_reported":1743887291,"current_range_meters":8400,"station_id":"cpo3532slgdg3j2ikp40","pricing_plan_id":"cebpf4jnsgd1na2vs0mg"},{"bike_id":"67cc2dc7-658f-4218-aefd-4fa0eb14328b","system_id":"levelo_inurba_marseille","lat":43.29533,"lon":5.38536,"is_reserved":false,"is_disabled":false,"rental_uris":{"android":"levelo://app?vid=67cc2dc7-658f-4218-aefd-4fa0eb14328b","ios":"levelo://app?vid=67cc2dc7-658f-4218-aefd-4fa0eb14328b"},"vehicle_type_id":"4","last_reported":1743887291,"current_range_meters":8400,"station_id":"ce4bgih2rcd13ifvqba0","pricing_plan_id":"cebpf4jnsgd1na2vs0mg"},{"bike_id":"d144cdeb-94c3-4a1d-92d5-9d5462e2a94e","system_id":"levelo_inurba_marseille","lat":43.28026,"lon":5.36962,"is_reserved":false,"is_disabled":false,"rental_uris":{"android":"levelo://app?vid=d144cdeb-94c3-4a1d-92d5-9d5462e2a94e","ios":"levelo://app?vid=d144cdeb-94c3-4a1d-92d5-9d5462e2a94e"},"vehicle_type_id":"4","last_reported":1743887291,"current_range_meters":8400,"station_id":"ce4bha12rcd13ifvqef0","pricing_plan_id":"cebpf4jnsgd1na2vs0mg"},{"bike_id":"14d2e61d-801f-4dab-a40b-6b7e695037da","system_id":"levelo_inurba_marseille","lat":43.2851,"lon":5.38545,"is_reserved":false,"is_disabled":false,"rental_uris":{"android":"levelo://app?vid=14d2e61d-801f-4dab-a40b-6b7e695037da","ios":"levelo://app?vid=14d2e61d-801f-4dab-a40b-6b7e695037da"},"vehicle_type_id":"4","last_reported":1743887291,"current_range_meters":8400,"station_id":"ce4bh8p2rcd13ifvqeb0","pricing_plan_id":"cebpf4jnsgd1na2vs0mg"},{"bike_id":"bd033146-eee4-4aa8-b562-1998c1c7a585","system_id":"levelo_inurba_marseille","lat":43.28106,"lon":5.37836,"is_reserved":false,"is_disabled":false,"rental_uris":{"android":"levelo://app?vid=bd033146-eee4-4aa8-b562-1998c1c7a585","ios":"levelo://app?vid=bd033146-eee4-4aa8-b562-1998c1c7a585"},"vehicle_type_id":"4","last_reported":1743887291,"current_range_meters":8400,"station_id":"ce4bha12rcd13ifvqee0","pricing_plan_id":"cebpf4jnsgd1na2vs0mg"},{"bike_id":"b84264c4-8104-49ae-a897-a40e315a30ec","system_id":"levelo_inurba_marseille","lat":43.29446,"lon":5.38651,"is_reserved":false,"is_disabled":false,"rental_uris":{"android":"levelo://app?vid=b84264c4-8104-49ae-a897-a40e315a30ec","ios":"levelo://app?vid=b84264c4-8104-49ae-a897-a40e315a30ec"},"vehicle_type_id":"4","last_reported":1743887291,"current_range_meters":8400,"station_id":"ce4bh2h2rcd13ifvqdh0","pricing_plan_id":"cebpf4jnsgd1na2vs0mg"},{"bike_id":"86950742-2a83-439a-b6d7-c0601bd4f799","system_id":"levelo_inurba_marseille","lat":43.28025,"lon":5.36946,"is_reserved":false,"is_disabled":false,"rental_uris":{"android":"levelo://app?vid=86950742-2a83-439a-b6d7-c0601bd4f799","ios":"levelo://app?vid=86950742-2a83-439a-b6d7-c0601bd4f799"},"vehicle_type_id":"4","last_reported":1743887291,"current_range_meters":8400,"station_id":"ce4bha12rcd13ifvqef0","pricing_plan_id":"cebpf4jnsgd1na2vs0mg"},{"bike_id":"eb79d1f9-7c91-4ea2-b5f8-796189743e1a","system_id":"levelo_inurba_marseille","lat":43.33751,"lon":5.39186,"is_reserved":false,"is_disabled":false,"rental_uris":{"android":"levelo://app?vid=eb79d1f9-7c91-4ea2-b5f8-796189743e1a","ios":"levelo://app?vid=eb79d1f9-7c91-4ea2-b5f8-796189743e1a"},"vehicle_type_id":"4","last_reported":1743887291,"current_range_meters":8800,"station_id":"ce4bhr92rcd13ifvqhsg","pricing_plan_id":"cebpf4jnsgd1na2vs0mg"},{"bike_id":"597e3cb0-7bf1-4c5c-814c-bff699977597","system_id":"levelo_inurba_marseille","lat":43.33154,"lon":5.38156,"is_reserved":false,"is_disabled":false,"rental_uris":{"android":"levelo://app?vid=597e3cb0-7bf1-4c5c-814c-bff699977597","ios":"levelo://app?vid=597e3cb0-7bf1-4c5c-814c-bff699977597"},"vehicle_type_id":"4","last_reported":1743887291,"current_range_meters":8800,"station_id":"","pricing_plan_id":"cebpf4jnsgd1na2vs0mg"},{"bike_id":"590ba470-e95d-4d1f-9261-12dc7f860eaa","system_id":"levelo_inurba_marseille","lat":43.26493,"lon":5.39539,"is_reserved":false,"is_disabled":false,"rental_uris":{"android":"levelo://app?vid=590ba470-e95d-4d1f-9261-12dc7f860eaa","ios":"levelo://app?vid=590ba470-e95d-4d1f-9261-12dc7f860eaa"},"vehicle_type_id":"4","last_reported":1743887291,"current_range_meters":8800,"station_id":"ce4bhi12rcd13ifvqfq0","pricing_plan_id":"cebpf4jnsgd1na2vs0mg"},{"bike_id":"fdad6e5e-1467-4616-9d72-68b29d343e00","system_id":"levelo_inurba_marseille","lat":43.32298,"lon":5.38289,"is_reserved":false,"is_disabled":false,"rental_uris":{"android":"levelo://app?vid=fdad6e5e-1467-4616-9d72-68b29d343e00","ios":"levelo://app?vid=fdad6e5e-1467-4616-9d72-68b29d343e00"},"vehicle_type_id":"4","last_reported":1743887291,"current_range_meters":8800,"station_id":"ce4bhr12rcd13ifvqhqg","pricing_plan_id":"cebpf4jnsgd1na2vs0mg"},{"bike_id":"1c600046-fb8a-47c3-8c47-03c4e2502051","system_id":"levelo_inurba_marseille","lat":43.29024,"lon":5.38652,"is_reserved":false,"is_disabled":false,"rental_uris":{"android":"levelo://app?vid=1c600046-fb8a-47c3-8c47-03c4e2502051","ios":"levelo://app?vid=1c600046-fb8a-47c3-8c47-03c4e2502051"},"vehicle_type_id":"4","last_reported":1743887291,"current_range_meters":8800,"station_id":"ce4bh4p2rcd13ifvqe0g","pricing_plan_id":"cebpf4jnsgd1na2vs0mg"},{"bike_id":"8e8105ce-63e2-4441-9ebe-d6a09a08a22e","system_id":"levelo_inurba_marseille","lat":43.29668,"lon":5.36204,"is_reserved":false,"is_disabled":false,"rental_uris":{"android":"levelo://app?vid=8e8105ce-63e2-4441-9ebe-d6a09a08a22e","ios":"levelo://app?vid=8e8105ce-63e2-4441-9ebe-d6a09a08a22e"},"vehicle_type_id":"4","last_reported":1743887291,"current_range_meters":8800,"station_id":"","pricing_plan_id":"cebpf4jnsgd1na2vs0mg"},{"bike_id":"7ef2be62-90dd-4dbc-90f2-e5533bbe1e96","system_id":"levelo_inurba_marseille","lat":43.29534,"lon":5.38539,"is_reserved":false,"is_disabled":false,"rental_uris":{"android":"levelo://app?vid=7ef2be62-90dd-4dbc-90f2-e5533bbe1e96","ios":"levelo://app?vid=7ef2be62-90dd-4dbc-90f2-e5533bbe1e96"},"vehicle_type_id":"4","last_reported":1743887291,"current_range_meters":8800,"station_id":"ce4bgih2rcd13ifvqba0","pricing_plan_id":"cebpf4jnsgd1na2vs0mg"},{"bike_id":"06b3eb39-a6d7-4a45-939c-b459a5c1bea3","system_id":"levelo_inurba_marseille","lat":43.31054,"lon":5.38382,"is_reserved":false,"is_disabled":false,"rental_uris":{"android":"levelo://app?vid=06b3eb39-a6d7-4a45-939c-b459a5c1bea3","ios":"levelo://app?vid=06b3eb39-a6d7-4a45-939c-b459a5c1bea3"},"vehicle_type_id":"4","last_reported":1743887291,"current_range_meters":8800,"station_id":"ce4bgv92rcd13ifvqcr0","pricing_plan_id":"cebpf4jnsgd1na2vs0mg"},{"bike_id":"1d0362ef-c0e7-4c7f-b0d9-d344dd685268","system_id":"levelo_inurba_marseille","lat":43.29623,"lon":5.37155,"is_reserved":false,"is_disabled":false,"rental_uris":{"android":"levelo://app?vid=1d0362ef-c0e7-4c7f-b0d9-d344dd685268","ios":"levelo://app?vid=1d0362ef-c0e7-4c7f-b0d9-d344dd685268"},"vehicle_type_id":"4","last_reported":1743887291,"current_range_meters":8800,"station_id":"ce4bgnh2rcd13ifvqc0g","pricing_plan_id":"cebpf4jnsgd1na2vs0mg"},{"bike_id":"9bcfd999-b11b-4ca8-b821-f99eb3a571dd","system_id":"levelo_inurba_marseille","lat":43.295408,"lon":5.385739,"is_reserved":false,"is_disabled":false,"rental_uris":{"android":"levelo://app?vid=9bcfd999-b11b-4ca8-b821-f99eb3a571dd","ios":"levelo://app?vid=9bcfd999-b11b-4ca8-b821-f99eb3a571dd"},"vehicle_type_id":"4","last_reported":1743887291,"current_range_meters":8800,"station_id":"ce4bho92rcd13ifvqh3g","pricing_plan_id":"cebpf4jnsgd1na2vs0mg"},{"bike_id":"4fe58138-60b4-4d45-a746-cf71d1b18f1e","system_id":"levelo_inurba_marseille","lat":43.29245,"lon":5.38441,"is_reserved":false,"is_disabled":false,"rental_uris":{"android":"levelo://app?vid=4fe58138-60b4-4d45-a746-cf71d1b18f1e","ios":"levelo://app?vid=4fe58138-60b4-4d45-a746-cf71d1b18f1e"},"vehicle_type_id":"4","last_reported":1743887291,"current_range_meters":8800,"station_id":"ce4bh692rcd13ifvqea0","pricing_plan_id":"cebpf4jnsgd1na2vs0mg"},{"bike_id":"d5e984d3-343e-4e16-bd54-bc3ebbd48639","system_id":"levelo_inurba_marseille","lat":43.30149,"lon":5.38757,"is_reserved":false,"is_disabled":true,"rental_uris":{"android":"levelo://app?vid=d5e984d3-343e-4e16-bd54-bc3ebbd48639","ios":"levelo://app?vid=d5e984d3-343e-4e16-bd54-bc3ebbd48639"},"vehicle_type_id":"4","last_reported":1743887291,"current_range_meters":9200,"station_id":"ce4bghh2rcd13ifvqb60","pricing_plan_id":"cebpf4jnsgd1na2vs0mg"},{"bike_id":"db5b074a-d935-442f-b4d3-96df771d91d1","system_id":"levelo_inurba_marseille","lat":43.2481,"lon":5.374562,"is_reserved":false,"is_disabled":false,"rental_uris":{"android":"levelo://app?vid=db5b074a-d935-442f-b4d3-96df771d91d1","ios":"levelo://app?vid=db5b074a-d935-442f-b4d3-96df771d91d1"},"vehicle_type_id":"4","last_reported":1743887291,"current_range_meters":9200,"station_id":"ce4bhgh2rcd13ifvqfb0","pricing_plan_id":"cebpf4jnsgd1na2vs0mg"},{"bike_id":"1622461e-25a5-4ec6-9188-643400d8cf0e","system_id":"levelo_inurba_marseille","lat":43.30803,"lon":5.43537,"is_reserved":false,"is_disabled":false,"rental_uris":{"android":"levelo://app?vid=1622461e-25a5-4ec6-9188-643400d8cf0e","ios":"levelo://app?vid=1622461e-25a5-4ec6-9188-643400d8cf0e"},"vehicle_type_id":"4","last_reported":1743887291,"current_range_meters":9200,"station_id":"ce4bhph2rcd13ifvqheg","pricing_plan_id":"cebpf4jnsgd1na2vs0mg"},{"bike_id":"1fdee4b4-3f9f-403f-ad55-817922dc93f6","system_id":"levelo_inurba_marseille","lat":43.29263,"lon":5.3845,"is_reserved":false,"is_disabled":false,"rental_uris":{"android":"levelo://app?vid=1fdee4b4-3f9f-403f-ad55-817922dc93f6","ios":"levelo://app?vid=1fdee4b4-3f9f-403f-ad55-817922dc93f6"},"vehicle_type_id":"4","last_reported":1743887291,"current_range_meters":9200,"station_id":"ce4bh692rcd13ifvqea0","pricing_plan_id":"cebpf4jnsgd1na2vs0mg"},{"bike_id":"f470b7ff-8985-4014-b9d1-2d1b82ce3088","system_id":"levelo_inurba_marseille","lat":43.28713,"lon":5.37946,"is_reserved":false,"is_disabled":false,"rental_uris":{"android":"levelo://app?vid=f470b7ff-8985-4014-b9d1-2d1b82ce3088","ios":"levelo://app?vid=f470b7ff-8985-4014-b9d1-2d1b82ce3088"},"vehicle_type_id":"4","last_reported":1743887291,"current_range_meters":9200,"station_id":"ce4bh9p2rcd13ifvqec0","pricing_plan_id":"cebpf4jnsgd1na2vs0mg"},{"bike_id":"c38496df-4bf6-4c97-91c3-17abcf370a7f","system_id":"levelo_inurba_marseille","lat":43.29254,"lon":5.3844,"is_reserved":false,"is_disabled":false,"rental_uris":{"android":"levelo://app?vid=c38496df-4bf6-4c97-91c3-17abcf370a7f","ios":"levelo://app?vid=c38496df-4bf6-4c97-91c3-17abcf370a7f"},"vehicle_type_id":"4","last_reported":1743887291,"current_range_meters":9200,"station_id":"ce4bh692rcd13ifvqea0","pricing_plan_id":"cebpf4jnsgd1na2vs0mg"},{"bike_id":"1e72d3fb-accb-4636-a1fd-813f0b952e02","system_id":"levelo_inurba_marseille","lat":43.30885,"lon":5.39645,"is_reserved":false,"is_disabled":false,"rental_uris":{"android":"levelo://app?vid=1e72d3fb-accb-4636-a1fd-813f0b952e02","ios":"levelo://app?vid=1e72d3fb-accb-4636-a1fd-813f0b952e02"},"vehicle_type_id":"4","last_reported":1743887291,"current_range_meters":9200,"station_id":"ce4bh012rcd13ifvqcv0","pricing_plan_id":"cebpf4jnsgd1na2vs0mg"},{"bike_id":"0c76f3c9-bc89-4414-9c4b-485533d7e18d","system_id":"levelo_inurba_marseille","lat":43.29245,"lon":5.38451,"is_reserved":false,"is_disabled":false,"rental_uris":{"android":"levelo://app?vid=0c76f3c9-bc89-4414-9c4b-485533d7e18d","ios":"levelo://app?vid=0c76f3c9-bc89-4414-9c4b-485533d7e18d"},"vehicle_type_id":"4","last_reported":1743887291,"current_range_meters":9200,"station_id":"ce4bh692rcd13ifvqea0","pricing_plan_id":"cebpf4jnsgd1na2vs0mg"},{"bike_id":"41074238-a978-4eb9-b243-3b9bf9fd4ae5","system_id":"levelo_inurba_marseille","lat":43.29897,"lon":5.37502,"is_reserved":false,"is_disabled":false,"rental_uris":{"android":"levelo://app?vid=41074238-a978-4eb9-b243-3b9bf9fd4ae5","ios":"levelo://app?vid=41074238-a978-4eb9-b243-3b9bf9fd4ae5"},"vehicle_type_id":"4","last_reported":1743887291,"current_range_meters":9200,"station_id":"ce4bgjh2rcd13ifvqbg0","pricing_plan_id":"cebpf4jnsgd1na2vs0mg"},{"bike_id":"f026eb80-b911-4274-bb5d-af622566135d","system_id":"levelo_inurba_marseille","lat":43.29251,"lon":5.38426,"is_reserved":false,"is_disabled":false,"rental_uris":{"android":"levelo://app?vid=f026eb80-b911-4274-bb5d-af622566135d","ios":"levelo://app?vid=f026eb80-b911-4274-bb5d-af622566135d"},"vehicle_type_id":"4","last_reported":1743887291,"current_range_meters":9600,"station_id":"ce4bh692rcd13ifvqea0","pricing_plan_id":"cebpf4jnsgd1na2vs0mg"},{"bike_id":"db29433a-c7f6-40d6-b0e1-3a1f0abf15ab","system_id":"levelo_inurba_marseille","lat":43.241712,"lon":5.364041,"is_reserved":false,"is_disabled":true,"rental_uris":{"android":"levelo://app?vid=db29433a-c7f6-40d6-b0e1-3a1f0abf15ab","ios":"levelo://app?vid=db29433a-c7f6-40d6-b0e1-3a1f0abf15ab"},"vehicle_type_id":"4","last_reported":1743887291,"current_range_meters":9600,"station_id":"ce4bh412rcd13ifvqdr0","pricing_plan_id":"cebpf4jnsgd1na2vs0mg"},{"bike_id":"3f3860a0-587f-4e07-98cd-b749e76739f1","system_id":"levelo_inurba_marseille","lat":43.278323,"lon":5.392008,"is_reserved":false,"is_disabled":false,"rental_uris":{"android":"levelo://app?vid=3f3860a0-587f-4e07-98cd-b749e76739f1","ios":"levelo://app?vid=3f3860a0-587f-4e07-98cd-b749e76739f1"},"vehicle_type_id":"4","last_reported":1743887291,"current_range_meters":9600,"station_id":"ce4bhjp2rcd13ifvqga0","pricing_plan_id":"cebpf4jnsgd1na2vs0mg"},{"bike_id":"227a4924-c805-4ec5-a413-7ff05f7fee3d","system_id":"levelo_inurba_marseille","lat":43.26056,"lon":5.39405,"is_reserved":false,"is_disabled":false,"rental_uris":{"android":"levelo://app?vid=227a4924-c805-4ec5-a413-7ff05f7fee3d","ios":"levelo://app?vid=227a4924-c805-4ec5-a413-7ff05f7fee3d"},"vehicle_type_id":"4","last_reported":1743887291,"current_range_meters":9600,"station_id":"ce4bhh92rcd13ifvqfj0","pricing_plan_id":"cebpf4jnsgd1na2vs0mg"},{"bike_id":"fdfd01fc-093d-4c48-8c80-06fe1b4633e3","system_id":"levelo_inurba_marseille","lat":43.29241,"lon":5.38422,"is_reserved":false,"is_disabled":true,"rental_uris":{"android":"levelo://app?vid=fdfd01fc-093d-4c48-8c80-06fe1b4633e3","ios":"levelo://app?vid=fdfd01fc-093d-4c48-8c80-06fe1b4633e3"},"vehicle_type_id":"4","last_reported":1743887291,"current_range_meters":9600,"station_id":"ce4bh692rcd13ifvqea0","pricing_plan_id":"cebpf4jnsgd1na2vs0mg"},{"bike_id":"c20d4374-ce27-41a4-983a-4608c6530524","system_id":"levelo_inurba_marseille","lat":43.24068,"lon":5.37765,"is_reserved":false,"is_disabled":false,"rental_uris":{"android":"levelo://app?vid=c20d4374-ce27-41a4-983a-4608c6530524","ios":"levelo://app?vid=c20d4374-ce27-41a4-983a-4608c6530524"},"vehicle_type_id":"4","last_reported":1743887291,"current_range_meters":9600,"station_id":"ce4bhnp2rcd13ifvqgvg","pricing_plan_id":"cebpf4jnsgd1na2vs0mg"},{"bike_id":"25314db0-1249-4b49-9956-f519e7c8e80f","system_id":"levelo_inurba_marseille","lat":43.32118,"lon":5.36792,"is_reserved":false,"is_disabled":false,"rental_uris":{"android":"levelo://app?vid=25314db0-1249-4b49-9956-f519e7c8e80f","ios":"levelo://app?vid=25314db0-1249-4b49-9956-f519e7c8e80f"},"vehicle_type_id":"4","last_reported":1743887291,"current_range_meters":9600,"station_id":"ce4bhrh2rcd13ifvqhug","pricing_plan_id":"cebpf4jnsgd1na2vs0mg"},{"bike_id":"990da929-1cb7-46ce-a5e3-a46343bfffe7","system_id":"levelo_inurba_marseille","lat":43.29842,"lon":5.38104,"is_reserved":false,"is_disabled":true,"rental_uris":{"android":"levelo://app?vid=990da929-1cb7-46ce-a5e3-a46343bfffe7","ios":"levelo://app?vid=990da929-1cb7-46ce-a5e3-a46343bfffe7"},"vehicle_type_id":"4","last_reported":1743887291,"current_range_meters":9600,"station_id":"ce4bgip2rcd13ifvqbb0","pricing_plan_id":"cebpf4jnsgd1na2vs0mg"},{"bike_id":"19e5e026-6d23-4689-a279-bec1f0dfe8ef","system_id":"levelo_inurba_marseille","lat":43.22932,"lon":5.35377,"is_reserved":false,"is_disabled":false,"rental_uris":{"android":"levelo://app?vid=19e5e026-6d23-4689-a279-bec1f0dfe8ef","ios":"levelo://app?vid=19e5e026-6d23-4689-a279-bec1f0dfe8ef"},"vehicle_type_id":"4","last_reported":1743887291,"current_range_meters":9600,"station_id":"cpo3532slgdg3j2ikp40","pricing_plan_id":"cebpf4jnsgd1na2vs0mg"},{"bike_id":"905f7893-b40f-471b-adae-63ca1f0f1f02","system_id":"levelo_inurba_marseille","lat":43.25725,"lon":5.41111,"is_reserved":false,"is_disabled":false,"rental_uris":{"android":"levelo://app?vid=905f7893-b40f-471b-adae-63ca1f0f1f02","ios":"levelo://app?vid=905f7893-b40f-471b-adae-63ca1f0f1f02"},"vehicle_type_id":"4","last_reported":1743887291,"current_range_meters":9600,"station_id":"ce4bhkp2rcd13ifvqgd0","pricing_plan_id":"cebpf4jnsgd1na2vs0mg"},{"bike_id":"c9bc89cd-58d1-4a47-b4fa-ac99803a3fe2","system_id":"levelo_inurba_marseille","lat":43.28416,"lon":5.37532,"is_reserved":false,"is_disabled":false,"rental_uris":{"android":"levelo://app?vid=c9bc89cd-58d1-4a47-b4fa-ac99803a3fe2","ios":"levelo://app?vid=c9bc89cd-58d1-4a47-b4fa-ac99803a3fe2"},"vehicle_type_id":"4","last_reported":1743887291,"current_range_meters":9600,"station_id":"ce4bh412rcd13ifvqds0","pricing_plan_id":"cebpf4jnsgd1na2vs0mg"},{"bike_id":"30b57730-cb66-4122-bd93-7dabcaba84e7","system_id":"levelo_inurba_marseille","lat":43.24914,"lon":5.40678,"is_reserved":false,"is_disabled":false,"rental_uris":{"android":"levelo://app?vid=30b57730-cb66-4122-bd93-7dabcaba84e7","ios":"levelo://app?vid=30b57730-cb66-4122-bd93-7dabcaba84e7"},"vehicle_type_id":"4","last_reported":1743887291,"current_range_meters":9600,"station_id":"","pricing_plan_id":"cebpf4jnsgd1na2vs0mg"},{"bike_id":"5519561e-6a78-4e38-8de4-84b7f76a38b0","system_id":"levelo_inurba_marseille","lat":43.309293,"lon":5.4014,"is_reserved":false,"is_disabled":true,"rental_uris":{"android":"levelo://app?vid=5519561e-6a78-4e38-8de4-84b7f76a38b0","ios":"levelo://app?vid=5519561e-6a78-4e38-8de4-84b7f76a38b0"},"vehicle_type_id":"4","last_reported":1743887291,"current_range_meters":9600,"station_id":"ce4bgvp2rcd13ifvqct0","pricing_plan_id":"cebpf4jnsgd1na2vs0mg"},{"bike_id":"2686a69f-4125-4b95-b632-183edeee69e2","system_id":"levelo_inurba_marseille","lat":43.2783,"lon":5.39213,"is_reserved":false,"is_disabled":false,"rental_uris":{"android":"levelo://app?vid=2686a69f-4125-4b95-b632-183edeee69e2","ios":"levelo://app?vid=2686a69f-4125-4b95-b632-183edeee69e2"},"vehicle_type_id":"4","last_reported":1743887291,"current_range_meters":9600,"station_id":"ce4bhjp2rcd13ifvqga0","pricing_plan_id":"cebpf4jnsgd1na2vs0mg"},{"bike_id":"3a57919f-ee85-408b-abb3-8451f9ab6282","system_id":"levelo_inurba_marseille","lat":43.29537,"lon":5.38543,"is_reserved":false,"is_disabled":false,"rental_uris":{"android":"levelo://app?vid=3a57919f-ee85-408b-abb3-8451f9ab6282","ios":"levelo://app?vid=3a57919f-ee85-408b-abb3-8451f9ab6282"},"vehicle_type_id":"4","last_reported":1743887291,"current_range_meters":9600,"station_id":"ce4bgih2rcd13ifvqba0","pricing_plan_id":"cebpf4jnsgd1na2vs0mg"},{"bike_id":"cbd682bb-35da-4589-966b-b522540c219e","system_id":"levelo_inurba_marseille","lat":43.2966,"lon":5.381523,"is_reserved":false,"is_disabled":false,"rental_uris":{"android":"levelo://app?vid=cbd682bb-35da-4589-966b-b522540c219e","ios":"levelo://app?vid=cbd682bb-35da-4589-966b-b522540c219e"},"vehicle_type_id":"4","last_reported":1743887291,"current_range_meters":10000,"station_id":"","pricing_plan_id":"cebpf4jnsgd1na2vs0mg"},{"bike_id":"fb7a6658-65a4-4af9-acc1-679ce624548f","system_id":"levelo_inurba_marseille","lat":43.26246,"lon":5.40426,"is_reserved":false,"is_disabled":false,"rental_uris":{"android":"levelo://app?vid=fb7a6658-65a4-4af9-acc1-679ce624548f","ios":"levelo://app?vid=fb7a6658-65a4-4af9-acc1-679ce624548f"},"vehicle_type_id":"4","last_reported":1743887291,"current_range_meters":10000,"station_id":"ce4bhmh2rcd13ifvqgmg","pricing_plan_id":"cebpf4jnsgd1na2vs0mg"},{"bike_id":"a6a4aada-4dec-4c66-9029-bd9ebff46b38","system_id":"levelo_inurba_marseille","lat":43.31324,"lon":5.39702,"is_reserved":false,"is_disabled":false,"rental_uris":{"android":"levelo://app?vid=a6a4aada-4dec-4c66-9029-bd9ebff46b38","ios":"levelo://app?vid=a6a4aada-4dec-4c66-9029-bd9ebff46b38"},"vehicle_type_id":"4","last_reported":1743887291,"current_range_meters":10000,"station_id":"ce4bgvp2rcd13ifvqcu0","pricing_plan_id":"cebpf4jnsgd1na2vs0mg"},{"bike_id":"301b6729-c45c-4915-8ef6-dadde3959d3d","system_id":"levelo_inurba_marseille","lat":43.26553,"lon":5.39083,"is_reserved":false,"is_disabled":true,"rental_uris":{"android":"levelo://app?vid=301b6729-c45c-4915-8ef6-dadde3959d3d","ios":"levelo://app?vid=301b6729-c45c-4915-8ef6-dadde3959d3d"},"vehicle_type_id":"4","last_reported":1743887291,"current_range_meters":10000,"station_id":"","pricing_plan_id":"cebpf4jnsgd1na2vs0mg"},{"bike_id":"74aa386e-40bb-4033-8cf4-8be7f9c96b67","system_id":"levelo_inurba_marseille","lat":43.26221,"lon":5.3791,"is_reserved":false,"is_disabled":true,"rental_uris":{"android":"levelo://app?vid=74aa386e-40bb-4033-8cf4-8be7f9c96b67","ios":"levelo://app?vid=74aa386e-40bb-4033-8cf4-8be7f9c96b67"},"vehicle_type_id":"4","last_reported":1743887291,"current_range_meters":10000,"station_id":"","pricing_plan_id":"cebpf4jnsgd1na2vs0mg"},{"bike_id":"0fd423f4-42b2-47ef-be8d-1258a1f21589","system_id":"levelo_inurba_marseille","lat":43.29254,"lon":5.38439,"is_reserved":false,"is_disabled":false,"rental_uris":{"android":"levelo://app?vid=0fd423f4-42b2-47ef-be8d-1258a1f21589","ios":"levelo://app?vid=0fd423f4-42b2-47ef-be8d-1258a1f21589"},"vehicle_type_id":"4","last_reported":1743887291,"current_range_meters":10000,"station_id":"ce4bh692rcd13ifvqea0","pricing_plan_id":"cebpf4jnsgd1na2vs0mg"},{"bike_id":"6d605c61-05c9-4c92-892c-0bd54fbaee0e","system_id":"levelo_inurba_marseille","lat":43.271856,"lon":5.409908,"is_reserved":false,"is_disabled":false,"rental_uris":{"android":"levelo://app?vid=6d605c61-05c9-4c92-892c-0bd54fbaee0e","ios":"levelo://app?vid=6d605c61-05c9-4c92-892c-0bd54fbaee0e"},"vehicle_type_id":"4","last_reported":1743887291,"current_range_meters":10000,"station_id":"ce4bhl12rcd13ifvqgf0","pricing_plan_id":"cebpf4jnsgd1na2vs0mg"},{"bike_id":"14136364-b810-4080-8c65-966ce83eedf3","system_id":"levelo_inurba_marseille","lat":43.23154,"lon":5.43715,"is_reserved":false,"is_disabled":false,"rental_uris":{"android":"levelo://app?vid=14136364-b810-4080-8c65-966ce83eedf3","ios":"levelo://app?vid=14136364-b810-4080-8c65-966ce83eedf3"},"vehicle_type_id":"4","last_reported":1743887291,"current_range_meters":10000,"station_id":"ce4bhmp2rcd13ifvqgog","pricing_plan_id":"cebpf4jnsgd1na2vs0mg"},{"bike_id":"4c25fb76-cd0e-4544-8837-d2585ee48375","system_id":"levelo_inurba_marseille","lat":43.29892,"lon":5.4366,"is_reserved":false,"is_disabled":false,"rental_uris":{"android":"levelo://app?vid=4c25fb76-cd0e-4544-8837-d2585ee48375","ios":"levelo://app?vid=4c25fb76-cd0e-4544-8837-d2585ee48375"},"vehicle_type_id":"4","last_reported":1743887291,"current_range_meters":10000,"station_id":"ce4bhpp2rcd13ifvqhfg","pricing_plan_id":"cebpf4jnsgd1na2vs0mg"},{"bike_id":"3a45d79d-f040-4d44-b43c-a5960338e178","system_id":"levelo_inurba_marseille","lat":43.28954,"lon":5.36626,"is_reserved":false,"is_disabled":false,"rental_uris":{"android":"levelo://app?vid=3a45d79d-f040-4d44-b43c-a5960338e178","ios":"levelo://app?vid=3a45d79d-f040-4d44-b43c-a5960338e178"},"vehicle_type_id":"4","last_reported":1743887291,"current_range_meters":10000,"station_id":"ce4bhap2rcd13ifvqek0","pricing_plan_id":"cebpf4jnsgd1na2vs0mg"},{"bike_id":"630c1eb0-62d8-4cfd-ba44-ebfad12e6eb7","system_id":"levelo_inurba_marseille","lat":43.25868,"lon":5.39896,"is_reserved":false,"is_disabled":false,"rental_uris":{"android":"levelo://app?vid=630c1eb0-62d8-4cfd-ba44-ebfad12e6eb7","ios":"levelo://app?vid=630c1eb0-62d8-4cfd-ba44-ebfad12e6eb7"},"vehicle_type_id":"4","last_reported":1743887291,"current_range_meters":10000,"station_id":"ce4bhl92rcd13ifvqghg","pricing_plan_id":"cebpf4jnsgd1na2vs0mg"},{"bike_id":"7a935817-47e2-4cb3-8324-a647fdf3a140","system_id":"levelo_inurba_marseille","lat":43.29535,"lon":5.38546,"is_reserved":false,"is_disabled":true,"rental_uris":{"android":"levelo://app?vid=7a935817-47e2-4cb3-8324-a647fdf3a140","ios":"levelo://app?vid=7a935817-47e2-4cb3-8324-a647fdf3a140"},"vehicle_type_id":"4","last_reported":1743887291,"current_range_meters":10000,"station_id":"ce4bgih2rcd13ifvqba0","pricing_plan_id":"cebpf4jnsgd1na2vs0mg"},{"bike_id":"35aabcf1-359b-43b2-adb4-311765a840a1","system_id":"levelo_inurba_marseille","lat":43.28703,"lon":5.3999,"is_reserved":false,"is_disabled":false,"rental_uris":{"android":"levelo://app?vid=35aabcf1-359b-43b2-adb4-311765a840a1","ios":"levelo://app?vid=35aabcf1-359b-43b2-adb4-311765a840a1"},"vehicle_type_id":"4","last_reported":1743887291,"current_range_meters":9600,"station_id":"ce4bho92rcd13ifvqh3g","pricing_plan_id":"cebpf4jnsgd1na2vs0mg"},{"bike_id":"1f12ad75-16f3-4157-bdbe-9f12c736b2fa","system_id":"levelo_inurba_marseille","lat":43.281077,"lon":5.378328,"is_reserved":false,"is_disabled":false,"rental_uris":{"android":"levelo://app?vid=1f12ad75-16f3-4157-bdbe-9f12c736b2fa","ios":"levelo://app?vid=1f12ad75-16f3-4157-bdbe-9f12c736b2fa"},"vehicle_type_id":"4","last_reported":1743887291,"current_range_meters":10000,"station_id":"ce4bh612rcd13ifvqe6g","pricing_plan_id":"cebpf4jnsgd1na2vs0mg"},{"bike_id":"02779b29-7a5d-439e-936a-d77d08eab911","system_id":"levelo_inurba_marseille","lat":43.25008,"lon":5.38913,"is_reserved":false,"is_disabled":false,"rental_uris":{"android":"levelo://app?vid=02779b29-7a5d-439e-936a-d77d08eab911","ios":"levelo://app?vid=02779b29-7a5d-439e-936a-d77d08eab911"},"vehicle_type_id":"4","last_reported":1743887291,"current_range_meters":10000,"station_id":"ce4bhgp2rcd13ifvqfd0","pricing_plan_id":"cebpf4jnsgd1na2vs0mg"},{"bike_id":"ae2491ec-6c71-4a54-8266-8b04f74c4c6b","system_id":"levelo_inurba_marseille","lat":43.31982,"lon":5.38139,"is_reserved":false,"is_disabled":false,"rental_uris":{"android":"levelo://app?vid=ae2491ec-6c71-4a54-8266-8b04f74c4c6b","ios":"levelo://app?vid=ae2491ec-6c71-4a54-8266-8b04f74c4c6b"},"vehicle_type_id":"4","last_reported":1743887291,"current_range_meters":10800,"station_id":"ce4bhr12rcd13ifvqhpg","pricing_plan_id":"cebpf4jnsgd1na2vs0mg"},{"bike_id":"58b17406-9bc6-4a67-b002-5d6db4195932","system_id":"levelo_inurba_marseille","lat":43.26231,"lon":5.40436,"is_reserved":false,"is_disabled":false,"rental_uris":{"android":"levelo://app?vid=58b17406-9bc6-4a67-b002-5d6db4195932","ios":"levelo://app?vid=58b17406-9bc6-4a67-b002-5d6db4195932"},"vehicle_type_id":"4","last_reported":1743887291,"current_range_meters":10800,"station_id":"ce4bhmh2rcd13ifvqgmg","pricing_plan_id":"cebpf4jnsgd1na2vs0mg"},{"bike_id":"1d16e172-d477-4a96-8d7d-42ff6a622d2e","system_id":"levelo_inurba_marseille","lat":43.24676,"lon":5.41195,"is_reserved":false,"is_disabled":false,"rental_uris":{"android":"levelo://app?vid=1d16e172-d477-4a96-8d7d-42ff6a622d2e","ios":"levelo://app?vid=1d16e172-d477-4a96-8d7d-42ff6a622d2e"},"vehicle_type_id":"4","last_reported":1743887291,"current_range_meters":10800,"station_id":"","pricing_plan_id":"cebpf4jnsgd1na2vs0mg"},{"bike_id":"d43f8bde-59ac-4c6f-91c1-7e9fd5619563","system_id":"levelo_inurba_marseille","lat":43.24646,"lon":5.38904,"is_reserved":false,"is_disabled":false,"rental_uris":{"android":"levelo://app?vid=d43f8bde-59ac-4c6f-91c1-7e9fd5619563","ios":"levelo://app?vid=d43f8bde-59ac-4c6f-91c1-7e9fd5619563"},"vehicle_type_id":"4","last_reported":1743887291,"current_range_meters":10800,"station_id":"ce4bhg12rcd13ifvqf60","pricing_plan_id":"cebpf4jnsgd1na2vs0mg"},{"bike_id":"7f10739e-fc85-4e5c-9528-0a53f0b743d3","system_id":"levelo_inurba_marseille","lat":43.31362,"lon":5.3849,"is_reserved":false,"is_disabled":false,"rental_uris":{"android":"levelo://app?vid=7f10739e-fc85-4e5c-9528-0a53f0b743d3","ios":"levelo://app?vid=7f10739e-fc85-4e5c-9528-0a53f0b743d3"},"vehicle_type_id":"4","last_reported":1743887291,"current_range_meters":10800,"station_id":"ce4bgt92rcd13ifvqcf0","pricing_plan_id":"cebpf4jnsgd1na2vs0mg"},{"bike_id":"b70cced5-dc6e-4ac4-aef4-4cfbee9a2e11","system_id":"levelo_inurba_marseille","lat":43.29587,"lon":5.37715,"is_reserved":false,"is_disabled":true,"rental_uris":{"android":"levelo://app?vid=b70cced5-dc6e-4ac4-aef4-4cfbee9a2e11","ios":"levelo://app?vid=b70cced5-dc6e-4ac4-aef4-4cfbee9a2e11"},"vehicle_type_id":"4","last_reported":1743887291,"current_range_meters":10800,"station_id":"ce4bgi92rcd13ifvqb90","pricing_plan_id":"cebpf4jnsgd1na2vs0mg"},{"bike_id":"ead2f46e-40fb-45c8-8a51-cd63d9889ae4","system_id":"levelo_inurba_marseille","lat":43.28688,"lon":5.37417,"is_reserved":false,"is_disabled":false,"rental_uris":{"android":"levelo://app?vid=ead2f46e-40fb-45c8-8a51-cd63d9889ae4","ios":"levelo://app?vid=ead2f46e-40fb-45c8-8a51-cd63d9889ae4"},"vehicle_type_id":"4","last_reported":1743887291,"current_range_meters":10800,"station_id":"ce4bh3p2rcd13ifvqdq0","pricing_plan_id":"cebpf4jnsgd1na2vs0mg"},{"bike_id":"25ab24b5-b311-4a08-b362-36380a20f6db","system_id":"levelo_inurba_marseille","lat":43.29234,"lon":5.38423,"is_reserved":false,"is_disabled":false,"rental_uris":{"android":"levelo://app?vid=25ab24b5-b311-4a08-b362-36380a20f6db","ios":"levelo://app?vid=25ab24b5-b311-4a08-b362-36380a20f6db"},"vehicle_type_id":"4","last_reported":1743887291,"current_range_meters":10800,"station_id":"ce4bh692rcd13ifvqea0","pricing_plan_id":"cebpf4jnsgd1na2vs0mg"},{"bike_id":"741ce7f8-845d-4b0f-9d44-aeb10e4c4b8c","system_id":"levelo_inurba_marseille","lat":43.28068,"lon":5.39657,"is_reserved":false,"is_disabled":false,"rental_uris":{"android":"levelo://app?vid=741ce7f8-845d-4b0f-9d44-aeb10e4c4b8c","ios":"levelo://app?vid=741ce7f8-845d-4b0f-9d44-aeb10e4c4b8c"},"vehicle_type_id":"4","last_reported":1743887291,"current_range_meters":10800,"station_id":"ce4bho12rcd13ifvqh2g","pricing_plan_id":"cebpf4jnsgd1na2vs0mg"},{"bike_id":"ef00486e-f935-43f4-8fae-42875a40f43e","system_id":"levelo_inurba_marseille","lat":43.30415,"lon":5.41282,"is_reserved":false,"is_disabled":false,"rental_uris":{"android":"levelo://app?vid=ef00486e-f935-43f4-8fae-42875a40f43e","ios":"levelo://app?vid=ef00486e-f935-43f4-8fae-42875a40f43e"},"vehicle_type_id":"4","last_reported":1743887291,"current_range_meters":10800,"station_id":"ce4bhop2rcd13ifvqh8g","pricing_plan_id":"cebpf4jnsgd1na2vs0mg"},{"bike_id":"61e926fe-3dd1-4572-9b21-809d24ca6684","system_id":"levelo_inurba_marseille","lat":43.30414,"lon":5.41285,"is_reserved":false,"is_disabled":false,"rental_uris":{"android":"levelo://app?vid=61e926fe-3dd1-4572-9b21-809d24ca6684","ios":"levelo://app?vid=61e926fe-3dd1-4572-9b21-809d24ca6684"},"vehicle_type_id":"4","last_reported":1743887291,"current_range_meters":11200,"station_id":"ce4bhop2rcd13ifvqh8g","pricing_plan_id":"cebpf4jnsgd1na2vs0mg"},{"bike_id":"e82f7598-ef71-4a7a-9107-2754e23fe2bf","system_id":"levelo_inurba_marseille","lat":43.284,"lon":5.37502,"is_reserved":false,"is_disabled":false,"rental_uris":{"android":"levelo://app?vid=e82f7598-ef71-4a7a-9107-2754e23fe2bf","ios":"levelo://app?vid=e82f7598-ef71-4a7a-9107-2754e23fe2bf"},"vehicle_type_id":"4","last_reported":1743887291,"current_range_meters":11200,"station_id":"ce4bh412rcd13ifvqds0","pricing_plan_id":"cebpf4jnsgd1na2vs0mg"},{"bike_id":"bead49ad-4f08-409b-b5dc-f17872424c3c","system_id":"levelo_inurba_marseille","lat":43.307392,"lon":5.424476,"is_reserved":false,"is_disabled":false,"rental_uris":{"android":"levelo://app?vid=bead49ad-4f08-409b-b5dc-f17872424c3c","ios":"levelo://app?vid=bead49ad-4f08-409b-b5dc-f17872424c3c"},"vehicle_type_id":"4","last_reported":1743887291,"current_range_meters":11200,"station_id":"ce4bhph2rcd13ifvqhdg","pricing_plan_id":"cebpf4jnsgd1na2vs0mg"},{"bike_id":"0f3d6cb8-7efe-42ee-ab50-2a663f90e5af","system_id":"levelo_inurba_marseille","lat":43.27619,"lon":5.36103,"is_reserved":false,"is_disabled":false,"rental_uris":{"android":"levelo://app?vid=0f3d6cb8-7efe-42ee-ab50-2a663f90e5af","ios":"levelo://app?vid=0f3d6cb8-7efe-42ee-ab50-2a663f90e5af"},"vehicle_type_id":"4","last_reported":1743887291,"current_range_meters":11200,"station_id":"ce4bgj92rcd13ifvqbe0","pricing_plan_id":"cebpf4jnsgd1na2vs0mg"},{"bike_id":"2a48bfa8-783f-4718-9f89-4e27b7461e42","system_id":"levelo_inurba_marseille","lat":43.27175,"lon":5.40998,"is_reserved":false,"is_disabled":false,"rental_uris":{"android":"levelo://app?vid=2a48bfa8-783f-4718-9f89-4e27b7461e42","ios":"levelo://app?vid=2a48bfa8-783f-4718-9f89-4e27b7461e42"},"vehicle_type_id":"4","last_reported":1743887291,"current_range_meters":11200,"station_id":"ce4bhl12rcd13ifvqgf0","pricing_plan_id":"cebpf4jnsgd1na2vs0mg"},{"bike_id":"3274a376-09c2-49dd-93aa-fe53edfe5deb","system_id":"levelo_inurba_marseille","lat":43.31708,"lon":5.37752,"is_reserved":false,"is_disabled":false,"rental_uris":{"android":"levelo://app?vid=3274a376-09c2-49dd-93aa-fe53edfe5deb","ios":"levelo://app?vid=3274a376-09c2-49dd-93aa-fe53edfe5deb"},"vehicle_type_id":"4","last_reported":1743887291,"current_range_meters":11200,"station_id":"ce4bgth2rcd13ifvqch0","pricing_plan_id":"cebpf4jnsgd1na2vs0mg"},{"bike_id":"aeaafdce-072b-410b-bb71-bd5216dc505b","system_id":"levelo_inurba_marseille","lat":43.2313,"lon":5.40048,"is_reserved":false,"is_disabled":false,"rental_uris":{"android":"levelo://app?vid=aeaafdce-072b-410b-bb71-bd5216dc505b","ios":"levelo://app?vid=aeaafdce-072b-410b-bb71-bd5216dc505b"},"vehicle_type_id":"4","last_reported":1743887291,"current_range_meters":11600,"station_id":"","pricing_plan_id":"cebpf4jnsgd1na2vs0mg"},{"bike_id":"26bffcb6-6826-468d-aadb-be235a4cf008","system_id":"levelo_inurba_marseille","lat":43.2941,"lon":5.38637,"is_reserved":false,"is_disabled":false,"rental_uris":{"android":"levelo://app?vid=26bffcb6-6826-468d-aadb-be235a4cf008","ios":"levelo://app?vid=26bffcb6-6826-468d-aadb-be235a4cf008"},"vehicle_type_id":"4","last_reported":1743887291,"current_range_meters":11600,"station_id":"ce4bh2h2rcd13ifvqdh0","pricing_plan_id":"cebpf4jnsgd1na2vs0mg"},{"bike_id":"9799cf9e-4a48-4c5c-a00b-7e1c7a11edeb","system_id":"levelo_inurba_marseille","lat":43.30543,"lon":5.36707,"is_reserved":false,"is_disabled":false,"rental_uris":{"android":"levelo://app?vid=9799cf9e-4a48-4c5c-a00b-7e1c7a11edeb","ios":"levelo://app?vid=9799cf9e-4a48-4c5c-a00b-7e1c7a11edeb"},"vehicle_type_id":"4","last_reported":1743887291,"current_range_meters":11600,"station_id":"ce4bgrp2rcd13ifvqc9g","pricing_plan_id":"cebpf4jnsgd1na2vs0mg"},{"bike_id":"64928ba1-df5f-4bed-a597-6dab5f3f4879","system_id":"levelo_inurba_marseille","lat":43.21749,"lon":5.34599,"is_reserved":false,"is_disabled":false,"rental_uris":{"android":"levelo://app?vid=64928ba1-df5f-4bed-a597-6dab5f3f4879","ios":"levelo://app?vid=64928ba1-df5f-4bed-a597-6dab5f3f4879"},"vehicle_type_id":"4","last_reported":1743887291,"current_range_meters":11600,"station_id":"ce4bhgh2rcd13ifvqfb0","pricing_plan_id":"cebpf4jnsgd1na2vs0mg"},{"bike_id":"12095ccb-6f38-4ea3-8f75-94bec0f83432","system_id":"levelo_inurba_marseille","lat":43.292594,"lon":5.384417,"is_reserved":false,"is_disabled":false,"rental_uris":{"android":"levelo://app?vid=12095ccb-6f38-4ea3-8f75-94bec0f83432","ios":"levelo://app?vid=12095ccb-6f38-4ea3-8f75-94bec0f83432"},"vehicle_type_id":"4","last_reported":1743887291,"current_range_meters":11600,"station_id":"ce4bh692rcd13ifvqea0","pricing_plan_id":"cebpf4jnsgd1na2vs0mg"},{"bike_id":"e5a7e6b1-2168-407f-8739-469989498272","system_id":"levelo_inurba_marseille","lat":43.31713,"lon":5.43707,"is_reserved":false,"is_disabled":false,"rental_uris":{"android":"levelo://app?vid=e5a7e6b1-2168-407f-8739-469989498272","ios":"levelo://app?vid=e5a7e6b1-2168-407f-8739-469989498272"},"vehicle_type_id":"4","last_reported":1743887291,"current_range_meters":11600,"station_id":"ce4bhp92rcd13ifvqhcg","pricing_plan_id":"cebpf4jnsgd1na2vs0mg"},{"bike_id":"6023584e-870f-454d-88b0-bf3dc0e21fbe","system_id":"levelo_inurba_marseille","lat":43.24393,"lon":5.37066,"is_reserved":false,"is_disabled":true,"rental_uris":{"android":"levelo://app?vid=6023584e-870f-454d-88b0-bf3dc0e21fbe","ios":"levelo://app?vid=6023584e-870f-454d-88b0-bf3dc0e21fbe"},"vehicle_type_id":"4","last_reported":1743887291,"current_range_meters":11600,"station_id":"ce4bhhh2rcd13ifvqfk0","pricing_plan_id":"cebpf4jnsgd1na2vs0mg"},{"bike_id":"7ee498b8-763a-4860-84b7-7b0a16065dd2","system_id":"levelo_inurba_marseille","lat":43.246616,"lon":5.38167,"is_reserved":false,"is_disabled":false,"rental_uris":{"android":"levelo://app?vid=7ee498b8-763a-4860-84b7-7b0a16065dd2","ios":"levelo://app?vid=7ee498b8-763a-4860-84b7-7b0a16065dd2"},"vehicle_type_id":"4","last_reported":1743887291,"current_range_meters":12000,"station_id":"ce4bhnp2rcd13ifvqgvg","pricing_plan_id":"cebpf4jnsgd1na2vs0mg"},{"bike_id":"9964c04c-8fd0-4277-9481-f779280859d5","system_id":"levelo_inurba_marseille","lat":43.2849,"lon":5.38543,"is_reserved":false,"is_disabled":false,"rental_uris":{"android":"levelo://app?vid=9964c04c-8fd0-4277-9481-f779280859d5","ios":"levelo://app?vid=9964c04c-8fd0-4277-9481-f779280859d5"},"vehicle_type_id":"4","last_reported":1743887291,"current_range_meters":12000,"station_id":"ce4bh8p2rcd13ifvqeb0","pricing_plan_id":"cebpf4jnsgd1na2vs0mg"},{"bike_id":"56a99f02-87ab-48ff-84da-16147fd25926","system_id":"levelo_inurba_marseille","lat":43.29394,"lon":5.38646,"is_reserved":false,"is_disabled":false,"rental_uris":{"android":"levelo://app?vid=56a99f02-87ab-48ff-84da-16147fd25926","ios":"levelo://app?vid=56a99f02-87ab-48ff-84da-16147fd25926"},"vehicle_type_id":"4","last_reported":1743887291,"current_range_meters":12000,"station_id":"ce4bh2h2rcd13ifvqdh0","pricing_plan_id":"cebpf4jnsgd1na2vs0mg"},{"bike_id":"97d77224-5748-4443-848a-6ab951c45d6d","system_id":"levelo_inurba_marseille","lat":43.32277,"lon":5.38308,"is_reserved":false,"is_disabled":false,"rental_uris":{"android":"levelo://app?vid=97d77224-5748-4443-848a-6ab951c45d6d","ios":"levelo://app?vid=97d77224-5748-4443-848a-6ab951c45d6d"},"vehicle_type_id":"4","last_reported":1743887291,"current_range_meters":12000,"station_id":"ce4bhr12rcd13ifvqhqg","pricing_plan_id":"cebpf4jnsgd1na2vs0mg"},{"bike_id":"1bf28fcd-357a-43a7-b215-31bb2951a59c","system_id":"levelo_inurba_marseille","lat":43.29598,"lon":5.42266,"is_reserved":false,"is_disabled":false,"rental_uris":{"android":"levelo://app?vid=1bf28fcd-357a-43a7-b215-31bb2951a59c","ios":"levelo://app?vid=1bf28fcd-357a-43a7-b215-31bb2951a59c"},"vehicle_type_id":"4","last_reported":1743887291,"current_range_meters":12000,"station_id":"","pricing_plan_id":"cebpf4jnsgd1na2vs0mg"},{"bike_id":"1007202f-efec-4331-9906-bd0827d23b86","system_id":"levelo_inurba_marseille","lat":43.25118,"lon":5.40321,"is_reserved":false,"is_disabled":false,"rental_uris":{"android":"levelo://app?vid=1007202f-efec-4331-9906-bd0827d23b86","ios":"levelo://app?vid=1007202f-efec-4331-9906-bd0827d23b86"},"vehicle_type_id":"4","last_reported":1743887291,"current_range_meters":12000,"station_id":"ce4bhlh2rcd13ifvqgig","pricing_plan_id":"cebpf4jnsgd1na2vs0mg"},{"bike_id":"e896077d-dd64-4c9e-993e-05fedb7630a7","system_id":"levelo_inurba_marseille","lat":43.25118,"lon":5.40323,"is_reserved":false,"is_disabled":false,"rental_uris":{"android":"levelo://app?vid=e896077d-dd64-4c9e-993e-05fedb7630a7","ios":"levelo://app?vid=e896077d-dd64-4c9e-993e-05fedb7630a7"},"vehicle_type_id":"4","last_reported":1743887291,"current_range_meters":12000,"station_id":"ce4bhlh2rcd13ifvqgig","pricing_plan_id":"cebpf4jnsgd1na2vs0mg"},{"bike_id":"6649f276-0157-43e5-bfdc-c5f84972f01a","system_id":"levelo_inurba_marseille","lat":43.286686,"lon":5.38665,"is_reserved":false,"is_disabled":false,"rental_uris":{"android":"levelo://app?vid=6649f276-0157-43e5-bfdc-c5f84972f01a","ios":"levelo://app?vid=6649f276-0157-43e5-bfdc-c5f84972f01a"},"vehicle_type_id":"4","last_reported":1743887291,"current_range_meters":12000,"station_id":"ce4bh2h2rcd13ifvqdh0","pricing_plan_id":"cebpf4jnsgd1na2vs0mg"},{"bike_id":"6a3f1ed9-312f-4815-b345-140c7683dfe3","system_id":"levelo_inurba_marseille","lat":43.29979,"lon":5.37185,"is_reserved":false,"is_disabled":false,"rental_uris":{"android":"levelo://app?vid=6a3f1ed9-312f-4815-b345-140c7683dfe3","ios":"levelo://app?vid=6a3f1ed9-312f-4815-b345-140c7683dfe3"},"vehicle_type_id":"4","last_reported":1743887291,"current_range_meters":12000,"station_id":"ce4bgr92rcd13ifvqc7g","pricing_plan_id":"cebpf4jnsgd1na2vs0mg"},{"bike_id":"b8ba99be-0841-404d-ac87-f667579b30d5","system_id":"levelo_inurba_marseille","lat":43.29263,"lon":5.3843,"is_reserved":false,"is_disabled":false,"rental_uris":{"android":"levelo://app?vid=b8ba99be-0841-404d-ac87-f667579b30d5","ios":"levelo://app?vid=b8ba99be-0841-404d-ac87-f667579b30d5"},"vehicle_type_id":"4","last_reported":1743887291,"current_range_meters":12000,"station_id":"ce4bh692rcd13ifvqea0","pricing_plan_id":"cebpf4jnsgd1na2vs0mg"},{"bike_id":"66e4125d-e33c-48ae-8483-a7dcb8318b6e","system_id":"levelo_inurba_marseille","lat":43.24816,"lon":5.3745,"is_reserved":false,"is_disabled":false,"rental_uris":{"android":"levelo://app?vid=66e4125d-e33c-48ae-8483-a7dcb8318b6e","ios":"levelo://app?vid=66e4125d-e33c-48ae-8483-a7dcb8318b6e"},"vehicle_type_id":"4","last_reported":1743887291,"current_range_meters":12000,"station_id":"ce4bhgh2rcd13ifvqfb0","pricing_plan_id":"cebpf4jnsgd1na2vs0mg"},{"bike_id":"559ef334-e00c-4400-9db7-2be88fe13599","system_id":"levelo_inurba_marseille","lat":43.2928,"lon":5.38427,"is_reserved":false,"is_disabled":false,"rental_uris":{"android":"levelo://app?vid=559ef334-e00c-4400-9db7-2be88fe13599","ios":"levelo://app?vid=559ef334-e00c-4400-9db7-2be88fe13599"},"vehicle_type_id":"4","last_reported":1743887291,"current_range_meters":12000,"station_id":"ce4bh692rcd13ifvqea0","pricing_plan_id":"cebpf4jnsgd1na2vs0mg"},{"bike_id":"981a9d4c-f76c-4dcc-ba44-36d6a3c47076","system_id":"levelo_inurba_marseille","lat":43.28922,"lon":5.38393,"is_reserved":false,"is_disabled":false,"rental_uris":{"android":"levelo://app?vid=981a9d4c-f76c-4dcc-ba44-36d6a3c47076","ios":"levelo://app?vid=981a9d4c-f76c-4dcc-ba44-36d6a3c47076"},"vehicle_type_id":"4","last_reported":1743887291,"current_range_meters":12000,"station_id":"ce4bh612rcd13ifvqe6g","pricing_plan_id":"cebpf4jnsgd1na2vs0mg"},{"bike_id":"3f29f8c3-8e3e-4e45-bae8-cc9e0f0c5f8e","system_id":"levelo_inurba_marseille","lat":43.32369,"lon":5.38879,"is_reserved":false,"is_disabled":false,"rental_uris":{"android":"levelo://app?vid=3f29f8c3-8e3e-4e45-bae8-cc9e0f0c5f8e","ios":"levelo://app?vid=3f29f8c3-8e3e-4e45-bae8-cc9e0f0c5f8e"},"vehicle_type_id":"4","last_reported":1743887291,"current_range_meters":12400,"station_id":"ce4bhqp2rcd13ifvqhog","pricing_plan_id":"cebpf4jnsgd1na2vs0mg"},{"bike_id":"5ed85862-8a09-4b95-a2aa-7fe225e41cfe","system_id":"levelo_inurba_marseille","lat":43.30773,"lon":5.37639,"is_reserved":false,"is_disabled":false,"rental_uris":{"android":"levelo://app?vid=5ed85862-8a09-4b95-a2aa-7fe225e41cfe","ios":"levelo://app?vid=5ed85862-8a09-4b95-a2aa-7fe225e41cfe"},"vehicle_type_id":"4","last_reported":1743887291,"current_range_meters":12400,"station_id":"ce4bgv92rcd13ifvqcq0","pricing_plan_id":"cebpf4jnsgd1na2vs0mg"},{"bike_id":"6b652b17-4709-4398-8896-6b070cee45a3","system_id":"levelo_inurba_marseille","lat":43.31516,"lon":5.38034,"is_reserved":false,"is_disabled":false,"rental_uris":{"android":"levelo://app?vid=6b652b17-4709-4398-8896-6b070cee45a3","ios":"levelo://app?vid=6b652b17-4709-4398-8896-6b070cee45a3"},"vehicle_type_id":"4","last_reported":1743887291,"current_range_meters":12400,"station_id":"ce4bhsp2rcd13ifvqi50","pricing_plan_id":"cebpf4jnsgd1na2vs0mg"},{"bike_id":"73272853-088e-4b39-8e6e-94fe10fc353c","system_id":"levelo_inurba_marseille","lat":43.33754,"lon":5.37477,"is_reserved":false,"is_disabled":false,"rental_uris":{"android":"levelo://app?vid=73272853-088e-4b39-8e6e-94fe10fc353c","ios":"levelo://app?vid=73272853-088e-4b39-8e6e-94fe10fc353c"},"vehicle_type_id":"4","last_reported":1743887291,"current_range_meters":12400,"station_id":"","pricing_plan_id":"cebpf4jnsgd1na2vs0mg"},{"bike_id":"60bd435b-e3ed-4dfb-943d-60dfecc5eb47","system_id":"levelo_inurba_marseille","lat":43.32344,"lon":5.40593,"is_reserved":false,"is_disabled":false,"rental_uris":{"android":"levelo://app?vid=60bd435b-e3ed-4dfb-943d-60dfecc5eb47","ios":"levelo://app?vid=60bd435b-e3ed-4dfb-943d-60dfecc5eb47"},"vehicle_type_id":"4","last_reported":1743887291,"current_range_meters":12400,"station_id":"ce4bhq92rcd13ifvqhjg","pricing_plan_id":"cebpf4jnsgd1na2vs0mg"},{"bike_id":"5c3af35e-2d22-4e5d-ade4-f93f3e1bf189","system_id":"levelo_inurba_marseille","lat":43.29015,"lon":5.38644,"is_reserved":false,"is_disabled":false,"rental_uris":{"android":"levelo://app?vid=5c3af35e-2d22-4e5d-ade4-f93f3e1bf189","ios":"levelo://app?vid=5c3af35e-2d22-4e5d-ade4-f93f3e1bf189"},"vehicle_type_id":"4","last_reported":1743887291,"current_range_meters":12400,"station_id":"ce4bh4p2rcd13ifvqe0g","pricing_plan_id":"cebpf4jnsgd1na2vs0mg"},{"bike_id":"4cfb0c94-e533-4d52-a051-239d80ee9e83","system_id":"levelo_inurba_marseille","lat":43.27945,"lon":5.41051,"is_reserved":false,"is_disabled":false,"rental_uris":{"android":"levelo://app?vid=4cfb0c94-e533-4d52-a051-239d80ee9e83","ios":"levelo://app?vid=4cfb0c94-e533-4d52-a051-239d80ee9e83"},"vehicle_type_id":"4","last_reported":1743887291,"current_range_meters":12400,"station_id":"ce4bhnp2rcd13ifvqh0g","pricing_plan_id":"cebpf4jnsgd1na2vs0mg"},{"bike_id":"80ea1bb0-32e0-4e3d-a8a3-f124120dc5ec","system_id":"levelo_inurba_marseille","lat":43.29227,"lon":5.38448,"is_reserved":false,"is_disabled":false,"rental_uris":{"android":"levelo://app?vid=80ea1bb0-32e0-4e3d-a8a3-f124120dc5ec","ios":"levelo://app?vid=80ea1bb0-32e0-4e3d-a8a3-f124120dc5ec"},"vehicle_type_id":"4","last_reported":1743887291,"current_range_meters":12400,"station_id":"ce4bh692rcd13ifvqea0","pricing_plan_id":"cebpf4jnsgd1na2vs0mg"},{"bike_id":"b1ce8b7b-c4b8-4a00-be3c-16a99eebf500","system_id":"levelo_inurba_marseille","lat":43.27072,"lon":5.42294,"is_reserved":false,"is_disabled":false,"rental_uris":{"android":"levelo://app?vid=b1ce8b7b-c4b8-4a00-be3c-16a99eebf500","ios":"levelo://app?vid=b1ce8b7b-c4b8-4a00-be3c-16a99eebf500"},"vehicle_type_id":"4","last_reported":1743887291,"current_range_meters":12400,"station_id":"ce4bhk92rcd13ifvqgb0","pricing_plan_id":"cebpf4jnsgd1na2vs0mg"},{"bike_id":"9c9e91df-e133-414a-8295-3f6a292805f6","system_id":"levelo_inurba_marseille","lat":43.23181,"lon":5.35563,"is_reserved":false,"is_disabled":true,"rental_uris":{"android":"levelo://app?vid=9c9e91df-e133-414a-8295-3f6a292805f6","ios":"levelo://app?vid=9c9e91df-e133-414a-8295-3f6a292805f6"},"vehicle_type_id":"4","last_reported":1743887291,"current_range_meters":12800,"station_id":"ce4bhu92rcd13ifvqi70","pricing_plan_id":"cebpf4jnsgd1na2vs0mg"},{"bike_id":"f30ac105-01c5-46a4-a875-a7359aeff3cc","system_id":"levelo_inurba_marseille","lat":43.30949,"lon":5.40194,"is_reserved":false,"is_disabled":false,"rental_uris":{"android":"levelo://app?vid=f30ac105-01c5-46a4-a875-a7359aeff3cc","ios":"levelo://app?vid=f30ac105-01c5-46a4-a875-a7359aeff3cc"},"vehicle_type_id":"4","last_reported":1743887291,"current_range_meters":12800,"station_id":"ce4bgvp2rcd13ifvqct0","pricing_plan_id":"cebpf4jnsgd1na2vs0mg"},{"bike_id":"afe421da-e719-4968-99d8-d4fddbc8e6ca","system_id":"levelo_inurba_marseille","lat":43.29791,"lon":5.39341,"is_reserved":false,"is_disabled":false,"rental_uris":{"android":"levelo://app?vid=afe421da-e719-4968-99d8-d4fddbc8e6ca","ios":"levelo://app?vid=afe421da-e719-4968-99d8-d4fddbc8e6ca"},"vehicle_type_id":"4","last_reported":1743887291,"current_range_meters":12400,"station_id":"chh1huq6cuj3fo74tm60","pricing_plan_id":"cebpf4jnsgd1na2vs0mg"},{"bike_id":"95222263-9459-4eb1-9105-e576169b9f8d","system_id":"levelo_inurba_marseille","lat":43.27573,"lon":5.38419,"is_reserved":false,"is_disabled":false,"rental_uris":{"android":"levelo://app?vid=95222263-9459-4eb1-9105-e576169b9f8d","ios":"levelo://app?vid=95222263-9459-4eb1-9105-e576169b9f8d"},"vehicle_type_id":"4","last_reported":1743887291,"current_range_meters":12800,"station_id":"ce4bhh92rcd13ifvqfi0","pricing_plan_id":"cebpf4jnsgd1na2vs0mg"},{"bike_id":"5e720447-f2e8-405c-b101-0124b38264ac","system_id":"levelo_inurba_marseille","lat":43.30631,"lon":5.40084,"is_reserved":false,"is_disabled":false,"rental_uris":{"android":"levelo://app?vid=5e720447-f2e8-405c-b101-0124b38264ac","ios":"levelo://app?vid=5e720447-f2e8-405c-b101-0124b38264ac"},"vehicle_type_id":"4","last_reported":1743887291,"current_range_meters":12800,"station_id":"ce4bh112rcd13ifvqda0","pricing_plan_id":"cebpf4jnsgd1na2vs0mg"},{"bike_id":"c13a3738-67c7-45b1-ba39-6d8894dbef0a","system_id":"levelo_inurba_marseille","lat":43.29404,"lon":5.3862,"is_reserved":false,"is_disabled":false,"rental_uris":{"android":"levelo://app?vid=c13a3738-67c7-45b1-ba39-6d8894dbef0a","ios":"levelo://app?vid=c13a3738-67c7-45b1-ba39-6d8894dbef0a"},"vehicle_type_id":"4","last_reported":1743887291,"current_range_meters":12800,"station_id":"ce4bh2h2rcd13ifvqdh0","pricing_plan_id":"cebpf4jnsgd1na2vs0mg"},{"bike_id":"c89a749e-492a-4edb-8fe9-5254d4113a2d","system_id":"levelo_inurba_marseille","lat":43.27996,"lon":5.41659,"is_reserved":false,"is_disabled":false,"rental_uris":{"android":"levelo://app?vid=c89a749e-492a-4edb-8fe9-5254d4113a2d","ios":"levelo://app?vid=c89a749e-492a-4edb-8fe9-5254d4113a2d"},"vehicle_type_id":"4","last_reported":1743887291,"current_range_meters":12800,"station_id":"ce4bho12rcd13ifvqh1g","pricing_plan_id":"cebpf4jnsgd1na2vs0mg"},{"bike_id":"019ca5a0-4bb2-4fef-ba6d-d68b692d0401","system_id":"levelo_inurba_marseille","lat":43.29602,"lon":5.40609,"is_reserved":false,"is_disabled":false,"rental_uris":{"android":"levelo://app?vid=019ca5a0-4bb2-4fef-ba6d-d68b692d0401","ios":"levelo://app?vid=019ca5a0-4bb2-4fef-ba6d-d68b692d0401"},"vehicle_type_id":"4","last_reported":1743887291,"current_range_meters":12800,"station_id":"ce4bh0h2rcd13ifvqd60","pricing_plan_id":"cebpf4jnsgd1na2vs0mg"},{"bike_id":"abde5d83-9b30-4b2f-8a88-f914ca452329","system_id":"levelo_inurba_marseille","lat":43.31209,"lon":5.38674,"is_reserved":false,"is_disabled":false,"rental_uris":{"android":"levelo://app?vid=abde5d83-9b30-4b2f-8a88-f914ca452329","ios":"levelo://app?vid=abde5d83-9b30-4b2f-8a88-f914ca452329"},"vehicle_type_id":"4","last_reported":1743887291,"current_range_meters":13600,"station_id":"","pricing_plan_id":"cebpf4jnsgd1na2vs0mg"},{"bike_id":"52f2b0ca-3bc1-41ed-866c-f3ad75ca741f","system_id":"levelo_inurba_marseille","lat":43.2942,"lon":5.38633,"is_reserved":false,"is_disabled":false,"rental_uris":{"android":"levelo://app?vid=52f2b0ca-3bc1-41ed-866c-f3ad75ca741f","ios":"levelo://app?vid=52f2b0ca-3bc1-41ed-866c-f3ad75ca741f"},"vehicle_type_id":"4","last_reported":1743887291,"current_range_meters":13600,"station_id":"ce4bh2h2rcd13ifvqdh0","pricing_plan_id":"cebpf4jnsgd1na2vs0mg"},{"bike_id":"22bb8e72-b882-45b0-8ef0-48c0d733be7f","system_id":"levelo_inurba_marseille","lat":43.30313,"lon":5.40448,"is_reserved":false,"is_disabled":false,"rental_uris":{"android":"levelo://app?vid=22bb8e72-b882-45b0-8ef0-48c0d733be7f","ios":"levelo://app?vid=22bb8e72-b882-45b0-8ef0-48c0d733be7f"},"vehicle_type_id":"4","last_reported":1743887291,"current_range_meters":13600,"station_id":"ce4bh012rcd13ifvqd10","pricing_plan_id":"cebpf4jnsgd1na2vs0mg"},{"bike_id":"625c7f88-f421-41b1-8bda-76b07c36098e","system_id":"levelo_inurba_marseille","lat":43.26535,"lon":5.3905,"is_reserved":false,"is_disabled":false,"rental_uris":{"android":"levelo://app?vid=625c7f88-f421-41b1-8bda-76b07c36098e","ios":"levelo://app?vid=625c7f88-f421-41b1-8bda-76b07c36098e"},"vehicle_type_id":"4","last_reported":1743887291,"current_range_meters":13600,"station_id":"ce4bhe12rcd13ifvqf30","pricing_plan_id":"cebpf4jnsgd1na2vs0mg"},{"bike_id":"041a64d4-c209-47e3-9bde-273215841e33","system_id":"levelo_inurba_marseille","lat":43.2871,"lon":5.37391,"is_reserved":false,"is_disabled":false,"rental_uris":{"android":"levelo://app?vid=041a64d4-c209-47e3-9bde-273215841e33","ios":"levelo://app?vid=041a64d4-c209-47e3-9bde-273215841e33"},"vehicle_type_id":"4","last_reported":1743887291,"current_range_meters":13600,"station_id":"ce4bh3p2rcd13ifvqdq0","pricing_plan_id":"cebpf4jnsgd1na2vs0mg"},{"bike_id":"c18f5f31-0732-4e0a-948f-24e696213f4d","system_id":"levelo_inurba_marseille","lat":43.30308,"lon":5.36905,"is_reserved":false,"is_disabled":false,"rental_uris":{"android":"levelo://app?vid=c18f5f31-0732-4e0a-948f-24e696213f4d","ios":"levelo://app?vid=c18f5f31-0732-4e0a-948f-24e696213f4d"},"vehicle_type_id":"4","last_reported":1743887291,"current_range_meters":13600,"station_id":"ce4bgqh2rcd13ifvqc5g","pricing_plan_id":"cebpf4jnsgd1na2vs0mg"},{"bike_id":"070defeb-06d3-4dff-b75a-e4a595285b64","system_id":"levelo_inurba_marseille","lat":43.28445,"lon":5.392017,"is_reserved":false,"is_disabled":false,"rental_uris":{"android":"levelo://app?vid=070defeb-06d3-4dff-b75a-e4a595285b64","ios":"levelo://app?vid=070defeb-06d3-4dff-b75a-e4a595285b64"},"vehicle_type_id":"4","last_reported":1743887291,"current_range_meters":14000,"station_id":"ce4bhoh2rcd13ifvqh5g","pricing_plan_id":"cebpf4jnsgd1na2vs0mg"},{"bike_id":"b598b6b8-69a3-4491-bd9b-eb0a2b32b0cf","system_id":"levelo_inurba_marseille","lat":43.30997,"lon":5.38068,"is_reserved":false,"is_disabled":false,"rental_uris":{"android":"levelo://app?vid=b598b6b8-69a3-4491-bd9b-eb0a2b32b0cf","ios":"levelo://app?vid=b598b6b8-69a3-4491-bd9b-eb0a2b32b0cf"},"vehicle_type_id":"4","last_reported":1743887291,"current_range_meters":14000,"station_id":"","pricing_plan_id":"cebpf4jnsgd1na2vs0mg"},{"bike_id":"7d2dde4f-5a6a-4005-a47e-231c9dacefe3","system_id":"levelo_inurba_marseille","lat":43.30794,"lon":5.43516,"is_reserved":false,"is_disabled":false,"rental_uris":{"android":"levelo://app?vid=7d2dde4f-5a6a-4005-a47e-231c9dacefe3","ios":"levelo://app?vid=7d2dde4f-5a6a-4005-a47e-231c9dacefe3"},"vehicle_type_id":"4","last_reported":1743887291,"current_range_meters":14000,"station_id":"ce4bhph2rcd13ifvqheg","pricing_plan_id":"cebpf4jnsgd1na2vs0mg"},{"bike_id":"7988fa7b-115e-4e19-86e3-e91b6496d2ce","system_id":"levelo_inurba_marseille","lat":43.27694,"lon":5.38898,"is_reserved":false,"is_disabled":false,"rental_uris":{"android":"levelo://app?vid=7988fa7b-115e-4e19-86e3-e91b6496d2ce","ios":"levelo://app?vid=7988fa7b-115e-4e19-86e3-e91b6496d2ce"},"vehicle_type_id":"4","last_reported":1743887291,"current_range_meters":14000,"station_id":"ce4bhi12rcd13ifvqfo0","pricing_plan_id":"cebpf4jnsgd1na2vs0mg"},{"bike_id":"9ff6fe59-e728-4212-8f9c-db0cc47b7e52","system_id":"levelo_inurba_marseille","lat":43.27154,"lon":5.40997,"is_reserved":false,"is_disabled":false,"rental_uris":{"android":"levelo://app?vid=9ff6fe59-e728-4212-8f9c-db0cc47b7e52","ios":"levelo://app?vid=9ff6fe59-e728-4212-8f9c-db0cc47b7e52"},"vehicle_type_id":"4","last_reported":1743887291,"current_range_meters":14000,"station_id":"ce4bhl12rcd13ifvqgf0","pricing_plan_id":"cebpf4jnsgd1na2vs0mg"},{"bike_id":"b694265b-af4c-4c93-a90c-7ece3b293fb8","system_id":"levelo_inurba_marseille","lat":43.30903,"lon":5.36849,"is_reserved":false,"is_disabled":false,"rental_uris":{"android":"levelo://app?vid=b694265b-af4c-4c93-a90c-7ece3b293fb8","ios":"levelo://app?vid=b694265b-af4c-4c93-a90c-7ece3b293fb8"},"vehicle_type_id":"4","last_reported":1743887291,"current_range_meters":14400,"station_id":"ce4bgn92rcd13ifvqbvg","pricing_plan_id":"cebpf4jnsgd1na2vs0mg"},{"bike_id":"8c489d95-029f-4ac0-a27b-76ae1e70ef5c","system_id":"levelo_inurba_marseille","lat":43.248,"lon":5.37459,"is_reserved":false,"is_disabled":false,"rental_uris":{"android":"levelo://app?vid=8c489d95-029f-4ac0-a27b-76ae1e70ef5c","ios":"levelo://app?vid=8c489d95-029f-4ac0-a27b-76ae1e70ef5c"},"vehicle_type_id":"4","last_reported":1743887291,"current_range_meters":14400,"station_id":"ce4bhgh2rcd13ifvqfb0","pricing_plan_id":"cebpf4jnsgd1na2vs0mg"},{"bike_id":"5420e474-5232-43f0-bd62-51e2359e3157","system_id":"levelo_inurba_marseille","lat":43.31383,"lon":5.37014,"is_reserved":false,"is_disabled":false,"rental_uris":{"android":"levelo://app?vid=5420e474-5232-43f0-bd62-51e2359e3157","ios":"levelo://app?vid=5420e474-5232-43f0-bd62-51e2359e3157"},"vehicle_type_id":"4","last_reported":1743887291,"current_range_meters":14400,"station_id":"","pricing_plan_id":"cebpf4jnsgd1na2vs0mg"},{"bike_id":"ceba594e-ff69-4140-828e-f8a961103e51","system_id":"levelo_inurba_marseille","lat":43.24172,"lon":5.36387,"is_reserved":false,"is_disabled":false,"rental_uris":{"android":"levelo://app?vid=ceba594e-ff69-4140-828e-f8a961103e51","ios":"levelo://app?vid=ceba594e-ff69-4140-828e-f8a961103e51"},"vehicle_type_id":"4","last_reported":1743887291,"current_range_meters":14400,"station_id":"cpo36qri1sfpv3e86is0","pricing_plan_id":"cebpf4jnsgd1na2vs0mg"},{"bike_id":"39334b2e-a232-4667-bc51-4cd7f6edb5d2","system_id":"levelo_inurba_marseille","lat":43.31155,"lon":5.3871,"is_reserved":false,"is_disabled":false,"rental_uris":{"android":"levelo://app?vid=39334b2e-a232-4667-bc51-4cd7f6edb5d2","ios":"levelo://app?vid=39334b2e-a232-4667-bc51-4cd7f6edb5d2"},"vehicle_type_id":"4","last_reported":1743887291,"current_range_meters":14400,"station_id":"ce4bgv12rcd13ifvqcp0","pricing_plan_id":"cebpf4jnsgd1na2vs0mg"},{"bike_id":"ac2c70e4-85e0-48f2-8e15-e23e948cc8ee","system_id":"levelo_inurba_marseille","lat":43.28454,"lon":5.38419,"is_reserved":false,"is_disabled":false,"rental_uris":{"android":"levelo://app?vid=ac2c70e4-85e0-48f2-8e15-e23e948cc8ee","ios":"levelo://app?vid=ac2c70e4-85e0-48f2-8e15-e23e948cc8ee"},"vehicle_type_id":"4","last_reported":1743887291,"current_range_meters":14400,"station_id":"ce4bh512rcd13ifvqe3g","pricing_plan_id":"cebpf4jnsgd1na2vs0mg"},{"bike_id":"8f6dc4df-021c-4b49-b773-41ad9c5221cf","system_id":"levelo_inurba_marseille","lat":43.31021,"lon":5.37131,"is_reserved":false,"is_disabled":false,"rental_uris":{"android":"levelo://app?vid=8f6dc4df-021c-4b49-b773-41ad9c5221cf","ios":"levelo://app?vid=8f6dc4df-021c-4b49-b773-41ad9c5221cf"},"vehicle_type_id":"4","last_reported":1743887291,"current_range_meters":14400,"station_id":"","pricing_plan_id":"cebpf4jnsgd1na2vs0mg"},{"bike_id":"7fd0635d-68ad-4ce6-a52b-daef56987b4b","system_id":"levelo_inurba_marseille","lat":43.30867,"lon":5.38572,"is_reserved":false,"is_disabled":false,"rental_uris":{"android":"levelo://app?vid=7fd0635d-68ad-4ce6-a52b-daef56987b4b","ios":"levelo://app?vid=7fd0635d-68ad-4ce6-a52b-daef56987b4b"},"vehicle_type_id":"4","last_reported":1743887291,"current_range_meters":14400,"station_id":"","pricing_plan_id":"cebpf4jnsgd1na2vs0mg"},{"bike_id":"136b6e45-ee21-453e-aa22-e07947db9071","system_id":"levelo_inurba_marseille","lat":43.23153,"lon":5.43695,"is_reserved":false,"is_disabled":true,"rental_uris":{"android":"levelo://app?vid=136b6e45-ee21-453e-aa22-e07947db9071","ios":"levelo://app?vid=136b6e45-ee21-453e-aa22-e07947db9071"},"vehicle_type_id":"4","last_reported":1743887291,"current_range_meters":14400,"station_id":"ce4bhmp2rcd13ifvqgog","pricing_plan_id":"cebpf4jnsgd1na2vs0mg"},{"bike_id":"bff1f6ae-49dc-4b51-83a2-55b35b74eafe","system_id":"levelo_inurba_marseille","lat":43.30886,"lon":5.39626,"is_reserved":false,"is_disabled":false,"rental_uris":{"android":"levelo://app?vid=bff1f6ae-49dc-4b51-83a2-55b35b74eafe","ios":"levelo://app?vid=bff1f6ae-49dc-4b51-83a2-55b35b74eafe"},"vehicle_type_id":"4","last_reported":1743887291,"current_range_meters":14800,"station_id":"ce4bh012rcd13ifvqcv0","pricing_plan_id":"cebpf4jnsgd1na2vs0mg"},{"bike_id":"c3e6d442-6282-4c88-9f90-93d85aff9e76","system_id":"levelo_inurba_marseille","lat":43.28177,"lon":5.42635,"is_reserved":false,"is_disabled":false,"rental_uris":{"android":"levelo://app?vid=c3e6d442-6282-4c88-9f90-93d85aff9e76","ios":"levelo://app?vid=c3e6d442-6282-4c88-9f90-93d85aff9e76"},"vehicle_type_id":"4","last_reported":1743887291,"current_range_meters":14800,"station_id":"ce4bhnh2rcd13ifvqgug","pricing_plan_id":"cebpf4jnsgd1na2vs0mg"},{"bike_id":"618bf23b-adb6-43ed-8028-0f4853df42d3","system_id":"levelo_inurba_marseille","lat":43.23155,"lon":5.43714,"is_reserved":false,"is_disabled":false,"rental_uris":{"android":"levelo://app?vid=618bf23b-adb6-43ed-8028-0f4853df42d3","ios":"levelo://app?vid=618bf23b-adb6-43ed-8028-0f4853df42d3"},"vehicle_type_id":"4","last_reported":1743887291,"current_range_meters":14800,"station_id":"ce4bhmp2rcd13ifvqgog","pricing_plan_id":"cebpf4jnsgd1na2vs0mg"},{"bike_id":"c9bcb9ed-89fa-4f1d-bf29-12fb5d644696","system_id":"levelo_inurba_marseille","lat":43.279943,"lon":5.416677,"is_reserved":false,"is_disabled":false,"rental_uris":{"android":"levelo://app?vid=c9bcb9ed-89fa-4f1d-bf29-12fb5d644696","ios":"levelo://app?vid=c9bcb9ed-89fa-4f1d-bf29-12fb5d644696"},"vehicle_type_id":"4","last_reported":1743887291,"current_range_meters":15200,"station_id":"ce4bho12rcd13ifvqh1g","pricing_plan_id":"cebpf4jnsgd1na2vs0mg"},{"bike_id":"c0614140-faef-462b-9028-7f001d61c406","system_id":"levelo_inurba_marseille","lat":43.27824,"lon":5.39212,"is_reserved":false,"is_disabled":false,"rental_uris":{"android":"levelo://app?vid=c0614140-faef-462b-9028-7f001d61c406","ios":"levelo://app?vid=c0614140-faef-462b-9028-7f001d61c406"},"vehicle_type_id":"4","last_reported":1743887291,"current_range_meters":15200,"station_id":"ce4bhjp2rcd13ifvqga0","pricing_plan_id":"cebpf4jnsgd1na2vs0mg"},{"bike_id":"c7e7d181-f711-4b9b-95cd-f2c368ee7892","system_id":"levelo_inurba_marseille","lat":43.29425,"lon":5.38664,"is_reserved":false,"is_disabled":false,"rental_uris":{"android":"levelo://app?vid=c7e7d181-f711-4b9b-95cd-f2c368ee7892","ios":"levelo://app?vid=c7e7d181-f711-4b9b-95cd-f2c368ee7892"},"vehicle_type_id":"4","last_reported":1743887291,"current_range_meters":15200,"station_id":"ce4bh2h2rcd13ifvqdh0","pricing_plan_id":"cebpf4jnsgd1na2vs0mg"},{"bike_id":"a4b1b24e-b2df-4c16-aebe-a57f906cef7d","system_id":"levelo_inurba_marseille","lat":43.25108,"lon":5.40326,"is_reserved":false,"is_disabled":false,"rental_uris":{"android":"levelo://app?vid=a4b1b24e-b2df-4c16-aebe-a57f906cef7d","ios":"levelo://app?vid=a4b1b24e-b2df-4c16-aebe-a57f906cef7d"},"vehicle_type_id":"4","last_reported":1743887291,"current_range_meters":15200,"station_id":"ce4bhlh2rcd13ifvqgig","pricing_plan_id":"cebpf4jnsgd1na2vs0mg"},