{"last_updated":1761312203,"ttl":60,"version":"2.2","data":{"bikes":[{"bike_id":"01c13d25-9520-417a-8c26-a59c858043ba","system_id":"levelo_inurba_marseille","lat":43.231882,"lon":5.3555,"is_reserved":false,"is_disabled":false,"rental_uris":{"android":"levelo://app?vid=01c13d25-9520-417a-8c26-a59c858043ba","ios":"levelo://app?vid=01c13d25-9520-417a-8c26-a59c858043ba"},"vehicle_type_id":"4","last_reported":1761312204,"current_range_meters":3200,"station_id":"ce4bhu92rcd13ifvqi70","pricing_plan_id":"cebpf4jnsgd1na2vs0mg"},{"bike_id":"eb0eca1e-8dcb-44b9-96bd-c87720dc8ccf","system_id":"levelo_inurba_marseille","lat":43.28675,"lon":5.38663,"is_reserved":false,"is_disabled":false,"rental_uris":{"android":"levelo://app?vid=eb0eca1e-8dcb-44b9-96bd-c87720dc8ccf","ios":"levelo://app?vid=eb0eca1e-8dcb-44b9-96bd-c87720dc8ccf"},"vehicle_type_id":"4","last_reported":1761312204,"current_range_meters":3200,"station_id":"ce4bh492rcd13ifvqdug","pricing_plan_id":"cebpf4jnsgd1na2vs0mg"},{"bike_id":"e69b4dc7-a009-4dbf-8171-167a0f7f1c40","system_id":"levelo_inurba_marseille","lat":43.29795,"lon":5.38097,"is_reserved":false,"is_disabled":false,"rental_uris":{"android":"levelo://app?vid=e69b4dc7-a009-4dbf-8171-167a0f7f1c40","ios":"levelo://app?vid=e69b4dc7-a009-4dbf-8171-167a0f7f1c40"},"vehicle_type_id":"4","last_reported":1761312204,"current_range_meters":3200,"station_id":"ce4bgip2rcd13ifvqbb0","pricing_plan_id":"cebpf4jnsgd1na2vs0mg"},{"bike_id":"de88b060-a8d3-4631-9b2a-19bac33a1a68","system_id":"levelo_inurba_marseille","lat":43.30726,"lon":5.42431,"is_reserved":false,"is_disabled":false,"rental_uris":{"android":"levelo://app?vid=de88b060-a8d3-4631-9b2a-19bac33a1a68","ios":"levelo://app?vid=de88b060-a8d3-4631-9b2a-19bac33a1a68"},"vehicle_type_id":"4","last_reported":1761312204,"current_range_meters":3200,"station_id":"st_cvj6ca6bvosntc0bfgr0","pricing_plan_id":"cebpf4jnsgd1na2vs0mg"},{"bike_id":"c47bff71-6839-427b-bbee-e03c441c8cf2","system_id":"levelo_inurba_marseille","lat":43.29607,"lon":5.37373,"is_reserved":false,"is_disabled":false,"rental_uris":{"android":"levelo://app?vid=c47bff71-6839-427b-bbee-e03c441c8cf2","ios":"levelo://app?vid=c47bff71-6839-427b-bbee-e03c441c8cf2"},"vehicle_type_id":"4","last_reported":1761312204,"current_range_meters":3600,"station_id":"","pricing_plan_id":"cebpf4jnsgd1na2vs0mg"},{"bike_id":"a05e36d6-d3fc-4453-8406-863c02cfabdc","system_id":"levelo_inurba_marseille","lat":43.25499,"lon":5.37667,"is_reserved":false,"is_disabled":false,"rental_uris":{"android":"levelo://app?vid=a05e36d6-d3fc-4453-8406-863c02cfabdc","ios":"levelo://app?vid=a05e36d6-d3fc-4453-8406-863c02cfabdc"},"vehicle_type_id":"4","last_reported":1761312204,"current_range_meters":3600,"station_id":"ce4bhh12rcd13ifvqff0","pricing_plan_id":"cebpf4jnsgd1na2vs0mg"},{"bike_id":"6b45eb21-05a1-4408-9a68-2375d8e8fa47","system_id":"levelo_inurba_marseille","lat":43.30517,"lon":5.36538,"is_reserved":false,"is_disabled":false,"rental_uris":{"android":"levelo://app?vid=6b45eb21-05a1-4408-9a68-2375d8e8fa47","ios":"levelo://app?vid=6b45eb21-05a1-4408-9a68-2375d8e8fa47"},"vehicle_type_id":"4","last_reported":1761312204,"current_range_meters":3600,"station_id":"","pricing_plan_id":"cebpf4jnsgd1na2vs0mg"},{"bike_id":"8a6306ea-7ef7-4589-afbd-2de149f1a931","system_id":"levelo_inurba_marseille","lat":43.255,"lon":5.37653,"is_reserved":false,"is_disabled":false,"rental_uris":{"android":"levelo://app?vid=8a6306ea-7ef7-4589-afbd-2de149f1a931","ios":"levelo://app?vid=8a6306ea-7ef7-4589-afbd-2de149f1a931"},"vehicle_type_id":"4","last_reported":1761312204,"current_range_meters":3600,"station_id":"ce4bhh12rcd13ifvqff0","pricing_plan_id":"cebpf4jnsgd1na2vs0mg"},{"bike_id":"98d30f4f-ae64-44b4-bb3f-a149368c1606","system_id":"levelo_inurba_marseille","lat":43.21743,"lon":5.34608,"is_reserved":false,"is_disabled":false,"rental_uris":{"android":"levelo://app?vid=98d30f4f-ae64-44b4-bb3f-a149368c1606","ios":"levelo://app?vid=98d30f4f-ae64-44b4-bb3f-a149368c1606"},"vehicle_type_id":"4","last_reported":1761312204,"current_range_meters":3600,"station_id":"","pricing_plan_id":"cebpf4jnsgd1na2vs0mg"},{"bike_id":"b4275f3a-12f1-4a9d-b3cb-4c014a2abc4c","system_id":"levelo_inurba_marseille","lat":43.303122,"lon":5.368786,"is_reserved":false,"is_disabled":false,"rental_uris":{"android":"levelo://app?vid=b4275f3a-12f1-4a9d-b3cb-4c014a2abc4c","ios":"levelo://app?vid=b4275f3a-12f1-4a9d-b3cb-4c014a2abc4c"},"vehicle_type_id":"4","last_reported":1761312204,"current_range_meters":3600,"station_id":"ce4bgr92rcd13ifvqc6g","pricing_plan_id":"cebpf4jnsgd1na2vs0mg"},{"bike_id":"5df3bb81-4916-4427-8cd1-aaca61ad6031","system_id":"levelo_inurba_marseille","lat":43.29624,"lon":5.38094,"is_reserved":false,"is_disabled":false,"rental_uris":{"android":"levelo://app?vid=5df3bb81-4916-4427-8cd1-aaca61ad6031","ios":"levelo://app?vid=5df3bb81-4916-4427-8cd1-aaca61ad6031"},"vehicle_type_id":"4","last_reported":1761312204,"current_range_meters":3600,"station_id":"ce4bgl12rcd13ifvqbo0","pricing_plan_id":"cebpf4jnsgd1na2vs0mg"},{"bike_id":"82576c51-8b9b-43eb-aa43-fc4a18c9ea5b","system_id":"levelo_inurba_marseille","lat":43.21752,"lon":5.34602,"is_reserved":false,"is_disabled":false,"rental_uris":{"android":"levelo://app?vid=82576c51-8b9b-43eb-aa43-fc4a18c9ea5b","ios":"levelo://app?vid=82576c51-8b9b-43eb-aa43-fc4a18c9ea5b"},"vehicle_type_id":"4","last_reported":1761312204,"current_range_meters":4000,"station_id":"st_cvj6r9ubvosntc0bgbag","pricing_plan_id":"cebpf4jnsgd1na2vs0mg"},{"bike_id":"c9fd8169-0a20-4ad4-9fcf-00de79a84979","system_id":"levelo_inurba_marseille","lat":43.2722,"lon":5.39162,"is_reserved":false,"is_disabled":false,"rental_uris":{"android":"levelo://app?vid=c9fd8169-0a20-4ad4-9fcf-00de79a84979","ios":"levelo://app?vid=c9fd8169-0a20-4ad4-9fcf-00de79a84979"},"vehicle_type_id":"4","last_reported":1761312204,"current_range_meters":4000,"station_id":"ce4bhhp2rcd13ifvqfm0","pricing_plan_id":"cebpf4jnsgd1na2vs0mg"},{"bike_id":"37d01fc8-4b4d-4652-a489-1254eb9d4c80","system_id":"levelo_inurba_marseille","lat":43.34076,"lon":5.40411,"is_reserved":false,"is_disabled":false,"rental_uris":{"android":"levelo://app?vid=37d01fc8-4b4d-4652-a489-1254eb9d4c80","ios":"levelo://app?vid=37d01fc8-4b4d-4652-a489-1254eb9d4c80"},"vehicle_type_id":"4","last_reported":1761312204,"current_range_meters":4000,"station_id":"","pricing_plan_id":"cebpf4jnsgd1na2vs0mg"},{"bike_id":"0910f7b5-2883-448d-b24c-0df7e25533ca","system_id":"levelo_inurba_marseille","lat":43.29305,"lon":5.37168,"is_reserved":false,"is_disabled":false,"rental_uris":{"android":"levelo://app?vid=0910f7b5-2883-448d-b24c-0df7e25533ca","ios":"levelo://app?vid=0910f7b5-2883-448d-b24c-0df7e25533ca"},"vehicle_type_id":"4","last_reported":1761312204,"current_range_meters":4400,"station_id":"ce4bgh92rcd13ifvqb40","pricing_plan_id":"cebpf4jnsgd1na2vs0mg"},{"bike_id":"e93caea6-f81a-4081-a102-7b3f39898c45","system_id":"levelo_inurba_marseille","lat":43.29565,"lon":5.37523,"is_reserved":false,"is_disabled":false,"rental_uris":{"android":"levelo://app?vid=e93caea6-f81a-4081-a102-7b3f39898c45","ios":"levelo://app?vid=e93caea6-f81a-4081-a102-7b3f39898c45"},"vehicle_type_id":"4","last_reported":1761312204,"current_range_meters":4400,"station_id":"ce4bgh92rcd13ifvqb50","pricing_plan_id":"cebpf4jnsgd1na2vs0mg"},{"bike_id":"c385a208-9aa6-41bd-85bc-501a87d1a7e2","system_id":"levelo_inurba_marseille","lat":43.300753,"lon":5.390396,"is_reserved":false,"is_disabled":false,"rental_uris":{"android":"levelo://app?vid=c385a208-9aa6-41bd-85bc-501a87d1a7e2","ios":"levelo://app?vid=c385a208-9aa6-41bd-85bc-501a87d1a7e2"},"vehicle_type_id":"4","last_reported":1761312204,"current_range_meters":4800,"station_id":"ce4bh192rcd13ifvqdb0","pricing_plan_id":"cebpf4jnsgd1na2vs0mg"},{"bike_id":"0f71b321-9e02-4a1e-9fbf-61d6576bcdc0","system_id":"levelo_inurba_marseille","lat":43.26493,"lon":5.39548,"is_reserved":false,"is_disabled":false,"rental_uris":{"android":"levelo://app?vid=0f71b321-9e02-4a1e-9fbf-61d6576bcdc0","ios":"levelo://app?vid=0f71b321-9e02-4a1e-9fbf-61d6576bcdc0"},"vehicle_type_id":"4","last_reported":1761312204,"current_range_meters":5600,"station_id":"ce4bhi12rcd13ifvqfq0","pricing_plan_id":"cebpf4jnsgd1na2vs0mg"},{"bike_id":"18d5b5a7-c475-4ab1-92a3-3dca4da411ed","system_id":"levelo_inurba_marseille","lat":43.21745,"lon":5.34608,"is_reserved":false,"is_disabled":false,"rental_uris":{"android":"levelo://app?vid=18d5b5a7-c475-4ab1-92a3-3dca4da411ed","ios":"levelo://app?vid=18d5b5a7-c475-4ab1-92a3-3dca4da411ed"},"vehicle_type_id":"4","last_reported":1761312204,"current_range_meters":5600,"station_id":"st_cvj6r9ubvosntc0bgbag","pricing_plan_id":"cebpf4jnsgd1na2vs0mg"},{"bike_id":"fedd7937-63d3-4738-8a52-d6f6e76fbeb1","system_id":"levelo_inurba_marseille","lat":43.3062,"lon":5.36715,"is_reserved":false,"is_disabled":false,"rental_uris":{"android":"levelo://app?vid=fedd7937-63d3-4738-8a52-d6f6e76fbeb1","ios":"levelo://app?vid=fedd7937-63d3-4738-8a52-d6f6e76fbeb1"},"vehicle_type_id":"4","last_reported":1761312204,"current_range_meters":6400,"station_id":"","pricing_plan_id":"cebpf4jnsgd1na2vs0mg"},{"bike_id":"95a8015d-7586-4a7c-b321-bbf4c1859e4a","system_id":"levelo_inurba_marseille","lat":43.30417,"lon":5.39742,"is_reserved":false,"is_disabled":false,"rental_uris":{"android":"levelo://app?vid=95a8015d-7586-4a7c-b321-bbf4c1859e4a","ios":"levelo://app?vid=95a8015d-7586-4a7c-b321-bbf4c1859e4a"},"vehicle_type_id":"4","last_reported":1761312204,"current_range_meters":6400,"station_id":"ce4bh092rcd13ifvqd20","pricing_plan_id":"cebpf4jnsgd1na2vs0mg"},{"bike_id":"f28e01f3-bdd4-4516-907e-96aa7dac2a79","system_id":"levelo_inurba_marseille","lat":43.29033,"lon":5.37549,"is_reserved":false,"is_disabled":true,"rental_uris":{"android":"levelo://app?vid=f28e01f3-bdd4-4516-907e-96aa7dac2a79","ios":"levelo://app?vid=f28e01f3-bdd4-4516-907e-96aa7dac2a79"},"vehicle_type_id":"4","last_reported":1761312204,"current_range_meters":6400,"station_id":"ce4bh692rcd13ifvqe90","pricing_plan_id":"cebpf4jnsgd1na2vs0mg"},{"bike_id":"51c56780-5988-4582-8706-d0a7b79e7f1b","system_id":"levelo_inurba_marseille","lat":43.29598,"lon":5.38094,"is_reserved":false,"is_disabled":false,"rental_uris":{"android":"levelo://app?vid=51c56780-5988-4582-8706-d0a7b79e7f1b","ios":"levelo://app?vid=51c56780-5988-4582-8706-d0a7b79e7f1b"},"vehicle_type_id":"4","last_reported":1761312204,"current_range_meters":6400,"station_id":"ce4bgl12rcd13ifvqbo0","pricing_plan_id":"cebpf4jnsgd1na2vs0mg"},{"bike_id":"ad9a8166-85b3-49b6-88c7-1c6bdf69b632","system_id":"levelo_inurba_marseille","lat":43.311107,"lon":5.377624,"is_reserved":false,"is_disabled":false,"rental_uris":{"android":"levelo://app?vid=ad9a8166-85b3-49b6-88c7-1c6bdf69b632","ios":"levelo://app?vid=ad9a8166-85b3-49b6-88c7-1c6bdf69b632"},"vehicle_type_id":"4","last_reported":1761312204,"current_range_meters":6400,"station_id":"","pricing_plan_id":"cebpf4jnsgd1na2vs0mg"},{"bike_id":"fb4deeba-8dd4-4c5e-b9c3-9e7bbe43d6b8","system_id":"levelo_inurba_marseille","lat":43.29525,"lon":5.38548,"is_reserved":false,"is_disabled":false,"rental_uris":{"android":"levelo://app?vid=fb4deeba-8dd4-4c5e-b9c3-9e7bbe43d6b8","ios":"levelo://app?vid=fb4deeba-8dd4-4c5e-b9c3-9e7bbe43d6b8"},"vehicle_type_id":"4","last_reported":1761312204,"current_range_meters":6400,"station_id":"ce4bgih2rcd13ifvqba0","pricing_plan_id":"cebpf4jnsgd1na2vs0mg"},{"bike_id":"4eae2ec4-8862-466e-a3d9-395cca4276d0","system_id":"levelo_inurba_marseille","lat":43.303761,"lon":5.37586,"is_reserved":false,"is_disabled":false,"rental_uris":{"android":"levelo://app?vid=4eae2ec4-8862-466e-a3d9-395cca4276d0","ios":"levelo://app?vid=4eae2ec4-8862-466e-a3d9-395cca4276d0"},"vehicle_type_id":"4","last_reported":1761312204,"current_range_meters":6400,"station_id":"","pricing_plan_id":"cebpf4jnsgd1na2vs0mg"},{"bike_id":"6fbed9aa-b703-4c2d-a17c-cdfc3380ec45","system_id":"levelo_inurba_marseille","lat":43.29073,"lon":5.37169,"is_reserved":false,"is_disabled":false,"rental_uris":{"android":"levelo://app?vid=6fbed9aa-b703-4c2d-a17c-cdfc3380ec45","ios":"levelo://app?vid=6fbed9aa-b703-4c2d-a17c-cdfc3380ec45"},"vehicle_type_id":"4","last_reported":1761312204,"current_range_meters":6400,"station_id":"ce4bh5p2rcd13ifvqe4g","pricing_plan_id":"cebpf4jnsgd1na2vs0mg"},{"bike_id":"c8c0fa58-a519-4343-9887-b0c694f93aef","system_id":"levelo_inurba_marseille","lat":43.28854,"lon":5.4251,"is_reserved":false,"is_disabled":false,"rental_uris":{"android":"levelo://app?vid=c8c0fa58-a519-4343-9887-b0c694f93aef","ios":"levelo://app?vid=c8c0fa58-a519-4343-9887-b0c694f93aef"},"vehicle_type_id":"4","last_reported":1761312204,"current_range_meters":6800,"station_id":"st_d3b462108ojc7389ooeg","pricing_plan_id":"cebpf4jnsgd1na2vs0mg"},{"bike_id":"3167c122-43fa-497a-bf85-d0a6522abe7a","system_id":"levelo_inurba_marseille","lat":43.32761,"lon":5.37522,"is_reserved":false,"is_disabled":false,"rental_uris":{"android":"levelo://app?vid=3167c122-43fa-497a-bf85-d0a6522abe7a","ios":"levelo://app?vid=3167c122-43fa-497a-bf85-d0a6522abe7a"},"vehicle_type_id":"4","last_reported":1761312204,"current_range_meters":6800,"station_id":"","pricing_plan_id":"cebpf4jnsgd1na2vs0mg"},{"bike_id":"4905277f-5bff-40db-8e03-9cfdb4a0857f","system_id":"levelo_inurba_marseille","lat":43.21742,"lon":5.34616,"is_reserved":false,"is_disabled":false,"rental_uris":{"android":"levelo://app?vid=4905277f-5bff-40db-8e03-9cfdb4a0857f","ios":"levelo://app?vid=4905277f-5bff-40db-8e03-9cfdb4a0857f"},"vehicle_type_id":"4","last_reported":1761312204,"current_range_meters":6800,"station_id":"","pricing_plan_id":"cebpf4jnsgd1na2vs0mg"},{"bike_id":"00fd3c6a-780c-49dc-9993-d4de69c9b57a","system_id":"levelo_inurba_marseille","lat":43.32095,"lon":5.36772,"is_reserved":false,"is_disabled":false,"rental_uris":{"android":"levelo://app?vid=00fd3c6a-780c-49dc-9993-d4de69c9b57a","ios":"levelo://app?vid=00fd3c6a-780c-49dc-9993-d4de69c9b57a"},"vehicle_type_id":"4","last_reported":1761312204,"current_range_meters":6800,"station_id":"ce4bhrh2rcd13ifvqhug","pricing_plan_id":"cebpf4jnsgd1na2vs0mg"},{"bike_id":"87a6e97b-3aea-4cb4-bbdd-6608c36fd83b","system_id":"levelo_inurba_marseille","lat":43.28206,"lon":5.39054,"is_reserved":false,"is_disabled":false,"rental_uris":{"android":"levelo://app?vid=87a6e97b-3aea-4cb4-bbdd-6608c36fd83b","ios":"levelo://app?vid=87a6e97b-3aea-4cb4-bbdd-6608c36fd83b"},"vehicle_type_id":"4","last_reported":1761312204,"current_range_meters":6800,"station_id":"ce4bhn92rcd13ifvqgsg","pricing_plan_id":"cebpf4jnsgd1na2vs0mg"},{"bike_id":"4f60bbe6-dc9a-4b1e-8d97-9921c331d651","system_id":"levelo_inurba_marseille","lat":43.275015,"lon":5.424457,"is_reserved":false,"is_disabled":false,"rental_uris":{"android":"levelo://app?vid=4f60bbe6-dc9a-4b1e-8d97-9921c331d651","ios":"levelo://app?vid=4f60bbe6-dc9a-4b1e-8d97-9921c331d651"},"vehicle_type_id":"4","last_reported":1761312204,"current_range_meters":6800,"station_id":"ce4bhn92rcd13ifvqgrg","pricing_plan_id":"cebpf4jnsgd1na2vs0mg"},{"bike_id":"df6db0d3-584f-409b-9ce3-c999a2e5b75f","system_id":"levelo_inurba_marseille","lat":43.29352,"lon":5.37848,"is_reserved":false,"is_disabled":false,"rental_uris":{"android":"levelo://app?vid=df6db0d3-584f-409b-9ce3-c999a2e5b75f","ios":"levelo://app?vid=df6db0d3-584f-409b-9ce3-c999a2e5b75f"},"vehicle_type_id":"4","last_reported":1761312204,"current_range_meters":7200,"station_id":"ce4bgjh2rcd13ifvqbf0","pricing_plan_id":"cebpf4jnsgd1na2vs0mg"},{"bike_id":"81f21b53-cf62-4775-b356-48c5a5938770","system_id":"levelo_inurba_marseille","lat":43.31115,"lon":5.37779,"is_reserved":false,"is_disabled":false,"rental_uris":{"android":"levelo://app?vid=81f21b53-cf62-4775-b356-48c5a5938770","ios":"levelo://app?vid=81f21b53-cf62-4775-b356-48c5a5938770"},"vehicle_type_id":"4","last_reported":1761312204,"current_range_meters":7200,"station_id":"ce4bgt92rcd13ifvqcg0","pricing_plan_id":"cebpf4jnsgd1na2vs0mg"},{"bike_id":"6865ccc4-c418-4bfd-83e2-0e0b43bfb6f7","system_id":"levelo_inurba_marseille","lat":43.32331,"lon":5.36738,"is_reserved":false,"is_disabled":false,"rental_uris":{"android":"levelo://app?vid=6865ccc4-c418-4bfd-83e2-0e0b43bfb6f7","ios":"levelo://app?vid=6865ccc4-c418-4bfd-83e2-0e0b43bfb6f7"},"vehicle_type_id":"4","last_reported":1761312204,"current_range_meters":7200,"station_id":"ce4bhsh2rcd13ifvqi2g","pricing_plan_id":"cebpf4jnsgd1na2vs0mg"},{"bike_id":"402288a5-99bb-4da6-b59f-a4a2adea9ceb","system_id":"levelo_inurba_marseille","lat":43.28217,"lon":5.39129,"is_reserved":false,"is_disabled":false,"rental_uris":{"android":"levelo://app?vid=402288a5-99bb-4da6-b59f-a4a2adea9ceb","ios":"levelo://app?vid=402288a5-99bb-4da6-b59f-a4a2adea9ceb"},"vehicle_type_id":"4","last_reported":1761312204,"current_range_meters":7200,"station_id":"ce4bhn92rcd13ifvqgsg","pricing_plan_id":"cebpf4jnsgd1na2vs0mg"},{"bike_id":"9b61a20a-b370-4370-9c77-f3a00a29c1e8","system_id":"levelo_inurba_marseille","lat":43.272098,"lon":5.391826,"is_reserved":false,"is_disabled":false,"rental_uris":{"android":"levelo://app?vid=9b61a20a-b370-4370-9c77-f3a00a29c1e8","ios":"levelo://app?vid=9b61a20a-b370-4370-9c77-f3a00a29c1e8"},"vehicle_type_id":"4","last_reported":1761312204,"current_range_meters":7200,"station_id":"ce4bhhp2rcd13ifvqfm0","pricing_plan_id":"cebpf4jnsgd1na2vs0mg"},{"bike_id":"2abd8007-e3d5-4e62-b1c1-a57ad1612356","system_id":"levelo_inurba_marseille","lat":43.30911,"lon":5.36853,"is_reserved":false,"is_disabled":false,"rental_uris":{"android":"levelo://app?vid=2abd8007-e3d5-4e62-b1c1-a57ad1612356","ios":"levelo://app?vid=2abd8007-e3d5-4e62-b1c1-a57ad1612356"},"vehicle_type_id":"4","last_reported":1761312204,"current_range_meters":8000,"station_id":"ce4bgn92rcd13ifvqbvg","pricing_plan_id":"cebpf4jnsgd1na2vs0mg"},{"bike_id":"32e7919e-26d8-4f7d-b229-086147816fa4","system_id":"levelo_inurba_marseille","lat":43.301286,"lon":5.38775,"is_reserved":false,"is_disabled":false,"rental_uris":{"android":"levelo://app?vid=32e7919e-26d8-4f7d-b229-086147816fa4","ios":"levelo://app?vid=32e7919e-26d8-4f7d-b229-086147816fa4"},"vehicle_type_id":"4","last_reported":1761312204,"current_range_meters":8000,"station_id":"","pricing_plan_id":"cebpf4jnsgd1na2vs0mg"},{"bike_id":"cb698fe3-8836-4504-9f9d-a5822f90217c","system_id":"levelo_inurba_marseille","lat":43.30587,"lon":5.39353,"is_reserved":false,"is_disabled":false,"rental_uris":{"android":"levelo://app?vid=cb698fe3-8836-4504-9f9d-a5822f90217c","ios":"levelo://app?vid=cb698fe3-8836-4504-9f9d-a5822f90217c"},"vehicle_type_id":"4","last_reported":1761312204,"current_range_meters":8000,"station_id":"ce4bh0p2rcd13ifvqd80","pricing_plan_id":"cebpf4jnsgd1na2vs0mg"},{"bike_id":"aeedb2fc-fb15-41ac-80c0-d8f6e4e72433","system_id":"levelo_inurba_marseille","lat":43.21754,"lon":5.34623,"is_reserved":false,"is_disabled":false,"rental_uris":{"android":"levelo://app?vid=aeedb2fc-fb15-41ac-80c0-d8f6e4e72433","ios":"levelo://app?vid=aeedb2fc-fb15-41ac-80c0-d8f6e4e72433"},"vehicle_type_id":"4","last_reported":1761312204,"current_range_meters":8400,"station_id":"st_cvj6r9ubvosntc0bgbag","pricing_plan_id":"cebpf4jnsgd1na2vs0mg"},{"bike_id":"ec9665a2-32ab-42b2-9bdf-cf94d158a9c2","system_id":"levelo_inurba_marseille","lat":43.3012,"lon":5.37047,"is_reserved":false,"is_disabled":false,"rental_uris":{"android":"levelo://app?vid=ec9665a2-32ab-42b2-9bdf-cf94d158a9c2","ios":"levelo://app?vid=ec9665a2-32ab-42b2-9bdf-cf94d158a9c2"},"vehicle_type_id":"4","last_reported":1761312204,"current_range_meters":8400,"station_id":"","pricing_plan_id":"cebpf4jnsgd1na2vs0mg"},{"bike_id":"18df7d7e-5c22-4e8f-8de7-2f9e21f3521d","system_id":"levelo_inurba_marseille","lat":43.29596,"lon":5.39602,"is_reserved":false,"is_disabled":false,"rental_uris":{"android":"levelo://app?vid=18df7d7e-5c22-4e8f-8de7-2f9e21f3521d","ios":"levelo://app?vid=18df7d7e-5c22-4e8f-8de7-2f9e21f3521d"},"vehicle_type_id":"4","last_reported":1761312204,"current_range_meters":8400,"station_id":"","pricing_plan_id":"cebpf4jnsgd1na2vs0mg"},{"bike_id":"d973e827-df0d-4dcb-a941-7aeb0f6f3050","system_id":"levelo_inurba_marseille","lat":43.29776,"lon":5.37104,"is_reserved":false,"is_disabled":false,"rental_uris":{"android":"levelo://app?vid=d973e827-df0d-4dcb-a941-7aeb0f6f3050","ios":"levelo://app?vid=d973e827-df0d-4dcb-a941-7aeb0f6f3050"},"vehicle_type_id":"4","last_reported":1761312204,"current_range_meters":8400,"station_id":"ce4bgop2rcd13ifvqc1g","pricing_plan_id":"cebpf4jnsgd1na2vs0mg"},{"bike_id":"a4e20f8c-df9d-4452-8aed-8222f860c65b","system_id":"levelo_inurba_marseille","lat":43.319873,"lon":5.381648,"is_reserved":false,"is_disabled":false,"rental_uris":{"android":"levelo://app?vid=a4e20f8c-df9d-4452-8aed-8222f860c65b","ios":"levelo://app?vid=a4e20f8c-df9d-4452-8aed-8222f860c65b"},"vehicle_type_id":"4","last_reported":1761312204,"current_range_meters":8800,"station_id":"ce4bhr12rcd13ifvqhpg","pricing_plan_id":"cebpf4jnsgd1na2vs0mg"},{"bike_id":"35dbf7b6-a6aa-4b95-9ea9-aea68c709c98","system_id":"levelo_inurba_marseille","lat":43.29568,"lon":5.39965,"is_reserved":false,"is_disabled":false,"rental_uris":{"android":"levelo://app?vid=35dbf7b6-a6aa-4b95-9ea9-aea68c709c98","ios":"levelo://app?vid=35dbf7b6-a6aa-4b95-9ea9-aea68c709c98"},"vehicle_type_id":"4","last_reported":1761312204,"current_range_meters":8800,"station_id":"ce4bh312rcd13ifvqdj0","pricing_plan_id":"cebpf4jnsgd1na2vs0mg"},{"bike_id":"fcd85f07-fc88-4b7c-8904-4d2b88ef7078","system_id":"levelo_inurba_marseille","lat":43.290108,"lon":5.356175,"is_reserved":false,"is_disabled":false,"rental_uris":{"android":"levelo://app?vid=fcd85f07-fc88-4b7c-8904-4d2b88ef7078","ios":"levelo://app?vid=fcd85f07-fc88-4b7c-8904-4d2b88ef7078"},"vehicle_type_id":"4","last_reported":1761312204,"current_range_meters":8800,"station_id":"","pricing_plan_id":"cebpf4jnsgd1na2vs0mg"},{"bike_id":"7e7c46e0-a178-4367-a3d8-8aa17649ea70","system_id":"levelo_inurba_marseille","lat":43.32471,"lon":5.36566,"is_reserved":false,"is_disabled":false,"rental_uris":{"android":"levelo://app?vid=7e7c46e0-a178-4367-a3d8-8aa17649ea70","ios":"levelo://app?vid=7e7c46e0-a178-4367-a3d8-8aa17649ea70"},"vehicle_type_id":"4","last_reported":1761312204,"current_range_meters":8800,"station_id":"ce4bhs12rcd13ifvqhvg","pricing_plan_id":"cebpf4jnsgd1na2vs0mg"},{"bike_id":"253f5ca0-b330-4c3d-8fa2-f6308bcfcfa8","system_id":"levelo_inurba_marseille","lat":43.25118,"lon":5.40318,"is_reserved":false,"is_disabled":false,"rental_uris":{"android":"levelo://app?vid=253f5ca0-b330-4c3d-8fa2-f6308bcfcfa8","ios":"levelo://app?vid=253f5ca0-b330-4c3d-8fa2-f6308bcfcfa8"},"vehicle_type_id":"4","last_reported":1761312204,"current_range_meters":9200,"station_id":"ce4bhlh2rcd13ifvqgig","pricing_plan_id":"cebpf4jnsgd1na2vs0mg"},{"bike_id":"72f28ce4-2a3c-45af-ba31-a9c27c101691","system_id":"levelo_inurba_marseille","lat":43.28997,"lon":5.35623,"is_reserved":false,"is_disabled":false,"rental_uris":{"android":"levelo://app?vid=72f28ce4-2a3c-45af-ba31-a9c27c101691","ios":"levelo://app?vid=72f28ce4-2a3c-45af-ba31-a9c27c101691"},"vehicle_type_id":"4","last_reported":1761312204,"current_range_meters":9200,"station_id":"ce4bhb92rcd13ifvqen0","pricing_plan_id":"cebpf4jnsgd1na2vs0mg"},{"bike_id":"e96035ce-3f75-42c7-bc07-32e4ba0bd41a","system_id":"levelo_inurba_marseille","lat":43.30487,"lon":5.36947,"is_reserved":false,"is_disabled":false,"rental_uris":{"android":"levelo://app?vid=e96035ce-3f75-42c7-bc07-32e4ba0bd41a","ios":"levelo://app?vid=e96035ce-3f75-42c7-bc07-32e4ba0bd41a"},"vehicle_type_id":"4","last_reported":1761312204,"current_range_meters":9200,"station_id":"","pricing_plan_id":"cebpf4jnsgd1na2vs0mg"},{"bike_id":"33908946-3b38-418d-84ea-3438b8c7a726","system_id":"levelo_inurba_marseille","lat":43.26214,"lon":5.37441,"is_reserved":false,"is_disabled":false,"rental_uris":{"android":"levelo://app?vid=33908946-3b38-418d-84ea-3438b8c7a726","ios":"levelo://app?vid=33908946-3b38-418d-84ea-3438b8c7a726"},"vehicle_type_id":"4","last_reported":1761312204,"current_range_meters":9200,"station_id":"ce4bhgp2rcd13ifvqfc0","pricing_plan_id":"cebpf4jnsgd1na2vs0mg"},{"bike_id":"4bf2bcf2-1f28-45b0-8dd7-afa7fa72f466","system_id":"levelo_inurba_marseille","lat":43.255901,"lon":5.382434,"is_reserved":false,"is_disabled":false,"rental_uris":{"android":"levelo://app?vid=4bf2bcf2-1f28-45b0-8dd7-afa7fa72f466","ios":"levelo://app?vid=4bf2bcf2-1f28-45b0-8dd7-afa7fa72f466"},"vehicle_type_id":"4","last_reported":1761312204,"current_range_meters":9200,"station_id":"ce4bhih2rcd13ifvqfs0","pricing_plan_id":"cebpf4jnsgd1na2vs0mg"},{"bike_id":"0523451d-b11c-4b79-b023-f0eb143c3b3e","system_id":"levelo_inurba_marseille","lat":43.23178,"lon":5.39993,"is_reserved":false,"is_disabled":true,"rental_uris":{"android":"levelo://app?vid=0523451d-b11c-4b79-b023-f0eb143c3b3e","ios":"levelo://app?vid=0523451d-b11c-4b79-b023-f0eb143c3b3e"},"vehicle_type_id":"4","last_reported":1761312204,"current_range_meters":9600,"station_id":"ce4bhn12rcd13ifvqgqg","pricing_plan_id":"cebpf4jnsgd1na2vs0mg"},{"bike_id":"3e4783b6-28d8-4737-a4ef-6a1b0da02476","system_id":"levelo_inurba_marseille","lat":43.29438,"lon":5.40729,"is_reserved":false,"is_disabled":false,"rental_uris":{"android":"levelo://app?vid=3e4783b6-28d8-4737-a4ef-6a1b0da02476","ios":"levelo://app?vid=3e4783b6-28d8-4737-a4ef-6a1b0da02476"},"vehicle_type_id":"4","last_reported":1761312204,"current_range_meters":9600,"station_id":"","pricing_plan_id":"cebpf4jnsgd1na2vs0mg"},{"bike_id":"dfebdec9-6d3a-45fe-8fa0-56c687aed286","system_id":"levelo_inurba_marseille","lat":43.29284,"lon":5.37466,"is_reserved":false,"is_disabled":false,"rental_uris":{"android":"levelo://app?vid=dfebdec9-6d3a-45fe-8fa0-56c687aed286","ios":"levelo://app?vid=dfebdec9-6d3a-45fe-8fa0-56c687aed286"},"vehicle_type_id":"4","last_reported":1761312204,"current_range_meters":9600,"station_id":"ce4bgi12rcd13ifvqb70","pricing_plan_id":"cebpf4jnsgd1na2vs0mg"},{"bike_id":"7d1eddd2-09e0-4918-aed4-139720bee12f","system_id":"levelo_inurba_marseille","lat":43.28666,"lon":5.38665,"is_reserved":false,"is_disabled":false,"rental_uris":{"android":"levelo://app?vid=7d1eddd2-09e0-4918-aed4-139720bee12f","ios":"levelo://app?vid=7d1eddd2-09e0-4918-aed4-139720bee12f"},"vehicle_type_id":"4","last_reported":1761312204,"current_range_meters":9600,"station_id":"ce4bh492rcd13ifvqdug","pricing_plan_id":"cebpf4jnsgd1na2vs0mg"},{"bike_id":"31f6d87a-4233-4fc7-ae11-51c0273b22c5","system_id":"levelo_inurba_marseille","lat":43.246389,"lon":5.389181,"is_reserved":false,"is_disabled":false,"rental_uris":{"android":"levelo://app?vid=31f6d87a-4233-4fc7-ae11-51c0273b22c5","ios":"levelo://app?vid=31f6d87a-4233-4fc7-ae11-51c0273b22c5"},"vehicle_type_id":"4","last_reported":1761312204,"current_range_meters":9600,"station_id":"ce4bhg12rcd13ifvqf60","pricing_plan_id":"cebpf4jnsgd1na2vs0mg"},{"bike_id":"7a0a2a64-adfe-4ef6-b546-4c1d012b6d20","system_id":"levelo_inurba_marseille","lat":43.27321,"lon":5.39082,"is_reserved":false,"is_disabled":false,"rental_uris":{"android":"levelo://app?vid=7a0a2a64-adfe-4ef6-b546-4c1d012b6d20","ios":"levelo://app?vid=7a0a2a64-adfe-4ef6-b546-4c1d012b6d20"},"vehicle_type_id":"4","last_reported":1761312204,"current_range_meters":9600,"station_id":"ce4bhgp2rcd13ifvqfe0","pricing_plan_id":"cebpf4jnsgd1na2vs0mg"},{"bike_id":"323bf2de-3bb4-4b4c-b330-b19ea807dbf5","system_id":"levelo_inurba_marseille","lat":43.33012,"lon":5.42954,"is_reserved":false,"is_disabled":false,"rental_uris":{"android":"levelo://app?vid=323bf2de-3bb4-4b4c-b330-b19ea807dbf5","ios":"levelo://app?vid=323bf2de-3bb4-4b4c-b330-b19ea807dbf5"},"vehicle_type_id":"4","last_reported":1761312204,"current_range_meters":9600,"station_id":"","pricing_plan_id":"cebpf4jnsgd1na2vs0mg"},{"bike_id":"e5521f31-92eb-400b-91cb-a130de4d13e9","system_id":"levelo_inurba_marseille","lat":43.29621,"lon":5.3773,"is_reserved":false,"is_disabled":false,"rental_uris":{"android":"levelo://app?vid=e5521f31-92eb-400b-91cb-a130de4d13e9","ios":"levelo://app?vid=e5521f31-92eb-400b-91cb-a130de4d13e9"},"vehicle_type_id":"4","last_reported":1761312204,"current_range_meters":9600,"station_id":"ce4bgi92rcd13ifvqb90","pricing_plan_id":"cebpf4jnsgd1na2vs0mg"},{"bike_id":"45026633-48cd-4e5b-bac9-3aeabc212f7a","system_id":"levelo_inurba_marseille","lat":43.29297,"lon":5.37468,"is_reserved":false,"is_disabled":false,"rental_uris":{"android":"levelo://app?vid=45026633-48cd-4e5b-bac9-3aeabc212f7a","ios":"levelo://app?vid=45026633-48cd-4e5b-bac9-3aeabc212f7a"},"vehicle_type_id":"4","last_reported":1761312204,"current_range_meters":9600,"station_id":"ce4bgi12rcd13ifvqb70","pricing_plan_id":"cebpf4jnsgd1na2vs0mg"},{"bike_id":"f0764640-ec1d-486f-9e1c-59043e66eb76","system_id":"levelo_inurba_marseille","lat":43.21352,"lon":5.34978,"is_reserved":false,"is_disabled":false,"rental_uris":{"android":"levelo://app?vid=f0764640-ec1d-486f-9e1c-59043e66eb76","ios":"levelo://app?vid=f0764640-ec1d-486f-9e1c-59043e66eb76"},"vehicle_type_id":"4","last_reported":1761312204,"current_range_meters":10000,"station_id":"","pricing_plan_id":"cebpf4jnsgd1na2vs0mg"},{"bike_id":"3a1f18b7-8257-4d71-a16b-3c987d83f592","system_id":"levelo_inurba_marseille","lat":43.21752,"lon":5.346,"is_reserved":false,"is_disabled":false,"rental_uris":{"android":"levelo://app?vid=3a1f18b7-8257-4d71-a16b-3c987d83f592","ios":"levelo://app?vid=3a1f18b7-8257-4d71-a16b-3c987d83f592"},"vehicle_type_id":"4","last_reported":1761312204,"current_range_meters":10000,"station_id":"","pricing_plan_id":"cebpf4jnsgd1na2vs0mg"},{"bike_id":"5c26842c-a206-40f4-be4f-70c4e46ef696","system_id":"levelo_inurba_marseille","lat":43.29845,"lon":5.36293,"is_reserved":false,"is_disabled":false,"rental_uris":{"android":"levelo://app?vid=5c26842c-a206-40f4-be4f-70c4e46ef696","ios":"levelo://app?vid=5c26842c-a206-40f4-be4f-70c4e46ef696"},"vehicle_type_id":"4","last_reported":1761312204,"current_range_meters":10000,"station_id":"ce4bgpp2rcd13ifvqc3g","pricing_plan_id":"cebpf4jnsgd1na2vs0mg"},{"bike_id":"9b7ec147-e190-4e41-8760-25e08188229d","system_id":"levelo_inurba_marseille","lat":43.25581,"lon":5.38229,"is_reserved":false,"is_disabled":false,"rental_uris":{"android":"levelo://app?vid=9b7ec147-e190-4e41-8760-25e08188229d","ios":"levelo://app?vid=9b7ec147-e190-4e41-8760-25e08188229d"},"vehicle_type_id":"4","last_reported":1761312204,"current_range_meters":10000,"station_id":"ce4bhih2rcd13ifvqfs0","pricing_plan_id":"cebpf4jnsgd1na2vs0mg"},{"bike_id":"bf52d227-e2e6-4e46-bfde-44cbb96d7d45","system_id":"levelo_inurba_marseille","lat":43.21189,"lon":5.35065,"is_reserved":false,"is_disabled":false,"rental_uris":{"android":"levelo://app?vid=bf52d227-e2e6-4e46-bfde-44cbb96d7d45","ios":"levelo://app?vid=bf52d227-e2e6-4e46-bfde-44cbb96d7d45"},"vehicle_type_id":"4","last_reported":1761312204,"current_range_meters":10000,"station_id":"st_cvj6sg6p6f1abm77japg","pricing_plan_id":"cebpf4jnsgd1na2vs0mg"},{"bike_id":"bff684fe-8304-415f-b957-057b2990478a","system_id":"levelo_inurba_marseille","lat":43.21757,"lon":5.34596,"is_reserved":false,"is_disabled":false,"rental_uris":{"android":"levelo://app?vid=bff684fe-8304-415f-b957-057b2990478a","ios":"levelo://app?vid=bff684fe-8304-415f-b957-057b2990478a"},"vehicle_type_id":"4","last_reported":1761312204,"current_range_meters":10000,"station_id":"st_cvj6r9ubvosntc0bgbag","pricing_plan_id":"cebpf4jnsgd1na2vs0mg"},{"bike_id":"4da251d7-1d23-4690-80d4-b2f64281abc5","system_id":"levelo_inurba_marseille","lat":43.25577,"lon":5.38237,"is_reserved":false,"is_disabled":false,"rental_uris":{"android":"levelo://app?vid=4da251d7-1d23-4690-80d4-b2f64281abc5","ios":"levelo://app?vid=4da251d7-1d23-4690-80d4-b2f64281abc5"},"vehicle_type_id":"4","last_reported":1761312204,"current_range_meters":10000,"station_id":"ce4bhih2rcd13ifvqfs0","pricing_plan_id":"cebpf4jnsgd1na2vs0mg"},{"bike_id":"fc2080ba-37b8-4a5f-9ec9-c318da9e2c8a","system_id":"levelo_inurba_marseille","lat":43.25106,"lon":5.40322,"is_reserved":false,"is_disabled":false,"rental_uris":{"android":"levelo://app?vid=fc2080ba-37b8-4a5f-9ec9-c318da9e2c8a","ios":"levelo://app?vid=fc2080ba-37b8-4a5f-9ec9-c318da9e2c8a"},"vehicle_type_id":"4","last_reported":1761312204,"current_range_meters":10000,"station_id":"ce4bhlh2rcd13ifvqgig","pricing_plan_id":"cebpf4jnsgd1na2vs0mg"},{"bike_id":"2e67092c-a72f-49f6-8f4f-e6578d52fbea","system_id":"levelo_inurba_marseille","lat":43.323658,"lon":5.367584,"is_reserved":false,"is_disabled":false,"rental_uris":{"android":"levelo://app?vid=2e67092c-a72f-49f6-8f4f-e6578d52fbea","ios":"levelo://app?vid=2e67092c-a72f-49f6-8f4f-e6578d52fbea"},"vehicle_type_id":"4","last_reported":1761312204,"current_range_meters":10000,"station_id":"ce4bhsh2rcd13ifvqi2g","pricing_plan_id":"cebpf4jnsgd1na2vs0mg"},{"bike_id":"7b2dbb95-88eb-4a62-9449-bf8e683987ce","system_id":"levelo_inurba_marseille","lat":43.29791,"lon":5.38089,"is_reserved":false,"is_disabled":false,"rental_uris":{"android":"levelo://app?vid=7b2dbb95-88eb-4a62-9449-bf8e683987ce","ios":"levelo://app?vid=7b2dbb95-88eb-4a62-9449-bf8e683987ce"},"vehicle_type_id":"4","last_reported":1761312204,"current_range_meters":10800,"station_id":"ce4bgip2rcd13ifvqbb0","pricing_plan_id":"cebpf4jnsgd1na2vs0mg"},{"bike_id":"316c843e-0abd-49e3-b3e9-3f61b02a5647","system_id":"levelo_inurba_marseille","lat":43.28862,"lon":5.4252,"is_reserved":false,"is_disabled":false,"rental_uris":{"android":"levelo://app?vid=316c843e-0abd-49e3-b3e9-3f61b02a5647","ios":"levelo://app?vid=316c843e-0abd-49e3-b3e9-3f61b02a5647"},"vehicle_type_id":"4","last_reported":1761312204,"current_range_meters":10800,"station_id":"st_d3b462108ojc7389ooeg","pricing_plan_id":"cebpf4jnsgd1na2vs0mg"},{"bike_id":"d10b22fa-7672-4128-97f0-5cbf4295b17c","system_id":"levelo_inurba_marseille","lat":43.29347,"lon":5.39332,"is_reserved":false,"is_disabled":false,"rental_uris":{"android":"levelo://app?vid=d10b22fa-7672-4128-97f0-5cbf4295b17c","ios":"levelo://app?vid=d10b22fa-7672-4128-97f0-5cbf4295b17c"},"vehicle_type_id":"4","last_reported":1761312204,"current_range_meters":10800,"station_id":"","pricing_plan_id":"cebpf4jnsgd1na2vs0mg"},{"bike_id":"bcccf727-f47c-494b-a20a-6078fc61970a","system_id":"levelo_inurba_marseille","lat":43.240712,"lon":5.377616,"is_reserved":false,"is_disabled":false,"rental_uris":{"android":"levelo://app?vid=bcccf727-f47c-494b-a20a-6078fc61970a","ios":"levelo://app?vid=bcccf727-f47c-494b-a20a-6078fc61970a"},"vehicle_type_id":"4","last_reported":1761312204,"current_range_meters":10800,"station_id":"ce4bhnp2rcd13ifvqgvg","pricing_plan_id":"cebpf4jnsgd1na2vs0mg"},{"bike_id":"8f3a37d7-ef68-438e-b675-4c925fc10151","system_id":"levelo_inurba_marseille","lat":43.21192,"lon":5.35073,"is_reserved":false,"is_disabled":false,"rental_uris":{"android":"levelo://app?vid=8f3a37d7-ef68-438e-b675-4c925fc10151","ios":"levelo://app?vid=8f3a37d7-ef68-438e-b675-4c925fc10151"},"vehicle_type_id":"4","last_reported":1761312204,"current_range_meters":10800,"station_id":"st_cvj6sg6p6f1abm77japg","pricing_plan_id":"cebpf4jnsgd1na2vs0mg"},{"bike_id":"9881c788-42a8-46f5-8ccc-580a73583155","system_id":"levelo_inurba_marseille","lat":43.32093,"lon":5.40939,"is_reserved":false,"is_disabled":true,"rental_uris":{"android":"levelo://app?vid=9881c788-42a8-46f5-8ccc-580a73583155","ios":"levelo://app?vid=9881c788-42a8-46f5-8ccc-580a73583155"},"vehicle_type_id":"4","last_reported":1761312204,"current_range_meters":10800,"station_id":"","pricing_plan_id":"cebpf4jnsgd1na2vs0mg"},{"bike_id":"8d6c7236-f620-4b6b-a423-516a20af52f1","system_id":"levelo_inurba_marseille","lat":43.21749,"lon":5.34612,"is_reserved":false,"is_disabled":false,"rental_uris":{"android":"levelo://app?vid=8d6c7236-f620-4b6b-a423-516a20af52f1","ios":"levelo://app?vid=8d6c7236-f620-4b6b-a423-516a20af52f1"},"vehicle_type_id":"4","last_reported":1761312204,"current_range_meters":10800,"station_id":"st_cvj6r9ubvosntc0bgbag","pricing_plan_id":"cebpf4jnsgd1na2vs0mg"},{"bike_id":"b9764ed2-f91a-421e-b54e-d7527bd8af22","system_id":"levelo_inurba_marseille","lat":43.29811,"lon":5.36588,"is_reserved":false,"is_disabled":false,"rental_uris":{"android":"levelo://app?vid=b9764ed2-f91a-421e-b54e-d7527bd8af22","ios":"levelo://app?vid=b9764ed2-f91a-421e-b54e-d7527bd8af22"},"vehicle_type_id":"4","last_reported":1761312204,"current_range_meters":11200,"station_id":"","pricing_plan_id":"cebpf4jnsgd1na2vs0mg"},{"bike_id":"8bcacd78-80de-4026-af75-b37ebe3030fe","system_id":"levelo_inurba_marseille","lat":43.334756,"lon":5.404255,"is_reserved":false,"is_disabled":false,"rental_uris":{"android":"levelo://app?vid=8bcacd78-80de-4026-af75-b37ebe3030fe","ios":"levelo://app?vid=8bcacd78-80de-4026-af75-b37ebe3030fe"},"vehicle_type_id":"4","last_reported":1761312204,"current_range_meters":11200,"station_id":"","pricing_plan_id":"cebpf4jnsgd1na2vs0mg"},{"bike_id":"2842f5fd-7b05-4b47-909c-5ee54d7d3bc5","system_id":"levelo_inurba_marseille","lat":43.32464,"lon":5.427978,"is_reserved":false,"is_disabled":false,"rental_uris":{"android":"levelo://app?vid=2842f5fd-7b05-4b47-909c-5ee54d7d3bc5","ios":"levelo://app?vid=2842f5fd-7b05-4b47-909c-5ee54d7d3bc5"},"vehicle_type_id":"4","last_reported":1761312204,"current_range_meters":11200,"station_id":"","pricing_plan_id":"cebpf4jnsgd1na2vs0mg"},{"bike_id":"41d1e9c8-193a-4e64-a1f0-b7037202749b","system_id":"levelo_inurba_marseille","lat":43.30157,"lon":5.37407,"is_reserved":false,"is_disabled":true,"rental_uris":{"android":"levelo://app?vid=41d1e9c8-193a-4e64-a1f0-b7037202749b","ios":"levelo://app?vid=41d1e9c8-193a-4e64-a1f0-b7037202749b"},"vehicle_type_id":"4","last_reported":1761312204,"current_range_meters":11200,"station_id":"ce4bgs92rcd13ifvqcc0","pricing_plan_id":"cebpf4jnsgd1na2vs0mg"},{"bike_id":"dab5b70e-9bd8-4f3b-af27-646987a3893e","system_id":"levelo_inurba_marseille","lat":43.21748,"lon":5.34608,"is_reserved":false,"is_disabled":false,"rental_uris":{"android":"levelo://app?vid=dab5b70e-9bd8-4f3b-af27-646987a3893e","ios":"levelo://app?vid=dab5b70e-9bd8-4f3b-af27-646987a3893e"},"vehicle_type_id":"4","last_reported":1761312204,"current_range_meters":11600,"station_id":"st_cvj6r9ubvosntc0bgbag","pricing_plan_id":"cebpf4jnsgd1na2vs0mg"},{"bike_id":"36740c08-6694-4bc5-97af-c74336537e7a","system_id":"levelo_inurba_marseille","lat":43.26503,"lon":5.39563,"is_reserved":false,"is_disabled":false,"rental_uris":{"android":"levelo://app?vid=36740c08-6694-4bc5-97af-c74336537e7a","ios":"levelo://app?vid=36740c08-6694-4bc5-97af-c74336537e7a"},"vehicle_type_id":"4","last_reported":1761312204,"current_range_meters":11600,"station_id":"ce4bhi12rcd13ifvqfq0","pricing_plan_id":"cebpf4jnsgd1na2vs0mg"},{"bike_id":"c12a786b-d447-4373-876a-58fc20f19148","system_id":"levelo_inurba_marseille","lat":43.298992,"lon":5.436635,"is_reserved":false,"is_disabled":false,"rental_uris":{"android":"levelo://app?vid=c12a786b-d447-4373-876a-58fc20f19148","ios":"levelo://app?vid=c12a786b-d447-4373-876a-58fc20f19148"},"vehicle_type_id":"4","last_reported":1761312204,"current_range_meters":11600,"station_id":"ce4bhpp2rcd13ifvqhfg","pricing_plan_id":"cebpf4jnsgd1na2vs0mg"},{"bike_id":"078a0580-18f9-4d52-9d69-803af500490a","system_id":"levelo_inurba_marseille","lat":43.30302,"lon":5.36887,"is_reserved":false,"is_disabled":false,"rental_uris":{"android":"levelo://app?vid=078a0580-18f9-4d52-9d69-803af500490a","ios":"levelo://app?vid=078a0580-18f9-4d52-9d69-803af500490a"},"vehicle_type_id":"4","last_reported":1761312204,"current_range_meters":11600,"station_id":"ce4bgqh2rcd13ifvqc5g","pricing_plan_id":"cebpf4jnsgd1na2vs0mg"},{"bike_id":"b8132e4e-54c5-4ee2-9476-d2684321070b","system_id":"levelo_inurba_marseille","lat":43.29884,"lon":5.43668,"is_reserved":false,"is_disabled":false,"rental_uris":{"android":"levelo://app?vid=b8132e4e-54c5-4ee2-9476-d2684321070b","ios":"levelo://app?vid=b8132e4e-54c5-4ee2-9476-d2684321070b"},"vehicle_type_id":"4","last_reported":1761312204,"current_range_meters":11600,"station_id":"ce4bhpp2rcd13ifvqhfg","pricing_plan_id":"cebpf4jnsgd1na2vs0mg"},{"bike_id":"8e6eb1f2-0b0a-411a-8161-b1df67846d02","system_id":"levelo_inurba_marseille","lat":43.29799,"lon":5.38107,"is_reserved":false,"is_disabled":false,"rental_uris":{"android":"levelo://app?vid=8e6eb1f2-0b0a-411a-8161-b1df67846d02","ios":"levelo://app?vid=8e6eb1f2-0b0a-411a-8161-b1df67846d02"},"vehicle_type_id":"4","last_reported":1761312204,"current_range_meters":12000,"station_id":"ce4bgip2rcd13ifvqbb0","pricing_plan_id":"cebpf4jnsgd1na2vs0mg"},{"bike_id":"621a6f7b-6a4a-4c22-ac35-6f9e037dc9bf","system_id":"levelo_inurba_marseille","lat":43.25868,"lon":5.39902,"is_reserved":false,"is_disabled":false,"rental_uris":{"android":"levelo://app?vid=621a6f7b-6a4a-4c22-ac35-6f9e037dc9bf","ios":"levelo://app?vid=621a6f7b-6a4a-4c22-ac35-6f9e037dc9bf"},"vehicle_type_id":"4","last_reported":1761312204,"current_range_meters":12000,"station_id":"ce4bhl92rcd13ifvqghg","pricing_plan_id":"cebpf4jnsgd1na2vs0mg"},{"bike_id":"9da43aef-628b-42b2-b7e3-103b8076338b","system_id":"levelo_inurba_marseille","lat":43.23122,"lon":5.43723,"is_reserved":false,"is_disabled":false,"rental_uris":{"android":"levelo://app?vid=9da43aef-628b-42b2-b7e3-103b8076338b","ios":"levelo://app?vid=9da43aef-628b-42b2-b7e3-103b8076338b"},"vehicle_type_id":"4","last_reported":1761312204,"current_range_meters":12000,"station_id":"ce4bhmp2rcd13ifvqgog","pricing_plan_id":"cebpf4jnsgd1na2vs0mg"},{"bike_id":"85b50222-f503-4b10-8bd0-505abd1334cb","system_id":"levelo_inurba_marseille","lat":43.211917,"lon":5.35073,"is_reserved":false,"is_disabled":false,"rental_uris":{"android":"levelo://app?vid=85b50222-f503-4b10-8bd0-505abd1334cb","ios":"levelo://app?vid=85b50222-f503-4b10-8bd0-505abd1334cb"},"vehicle_type_id":"4","last_reported":1761312204,"current_range_meters":12000,"station_id":"","pricing_plan_id":"cebpf4jnsgd1na2vs0mg"},{"bike_id":"d36e0f51-73f7-490e-9780-52741df6b759","system_id":"levelo_inurba_marseille","lat":43.29749,"lon":5.37109,"is_reserved":false,"is_disabled":false,"rental_uris":{"android":"levelo://app?vid=d36e0f51-73f7-490e-9780-52741df6b759","ios":"levelo://app?vid=d36e0f51-73f7-490e-9780-52741df6b759"},"vehicle_type_id":"4","last_reported":1761312204,"current_range_meters":12000,"station_id":"ce4bgop2rcd13ifvqc1g","pricing_plan_id":"cebpf4jnsgd1na2vs0mg"},{"bike_id":"14c554e9-2698-4db3-ab5c-dc7f8f2a4d3f","system_id":"levelo_inurba_marseille","lat":43.28465,"lon":5.3841,"is_reserved":false,"is_disabled":false,"rental_uris":{"android":"levelo://app?vid=14c554e9-2698-4db3-ab5c-dc7f8f2a4d3f","ios":"levelo://app?vid=14c554e9-2698-4db3-ab5c-dc7f8f2a4d3f"},"vehicle_type_id":"4","last_reported":1761312204,"current_range_meters":12400,"station_id":"ce4bh512rcd13ifvqe3g","pricing_plan_id":"cebpf4jnsgd1na2vs0mg"},{"bike_id":"fbe1d568-9072-475b-ad2c-64e8ca1309c0","system_id":"levelo_inurba_marseille","lat":43.33019,"lon":5.39039,"is_reserved":false,"is_disabled":false,"rental_uris":{"android":"levelo://app?vid=fbe1d568-9072-475b-ad2c-64e8ca1309c0","ios":"levelo://app?vid=fbe1d568-9072-475b-ad2c-64e8ca1309c0"},"vehicle_type_id":"4","last_reported":1761312204,"current_range_meters":12400,"station_id":"ce4bhr92rcd13ifvqhrg","pricing_plan_id":"cebpf4jnsgd1na2vs0mg"},{"bike_id":"82a6ac02-8c08-4f93-844a-981cd0f715d0","system_id":"levelo_inurba_marseille","lat":43.25516,"lon":5.37655,"is_reserved":false,"is_disabled":false,"rental_uris":{"android":"levelo://app?vid=82a6ac02-8c08-4f93-844a-981cd0f715d0","ios":"levelo://app?vid=82a6ac02-8c08-4f93-844a-981cd0f715d0"},"vehicle_type_id":"4","last_reported":1761312204,"current_range_meters":12400,"station_id":"ce4bhh12rcd13ifvqff0","pricing_plan_id":"cebpf4jnsgd1na2vs0mg"},{"bike_id":"3c88c6a4-2a5f-40b9-b4ed-08b15d29aa25","system_id":"levelo_inurba_marseille","lat":43.28271,"lon":5.35066,"is_reserved":false,"is_disabled":false,"rental_uris":{"android":"levelo://app?vid=3c88c6a4-2a5f-40b9-b4ed-08b15d29aa25","ios":"levelo://app?vid=3c88c6a4-2a5f-40b9-b4ed-08b15d29aa25"},"vehicle_type_id":"4","last_reported":1761312204,"current_range_meters":12400,"station_id":"ce4bhbp2rcd13ifvqerg","pricing_plan_id":"cebpf4jnsgd1na2vs0mg"},{"bike_id":"ccb140cc-61af-460c-9c74-9b118e13b00f","system_id":"levelo_inurba_marseille","lat":43.2533,"lon":5.42172,"is_reserved":false,"is_disabled":false,"rental_uris":{"android":"levelo://app?vid=ccb140cc-61af-460c-9c74-9b118e13b00f","ios":"levelo://app?vid=ccb140cc-61af-460c-9c74-9b118e13b00f"},"vehicle_type_id":"4","last_reported":1761312204,"current_range_meters":12800,"station_id":"st_d2m65c5bi1j21697t3ng","pricing_plan_id":"cebpf4jnsgd1na2vs0mg"},{"bike_id":"69599b97-b573-4868-ae16-9bda40c9248f","system_id":"levelo_inurba_marseille","lat":43.21189,"lon":5.35072,"is_reserved":false,"is_disabled":false,"rental_uris":{"android":"levelo://app?vid=69599b97-b573-4868-ae16-9bda40c9248f","ios":"levelo://app?vid=69599b97-b573-4868-ae16-9bda40c9248f"},"vehicle_type_id":"4","last_reported":1761312204,"current_range_meters":12800,"station_id":"st_cvj6sg6p6f1abm77japg","pricing_plan_id":"cebpf4jnsgd1na2vs0mg"},{"bike_id":"2e516aa3-da3f-4cd4-8d7a-1dc8bf5d8ddd","system_id":"levelo_inurba_marseille","lat":43.32089,"lon":5.36763,"is_reserved":false,"is_disabled":false,"rental_uris":{"android":"levelo://app?vid=2e516aa3-da3f-4cd4-8d7a-1dc8bf5d8ddd","ios":"levelo://app?vid=2e516aa3-da3f-4cd4-8d7a-1dc8bf5d8ddd"},"vehicle_type_id":"4","last_reported":1761312204,"current_range_meters":12800,"station_id":"ce4bhrh2rcd13ifvqhug","pricing_plan_id":"cebpf4jnsgd1na2vs0mg"},{"bike_id":"49205a8f-4198-4c0b-b7d7-97a9473705ce","system_id":"levelo_inurba_marseille","lat":43.32117,"lon":5.36788,"is_reserved":false,"is_disabled":false,"rental_uris":{"android":"levelo://app?vid=49205a8f-4198-4c0b-b7d7-97a9473705ce","ios":"levelo://app?vid=49205a8f-4198-4c0b-b7d7-97a9473705ce"},"vehicle_type_id":"4","last_reported":1761312204,"current_range_meters":12800,"station_id":"ce4bhrh2rcd13ifvqhug","pricing_plan_id":"cebpf4jnsgd1na2vs0mg"},{"bike_id":"ddb1b664-b6a1-41cd-ba40-2bfbc07dbbd4","system_id":"levelo_inurba_marseille","lat":43.21743,"lon":5.34605,"is_reserved":false,"is_disabled":false,"rental_uris":{"android":"levelo://app?vid=ddb1b664-b6a1-41cd-ba40-2bfbc07dbbd4","ios":"levelo://app?vid=ddb1b664-b6a1-41cd-ba40-2bfbc07dbbd4"},"vehicle_type_id":"4","last_reported":1761312204,"current_range_meters":12800,"station_id":"st_cvj6r9ubvosntc0bgbag","pricing_plan_id":"cebpf4jnsgd1na2vs0mg"},{"bike_id":"d74c6e9c-2045-4009-b109-e42abcd7cf39","system_id":"levelo_inurba_marseille","lat":43.29741,"lon":5.37684,"is_reserved":false,"is_disabled":false,"rental_uris":{"android":"levelo://app?vid=d74c6e9c-2045-4009-b109-e42abcd7cf39","ios":"levelo://app?vid=d74c6e9c-2045-4009-b109-e42abcd7cf39"},"vehicle_type_id":"4","last_reported":1761312204,"current_range_meters":12800,"station_id":"ce4bgkh2rcd13ifvqbl0","pricing_plan_id":"cebpf4jnsgd1na2vs0mg"},{"bike_id":"c0a053f8-1ba4-4a56-b780-9c6584a66527","system_id":"levelo_inurba_marseille","lat":43.29432,"lon":5.3975,"is_reserved":false,"is_disabled":false,"rental_uris":{"android":"levelo://app?vid=c0a053f8-1ba4-4a56-b780-9c6584a66527","ios":"levelo://app?vid=c0a053f8-1ba4-4a56-b780-9c6584a66527"},"vehicle_type_id":"4","last_reported":1761312204,"current_range_meters":13600,"station_id":"ce4bh3h2rcd13ifvqdo0","pricing_plan_id":"cebpf4jnsgd1na2vs0mg"},{"bike_id":"dfc041f6-a962-4c93-8a58-0f138abbf1a2","system_id":"levelo_inurba_marseille","lat":43.26246,"lon":5.40433,"is_reserved":false,"is_disabled":false,"rental_uris":{"android":"levelo://app?vid=dfc041f6-a962-4c93-8a58-0f138abbf1a2","ios":"levelo://app?vid=dfc041f6-a962-4c93-8a58-0f138abbf1a2"},"vehicle_type_id":"4","last_reported":1761312204,"current_range_meters":13600,"station_id":"ce4bhmh2rcd13ifvqgmg","pricing_plan_id":"cebpf4jnsgd1na2vs0mg"},{"bike_id":"de4b8ab5-285e-474a-b521-72ccb626a9fe","system_id":"levelo_inurba_marseille","lat":43.32246,"lon":5.38357,"is_reserved":false,"is_disabled":false,"rental_uris":{"android":"levelo://app?vid=de4b8ab5-285e-474a-b521-72ccb626a9fe","ios":"levelo://app?vid=de4b8ab5-285e-474a-b521-72ccb626a9fe"},"vehicle_type_id":"4","last_reported":1761312204,"current_range_meters":13600,"station_id":"ce4bhr12rcd13ifvqhqg","pricing_plan_id":"cebpf4jnsgd1na2vs0mg"},{"bike_id":"f8c755d7-1bb8-4fcd-bb3f-74aeb49951cc","system_id":"levelo_inurba_marseille","lat":43.313748,"lon":5.379,"is_reserved":false,"is_disabled":false,"rental_uris":{"android":"levelo://app?vid=f8c755d7-1bb8-4fcd-bb3f-74aeb49951cc","ios":"levelo://app?vid=f8c755d7-1bb8-4fcd-bb3f-74aeb49951cc"},"vehicle_type_id":"4","last_reported":1761312204,"current_range_meters":13600,"station_id":"","pricing_plan_id":"cebpf4jnsgd1na2vs0mg"},{"bike_id":"9d69762f-f4a4-4a4d-a7f2-971c0f2a1916","system_id":"levelo_inurba_marseille","lat":43.30193,"lon":5.36616,"is_reserved":false,"is_disabled":false,"rental_uris":{"android":"levelo://app?vid=9d69762f-f4a4-4a4d-a7f2-971c0f2a1916","ios":"levelo://app?vid=9d69762f-f4a4-4a4d-a7f2-971c0f2a1916"},"vehicle_type_id":"4","last_reported":1761312204,"current_range_meters":13600,"station_id":"ce4bgrh2rcd13ifvqc8g","pricing_plan_id":"cebpf4jnsgd1na2vs0mg"},{"bike_id":"d1457650-75b4-4b12-ad3b-53a35694e7ef","system_id":"levelo_inurba_marseille","lat":43.29726,"lon":5.37693,"is_reserved":false,"is_disabled":false,"rental_uris":{"android":"levelo://app?vid=d1457650-75b4-4b12-ad3b-53a35694e7ef","ios":"levelo://app?vid=d1457650-75b4-4b12-ad3b-53a35694e7ef"},"vehicle_type_id":"4","last_reported":1761312204,"current_range_meters":13600,"station_id":"ce4bgkh2rcd13ifvqbl0","pricing_plan_id":"cebpf4jnsgd1na2vs0mg"},{"bike_id":"b67fbf61-add2-4e0f-a29e-b52a6658dea4","system_id":"levelo_inurba_marseille","lat":43.30947,"lon":5.39031,"is_reserved":false,"is_disabled":false,"rental_uris":{"android":"levelo://app?vid=b67fbf61-add2-4e0f-a29e-b52a6658dea4","ios":"levelo://app?vid=b67fbf61-add2-4e0f-a29e-b52a6658dea4"},"vehicle_type_id":"4","last_reported":1761312204,"current_range_meters":13600,"station_id":"ce4bgup2rcd13ifvqco0","pricing_plan_id":"cebpf4jnsgd1na2vs0mg"},{"bike_id":"cf052333-4133-4c36-86a8-4c9c10f5c19c","system_id":"levelo_inurba_marseille","lat":43.32353,"lon":5.3889,"is_reserved":false,"is_disabled":false,"rental_uris":{"android":"levelo://app?vid=cf052333-4133-4c36-86a8-4c9c10f5c19c","ios":"levelo://app?vid=cf052333-4133-4c36-86a8-4c9c10f5c19c"},"vehicle_type_id":"4","last_reported":1761312204,"current_range_meters":13600,"station_id":"ce4bhqp2rcd13ifvqhog","pricing_plan_id":"cebpf4jnsgd1na2vs0mg"},{"bike_id":"59abd4ed-cc25-40ad-a15f-2974aecc1b03","system_id":"levelo_inurba_marseille","lat":43.311694,"lon":5.387212,"is_reserved":false,"is_disabled":false,"rental_uris":{"android":"levelo://app?vid=59abd4ed-cc25-40ad-a15f-2974aecc1b03","ios":"levelo://app?vid=59abd4ed-cc25-40ad-a15f-2974aecc1b03"},"vehicle_type_id":"4","last_reported":1761312204,"current_range_meters":13600,"station_id":"ce4bgv12rcd13ifvqcp0","pricing_plan_id":"cebpf4jnsgd1na2vs0mg"},{"bike_id":"64d61a35-94c0-4644-ae33-f36ba447effe","system_id":"levelo_inurba_marseille","lat":43.27368,"lon":5.36258,"is_reserved":false,"is_disabled":false,"rental_uris":{"android":"levelo://app?vid=64d61a35-94c0-4644-ae33-f36ba447effe","ios":"levelo://app?vid=64d61a35-94c0-4644-ae33-f36ba447effe"},"vehicle_type_id":"4","last_reported":1761312204,"current_range_meters":13600,"station_id":"ce4bhbh2rcd13ifvqeo0","pricing_plan_id":"cebpf4jnsgd1na2vs0mg"},{"bike_id":"30c20775-7e7c-4dd5-b544-8b63c9979e48","system_id":"levelo_inurba_marseille","lat":43.29213,"lon":5.36055,"is_reserved":false,"is_disabled":false,"rental_uris":{"android":"levelo://app?vid=30c20775-7e7c-4dd5-b544-8b63c9979e48","ios":"levelo://app?vid=30c20775-7e7c-4dd5-b544-8b63c9979e48"},"vehicle_type_id":"4","last_reported":1761312204,"current_range_meters":14000,"station_id":"ce4bhbh2rcd13ifvqeqg","pricing_plan_id":"cebpf4jnsgd1na2vs0mg"},{"bike_id":"0c216ec5-2d75-4ee4-a223-b0d23bee74b5","system_id":"levelo_inurba_marseille","lat":43.24654,"lon":5.38892,"is_reserved":false,"is_disabled":false,"rental_uris":{"android":"levelo://app?vid=0c216ec5-2d75-4ee4-a223-b0d23bee74b5","ios":"levelo://app?vid=0c216ec5-2d75-4ee4-a223-b0d23bee74b5"},"vehicle_type_id":"4","last_reported":1761312204,"current_range_meters":14000,"station_id":"ce4bhg12rcd13ifvqf60","pricing_plan_id":"cebpf4jnsgd1na2vs0mg"},{"bike_id":"bbb88e55-e8b5-445e-ab38-684465c2939d","system_id":"levelo_inurba_marseille","lat":43.25584,"lon":5.38241,"is_reserved":false,"is_disabled":false,"rental_uris":{"android":"levelo://app?vid=bbb88e55-e8b5-445e-ab38-684465c2939d","ios":"levelo://app?vid=bbb88e55-e8b5-445e-ab38-684465c2939d"},"vehicle_type_id":"4","last_reported":1761312204,"current_range_meters":14400,"station_id":"ce4bhih2rcd13ifvqfs0","pricing_plan_id":"cebpf4jnsgd1na2vs0mg"},{"bike_id":"011eee06-da75-42c1-8e54-714561c0b18b","system_id":"levelo_inurba_marseille","lat":43.2923,"lon":5.37152,"is_reserved":false,"is_disabled":false,"rental_uris":{"android":"levelo://app?vid=011eee06-da75-42c1-8e54-714561c0b18b","ios":"levelo://app?vid=011eee06-da75-42c1-8e54-714561c0b18b"},"vehicle_type_id":"4","last_reported":1761312204,"current_range_meters":14400,"station_id":"","pricing_plan_id":"cebpf4jnsgd1na2vs0mg"},{"bike_id":"6b307c52-f33b-4885-85a6-9bac6592bb3d","system_id":"levelo_inurba_marseille","lat":43.21196,"lon":5.35085,"is_reserved":false,"is_disabled":false,"rental_uris":{"android":"levelo://app?vid=6b307c52-f33b-4885-85a6-9bac6592bb3d","ios":"levelo://app?vid=6b307c52-f33b-4885-85a6-9bac6592bb3d"},"vehicle_type_id":"4","last_reported":1761312204,"current_range_meters":14400,"station_id":"st_cvj6sg6p6f1abm77japg","pricing_plan_id":"cebpf4jnsgd1na2vs0mg"},{"bike_id":"a9ec0596-b4da-4857-8b9f-dfd96381c4a1","system_id":"levelo_inurba_marseille","lat":43.300491,"lon":5.386016,"is_reserved":false,"is_disabled":false,"rental_uris":{"android":"levelo://app?vid=a9ec0596-b4da-4857-8b9f-dfd96381c4a1","ios":"levelo://app?vid=a9ec0596-b4da-4857-8b9f-dfd96381c4a1"},"vehicle_type_id":"4","last_reported":1761312204,"current_range_meters":14400,"station_id":"ce4bgn92rcd13ifvqbvg","pricing_plan_id":"cebpf4jnsgd1na2vs0mg"},{"bike_id":"bc977858-8c44-4812-b4a0-6141188d960e","system_id":"levelo_inurba_marseille","lat":43.28477,"lon":5.48395,"is_reserved":false,"is_disabled":false,"rental_uris":{"android":"levelo://app?vid=bc977858-8c44-4812-b4a0-6141188d960e","ios":"levelo://app?vid=bc977858-8c44-4812-b4a0-6141188d960e"},"vehicle_type_id":"4","last_reported":1761312204,"current_range_meters":14400,"station_id":"st_d3svhcjqgbts73a3dn0g","pricing_plan_id":"cebpf4jnsgd1na2vs0mg"},{"bike_id":"9e57eaf4-d73e-4095-b226-a2b558e9058b","system_id":"levelo_inurba_marseille","lat":43.21745,"lon":5.34597,"is_reserved":false,"is_disabled":false,"rental_uris":{"android":"levelo://app?vid=9e57eaf4-d73e-4095-b226-a2b558e9058b","ios":"levelo://app?vid=9e57eaf4-d73e-4095-b226-a2b558e9058b"},"vehicle_type_id":"4","last_reported":1761312204,"current_range_meters":14400,"station_id":"st_cvj6r9ubvosntc0bgbag","pricing_plan_id":"cebpf4jnsgd1na2vs0mg"},{"bike_id":"6117d059-a746-4730-8fc1-58c8a2514aa9","system_id":"levelo_inurba_marseille","lat":43.30534,"lon":5.36687,"is_reserved":false,"is_disabled":false,"rental_uris":{"android":"levelo://app?vid=6117d059-a746-4730-8fc1-58c8a2514aa9","ios":"levelo://app?vid=6117d059-a746-4730-8fc1-58c8a2514aa9"},"vehicle_type_id":"4","last_reported":1761312204,"current_range_meters":14800,"station_id":"ce4bgrp2rcd13ifvqc9g","pricing_plan_id":"cebpf4jnsgd1na2vs0mg"},{"bike_id":"68913c84-342a-4ac5-9ffa-ea0a618c0522","system_id":"levelo_inurba_marseille","lat":43.21194,"lon":5.35066,"is_reserved":false,"is_disabled":false,"rental_uris":{"android":"levelo://app?vid=68913c84-342a-4ac5-9ffa-ea0a618c0522","ios":"levelo://app?vid=68913c84-342a-4ac5-9ffa-ea0a618c0522"},"vehicle_type_id":"4","last_reported":1761312204,"current_range_meters":14800,"station_id":"st_cvj6sg6p6f1abm77japg","pricing_plan_id":"cebpf4jnsgd1na2vs0mg"},{"bike_id":"6bf9a9da-0720-499d-87b5-53c7ba80e9f4","system_id":"levelo_inurba_marseille","lat":43.23961,"lon":5.3663,"is_reserved":false,"is_disabled":false,"rental_uris":{"android":"levelo://app?vid=6bf9a9da-0720-499d-87b5-53c7ba80e9f4","ios":"levelo://app?vid=6bf9a9da-0720-499d-87b5-53c7ba80e9f4"},"vehicle_type_id":"4","last_reported":1761312204,"current_range_meters":14800,"station_id":"ce4bhi12rcd13ifvqfp0","pricing_plan_id":"cebpf4jnsgd1na2vs0mg"},{"bike_id":"a834c8f6-5364-4c50-9050-b8aa957085e7","system_id":"levelo_inurba_marseille","lat":43.28268,"lon":5.35073,"is_reserved":false,"is_disabled":false,"rental_uris":{"android":"levelo://app?vid=a834c8f6-5364-4c50-9050-b8aa957085e7","ios":"levelo://app?vid=a834c8f6-5364-4c50-9050-b8aa957085e7"},"vehicle_type_id":"4","last_reported":1761312204,"current_range_meters":14800,"station_id":"ce4bhbp2rcd13ifvqerg","pricing_plan_id":"cebpf4jnsgd1na2vs0mg"},{"bike_id":"34620a6d-6cbe-45b0-a540-768a36ac4c42","system_id":"levelo_inurba_marseille","lat":43.25928,"lon":5.40881,"is_reserved":false,"is_disabled":false,"rental_uris":{"android":"levelo://app?vid=34620a6d-6cbe-45b0-a540-768a36ac4c42","ios":"levelo://app?vid=34620a6d-6cbe-45b0-a540-768a36ac4c42"},"vehicle_type_id":"4","last_reported":1761312204,"current_range_meters":15200,"station_id":"ce4bhm92rcd13ifvqglg","pricing_plan_id":"cebpf4jnsgd1na2vs0mg"},{"bike_id":"249615da-bae2-4bb3-9506-b338b9fb85b7","system_id":"levelo_inurba_marseille","lat":43.29739,"lon":5.376973,"is_reserved":false,"is_disabled":true,"rental_uris":{"android":"levelo://app?vid=249615da-bae2-4bb3-9506-b338b9fb85b7","ios":"levelo://app?vid=249615da-bae2-4bb3-9506-b338b9fb85b7"},"vehicle_type_id":"4","last_reported":1761312204,"current_range_meters":15200,"station_id":"ce4bgkh2rcd13ifvqbl0","pricing_plan_id":"cebpf4jnsgd1na2vs0mg"},{"bike_id":"fb0525a8-86a0-4570-8aff-de1453b677f2","system_id":"levelo_inurba_marseille","lat":43.26499,"lon":5.39544,"is_reserved":false,"is_disabled":false,"rental_uris":{"android":"levelo://app?vid=fb0525a8-86a0-4570-8aff-de1453b677f2","ios":"levelo://app?vid=fb0525a8-86a0-4570-8aff-de1453b677f2"},"vehicle_type_id":"4","last_reported":1761312204,"current_range_meters":15200,"station_id":"ce4bhi12rcd13ifvqfq0","pricing_plan_id":"cebpf4jnsgd1na2vs0mg"},{"bike_id":"a6db5271-cc06-4162-8b23-e7a88487b7c3","system_id":"levelo_inurba_marseille","lat":43.217483,"lon":5.346017,"is_reserved":false,"is_disabled":false,"rental_uris":{"android":"levelo://app?vid=a6db5271-cc06-4162-8b23-e7a88487b7c3","ios":"levelo://app?vid=a6db5271-cc06-4162-8b23-e7a88487b7c3"},"vehicle_type_id":"4","last_reported":1761312204,"current_range_meters":15200,"station_id":"st_cvj6r9ubvosntc0bgbag","pricing_plan_id":"cebpf4jnsgd1na2vs0mg"},{"bike_id":"7dd3d56a-e43e-4ab0-97b2-4e04f6f703ea","system_id":"levelo_inurba_marseille","lat":43.255159,"lon":5.375954,"is_reserved":false,"is_disabled":false,"rental_uris":{"android":"levelo://app?vid=7dd3d56a-e43e-4ab0-97b2-4e04f6f703ea","ios":"levelo://app?vid=7dd3d56a-e43e-4ab0-97b2-4e04f6f703ea"},"vehicle_type_id":"4","last_reported":1761312204,"current_range_meters":15200,"station_id":"cpo36qri1sfpv3e86is0","pricing_plan_id":"cebpf4jnsgd1na2vs0mg"},{"bike_id":"b5d2dae4-a4a8-4bf6-9018-773f58dce26a","system_id":"levelo_inurba_marseille","lat":43.29788,"lon":5.37096,"is_reserved":false,"is_disabled":false,"rental_uris":{"android":"levelo://app?vid=b5d2dae4-a4a8-4bf6-9018-773f58dce26a","ios":"levelo://app?vid=b5d2dae4-a4a8-4bf6-9018-773f58dce26a"},"vehicle_type_id":"4","last_reported":1761312204,"current_range_meters":15200,"station_id":"ce4bgop2rcd13ifvqc1g","pricing_plan_id":"cebpf4jnsgd1na2vs0mg"},{"bike_id":"6130746b-db13-480f-a0d0-6b8e31222a62","system_id":"levelo_inurba_marseille","lat":43.29523,"lon":5.39058,"is_reserved":false,"is_disabled":false,"rental_uris":{"android":"levelo://app?vid=6130746b-db13-480f-a0d0-6b8e31222a62","ios":"levelo://app?vid=6130746b-db13-480f-a0d0-6b8e31222a62"},"vehicle_type_id":"4","last_reported":1761312204,"current_range_meters":15200,"station_id":"ce4bh3p2rcd13ifvqdp0","pricing_plan_id":"cebpf4jnsgd1na2vs0mg"},{"bike_id":"f500d731-d664-4d1d-a9d5-b7f90a56b80e","system_id":"levelo_inurba_marseille","lat":43.31329,"lon":5.39697,"is_reserved":false,"is_disabled":false,"rental_uris":{"android":"levelo://app?vid=f500d731-d664-4d1d-a9d5-b7f90a56b80e","ios":"levelo://app?vid=f500d731-d664-4d1d-a9d5-b7f90a56b80e"},"vehicle_type_id":"4","last_reported":1761312204,"current_range_meters":15200,"station_id":"ce4bgvp2rcd13ifvqcu0","pricing_plan_id":"cebpf4jnsgd1na2vs0mg"},{"bike_id":"6cf4df0b-6e77-4a5d-9045-802a6bab7eee","system_id":"levelo_inurba_marseille","lat":43.30789,"lon":5.38153,"is_reserved":false,"is_disabled":false,"rental_uris":{"android":"levelo://app?vid=6cf4df0b-6e77-4a5d-9045-802a6bab7eee","ios":"levelo://app?vid=6cf4df0b-6e77-4a5d-9045-802a6bab7eee"},"vehicle_type_id":"4","last_reported":1761312204,"current_range_meters":15200,"station_id":"ce4bgt12rcd13ifvqce0","pricing_plan_id":"cebpf4jnsgd1na2vs0mg"},{"bike_id":"130bf0bc-864c-430a-846d-711e7f2ffd3b","system_id":"levelo_inurba_marseille","lat":43.21749,"lon":5.34597,"is_reserved":false,"is_disabled":false,"rental_uris":{"android":"levelo://app?vid=130bf0bc-864c-430a-846d-711e7f2ffd3b","ios":"levelo://app?vid=130bf0bc-864c-430a-846d-711e7f2ffd3b"},"vehicle_type_id":"4","last_reported":1761312204,"current_range_meters":15200,"station_id":"st_cvj6r9ubvosntc0bgbag","pricing_plan_id":"cebpf4jnsgd1na2vs0mg"},{"bike_id":"555ed9f3-d2e4-4ed6-ac0a-714f3c8ebb06","system_id":"levelo_inurba_marseille","lat":43.28718,"lon":5.36086,"is_reserved":false,"is_disabled":false,"rental_uris":{"android":"levelo://app?vid=555ed9f3-d2e4-4ed6-ac0a-714f3c8ebb06","ios":"levelo://app?vid=555ed9f3-d2e4-4ed6-ac0a-714f3c8ebb06"},"vehicle_type_id":"4","last_reported":1761312204,"current_range_meters":16000,"station_id":"cki0cbj6b192h4jlfktg","pricing_plan_id":"cebpf4jnsgd1na2vs0mg"},{"bike_id":"29d8dbde-33cc-4eb7-bc4d-694df448a08b","system_id":"levelo_inurba_marseille","lat":43.24162,"lon":5.36398,"is_reserved":false,"is_disabled":false,"rental_uris":{"android":"levelo://app?vid=29d8dbde-33cc-4eb7-bc4d-694df448a08b","ios":"levelo://app?vid=29d8dbde-33cc-4eb7-bc4d-694df448a08b"},"vehicle_type_id":"4","last_reported":1761312204,"current_range_meters":16000,"station_id":"cpo36qri1sfpv3e86is0","pricing_plan_id":"cebpf4jnsgd1na2vs0mg"},{"bike_id":"9cf0739c-a98e-4342-bc79-0bc0c7e49bf1","system_id":"levelo_inurba_marseille","lat":43.30539,"lon":5.36708,"is_reserved":false,"is_disabled":false,"rental_uris":{"android":"levelo://app?vid=9cf0739c-a98e-4342-bc79-0bc0c7e49bf1","ios":"levelo://app?vid=9cf0739c-a98e-4342-bc79-0bc0c7e49bf1"},"vehicle_type_id":"4","last_reported":1761312204,"current_range_meters":16000,"station_id":"","pricing_plan_id":"cebpf4jnsgd1na2vs0mg"},{"bike_id":"d5c58ee2-645b-402c-bf55-11a2236a6248","system_id":"levelo_inurba_marseille","lat":43.28347,"lon":5.38632,"is_reserved":false,"is_disabled":false,"rental_uris":{"android":"levelo://app?vid=d5c58ee2-645b-402c-bf55-11a2236a6248","ios":"levelo://app?vid=d5c58ee2-645b-402c-bf55-11a2236a6248"},"vehicle_type_id":"4","last_reported":1761312204,"current_range_meters":16400,"station_id":"ce4bh492rcd13ifvqdvg","pricing_plan_id":"cebpf4jnsgd1na2vs0mg"},{"bike_id":"ac8e3529-72a1-4c46-9dba-b7841007aa02","system_id":"levelo_inurba_marseille","lat":43.29785,"lon":5.37096,"is_reserved":false,"is_disabled":false,"rental_uris":{"android":"levelo://app?vid=ac8e3529-72a1-4c46-9dba-b7841007aa02","ios":"levelo://app?vid=ac8e3529-72a1-4c46-9dba-b7841007aa02"},"vehicle_type_id":"4","last_reported":1761312204,"current_range_meters":16400,"station_id":"ce4bgop2rcd13ifvqc1g","pricing_plan_id":"cebpf4jnsgd1na2vs0mg"},{"bike_id":"4f5c5045-2f2c-4ab7-ad8b-eeba1d52fe66","system_id":"levelo_inurba_marseille","lat":43.31326,"lon":5.36816,"is_reserved":false,"is_disabled":false,"rental_uris":{"android":"levelo://app?vid=4f5c5045-2f2c-4ab7-ad8b-eeba1d52fe66","ios":"levelo://app?vid=4f5c5045-2f2c-4ab7-ad8b-eeba1d52fe66"},"vehicle_type_id":"4","last_reported":1761312204,"current_range_meters":16400,"station_id":"","pricing_plan_id":"cebpf4jnsgd1na2vs0mg"},{"bike_id":"b9c8ced1-4ad2-4529-8b78-c6503294316b","system_id":"levelo_inurba_marseille","lat":43.302179,"lon":5.394717,"is_reserved":false,"is_disabled":false,"rental_uris":{"android":"levelo://app?vid=b9c8ced1-4ad2-4529-8b78-c6503294316b","ios":"levelo://app?vid=b9c8ced1-4ad2-4529-8b78-c6503294316b"},"vehicle_type_id":"4","last_reported":1761312204,"current_range_meters":16400,"station_id":"","pricing_plan_id":"cebpf4jnsgd1na2vs0mg"},{"bike_id":"13677cd6-4b30-4a54-84ad-c4c0120d5948","system_id":"levelo_inurba_marseille","lat":43.23145,"lon":5.43709,"is_reserved":false,"is_disabled":false,"rental_uris":{"android":"levelo://app?vid=13677cd6-4b30-4a54-84ad-c4c0120d5948","ios":"levelo://app?vid=13677cd6-4b30-4a54-84ad-c4c0120d5948"},"vehicle_type_id":"4","last_reported":1761312204,"current_range_meters":16400,"station_id":"ce4bhmp2rcd13ifvqgog","pricing_plan_id":"cebpf4jnsgd1na2vs0mg"},{"bike_id":"ede8ac99-b378-4442-bdae-647410f1f22d","system_id":"levelo_inurba_marseille","lat":43.28699,"lon":5.39982,"is_reserved":false,"is_disabled":false,"rental_uris":{"android":"levelo://app?vid=ede8ac99-b378-4442-bdae-647410f1f22d","ios":"levelo://app?vid=ede8ac99-b378-4442-bdae-647410f1f22d"},"vehicle_type_id":"4","last_reported":1761312204,"current_range_meters":16400,"station_id":"ce4bho92rcd13ifvqh3g","pricing_plan_id":"cebpf4jnsgd1na2vs0mg"},{"bike_id":"ccc16b0d-4bc5-4446-a338-ea354a8a5cdb","system_id":"levelo_inurba_marseille","lat":43.28998,"lon":5.35623,"is_reserved":false,"is_disabled":false,"rental_uris":{"android":"levelo://app?vid=ccc16b0d-4bc5-4446-a338-ea354a8a5cdb","ios":"levelo://app?vid=ccc16b0d-4bc5-4446-a338-ea354a8a5cdb"},"vehicle_type_id":"4","last_reported":1761312204,"current_range_meters":16400,"station_id":"ce4bhb92rcd13ifvqen0","pricing_plan_id":"cebpf4jnsgd1na2vs0mg"},{"bike_id":"46c0226f-9fad-4b07-8a98-586b07fa945a","system_id":"levelo_inurba_marseille","lat":43.30555,"lon":5.36524,"is_reserved":false,"is_disabled":false,"rental_uris":{"android":"levelo://app?vid=46c0226f-9fad-4b07-8a98-586b07fa945a","ios":"levelo://app?vid=46c0226f-9fad-4b07-8a98-586b07fa945a"},"vehicle_type_id":"4","last_reported":1761312204,"current_range_meters":16400,"station_id":"ce4bgs12rcd13ifvqcag","pricing_plan_id":"cebpf4jnsgd1na2vs0mg"},{"bike_id":"161eda0b-18ff-4220-8145-557c6663aa4d","system_id":"levelo_inurba_marseille","lat":43.295926,"lon":5.424232,"is_reserved":false,"is_disabled":false,"rental_uris":{"android":"levelo://app?vid=161eda0b-18ff-4220-8145-557c6663aa4d","ios":"levelo://app?vid=161eda0b-18ff-4220-8145-557c6663aa4d"},"vehicle_type_id":"4","last_reported":1761312204,"current_range_meters":16400,"station_id":"ce4bhph2rcd13ifvqhdg","pricing_plan_id":"cebpf4jnsgd1na2vs0mg"},{"bike_id":"a4b425ac-d20b-4acf-bdb5-ba822340ecdc","system_id":"levelo_inurba_marseille","lat":43.294221,"lon":5.386125,"is_reserved":false,"is_disabled":false,"rental_uris":{"android":"levelo://app?vid=a4b425ac-d20b-4acf-bdb5-ba822340ecdc","ios":"levelo://app?vid=a4b425ac-d20b-4acf-bdb5-ba822340ecdc"},"vehicle_type_id":"4","last_reported":1761312204,"current_range_meters":16400,"station_id":"ce4bgih2rcd13ifvqba0","pricing_plan_id":"cebpf4jnsgd1na2vs0mg"},{"bike_id":"dde114a4-8805-4784-b02d-0d744116457b","system_id":"levelo_inurba_marseille","lat":43.22927,"lon":5.35374,"is_reserved":false,"is_disabled":false,"rental_uris":{"android":"levelo://app?vid=dde114a4-8805-4784-b02d-0d744116457b","ios":"levelo://app?vid=dde114a4-8805-4784-b02d-0d744116457b"},"vehicle_type_id":"4","last_reported":1761312204,"current_range_meters":16400,"station_id":"cpo3532slgdg3j2ikp40","pricing_plan_id":"cebpf4jnsgd1na2vs0mg"},{"bike_id":"d6bf35d6-726d-4e21-8f7d-58a4c5ab0506","system_id":"levelo_inurba_marseille","lat":43.21748,"lon":5.34602,"is_reserved":false,"is_disabled":false,"rental_uris":{"android":"levelo://app?vid=d6bf35d6-726d-4e21-8f7d-58a4c5ab0506","ios":"levelo://app?vid=d6bf35d6-726d-4e21-8f7d-58a4c5ab0506"},"vehicle_type_id":"4","last_reported":1761312204,"current_range_meters":16400,"station_id":"","pricing_plan_id":"cebpf4jnsgd1na2vs0mg"},{"bike_id":"fb992e35-c109-4cb7-96c7-50faefdd00eb","system_id":"levelo_inurba_marseille","lat":43.33027,"lon":5.37269,"is_reserved":false,"is_disabled":false,"rental_uris":{"android":"levelo://app?vid=fb992e35-c109-4cb7-96c7-50faefdd00eb","ios":"levelo://app?vid=fb992e35-c109-4cb7-96c7-50faefdd00eb"},"vehicle_type_id":"4","last_reported":1761312204,"current_range_meters":16800,"station_id":"","pricing_plan_id":"cebpf4jnsgd1na2vs0mg"},{"bike_id":"be88eaa4-e674-44f9-9199-3901304dd644","system_id":"levelo_inurba_marseille","lat":43.21759,"lon":5.3461,"is_reserved":false,"is_disabled":false,"rental_uris":{"android":"levelo://app?vid=be88eaa4-e674-44f9-9199-3901304dd644","ios":"levelo://app?vid=be88eaa4-e674-44f9-9199-3901304dd644"},"vehicle_type_id":"4","last_reported":1761312204,"current_range_meters":16800,"station_id":"st_cvj6r9ubvosntc0bgbag","pricing_plan_id":"cebpf4jnsgd1na2vs0mg"},{"bike_id":"8d37e86e-0fcb-4934-9c24-f827e9ccc08f","system_id":"levelo_inurba_marseille","lat":43.23145,"lon":5.43716,"is_reserved":false,"is_disabled":false,"rental_uris":{"android":"levelo://app?vid=8d37e86e-0fcb-4934-9c24-f827e9ccc08f","ios":"levelo://app?vid=8d37e86e-0fcb-4934-9c24-f827e9ccc08f"},"vehicle_type_id":"4","last_reported":1761312204,"current_range_meters":16800,"station_id":"ce4bhmp2rcd13ifvqgog","pricing_plan_id":"cebpf4jnsgd1na2vs0mg"},{"bike_id":"46c764fe-6690-4eac-b9c8-4470abaf3f10","system_id":"levelo_inurba_marseille","lat":43.29362,"lon":5.37862,"is_reserved":false,"is_disabled":false,"rental_uris":{"android":"levelo://app?vid=46c764fe-6690-4eac-b9c8-4470abaf3f10","ios":"levelo://app?vid=46c764fe-6690-4eac-b9c8-4470abaf3f10"},"vehicle_type_id":"4","last_reported":1761312204,"current_range_meters":16800,"station_id":"ce4bgjh2rcd13ifvqbf0","pricing_plan_id":"cebpf4jnsgd1na2vs0mg"},{"bike_id":"75eebb0f-2447-4bf8-b846-45b5b359059b","system_id":"levelo_inurba_marseille","lat":43.33769,"lon":5.37496,"is_reserved":false,"is_disabled":false,"rental_uris":{"android":"levelo://app?vid=75eebb0f-2447-4bf8-b846-45b5b359059b","ios":"levelo://app?vid=75eebb0f-2447-4bf8-b846-45b5b359059b"},"vehicle_type_id":"4","last_reported":1761312204,"current_range_meters":16800,"station_id":"","pricing_plan_id":"cebpf4jnsgd1na2vs0mg"},{"bike_id":"d6575611-216c-4a95-b321-56845a3694b4","system_id":"levelo_inurba_marseille","lat":43.294382,"lon":5.397534,"is_reserved":false,"is_disabled":false,"rental_uris":{"android":"levelo://app?vid=d6575611-216c-4a95-b321-56845a3694b4","ios":"levelo://app?vid=d6575611-216c-4a95-b321-56845a3694b4"},"vehicle_type_id":"4","last_reported":1761312204,"current_range_meters":16800,"station_id":"ce4bh3h2rcd13ifvqdo0","pricing_plan_id":"cebpf4jnsgd1na2vs0mg"},{"bike_id":"3ad0df1f-ed75-4456-ab24-00058cda7c9e","system_id":"levelo_inurba_marseille","lat":43.305305,"lon":5.367092,"is_reserved":false,"is_disabled":false,"rental_uris":{"android":"levelo://app?vid=3ad0df1f-ed75-4456-ab24-00058cda7c9e","ios":"levelo://app?vid=3ad0df1f-ed75-4456-ab24-00058cda7c9e"},"vehicle_type_id":"4","last_reported":1761312204,"current_range_meters":16800,"station_id":"ce4bgrp2rcd13ifvqc9g","pricing_plan_id":"cebpf4jnsgd1na2vs0mg"},{"bike_id":"cbf84af1-782f-4331-8009-7ab38de72e60","system_id":"levelo_inurba_marseille","lat":43.28706,"lon":5.39982,"is_reserved":false,"is_disabled":false,"rental_uris":{"android":"levelo://app?vid=cbf84af1-782f-4331-8009-7ab38de72e60","ios":"levelo://app?vid=cbf84af1-782f-4331-8009-7ab38de72e60"},"vehicle_type_id":"4","last_reported":1761312204,"current_range_meters":16800,"station_id":"ce4bho92rcd13ifvqh3g","pricing_plan_id":"cebpf4jnsgd1na2vs0mg"},{"bike_id":"7b0f8c14-646c-48d1-a0b1-fa44e1db823e","system_id":"levelo_inurba_marseille","lat":43.27908,"lon":5.3802,"is_reserved":false,"is_disabled":false,"rental_uris":{"android":"levelo://app?vid=7b0f8c14-646c-48d1-a0b1-fa44e1db823e","ios":"levelo://app?vid=7b0f8c14-646c-48d1-a0b1-fa44e1db823e"},"vehicle_type_id":"4","last_reported":1761312204,"current_range_meters":17200,"station_id":"ce4bhf92rcd13ifvqf50","pricing_plan_id":"cebpf4jnsgd1na2vs0mg"},{"bike_id":"5c0e1fad-1092-45f4-930f-73335d46d836","system_id":"levelo_inurba_marseille","lat":43.29782,"lon":5.38096,"is_reserved":false,"is_disabled":true,"rental_uris":{"android":"levelo://app?vid=5c0e1fad-1092-45f4-930f-73335d46d836","ios":"levelo://app?vid=5c0e1fad-1092-45f4-930f-73335d46d836"},"vehicle_type_id":"4","last_reported":1761312204,"current_range_meters":17200,"station_id":"ce4bgip2rcd13ifvqbb0","pricing_plan_id":"cebpf4jnsgd1na2vs0mg"},{"bike_id":"68a5bfe6-4fab-4c83-ac2a-6eb246f0459c","system_id":"levelo_inurba_marseille","lat":43.296337,"lon":5.377292,"is_reserved":false,"is_disabled":false,"rental_uris":{"android":"levelo://app?vid=68a5bfe6-4fab-4c83-ac2a-6eb246f0459c","ios":"levelo://app?vid=68a5bfe6-4fab-4c83-ac2a-6eb246f0459c"},"vehicle_type_id":"4","last_reported":1761312204,"current_range_meters":17200,"station_id":"ce4bgi92rcd13ifvqb90","pricing_plan_id":"cebpf4jnsgd1na2vs0mg"},{"bike_id":"4e7323dd-28ab-4d7c-a8b9-b505037ef2c4","system_id":"levelo_inurba_marseille","lat":43.30144,"lon":5.38068,"is_reserved":false,"is_disabled":false,"rental_uris":{"android":"levelo://app?vid=4e7323dd-28ab-4d7c-a8b9-b505037ef2c4","ios":"levelo://app?vid=4e7323dd-28ab-4d7c-a8b9-b505037ef2c4"},"vehicle_type_id":"4","last_reported":1761312204,"current_range_meters":17200,"station_id":"ce4bgjp2rcd13ifvqbh0","pricing_plan_id":"cebpf4jnsgd1na2vs0mg"},{"bike_id":"417d2345-c4c6-4ccd-bc5c-2eafc961607b","system_id":"levelo_inurba_marseille","lat":43.254971,"lon":5.376515,"is_reserved":false,"is_disabled":false,"rental_uris":{"android":"levelo://app?vid=417d2345-c4c6-4ccd-bc5c-2eafc961607b","ios":"levelo://app?vid=417d2345-c4c6-4ccd-bc5c-2eafc961607b"},"vehicle_type_id":"4","last_reported":1761312204,"current_range_meters":17200,"station_id":"ce4bhh12rcd13ifvqff0","pricing_plan_id":"cebpf4jnsgd1na2vs0mg"},{"bike_id":"ecb650f3-d30e-4c4c-9740-eb9ade3cafab","system_id":"levelo_inurba_marseille","lat":43.29937,"lon":5.3817,"is_reserved":false,"is_disabled":false,"rental_uris":{"android":"levelo://app?vid=ecb650f3-d30e-4c4c-9740-eb9ade3cafab","ios":"levelo://app?vid=ecb650f3-d30e-4c4c-9740-eb9ade3cafab"},"vehicle_type_id":"4","last_reported":1761312204,"current_range_meters":17200,"station_id":"ce4bgj12rcd13ifvqbc0","pricing_plan_id":"cebpf4jnsgd1na2vs0mg"},{"bike_id":"9d964ec4-c537-4f1d-b21c-451d3f46b1bf","system_id":"levelo_inurba_marseille","lat":43.29872,"lon":5.37872,"is_reserved":false,"is_disabled":false,"rental_uris":{"android":"levelo://app?vid=9d964ec4-c537-4f1d-b21c-451d3f46b1bf","ios":"levelo://app?vid=9d964ec4-c537-4f1d-b21c-451d3f46b1bf"},"vehicle_type_id":"4","last_reported":1761312204,"current_range_meters":17200,"station_id":"","pricing_plan_id":"cebpf4jnsgd1na2vs0mg"},{"bike_id":"ef0e0b77-71bc-4668-89bc-55a2a06ce648","system_id":"levelo_inurba_marseille","lat":43.31708,"lon":5.43701,"is_reserved":false,"is_disabled":false,"rental_uris":{"android":"levelo://app?vid=ef0e0b77-71bc-4668-89bc-55a2a06ce648","ios":"levelo://app?vid=ef0e0b77-71bc-4668-89bc-55a2a06ce648"},"vehicle_type_id":"4","last_reported":1761312204,"current_range_meters":17200,"station_id":"ce4bhp92rcd13ifvqhcg","pricing_plan_id":"cebpf4jnsgd1na2vs0mg"},{"bike_id":"d4b3b04f-31bc-4630-ad78-a068e48516c1","system_id":"levelo_inurba_marseille","lat":43.23177,"lon":5.4,"is_reserved":false,"is_disabled":false,"rental_uris":{"android":"levelo://app?vid=d4b3b04f-31bc-4630-ad78-a068e48516c1","ios":"levelo://app?vid=d4b3b04f-31bc-4630-ad78-a068e48516c1"},"vehicle_type_id":"4","last_reported":1761312204,"current_range_meters":17200,"station_id":"ce4bhn12rcd13ifvqgqg","pricing_plan_id":"cebpf4jnsgd1na2vs0mg"},{"bike_id":"ff494a64-dd03-4735-992a-473ce65aafb3","system_id":"levelo_inurba_marseille","lat":43.28964,"lon":5.37846,"is_reserved":false,"is_disabled":false,"rental_uris":{"android":"levelo://app?vid=ff494a64-dd03-4735-992a-473ce65aafb3","ios":"levelo://app?vid=ff494a64-dd03-4735-992a-473ce65aafb3"},"vehicle_type_id":"4","last_reported":1761312204,"current_range_meters":17600,"station_id":"ce4bh9p2rcd13ifvqed0","pricing_plan_id":"cebpf4jnsgd1na2vs0mg"},{"bike_id":"2c7f4b30-9d1c-4725-ae74-8b8af82be5bb","system_id":"levelo_inurba_marseille","lat":43.21173,"lon":5.35083,"is_reserved":false,"is_disabled":false,"rental_uris":{"android":"levelo://app?vid=2c7f4b30-9d1c-4725-ae74-8b8af82be5bb","ios":"levelo://app?vid=2c7f4b30-9d1c-4725-ae74-8b8af82be5bb"},"vehicle_type_id":"4","last_reported":1761312204,"current_range_meters":17600,"station_id":"st_cvj6sg6p6f1abm77japg","pricing_plan_id":"cebpf4jnsgd1na2vs0mg"},{"bike_id":"49c88eb1-18b5-42cc-aab1-cb913bda0353","system_id":"levelo_inurba_marseille","lat":43.33617,"lon":5.41049,"is_reserved":false,"is_disabled":true,"rental_uris":{"android":"levelo://app?vid=49c88eb1-18b5-42cc-aab1-cb913bda0353","ios":"levelo://app?vid=49c88eb1-18b5-42cc-aab1-cb913bda0353"},"vehicle_type_id":"4","last_reported":1761312204,"current_range_meters":17600,"station_id":"ce4bhqh2rcd13ifvqhmg","pricing_plan_id":"cebpf4jnsgd1na2vs0mg"},{"bike_id":"c41e7bd1-2e01-4226-a5e5-d589cdb62a0e","system_id":"levelo_inurba_marseille","lat":43.24386,"lon":5.37075,"is_reserved":false,"is_disabled":false,"rental_uris":{"android":"levelo://app?vid=c41e7bd1-2e01-4226-a5e5-d589cdb62a0e","ios":"levelo://app?vid=c41e7bd1-2e01-4226-a5e5-d589cdb62a0e"},"vehicle_type_id":"4","last_reported":1761312204,"current_range_meters":18000,"station_id":"ce4bhhh2rcd13ifvqfk0","pricing_plan_id":"cebpf4jnsgd1na2vs0mg"},{"bike_id":"03ea29d1-e0d2-4694-9f27-c3be0f7985c7","system_id":"levelo_inurba_marseille","lat":43.24165,"lon":5.36392,"is_reserved":false,"is_disabled":false,"rental_uris":{"android":"levelo://app?vid=03ea29d1-e0d2-4694-9f27-c3be0f7985c7","ios":"levelo://app?vid=03ea29d1-e0d2-4694-9f27-c3be0f7985c7"},"vehicle_type_id":"4","last_reported":1761312204,"current_range_meters":18000,"station_id":"cpo36qri1sfpv3e86is0","pricing_plan_id":"cebpf4jnsgd1na2vs0mg"},{"bike_id":"f44c4455-9dc6-4cc9-9965-14e38b824a63","system_id":"levelo_inurba_marseille","lat":43.287117,"lon":5.379335,"is_reserved":false,"is_disabled":false,"rental_uris":{"android":"levelo://app?vid=f44c4455-9dc6-4cc9-9965-14e38b824a63","ios":"levelo://app?vid=f44c4455-9dc6-4cc9-9965-14e38b824a63"},"vehicle_type_id":"4","last_reported":1761312204,"current_range_meters":18000,"station_id":"","pricing_plan_id":"cebpf4jnsgd1na2vs0mg"},{"bike_id":"17b393c9-c7f2-4039-9328-818688343b94","system_id":"levelo_inurba_marseille","lat":43.30272,"lon":5.37723,"is_reserved":false,"is_disabled":false,"rental_uris":{"android":"levelo://app?vid=17b393c9-c7f2-4039-9328-818688343b94","ios":"levelo://app?vid=17b393c9-c7f2-4039-9328-818688343b94"},"vehicle_type_id":"4","last_reported":1761312204,"current_range_meters":18000,"station_id":"ce4bguh2rcd13ifvqcj0","pricing_plan_id":"cebpf4jnsgd1na2vs0mg"},{"bike_id":"78351733-18b8-4b5f-918e-e64862471c99","system_id":"levelo_inurba_marseille","lat":43.3093,"lon":5.40144,"is_reserved":false,"is_disabled":false,"rental_uris":{"android":"levelo://app?vid=78351733-18b8-4b5f-918e-e64862471c99","ios":"levelo://app?vid=78351733-18b8-4b5f-918e-e64862471c99"},"vehicle_type_id":"4","last_reported":1761312204,"current_range_meters":18000,"station_id":"ce4bgvp2rcd13ifvqct0","pricing_plan_id":"cebpf4jnsgd1na2vs0mg"},{"bike_id":"c82af006-c154-4765-801d-fa5dec2b10c1","system_id":"levelo_inurba_marseille","lat":43.29795,"lon":5.37112,"is_reserved":false,"is_disabled":false,"rental_uris":{"android":"levelo://app?vid=c82af006-c154-4765-801d-fa5dec2b10c1","ios":"levelo://app?vid=c82af006-c154-4765-801d-fa5dec2b10c1"},"vehicle_type_id":"4","last_reported":1761312204,"current_range_meters":18000,"station_id":"ce4bgop2rcd13ifvqc1g","pricing_plan_id":"cebpf4jnsgd1na2vs0mg"},{"bike_id":"2db69d1e-cb7b-46b4-8df4-dd3e8f8ea7a3","system_id":"levelo_inurba_marseille","lat":43.279837,"lon":5.416661,"is_reserved":false,"is_disabled":false,"rental_uris":{"android":"levelo://app?vid=2db69d1e-cb7b-46b4-8df4-dd3e8f8ea7a3","ios":"levelo://app?vid=2db69d1e-cb7b-46b4-8df4-dd3e8f8ea7a3"},"vehicle_type_id":"4","last_reported":1761312204,"current_range_meters":18000,"station_id":"ce4bho12rcd13ifvqh1g","pricing_plan_id":"cebpf4jnsgd1na2vs0mg"},{"bike_id":"77cd5d32-4f81-454c-842f-49d579561e7a","system_id":"levelo_inurba_marseille","lat":43.29077,"lon":5.37171,"is_reserved":false,"is_disabled":false,"rental_uris":{"android":"levelo://app?vid=77cd5d32-4f81-454c-842f-49d579561e7a","ios":"levelo://app?vid=77cd5d32-4f81-454c-842f-49d579561e7a"},"vehicle_type_id":"4","last_reported":1761312204,"current_range_meters":18000,"station_id":"ce4bh5p2rcd13ifvqe4g","pricing_plan_id":"cebpf4jnsgd1na2vs0mg"},{"bike_id":"3a96a2e1-43cf-4bcf-8c88-9cf5be0234ed","system_id":"levelo_inurba_marseille","lat":43.217487,"lon":5.346025,"is_reserved":false,"is_disabled":false,"rental_uris":{"android":"levelo://app?vid=3a96a2e1-43cf-4bcf-8c88-9cf5be0234ed","ios":"levelo://app?vid=3a96a2e1-43cf-4bcf-8c88-9cf5be0234ed"},"vehicle_type_id":"4","last_reported":1761312204,"current_range_meters":18000,"station_id":"st_cvj6r9ubvosntc0bgbag","pricing_plan_id":"cebpf4jnsgd1na2vs0mg"},{"bike_id":"0314410c-0b13-4156-b6a7-447bee8f3097","system_id":"levelo_inurba_marseille","lat":43.24166,"lon":5.36393,"is_reserved":false,"is_disabled":false,"rental_uris":{"android":"levelo://app?vid=0314410c-0b13-4156-b6a7-447bee8f3097","ios":"levelo://app?vid=0314410c-0b13-4156-b6a7-447bee8f3097"},"vehicle_type_id":"4","last_reported":1761312204,"current_range_meters":18800,"station_id":"cpo36qri1sfpv3e86is0","pricing_plan_id":"cebpf4jnsgd1na2vs0mg"},{"bike_id":"fc05c9ea-1526-4fe4-9602-1e490cf46753","system_id":"levelo_inurba_marseille","lat":43.29788,"lon":5.37112,"is_reserved":false,"is_disabled":false,"rental_uris":{"android":"levelo://app?vid=fc05c9ea-1526-4fe4-9602-1e490cf46753","ios":"levelo://app?vid=fc05c9ea-1526-4fe4-9602-1e490cf46753"},"vehicle_type_id":"4","last_reported":1761312204,"current_range_meters":18800,"station_id":"ce4bgop2rcd13ifvqc1g","pricing_plan_id":"cebpf4jnsgd1na2vs0mg"},{"bike_id":"386a9c87-6707-4c56-9410-3952ef242f20","system_id":"levelo_inurba_marseille","lat":43.24045,"lon":5.37766,"is_reserved":false,"is_disabled":false,"rental_uris":{"android":"levelo://app?vid=386a9c87-6707-4c56-9410-3952ef242f20","ios":"levelo://app?vid=386a9c87-6707-4c56-9410-3952ef242f20"},"vehicle_type_id":"4","last_reported":1761312204,"current_range_meters":18800,"station_id":"ce4bhnp2rcd13ifvqgvg","pricing_plan_id":"cebpf4jnsgd1na2vs0mg"},{"bike_id":"1d91d2c9-29d3-4c7d-a6a8-29c5c39d1cce","system_id":"levelo_inurba_marseille","lat":43.22919,"lon":5.35396,"is_reserved":false,"is_disabled":false,"rental_uris":{"android":"levelo://app?vid=1d91d2c9-29d3-4c7d-a6a8-29c5c39d1cce","ios":"levelo://app?vid=1d91d2c9-29d3-4c7d-a6a8-29c5c39d1cce"},"vehicle_type_id":"4","last_reported":1761312204,"current_range_meters":18800,"station_id":"","pricing_plan_id":"cebpf4jnsgd1na2vs0mg"},{"bike_id":"85831b0c-ac03-4a31-ad4b-6acd383c62ca","system_id":"levelo_inurba_marseille","lat":43.277077,"lon":5.388243,"is_reserved":false,"is_disabled":false,"rental_uris":{"android":"levelo://app?vid=85831b0c-ac03-4a31-ad4b-6acd383c62ca","ios":"levelo://app?vid=85831b0c-ac03-4a31-ad4b-6acd383c62ca"},"vehicle_type_id":"4","last_reported":1761312204,"current_range_meters":18800,"station_id":"","pricing_plan_id":"cebpf4jnsgd1na2vs0mg"},{"bike_id":"d4f34596-cd96-4004-af96-068144e0795b","system_id":"levelo_inurba_marseille","lat":43.30674,"lon":5.42234,"is_reserved":false,"is_disabled":false,"rental_uris":{"android":"levelo://app?vid=d4f34596-cd96-4004-af96-068144e0795b","ios":"levelo://app?vid=d4f34596-cd96-4004-af96-068144e0795b"},"vehicle_type_id":"4","last_reported":1761312204,"current_range_meters":18800,"station_id":"","pricing_plan_id":"cebpf4jnsgd1na2vs0mg"},{"bike_id":"8e92164c-deff-4fbd-9f4e-43ff81933572","system_id":"levelo_inurba_marseille","lat":43.298364,"lon":5.420154,"is_reserved":false,"is_disabled":false,"rental_uris":{"android":"levelo://app?vid=8e92164c-deff-4fbd-9f4e-43ff81933572","ios":"levelo://app?vid=8e92164c-deff-4fbd-9f4e-43ff81933572"},"vehicle_type_id":"4","last_reported":1761312204,"current_range_meters":18800,"station_id":"","pricing_plan_id":"cebpf4jnsgd1na2vs0mg"},{"bike_id":"affcb4d7-bd11-485d-ac87-73a3514edca3","system_id":"levelo_inurba_marseille","lat":43.21742,"lon":5.346,"is_reserved":false,"is_disabled":false,"rental_uris":{"android":"levelo://app?vid=affcb4d7-bd11-485d-ac87-73a3514edca3","ios":"levelo://app?vid=affcb4d7-bd11-485d-ac87-73a3514edca3"},"vehicle_type_id":"4","last_reported":1761312204,"current_range_meters":18800,"station_id":"st_cvj6r9ubvosntc0bgbag","pricing_plan_id":"cebpf4jnsgd1na2vs0mg"},{"bike_id":"82145eb3-b847-4cd0-b8d0-8696da1de3e7","system_id":"levelo_inurba_marseille","lat":43.29623,"lon":5.3773,"is_reserved":false,"is_disabled":false,"rental_uris":{"android":"levelo://app?vid=82145eb3-b847-4cd0-b8d0-8696da1de3e7","ios":"levelo://app?vid=82145eb3-b847-4cd0-b8d0-8696da1de3e7"},"vehicle_type_id":"4","last_reported":1761312204,"current_range_meters":18800,"station_id":"ce4bgi92rcd13ifvqb90","pricing_plan_id":"cebpf4jnsgd1na2vs0mg"},{"bike_id":"d0866ac6-e291-4c39-9b97-aa073a59965a","system_id":"levelo_inurba_marseille","lat":43.2378,"lon":5.36634,"is_reserved":false,"is_disabled":false,"rental_uris":{"android":"levelo://app?vid=d0866ac6-e291-4c39-9b97-aa073a59965a","ios":"levelo://app?vid=d0866ac6-e291-4c39-9b97-aa073a59965a"},"vehicle_type_id":"4","last_reported":1761312204,"current_range_meters":18800,"station_id":"st_d3nk18o9ro0c73en2l3g","pricing_plan_id":"cebpf4jnsgd1na2vs0mg"},{"bike_id":"bfaea6f8-ccc6-44a7-83a6-9d7d9a7e60cc","system_id":"levelo_inurba_marseille","lat":43.26395,"lon":5.39748,"is_reserved":false,"is_disabled":false,"rental_uris":{"android":"levelo://app?vid=bfaea6f8-ccc6-44a7-83a6-9d7d9a7e60cc","ios":"levelo://app?vid=bfaea6f8-ccc6-44a7-83a6-9d7d9a7e60cc"},"vehicle_type_id":"4","last_reported":1761312204,"current_range_meters":19200,"station_id":"","pricing_plan_id":"cebpf4jnsgd1na2vs0mg"},{"bike_id":"8a5a89fc-db3f-407f-963e-8c95d645c127","system_id":"levelo_inurba_marseille","lat":43.293599,"lon":5.378396,"is_reserved":false,"is_disabled":false,"rental_uris":{"android":"levelo://app?vid=8a5a89fc-db3f-407f-963e-8c95d645c127","ios":"levelo://app?vid=8a5a89fc-db3f-407f-963e-8c95d645c127"},"vehicle_type_id":"4","last_reported":1761312204,"current_range_meters":19200,"station_id":"ce4bgjh2rcd13ifvqbf0","pricing_plan_id":"cebpf4jnsgd1na2vs0mg"},{"bike_id":"82d982b4-e26d-4a19-82f1-67104e7f1617","system_id":"levelo_inurba_marseille","lat":43.28991,"lon":5.35605,"is_reserved":false,"is_disabled":false,"rental_uris":{"android":"levelo://app?vid=82d982b4-e26d-4a19-82f1-67104e7f1617","ios":"levelo://app?vid=82d982b4-e26d-4a19-82f1-67104e7f1617"},"vehicle_type_id":"4","last_reported":1761312204,"current_range_meters":19200,"station_id":"ce4bhb92rcd13ifvqen0","pricing_plan_id":"cebpf4jnsgd1na2vs0mg"},{"bike_id":"0bee0626-b9a8-413e-bed7-d82dc19927df","system_id":"levelo_inurba_marseille","lat":43.31482,"lon":5.37301,"is_reserved":false,"is_disabled":false,"rental_uris":{"android":"levelo://app?vid=0bee0626-b9a8-413e-bed7-d82dc19927df","ios":"levelo://app?vid=0bee0626-b9a8-413e-bed7-d82dc19927df"},"vehicle_type_id":"4","last_reported":1761312204,"current_range_meters":19200,"station_id":"ce4bgt12rcd13ifvqcd0","pricing_plan_id":"cebpf4jnsgd1na2vs0mg"},{"bike_id":"46d5a9c8-8175-4777-a5c8-1e1a0f437065","system_id":"levelo_inurba_marseille","lat":43.28859,"lon":5.42531,"is_reserved":false,"is_disabled":false,"rental_uris":{"android":"levelo://app?vid=46d5a9c8-8175-4777-a5c8-1e1a0f437065","ios":"levelo://app?vid=46d5a9c8-8175-4777-a5c8-1e1a0f437065"},"vehicle_type_id":"4","last_reported":1761312204,"current_range_meters":19200,"station_id":"st_d3b462108ojc7389ooeg","pricing_plan_id":"cebpf4jnsgd1na2vs0mg"},{"bike_id":"49cb2aa5-f71e-4c13-8baa-1c84d0549426","system_id":"levelo_inurba_marseille","lat":43.29615,"lon":5.37726,"is_reserved":false,"is_disabled":false,"rental_uris":{"android":"levelo://app?vid=49cb2aa5-f71e-4c13-8baa-1c84d0549426","ios":"levelo://app?vid=49cb2aa5-f71e-4c13-8baa-1c84d0549426"},"vehicle_type_id":"4","last_reported":1761312204,"current_range_meters":19200,"station_id":"ce4bgi92rcd13ifvqb90","pricing_plan_id":"cebpf4jnsgd1na2vs0mg"},{"bike_id":"8c99c51c-1748-4a80-886b-f75eb8aa3e97","system_id":"levelo_inurba_marseille","lat":43.30211,"lon":5.39476,"is_reserved":false,"is_disabled":false,"rental_uris":{"android":"levelo://app?vid=8c99c51c-1748-4a80-886b-f75eb8aa3e97","ios":"levelo://app?vid=8c99c51c-1748-4a80-886b-f75eb8aa3e97"},"vehicle_type_id":"4","last_reported":1761312204,"current_range_meters":19200,"station_id":"ce4bh0p2rcd13ifvqd70","pricing_plan_id":"cebpf4jnsgd1na2vs0mg"},{"bike_id":"2fdf9870-e471-442b-b6c9-b1a68f56e04b","system_id":"levelo_inurba_marseille","lat":43.31887,"lon":5.40735,"is_reserved":false,"is_disabled":false,"rental_uris":{"android":"levelo://app?vid=2fdf9870-e471-442b-b6c9-b1a68f56e04b","ios":"levelo://app?vid=2fdf9870-e471-442b-b6c9-b1a68f56e04b"},"vehicle_type_id":"4","last_reported":1761312204,"current_range_meters":19200,"station_id":"ce4bhq12rcd13ifvqhig","pricing_plan_id":"cebpf4jnsgd1na2vs0mg"},{"bike_id":"d9c827f0-7e89-4a06-83b0-d50e7a322c89","system_id":"levelo_inurba_marseille","lat":43.2319,"lon":5.35558,"is_reserved":false,"is_disabled":false,"rental_uris":{"android":"levelo://app?vid=d9c827f0-7e89-4a06-83b0-d50e7a322c89","ios":"levelo://app?vid=d9c827f0-7e89-4a06-83b0-d50e7a322c89"},"vehicle_type_id":"4","last_reported":1761312204,"current_range_meters":19600,"station_id":"ce4bhu92rcd13ifvqi70","pricing_plan_id":"cebpf4jnsgd1na2vs0mg"},{"bike_id":"a159a0e6-67a6-4e75-a48a-702de3275b9c","system_id":"levelo_inurba_marseille","lat":43.29603,"lon":5.37742,"is_reserved":false,"is_disabled":false,"rental_uris":{"android":"levelo://app?vid=a159a0e6-67a6-4e75-a48a-702de3275b9c","ios":"levelo://app?vid=a159a0e6-67a6-4e75-a48a-702de3275b9c"},"vehicle_type_id":"4","last_reported":1761312204,"current_range_meters":19600,"station_id":"ce4bgi92rcd13ifvqb90","pricing_plan_id":"cebpf4jnsgd1na2vs0mg"},{"bike_id":"a3afe735-3826-428d-9982-b0b60a35200c","system_id":"levelo_inurba_marseille","lat":43.3031,"lon":5.36907,"is_reserved":false,"is_disabled":false,"rental_uris":{"android":"levelo://app?vid=a3afe735-3826-428d-9982-b0b60a35200c","ios":"levelo://app?vid=a3afe735-3826-428d-9982-b0b60a35200c"},"vehicle_type_id":"4","last_reported":1761312204,"current_range_meters":19600,"station_id":"ce4bgqh2rcd13ifvqc5g","pricing_plan_id":"cebpf4jnsgd1na2vs0mg"},{"bike_id":"55273914-693f-490d-80db-da0ec13963c9","system_id":"levelo_inurba_marseille","lat":43.211938,"lon":5.350704,"is_reserved":false,"is_disabled":false,"rental_uris":{"android":"levelo://app?vid=55273914-693f-490d-80db-da0ec13963c9","ios":"levelo://app?vid=55273914-693f-490d-80db-da0ec13963c9"},"vehicle_type_id":"4","last_reported":1761312204,"current_range_meters":19600,"station_id":"","pricing_plan_id":"cebpf4jnsgd1na2vs0mg"},{"bike_id":"a1bc95b9-a039-406b-adff-ef2515168cb3","system_id":"levelo_inurba_marseille","lat":43.30614,"lon":5.37241,"is_reserved":false,"is_disabled":false,"rental_uris":{"android":"levelo://app?vid=a1bc95b9-a039-406b-adff-ef2515168cb3","ios":"levelo://app?vid=a1bc95b9-a039-406b-adff-ef2515168cb3"},"vehicle_type_id":"4","last_reported":1761312204,"current_range_meters":19600,"station_id":"ce4bgqh2rcd13ifvqc4g","pricing_plan_id":"cebpf4jnsgd1na2vs0mg"},{"bike_id":"8c65c7b2-b342-46ff-9ba9-f0320d1e7cca","system_id":"levelo_inurba_marseille","lat":43.28261,"lon":5.35072,"is_reserved":false,"is_disabled":false,"rental_uris":{"android":"levelo://app?vid=8c65c7b2-b342-46ff-9ba9-f0320d1e7cca","ios":"levelo://app?vid=8c65c7b2-b342-46ff-9ba9-f0320d1e7cca"},"vehicle_type_id":"4","last_reported":1761312204,"current_range_meters":19600,"station_id":"ce4bhbp2rcd13ifvqerg","pricing_plan_id":"cebpf4jnsgd1na2vs0mg"},{"bike_id":"81df6eaf-239b-4308-9cb8-6bbc83177f72","system_id":"levelo_inurba_marseille","lat":43.21745,"lon":5.346,"is_reserved":false,"is_disabled":false,"rental_uris":{"android":"levelo://app?vid=81df6eaf-239b-4308-9cb8-6bbc83177f72","ios":"levelo://app?vid=81df6eaf-239b-4308-9cb8-6bbc83177f72"},"vehicle_type_id":"4","last_reported":1761312204,"current_range_meters":19600,"station_id":"st_cvj6r9ubvosntc0bgbag","pricing_plan_id":"cebpf4jnsgd1na2vs0mg"},{"bike_id":"9489737c-7c2c-4f83-bc76-e520af4d2990","system_id":"levelo_inurba_marseille","lat":43.32362,"lon":5.38871,"is_reserved":false,"is_disabled":false,"rental_uris":{"android":"levelo://app?vid=9489737c-7c2c-4f83-bc76-e520af4d2990","ios":"levelo://app?vid=9489737c-7c2c-4f83-bc76-e520af4d2990"},"vehicle_type_id":"4","last_reported":1761312204,"current_range_meters":19600,"station_id":"ce4bhqp2rcd13ifvqhog","pricing_plan_id":"cebpf4jnsgd1na2vs0mg"},{"bike_id":"8c35a7e4-8378-4fdf-b42f-02e88b6199ca","system_id":"levelo_inurba_marseille","lat":43.32099,"lon":5.36754,"is_reserved":false,"is_disabled":false,"rental_uris":{"android":"levelo://app?vid=8c35a7e4-8378-4fdf-b42f-02e88b6199ca","ios":"levelo://app?vid=8c35a7e4-8378-4fdf-b42f-02e88b6199ca"},"vehicle_type_id":"4","last_reported":1761312204,"current_range_meters":19600,"station_id":"ce4bhrh2rcd13ifvqhug","pricing_plan_id":"cebpf4jnsgd1na2vs0mg"},{"bike_id":"fdc9afbe-3a96-41ab-8c43-bef64db02a19","system_id":"levelo_inurba_marseille","lat":43.27173,"lon":5.40996,"is_reserved":false,"is_disabled":false,"rental_uris":{"android":"levelo://app?vid=fdc9afbe-3a96-41ab-8c43-bef64db02a19","ios":"levelo://app?vid=fdc9afbe-3a96-41ab-8c43-bef64db02a19"},"vehicle_type_id":"4","last_reported":1761312204,"current_range_meters":19600,"station_id":"ce4bhl12rcd13ifvqgf0","pricing_plan_id":"cebpf4jnsgd1na2vs0mg"},{"bike_id":"4cb65326-7cff-43a0-8843-5fe66d2daaf7","system_id":"levelo_inurba_marseille","lat":43.21181,"lon":5.35074,"is_reserved":false,"is_disabled":false,"rental_uris":{"android":"levelo://app?vid=4cb65326-7cff-43a0-8843-5fe66d2daaf7","ios":"levelo://app?vid=4cb65326-7cff-43a0-8843-5fe66d2daaf7"},"vehicle_type_id":"4","last_reported":1761312204,"current_range_meters":19600,"station_id":"st_cvj6sg6p6f1abm77japg","pricing_plan_id":"cebpf4jnsgd1na2vs0mg"},{"bike_id":"cda11ea8-cb8c-42e5-bc2b-612cd2892727","system_id":"levelo_inurba_marseille","lat":43.2656,"lon":5.40319,"is_reserved":false,"is_disabled":false,"rental_uris":{"android":"levelo://app?vid=cda11ea8-cb8c-42e5-bc2b-612cd2892727","ios":"levelo://app?vid=cda11ea8-cb8c-42e5-bc2b-612cd2892727"},"vehicle_type_id":"4","last_reported":1761312204,"current_range_meters":19600,"station_id":"ce4bhmp2rcd13ifvqgng","pricing_plan_id":"cebpf4jnsgd1na2vs0mg"},{"bike_id":"a48b489a-127e-4aab-97a2-25cf37e655c9","system_id":"levelo_inurba_marseille","lat":43.30926,"lon":5.40276,"is_reserved":false,"is_disabled":false,"rental_uris":{"android":"levelo://app?vid=a48b489a-127e-4aab-97a2-25cf37e655c9","ios":"levelo://app?vid=a48b489a-127e-4aab-97a2-25cf37e655c9"},"vehicle_type_id":"4","last_reported":1761312204,"current_range_meters":20000,"station_id":"","pricing_plan_id":"cebpf4jnsgd1na2vs0mg"},{"bike_id":"1514b95b-e6f8-4fa5-b3ea-7181d2ad588d","system_id":"levelo_inurba_marseille","lat":43.28106,"lon":5.37841,"is_reserved":false,"is_disabled":false,"rental_uris":{"android":"levelo://app?vid=1514b95b-e6f8-4fa5-b3ea-7181d2ad588d","ios":"levelo://app?vid=1514b95b-e6f8-4fa5-b3ea-7181d2ad588d"},"vehicle_type_id":"4","last_reported":1761312204,"current_range_meters":20000,"station_id":"ce4bha12rcd13ifvqee0","pricing_plan_id":"cebpf4jnsgd1na2vs0mg"},{"bike_id":"b2e20cd2-c54c-4e77-b03f-069ffaf8b17b","system_id":"levelo_inurba_marseille","lat":43.217553,"lon":5.346007,"is_reserved":false,"is_disabled":false,"rental_uris":{"android":"levelo://app?vid=b2e20cd2-c54c-4e77-b03f-069ffaf8b17b","ios":"levelo://app?vid=b2e20cd2-c54c-4e77-b03f-069ffaf8b17b"},"vehicle_type_id":"4","last_reported":1761312204,"current_range_meters":20000,"station_id":"st_cvj6r9ubvosntc0bgbag","pricing_plan_id":"cebpf4jnsgd1na2vs0mg"},{"bike_id":"fbc51a66-9f5b-4793-bf47-376ff7c8c289","system_id":"levelo_inurba_marseille","lat":43.21198,"lon":5.3506,"is_reserved":false,"is_disabled":false,"rental_uris":{"android":"levelo://app?vid=fbc51a66-9f5b-4793-bf47-376ff7c8c289","ios":"levelo://app?vid=fbc51a66-9f5b-4793-bf47-376ff7c8c289"},"vehicle_type_id":"4","last_reported":1761312204,"current_range_meters":20000,"station_id":"st_cvj6sg6p6f1abm77japg","pricing_plan_id":"cebpf4jnsgd1na2vs0mg"},{"bike_id":"83d3dcad-2aaa-4f28-9bb6-654419417e96","system_id":"levelo_inurba_marseille","lat":43.305471,"lon":5.365249,"is_reserved":false,"is_disabled":false,"rental_uris":{"android":"levelo://app?vid=83d3dcad-2aaa-4f28-9bb6-654419417e96","ios":"levelo://app?vid=83d3dcad-2aaa-4f28-9bb6-654419417e96"},"vehicle_type_id":"4","last_reported":1761312204,"current_range_meters":20000,"station_id":"ce4bgs12rcd13ifvqcag","pricing_plan_id":"cebpf4jnsgd1na2vs0mg"},{"bike_id":"dab36927-4328-48fa-bffb-145a737de07e","system_id":"levelo_inurba_marseille","lat":43.30776,"lon":5.43533,"is_reserved":false,"is_disabled":true,"rental_uris":{"android":"levelo://app?vid=dab36927-4328-48fa-bffb-145a737de07e","ios":"levelo://app?vid=dab36927-4328-48fa-bffb-145a737de07e"},"vehicle_type_id":"4","last_reported":1761312204,"current_range_meters":20400,"station_id":"ce4bhph2rcd13ifvqheg","pricing_plan_id":"cebpf4jnsgd1na2vs0mg"},{"bike_id":"4a514008-51e9-4ae7-9b01-e78de94b68df","system_id":"levelo_inurba_marseille","lat":43.21182,"lon":5.35072,"is_reserved":false,"is_disabled":false,"rental_uris":{"android":"levelo://app?vid=4a514008-51e9-4ae7-9b01-e78de94b68df","ios":"levelo://app?vid=4a514008-51e9-4ae7-9b01-e78de94b68df"},"vehicle_type_id":"4","last_reported":1761312204,"current_range_meters":20400,"station_id":"st_cvj6sg6p6f1abm77japg","pricing_plan_id":"cebpf4jnsgd1na2vs0mg"},{"bike_id":"ffae26b9-f537-447f-b5fc-79081d85c048","system_id":"levelo_inurba_marseille","lat":43.30417,"lon":5.39751,"is_reserved":false,"is_disabled":false,"rental_uris":{"android":"levelo://app?vid=ffae26b9-f537-447f-b5fc-79081d85c048","ios":"levelo://app?vid=ffae26b9-f537-447f-b5fc-79081d85c048"},"vehicle_type_id":"4","last_reported":1761312204,"current_range_meters":20400,"station_id":"ce4bh092rcd13ifvqd20","pricing_plan_id":"cebpf4jnsgd1na2vs0mg"},{"bike_id":"02236924-bc1d-4ca5-b39e-1469e308906c","system_id":"levelo_inurba_marseille","lat":43.217434,"lon":5.346034,"is_reserved":false,"is_disabled":false,"rental_uris":{"android":"levelo://app?vid=02236924-bc1d-4ca5-b39e-1469e308906c","ios":"levelo://app?vid=02236924-bc1d-4ca5-b39e-1469e308906c"},"vehicle_type_id":"4","last_reported":1761312204,"current_range_meters":20400,"station_id":"st_cvj6r9ubvosntc0bgbag","pricing_plan_id":"cebpf4jnsgd1na2vs0mg"},{"bike_id":"de1370b3-b3eb-4bb2-b2b4-c6e191bc35e9","system_id":"levelo_inurba_marseille","lat":43.29906,"lon":5.37476,"is_reserved":false,"is_disabled":false,"rental_uris":{"android":"levelo://app?vid=de1370b3-b3eb-4bb2-b2b4-c6e191bc35e9","ios":"levelo://app?vid=de1370b3-b3eb-4bb2-b2b4-c6e191bc35e9"},"vehicle_type_id":"4","last_reported":1761312204,"current_range_meters":20400,"station_id":"ce4bgjh2rcd13ifvqbg0","pricing_plan_id":"cebpf4jnsgd1na2vs0mg"},{"bike_id":"36ef565d-595c-4fe5-832e-9069968fcd08","system_id":"levelo_inurba_marseille","lat":43.32563,"lon":5.4143,"is_reserved":false,"is_disabled":true,"rental_uris":{"android":"levelo://app?vid=36ef565d-595c-4fe5-832e-9069968fcd08","ios":"levelo://app?vid=36ef565d-595c-4fe5-832e-9069968fcd08"},"vehicle_type_id":"4","last_reported":1761312204,"current_range_meters":20400,"station_id":"ce4bhq12rcd13ifvqhhg","pricing_plan_id":"cebpf4jnsgd1na2vs0mg"},