{"last_updated":1727024883,"ttl":30,"version":"2.2","data":{"bikes":[{"bike_id":"22ac7a50-ae27-44d1-b9ae-9dcd290b40b9","system_id":"levelo_inurba_marseille","lat":43.272034,"lon":5.391787,"is_reserved":false,"is_disabled":false,"rental_uris":{"android":"levelo://app?vid=22ac7a50-ae27-44d1-b9ae-9dcd290b40b9","ios":"levelo://app?vid=22ac7a50-ae27-44d1-b9ae-9dcd290b40b9"},"vehicle_type_id":"4","last_reported":1727024883,"current_range_meters":3200,"station_id":"ce4bhhp2rcd13ifvqfm0","pricing_plan_id":"cebpf4jnsgd1na2vs0mg"},{"bike_id":"fd84f170-c075-4570-a556-c5e617e29406","system_id":"levelo_inurba_marseille","lat":43.28286,"lon":5.40875,"is_reserved":false,"is_disabled":false,"rental_uris":{"android":"levelo://app?vid=fd84f170-c075-4570-a556-c5e617e29406","ios":"levelo://app?vid=fd84f170-c075-4570-a556-c5e617e29406"},"vehicle_type_id":"4","last_reported":1727024883,"current_range_meters":18000,"station_id":"","pricing_plan_id":"cebpf4jnsgd1na2vs0mg"},{"bike_id":"62c49be9-0267-422e-93e8-09af5b485c0f","system_id":"levelo_inurba_marseille","lat":43.32371,"lon":5.38889,"is_reserved":false,"is_disabled":false,"rental_uris":{"android":"levelo://app?vid=62c49be9-0267-422e-93e8-09af5b485c0f","ios":"levelo://app?vid=62c49be9-0267-422e-93e8-09af5b485c0f"},"vehicle_type_id":"4","last_reported":1727024883,"current_range_meters":9600,"station_id":"ce4bhqp2rcd13ifvqhog","pricing_plan_id":"cebpf4jnsgd1na2vs0mg"},{"bike_id":"2fca69ee-182c-45f6-b7e4-a690321601c7","system_id":"levelo_inurba_marseille","lat":43.31356,"lon":5.38493,"is_reserved":false,"is_disabled":false,"rental_uris":{"android":"levelo://app?vid=2fca69ee-182c-45f6-b7e4-a690321601c7","ios":"levelo://app?vid=2fca69ee-182c-45f6-b7e4-a690321601c7"},"vehicle_type_id":"4","last_reported":1727024883,"current_range_meters":14000,"station_id":"ce4bgt92rcd13ifvqcf0","pricing_plan_id":"cebpf4jnsgd1na2vs0mg"},{"bike_id":"2375269c-1ee0-4177-a574-bcc26e16eb27","system_id":"levelo_inurba_marseille","lat":43.31712,"lon":5.43704,"is_reserved":false,"is_disabled":false,"rental_uris":{"android":"levelo://app?vid=2375269c-1ee0-4177-a574-bcc26e16eb27","ios":"levelo://app?vid=2375269c-1ee0-4177-a574-bcc26e16eb27"},"vehicle_type_id":"4","last_reported":1727024883,"current_range_meters":19600,"station_id":"ce4bhp92rcd13ifvqhcg","pricing_plan_id":"cebpf4jnsgd1na2vs0mg"},{"bike_id":"fbaf3268-f2cb-4b30-8e23-ffdeda33ca51","system_id":"levelo_inurba_marseille","lat":43.24074,"lon":5.37751,"is_reserved":false,"is_disabled":false,"rental_uris":{"android":"levelo://app?vid=fbaf3268-f2cb-4b30-8e23-ffdeda33ca51","ios":"levelo://app?vid=fbaf3268-f2cb-4b30-8e23-ffdeda33ca51"},"vehicle_type_id":"4","last_reported":1727024883,"current_range_meters":38800,"station_id":"ce4bhnp2rcd13ifvqgvg","pricing_plan_id":"cebpf4jnsgd1na2vs0mg"},{"bike_id":"9a56c769-1f05-4fec-b388-970c325072e6","system_id":"levelo_inurba_marseille","lat":43.305506,"lon":5.365605,"is_reserved":false,"is_disabled":false,"rental_uris":{"android":"levelo://app?vid=9a56c769-1f05-4fec-b388-970c325072e6","ios":"levelo://app?vid=9a56c769-1f05-4fec-b388-970c325072e6"},"vehicle_type_id":"4","last_reported":1727024883,"current_range_meters":33200,"station_id":"ce4bgs12rcd13ifvqcag","pricing_plan_id":"cebpf4jnsgd1na2vs0mg"},{"bike_id":"3088b933-0eb0-44a5-81e7-422b8bfe6707","system_id":"levelo_inurba_marseille","lat":43.2407,"lon":5.37756,"is_reserved":false,"is_disabled":false,"rental_uris":{"android":"levelo://app?vid=3088b933-0eb0-44a5-81e7-422b8bfe6707","ios":"levelo://app?vid=3088b933-0eb0-44a5-81e7-422b8bfe6707"},"vehicle_type_id":"4","last_reported":1727024883,"current_range_meters":19600,"station_id":"ce4bhnp2rcd13ifvqgvg","pricing_plan_id":"cebpf4jnsgd1na2vs0mg"},{"bike_id":"5ec8ea6e-3e50-4bf0-add5-9869c9811c4e","system_id":"levelo_inurba_marseille","lat":43.30311,"lon":5.36914,"is_reserved":false,"is_disabled":false,"rental_uris":{"android":"levelo://app?vid=5ec8ea6e-3e50-4bf0-add5-9869c9811c4e","ios":"levelo://app?vid=5ec8ea6e-3e50-4bf0-add5-9869c9811c4e"},"vehicle_type_id":"4","last_reported":1727024883,"current_range_meters":25600,"station_id":"ce4bgqh2rcd13ifvqc5g","pricing_plan_id":"cebpf4jnsgd1na2vs0mg"},{"bike_id":"6a0a58db-6cce-4439-bb99-38a21e7c4cd5","system_id":"levelo_inurba_marseille","lat":43.25505,"lon":5.37653,"is_reserved":false,"is_disabled":false,"rental_uris":{"android":"levelo://app?vid=6a0a58db-6cce-4439-bb99-38a21e7c4cd5","ios":"levelo://app?vid=6a0a58db-6cce-4439-bb99-38a21e7c4cd5"},"vehicle_type_id":"4","last_reported":1727024883,"current_range_meters":7200,"station_id":"ce4bhh12rcd13ifvqff0","pricing_plan_id":"cebpf4jnsgd1na2vs0mg"},{"bike_id":"20a042f1-81aa-4cde-8548-4f002e395336","system_id":"levelo_inurba_marseille","lat":43.30167,"lon":5.39871,"is_reserved":false,"is_disabled":false,"rental_uris":{"android":"levelo://app?vid=20a042f1-81aa-4cde-8548-4f002e395336","ios":"levelo://app?vid=20a042f1-81aa-4cde-8548-4f002e395336"},"vehicle_type_id":"4","last_reported":1727024883,"current_range_meters":36800,"station_id":"ce4bgvp2rcd13ifvqct0","pricing_plan_id":"cebpf4jnsgd1na2vs0mg"},{"bike_id":"70b13f37-8854-4127-ac3e-14d93d2a45ae","system_id":"levelo_inurba_marseille","lat":43.30321,"lon":5.40437,"is_reserved":false,"is_disabled":false,"rental_uris":{"android":"levelo://app?vid=70b13f37-8854-4127-ac3e-14d93d2a45ae","ios":"levelo://app?vid=70b13f37-8854-4127-ac3e-14d93d2a45ae"},"vehicle_type_id":"4","last_reported":1727024883,"current_range_meters":4400,"station_id":"ce4bh012rcd13ifvqd10","pricing_plan_id":"cebpf4jnsgd1na2vs0mg"},{"bike_id":"d7da139e-330f-4909-b52b-93cda3171239","system_id":"levelo_inurba_marseille","lat":43.308,"lon":5.4352,"is_reserved":false,"is_disabled":false,"rental_uris":{"android":"levelo://app?vid=d7da139e-330f-4909-b52b-93cda3171239","ios":"levelo://app?vid=d7da139e-330f-4909-b52b-93cda3171239"},"vehicle_type_id":"4","last_reported":1727024883,"current_range_meters":3600,"station_id":"ce4bhph2rcd13ifvqheg","pricing_plan_id":"cebpf4jnsgd1na2vs0mg"},{"bike_id":"9315cce6-be51-456b-9ad0-b29db14c8aab","system_id":"levelo_inurba_marseille","lat":43.24997,"lon":5.38939,"is_reserved":false,"is_disabled":false,"rental_uris":{"android":"levelo://app?vid=9315cce6-be51-456b-9ad0-b29db14c8aab","ios":"levelo://app?vid=9315cce6-be51-456b-9ad0-b29db14c8aab"},"vehicle_type_id":"4","last_reported":1727024883,"current_range_meters":34000,"station_id":"ce4bhgp2rcd13ifvqfd0","pricing_plan_id":"cebpf4jnsgd1na2vs0mg"},{"bike_id":"eda3c0b5-b332-4464-8604-7bee74721b14","system_id":"levelo_inurba_marseille","lat":43.25113,"lon":5.40318,"is_reserved":false,"is_disabled":false,"rental_uris":{"android":"levelo://app?vid=eda3c0b5-b332-4464-8604-7bee74721b14","ios":"levelo://app?vid=eda3c0b5-b332-4464-8604-7bee74721b14"},"vehicle_type_id":"4","last_reported":1727024883,"current_range_meters":27200,"station_id":"ce4bhlh2rcd13ifvqgig","pricing_plan_id":"cebpf4jnsgd1na2vs0mg"},{"bike_id":"ddef2735-203a-4460-8fe2-32d0d088e5d5","system_id":"levelo_inurba_marseille","lat":43.31244,"lon":5.37982,"is_reserved":false,"is_disabled":false,"rental_uris":{"android":"levelo://app?vid=ddef2735-203a-4460-8fe2-32d0d088e5d5","ios":"levelo://app?vid=ddef2735-203a-4460-8fe2-32d0d088e5d5"},"vehicle_type_id":"4","last_reported":1727024883,"current_range_meters":4800,"station_id":"","pricing_plan_id":"cebpf4jnsgd1na2vs0mg"},{"bike_id":"baa9e3ba-a317-4c5a-937b-63c24c256bd8","system_id":"levelo_inurba_marseille","lat":43.32673,"lon":5.40933,"is_reserved":false,"is_disabled":false,"rental_uris":{"android":"levelo://app?vid=baa9e3ba-a317-4c5a-937b-63c24c256bd8","ios":"levelo://app?vid=baa9e3ba-a317-4c5a-937b-63c24c256bd8"},"vehicle_type_id":"4","last_reported":1727024883,"current_range_meters":38800,"station_id":"ce4bhpp2rcd13ifvqhgg","pricing_plan_id":"cebpf4jnsgd1na2vs0mg"},{"bike_id":"f1ec1d2d-4bea-4b38-bec2-8436617d80bd","system_id":"levelo_inurba_marseille","lat":43.30644,"lon":5.40103,"is_reserved":false,"is_disabled":false,"rental_uris":{"android":"levelo://app?vid=f1ec1d2d-4bea-4b38-bec2-8436617d80bd","ios":"levelo://app?vid=f1ec1d2d-4bea-4b38-bec2-8436617d80bd"},"vehicle_type_id":"4","last_reported":1727024883,"current_range_meters":38800,"station_id":"ce4bh112rcd13ifvqda0","pricing_plan_id":"cebpf4jnsgd1na2vs0mg"},{"bike_id":"b51ce446-611a-42c6-8797-bda05e34d07b","system_id":"levelo_inurba_marseille","lat":43.31329,"lon":5.39694,"is_reserved":false,"is_disabled":false,"rental_uris":{"android":"levelo://app?vid=b51ce446-611a-42c6-8797-bda05e34d07b","ios":"levelo://app?vid=b51ce446-611a-42c6-8797-bda05e34d07b"},"vehicle_type_id":"4","last_reported":1727024883,"current_range_meters":12800,"station_id":"ce4bgvp2rcd13ifvqcu0","pricing_plan_id":"cebpf4jnsgd1na2vs0mg"},{"bike_id":"853eac44-f572-4e42-88bd-01f97fd37b6e","system_id":"levelo_inurba_marseille","lat":43.30303,"lon":5.39216,"is_reserved":false,"is_disabled":false,"rental_uris":{"android":"levelo://app?vid=853eac44-f572-4e42-88bd-01f97fd37b6e","ios":"levelo://app?vid=853eac44-f572-4e42-88bd-01f97fd37b6e"},"vehicle_type_id":"4","last_reported":1727024883,"current_range_meters":2000,"station_id":"ce4bgkh2rcd13ifvqbk0","pricing_plan_id":"cebpf4jnsgd1na2vs0mg"},{"bike_id":"b5e656dd-87a4-4f90-81cd-99e337fcf729","system_id":"levelo_inurba_marseille","lat":43.30532,"lon":5.38424,"is_reserved":false,"is_disabled":false,"rental_uris":{"android":"levelo://app?vid=b5e656dd-87a4-4f90-81cd-99e337fcf729","ios":"levelo://app?vid=b5e656dd-87a4-4f90-81cd-99e337fcf729"},"vehicle_type_id":"4","last_reported":1727024883,"current_range_meters":12800,"station_id":"ce4bgg92rcd13ifvqb30","pricing_plan_id":"cebpf4jnsgd1na2vs0mg"},{"bike_id":"42603e7f-e2ff-4577-9907-bf7d6e5887dd","system_id":"levelo_inurba_marseille","lat":43.25116,"lon":5.40318,"is_reserved":false,"is_disabled":false,"rental_uris":{"android":"levelo://app?vid=42603e7f-e2ff-4577-9907-bf7d6e5887dd","ios":"levelo://app?vid=42603e7f-e2ff-4577-9907-bf7d6e5887dd"},"vehicle_type_id":"4","last_reported":1727024883,"current_range_meters":10000,"station_id":"ce4bhlh2rcd13ifvqgig","pricing_plan_id":"cebpf4jnsgd1na2vs0mg"},{"bike_id":"bf1b2103-b792-4830-9ce1-52d19f810b0b","system_id":"levelo_inurba_marseille","lat":43.30798,"lon":5.43516,"is_reserved":false,"is_disabled":false,"rental_uris":{"android":"levelo://app?vid=bf1b2103-b792-4830-9ce1-52d19f810b0b","ios":"levelo://app?vid=bf1b2103-b792-4830-9ce1-52d19f810b0b"},"vehicle_type_id":"4","last_reported":1727024883,"current_range_meters":9600,"station_id":"ce4bhph2rcd13ifvqheg","pricing_plan_id":"cebpf4jnsgd1na2vs0mg"},{"bike_id":"e68b94cf-f394-4560-9c0b-52865583d26a","system_id":"levelo_inurba_marseille","lat":43.23188,"lon":5.3998,"is_reserved":false,"is_disabled":false,"rental_uris":{"android":"levelo://app?vid=e68b94cf-f394-4560-9c0b-52865583d26a","ios":"levelo://app?vid=e68b94cf-f394-4560-9c0b-52865583d26a"},"vehicle_type_id":"4","last_reported":1727024883,"current_range_meters":18800,"station_id":"ce4bhn12rcd13ifvqgqg","pricing_plan_id":"cebpf4jnsgd1na2vs0mg"},{"bike_id":"c4185552-e38c-4ae7-8c6b-95ee43315714","system_id":"levelo_inurba_marseille","lat":43.22928,"lon":5.35376,"is_reserved":false,"is_disabled":false,"rental_uris":{"android":"levelo://app?vid=c4185552-e38c-4ae7-8c6b-95ee43315714","ios":"levelo://app?vid=c4185552-e38c-4ae7-8c6b-95ee43315714"},"vehicle_type_id":"4","last_reported":1727024883,"current_range_meters":38800,"station_id":"cpo3532slgdg3j2ikp40","pricing_plan_id":"cebpf4jnsgd1na2vs0mg"},{"bike_id":"414e0c05-1851-458a-bc1a-bfaeb2506286","system_id":"levelo_inurba_marseille","lat":43.27827,"lon":5.39211,"is_reserved":false,"is_disabled":false,"rental_uris":{"android":"levelo://app?vid=414e0c05-1851-458a-bc1a-bfaeb2506286","ios":"levelo://app?vid=414e0c05-1851-458a-bc1a-bfaeb2506286"},"vehicle_type_id":"4","last_reported":1727024883,"current_range_meters":25200,"station_id":"ce4bhjp2rcd13ifvqga0","pricing_plan_id":"cebpf4jnsgd1na2vs0mg"},{"bike_id":"36e44dec-013f-45e8-83ad-099edbc4ce66","system_id":"levelo_inurba_marseille","lat":43.292601,"lon":5.384492,"is_reserved":false,"is_disabled":false,"rental_uris":{"android":"levelo://app?vid=36e44dec-013f-45e8-83ad-099edbc4ce66","ios":"levelo://app?vid=36e44dec-013f-45e8-83ad-099edbc4ce66"},"vehicle_type_id":"4","last_reported":1727024883,"current_range_meters":29600,"station_id":"ce4bh692rcd13ifvqea0","pricing_plan_id":"cebpf4jnsgd1na2vs0mg"},{"bike_id":"5e8e5ba0-ef73-4392-b2a5-ae972db2374c","system_id":"levelo_inurba_marseille","lat":43.28037,"lon":5.36948,"is_reserved":false,"is_disabled":false,"rental_uris":{"android":"levelo://app?vid=5e8e5ba0-ef73-4392-b2a5-ae972db2374c","ios":"levelo://app?vid=5e8e5ba0-ef73-4392-b2a5-ae972db2374c"},"vehicle_type_id":"4","last_reported":1727024883,"current_range_meters":2000,"station_id":"ce4bha12rcd13ifvqef0","pricing_plan_id":"cebpf4jnsgd1na2vs0mg"},{"bike_id":"af774e23-e087-498b-b3c0-2e0261ba1e35","system_id":"levelo_inurba_marseille","lat":43.29716,"lon":5.36598,"is_reserved":false,"is_disabled":false,"rental_uris":{"android":"levelo://app?vid=af774e23-e087-498b-b3c0-2e0261ba1e35","ios":"levelo://app?vid=af774e23-e087-498b-b3c0-2e0261ba1e35"},"vehicle_type_id":"4","last_reported":1727024883,"current_range_meters":11600,"station_id":"ce4bgn12rcd13ifvqbt0","pricing_plan_id":"cebpf4jnsgd1na2vs0mg"},{"bike_id":"36c416da-9158-44af-aa3a-06b103bea7bf","system_id":"levelo_inurba_marseille","lat":43.337444,"lon":5.374475,"is_reserved":false,"is_disabled":false,"rental_uris":{"android":"levelo://app?vid=36c416da-9158-44af-aa3a-06b103bea7bf","ios":"levelo://app?vid=36c416da-9158-44af-aa3a-06b103bea7bf"},"vehicle_type_id":"4","last_reported":1727024883,"current_range_meters":27200,"station_id":"","pricing_plan_id":"cebpf4jnsgd1na2vs0mg"},{"bike_id":"e7ba8be8-bb54-4ee1-83ab-ce479a272181","system_id":"levelo_inurba_marseille","lat":43.31329,"lon":5.3969,"is_reserved":false,"is_disabled":false,"rental_uris":{"android":"levelo://app?vid=e7ba8be8-bb54-4ee1-83ab-ce479a272181","ios":"levelo://app?vid=e7ba8be8-bb54-4ee1-83ab-ce479a272181"},"vehicle_type_id":"4","last_reported":1727024883,"current_range_meters":5600,"station_id":"ce4bgvp2rcd13ifvqcu0","pricing_plan_id":"cebpf4jnsgd1na2vs0mg"},{"bike_id":"558c76b0-215a-4a84-9e10-663662edc353","system_id":"levelo_inurba_marseille","lat":43.31076,"lon":5.38356,"is_reserved":false,"is_disabled":false,"rental_uris":{"android":"levelo://app?vid=558c76b0-215a-4a84-9e10-663662edc353","ios":"levelo://app?vid=558c76b0-215a-4a84-9e10-663662edc353"},"vehicle_type_id":"4","last_reported":1727024883,"current_range_meters":16800,"station_id":"ce4bgv92rcd13ifvqcr0","pricing_plan_id":"cebpf4jnsgd1na2vs0mg"},{"bike_id":"bc08d377-8934-49f9-a16b-d231e67a2261","system_id":"levelo_inurba_marseille","lat":43.28159,"lon":5.42644,"is_reserved":false,"is_disabled":false,"rental_uris":{"android":"levelo://app?vid=bc08d377-8934-49f9-a16b-d231e67a2261","ios":"levelo://app?vid=bc08d377-8934-49f9-a16b-d231e67a2261"},"vehicle_type_id":"4","last_reported":1727024883,"current_range_meters":14400,"station_id":"ce4bhnh2rcd13ifvqgug","pricing_plan_id":"cebpf4jnsgd1na2vs0mg"},{"bike_id":"d62a55d6-d99b-4ef7-95c8-8b2d1a57418c","system_id":"levelo_inurba_marseille","lat":43.30144,"lon":5.37409,"is_reserved":false,"is_disabled":false,"rental_uris":{"android":"levelo://app?vid=d62a55d6-d99b-4ef7-95c8-8b2d1a57418c","ios":"levelo://app?vid=d62a55d6-d99b-4ef7-95c8-8b2d1a57418c"},"vehicle_type_id":"4","last_reported":1727024883,"current_range_meters":24000,"station_id":"ce4bgs92rcd13ifvqcc0","pricing_plan_id":"cebpf4jnsgd1na2vs0mg"},{"bike_id":"f72b4ee5-3b6a-4bba-8e4b-bc24bda6e341","system_id":"levelo_inurba_marseille","lat":43.28564,"lon":5.39507,"is_reserved":false,"is_disabled":false,"rental_uris":{"android":"levelo://app?vid=f72b4ee5-3b6a-4bba-8e4b-bc24bda6e341","ios":"levelo://app?vid=f72b4ee5-3b6a-4bba-8e4b-bc24bda6e341"},"vehicle_type_id":"4","last_reported":1727024883,"current_range_meters":28400,"station_id":"ce4bh292rcd13ifvqdg0","pricing_plan_id":"cebpf4jnsgd1na2vs0mg"},{"bike_id":"d6391691-de65-45d3-b374-0c65a866bbce","system_id":"levelo_inurba_marseille","lat":43.31705,"lon":5.40471,"is_reserved":false,"is_disabled":false,"rental_uris":{"android":"levelo://app?vid=d6391691-de65-45d3-b374-0c65a866bbce","ios":"levelo://app?vid=d6391691-de65-45d3-b374-0c65a866bbce"},"vehicle_type_id":"4","last_reported":1727024883,"current_range_meters":36800,"station_id":"ce4bh012rcd13ifvqd00","pricing_plan_id":"cebpf4jnsgd1na2vs0mg"},{"bike_id":"fee847b2-684e-4f0f-b3c3-0910bdb1f06e","system_id":"levelo_inurba_marseille","lat":43.28149,"lon":5.42641,"is_reserved":false,"is_disabled":false,"rental_uris":{"android":"levelo://app?vid=fee847b2-684e-4f0f-b3c3-0910bdb1f06e","ios":"levelo://app?vid=fee847b2-684e-4f0f-b3c3-0910bdb1f06e"},"vehicle_type_id":"4","last_reported":1727024883,"current_range_meters":12800,"station_id":"ce4bhnh2rcd13ifvqgug","pricing_plan_id":"cebpf4jnsgd1na2vs0mg"},{"bike_id":"41c90b48-de93-4d56-a965-3b11fc010bd5","system_id":"levelo_inurba_marseille","lat":43.24651,"lon":5.3889,"is_reserved":false,"is_disabled":false,"rental_uris":{"android":"levelo://app?vid=41c90b48-de93-4d56-a965-3b11fc010bd5","ios":"levelo://app?vid=41c90b48-de93-4d56-a965-3b11fc010bd5"},"vehicle_type_id":"4","last_reported":1727024883,"current_range_meters":38400,"station_id":"ce4bhg12rcd13ifvqf60","pricing_plan_id":"cebpf4jnsgd1na2vs0mg"},{"bike_id":"884f6195-25a6-4cc6-ae0a-b62c9cfa5dc9","system_id":"levelo_inurba_marseille","lat":43.291992,"lon":5.35804,"is_reserved":false,"is_disabled":false,"rental_uris":{"android":"levelo://app?vid=884f6195-25a6-4cc6-ae0a-b62c9cfa5dc9","ios":"levelo://app?vid=884f6195-25a6-4cc6-ae0a-b62c9cfa5dc9"},"vehicle_type_id":"4","last_reported":1727024883,"current_range_meters":12000,"station_id":"ce4bhb12rcd13ifvqel0","pricing_plan_id":"cebpf4jnsgd1na2vs0mg"},{"bike_id":"fb7d7461-5a6b-42c5-81a5-8ecf20295fb2","system_id":"levelo_inurba_marseille","lat":43.25933,"lon":5.40911,"is_reserved":false,"is_disabled":false,"rental_uris":{"android":"levelo://app?vid=fb7d7461-5a6b-42c5-81a5-8ecf20295fb2","ios":"levelo://app?vid=fb7d7461-5a6b-42c5-81a5-8ecf20295fb2"},"vehicle_type_id":"4","last_reported":1727024883,"current_range_meters":8400,"station_id":"ce4bhm92rcd13ifvqglg","pricing_plan_id":"cebpf4jnsgd1na2vs0mg"},{"bike_id":"149779fc-bc45-458a-857f-33707eedaf6a","system_id":"levelo_inurba_marseille","lat":43.2319,"lon":5.3556,"is_reserved":false,"is_disabled":false,"rental_uris":{"android":"levelo://app?vid=149779fc-bc45-458a-857f-33707eedaf6a","ios":"levelo://app?vid=149779fc-bc45-458a-857f-33707eedaf6a"},"vehicle_type_id":"4","last_reported":1727024883,"current_range_meters":14000,"station_id":"ce4bhu92rcd13ifvqi70","pricing_plan_id":"cebpf4jnsgd1na2vs0mg"},{"bike_id":"6d7e25c7-c1bf-4562-b237-aa6bbecb4faf","system_id":"levelo_inurba_marseille","lat":43.30555,"lon":5.38372,"is_reserved":false,"is_disabled":false,"rental_uris":{"android":"levelo://app?vid=6d7e25c7-c1bf-4562-b237-aa6bbecb4faf","ios":"levelo://app?vid=6d7e25c7-c1bf-4562-b237-aa6bbecb4faf"},"vehicle_type_id":"4","last_reported":1727024883,"current_range_meters":29600,"station_id":"ce4bgg92rcd13ifvqb30","pricing_plan_id":"cebpf4jnsgd1na2vs0mg"},{"bike_id":"43df60f0-901e-45e8-a739-2918ae0ece83","system_id":"levelo_inurba_marseille","lat":43.2467,"lon":5.3816,"is_reserved":false,"is_disabled":false,"rental_uris":{"android":"levelo://app?vid=43df60f0-901e-45e8-a739-2918ae0ece83","ios":"levelo://app?vid=43df60f0-901e-45e8-a739-2918ae0ece83"},"vehicle_type_id":"4","last_reported":1727024883,"current_range_meters":38800,"station_id":"ce4bhih2rcd13ifvqfr0","pricing_plan_id":"cebpf4jnsgd1na2vs0mg"},{"bike_id":"2674c829-cbfc-41fc-94cc-403a1dabb051","system_id":"levelo_inurba_marseille","lat":43.29265,"lon":5.3844,"is_reserved":false,"is_disabled":false,"rental_uris":{"android":"levelo://app?vid=2674c829-cbfc-41fc-94cc-403a1dabb051","ios":"levelo://app?vid=2674c829-cbfc-41fc-94cc-403a1dabb051"},"vehicle_type_id":"4","last_reported":1727024883,"current_range_meters":38000,"station_id":"ce4bh692rcd13ifvqea0","pricing_plan_id":"cebpf4jnsgd1na2vs0mg"},{"bike_id":"9e76614e-09a0-4c59-8bc7-1ac57848deef","system_id":"levelo_inurba_marseille","lat":43.24078,"lon":5.37747,"is_reserved":false,"is_disabled":false,"rental_uris":{"android":"levelo://app?vid=9e76614e-09a0-4c59-8bc7-1ac57848deef","ios":"levelo://app?vid=9e76614e-09a0-4c59-8bc7-1ac57848deef"},"vehicle_type_id":"4","last_reported":1727024883,"current_range_meters":38800,"station_id":"ce4bhnp2rcd13ifvqgvg","pricing_plan_id":"cebpf4jnsgd1na2vs0mg"},{"bike_id":"2eb59fce-4b09-45e1-8472-de3ef262d301","system_id":"levelo_inurba_marseille","lat":43.31532,"lon":5.3803,"is_reserved":false,"is_disabled":false,"rental_uris":{"android":"levelo://app?vid=2eb59fce-4b09-45e1-8472-de3ef262d301","ios":"levelo://app?vid=2eb59fce-4b09-45e1-8472-de3ef262d301"},"vehicle_type_id":"4","last_reported":1727024883,"current_range_meters":10800,"station_id":"ce4bhsp2rcd13ifvqi50","pricing_plan_id":"cebpf4jnsgd1na2vs0mg"},{"bike_id":"37983d8f-0ec2-417f-9e5b-d7bfc2c24ccc","system_id":"levelo_inurba_marseille","lat":43.31174,"lon":5.38709,"is_reserved":false,"is_disabled":false,"rental_uris":{"android":"levelo://app?vid=37983d8f-0ec2-417f-9e5b-d7bfc2c24ccc","ios":"levelo://app?vid=37983d8f-0ec2-417f-9e5b-d7bfc2c24ccc"},"vehicle_type_id":"4","last_reported":1727024883,"current_range_meters":38000,"station_id":"ce4bgv12rcd13ifvqcp0","pricing_plan_id":"cebpf4jnsgd1na2vs0mg"},{"bike_id":"3dabf6ba-6079-4ca1-97a1-17f1cd93e5fa","system_id":"levelo_inurba_marseille","lat":43.26033,"lon":5.37547,"is_reserved":false,"is_disabled":false,"rental_uris":{"android":"levelo://app?vid=3dabf6ba-6079-4ca1-97a1-17f1cd93e5fa","ios":"levelo://app?vid=3dabf6ba-6079-4ca1-97a1-17f1cd93e5fa"},"vehicle_type_id":"4","last_reported":1727024883,"current_range_meters":4000,"station_id":"ce4bhgh2rcd13ifvqfa0","pricing_plan_id":"cebpf4jnsgd1na2vs0mg"},{"bike_id":"0ff4f335-c094-4fa4-bf87-25c057bb2b28","system_id":"levelo_inurba_marseille","lat":43.29258,"lon":5.38436,"is_reserved":false,"is_disabled":false,"rental_uris":{"android":"levelo://app?vid=0ff4f335-c094-4fa4-bf87-25c057bb2b28","ios":"levelo://app?vid=0ff4f335-c094-4fa4-bf87-25c057bb2b28"},"vehicle_type_id":"4","last_reported":1727024883,"current_range_meters":4000,"station_id":"ce4bh692rcd13ifvqea0","pricing_plan_id":"cebpf4jnsgd1na2vs0mg"},{"bike_id":"ea874f65-cd94-47cd-86ca-f5730e548a43","system_id":"levelo_inurba_marseille","lat":43.24997,"lon":5.3894,"is_reserved":false,"is_disabled":false,"rental_uris":{"android":"levelo://app?vid=ea874f65-cd94-47cd-86ca-f5730e548a43","ios":"levelo://app?vid=ea874f65-cd94-47cd-86ca-f5730e548a43"},"vehicle_type_id":"4","last_reported":1727024883,"current_range_meters":38800,"station_id":"ce4bhgp2rcd13ifvqfd0","pricing_plan_id":"cebpf4jnsgd1na2vs0mg"},{"bike_id":"e3e03b5a-c7d7-4340-b809-b26c2ec1f80d","system_id":"levelo_inurba_marseille","lat":43.286714,"lon":5.399659,"is_reserved":false,"is_disabled":false,"rental_uris":{"android":"levelo://app?vid=e3e03b5a-c7d7-4340-b809-b26c2ec1f80d","ios":"levelo://app?vid=e3e03b5a-c7d7-4340-b809-b26c2ec1f80d"},"vehicle_type_id":"4","last_reported":1727024883,"current_range_meters":9200,"station_id":"ce4bho92rcd13ifvqh3g","pricing_plan_id":"cebpf4jnsgd1na2vs0mg"},{"bike_id":"d4cd02a2-8196-45a0-ade7-083f2b1cddee","system_id":"levelo_inurba_marseille","lat":43.24183,"lon":5.39723,"is_reserved":false,"is_disabled":false,"rental_uris":{"android":"levelo://app?vid=d4cd02a2-8196-45a0-ade7-083f2b1cddee","ios":"levelo://app?vid=d4cd02a2-8196-45a0-ade7-083f2b1cddee"},"vehicle_type_id":"4","last_reported":1727024883,"current_range_meters":37600,"station_id":"ce4bhn12rcd13ifvqgpg","pricing_plan_id":"cebpf4jnsgd1na2vs0mg"},{"bike_id":"745165ca-2557-4cbf-840f-706713e329dd","system_id":"levelo_inurba_marseille","lat":43.239594,"lon":5.366228,"is_reserved":false,"is_disabled":false,"rental_uris":{"android":"levelo://app?vid=745165ca-2557-4cbf-840f-706713e329dd","ios":"levelo://app?vid=745165ca-2557-4cbf-840f-706713e329dd"},"vehicle_type_id":"4","last_reported":1727024883,"current_range_meters":6400,"station_id":"ce4bhi12rcd13ifvqfp0","pricing_plan_id":"cebpf4jnsgd1na2vs0mg"},{"bike_id":"e0339637-84b9-494b-bbbe-fd9b98704479","system_id":"levelo_inurba_marseille","lat":43.258203,"lon":5.394382,"is_reserved":false,"is_disabled":false,"rental_uris":{"android":"levelo://app?vid=e0339637-84b9-494b-bbbe-fd9b98704479","ios":"levelo://app?vid=e0339637-84b9-494b-bbbe-fd9b98704479"},"vehicle_type_id":"4","last_reported":1727024883,"current_range_meters":12800,"station_id":"ce4bhip2rcd13ifvqft0","pricing_plan_id":"cebpf4jnsgd1na2vs0mg"},{"bike_id":"aa9de1ff-e322-4364-8462-6adfff1f70c4","system_id":"levelo_inurba_marseille","lat":43.30424,"lon":5.41292,"is_reserved":false,"is_disabled":false,"rental_uris":{"android":"levelo://app?vid=aa9de1ff-e322-4364-8462-6adfff1f70c4","ios":"levelo://app?vid=aa9de1ff-e322-4364-8462-6adfff1f70c4"},"vehicle_type_id":"4","last_reported":1727024883,"current_range_meters":32800,"station_id":"ce4bhop2rcd13ifvqh8g","pricing_plan_id":"cebpf4jnsgd1na2vs0mg"},{"bike_id":"53ebd296-9c09-489f-b39f-fbe2b3d1dcdc","system_id":"levelo_inurba_marseille","lat":43.24999,"lon":5.38945,"is_reserved":false,"is_disabled":false,"rental_uris":{"android":"levelo://app?vid=53ebd296-9c09-489f-b39f-fbe2b3d1dcdc","ios":"levelo://app?vid=53ebd296-9c09-489f-b39f-fbe2b3d1dcdc"},"vehicle_type_id":"4","last_reported":1727024883,"current_range_meters":38800,"station_id":"ce4bhgp2rcd13ifvqfd0","pricing_plan_id":"cebpf4jnsgd1na2vs0mg"},{"bike_id":"a995d9e0-0c0c-4587-9f1a-54c59c2dcd7d","system_id":"levelo_inurba_marseille","lat":43.29801,"lon":5.40402,"is_reserved":false,"is_disabled":false,"rental_uris":{"android":"levelo://app?vid=a995d9e0-0c0c-4587-9f1a-54c59c2dcd7d","ios":"levelo://app?vid=a995d9e0-0c0c-4587-9f1a-54c59c2dcd7d"},"vehicle_type_id":"4","last_reported":1727024883,"current_range_meters":16000,"station_id":"ce4bh112rcd13ifvqd90","pricing_plan_id":"cebpf4jnsgd1na2vs0mg"},{"bike_id":"7ad8305e-1250-47f6-b1ae-992bbf7af6a1","system_id":"levelo_inurba_marseille","lat":43.301539,"lon":5.387766,"is_reserved":false,"is_disabled":false,"rental_uris":{"android":"levelo://app?vid=7ad8305e-1250-47f6-b1ae-992bbf7af6a1","ios":"levelo://app?vid=7ad8305e-1250-47f6-b1ae-992bbf7af6a1"},"vehicle_type_id":"4","last_reported":1727024883,"current_range_meters":33600,"station_id":"ce4bguh2rcd13ifvqcj0","pricing_plan_id":"cebpf4jnsgd1na2vs0mg"},{"bike_id":"6c236bc9-cd9c-42fc-905f-5047b47d3083","system_id":"levelo_inurba_marseille","lat":43.28728,"lon":5.36085,"is_reserved":false,"is_disabled":false,"rental_uris":{"android":"levelo://app?vid=6c236bc9-cd9c-42fc-905f-5047b47d3083","ios":"levelo://app?vid=6c236bc9-cd9c-42fc-905f-5047b47d3083"},"vehicle_type_id":"4","last_reported":1727024883,"current_range_meters":3600,"station_id":"cki0cbj6b192h4jlfktg","pricing_plan_id":"cebpf4jnsgd1na2vs0mg"},{"bike_id":"a7a2630d-54d4-495a-8506-d0472b9b9a1a","system_id":"levelo_inurba_marseille","lat":43.29549,"lon":5.42283,"is_reserved":false,"is_disabled":false,"rental_uris":{"android":"levelo://app?vid=a7a2630d-54d4-495a-8506-d0472b9b9a1a","ios":"levelo://app?vid=a7a2630d-54d4-495a-8506-d0472b9b9a1a"},"vehicle_type_id":"4","last_reported":1727024883,"current_range_meters":38400,"station_id":"ce4bhph2rcd13ifvqhdg","pricing_plan_id":"cebpf4jnsgd1na2vs0mg"},{"bike_id":"31126208-ce86-4297-ac91-3443576c1071","system_id":"levelo_inurba_marseille","lat":43.277832,"lon":5.383341,"is_reserved":false,"is_disabled":false,"rental_uris":{"android":"levelo://app?vid=31126208-ce86-4297-ac91-3443576c1071","ios":"levelo://app?vid=31126208-ce86-4297-ac91-3443576c1071"},"vehicle_type_id":"4","last_reported":1727024883,"current_range_meters":6800,"station_id":"ce4bhg92rcd13ifvqf90","pricing_plan_id":"cebpf4jnsgd1na2vs0mg"},{"bike_id":"8e68118a-2d9d-4efe-9707-d8225016ba37","system_id":"levelo_inurba_marseille","lat":43.23969,"lon":5.36631,"is_reserved":false,"is_disabled":false,"rental_uris":{"android":"levelo://app?vid=8e68118a-2d9d-4efe-9707-d8225016ba37","ios":"levelo://app?vid=8e68118a-2d9d-4efe-9707-d8225016ba37"},"vehicle_type_id":"4","last_reported":1727024883,"current_range_meters":8000,"station_id":"ce4bhi12rcd13ifvqfp0","pricing_plan_id":"cebpf4jnsgd1na2vs0mg"},{"bike_id":"5bbe3903-310f-4d1f-ac57-4330ce7494b2","system_id":"levelo_inurba_marseille","lat":43.28041,"lon":5.36942,"is_reserved":false,"is_disabled":false,"rental_uris":{"android":"levelo://app?vid=5bbe3903-310f-4d1f-ac57-4330ce7494b2","ios":"levelo://app?vid=5bbe3903-310f-4d1f-ac57-4330ce7494b2"},"vehicle_type_id":"4","last_reported":1727024883,"current_range_meters":6400,"station_id":"ce4bha12rcd13ifvqef0","pricing_plan_id":"cebpf4jnsgd1na2vs0mg"},{"bike_id":"757411e7-939e-4353-9792-02a3aa30f3ed","system_id":"levelo_inurba_marseille","lat":43.23195,"lon":5.35549,"is_reserved":false,"is_disabled":false,"rental_uris":{"android":"levelo://app?vid=757411e7-939e-4353-9792-02a3aa30f3ed","ios":"levelo://app?vid=757411e7-939e-4353-9792-02a3aa30f3ed"},"vehicle_type_id":"4","last_reported":1727024883,"current_range_meters":39200,"station_id":"ce4bhu92rcd13ifvqi70","pricing_plan_id":"cebpf4jnsgd1na2vs0mg"},{"bike_id":"b79ef3ce-c402-42a2-a520-3331f1ac6f52","system_id":"levelo_inurba_marseille","lat":43.2738,"lon":5.36261,"is_reserved":false,"is_disabled":false,"rental_uris":{"android":"levelo://app?vid=b79ef3ce-c402-42a2-a520-3331f1ac6f52","ios":"levelo://app?vid=b79ef3ce-c402-42a2-a520-3331f1ac6f52"},"vehicle_type_id":"4","last_reported":1727024883,"current_range_meters":39200,"station_id":"ce4bhbh2rcd13ifvqeo0","pricing_plan_id":"cebpf4jnsgd1na2vs0mg"},{"bike_id":"0d457c36-627a-466f-851c-64c112d1445b","system_id":"levelo_inurba_marseille","lat":43.32659,"lon":5.40991,"is_reserved":false,"is_disabled":false,"rental_uris":{"android":"levelo://app?vid=0d457c36-627a-466f-851c-64c112d1445b","ios":"levelo://app?vid=0d457c36-627a-466f-851c-64c112d1445b"},"vehicle_type_id":"4","last_reported":1727024883,"current_range_meters":16400,"station_id":"ce4bhpp2rcd13ifvqhgg","pricing_plan_id":"cebpf4jnsgd1na2vs0mg"},{"bike_id":"14373448-dfd5-4768-aaed-c5111cc34775","system_id":"levelo_inurba_marseille","lat":43.29264,"lon":5.38433,"is_reserved":false,"is_disabled":false,"rental_uris":{"android":"levelo://app?vid=14373448-dfd5-4768-aaed-c5111cc34775","ios":"levelo://app?vid=14373448-dfd5-4768-aaed-c5111cc34775"},"vehicle_type_id":"4","last_reported":1727024883,"current_range_meters":39200,"station_id":"ce4bh692rcd13ifvqea0","pricing_plan_id":"cebpf4jnsgd1na2vs0mg"},{"bike_id":"8ea3ea29-5c01-4016-a590-e853cf837830","system_id":"levelo_inurba_marseille","lat":43.24656,"lon":5.389,"is_reserved":false,"is_disabled":false,"rental_uris":{"android":"levelo://app?vid=8ea3ea29-5c01-4016-a590-e853cf837830","ios":"levelo://app?vid=8ea3ea29-5c01-4016-a590-e853cf837830"},"vehicle_type_id":"4","last_reported":1727024883,"current_range_meters":38800,"station_id":"ce4bhg12rcd13ifvqf60","pricing_plan_id":"cebpf4jnsgd1na2vs0mg"},{"bike_id":"b99bc4a3-9fe9-459e-8cb9-65ce754a5c49","system_id":"levelo_inurba_marseille","lat":43.316864,"lon":5.40475,"is_reserved":false,"is_disabled":false,"rental_uris":{"android":"levelo://app?vid=b99bc4a3-9fe9-459e-8cb9-65ce754a5c49","ios":"levelo://app?vid=b99bc4a3-9fe9-459e-8cb9-65ce754a5c49"},"vehicle_type_id":"4","last_reported":1727024883,"current_range_meters":27200,"station_id":"ce4bh012rcd13ifvqd00","pricing_plan_id":"cebpf4jnsgd1na2vs0mg"},{"bike_id":"71aa8592-ddf7-4343-aed4-c00d3433340f","system_id":"levelo_inurba_marseille","lat":43.337444,"lon":5.374475,"is_reserved":false,"is_disabled":false,"rental_uris":{"android":"levelo://app?vid=71aa8592-ddf7-4343-aed4-c00d3433340f","ios":"levelo://app?vid=71aa8592-ddf7-4343-aed4-c00d3433340f"},"vehicle_type_id":"4","last_reported":1727024883,"current_range_meters":30800,"station_id":"","pricing_plan_id":"cebpf4jnsgd1na2vs0mg"},{"bike_id":"3740c6df-06cd-419b-9ae6-b8d9e5eff548","system_id":"levelo_inurba_marseille","lat":43.2753,"lon":5.40935,"is_reserved":false,"is_disabled":false,"rental_uris":{"android":"levelo://app?vid=3740c6df-06cd-419b-9ae6-b8d9e5eff548","ios":"levelo://app?vid=3740c6df-06cd-419b-9ae6-b8d9e5eff548"},"vehicle_type_id":"4","last_reported":1727024883,"current_range_meters":12400,"station_id":"","pricing_plan_id":"cebpf4jnsgd1na2vs0mg"},{"bike_id":"d16e2011-bc82-44c3-b316-b40f569bbaa7","system_id":"levelo_inurba_marseille","lat":43.2668,"lon":5.38267,"is_reserved":false,"is_disabled":false,"rental_uris":{"android":"levelo://app?vid=d16e2011-bc82-44c3-b316-b40f569bbaa7","ios":"levelo://app?vid=d16e2011-bc82-44c3-b316-b40f569bbaa7"},"vehicle_type_id":"4","last_reported":1727024883,"current_range_meters":8400,"station_id":"ce4bhg92rcd13ifvqf90","pricing_plan_id":"cebpf4jnsgd1na2vs0mg"},{"bike_id":"ca34a881-4975-463e-839c-371ca2f77aad","system_id":"levelo_inurba_marseille","lat":43.32543,"lon":5.41442,"is_reserved":false,"is_disabled":false,"rental_uris":{"android":"levelo://app?vid=ca34a881-4975-463e-839c-371ca2f77aad","ios":"levelo://app?vid=ca34a881-4975-463e-839c-371ca2f77aad"},"vehicle_type_id":"4","last_reported":1727024883,"current_range_meters":19200,"station_id":"ce4bhq12rcd13ifvqhhg","pricing_plan_id":"cebpf4jnsgd1na2vs0mg"},{"bike_id":"47f8b8c6-c721-4ca4-b9fe-adf5751d16c3","system_id":"levelo_inurba_marseille","lat":43.27943,"lon":5.41055,"is_reserved":false,"is_disabled":false,"rental_uris":{"android":"levelo://app?vid=47f8b8c6-c721-4ca4-b9fe-adf5751d16c3","ios":"levelo://app?vid=47f8b8c6-c721-4ca4-b9fe-adf5751d16c3"},"vehicle_type_id":"4","last_reported":1727024883,"current_range_meters":4400,"station_id":"ce4bhnp2rcd13ifvqh0g","pricing_plan_id":"cebpf4jnsgd1na2vs0mg"},{"bike_id":"38e55ba7-c26c-4b9c-8404-9f7cec825759","system_id":"levelo_inurba_marseille","lat":43.22928,"lon":5.35377,"is_reserved":false,"is_disabled":false,"rental_uris":{"android":"levelo://app?vid=38e55ba7-c26c-4b9c-8404-9f7cec825759","ios":"levelo://app?vid=38e55ba7-c26c-4b9c-8404-9f7cec825759"},"vehicle_type_id":"4","last_reported":1727024883,"current_range_meters":38800,"station_id":"cpo3532slgdg3j2ikp40","pricing_plan_id":"cebpf4jnsgd1na2vs0mg"},{"bike_id":"2d6c687e-3b59-49b5-a1fa-50a2a52715b6","system_id":"levelo_inurba_marseille","lat":43.298089,"lon":5.381046,"is_reserved":false,"is_disabled":false,"rental_uris":{"android":"levelo://app?vid=2d6c687e-3b59-49b5-a1fa-50a2a52715b6","ios":"levelo://app?vid=2d6c687e-3b59-49b5-a1fa-50a2a52715b6"},"vehicle_type_id":"4","last_reported":1727024883,"current_range_meters":38000,"station_id":"ce4bgip2rcd13ifvqbb0","pricing_plan_id":"cebpf4jnsgd1na2vs0mg"},{"bike_id":"e818975f-7ffc-4172-8819-cf84b7fe28b7","system_id":"levelo_inurba_marseille","lat":43.28418,"lon":5.37519,"is_reserved":false,"is_disabled":false,"rental_uris":{"android":"levelo://app?vid=e818975f-7ffc-4172-8819-cf84b7fe28b7","ios":"levelo://app?vid=e818975f-7ffc-4172-8819-cf84b7fe28b7"},"vehicle_type_id":"4","last_reported":1727024883,"current_range_meters":34000,"station_id":"ce4bh412rcd13ifvqds0","pricing_plan_id":"cebpf4jnsgd1na2vs0mg"},{"bike_id":"df1ca689-a44b-4d7b-ae50-90ade339c4cf","system_id":"levelo_inurba_marseille","lat":43.29253,"lon":5.40902,"is_reserved":false,"is_disabled":false,"rental_uris":{"android":"levelo://app?vid=df1ca689-a44b-4d7b-ae50-90ade339c4cf","ios":"levelo://app?vid=df1ca689-a44b-4d7b-ae50-90ade339c4cf"},"vehicle_type_id":"4","last_reported":1727024883,"current_range_meters":3600,"station_id":"ce4bh192rcd13ifvqdc0","pricing_plan_id":"cebpf4jnsgd1na2vs0mg"},{"bike_id":"e75d6885-17e7-4ac9-985f-a855cd93972d","system_id":"levelo_inurba_marseille","lat":43.3129,"lon":5.40167,"is_reserved":false,"is_disabled":false,"rental_uris":{"android":"levelo://app?vid=e75d6885-17e7-4ac9-985f-a855cd93972d","ios":"levelo://app?vid=e75d6885-17e7-4ac9-985f-a855cd93972d"},"vehicle_type_id":"4","last_reported":1727024883,"current_range_meters":38800,"station_id":"ce4bh092rcd13ifvqd30","pricing_plan_id":"cebpf4jnsgd1na2vs0mg"},{"bike_id":"39000d08-69eb-46c9-a298-b0346d85331d","system_id":"levelo_inurba_marseille","lat":43.29858,"lon":5.39748,"is_reserved":false,"is_disabled":false,"rental_uris":{"android":"levelo://app?vid=39000d08-69eb-46c9-a298-b0346d85331d","ios":"levelo://app?vid=39000d08-69eb-46c9-a298-b0346d85331d"},"vehicle_type_id":"4","last_reported":1727024883,"current_range_meters":18000,"station_id":"ce4bh0h2rcd13ifvqd50","pricing_plan_id":"cebpf4jnsgd1na2vs0mg"},{"bike_id":"34bac9de-afcc-485f-a901-124a385dd441","system_id":"levelo_inurba_marseille","lat":43.24538,"lon":5.39515,"is_reserved":false,"is_disabled":false,"rental_uris":{"android":"levelo://app?vid=34bac9de-afcc-485f-a901-124a385dd441","ios":"levelo://app?vid=34bac9de-afcc-485f-a901-124a385dd441"},"vehicle_type_id":"4","last_reported":1727024883,"current_range_meters":38000,"station_id":"ce4bhlp2rcd13ifvqgjg","pricing_plan_id":"cebpf4jnsgd1na2vs0mg"},{"bike_id":"1575e777-51f8-479e-bd95-714cef91a125","system_id":"levelo_inurba_marseille","lat":43.24181,"lon":5.39719,"is_reserved":false,"is_disabled":false,"rental_uris":{"android":"levelo://app?vid=1575e777-51f8-479e-bd95-714cef91a125","ios":"levelo://app?vid=1575e777-51f8-479e-bd95-714cef91a125"},"vehicle_type_id":"4","last_reported":1727024883,"current_range_meters":26000,"station_id":"ce4bhn12rcd13ifvqgpg","pricing_plan_id":"cebpf4jnsgd1na2vs0mg"},{"bike_id":"493351e3-2673-4fea-86d7-dbb5ef4ffae6","system_id":"levelo_inurba_marseille","lat":43.29553,"lon":5.42284,"is_reserved":false,"is_disabled":false,"rental_uris":{"android":"levelo://app?vid=493351e3-2673-4fea-86d7-dbb5ef4ffae6","ios":"levelo://app?vid=493351e3-2673-4fea-86d7-dbb5ef4ffae6"},"vehicle_type_id":"4","last_reported":1727024883,"current_range_meters":23200,"station_id":"ce4bhph2rcd13ifvqhdg","pricing_plan_id":"cebpf4jnsgd1na2vs0mg"},{"bike_id":"932407ff-2077-40b2-b44d-9de249d86649","system_id":"levelo_inurba_marseille","lat":43.29958,"lon":5.41322,"is_reserved":false,"is_disabled":false,"rental_uris":{"android":"levelo://app?vid=932407ff-2077-40b2-b44d-9de249d86649","ios":"levelo://app?vid=932407ff-2077-40b2-b44d-9de249d86649"},"vehicle_type_id":"4","last_reported":1727024883,"current_range_meters":22400,"station_id":"ce4bhp12rcd13ifvqh9g","pricing_plan_id":"cebpf4jnsgd1na2vs0mg"},{"bike_id":"4338e1f0-345e-4b51-9a37-7c290a3ef146","system_id":"levelo_inurba_marseille","lat":43.2844,"lon":5.39204,"is_reserved":false,"is_disabled":false,"rental_uris":{"android":"levelo://app?vid=4338e1f0-345e-4b51-9a37-7c290a3ef146","ios":"levelo://app?vid=4338e1f0-345e-4b51-9a37-7c290a3ef146"},"vehicle_type_id":"4","last_reported":1727024883,"current_range_meters":17200,"station_id":"ce4bhoh2rcd13ifvqh5g","pricing_plan_id":"cebpf4jnsgd1na2vs0mg"},{"bike_id":"1452c4a9-61ae-4e36-80bc-305f2209f473","system_id":"levelo_inurba_marseille","lat":43.25937,"lon":5.409,"is_reserved":false,"is_disabled":false,"rental_uris":{"android":"levelo://app?vid=1452c4a9-61ae-4e36-80bc-305f2209f473","ios":"levelo://app?vid=1452c4a9-61ae-4e36-80bc-305f2209f473"},"vehicle_type_id":"4","last_reported":1727024883,"current_range_meters":6800,"station_id":"ce4bhm92rcd13ifvqglg","pricing_plan_id":"cebpf4jnsgd1na2vs0mg"},{"bike_id":"8f234d07-88cf-4b46-a0f1-cb37492ad8ff","system_id":"levelo_inurba_marseille","lat":43.31537,"lon":5.38035,"is_reserved":false,"is_disabled":false,"rental_uris":{"android":"levelo://app?vid=8f234d07-88cf-4b46-a0f1-cb37492ad8ff","ios":"levelo://app?vid=8f234d07-88cf-4b46-a0f1-cb37492ad8ff"},"vehicle_type_id":"4","last_reported":1727024883,"current_range_meters":6800,"station_id":"ce4bhsp2rcd13ifvqi50","pricing_plan_id":"cebpf4jnsgd1na2vs0mg"},{"bike_id":"d765ecc6-f24e-4e18-aeb0-429ef33b50a7","system_id":"levelo_inurba_marseille","lat":43.23181,"lon":5.3998,"is_reserved":false,"is_disabled":false,"rental_uris":{"android":"levelo://app?vid=d765ecc6-f24e-4e18-aeb0-429ef33b50a7","ios":"levelo://app?vid=d765ecc6-f24e-4e18-aeb0-429ef33b50a7"},"vehicle_type_id":"4","last_reported":1727024883,"current_range_meters":6400,"station_id":"ce4bhn12rcd13ifvqgqg","pricing_plan_id":"cebpf4jnsgd1na2vs0mg"},{"bike_id":"6d823e02-37a6-40de-8ea0-23cd9ae3749e","system_id":"levelo_inurba_marseille","lat":43.31091,"lon":5.38355,"is_reserved":false,"is_disabled":false,"rental_uris":{"android":"levelo://app?vid=6d823e02-37a6-40de-8ea0-23cd9ae3749e","ios":"levelo://app?vid=6d823e02-37a6-40de-8ea0-23cd9ae3749e"},"vehicle_type_id":"4","last_reported":1727024883,"current_range_meters":38800,"station_id":"ce4bgv92rcd13ifvqcr0","pricing_plan_id":"cebpf4jnsgd1na2vs0mg"},{"bike_id":"feb42740-c719-4916-9efa-d99f861e0e6d","system_id":"levelo_inurba_marseille","lat":43.32479,"lon":5.36579,"is_reserved":false,"is_disabled":false,"rental_uris":{"android":"levelo://app?vid=feb42740-c719-4916-9efa-d99f861e0e6d","ios":"levelo://app?vid=feb42740-c719-4916-9efa-d99f861e0e6d"},"vehicle_type_id":"4","last_reported":1727024883,"current_range_meters":35200,"station_id":"ce4bhs12rcd13ifvqhvg","pricing_plan_id":"cebpf4jnsgd1na2vs0mg"},{"bike_id":"c5ffc1c0-381a-458f-a127-016acbeaf92f","system_id":"levelo_inurba_marseille","lat":43.27905,"lon":5.38016,"is_reserved":false,"is_disabled":false,"rental_uris":{"android":"levelo://app?vid=c5ffc1c0-381a-458f-a127-016acbeaf92f","ios":"levelo://app?vid=c5ffc1c0-381a-458f-a127-016acbeaf92f"},"vehicle_type_id":"4","last_reported":1727024883,"current_range_meters":20400,"station_id":"ce4bhf92rcd13ifvqf50","pricing_plan_id":"cebpf4jnsgd1na2vs0mg"},{"bike_id":"fddd6f72-0936-42be-a71a-a50a85349233","system_id":"levelo_inurba_marseille","lat":43.29572,"lon":5.39984,"is_reserved":false,"is_disabled":false,"rental_uris":{"android":"levelo://app?vid=fddd6f72-0936-42be-a71a-a50a85349233","ios":"levelo://app?vid=fddd6f72-0936-42be-a71a-a50a85349233"},"vehicle_type_id":"4","last_reported":1727024883,"current_range_meters":22400,"station_id":"ce4bh312rcd13ifvqdj0","pricing_plan_id":"cebpf4jnsgd1na2vs0mg"},{"bike_id":"d88c04c9-5e62-4d5d-851d-643f064c8972","system_id":"levelo_inurba_marseille","lat":43.26566,"lon":5.39014,"is_reserved":false,"is_disabled":false,"rental_uris":{"android":"levelo://app?vid=d88c04c9-5e62-4d5d-851d-643f064c8972","ios":"levelo://app?vid=d88c04c9-5e62-4d5d-851d-643f064c8972"},"vehicle_type_id":"4","last_reported":1727024883,"current_range_meters":5600,"station_id":"ce4bhe12rcd13ifvqf30","pricing_plan_id":"cebpf4jnsgd1na2vs0mg"},{"bike_id":"011340f1-27bf-4c37-9df8-0a93b8d74dbe","system_id":"levelo_inurba_marseille","lat":43.29038,"lon":5.38653,"is_reserved":false,"is_disabled":false,"rental_uris":{"android":"levelo://app?vid=011340f1-27bf-4c37-9df8-0a93b8d74dbe","ios":"levelo://app?vid=011340f1-27bf-4c37-9df8-0a93b8d74dbe"},"vehicle_type_id":"4","last_reported":1727024883,"current_range_meters":19200,"station_id":"ce4bh4p2rcd13ifvqe0g","pricing_plan_id":"cebpf4jnsgd1na2vs0mg"},{"bike_id":"fce734b4-6c36-4cb6-983c-c95238702258","system_id":"levelo_inurba_marseille","lat":43.31081,"lon":5.38107,"is_reserved":false,"is_disabled":false,"rental_uris":{"android":"levelo://app?vid=fce734b4-6c36-4cb6-983c-c95238702258","ios":"levelo://app?vid=fce734b4-6c36-4cb6-983c-c95238702258"},"vehicle_type_id":"4","last_reported":1727024883,"current_range_meters":11200,"station_id":"","pricing_plan_id":"cebpf4jnsgd1na2vs0mg"},{"bike_id":"1e402486-bae2-46c5-8c59-7d2074f0a51d","system_id":"levelo_inurba_marseille","lat":43.30326,"lon":5.40445,"is_reserved":false,"is_disabled":false,"rental_uris":{"android":"levelo://app?vid=1e402486-bae2-46c5-8c59-7d2074f0a51d","ios":"levelo://app?vid=1e402486-bae2-46c5-8c59-7d2074f0a51d"},"vehicle_type_id":"4","last_reported":1727024883,"current_range_meters":38800,"station_id":"ce4bh012rcd13ifvqd10","pricing_plan_id":"cebpf4jnsgd1na2vs0mg"},{"bike_id":"0f08bb21-cbbd-4eab-b6b5-6eba8e91ec1b","system_id":"levelo_inurba_marseille","lat":43.31891,"lon":5.40736,"is_reserved":false,"is_disabled":false,"rental_uris":{"android":"levelo://app?vid=0f08bb21-cbbd-4eab-b6b5-6eba8e91ec1b","ios":"levelo://app?vid=0f08bb21-cbbd-4eab-b6b5-6eba8e91ec1b"},"vehicle_type_id":"4","last_reported":1727024883,"current_range_meters":38000,"station_id":"ce4bhq12rcd13ifvqhig","pricing_plan_id":"cebpf4jnsgd1na2vs0mg"},{"bike_id":"e9ff8a04-d08a-4e53-ba15-13ed3974ebbf","system_id":"levelo_inurba_marseille","lat":43.29903,"lon":5.43672,"is_reserved":false,"is_disabled":false,"rental_uris":{"android":"levelo://app?vid=e9ff8a04-d08a-4e53-ba15-13ed3974ebbf","ios":"levelo://app?vid=e9ff8a04-d08a-4e53-ba15-13ed3974ebbf"},"vehicle_type_id":"4","last_reported":1727024883,"current_range_meters":14800,"station_id":"ce4bhpp2rcd13ifvqhfg","pricing_plan_id":"cebpf4jnsgd1na2vs0mg"},{"bike_id":"02ae3bc7-fa79-48a6-ae24-20e58c5f7888","system_id":"levelo_inurba_marseille","lat":43.29029,"lon":5.38645,"is_reserved":false,"is_disabled":false,"rental_uris":{"android":"levelo://app?vid=02ae3bc7-fa79-48a6-ae24-20e58c5f7888","ios":"levelo://app?vid=02ae3bc7-fa79-48a6-ae24-20e58c5f7888"},"vehicle_type_id":"4","last_reported":1727024883,"current_range_meters":30400,"station_id":"ce4bh4p2rcd13ifvqe0g","pricing_plan_id":"cebpf4jnsgd1na2vs0mg"},{"bike_id":"a9f08675-161f-48d8-b451-fdeb1f5c0d41","system_id":"levelo_inurba_marseille","lat":43.29911,"lon":5.38133,"is_reserved":false,"is_disabled":false,"rental_uris":{"android":"levelo://app?vid=a9f08675-161f-48d8-b451-fdeb1f5c0d41","ios":"levelo://app?vid=a9f08675-161f-48d8-b451-fdeb1f5c0d41"},"vehicle_type_id":"4","last_reported":1727024883,"current_range_meters":16000,"station_id":"ce4bgj12rcd13ifvqbc0","pricing_plan_id":"cebpf4jnsgd1na2vs0mg"},{"bike_id":"dbf7a699-6d7a-465f-8b67-63a48f82afe0","system_id":"levelo_inurba_marseille","lat":43.24655,"lon":5.38897,"is_reserved":false,"is_disabled":false,"rental_uris":{"android":"levelo://app?vid=dbf7a699-6d7a-465f-8b67-63a48f82afe0","ios":"levelo://app?vid=dbf7a699-6d7a-465f-8b67-63a48f82afe0"},"vehicle_type_id":"4","last_reported":1727024883,"current_range_meters":38800,"station_id":"ce4bhg12rcd13ifvqf60","pricing_plan_id":"cebpf4jnsgd1na2vs0mg"},{"bike_id":"74e5bba2-d325-4375-bb98-eb06c0163fb8","system_id":"levelo_inurba_marseille","lat":43.292603,"lon":5.409043,"is_reserved":false,"is_disabled":false,"rental_uris":{"android":"levelo://app?vid=74e5bba2-d325-4375-bb98-eb06c0163fb8","ios":"levelo://app?vid=74e5bba2-d325-4375-bb98-eb06c0163fb8"},"vehicle_type_id":"4","last_reported":1727024883,"current_range_meters":22800,"station_id":"ce4bh192rcd13ifvqdc0","pricing_plan_id":"cebpf4jnsgd1na2vs0mg"},{"bike_id":"c9d644ea-b525-4061-ab89-a29cb33c53e2","system_id":"levelo_inurba_marseille","lat":43.29877,"lon":5.38904,"is_reserved":false,"is_disabled":false,"rental_uris":{"android":"levelo://app?vid=c9d644ea-b525-4061-ab89-a29cb33c53e2","ios":"levelo://app?vid=c9d644ea-b525-4061-ab89-a29cb33c53e2"},"vehicle_type_id":"4","last_reported":1727024883,"current_range_meters":33600,"station_id":"ce4bh392rcd13ifvqdl0","pricing_plan_id":"cebpf4jnsgd1na2vs0mg"},{"bike_id":"86f0f6c2-b1a4-48e8-b1eb-3173e539426e","system_id":"levelo_inurba_marseille","lat":43.24663,"lon":5.38161,"is_reserved":false,"is_disabled":false,"rental_uris":{"android":"levelo://app?vid=86f0f6c2-b1a4-48e8-b1eb-3173e539426e","ios":"levelo://app?vid=86f0f6c2-b1a4-48e8-b1eb-3173e539426e"},"vehicle_type_id":"4","last_reported":1727024883,"current_range_meters":10000,"station_id":"ce4bhih2rcd13ifvqfr0","pricing_plan_id":"cebpf4jnsgd1na2vs0mg"},{"bike_id":"a8b4375b-39c6-4815-8a88-427fa77a5010","system_id":"levelo_inurba_marseille","lat":43.27073,"lon":5.42278,"is_reserved":false,"is_disabled":false,"rental_uris":{"android":"levelo://app?vid=a8b4375b-39c6-4815-8a88-427fa77a5010","ios":"levelo://app?vid=a8b4375b-39c6-4815-8a88-427fa77a5010"},"vehicle_type_id":"4","last_reported":1727024883,"current_range_meters":29600,"station_id":"ce4bhk92rcd13ifvqgb0","pricing_plan_id":"cebpf4jnsgd1na2vs0mg"},{"bike_id":"b8551345-00a8-413b-a6da-b44b1e50d1de","system_id":"levelo_inurba_marseille","lat":43.27496,"lon":5.42451,"is_reserved":false,"is_disabled":false,"rental_uris":{"android":"levelo://app?vid=b8551345-00a8-413b-a6da-b44b1e50d1de","ios":"levelo://app?vid=b8551345-00a8-413b-a6da-b44b1e50d1de"},"vehicle_type_id":"4","last_reported":1727024883,"current_range_meters":38800,"station_id":"ce4bhn92rcd13ifvqgrg","pricing_plan_id":"cebpf4jnsgd1na2vs0mg"},{"bike_id":"aec143e7-a797-4260-8531-8cddf76e9f86","system_id":"levelo_inurba_marseille","lat":43.28857,"lon":5.3931,"is_reserved":false,"is_disabled":false,"rental_uris":{"android":"levelo://app?vid=aec143e7-a797-4260-8531-8cddf76e9f86","ios":"levelo://app?vid=aec143e7-a797-4260-8531-8cddf76e9f86"},"vehicle_type_id":"4","last_reported":1727024883,"current_range_meters":11200,"station_id":"ce4bh2p2rcd13ifvqdi0","pricing_plan_id":"cebpf4jnsgd1na2vs0mg"},{"bike_id":"dca19b23-5a58-4b55-bbf9-a4ab939f5dbe","system_id":"levelo_inurba_marseille","lat":43.29422,"lon":5.38627,"is_reserved":false,"is_disabled":false,"rental_uris":{"android":"levelo://app?vid=dca19b23-5a58-4b55-bbf9-a4ab939f5dbe","ios":"levelo://app?vid=dca19b23-5a58-4b55-bbf9-a4ab939f5dbe"},"vehicle_type_id":"4","last_reported":1727024883,"current_range_meters":2800,"station_id":"ce4bh2h2rcd13ifvqdh0","pricing_plan_id":"cebpf4jnsgd1na2vs0mg"},{"bike_id":"b08c3ffc-0118-4acd-b458-bb42b88d1121","system_id":"levelo_inurba_marseille","lat":43.266866,"lon":5.382729,"is_reserved":false,"is_disabled":false,"rental_uris":{"android":"levelo://app?vid=b08c3ffc-0118-4acd-b458-bb42b88d1121","ios":"levelo://app?vid=b08c3ffc-0118-4acd-b458-bb42b88d1121"},"vehicle_type_id":"4","last_reported":1727024883,"current_range_meters":18000,"station_id":"ce4bhg92rcd13ifvqf90","pricing_plan_id":"cebpf4jnsgd1na2vs0mg"},{"bike_id":"4fbb5250-9647-470b-8d93-052750ba4685","system_id":"levelo_inurba_marseille","lat":43.287806,"lon":5.373697,"is_reserved":false,"is_disabled":false,"rental_uris":{"android":"levelo://app?vid=4fbb5250-9647-470b-8d93-052750ba4685","ios":"levelo://app?vid=4fbb5250-9647-470b-8d93-052750ba4685"},"vehicle_type_id":"4","last_reported":1727024883,"current_range_meters":25200,"station_id":"ce4bh692rcd13ifvqe90","pricing_plan_id":"cebpf4jnsgd1na2vs0mg"},{"bike_id":"687e45cc-3291-4a06-a549-9ca2a3f5a1ad","system_id":"levelo_inurba_marseille","lat":43.23964,"lon":5.36629,"is_reserved":false,"is_disabled":false,"rental_uris":{"android":"levelo://app?vid=687e45cc-3291-4a06-a549-9ca2a3f5a1ad","ios":"levelo://app?vid=687e45cc-3291-4a06-a549-9ca2a3f5a1ad"},"vehicle_type_id":"4","last_reported":1727024883,"current_range_meters":39200,"station_id":"ce4bhi12rcd13ifvqfp0","pricing_plan_id":"cebpf4jnsgd1na2vs0mg"},{"bike_id":"fa690805-233a-4a70-a9f3-33f1b67cdb1f","system_id":"levelo_inurba_marseille","lat":43.3229,"lon":5.38251,"is_reserved":false,"is_disabled":false,"rental_uris":{"android":"levelo://app?vid=fa690805-233a-4a70-a9f3-33f1b67cdb1f","ios":"levelo://app?vid=fa690805-233a-4a70-a9f3-33f1b67cdb1f"},"vehicle_type_id":"4","last_reported":1727024883,"current_range_meters":6800,"station_id":"ce4bhr12rcd13ifvqhqg","pricing_plan_id":"cebpf4jnsgd1na2vs0mg"},{"bike_id":"145268cf-17b2-4206-924b-016b75c58ebc","system_id":"levelo_inurba_marseille","lat":43.29552,"lon":5.42297,"is_reserved":false,"is_disabled":false,"rental_uris":{"android":"levelo://app?vid=145268cf-17b2-4206-924b-016b75c58ebc","ios":"levelo://app?vid=145268cf-17b2-4206-924b-016b75c58ebc"},"vehicle_type_id":"4","last_reported":1727024883,"current_range_meters":28000,"station_id":"ce4bhph2rcd13ifvqhdg","pricing_plan_id":"cebpf4jnsgd1na2vs0mg"},{"bike_id":"7618284f-2fae-4dc0-9823-05837529a321","system_id":"levelo_inurba_marseille","lat":43.284515,"lon":5.380535,"is_reserved":false,"is_disabled":false,"rental_uris":{"android":"levelo://app?vid=7618284f-2fae-4dc0-9823-05837529a321","ios":"levelo://app?vid=7618284f-2fae-4dc0-9823-05837529a321"},"vehicle_type_id":"4","last_reported":1727024883,"current_range_meters":28400,"station_id":"ce4bh412rcd13ifvqdr0","pricing_plan_id":"cebpf4jnsgd1na2vs0mg"},{"bike_id":"0200dd7c-98aa-498a-bc7e-f8924685ba5e","system_id":"levelo_inurba_marseille","lat":43.24812,"lon":5.37458,"is_reserved":false,"is_disabled":false,"rental_uris":{"android":"levelo://app?vid=0200dd7c-98aa-498a-bc7e-f8924685ba5e","ios":"levelo://app?vid=0200dd7c-98aa-498a-bc7e-f8924685ba5e"},"vehicle_type_id":"4","last_reported":1727024883,"current_range_meters":39200,"station_id":"ce4bhgh2rcd13ifvqfb0","pricing_plan_id":"cebpf4jnsgd1na2vs0mg"},{"bike_id":"4a081314-5f2c-4163-a23b-deb8a9d85f38","system_id":"levelo_inurba_marseille","lat":43.28345,"lon":5.38108,"is_reserved":false,"is_disabled":false,"rental_uris":{"android":"levelo://app?vid=4a081314-5f2c-4163-a23b-deb8a9d85f38","ios":"levelo://app?vid=4a081314-5f2c-4163-a23b-deb8a9d85f38"},"vehicle_type_id":"4","last_reported":1727024883,"current_range_meters":38400,"station_id":"ce4bh412rcd13ifvqdr0","pricing_plan_id":"cebpf4jnsgd1na2vs0mg"},{"bike_id":"3965f977-344a-4866-9de6-dbbeae11e213","system_id":"levelo_inurba_marseille","lat":43.2923,"lon":5.3605,"is_reserved":false,"is_disabled":false,"rental_uris":{"android":"levelo://app?vid=3965f977-344a-4866-9de6-dbbeae11e213","ios":"levelo://app?vid=3965f977-344a-4866-9de6-dbbeae11e213"},"vehicle_type_id":"4","last_reported":1727024883,"current_range_meters":0,"station_id":"ce4bhbh2rcd13ifvqeqg","pricing_plan_id":"cebpf4jnsgd1na2vs0mg"},{"bike_id":"721a3304-141d-4132-b72f-ba08e4dbb6d4","system_id":"levelo_inurba_marseille","lat":43.30356,"lon":5.41883,"is_reserved":false,"is_disabled":false,"rental_uris":{"android":"levelo://app?vid=721a3304-141d-4132-b72f-ba08e4dbb6d4","ios":"levelo://app?vid=721a3304-141d-4132-b72f-ba08e4dbb6d4"},"vehicle_type_id":"4","last_reported":1727024883,"current_range_meters":3200,"station_id":"ce4bhop2rcd13ifvqh7g","pricing_plan_id":"cebpf4jnsgd1na2vs0mg"},{"bike_id":"b2763354-ec6c-4733-8de6-6c4493759ae9","system_id":"levelo_inurba_marseille","lat":43.29043,"lon":5.40133,"is_reserved":false,"is_disabled":false,"rental_uris":{"android":"levelo://app?vid=b2763354-ec6c-4733-8de6-6c4493759ae9","ios":"levelo://app?vid=b2763354-ec6c-4733-8de6-6c4493759ae9"},"vehicle_type_id":"4","last_reported":1727024883,"current_range_meters":8000,"station_id":"","pricing_plan_id":"cebpf4jnsgd1na2vs0mg"},{"bike_id":"6b2dee0b-51f4-4046-ba9b-e0f7710bf752","system_id":"levelo_inurba_marseille","lat":43.280518,"lon":5.386849,"is_reserved":false,"is_disabled":false,"rental_uris":{"android":"levelo://app?vid=6b2dee0b-51f4-4046-ba9b-e0f7710bf752","ios":"levelo://app?vid=6b2dee0b-51f4-4046-ba9b-e0f7710bf752"},"vehicle_type_id":"4","last_reported":1727024883,"current_range_meters":6400,"station_id":"ce4bh692rcd13ifvqea0","pricing_plan_id":"cebpf4jnsgd1na2vs0mg"},{"bike_id":"4fff38dc-bd3c-4e8f-98bc-85181f638254","system_id":"levelo_inurba_marseille","lat":43.24077,"lon":5.37745,"is_reserved":false,"is_disabled":false,"rental_uris":{"android":"levelo://app?vid=4fff38dc-bd3c-4e8f-98bc-85181f638254","ios":"levelo://app?vid=4fff38dc-bd3c-4e8f-98bc-85181f638254"},"vehicle_type_id":"4","last_reported":1727024883,"current_range_meters":38800,"station_id":"ce4bhnp2rcd13ifvqgvg","pricing_plan_id":"cebpf4jnsgd1na2vs0mg"},{"bike_id":"3e74d404-9ce0-4db1-8c54-70d4322a51f1","system_id":"levelo_inurba_marseille","lat":43.27918,"lon":5.39582,"is_reserved":false,"is_disabled":false,"rental_uris":{"android":"levelo://app?vid=3e74d404-9ce0-4db1-8c54-70d4322a51f1","ios":"levelo://app?vid=3e74d404-9ce0-4db1-8c54-70d4322a51f1"},"vehicle_type_id":"4","last_reported":1727024883,"current_range_meters":33200,"station_id":"ce4bhf92rcd13ifvqf40","pricing_plan_id":"cebpf4jnsgd1na2vs0mg"},{"bike_id":"b2dfcefb-ea7b-4ee6-9b9a-bf95c8cbd35e","system_id":"levelo_inurba_marseille","lat":43.25005,"lon":5.38927,"is_reserved":false,"is_disabled":false,"rental_uris":{"android":"levelo://app?vid=b2dfcefb-ea7b-4ee6-9b9a-bf95c8cbd35e","ios":"levelo://app?vid=b2dfcefb-ea7b-4ee6-9b9a-bf95c8cbd35e"},"vehicle_type_id":"4","last_reported":1727024883,"current_range_meters":12800,"station_id":"ce4bhgp2rcd13ifvqfd0","pricing_plan_id":"cebpf4jnsgd1na2vs0mg"},{"bike_id":"2e544a87-6ec2-46db-8490-bb5cd4911826","system_id":"levelo_inurba_marseille","lat":43.25948,"lon":5.40905,"is_reserved":false,"is_disabled":false,"rental_uris":{"android":"levelo://app?vid=2e544a87-6ec2-46db-8490-bb5cd4911826","ios":"levelo://app?vid=2e544a87-6ec2-46db-8490-bb5cd4911826"},"vehicle_type_id":"4","last_reported":1727024883,"current_range_meters":11200,"station_id":"ce4bhm92rcd13ifvqglg","pricing_plan_id":"cebpf4jnsgd1na2vs0mg"},{"bike_id":"6e866676-6958-47a0-bba1-aad239c4e52e","system_id":"levelo_inurba_marseille","lat":43.30355,"lon":5.41885,"is_reserved":false,"is_disabled":false,"rental_uris":{"android":"levelo://app?vid=6e866676-6958-47a0-bba1-aad239c4e52e","ios":"levelo://app?vid=6e866676-6958-47a0-bba1-aad239c4e52e"},"vehicle_type_id":"4","last_reported":1727024883,"current_range_meters":20000,"station_id":"ce4bhop2rcd13ifvqh7g","pricing_plan_id":"cebpf4jnsgd1na2vs0mg"},{"bike_id":"d28ffa41-9d7e-41f1-8b70-1aa04f034503","system_id":"levelo_inurba_marseille","lat":43.29557,"lon":5.4228,"is_reserved":false,"is_disabled":false,"rental_uris":{"android":"levelo://app?vid=d28ffa41-9d7e-41f1-8b70-1aa04f034503","ios":"levelo://app?vid=d28ffa41-9d7e-41f1-8b70-1aa04f034503"},"vehicle_type_id":"4","last_reported":1727024883,"current_range_meters":2800,"station_id":"ce4bhph2rcd13ifvqhdg","pricing_plan_id":"cebpf4jnsgd1na2vs0mg"},{"bike_id":"bec92394-8860-4fe2-8433-524cc1554a7a","system_id":"levelo_inurba_marseille","lat":43.31713,"lon":5.43706,"is_reserved":false,"is_disabled":false,"rental_uris":{"android":"levelo://app?vid=bec92394-8860-4fe2-8433-524cc1554a7a","ios":"levelo://app?vid=bec92394-8860-4fe2-8433-524cc1554a7a"},"vehicle_type_id":"4","last_reported":1727024883,"current_range_meters":39200,"station_id":"ce4bhp92rcd13ifvqhcg","pricing_plan_id":"cebpf4jnsgd1na2vs0mg"},{"bike_id":"1f1fb342-d369-4ce2-bd04-34d5aee54c68","system_id":"levelo_inurba_marseille","lat":43.2816,"lon":5.42647,"is_reserved":false,"is_disabled":false,"rental_uris":{"android":"levelo://app?vid=1f1fb342-d369-4ce2-bd04-34d5aee54c68","ios":"levelo://app?vid=1f1fb342-d369-4ce2-bd04-34d5aee54c68"},"vehicle_type_id":"4","last_reported":1727024883,"current_range_meters":8000,"station_id":"ce4bhnh2rcd13ifvqgug","pricing_plan_id":"cebpf4jnsgd1na2vs0mg"},{"bike_id":"573da8cc-92ed-45e0-95ff-36fa97d84a8a","system_id":"levelo_inurba_marseille","lat":43.31335,"lon":5.39699,"is_reserved":false,"is_disabled":false,"rental_uris":{"android":"levelo://app?vid=573da8cc-92ed-45e0-95ff-36fa97d84a8a","ios":"levelo://app?vid=573da8cc-92ed-45e0-95ff-36fa97d84a8a"},"vehicle_type_id":"4","last_reported":1727024883,"current_range_meters":38400,"station_id":"ce4bgvp2rcd13ifvqcu0","pricing_plan_id":"cebpf4jnsgd1na2vs0mg"},{"bike_id":"d4e73a2f-06c5-454d-9245-09db71292102","system_id":"levelo_inurba_marseille","lat":43.3113,"lon":5.38725,"is_reserved":false,"is_disabled":false,"rental_uris":{"android":"levelo://app?vid=d4e73a2f-06c5-454d-9245-09db71292102","ios":"levelo://app?vid=d4e73a2f-06c5-454d-9245-09db71292102"},"vehicle_type_id":"4","last_reported":1727024883,"current_range_meters":27200,"station_id":"ce4bgv12rcd13ifvqcp0","pricing_plan_id":"cebpf4jnsgd1na2vs0mg"},{"bike_id":"ff339e01-51d9-4ea9-9c6a-c54c6dafb558","system_id":"levelo_inurba_marseille","lat":43.24662,"lon":5.38898,"is_reserved":false,"is_disabled":false,"rental_uris":{"android":"levelo://app?vid=ff339e01-51d9-4ea9-9c6a-c54c6dafb558","ios":"levelo://app?vid=ff339e01-51d9-4ea9-9c6a-c54c6dafb558"},"vehicle_type_id":"4","last_reported":1727024883,"current_range_meters":38800,"station_id":"ce4bhg12rcd13ifvqf60","pricing_plan_id":"cebpf4jnsgd1na2vs0mg"},{"bike_id":"be611af0-14b3-4edd-a900-8f9d57466c4a","system_id":"levelo_inurba_marseille","lat":43.26785,"lon":5.39416,"is_reserved":false,"is_disabled":false,"rental_uris":{"android":"levelo://app?vid=be611af0-14b3-4edd-a900-8f9d57466c4a","ios":"levelo://app?vid=be611af0-14b3-4edd-a900-8f9d57466c4a"},"vehicle_type_id":"4","last_reported":1727024883,"current_range_meters":7200,"station_id":"ce4bhh12rcd13ifvqfg0","pricing_plan_id":"cebpf4jnsgd1na2vs0mg"},{"bike_id":"1e43de8f-9dc9-42df-bbe6-256ec5e1a6ad","system_id":"levelo_inurba_marseille","lat":43.31489,"lon":5.37311,"is_reserved":false,"is_disabled":false,"rental_uris":{"android":"levelo://app?vid=1e43de8f-9dc9-42df-bbe6-256ec5e1a6ad","ios":"levelo://app?vid=1e43de8f-9dc9-42df-bbe6-256ec5e1a6ad"},"vehicle_type_id":"4","last_reported":1727024883,"current_range_meters":38000,"station_id":"ce4bgt12rcd13ifvqcd0","pricing_plan_id":"cebpf4jnsgd1na2vs0mg"},{"bike_id":"c6a97885-a845-4e54-8f03-a950bd2f44a4","system_id":"levelo_inurba_marseille","lat":43.28154,"lon":5.42642,"is_reserved":false,"is_disabled":false,"rental_uris":{"android":"levelo://app?vid=c6a97885-a845-4e54-8f03-a950bd2f44a4","ios":"levelo://app?vid=c6a97885-a845-4e54-8f03-a950bd2f44a4"},"vehicle_type_id":"4","last_reported":1727024883,"current_range_meters":24800,"station_id":"ce4bhnh2rcd13ifvqgug","pricing_plan_id":"cebpf4jnsgd1na2vs0mg"},{"bike_id":"ccc88ebb-8c97-4797-8223-c7bfd3c960e6","system_id":"levelo_inurba_marseille","lat":43.2811,"lon":5.37834,"is_reserved":false,"is_disabled":false,"rental_uris":{"android":"levelo://app?vid=ccc88ebb-8c97-4797-8223-c7bfd3c960e6","ios":"levelo://app?vid=ccc88ebb-8c97-4797-8223-c7bfd3c960e6"},"vehicle_type_id":"4","last_reported":1727024883,"current_range_meters":39200,"station_id":"ce4bha12rcd13ifvqee0","pricing_plan_id":"cebpf4jnsgd1na2vs0mg"},{"bike_id":"536bb671-b27b-4737-9a53-c76998b68f6c","system_id":"levelo_inurba_marseille","lat":43.2835,"lon":5.38103,"is_reserved":false,"is_disabled":false,"rental_uris":{"android":"levelo://app?vid=536bb671-b27b-4737-9a53-c76998b68f6c","ios":"levelo://app?vid=536bb671-b27b-4737-9a53-c76998b68f6c"},"vehicle_type_id":"4","last_reported":1727024883,"current_range_meters":38800,"station_id":"ce4bh412rcd13ifvqdr0","pricing_plan_id":"cebpf4jnsgd1na2vs0mg"},{"bike_id":"35d6aec9-9d9d-4498-8c2b-0982151ecea4","system_id":"levelo_inurba_marseille","lat":43.28147,"lon":5.42646,"is_reserved":false,"is_disabled":false,"rental_uris":{"android":"levelo://app?vid=35d6aec9-9d9d-4498-8c2b-0982151ecea4","ios":"levelo://app?vid=35d6aec9-9d9d-4498-8c2b-0982151ecea4"},"vehicle_type_id":"4","last_reported":1727024883,"current_range_meters":12800,"station_id":"ce4bhnh2rcd13ifvqgug","pricing_plan_id":"cebpf4jnsgd1na2vs0mg"},{"bike_id":"58e7bc79-5583-4fe7-94bb-a9e3ceb2981f","system_id":"levelo_inurba_marseille","lat":43.22938,"lon":5.35379,"is_reserved":false,"is_disabled":false,"rental_uris":{"android":"levelo://app?vid=58e7bc79-5583-4fe7-94bb-a9e3ceb2981f","ios":"levelo://app?vid=58e7bc79-5583-4fe7-94bb-a9e3ceb2981f"},"vehicle_type_id":"4","last_reported":1727024883,"current_range_meters":38800,"station_id":"cpo3532slgdg3j2ikp40","pricing_plan_id":"cebpf4jnsgd1na2vs0mg"},{"bike_id":"4d1542d3-3a09-4946-9810-2488454d1fc9","system_id":"levelo_inurba_marseille","lat":43.28728,"lon":5.36101,"is_reserved":false,"is_disabled":false,"rental_uris":{"android":"levelo://app?vid=4d1542d3-3a09-4946-9810-2488454d1fc9","ios":"levelo://app?vid=4d1542d3-3a09-4946-9810-2488454d1fc9"},"vehicle_type_id":"4","last_reported":1727024883,"current_range_meters":8800,"station_id":"cki0cbj6b192h4jlfktg","pricing_plan_id":"cebpf4jnsgd1na2vs0mg"},{"bike_id":"b871315c-1708-4538-b089-dec2485a9a12","system_id":"levelo_inurba_marseille","lat":43.29198,"lon":5.39329,"is_reserved":false,"is_disabled":false,"rental_uris":{"android":"levelo://app?vid=b871315c-1708-4538-b089-dec2485a9a12","ios":"levelo://app?vid=b871315c-1708-4538-b089-dec2485a9a12"},"vehicle_type_id":"4","last_reported":1727024883,"current_range_meters":16400,"station_id":"ce4bh192rcd13ifvqdd0","pricing_plan_id":"cebpf4jnsgd1na2vs0mg"},{"bike_id":"4f2ca8d0-a9fb-4c4b-aada-9cb9e5812cdf","system_id":"levelo_inurba_marseille","lat":43.29033,"lon":5.3997,"is_reserved":false,"is_disabled":false,"rental_uris":{"android":"levelo://app?vid=4f2ca8d0-a9fb-4c4b-aada-9cb9e5812cdf","ios":"levelo://app?vid=4f2ca8d0-a9fb-4c4b-aada-9cb9e5812cdf"},"vehicle_type_id":"4","last_reported":1727024883,"current_range_meters":18800,"station_id":"ce4bh392rcd13ifvqdm0","pricing_plan_id":"cebpf4jnsgd1na2vs0mg"},{"bike_id":"e314ca8d-e460-44f4-a6ff-20175e363426","system_id":"levelo_inurba_marseille","lat":43.29848,"lon":5.36288,"is_reserved":false,"is_disabled":false,"rental_uris":{"android":"levelo://app?vid=e314ca8d-e460-44f4-a6ff-20175e363426","ios":"levelo://app?vid=e314ca8d-e460-44f4-a6ff-20175e363426"},"vehicle_type_id":"4","last_reported":1727024883,"current_range_meters":8400,"station_id":"","pricing_plan_id":"cebpf4jnsgd1na2vs0mg"},{"bike_id":"b194adab-9959-42a7-b917-d5d4cc06a53e","system_id":"levelo_inurba_marseille","lat":43.2293,"lon":5.35372,"is_reserved":false,"is_disabled":false,"rental_uris":{"android":"levelo://app?vid=b194adab-9959-42a7-b917-d5d4cc06a53e","ios":"levelo://app?vid=b194adab-9959-42a7-b917-d5d4cc06a53e"},"vehicle_type_id":"4","last_reported":1727024883,"current_range_meters":28000,"station_id":"cpo3532slgdg3j2ikp40","pricing_plan_id":"cebpf4jnsgd1na2vs0mg"},{"bike_id":"e6190756-118f-4eb6-a85b-235c149ff787","system_id":"levelo_inurba_marseille","lat":43.30884,"lon":5.39646,"is_reserved":false,"is_disabled":false,"rental_uris":{"android":"levelo://app?vid=e6190756-118f-4eb6-a85b-235c149ff787","ios":"levelo://app?vid=e6190756-118f-4eb6-a85b-235c149ff787"},"vehicle_type_id":"4","last_reported":1727024883,"current_range_meters":38800,"station_id":"ce4bh012rcd13ifvqcv0","pricing_plan_id":"cebpf4jnsgd1na2vs0mg"},{"bike_id":"0a277085-e929-41dd-81ec-bd6d4d1951fd","system_id":"levelo_inurba_marseille","lat":43.29524,"lon":5.39041,"is_reserved":false,"is_disabled":false,"rental_uris":{"android":"levelo://app?vid=0a277085-e929-41dd-81ec-bd6d4d1951fd","ios":"levelo://app?vid=0a277085-e929-41dd-81ec-bd6d4d1951fd"},"vehicle_type_id":"4","last_reported":1727024883,"current_range_meters":38400,"station_id":"ce4bh3p2rcd13ifvqdp0","pricing_plan_id":"cebpf4jnsgd1na2vs0mg"},{"bike_id":"1102eb3d-2dc8-4019-9e1d-c4670dad7e11","system_id":"levelo_inurba_marseille","lat":43.23963,"lon":5.36618,"is_reserved":false,"is_disabled":false,"rental_uris":{"android":"levelo://app?vid=1102eb3d-2dc8-4019-9e1d-c4670dad7e11","ios":"levelo://app?vid=1102eb3d-2dc8-4019-9e1d-c4670dad7e11"},"vehicle_type_id":"4","last_reported":1727024883,"current_range_meters":10000,"station_id":"ce4bhi12rcd13ifvqfp0","pricing_plan_id":"cebpf4jnsgd1na2vs0mg"},{"bike_id":"155d60d0-cebb-4c03-b630-1a5e21e0b09f","system_id":"levelo_inurba_marseille","lat":43.29869,"lon":5.39741,"is_reserved":false,"is_disabled":false,"rental_uris":{"android":"levelo://app?vid=155d60d0-cebb-4c03-b630-1a5e21e0b09f","ios":"levelo://app?vid=155d60d0-cebb-4c03-b630-1a5e21e0b09f"},"vehicle_type_id":"4","last_reported":1727024883,"current_range_meters":24000,"station_id":"ce4bh0h2rcd13ifvqd50","pricing_plan_id":"cebpf4jnsgd1na2vs0mg"},{"bike_id":"8983295a-de1d-49bd-9b02-eca651d57f3f","system_id":"levelo_inurba_marseille","lat":43.28945,"lon":5.36639,"is_reserved":false,"is_disabled":false,"rental_uris":{"android":"levelo://app?vid=8983295a-de1d-49bd-9b02-eca651d57f3f","ios":"levelo://app?vid=8983295a-de1d-49bd-9b02-eca651d57f3f"},"vehicle_type_id":"4","last_reported":1727024883,"current_range_meters":39200,"station_id":"ce4bhap2rcd13ifvqek0","pricing_plan_id":"cebpf4jnsgd1na2vs0mg"},{"bike_id":"87b08ee5-992e-4fb2-bb67-c3b125bd6b83","system_id":"levelo_inurba_marseille","lat":43.24182,"lon":5.39724,"is_reserved":false,"is_disabled":false,"rental_uris":{"android":"levelo://app?vid=87b08ee5-992e-4fb2-bb67-c3b125bd6b83","ios":"levelo://app?vid=87b08ee5-992e-4fb2-bb67-c3b125bd6b83"},"vehicle_type_id":"4","last_reported":1727024883,"current_range_meters":27600,"station_id":"ce4bhn12rcd13ifvqgpg","pricing_plan_id":"cebpf4jnsgd1na2vs0mg"},{"bike_id":"43df59a5-48f2-4b1d-bece-96f349f6a6a8","system_id":"levelo_inurba_marseille","lat":43.27433,"lon":5.3942,"is_reserved":false,"is_disabled":false,"rental_uris":{"android":"levelo://app?vid=43df59a5-48f2-4b1d-bece-96f349f6a6a8","ios":"levelo://app?vid=43df59a5-48f2-4b1d-bece-96f349f6a6a8"},"vehicle_type_id":"4","last_reported":1727024883,"current_range_meters":21600,"station_id":"ce4bhdp2rcd13ifvqf20","pricing_plan_id":"cebpf4jnsgd1na2vs0mg"},{"bike_id":"7c7205bb-7829-4b9e-ac2f-618cc9341607","system_id":"levelo_inurba_marseille","lat":43.27812,"lon":5.40707,"is_reserved":false,"is_disabled":false,"rental_uris":{"android":"levelo://app?vid=7c7205bb-7829-4b9e-ac2f-618cc9341607","ios":"levelo://app?vid=7c7205bb-7829-4b9e-ac2f-618cc9341607"},"vehicle_type_id":"4","last_reported":1727024883,"current_range_meters":25200,"station_id":"ce4bhnh2rcd13ifvqgtg","pricing_plan_id":"cebpf4jnsgd1na2vs0mg"},{"bike_id":"36dc71fe-bfc9-4a4d-b2ef-39ebb067c458","system_id":"levelo_inurba_marseille","lat":43.29554,"lon":5.42285,"is_reserved":false,"is_disabled":false,"rental_uris":{"android":"levelo://app?vid=36dc71fe-bfc9-4a4d-b2ef-39ebb067c458","ios":"levelo://app?vid=36dc71fe-bfc9-4a4d-b2ef-39ebb067c458"},"vehicle_type_id":"4","last_reported":1727024883,"current_range_meters":39200,"station_id":"ce4bhph2rcd13ifvqhdg","pricing_plan_id":"cebpf4jnsgd1na2vs0mg"},{"bike_id":"174079be-c679-4715-8c29-28934f9bd14e","system_id":"levelo_inurba_marseille","lat":43.321106,"lon":5.367623,"is_reserved":false,"is_disabled":false,"rental_uris":{"android":"levelo://app?vid=174079be-c679-4715-8c29-28934f9bd14e","ios":"levelo://app?vid=174079be-c679-4715-8c29-28934f9bd14e"},"vehicle_type_id":"4","last_reported":1727024883,"current_range_meters":28800,"station_id":"","pricing_plan_id":"cebpf4jnsgd1na2vs0mg"},{"bike_id":"bcbe6095-74c6-4e6a-9235-6041481bec8a","system_id":"levelo_inurba_marseille","lat":43.23187,"lon":5.39987,"is_reserved":false,"is_disabled":false,"rental_uris":{"android":"levelo://app?vid=bcbe6095-74c6-4e6a-9235-6041481bec8a","ios":"levelo://app?vid=bcbe6095-74c6-4e6a-9235-6041481bec8a"},"vehicle_type_id":"4","last_reported":1727024883,"current_range_meters":6800,"station_id":"ce4bhn12rcd13ifvqgqg","pricing_plan_id":"cebpf4jnsgd1na2vs0mg"},{"bike_id":"b2664317-f92c-4982-b687-1b06a5814e2f","system_id":"levelo_inurba_marseille","lat":43.26024,"lon":5.37552,"is_reserved":false,"is_disabled":false,"rental_uris":{"android":"levelo://app?vid=b2664317-f92c-4982-b687-1b06a5814e2f","ios":"levelo://app?vid=b2664317-f92c-4982-b687-1b06a5814e2f"},"vehicle_type_id":"4","last_reported":1727024883,"current_range_meters":6800,"station_id":"ce4bhgh2rcd13ifvqfa0","pricing_plan_id":"cebpf4jnsgd1na2vs0mg"},{"bike_id":"1437b30c-7d45-456f-be5f-6d19204997b1","system_id":"levelo_inurba_marseille","lat":43.32485,"lon":5.36563,"is_reserved":false,"is_disabled":false,"rental_uris":{"android":"levelo://app?vid=1437b30c-7d45-456f-be5f-6d19204997b1","ios":"levelo://app?vid=1437b30c-7d45-456f-be5f-6d19204997b1"},"vehicle_type_id":"4","last_reported":1727024883,"current_range_meters":26800,"station_id":"ce4bhs12rcd13ifvqhvg","pricing_plan_id":"cebpf4jnsgd1na2vs0mg"},{"bike_id":"04fc2e74-a537-40d1-a53e-a59b60fcf7fe","system_id":"levelo_inurba_marseille","lat":43.28665,"lon":5.36336,"is_reserved":false,"is_disabled":false,"rental_uris":{"android":"levelo://app?vid=04fc2e74-a537-40d1-a53e-a59b60fcf7fe","ios":"levelo://app?vid=04fc2e74-a537-40d1-a53e-a59b60fcf7fe"},"vehicle_type_id":"4","last_reported":1727024883,"current_range_meters":20000,"station_id":"ce4bhah2rcd13ifvqej0","pricing_plan_id":"cebpf4jnsgd1na2vs0mg"},{"bike_id":"1008ede6-cbae-4281-8f22-ef3fe8917d3f","system_id":"levelo_inurba_marseille","lat":43.31532,"lon":5.38021,"is_reserved":false,"is_disabled":false,"rental_uris":{"android":"levelo://app?vid=1008ede6-cbae-4281-8f22-ef3fe8917d3f","ios":"levelo://app?vid=1008ede6-cbae-4281-8f22-ef3fe8917d3f"},"vehicle_type_id":"4","last_reported":1727024883,"current_range_meters":33600,"station_id":"ce4bhsp2rcd13ifvqi50","pricing_plan_id":"cebpf4jnsgd1na2vs0mg"},{"bike_id":"7ae379da-9440-4378-a690-86693789de4b","system_id":"levelo_inurba_marseille","lat":43.29555,"lon":5.42283,"is_reserved":false,"is_disabled":false,"rental_uris":{"android":"levelo://app?vid=7ae379da-9440-4378-a690-86693789de4b","ios":"levelo://app?vid=7ae379da-9440-4378-a690-86693789de4b"},"vehicle_type_id":"4","last_reported":1727024883,"current_range_meters":16800,"station_id":"ce4bhph2rcd13ifvqhdg","pricing_plan_id":"cebpf4jnsgd1na2vs0mg"},{"bike_id":"02552a84-93ac-4f47-9115-b594cbf16674","system_id":"levelo_inurba_marseille","lat":43.29553,"lon":5.42283,"is_reserved":false,"is_disabled":false,"rental_uris":{"android":"levelo://app?vid=02552a84-93ac-4f47-9115-b594cbf16674","ios":"levelo://app?vid=02552a84-93ac-4f47-9115-b594cbf16674"},"vehicle_type_id":"4","last_reported":1727024883,"current_range_meters":36800,"station_id":"ce4bhph2rcd13ifvqhdg","pricing_plan_id":"cebpf4jnsgd1na2vs0mg"},{"bike_id":"815bf1db-dab1-492c-8030-4814b126772a","system_id":"levelo_inurba_marseille","lat":43.29611,"lon":5.37718,"is_reserved":false,"is_disabled":false,"rental_uris":{"android":"levelo://app?vid=815bf1db-dab1-492c-8030-4814b126772a","ios":"levelo://app?vid=815bf1db-dab1-492c-8030-4814b126772a"},"vehicle_type_id":"4","last_reported":1727024883,"current_range_meters":4800,"station_id":"ce4bgi92rcd13ifvqb90","pricing_plan_id":"cebpf4jnsgd1na2vs0mg"},{"bike_id":"af7c1333-75a0-4205-bd98-4f2c12c48ded","system_id":"levelo_inurba_marseille","lat":43.287201,"lon":5.360801,"is_reserved":false,"is_disabled":false,"rental_uris":{"android":"levelo://app?vid=af7c1333-75a0-4205-bd98-4f2c12c48ded","ios":"levelo://app?vid=af7c1333-75a0-4205-bd98-4f2c12c48ded"},"vehicle_type_id":"4","last_reported":1727024883,"current_range_meters":28400,"station_id":"cki0cbj6b192h4jlfktg","pricing_plan_id":"cebpf4jnsgd1na2vs0mg"},{"bike_id":"ab8577ab-94eb-4960-b8f3-c1218b3ae39b","system_id":"levelo_inurba_marseille","lat":43.28465,"lon":5.35892,"is_reserved":false,"is_disabled":false,"rental_uris":{"android":"levelo://app?vid=ab8577ab-94eb-4960-b8f3-c1218b3ae39b","ios":"levelo://app?vid=ab8577ab-94eb-4960-b8f3-c1218b3ae39b"},"vehicle_type_id":"4","last_reported":1727024883,"current_range_meters":36000,"station_id":"ce4bhah2rcd13ifvqei0","pricing_plan_id":"cebpf4jnsgd1na2vs0mg"},{"bike_id":"8418ac32-6731-4f83-b8ab-4ce0c61396bc","system_id":"levelo_inurba_marseille","lat":43.26789,"lon":5.39413,"is_reserved":false,"is_disabled":false,"rental_uris":{"android":"levelo://app?vid=8418ac32-6731-4f83-b8ab-4ce0c61396bc","ios":"levelo://app?vid=8418ac32-6731-4f83-b8ab-4ce0c61396bc"},"vehicle_type_id":"4","last_reported":1727024883,"current_range_meters":8000,"station_id":"ce4bhh12rcd13ifvqfg0","pricing_plan_id":"cebpf4jnsgd1na2vs0mg"},{"bike_id":"b49e8aa4-b4d7-4f9d-a437-8d1bbdfe618a","system_id":"levelo_inurba_marseille","lat":43.29574,"lon":5.42289,"is_reserved":false,"is_disabled":false,"rental_uris":{"android":"levelo://app?vid=b49e8aa4-b4d7-4f9d-a437-8d1bbdfe618a","ios":"levelo://app?vid=b49e8aa4-b4d7-4f9d-a437-8d1bbdfe618a"},"vehicle_type_id":"4","last_reported":1727024883,"current_range_meters":38800,"station_id":"ce4bhph2rcd13ifvqhdg","pricing_plan_id":"cebpf4jnsgd1na2vs0mg"},{"bike_id":"af722db8-b705-4778-9562-3d1f80493c3b","system_id":"levelo_inurba_marseille","lat":43.29573,"lon":5.37536,"is_reserved":false,"is_disabled":false,"rental_uris":{"android":"levelo://app?vid=af722db8-b705-4778-9562-3d1f80493c3b","ios":"levelo://app?vid=af722db8-b705-4778-9562-3d1f80493c3b"},"vehicle_type_id":"4","last_reported":1727024883,"current_range_meters":10800,"station_id":"ce4bgh92rcd13ifvqb50","pricing_plan_id":"cebpf4jnsgd1na2vs0mg"},{"bike_id":"ddc326d2-1fcd-453c-911a-8feb6f49a225","system_id":"levelo_inurba_marseille","lat":43.274291,"lon":5.394242,"is_reserved":false,"is_disabled":false,"rental_uris":{"android":"levelo://app?vid=ddc326d2-1fcd-453c-911a-8feb6f49a225","ios":"levelo://app?vid=ddc326d2-1fcd-453c-911a-8feb6f49a225"},"vehicle_type_id":"4","last_reported":1727024883,"current_range_meters":6400,"station_id":"ce4bhdp2rcd13ifvqf20","pricing_plan_id":"cebpf4jnsgd1na2vs0mg"},{"bike_id":"f3c163e1-3ee0-4e6e-96e2-2d226d69d5a0","system_id":"levelo_inurba_marseille","lat":43.3361,"lon":5.41026,"is_reserved":false,"is_disabled":false,"rental_uris":{"android":"levelo://app?vid=f3c163e1-3ee0-4e6e-96e2-2d226d69d5a0","ios":"levelo://app?vid=f3c163e1-3ee0-4e6e-96e2-2d226d69d5a0"},"vehicle_type_id":"4","last_reported":1727024883,"current_range_meters":22000,"station_id":"ce4bhqh2rcd13ifvqhmg","pricing_plan_id":"cebpf4jnsgd1na2vs0mg"},{"bike_id":"6175892d-cfa3-4dd0-82f0-2574d7cee8f9","system_id":"levelo_inurba_marseille","lat":43.27817,"lon":5.40706,"is_reserved":false,"is_disabled":false,"rental_uris":{"android":"levelo://app?vid=6175892d-cfa3-4dd0-82f0-2574d7cee8f9","ios":"levelo://app?vid=6175892d-cfa3-4dd0-82f0-2574d7cee8f9"},"vehicle_type_id":"4","last_reported":1727024883,"current_range_meters":15200,"station_id":"ce4bhnh2rcd13ifvqgtg","pricing_plan_id":"cebpf4jnsgd1na2vs0mg"},{"bike_id":"b5dac5e1-0a40-4def-8c62-f68a67a7e0a5","system_id":"levelo_inurba_marseille","lat":43.32651,"lon":5.43822,"is_reserved":false,"is_disabled":false,"rental_uris":{"android":"levelo://app?vid=b5dac5e1-0a40-4def-8c62-f68a67a7e0a5","ios":"levelo://app?vid=b5dac5e1-0a40-4def-8c62-f68a67a7e0a5"},"vehicle_type_id":"4","last_reported":1727024883,"current_range_meters":17600,"station_id":"","pricing_plan_id":"cebpf4jnsgd1na2vs0mg"},{"bike_id":"c1fa12dc-fb3d-4d05-87e5-4f0d4e960013","system_id":"levelo_inurba_marseille","lat":43.31374,"lon":5.38504,"is_reserved":false,"is_disabled":false,"rental_uris":{"android":"levelo://app?vid=c1fa12dc-fb3d-4d05-87e5-4f0d4e960013","ios":"levelo://app?vid=c1fa12dc-fb3d-4d05-87e5-4f0d4e960013"},"vehicle_type_id":"4","last_reported":1727024883,"current_range_meters":30800,"station_id":"ce4bgt92rcd13ifvqcf0","pricing_plan_id":"cebpf4jnsgd1na2vs0mg"},{"bike_id":"c7529683-96f2-4a93-a24a-84e8bdef1545","system_id":"levelo_inurba_marseille","lat":43.25863,"lon":5.39897,"is_reserved":false,"is_disabled":false,"rental_uris":{"android":"levelo://app?vid=c7529683-96f2-4a93-a24a-84e8bdef1545","ios":"levelo://app?vid=c7529683-96f2-4a93-a24a-84e8bdef1545"},"vehicle_type_id":"4","last_reported":1727024883,"current_range_meters":8000,"station_id":"ce4bhl92rcd13ifvqghg","pricing_plan_id":"cebpf4jnsgd1na2vs0mg"},{"bike_id":"10687a02-6eb5-4ff2-94ae-cbb65bd45a1f","system_id":"levelo_inurba_marseille","lat":43.29627,"lon":5.377218,"is_reserved":false,"is_disabled":false,"rental_uris":{"android":"levelo://app?vid=10687a02-6eb5-4ff2-94ae-cbb65bd45a1f","ios":"levelo://app?vid=10687a02-6eb5-4ff2-94ae-cbb65bd45a1f"},"vehicle_type_id":"4","last_reported":1727024883,"current_range_meters":21600,"station_id":"ce4bgi92rcd13ifvqb90","pricing_plan_id":"cebpf4jnsgd1na2vs0mg"},{"bike_id":"51000828-0eff-4c0e-bc20-8955f665d7e6","system_id":"levelo_inurba_marseille","lat":43.29583,"lon":5.39977,"is_reserved":false,"is_disabled":false,"rental_uris":{"android":"levelo://app?vid=51000828-0eff-4c0e-bc20-8955f665d7e6","ios":"levelo://app?vid=51000828-0eff-4c0e-bc20-8955f665d7e6"},"vehicle_type_id":"4","last_reported":1727024883,"current_range_meters":33600,"station_id":"ce4bh312rcd13ifvqdj0","pricing_plan_id":"cebpf4jnsgd1na2vs0mg"},{"bike_id":"71745df1-8511-42d1-b236-94ecb1109e61","system_id":"levelo_inurba_marseille","lat":43.31704,"lon":5.39616,"is_reserved":false,"is_disabled":false,"rental_uris":{"android":"levelo://app?vid=71745df1-8511-42d1-b236-94ecb1109e61","ios":"levelo://app?vid=71745df1-8511-42d1-b236-94ecb1109e61"},"vehicle_type_id":"4","last_reported":1727024883,"current_range_meters":8000,"station_id":"","pricing_plan_id":"cebpf4jnsgd1na2vs0mg"},{"bike_id":"b8f4279f-d3ab-4f13-8f52-22a188d769e0","system_id":"levelo_inurba_marseille","lat":43.293724,"lon":5.3789,"is_reserved":false,"is_disabled":false,"rental_uris":{"android":"levelo://app?vid=b8f4279f-d3ab-4f13-8f52-22a188d769e0","ios":"levelo://app?vid=b8f4279f-d3ab-4f13-8f52-22a188d769e0"},"vehicle_type_id":"4","last_reported":1727024883,"current_range_meters":3600,"station_id":"ce4bgjh2rcd13ifvqbf0","pricing_plan_id":"cebpf4jnsgd1na2vs0mg"},{"bike_id":"d6871283-dbb2-4b82-92a5-bba34e11eead","system_id":"levelo_inurba_marseille","lat":43.308037,"lon":5.402029,"is_reserved":false,"is_disabled":false,"rental_uris":{"android":"levelo://app?vid=d6871283-dbb2-4b82-92a5-bba34e11eead","ios":"levelo://app?vid=d6871283-dbb2-4b82-92a5-bba34e11eead"},"vehicle_type_id":"4","last_reported":1727024883,"current_range_meters":19200,"station_id":"ce4bh012rcd13ifvqd00","pricing_plan_id":"cebpf4jnsgd1na2vs0mg"},{"bike_id":"5f6e5321-ccd4-470b-8425-a6713c6ac745","system_id":"levelo_inurba_marseille","lat":43.25728,"lon":5.41111,"is_reserved":false,"is_disabled":false,"rental_uris":{"android":"levelo://app?vid=5f6e5321-ccd4-470b-8425-a6713c6ac745","ios":"levelo://app?vid=5f6e5321-ccd4-470b-8425-a6713c6ac745"},"vehicle_type_id":"4","last_reported":1727024883,"current_range_meters":38400,"station_id":"ce4bhkp2rcd13ifvqgd0","pricing_plan_id":"cebpf4jnsgd1na2vs0mg"},{"bike_id":"d399b5a5-50ac-471e-9ce7-cb1b1b3a1724","system_id":"levelo_inurba_marseille","lat":43.33023,"lon":5.39039,"is_reserved":false,"is_disabled":false,"rental_uris":{"android":"levelo://app?vid=d399b5a5-50ac-471e-9ce7-cb1b1b3a1724","ios":"levelo://app?vid=d399b5a5-50ac-471e-9ce7-cb1b1b3a1724"},"vehicle_type_id":"4","last_reported":1727024883,"current_range_meters":37600,"station_id":"ce4bhr92rcd13ifvqhrg","pricing_plan_id":"cebpf4jnsgd1na2vs0mg"},{"bike_id":"22e4a15e-6041-4c71-b288-1c12c69d262d","system_id":"levelo_inurba_marseille","lat":43.33719,"lon":5.39178,"is_reserved":false,"is_disabled":false,"rental_uris":{"android":"levelo://app?vid=22e4a15e-6041-4c71-b288-1c12c69d262d","ios":"levelo://app?vid=22e4a15e-6041-4c71-b288-1c12c69d262d"},"vehicle_type_id":"4","last_reported":1727024883,"current_range_meters":7200,"station_id":"ce4bhr92rcd13ifvqhsg","pricing_plan_id":"cebpf4jnsgd1na2vs0mg"},{"bike_id":"9bf6515b-1b08-4dd0-a3b1-78f777f3d02c","system_id":"levelo_inurba_marseille","lat":43.295199,"lon":5.393991,"is_reserved":false,"is_disabled":false,"rental_uris":{"android":"levelo://app?vid=9bf6515b-1b08-4dd0-a3b1-78f777f3d02c","ios":"levelo://app?vid=9bf6515b-1b08-4dd0-a3b1-78f777f3d02c"},"vehicle_type_id":"4","last_reported":1727024883,"current_range_meters":7200,"station_id":"ce4bh292rcd13ifvqdf0","pricing_plan_id":"cebpf4jnsgd1na2vs0mg"},{"bike_id":"5243eafb-9e47-41d8-bb42-4afc98b0960f","system_id":"levelo_inurba_marseille","lat":43.28495,"lon":5.38563,"is_reserved":false,"is_disabled":false,"rental_uris":{"android":"levelo://app?vid=5243eafb-9e47-41d8-bb42-4afc98b0960f","ios":"levelo://app?vid=5243eafb-9e47-41d8-bb42-4afc98b0960f"},"vehicle_type_id":"4","last_reported":1727024883,"current_range_meters":10800,"station_id":"ce4bh8p2rcd13ifvqeb0","pricing_plan_id":"cebpf4jnsgd1na2vs0mg"},{"bike_id":"81acc64b-5efd-4942-a859-2ca3de232af5","system_id":"levelo_inurba_marseille","lat":43.28459,"lon":5.35892,"is_reserved":false,"is_disabled":false,"rental_uris":{"android":"levelo://app?vid=81acc64b-5efd-4942-a859-2ca3de232af5","ios":"levelo://app?vid=81acc64b-5efd-4942-a859-2ca3de232af5"},"vehicle_type_id":"4","last_reported":1727024883,"current_range_meters":12000,"station_id":"ce4bhah2rcd13ifvqei0","pricing_plan_id":"cebpf4jnsgd1na2vs0mg"},{"bike_id":"60dcd12a-7a4c-4392-bf7b-995c2d2fe591","system_id":"levelo_inurba_marseille","lat":43.29889,"lon":5.38896,"is_reserved":false,"is_disabled":false,"rental_uris":{"android":"levelo://app?vid=60dcd12a-7a4c-4392-bf7b-995c2d2fe591","ios":"levelo://app?vid=60dcd12a-7a4c-4392-bf7b-995c2d2fe591"},"vehicle_type_id":"4","last_reported":1727024883,"current_range_meters":20800,"station_id":"ce4bh392rcd13ifvqdl0","pricing_plan_id":"cebpf4jnsgd1na2vs0mg"},{"bike_id":"3b6455fb-f49c-4631-8286-b189072ad3dc","system_id":"levelo_inurba_marseille","lat":43.29275,"lon":5.38438,"is_reserved":false,"is_disabled":false,"rental_uris":{"android":"levelo://app?vid=3b6455fb-f49c-4631-8286-b189072ad3dc","ios":"levelo://app?vid=3b6455fb-f49c-4631-8286-b189072ad3dc"},"vehicle_type_id":"4","last_reported":1727024883,"current_range_meters":27600,"station_id":"ce4bh692rcd13ifvqea0","pricing_plan_id":"cebpf4jnsgd1na2vs0mg"},{"bike_id":"ab9de632-0a34-4da5-8550-8ec2dcde3f4c","system_id":"levelo_inurba_marseille","lat":43.23182,"lon":5.39985,"is_reserved":false,"is_disabled":false,"rental_uris":{"android":"levelo://app?vid=ab9de632-0a34-4da5-8550-8ec2dcde3f4c","ios":"levelo://app?vid=ab9de632-0a34-4da5-8550-8ec2dcde3f4c"},"vehicle_type_id":"4","last_reported":1727024883,"current_range_meters":39200,"station_id":"ce4bhn12rcd13ifvqgqg","pricing_plan_id":"cebpf4jnsgd1na2vs0mg"},{"bike_id":"a119dbea-2575-47f0-b749-d4eac5ad491e","system_id":"levelo_inurba_marseille","lat":43.298499,"lon":5.362831,"is_reserved":false,"is_disabled":false,"rental_uris":{"android":"levelo://app?vid=a119dbea-2575-47f0-b749-d4eac5ad491e","ios":"levelo://app?vid=a119dbea-2575-47f0-b749-d4eac5ad491e"},"vehicle_type_id":"4","last_reported":1727024883,"current_range_meters":12800,"station_id":"ce4bha12rcd13ifvqee0","pricing_plan_id":"cebpf4jnsgd1na2vs0mg"},{"bike_id":"92e22df3-32cc-4886-81d4-b83e510988c9","system_id":"levelo_inurba_marseille","lat":43.25119,"lon":5.40318,"is_reserved":false,"is_disabled":false,"rental_uris":{"android":"levelo://app?vid=92e22df3-32cc-4886-81d4-b83e510988c9","ios":"levelo://app?vid=92e22df3-32cc-4886-81d4-b83e510988c9"},"vehicle_type_id":"4","last_reported":1727024883,"current_range_meters":24000,"station_id":"ce4bhlh2rcd13ifvqgig","pricing_plan_id":"cebpf4jnsgd1na2vs0mg"},{"bike_id":"a67b4287-da83-43eb-8e86-126974c9a016","system_id":"levelo_inurba_marseille","lat":43.29557,"lon":5.42289,"is_reserved":false,"is_disabled":false,"rental_uris":{"android":"levelo://app?vid=a67b4287-da83-43eb-8e86-126974c9a016","ios":"levelo://app?vid=a67b4287-da83-43eb-8e86-126974c9a016"},"vehicle_type_id":"4","last_reported":1727024883,"current_range_meters":28000,"station_id":"ce4bhph2rcd13ifvqhdg","pricing_plan_id":"cebpf4jnsgd1na2vs0mg"},{"bike_id":"231df590-15eb-4c0a-bdf6-dddd3cb861cb","system_id":"levelo_inurba_marseille","lat":43.337444,"lon":5.374475,"is_reserved":false,"is_disabled":false,"rental_uris":{"android":"levelo://app?vid=231df590-15eb-4c0a-bdf6-dddd3cb861cb","ios":"levelo://app?vid=231df590-15eb-4c0a-bdf6-dddd3cb861cb"},"vehicle_type_id":"4","last_reported":1727024883,"current_range_meters":25600,"station_id":"","pricing_plan_id":"cebpf4jnsgd1na2vs0mg"},{"bike_id":"e7182743-47aa-4d18-863c-0f3d5e08d29a","system_id":"levelo_inurba_marseille","lat":43.28041,"lon":5.36937,"is_reserved":false,"is_disabled":false,"rental_uris":{"android":"levelo://app?vid=e7182743-47aa-4d18-863c-0f3d5e08d29a","ios":"levelo://app?vid=e7182743-47aa-4d18-863c-0f3d5e08d29a"},"vehicle_type_id":"4","last_reported":1727024883,"current_range_meters":22400,"station_id":"ce4bha12rcd13ifvqef0","pricing_plan_id":"cebpf4jnsgd1na2vs0mg"},{"bike_id":"b0d30d33-8227-4955-bb5c-ba7dfe0bd38c","system_id":"levelo_inurba_marseille","lat":43.26788,"lon":5.39413,"is_reserved":false,"is_disabled":false,"rental_uris":{"android":"levelo://app?vid=b0d30d33-8227-4955-bb5c-ba7dfe0bd38c","ios":"levelo://app?vid=b0d30d33-8227-4955-bb5c-ba7dfe0bd38c"},"vehicle_type_id":"4","last_reported":1727024883,"current_range_meters":36000,"station_id":"ce4bhh12rcd13ifvqfg0","pricing_plan_id":"cebpf4jnsgd1na2vs0mg"},{"bike_id":"3b211465-5030-4ebd-b5e2-78bdfeebc435","system_id":"levelo_inurba_marseille","lat":43.33717,"lon":5.39177,"is_reserved":false,"is_disabled":false,"rental_uris":{"android":"levelo://app?vid=3b211465-5030-4ebd-b5e2-78bdfeebc435","ios":"levelo://app?vid=3b211465-5030-4ebd-b5e2-78bdfeebc435"},"vehicle_type_id":"4","last_reported":1727024883,"current_range_meters":26800,"station_id":"ce4bhr92rcd13ifvqhsg","pricing_plan_id":"cebpf4jnsgd1na2vs0mg"},{"bike_id":"9d187cc4-1d61-4e16-9616-3068f043caa9","system_id":"levelo_inurba_marseille","lat":43.32369,"lon":5.3889,"is_reserved":false,"is_disabled":false,"rental_uris":{"android":"levelo://app?vid=9d187cc4-1d61-4e16-9616-3068f043caa9","ios":"levelo://app?vid=9d187cc4-1d61-4e16-9616-3068f043caa9"},"vehicle_type_id":"4","last_reported":1727024883,"current_range_meters":28800,"station_id":"ce4bhqp2rcd13ifvqhog","pricing_plan_id":"cebpf4jnsgd1na2vs0mg"},{"bike_id":"f42cd045-bf43-4164-bb3c-5ff14c904a7a","system_id":"levelo_inurba_marseille","lat":43.31226,"lon":5.36868,"is_reserved":false,"is_disabled":false,"rental_uris":{"android":"levelo://app?vid=f42cd045-bf43-4164-bb3c-5ff14c904a7a","ios":"levelo://app?vid=f42cd045-bf43-4164-bb3c-5ff14c904a7a"},"vehicle_type_id":"4","last_reported":1727024883,"current_range_meters":6400,"station_id":"ce4bgl92rcd13ifvqbq0","pricing_plan_id":"cebpf4jnsgd1na2vs0mg"},{"bike_id":"a316de2e-60d6-4aab-8515-c3564cfaeb96","system_id":"levelo_inurba_marseille","lat":43.294281,"lon":5.386034,"is_reserved":false,"is_disabled":false,"rental_uris":{"android":"levelo://app?vid=a316de2e-60d6-4aab-8515-c3564cfaeb96","ios":"levelo://app?vid=a316de2e-60d6-4aab-8515-c3564cfaeb96"},"vehicle_type_id":"4","last_reported":1727024883,"current_range_meters":12400,"station_id":"ce4bh2h2rcd13ifvqdh0","pricing_plan_id":"cebpf4jnsgd1na2vs0mg"},{"bike_id":"e99ca9ca-01ff-46f0-b6ed-235fce50bcd9","system_id":"levelo_inurba_marseille","lat":43.30128,"lon":5.39872,"is_reserved":false,"is_disabled":false,"rental_uris":{"android":"levelo://app?vid=e99ca9ca-01ff-46f0-b6ed-235fce50bcd9","ios":"levelo://app?vid=e99ca9ca-01ff-46f0-b6ed-235fce50bcd9"},"vehicle_type_id":"4","last_reported":1727024883,"current_range_meters":25200,"station_id":"ce4bh0h2rcd13ifvqd40","pricing_plan_id":"cebpf4jnsgd1na2vs0mg"},{"bike_id":"3e156987-96e3-48ad-8746-0582637bdaa1","system_id":"levelo_inurba_marseille","lat":43.29899,"lon":5.43669,"is_reserved":false,"is_disabled":false,"rental_uris":{"android":"levelo://app?vid=3e156987-96e3-48ad-8746-0582637bdaa1","ios":"levelo://app?vid=3e156987-96e3-48ad-8746-0582637bdaa1"},"vehicle_type_id":"4","last_reported":1727024883,"current_range_meters":22400,"station_id":"ce4bhpp2rcd13ifvqhfg","pricing_plan_id":"cebpf4jnsgd1na2vs0mg"},{"bike_id":"67987f7c-a57f-4b98-93a6-7944965f29c0","system_id":"levelo_inurba_marseille","lat":43.309509,"lon":5.390305,"is_reserved":false,"is_disabled":false,"rental_uris":{"android":"levelo://app?vid=67987f7c-a57f-4b98-93a6-7944965f29c0","ios":"levelo://app?vid=67987f7c-a57f-4b98-93a6-7944965f29c0"},"vehicle_type_id":"4","last_reported":1727024883,"current_range_meters":9200,"station_id":"ce4bgup2rcd13ifvqco0","pricing_plan_id":"cebpf4jnsgd1na2vs0mg"},{"bike_id":"6b41f4c9-6e3e-4391-84d1-6a06bcf5f9a3","system_id":"levelo_inurba_marseille","lat":43.29578,"lon":5.39979,"is_reserved":false,"is_disabled":false,"rental_uris":{"android":"levelo://app?vid=6b41f4c9-6e3e-4391-84d1-6a06bcf5f9a3","ios":"levelo://app?vid=6b41f4c9-6e3e-4391-84d1-6a06bcf5f9a3"},"vehicle_type_id":"4","last_reported":1727024883,"current_range_meters":9600,"station_id":"ce4bh312rcd13ifvqdj0","pricing_plan_id":"cebpf4jnsgd1na2vs0mg"},{"bike_id":"72dafa2a-bdba-4e69-afaa-2a7f18181dce","system_id":"levelo_inurba_marseille","lat":43.307983,"lon":5.435285,"is_reserved":false,"is_disabled":false,"rental_uris":{"android":"levelo://app?vid=72dafa2a-bdba-4e69-afaa-2a7f18181dce","ios":"levelo://app?vid=72dafa2a-bdba-4e69-afaa-2a7f18181dce"},"vehicle_type_id":"4","last_reported":1727024883,"current_range_meters":27600,"station_id":"ce4bhph2rcd13ifvqheg","pricing_plan_id":"cebpf4jnsgd1na2vs0mg"},{"bike_id":"cf07c4c6-7b1e-4566-a999-43920ff99d03","system_id":"levelo_inurba_marseille","lat":43.29618,"lon":5.37698,"is_reserved":false,"is_disabled":false,"rental_uris":{"android":"levelo://app?vid=cf07c4c6-7b1e-4566-a999-43920ff99d03","ios":"levelo://app?vid=cf07c4c6-7b1e-4566-a999-43920ff99d03"},"vehicle_type_id":"4","last_reported":1727024883,"current_range_meters":10800,"station_id":"ce4bgi92rcd13ifvqb90","pricing_plan_id":"cebpf4jnsgd1na2vs0mg"},{"bike_id":"2dfe9f3e-88dc-4d3e-b9ad-b88a779c0224","system_id":"levelo_inurba_marseille","lat":43.31534,"lon":5.38025,"is_reserved":false,"is_disabled":false,"rental_uris":{"android":"levelo://app?vid=2dfe9f3e-88dc-4d3e-b9ad-b88a779c0224","ios":"levelo://app?vid=2dfe9f3e-88dc-4d3e-b9ad-b88a779c0224"},"vehicle_type_id":"4","last_reported":1727024883,"current_range_meters":2000,"station_id":"ce4bhsp2rcd13ifvqi50","pricing_plan_id":"cebpf4jnsgd1na2vs0mg"},{"bike_id":"446651a4-e3c6-46c7-8537-e1a2b71b7f9b","system_id":"levelo_inurba_marseille","lat":43.31329,"lon":5.39706,"is_reserved":false,"is_disabled":false,"rental_uris":{"android":"levelo://app?vid=446651a4-e3c6-46c7-8537-e1a2b71b7f9b","ios":"levelo://app?vid=446651a4-e3c6-46c7-8537-e1a2b71b7f9b"},"vehicle_type_id":"4","last_reported":1727024883,"current_range_meters":38800,"station_id":"ce4bgvp2rcd13ifvqcu0","pricing_plan_id":"cebpf4jnsgd1na2vs0mg"},{"bike_id":"9ebda71c-154e-4514-8c6c-a78b3bf7f371","system_id":"levelo_inurba_marseille","lat":43.29543,"lon":5.38545,"is_reserved":false,"is_disabled":false,"rental_uris":{"android":"levelo://app?vid=9ebda71c-154e-4514-8c6c-a78b3bf7f371","ios":"levelo://app?vid=9ebda71c-154e-4514-8c6c-a78b3bf7f371"},"vehicle_type_id":"4","last_reported":1727024883,"current_range_meters":6400,"station_id":"ce4bgih2rcd13ifvqba0","pricing_plan_id":"cebpf4jnsgd1na2vs0mg"},{"bike_id":"3113b1eb-f7b7-4ac0-bd18-3aa32975f9e6","system_id":"levelo_inurba_marseille","lat":43.25238,"lon":5.38614,"is_reserved":false,"is_disabled":false,"rental_uris":{"android":"levelo://app?vid=3113b1eb-f7b7-4ac0-bd18-3aa32975f9e6","ios":"levelo://app?vid=3113b1eb-f7b7-4ac0-bd18-3aa32975f9e6"},"vehicle_type_id":"4","last_reported":1727024883,"current_range_meters":34000,"station_id":"","pricing_plan_id":"cebpf4jnsgd1na2vs0mg"},{"bike_id":"fd43c0f0-1fb9-402e-a0f2-f54c935acced","system_id":"levelo_inurba_marseille","lat":43.28351,"lon":5.38103,"is_reserved":false,"is_disabled":false,"rental_uris":{"android":"levelo://app?vid=fd43c0f0-1fb9-402e-a0f2-f54c935acced","ios":"levelo://app?vid=fd43c0f0-1fb9-402e-a0f2-f54c935acced"},"vehicle_type_id":"4","last_reported":1727024883,"current_range_meters":22000,"station_id":"ce4bh412rcd13ifvqdr0","pricing_plan_id":"cebpf4jnsgd1na2vs0mg"},{"bike_id":"2347817f-e20e-4496-af0e-1f65e3ba6aef","system_id":"levelo_inurba_marseille","lat":43.32112,"lon":5.36766,"is_reserved":false,"is_disabled":false,"rental_uris":{"android":"levelo://app?vid=2347817f-e20e-4496-af0e-1f65e3ba6aef","ios":"levelo://app?vid=2347817f-e20e-4496-af0e-1f65e3ba6aef"},"vehicle_type_id":"4","last_reported":1727024883,"current_range_meters":36800,"station_id":"","pricing_plan_id":"cebpf4jnsgd1na2vs0mg"},{"bike_id":"99c85fc9-8b45-4ece-aaba-e3a48efedd7c","system_id":"levelo_inurba_marseille","lat":43.30963,"lon":5.38609,"is_reserved":false,"is_disabled":false,"rental_uris":{"android":"levelo://app?vid=99c85fc9-8b45-4ece-aaba-e3a48efedd7c","ios":"levelo://app?vid=99c85fc9-8b45-4ece-aaba-e3a48efedd7c"},"vehicle_type_id":"4","last_reported":1727024883,"current_range_meters":10800,"station_id":"","pricing_plan_id":"cebpf4jnsgd1na2vs0mg"},{"bike_id":"8cdae70e-628c-4d42-a88c-b3b0444bd8ae","system_id":"levelo_inurba_marseille","lat":43.28662,"lon":5.36349,"is_reserved":false,"is_disabled":false,"rental_uris":{"android":"levelo://app?vid=8cdae70e-628c-4d42-a88c-b3b0444bd8ae","ios":"levelo://app?vid=8cdae70e-628c-4d42-a88c-b3b0444bd8ae"},"vehicle_type_id":"4","last_reported":1727024883,"current_range_meters":8800,"station_id":"ce4bhah2rcd13ifvqej0","pricing_plan_id":"cebpf4jnsgd1na2vs0mg"},{"bike_id":"68306c2c-a866-47a1-a95a-8c3320e070b0","system_id":"levelo_inurba_marseille","lat":43.26937,"lon":5.38907,"is_reserved":false,"is_disabled":false,"rental_uris":{"android":"levelo://app?vid=68306c2c-a866-47a1-a95a-8c3320e070b0","ios":"levelo://app?vid=68306c2c-a866-47a1-a95a-8c3320e070b0"},"vehicle_type_id":"4","last_reported":1727024883,"current_range_meters":11200,"station_id":"ce4bhhh2rcd13ifvqfl0","pricing_plan_id":"cebpf4jnsgd1na2vs0mg"},{"bike_id":"3ee1c008-61fe-4541-b93d-68bc7035b3fb","system_id":"levelo_inurba_marseille","lat":43.239655,"lon":5.366281,"is_reserved":false,"is_disabled":false,"rental_uris":{"android":"levelo://app?vid=3ee1c008-61fe-4541-b93d-68bc7035b3fb","ios":"levelo://app?vid=3ee1c008-61fe-4541-b93d-68bc7035b3fb"},"vehicle_type_id":"4","last_reported":1727024883,"current_range_meters":39200,"station_id":"ce4bhi12rcd13ifvqfp0","pricing_plan_id":"cebpf4jnsgd1na2vs0mg"},{"bike_id":"0dd61dbd-ed08-41a2-b7c6-cac126cd979a","system_id":"levelo_inurba_marseille","lat":43.3103,"lon":5.38422,"is_reserved":false,"is_disabled":false,"rental_uris":{"android":"levelo://app?vid=0dd61dbd-ed08-41a2-b7c6-cac126cd979a","ios":"levelo://app?vid=0dd61dbd-ed08-41a2-b7c6-cac126cd979a"},"vehicle_type_id":"4","last_reported":1727024883,"current_range_meters":27600,"station_id":"","pricing_plan_id":"cebpf4jnsgd1na2vs0mg"},{"bike_id":"4f4136e2-fba5-4b4e-8381-3be540a768c8","system_id":"levelo_inurba_marseille","lat":43.2532,"lon":5.40881,"is_reserved":false,"is_disabled":false,"rental_uris":{"android":"levelo://app?vid=4f4136e2-fba5-4b4e-8381-3be540a768c8","ios":"levelo://app?vid=4f4136e2-fba5-4b4e-8381-3be540a768c8"},"vehicle_type_id":"4","last_reported":1727024883,"current_range_meters":30000,"station_id":"","pricing_plan_id":"cebpf4jnsgd1na2vs0mg"},{"bike_id":"801e0304-d9bd-4571-9a35-da535bc3fcb7","system_id":"levelo_inurba_marseille","lat":43.2952,"lon":5.39045,"is_reserved":false,"is_disabled":false,"rental_uris":{"android":"levelo://app?vid=801e0304-d9bd-4571-9a35-da535bc3fcb7","ios":"levelo://app?vid=801e0304-d9bd-4571-9a35-da535bc3fcb7"},"vehicle_type_id":"4","last_reported":1727024883,"current_range_meters":6800,"station_id":"ce4bh3p2rcd13ifvqdp0","pricing_plan_id":"cebpf4jnsgd1na2vs0mg"},{"bike_id":"23a85ab2-262e-44c3-9a0d-ba28a7f46703","system_id":"levelo_inurba_marseille","lat":43.28046,"lon":5.36951,"is_reserved":false,"is_disabled":false,"rental_uris":{"android":"levelo://app?vid=23a85ab2-262e-44c3-9a0d-ba28a7f46703","ios":"levelo://app?vid=23a85ab2-262e-44c3-9a0d-ba28a7f46703"},"vehicle_type_id":"4","last_reported":1727024883,"current_range_meters":24800,"station_id":"ce4bha12rcd13ifvqef0","pricing_plan_id":"cebpf4jnsgd1na2vs0mg"},{"bike_id":"f5c901bb-2ea6-40e5-837e-e8eb4e7b36ea","system_id":"levelo_inurba_marseille","lat":43.27837,"lon":5.392124,"is_reserved":false,"is_disabled":false,"rental_uris":{"android":"levelo://app?vid=f5c901bb-2ea6-40e5-837e-e8eb4e7b36ea","ios":"levelo://app?vid=f5c901bb-2ea6-40e5-837e-e8eb4e7b36ea"},"vehicle_type_id":"4","last_reported":1727024883,"current_range_meters":2800,"station_id":"ce4bhjp2rcd13ifvqga0","pricing_plan_id":"cebpf4jnsgd1na2vs0mg"},{"bike_id":"58963454-065c-449b-97c9-822cfade99d3","system_id":"levelo_inurba_marseille","lat":43.27502,"lon":5.42452,"is_reserved":false,"is_disabled":false,"rental_uris":{"android":"levelo://app?vid=58963454-065c-449b-97c9-822cfade99d3","ios":"levelo://app?vid=58963454-065c-449b-97c9-822cfade99d3"},"vehicle_type_id":"4","last_reported":1727024883,"current_range_meters":38800,"station_id":"ce4bhn92rcd13ifvqgrg","pricing_plan_id":"cebpf4jnsgd1na2vs0mg"},{"bike_id":"95ea1503-6eb3-46d9-a703-c2bea555a1cf","system_id":"levelo_inurba_marseille","lat":43.23153,"lon":5.43706,"is_reserved":false,"is_disabled":false,"rental_uris":{"android":"levelo://app?vid=95ea1503-6eb3-46d9-a703-c2bea555a1cf","ios":"levelo://app?vid=95ea1503-6eb3-46d9-a703-c2bea555a1cf"},"vehicle_type_id":"4","last_reported":1727024883,"current_range_meters":3200,"station_id":"ce4bhmp2rcd13ifvqgog","pricing_plan_id":"cebpf4jnsgd1na2vs0mg"},