{"last_updated":1723568859,"ttl":30,"version":"2.2","data":{"bikes":[{"bike_id":"d8bab988-0ebd-4bf8-a897-224364059f39","system_id":"levelo_inurba_marseille","lat":43.312239,"lon":5.368562,"is_reserved":false,"is_disabled":false,"rental_uris":{"android":"levelo://app?vid=d8bab988-0ebd-4bf8-a897-224364059f39","ios":"levelo://app?vid=d8bab988-0ebd-4bf8-a897-224364059f39"},"vehicle_type_id":"4","last_reported":1723568859,"current_range_meters":19600,"station_id":"ce4bgl92rcd13ifvqbq0","pricing_plan_id":"cebpf4jnsgd1na2vs0mg"},{"bike_id":"852feb0d-2e3f-49d7-ad4c-6caf02d4d5a2","system_id":"levelo_inurba_marseille","lat":43.309076,"lon":5.368465,"is_reserved":false,"is_disabled":false,"rental_uris":{"android":"levelo://app?vid=852feb0d-2e3f-49d7-ad4c-6caf02d4d5a2","ios":"levelo://app?vid=852feb0d-2e3f-49d7-ad4c-6caf02d4d5a2"},"vehicle_type_id":"4","last_reported":1723568859,"current_range_meters":19600,"station_id":"ce4bgn92rcd13ifvqbvg","pricing_plan_id":"cebpf4jnsgd1na2vs0mg"},{"bike_id":"03a3da4b-acd6-44b6-b11f-7c99fd2896a9","system_id":"levelo_inurba_marseille","lat":43.31486,"lon":5.373,"is_reserved":false,"is_disabled":false,"rental_uris":{"android":"levelo://app?vid=03a3da4b-acd6-44b6-b11f-7c99fd2896a9","ios":"levelo://app?vid=03a3da4b-acd6-44b6-b11f-7c99fd2896a9"},"vehicle_type_id":"4","last_reported":1723568859,"current_range_meters":0,"station_id":"ce4bgt12rcd13ifvqcd0","pricing_plan_id":"cebpf4jnsgd1na2vs0mg"},{"bike_id":"1066877d-8dfe-41dd-b699-28b839bf6410","system_id":"levelo_inurba_marseille","lat":43.314811,"lon":5.373103,"is_reserved":false,"is_disabled":false,"rental_uris":{"android":"levelo://app?vid=1066877d-8dfe-41dd-b699-28b839bf6410","ios":"levelo://app?vid=1066877d-8dfe-41dd-b699-28b839bf6410"},"vehicle_type_id":"4","last_reported":1723568859,"current_range_meters":22800,"station_id":"ce4bgt12rcd13ifvqcd0","pricing_plan_id":"cebpf4jnsgd1na2vs0mg"},{"bike_id":"faa41f6b-f7c7-48e7-ba59-5b6d473e17d1","system_id":"levelo_inurba_marseille","lat":43.309034,"lon":5.371783,"is_reserved":false,"is_disabled":false,"rental_uris":{"android":"levelo://app?vid=faa41f6b-f7c7-48e7-ba59-5b6d473e17d1","ios":"levelo://app?vid=faa41f6b-f7c7-48e7-ba59-5b6d473e17d1"},"vehicle_type_id":"4","last_reported":1723568859,"current_range_meters":2000,"station_id":"ce4bguh2rcd13ifvqckg","pricing_plan_id":"cebpf4jnsgd1na2vs0mg"},{"bike_id":"794e9f10-53c3-4540-a25d-26570344a089","system_id":"levelo_inurba_marseille","lat":43.30884,"lon":5.37307,"is_reserved":false,"is_disabled":false,"rental_uris":{"android":"levelo://app?vid=794e9f10-53c3-4540-a25d-26570344a089","ios":"levelo://app?vid=794e9f10-53c3-4540-a25d-26570344a089"},"vehicle_type_id":"4","last_reported":1723568859,"current_range_meters":24800,"station_id":"","pricing_plan_id":"cebpf4jnsgd1na2vs0mg"},{"bike_id":"625dcf7b-e6eb-42d4-a891-f6ccf615e818","system_id":"levelo_inurba_marseille","lat":43.305712,"lon":5.365641,"is_reserved":false,"is_disabled":false,"rental_uris":{"android":"levelo://app?vid=625dcf7b-e6eb-42d4-a891-f6ccf615e818","ios":"levelo://app?vid=625dcf7b-e6eb-42d4-a891-f6ccf615e818"},"vehicle_type_id":"4","last_reported":1723568859,"current_range_meters":15200,"station_id":"ce4bgs12rcd13ifvqcag","pricing_plan_id":"cebpf4jnsgd1na2vs0mg"},{"bike_id":"76b15728-2be1-4b50-a89e-428a9d6a6e5a","system_id":"levelo_inurba_marseille","lat":43.30537,"lon":5.367345,"is_reserved":false,"is_disabled":false,"rental_uris":{"android":"levelo://app?vid=76b15728-2be1-4b50-a89e-428a9d6a6e5a","ios":"levelo://app?vid=76b15728-2be1-4b50-a89e-428a9d6a6e5a"},"vehicle_type_id":"4","last_reported":1723568859,"current_range_meters":13600,"station_id":"ce4bgrp2rcd13ifvqc9g","pricing_plan_id":"cebpf4jnsgd1na2vs0mg"},{"bike_id":"fbe2ff29-bfde-4a93-b9fb-25bab5bb5e31","system_id":"levelo_inurba_marseille","lat":43.305368,"lon":5.367343,"is_reserved":false,"is_disabled":false,"rental_uris":{"android":"levelo://app?vid=fbe2ff29-bfde-4a93-b9fb-25bab5bb5e31","ios":"levelo://app?vid=fbe2ff29-bfde-4a93-b9fb-25bab5bb5e31"},"vehicle_type_id":"4","last_reported":1723568859,"current_range_meters":24400,"station_id":"ce4bgrp2rcd13ifvqc9g","pricing_plan_id":"cebpf4jnsgd1na2vs0mg"},{"bike_id":"a6484208-3a1f-4090-8236-e2dc5f16e227","system_id":"levelo_inurba_marseille","lat":43.30537,"lon":5.367345,"is_reserved":false,"is_disabled":false,"rental_uris":{"android":"levelo://app?vid=a6484208-3a1f-4090-8236-e2dc5f16e227","ios":"levelo://app?vid=a6484208-3a1f-4090-8236-e2dc5f16e227"},"vehicle_type_id":"4","last_reported":1723568859,"current_range_meters":2000,"station_id":"ce4bgrp2rcd13ifvqc9g","pricing_plan_id":"cebpf4jnsgd1na2vs0mg"},{"bike_id":"16ce72aa-e515-462a-a798-442ca174bc87","system_id":"levelo_inurba_marseille","lat":43.31596,"lon":5.37609,"is_reserved":false,"is_disabled":false,"rental_uris":{"android":"levelo://app?vid=16ce72aa-e515-462a-a798-442ca174bc87","ios":"levelo://app?vid=16ce72aa-e515-462a-a798-442ca174bc87"},"vehicle_type_id":"4","last_reported":1723568859,"current_range_meters":3200,"station_id":"","pricing_plan_id":"cebpf4jnsgd1na2vs0mg"},{"bike_id":"876c76ed-e656-4fc4-9bd3-dd4d432ae194","system_id":"levelo_inurba_marseille","lat":43.313571,"lon":5.384829,"is_reserved":false,"is_disabled":false,"rental_uris":{"android":"levelo://app?vid=876c76ed-e656-4fc4-9bd3-dd4d432ae194","ios":"levelo://app?vid=876c76ed-e656-4fc4-9bd3-dd4d432ae194"},"vehicle_type_id":"4","last_reported":1723568859,"current_range_meters":5200,"station_id":"ce4bgt92rcd13ifvqcf0","pricing_plan_id":"cebpf4jnsgd1na2vs0mg"},{"bike_id":"4fef5692-bba9-460a-a774-7053515df4ac","system_id":"levelo_inurba_marseille","lat":43.31362,"lon":5.37915,"is_reserved":false,"is_disabled":false,"rental_uris":{"android":"levelo://app?vid=4fef5692-bba9-460a-a774-7053515df4ac","ios":"levelo://app?vid=4fef5692-bba9-460a-a774-7053515df4ac"},"vehicle_type_id":"4","last_reported":1723568859,"current_range_meters":4800,"station_id":"","pricing_plan_id":"cebpf4jnsgd1na2vs0mg"},{"bike_id":"069fb723-fcb8-440c-ad29-76ff4868d8a5","system_id":"levelo_inurba_marseille","lat":43.31359,"lon":5.37919,"is_reserved":false,"is_disabled":false,"rental_uris":{"android":"levelo://app?vid=069fb723-fcb8-440c-ad29-76ff4868d8a5","ios":"levelo://app?vid=069fb723-fcb8-440c-ad29-76ff4868d8a5"},"vehicle_type_id":"4","last_reported":1723568859,"current_range_meters":14800,"station_id":"","pricing_plan_id":"cebpf4jnsgd1na2vs0mg"},{"bike_id":"e7b2bf90-071a-497e-a7b8-5d577dec8dd8","system_id":"levelo_inurba_marseille","lat":43.3137,"lon":5.3792,"is_reserved":false,"is_disabled":false,"rental_uris":{"android":"levelo://app?vid=e7b2bf90-071a-497e-a7b8-5d577dec8dd8","ios":"levelo://app?vid=e7b2bf90-071a-497e-a7b8-5d577dec8dd8"},"vehicle_type_id":"4","last_reported":1723568859,"current_range_meters":17600,"station_id":"","pricing_plan_id":"cebpf4jnsgd1na2vs0mg"},{"bike_id":"89670e2f-8924-4290-8d06-c143dcfea1b2","system_id":"levelo_inurba_marseille","lat":43.31008,"lon":5.37924,"is_reserved":false,"is_disabled":false,"rental_uris":{"android":"levelo://app?vid=89670e2f-8924-4290-8d06-c143dcfea1b2","ios":"levelo://app?vid=89670e2f-8924-4290-8d06-c143dcfea1b2"},"vehicle_type_id":"4","last_reported":1723568859,"current_range_meters":5600,"station_id":"","pricing_plan_id":"cebpf4jnsgd1na2vs0mg"},{"bike_id":"e43d9e2c-9d56-4741-96c8-9ef311a5fe37","system_id":"levelo_inurba_marseille","lat":43.308513,"lon":5.378967,"is_reserved":false,"is_disabled":false,"rental_uris":{"android":"levelo://app?vid=e43d9e2c-9d56-4741-96c8-9ef311a5fe37","ios":"levelo://app?vid=e43d9e2c-9d56-4741-96c8-9ef311a5fe37"},"vehicle_type_id":"4","last_reported":1723568859,"current_range_meters":16000,"station_id":"","pricing_plan_id":"cebpf4jnsgd1na2vs0mg"},{"bike_id":"f68a27cf-8cb8-4884-9849-04d095991abf","system_id":"levelo_inurba_marseille","lat":43.303046,"lon":5.368981,"is_reserved":false,"is_disabled":false,"rental_uris":{"android":"levelo://app?vid=f68a27cf-8cb8-4884-9849-04d095991abf","ios":"levelo://app?vid=f68a27cf-8cb8-4884-9849-04d095991abf"},"vehicle_type_id":"4","last_reported":1723568859,"current_range_meters":5600,"station_id":"ce4bgqh2rcd13ifvqc5g","pricing_plan_id":"cebpf4jnsgd1na2vs0mg"},{"bike_id":"36e9b35e-5721-4c6a-8832-697d347dc726","system_id":"levelo_inurba_marseille","lat":43.30304,"lon":5.368987,"is_reserved":false,"is_disabled":false,"rental_uris":{"android":"levelo://app?vid=36e9b35e-5721-4c6a-8832-697d347dc726","ios":"levelo://app?vid=36e9b35e-5721-4c6a-8832-697d347dc726"},"vehicle_type_id":"4","last_reported":1723568859,"current_range_meters":11600,"station_id":"ce4bgqh2rcd13ifvqc5g","pricing_plan_id":"cebpf4jnsgd1na2vs0mg"},{"bike_id":"69e5f7be-f1d5-450e-8cdd-5249abc4232a","system_id":"levelo_inurba_marseille","lat":43.30304,"lon":5.368987,"is_reserved":false,"is_disabled":false,"rental_uris":{"android":"levelo://app?vid=69e5f7be-f1d5-450e-8cdd-5249abc4232a","ios":"levelo://app?vid=69e5f7be-f1d5-450e-8cdd-5249abc4232a"},"vehicle_type_id":"4","last_reported":1723568859,"current_range_meters":26000,"station_id":"ce4bgqh2rcd13ifvqc5g","pricing_plan_id":"cebpf4jnsgd1na2vs0mg"},{"bike_id":"92a1c3a4-5393-45c4-9c50-5c0d0adcfb4b","system_id":"levelo_inurba_marseille","lat":43.315289,"lon":5.380349,"is_reserved":false,"is_disabled":false,"rental_uris":{"android":"levelo://app?vid=92a1c3a4-5393-45c4-9c50-5c0d0adcfb4b","ios":"levelo://app?vid=92a1c3a4-5393-45c4-9c50-5c0d0adcfb4b"},"vehicle_type_id":"4","last_reported":1723568859,"current_range_meters":0,"station_id":"ce4bhsp2rcd13ifvqi50","pricing_plan_id":"cebpf4jnsgd1na2vs0mg"},{"bike_id":"c753c19e-96d3-46f5-8590-2898304e77ee","system_id":"levelo_inurba_marseille","lat":43.301939,"lon":5.366286,"is_reserved":false,"is_disabled":false,"rental_uris":{"android":"levelo://app?vid=c753c19e-96d3-46f5-8590-2898304e77ee","ios":"levelo://app?vid=c753c19e-96d3-46f5-8590-2898304e77ee"},"vehicle_type_id":"4","last_reported":1723568859,"current_range_meters":6400,"station_id":"ce4bgrh2rcd13ifvqc8g","pricing_plan_id":"cebpf4jnsgd1na2vs0mg"},{"bike_id":"6dfe4777-e85a-407c-b5d0-e0549b813317","system_id":"levelo_inurba_marseille","lat":43.301939,"lon":5.366286,"is_reserved":false,"is_disabled":false,"rental_uris":{"android":"levelo://app?vid=6dfe4777-e85a-407c-b5d0-e0549b813317","ios":"levelo://app?vid=6dfe4777-e85a-407c-b5d0-e0549b813317"},"vehicle_type_id":"4","last_reported":1723568859,"current_range_meters":28400,"station_id":"ce4bgrh2rcd13ifvqc8g","pricing_plan_id":"cebpf4jnsgd1na2vs0mg"},{"bike_id":"3217b4cc-db23-4e96-b7f6-6e2e0258be46","system_id":"levelo_inurba_marseille","lat":43.324771,"lon":5.36557,"is_reserved":false,"is_disabled":false,"rental_uris":{"android":"levelo://app?vid=3217b4cc-db23-4e96-b7f6-6e2e0258be46","ios":"levelo://app?vid=3217b4cc-db23-4e96-b7f6-6e2e0258be46"},"vehicle_type_id":"4","last_reported":1723568859,"current_range_meters":24400,"station_id":"ce4bhs12rcd13ifvqhvg","pricing_plan_id":"cebpf4jnsgd1na2vs0mg"},{"bike_id":"0c5742ee-91f8-48a3-96f2-755b48d8a393","system_id":"levelo_inurba_marseille","lat":43.304606,"lon":5.379026,"is_reserved":false,"is_disabled":false,"rental_uris":{"android":"levelo://app?vid=0c5742ee-91f8-48a3-96f2-755b48d8a393","ios":"levelo://app?vid=0c5742ee-91f8-48a3-96f2-755b48d8a393"},"vehicle_type_id":"4","last_reported":1723568859,"current_range_meters":400,"station_id":"ce4bgup2rcd13ifvqcn0","pricing_plan_id":"cebpf4jnsgd1na2vs0mg"},{"bike_id":"3a1cafac-e8eb-494e-ad9b-75ccb0e8dd44","system_id":"levelo_inurba_marseille","lat":43.304606,"lon":5.379026,"is_reserved":false,"is_disabled":false,"rental_uris":{"android":"levelo://app?vid=3a1cafac-e8eb-494e-ad9b-75ccb0e8dd44","ios":"levelo://app?vid=3a1cafac-e8eb-494e-ad9b-75ccb0e8dd44"},"vehicle_type_id":"4","last_reported":1723568859,"current_range_meters":3600,"station_id":"ce4bgup2rcd13ifvqcn0","pricing_plan_id":"cebpf4jnsgd1na2vs0mg"},{"bike_id":"4136fdda-985e-46d0-b7d7-5062d309752c","system_id":"levelo_inurba_marseille","lat":43.324771,"lon":5.36557,"is_reserved":false,"is_disabled":false,"rental_uris":{"android":"levelo://app?vid=4136fdda-985e-46d0-b7d7-5062d309752c","ios":"levelo://app?vid=4136fdda-985e-46d0-b7d7-5062d309752c"},"vehicle_type_id":"4","last_reported":1723568859,"current_range_meters":5600,"station_id":"ce4bhs12rcd13ifvqhvg","pricing_plan_id":"cebpf4jnsgd1na2vs0mg"},{"bike_id":"c3a3e84a-9688-4ef6-9b4d-0ca863a9b77e","system_id":"levelo_inurba_marseille","lat":43.324771,"lon":5.36557,"is_reserved":false,"is_disabled":false,"rental_uris":{"android":"levelo://app?vid=c3a3e84a-9688-4ef6-9b4d-0ca863a9b77e","ios":"levelo://app?vid=c3a3e84a-9688-4ef6-9b4d-0ca863a9b77e"},"vehicle_type_id":"4","last_reported":1723568859,"current_range_meters":15600,"station_id":"ce4bhs12rcd13ifvqhvg","pricing_plan_id":"cebpf4jnsgd1na2vs0mg"},{"bike_id":"ec43ee6c-fdf1-46a8-bab9-a0712bf7de62","system_id":"levelo_inurba_marseille","lat":43.324771,"lon":5.36557,"is_reserved":false,"is_disabled":false,"rental_uris":{"android":"levelo://app?vid=ec43ee6c-fdf1-46a8-bab9-a0712bf7de62","ios":"levelo://app?vid=ec43ee6c-fdf1-46a8-bab9-a0712bf7de62"},"vehicle_type_id":"4","last_reported":1723568859,"current_range_meters":30400,"station_id":"ce4bhs12rcd13ifvqhvg","pricing_plan_id":"cebpf4jnsgd1na2vs0mg"},{"bike_id":"12b99780-2045-44f6-9a8c-7099fee7df4e","system_id":"levelo_inurba_marseille","lat":43.319935,"lon":5.381699,"is_reserved":false,"is_disabled":false,"rental_uris":{"android":"levelo://app?vid=12b99780-2045-44f6-9a8c-7099fee7df4e","ios":"levelo://app?vid=12b99780-2045-44f6-9a8c-7099fee7df4e"},"vehicle_type_id":"4","last_reported":1723568859,"current_range_meters":2800,"station_id":"ce4bhr12rcd13ifvqhpg","pricing_plan_id":"cebpf4jnsgd1na2vs0mg"},{"bike_id":"2b6d437c-e657-4ba9-87fb-1dbc83cfba1a","system_id":"levelo_inurba_marseille","lat":43.319935,"lon":5.381699,"is_reserved":false,"is_disabled":false,"rental_uris":{"android":"levelo://app?vid=2b6d437c-e657-4ba9-87fb-1dbc83cfba1a","ios":"levelo://app?vid=2b6d437c-e657-4ba9-87fb-1dbc83cfba1a"},"vehicle_type_id":"4","last_reported":1723568859,"current_range_meters":19200,"station_id":"ce4bhr12rcd13ifvqhpg","pricing_plan_id":"cebpf4jnsgd1na2vs0mg"},{"bike_id":"397eb19a-5075-4fc6-b935-ac5cd8ad919b","system_id":"levelo_inurba_marseille","lat":43.313571,"lon":5.384829,"is_reserved":false,"is_disabled":false,"rental_uris":{"android":"levelo://app?vid=397eb19a-5075-4fc6-b935-ac5cd8ad919b","ios":"levelo://app?vid=397eb19a-5075-4fc6-b935-ac5cd8ad919b"},"vehicle_type_id":"4","last_reported":1723568859,"current_range_meters":6800,"station_id":"ce4bgt92rcd13ifvqcf0","pricing_plan_id":"cebpf4jnsgd1na2vs0mg"},{"bike_id":"2d69db05-dfdc-4f94-b158-61231f65772d","system_id":"levelo_inurba_marseille","lat":43.31367,"lon":5.38492,"is_reserved":false,"is_disabled":false,"rental_uris":{"android":"levelo://app?vid=2d69db05-dfdc-4f94-b158-61231f65772d","ios":"levelo://app?vid=2d69db05-dfdc-4f94-b158-61231f65772d"},"vehicle_type_id":"4","last_reported":1723568859,"current_range_meters":0,"station_id":"ce4bgt92rcd13ifvqcf0","pricing_plan_id":"cebpf4jnsgd1na2vs0mg"},{"bike_id":"d014e156-62a0-4a6b-8c88-bd50bc96d78d","system_id":"levelo_inurba_marseille","lat":43.299378,"lon":5.365562,"is_reserved":false,"is_disabled":false,"rental_uris":{"android":"levelo://app?vid=d014e156-62a0-4a6b-8c88-bd50bc96d78d","ios":"levelo://app?vid=d014e156-62a0-4a6b-8c88-bd50bc96d78d"},"vehicle_type_id":"4","last_reported":1723568859,"current_range_meters":0,"station_id":"","pricing_plan_id":"cebpf4jnsgd1na2vs0mg"},{"bike_id":"04b3f530-c5c2-4877-89db-e451bba8d4b4","system_id":"levelo_inurba_marseille","lat":43.299222,"lon":5.365554,"is_reserved":false,"is_disabled":false,"rental_uris":{"android":"levelo://app?vid=04b3f530-c5c2-4877-89db-e451bba8d4b4","ios":"levelo://app?vid=04b3f530-c5c2-4877-89db-e451bba8d4b4"},"vehicle_type_id":"4","last_reported":1723568859,"current_range_meters":0,"station_id":"ce4bgm92rcd13ifvqbr0","pricing_plan_id":"cebpf4jnsgd1na2vs0mg"},{"bike_id":"601c1e36-5fdd-43d7-a580-625d5b127064","system_id":"levelo_inurba_marseille","lat":43.2998,"lon":5.37177,"is_reserved":false,"is_disabled":false,"rental_uris":{"android":"levelo://app?vid=601c1e36-5fdd-43d7-a580-625d5b127064","ios":"levelo://app?vid=601c1e36-5fdd-43d7-a580-625d5b127064"},"vehicle_type_id":"4","last_reported":1723568859,"current_range_meters":0,"station_id":"ce4bgr92rcd13ifvqc7g","pricing_plan_id":"cebpf4jnsgd1na2vs0mg"},{"bike_id":"d17cc84c-d64a-4321-8b4a-53cdad2c4e72","system_id":"levelo_inurba_marseille","lat":43.29971,"lon":5.37176,"is_reserved":false,"is_disabled":false,"rental_uris":{"android":"levelo://app?vid=d17cc84c-d64a-4321-8b4a-53cdad2c4e72","ios":"levelo://app?vid=d17cc84c-d64a-4321-8b4a-53cdad2c4e72"},"vehicle_type_id":"4","last_reported":1723568859,"current_range_meters":20800,"station_id":"ce4bgr92rcd13ifvqc7g","pricing_plan_id":"cebpf4jnsgd1na2vs0mg"},{"bike_id":"4462c483-6ad5-4b74-8229-63a007d9a945","system_id":"levelo_inurba_marseille","lat":43.32676,"lon":5.36719,"is_reserved":false,"is_disabled":false,"rental_uris":{"android":"levelo://app?vid=4462c483-6ad5-4b74-8229-63a007d9a945","ios":"levelo://app?vid=4462c483-6ad5-4b74-8229-63a007d9a945"},"vehicle_type_id":"4","last_reported":1723568859,"current_range_meters":16000,"station_id":"","pricing_plan_id":"cebpf4jnsgd1na2vs0mg"},{"bike_id":"cf22d0ad-39af-40de-bcda-19c062ce2f05","system_id":"levelo_inurba_marseille","lat":43.298433,"lon":5.362774,"is_reserved":false,"is_disabled":false,"rental_uris":{"android":"levelo://app?vid=cf22d0ad-39af-40de-bcda-19c062ce2f05","ios":"levelo://app?vid=cf22d0ad-39af-40de-bcda-19c062ce2f05"},"vehicle_type_id":"4","last_reported":1723568859,"current_range_meters":1200,"station_id":"ce4bgpp2rcd13ifvqc3g","pricing_plan_id":"cebpf4jnsgd1na2vs0mg"},{"bike_id":"640d968f-bd3a-486d-bd28-756260d0653f","system_id":"levelo_inurba_marseille","lat":43.298433,"lon":5.362774,"is_reserved":false,"is_disabled":false,"rental_uris":{"android":"levelo://app?vid=640d968f-bd3a-486d-bd28-756260d0653f","ios":"levelo://app?vid=640d968f-bd3a-486d-bd28-756260d0653f"},"vehicle_type_id":"4","last_reported":1723568859,"current_range_meters":1200,"station_id":"ce4bgpp2rcd13ifvqc3g","pricing_plan_id":"cebpf4jnsgd1na2vs0mg"},{"bike_id":"fdb49c74-524f-4129-ab4c-073ba7b68fe0","system_id":"levelo_inurba_marseille","lat":43.311722,"lon":5.387247,"is_reserved":false,"is_disabled":false,"rental_uris":{"android":"levelo://app?vid=fdb49c74-524f-4129-ab4c-073ba7b68fe0","ios":"levelo://app?vid=fdb49c74-524f-4129-ab4c-073ba7b68fe0"},"vehicle_type_id":"4","last_reported":1723568859,"current_range_meters":11600,"station_id":"ce4bgv12rcd13ifvqcp0","pricing_plan_id":"cebpf4jnsgd1na2vs0mg"},{"bike_id":"cb4b20b6-b06a-4ba3-a872-5210521860bc","system_id":"levelo_inurba_marseille","lat":43.299243,"lon":5.374807,"is_reserved":false,"is_disabled":false,"rental_uris":{"android":"levelo://app?vid=cb4b20b6-b06a-4ba3-a872-5210521860bc","ios":"levelo://app?vid=cb4b20b6-b06a-4ba3-a872-5210521860bc"},"vehicle_type_id":"4","last_reported":1723568859,"current_range_meters":12800,"station_id":"ce4bgjh2rcd13ifvqbg0","pricing_plan_id":"cebpf4jnsgd1na2vs0mg"},{"bike_id":"62a0f379-f615-447f-92e9-bca20fdb598d","system_id":"levelo_inurba_marseille","lat":43.29913,"lon":5.3757,"is_reserved":false,"is_disabled":false,"rental_uris":{"android":"levelo://app?vid=62a0f379-f615-447f-92e9-bca20fdb598d","ios":"levelo://app?vid=62a0f379-f615-447f-92e9-bca20fdb598d"},"vehicle_type_id":"4","last_reported":1723568859,"current_range_meters":4800,"station_id":"","pricing_plan_id":"cebpf4jnsgd1na2vs0mg"},{"bike_id":"a8061f91-efc0-4c02-a939-8099ff5ccfc4","system_id":"levelo_inurba_marseille","lat":43.297794,"lon":5.370888,"is_reserved":false,"is_disabled":false,"rental_uris":{"android":"levelo://app?vid=a8061f91-efc0-4c02-a939-8099ff5ccfc4","ios":"levelo://app?vid=a8061f91-efc0-4c02-a939-8099ff5ccfc4"},"vehicle_type_id":"4","last_reported":1723568859,"current_range_meters":1200,"station_id":"ce4bgop2rcd13ifvqc1g","pricing_plan_id":"cebpf4jnsgd1na2vs0mg"},{"bike_id":"983fcb05-07a3-4890-b618-ede606110c5e","system_id":"levelo_inurba_marseille","lat":43.297774,"lon":5.370875,"is_reserved":false,"is_disabled":false,"rental_uris":{"android":"levelo://app?vid=983fcb05-07a3-4890-b618-ede606110c5e","ios":"levelo://app?vid=983fcb05-07a3-4890-b618-ede606110c5e"},"vehicle_type_id":"4","last_reported":1723568859,"current_range_meters":0,"station_id":"ce4bgop2rcd13ifvqc1g","pricing_plan_id":"cebpf4jnsgd1na2vs0mg"},{"bike_id":"4bab3ffc-5f60-4ffd-98ae-c320fd4099d1","system_id":"levelo_inurba_marseille","lat":43.292311,"lon":5.360731,"is_reserved":false,"is_disabled":false,"rental_uris":{"android":"levelo://app?vid=4bab3ffc-5f60-4ffd-98ae-c320fd4099d1","ios":"levelo://app?vid=4bab3ffc-5f60-4ffd-98ae-c320fd4099d1"},"vehicle_type_id":"4","last_reported":1723568859,"current_range_meters":16800,"station_id":"ce4bhbh2rcd13ifvqeqg","pricing_plan_id":"cebpf4jnsgd1na2vs0mg"},{"bike_id":"d4376be8-f3cb-4977-8a93-cc8e07fb5e95","system_id":"levelo_inurba_marseille","lat":43.297163,"lon":5.365866,"is_reserved":false,"is_disabled":false,"rental_uris":{"android":"levelo://app?vid=d4376be8-f3cb-4977-8a93-cc8e07fb5e95","ios":"levelo://app?vid=d4376be8-f3cb-4977-8a93-cc8e07fb5e95"},"vehicle_type_id":"4","last_reported":1723568859,"current_range_meters":18000,"station_id":"ce4bgn12rcd13ifvqbt0","pricing_plan_id":"cebpf4jnsgd1na2vs0mg"},{"bike_id":"6bb94ef3-bf03-4ce2-a7c3-4d67b510b01e","system_id":"levelo_inurba_marseille","lat":43.297163,"lon":5.365866,"is_reserved":false,"is_disabled":false,"rental_uris":{"android":"levelo://app?vid=6bb94ef3-bf03-4ce2-a7c3-4d67b510b01e","ios":"levelo://app?vid=6bb94ef3-bf03-4ce2-a7c3-4d67b510b01e"},"vehicle_type_id":"4","last_reported":1723568859,"current_range_meters":20800,"station_id":"ce4bgn12rcd13ifvqbt0","pricing_plan_id":"cebpf4jnsgd1na2vs0mg"},{"bike_id":"70b20e79-91fb-43eb-acd2-4537c98f14f2","system_id":"levelo_inurba_marseille","lat":43.297163,"lon":5.365866,"is_reserved":false,"is_disabled":false,"rental_uris":{"android":"levelo://app?vid=70b20e79-91fb-43eb-acd2-4537c98f14f2","ios":"levelo://app?vid=70b20e79-91fb-43eb-acd2-4537c98f14f2"},"vehicle_type_id":"4","last_reported":1723568859,"current_range_meters":25200,"station_id":"ce4bgn12rcd13ifvqbt0","pricing_plan_id":"cebpf4jnsgd1na2vs0mg"},{"bike_id":"5ffef8ee-0808-4aa9-abf5-7d2fda8ff340","system_id":"levelo_inurba_marseille","lat":43.297163,"lon":5.365866,"is_reserved":false,"is_disabled":false,"rental_uris":{"android":"levelo://app?vid=5ffef8ee-0808-4aa9-abf5-7d2fda8ff340","ios":"levelo://app?vid=5ffef8ee-0808-4aa9-abf5-7d2fda8ff340"},"vehicle_type_id":"4","last_reported":1723568859,"current_range_meters":17600,"station_id":"ce4bgn12rcd13ifvqbt0","pricing_plan_id":"cebpf4jnsgd1na2vs0mg"},{"bike_id":"484bca19-86c1-43d3-a3c6-64aac6eb6b24","system_id":"levelo_inurba_marseille","lat":43.2968,"lon":5.37291,"is_reserved":false,"is_disabled":false,"rental_uris":{"android":"levelo://app?vid=484bca19-86c1-43d3-a3c6-64aac6eb6b24","ios":"levelo://app?vid=484bca19-86c1-43d3-a3c6-64aac6eb6b24"},"vehicle_type_id":"4","last_reported":1723568859,"current_range_meters":26400,"station_id":"ce4bgk12rcd13ifvqbj0","pricing_plan_id":"cebpf4jnsgd1na2vs0mg"},{"bike_id":"9fcab8bd-5317-4995-a453-249ffa95377a","system_id":"levelo_inurba_marseille","lat":43.29573,"lon":5.367355,"is_reserved":false,"is_disabled":false,"rental_uris":{"android":"levelo://app?vid=9fcab8bd-5317-4995-a453-249ffa95377a","ios":"levelo://app?vid=9fcab8bd-5317-4995-a453-249ffa95377a"},"vehicle_type_id":"4","last_reported":1723568859,"current_range_meters":12400,"station_id":"ce4bgph2rcd13ifvqc2g","pricing_plan_id":"cebpf4jnsgd1na2vs0mg"},{"bike_id":"e7153918-dff9-4d7f-9bd9-fe3fd2876949","system_id":"levelo_inurba_marseille","lat":43.29573,"lon":5.367355,"is_reserved":false,"is_disabled":false,"rental_uris":{"android":"levelo://app?vid=e7153918-dff9-4d7f-9bd9-fe3fd2876949","ios":"levelo://app?vid=e7153918-dff9-4d7f-9bd9-fe3fd2876949"},"vehicle_type_id":"4","last_reported":1723568859,"current_range_meters":0,"station_id":"ce4bgph2rcd13ifvqc2g","pricing_plan_id":"cebpf4jnsgd1na2vs0mg"},{"bike_id":"c5470f8f-0f72-4553-aca8-bd1cf1a135ad","system_id":"levelo_inurba_marseille","lat":43.309589,"lon":5.390258,"is_reserved":false,"is_disabled":false,"rental_uris":{"android":"levelo://app?vid=c5470f8f-0f72-4553-aca8-bd1cf1a135ad","ios":"levelo://app?vid=c5470f8f-0f72-4553-aca8-bd1cf1a135ad"},"vehicle_type_id":"4","last_reported":1723568859,"current_range_meters":0,"station_id":"ce4bgup2rcd13ifvqco0","pricing_plan_id":"cebpf4jnsgd1na2vs0mg"},{"bike_id":"24b21fa5-db20-42fa-9fa8-08a643ce6d29","system_id":"levelo_inurba_marseille","lat":43.29714,"lon":5.37693,"is_reserved":false,"is_disabled":false,"rental_uris":{"android":"levelo://app?vid=24b21fa5-db20-42fa-9fa8-08a643ce6d29","ios":"levelo://app?vid=24b21fa5-db20-42fa-9fa8-08a643ce6d29"},"vehicle_type_id":"4","last_reported":1723568859,"current_range_meters":0,"station_id":"ce4bgkh2rcd13ifvqbl0","pricing_plan_id":"cebpf4jnsgd1na2vs0mg"},{"bike_id":"a60a5063-40e4-4b7a-83f6-d20f0bd5326c","system_id":"levelo_inurba_marseille","lat":43.309589,"lon":5.390258,"is_reserved":false,"is_disabled":false,"rental_uris":{"android":"levelo://app?vid=a60a5063-40e4-4b7a-83f6-d20f0bd5326c","ios":"levelo://app?vid=a60a5063-40e4-4b7a-83f6-d20f0bd5326c"},"vehicle_type_id":"4","last_reported":1723568859,"current_range_meters":10800,"station_id":"ce4bgup2rcd13ifvqco0","pricing_plan_id":"cebpf4jnsgd1na2vs0mg"},{"bike_id":"f071d5bf-6199-4959-8b6e-f69414f36c68","system_id":"levelo_inurba_marseille","lat":43.309589,"lon":5.390258,"is_reserved":false,"is_disabled":false,"rental_uris":{"android":"levelo://app?vid=f071d5bf-6199-4959-8b6e-f69414f36c68","ios":"levelo://app?vid=f071d5bf-6199-4959-8b6e-f69414f36c68"},"vehicle_type_id":"4","last_reported":1723568859,"current_range_meters":19600,"station_id":"ce4bgup2rcd13ifvqco0","pricing_plan_id":"cebpf4jnsgd1na2vs0mg"},{"bike_id":"b79f811b-dc2d-441b-86e7-7a33a66b519f","system_id":"levelo_inurba_marseille","lat":43.309589,"lon":5.390258,"is_reserved":false,"is_disabled":false,"rental_uris":{"android":"levelo://app?vid=b79f811b-dc2d-441b-86e7-7a33a66b519f","ios":"levelo://app?vid=b79f811b-dc2d-441b-86e7-7a33a66b519f"},"vehicle_type_id":"4","last_reported":1723568859,"current_range_meters":0,"station_id":"ce4bgup2rcd13ifvqco0","pricing_plan_id":"cebpf4jnsgd1na2vs0mg"},{"bike_id":"074242f4-4e51-401c-a444-782d78ab3062","system_id":"levelo_inurba_marseille","lat":43.29783,"lon":5.38076,"is_reserved":false,"is_disabled":false,"rental_uris":{"android":"levelo://app?vid=074242f4-4e51-401c-a444-782d78ab3062","ios":"levelo://app?vid=074242f4-4e51-401c-a444-782d78ab3062"},"vehicle_type_id":"4","last_reported":1723568859,"current_range_meters":1200,"station_id":"ce4bgip2rcd13ifvqbb0","pricing_plan_id":"cebpf4jnsgd1na2vs0mg"},{"bike_id":"0eebde9f-6833-4692-ae1f-9e5934907181","system_id":"levelo_inurba_marseille","lat":43.298037,"lon":5.381066,"is_reserved":false,"is_disabled":false,"rental_uris":{"android":"levelo://app?vid=0eebde9f-6833-4692-ae1f-9e5934907181","ios":"levelo://app?vid=0eebde9f-6833-4692-ae1f-9e5934907181"},"vehicle_type_id":"4","last_reported":1723568859,"current_range_meters":1200,"station_id":"ce4bgip2rcd13ifvqbb0","pricing_plan_id":"cebpf4jnsgd1na2vs0mg"},{"bike_id":"0ff99b69-75b2-429f-9559-de68cae2f069","system_id":"levelo_inurba_marseille","lat":43.29634,"lon":5.3772,"is_reserved":false,"is_disabled":false,"rental_uris":{"android":"levelo://app?vid=0ff99b69-75b2-429f-9559-de68cae2f069","ios":"levelo://app?vid=0ff99b69-75b2-429f-9559-de68cae2f069"},"vehicle_type_id":"4","last_reported":1723568859,"current_range_meters":400,"station_id":"ce4bgi92rcd13ifvqb90","pricing_plan_id":"cebpf4jnsgd1na2vs0mg"},{"bike_id":"8dac5c21-fef5-49e8-99c4-73cb88bbfba4","system_id":"levelo_inurba_marseille","lat":43.296263,"lon":5.377094,"is_reserved":false,"is_disabled":false,"rental_uris":{"android":"levelo://app?vid=8dac5c21-fef5-49e8-99c4-73cb88bbfba4","ios":"levelo://app?vid=8dac5c21-fef5-49e8-99c4-73cb88bbfba4"},"vehicle_type_id":"4","last_reported":1723568859,"current_range_meters":14000,"station_id":"ce4bgi92rcd13ifvqb90","pricing_plan_id":"cebpf4jnsgd1na2vs0mg"},{"bike_id":"297ea254-693e-4d25-b76b-0d591eb2b3bc","system_id":"levelo_inurba_marseille","lat":43.299717,"lon":5.384845,"is_reserved":false,"is_disabled":false,"rental_uris":{"android":"levelo://app?vid=297ea254-693e-4d25-b76b-0d591eb2b3bc","ios":"levelo://app?vid=297ea254-693e-4d25-b76b-0d591eb2b3bc"},"vehicle_type_id":"4","last_reported":1723568859,"current_range_meters":4800,"station_id":"ce4bgj92rcd13ifvqbd0","pricing_plan_id":"cebpf4jnsgd1na2vs0mg"},{"bike_id":"85d40f1c-b988-4a4d-9024-1c53d380793f","system_id":"levelo_inurba_marseille","lat":43.295279,"lon":5.375048,"is_reserved":false,"is_disabled":false,"rental_uris":{"android":"levelo://app?vid=85d40f1c-b988-4a4d-9024-1c53d380793f","ios":"levelo://app?vid=85d40f1c-b988-4a4d-9024-1c53d380793f"},"vehicle_type_id":"4","last_reported":1723568859,"current_range_meters":7200,"station_id":"ce4bgkp2rcd13ifvqbmg","pricing_plan_id":"cebpf4jnsgd1na2vs0mg"},{"bike_id":"17e5187e-2eeb-4fa5-922c-1b11d85641a5","system_id":"levelo_inurba_marseille","lat":43.299717,"lon":5.384845,"is_reserved":false,"is_disabled":false,"rental_uris":{"android":"levelo://app?vid=17e5187e-2eeb-4fa5-922c-1b11d85641a5","ios":"levelo://app?vid=17e5187e-2eeb-4fa5-922c-1b11d85641a5"},"vehicle_type_id":"4","last_reported":1723568859,"current_range_meters":800,"station_id":"ce4bgj92rcd13ifvqbd0","pricing_plan_id":"cebpf4jnsgd1na2vs0mg"},{"bike_id":"86d5efe9-b58d-498f-b193-2cee84ff2ea4","system_id":"levelo_inurba_marseille","lat":43.29521,"lon":5.37504,"is_reserved":false,"is_disabled":false,"rental_uris":{"android":"levelo://app?vid=86d5efe9-b58d-498f-b193-2cee84ff2ea4","ios":"levelo://app?vid=86d5efe9-b58d-498f-b193-2cee84ff2ea4"},"vehicle_type_id":"4","last_reported":1723568859,"current_range_meters":22800,"station_id":"ce4bgkp2rcd13ifvqbmg","pricing_plan_id":"cebpf4jnsgd1na2vs0mg"},{"bike_id":"53c92003-1009-4f43-be8d-88bed8cd0537","system_id":"levelo_inurba_marseille","lat":43.299724,"lon":5.384848,"is_reserved":false,"is_disabled":false,"rental_uris":{"android":"levelo://app?vid=53c92003-1009-4f43-be8d-88bed8cd0537","ios":"levelo://app?vid=53c92003-1009-4f43-be8d-88bed8cd0537"},"vehicle_type_id":"4","last_reported":1723568859,"current_range_meters":0,"station_id":"ce4bgj92rcd13ifvqbd0","pricing_plan_id":"cebpf4jnsgd1na2vs0mg"},{"bike_id":"78b6cf62-ae65-48f6-a09e-a22abf2e9aa8","system_id":"levelo_inurba_marseille","lat":43.301396,"lon":5.387812,"is_reserved":false,"is_disabled":false,"rental_uris":{"android":"levelo://app?vid=78b6cf62-ae65-48f6-a09e-a22abf2e9aa8","ios":"levelo://app?vid=78b6cf62-ae65-48f6-a09e-a22abf2e9aa8"},"vehicle_type_id":"4","last_reported":1723568859,"current_range_meters":6000,"station_id":"ce4bghh2rcd13ifvqb60","pricing_plan_id":"cebpf4jnsgd1na2vs0mg"},{"bike_id":"325f94c1-80d6-4100-abf9-40bafc379fae","system_id":"levelo_inurba_marseille","lat":43.32367,"lon":5.388836,"is_reserved":false,"is_disabled":false,"rental_uris":{"android":"levelo://app?vid=325f94c1-80d6-4100-abf9-40bafc379fae","ios":"levelo://app?vid=325f94c1-80d6-4100-abf9-40bafc379fae"},"vehicle_type_id":"4","last_reported":1723568859,"current_range_meters":400,"station_id":"ce4bhqp2rcd13ifvqhog","pricing_plan_id":"cebpf4jnsgd1na2vs0mg"},{"bike_id":"ea3ee229-4a96-40d7-8319-acad7fdb35f7","system_id":"levelo_inurba_marseille","lat":43.29598,"lon":5.38101,"is_reserved":false,"is_disabled":false,"rental_uris":{"android":"levelo://app?vid=ea3ee229-4a96-40d7-8319-acad7fdb35f7","ios":"levelo://app?vid=ea3ee229-4a96-40d7-8319-acad7fdb35f7"},"vehicle_type_id":"4","last_reported":1723568859,"current_range_meters":0,"station_id":"ce4bgl12rcd13ifvqbo0","pricing_plan_id":"cebpf4jnsgd1na2vs0mg"},{"bike_id":"58fbe331-6216-41f0-8a63-ea7782274873","system_id":"levelo_inurba_marseille","lat":43.29283,"lon":5.36849,"is_reserved":false,"is_disabled":false,"rental_uris":{"android":"levelo://app?vid=58fbe331-6216-41f0-8a63-ea7782274873","ios":"levelo://app?vid=58fbe331-6216-41f0-8a63-ea7782274873"},"vehicle_type_id":"4","last_reported":1723568859,"current_range_meters":400,"station_id":"ce4bhbp2rcd13ifvqesg","pricing_plan_id":"cebpf4jnsgd1na2vs0mg"},{"bike_id":"5165456b-3150-44bb-b3f2-131279ae2139","system_id":"levelo_inurba_marseille","lat":43.292749,"lon":5.368398,"is_reserved":false,"is_disabled":false,"rental_uris":{"android":"levelo://app?vid=5165456b-3150-44bb-b3f2-131279ae2139","ios":"levelo://app?vid=5165456b-3150-44bb-b3f2-131279ae2139"},"vehicle_type_id":"4","last_reported":1723568859,"current_range_meters":800,"station_id":"ce4bhbp2rcd13ifvqesg","pricing_plan_id":"cebpf4jnsgd1na2vs0mg"},{"bike_id":"da133975-3bcd-4f7e-8f06-d21ae9cb02a2","system_id":"levelo_inurba_marseille","lat":43.29276,"lon":5.36852,"is_reserved":false,"is_disabled":false,"rental_uris":{"android":"levelo://app?vid=da133975-3bcd-4f7e-8f06-d21ae9cb02a2","ios":"levelo://app?vid=da133975-3bcd-4f7e-8f06-d21ae9cb02a2"},"vehicle_type_id":"4","last_reported":1723568859,"current_range_meters":0,"station_id":"ce4bhbp2rcd13ifvqesg","pricing_plan_id":"cebpf4jnsgd1na2vs0mg"},{"bike_id":"aa005db5-8738-41fd-ba29-341ca0675e80","system_id":"levelo_inurba_marseille","lat":43.29275,"lon":5.36844,"is_reserved":false,"is_disabled":false,"rental_uris":{"android":"levelo://app?vid=aa005db5-8738-41fd-ba29-341ca0675e80","ios":"levelo://app?vid=aa005db5-8738-41fd-ba29-341ca0675e80"},"vehicle_type_id":"4","last_reported":1723568859,"current_range_meters":30000,"station_id":"ce4bhbp2rcd13ifvqesg","pricing_plan_id":"cebpf4jnsgd1na2vs0mg"},{"bike_id":"5f7d5521-594e-49c8-83a0-6ac40a5dc14c","system_id":"levelo_inurba_marseille","lat":43.292748,"lon":5.368404,"is_reserved":false,"is_disabled":false,"rental_uris":{"android":"levelo://app?vid=5f7d5521-594e-49c8-83a0-6ac40a5dc14c","ios":"levelo://app?vid=5f7d5521-594e-49c8-83a0-6ac40a5dc14c"},"vehicle_type_id":"4","last_reported":1723568859,"current_range_meters":0,"station_id":"","pricing_plan_id":"cebpf4jnsgd1na2vs0mg"},{"bike_id":"96543af9-7889-48bf-9d6b-0217d99ec8c1","system_id":"levelo_inurba_marseille","lat":43.2927,"lon":5.36842,"is_reserved":false,"is_disabled":false,"rental_uris":{"android":"levelo://app?vid=96543af9-7889-48bf-9d6b-0217d99ec8c1","ios":"levelo://app?vid=96543af9-7889-48bf-9d6b-0217d99ec8c1"},"vehicle_type_id":"4","last_reported":1723568859,"current_range_meters":0,"station_id":"ce4bhbp2rcd13ifvqesg","pricing_plan_id":"cebpf4jnsgd1na2vs0mg"},{"bike_id":"eb4610b3-963c-4f9e-9e52-b1f62f47a354","system_id":"levelo_inurba_marseille","lat":43.32387,"lon":5.38996,"is_reserved":false,"is_disabled":false,"rental_uris":{"android":"levelo://app?vid=eb4610b3-963c-4f9e-9e52-b1f62f47a354","ios":"levelo://app?vid=eb4610b3-963c-4f9e-9e52-b1f62f47a354"},"vehicle_type_id":"4","last_reported":1723568859,"current_range_meters":2400,"station_id":"","pricing_plan_id":"cebpf4jnsgd1na2vs0mg"},{"bike_id":"2ae6292f-a997-4608-9e11-38cbaaaf1a69","system_id":"levelo_inurba_marseille","lat":43.305364,"lon":5.384119,"is_reserved":false,"is_disabled":false,"rental_uris":{"android":"levelo://app?vid=2ae6292f-a997-4608-9e11-38cbaaaf1a69","ios":"levelo://app?vid=2ae6292f-a997-4608-9e11-38cbaaaf1a69"},"vehicle_type_id":"4","last_reported":1723568859,"current_range_meters":12400,"station_id":"ce4bgg92rcd13ifvqb30","pricing_plan_id":"cebpf4jnsgd1na2vs0mg"},{"bike_id":"92ced45b-2469-4ffd-bed2-b67bde85ffdf","system_id":"levelo_inurba_marseille","lat":43.29307,"lon":5.37458,"is_reserved":false,"is_disabled":false,"rental_uris":{"android":"levelo://app?vid=92ced45b-2469-4ffd-bed2-b67bde85ffdf","ios":"levelo://app?vid=92ced45b-2469-4ffd-bed2-b67bde85ffdf"},"vehicle_type_id":"4","last_reported":1723568859,"current_range_meters":0,"station_id":"ce4bgi12rcd13ifvqb70","pricing_plan_id":"cebpf4jnsgd1na2vs0mg"},{"bike_id":"1680e895-6100-4226-bf3c-fc09e9193d2b","system_id":"levelo_inurba_marseille","lat":43.293009,"lon":5.374584,"is_reserved":false,"is_disabled":false,"rental_uris":{"android":"levelo://app?vid=1680e895-6100-4226-bf3c-fc09e9193d2b","ios":"levelo://app?vid=1680e895-6100-4226-bf3c-fc09e9193d2b"},"vehicle_type_id":"4","last_reported":1723568859,"current_range_meters":0,"station_id":"ce4bgi12rcd13ifvqb70","pricing_plan_id":"cebpf4jnsgd1na2vs0mg"},{"bike_id":"6df062a1-593c-41c2-8d6a-419b62c026cd","system_id":"levelo_inurba_marseille","lat":43.293009,"lon":5.374584,"is_reserved":false,"is_disabled":false,"rental_uris":{"android":"levelo://app?vid=6df062a1-593c-41c2-8d6a-419b62c026cd","ios":"levelo://app?vid=6df062a1-593c-41c2-8d6a-419b62c026cd"},"vehicle_type_id":"4","last_reported":1723568859,"current_range_meters":16400,"station_id":"ce4bgi12rcd13ifvqb70","pricing_plan_id":"cebpf4jnsgd1na2vs0mg"},{"bike_id":"26f69eaf-2c1c-4287-9271-f04228d723c5","system_id":"levelo_inurba_marseille","lat":43.305994,"lon":5.393687,"is_reserved":false,"is_disabled":false,"rental_uris":{"android":"levelo://app?vid=26f69eaf-2c1c-4287-9271-f04228d723c5","ios":"levelo://app?vid=26f69eaf-2c1c-4287-9271-f04228d723c5"},"vehicle_type_id":"4","last_reported":1723568859,"current_range_meters":23200,"station_id":"ce4bh0p2rcd13ifvqd80","pricing_plan_id":"cebpf4jnsgd1na2vs0mg"},{"bike_id":"b304c2b5-3f2c-4e94-bb12-26fea858ebc5","system_id":"levelo_inurba_marseille","lat":43.292923,"lon":5.37456,"is_reserved":false,"is_disabled":false,"rental_uris":{"android":"levelo://app?vid=b304c2b5-3f2c-4e94-bb12-26fea858ebc5","ios":"levelo://app?vid=b304c2b5-3f2c-4e94-bb12-26fea858ebc5"},"vehicle_type_id":"4","last_reported":1723568859,"current_range_meters":0,"station_id":"ce4bgi12rcd13ifvqb70","pricing_plan_id":"cebpf4jnsgd1na2vs0mg"},{"bike_id":"41dec2ff-f3bf-48dd-a56e-d5b0b2886304","system_id":"levelo_inurba_marseille","lat":43.293009,"lon":5.374584,"is_reserved":false,"is_disabled":false,"rental_uris":{"android":"levelo://app?vid=41dec2ff-f3bf-48dd-a56e-d5b0b2886304","ios":"levelo://app?vid=41dec2ff-f3bf-48dd-a56e-d5b0b2886304"},"vehicle_type_id":"4","last_reported":1723568859,"current_range_meters":0,"station_id":"ce4bgi12rcd13ifvqb70","pricing_plan_id":"cebpf4jnsgd1na2vs0mg"},{"bike_id":"5a4253cb-30f4-4a38-9c0e-623f7a8e7574","system_id":"levelo_inurba_marseille","lat":43.2936,"lon":5.37835,"is_reserved":false,"is_disabled":false,"rental_uris":{"android":"levelo://app?vid=5a4253cb-30f4-4a38-9c0e-623f7a8e7574","ios":"levelo://app?vid=5a4253cb-30f4-4a38-9c0e-623f7a8e7574"},"vehicle_type_id":"4","last_reported":1723568859,"current_range_meters":29600,"station_id":"ce4bgjh2rcd13ifvqbf0","pricing_plan_id":"cebpf4jnsgd1na2vs0mg"},{"bike_id":"98f3cd9a-bade-457f-90a4-8e3c33e933e1","system_id":"levelo_inurba_marseille","lat":43.30297,"lon":5.392,"is_reserved":false,"is_disabled":false,"rental_uris":{"android":"levelo://app?vid=98f3cd9a-bade-457f-90a4-8e3c33e933e1","ios":"levelo://app?vid=98f3cd9a-bade-457f-90a4-8e3c33e933e1"},"vehicle_type_id":"4","last_reported":1723568859,"current_range_meters":14000,"station_id":"ce4bgkh2rcd13ifvqbk0","pricing_plan_id":"cebpf4jnsgd1na2vs0mg"},{"bike_id":"fd056494-1ca0-48ee-8331-d1e443f55afc","system_id":"levelo_inurba_marseille","lat":43.32608,"lon":5.38893,"is_reserved":false,"is_disabled":false,"rental_uris":{"android":"levelo://app?vid=fd056494-1ca0-48ee-8331-d1e443f55afc","ios":"levelo://app?vid=fd056494-1ca0-48ee-8331-d1e443f55afc"},"vehicle_type_id":"4","last_reported":1723568859,"current_range_meters":19600,"station_id":"","pricing_plan_id":"cebpf4jnsgd1na2vs0mg"},{"bike_id":"58a2987f-0a5e-4d81-87ef-5fbeea58e2c2","system_id":"levelo_inurba_marseille","lat":43.292311,"lon":5.360731,"is_reserved":false,"is_disabled":false,"rental_uris":{"android":"levelo://app?vid=58a2987f-0a5e-4d81-87ef-5fbeea58e2c2","ios":"levelo://app?vid=58a2987f-0a5e-4d81-87ef-5fbeea58e2c2"},"vehicle_type_id":"4","last_reported":1723568859,"current_range_meters":27200,"station_id":"ce4bhbh2rcd13ifvqeqg","pricing_plan_id":"cebpf4jnsgd1na2vs0mg"},{"bike_id":"269ceb84-0f20-4db7-8577-9b5085435b47","system_id":"levelo_inurba_marseille","lat":43.29229,"lon":5.36052,"is_reserved":false,"is_disabled":false,"rental_uris":{"android":"levelo://app?vid=269ceb84-0f20-4db7-8577-9b5085435b47","ios":"levelo://app?vid=269ceb84-0f20-4db7-8577-9b5085435b47"},"vehicle_type_id":"4","last_reported":1723568859,"current_range_meters":6000,"station_id":"ce4bhbh2rcd13ifvqeqg","pricing_plan_id":"cebpf4jnsgd1na2vs0mg"},{"bike_id":"700eb501-c1d8-49d5-b2e8-c187c41e76a6","system_id":"levelo_inurba_marseille","lat":43.292311,"lon":5.360731,"is_reserved":false,"is_disabled":false,"rental_uris":{"android":"levelo://app?vid=700eb501-c1d8-49d5-b2e8-c187c41e76a6","ios":"levelo://app?vid=700eb501-c1d8-49d5-b2e8-c187c41e76a6"},"vehicle_type_id":"4","last_reported":1723568859,"current_range_meters":22000,"station_id":"ce4bhbh2rcd13ifvqeqg","pricing_plan_id":"cebpf4jnsgd1na2vs0mg"},{"bike_id":"01571dad-db22-4fe2-a3fd-c735bc8332a2","system_id":"levelo_inurba_marseille","lat":43.292311,"lon":5.360731,"is_reserved":false,"is_disabled":false,"rental_uris":{"android":"levelo://app?vid=01571dad-db22-4fe2-a3fd-c735bc8332a2","ios":"levelo://app?vid=01571dad-db22-4fe2-a3fd-c735bc8332a2"},"vehicle_type_id":"4","last_reported":1723568859,"current_range_meters":14000,"station_id":"ce4bhbh2rcd13ifvqeqg","pricing_plan_id":"cebpf4jnsgd1na2vs0mg"},{"bike_id":"d5950496-15c2-4a3d-b5c0-c6bbe45f66e4","system_id":"levelo_inurba_marseille","lat":43.30085,"lon":5.390856,"is_reserved":false,"is_disabled":false,"rental_uris":{"android":"levelo://app?vid=d5950496-15c2-4a3d-b5c0-c6bbe45f66e4","ios":"levelo://app?vid=d5950496-15c2-4a3d-b5c0-c6bbe45f66e4"},"vehicle_type_id":"4","last_reported":1723568859,"current_range_meters":8400,"station_id":"ce4bh192rcd13ifvqdb0","pricing_plan_id":"cebpf4jnsgd1na2vs0mg"},{"bike_id":"49204d73-6a09-43a6-8441-cb5af3a4f17d","system_id":"levelo_inurba_marseille","lat":43.325646,"lon":5.389989,"is_reserved":false,"is_disabled":false,"rental_uris":{"android":"levelo://app?vid=49204d73-6a09-43a6-8441-cb5af3a4f17d","ios":"levelo://app?vid=49204d73-6a09-43a6-8441-cb5af3a4f17d"},"vehicle_type_id":"4","last_reported":1723568859,"current_range_meters":7600,"station_id":"","pricing_plan_id":"cebpf4jnsgd1na2vs0mg"},{"bike_id":"aad93fb1-899d-49d8-a13b-395ab2811a9c","system_id":"levelo_inurba_marseille","lat":43.31367,"lon":5.39601,"is_reserved":false,"is_disabled":false,"rental_uris":{"android":"levelo://app?vid=aad93fb1-899d-49d8-a13b-395ab2811a9c","ios":"levelo://app?vid=aad93fb1-899d-49d8-a13b-395ab2811a9c"},"vehicle_type_id":"4","last_reported":1723568859,"current_range_meters":23600,"station_id":"","pricing_plan_id":"cebpf4jnsgd1na2vs0mg"},{"bike_id":"25ade398-fde1-4e3c-a86a-4e55e8efde4c","system_id":"levelo_inurba_marseille","lat":43.291675,"lon":5.371583,"is_reserved":false,"is_disabled":false,"rental_uris":{"android":"levelo://app?vid=25ade398-fde1-4e3c-a86a-4e55e8efde4c","ios":"levelo://app?vid=25ade398-fde1-4e3c-a86a-4e55e8efde4c"},"vehicle_type_id":"4","last_reported":1723568859,"current_range_meters":5200,"station_id":"ce4bha92rcd13ifvqeh0","pricing_plan_id":"cebpf4jnsgd1na2vs0mg"},{"bike_id":"62bbbe2e-71fa-4931-92fc-8a9810f68d14","system_id":"levelo_inurba_marseille","lat":43.292005,"lon":5.357875,"is_reserved":false,"is_disabled":false,"rental_uris":{"android":"levelo://app?vid=62bbbe2e-71fa-4931-92fc-8a9810f68d14","ios":"levelo://app?vid=62bbbe2e-71fa-4931-92fc-8a9810f68d14"},"vehicle_type_id":"4","last_reported":1723568859,"current_range_meters":30800,"station_id":"ce4bhb12rcd13ifvqel0","pricing_plan_id":"cebpf4jnsgd1na2vs0mg"},{"bike_id":"2700180e-7a0a-420e-a035-eb41bc1e4288","system_id":"levelo_inurba_marseille","lat":43.292005,"lon":5.357875,"is_reserved":false,"is_disabled":false,"rental_uris":{"android":"levelo://app?vid=2700180e-7a0a-420e-a035-eb41bc1e4288","ios":"levelo://app?vid=2700180e-7a0a-420e-a035-eb41bc1e4288"},"vehicle_type_id":"4","last_reported":1723568859,"current_range_meters":30000,"station_id":"ce4bhb12rcd13ifvqel0","pricing_plan_id":"cebpf4jnsgd1na2vs0mg"},{"bike_id":"73b47ee6-9b53-419b-99f6-e4d81f18f7e8","system_id":"levelo_inurba_marseille","lat":43.29196,"lon":5.35796,"is_reserved":false,"is_disabled":false,"rental_uris":{"android":"levelo://app?vid=73b47ee6-9b53-419b-99f6-e4d81f18f7e8","ios":"levelo://app?vid=73b47ee6-9b53-419b-99f6-e4d81f18f7e8"},"vehicle_type_id":"4","last_reported":1723568859,"current_range_meters":30800,"station_id":"ce4bhb12rcd13ifvqel0","pricing_plan_id":"cebpf4jnsgd1na2vs0mg"},{"bike_id":"9db976e7-189d-4df9-b5a3-4072a6a5b565","system_id":"levelo_inurba_marseille","lat":43.313291,"lon":5.396838,"is_reserved":false,"is_disabled":false,"rental_uris":{"android":"levelo://app?vid=9db976e7-189d-4df9-b5a3-4072a6a5b565","ios":"levelo://app?vid=9db976e7-189d-4df9-b5a3-4072a6a5b565"},"vehicle_type_id":"4","last_reported":1723568859,"current_range_meters":14400,"station_id":"ce4bgvp2rcd13ifvqcu0","pricing_plan_id":"cebpf4jnsgd1na2vs0mg"},{"bike_id":"1e3f3d28-f929-4aef-bf37-ac2e50e78f13","system_id":"levelo_inurba_marseille","lat":43.29193,"lon":5.35803,"is_reserved":false,"is_disabled":false,"rental_uris":{"android":"levelo://app?vid=1e3f3d28-f929-4aef-bf37-ac2e50e78f13","ios":"levelo://app?vid=1e3f3d28-f929-4aef-bf37-ac2e50e78f13"},"vehicle_type_id":"4","last_reported":1723568859,"current_range_meters":31200,"station_id":"ce4bhb12rcd13ifvqel0","pricing_plan_id":"cebpf4jnsgd1na2vs0mg"},{"bike_id":"a666139f-537a-4efd-925e-b4d0bf0f97d6","system_id":"levelo_inurba_marseille","lat":43.313291,"lon":5.396838,"is_reserved":false,"is_disabled":false,"rental_uris":{"android":"levelo://app?vid=a666139f-537a-4efd-925e-b4d0bf0f97d6","ios":"levelo://app?vid=a666139f-537a-4efd-925e-b4d0bf0f97d6"},"vehicle_type_id":"4","last_reported":1723568859,"current_range_meters":26800,"station_id":"ce4bgvp2rcd13ifvqcu0","pricing_plan_id":"cebpf4jnsgd1na2vs0mg"},{"bike_id":"9d4b68a5-c93f-4844-a235-5ff4a055b660","system_id":"levelo_inurba_marseille","lat":43.292385,"lon":5.37767,"is_reserved":false,"is_disabled":false,"rental_uris":{"android":"levelo://app?vid=9d4b68a5-c93f-4844-a235-5ff4a055b660","ios":"levelo://app?vid=9d4b68a5-c93f-4844-a235-5ff4a055b660"},"vehicle_type_id":"4","last_reported":1723568859,"current_range_meters":0,"station_id":"","pricing_plan_id":"cebpf4jnsgd1na2vs0mg"},{"bike_id":"dbbf7b82-fe78-4c5a-8846-ca08b7882308","system_id":"levelo_inurba_marseille","lat":43.292005,"lon":5.357875,"is_reserved":false,"is_disabled":false,"rental_uris":{"android":"levelo://app?vid=dbbf7b82-fe78-4c5a-8846-ca08b7882308","ios":"levelo://app?vid=dbbf7b82-fe78-4c5a-8846-ca08b7882308"},"vehicle_type_id":"4","last_reported":1723568859,"current_range_meters":31600,"station_id":"ce4bhb12rcd13ifvqel0","pricing_plan_id":"cebpf4jnsgd1na2vs0mg"},{"bike_id":"f477a7d2-a3df-469f-9aeb-2fd06071025b","system_id":"levelo_inurba_marseille","lat":43.2919,"lon":5.35802,"is_reserved":false,"is_disabled":false,"rental_uris":{"android":"levelo://app?vid=f477a7d2-a3df-469f-9aeb-2fd06071025b","ios":"levelo://app?vid=f477a7d2-a3df-469f-9aeb-2fd06071025b"},"vehicle_type_id":"4","last_reported":1723568859,"current_range_meters":24000,"station_id":"ce4bhb12rcd13ifvqel0","pricing_plan_id":"cebpf4jnsgd1na2vs0mg"},{"bike_id":"2d251220-d0a1-4ad3-9d85-7ccc50b31030","system_id":"levelo_inurba_marseille","lat":43.2919,"lon":5.35796,"is_reserved":false,"is_disabled":false,"rental_uris":{"android":"levelo://app?vid=2d251220-d0a1-4ad3-9d85-7ccc50b31030","ios":"levelo://app?vid=2d251220-d0a1-4ad3-9d85-7ccc50b31030"},"vehicle_type_id":"4","last_reported":1723568859,"current_range_meters":31200,"station_id":"ce4bhb12rcd13ifvqel0","pricing_plan_id":"cebpf4jnsgd1na2vs0mg"},{"bike_id":"b18a6d52-8c00-47a5-8cc5-39d1bf76767e","system_id":"levelo_inurba_marseille","lat":43.29189,"lon":5.35795,"is_reserved":false,"is_disabled":false,"rental_uris":{"android":"levelo://app?vid=b18a6d52-8c00-47a5-8cc5-39d1bf76767e","ios":"levelo://app?vid=b18a6d52-8c00-47a5-8cc5-39d1bf76767e"},"vehicle_type_id":"4","last_reported":1723568859,"current_range_meters":31200,"station_id":"ce4bhb12rcd13ifvqel0","pricing_plan_id":"cebpf4jnsgd1na2vs0mg"},{"bike_id":"a739aad7-b732-458a-9cc0-b05cbe1e2f0e","system_id":"levelo_inurba_marseille","lat":43.313291,"lon":5.396838,"is_reserved":false,"is_disabled":false,"rental_uris":{"android":"levelo://app?vid=a739aad7-b732-458a-9cc0-b05cbe1e2f0e","ios":"levelo://app?vid=a739aad7-b732-458a-9cc0-b05cbe1e2f0e"},"vehicle_type_id":"4","last_reported":1723568859,"current_range_meters":12800,"station_id":"ce4bgvp2rcd13ifvqcu0","pricing_plan_id":"cebpf4jnsgd1na2vs0mg"},{"bike_id":"b5392e86-56a3-4d9f-a510-feb59383cc02","system_id":"levelo_inurba_marseille","lat":43.313291,"lon":5.396838,"is_reserved":false,"is_disabled":false,"rental_uris":{"android":"levelo://app?vid=b5392e86-56a3-4d9f-a510-feb59383cc02","ios":"levelo://app?vid=b5392e86-56a3-4d9f-a510-feb59383cc02"},"vehicle_type_id":"4","last_reported":1723568859,"current_range_meters":0,"station_id":"ce4bgvp2rcd13ifvqcu0","pricing_plan_id":"cebpf4jnsgd1na2vs0mg"},{"bike_id":"b6c6e921-d13a-4804-a886-ded7faebd8ad","system_id":"levelo_inurba_marseille","lat":43.291994,"lon":5.357886,"is_reserved":false,"is_disabled":false,"rental_uris":{"android":"levelo://app?vid=b6c6e921-d13a-4804-a886-ded7faebd8ad","ios":"levelo://app?vid=b6c6e921-d13a-4804-a886-ded7faebd8ad"},"vehicle_type_id":"4","last_reported":1723568859,"current_range_meters":27600,"station_id":"ce4bhb12rcd13ifvqel0","pricing_plan_id":"cebpf4jnsgd1na2vs0mg"},{"bike_id":"b1239334-6997-4098-845b-c67c152f6d5e","system_id":"levelo_inurba_marseille","lat":43.313291,"lon":5.396838,"is_reserved":false,"is_disabled":false,"rental_uris":{"android":"levelo://app?vid=b1239334-6997-4098-845b-c67c152f6d5e","ios":"levelo://app?vid=b1239334-6997-4098-845b-c67c152f6d5e"},"vehicle_type_id":"4","last_reported":1723568859,"current_range_meters":5600,"station_id":"ce4bgvp2rcd13ifvqcu0","pricing_plan_id":"cebpf4jnsgd1na2vs0mg"},{"bike_id":"4b3ff64c-8d7f-4f8b-83ea-fe105533f62f","system_id":"levelo_inurba_marseille","lat":43.29529,"lon":5.385581,"is_reserved":false,"is_disabled":false,"rental_uris":{"android":"levelo://app?vid=4b3ff64c-8d7f-4f8b-83ea-fe105533f62f","ios":"levelo://app?vid=4b3ff64c-8d7f-4f8b-83ea-fe105533f62f"},"vehicle_type_id":"4","last_reported":1723568859,"current_range_meters":6800,"station_id":"ce4bgih2rcd13ifvqba0","pricing_plan_id":"cebpf4jnsgd1na2vs0mg"},{"bike_id":"1fef1d5f-d296-4bef-87c8-65d1ba7b01b8","system_id":"levelo_inurba_marseille","lat":43.290779,"lon":5.371482,"is_reserved":false,"is_disabled":false,"rental_uris":{"android":"levelo://app?vid=1fef1d5f-d296-4bef-87c8-65d1ba7b01b8","ios":"levelo://app?vid=1fef1d5f-d296-4bef-87c8-65d1ba7b01b8"},"vehicle_type_id":"4","last_reported":1723568859,"current_range_meters":27600,"station_id":"ce4bh5p2rcd13ifvqe4g","pricing_plan_id":"cebpf4jnsgd1na2vs0mg"},{"bike_id":"3a612bb9-0d5e-4424-a658-c470f9e8549b","system_id":"levelo_inurba_marseille","lat":43.302008,"lon":5.394694,"is_reserved":false,"is_disabled":false,"rental_uris":{"android":"levelo://app?vid=3a612bb9-0d5e-4424-a658-c470f9e8549b","ios":"levelo://app?vid=3a612bb9-0d5e-4424-a658-c470f9e8549b"},"vehicle_type_id":"4","last_reported":1723568859,"current_range_meters":400,"station_id":"ce4bh0p2rcd13ifvqd70","pricing_plan_id":"cebpf4jnsgd1na2vs0mg"},{"bike_id":"6d6198f7-ae63-4919-97b9-7337fecd4a0b","system_id":"levelo_inurba_marseille","lat":43.290624,"lon":5.359245,"is_reserved":false,"is_disabled":false,"rental_uris":{"android":"levelo://app?vid=6d6198f7-ae63-4919-97b9-7337fecd4a0b","ios":"levelo://app?vid=6d6198f7-ae63-4919-97b9-7337fecd4a0b"},"vehicle_type_id":"4","last_reported":1723568859,"current_range_meters":1200,"station_id":"ce4bha92rcd13ifvqeg0","pricing_plan_id":"cebpf4jnsgd1na2vs0mg"},{"bike_id":"4b953648-aa99-45c8-8224-81dc540aec9b","system_id":"levelo_inurba_marseille","lat":43.294153,"lon":5.386305,"is_reserved":false,"is_disabled":false,"rental_uris":{"android":"levelo://app?vid=4b953648-aa99-45c8-8224-81dc540aec9b","ios":"levelo://app?vid=4b953648-aa99-45c8-8224-81dc540aec9b"},"vehicle_type_id":"4","last_reported":1723568859,"current_range_meters":24800,"station_id":"ce4bh2h2rcd13ifvqdh0","pricing_plan_id":"cebpf4jnsgd1na2vs0mg"},{"bike_id":"8af4dab7-aa67-40a6-a386-a3e8900dc801","system_id":"levelo_inurba_marseille","lat":43.294162,"lon":5.386292,"is_reserved":false,"is_disabled":false,"rental_uris":{"android":"levelo://app?vid=8af4dab7-aa67-40a6-a386-a3e8900dc801","ios":"levelo://app?vid=8af4dab7-aa67-40a6-a386-a3e8900dc801"},"vehicle_type_id":"4","last_reported":1723568859,"current_range_meters":0,"station_id":"ce4bh2h2rcd13ifvqdh0","pricing_plan_id":"cebpf4jnsgd1na2vs0mg"},{"bike_id":"50ac58ec-9553-43c5-9fff-d794aefe2e33","system_id":"levelo_inurba_marseille","lat":43.294153,"lon":5.386305,"is_reserved":false,"is_disabled":false,"rental_uris":{"android":"levelo://app?vid=50ac58ec-9553-43c5-9fff-d794aefe2e33","ios":"levelo://app?vid=50ac58ec-9553-43c5-9fff-d794aefe2e33"},"vehicle_type_id":"4","last_reported":1723568859,"current_range_meters":6000,"station_id":"ce4bh2h2rcd13ifvqdh0","pricing_plan_id":"cebpf4jnsgd1na2vs0mg"},{"bike_id":"dce6f868-d769-44cc-8b15-32fd806c6131","system_id":"levelo_inurba_marseille","lat":43.294153,"lon":5.386305,"is_reserved":false,"is_disabled":false,"rental_uris":{"android":"levelo://app?vid=dce6f868-d769-44cc-8b15-32fd806c6131","ios":"levelo://app?vid=dce6f868-d769-44cc-8b15-32fd806c6131"},"vehicle_type_id":"4","last_reported":1723568859,"current_range_meters":4000,"station_id":"ce4bh2h2rcd13ifvqdh0","pricing_plan_id":"cebpf4jnsgd1na2vs0mg"},{"bike_id":"5725c2b0-f4ab-45e7-b5fa-b5eeea261413","system_id":"levelo_inurba_marseille","lat":43.294153,"lon":5.386305,"is_reserved":false,"is_disabled":false,"rental_uris":{"android":"levelo://app?vid=5725c2b0-f4ab-45e7-b5fa-b5eeea261413","ios":"levelo://app?vid=5725c2b0-f4ab-45e7-b5fa-b5eeea261413"},"vehicle_type_id":"4","last_reported":1723568859,"current_range_meters":28800,"station_id":"ce4bh2h2rcd13ifvqdh0","pricing_plan_id":"cebpf4jnsgd1na2vs0mg"},{"bike_id":"33346382-fc46-440a-8277-fe664d26d360","system_id":"levelo_inurba_marseille","lat":43.29031,"lon":5.37566,"is_reserved":false,"is_disabled":false,"rental_uris":{"android":"levelo://app?vid=33346382-fc46-440a-8277-fe664d26d360","ios":"levelo://app?vid=33346382-fc46-440a-8277-fe664d26d360"},"vehicle_type_id":"4","last_reported":1723568859,"current_range_meters":9200,"station_id":"ce4bh692rcd13ifvqe90","pricing_plan_id":"cebpf4jnsgd1na2vs0mg"},{"bike_id":"100085b7-a958-433a-86a2-1dff5feaac47","system_id":"levelo_inurba_marseille","lat":43.289184,"lon":5.366408,"is_reserved":false,"is_disabled":false,"rental_uris":{"android":"levelo://app?vid=100085b7-a958-433a-86a2-1dff5feaac47","ios":"levelo://app?vid=100085b7-a958-433a-86a2-1dff5feaac47"},"vehicle_type_id":"4","last_reported":1723568859,"current_range_meters":0,"station_id":"ce4bhap2rcd13ifvqek0","pricing_plan_id":"cebpf4jnsgd1na2vs0mg"},{"bike_id":"497c421b-fe5b-40ce-8649-20d4e99a3a2c","system_id":"levelo_inurba_marseille","lat":43.289468,"lon":5.363719,"is_reserved":false,"is_disabled":false,"rental_uris":{"android":"levelo://app?vid=497c421b-fe5b-40ce-8649-20d4e99a3a2c","ios":"levelo://app?vid=497c421b-fe5b-40ce-8649-20d4e99a3a2c"},"vehicle_type_id":"4","last_reported":1723568859,"current_range_meters":11600,"station_id":"ce4bhc92rcd13ifvqetg","pricing_plan_id":"cebpf4jnsgd1na2vs0mg"},{"bike_id":"e21c9915-a36e-4b2a-b635-2ead697f1764","system_id":"levelo_inurba_marseille","lat":43.289468,"lon":5.363719,"is_reserved":false,"is_disabled":false,"rental_uris":{"android":"levelo://app?vid=e21c9915-a36e-4b2a-b635-2ead697f1764","ios":"levelo://app?vid=e21c9915-a36e-4b2a-b635-2ead697f1764"},"vehicle_type_id":"4","last_reported":1723568859,"current_range_meters":0,"station_id":"ce4bhc92rcd13ifvqetg","pricing_plan_id":"cebpf4jnsgd1na2vs0mg"},{"bike_id":"5b6f04db-58d2-4002-83bb-5f50e7b4e761","system_id":"levelo_inurba_marseille","lat":43.292644,"lon":5.384257,"is_reserved":false,"is_disabled":false,"rental_uris":{"android":"levelo://app?vid=5b6f04db-58d2-4002-83bb-5f50e7b4e761","ios":"levelo://app?vid=5b6f04db-58d2-4002-83bb-5f50e7b4e761"},"vehicle_type_id":"4","last_reported":1723568859,"current_range_meters":0,"station_id":"ce4bh692rcd13ifvqea0","pricing_plan_id":"cebpf4jnsgd1na2vs0mg"},{"bike_id":"febd45b6-6c48-4f20-a5d8-3b3d5faa6dbe","system_id":"levelo_inurba_marseille","lat":43.292644,"lon":5.384257,"is_reserved":false,"is_disabled":false,"rental_uris":{"android":"levelo://app?vid=febd45b6-6c48-4f20-a5d8-3b3d5faa6dbe","ios":"levelo://app?vid=febd45b6-6c48-4f20-a5d8-3b3d5faa6dbe"},"vehicle_type_id":"4","last_reported":1723568859,"current_range_meters":22000,"station_id":"ce4bh692rcd13ifvqea0","pricing_plan_id":"cebpf4jnsgd1na2vs0mg"},{"bike_id":"a7839f21-55c0-42e7-a535-3b83941f2a52","system_id":"levelo_inurba_marseille","lat":43.304274,"lon":5.397513,"is_reserved":false,"is_disabled":false,"rental_uris":{"android":"levelo://app?vid=a7839f21-55c0-42e7-a535-3b83941f2a52","ios":"levelo://app?vid=a7839f21-55c0-42e7-a535-3b83941f2a52"},"vehicle_type_id":"4","last_reported":1723568859,"current_range_meters":15600,"station_id":"ce4bh092rcd13ifvqd20","pricing_plan_id":"cebpf4jnsgd1na2vs0mg"},{"bike_id":"99688c2f-f5f8-4a7a-a856-f9b7baeb130c","system_id":"levelo_inurba_marseille","lat":43.292642,"lon":5.384254,"is_reserved":false,"is_disabled":false,"rental_uris":{"android":"levelo://app?vid=99688c2f-f5f8-4a7a-a856-f9b7baeb130c","ios":"levelo://app?vid=99688c2f-f5f8-4a7a-a856-f9b7baeb130c"},"vehicle_type_id":"4","last_reported":1723568859,"current_range_meters":14800,"station_id":"ce4bh692rcd13ifvqea0","pricing_plan_id":"cebpf4jnsgd1na2vs0mg"},{"bike_id":"e98eed04-4ecb-42eb-9ecc-9ae58f80fac3","system_id":"levelo_inurba_marseille","lat":43.304296,"lon":5.397513,"is_reserved":false,"is_disabled":false,"rental_uris":{"android":"levelo://app?vid=e98eed04-4ecb-42eb-9ecc-9ae58f80fac3","ios":"levelo://app?vid=e98eed04-4ecb-42eb-9ecc-9ae58f80fac3"},"vehicle_type_id":"4","last_reported":1723568859,"current_range_meters":31200,"station_id":"ce4bh092rcd13ifvqd20","pricing_plan_id":"cebpf4jnsgd1na2vs0mg"},{"bike_id":"99542506-fe60-47c3-8966-fd74d38b3777","system_id":"levelo_inurba_marseille","lat":43.292644,"lon":5.384257,"is_reserved":false,"is_disabled":false,"rental_uris":{"android":"levelo://app?vid=99542506-fe60-47c3-8966-fd74d38b3777","ios":"levelo://app?vid=99542506-fe60-47c3-8966-fd74d38b3777"},"vehicle_type_id":"4","last_reported":1723568859,"current_range_meters":2800,"station_id":"ce4bh692rcd13ifvqea0","pricing_plan_id":"cebpf4jnsgd1na2vs0mg"},{"bike_id":"69c68f22-e364-444c-a173-10c67607817b","system_id":"levelo_inurba_marseille","lat":43.292642,"lon":5.384254,"is_reserved":false,"is_disabled":false,"rental_uris":{"android":"levelo://app?vid=69c68f22-e364-444c-a173-10c67607817b","ios":"levelo://app?vid=69c68f22-e364-444c-a173-10c67607817b"},"vehicle_type_id":"4","last_reported":1723568859,"current_range_meters":15600,"station_id":"ce4bh692rcd13ifvqea0","pricing_plan_id":"cebpf4jnsgd1na2vs0mg"},{"bike_id":"f33fd8f3-321b-49ce-ba14-2b32baee3282","system_id":"levelo_inurba_marseille","lat":43.292642,"lon":5.384254,"is_reserved":false,"is_disabled":false,"rental_uris":{"android":"levelo://app?vid=f33fd8f3-321b-49ce-ba14-2b32baee3282","ios":"levelo://app?vid=f33fd8f3-321b-49ce-ba14-2b32baee3282"},"vehicle_type_id":"4","last_reported":1723568859,"current_range_meters":21600,"station_id":"ce4bh692rcd13ifvqea0","pricing_plan_id":"cebpf4jnsgd1na2vs0mg"},{"bike_id":"795dc388-9363-4cb1-ae04-ae5f67db26d5","system_id":"levelo_inurba_marseille","lat":43.292653,"lon":5.384457,"is_reserved":false,"is_disabled":false,"rental_uris":{"android":"levelo://app?vid=795dc388-9363-4cb1-ae04-ae5f67db26d5","ios":"levelo://app?vid=795dc388-9363-4cb1-ae04-ae5f67db26d5"},"vehicle_type_id":"4","last_reported":1723568859,"current_range_meters":0,"station_id":"ce4bh692rcd13ifvqea0","pricing_plan_id":"cebpf4jnsgd1na2vs0mg"},{"bike_id":"4935df0a-9095-4395-979d-3bfd5fd7ada6","system_id":"levelo_inurba_marseille","lat":43.292644,"lon":5.384257,"is_reserved":false,"is_disabled":false,"rental_uris":{"android":"levelo://app?vid=4935df0a-9095-4395-979d-3bfd5fd7ada6","ios":"levelo://app?vid=4935df0a-9095-4395-979d-3bfd5fd7ada6"},"vehicle_type_id":"4","last_reported":1723568859,"current_range_meters":0,"station_id":"ce4bh692rcd13ifvqea0","pricing_plan_id":"cebpf4jnsgd1na2vs0mg"},{"bike_id":"f181443b-f691-47bb-be3b-0bcaf2b0bd08","system_id":"levelo_inurba_marseille","lat":43.304296,"lon":5.397513,"is_reserved":false,"is_disabled":false,"rental_uris":{"android":"levelo://app?vid=f181443b-f691-47bb-be3b-0bcaf2b0bd08","ios":"levelo://app?vid=f181443b-f691-47bb-be3b-0bcaf2b0bd08"},"vehicle_type_id":"4","last_reported":1723568859,"current_range_meters":31600,"station_id":"ce4bh092rcd13ifvqd20","pricing_plan_id":"cebpf4jnsgd1na2vs0mg"},{"bike_id":"e8e5b265-4726-419c-87ad-8eb04fb79f0c","system_id":"levelo_inurba_marseille","lat":43.292644,"lon":5.384257,"is_reserved":false,"is_disabled":false,"rental_uris":{"android":"levelo://app?vid=e8e5b265-4726-419c-87ad-8eb04fb79f0c","ios":"levelo://app?vid=e8e5b265-4726-419c-87ad-8eb04fb79f0c"},"vehicle_type_id":"4","last_reported":1723568859,"current_range_meters":8800,"station_id":"ce4bh692rcd13ifvqea0","pricing_plan_id":"cebpf4jnsgd1na2vs0mg"},{"bike_id":"2b1b1f88-eea6-47f8-a66a-ac2306b60460","system_id":"levelo_inurba_marseille","lat":43.29011,"lon":5.35622,"is_reserved":false,"is_disabled":false,"rental_uris":{"android":"levelo://app?vid=2b1b1f88-eea6-47f8-a66a-ac2306b60460","ios":"levelo://app?vid=2b1b1f88-eea6-47f8-a66a-ac2306b60460"},"vehicle_type_id":"4","last_reported":1723568859,"current_range_meters":24000,"station_id":"ce4bhb92rcd13ifvqen0","pricing_plan_id":"cebpf4jnsgd1na2vs0mg"},{"bike_id":"be238dc0-f9c4-4e44-a805-de619b9ae70e","system_id":"levelo_inurba_marseille","lat":43.290087,"lon":5.356266,"is_reserved":false,"is_disabled":false,"rental_uris":{"android":"levelo://app?vid=be238dc0-f9c4-4e44-a805-de619b9ae70e","ios":"levelo://app?vid=be238dc0-f9c4-4e44-a805-de619b9ae70e"},"vehicle_type_id":"4","last_reported":1723568859,"current_range_meters":4800,"station_id":"","pricing_plan_id":"cebpf4jnsgd1na2vs0mg"},{"bike_id":"bb7ec07d-5474-403d-8876-fef82e661268","system_id":"levelo_inurba_marseille","lat":43.290103,"lon":5.356114,"is_reserved":false,"is_disabled":false,"rental_uris":{"android":"levelo://app?vid=bb7ec07d-5474-403d-8876-fef82e661268","ios":"levelo://app?vid=bb7ec07d-5474-403d-8876-fef82e661268"},"vehicle_type_id":"4","last_reported":1723568859,"current_range_meters":23200,"station_id":"ce4bhb92rcd13ifvqen0","pricing_plan_id":"cebpf4jnsgd1na2vs0mg"},{"bike_id":"84c02268-b9d8-4509-92cb-4b7f5bfc8c9c","system_id":"levelo_inurba_marseille","lat":43.29005,"lon":5.35613,"is_reserved":false,"is_disabled":false,"rental_uris":{"android":"levelo://app?vid=84c02268-b9d8-4509-92cb-4b7f5bfc8c9c","ios":"levelo://app?vid=84c02268-b9d8-4509-92cb-4b7f5bfc8c9c"},"vehicle_type_id":"4","last_reported":1723568859,"current_range_meters":31200,"station_id":"ce4bhb92rcd13ifvqen0","pricing_plan_id":"cebpf4jnsgd1na2vs0mg"},{"bike_id":"38ea23f4-24b2-4d9d-96c9-5d5582571b70","system_id":"levelo_inurba_marseille","lat":43.290104,"lon":5.356111,"is_reserved":false,"is_disabled":false,"rental_uris":{"android":"levelo://app?vid=38ea23f4-24b2-4d9d-96c9-5d5582571b70","ios":"levelo://app?vid=38ea23f4-24b2-4d9d-96c9-5d5582571b70"},"vehicle_type_id":"4","last_reported":1723568859,"current_range_meters":14800,"station_id":"ce4bhb92rcd13ifvqen0","pricing_plan_id":"cebpf4jnsgd1na2vs0mg"},{"bike_id":"de75cd98-e575-4554-95d1-f7f18ca2d175","system_id":"levelo_inurba_marseille","lat":43.290104,"lon":5.356111,"is_reserved":false,"is_disabled":false,"rental_uris":{"android":"levelo://app?vid=de75cd98-e575-4554-95d1-f7f18ca2d175","ios":"levelo://app?vid=de75cd98-e575-4554-95d1-f7f18ca2d175"},"vehicle_type_id":"4","last_reported":1723568859,"current_range_meters":23600,"station_id":"ce4bhb92rcd13ifvqen0","pricing_plan_id":"cebpf4jnsgd1na2vs0mg"},{"bike_id":"0ce01fea-a146-4a99-a93c-ea197a7c7959","system_id":"levelo_inurba_marseille","lat":43.290995,"lon":5.381361,"is_reserved":false,"is_disabled":false,"rental_uris":{"android":"levelo://app?vid=0ce01fea-a146-4a99-a93c-ea197a7c7959","ios":"levelo://app?vid=0ce01fea-a146-4a99-a93c-ea197a7c7959"},"vehicle_type_id":"4","last_reported":1723568859,"current_range_meters":2400,"station_id":"ce4bh512rcd13ifvqe2g","pricing_plan_id":"cebpf4jnsgd1na2vs0mg"},{"bike_id":"23687936-440e-4ade-bfc2-b62477d3ee53","system_id":"levelo_inurba_marseille","lat":43.29103,"lon":5.3815,"is_reserved":false,"is_disabled":false,"rental_uris":{"android":"levelo://app?vid=23687936-440e-4ade-bfc2-b62477d3ee53","ios":"levelo://app?vid=23687936-440e-4ade-bfc2-b62477d3ee53"},"vehicle_type_id":"4","last_reported":1723568859,"current_range_meters":0,"station_id":"ce4bh512rcd13ifvqe2g","pricing_plan_id":"cebpf4jnsgd1na2vs0mg"},{"bike_id":"24190c20-5009-4fcc-879b-8e8694668f34","system_id":"levelo_inurba_marseille","lat":43.330442,"lon":5.389148,"is_reserved":false,"is_disabled":false,"rental_uris":{"android":"levelo://app?vid=24190c20-5009-4fcc-879b-8e8694668f34","ios":"levelo://app?vid=24190c20-5009-4fcc-879b-8e8694668f34"},"vehicle_type_id":"4","last_reported":1723568859,"current_range_meters":18800,"station_id":"ce4bhr92rcd13ifvqhrg","pricing_plan_id":"cebpf4jnsgd1na2vs0mg"},{"bike_id":"424955a7-a748-4aa7-9397-e29bdcd67fc2","system_id":"levelo_inurba_marseille","lat":43.330442,"lon":5.389148,"is_reserved":false,"is_disabled":false,"rental_uris":{"android":"levelo://app?vid=424955a7-a748-4aa7-9397-e29bdcd67fc2","ios":"levelo://app?vid=424955a7-a748-4aa7-9397-e29bdcd67fc2"},"vehicle_type_id":"4","last_reported":1723568859,"current_range_meters":3200,"station_id":"ce4bhr92rcd13ifvqhrg","pricing_plan_id":"cebpf4jnsgd1na2vs0mg"},{"bike_id":"52669968-24bb-444c-b41d-cf89180ac9eb","system_id":"levelo_inurba_marseille","lat":43.310608,"lon":5.400715,"is_reserved":false,"is_disabled":false,"rental_uris":{"android":"levelo://app?vid=52669968-24bb-444c-b41d-cf89180ac9eb","ios":"levelo://app?vid=52669968-24bb-444c-b41d-cf89180ac9eb"},"vehicle_type_id":"4","last_reported":1723568859,"current_range_meters":29600,"station_id":"","pricing_plan_id":"cebpf4jnsgd1na2vs0mg"},{"bike_id":"5b0a2ae2-e47d-4be8-8af8-5e13daf0f128","system_id":"levelo_inurba_marseille","lat":43.312609,"lon":5.401662,"is_reserved":false,"is_disabled":false,"rental_uris":{"android":"levelo://app?vid=5b0a2ae2-e47d-4be8-8af8-5e13daf0f128","ios":"levelo://app?vid=5b0a2ae2-e47d-4be8-8af8-5e13daf0f128"},"vehicle_type_id":"4","last_reported":1723568859,"current_range_meters":0,"station_id":"ce4bh092rcd13ifvqd30","pricing_plan_id":"cebpf4jnsgd1na2vs0mg"},{"bike_id":"33ac59d3-bb9b-463a-b183-d4fee2b58df6","system_id":"levelo_inurba_marseille","lat":43.28853,"lon":5.35843,"is_reserved":false,"is_disabled":false,"rental_uris":{"android":"levelo://app?vid=33ac59d3-bb9b-463a-b183-d4fee2b58df6","ios":"levelo://app?vid=33ac59d3-bb9b-463a-b183-d4fee2b58df6"},"vehicle_type_id":"4","last_reported":1723568859,"current_range_meters":0,"station_id":"ce4bhb12rcd13ifvqem0","pricing_plan_id":"cebpf4jnsgd1na2vs0mg"},{"bike_id":"f6e43dca-a6b9-4f90-959d-aa8d6ff59612","system_id":"levelo_inurba_marseille","lat":43.2885,"lon":5.35847,"is_reserved":false,"is_disabled":false,"rental_uris":{"android":"levelo://app?vid=f6e43dca-a6b9-4f90-959d-aa8d6ff59612","ios":"levelo://app?vid=f6e43dca-a6b9-4f90-959d-aa8d6ff59612"},"vehicle_type_id":"4","last_reported":1723568859,"current_range_meters":2000,"station_id":"ce4bhb12rcd13ifvqem0","pricing_plan_id":"cebpf4jnsgd1na2vs0mg"},{"bike_id":"136e59b3-3162-4472-970b-dd8ec9c3c714","system_id":"levelo_inurba_marseille","lat":43.309371,"lon":5.401449,"is_reserved":false,"is_disabled":false,"rental_uris":{"android":"levelo://app?vid=136e59b3-3162-4472-970b-dd8ec9c3c714","ios":"levelo://app?vid=136e59b3-3162-4472-970b-dd8ec9c3c714"},"vehicle_type_id":"4","last_reported":1723568859,"current_range_meters":0,"station_id":"ce4bgvp2rcd13ifvqct0","pricing_plan_id":"cebpf4jnsgd1na2vs0mg"},{"bike_id":"ac75d8e5-5139-4e43-a64e-51e7994c2517","system_id":"levelo_inurba_marseille","lat":43.337444,"lon":5.374475,"is_reserved":false,"is_disabled":false,"rental_uris":{"android":"levelo://app?vid=ac75d8e5-5139-4e43-a64e-51e7994c2517","ios":"levelo://app?vid=ac75d8e5-5139-4e43-a64e-51e7994c2517"},"vehicle_type_id":"3","last_reported":1723568859,"current_range_meters":24800,"station_id":"","pricing_plan_id":"cebpf4jnsgd1na2vs0mg"},{"bike_id":"15bca738-97fc-487e-96ae-6ffef47b827e","system_id":"levelo_inurba_marseille","lat":43.309371,"lon":5.401449,"is_reserved":false,"is_disabled":false,"rental_uris":{"android":"levelo://app?vid=15bca738-97fc-487e-96ae-6ffef47b827e","ios":"levelo://app?vid=15bca738-97fc-487e-96ae-6ffef47b827e"},"vehicle_type_id":"4","last_reported":1723568859,"current_range_meters":0,"station_id":"ce4bgvp2rcd13ifvqct0","pricing_plan_id":"cebpf4jnsgd1na2vs0mg"},{"bike_id":"6086599c-14e6-492d-8b53-d8808720b8a6","system_id":"levelo_inurba_marseille","lat":43.287839,"lon":5.373678,"is_reserved":false,"is_disabled":false,"rental_uris":{"android":"levelo://app?vid=6086599c-14e6-492d-8b53-d8808720b8a6","ios":"levelo://app?vid=6086599c-14e6-492d-8b53-d8808720b8a6"},"vehicle_type_id":"4","last_reported":1723568859,"current_range_meters":4400,"station_id":"","pricing_plan_id":"cebpf4jnsgd1na2vs0mg"},{"bike_id":"0316fdf4-cd7d-4343-84eb-feaea74dd91a","system_id":"levelo_inurba_marseille","lat":43.312609,"lon":5.401662,"is_reserved":false,"is_disabled":false,"rental_uris":{"android":"levelo://app?vid=0316fdf4-cd7d-4343-84eb-feaea74dd91a","ios":"levelo://app?vid=0316fdf4-cd7d-4343-84eb-feaea74dd91a"},"vehicle_type_id":"4","last_reported":1723568859,"current_range_meters":14800,"station_id":"ce4bh092rcd13ifvqd30","pricing_plan_id":"cebpf4jnsgd1na2vs0mg"},{"bike_id":"c6597611-0d91-4f31-be74-4cc2b78bc7aa","system_id":"levelo_inurba_marseille","lat":43.33757,"lon":5.3746,"is_reserved":false,"is_disabled":false,"rental_uris":{"android":"levelo://app?vid=c6597611-0d91-4f31-be74-4cc2b78bc7aa","ios":"levelo://app?vid=c6597611-0d91-4f31-be74-4cc2b78bc7aa"},"vehicle_type_id":"4","last_reported":1723568859,"current_range_meters":14400,"station_id":"","pricing_plan_id":"cebpf4jnsgd1na2vs0mg"},{"bike_id":"1ece39e8-5ec5-465b-b0d5-bdea3554c74d","system_id":"levelo_inurba_marseille","lat":43.337591,"lon":5.374476,"is_reserved":false,"is_disabled":false,"rental_uris":{"android":"levelo://app?vid=1ece39e8-5ec5-465b-b0d5-bdea3554c74d","ios":"levelo://app?vid=1ece39e8-5ec5-465b-b0d5-bdea3554c74d"},"vehicle_type_id":"4","last_reported":1723568859,"current_range_meters":11600,"station_id":"","pricing_plan_id":"cebpf4jnsgd1na2vs0mg"},{"bike_id":"22801bd1-3815-4e9e-b1bb-aa57184d04ed","system_id":"levelo_inurba_marseille","lat":43.30642,"lon":5.401031,"is_reserved":false,"is_disabled":false,"rental_uris":{"android":"levelo://app?vid=22801bd1-3815-4e9e-b1bb-aa57184d04ed","ios":"levelo://app?vid=22801bd1-3815-4e9e-b1bb-aa57184d04ed"},"vehicle_type_id":"4","last_reported":1723568859,"current_range_meters":12000,"station_id":"ce4bh112rcd13ifvqda0","pricing_plan_id":"cebpf4jnsgd1na2vs0mg"},{"bike_id":"00cf81c2-ffe6-4a33-b73a-04b22878f4d1","system_id":"levelo_inurba_marseille","lat":43.306343,"lon":5.400829,"is_reserved":false,"is_disabled":false,"rental_uris":{"android":"levelo://app?vid=00cf81c2-ffe6-4a33-b73a-04b22878f4d1","ios":"levelo://app?vid=00cf81c2-ffe6-4a33-b73a-04b22878f4d1"},"vehicle_type_id":"4","last_reported":1723568859,"current_range_meters":0,"station_id":"ce4bh112rcd13ifvqda0","pricing_plan_id":"cebpf4jnsgd1na2vs0mg"},{"bike_id":"1eeefa75-f2ad-41ce-aae4-21e17fc57417","system_id":"levelo_inurba_marseille","lat":43.30642,"lon":5.401031,"is_reserved":false,"is_disabled":false,"rental_uris":{"android":"levelo://app?vid=1eeefa75-f2ad-41ce-aae4-21e17fc57417","ios":"levelo://app?vid=1eeefa75-f2ad-41ce-aae4-21e17fc57417"},"vehicle_type_id":"4","last_reported":1723568859,"current_range_meters":12400,"station_id":"ce4bh112rcd13ifvqda0","pricing_plan_id":"cebpf4jnsgd1na2vs0mg"},{"bike_id":"b816bb99-3ed9-4e64-9d01-774e6e3fe3db","system_id":"levelo_inurba_marseille","lat":43.298681,"lon":5.397225,"is_reserved":false,"is_disabled":false,"rental_uris":{"android":"levelo://app?vid=b816bb99-3ed9-4e64-9d01-774e6e3fe3db","ios":"levelo://app?vid=b816bb99-3ed9-4e64-9d01-774e6e3fe3db"},"vehicle_type_id":"4","last_reported":1723568859,"current_range_meters":24000,"station_id":"ce4bh0h2rcd13ifvqd50","pricing_plan_id":"cebpf4jnsgd1na2vs0mg"},{"bike_id":"4cd2efd5-30f3-4219-81da-9bf3325e9fcf","system_id":"levelo_inurba_marseille","lat":43.286961,"lon":5.373785,"is_reserved":false,"is_disabled":false,"rental_uris":{"android":"levelo://app?vid=4cd2efd5-30f3-4219-81da-9bf3325e9fcf","ios":"levelo://app?vid=4cd2efd5-30f3-4219-81da-9bf3325e9fcf"},"vehicle_type_id":"4","last_reported":1723568859,"current_range_meters":0,"station_id":"ce4bh3p2rcd13ifvqdq0","pricing_plan_id":"cebpf4jnsgd1na2vs0mg"},{"bike_id":"964100dc-80a4-4a5f-8dc2-99d664027039","system_id":"levelo_inurba_marseille","lat":43.286593,"lon":5.363346,"is_reserved":false,"is_disabled":false,"rental_uris":{"android":"levelo://app?vid=964100dc-80a4-4a5f-8dc2-99d664027039","ios":"levelo://app?vid=964100dc-80a4-4a5f-8dc2-99d664027039"},"vehicle_type_id":"4","last_reported":1723568859,"current_range_meters":27600,"station_id":"ce4bhah2rcd13ifvqej0","pricing_plan_id":"cebpf4jnsgd1na2vs0mg"},{"bike_id":"c817e26e-08a6-48a8-b640-33ff6bab5eb5","system_id":"levelo_inurba_marseille","lat":43.287,"lon":5.37399,"is_reserved":false,"is_disabled":false,"rental_uris":{"android":"levelo://app?vid=c817e26e-08a6-48a8-b640-33ff6bab5eb5","ios":"levelo://app?vid=c817e26e-08a6-48a8-b640-33ff6bab5eb5"},"vehicle_type_id":"4","last_reported":1723568859,"current_range_meters":0,"station_id":"ce4bh3p2rcd13ifvqdq0","pricing_plan_id":"cebpf4jnsgd1na2vs0mg"},{"bike_id":"fef7796d-e753-4c88-8d46-86a8764e7730","system_id":"levelo_inurba_marseille","lat":43.290336,"lon":5.386425,"is_reserved":false,"is_disabled":false,"rental_uris":{"android":"levelo://app?vid=fef7796d-e753-4c88-8d46-86a8764e7730","ios":"levelo://app?vid=fef7796d-e753-4c88-8d46-86a8764e7730"},"vehicle_type_id":"4","last_reported":1723568859,"current_range_meters":6800,"station_id":"ce4bh4p2rcd13ifvqe0g","pricing_plan_id":"cebpf4jnsgd1na2vs0mg"},{"bike_id":"57047800-5d74-4753-be99-6388052fdca9","system_id":"levelo_inurba_marseille","lat":43.30242,"lon":5.4006,"is_reserved":false,"is_disabled":false,"rental_uris":{"android":"levelo://app?vid=57047800-5d74-4753-be99-6388052fdca9","ios":"levelo://app?vid=57047800-5d74-4753-be99-6388052fdca9"},"vehicle_type_id":"4","last_reported":1723568859,"current_range_meters":24400,"station_id":"ce4bgvh2rcd13ifvqcs0","pricing_plan_id":"cebpf4jnsgd1na2vs0mg"},{"bike_id":"3d5edaae-9be7-419f-a1b4-0a36db2d8eef","system_id":"levelo_inurba_marseille","lat":43.302759,"lon":5.400793,"is_reserved":false,"is_disabled":false,"rental_uris":{"android":"levelo://app?vid=3d5edaae-9be7-419f-a1b4-0a36db2d8eef","ios":"levelo://app?vid=3d5edaae-9be7-419f-a1b4-0a36db2d8eef"},"vehicle_type_id":"4","last_reported":1723568859,"current_range_meters":10400,"station_id":"ce4bgvh2rcd13ifvqcs0","pricing_plan_id":"cebpf4jnsgd1na2vs0mg"},{"bike_id":"70159a13-6e96-4a0f-a4be-a5256d40fb50","system_id":"levelo_inurba_marseille","lat":43.289307,"lon":5.38406,"is_reserved":false,"is_disabled":false,"rental_uris":{"android":"levelo://app?vid=70159a13-6e96-4a0f-a4be-a5256d40fb50","ios":"levelo://app?vid=70159a13-6e96-4a0f-a4be-a5256d40fb50"},"vehicle_type_id":"4","last_reported":1723568859,"current_range_meters":0,"station_id":"ce4bh612rcd13ifvqe6g","pricing_plan_id":"cebpf4jnsgd1na2vs0mg"},{"bike_id":"be680cb8-5448-4b38-bef0-d2aea43c7c81","system_id":"levelo_inurba_marseille","lat":43.302759,"lon":5.400793,"is_reserved":false,"is_disabled":false,"rental_uris":{"android":"levelo://app?vid=be680cb8-5448-4b38-bef0-d2aea43c7c81","ios":"levelo://app?vid=be680cb8-5448-4b38-bef0-d2aea43c7c81"},"vehicle_type_id":"4","last_reported":1723568859,"current_range_meters":0,"station_id":"ce4bgvh2rcd13ifvqcs0","pricing_plan_id":"cebpf4jnsgd1na2vs0mg"},{"bike_id":"4f49d762-2efb-4337-a2d6-83dd13c85d23","system_id":"levelo_inurba_marseille","lat":43.302759,"lon":5.400793,"is_reserved":false,"is_disabled":false,"rental_uris":{"android":"levelo://app?vid=4f49d762-2efb-4337-a2d6-83dd13c85d23","ios":"levelo://app?vid=4f49d762-2efb-4337-a2d6-83dd13c85d23"},"vehicle_type_id":"4","last_reported":1723568859,"current_range_meters":31600,"station_id":"ce4bgvh2rcd13ifvqcs0","pricing_plan_id":"cebpf4jnsgd1na2vs0mg"},{"bike_id":"7b1b54bd-83d3-417b-950f-943d10d58d8e","system_id":"levelo_inurba_marseille","lat":43.286039,"lon":5.370681,"is_reserved":false,"is_disabled":false,"rental_uris":{"android":"levelo://app?vid=7b1b54bd-83d3-417b-950f-943d10d58d8e","ios":"levelo://app?vid=7b1b54bd-83d3-417b-950f-943d10d58d8e"},"vehicle_type_id":"4","last_reported":1723568859,"current_range_meters":14000,"station_id":"ce4bht12rcd13ifvqi60","pricing_plan_id":"cebpf4jnsgd1na2vs0mg"},{"bike_id":"ef1a64c6-0c7c-4f14-b6c1-d1ac7e1c2d3c","system_id":"levelo_inurba_marseille","lat":43.303,"lon":5.4014,"is_reserved":false,"is_disabled":false,"rental_uris":{"android":"levelo://app?vid=ef1a64c6-0c7c-4f14-b6c1-d1ac7e1c2d3c","ios":"levelo://app?vid=ef1a64c6-0c7c-4f14-b6c1-d1ac7e1c2d3c"},"vehicle_type_id":"4","last_reported":1723568859,"current_range_meters":20400,"station_id":"","pricing_plan_id":"cebpf4jnsgd1na2vs0mg"},{"bike_id":"68759e3e-b983-4587-9b6a-eb750b3017d1","system_id":"levelo_inurba_marseille","lat":43.287184,"lon":5.37937,"is_reserved":false,"is_disabled":false,"rental_uris":{"android":"levelo://app?vid=68759e3e-b983-4587-9b6a-eb750b3017d1","ios":"levelo://app?vid=68759e3e-b983-4587-9b6a-eb750b3017d1"},"vehicle_type_id":"4","last_reported":1723568859,"current_range_meters":7200,"station_id":"ce4bh9p2rcd13ifvqec0","pricing_plan_id":"cebpf4jnsgd1na2vs0mg"},{"bike_id":"cc7202ce-a81f-4d55-8944-13ae2df9c6c5","system_id":"levelo_inurba_marseille","lat":43.28556,"lon":5.360646,"is_reserved":false,"is_disabled":false,"rental_uris":{"android":"levelo://app?vid=cc7202ce-a81f-4d55-8944-13ae2df9c6c5","ios":"levelo://app?vid=cc7202ce-a81f-4d55-8944-13ae2df9c6c5"},"vehicle_type_id":"4","last_reported":1723568859,"current_range_meters":14400,"station_id":"","pricing_plan_id":"cebpf4jnsgd1na2vs0mg"},{"bike_id":"419e21d8-1541-4816-be9c-ccb530a8465b","system_id":"levelo_inurba_marseille","lat":43.28713,"lon":5.35208,"is_reserved":false,"is_disabled":false,"rental_uris":{"android":"levelo://app?vid=419e21d8-1541-4816-be9c-ccb530a8465b","ios":"levelo://app?vid=419e21d8-1541-4816-be9c-ccb530a8465b"},"vehicle_type_id":"4","last_reported":1723568859,"current_range_meters":20800,"station_id":"","pricing_plan_id":"cebpf4jnsgd1na2vs0mg"},{"bike_id":"4256ba38-e13f-4ee3-b8a0-3592169a7945","system_id":"levelo_inurba_marseille","lat":43.291994,"lon":5.392907,"is_reserved":false,"is_disabled":false,"rental_uris":{"android":"levelo://app?vid=4256ba38-e13f-4ee3-b8a0-3592169a7945","ios":"levelo://app?vid=4256ba38-e13f-4ee3-b8a0-3592169a7945"},"vehicle_type_id":"4","last_reported":1723568859,"current_range_meters":0,"station_id":"ce4bh192rcd13ifvqdd0","pricing_plan_id":"cebpf4jnsgd1na2vs0mg"},{"bike_id":"fd46cb18-5966-4c9f-8126-dc1fe60e3a4a","system_id":"levelo_inurba_marseille","lat":43.291994,"lon":5.392907,"is_reserved":false,"is_disabled":false,"rental_uris":{"android":"levelo://app?vid=fd46cb18-5966-4c9f-8126-dc1fe60e3a4a","ios":"levelo://app?vid=fd46cb18-5966-4c9f-8126-dc1fe60e3a4a"},"vehicle_type_id":"4","last_reported":1723568859,"current_range_meters":0,"station_id":"ce4bh192rcd13ifvqdd0","pricing_plan_id":"cebpf4jnsgd1na2vs0mg"},{"bike_id":"1854a201-2c4d-415b-95fa-b9ac4edfca2b","system_id":"levelo_inurba_marseille","lat":43.291994,"lon":5.392907,"is_reserved":false,"is_disabled":false,"rental_uris":{"android":"levelo://app?vid=1854a201-2c4d-415b-95fa-b9ac4edfca2b","ios":"levelo://app?vid=1854a201-2c4d-415b-95fa-b9ac4edfca2b"},"vehicle_type_id":"4","last_reported":1723568859,"current_range_meters":0,"station_id":"ce4bh192rcd13ifvqdd0","pricing_plan_id":"cebpf4jnsgd1na2vs0mg"},{"bike_id":"12bb1485-5598-431a-866e-8c11dd6cb7ad","system_id":"levelo_inurba_marseille","lat":43.291994,"lon":5.392907,"is_reserved":false,"is_disabled":false,"rental_uris":{"android":"levelo://app?vid=12bb1485-5598-431a-866e-8c11dd6cb7ad","ios":"levelo://app?vid=12bb1485-5598-431a-866e-8c11dd6cb7ad"},"vehicle_type_id":"4","last_reported":1723568859,"current_range_meters":3200,"station_id":"ce4bh192rcd13ifvqdd0","pricing_plan_id":"cebpf4jnsgd1na2vs0mg"},{"bike_id":"5ac494f2-d2f7-4b98-a4a3-c4b1ed0f6760","system_id":"levelo_inurba_marseille","lat":43.291994,"lon":5.392907,"is_reserved":false,"is_disabled":false,"rental_uris":{"android":"levelo://app?vid=5ac494f2-d2f7-4b98-a4a3-c4b1ed0f6760","ios":"levelo://app?vid=5ac494f2-d2f7-4b98-a4a3-c4b1ed0f6760"},"vehicle_type_id":"4","last_reported":1723568859,"current_range_meters":5200,"station_id":"ce4bh192rcd13ifvqdd0","pricing_plan_id":"cebpf4jnsgd1na2vs0mg"},{"bike_id":"4e2e3ce0-03a6-415d-9b01-e15123c3070e","system_id":"levelo_inurba_marseille","lat":43.284534,"lon":5.358662,"is_reserved":false,"is_disabled":false,"rental_uris":{"android":"levelo://app?vid=4e2e3ce0-03a6-415d-9b01-e15123c3070e","ios":"levelo://app?vid=4e2e3ce0-03a6-415d-9b01-e15123c3070e"},"vehicle_type_id":"4","last_reported":1723568859,"current_range_meters":2000,"station_id":"ce4bhah2rcd13ifvqei0","pricing_plan_id":"cebpf4jnsgd1na2vs0mg"},{"bike_id":"af107586-81b6-4b80-b9de-068099f4b83b","system_id":"levelo_inurba_marseille","lat":43.284538,"lon":5.358657,"is_reserved":false,"is_disabled":false,"rental_uris":{"android":"levelo://app?vid=af107586-81b6-4b80-b9de-068099f4b83b","ios":"levelo://app?vid=af107586-81b6-4b80-b9de-068099f4b83b"},"vehicle_type_id":"4","last_reported":1723568859,"current_range_meters":22000,"station_id":"ce4bhah2rcd13ifvqei0","pricing_plan_id":"cebpf4jnsgd1na2vs0mg"},{"bike_id":"7e287564-1749-4ead-ba75-d5b5626e423c","system_id":"levelo_inurba_marseille","lat":43.28464,"lon":5.35875,"is_reserved":false,"is_disabled":false,"rental_uris":{"android":"levelo://app?vid=7e287564-1749-4ead-ba75-d5b5626e423c","ios":"levelo://app?vid=7e287564-1749-4ead-ba75-d5b5626e423c"},"vehicle_type_id":"4","last_reported":1723568859,"current_range_meters":0,"station_id":"ce4bhah2rcd13ifvqei0","pricing_plan_id":"cebpf4jnsgd1na2vs0mg"},{"bike_id":"52fe1541-8b20-4e6e-b693-b87e9f167b30","system_id":"levelo_inurba_marseille","lat":43.284538,"lon":5.358657,"is_reserved":false,"is_disabled":false,"rental_uris":{"android":"levelo://app?vid=52fe1541-8b20-4e6e-b693-b87e9f167b30","ios":"levelo://app?vid=52fe1541-8b20-4e6e-b693-b87e9f167b30"},"vehicle_type_id":"4","last_reported":1723568859,"current_range_meters":6800,"station_id":"ce4bhah2rcd13ifvqei0","pricing_plan_id":"cebpf4jnsgd1na2vs0mg"},{"bike_id":"a734073d-0734-414b-b472-d5eedd375ad7","system_id":"levelo_inurba_marseille","lat":43.294314,"lon":5.397498,"is_reserved":false,"is_disabled":false,"rental_uris":{"android":"levelo://app?vid=a734073d-0734-414b-b472-d5eedd375ad7","ios":"levelo://app?vid=a734073d-0734-414b-b472-d5eedd375ad7"},"vehicle_type_id":"4","last_reported":1723568859,"current_range_meters":5200,"station_id":"ce4bh3h2rcd13ifvqdo0","pricing_plan_id":"cebpf4jnsgd1na2vs0mg"},{"bike_id":"e059978e-6720-49e7-912c-e729cdf83f2a","system_id":"levelo_inurba_marseille","lat":43.294314,"lon":5.397498,"is_reserved":false,"is_disabled":false,"rental_uris":{"android":"levelo://app?vid=e059978e-6720-49e7-912c-e729cdf83f2a","ios":"levelo://app?vid=e059978e-6720-49e7-912c-e729cdf83f2a"},"vehicle_type_id":"4","last_reported":1723568859,"current_range_meters":3200,"station_id":"ce4bh3h2rcd13ifvqdo0","pricing_plan_id":"cebpf4jnsgd1na2vs0mg"},{"bike_id":"87335f1e-8aa4-47b8-abed-715fa3b99577","system_id":"levelo_inurba_marseille","lat":43.28619,"lon":5.35111,"is_reserved":false,"is_disabled":false,"rental_uris":{"android":"levelo://app?vid=87335f1e-8aa4-47b8-abed-715fa3b99577","ios":"levelo://app?vid=87335f1e-8aa4-47b8-abed-715fa3b99577"},"vehicle_type_id":"4","last_reported":1723568859,"current_range_meters":29600,"station_id":"ce4bhch2rcd13ifvqeug","pricing_plan_id":"cebpf4jnsgd1na2vs0mg"},{"bike_id":"a3c65167-c94f-4277-89a3-aa89bf442412","system_id":"levelo_inurba_marseille","lat":43.2862,"lon":5.35105,"is_reserved":false,"is_disabled":false,"rental_uris":{"android":"levelo://app?vid=a3c65167-c94f-4277-89a3-aa89bf442412","ios":"levelo://app?vid=a3c65167-c94f-4277-89a3-aa89bf442412"},"vehicle_type_id":"4","last_reported":1723568859,"current_range_meters":2800,"station_id":"ce4bhch2rcd13ifvqeug","pricing_plan_id":"cebpf4jnsgd1na2vs0mg"},{"bike_id":"f61c99f9-0f7c-4eee-867d-765ae0cd6c95","system_id":"levelo_inurba_marseille","lat":43.28618,"lon":5.35109,"is_reserved":false,"is_disabled":false,"rental_uris":{"android":"levelo://app?vid=f61c99f9-0f7c-4eee-867d-765ae0cd6c95","ios":"levelo://app?vid=f61c99f9-0f7c-4eee-867d-765ae0cd6c95"},"vehicle_type_id":"4","last_reported":1723568859,"current_range_meters":30400,"station_id":"ce4bhch2rcd13ifvqeug","pricing_plan_id":"cebpf4jnsgd1na2vs0mg"},{"bike_id":"27408b01-9e04-4f04-9965-c39eec9bc73a","system_id":"levelo_inurba_marseille","lat":43.2862,"lon":5.35102,"is_reserved":false,"is_disabled":false,"rental_uris":{"android":"levelo://app?vid=27408b01-9e04-4f04-9965-c39eec9bc73a","ios":"levelo://app?vid=27408b01-9e04-4f04-9965-c39eec9bc73a"},"vehicle_type_id":"4","last_reported":1723568859,"current_range_meters":13200,"station_id":"ce4bhch2rcd13ifvqeug","pricing_plan_id":"cebpf4jnsgd1na2vs0mg"},{"bike_id":"c6b44f9f-eff2-41c4-a3a9-2a6afca7fa9b","system_id":"levelo_inurba_marseille","lat":43.286187,"lon":5.351037,"is_reserved":false,"is_disabled":false,"rental_uris":{"android":"levelo://app?vid=c6b44f9f-eff2-41c4-a3a9-2a6afca7fa9b","ios":"levelo://app?vid=c6b44f9f-eff2-41c4-a3a9-2a6afca7fa9b"},"vehicle_type_id":"4","last_reported":1723568859,"current_range_meters":31600,"station_id":"ce4bhch2rcd13ifvqeug","pricing_plan_id":"cebpf4jnsgd1na2vs0mg"},{"bike_id":"f6a63bb2-5c6f-4b0d-8e5e-9aeb2c9ae3a4","system_id":"levelo_inurba_marseille","lat":43.285848,"lon":5.350787,"is_reserved":false,"is_disabled":false,"rental_uris":{"android":"levelo://app?vid=f6a63bb2-5c6f-4b0d-8e5e-9aeb2c9ae3a4","ios":"levelo://app?vid=f6a63bb2-5c6f-4b0d-8e5e-9aeb2c9ae3a4"},"vehicle_type_id":"4","last_reported":1723568859,"current_range_meters":25200,"station_id":"ce4bhch2rcd13ifvqeug","pricing_plan_id":"cebpf4jnsgd1na2vs0mg"},{"bike_id":"19dabda7-7c72-4596-850f-2719e12dfed0","system_id":"levelo_inurba_marseille","lat":43.28619,"lon":5.351,"is_reserved":false,"is_disabled":false,"rental_uris":{"android":"levelo://app?vid=19dabda7-7c72-4596-850f-2719e12dfed0","ios":"levelo://app?vid=19dabda7-7c72-4596-850f-2719e12dfed0"},"vehicle_type_id":"4","last_reported":1723568859,"current_range_meters":16800,"station_id":"ce4bhch2rcd13ifvqeug","pricing_plan_id":"cebpf4jnsgd1na2vs0mg"},{"bike_id":"4a457469-5c4b-4230-bd0c-67b2ceec015f","system_id":"levelo_inurba_marseille","lat":43.28618,"lon":5.35101,"is_reserved":false,"is_disabled":false,"rental_uris":{"android":"levelo://app?vid=4a457469-5c4b-4230-bd0c-67b2ceec015f","ios":"levelo://app?vid=4a457469-5c4b-4230-bd0c-67b2ceec015f"},"vehicle_type_id":"4","last_reported":1723568859,"current_range_meters":13600,"station_id":"ce4bhch2rcd13ifvqeug","pricing_plan_id":"cebpf4jnsgd1na2vs0mg"},{"bike_id":"ac4c6a3c-439b-4a8a-83db-95d1f365675e","system_id":"levelo_inurba_marseille","lat":43.285848,"lon":5.350787,"is_reserved":false,"is_disabled":false,"rental_uris":{"android":"levelo://app?vid=ac4c6a3c-439b-4a8a-83db-95d1f365675e","ios":"levelo://app?vid=ac4c6a3c-439b-4a8a-83db-95d1f365675e"},"vehicle_type_id":"4","last_reported":1723568859,"current_range_meters":30400,"station_id":"ce4bhch2rcd13ifvqeug","pricing_plan_id":"cebpf4jnsgd1na2vs0mg"},{"bike_id":"a4340e82-ade9-46d1-b281-d1f1793d4755","system_id":"levelo_inurba_marseille","lat":43.285856,"lon":5.350771,"is_reserved":false,"is_disabled":false,"rental_uris":{"android":"levelo://app?vid=a4340e82-ade9-46d1-b281-d1f1793d4755","ios":"levelo://app?vid=a4340e82-ade9-46d1-b281-d1f1793d4755"},"vehicle_type_id":"4","last_reported":1723568859,"current_range_meters":27600,"station_id":"ce4bhch2rcd13ifvqeug","pricing_plan_id":"cebpf4jnsgd1na2vs0mg"},{"bike_id":"d1e49a16-93dd-4a7b-932a-1d6734a0d366","system_id":"levelo_inurba_marseille","lat":43.285848,"lon":5.350787,"is_reserved":false,"is_disabled":false,"rental_uris":{"android":"levelo://app?vid=d1e49a16-93dd-4a7b-932a-1d6734a0d366","ios":"levelo://app?vid=d1e49a16-93dd-4a7b-932a-1d6734a0d366"},"vehicle_type_id":"4","last_reported":1723568859,"current_range_meters":12800,"station_id":"ce4bhch2rcd13ifvqeug","pricing_plan_id":"cebpf4jnsgd1na2vs0mg"},{"bike_id":"ea156090-7196-4c50-b41c-d52a3cbe19ac","system_id":"levelo_inurba_marseille","lat":43.285848,"lon":5.350787,"is_reserved":false,"is_disabled":false,"rental_uris":{"android":"levelo://app?vid=ea156090-7196-4c50-b41c-d52a3cbe19ac","ios":"levelo://app?vid=ea156090-7196-4c50-b41c-d52a3cbe19ac"},"vehicle_type_id":"4","last_reported":1723568859,"current_range_meters":8400,"station_id":"ce4bhch2rcd13ifvqeug","pricing_plan_id":"cebpf4jnsgd1na2vs0mg"},{"bike_id":"6dcc2a67-f15c-41c9-9c5a-af79b727731b","system_id":"levelo_inurba_marseille","lat":43.28615,"lon":5.35106,"is_reserved":false,"is_disabled":false,"rental_uris":{"android":"levelo://app?vid=6dcc2a67-f15c-41c9-9c5a-af79b727731b","ios":"levelo://app?vid=6dcc2a67-f15c-41c9-9c5a-af79b727731b"},"vehicle_type_id":"4","last_reported":1723568859,"current_range_meters":19200,"station_id":"ce4bhch2rcd13ifvqeug","pricing_plan_id":"cebpf4jnsgd1na2vs0mg"},{"bike_id":"88ef5412-0ff1-45ad-939c-52a3ac076780","system_id":"levelo_inurba_marseille","lat":43.28616,"lon":5.35101,"is_reserved":false,"is_disabled":false,"rental_uris":{"android":"levelo://app?vid=88ef5412-0ff1-45ad-939c-52a3ac076780","ios":"levelo://app?vid=88ef5412-0ff1-45ad-939c-52a3ac076780"},"vehicle_type_id":"4","last_reported":1723568859,"current_range_meters":28800,"station_id":"ce4bhch2rcd13ifvqeug","pricing_plan_id":"cebpf4jnsgd1na2vs0mg"},{"bike_id":"04042038-7e93-443b-a5ef-949f7b145c09","system_id":"levelo_inurba_marseille","lat":43.285848,"lon":5.350787,"is_reserved":false,"is_disabled":false,"rental_uris":{"android":"levelo://app?vid=04042038-7e93-443b-a5ef-949f7b145c09","ios":"levelo://app?vid=04042038-7e93-443b-a5ef-949f7b145c09"},"vehicle_type_id":"4","last_reported":1723568859,"current_range_meters":28800,"station_id":"ce4bhch2rcd13ifvqeug","pricing_plan_id":"cebpf4jnsgd1na2vs0mg"},{"bike_id":"0d26f770-772c-4d3b-af54-ff673e801f91","system_id":"levelo_inurba_marseille","lat":43.28616,"lon":5.351,"is_reserved":false,"is_disabled":false,"rental_uris":{"android":"levelo://app?vid=0d26f770-772c-4d3b-af54-ff673e801f91","ios":"levelo://app?vid=0d26f770-772c-4d3b-af54-ff673e801f91"},"vehicle_type_id":"4","last_reported":1723568859,"current_range_meters":31200,"station_id":"ce4bhch2rcd13ifvqeug","pricing_plan_id":"cebpf4jnsgd1na2vs0mg"},{"bike_id":"8700ee86-c6c4-4677-9a41-88eb4d90d5b0","system_id":"levelo_inurba_marseille","lat":43.285856,"lon":5.350771,"is_reserved":false,"is_disabled":false,"rental_uris":{"android":"levelo://app?vid=8700ee86-c6c4-4677-9a41-88eb4d90d5b0","ios":"levelo://app?vid=8700ee86-c6c4-4677-9a41-88eb4d90d5b0"},"vehicle_type_id":"4","last_reported":1723568859,"current_range_meters":10800,"station_id":"ce4bhch2rcd13ifvqeug","pricing_plan_id":"cebpf4jnsgd1na2vs0mg"},{"bike_id":"9d5b40af-228e-4292-a3df-e8c272c54dba","system_id":"levelo_inurba_marseille","lat":43.28613,"lon":5.35108,"is_reserved":false,"is_disabled":false,"rental_uris":{"android":"levelo://app?vid=9d5b40af-228e-4292-a3df-e8c272c54dba","ios":"levelo://app?vid=9d5b40af-228e-4292-a3df-e8c272c54dba"},"vehicle_type_id":"4","last_reported":1723568859,"current_range_meters":20000,"station_id":"ce4bhch2rcd13ifvqeug","pricing_plan_id":"cebpf4jnsgd1na2vs0mg"},{"bike_id":"f58f390c-f0ce-4ec6-9168-eba361b6ad69","system_id":"levelo_inurba_marseille","lat":43.28615,"lon":5.35101,"is_reserved":false,"is_disabled":false,"rental_uris":{"android":"levelo://app?vid=f58f390c-f0ce-4ec6-9168-eba361b6ad69","ios":"levelo://app?vid=f58f390c-f0ce-4ec6-9168-eba361b6ad69"},"vehicle_type_id":"4","last_reported":1723568859,"current_range_meters":20000,"station_id":"ce4bhch2rcd13ifvqeug","pricing_plan_id":"cebpf4jnsgd1na2vs0mg"},{"bike_id":"b1982294-63c9-4b2d-a985-e20300939233","system_id":"levelo_inurba_marseille","lat":43.28614,"lon":5.35104,"is_reserved":false,"is_disabled":false,"rental_uris":{"android":"levelo://app?vid=b1982294-63c9-4b2d-a985-e20300939233","ios":"levelo://app?vid=b1982294-63c9-4b2d-a985-e20300939233"},"vehicle_type_id":"4","last_reported":1723568859,"current_range_meters":1200,"station_id":"ce4bhch2rcd13ifvqeug","pricing_plan_id":"cebpf4jnsgd1na2vs0mg"},{"bike_id":"6dd78dc4-e49f-4360-bf52-61b1c10c1f30","system_id":"levelo_inurba_marseille","lat":43.285848,"lon":5.350787,"is_reserved":false,"is_disabled":false,"rental_uris":{"android":"levelo://app?vid=6dd78dc4-e49f-4360-bf52-61b1c10c1f30","ios":"levelo://app?vid=6dd78dc4-e49f-4360-bf52-61b1c10c1f30"},"vehicle_type_id":"4","last_reported":1723568859,"current_range_meters":30800,"station_id":"ce4bhch2rcd13ifvqeug","pricing_plan_id":"cebpf4jnsgd1na2vs0mg"},{"bike_id":"0f6bdc32-3a20-424e-8e2c-ad524e4b9c08","system_id":"levelo_inurba_marseille","lat":43.28614,"lon":5.351,"is_reserved":false,"is_disabled":false,"rental_uris":{"android":"levelo://app?vid=0f6bdc32-3a20-424e-8e2c-ad524e4b9c08","ios":"levelo://app?vid=0f6bdc32-3a20-424e-8e2c-ad524e4b9c08"},"vehicle_type_id":"4","last_reported":1723568859,"current_range_meters":31200,"station_id":"ce4bhch2rcd13ifvqeug","pricing_plan_id":"cebpf4jnsgd1na2vs0mg"},{"bike_id":"26863c2c-3d73-487a-ab8b-43792dc051fe","system_id":"levelo_inurba_marseille","lat":43.28612,"lon":5.351,"is_reserved":false,"is_disabled":false,"rental_uris":{"android":"levelo://app?vid=26863c2c-3d73-487a-ab8b-43792dc051fe","ios":"levelo://app?vid=26863c2c-3d73-487a-ab8b-43792dc051fe"},"vehicle_type_id":"4","last_reported":1723568859,"current_range_meters":30800,"station_id":"ce4bhch2rcd13ifvqeug","pricing_plan_id":"cebpf4jnsgd1na2vs0mg"},{"bike_id":"a6c8dc6a-646f-45a7-b556-284c4c283309","system_id":"levelo_inurba_marseille","lat":43.28406,"lon":5.37511,"is_reserved":false,"is_disabled":false,"rental_uris":{"android":"levelo://app?vid=a6c8dc6a-646f-45a7-b556-284c4c283309","ios":"levelo://app?vid=a6c8dc6a-646f-45a7-b556-284c4c283309"},"vehicle_type_id":"4","last_reported":1723568859,"current_range_meters":20400,"station_id":"ce4bh412rcd13ifvqds0","pricing_plan_id":"cebpf4jnsgd1na2vs0mg"},{"bike_id":"108502d6-eb6d-4ccf-a1bf-194e13e706ea","system_id":"levelo_inurba_marseille","lat":43.28405,"lon":5.37509,"is_reserved":false,"is_disabled":false,"rental_uris":{"android":"levelo://app?vid=108502d6-eb6d-4ccf-a1bf-194e13e706ea","ios":"levelo://app?vid=108502d6-eb6d-4ccf-a1bf-194e13e706ea"},"vehicle_type_id":"4","last_reported":1723568859,"current_range_meters":1600,"station_id":"ce4bh412rcd13ifvqds0","pricing_plan_id":"cebpf4jnsgd1na2vs0mg"},{"bike_id":"966a55b0-9f32-4561-b37d-75484ad90025","system_id":"levelo_inurba_marseille","lat":43.28404,"lon":5.37517,"is_reserved":false,"is_disabled":false,"rental_uris":{"android":"levelo://app?vid=966a55b0-9f32-4561-b37d-75484ad90025","ios":"levelo://app?vid=966a55b0-9f32-4561-b37d-75484ad90025"},"vehicle_type_id":"4","last_reported":1723568859,"current_range_meters":1600,"station_id":"ce4bh412rcd13ifvqds0","pricing_plan_id":"cebpf4jnsgd1na2vs0mg"},{"bike_id":"cf3eb1ce-1069-43e2-a9ac-1f2610f3aff5","system_id":"levelo_inurba_marseille","lat":43.295713,"lon":5.399639,"is_reserved":false,"is_disabled":false,"rental_uris":{"android":"levelo://app?vid=cf3eb1ce-1069-43e2-a9ac-1f2610f3aff5","ios":"levelo://app?vid=cf3eb1ce-1069-43e2-a9ac-1f2610f3aff5"},"vehicle_type_id":"4","last_reported":1723568859,"current_range_meters":19200,"station_id":"ce4bh312rcd13ifvqdj0","pricing_plan_id":"cebpf4jnsgd1na2vs0mg"},{"bike_id":"b087152b-211e-4518-ae53-278d14994b0e","system_id":"levelo_inurba_marseille","lat":43.28401,"lon":5.3751,"is_reserved":false,"is_disabled":false,"rental_uris":{"android":"levelo://app?vid=b087152b-211e-4518-ae53-278d14994b0e","ios":"levelo://app?vid=b087152b-211e-4518-ae53-278d14994b0e"},"vehicle_type_id":"4","last_reported":1723568859,"current_range_meters":22800,"station_id":"ce4bh412rcd13ifvqds0","pricing_plan_id":"cebpf4jnsgd1na2vs0mg"},{"bike_id":"e54ddc2b-afba-4c46-851b-d9056292b77f","system_id":"levelo_inurba_marseille","lat":43.295713,"lon":5.399639,"is_reserved":false,"is_disabled":false,"rental_uris":{"android":"levelo://app?vid=e54ddc2b-afba-4c46-851b-d9056292b77f","ios":"levelo://app?vid=e54ddc2b-afba-4c46-851b-d9056292b77f"},"vehicle_type_id":"4","last_reported":1723568859,"current_range_meters":4800,"station_id":"ce4bh312rcd13ifvqdj0","pricing_plan_id":"cebpf4jnsgd1na2vs0mg"},{"bike_id":"fe0ca187-dae5-4208-856f-f433cd03d5a7","system_id":"levelo_inurba_marseille","lat":43.28399,"lon":5.37517,"is_reserved":false,"is_disabled":false,"rental_uris":{"android":"levelo://app?vid=fe0ca187-dae5-4208-856f-f433cd03d5a7","ios":"levelo://app?vid=fe0ca187-dae5-4208-856f-f433cd03d5a7"},"vehicle_type_id":"4","last_reported":1723568859,"current_range_meters":2000,"station_id":"ce4bh412rcd13ifvqds0","pricing_plan_id":"cebpf4jnsgd1na2vs0mg"},{"bike_id":"47aa7ca8-414e-4df6-acc3-488858025510","system_id":"levelo_inurba_marseille","lat":43.283998,"lon":5.375062,"is_reserved":false,"is_disabled":false,"rental_uris":{"android":"levelo://app?vid=47aa7ca8-414e-4df6-acc3-488858025510","ios":"levelo://app?vid=47aa7ca8-414e-4df6-acc3-488858025510"},"vehicle_type_id":"4","last_reported":1723568859,"current_range_meters":22000,"station_id":"ce4bh412rcd13ifvqds0","pricing_plan_id":"cebpf4jnsgd1na2vs0mg"},{"bike_id":"d1814038-d28d-41c7-afb7-93a4a24f6a20","system_id":"levelo_inurba_marseille","lat":43.285861,"lon":5.383617,"is_reserved":false,"is_disabled":false,"rental_uris":{"android":"levelo://app?vid=d1814038-d28d-41c7-afb7-93a4a24f6a20","ios":"levelo://app?vid=d1814038-d28d-41c7-afb7-93a4a24f6a20"},"vehicle_type_id":"4","last_reported":1723568859,"current_range_meters":400,"station_id":"","pricing_plan_id":"cebpf4jnsgd1na2vs0mg"},{"bike_id":"894e9df2-736b-44c8-b3f2-0abfadb89d44","system_id":"levelo_inurba_marseille","lat":43.319179,"lon":5.407725,"is_reserved":false,"is_disabled":false,"rental_uris":{"android":"levelo://app?vid=894e9df2-736b-44c8-b3f2-0abfadb89d44","ios":"levelo://app?vid=894e9df2-736b-44c8-b3f2-0abfadb89d44"},"vehicle_type_id":"4","last_reported":1723568859,"current_range_meters":4400,"station_id":"ce4bhq12rcd13ifvqhig","pricing_plan_id":"cebpf4jnsgd1na2vs0mg"},{"bike_id":"9206416f-321b-42f0-9fec-1d39e5e9b052","system_id":"levelo_inurba_marseille","lat":43.323464,"lon":5.406297,"is_reserved":false,"is_disabled":false,"rental_uris":{"android":"levelo://app?vid=9206416f-321b-42f0-9fec-1d39e5e9b052","ios":"levelo://app?vid=9206416f-321b-42f0-9fec-1d39e5e9b052"},"vehicle_type_id":"4","last_reported":1723568859,"current_range_meters":26400,"station_id":"ce4bhq92rcd13ifvqhjg","pricing_plan_id":"cebpf4jnsgd1na2vs0mg"},{"bike_id":"fe53c916-d9e5-4841-ae1d-cdd735e25fd0","system_id":"levelo_inurba_marseille","lat":43.284793,"lon":5.384119,"is_reserved":false,"is_disabled":false,"rental_uris":{"android":"levelo://app?vid=fe53c916-d9e5-4841-ae1d-cdd735e25fd0","ios":"levelo://app?vid=fe53c916-d9e5-4841-ae1d-cdd735e25fd0"},