{"last_updated":1746724127,"ttl":60,"version":"2.2","data":{"bikes":[{"bike_id":"8b85b2ff-5279-4adc-a184-35c512b8ca4b","system_id":"levelo_inurba_marseille","lat":43.2663,"lon":5.40297,"is_reserved":false,"is_disabled":true,"rental_uris":{"android":"levelo://app?vid=8b85b2ff-5279-4adc-a184-35c512b8ca4b","ios":"levelo://app?vid=8b85b2ff-5279-4adc-a184-35c512b8ca4b"},"vehicle_type_id":"4","last_reported":1746724127,"current_range_meters":0,"station_id":"","pricing_plan_id":"cebpf4jnsgd1na2vs0mg"},{"bike_id":"30c94ff1-5c0c-4c40-8f57-7f7d02df0c58","system_id":"levelo_inurba_marseille","lat":43.31685,"lon":5.40472,"is_reserved":false,"is_disabled":true,"rental_uris":{"android":"levelo://app?vid=30c94ff1-5c0c-4c40-8f57-7f7d02df0c58","ios":"levelo://app?vid=30c94ff1-5c0c-4c40-8f57-7f7d02df0c58"},"vehicle_type_id":"4","last_reported":1746724127,"current_range_meters":0,"station_id":"","pricing_plan_id":"cebpf4jnsgd1na2vs0mg"},{"bike_id":"66b646b3-6352-44bb-9bfb-21570512e3e5","system_id":"levelo_inurba_marseille","lat":43.281107,"lon":5.403941,"is_reserved":false,"is_disabled":true,"rental_uris":{"android":"levelo://app?vid=66b646b3-6352-44bb-9bfb-21570512e3e5","ios":"levelo://app?vid=66b646b3-6352-44bb-9bfb-21570512e3e5"},"vehicle_type_id":"4","last_reported":1746724127,"current_range_meters":0,"station_id":"","pricing_plan_id":"cebpf4jnsgd1na2vs0mg"},{"bike_id":"ca85c203-a3ad-4cb5-b8f9-da552140ab73","system_id":"levelo_inurba_marseille","lat":43.33715,"lon":5.35559,"is_reserved":false,"is_disabled":true,"rental_uris":{"android":"levelo://app?vid=ca85c203-a3ad-4cb5-b8f9-da552140ab73","ios":"levelo://app?vid=ca85c203-a3ad-4cb5-b8f9-da552140ab73"},"vehicle_type_id":"4","last_reported":1746724127,"current_range_meters":0,"station_id":"","pricing_plan_id":"cebpf4jnsgd1na2vs0mg"},{"bike_id":"b56eeeb9-9ded-4dd2-9efa-c8d4f8a5e387","system_id":"levelo_inurba_marseille","lat":43.273863,"lon":5.422426,"is_reserved":false,"is_disabled":true,"rental_uris":{"android":"levelo://app?vid=b56eeeb9-9ded-4dd2-9efa-c8d4f8a5e387","ios":"levelo://app?vid=b56eeeb9-9ded-4dd2-9efa-c8d4f8a5e387"},"vehicle_type_id":"4","last_reported":1746724127,"current_range_meters":0,"station_id":"","pricing_plan_id":"cebpf4jnsgd1na2vs0mg"},{"bike_id":"88c3c6c1-a33a-48ed-b2a4-48c16332184c","system_id":"levelo_inurba_marseille","lat":43.27939,"lon":5.37379,"is_reserved":false,"is_disabled":true,"rental_uris":{"android":"levelo://app?vid=88c3c6c1-a33a-48ed-b2a4-48c16332184c","ios":"levelo://app?vid=88c3c6c1-a33a-48ed-b2a4-48c16332184c"},"vehicle_type_id":"4","last_reported":1746724127,"current_range_meters":0,"station_id":"","pricing_plan_id":"cebpf4jnsgd1na2vs0mg"},{"bike_id":"4faf8f4b-7601-4479-9608-1093c45b3c07","system_id":"levelo_inurba_marseille","lat":43.30701,"lon":5.37041,"is_reserved":false,"is_disabled":true,"rental_uris":{"android":"levelo://app?vid=4faf8f4b-7601-4479-9608-1093c45b3c07","ios":"levelo://app?vid=4faf8f4b-7601-4479-9608-1093c45b3c07"},"vehicle_type_id":"4","last_reported":1746724127,"current_range_meters":0,"station_id":"","pricing_plan_id":"cebpf4jnsgd1na2vs0mg"},{"bike_id":"12190f64-f320-4df7-a5fc-c5e8dd278a3b","system_id":"levelo_inurba_marseille","lat":43.337444,"lon":5.374475,"is_reserved":false,"is_disabled":true,"rental_uris":{"android":"levelo://app?vid=12190f64-f320-4df7-a5fc-c5e8dd278a3b","ios":"levelo://app?vid=12190f64-f320-4df7-a5fc-c5e8dd278a3b"},"vehicle_type_id":"4","last_reported":1746724127,"current_range_meters":0,"station_id":"","pricing_plan_id":"cebpf4jnsgd1na2vs0mg"},{"bike_id":"2d251c8d-e9d0-476f-8622-cb88831f30c3","system_id":"levelo_inurba_marseille","lat":43.26983,"lon":5.38763,"is_reserved":false,"is_disabled":true,"rental_uris":{"android":"levelo://app?vid=2d251c8d-e9d0-476f-8622-cb88831f30c3","ios":"levelo://app?vid=2d251c8d-e9d0-476f-8622-cb88831f30c3"},"vehicle_type_id":"4","last_reported":1746724127,"current_range_meters":0,"station_id":"","pricing_plan_id":"cebpf4jnsgd1na2vs0mg"},{"bike_id":"c5afe79d-bc9a-47a1-bfac-54fcbca6d54a","system_id":"levelo_inurba_marseille","lat":43.30802,"lon":5.37521,"is_reserved":false,"is_disabled":true,"rental_uris":{"android":"levelo://app?vid=c5afe79d-bc9a-47a1-bfac-54fcbca6d54a","ios":"levelo://app?vid=c5afe79d-bc9a-47a1-bfac-54fcbca6d54a"},"vehicle_type_id":"4","last_reported":1746724127,"current_range_meters":0,"station_id":"","pricing_plan_id":"cebpf4jnsgd1na2vs0mg"},{"bike_id":"34d559f0-45a6-433c-8a0a-162e7f257509","system_id":"levelo_inurba_marseille","lat":43.29536,"lon":5.38534,"is_reserved":false,"is_disabled":true,"rental_uris":{"android":"levelo://app?vid=34d559f0-45a6-433c-8a0a-162e7f257509","ios":"levelo://app?vid=34d559f0-45a6-433c-8a0a-162e7f257509"},"vehicle_type_id":"4","last_reported":1746724127,"current_range_meters":0,"station_id":"ce4bgih2rcd13ifvqba0","pricing_plan_id":"cebpf4jnsgd1na2vs0mg"},{"bike_id":"a3587890-1c80-46a9-9f18-35985a19c726","system_id":"levelo_inurba_marseille","lat":43.30295,"lon":5.39221,"is_reserved":false,"is_disabled":true,"rental_uris":{"android":"levelo://app?vid=a3587890-1c80-46a9-9f18-35985a19c726","ios":"levelo://app?vid=a3587890-1c80-46a9-9f18-35985a19c726"},"vehicle_type_id":"4","last_reported":1746724127,"current_range_meters":0,"station_id":"ce4bgkh2rcd13ifvqbk0","pricing_plan_id":"cebpf4jnsgd1na2vs0mg"},{"bike_id":"3ffe6d23-fbb2-4caa-bf77-0294152a319a","system_id":"levelo_inurba_marseille","lat":43.30601,"lon":5.37218,"is_reserved":false,"is_disabled":true,"rental_uris":{"android":"levelo://app?vid=3ffe6d23-fbb2-4caa-bf77-0294152a319a","ios":"levelo://app?vid=3ffe6d23-fbb2-4caa-bf77-0294152a319a"},"vehicle_type_id":"4","last_reported":1746724127,"current_range_meters":0,"station_id":"ce4bgqh2rcd13ifvqc4g","pricing_plan_id":"cebpf4jnsgd1na2vs0mg"},{"bike_id":"a97b71ed-bfa4-446b-849d-8d243631a4d4","system_id":"levelo_inurba_marseille","lat":43.3136,"lon":5.38482,"is_reserved":false,"is_disabled":true,"rental_uris":{"android":"levelo://app?vid=a97b71ed-bfa4-446b-849d-8d243631a4d4","ios":"levelo://app?vid=a97b71ed-bfa4-446b-849d-8d243631a4d4"},"vehicle_type_id":"4","last_reported":1746724127,"current_range_meters":0,"station_id":"ce4bgt92rcd13ifvqcf0","pricing_plan_id":"cebpf4jnsgd1na2vs0mg"},{"bike_id":"b1aea964-8b10-44f1-8c66-293b42037d36","system_id":"levelo_inurba_marseille","lat":43.3025,"lon":5.40056,"is_reserved":false,"is_disabled":true,"rental_uris":{"android":"levelo://app?vid=b1aea964-8b10-44f1-8c66-293b42037d36","ios":"levelo://app?vid=b1aea964-8b10-44f1-8c66-293b42037d36"},"vehicle_type_id":"4","last_reported":1746724127,"current_range_meters":0,"station_id":"ce4bgvh2rcd13ifvqcs0","pricing_plan_id":"cebpf4jnsgd1na2vs0mg"},{"bike_id":"17358f78-76e0-4050-a6a1-0134f90d2734","system_id":"levelo_inurba_marseille","lat":43.30426,"lon":5.39751,"is_reserved":false,"is_disabled":true,"rental_uris":{"android":"levelo://app?vid=17358f78-76e0-4050-a6a1-0134f90d2734","ios":"levelo://app?vid=17358f78-76e0-4050-a6a1-0134f90d2734"},"vehicle_type_id":"4","last_reported":1746724127,"current_range_meters":0,"station_id":"ce4bh092rcd13ifvqd20","pricing_plan_id":"cebpf4jnsgd1na2vs0mg"},{"bike_id":"d386338b-6e31-410e-be18-dd51a9328d3a","system_id":"levelo_inurba_marseille","lat":43.28342,"lon":5.38095,"is_reserved":false,"is_disabled":true,"rental_uris":{"android":"levelo://app?vid=d386338b-6e31-410e-be18-dd51a9328d3a","ios":"levelo://app?vid=d386338b-6e31-410e-be18-dd51a9328d3a"},"vehicle_type_id":"4","last_reported":1746724127,"current_range_meters":0,"station_id":"ce4bh412rcd13ifvqdr0","pricing_plan_id":"cebpf4jnsgd1na2vs0mg"},{"bike_id":"0f2f9157-dc1f-48e9-b151-ac06ba3cd315","system_id":"levelo_inurba_marseille","lat":43.28923,"lon":5.38409,"is_reserved":false,"is_disabled":true,"rental_uris":{"android":"levelo://app?vid=0f2f9157-dc1f-48e9-b151-ac06ba3cd315","ios":"levelo://app?vid=0f2f9157-dc1f-48e9-b151-ac06ba3cd315"},"vehicle_type_id":"4","last_reported":1746724127,"current_range_meters":0,"station_id":"ce4bh612rcd13ifvqe6g","pricing_plan_id":"cebpf4jnsgd1na2vs0mg"},{"bike_id":"063ed89b-0414-443a-9bee-5f6d47fc6bd9","system_id":"levelo_inurba_marseille","lat":43.288503,"lon":5.35865,"is_reserved":false,"is_disabled":true,"rental_uris":{"android":"levelo://app?vid=063ed89b-0414-443a-9bee-5f6d47fc6bd9","ios":"levelo://app?vid=063ed89b-0414-443a-9bee-5f6d47fc6bd9"},"vehicle_type_id":"4","last_reported":1746724127,"current_range_meters":0,"station_id":"ce4bhb12rcd13ifvqem0","pricing_plan_id":"cebpf4jnsgd1na2vs0mg"},{"bike_id":"64be2023-f5f1-4ed6-a437-f2ce690fbc81","system_id":"levelo_inurba_marseille","lat":43.291981,"lon":5.357994,"is_reserved":false,"is_disabled":true,"rental_uris":{"android":"levelo://app?vid=64be2023-f5f1-4ed6-a437-f2ce690fbc81","ios":"levelo://app?vid=64be2023-f5f1-4ed6-a437-f2ce690fbc81"},"vehicle_type_id":"4","last_reported":1746724127,"current_range_meters":0,"station_id":"ce4bhbp2rcd13ifvqerg","pricing_plan_id":"cebpf4jnsgd1na2vs0mg"},{"bike_id":"d8a6cbfa-ab05-48b5-ae1d-ebae158e4a2d","system_id":"levelo_inurba_marseille","lat":43.26553,"lon":5.37298,"is_reserved":false,"is_disabled":true,"rental_uris":{"android":"levelo://app?vid=d8a6cbfa-ab05-48b5-ae1d-ebae158e4a2d","ios":"levelo://app?vid=d8a6cbfa-ab05-48b5-ae1d-ebae158e4a2d"},"vehicle_type_id":"4","last_reported":1746724127,"current_range_meters":0,"station_id":"ce4bhg12rcd13ifvqf70","pricing_plan_id":"cebpf4jnsgd1na2vs0mg"},{"bike_id":"15aff330-c8e3-438b-ad43-1dfaad61af74","system_id":"levelo_inurba_marseille","lat":43.26555,"lon":5.37288,"is_reserved":false,"is_disabled":true,"rental_uris":{"android":"levelo://app?vid=15aff330-c8e3-438b-ad43-1dfaad61af74","ios":"levelo://app?vid=15aff330-c8e3-438b-ad43-1dfaad61af74"},"vehicle_type_id":"4","last_reported":1746724127,"current_range_meters":0,"station_id":"ce4bhg12rcd13ifvqf70","pricing_plan_id":"cebpf4jnsgd1na2vs0mg"},{"bike_id":"7047aaf7-5d58-4343-b8d8-a498bfaa03c7","system_id":"levelo_inurba_marseille","lat":43.26203,"lon":5.37436,"is_reserved":false,"is_disabled":true,"rental_uris":{"android":"levelo://app?vid=7047aaf7-5d58-4343-b8d8-a498bfaa03c7","ios":"levelo://app?vid=7047aaf7-5d58-4343-b8d8-a498bfaa03c7"},"vehicle_type_id":"4","last_reported":1746724127,"current_range_meters":0,"station_id":"ce4bhgp2rcd13ifvqfc0","pricing_plan_id":"cebpf4jnsgd1na2vs0mg"},{"bike_id":"6d75c173-82fb-45fe-8a2e-d2a6e6f61f30","system_id":"levelo_inurba_marseille","lat":43.26201,"lon":5.37453,"is_reserved":false,"is_disabled":true,"rental_uris":{"android":"levelo://app?vid=6d75c173-82fb-45fe-8a2e-d2a6e6f61f30","ios":"levelo://app?vid=6d75c173-82fb-45fe-8a2e-d2a6e6f61f30"},"vehicle_type_id":"4","last_reported":1746724127,"current_range_meters":0,"station_id":"ce4bhgp2rcd13ifvqfc0","pricing_plan_id":"cebpf4jnsgd1na2vs0mg"},{"bike_id":"a2aa9337-1b1b-48b6-a32b-fd4f381b472b","system_id":"levelo_inurba_marseille","lat":43.27203,"lon":5.39187,"is_reserved":false,"is_disabled":true,"rental_uris":{"android":"levelo://app?vid=a2aa9337-1b1b-48b6-a32b-fd4f381b472b","ios":"levelo://app?vid=a2aa9337-1b1b-48b6-a32b-fd4f381b472b"},"vehicle_type_id":"4","last_reported":1746724127,"current_range_meters":0,"station_id":"ce4bhhp2rcd13ifvqfm0","pricing_plan_id":"cebpf4jnsgd1na2vs0mg"},{"bike_id":"dab133b9-6d7a-4c8e-9d00-13688fd58706","system_id":"levelo_inurba_marseille","lat":43.25588,"lon":5.38211,"is_reserved":false,"is_disabled":true,"rental_uris":{"android":"levelo://app?vid=dab133b9-6d7a-4c8e-9d00-13688fd58706","ios":"levelo://app?vid=dab133b9-6d7a-4c8e-9d00-13688fd58706"},"vehicle_type_id":"4","last_reported":1746724127,"current_range_meters":0,"station_id":"ce4bhih2rcd13ifvqfs0","pricing_plan_id":"cebpf4jnsgd1na2vs0mg"},{"bike_id":"14e70de2-7d3e-4be9-9242-978a8efe3669","system_id":"levelo_inurba_marseille","lat":43.25867,"lon":5.39897,"is_reserved":false,"is_disabled":true,"rental_uris":{"android":"levelo://app?vid=14e70de2-7d3e-4be9-9242-978a8efe3669","ios":"levelo://app?vid=14e70de2-7d3e-4be9-9242-978a8efe3669"},"vehicle_type_id":"4","last_reported":1746724127,"current_range_meters":0,"station_id":"ce4bhl92rcd13ifvqghg","pricing_plan_id":"cebpf4jnsgd1na2vs0mg"},{"bike_id":"3eafdaa8-59a8-4ab4-b265-b029c827b3fd","system_id":"levelo_inurba_marseille","lat":43.25107,"lon":5.40323,"is_reserved":false,"is_disabled":true,"rental_uris":{"android":"levelo://app?vid=3eafdaa8-59a8-4ab4-b265-b029c827b3fd","ios":"levelo://app?vid=3eafdaa8-59a8-4ab4-b265-b029c827b3fd"},"vehicle_type_id":"4","last_reported":1746724127,"current_range_meters":0,"station_id":"ce4bhlh2rcd13ifvqgig","pricing_plan_id":"cebpf4jnsgd1na2vs0mg"},{"bike_id":"9831d5db-16b5-40f2-a9d0-d91b6ee29470","system_id":"levelo_inurba_marseille","lat":43.25137,"lon":5.40341,"is_reserved":false,"is_disabled":true,"rental_uris":{"android":"levelo://app?vid=9831d5db-16b5-40f2-a9d0-d91b6ee29470","ios":"levelo://app?vid=9831d5db-16b5-40f2-a9d0-d91b6ee29470"},"vehicle_type_id":"4","last_reported":1746724127,"current_range_meters":0,"station_id":"ce4bhlh2rcd13ifvqgig","pricing_plan_id":"cebpf4jnsgd1na2vs0mg"},{"bike_id":"260cc113-8413-4ea2-bc5b-d006bc98ecdb","system_id":"levelo_inurba_marseille","lat":43.2513,"lon":5.40316,"is_reserved":false,"is_disabled":true,"rental_uris":{"android":"levelo://app?vid=260cc113-8413-4ea2-bc5b-d006bc98ecdb","ios":"levelo://app?vid=260cc113-8413-4ea2-bc5b-d006bc98ecdb"},"vehicle_type_id":"4","last_reported":1746724127,"current_range_meters":0,"station_id":"ce4bhlh2rcd13ifvqgig","pricing_plan_id":"cebpf4jnsgd1na2vs0mg"},{"bike_id":"8aaacb4e-8a90-4b94-9342-ce85afafdb36","system_id":"levelo_inurba_marseille","lat":43.24549,"lon":5.39524,"is_reserved":false,"is_disabled":true,"rental_uris":{"android":"levelo://app?vid=8aaacb4e-8a90-4b94-9342-ce85afafdb36","ios":"levelo://app?vid=8aaacb4e-8a90-4b94-9342-ce85afafdb36"},"vehicle_type_id":"4","last_reported":1746724127,"current_range_meters":0,"station_id":"ce4bhlp2rcd13ifvqgjg","pricing_plan_id":"cebpf4jnsgd1na2vs0mg"},{"bike_id":"568f7ab5-7959-4fe1-a3a6-3d865932450e","system_id":"levelo_inurba_marseille","lat":43.23171,"lon":5.43744,"is_reserved":false,"is_disabled":true,"rental_uris":{"android":"levelo://app?vid=568f7ab5-7959-4fe1-a3a6-3d865932450e","ios":"levelo://app?vid=568f7ab5-7959-4fe1-a3a6-3d865932450e"},"vehicle_type_id":"4","last_reported":1746724127,"current_range_meters":0,"station_id":"ce4bhmp2rcd13ifvqgog","pricing_plan_id":"cebpf4jnsgd1na2vs0mg"},{"bike_id":"5eb60091-57dc-4918-9093-10bd077152b8","system_id":"levelo_inurba_marseille","lat":43.280776,"lon":5.396617,"is_reserved":false,"is_disabled":true,"rental_uris":{"android":"levelo://app?vid=5eb60091-57dc-4918-9093-10bd077152b8","ios":"levelo://app?vid=5eb60091-57dc-4918-9093-10bd077152b8"},"vehicle_type_id":"4","last_reported":1746724127,"current_range_meters":0,"station_id":"ce4bho12rcd13ifvqh2g","pricing_plan_id":"cebpf4jnsgd1na2vs0mg"},{"bike_id":"ee05e8a9-cd8b-47da-a0ab-8e7a359ec112","system_id":"levelo_inurba_marseille","lat":43.3234,"lon":5.40613,"is_reserved":false,"is_disabled":true,"rental_uris":{"android":"levelo://app?vid=ee05e8a9-cd8b-47da-a0ab-8e7a359ec112","ios":"levelo://app?vid=ee05e8a9-cd8b-47da-a0ab-8e7a359ec112"},"vehicle_type_id":"4","last_reported":1746724127,"current_range_meters":0,"station_id":"ce4bhq92rcd13ifvqhjg","pricing_plan_id":"cebpf4jnsgd1na2vs0mg"},{"bike_id":"c9592205-9409-4f74-aed1-7c4141a58caa","system_id":"levelo_inurba_marseille","lat":43.27135,"lon":5.36385,"is_reserved":false,"is_disabled":true,"rental_uris":{"android":"levelo://app?vid=c9592205-9409-4f74-aed1-7c4141a58caa","ios":"levelo://app?vid=c9592205-9409-4f74-aed1-7c4141a58caa"},"vehicle_type_id":"4","last_reported":1746724127,"current_range_meters":400,"station_id":"","pricing_plan_id":"cebpf4jnsgd1na2vs0mg"},{"bike_id":"0741e24e-d3f4-4de4-ad52-c6f4d452a225","system_id":"levelo_inurba_marseille","lat":43.28696,"lon":5.37402,"is_reserved":false,"is_disabled":true,"rental_uris":{"android":"levelo://app?vid=0741e24e-d3f4-4de4-ad52-c6f4d452a225","ios":"levelo://app?vid=0741e24e-d3f4-4de4-ad52-c6f4d452a225"},"vehicle_type_id":"4","last_reported":1746724127,"current_range_meters":400,"station_id":"ce4bh3p2rcd13ifvqdq0","pricing_plan_id":"cebpf4jnsgd1na2vs0mg"},{"bike_id":"2924202d-584d-488b-9270-bc7ecde3bee6","system_id":"levelo_inurba_marseille","lat":43.28284,"lon":5.35092,"is_reserved":false,"is_disabled":true,"rental_uris":{"android":"levelo://app?vid=2924202d-584d-488b-9270-bc7ecde3bee6","ios":"levelo://app?vid=2924202d-584d-488b-9270-bc7ecde3bee6"},"vehicle_type_id":"4","last_reported":1746724127,"current_range_meters":400,"station_id":"ce4bhbp2rcd13ifvqerg","pricing_plan_id":"cebpf4jnsgd1na2vs0mg"},{"bike_id":"f0bdc828-d8d8-4e13-9173-fcddd02baada","system_id":"levelo_inurba_marseille","lat":43.27209,"lon":5.39174,"is_reserved":false,"is_disabled":true,"rental_uris":{"android":"levelo://app?vid=f0bdc828-d8d8-4e13-9173-fcddd02baada","ios":"levelo://app?vid=f0bdc828-d8d8-4e13-9173-fcddd02baada"},"vehicle_type_id":"4","last_reported":1746724127,"current_range_meters":400,"station_id":"ce4bhhp2rcd13ifvqfm0","pricing_plan_id":"cebpf4jnsgd1na2vs0mg"},{"bike_id":"346c5085-9aba-4c82-922a-6c1adc3af586","system_id":"levelo_inurba_marseille","lat":43.2544,"lon":5.38248,"is_reserved":false,"is_disabled":true,"rental_uris":{"android":"levelo://app?vid=346c5085-9aba-4c82-922a-6c1adc3af586","ios":"levelo://app?vid=346c5085-9aba-4c82-922a-6c1adc3af586"},"vehicle_type_id":"4","last_reported":1746724127,"current_range_meters":800,"station_id":"","pricing_plan_id":"cebpf4jnsgd1na2vs0mg"},{"bike_id":"00c74c59-98b8-4917-8d36-3021337670e8","system_id":"levelo_inurba_marseille","lat":43.318922,"lon":5.368002,"is_reserved":false,"is_disabled":true,"rental_uris":{"android":"levelo://app?vid=00c74c59-98b8-4917-8d36-3021337670e8","ios":"levelo://app?vid=00c74c59-98b8-4917-8d36-3021337670e8"},"vehicle_type_id":"4","last_reported":1746724127,"current_range_meters":800,"station_id":"","pricing_plan_id":"cebpf4jnsgd1na2vs0mg"},{"bike_id":"4e290a84-75db-4e9e-80ed-a2b97913e3f8","system_id":"levelo_inurba_marseille","lat":43.28854,"lon":5.35836,"is_reserved":false,"is_disabled":true,"rental_uris":{"android":"levelo://app?vid=4e290a84-75db-4e9e-80ed-a2b97913e3f8","ios":"levelo://app?vid=4e290a84-75db-4e9e-80ed-a2b97913e3f8"},"vehicle_type_id":"4","last_reported":1746724127,"current_range_meters":800,"station_id":"ce4bhb12rcd13ifvqem0","pricing_plan_id":"cebpf4jnsgd1na2vs0mg"},{"bike_id":"6109e0e0-a5e7-4c28-90ca-217ae714d40c","system_id":"levelo_inurba_marseille","lat":43.28269,"lon":5.35089,"is_reserved":false,"is_disabled":true,"rental_uris":{"android":"levelo://app?vid=6109e0e0-a5e7-4c28-90ca-217ae714d40c","ios":"levelo://app?vid=6109e0e0-a5e7-4c28-90ca-217ae714d40c"},"vehicle_type_id":"4","last_reported":1746724127,"current_range_meters":800,"station_id":"ce4bhbp2rcd13ifvqerg","pricing_plan_id":"cebpf4jnsgd1na2vs0mg"},{"bike_id":"d30ebd6f-a59c-4bc4-ae91-7024f61cc88a","system_id":"levelo_inurba_marseille","lat":43.28437,"lon":5.39186,"is_reserved":false,"is_disabled":true,"rental_uris":{"android":"levelo://app?vid=d30ebd6f-a59c-4bc4-ae91-7024f61cc88a","ios":"levelo://app?vid=d30ebd6f-a59c-4bc4-ae91-7024f61cc88a"},"vehicle_type_id":"4","last_reported":1746724127,"current_range_meters":800,"station_id":"ce4bhoh2rcd13ifvqh5g","pricing_plan_id":"cebpf4jnsgd1na2vs0mg"},{"bike_id":"da58d8af-a929-45a0-9183-11200f445df4","system_id":"levelo_inurba_marseille","lat":43.29961,"lon":5.38503,"is_reserved":false,"is_disabled":true,"rental_uris":{"android":"levelo://app?vid=da58d8af-a929-45a0-9183-11200f445df4","ios":"levelo://app?vid=da58d8af-a929-45a0-9183-11200f445df4"},"vehicle_type_id":"4","last_reported":1746724127,"current_range_meters":1200,"station_id":"ce4bgj92rcd13ifvqbd0","pricing_plan_id":"cebpf4jnsgd1na2vs0mg"},{"bike_id":"a20f6024-ba2b-4109-9dc0-89c79fe360ab","system_id":"levelo_inurba_marseille","lat":43.2988,"lon":5.38903,"is_reserved":false,"is_disabled":true,"rental_uris":{"android":"levelo://app?vid=a20f6024-ba2b-4109-9dc0-89c79fe360ab","ios":"levelo://app?vid=a20f6024-ba2b-4109-9dc0-89c79fe360ab"},"vehicle_type_id":"4","last_reported":1746724127,"current_range_meters":1200,"station_id":"ce4bh392rcd13ifvqdl0","pricing_plan_id":"cebpf4jnsgd1na2vs0mg"},{"bike_id":"8a3ea08c-448c-4a7c-a366-801d2eedb0d0","system_id":"levelo_inurba_marseille","lat":43.28096,"lon":5.37841,"is_reserved":false,"is_disabled":true,"rental_uris":{"android":"levelo://app?vid=8a3ea08c-448c-4a7c-a366-801d2eedb0d0","ios":"levelo://app?vid=8a3ea08c-448c-4a7c-a366-801d2eedb0d0"},"vehicle_type_id":"4","last_reported":1746724127,"current_range_meters":1200,"station_id":"ce4bha12rcd13ifvqee0","pricing_plan_id":"cebpf4jnsgd1na2vs0mg"},{"bike_id":"05263718-74e3-449e-98b0-9acfb4411a60","system_id":"levelo_inurba_marseille","lat":43.28268,"lon":5.35067,"is_reserved":false,"is_disabled":true,"rental_uris":{"android":"levelo://app?vid=05263718-74e3-449e-98b0-9acfb4411a60","ios":"levelo://app?vid=05263718-74e3-449e-98b0-9acfb4411a60"},"vehicle_type_id":"4","last_reported":1746724127,"current_range_meters":1200,"station_id":"ce4bhbp2rcd13ifvqerg","pricing_plan_id":"cebpf4jnsgd1na2vs0mg"},{"bike_id":"1f65e5c8-6163-4833-b889-72a1492e7650","system_id":"levelo_inurba_marseille","lat":43.25593,"lon":5.38245,"is_reserved":false,"is_disabled":true,"rental_uris":{"android":"levelo://app?vid=1f65e5c8-6163-4833-b889-72a1492e7650","ios":"levelo://app?vid=1f65e5c8-6163-4833-b889-72a1492e7650"},"vehicle_type_id":"4","last_reported":1746724127,"current_range_meters":1200,"station_id":"ce4bhih2rcd13ifvqfs0","pricing_plan_id":"cebpf4jnsgd1na2vs0mg"},{"bike_id":"898793ee-a83e-4c6d-9d16-8ef4a20c430a","system_id":"levelo_inurba_marseille","lat":43.2815,"lon":5.42644,"is_reserved":false,"is_disabled":true,"rental_uris":{"android":"levelo://app?vid=898793ee-a83e-4c6d-9d16-8ef4a20c430a","ios":"levelo://app?vid=898793ee-a83e-4c6d-9d16-8ef4a20c430a"},"vehicle_type_id":"4","last_reported":1746724127,"current_range_meters":1200,"station_id":"ce4bhnh2rcd13ifvqgug","pricing_plan_id":"cebpf4jnsgd1na2vs0mg"},{"bike_id":"75fa79a1-a9cf-4e4d-bfbd-55b753ae0010","system_id":"levelo_inurba_marseille","lat":43.28921,"lon":5.38391,"is_reserved":false,"is_disabled":true,"rental_uris":{"android":"levelo://app?vid=75fa79a1-a9cf-4e4d-bfbd-55b753ae0010","ios":"levelo://app?vid=75fa79a1-a9cf-4e4d-bfbd-55b753ae0010"},"vehicle_type_id":"4","last_reported":1746724127,"current_range_meters":1600,"station_id":"ce4bh612rcd13ifvqe6g","pricing_plan_id":"cebpf4jnsgd1na2vs0mg"},{"bike_id":"dc9f7678-f197-412c-9d19-fc136a40d55b","system_id":"levelo_inurba_marseille","lat":43.27676,"lon":5.38891,"is_reserved":false,"is_disabled":true,"rental_uris":{"android":"levelo://app?vid=dc9f7678-f197-412c-9d19-fc136a40d55b","ios":"levelo://app?vid=dc9f7678-f197-412c-9d19-fc136a40d55b"},"vehicle_type_id":"4","last_reported":1746724127,"current_range_meters":1600,"station_id":"ce4bhi12rcd13ifvqfo0","pricing_plan_id":"cebpf4jnsgd1na2vs0mg"},{"bike_id":"e49a1d8c-2efc-4ba7-8e52-3c4babc2fa1f","system_id":"levelo_inurba_marseille","lat":43.31214,"lon":5.36853,"is_reserved":false,"is_disabled":true,"rental_uris":{"android":"levelo://app?vid=e49a1d8c-2efc-4ba7-8e52-3c4babc2fa1f","ios":"levelo://app?vid=e49a1d8c-2efc-4ba7-8e52-3c4babc2fa1f"},"vehicle_type_id":"4","last_reported":1746724127,"current_range_meters":2000,"station_id":"ce4bgl92rcd13ifvqbq0","pricing_plan_id":"cebpf4jnsgd1na2vs0mg"},{"bike_id":"339af029-2123-497d-9fb1-40b1d1b92250","system_id":"levelo_inurba_marseille","lat":43.31268,"lon":5.4017,"is_reserved":false,"is_disabled":true,"rental_uris":{"android":"levelo://app?vid=339af029-2123-497d-9fb1-40b1d1b92250","ios":"levelo://app?vid=339af029-2123-497d-9fb1-40b1d1b92250"},"vehicle_type_id":"4","last_reported":1746724127,"current_range_meters":2000,"station_id":"ce4bh092rcd13ifvqd30","pricing_plan_id":"cebpf4jnsgd1na2vs0mg"},{"bike_id":"c4433d96-b668-44bd-afd7-b8497c091d01","system_id":"levelo_inurba_marseille","lat":43.28284,"lon":5.35068,"is_reserved":false,"is_disabled":true,"rental_uris":{"android":"levelo://app?vid=c4433d96-b668-44bd-afd7-b8497c091d01","ios":"levelo://app?vid=c4433d96-b668-44bd-afd7-b8497c091d01"},"vehicle_type_id":"4","last_reported":1746724127,"current_range_meters":2000,"station_id":"ce4bhbp2rcd13ifvqerg","pricing_plan_id":"cebpf4jnsgd1na2vs0mg"},{"bike_id":"1a889b9a-13d7-498e-b363-4af0986a2c6e","system_id":"levelo_inurba_marseille","lat":43.24384,"lon":5.37067,"is_reserved":false,"is_disabled":false,"rental_uris":{"android":"levelo://app?vid=1a889b9a-13d7-498e-b363-4af0986a2c6e","ios":"levelo://app?vid=1a889b9a-13d7-498e-b363-4af0986a2c6e"},"vehicle_type_id":"4","last_reported":1746724127,"current_range_meters":2000,"station_id":"ce4bhhh2rcd13ifvqfk0","pricing_plan_id":"cebpf4jnsgd1na2vs0mg"},{"bike_id":"f3a777ca-753c-434e-9249-c79c4127846f","system_id":"levelo_inurba_marseille","lat":43.23968,"lon":5.36633,"is_reserved":false,"is_disabled":true,"rental_uris":{"android":"levelo://app?vid=f3a777ca-753c-434e-9249-c79c4127846f","ios":"levelo://app?vid=f3a777ca-753c-434e-9249-c79c4127846f"},"vehicle_type_id":"4","last_reported":1746724127,"current_range_meters":2000,"station_id":"ce4bhi12rcd13ifvqfp0","pricing_plan_id":"cebpf4jnsgd1na2vs0mg"},{"bike_id":"cdadf165-3eb9-4974-8c1b-aab0ae81abbc","system_id":"levelo_inurba_marseille","lat":43.30263,"lon":5.40055,"is_reserved":false,"is_disabled":false,"rental_uris":{"android":"levelo://app?vid=cdadf165-3eb9-4974-8c1b-aab0ae81abbc","ios":"levelo://app?vid=cdadf165-3eb9-4974-8c1b-aab0ae81abbc"},"vehicle_type_id":"4","last_reported":1746724127,"current_range_meters":2800,"station_id":"ce4bgvh2rcd13ifvqcs0","pricing_plan_id":"cebpf4jnsgd1na2vs0mg"},{"bike_id":"2134b90b-795c-4900-abc3-221d4c9e3282","system_id":"levelo_inurba_marseille","lat":43.28469,"lon":5.38415,"is_reserved":false,"is_disabled":false,"rental_uris":{"android":"levelo://app?vid=2134b90b-795c-4900-abc3-221d4c9e3282","ios":"levelo://app?vid=2134b90b-795c-4900-abc3-221d4c9e3282"},"vehicle_type_id":"4","last_reported":1746724127,"current_range_meters":2800,"station_id":"ce4bh512rcd13ifvqe3g","pricing_plan_id":"cebpf4jnsgd1na2vs0mg"},{"bike_id":"049dee66-f320-4a39-90d5-cac240a0fc35","system_id":"levelo_inurba_marseille","lat":43.27073,"lon":5.42271,"is_reserved":false,"is_disabled":false,"rental_uris":{"android":"levelo://app?vid=049dee66-f320-4a39-90d5-cac240a0fc35","ios":"levelo://app?vid=049dee66-f320-4a39-90d5-cac240a0fc35"},"vehicle_type_id":"4","last_reported":1746724127,"current_range_meters":2800,"station_id":"ce4bhk92rcd13ifvqgb0","pricing_plan_id":"cebpf4jnsgd1na2vs0mg"},{"bike_id":"285c8d4d-f189-41de-a54b-7a1d4a02cd31","system_id":"levelo_inurba_marseille","lat":43.33117,"lon":5.38254,"is_reserved":false,"is_disabled":false,"rental_uris":{"android":"levelo://app?vid=285c8d4d-f189-41de-a54b-7a1d4a02cd31","ios":"levelo://app?vid=285c8d4d-f189-41de-a54b-7a1d4a02cd31"},"vehicle_type_id":"4","last_reported":1746724127,"current_range_meters":3200,"station_id":"","pricing_plan_id":"cebpf4jnsgd1na2vs0mg"},{"bike_id":"912988a5-f3fb-4116-90b2-e924969bb2bc","system_id":"levelo_inurba_marseille","lat":43.31484,"lon":5.37298,"is_reserved":false,"is_disabled":false,"rental_uris":{"android":"levelo://app?vid=912988a5-f3fb-4116-90b2-e924969bb2bc","ios":"levelo://app?vid=912988a5-f3fb-4116-90b2-e924969bb2bc"},"vehicle_type_id":"4","last_reported":1746724127,"current_range_meters":3200,"station_id":"ce4bgt12rcd13ifvqcd0","pricing_plan_id":"cebpf4jnsgd1na2vs0mg"},{"bike_id":"8955ae34-c2e5-42c7-b557-2ecdb97c006c","system_id":"levelo_inurba_marseille","lat":43.30459,"lon":5.37904,"is_reserved":false,"is_disabled":false,"rental_uris":{"android":"levelo://app?vid=8955ae34-c2e5-42c7-b557-2ecdb97c006c","ios":"levelo://app?vid=8955ae34-c2e5-42c7-b557-2ecdb97c006c"},"vehicle_type_id":"4","last_reported":1746724127,"current_range_meters":3600,"station_id":"ce4bgup2rcd13ifvqcn0","pricing_plan_id":"cebpf4jnsgd1na2vs0mg"},{"bike_id":"0341b247-df57-4c0d-8fa6-ea411cd72b78","system_id":"levelo_inurba_marseille","lat":43.29049,"lon":5.37565,"is_reserved":false,"is_disabled":false,"rental_uris":{"android":"levelo://app?vid=0341b247-df57-4c0d-8fa6-ea411cd72b78","ios":"levelo://app?vid=0341b247-df57-4c0d-8fa6-ea411cd72b78"},"vehicle_type_id":"4","last_reported":1746724127,"current_range_meters":3600,"station_id":"ce4bh692rcd13ifvqe90","pricing_plan_id":"cebpf4jnsgd1na2vs0mg"},{"bike_id":"582deccb-bbdf-4664-9036-80a39dde62a4","system_id":"levelo_inurba_marseille","lat":43.28652,"lon":5.36353,"is_reserved":false,"is_disabled":false,"rental_uris":{"android":"levelo://app?vid=582deccb-bbdf-4664-9036-80a39dde62a4","ios":"levelo://app?vid=582deccb-bbdf-4664-9036-80a39dde62a4"},"vehicle_type_id":"4","last_reported":1746724127,"current_range_meters":3600,"station_id":"ce4bhah2rcd13ifvqej0","pricing_plan_id":"cebpf4jnsgd1na2vs0mg"},{"bike_id":"4c2fa54f-a2be-4cb7-91e4-6267102fd393","system_id":"levelo_inurba_marseille","lat":43.28851,"lon":5.39316,"is_reserved":false,"is_disabled":false,"rental_uris":{"android":"levelo://app?vid=4c2fa54f-a2be-4cb7-91e4-6267102fd393","ios":"levelo://app?vid=4c2fa54f-a2be-4cb7-91e4-6267102fd393"},"vehicle_type_id":"4","last_reported":1746724127,"current_range_meters":4000,"station_id":"ce4bh2p2rcd13ifvqdi0","pricing_plan_id":"cebpf4jnsgd1na2vs0mg"},{"bike_id":"a8864d1c-8030-4681-b2d1-7377f42c9b32","system_id":"levelo_inurba_marseille","lat":43.28459,"lon":5.35893,"is_reserved":false,"is_disabled":false,"rental_uris":{"android":"levelo://app?vid=a8864d1c-8030-4681-b2d1-7377f42c9b32","ios":"levelo://app?vid=a8864d1c-8030-4681-b2d1-7377f42c9b32"},"vehicle_type_id":"4","last_reported":1746724127,"current_range_meters":4000,"station_id":"ce4bhah2rcd13ifvqei0","pricing_plan_id":"cebpf4jnsgd1na2vs0mg"},{"bike_id":"dcdbb441-b13f-4818-b966-ccbe08dbc7fa","system_id":"levelo_inurba_marseille","lat":43.24807,"lon":5.37459,"is_reserved":false,"is_disabled":false,"rental_uris":{"android":"levelo://app?vid=dcdbb441-b13f-4818-b966-ccbe08dbc7fa","ios":"levelo://app?vid=dcdbb441-b13f-4818-b966-ccbe08dbc7fa"},"vehicle_type_id":"4","last_reported":1746724127,"current_range_meters":4000,"station_id":"ce4bhgh2rcd13ifvqfb0","pricing_plan_id":"cebpf4jnsgd1na2vs0mg"},{"bike_id":"80ac4d3f-01a8-4f82-a151-9e1a09939072","system_id":"levelo_inurba_marseille","lat":43.26501,"lon":5.39542,"is_reserved":false,"is_disabled":false,"rental_uris":{"android":"levelo://app?vid=80ac4d3f-01a8-4f82-a151-9e1a09939072","ios":"levelo://app?vid=80ac4d3f-01a8-4f82-a151-9e1a09939072"},"vehicle_type_id":"4","last_reported":1746724127,"current_range_meters":4000,"station_id":"ce4bhi12rcd13ifvqfq0","pricing_plan_id":"cebpf4jnsgd1na2vs0mg"},{"bike_id":"f07d7cda-229c-4e20-9f30-b11d40b9bfd0","system_id":"levelo_inurba_marseille","lat":43.2707,"lon":5.4228,"is_reserved":false,"is_disabled":false,"rental_uris":{"android":"levelo://app?vid=f07d7cda-229c-4e20-9f30-b11d40b9bfd0","ios":"levelo://app?vid=f07d7cda-229c-4e20-9f30-b11d40b9bfd0"},"vehicle_type_id":"4","last_reported":1746724127,"current_range_meters":4000,"station_id":"ce4bhk92rcd13ifvqgb0","pricing_plan_id":"cebpf4jnsgd1na2vs0mg"},{"bike_id":"b29ef839-c47a-401f-a9d8-f0fd1f657cbd","system_id":"levelo_inurba_marseille","lat":43.32867,"lon":5.38359,"is_reserved":false,"is_disabled":false,"rental_uris":{"android":"levelo://app?vid=b29ef839-c47a-401f-a9d8-f0fd1f657cbd","ios":"levelo://app?vid=b29ef839-c47a-401f-a9d8-f0fd1f657cbd"},"vehicle_type_id":"4","last_reported":1746724127,"current_range_meters":4800,"station_id":"","pricing_plan_id":"cebpf4jnsgd1na2vs0mg"},{"bike_id":"d9cfc6d3-f1b0-42d9-822f-55bc967bd7f3","system_id":"levelo_inurba_marseille","lat":43.26061,"lon":5.39396,"is_reserved":false,"is_disabled":false,"rental_uris":{"android":"levelo://app?vid=d9cfc6d3-f1b0-42d9-822f-55bc967bd7f3","ios":"levelo://app?vid=d9cfc6d3-f1b0-42d9-822f-55bc967bd7f3"},"vehicle_type_id":"4","last_reported":1746724127,"current_range_meters":4800,"station_id":"ce4bhh92rcd13ifvqfj0","pricing_plan_id":"cebpf4jnsgd1na2vs0mg"},{"bike_id":"dc2b6ca9-31fa-4d11-a594-6e05f3c8d451","system_id":"levelo_inurba_marseille","lat":43.25129,"lon":5.40314,"is_reserved":false,"is_disabled":false,"rental_uris":{"android":"levelo://app?vid=dc2b6ca9-31fa-4d11-a594-6e05f3c8d451","ios":"levelo://app?vid=dc2b6ca9-31fa-4d11-a594-6e05f3c8d451"},"vehicle_type_id":"4","last_reported":1746724127,"current_range_meters":4800,"station_id":"ce4bhlh2rcd13ifvqgig","pricing_plan_id":"cebpf4jnsgd1na2vs0mg"},{"bike_id":"9e761cdc-4e53-448d-a8fc-883f3fe61a8a","system_id":"levelo_inurba_marseille","lat":43.290374,"lon":5.359349,"is_reserved":false,"is_disabled":false,"rental_uris":{"android":"levelo://app?vid=9e761cdc-4e53-448d-a8fc-883f3fe61a8a","ios":"levelo://app?vid=9e761cdc-4e53-448d-a8fc-883f3fe61a8a"},"vehicle_type_id":"4","last_reported":1746724127,"current_range_meters":5600,"station_id":"","pricing_plan_id":"cebpf4jnsgd1na2vs0mg"},{"bike_id":"0a560be5-c7b1-496b-bf2f-7eb2917cabc0","system_id":"levelo_inurba_marseille","lat":43.29628,"lon":5.40598,"is_reserved":false,"is_disabled":false,"rental_uris":{"android":"levelo://app?vid=0a560be5-c7b1-496b-bf2f-7eb2917cabc0","ios":"levelo://app?vid=0a560be5-c7b1-496b-bf2f-7eb2917cabc0"},"vehicle_type_id":"4","last_reported":1746724127,"current_range_meters":6000,"station_id":"ce4bh0h2rcd13ifvqd60","pricing_plan_id":"cebpf4jnsgd1na2vs0mg"},{"bike_id":"b671136b-7e99-4f82-845d-3ea3e77db6eb","system_id":"levelo_inurba_marseille","lat":43.29092,"lon":5.38126,"is_reserved":false,"is_disabled":false,"rental_uris":{"android":"levelo://app?vid=b671136b-7e99-4f82-845d-3ea3e77db6eb","ios":"levelo://app?vid=b671136b-7e99-4f82-845d-3ea3e77db6eb"},"vehicle_type_id":"4","last_reported":1746724127,"current_range_meters":6000,"station_id":"ce4bh512rcd13ifvqe2g","pricing_plan_id":"cebpf4jnsgd1na2vs0mg"},{"bike_id":"b7bdbe3a-b7ec-4256-908f-dfa71835a5d1","system_id":"levelo_inurba_marseille","lat":43.29142,"lon":5.38076,"is_reserved":false,"is_disabled":false,"rental_uris":{"android":"levelo://app?vid=b7bdbe3a-b7ec-4256-908f-dfa71835a5d1","ios":"levelo://app?vid=b7bdbe3a-b7ec-4256-908f-dfa71835a5d1"},"vehicle_type_id":"4","last_reported":1746724127,"current_range_meters":6400,"station_id":"","pricing_plan_id":"cebpf4jnsgd1na2vs0mg"},{"bike_id":"6a3d6d9d-ddb6-43db-bc26-64075543453b","system_id":"levelo_inurba_marseille","lat":43.30179,"lon":5.36623,"is_reserved":false,"is_disabled":false,"rental_uris":{"android":"levelo://app?vid=6a3d6d9d-ddb6-43db-bc26-64075543453b","ios":"levelo://app?vid=6a3d6d9d-ddb6-43db-bc26-64075543453b"},"vehicle_type_id":"4","last_reported":1746724127,"current_range_meters":6400,"station_id":"ce4bgrh2rcd13ifvqc8g","pricing_plan_id":"cebpf4jnsgd1na2vs0mg"},{"bike_id":"64734ffb-2050-4338-a0b9-658f8e7ef19c","system_id":"levelo_inurba_marseille","lat":43.284882,"lon":5.385578,"is_reserved":false,"is_disabled":false,"rental_uris":{"android":"levelo://app?vid=64734ffb-2050-4338-a0b9-658f8e7ef19c","ios":"levelo://app?vid=64734ffb-2050-4338-a0b9-658f8e7ef19c"},"vehicle_type_id":"4","last_reported":1746724127,"current_range_meters":6400,"station_id":"ce4bh8p2rcd13ifvqeb0","pricing_plan_id":"cebpf4jnsgd1na2vs0mg"},{"bike_id":"07a6624e-a35e-4627-89a4-e0e7458da8a4","system_id":"levelo_inurba_marseille","lat":43.29281,"lon":5.36842,"is_reserved":false,"is_disabled":false,"rental_uris":{"android":"levelo://app?vid=07a6624e-a35e-4627-89a4-e0e7458da8a4","ios":"levelo://app?vid=07a6624e-a35e-4627-89a4-e0e7458da8a4"},"vehicle_type_id":"4","last_reported":1746724127,"current_range_meters":6400,"station_id":"ce4bhbp2rcd13ifvqesg","pricing_plan_id":"cebpf4jnsgd1na2vs0mg"},{"bike_id":"163c4ad3-00fd-4f75-9647-d5d5a687fbc6","system_id":"levelo_inurba_marseille","lat":43.24807,"lon":5.37458,"is_reserved":false,"is_disabled":false,"rental_uris":{"android":"levelo://app?vid=163c4ad3-00fd-4f75-9647-d5d5a687fbc6","ios":"levelo://app?vid=163c4ad3-00fd-4f75-9647-d5d5a687fbc6"},"vehicle_type_id":"4","last_reported":1746724127,"current_range_meters":6400,"station_id":"ce4bhgh2rcd13ifvqfb0","pricing_plan_id":"cebpf4jnsgd1na2vs0mg"},{"bike_id":"5d97afa3-75c8-4720-9690-7157f6b19de8","system_id":"levelo_inurba_marseille","lat":43.33614,"lon":5.41035,"is_reserved":false,"is_disabled":false,"rental_uris":{"android":"levelo://app?vid=5d97afa3-75c8-4720-9690-7157f6b19de8","ios":"levelo://app?vid=5d97afa3-75c8-4720-9690-7157f6b19de8"},"vehicle_type_id":"4","last_reported":1746724127,"current_range_meters":6400,"station_id":"ce4bhqh2rcd13ifvqhmg","pricing_plan_id":"cebpf4jnsgd1na2vs0mg"},{"bike_id":"14e638c3-6ba0-4ad0-8ab0-153f53fa1fbe","system_id":"levelo_inurba_marseille","lat":43.22933,"lon":5.35387,"is_reserved":false,"is_disabled":false,"rental_uris":{"android":"levelo://app?vid=14e638c3-6ba0-4ad0-8ab0-153f53fa1fbe","ios":"levelo://app?vid=14e638c3-6ba0-4ad0-8ab0-153f53fa1fbe"},"vehicle_type_id":"4","last_reported":1746724127,"current_range_meters":6800,"station_id":"cpo3532slgdg3j2ikp40","pricing_plan_id":"cebpf4jnsgd1na2vs0mg"},{"bike_id":"1f281ed5-8e05-43ba-b583-cf4e73bd4cb4","system_id":"levelo_inurba_marseille","lat":43.32109,"lon":5.36772,"is_reserved":false,"is_disabled":false,"rental_uris":{"android":"levelo://app?vid=1f281ed5-8e05-43ba-b583-cf4e73bd4cb4","ios":"levelo://app?vid=1f281ed5-8e05-43ba-b583-cf4e73bd4cb4"},"vehicle_type_id":"4","last_reported":1746724127,"current_range_meters":7200,"station_id":"","pricing_plan_id":"cebpf4jnsgd1na2vs0mg"},{"bike_id":"30a57150-f7d3-44ff-a719-985e18fc9a3a","system_id":"levelo_inurba_marseille","lat":43.31111,"lon":5.37769,"is_reserved":false,"is_disabled":false,"rental_uris":{"android":"levelo://app?vid=30a57150-f7d3-44ff-a719-985e18fc9a3a","ios":"levelo://app?vid=30a57150-f7d3-44ff-a719-985e18fc9a3a"},"vehicle_type_id":"4","last_reported":1746724127,"current_range_meters":7200,"station_id":"ce4bgt92rcd13ifvqcg0","pricing_plan_id":"cebpf4jnsgd1na2vs0mg"},{"bike_id":"ab073c2b-bb7c-4221-bb93-6cfd662563d5","system_id":"levelo_inurba_marseille","lat":43.29447,"lon":5.39747,"is_reserved":false,"is_disabled":false,"rental_uris":{"android":"levelo://app?vid=ab073c2b-bb7c-4221-bb93-6cfd662563d5","ios":"levelo://app?vid=ab073c2b-bb7c-4221-bb93-6cfd662563d5"},"vehicle_type_id":"4","last_reported":1746724127,"current_range_meters":7200,"station_id":"ce4bh3h2rcd13ifvqdo0","pricing_plan_id":"cebpf4jnsgd1na2vs0mg"},{"bike_id":"00d0d804-ab4f-47cc-8b09-9bc2ff1e29a0","system_id":"levelo_inurba_marseille","lat":43.27559,"lon":5.38427,"is_reserved":false,"is_disabled":false,"rental_uris":{"android":"levelo://app?vid=00d0d804-ab4f-47cc-8b09-9bc2ff1e29a0","ios":"levelo://app?vid=00d0d804-ab4f-47cc-8b09-9bc2ff1e29a0"},"vehicle_type_id":"4","last_reported":1746724127,"current_range_meters":7200,"station_id":"ce4bhh92rcd13ifvqfi0","pricing_plan_id":"cebpf4jnsgd1na2vs0mg"},{"bike_id":"0a26bd97-fb57-43e4-b582-4a4ae8036ddd","system_id":"levelo_inurba_marseille","lat":43.3233,"lon":5.40624,"is_reserved":false,"is_disabled":false,"rental_uris":{"android":"levelo://app?vid=0a26bd97-fb57-43e4-b582-4a4ae8036ddd","ios":"levelo://app?vid=0a26bd97-fb57-43e4-b582-4a4ae8036ddd"},"vehicle_type_id":"4","last_reported":1746724127,"current_range_meters":7200,"station_id":"ce4bhq92rcd13ifvqhjg","pricing_plan_id":"cebpf4jnsgd1na2vs0mg"},{"bike_id":"0e76abea-cd33-405f-b52e-714a37aa0aa6","system_id":"levelo_inurba_marseille","lat":43.240795,"lon":5.377106,"is_reserved":false,"is_disabled":false,"rental_uris":{"android":"levelo://app?vid=0e76abea-cd33-405f-b52e-714a37aa0aa6","ios":"levelo://app?vid=0e76abea-cd33-405f-b52e-714a37aa0aa6"},"vehicle_type_id":"4","last_reported":1746724127,"current_range_meters":8000,"station_id":"ce4bhnp2rcd13ifvqgvg","pricing_plan_id":"cebpf4jnsgd1na2vs0mg"},{"bike_id":"38125369-ce27-4760-abed-d89c73ebcf16","system_id":"levelo_inurba_marseille","lat":43.24069,"lon":5.37759,"is_reserved":false,"is_disabled":false,"rental_uris":{"android":"levelo://app?vid=38125369-ce27-4760-abed-d89c73ebcf16","ios":"levelo://app?vid=38125369-ce27-4760-abed-d89c73ebcf16"},"vehicle_type_id":"4","last_reported":1746724127,"current_range_meters":8000,"station_id":"ce4bhnp2rcd13ifvqgvg","pricing_plan_id":"cebpf4jnsgd1na2vs0mg"},{"bike_id":"4ae7a83c-4508-4420-bdfc-fc011c19b67a","system_id":"levelo_inurba_marseille","lat":43.33764,"lon":5.3748,"is_reserved":false,"is_disabled":false,"rental_uris":{"android":"levelo://app?vid=4ae7a83c-4508-4420-bdfc-fc011c19b67a","ios":"levelo://app?vid=4ae7a83c-4508-4420-bdfc-fc011c19b67a"},"vehicle_type_id":"4","last_reported":1746724127,"current_range_meters":8400,"station_id":"","pricing_plan_id":"cebpf4jnsgd1na2vs0mg"},{"bike_id":"b15fe93b-1059-4d75-abd3-040e349ce402","system_id":"levelo_inurba_marseille","lat":43.30125,"lon":5.37008,"is_reserved":false,"is_disabled":false,"rental_uris":{"android":"levelo://app?vid=b15fe93b-1059-4d75-abd3-040e349ce402","ios":"levelo://app?vid=b15fe93b-1059-4d75-abd3-040e349ce402"},"vehicle_type_id":"4","last_reported":1746724127,"current_range_meters":8400,"station_id":"","pricing_plan_id":"cebpf4jnsgd1na2vs0mg"},{"bike_id":"202760de-f2ac-48eb-9ee1-f6ce61bcd943","system_id":"levelo_inurba_marseille","lat":43.293116,"lon":5.371826,"is_reserved":false,"is_disabled":false,"rental_uris":{"android":"levelo://app?vid=202760de-f2ac-48eb-9ee1-f6ce61bcd943","ios":"levelo://app?vid=202760de-f2ac-48eb-9ee1-f6ce61bcd943"},"vehicle_type_id":"4","last_reported":1746724127,"current_range_meters":8400,"station_id":"ce4bgh92rcd13ifvqb40","pricing_plan_id":"cebpf4jnsgd1na2vs0mg"},{"bike_id":"10f97209-b623-46ae-bfb1-239801e1d397","system_id":"levelo_inurba_marseille","lat":43.295251,"lon":5.385309,"is_reserved":false,"is_disabled":false,"rental_uris":{"android":"levelo://app?vid=10f97209-b623-46ae-bfb1-239801e1d397","ios":"levelo://app?vid=10f97209-b623-46ae-bfb1-239801e1d397"},"vehicle_type_id":"4","last_reported":1746724127,"current_range_meters":8400,"station_id":"ce4bgih2rcd13ifvqba0","pricing_plan_id":"cebpf4jnsgd1na2vs0mg"},{"bike_id":"c74dfec1-2eda-4084-9d4b-bd67de345a06","system_id":"levelo_inurba_marseille","lat":43.303098,"lon":5.36914,"is_reserved":false,"is_disabled":false,"rental_uris":{"android":"levelo://app?vid=c74dfec1-2eda-4084-9d4b-bd67de345a06","ios":"levelo://app?vid=c74dfec1-2eda-4084-9d4b-bd67de345a06"},"vehicle_type_id":"4","last_reported":1746724127,"current_range_meters":8400,"station_id":"ce4bgqh2rcd13ifvqc5g","pricing_plan_id":"cebpf4jnsgd1na2vs0mg"},{"bike_id":"f24c791a-adc1-44f0-8eaa-d8c38ec2efad","system_id":"levelo_inurba_marseille","lat":43.28399,"lon":5.37524,"is_reserved":false,"is_disabled":false,"rental_uris":{"android":"levelo://app?vid=f24c791a-adc1-44f0-8eaa-d8c38ec2efad","ios":"levelo://app?vid=f24c791a-adc1-44f0-8eaa-d8c38ec2efad"},"vehicle_type_id":"4","last_reported":1746724127,"current_range_meters":8400,"station_id":"ce4bh412rcd13ifvqds0","pricing_plan_id":"cebpf4jnsgd1na2vs0mg"},{"bike_id":"1bd14362-1c43-462a-a68c-607ad621dd31","system_id":"levelo_inurba_marseille","lat":43.29185,"lon":5.35811,"is_reserved":false,"is_disabled":false,"rental_uris":{"android":"levelo://app?vid=1bd14362-1c43-462a-a68c-607ad621dd31","ios":"levelo://app?vid=1bd14362-1c43-462a-a68c-607ad621dd31"},"vehicle_type_id":"4","last_reported":1746724127,"current_range_meters":8400,"station_id":"ce4bhb12rcd13ifvqel0","pricing_plan_id":"cebpf4jnsgd1na2vs0mg"},{"bike_id":"80d67ef9-687e-4e53-a880-dd2c919af038","system_id":"levelo_inurba_marseille","lat":43.25866,"lon":5.39895,"is_reserved":false,"is_disabled":false,"rental_uris":{"android":"levelo://app?vid=80d67ef9-687e-4e53-a880-dd2c919af038","ios":"levelo://app?vid=80d67ef9-687e-4e53-a880-dd2c919af038"},"vehicle_type_id":"4","last_reported":1746724127,"current_range_meters":8400,"station_id":"ce4bhl92rcd13ifvqghg","pricing_plan_id":"cebpf4jnsgd1na2vs0mg"},{"bike_id":"43a08b85-fdb7-4638-8c4b-90275ef7c96b","system_id":"levelo_inurba_marseille","lat":43.25086,"lon":5.39529,"is_reserved":false,"is_disabled":false,"rental_uris":{"android":"levelo://app?vid=43a08b85-fdb7-4638-8c4b-90275ef7c96b","ios":"levelo://app?vid=43a08b85-fdb7-4638-8c4b-90275ef7c96b"},"vehicle_type_id":"4","last_reported":1746724127,"current_range_meters":8400,"station_id":"ce4bhm12rcd13ifvqgkg","pricing_plan_id":"cebpf4jnsgd1na2vs0mg"},{"bike_id":"7cc05a61-9140-4465-9a2c-8b6309f19d21","system_id":"levelo_inurba_marseille","lat":43.29864,"lon":5.39758,"is_reserved":false,"is_disabled":false,"rental_uris":{"android":"levelo://app?vid=7cc05a61-9140-4465-9a2c-8b6309f19d21","ios":"levelo://app?vid=7cc05a61-9140-4465-9a2c-8b6309f19d21"},"vehicle_type_id":"4","last_reported":1746724127,"current_range_meters":8800,"station_id":"ce4bh0h2rcd13ifvqd50","pricing_plan_id":"cebpf4jnsgd1na2vs0mg"},{"bike_id":"a2ca235d-5f79-451e-ae25-45c73e307747","system_id":"levelo_inurba_marseille","lat":43.29008,"lon":5.35619,"is_reserved":false,"is_disabled":false,"rental_uris":{"android":"levelo://app?vid=a2ca235d-5f79-451e-ae25-45c73e307747","ios":"levelo://app?vid=a2ca235d-5f79-451e-ae25-45c73e307747"},"vehicle_type_id":"4","last_reported":1746724127,"current_range_meters":8800,"station_id":"ce4bhb92rcd13ifvqen0","pricing_plan_id":"cebpf4jnsgd1na2vs0mg"},{"bike_id":"95076552-981f-4d5e-bf4d-a6356c7476e2","system_id":"levelo_inurba_marseille","lat":43.2901,"lon":5.3561,"is_reserved":false,"is_disabled":false,"rental_uris":{"android":"levelo://app?vid=95076552-981f-4d5e-bf4d-a6356c7476e2","ios":"levelo://app?vid=95076552-981f-4d5e-bf4d-a6356c7476e2"},"vehicle_type_id":"4","last_reported":1746724127,"current_range_meters":8800,"station_id":"ce4bhb92rcd13ifvqen0","pricing_plan_id":"cebpf4jnsgd1na2vs0mg"},{"bike_id":"ffb68a59-b69f-475a-96d5-40c61ba2ea50","system_id":"levelo_inurba_marseille","lat":43.25868,"lon":5.39896,"is_reserved":false,"is_disabled":false,"rental_uris":{"android":"levelo://app?vid=ffb68a59-b69f-475a-96d5-40c61ba2ea50","ios":"levelo://app?vid=ffb68a59-b69f-475a-96d5-40c61ba2ea50"},"vehicle_type_id":"4","last_reported":1746724127,"current_range_meters":8800,"station_id":"ce4bhl92rcd13ifvqghg","pricing_plan_id":"cebpf4jnsgd1na2vs0mg"},{"bike_id":"8b698a34-fbf5-484e-9ecb-26e22393bc90","system_id":"levelo_inurba_marseille","lat":43.330444,"lon":5.390567,"is_reserved":false,"is_disabled":false,"rental_uris":{"android":"levelo://app?vid=8b698a34-fbf5-484e-9ecb-26e22393bc90","ios":"levelo://app?vid=8b698a34-fbf5-484e-9ecb-26e22393bc90"},"vehicle_type_id":"4","last_reported":1746724127,"current_range_meters":9200,"station_id":"ce4bhr92rcd13ifvqhrg","pricing_plan_id":"cebpf4jnsgd1na2vs0mg"},{"bike_id":"1e39b4d9-43d3-4366-94de-1dbba7a2c508","system_id":"levelo_inurba_marseille","lat":43.24646,"lon":5.3889,"is_reserved":false,"is_disabled":false,"rental_uris":{"android":"levelo://app?vid=1e39b4d9-43d3-4366-94de-1dbba7a2c508","ios":"levelo://app?vid=1e39b4d9-43d3-4366-94de-1dbba7a2c508"},"vehicle_type_id":"4","last_reported":1746724127,"current_range_meters":9600,"station_id":"ce4bhg12rcd13ifvqf60","pricing_plan_id":"cebpf4jnsgd1na2vs0mg"},{"bike_id":"905d9d77-2a23-4ae7-87db-c83b6407f08b","system_id":"levelo_inurba_marseille","lat":43.2481,"lon":5.37459,"is_reserved":false,"is_disabled":false,"rental_uris":{"android":"levelo://app?vid=905d9d77-2a23-4ae7-87db-c83b6407f08b","ios":"levelo://app?vid=905d9d77-2a23-4ae7-87db-c83b6407f08b"},"vehicle_type_id":"4","last_reported":1746724127,"current_range_meters":9600,"station_id":"ce4bhgh2rcd13ifvqfb0","pricing_plan_id":"cebpf4jnsgd1na2vs0mg"},{"bike_id":"bc012fdc-acd4-4557-9d5a-20dd3c8dbad1","system_id":"levelo_inurba_marseille","lat":43.28157,"lon":5.42648,"is_reserved":false,"is_disabled":false,"rental_uris":{"android":"levelo://app?vid=bc012fdc-acd4-4557-9d5a-20dd3c8dbad1","ios":"levelo://app?vid=bc012fdc-acd4-4557-9d5a-20dd3c8dbad1"},"vehicle_type_id":"4","last_reported":1746724127,"current_range_meters":9600,"station_id":"ce4bhnh2rcd13ifvqgug","pricing_plan_id":"cebpf4jnsgd1na2vs0mg"},{"bike_id":"6ba1c40f-3cc6-4d0d-84a8-ca08ac2ef10d","system_id":"levelo_inurba_marseille","lat":43.26943,"lon":5.40254,"is_reserved":false,"is_disabled":false,"rental_uris":{"android":"levelo://app?vid=6ba1c40f-3cc6-4d0d-84a8-ca08ac2ef10d","ios":"levelo://app?vid=6ba1c40f-3cc6-4d0d-84a8-ca08ac2ef10d"},"vehicle_type_id":"4","last_reported":1746724127,"current_range_meters":9600,"station_id":"cjm6bp8fraef2m0cb0m0","pricing_plan_id":"cebpf4jnsgd1na2vs0mg"},{"bike_id":"a1aeaa93-47c9-4285-9bc4-42110cc611c1","system_id":"levelo_inurba_marseille","lat":43.3013,"lon":5.39877,"is_reserved":false,"is_disabled":false,"rental_uris":{"android":"levelo://app?vid=a1aeaa93-47c9-4285-9bc4-42110cc611c1","ios":"levelo://app?vid=a1aeaa93-47c9-4285-9bc4-42110cc611c1"},"vehicle_type_id":"4","last_reported":1746724127,"current_range_meters":10000,"station_id":"ce4bh0h2rcd13ifvqd40","pricing_plan_id":"cebpf4jnsgd1na2vs0mg"},{"bike_id":"b4f22f53-e088-49ad-bea3-2a2151ab4e0d","system_id":"levelo_inurba_marseille","lat":43.292816,"lon":5.368487,"is_reserved":false,"is_disabled":false,"rental_uris":{"android":"levelo://app?vid=b4f22f53-e088-49ad-bea3-2a2151ab4e0d","ios":"levelo://app?vid=b4f22f53-e088-49ad-bea3-2a2151ab4e0d"},"vehicle_type_id":"4","last_reported":1746724127,"current_range_meters":10000,"station_id":"ce4bhbp2rcd13ifvqesg","pricing_plan_id":"cebpf4jnsgd1na2vs0mg"},{"bike_id":"bd477215-37ef-4354-a9f2-aa9d1aa0c873","system_id":"levelo_inurba_marseille","lat":43.24546,"lon":5.39525,"is_reserved":false,"is_disabled":false,"rental_uris":{"android":"levelo://app?vid=bd477215-37ef-4354-a9f2-aa9d1aa0c873","ios":"levelo://app?vid=bd477215-37ef-4354-a9f2-aa9d1aa0c873"},"vehicle_type_id":"4","last_reported":1746724127,"current_range_meters":10000,"station_id":"ce4bhlp2rcd13ifvqgjg","pricing_plan_id":"cebpf4jnsgd1na2vs0mg"},{"bike_id":"c85b804a-7460-4531-8df0-70e10b56ecf8","system_id":"levelo_inurba_marseille","lat":43.30415,"lon":5.4128,"is_reserved":false,"is_disabled":false,"rental_uris":{"android":"levelo://app?vid=c85b804a-7460-4531-8df0-70e10b56ecf8","ios":"levelo://app?vid=c85b804a-7460-4531-8df0-70e10b56ecf8"},"vehicle_type_id":"4","last_reported":1746724127,"current_range_meters":10000,"station_id":"ce4bhop2rcd13ifvqh8g","pricing_plan_id":"cebpf4jnsgd1na2vs0mg"},{"bike_id":"93228bc1-7c93-455a-8c20-564b29e103f3","system_id":"levelo_inurba_marseille","lat":43.24649,"lon":5.38893,"is_reserved":false,"is_disabled":false,"rental_uris":{"android":"levelo://app?vid=93228bc1-7c93-455a-8c20-564b29e103f3","ios":"levelo://app?vid=93228bc1-7c93-455a-8c20-564b29e103f3"},"vehicle_type_id":"4","last_reported":1746724127,"current_range_meters":11200,"station_id":"ce4bhg12rcd13ifvqf60","pricing_plan_id":"cebpf4jnsgd1na2vs0mg"},{"bike_id":"e3dbda1b-ae3b-4188-9256-f5182e364f08","system_id":"levelo_inurba_marseille","lat":43.254898,"lon":5.381024,"is_reserved":false,"is_disabled":false,"rental_uris":{"android":"levelo://app?vid=e3dbda1b-ae3b-4188-9256-f5182e364f08","ios":"levelo://app?vid=e3dbda1b-ae3b-4188-9256-f5182e364f08"},"vehicle_type_id":"4","last_reported":1746724127,"current_range_meters":11200,"station_id":"ce4bhhh2rcd13ifvqfk0","pricing_plan_id":"cebpf4jnsgd1na2vs0mg"},{"bike_id":"19b497f5-022e-48df-8516-8db4d8bb7cc4","system_id":"levelo_inurba_marseille","lat":43.27074,"lon":5.42265,"is_reserved":false,"is_disabled":false,"rental_uris":{"android":"levelo://app?vid=19b497f5-022e-48df-8516-8db4d8bb7cc4","ios":"levelo://app?vid=19b497f5-022e-48df-8516-8db4d8bb7cc4"},"vehicle_type_id":"4","last_reported":1746724127,"current_range_meters":11200,"station_id":"ce4bhk92rcd13ifvqgb0","pricing_plan_id":"cebpf4jnsgd1na2vs0mg"},{"bike_id":"28f2d2bd-60e4-40d5-b724-58902b076511","system_id":"levelo_inurba_marseille","lat":43.270703,"lon":5.422808,"is_reserved":false,"is_disabled":false,"rental_uris":{"android":"levelo://app?vid=28f2d2bd-60e4-40d5-b724-58902b076511","ios":"levelo://app?vid=28f2d2bd-60e4-40d5-b724-58902b076511"},"vehicle_type_id":"4","last_reported":1746724127,"current_range_meters":11200,"station_id":"ce4bhk92rcd13ifvqgb0","pricing_plan_id":"cebpf4jnsgd1na2vs0mg"},{"bike_id":"809c8673-c032-46b9-aa07-62c38e26d44e","system_id":"levelo_inurba_marseille","lat":43.25041,"lon":5.38797,"is_reserved":false,"is_disabled":false,"rental_uris":{"android":"levelo://app?vid=809c8673-c032-46b9-aa07-62c38e26d44e","ios":"levelo://app?vid=809c8673-c032-46b9-aa07-62c38e26d44e"},"vehicle_type_id":"4","last_reported":1746724127,"current_range_meters":11600,"station_id":"","pricing_plan_id":"cebpf4jnsgd1na2vs0mg"},{"bike_id":"b5514611-533b-4e5c-b3cd-ed8cd7d0d680","system_id":"levelo_inurba_marseille","lat":43.24387,"lon":5.37065,"is_reserved":false,"is_disabled":false,"rental_uris":{"android":"levelo://app?vid=b5514611-533b-4e5c-b3cd-ed8cd7d0d680","ios":"levelo://app?vid=b5514611-533b-4e5c-b3cd-ed8cd7d0d680"},"vehicle_type_id":"4","last_reported":1746724127,"current_range_meters":11600,"station_id":"ce4bhhh2rcd13ifvqfk0","pricing_plan_id":"cebpf4jnsgd1na2vs0mg"},{"bike_id":"31d5a66b-07d0-4e2a-9265-7d0807e7dc13","system_id":"levelo_inurba_marseille","lat":43.26231,"lon":5.40454,"is_reserved":false,"is_disabled":false,"rental_uris":{"android":"levelo://app?vid=31d5a66b-07d0-4e2a-9265-7d0807e7dc13","ios":"levelo://app?vid=31d5a66b-07d0-4e2a-9265-7d0807e7dc13"},"vehicle_type_id":"4","last_reported":1746724127,"current_range_meters":11600,"station_id":"ce4bhmh2rcd13ifvqgmg","pricing_plan_id":"cebpf4jnsgd1na2vs0mg"},{"bike_id":"ec9bcb33-ebc7-411c-938d-6d1b150d12fb","system_id":"levelo_inurba_marseille","lat":43.27496,"lon":5.42452,"is_reserved":false,"is_disabled":false,"rental_uris":{"android":"levelo://app?vid=ec9bcb33-ebc7-411c-938d-6d1b150d12fb","ios":"levelo://app?vid=ec9bcb33-ebc7-411c-938d-6d1b150d12fb"},"vehicle_type_id":"4","last_reported":1746724127,"current_range_meters":11600,"station_id":"ce4bhn92rcd13ifvqgrg","pricing_plan_id":"cebpf4jnsgd1na2vs0mg"},{"bike_id":"6db90fcf-4697-4fff-95a6-ec9aee1c025e","system_id":"levelo_inurba_marseille","lat":43.27809,"lon":5.40721,"is_reserved":false,"is_disabled":false,"rental_uris":{"android":"levelo://app?vid=6db90fcf-4697-4fff-95a6-ec9aee1c025e","ios":"levelo://app?vid=6db90fcf-4697-4fff-95a6-ec9aee1c025e"},"vehicle_type_id":"4","last_reported":1746724127,"current_range_meters":11600,"station_id":"ce4bhnh2rcd13ifvqgtg","pricing_plan_id":"cebpf4jnsgd1na2vs0mg"},{"bike_id":"6971f759-8594-489e-a8f6-9153c9a9c438","system_id":"levelo_inurba_marseille","lat":43.27668,"lon":5.41959,"is_reserved":false,"is_disabled":false,"rental_uris":{"android":"levelo://app?vid=6971f759-8594-489e-a8f6-9153c9a9c438","ios":"levelo://app?vid=6971f759-8594-489e-a8f6-9153c9a9c438"},"vehicle_type_id":"4","last_reported":1746724127,"current_range_meters":12000,"station_id":"","pricing_plan_id":"cebpf4jnsgd1na2vs0mg"},{"bike_id":"e936f394-fecf-4d44-aad1-28e9b6c2baca","system_id":"levelo_inurba_marseille","lat":43.26801,"lon":5.40267,"is_reserved":false,"is_disabled":false,"rental_uris":{"android":"levelo://app?vid=e936f394-fecf-4d44-aad1-28e9b6c2baca","ios":"levelo://app?vid=e936f394-fecf-4d44-aad1-28e9b6c2baca"},"vehicle_type_id":"4","last_reported":1746724127,"current_range_meters":12000,"station_id":"ce501612rcd8frsf0b60","pricing_plan_id":"cebpf4jnsgd1na2vs0mg"},{"bike_id":"6fe4a079-7c04-4d04-baab-ff6ed7bffd54","system_id":"levelo_inurba_marseille","lat":43.26939,"lon":5.40262,"is_reserved":false,"is_disabled":false,"rental_uris":{"android":"levelo://app?vid=6fe4a079-7c04-4d04-baab-ff6ed7bffd54","ios":"levelo://app?vid=6fe4a079-7c04-4d04-baab-ff6ed7bffd54"},"vehicle_type_id":"4","last_reported":1746724127,"current_range_meters":12000,"station_id":"cjm6bp8fraef2m0cb0m0","pricing_plan_id":"cebpf4jnsgd1na2vs0mg"},{"bike_id":"7c7ccd9a-9eea-4fa0-b9ba-a4427ed9bf38","system_id":"levelo_inurba_marseille","lat":43.28716,"lon":5.36089,"is_reserved":false,"is_disabled":false,"rental_uris":{"android":"levelo://app?vid=7c7ccd9a-9eea-4fa0-b9ba-a4427ed9bf38","ios":"levelo://app?vid=7c7ccd9a-9eea-4fa0-b9ba-a4427ed9bf38"},"vehicle_type_id":"4","last_reported":1746724127,"current_range_meters":12000,"station_id":"cki0cbj6b192h4jlfktg","pricing_plan_id":"cebpf4jnsgd1na2vs0mg"},{"bike_id":"c657101e-e43a-4597-9842-4f0119442338","system_id":"levelo_inurba_marseille","lat":43.29429,"lon":5.38612,"is_reserved":false,"is_disabled":false,"rental_uris":{"android":"levelo://app?vid=c657101e-e43a-4597-9842-4f0119442338","ios":"levelo://app?vid=c657101e-e43a-4597-9842-4f0119442338"},"vehicle_type_id":"4","last_reported":1746724127,"current_range_meters":12400,"station_id":"ce4bh2h2rcd13ifvqdh0","pricing_plan_id":"cebpf4jnsgd1na2vs0mg"},{"bike_id":"caccb556-2ad0-45b8-84b8-819024dd44e6","system_id":"levelo_inurba_marseille","lat":43.29808,"lon":5.36785,"is_reserved":false,"is_disabled":false,"rental_uris":{"android":"levelo://app?vid=caccb556-2ad0-45b8-84b8-819024dd44e6","ios":"levelo://app?vid=caccb556-2ad0-45b8-84b8-819024dd44e6"},"vehicle_type_id":"4","last_reported":1746724127,"current_range_meters":12800,"station_id":"","pricing_plan_id":"cebpf4jnsgd1na2vs0mg"},{"bike_id":"6d194dd1-c7b8-4dc1-aac7-053eb28eda54","system_id":"levelo_inurba_marseille","lat":43.2896,"lon":5.37258,"is_reserved":false,"is_disabled":false,"rental_uris":{"android":"levelo://app?vid=6d194dd1-c7b8-4dc1-aac7-053eb28eda54","ios":"levelo://app?vid=6d194dd1-c7b8-4dc1-aac7-053eb28eda54"},"vehicle_type_id":"4","last_reported":1746724127,"current_range_meters":13600,"station_id":"","pricing_plan_id":"cebpf4jnsgd1na2vs0mg"},{"bike_id":"38af9ea0-411f-4969-b48a-fd86a0c29dcb","system_id":"levelo_inurba_marseille","lat":43.29196,"lon":5.35808,"is_reserved":false,"is_disabled":false,"rental_uris":{"android":"levelo://app?vid=38af9ea0-411f-4969-b48a-fd86a0c29dcb","ios":"levelo://app?vid=38af9ea0-411f-4969-b48a-fd86a0c29dcb"},"vehicle_type_id":"4","last_reported":1746724127,"current_range_meters":13600,"station_id":"ce4bhb12rcd13ifvqel0","pricing_plan_id":"cebpf4jnsgd1na2vs0mg"},{"bike_id":"386b6ddb-e79a-4339-861f-0278d98ae05a","system_id":"levelo_inurba_marseille","lat":43.29223,"lon":5.36096,"is_reserved":false,"is_disabled":false,"rental_uris":{"android":"levelo://app?vid=386b6ddb-e79a-4339-861f-0278d98ae05a","ios":"levelo://app?vid=386b6ddb-e79a-4339-861f-0278d98ae05a"},"vehicle_type_id":"4","last_reported":1746724127,"current_range_meters":13600,"station_id":"ce4bhbh2rcd13ifvqeqg","pricing_plan_id":"cebpf4jnsgd1na2vs0mg"},{"bike_id":"fbfaace1-658a-4075-8ea2-fdfc40b2191f","system_id":"levelo_inurba_marseille","lat":43.23962,"lon":5.36635,"is_reserved":false,"is_disabled":false,"rental_uris":{"android":"levelo://app?vid=fbfaace1-658a-4075-8ea2-fdfc40b2191f","ios":"levelo://app?vid=fbfaace1-658a-4075-8ea2-fdfc40b2191f"},"vehicle_type_id":"4","last_reported":1746724127,"current_range_meters":13600,"station_id":"ce4bhi12rcd13ifvqfp0","pricing_plan_id":"cebpf4jnsgd1na2vs0mg"},{"bike_id":"a2309e80-b2ba-42c9-9c60-147f0babf9f9","system_id":"levelo_inurba_marseille","lat":43.30821,"lon":5.37061,"is_reserved":false,"is_disabled":false,"rental_uris":{"android":"levelo://app?vid=a2309e80-b2ba-42c9-9c60-147f0babf9f9","ios":"levelo://app?vid=a2309e80-b2ba-42c9-9c60-147f0babf9f9"},"vehicle_type_id":"4","last_reported":1746724127,"current_range_meters":14000,"station_id":"","pricing_plan_id":"cebpf4jnsgd1na2vs0mg"},{"bike_id":"e6282093-23fb-41a9-859d-c0d9ad966535","system_id":"levelo_inurba_marseille","lat":43.31642,"lon":5.38168,"is_reserved":false,"is_disabled":false,"rental_uris":{"android":"levelo://app?vid=e6282093-23fb-41a9-859d-c0d9ad966535","ios":"levelo://app?vid=e6282093-23fb-41a9-859d-c0d9ad966535"},"vehicle_type_id":"4","last_reported":1746724127,"current_range_meters":14000,"station_id":"","pricing_plan_id":"cebpf4jnsgd1na2vs0mg"},{"bike_id":"02ef61de-7b1f-408e-b5f0-f79a8644dafc","system_id":"levelo_inurba_marseille","lat":43.3033,"lon":5.40426,"is_reserved":false,"is_disabled":false,"rental_uris":{"android":"levelo://app?vid=02ef61de-7b1f-408e-b5f0-f79a8644dafc","ios":"levelo://app?vid=02ef61de-7b1f-408e-b5f0-f79a8644dafc"},"vehicle_type_id":"4","last_reported":1746724127,"current_range_meters":14000,"station_id":"ce4bh012rcd13ifvqd10","pricing_plan_id":"cebpf4jnsgd1na2vs0mg"},{"bike_id":"aca0ed31-b723-47f3-b1b1-8d5777694c6c","system_id":"levelo_inurba_marseille","lat":43.3236,"lon":5.38916,"is_reserved":false,"is_disabled":false,"rental_uris":{"android":"levelo://app?vid=aca0ed31-b723-47f3-b1b1-8d5777694c6c","ios":"levelo://app?vid=aca0ed31-b723-47f3-b1b1-8d5777694c6c"},"vehicle_type_id":"4","last_reported":1746724127,"current_range_meters":14000,"station_id":"ce4bhqp2rcd13ifvqhog","pricing_plan_id":"cebpf4jnsgd1na2vs0mg"},{"bike_id":"e7a99468-09f5-4430-a14a-379574d6e496","system_id":"levelo_inurba_marseille","lat":43.29685,"lon":5.36039,"is_reserved":false,"is_disabled":false,"rental_uris":{"android":"levelo://app?vid=e7a99468-09f5-4430-a14a-379574d6e496","ios":"levelo://app?vid=e7a99468-09f5-4430-a14a-379574d6e496"},"vehicle_type_id":"4","last_reported":1746724127,"current_range_meters":14400,"station_id":"","pricing_plan_id":"cebpf4jnsgd1na2vs0mg"},{"bike_id":"f40f0cad-c41d-4d57-bdd7-6db5251ff5d6","system_id":"levelo_inurba_marseille","lat":43.30132,"lon":5.39886,"is_reserved":false,"is_disabled":false,"rental_uris":{"android":"levelo://app?vid=f40f0cad-c41d-4d57-bdd7-6db5251ff5d6","ios":"levelo://app?vid=f40f0cad-c41d-4d57-bdd7-6db5251ff5d6"},"vehicle_type_id":"4","last_reported":1746724127,"current_range_meters":14400,"station_id":"ce4bh0h2rcd13ifvqd40","pricing_plan_id":"cebpf4jnsgd1na2vs0mg"},{"bike_id":"7a2c6a64-1964-4d7a-81c5-9e0681fb0501","system_id":"levelo_inurba_marseille","lat":43.265624,"lon":5.389843,"is_reserved":false,"is_disabled":false,"rental_uris":{"android":"levelo://app?vid=7a2c6a64-1964-4d7a-81c5-9e0681fb0501","ios":"levelo://app?vid=7a2c6a64-1964-4d7a-81c5-9e0681fb0501"},"vehicle_type_id":"4","last_reported":1746724127,"current_range_meters":14400,"station_id":"ce4bhe12rcd13ifvqf30","pricing_plan_id":"cebpf4jnsgd1na2vs0mg"},{"bike_id":"205d656c-08f9-4754-b558-3d0075eb3a31","system_id":"levelo_inurba_marseille","lat":43.25824,"lon":5.3943,"is_reserved":false,"is_disabled":false,"rental_uris":{"android":"levelo://app?vid=205d656c-08f9-4754-b558-3d0075eb3a31","ios":"levelo://app?vid=205d656c-08f9-4754-b558-3d0075eb3a31"},"vehicle_type_id":"4","last_reported":1746724127,"current_range_meters":14400,"station_id":"ce4bhip2rcd13ifvqft0","pricing_plan_id":"cebpf4jnsgd1na2vs0mg"},{"bike_id":"b1b4baef-ec3e-49a5-ad1c-02b005f3d256","system_id":"levelo_inurba_marseille","lat":43.28147,"lon":5.44288,"is_reserved":false,"is_disabled":false,"rental_uris":{"android":"levelo://app?vid=b1b4baef-ec3e-49a5-ad1c-02b005f3d256","ios":"levelo://app?vid=b1b4baef-ec3e-49a5-ad1c-02b005f3d256"},"vehicle_type_id":"4","last_reported":1746724127,"current_range_meters":14800,"station_id":"","pricing_plan_id":"cebpf4jnsgd1na2vs0mg"},{"bike_id":"c492477d-b9ac-445e-93da-964e25a23066","system_id":"levelo_inurba_marseille","lat":43.25939,"lon":5.40907,"is_reserved":false,"is_disabled":false,"rental_uris":{"android":"levelo://app?vid=c492477d-b9ac-445e-93da-964e25a23066","ios":"levelo://app?vid=c492477d-b9ac-445e-93da-964e25a23066"},"vehicle_type_id":"4","last_reported":1746724127,"current_range_meters":14800,"station_id":"ce4bhm92rcd13ifvqglg","pricing_plan_id":"cebpf4jnsgd1na2vs0mg"},{"bike_id":"d268af14-3f43-4f16-bb18-eb92ea3075ca","system_id":"levelo_inurba_marseille","lat":43.30818,"lon":5.37346,"is_reserved":false,"is_disabled":false,"rental_uris":{"android":"levelo://app?vid=d268af14-3f43-4f16-bb18-eb92ea3075ca","ios":"levelo://app?vid=d268af14-3f43-4f16-bb18-eb92ea3075ca"},"vehicle_type_id":"4","last_reported":1746724127,"current_range_meters":15200,"station_id":"","pricing_plan_id":"cebpf4jnsgd1na2vs0mg"},{"bike_id":"3d160c15-24a3-4813-be0c-6766ce7c7397","system_id":"levelo_inurba_marseille","lat":43.29588,"lon":5.37725,"is_reserved":false,"is_disabled":false,"rental_uris":{"android":"levelo://app?vid=3d160c15-24a3-4813-be0c-6766ce7c7397","ios":"levelo://app?vid=3d160c15-24a3-4813-be0c-6766ce7c7397"},"vehicle_type_id":"4","last_reported":1746724127,"current_range_meters":15200,"station_id":"ce4bgi92rcd13ifvqb90","pricing_plan_id":"cebpf4jnsgd1na2vs0mg"},{"bike_id":"f09ff768-9517-44ec-9918-eeb3f408c0b6","system_id":"levelo_inurba_marseille","lat":43.30927,"lon":5.40147,"is_reserved":false,"is_disabled":false,"rental_uris":{"android":"levelo://app?vid=f09ff768-9517-44ec-9918-eeb3f408c0b6","ios":"levelo://app?vid=f09ff768-9517-44ec-9918-eeb3f408c0b6"},"vehicle_type_id":"4","last_reported":1746724127,"current_range_meters":15200,"station_id":"ce4bgvp2rcd13ifvqct0","pricing_plan_id":"cebpf4jnsgd1na2vs0mg"},{"bike_id":"b0c54ead-2c9a-4d45-904a-5e1b9abf7338","system_id":"levelo_inurba_marseille","lat":43.27906,"lon":5.44054,"is_reserved":false,"is_disabled":false,"rental_uris":{"android":"levelo://app?vid=b0c54ead-2c9a-4d45-904a-5e1b9abf7338","ios":"levelo://app?vid=b0c54ead-2c9a-4d45-904a-5e1b9abf7338"},"vehicle_type_id":"4","last_reported":1746724127,"current_range_meters":16000,"station_id":"","pricing_plan_id":"cebpf4jnsgd1na2vs0mg"},{"bike_id":"da060680-f0ac-4662-8130-4e9c1df93739","system_id":"levelo_inurba_marseille","lat":43.30421,"lon":5.41291,"is_reserved":false,"is_disabled":false,"rental_uris":{"android":"levelo://app?vid=da060680-f0ac-4662-8130-4e9c1df93739","ios":"levelo://app?vid=da060680-f0ac-4662-8130-4e9c1df93739"},"vehicle_type_id":"4","last_reported":1746724127,"current_range_meters":16000,"station_id":"ce4bhop2rcd13ifvqh8g","pricing_plan_id":"cebpf4jnsgd1na2vs0mg"},{"bike_id":"79ce68e4-bddb-4180-bd5f-7b5e696ec883","system_id":"levelo_inurba_marseille","lat":43.318967,"lon":5.40734,"is_reserved":false,"is_disabled":false,"rental_uris":{"android":"levelo://app?vid=79ce68e4-bddb-4180-bd5f-7b5e696ec883","ios":"levelo://app?vid=79ce68e4-bddb-4180-bd5f-7b5e696ec883"},"vehicle_type_id":"4","last_reported":1746724127,"current_range_meters":16000,"station_id":"ce4bhq12rcd13ifvqhig","pricing_plan_id":"cebpf4jnsgd1na2vs0mg"},{"bike_id":"d7fcc0e4-c03f-4cec-813c-1d3ea07be76e","system_id":"levelo_inurba_marseille","lat":43.3032,"lon":5.39208,"is_reserved":false,"is_disabled":false,"rental_uris":{"android":"levelo://app?vid=d7fcc0e4-c03f-4cec-813c-1d3ea07be76e","ios":"levelo://app?vid=d7fcc0e4-c03f-4cec-813c-1d3ea07be76e"},"vehicle_type_id":"4","last_reported":1746724127,"current_range_meters":16400,"station_id":"ce4bgkh2rcd13ifvqbk0","pricing_plan_id":"cebpf4jnsgd1na2vs0mg"},{"bike_id":"cc0666e5-60c0-46db-b65b-894a6f24d790","system_id":"levelo_inurba_marseille","lat":43.307927,"lon":5.381624,"is_reserved":false,"is_disabled":false,"rental_uris":{"android":"levelo://app?vid=cc0666e5-60c0-46db-b65b-894a6f24d790","ios":"levelo://app?vid=cc0666e5-60c0-46db-b65b-894a6f24d790"},"vehicle_type_id":"4","last_reported":1746724127,"current_range_meters":16400,"station_id":"ce4bgt12rcd13ifvqce0","pricing_plan_id":"cebpf4jnsgd1na2vs0mg"},{"bike_id":"77b80983-5913-4e60-a92b-56c1ad868099","system_id":"levelo_inurba_marseille","lat":43.30885,"lon":5.39666,"is_reserved":false,"is_disabled":false,"rental_uris":{"android":"levelo://app?vid=77b80983-5913-4e60-a92b-56c1ad868099","ios":"levelo://app?vid=77b80983-5913-4e60-a92b-56c1ad868099"},"vehicle_type_id":"4","last_reported":1746724127,"current_range_meters":16400,"station_id":"ce4bh012rcd13ifvqcv0","pricing_plan_id":"cebpf4jnsgd1na2vs0mg"},{"bike_id":"dd75649f-3e8f-41d7-9873-b626bdf3b455","system_id":"levelo_inurba_marseille","lat":43.26205,"lon":5.37929,"is_reserved":false,"is_disabled":false,"rental_uris":{"android":"levelo://app?vid=dd75649f-3e8f-41d7-9873-b626bdf3b455","ios":"levelo://app?vid=dd75649f-3e8f-41d7-9873-b626bdf3b455"},"vehicle_type_id":"4","last_reported":1746724127,"current_range_meters":16400,"station_id":"ce4bhjp2rcd13ifvqg90","pricing_plan_id":"cebpf4jnsgd1na2vs0mg"},{"bike_id":"45daa4b2-7b52-4f5f-858a-9fffd4dd86f9","system_id":"levelo_inurba_marseille","lat":43.278401,"lon":5.391991,"is_reserved":false,"is_disabled":false,"rental_uris":{"android":"levelo://app?vid=45daa4b2-7b52-4f5f-858a-9fffd4dd86f9","ios":"levelo://app?vid=45daa4b2-7b52-4f5f-858a-9fffd4dd86f9"},"vehicle_type_id":"4","last_reported":1746724127,"current_range_meters":16400,"station_id":"ce4bhjp2rcd13ifvqga0","pricing_plan_id":"cebpf4jnsgd1na2vs0mg"},{"bike_id":"ec0b9493-0d0e-4089-bfc7-297014a1dc7c","system_id":"levelo_inurba_marseille","lat":43.28159,"lon":5.42644,"is_reserved":false,"is_disabled":false,"rental_uris":{"android":"levelo://app?vid=ec0b9493-0d0e-4089-bfc7-297014a1dc7c","ios":"levelo://app?vid=ec0b9493-0d0e-4089-bfc7-297014a1dc7c"},"vehicle_type_id":"4","last_reported":1746724127,"current_range_meters":16400,"station_id":"ce4bhnh2rcd13ifvqgug","pricing_plan_id":"cebpf4jnsgd1na2vs0mg"},{"bike_id":"61b05932-4b18-4ecd-9fa8-13372e9e17a2","system_id":"levelo_inurba_marseille","lat":43.31328,"lon":5.39695,"is_reserved":false,"is_disabled":false,"rental_uris":{"android":"levelo://app?vid=61b05932-4b18-4ecd-9fa8-13372e9e17a2","ios":"levelo://app?vid=61b05932-4b18-4ecd-9fa8-13372e9e17a2"},"vehicle_type_id":"4","last_reported":1746724127,"current_range_meters":16800,"station_id":"ce4bgvp2rcd13ifvqcu0","pricing_plan_id":"cebpf4jnsgd1na2vs0mg"},{"bike_id":"7c946773-75a1-431d-9844-85471d6ece70","system_id":"levelo_inurba_marseille","lat":43.29005,"lon":5.35608,"is_reserved":false,"is_disabled":false,"rental_uris":{"android":"levelo://app?vid=7c946773-75a1-431d-9844-85471d6ece70","ios":"levelo://app?vid=7c946773-75a1-431d-9844-85471d6ece70"},"vehicle_type_id":"4","last_reported":1746724127,"current_range_meters":16800,"station_id":"ce4bhb92rcd13ifvqen0","pricing_plan_id":"cebpf4jnsgd1na2vs0mg"},{"bike_id":"5aa90ad6-7766-453c-a789-a3b137b9e481","system_id":"levelo_inurba_marseille","lat":43.307861,"lon":5.376529,"is_reserved":false,"is_disabled":false,"rental_uris":{"android":"levelo://app?vid=5aa90ad6-7766-453c-a789-a3b137b9e481","ios":"levelo://app?vid=5aa90ad6-7766-453c-a789-a3b137b9e481"},"vehicle_type_id":"4","last_reported":1746724127,"current_range_meters":17200,"station_id":"ce4bgv92rcd13ifvqcq0","pricing_plan_id":"cebpf4jnsgd1na2vs0mg"},{"bike_id":"c49d1309-5182-41ad-9d88-82740a055c50","system_id":"levelo_inurba_marseille","lat":43.30932,"lon":5.40143,"is_reserved":false,"is_disabled":false,"rental_uris":{"android":"levelo://app?vid=c49d1309-5182-41ad-9d88-82740a055c50","ios":"levelo://app?vid=c49d1309-5182-41ad-9d88-82740a055c50"},"vehicle_type_id":"4","last_reported":1746724127,"current_range_meters":17200,"station_id":"ce4bgvp2rcd13ifvqct0","pricing_plan_id":"cebpf4jnsgd1na2vs0mg"},{"bike_id":"fafc0f2d-994d-49dd-8da2-eee8565ec367","system_id":"levelo_inurba_marseille","lat":43.29266,"lon":5.38433,"is_reserved":false,"is_disabled":false,"rental_uris":{"android":"levelo://app?vid=fafc0f2d-994d-49dd-8da2-eee8565ec367","ios":"levelo://app?vid=fafc0f2d-994d-49dd-8da2-eee8565ec367"},"vehicle_type_id":"4","last_reported":1746724127,"current_range_meters":17200,"station_id":"ce4bh692rcd13ifvqea0","pricing_plan_id":"cebpf4jnsgd1na2vs0mg"},{"bike_id":"0a46ca1b-a0be-4b20-8ee6-bf1e8937a445","system_id":"levelo_inurba_marseille","lat":43.27065,"lon":5.42285,"is_reserved":false,"is_disabled":false,"rental_uris":{"android":"levelo://app?vid=0a46ca1b-a0be-4b20-8ee6-bf1e8937a445","ios":"levelo://app?vid=0a46ca1b-a0be-4b20-8ee6-bf1e8937a445"},"vehicle_type_id":"4","last_reported":1746724127,"current_range_meters":17200,"station_id":"ce4bhk92rcd13ifvqgb0","pricing_plan_id":"cebpf4jnsgd1na2vs0mg"},{"bike_id":"8ff223ed-c760-4028-a5bd-06da94a546e8","system_id":"levelo_inurba_marseille","lat":43.24547,"lon":5.39528,"is_reserved":false,"is_disabled":false,"rental_uris":{"android":"levelo://app?vid=8ff223ed-c760-4028-a5bd-06da94a546e8","ios":"levelo://app?vid=8ff223ed-c760-4028-a5bd-06da94a546e8"},"vehicle_type_id":"4","last_reported":1746724127,"current_range_meters":17200,"station_id":"ce4bhlp2rcd13ifvqgjg","pricing_plan_id":"cebpf4jnsgd1na2vs0mg"},{"bike_id":"ef826db1-acdd-4ebd-8ad5-631c87c1c8f1","system_id":"levelo_inurba_marseille","lat":43.28418,"lon":5.35099,"is_reserved":false,"is_disabled":false,"rental_uris":{"android":"levelo://app?vid=ef826db1-acdd-4ebd-8ad5-631c87c1c8f1","ios":"levelo://app?vid=ef826db1-acdd-4ebd-8ad5-631c87c1c8f1"},"vehicle_type_id":"4","last_reported":1746724127,"current_range_meters":17600,"station_id":"","pricing_plan_id":"cebpf4jnsgd1na2vs0mg"},{"bike_id":"5a4fc0af-88b3-4efd-9173-a8855afb3b30","system_id":"levelo_inurba_marseille","lat":43.30049,"lon":5.36561,"is_reserved":false,"is_disabled":false,"rental_uris":{"android":"levelo://app?vid=5a4fc0af-88b3-4efd-9173-a8855afb3b30","ios":"levelo://app?vid=5a4fc0af-88b3-4efd-9173-a8855afb3b30"},"vehicle_type_id":"4","last_reported":1746724127,"current_range_meters":17600,"station_id":"","pricing_plan_id":"cebpf4jnsgd1na2vs0mg"},{"bike_id":"3bb4d946-3ade-410a-b774-6ee8e64c4ba7","system_id":"levelo_inurba_marseille","lat":43.30115,"lon":5.39875,"is_reserved":false,"is_disabled":false,"rental_uris":{"android":"levelo://app?vid=3bb4d946-3ade-410a-b774-6ee8e64c4ba7","ios":"levelo://app?vid=3bb4d946-3ade-410a-b774-6ee8e64c4ba7"},"vehicle_type_id":"4","last_reported":1746724127,"current_range_meters":17600,"station_id":"ce4bh0h2rcd13ifvqd40","pricing_plan_id":"cebpf4jnsgd1na2vs0mg"},{"bike_id":"65b89f35-bb88-4182-b43d-33bc0aafd839","system_id":"levelo_inurba_marseille","lat":43.29277,"lon":5.36851,"is_reserved":false,"is_disabled":false,"rental_uris":{"android":"levelo://app?vid=65b89f35-bb88-4182-b43d-33bc0aafd839","ios":"levelo://app?vid=65b89f35-bb88-4182-b43d-33bc0aafd839"},"vehicle_type_id":"4","last_reported":1746724127,"current_range_meters":17600,"station_id":"ce4bhbp2rcd13ifvqesg","pricing_plan_id":"cebpf4jnsgd1na2vs0mg"},{"bike_id":"a5e93638-fd65-4041-acd2-1fa408a23755","system_id":"levelo_inurba_marseille","lat":43.30652,"lon":5.37197,"is_reserved":false,"is_disabled":false,"rental_uris":{"android":"levelo://app?vid=a5e93638-fd65-4041-acd2-1fa408a23755","ios":"levelo://app?vid=a5e93638-fd65-4041-acd2-1fa408a23755"},"vehicle_type_id":"4","last_reported":1746724127,"current_range_meters":18000,"station_id":"","pricing_plan_id":"cebpf4jnsgd1na2vs0mg"},{"bike_id":"da928292-67e5-45b0-94a8-6eb6e249baf1","system_id":"levelo_inurba_marseille","lat":43.299044,"lon":5.381316,"is_reserved":false,"is_disabled":false,"rental_uris":{"android":"levelo://app?vid=da928292-67e5-45b0-94a8-6eb6e249baf1","ios":"levelo://app?vid=da928292-67e5-45b0-94a8-6eb6e249baf1"},"vehicle_type_id":"4","last_reported":1746724127,"current_range_meters":19200,"station_id":"ce4bgj12rcd13ifvqbc0","pricing_plan_id":"cebpf4jnsgd1na2vs0mg"},{"bike_id":"4935dd9a-ba9b-4cbc-9a95-c65555fd84d0","system_id":"levelo_inurba_marseille","lat":43.30611,"lon":5.37242,"is_reserved":false,"is_disabled":false,"rental_uris":{"android":"levelo://app?vid=4935dd9a-ba9b-4cbc-9a95-c65555fd84d0","ios":"levelo://app?vid=4935dd9a-ba9b-4cbc-9a95-c65555fd84d0"},"vehicle_type_id":"4","last_reported":1746724127,"current_range_meters":19200,"station_id":"ce4bgqh2rcd13ifvqc4g","pricing_plan_id":"cebpf4jnsgd1na2vs0mg"},{"bike_id":"cebe84f1-3c73-4553-9336-841bf7438472","system_id":"levelo_inurba_marseille","lat":43.269662,"lon":5.367948,"is_reserved":false,"is_disabled":false,"rental_uris":{"android":"levelo://app?vid=cebe84f1-3c73-4553-9336-841bf7438472","ios":"levelo://app?vid=cebe84f1-3c73-4553-9336-841bf7438472"},"vehicle_type_id":"4","last_reported":1746724127,"current_range_meters":19200,"station_id":"ce4bhgh2rcd13ifvqfa0","pricing_plan_id":"cebpf4jnsgd1na2vs0mg"},{"bike_id":"0d8b7767-4264-4c21-b2cf-9ce8c694ed79","system_id":"levelo_inurba_marseille","lat":43.323435,"lon":5.406392,"is_reserved":false,"is_disabled":false,"rental_uris":{"android":"levelo://app?vid=0d8b7767-4264-4c21-b2cf-9ce8c694ed79","ios":"levelo://app?vid=0d8b7767-4264-4c21-b2cf-9ce8c694ed79"},"vehicle_type_id":"4","last_reported":1746724127,"current_range_meters":19200,"station_id":"ce4bhq92rcd13ifvqhjg","pricing_plan_id":"cebpf4jnsgd1na2vs0mg"},{"bike_id":"f343cf39-3599-4023-9a93-e753d06f17b6","system_id":"levelo_inurba_marseille","lat":43.32286,"lon":5.38281,"is_reserved":false,"is_disabled":false,"rental_uris":{"android":"levelo://app?vid=f343cf39-3599-4023-9a93-e753d06f17b6","ios":"levelo://app?vid=f343cf39-3599-4023-9a93-e753d06f17b6"},"vehicle_type_id":"4","last_reported":1746724127,"current_range_meters":19200,"station_id":"ce4bhr12rcd13ifvqhqg","pricing_plan_id":"cebpf4jnsgd1na2vs0mg"},{"bike_id":"58599a5b-2564-48b3-b5f5-290491e7425e","system_id":"levelo_inurba_marseille","lat":43.28852,"lon":5.39307,"is_reserved":false,"is_disabled":false,"rental_uris":{"android":"levelo://app?vid=58599a5b-2564-48b3-b5f5-290491e7425e","ios":"levelo://app?vid=58599a5b-2564-48b3-b5f5-290491e7425e"},"vehicle_type_id":"4","last_reported":1746724127,"current_range_meters":20000,"station_id":"ce4bh2p2rcd13ifvqdi0","pricing_plan_id":"cebpf4jnsgd1na2vs0mg"},{"bike_id":"42f6946b-ea54-4144-9524-63cc5eaa7126","system_id":"levelo_inurba_marseille","lat":43.28462,"lon":5.35894,"is_reserved":false,"is_disabled":false,"rental_uris":{"android":"levelo://app?vid=42f6946b-ea54-4144-9524-63cc5eaa7126","ios":"levelo://app?vid=42f6946b-ea54-4144-9524-63cc5eaa7126"},"vehicle_type_id":"4","last_reported":1746724127,"current_range_meters":20000,"station_id":"ce4bhah2rcd13ifvqei0","pricing_plan_id":"cebpf4jnsgd1na2vs0mg"},{"bike_id":"7115133a-0fd0-405e-809e-52cad7e4f5dd","system_id":"levelo_inurba_marseille","lat":43.23964,"lon":5.36635,"is_reserved":false,"is_disabled":false,"rental_uris":{"android":"levelo://app?vid=7115133a-0fd0-405e-809e-52cad7e4f5dd","ios":"levelo://app?vid=7115133a-0fd0-405e-809e-52cad7e4f5dd"},"vehicle_type_id":"4","last_reported":1746724127,"current_range_meters":20000,"station_id":"ce4bhi12rcd13ifvqfp0","pricing_plan_id":"cebpf4jnsgd1na2vs0mg"},{"bike_id":"c1041c9f-2085-470a-b13c-f88fd8323115","system_id":"levelo_inurba_marseille","lat":43.27766,"lon":5.38662,"is_reserved":false,"is_disabled":false,"rental_uris":{"android":"levelo://app?vid=c1041c9f-2085-470a-b13c-f88fd8323115","ios":"levelo://app?vid=c1041c9f-2085-470a-b13c-f88fd8323115"},"vehicle_type_id":"4","last_reported":1746724127,"current_range_meters":20400,"station_id":"","pricing_plan_id":"cebpf4jnsgd1na2vs0mg"},{"bike_id":"4f452937-65aa-441c-a051-931708aee1c8","system_id":"levelo_inurba_marseille","lat":43.29794,"lon":5.38104,"is_reserved":false,"is_disabled":false,"rental_uris":{"android":"levelo://app?vid=4f452937-65aa-441c-a051-931708aee1c8","ios":"levelo://app?vid=4f452937-65aa-441c-a051-931708aee1c8"},"vehicle_type_id":"4","last_reported":1746724127,"current_range_meters":20400,"station_id":"ce4bgip2rcd13ifvqbb0","pricing_plan_id":"cebpf4jnsgd1na2vs0mg"},{"bike_id":"b442c473-730f-4c60-8e25-7917a091867e","system_id":"levelo_inurba_marseille","lat":43.30457,"lon":5.37904,"is_reserved":false,"is_disabled":false,"rental_uris":{"android":"levelo://app?vid=b442c473-730f-4c60-8e25-7917a091867e","ios":"levelo://app?vid=b442c473-730f-4c60-8e25-7917a091867e"},"vehicle_type_id":"4","last_reported":1746724127,"current_range_meters":20400,"station_id":"ce4bgup2rcd13ifvqcn0","pricing_plan_id":"cebpf4jnsgd1na2vs0mg"},{"bike_id":"0cb542d0-661d-4a86-904d-249f6866850a","system_id":"levelo_inurba_marseille","lat":43.25723,"lon":5.41119,"is_reserved":false,"is_disabled":false,"rental_uris":{"android":"levelo://app?vid=0cb542d0-661d-4a86-904d-249f6866850a","ios":"levelo://app?vid=0cb542d0-661d-4a86-904d-249f6866850a"},"vehicle_type_id":"4","last_reported":1746724127,"current_range_meters":20400,"station_id":"ce4bhkp2rcd13ifvqgd0","pricing_plan_id":"cebpf4jnsgd1na2vs0mg"},{"bike_id":"dd1b31fe-f4c8-4adf-9e96-f5aae856fc21","system_id":"levelo_inurba_marseille","lat":43.32939,"lon":5.3856,"is_reserved":false,"is_disabled":false,"rental_uris":{"android":"levelo://app?vid=dd1b31fe-f4c8-4adf-9e96-f5aae856fc21","ios":"levelo://app?vid=dd1b31fe-f4c8-4adf-9e96-f5aae856fc21"},"vehicle_type_id":"4","last_reported":1746724127,"current_range_meters":20800,"station_id":"","pricing_plan_id":"cebpf4jnsgd1na2vs0mg"},{"bike_id":"0d16664e-5952-4ed1-9889-9bd62dc4922e","system_id":"levelo_inurba_marseille","lat":43.30805,"lon":5.43529,"is_reserved":false,"is_disabled":false,"rental_uris":{"android":"levelo://app?vid=0d16664e-5952-4ed1-9889-9bd62dc4922e","ios":"levelo://app?vid=0d16664e-5952-4ed1-9889-9bd62dc4922e"},"vehicle_type_id":"4","last_reported":1746724127,"current_range_meters":20800,"station_id":"ce4bhph2rcd13ifvqheg","pricing_plan_id":"cebpf4jnsgd1na2vs0mg"},{"bike_id":"03ff33d2-63c7-4293-a7e9-0d8824ee7b80","system_id":"levelo_inurba_marseille","lat":43.30253,"lon":5.40041,"is_reserved":false,"is_disabled":false,"rental_uris":{"android":"levelo://app?vid=03ff33d2-63c7-4293-a7e9-0d8824ee7b80","ios":"levelo://app?vid=03ff33d2-63c7-4293-a7e9-0d8824ee7b80"},"vehicle_type_id":"4","last_reported":1746724127,"current_range_meters":21600,"station_id":"ce4bgvh2rcd13ifvqcs0","pricing_plan_id":"cebpf4jnsgd1na2vs0mg"},{"bike_id":"7b4ae362-fa35-4a59-b85a-d70c5c40473c","system_id":"levelo_inurba_marseille","lat":43.28725,"lon":5.36085,"is_reserved":false,"is_disabled":false,"rental_uris":{"android":"levelo://app?vid=7b4ae362-fa35-4a59-b85a-d70c5c40473c","ios":"levelo://app?vid=7b4ae362-fa35-4a59-b85a-d70c5c40473c"},"vehicle_type_id":"4","last_reported":1746724127,"current_range_meters":22000,"station_id":"cki0cbj6b192h4jlfktg","pricing_plan_id":"cebpf4jnsgd1na2vs0mg"},{"bike_id":"551946a3-9688-4159-a9e8-b204b1f07834","system_id":"levelo_inurba_marseille","lat":43.29514,"lon":5.39404,"is_reserved":false,"is_disabled":false,"rental_uris":{"android":"levelo://app?vid=551946a3-9688-4159-a9e8-b204b1f07834","ios":"levelo://app?vid=551946a3-9688-4159-a9e8-b204b1f07834"},"vehicle_type_id":"4","last_reported":1746724127,"current_range_meters":22400,"station_id":"ce4bh292rcd13ifvqdf0","pricing_plan_id":"cebpf4jnsgd1na2vs0mg"},{"bike_id":"49ffa192-7d4a-4756-ba2b-77af0383613a","system_id":"levelo_inurba_marseille","lat":43.27309,"lon":5.39078,"is_reserved":false,"is_disabled":false,"rental_uris":{"android":"levelo://app?vid=49ffa192-7d4a-4756-ba2b-77af0383613a","ios":"levelo://app?vid=49ffa192-7d4a-4756-ba2b-77af0383613a"},"vehicle_type_id":"4","last_reported":1746724127,"current_range_meters":22400,"station_id":"ce4bhgp2rcd13ifvqfe0","pricing_plan_id":"cebpf4jnsgd1na2vs0mg"},{"bike_id":"fc2577e7-1497-425b-9d4f-ab8d7dc843c6","system_id":"levelo_inurba_marseille","lat":43.33771,"lon":5.37485,"is_reserved":false,"is_disabled":false,"rental_uris":{"android":"levelo://app?vid=fc2577e7-1497-425b-9d4f-ab8d7dc843c6","ios":"levelo://app?vid=fc2577e7-1497-425b-9d4f-ab8d7dc843c6"},"vehicle_type_id":"4","last_reported":1746724127,"current_range_meters":22800,"station_id":"","pricing_plan_id":"cebpf4jnsgd1na2vs0mg"},{"bike_id":"545e5687-b7df-4883-81be-75a8925d5f91","system_id":"levelo_inurba_marseille","lat":43.337444,"lon":5.374475,"is_reserved":false,"is_disabled":false,"rental_uris":{"android":"levelo://app?vid=545e5687-b7df-4883-81be-75a8925d5f91","ios":"levelo://app?vid=545e5687-b7df-4883-81be-75a8925d5f91"},"vehicle_type_id":"4","last_reported":1746724127,"current_range_meters":22800,"station_id":"","pricing_plan_id":"cebpf4jnsgd1na2vs0mg"},{"bike_id":"2eb49fcd-ec6e-47fb-8b00-62bb023ab949","system_id":"levelo_inurba_marseille","lat":43.284625,"lon":5.358887,"is_reserved":false,"is_disabled":false,"rental_uris":{"android":"levelo://app?vid=2eb49fcd-ec6e-47fb-8b00-62bb023ab949","ios":"levelo://app?vid=2eb49fcd-ec6e-47fb-8b00-62bb023ab949"},"vehicle_type_id":"4","last_reported":1746724127,"current_range_meters":22800,"station_id":"ce4bhah2rcd13ifvqei0","pricing_plan_id":"cebpf4jnsgd1na2vs0mg"},{"bike_id":"aae478cb-81eb-4736-88a3-4663d9b7b8a5","system_id":"levelo_inurba_marseille","lat":43.291878,"lon":5.358168,"is_reserved":false,"is_disabled":false,"rental_uris":{"android":"levelo://app?vid=aae478cb-81eb-4736-88a3-4663d9b7b8a5","ios":"levelo://app?vid=aae478cb-81eb-4736-88a3-4663d9b7b8a5"},"vehicle_type_id":"4","last_reported":1746724127,"current_range_meters":22800,"station_id":"ce4bhb12rcd13ifvqel0","pricing_plan_id":"cebpf4jnsgd1na2vs0mg"},{"bike_id":"5dc640e1-7447-4952-95e6-35618c9a53b8","system_id":"levelo_inurba_marseille","lat":43.27567,"lon":5.38423,"is_reserved":false,"is_disabled":false,"rental_uris":{"android":"levelo://app?vid=5dc640e1-7447-4952-95e6-35618c9a53b8","ios":"levelo://app?vid=5dc640e1-7447-4952-95e6-35618c9a53b8"},"vehicle_type_id":"4","last_reported":1746724127,"current_range_meters":22800,"station_id":"ce4bhh92rcd13ifvqfi0","pricing_plan_id":"cebpf4jnsgd1na2vs0mg"},{"bike_id":"97befefa-5a57-41c3-b05f-992b5ed1c603","system_id":"levelo_inurba_marseille","lat":43.24073,"lon":5.37759,"is_reserved":false,"is_disabled":false,"rental_uris":{"android":"levelo://app?vid=97befefa-5a57-41c3-b05f-992b5ed1c603","ios":"levelo://app?vid=97befefa-5a57-41c3-b05f-992b5ed1c603"},"vehicle_type_id":"4","last_reported":1746724127,"current_range_meters":22800,"station_id":"ce4bhnp2rcd13ifvqgvg","pricing_plan_id":"cebpf4jnsgd1na2vs0mg"},{"bike_id":"2187b7ff-cd78-4bda-ace2-b466bcb1fd2a","system_id":"levelo_inurba_marseille","lat":43.28611,"lon":5.37068,"is_reserved":false,"is_disabled":false,"rental_uris":{"android":"levelo://app?vid=2187b7ff-cd78-4bda-ace2-b466bcb1fd2a","ios":"levelo://app?vid=2187b7ff-cd78-4bda-ace2-b466bcb1fd2a"},"vehicle_type_id":"4","last_reported":1746724127,"current_range_meters":22800,"station_id":"ce4bht12rcd13ifvqi60","pricing_plan_id":"cebpf4jnsgd1na2vs0mg"},{"bike_id":"3e7c6aae-b2bc-4dc1-ae18-e8b01d55045f","system_id":"levelo_inurba_marseille","lat":43.24666,"lon":5.43638,"is_reserved":false,"is_disabled":false,"rental_uris":{"android":"levelo://app?vid=3e7c6aae-b2bc-4dc1-ae18-e8b01d55045f","ios":"levelo://app?vid=3e7c6aae-b2bc-4dc1-ae18-e8b01d55045f"},"vehicle_type_id":"4","last_reported":1746724127,"current_range_meters":23200,"station_id":"","pricing_plan_id":"cebpf4jnsgd1na2vs0mg"},{"bike_id":"81b1461a-b964-4157-bc4d-845e8c44053d","system_id":"levelo_inurba_marseille","lat":43.25435,"lon":5.41841,"is_reserved":false,"is_disabled":false,"rental_uris":{"android":"levelo://app?vid=81b1461a-b964-4157-bc4d-845e8c44053d","ios":"levelo://app?vid=81b1461a-b964-4157-bc4d-845e8c44053d"},"vehicle_type_id":"4","last_reported":1746724127,"current_range_meters":23200,"station_id":"","pricing_plan_id":"cebpf4jnsgd1na2vs0mg"},{"bike_id":"81ddb537-e7c2-489e-b796-293a97c0179e","system_id":"levelo_inurba_marseille","lat":43.28998,"lon":5.35625,"is_reserved":false,"is_disabled":false,"rental_uris":{"android":"levelo://app?vid=81ddb537-e7c2-489e-b796-293a97c0179e","ios":"levelo://app?vid=81ddb537-e7c2-489e-b796-293a97c0179e"},"vehicle_type_id":"4","last_reported":1746724127,"current_range_meters":23200,"station_id":"ce4bhb92rcd13ifvqen0","pricing_plan_id":"cebpf4jnsgd1na2vs0mg"},{"bike_id":"66d39f5f-1aac-423b-9ea7-bf9c1b0e5079","system_id":"levelo_inurba_marseille","lat":43.27519,"lon":5.41111,"is_reserved":false,"is_disabled":false,"rental_uris":{"android":"levelo://app?vid=66d39f5f-1aac-423b-9ea7-bf9c1b0e5079","ios":"levelo://app?vid=66d39f5f-1aac-423b-9ea7-bf9c1b0e5079"},"vehicle_type_id":"4","last_reported":1746724127,"current_range_meters":24000,"station_id":"","pricing_plan_id":"cebpf4jnsgd1na2vs0mg"},{"bike_id":"9b84e65f-2424-4f8e-b51b-21355d123536","system_id":"levelo_inurba_marseille","lat":43.315062,"lon":5.373053,"is_reserved":false,"is_disabled":false,"rental_uris":{"android":"levelo://app?vid=9b84e65f-2424-4f8e-b51b-21355d123536","ios":"levelo://app?vid=9b84e65f-2424-4f8e-b51b-21355d123536"},"vehicle_type_id":"4","last_reported":1746724127,"current_range_meters":24000,"station_id":"ce4bgt12rcd13ifvqcd0","pricing_plan_id":"cebpf4jnsgd1na2vs0mg"},{"bike_id":"50332993-c910-4d94-9538-f7f000e62209","system_id":"levelo_inurba_marseille","lat":43.29539,"lon":5.394,"is_reserved":false,"is_disabled":false,"rental_uris":{"android":"levelo://app?vid=50332993-c910-4d94-9538-f7f000e62209","ios":"levelo://app?vid=50332993-c910-4d94-9538-f7f000e62209"},"vehicle_type_id":"4","last_reported":1746724127,"current_range_meters":24000,"station_id":"ce4bh292rcd13ifvqdf0","pricing_plan_id":"cebpf4jnsgd1na2vs0mg"},{"bike_id":"320445d7-aaf7-43ec-baaf-4e67030e8b62","system_id":"levelo_inurba_marseille","lat":43.27169,"lon":5.40559,"is_reserved":false,"is_disabled":false,"rental_uris":{"android":"levelo://app?vid=320445d7-aaf7-43ec-baaf-4e67030e8b62","ios":"levelo://app?vid=320445d7-aaf7-43ec-baaf-4e67030e8b62"},"vehicle_type_id":"4","last_reported":1746724127,"current_range_meters":24400,"station_id":"","pricing_plan_id":"cebpf4jnsgd1na2vs0mg"},{"bike_id":"7dbf7670-d1d0-4a80-8ac5-74bfe0c01954","system_id":"levelo_inurba_marseille","lat":43.237905,"lon":5.362005,"is_reserved":false,"is_disabled":false,"rental_uris":{"android":"levelo://app?vid=7dbf7670-d1d0-4a80-8ac5-74bfe0c01954","ios":"levelo://app?vid=7dbf7670-d1d0-4a80-8ac5-74bfe0c01954"},"vehicle_type_id":"4","last_reported":1746724127,"current_range_meters":24400,"station_id":"","pricing_plan_id":"cebpf4jnsgd1na2vs0mg"},{"bike_id":"9764eed9-bf66-4e63-bd24-088d449ef1ca","system_id":"levelo_inurba_marseille","lat":43.30602,"lon":5.37225,"is_reserved":false,"is_disabled":false,"rental_uris":{"android":"levelo://app?vid=9764eed9-bf66-4e63-bd24-088d449ef1ca","ios":"levelo://app?vid=9764eed9-bf66-4e63-bd24-088d449ef1ca"},"vehicle_type_id":"4","last_reported":1746724127,"current_range_meters":24400,"station_id":"ce4bgqh2rcd13ifvqc4g","pricing_plan_id":"cebpf4jnsgd1na2vs0mg"},{"bike_id":"770b7237-1ba8-412e-96b7-4a94366ce2d0","system_id":"levelo_inurba_marseille","lat":43.28917,"lon":5.38402,"is_reserved":false,"is_disabled":false,"rental_uris":{"android":"levelo://app?vid=770b7237-1ba8-412e-96b7-4a94366ce2d0","ios":"levelo://app?vid=770b7237-1ba8-412e-96b7-4a94366ce2d0"},"vehicle_type_id":"4","last_reported":1746724127,"current_range_meters":24800,"station_id":"ce4bh612rcd13ifvqe6g","pricing_plan_id":"cebpf4jnsgd1na2vs0mg"},{"bike_id":"8fb0be11-64bc-48c6-9f0d-f01295dffa14","system_id":"levelo_inurba_marseille","lat":43.29008,"lon":5.35614,"is_reserved":false,"is_disabled":false,"rental_uris":{"android":"levelo://app?vid=8fb0be11-64bc-48c6-9f0d-f01295dffa14","ios":"levelo://app?vid=8fb0be11-64bc-48c6-9f0d-f01295dffa14"},"vehicle_type_id":"4","last_reported":1746724127,"current_range_meters":24800,"station_id":"ce4bhb92rcd13ifvqen0","pricing_plan_id":"cebpf4jnsgd1na2vs0mg"},{"bike_id":"6c036e22-2880-4ca3-8ec2-3c1c93aa2e22","system_id":"levelo_inurba_marseille","lat":43.33056,"lon":5.39033,"is_reserved":false,"is_disabled":false,"rental_uris":{"android":"levelo://app?vid=6c036e22-2880-4ca3-8ec2-3c1c93aa2e22","ios":"levelo://app?vid=6c036e22-2880-4ca3-8ec2-3c1c93aa2e22"},"vehicle_type_id":"4","last_reported":1746724127,"current_range_meters":24800,"station_id":"ce4bhr92rcd13ifvqhrg","pricing_plan_id":"cebpf4jnsgd1na2vs0mg"},{"bike_id":"f97fd8d0-1569-4ce6-ae13-079372b0f294","system_id":"levelo_inurba_marseille","lat":43.33021,"lon":5.39048,"is_reserved":false,"is_disabled":false,"rental_uris":{"android":"levelo://app?vid=f97fd8d0-1569-4ce6-ae13-079372b0f294","ios":"levelo://app?vid=f97fd8d0-1569-4ce6-ae13-079372b0f294"},"vehicle_type_id":"4","last_reported":1746724127,"current_range_meters":24800,"station_id":"ce4bhr92rcd13ifvqhrg","pricing_plan_id":"cebpf4jnsgd1na2vs0mg"},{"bike_id":"b70168d3-a7d9-40d6-8d68-63cf8e064701","system_id":"levelo_inurba_marseille","lat":43.26942,"lon":5.40253,"is_reserved":false,"is_disabled":false,"rental_uris":{"android":"levelo://app?vid=b70168d3-a7d9-40d6-8d68-63cf8e064701","ios":"levelo://app?vid=b70168d3-a7d9-40d6-8d68-63cf8e064701"},"vehicle_type_id":"4","last_reported":1746724127,"current_range_meters":24800,"station_id":"cjm6bp8fraef2m0cb0m0","pricing_plan_id":"cebpf4jnsgd1na2vs0mg"},{"bike_id":"4372716d-0d0e-4720-a072-7675ae8144e1","system_id":"levelo_inurba_marseille","lat":43.33049,"lon":5.39047,"is_reserved":false,"is_disabled":false,"rental_uris":{"android":"levelo://app?vid=4372716d-0d0e-4720-a072-7675ae8144e1","ios":"levelo://app?vid=4372716d-0d0e-4720-a072-7675ae8144e1"},"vehicle_type_id":"4","last_reported":1746724127,"current_range_meters":25200,"station_id":"ce4bhr92rcd13ifvqhrg","pricing_plan_id":"cebpf4jnsgd1na2vs0mg"},{"bike_id":"d7453889-c606-497f-b584-3d0fd305d0da","system_id":"levelo_inurba_marseille","lat":43.29533,"lon":5.38534,"is_reserved":false,"is_disabled":false,"rental_uris":{"android":"levelo://app?vid=d7453889-c606-497f-b584-3d0fd305d0da","ios":"levelo://app?vid=d7453889-c606-497f-b584-3d0fd305d0da"},"vehicle_type_id":"4","last_reported":1746724127,"current_range_meters":25600,"station_id":"ce4bgih2rcd13ifvqba0","pricing_plan_id":"cebpf4jnsgd1na2vs0mg"},{"bike_id":"4093f074-f2ef-446e-97be-50772d24aeb3","system_id":"levelo_inurba_marseille","lat":43.30529,"lon":5.36535,"is_reserved":false,"is_disabled":false,"rental_uris":{"android":"levelo://app?vid=4093f074-f2ef-446e-97be-50772d24aeb3","ios":"levelo://app?vid=4093f074-f2ef-446e-97be-50772d24aeb3"},"vehicle_type_id":"4","last_reported":1746724127,"current_range_meters":25600,"station_id":"ce4bgs12rcd13ifvqcag","pricing_plan_id":"cebpf4jnsgd1na2vs0mg"},{"bike_id":"a3f07171-4b20-4d1f-9a1b-2e8729e7b9eb","system_id":"levelo_inurba_marseille","lat":43.2957,"lon":5.39974,"is_reserved":false,"is_disabled":false,"rental_uris":{"android":"levelo://app?vid=a3f07171-4b20-4d1f-9a1b-2e8729e7b9eb","ios":"levelo://app?vid=a3f07171-4b20-4d1f-9a1b-2e8729e7b9eb"},"vehicle_type_id":"4","last_reported":1746724127,"current_range_meters":25600,"station_id":"ce4bh312rcd13ifvqdj0","pricing_plan_id":"cebpf4jnsgd1na2vs0mg"},{"bike_id":"4bd1444e-ae9c-411d-8fff-56e697dc0c48","system_id":"levelo_inurba_marseille","lat":43.2845,"lon":5.35524,"is_reserved":false,"is_disabled":false,"rental_uris":{"android":"levelo://app?vid=4bd1444e-ae9c-411d-8fff-56e697dc0c48","ios":"levelo://app?vid=4bd1444e-ae9c-411d-8fff-56e697dc0c48"},"vehicle_type_id":"4","last_reported":1746724127,"current_range_meters":26000,"station_id":"","pricing_plan_id":"cebpf4jnsgd1na2vs0mg"},{"bike_id":"f6cbd4fb-8e59-4ff3-94ca-c36b7b746c9a","system_id":"levelo_inurba_marseille","lat":43.31076,"lon":5.38356,"is_reserved":false,"is_disabled":false,"rental_uris":{"android":"levelo://app?vid=f6cbd4fb-8e59-4ff3-94ca-c36b7b746c9a","ios":"levelo://app?vid=f6cbd4fb-8e59-4ff3-94ca-c36b7b746c9a"},"vehicle_type_id":"4","last_reported":1746724127,"current_range_meters":26000,"station_id":"ce4bgv92rcd13ifvqcr0","pricing_plan_id":"cebpf4jnsgd1na2vs0mg"},{"bike_id":"6dd67863-414b-48f2-b6b8-d531c47a2f41","system_id":"levelo_inurba_marseille","lat":43.2846,"lon":5.35889,"is_reserved":false,"is_disabled":false,"rental_uris":{"android":"levelo://app?vid=6dd67863-414b-48f2-b6b8-d531c47a2f41","ios":"levelo://app?vid=6dd67863-414b-48f2-b6b8-d531c47a2f41"},"vehicle_type_id":"4","last_reported":1746724127,"current_range_meters":26000,"station_id":"ce4bhah2rcd13ifvqei0","pricing_plan_id":"cebpf4jnsgd1na2vs0mg"},{"bike_id":"f0deccb7-a270-4fd4-a51e-39844e0ae45a","system_id":"levelo_inurba_marseille","lat":43.347652,"lon":5.349892,"is_reserved":false,"is_disabled":false,"rental_uris":{"android":"levelo://app?vid=f0deccb7-a270-4fd4-a51e-39844e0ae45a","ios":"levelo://app?vid=f0deccb7-a270-4fd4-a51e-39844e0ae45a"},"vehicle_type_id":"4","last_reported":1746724127,"current_range_meters":26800,"station_id":"","pricing_plan_id":"cebpf4jnsgd1na2vs0mg"},{"bike_id":"dd676cf4-599b-42a6-a749-09283a4924f8","system_id":"levelo_inurba_marseille","lat":43.3046,"lon":5.37915,"is_reserved":false,"is_disabled":false,"rental_uris":{"android":"levelo://app?vid=dd676cf4-599b-42a6-a749-09283a4924f8","ios":"levelo://app?vid=dd676cf4-599b-42a6-a749-09283a4924f8"},"vehicle_type_id":"4","last_reported":1746724127,"current_range_meters":26800,"station_id":"ce4bgup2rcd13ifvqcn0","pricing_plan_id":"cebpf4jnsgd1na2vs0mg"},{"bike_id":"eeecb78f-63b5-47a5-a884-79cd33c85153","system_id":"levelo_inurba_marseille","lat":43.29006,"lon":5.35617,"is_reserved":false,"is_disabled":false,"rental_uris":{"android":"levelo://app?vid=eeecb78f-63b5-47a5-a884-79cd33c85153","ios":"levelo://app?vid=eeecb78f-63b5-47a5-a884-79cd33c85153"},"vehicle_type_id":"4","last_reported":1746724127,"current_range_meters":26800,"station_id":"ce4bhb92rcd13ifvqen0","pricing_plan_id":"cebpf4jnsgd1na2vs0mg"},{"bike_id":"a5373f51-3b5a-4ef6-b4fe-609187f8c914","system_id":"levelo_inurba_marseille","lat":43.292766,"lon":5.368442,"is_reserved":false,"is_disabled":false,"rental_uris":{"android":"levelo://app?vid=a5373f51-3b5a-4ef6-b4fe-609187f8c914","ios":"levelo://app?vid=a5373f51-3b5a-4ef6-b4fe-609187f8c914"},"vehicle_type_id":"4","last_reported":1746724127,"current_range_meters":26800,"station_id":"ce4bhbp2rcd13ifvqesg","pricing_plan_id":"cebpf4jnsgd1na2vs0mg"},{"bike_id":"2243b2e6-9e14-4675-9165-d647d6e9960b","system_id":"levelo_inurba_marseille","lat":43.29419,"lon":5.38636,"is_reserved":false,"is_disabled":false,"rental_uris":{"android":"levelo://app?vid=2243b2e6-9e14-4675-9165-d647d6e9960b","ios":"levelo://app?vid=2243b2e6-9e14-4675-9165-d647d6e9960b"},"vehicle_type_id":"4","last_reported":1746724127,"current_range_meters":27200,"station_id":"ce4bh2h2rcd13ifvqdh0","pricing_plan_id":"cebpf4jnsgd1na2vs0mg"},{"bike_id":"95f5e101-e39f-4159-a4af-be66659418d9","system_id":"levelo_inurba_marseille","lat":43.25719,"lon":5.41114,"is_reserved":false,"is_disabled":false,"rental_uris":{"android":"levelo://app?vid=95f5e101-e39f-4159-a4af-be66659418d9","ios":"levelo://app?vid=95f5e101-e39f-4159-a4af-be66659418d9"},"vehicle_type_id":"4","last_reported":1746724127,"current_range_meters":27200,"station_id":"ce4bhkp2rcd13ifvqgd0","pricing_plan_id":"cebpf4jnsgd1na2vs0mg"},{"bike_id":"b59c9fad-7f4c-4fa7-9a7f-2f13160eb57f","system_id":"levelo_inurba_marseille","lat":43.30372,"lon":5.4187,"is_reserved":false,"is_disabled":false,"rental_uris":{"android":"levelo://app?vid=b59c9fad-7f4c-4fa7-9a7f-2f13160eb57f","ios":"levelo://app?vid=b59c9fad-7f4c-4fa7-9a7f-2f13160eb57f"},"vehicle_type_id":"4","last_reported":1746724127,"current_range_meters":27200,"station_id":"ce4bhop2rcd13ifvqh7g","pricing_plan_id":"cebpf4jnsgd1na2vs0mg"},{"bike_id":"5239537c-b974-4f67-aa41-6c07aa1ae348","system_id":"levelo_inurba_marseille","lat":43.32357,"lon":5.36748,"is_reserved":false,"is_disabled":false,"rental_uris":{"android":"levelo://app?vid=5239537c-b974-4f67-aa41-6c07aa1ae348","ios":"levelo://app?vid=5239537c-b974-4f67-aa41-6c07aa1ae348"},"vehicle_type_id":"4","last_reported":1746724127,"current_range_meters":27200,"station_id":"ce4bhsh2rcd13ifvqi2g","pricing_plan_id":"cebpf4jnsgd1na2vs0mg"},{"bike_id":"830ca2f3-14a2-40d4-b14d-f14634d8ac66","system_id":"levelo_inurba_marseille","lat":43.31771,"lon":5.43728,"is_reserved":false,"is_disabled":false,"rental_uris":{"android":"levelo://app?vid=830ca2f3-14a2-40d4-b14d-f14634d8ac66","ios":"levelo://app?vid=830ca2f3-14a2-40d4-b14d-f14634d8ac66"},"vehicle_type_id":"4","last_reported":1746724127,"current_range_meters":27600,"station_id":"","pricing_plan_id":"cebpf4jnsgd1na2vs0mg"},{"bike_id":"ec74c906-b5cc-4a36-a78c-13325d806871","system_id":"levelo_inurba_marseille","lat":43.31161,"lon":5.37312,"is_reserved":false,"is_disabled":false,"rental_uris":{"android":"levelo://app?vid=ec74c906-b5cc-4a36-a78c-13325d806871","ios":"levelo://app?vid=ec74c906-b5cc-4a36-a78c-13325d806871"},"vehicle_type_id":"4","last_reported":1746724127,"current_range_meters":27600,"station_id":"","pricing_plan_id":"cebpf4jnsgd1na2vs0mg"},{"bike_id":"9cd73a1b-f3cd-4a6d-9937-0fc6a834b5b1","system_id":"levelo_inurba_marseille","lat":43.286144,"lon":5.351009,"is_reserved":false,"is_disabled":false,"rental_uris":{"android":"levelo://app?vid=9cd73a1b-f3cd-4a6d-9937-0fc6a834b5b1","ios":"levelo://app?vid=9cd73a1b-f3cd-4a6d-9937-0fc6a834b5b1"},"vehicle_type_id":"4","last_reported":1746724127,"current_range_meters":27600,"station_id":"ce4bhch2rcd13ifvqeug","pricing_plan_id":"cebpf4jnsgd1na2vs0mg"},