{"last_updated":1727007311,"ttl":30,"version":"2.2","data":{"bikes":[{"bike_id":"fd84f170-c075-4570-a556-c5e617e29406","system_id":"levelo_inurba_marseille","lat":43.28273,"lon":5.40888,"is_reserved":false,"is_disabled":false,"rental_uris":{"android":"levelo://app?vid=fd84f170-c075-4570-a556-c5e617e29406","ios":"levelo://app?vid=fd84f170-c075-4570-a556-c5e617e29406"},"vehicle_type_id":"4","last_reported":1727007311,"current_range_meters":18800,"station_id":"","pricing_plan_id":"cebpf4jnsgd1na2vs0mg"},{"bike_id":"09ef34b6-482f-4988-9331-10658115e1c1","system_id":"levelo_inurba_marseille","lat":43.31529,"lon":5.38036,"is_reserved":false,"is_disabled":false,"rental_uris":{"android":"levelo://app?vid=09ef34b6-482f-4988-9331-10658115e1c1","ios":"levelo://app?vid=09ef34b6-482f-4988-9331-10658115e1c1"},"vehicle_type_id":"4","last_reported":1727007311,"current_range_meters":18000,"station_id":"ce4bhsp2rcd13ifvqi50","pricing_plan_id":"cebpf4jnsgd1na2vs0mg"},{"bike_id":"afb25509-d948-446a-87c3-a222da0c47e3","system_id":"levelo_inurba_marseille","lat":43.2549,"lon":5.37647,"is_reserved":false,"is_disabled":false,"rental_uris":{"android":"levelo://app?vid=afb25509-d948-446a-87c3-a222da0c47e3","ios":"levelo://app?vid=afb25509-d948-446a-87c3-a222da0c47e3"},"vehicle_type_id":"4","last_reported":1727007311,"current_range_meters":38800,"station_id":"ce4bhh12rcd13ifvqff0","pricing_plan_id":"cebpf4jnsgd1na2vs0mg"},{"bike_id":"d2d06111-a841-484d-bec5-ada42b7fc423","system_id":"levelo_inurba_marseille","lat":43.28421,"lon":5.34984,"is_reserved":false,"is_disabled":false,"rental_uris":{"android":"levelo://app?vid=d2d06111-a841-484d-bec5-ada42b7fc423","ios":"levelo://app?vid=d2d06111-a841-484d-bec5-ada42b7fc423"},"vehicle_type_id":"4","last_reported":1727007311,"current_range_meters":25200,"station_id":"ce4bhbh2rcd13ifvqepg","pricing_plan_id":"cebpf4jnsgd1na2vs0mg"},{"bike_id":"153e00a7-3c27-4fb8-9f75-d10b1fce9e8e","system_id":"levelo_inurba_marseille","lat":43.25091,"lon":5.39515,"is_reserved":false,"is_disabled":false,"rental_uris":{"android":"levelo://app?vid=153e00a7-3c27-4fb8-9f75-d10b1fce9e8e","ios":"levelo://app?vid=153e00a7-3c27-4fb8-9f75-d10b1fce9e8e"},"vehicle_type_id":"4","last_reported":1727007311,"current_range_meters":38400,"station_id":"ce4bhm12rcd13ifvqgkg","pricing_plan_id":"cebpf4jnsgd1na2vs0mg"},{"bike_id":"0f4bd5ad-8a1a-4214-94a9-f7a00a32a067","system_id":"levelo_inurba_marseille","lat":43.32054,"lon":5.41556,"is_reserved":false,"is_disabled":false,"rental_uris":{"android":"levelo://app?vid=0f4bd5ad-8a1a-4214-94a9-f7a00a32a067","ios":"levelo://app?vid=0f4bd5ad-8a1a-4214-94a9-f7a00a32a067"},"vehicle_type_id":"4","last_reported":1727007311,"current_range_meters":27600,"station_id":"ce4bhq92rcd13ifvqhkg","pricing_plan_id":"cebpf4jnsgd1na2vs0mg"},{"bike_id":"f7b88fa4-0828-4ca3-8da7-d1aaebe2db5a","system_id":"levelo_inurba_marseille","lat":43.32476,"lon":5.36585,"is_reserved":false,"is_disabled":false,"rental_uris":{"android":"levelo://app?vid=f7b88fa4-0828-4ca3-8da7-d1aaebe2db5a","ios":"levelo://app?vid=f7b88fa4-0828-4ca3-8da7-d1aaebe2db5a"},"vehicle_type_id":"4","last_reported":1727007311,"current_range_meters":21600,"station_id":"ce4bhs12rcd13ifvqhvg","pricing_plan_id":"cebpf4jnsgd1na2vs0mg"},{"bike_id":"f84f0098-9b9f-4ce7-9b7c-09e959a1be10","system_id":"levelo_inurba_marseille","lat":43.24805,"lon":5.37456,"is_reserved":false,"is_disabled":false,"rental_uris":{"android":"levelo://app?vid=f84f0098-9b9f-4ce7-9b7c-09e959a1be10","ios":"levelo://app?vid=f84f0098-9b9f-4ce7-9b7c-09e959a1be10"},"vehicle_type_id":"4","last_reported":1727007311,"current_range_meters":37600,"station_id":"ce4bhgh2rcd13ifvqfb0","pricing_plan_id":"cebpf4jnsgd1na2vs0mg"},{"bike_id":"8888949b-eb95-4e71-beba-2f46c5b5a5d0","system_id":"levelo_inurba_marseille","lat":43.24807,"lon":5.37457,"is_reserved":false,"is_disabled":false,"rental_uris":{"android":"levelo://app?vid=8888949b-eb95-4e71-beba-2f46c5b5a5d0","ios":"levelo://app?vid=8888949b-eb95-4e71-beba-2f46c5b5a5d0"},"vehicle_type_id":"4","last_reported":1727007311,"current_range_meters":8000,"station_id":"ce4bhgh2rcd13ifvqfb0","pricing_plan_id":"cebpf4jnsgd1na2vs0mg"},{"bike_id":"3c39be2d-5969-4428-92df-ef8d08db9add","system_id":"levelo_inurba_marseille","lat":43.31714,"lon":5.43707,"is_reserved":false,"is_disabled":false,"rental_uris":{"android":"levelo://app?vid=3c39be2d-5969-4428-92df-ef8d08db9add","ios":"levelo://app?vid=3c39be2d-5969-4428-92df-ef8d08db9add"},"vehicle_type_id":"4","last_reported":1727007311,"current_range_meters":20400,"station_id":"ce4bhp92rcd13ifvqhcg","pricing_plan_id":"cebpf4jnsgd1na2vs0mg"},{"bike_id":"f030d97b-c753-472f-b8ee-1c4ecb87f648","system_id":"levelo_inurba_marseille","lat":43.24177,"lon":5.3973,"is_reserved":false,"is_disabled":false,"rental_uris":{"android":"levelo://app?vid=f030d97b-c753-472f-b8ee-1c4ecb87f648","ios":"levelo://app?vid=f030d97b-c753-472f-b8ee-1c4ecb87f648"},"vehicle_type_id":"4","last_reported":1727007311,"current_range_meters":36000,"station_id":"ce4bhn12rcd13ifvqgpg","pricing_plan_id":"cebpf4jnsgd1na2vs0mg"},{"bike_id":"4eda1e9f-3a6c-4c4b-bf24-1ddc96138068","system_id":"levelo_inurba_marseille","lat":43.32366,"lon":5.38886,"is_reserved":false,"is_disabled":false,"rental_uris":{"android":"levelo://app?vid=4eda1e9f-3a6c-4c4b-bf24-1ddc96138068","ios":"levelo://app?vid=4eda1e9f-3a6c-4c4b-bf24-1ddc96138068"},"vehicle_type_id":"4","last_reported":1727007311,"current_range_meters":22400,"station_id":"ce4bhqp2rcd13ifvqhog","pricing_plan_id":"cebpf4jnsgd1na2vs0mg"},{"bike_id":"0eeef309-a569-492c-94d2-f349d998288c","system_id":"levelo_inurba_marseille","lat":43.30279,"lon":5.37704,"is_reserved":false,"is_disabled":false,"rental_uris":{"android":"levelo://app?vid=0eeef309-a569-492c-94d2-f349d998288c","ios":"levelo://app?vid=0eeef309-a569-492c-94d2-f349d998288c"},"vehicle_type_id":"4","last_reported":1727007311,"current_range_meters":38400,"station_id":"ce4bguh2rcd13ifvqcj0","pricing_plan_id":"cebpf4jnsgd1na2vs0mg"},{"bike_id":"13766f73-7bd7-4ff7-8d91-b0fa50e1d8d2","system_id":"levelo_inurba_marseille","lat":43.2396,"lon":5.36622,"is_reserved":false,"is_disabled":false,"rental_uris":{"android":"levelo://app?vid=13766f73-7bd7-4ff7-8d91-b0fa50e1d8d2","ios":"levelo://app?vid=13766f73-7bd7-4ff7-8d91-b0fa50e1d8d2"},"vehicle_type_id":"4","last_reported":1727007311,"current_range_meters":24400,"station_id":"ce4bhi12rcd13ifvqfp0","pricing_plan_id":"cebpf4jnsgd1na2vs0mg"},{"bike_id":"bd9288da-7b0a-4320-8ca0-bad0ea45fcff","system_id":"levelo_inurba_marseille","lat":43.282654,"lon":5.350798,"is_reserved":false,"is_disabled":false,"rental_uris":{"android":"levelo://app?vid=bd9288da-7b0a-4320-8ca0-bad0ea45fcff","ios":"levelo://app?vid=bd9288da-7b0a-4320-8ca0-bad0ea45fcff"},"vehicle_type_id":"4","last_reported":1727007311,"current_range_meters":24400,"station_id":"ce4bhbp2rcd13ifvqerg","pricing_plan_id":"cebpf4jnsgd1na2vs0mg"},{"bike_id":"7f0bf2c3-4c97-4a45-a0f3-07a1e50b19fd","system_id":"levelo_inurba_marseille","lat":43.28699,"lon":5.39991,"is_reserved":false,"is_disabled":false,"rental_uris":{"android":"levelo://app?vid=7f0bf2c3-4c97-4a45-a0f3-07a1e50b19fd","ios":"levelo://app?vid=7f0bf2c3-4c97-4a45-a0f3-07a1e50b19fd"},"vehicle_type_id":"4","last_reported":1727007311,"current_range_meters":7200,"station_id":"ce4bho92rcd13ifvqh3g","pricing_plan_id":"cebpf4jnsgd1na2vs0mg"},{"bike_id":"c3b8553b-8d42-4c93-a1dd-b0e9988ea8a9","system_id":"levelo_inurba_marseille","lat":43.29785,"lon":5.37103,"is_reserved":false,"is_disabled":false,"rental_uris":{"android":"levelo://app?vid=c3b8553b-8d42-4c93-a1dd-b0e9988ea8a9","ios":"levelo://app?vid=c3b8553b-8d42-4c93-a1dd-b0e9988ea8a9"},"vehicle_type_id":"4","last_reported":1727007311,"current_range_meters":38800,"station_id":"ce4bgop2rcd13ifvqc1g","pricing_plan_id":"cebpf4jnsgd1na2vs0mg"},{"bike_id":"31cd87d8-fea4-4826-a7f5-8e975b8c66ad","system_id":"levelo_inurba_marseille","lat":43.302748,"lon":5.376937,"is_reserved":false,"is_disabled":false,"rental_uris":{"android":"levelo://app?vid=31cd87d8-fea4-4826-a7f5-8e975b8c66ad","ios":"levelo://app?vid=31cd87d8-fea4-4826-a7f5-8e975b8c66ad"},"vehicle_type_id":"4","last_reported":1727007311,"current_range_meters":17200,"station_id":"ce4bguh2rcd13ifvqcj0","pricing_plan_id":"cebpf4jnsgd1na2vs0mg"},{"bike_id":"20a042f1-81aa-4cde-8548-4f002e395336","system_id":"levelo_inurba_marseille","lat":43.30178,"lon":5.39843,"is_reserved":false,"is_disabled":false,"rental_uris":{"android":"levelo://app?vid=20a042f1-81aa-4cde-8548-4f002e395336","ios":"levelo://app?vid=20a042f1-81aa-4cde-8548-4f002e395336"},"vehicle_type_id":"4","last_reported":1727007311,"current_range_meters":37600,"station_id":"ce4bgvp2rcd13ifvqct0","pricing_plan_id":"cebpf4jnsgd1na2vs0mg"},{"bike_id":"3f3a1968-161c-4281-9dac-b1f6f3f79cd0","system_id":"levelo_inurba_marseille","lat":43.27492,"lon":5.42456,"is_reserved":false,"is_disabled":false,"rental_uris":{"android":"levelo://app?vid=3f3a1968-161c-4281-9dac-b1f6f3f79cd0","ios":"levelo://app?vid=3f3a1968-161c-4281-9dac-b1f6f3f79cd0"},"vehicle_type_id":"4","last_reported":1727007311,"current_range_meters":16800,"station_id":"ce4bhn92rcd13ifvqgrg","pricing_plan_id":"cebpf4jnsgd1na2vs0mg"},{"bike_id":"a4ae4f79-4648-4b4c-bac6-c78ecf3d57bc","system_id":"levelo_inurba_marseille","lat":43.31083,"lon":5.42429,"is_reserved":false,"is_disabled":false,"rental_uris":{"android":"levelo://app?vid=a4ae4f79-4648-4b4c-bac6-c78ecf3d57bc","ios":"levelo://app?vid=a4ae4f79-4648-4b4c-bac6-c78ecf3d57bc"},"vehicle_type_id":"4","last_reported":1727007311,"current_range_meters":9600,"station_id":"ce4bhp92rcd13ifvqhag","pricing_plan_id":"cebpf4jnsgd1na2vs0mg"},{"bike_id":"c75fe3d3-e6c8-4a25-95e1-f837f95917ff","system_id":"levelo_inurba_marseille","lat":43.25826,"lon":5.39444,"is_reserved":false,"is_disabled":false,"rental_uris":{"android":"levelo://app?vid=c75fe3d3-e6c8-4a25-95e1-f837f95917ff","ios":"levelo://app?vid=c75fe3d3-e6c8-4a25-95e1-f837f95917ff"},"vehicle_type_id":"4","last_reported":1727007311,"current_range_meters":35600,"station_id":"ce4bhip2rcd13ifvqft0","pricing_plan_id":"cebpf4jnsgd1na2vs0mg"},{"bike_id":"d80ea284-b7dd-4ebf-9194-a01f1a13ce28","system_id":"levelo_inurba_marseille","lat":43.28409,"lon":5.34987,"is_reserved":false,"is_disabled":false,"rental_uris":{"android":"levelo://app?vid=d80ea284-b7dd-4ebf-9194-a01f1a13ce28","ios":"levelo://app?vid=d80ea284-b7dd-4ebf-9194-a01f1a13ce28"},"vehicle_type_id":"4","last_reported":1727007311,"current_range_meters":37600,"station_id":"ce4bhbh2rcd13ifvqepg","pricing_plan_id":"cebpf4jnsgd1na2vs0mg"},{"bike_id":"848e16a3-f234-459e-b0f6-0b2fa991cd2c","system_id":"levelo_inurba_marseille","lat":43.26683,"lon":5.382744,"is_reserved":false,"is_disabled":false,"rental_uris":{"android":"levelo://app?vid=848e16a3-f234-459e-b0f6-0b2fa991cd2c","ios":"levelo://app?vid=848e16a3-f234-459e-b0f6-0b2fa991cd2c"},"vehicle_type_id":"4","last_reported":1727007311,"current_range_meters":28800,"station_id":"ce4bhg92rcd13ifvqf90","pricing_plan_id":"cebpf4jnsgd1na2vs0mg"},{"bike_id":"96247566-d518-4409-a232-ee6adf73b250","system_id":"levelo_inurba_marseille","lat":43.28612,"lon":5.35099,"is_reserved":false,"is_disabled":false,"rental_uris":{"android":"levelo://app?vid=96247566-d518-4409-a232-ee6adf73b250","ios":"levelo://app?vid=96247566-d518-4409-a232-ee6adf73b250"},"vehicle_type_id":"4","last_reported":1727007311,"current_range_meters":38800,"station_id":"ce4bhch2rcd13ifvqeug","pricing_plan_id":"cebpf4jnsgd1na2vs0mg"},{"bike_id":"ddef2735-203a-4460-8fe2-32d0d088e5d5","system_id":"levelo_inurba_marseille","lat":43.31239,"lon":5.37991,"is_reserved":false,"is_disabled":false,"rental_uris":{"android":"levelo://app?vid=ddef2735-203a-4460-8fe2-32d0d088e5d5","ios":"levelo://app?vid=ddef2735-203a-4460-8fe2-32d0d088e5d5"},"vehicle_type_id":"4","last_reported":1727007311,"current_range_meters":6400,"station_id":"","pricing_plan_id":"cebpf4jnsgd1na2vs0mg"},{"bike_id":"793b8120-20a2-4bec-afc2-dfa03da7ce14","system_id":"levelo_inurba_marseille","lat":43.255792,"lon":5.382418,"is_reserved":false,"is_disabled":false,"rental_uris":{"android":"levelo://app?vid=793b8120-20a2-4bec-afc2-dfa03da7ce14","ios":"levelo://app?vid=793b8120-20a2-4bec-afc2-dfa03da7ce14"},"vehicle_type_id":"4","last_reported":1727007311,"current_range_meters":10000,"station_id":"ce4bgi92rcd13ifvqb90","pricing_plan_id":"cebpf4jnsgd1na2vs0mg"},{"bike_id":"0fad3359-1427-43ab-a566-215c8f435be2","system_id":"levelo_inurba_marseille","lat":43.24391,"lon":5.37063,"is_reserved":false,"is_disabled":false,"rental_uris":{"android":"levelo://app?vid=0fad3359-1427-43ab-a566-215c8f435be2","ios":"levelo://app?vid=0fad3359-1427-43ab-a566-215c8f435be2"},"vehicle_type_id":"4","last_reported":1727007311,"current_range_meters":6000,"station_id":"ce4bhhh2rcd13ifvqfk0","pricing_plan_id":"cebpf4jnsgd1na2vs0mg"},{"bike_id":"6827b231-1d6c-4880-9e24-d675a65cf584","system_id":"levelo_inurba_marseille","lat":43.32349,"lon":5.40623,"is_reserved":false,"is_disabled":false,"rental_uris":{"android":"levelo://app?vid=6827b231-1d6c-4880-9e24-d675a65cf584","ios":"levelo://app?vid=6827b231-1d6c-4880-9e24-d675a65cf584"},"vehicle_type_id":"4","last_reported":1727007311,"current_range_meters":8400,"station_id":"ce4bhq92rcd13ifvqhjg","pricing_plan_id":"cebpf4jnsgd1na2vs0mg"},{"bike_id":"8bf5a807-97bc-4464-a9be-e285398636b7","system_id":"levelo_inurba_marseille","lat":43.282745,"lon":5.35069,"is_reserved":false,"is_disabled":false,"rental_uris":{"android":"levelo://app?vid=8bf5a807-97bc-4464-a9be-e285398636b7","ios":"levelo://app?vid=8bf5a807-97bc-4464-a9be-e285398636b7"},"vehicle_type_id":"4","last_reported":1727007311,"current_range_meters":22000,"station_id":"ce4bhbp2rcd13ifvqerg","pricing_plan_id":"cebpf4jnsgd1na2vs0mg"},{"bike_id":"80ef0bbe-2694-4d57-aa26-0ee82b5cdca4","system_id":"levelo_inurba_marseille","lat":43.32657,"lon":5.40992,"is_reserved":false,"is_disabled":false,"rental_uris":{"android":"levelo://app?vid=80ef0bbe-2694-4d57-aa26-0ee82b5cdca4","ios":"levelo://app?vid=80ef0bbe-2694-4d57-aa26-0ee82b5cdca4"},"vehicle_type_id":"4","last_reported":1727007311,"current_range_meters":40000,"station_id":"ce4bhpp2rcd13ifvqhgg","pricing_plan_id":"cebpf4jnsgd1na2vs0mg"},{"bike_id":"2cb082a5-5b0b-47dd-9235-67acda73bc23","system_id":"levelo_inurba_marseille","lat":43.31348,"lon":5.36743,"is_reserved":false,"is_disabled":false,"rental_uris":{"android":"levelo://app?vid=2cb082a5-5b0b-47dd-9235-67acda73bc23","ios":"levelo://app?vid=2cb082a5-5b0b-47dd-9235-67acda73bc23"},"vehicle_type_id":"4","last_reported":1727007311,"current_range_meters":30800,"station_id":"ce4bgr92rcd13ifvqc6g","pricing_plan_id":"cebpf4jnsgd1na2vs0mg"},{"bike_id":"6700b10d-ca1a-4d71-900f-ef16a5336723","system_id":"levelo_inurba_marseille","lat":43.28933,"lon":5.36635,"is_reserved":false,"is_disabled":false,"rental_uris":{"android":"levelo://app?vid=6700b10d-ca1a-4d71-900f-ef16a5336723","ios":"levelo://app?vid=6700b10d-ca1a-4d71-900f-ef16a5336723"},"vehicle_type_id":"4","last_reported":1727007311,"current_range_meters":10800,"station_id":"ce4bhap2rcd13ifvqek0","pricing_plan_id":"cebpf4jnsgd1na2vs0mg"},{"bike_id":"6419325f-76c1-4392-9dbc-8446db0b27c5","system_id":"levelo_inurba_marseille","lat":43.30276,"lon":5.38382,"is_reserved":false,"is_disabled":false,"rental_uris":{"android":"levelo://app?vid=6419325f-76c1-4392-9dbc-8446db0b27c5","ios":"levelo://app?vid=6419325f-76c1-4392-9dbc-8446db0b27c5"},"vehicle_type_id":"4","last_reported":1727007311,"current_range_meters":15200,"station_id":"","pricing_plan_id":"cebpf4jnsgd1na2vs0mg"},{"bike_id":"26094406-db9b-4e8a-aa4c-9995b217cb36","system_id":"levelo_inurba_marseille","lat":43.276135,"lon":5.361117,"is_reserved":false,"is_disabled":false,"rental_uris":{"android":"levelo://app?vid=26094406-db9b-4e8a-aa4c-9995b217cb36","ios":"levelo://app?vid=26094406-db9b-4e8a-aa4c-9995b217cb36"},"vehicle_type_id":"4","last_reported":1727007311,"current_range_meters":38800,"station_id":"ce4bgj92rcd13ifvqbe0","pricing_plan_id":"cebpf4jnsgd1na2vs0mg"},{"bike_id":"7c1b08c9-5660-4562-9220-c71b2000867b","system_id":"levelo_inurba_marseille","lat":43.24385,"lon":5.37059,"is_reserved":false,"is_disabled":false,"rental_uris":{"android":"levelo://app?vid=7c1b08c9-5660-4562-9220-c71b2000867b","ios":"levelo://app?vid=7c1b08c9-5660-4562-9220-c71b2000867b"},"vehicle_type_id":"4","last_reported":1727007311,"current_range_meters":14800,"station_id":"ce4bhhh2rcd13ifvqfk0","pricing_plan_id":"cebpf4jnsgd1na2vs0mg"},{"bike_id":"bda83ca7-9798-4a91-9454-79010960b865","system_id":"levelo_inurba_marseille","lat":43.25718,"lon":5.41116,"is_reserved":false,"is_disabled":false,"rental_uris":{"android":"levelo://app?vid=bda83ca7-9798-4a91-9454-79010960b865","ios":"levelo://app?vid=bda83ca7-9798-4a91-9454-79010960b865"},"vehicle_type_id":"4","last_reported":1727007311,"current_range_meters":30400,"station_id":"ce4bhkp2rcd13ifvqgd0","pricing_plan_id":"cebpf4jnsgd1na2vs0mg"},{"bike_id":"c35633c1-a39f-45b1-93a3-545f6accff58","system_id":"levelo_inurba_marseille","lat":43.27209,"lon":5.39181,"is_reserved":false,"is_disabled":false,"rental_uris":{"android":"levelo://app?vid=c35633c1-a39f-45b1-93a3-545f6accff58","ios":"levelo://app?vid=c35633c1-a39f-45b1-93a3-545f6accff58"},"vehicle_type_id":"4","last_reported":1727007311,"current_range_meters":28400,"station_id":"ce4bhhp2rcd13ifvqfm0","pricing_plan_id":"cebpf4jnsgd1na2vs0mg"},{"bike_id":"edfb1ff5-b81b-4225-8da9-100a9115b1e3","system_id":"levelo_inurba_marseille","lat":43.29735,"lon":5.36561,"is_reserved":false,"is_disabled":false,"rental_uris":{"android":"levelo://app?vid=edfb1ff5-b81b-4225-8da9-100a9115b1e3","ios":"levelo://app?vid=edfb1ff5-b81b-4225-8da9-100a9115b1e3"},"vehicle_type_id":"4","last_reported":1727007311,"current_range_meters":4000,"station_id":"","pricing_plan_id":"cebpf4jnsgd1na2vs0mg"},{"bike_id":"da22a345-51cf-499f-bdea-779f95bcd8e2","system_id":"levelo_inurba_marseille","lat":43.31359,"lon":5.38498,"is_reserved":false,"is_disabled":false,"rental_uris":{"android":"levelo://app?vid=da22a345-51cf-499f-bdea-779f95bcd8e2","ios":"levelo://app?vid=da22a345-51cf-499f-bdea-779f95bcd8e2"},"vehicle_type_id":"4","last_reported":1727007311,"current_range_meters":8800,"station_id":"ce4bgt92rcd13ifvqcf0","pricing_plan_id":"cebpf4jnsgd1na2vs0mg"},{"bike_id":"b57c2470-faa1-4f08-9d39-24d9dc117d7e","system_id":"levelo_inurba_marseille","lat":43.23064,"lon":5.35491,"is_reserved":false,"is_disabled":false,"rental_uris":{"android":"levelo://app?vid=b57c2470-faa1-4f08-9d39-24d9dc117d7e","ios":"levelo://app?vid=b57c2470-faa1-4f08-9d39-24d9dc117d7e"},"vehicle_type_id":"4","last_reported":1727007311,"current_range_meters":26800,"station_id":"cpo3342slgdg3j2ifvpg","pricing_plan_id":"cebpf4jnsgd1na2vs0mg"},{"bike_id":"e8bd3c7d-9dd0-4fda-95f6-346ed692dd7e","system_id":"levelo_inurba_marseille","lat":43.28422,"lon":5.3499,"is_reserved":false,"is_disabled":false,"rental_uris":{"android":"levelo://app?vid=e8bd3c7d-9dd0-4fda-95f6-346ed692dd7e","ios":"levelo://app?vid=e8bd3c7d-9dd0-4fda-95f6-346ed692dd7e"},"vehicle_type_id":"4","last_reported":1727007311,"current_range_meters":17600,"station_id":"ce4bhbh2rcd13ifvqepg","pricing_plan_id":"cebpf4jnsgd1na2vs0mg"},{"bike_id":"c914526b-bc34-4a4c-8d27-ef89019aa801","system_id":"levelo_inurba_marseille","lat":43.29562,"lon":5.42298,"is_reserved":false,"is_disabled":false,"rental_uris":{"android":"levelo://app?vid=c914526b-bc34-4a4c-8d27-ef89019aa801","ios":"levelo://app?vid=c914526b-bc34-4a4c-8d27-ef89019aa801"},"vehicle_type_id":"4","last_reported":1727007311,"current_range_meters":16000,"station_id":"ce4bhph2rcd13ifvqhdg","pricing_plan_id":"cebpf4jnsgd1na2vs0mg"},{"bike_id":"71b3edbe-ecd7-4298-a1ee-c6800c974b22","system_id":"levelo_inurba_marseille","lat":43.29972,"lon":5.3719,"is_reserved":false,"is_disabled":false,"rental_uris":{"android":"levelo://app?vid=71b3edbe-ecd7-4298-a1ee-c6800c974b22","ios":"levelo://app?vid=71b3edbe-ecd7-4298-a1ee-c6800c974b22"},"vehicle_type_id":"4","last_reported":1727007311,"current_range_meters":15200,"station_id":"ce4bgr92rcd13ifvqc7g","pricing_plan_id":"cebpf4jnsgd1na2vs0mg"},{"bike_id":"193e020b-81a8-4c54-bc14-c8f099eeee2c","system_id":"levelo_inurba_marseille","lat":43.30882,"lon":5.39641,"is_reserved":false,"is_disabled":false,"rental_uris":{"android":"levelo://app?vid=193e020b-81a8-4c54-bc14-c8f099eeee2c","ios":"levelo://app?vid=193e020b-81a8-4c54-bc14-c8f099eeee2c"},"vehicle_type_id":"4","last_reported":1727007311,"current_range_meters":30400,"station_id":"ce4bh012rcd13ifvqcv0","pricing_plan_id":"cebpf4jnsgd1na2vs0mg"},{"bike_id":"1834f610-082e-4ae5-a760-6f3d2dd479f7","system_id":"levelo_inurba_marseille","lat":43.28274,"lon":5.35064,"is_reserved":false,"is_disabled":false,"rental_uris":{"android":"levelo://app?vid=1834f610-082e-4ae5-a760-6f3d2dd479f7","ios":"levelo://app?vid=1834f610-082e-4ae5-a760-6f3d2dd479f7"},"vehicle_type_id":"4","last_reported":1727007311,"current_range_meters":30000,"station_id":"ce4bhbp2rcd13ifvqerg","pricing_plan_id":"cebpf4jnsgd1na2vs0mg"},{"bike_id":"659a1cf3-94fe-4b3a-b8ae-406f3f0446d9","system_id":"levelo_inurba_marseille","lat":43.23187,"lon":5.39993,"is_reserved":false,"is_disabled":false,"rental_uris":{"android":"levelo://app?vid=659a1cf3-94fe-4b3a-b8ae-406f3f0446d9","ios":"levelo://app?vid=659a1cf3-94fe-4b3a-b8ae-406f3f0446d9"},"vehicle_type_id":"4","last_reported":1727007311,"current_range_meters":9200,"station_id":"ce4bhn12rcd13ifvqgqg","pricing_plan_id":"cebpf4jnsgd1na2vs0mg"},{"bike_id":"bad09c14-753e-45f7-96fe-59e953f675c1","system_id":"levelo_inurba_marseille","lat":43.29683,"lon":5.37287,"is_reserved":false,"is_disabled":false,"rental_uris":{"android":"levelo://app?vid=bad09c14-753e-45f7-96fe-59e953f675c1","ios":"levelo://app?vid=bad09c14-753e-45f7-96fe-59e953f675c1"},"vehicle_type_id":"4","last_reported":1727007311,"current_range_meters":39200,"station_id":"ce4bgk12rcd13ifvqbj0","pricing_plan_id":"cebpf4jnsgd1na2vs0mg"},{"bike_id":"850b08d8-ed42-4ad0-b0d6-020b1b8ae309","system_id":"levelo_inurba_marseille","lat":43.2956,"lon":5.42286,"is_reserved":false,"is_disabled":false,"rental_uris":{"android":"levelo://app?vid=850b08d8-ed42-4ad0-b0d6-020b1b8ae309","ios":"levelo://app?vid=850b08d8-ed42-4ad0-b0d6-020b1b8ae309"},"vehicle_type_id":"4","last_reported":1727007311,"current_range_meters":12400,"station_id":"ce4bhph2rcd13ifvqhdg","pricing_plan_id":"cebpf4jnsgd1na2vs0mg"},{"bike_id":"1e6bc726-39ad-4f50-aba9-4039cbb2613e","system_id":"levelo_inurba_marseille","lat":43.28624,"lon":5.35104,"is_reserved":false,"is_disabled":false,"rental_uris":{"android":"levelo://app?vid=1e6bc726-39ad-4f50-aba9-4039cbb2613e","ios":"levelo://app?vid=1e6bc726-39ad-4f50-aba9-4039cbb2613e"},"vehicle_type_id":"4","last_reported":1727007311,"current_range_meters":37600,"station_id":"ce4bhch2rcd13ifvqeug","pricing_plan_id":"cebpf4jnsgd1na2vs0mg"},{"bike_id":"f9a95eab-0223-4144-b856-f15596b1d518","system_id":"levelo_inurba_marseille","lat":43.23178,"lon":5.39989,"is_reserved":false,"is_disabled":false,"rental_uris":{"android":"levelo://app?vid=f9a95eab-0223-4144-b856-f15596b1d518","ios":"levelo://app?vid=f9a95eab-0223-4144-b856-f15596b1d518"},"vehicle_type_id":"4","last_reported":1727007311,"current_range_meters":4000,"station_id":"ce4bhn12rcd13ifvqgqg","pricing_plan_id":"cebpf4jnsgd1na2vs0mg"},{"bike_id":"9ec81c50-14df-465f-927a-4d5bafebb966","system_id":"levelo_inurba_marseille","lat":43.27959,"lon":5.38745,"is_reserved":false,"is_disabled":false,"rental_uris":{"android":"levelo://app?vid=9ec81c50-14df-465f-927a-4d5bafebb966","ios":"levelo://app?vid=9ec81c50-14df-465f-927a-4d5bafebb966"},"vehicle_type_id":"4","last_reported":1727007311,"current_range_meters":9600,"station_id":"ce4bhg12rcd13ifvqf80","pricing_plan_id":"cebpf4jnsgd1na2vs0mg"},{"bike_id":"5419b1bf-d37c-4076-a34c-52ede101758e","system_id":"levelo_inurba_marseille","lat":43.337444,"lon":5.374475,"is_reserved":false,"is_disabled":false,"rental_uris":{"android":"levelo://app?vid=5419b1bf-d37c-4076-a34c-52ede101758e","ios":"levelo://app?vid=5419b1bf-d37c-4076-a34c-52ede101758e"},"vehicle_type_id":"4","last_reported":1727007311,"current_range_meters":28000,"station_id":"","pricing_plan_id":"cebpf4jnsgd1na2vs0mg"},{"bike_id":"0fd49ed2-bce5-41f7-a346-d388677a1aee","system_id":"levelo_inurba_marseille","lat":43.2907,"lon":5.3716,"is_reserved":false,"is_disabled":false,"rental_uris":{"android":"levelo://app?vid=0fd49ed2-bce5-41f7-a346-d388677a1aee","ios":"levelo://app?vid=0fd49ed2-bce5-41f7-a346-d388677a1aee"},"vehicle_type_id":"4","last_reported":1727007311,"current_range_meters":28000,"station_id":"ce4bh5p2rcd13ifvqe4g","pricing_plan_id":"cebpf4jnsgd1na2vs0mg"},{"bike_id":"e373d7e2-c101-4f41-9ceb-2c27fa58ee97","system_id":"levelo_inurba_marseille","lat":43.26488,"lon":5.39555,"is_reserved":false,"is_disabled":false,"rental_uris":{"android":"levelo://app?vid=e373d7e2-c101-4f41-9ceb-2c27fa58ee97","ios":"levelo://app?vid=e373d7e2-c101-4f41-9ceb-2c27fa58ee97"},"vehicle_type_id":"4","last_reported":1727007311,"current_range_meters":10000,"station_id":"ce4bhi12rcd13ifvqfq0","pricing_plan_id":"cebpf4jnsgd1na2vs0mg"},{"bike_id":"870a1f8b-9acd-4417-ad40-456726425e82","system_id":"levelo_inurba_marseille","lat":43.28148,"lon":5.42644,"is_reserved":false,"is_disabled":false,"rental_uris":{"android":"levelo://app?vid=870a1f8b-9acd-4417-ad40-456726425e82","ios":"levelo://app?vid=870a1f8b-9acd-4417-ad40-456726425e82"},"vehicle_type_id":"4","last_reported":1727007311,"current_range_meters":14000,"station_id":"ce4bhnh2rcd13ifvqgug","pricing_plan_id":"cebpf4jnsgd1na2vs0mg"},{"bike_id":"93b76663-06fe-4d90-87d6-507ca08f6bfc","system_id":"levelo_inurba_marseille","lat":43.261924,"lon":5.374491,"is_reserved":false,"is_disabled":false,"rental_uris":{"android":"levelo://app?vid=93b76663-06fe-4d90-87d6-507ca08f6bfc","ios":"levelo://app?vid=93b76663-06fe-4d90-87d6-507ca08f6bfc"},"vehicle_type_id":"4","last_reported":1727007311,"current_range_meters":38800,"station_id":"ce4bhgp2rcd13ifvqfc0","pricing_plan_id":"cebpf4jnsgd1na2vs0mg"},{"bike_id":"4f801477-ea18-4ec4-9a8e-7cc278d6526b","system_id":"levelo_inurba_marseille","lat":43.29851,"lon":5.36289,"is_reserved":false,"is_disabled":false,"rental_uris":{"android":"levelo://app?vid=4f801477-ea18-4ec4-9a8e-7cc278d6526b","ios":"levelo://app?vid=4f801477-ea18-4ec4-9a8e-7cc278d6526b"},"vehicle_type_id":"4","last_reported":1727007311,"current_range_meters":8400,"station_id":"ce4bgpp2rcd13ifvqc3g","pricing_plan_id":"cebpf4jnsgd1na2vs0mg"},{"bike_id":"62df0542-c445-4b5e-b006-298ccf191c5a","system_id":"levelo_inurba_marseille","lat":43.26211,"lon":5.37443,"is_reserved":false,"is_disabled":false,"rental_uris":{"android":"levelo://app?vid=62df0542-c445-4b5e-b006-298ccf191c5a","ios":"levelo://app?vid=62df0542-c445-4b5e-b006-298ccf191c5a"},"vehicle_type_id":"4","last_reported":1727007311,"current_range_meters":38800,"station_id":"ce4bhgp2rcd13ifvqfc0","pricing_plan_id":"cebpf4jnsgd1na2vs0mg"},{"bike_id":"408b3d46-3a11-4b51-be77-1e7d8127455b","system_id":"levelo_inurba_marseille","lat":43.28568,"lon":5.39501,"is_reserved":false,"is_disabled":false,"rental_uris":{"android":"levelo://app?vid=408b3d46-3a11-4b51-be77-1e7d8127455b","ios":"levelo://app?vid=408b3d46-3a11-4b51-be77-1e7d8127455b"},"vehicle_type_id":"4","last_reported":1727007311,"current_range_meters":29600,"station_id":"ce4bh292rcd13ifvqdg0","pricing_plan_id":"cebpf4jnsgd1na2vs0mg"},{"bike_id":"7cf101ae-fa96-481c-b583-fa8d212b8f4a","system_id":"levelo_inurba_marseille","lat":43.26203,"lon":5.37931,"is_reserved":false,"is_disabled":false,"rental_uris":{"android":"levelo://app?vid=7cf101ae-fa96-481c-b583-fa8d212b8f4a","ios":"levelo://app?vid=7cf101ae-fa96-481c-b583-fa8d212b8f4a"},"vehicle_type_id":"4","last_reported":1727007311,"current_range_meters":28800,"station_id":"ce4bhjp2rcd13ifvqg90","pricing_plan_id":"cebpf4jnsgd1na2vs0mg"},{"bike_id":"5f970973-f4f4-4937-9fbe-7af0359838f0","system_id":"levelo_inurba_marseille","lat":43.32352,"lon":5.4063,"is_reserved":false,"is_disabled":false,"rental_uris":{"android":"levelo://app?vid=5f970973-f4f4-4937-9fbe-7af0359838f0","ios":"levelo://app?vid=5f970973-f4f4-4937-9fbe-7af0359838f0"},"vehicle_type_id":"4","last_reported":1727007311,"current_range_meters":26000,"station_id":"ce4bhq92rcd13ifvqhjg","pricing_plan_id":"cebpf4jnsgd1na2vs0mg"},{"bike_id":"a381d564-3ff5-4eb7-be58-2b40d7b40ba3","system_id":"levelo_inurba_marseille","lat":43.25829,"lon":5.39431,"is_reserved":false,"is_disabled":false,"rental_uris":{"android":"levelo://app?vid=a381d564-3ff5-4eb7-be58-2b40d7b40ba3","ios":"levelo://app?vid=a381d564-3ff5-4eb7-be58-2b40d7b40ba3"},"vehicle_type_id":"4","last_reported":1727007311,"current_range_meters":38800,"station_id":"ce4bhip2rcd13ifvqft0","pricing_plan_id":"cebpf4jnsgd1na2vs0mg"},{"bike_id":"a8322dde-c4cd-4d57-952e-234e55c68ebf","system_id":"levelo_inurba_marseille","lat":43.25866,"lon":5.39908,"is_reserved":false,"is_disabled":false,"rental_uris":{"android":"levelo://app?vid=a8322dde-c4cd-4d57-952e-234e55c68ebf","ios":"levelo://app?vid=a8322dde-c4cd-4d57-952e-234e55c68ebf"},"vehicle_type_id":"4","last_reported":1727007311,"current_range_meters":38800,"station_id":"ce4bhl92rcd13ifvqghg","pricing_plan_id":"cebpf4jnsgd1na2vs0mg"},{"bike_id":"8b4d6c01-f577-4bcb-bf6b-7f79ee0abab5","system_id":"levelo_inurba_marseille","lat":43.30145,"lon":5.37422,"is_reserved":false,"is_disabled":false,"rental_uris":{"android":"levelo://app?vid=8b4d6c01-f577-4bcb-bf6b-7f79ee0abab5","ios":"levelo://app?vid=8b4d6c01-f577-4bcb-bf6b-7f79ee0abab5"},"vehicle_type_id":"4","last_reported":1727007311,"current_range_meters":34800,"station_id":"ce4bgs92rcd13ifvqcc0","pricing_plan_id":"cebpf4jnsgd1na2vs0mg"},{"bike_id":"c4750ba1-adf0-4309-bd46-dcf0eb74a7b9","system_id":"levelo_inurba_marseille","lat":43.25824,"lon":5.39435,"is_reserved":false,"is_disabled":false,"rental_uris":{"android":"levelo://app?vid=c4750ba1-adf0-4309-bd46-dcf0eb74a7b9","ios":"levelo://app?vid=c4750ba1-adf0-4309-bd46-dcf0eb74a7b9"},"vehicle_type_id":"4","last_reported":1727007311,"current_range_meters":38800,"station_id":"ce4bhip2rcd13ifvqft0","pricing_plan_id":"cebpf4jnsgd1na2vs0mg"},{"bike_id":"763a8251-6798-4ed0-aef6-3ce1f2e4eeac","system_id":"levelo_inurba_marseille","lat":43.2826,"lon":5.3507,"is_reserved":false,"is_disabled":false,"rental_uris":{"android":"levelo://app?vid=763a8251-6798-4ed0-aef6-3ce1f2e4eeac","ios":"levelo://app?vid=763a8251-6798-4ed0-aef6-3ce1f2e4eeac"},"vehicle_type_id":"4","last_reported":1727007311,"current_range_meters":11600,"station_id":"ce4bhbp2rcd13ifvqerg","pricing_plan_id":"cebpf4jnsgd1na2vs0mg"},{"bike_id":"422e3543-f4e4-40ba-bb8a-f4c5a38ac8ef","system_id":"levelo_inurba_marseille","lat":43.29554,"lon":5.42293,"is_reserved":false,"is_disabled":false,"rental_uris":{"android":"levelo://app?vid=422e3543-f4e4-40ba-bb8a-f4c5a38ac8ef","ios":"levelo://app?vid=422e3543-f4e4-40ba-bb8a-f4c5a38ac8ef"},"vehicle_type_id":"4","last_reported":1727007311,"current_range_meters":25600,"station_id":"ce4bhph2rcd13ifvqhdg","pricing_plan_id":"cebpf4jnsgd1na2vs0mg"},{"bike_id":"149779fc-bc45-458a-857f-33707eedaf6a","system_id":"levelo_inurba_marseille","lat":43.23198,"lon":5.35555,"is_reserved":false,"is_disabled":false,"rental_uris":{"android":"levelo://app?vid=149779fc-bc45-458a-857f-33707eedaf6a","ios":"levelo://app?vid=149779fc-bc45-458a-857f-33707eedaf6a"},"vehicle_type_id":"4","last_reported":1727007311,"current_range_meters":16000,"station_id":"ce4bhu92rcd13ifvqi70","pricing_plan_id":"cebpf4jnsgd1na2vs0mg"},{"bike_id":"340c2618-f7f7-48c4-87ad-f099071c41a9","system_id":"levelo_inurba_marseille","lat":43.28412,"lon":5.37522,"is_reserved":false,"is_disabled":false,"rental_uris":{"android":"levelo://app?vid=340c2618-f7f7-48c4-87ad-f099071c41a9","ios":"levelo://app?vid=340c2618-f7f7-48c4-87ad-f099071c41a9"},"vehicle_type_id":"4","last_reported":1727007311,"current_range_meters":11600,"station_id":"ce4bh412rcd13ifvqds0","pricing_plan_id":"cebpf4jnsgd1na2vs0mg"},{"bike_id":"a864aa37-d226-43c2-af5f-6967e8bdaf33","system_id":"levelo_inurba_marseille","lat":43.310699,"lon":5.383584,"is_reserved":false,"is_disabled":false,"rental_uris":{"android":"levelo://app?vid=a864aa37-d226-43c2-af5f-6967e8bdaf33","ios":"levelo://app?vid=a864aa37-d226-43c2-af5f-6967e8bdaf33"},"vehicle_type_id":"4","last_reported":1727007311,"current_range_meters":38000,"station_id":"ce4bgv92rcd13ifvqcr0","pricing_plan_id":"cebpf4jnsgd1na2vs0mg"},{"bike_id":"7d903340-b844-4bfb-bb1e-f140d594d2c5","system_id":"levelo_inurba_marseille","lat":43.30359,"lon":5.41882,"is_reserved":false,"is_disabled":false,"rental_uris":{"android":"levelo://app?vid=7d903340-b844-4bfb-bb1e-f140d594d2c5","ios":"levelo://app?vid=7d903340-b844-4bfb-bb1e-f140d594d2c5"},"vehicle_type_id":"4","last_reported":1727007311,"current_range_meters":34800,"station_id":"ce4bhop2rcd13ifvqh7g","pricing_plan_id":"cebpf4jnsgd1na2vs0mg"},{"bike_id":"e4901909-9b97-4091-9ac5-1ad48eccd6b4","system_id":"levelo_inurba_marseille","lat":43.27057,"lon":5.40268,"is_reserved":false,"is_disabled":false,"rental_uris":{"android":"levelo://app?vid=e4901909-9b97-4091-9ac5-1ad48eccd6b4","ios":"levelo://app?vid=e4901909-9b97-4091-9ac5-1ad48eccd6b4"},"vehicle_type_id":"4","last_reported":1727007311,"current_range_meters":16400,"station_id":"ce4bhk92rcd13ifvqgc0","pricing_plan_id":"cebpf4jnsgd1na2vs0mg"},{"bike_id":"8aa9229f-7f52-4bd0-9408-b9dcc7a5187a","system_id":"levelo_inurba_marseille","lat":43.27069,"lon":5.42281,"is_reserved":false,"is_disabled":false,"rental_uris":{"android":"levelo://app?vid=8aa9229f-7f52-4bd0-9408-b9dcc7a5187a","ios":"levelo://app?vid=8aa9229f-7f52-4bd0-9408-b9dcc7a5187a"},"vehicle_type_id":"4","last_reported":1727007311,"current_range_meters":24400,"station_id":"ce4bhk92rcd13ifvqgb0","pricing_plan_id":"cebpf4jnsgd1na2vs0mg"},{"bike_id":"1c9c8275-49a7-466e-9907-ae83394319c9","system_id":"levelo_inurba_marseille","lat":43.31691,"lon":5.40463,"is_reserved":false,"is_disabled":false,"rental_uris":{"android":"levelo://app?vid=1c9c8275-49a7-466e-9907-ae83394319c9","ios":"levelo://app?vid=1c9c8275-49a7-466e-9907-ae83394319c9"},"vehicle_type_id":"4","last_reported":1727007311,"current_range_meters":18000,"station_id":"ce4bh012rcd13ifvqd00","pricing_plan_id":"cebpf4jnsgd1na2vs0mg"},{"bike_id":"46121cc0-436d-4cf1-9853-45960b7d4d1b","system_id":"levelo_inurba_marseille","lat":43.23964,"lon":5.36636,"is_reserved":false,"is_disabled":false,"rental_uris":{"android":"levelo://app?vid=46121cc0-436d-4cf1-9853-45960b7d4d1b","ios":"levelo://app?vid=46121cc0-436d-4cf1-9853-45960b7d4d1b"},"vehicle_type_id":"4","last_reported":1727007311,"current_range_meters":36400,"station_id":"ce4bhi12rcd13ifvqfp0","pricing_plan_id":"cebpf4jnsgd1na2vs0mg"},{"bike_id":"aa2eb0cc-3a23-4a7c-af58-4d36a299df06","system_id":"levelo_inurba_marseille","lat":43.29978,"lon":5.36913,"is_reserved":false,"is_disabled":false,"rental_uris":{"android":"levelo://app?vid=aa2eb0cc-3a23-4a7c-af58-4d36a299df06","ios":"levelo://app?vid=aa2eb0cc-3a23-4a7c-af58-4d36a299df06"},"vehicle_type_id":"4","last_reported":1727007311,"current_range_meters":38800,"station_id":"","pricing_plan_id":"cebpf4jnsgd1na2vs0mg"},{"bike_id":"37b7b2a9-dcf2-4fc6-a477-540fbf633e94","system_id":"levelo_inurba_marseille","lat":43.28717,"lon":5.379439,"is_reserved":false,"is_disabled":false,"rental_uris":{"android":"levelo://app?vid=37b7b2a9-dcf2-4fc6-a477-540fbf633e94","ios":"levelo://app?vid=37b7b2a9-dcf2-4fc6-a477-540fbf633e94"},"vehicle_type_id":"4","last_reported":1727007311,"current_range_meters":27600,"station_id":"ce4bh9p2rcd13ifvqec0","pricing_plan_id":"cebpf4jnsgd1na2vs0mg"},{"bike_id":"226a0941-0c72-4b00-be32-622ea037304a","system_id":"levelo_inurba_marseille","lat":43.28614,"lon":5.351,"is_reserved":false,"is_disabled":false,"rental_uris":{"android":"levelo://app?vid=226a0941-0c72-4b00-be32-622ea037304a","ios":"levelo://app?vid=226a0941-0c72-4b00-be32-622ea037304a"},"vehicle_type_id":"4","last_reported":1727007311,"current_range_meters":38800,"station_id":"ce4bhch2rcd13ifvqeug","pricing_plan_id":"cebpf4jnsgd1na2vs0mg"},{"bike_id":"977ad24c-2005-446b-b21e-2e9257aa7686","system_id":"levelo_inurba_marseille","lat":43.29843,"lon":5.36277,"is_reserved":false,"is_disabled":false,"rental_uris":{"android":"levelo://app?vid=977ad24c-2005-446b-b21e-2e9257aa7686","ios":"levelo://app?vid=977ad24c-2005-446b-b21e-2e9257aa7686"},"vehicle_type_id":"4","last_reported":1727007311,"current_range_meters":34000,"station_id":"ce4bgpp2rcd13ifvqc3g","pricing_plan_id":"cebpf4jnsgd1na2vs0mg"},{"bike_id":"c750c22f-57e5-44e7-ab11-ab84ef9a0b5e","system_id":"levelo_inurba_marseille","lat":43.23186,"lon":5.39999,"is_reserved":false,"is_disabled":false,"rental_uris":{"android":"levelo://app?vid=c750c22f-57e5-44e7-ab11-ab84ef9a0b5e","ios":"levelo://app?vid=c750c22f-57e5-44e7-ab11-ab84ef9a0b5e"},"vehicle_type_id":"4","last_reported":1727007311,"current_range_meters":13600,"station_id":"ce4bhn12rcd13ifvqgqg","pricing_plan_id":"cebpf4jnsgd1na2vs0mg"},{"bike_id":"d4cd02a2-8196-45a0-ade7-083f2b1cddee","system_id":"levelo_inurba_marseille","lat":43.24181,"lon":5.39723,"is_reserved":false,"is_disabled":false,"rental_uris":{"android":"levelo://app?vid=d4cd02a2-8196-45a0-ade7-083f2b1cddee","ios":"levelo://app?vid=d4cd02a2-8196-45a0-ade7-083f2b1cddee"},"vehicle_type_id":"4","last_reported":1727007311,"current_range_meters":38400,"station_id":"ce4bhn12rcd13ifvqgpg","pricing_plan_id":"cebpf4jnsgd1na2vs0mg"},{"bike_id":"a8d42cf3-65fd-4e73-93d7-47142c435399","system_id":"levelo_inurba_marseille","lat":43.34398,"lon":5.40851,"is_reserved":false,"is_disabled":false,"rental_uris":{"android":"levelo://app?vid=a8d42cf3-65fd-4e73-93d7-47142c435399","ios":"levelo://app?vid=a8d42cf3-65fd-4e73-93d7-47142c435399"},"vehicle_type_id":"4","last_reported":1727007311,"current_range_meters":22000,"station_id":"","pricing_plan_id":"cebpf4jnsgd1na2vs0mg"},{"bike_id":"affeab95-004c-4559-a39d-9d9c7e294ed6","system_id":"levelo_inurba_marseille","lat":43.24179,"lon":5.39735,"is_reserved":false,"is_disabled":false,"rental_uris":{"android":"levelo://app?vid=affeab95-004c-4559-a39d-9d9c7e294ed6","ios":"levelo://app?vid=affeab95-004c-4559-a39d-9d9c7e294ed6"},"vehicle_type_id":"4","last_reported":1727007311,"current_range_meters":39200,"station_id":"ce4bhn12rcd13ifvqgpg","pricing_plan_id":"cebpf4jnsgd1na2vs0mg"},{"bike_id":"4f3b80d3-ebd0-41c2-94ac-f27b5e9a4493","system_id":"levelo_inurba_marseille","lat":43.26947,"lon":5.40247,"is_reserved":false,"is_disabled":false,"rental_uris":{"android":"levelo://app?vid=4f3b80d3-ebd0-41c2-94ac-f27b5e9a4493","ios":"levelo://app?vid=4f3b80d3-ebd0-41c2-94ac-f27b5e9a4493"},"vehicle_type_id":"4","last_reported":1727007311,"current_range_meters":8800,"station_id":"cjm6bp8fraef2m0cb0m0","pricing_plan_id":"cebpf4jnsgd1na2vs0mg"},{"bike_id":"5fb9931f-4b67-472c-84ca-869c90c9ca71","system_id":"levelo_inurba_marseille","lat":43.28273,"lon":5.35073,"is_reserved":false,"is_disabled":false,"rental_uris":{"android":"levelo://app?vid=5fb9931f-4b67-472c-84ca-869c90c9ca71","ios":"levelo://app?vid=5fb9931f-4b67-472c-84ca-869c90c9ca71"},"vehicle_type_id":"4","last_reported":1727007311,"current_range_meters":24400,"station_id":"ce4bhbp2rcd13ifvqerg","pricing_plan_id":"cebpf4jnsgd1na2vs0mg"},{"bike_id":"a85b547a-91c2-4cbd-8b10-3f99f70c1019","system_id":"levelo_inurba_marseille","lat":43.30208,"lon":5.39482,"is_reserved":false,"is_disabled":false,"rental_uris":{"android":"levelo://app?vid=a85b547a-91c2-4cbd-8b10-3f99f70c1019","ios":"levelo://app?vid=a85b547a-91c2-4cbd-8b10-3f99f70c1019"},"vehicle_type_id":"4","last_reported":1727007311,"current_range_meters":39200,"station_id":"ce4bh0p2rcd13ifvqd70","pricing_plan_id":"cebpf4jnsgd1na2vs0mg"},{"bike_id":"488eab58-702a-49ef-b05e-83a9813536ca","system_id":"levelo_inurba_marseille","lat":43.28154,"lon":5.42639,"is_reserved":false,"is_disabled":false,"rental_uris":{"android":"levelo://app?vid=488eab58-702a-49ef-b05e-83a9813536ca","ios":"levelo://app?vid=488eab58-702a-49ef-b05e-83a9813536ca"},"vehicle_type_id":"4","last_reported":1727007311,"current_range_meters":36000,"station_id":"ce4bhnh2rcd13ifvqgug","pricing_plan_id":"cebpf4jnsgd1na2vs0mg"},{"bike_id":"eb0e566e-7d71-4cc0-bc76-de33a9fd73a8","system_id":"levelo_inurba_marseille","lat":43.2319,"lon":5.35546,"is_reserved":false,"is_disabled":false,"rental_uris":{"android":"levelo://app?vid=eb0e566e-7d71-4cc0-bc76-de33a9fd73a8","ios":"levelo://app?vid=eb0e566e-7d71-4cc0-bc76-de33a9fd73a8"},"vehicle_type_id":"4","last_reported":1727007311,"current_range_meters":37600,"station_id":"ce4bhu92rcd13ifvqi70","pricing_plan_id":"cebpf4jnsgd1na2vs0mg"},{"bike_id":"7f1d4caf-fa09-496f-9db6-140aee4b481e","system_id":"levelo_inurba_marseille","lat":43.28612,"lon":5.35101,"is_reserved":false,"is_disabled":false,"rental_uris":{"android":"levelo://app?vid=7f1d4caf-fa09-496f-9db6-140aee4b481e","ios":"levelo://app?vid=7f1d4caf-fa09-496f-9db6-140aee4b481e"},"vehicle_type_id":"4","last_reported":1727007311,"current_range_meters":25200,"station_id":"ce4bhch2rcd13ifvqeug","pricing_plan_id":"cebpf4jnsgd1na2vs0mg"},{"bike_id":"2908de98-fbff-4b2f-9ed7-50b349833b64","system_id":"levelo_inurba_marseille","lat":43.29583,"lon":5.3674,"is_reserved":false,"is_disabled":false,"rental_uris":{"android":"levelo://app?vid=2908de98-fbff-4b2f-9ed7-50b349833b64","ios":"levelo://app?vid=2908de98-fbff-4b2f-9ed7-50b349833b64"},"vehicle_type_id":"4","last_reported":1727007311,"current_range_meters":29600,"station_id":"ce4bgph2rcd13ifvqc2g","pricing_plan_id":"cebpf4jnsgd1na2vs0mg"},{"bike_id":"a54e2ec9-d7bf-48d2-8fbb-5d27d59dae53","system_id":"levelo_inurba_marseille","lat":43.2827,"lon":5.35068,"is_reserved":false,"is_disabled":false,"rental_uris":{"android":"levelo://app?vid=a54e2ec9-d7bf-48d2-8fbb-5d27d59dae53","ios":"levelo://app?vid=a54e2ec9-d7bf-48d2-8fbb-5d27d59dae53"},"vehicle_type_id":"4","last_reported":1727007311,"current_range_meters":38800,"station_id":"ce4bhbp2rcd13ifvqerg","pricing_plan_id":"cebpf4jnsgd1na2vs0mg"},{"bike_id":"04999a37-2436-4404-8c16-cd85cf9b7a10","system_id":"levelo_inurba_marseille","lat":43.33021,"lon":5.39043,"is_reserved":false,"is_disabled":false,"rental_uris":{"android":"levelo://app?vid=04999a37-2436-4404-8c16-cd85cf9b7a10","ios":"levelo://app?vid=04999a37-2436-4404-8c16-cd85cf9b7a10"},"vehicle_type_id":"4","last_reported":1727007311,"current_range_meters":38000,"station_id":"ce4bhr92rcd13ifvqhrg","pricing_plan_id":"cebpf4jnsgd1na2vs0mg"},{"bike_id":"5d8160f8-c7fd-41b6-8cf7-fa4f0f762299","system_id":"levelo_inurba_marseille","lat":43.26217,"lon":5.37448,"is_reserved":false,"is_disabled":false,"rental_uris":{"android":"levelo://app?vid=5d8160f8-c7fd-41b6-8cf7-fa4f0f762299","ios":"levelo://app?vid=5d8160f8-c7fd-41b6-8cf7-fa4f0f762299"},"vehicle_type_id":"4","last_reported":1727007311,"current_range_meters":28000,"station_id":"","pricing_plan_id":"cebpf4jnsgd1na2vs0mg"},{"bike_id":"a7a2630d-54d4-495a-8506-d0472b9b9a1a","system_id":"levelo_inurba_marseille","lat":43.29569,"lon":5.42265,"is_reserved":false,"is_disabled":false,"rental_uris":{"android":"levelo://app?vid=a7a2630d-54d4-495a-8506-d0472b9b9a1a","ios":"levelo://app?vid=a7a2630d-54d4-495a-8506-d0472b9b9a1a"},"vehicle_type_id":"4","last_reported":1727007311,"current_range_meters":38800,"station_id":"ce4bhph2rcd13ifvqhdg","pricing_plan_id":"cebpf4jnsgd1na2vs0mg"},{"bike_id":"10a45a83-6a02-46f7-9db3-35edfba1d9bf","system_id":"levelo_inurba_marseille","lat":43.24389,"lon":5.37067,"is_reserved":false,"is_disabled":false,"rental_uris":{"android":"levelo://app?vid=10a45a83-6a02-46f7-9db3-35edfba1d9bf","ios":"levelo://app?vid=10a45a83-6a02-46f7-9db3-35edfba1d9bf"},"vehicle_type_id":"4","last_reported":1727007311,"current_range_meters":24000,"station_id":"ce4bhhh2rcd13ifvqfk0","pricing_plan_id":"cebpf4jnsgd1na2vs0mg"},{"bike_id":"06abd5f4-39bd-4aed-8d79-ba1988bd68c8","system_id":"levelo_inurba_marseille","lat":43.29727,"lon":5.36606,"is_reserved":false,"is_disabled":false,"rental_uris":{"android":"levelo://app?vid=06abd5f4-39bd-4aed-8d79-ba1988bd68c8","ios":"levelo://app?vid=06abd5f4-39bd-4aed-8d79-ba1988bd68c8"},"vehicle_type_id":"4","last_reported":1727007311,"current_range_meters":16400,"station_id":"ce4bgn12rcd13ifvqbt0","pricing_plan_id":"cebpf4jnsgd1na2vs0mg"},{"bike_id":"7b9dd459-340b-4978-bfb0-6c163a5263e8","system_id":"levelo_inurba_marseille","lat":43.2319,"lon":5.35548,"is_reserved":false,"is_disabled":false,"rental_uris":{"android":"levelo://app?vid=7b9dd459-340b-4978-bfb0-6c163a5263e8","ios":"levelo://app?vid=7b9dd459-340b-4978-bfb0-6c163a5263e8"},"vehicle_type_id":"4","last_reported":1727007311,"current_range_meters":38800,"station_id":"ce4bhu92rcd13ifvqi70","pricing_plan_id":"cebpf4jnsgd1na2vs0mg"},{"bike_id":"5e2e302c-890d-4ad4-a262-40644af253ce","system_id":"levelo_inurba_marseille","lat":43.24809,"lon":5.37462,"is_reserved":false,"is_disabled":false,"rental_uris":{"android":"levelo://app?vid=5e2e302c-890d-4ad4-a262-40644af253ce","ios":"levelo://app?vid=5e2e302c-890d-4ad4-a262-40644af253ce"},"vehicle_type_id":"4","last_reported":1727007311,"current_range_meters":11200,"station_id":"ce4bhgh2rcd13ifvqfb0","pricing_plan_id":"cebpf4jnsgd1na2vs0mg"},{"bike_id":"b4903d76-ce76-47f9-bd3e-4f9df44083bc","system_id":"levelo_inurba_marseille","lat":43.27374,"lon":5.36249,"is_reserved":false,"is_disabled":false,"rental_uris":{"android":"levelo://app?vid=b4903d76-ce76-47f9-bd3e-4f9df44083bc","ios":"levelo://app?vid=b4903d76-ce76-47f9-bd3e-4f9df44083bc"},"vehicle_type_id":"4","last_reported":1727007311,"current_range_meters":37600,"station_id":"ce4bhbh2rcd13ifvqeo0","pricing_plan_id":"cebpf4jnsgd1na2vs0mg"},{"bike_id":"0d5c659d-ff07-445d-a319-7d8776bc2075","system_id":"levelo_inurba_marseille","lat":43.305364,"lon":5.367613,"is_reserved":false,"is_disabled":false,"rental_uris":{"android":"levelo://app?vid=0d5c659d-ff07-445d-a319-7d8776bc2075","ios":"levelo://app?vid=0d5c659d-ff07-445d-a319-7d8776bc2075"},"vehicle_type_id":"4","last_reported":1727007311,"current_range_meters":31200,"station_id":"ce4bgrp2rcd13ifvqc9g","pricing_plan_id":"cebpf4jnsgd1na2vs0mg"},{"bike_id":"6054f3b9-db9f-469d-9c0a-3643cb4da149","system_id":"levelo_inurba_marseille","lat":43.24075,"lon":5.37767,"is_reserved":false,"is_disabled":false,"rental_uris":{"android":"levelo://app?vid=6054f3b9-db9f-469d-9c0a-3643cb4da149","ios":"levelo://app?vid=6054f3b9-db9f-469d-9c0a-3643cb4da149"},"vehicle_type_id":"4","last_reported":1727007311,"current_range_meters":32000,"station_id":"ce4bhnp2rcd13ifvqgvg","pricing_plan_id":"cebpf4jnsgd1na2vs0mg"},{"bike_id":"d24a8c2e-8cbc-490f-8952-e43fa0b426ac","system_id":"levelo_inurba_marseille","lat":43.287152,"lon":5.361006,"is_reserved":false,"is_disabled":false,"rental_uris":{"android":"levelo://app?vid=d24a8c2e-8cbc-490f-8952-e43fa0b426ac","ios":"levelo://app?vid=d24a8c2e-8cbc-490f-8952-e43fa0b426ac"},"vehicle_type_id":"4","last_reported":1727007311,"current_range_meters":19600,"station_id":"cki0cbj6b192h4jlfktg","pricing_plan_id":"cebpf4jnsgd1na2vs0mg"},{"bike_id":"71aa8592-ddf7-4343-aed4-c00d3433340f","system_id":"levelo_inurba_marseille","lat":43.337444,"lon":5.374475,"is_reserved":false,"is_disabled":false,"rental_uris":{"android":"levelo://app?vid=71aa8592-ddf7-4343-aed4-c00d3433340f","ios":"levelo://app?vid=71aa8592-ddf7-4343-aed4-c00d3433340f"},"vehicle_type_id":"4","last_reported":1727007311,"current_range_meters":32000,"station_id":"","pricing_plan_id":"cebpf4jnsgd1na2vs0mg"},{"bike_id":"3740c6df-06cd-419b-9ae6-b8d9e5eff548","system_id":"levelo_inurba_marseille","lat":43.2753,"lon":5.40935,"is_reserved":false,"is_disabled":false,"rental_uris":{"android":"levelo://app?vid=3740c6df-06cd-419b-9ae6-b8d9e5eff548","ios":"levelo://app?vid=3740c6df-06cd-419b-9ae6-b8d9e5eff548"},"vehicle_type_id":"4","last_reported":1727007311,"current_range_meters":13600,"station_id":"","pricing_plan_id":"cebpf4jnsgd1na2vs0mg"},{"bike_id":"8e56c686-c49a-4a98-a921-18b1bba0c58c","system_id":"levelo_inurba_marseille","lat":43.3091,"lon":5.36855,"is_reserved":false,"is_disabled":false,"rental_uris":{"android":"levelo://app?vid=8e56c686-c49a-4a98-a921-18b1bba0c58c","ios":"levelo://app?vid=8e56c686-c49a-4a98-a921-18b1bba0c58c"},"vehicle_type_id":"4","last_reported":1727007311,"current_range_meters":38000,"station_id":"ce4bgn92rcd13ifvqbvg","pricing_plan_id":"cebpf4jnsgd1na2vs0mg"},{"bike_id":"52a1b808-144f-4242-9770-67fc8769dc45","system_id":"levelo_inurba_marseille","lat":43.30916,"lon":5.3685,"is_reserved":false,"is_disabled":false,"rental_uris":{"android":"levelo://app?vid=52a1b808-144f-4242-9770-67fc8769dc45","ios":"levelo://app?vid=52a1b808-144f-4242-9770-67fc8769dc45"},"vehicle_type_id":"4","last_reported":1727007311,"current_range_meters":38400,"station_id":"ce4bgn92rcd13ifvqbvg","pricing_plan_id":"cebpf4jnsgd1na2vs0mg"},{"bike_id":"587b7091-1fcd-4c6f-a820-801ebabc18cc","system_id":"levelo_inurba_marseille","lat":43.29852,"lon":5.36277,"is_reserved":false,"is_disabled":false,"rental_uris":{"android":"levelo://app?vid=587b7091-1fcd-4c6f-a820-801ebabc18cc","ios":"levelo://app?vid=587b7091-1fcd-4c6f-a820-801ebabc18cc"},"vehicle_type_id":"4","last_reported":1727007311,"current_range_meters":30800,"station_id":"ce4bgpp2rcd13ifvqc3g","pricing_plan_id":"cebpf4jnsgd1na2vs0mg"},{"bike_id":"b97bf6af-a352-4314-b3bd-c31dd554d702","system_id":"levelo_inurba_marseille","lat":43.30302,"lon":5.39215,"is_reserved":false,"is_disabled":false,"rental_uris":{"android":"levelo://app?vid=b97bf6af-a352-4314-b3bd-c31dd554d702","ios":"levelo://app?vid=b97bf6af-a352-4314-b3bd-c31dd554d702"},"vehicle_type_id":"4","last_reported":1727007311,"current_range_meters":33200,"station_id":"ce4bgkh2rcd13ifvqbk0","pricing_plan_id":"cebpf4jnsgd1na2vs0mg"},{"bike_id":"1a27a312-7cc2-4ff9-a55e-3a99ac9d943e","system_id":"levelo_inurba_marseille","lat":43.31275,"lon":5.40174,"is_reserved":false,"is_disabled":false,"rental_uris":{"android":"levelo://app?vid=1a27a312-7cc2-4ff9-a55e-3a99ac9d943e","ios":"levelo://app?vid=1a27a312-7cc2-4ff9-a55e-3a99ac9d943e"},"vehicle_type_id":"4","last_reported":1727007311,"current_range_meters":38800,"station_id":"ce4bh092rcd13ifvqd30","pricing_plan_id":"cebpf4jnsgd1na2vs0mg"},{"bike_id":"0a533487-a6ec-4633-9f1c-0ce6ae6783a7","system_id":"levelo_inurba_marseille","lat":43.25008,"lon":5.38917,"is_reserved":false,"is_disabled":false,"rental_uris":{"android":"levelo://app?vid=0a533487-a6ec-4633-9f1c-0ce6ae6783a7","ios":"levelo://app?vid=0a533487-a6ec-4633-9f1c-0ce6ae6783a7"},"vehicle_type_id":"4","last_reported":1727007311,"current_range_meters":38400,"station_id":"ce4bhgp2rcd13ifvqfd0","pricing_plan_id":"cebpf4jnsgd1na2vs0mg"},{"bike_id":"00e33d21-5481-4e03-abfd-ea443517ac83","system_id":"levelo_inurba_marseille","lat":43.28619,"lon":5.35111,"is_reserved":false,"is_disabled":false,"rental_uris":{"android":"levelo://app?vid=00e33d21-5481-4e03-abfd-ea443517ac83","ios":"levelo://app?vid=00e33d21-5481-4e03-abfd-ea443517ac83"},"vehicle_type_id":"4","last_reported":1727007311,"current_range_meters":32400,"station_id":"ce4bhch2rcd13ifvqeug","pricing_plan_id":"cebpf4jnsgd1na2vs0mg"},{"bike_id":"34bac9de-afcc-485f-a901-124a385dd441","system_id":"levelo_inurba_marseille","lat":43.24541,"lon":5.39527,"is_reserved":false,"is_disabled":false,"rental_uris":{"android":"levelo://app?vid=34bac9de-afcc-485f-a901-124a385dd441","ios":"levelo://app?vid=34bac9de-afcc-485f-a901-124a385dd441"},"vehicle_type_id":"4","last_reported":1727007311,"current_range_meters":38400,"station_id":"ce4bhlp2rcd13ifvqgjg","pricing_plan_id":"cebpf4jnsgd1na2vs0mg"},{"bike_id":"35e646ae-38b7-44e1-ac75-a81a34e9ca88","system_id":"levelo_inurba_marseille","lat":43.29168,"lon":5.37149,"is_reserved":false,"is_disabled":false,"rental_uris":{"android":"levelo://app?vid=35e646ae-38b7-44e1-ac75-a81a34e9ca88","ios":"levelo://app?vid=35e646ae-38b7-44e1-ac75-a81a34e9ca88"},"vehicle_type_id":"4","last_reported":1727007311,"current_range_meters":19600,"station_id":"ce4bha92rcd13ifvqeh0","pricing_plan_id":"cebpf4jnsgd1na2vs0mg"},{"bike_id":"895c54da-fbf8-49ea-a50a-a261ee0a9d56","system_id":"levelo_inurba_marseille","lat":43.23957,"lon":5.36631,"is_reserved":false,"is_disabled":false,"rental_uris":{"android":"levelo://app?vid=895c54da-fbf8-49ea-a50a-a261ee0a9d56","ios":"levelo://app?vid=895c54da-fbf8-49ea-a50a-a261ee0a9d56"},"vehicle_type_id":"4","last_reported":1727007311,"current_range_meters":19200,"station_id":"ce4bhi12rcd13ifvqfp0","pricing_plan_id":"cebpf4jnsgd1na2vs0mg"},{"bike_id":"1575e777-51f8-479e-bd95-714cef91a125","system_id":"levelo_inurba_marseille","lat":43.2418,"lon":5.39721,"is_reserved":false,"is_disabled":false,"rental_uris":{"android":"levelo://app?vid=1575e777-51f8-479e-bd95-714cef91a125","ios":"levelo://app?vid=1575e777-51f8-479e-bd95-714cef91a125"},"vehicle_type_id":"4","last_reported":1727007311,"current_range_meters":27200,"station_id":"ce4bhn12rcd13ifvqgpg","pricing_plan_id":"cebpf4jnsgd1na2vs0mg"},{"bike_id":"4693ef29-68a5-4ad0-8d2a-6e064a3affc5","system_id":"levelo_inurba_marseille","lat":43.28268,"lon":5.35077,"is_reserved":false,"is_disabled":false,"rental_uris":{"android":"levelo://app?vid=4693ef29-68a5-4ad0-8d2a-6e064a3affc5","ios":"levelo://app?vid=4693ef29-68a5-4ad0-8d2a-6e064a3affc5"},"vehicle_type_id":"4","last_reported":1727007311,"current_range_meters":38800,"station_id":"ce4bhbp2rcd13ifvqerg","pricing_plan_id":"cebpf4jnsgd1na2vs0mg"},{"bike_id":"77266b07-2716-431c-82d1-c605af98a639","system_id":"levelo_inurba_marseille","lat":43.29531,"lon":5.394,"is_reserved":false,"is_disabled":false,"rental_uris":{"android":"levelo://app?vid=77266b07-2716-431c-82d1-c605af98a639","ios":"levelo://app?vid=77266b07-2716-431c-82d1-c605af98a639"},"vehicle_type_id":"4","last_reported":1727007311,"current_range_meters":28000,"station_id":"ce4bh292rcd13ifvqdf0","pricing_plan_id":"cebpf4jnsgd1na2vs0mg"},{"bike_id":"bbc38081-2922-4972-9a5f-dba62b049143","system_id":"levelo_inurba_marseille","lat":43.27175,"lon":5.40999,"is_reserved":false,"is_disabled":false,"rental_uris":{"android":"levelo://app?vid=bbc38081-2922-4972-9a5f-dba62b049143","ios":"levelo://app?vid=bbc38081-2922-4972-9a5f-dba62b049143"},"vehicle_type_id":"4","last_reported":1727007311,"current_range_meters":2800,"station_id":"ce4bhl12rcd13ifvqgf0","pricing_plan_id":"cebpf4jnsgd1na2vs0mg"},{"bike_id":"570e4fad-e895-41de-af21-d599df925530","system_id":"levelo_inurba_marseille","lat":43.29969,"lon":5.37185,"is_reserved":false,"is_disabled":false,"rental_uris":{"android":"levelo://app?vid=570e4fad-e895-41de-af21-d599df925530","ios":"levelo://app?vid=570e4fad-e895-41de-af21-d599df925530"},"vehicle_type_id":"4","last_reported":1727007311,"current_range_meters":35200,"station_id":"ce4bgr92rcd13ifvqc7g","pricing_plan_id":"cebpf4jnsgd1na2vs0mg"},{"bike_id":"742fe014-1f5e-499c-bbc5-66a0cbb87904","system_id":"levelo_inurba_marseille","lat":43.23195,"lon":5.35551,"is_reserved":false,"is_disabled":false,"rental_uris":{"android":"levelo://app?vid=742fe014-1f5e-499c-bbc5-66a0cbb87904","ios":"levelo://app?vid=742fe014-1f5e-499c-bbc5-66a0cbb87904"},"vehicle_type_id":"4","last_reported":1727007311,"current_range_meters":33600,"station_id":"ce4bhu92rcd13ifvqi70","pricing_plan_id":"cebpf4jnsgd1na2vs0mg"},{"bike_id":"cd7c8d1d-a83b-4c70-bfac-064978350f7c","system_id":"levelo_inurba_marseille","lat":43.3176,"lon":5.3902,"is_reserved":false,"is_disabled":false,"rental_uris":{"android":"levelo://app?vid=cd7c8d1d-a83b-4c70-bfac-064978350f7c","ios":"levelo://app?vid=cd7c8d1d-a83b-4c70-bfac-064978350f7c"},"vehicle_type_id":"4","last_reported":1727007311,"current_range_meters":26800,"station_id":"ce4bhqp2rcd13ifvqhng","pricing_plan_id":"cebpf4jnsgd1na2vs0mg"},{"bike_id":"885eb9fd-e64e-4dcf-b796-e74b9bc20997","system_id":"levelo_inurba_marseille","lat":43.27927,"lon":5.39575,"is_reserved":false,"is_disabled":false,"rental_uris":{"android":"levelo://app?vid=885eb9fd-e64e-4dcf-b796-e74b9bc20997","ios":"levelo://app?vid=885eb9fd-e64e-4dcf-b796-e74b9bc20997"},"vehicle_type_id":"4","last_reported":1727007311,"current_range_meters":36800,"station_id":"ce4bhf92rcd13ifvqf40","pricing_plan_id":"cebpf4jnsgd1na2vs0mg"},{"bike_id":"feb42740-c719-4916-9efa-d99f861e0e6d","system_id":"levelo_inurba_marseille","lat":43.32481,"lon":5.36578,"is_reserved":false,"is_disabled":false,"rental_uris":{"android":"levelo://app?vid=feb42740-c719-4916-9efa-d99f861e0e6d","ios":"levelo://app?vid=feb42740-c719-4916-9efa-d99f861e0e6d"},"vehicle_type_id":"4","last_reported":1727007311,"current_range_meters":36000,"station_id":"ce4bhs12rcd13ifvqhvg","pricing_plan_id":"cebpf4jnsgd1na2vs0mg"},{"bike_id":"e24c2d81-f13f-4897-90f7-8e1d3dbf3f47","system_id":"levelo_inurba_marseille","lat":43.30476,"lon":5.37914,"is_reserved":false,"is_disabled":false,"rental_uris":{"android":"levelo://app?vid=e24c2d81-f13f-4897-90f7-8e1d3dbf3f47","ios":"levelo://app?vid=e24c2d81-f13f-4897-90f7-8e1d3dbf3f47"},"vehicle_type_id":"4","last_reported":1727007311,"current_range_meters":36400,"station_id":"ce4bgup2rcd13ifvqcn0","pricing_plan_id":"cebpf4jnsgd1na2vs0mg"},{"bike_id":"fceb5afb-6f4c-4308-aac4-3d8de88878ef","system_id":"levelo_inurba_marseille","lat":43.24076,"lon":5.37759,"is_reserved":false,"is_disabled":false,"rental_uris":{"android":"levelo://app?vid=fceb5afb-6f4c-4308-aac4-3d8de88878ef","ios":"levelo://app?vid=fceb5afb-6f4c-4308-aac4-3d8de88878ef"},"vehicle_type_id":"4","last_reported":1727007311,"current_range_meters":30000,"station_id":"ce4bhnp2rcd13ifvqgvg","pricing_plan_id":"cebpf4jnsgd1na2vs0mg"},{"bike_id":"f33483c1-3b2c-4303-843b-6554d88a9a5f","system_id":"levelo_inurba_marseille","lat":43.24076,"lon":5.3776,"is_reserved":false,"is_disabled":false,"rental_uris":{"android":"levelo://app?vid=f33483c1-3b2c-4303-843b-6554d88a9a5f","ios":"levelo://app?vid=f33483c1-3b2c-4303-843b-6554d88a9a5f"},"vehicle_type_id":"4","last_reported":1727007311,"current_range_meters":38000,"station_id":"ce4bhnp2rcd13ifvqgvg","pricing_plan_id":"cebpf4jnsgd1na2vs0mg"},{"bike_id":"4d3c6dd7-63b1-4ab6-9d0e-095824115dea","system_id":"levelo_inurba_marseille","lat":43.28269,"lon":5.35073,"is_reserved":false,"is_disabled":false,"rental_uris":{"android":"levelo://app?vid=4d3c6dd7-63b1-4ab6-9d0e-095824115dea","ios":"levelo://app?vid=4d3c6dd7-63b1-4ab6-9d0e-095824115dea"},"vehicle_type_id":"4","last_reported":1727007311,"current_range_meters":20800,"station_id":"ce4bhbp2rcd13ifvqerg","pricing_plan_id":"cebpf4jnsgd1na2vs0mg"},{"bike_id":"ce7fee22-4f1e-4037-8c27-e94289213ba7","system_id":"levelo_inurba_marseille","lat":43.24806,"lon":5.3745,"is_reserved":false,"is_disabled":false,"rental_uris":{"android":"levelo://app?vid=ce7fee22-4f1e-4037-8c27-e94289213ba7","ios":"levelo://app?vid=ce7fee22-4f1e-4037-8c27-e94289213ba7"},"vehicle_type_id":"4","last_reported":1727007311,"current_range_meters":26800,"station_id":"ce4bhgh2rcd13ifvqfb0","pricing_plan_id":"cebpf4jnsgd1na2vs0mg"},{"bike_id":"6e793def-70c3-4898-88e9-cb21c07de165","system_id":"levelo_inurba_marseille","lat":43.28273,"lon":5.35066,"is_reserved":false,"is_disabled":false,"rental_uris":{"android":"levelo://app?vid=6e793def-70c3-4898-88e9-cb21c07de165","ios":"levelo://app?vid=6e793def-70c3-4898-88e9-cb21c07de165"},"vehicle_type_id":"4","last_reported":1727007311,"current_range_meters":39200,"station_id":"ce4bhbp2rcd13ifvqerg","pricing_plan_id":"cebpf4jnsgd1na2vs0mg"},{"bike_id":"fce734b4-6c36-4cb6-983c-c95238702258","system_id":"levelo_inurba_marseille","lat":43.31067,"lon":5.38108,"is_reserved":false,"is_disabled":false,"rental_uris":{"android":"levelo://app?vid=fce734b4-6c36-4cb6-983c-c95238702258","ios":"levelo://app?vid=fce734b4-6c36-4cb6-983c-c95238702258"},"vehicle_type_id":"4","last_reported":1727007311,"current_range_meters":12400,"station_id":"","pricing_plan_id":"cebpf4jnsgd1na2vs0mg"},{"bike_id":"ab164393-cd31-4221-b165-f26296d40d00","system_id":"levelo_inurba_marseille","lat":43.31081,"lon":5.42427,"is_reserved":false,"is_disabled":false,"rental_uris":{"android":"levelo://app?vid=ab164393-cd31-4221-b165-f26296d40d00","ios":"levelo://app?vid=ab164393-cd31-4221-b165-f26296d40d00"},"vehicle_type_id":"4","last_reported":1727007311,"current_range_meters":10000,"station_id":"ce4bhp92rcd13ifvqhag","pricing_plan_id":"cebpf4jnsgd1na2vs0mg"},{"bike_id":"2238b1d6-38a3-4dc4-af09-996e10b8d77e","system_id":"levelo_inurba_marseille","lat":43.254852,"lon":5.37646,"is_reserved":false,"is_disabled":false,"rental_uris":{"android":"levelo://app?vid=2238b1d6-38a3-4dc4-af09-996e10b8d77e","ios":"levelo://app?vid=2238b1d6-38a3-4dc4-af09-996e10b8d77e"},"vehicle_type_id":"4","last_reported":1727007311,"current_range_meters":37600,"station_id":"ce4bhh12rcd13ifvqff0","pricing_plan_id":"cebpf4jnsgd1na2vs0mg"},{"bike_id":"db2ec53d-b6c4-4acf-a47d-7f87e74bbe80","system_id":"levelo_inurba_marseille","lat":43.26193,"lon":5.3745,"is_reserved":false,"is_disabled":false,"rental_uris":{"android":"levelo://app?vid=db2ec53d-b6c4-4acf-a47d-7f87e74bbe80","ios":"levelo://app?vid=db2ec53d-b6c4-4acf-a47d-7f87e74bbe80"},"vehicle_type_id":"4","last_reported":1727007311,"current_range_meters":24800,"station_id":"ce4bhgp2rcd13ifvqfc0","pricing_plan_id":"cebpf4jnsgd1na2vs0mg"},{"bike_id":"e9f56558-e0cf-41fa-b126-ab5b05cb3b5d","system_id":"levelo_inurba_marseille","lat":43.3234,"lon":5.4062,"is_reserved":false,"is_disabled":false,"rental_uris":{"android":"levelo://app?vid=e9f56558-e0cf-41fa-b126-ab5b05cb3b5d","ios":"levelo://app?vid=e9f56558-e0cf-41fa-b126-ab5b05cb3b5d"},"vehicle_type_id":"4","last_reported":1727007311,"current_range_meters":38800,"station_id":"ce4bhq92rcd13ifvqhjg","pricing_plan_id":"cebpf4jnsgd1na2vs0mg"},{"bike_id":"f74941be-f473-4ce7-9230-0799526567ae","system_id":"levelo_inurba_marseille","lat":43.23194,"lon":5.35548,"is_reserved":false,"is_disabled":false,"rental_uris":{"android":"levelo://app?vid=f74941be-f473-4ce7-9230-0799526567ae","ios":"levelo://app?vid=f74941be-f473-4ce7-9230-0799526567ae"},"vehicle_type_id":"4","last_reported":1727007311,"current_range_meters":38400,"station_id":"ce4bhu92rcd13ifvqi70","pricing_plan_id":"cebpf4jnsgd1na2vs0mg"},{"bike_id":"acca089d-1d6d-4e5c-a2df-ec71be36f336","system_id":"levelo_inurba_marseille","lat":43.29938,"lon":5.36555,"is_reserved":false,"is_disabled":false,"rental_uris":{"android":"levelo://app?vid=acca089d-1d6d-4e5c-a2df-ec71be36f336","ios":"levelo://app?vid=acca089d-1d6d-4e5c-a2df-ec71be36f336"},"vehicle_type_id":"4","last_reported":1727007311,"current_range_meters":30800,"station_id":"ce4bgm92rcd13ifvqbr0","pricing_plan_id":"cebpf4jnsgd1na2vs0mg"},{"bike_id":"89fd7c97-c52b-4ed3-a2f7-e269a30e6381","system_id":"levelo_inurba_marseille","lat":43.25492,"lon":5.37651,"is_reserved":false,"is_disabled":false,"rental_uris":{"android":"levelo://app?vid=89fd7c97-c52b-4ed3-a2f7-e269a30e6381","ios":"levelo://app?vid=89fd7c97-c52b-4ed3-a2f7-e269a30e6381"},"vehicle_type_id":"4","last_reported":1727007311,"current_range_meters":24400,"station_id":"ce4bhh12rcd13ifvqff0","pricing_plan_id":"cebpf4jnsgd1na2vs0mg"},{"bike_id":"c11073aa-42e1-4b12-a364-21c4083dd6e5","system_id":"levelo_inurba_marseille","lat":43.286312,"lon":5.351321,"is_reserved":false,"is_disabled":false,"rental_uris":{"android":"levelo://app?vid=c11073aa-42e1-4b12-a364-21c4083dd6e5","ios":"levelo://app?vid=c11073aa-42e1-4b12-a364-21c4083dd6e5"},"vehicle_type_id":"4","last_reported":1727007311,"current_range_meters":28000,"station_id":"ce4bhch2rcd13ifvqeug","pricing_plan_id":"cebpf4jnsgd1na2vs0mg"},{"bike_id":"19bcc069-3bb9-48f9-b7f8-3f54396812ac","system_id":"levelo_inurba_marseille","lat":43.24391,"lon":5.37059,"is_reserved":false,"is_disabled":false,"rental_uris":{"android":"levelo://app?vid=19bcc069-3bb9-48f9-b7f8-3f54396812ac","ios":"levelo://app?vid=19bcc069-3bb9-48f9-b7f8-3f54396812ac"},"vehicle_type_id":"4","last_reported":1727007311,"current_range_meters":4000,"station_id":"ce4bhhh2rcd13ifvqfk0","pricing_plan_id":"cebpf4jnsgd1na2vs0mg"},{"bike_id":"729dc18d-4760-4906-bebc-b38174cf9c5e","system_id":"levelo_inurba_marseille","lat":43.28619,"lon":5.35109,"is_reserved":false,"is_disabled":false,"rental_uris":{"android":"levelo://app?vid=729dc18d-4760-4906-bebc-b38174cf9c5e","ios":"levelo://app?vid=729dc18d-4760-4906-bebc-b38174cf9c5e"},"vehicle_type_id":"4","last_reported":1727007311,"current_range_meters":26800,"station_id":"ce4bhch2rcd13ifvqeug","pricing_plan_id":"cebpf4jnsgd1na2vs0mg"},{"bike_id":"55be8872-2681-40df-80e6-da12f570ced4","system_id":"levelo_inurba_marseille","lat":43.315756,"lon":5.385585,"is_reserved":false,"is_disabled":false,"rental_uris":{"android":"levelo://app?vid=55be8872-2681-40df-80e6-da12f570ced4","ios":"levelo://app?vid=55be8872-2681-40df-80e6-da12f570ced4"},"vehicle_type_id":"4","last_reported":1727007311,"current_range_meters":33600,"station_id":"ce4bhr12rcd13ifvqhpg","pricing_plan_id":"cebpf4jnsgd1na2vs0mg"},{"bike_id":"44416b76-be3d-462c-b9b2-36a87328120b","system_id":"levelo_inurba_marseille","lat":43.30545,"lon":5.365682,"is_reserved":false,"is_disabled":false,"rental_uris":{"android":"levelo://app?vid=44416b76-be3d-462c-b9b2-36a87328120b","ios":"levelo://app?vid=44416b76-be3d-462c-b9b2-36a87328120b"},"vehicle_type_id":"4","last_reported":1727007311,"current_range_meters":37600,"station_id":"ce4bgs12rcd13ifvqcag","pricing_plan_id":"cebpf4jnsgd1na2vs0mg"},{"bike_id":"b80b4897-89b4-4de2-a933-d84aeabff311","system_id":"levelo_inurba_marseille","lat":43.29201,"lon":5.35801,"is_reserved":false,"is_disabled":false,"rental_uris":{"android":"levelo://app?vid=b80b4897-89b4-4de2-a933-d84aeabff311","ios":"levelo://app?vid=b80b4897-89b4-4de2-a933-d84aeabff311"},"vehicle_type_id":"4","last_reported":1727007311,"current_range_meters":38800,"station_id":"ce4bhb12rcd13ifvqel0","pricing_plan_id":"cebpf4jnsgd1na2vs0mg"},{"bike_id":"39a67cac-e07a-41b0-bcc1-63b7f553b04c","system_id":"levelo_inurba_marseille","lat":43.28454,"lon":5.35898,"is_reserved":false,"is_disabled":false,"rental_uris":{"android":"levelo://app?vid=39a67cac-e07a-41b0-bcc1-63b7f553b04c","ios":"levelo://app?vid=39a67cac-e07a-41b0-bcc1-63b7f553b04c"},"vehicle_type_id":"4","last_reported":1727007311,"current_range_meters":28400,"station_id":"ce4bhah2rcd13ifvqei0","pricing_plan_id":"cebpf4jnsgd1na2vs0mg"},{"bike_id":"6d509237-be7f-42ba-b71a-077c7e429076","system_id":"levelo_inurba_marseille","lat":43.292749,"lon":5.401273,"is_reserved":false,"is_disabled":false,"rental_uris":{"android":"levelo://app?vid=6d509237-be7f-42ba-b71a-077c7e429076","ios":"levelo://app?vid=6d509237-be7f-42ba-b71a-077c7e429076"},"vehicle_type_id":"4","last_reported":1727007311,"current_range_meters":15200,"station_id":"ce4bh2p2rcd13ifvqdi0","pricing_plan_id":"cebpf4jnsgd1na2vs0mg"},{"bike_id":"27be6f2f-1bc2-4192-a569-44eba2fb71ae","system_id":"levelo_inurba_marseille","lat":43.25942,"lon":5.409,"is_reserved":false,"is_disabled":false,"rental_uris":{"android":"levelo://app?vid=27be6f2f-1bc2-4192-a569-44eba2fb71ae","ios":"levelo://app?vid=27be6f2f-1bc2-4192-a569-44eba2fb71ae"},"vehicle_type_id":"4","last_reported":1727007311,"current_range_meters":12400,"station_id":"ce4bhm92rcd13ifvqglg","pricing_plan_id":"cebpf4jnsgd1na2vs0mg"},{"bike_id":"165b741a-2404-4624-b268-999183c6a48e","system_id":"levelo_inurba_marseille","lat":43.27488,"lon":5.42461,"is_reserved":false,"is_disabled":false,"rental_uris":{"android":"levelo://app?vid=165b741a-2404-4624-b268-999183c6a48e","ios":"levelo://app?vid=165b741a-2404-4624-b268-999183c6a48e"},"vehicle_type_id":"4","last_reported":1727007311,"current_range_meters":36400,"station_id":"ce4bhn92rcd13ifvqgrg","pricing_plan_id":"cebpf4jnsgd1na2vs0mg"},{"bike_id":"75c0d00a-ef1a-4798-9315-cb4e57bf83d0","system_id":"levelo_inurba_marseille","lat":43.28265,"lon":5.35073,"is_reserved":false,"is_disabled":false,"rental_uris":{"android":"levelo://app?vid=75c0d00a-ef1a-4798-9315-cb4e57bf83d0","ios":"levelo://app?vid=75c0d00a-ef1a-4798-9315-cb4e57bf83d0"},"vehicle_type_id":"4","last_reported":1727007311,"current_range_meters":38800,"station_id":"ce4bhbp2rcd13ifvqerg","pricing_plan_id":"cebpf4jnsgd1na2vs0mg"},{"bike_id":"523dbe2c-4770-45c9-bbf3-0c8e932b3386","system_id":"levelo_inurba_marseille","lat":43.26492,"lon":5.39546,"is_reserved":false,"is_disabled":false,"rental_uris":{"android":"levelo://app?vid=523dbe2c-4770-45c9-bbf3-0c8e932b3386","ios":"levelo://app?vid=523dbe2c-4770-45c9-bbf3-0c8e932b3386"},"vehicle_type_id":"4","last_reported":1727007311,"current_range_meters":8400,"station_id":"ce4bhi12rcd13ifvqfq0","pricing_plan_id":"cebpf4jnsgd1na2vs0mg"},{"bike_id":"9b990357-a8e5-408c-9cd4-6495d8a00967","system_id":"levelo_inurba_marseille","lat":43.29618,"lon":5.37736,"is_reserved":false,"is_disabled":false,"rental_uris":{"android":"levelo://app?vid=9b990357-a8e5-408c-9cd4-6495d8a00967","ios":"levelo://app?vid=9b990357-a8e5-408c-9cd4-6495d8a00967"},"vehicle_type_id":"4","last_reported":1727007311,"current_range_meters":6800,"station_id":"ce4bgi92rcd13ifvqb90","pricing_plan_id":"cebpf4jnsgd1na2vs0mg"},{"bike_id":"e8d9fcc7-4a1f-4d96-8ebf-5d7fd0b8bb85","system_id":"levelo_inurba_marseille","lat":43.23184,"lon":5.39987,"is_reserved":false,"is_disabled":false,"rental_uris":{"android":"levelo://app?vid=e8d9fcc7-4a1f-4d96-8ebf-5d7fd0b8bb85","ios":"levelo://app?vid=e8d9fcc7-4a1f-4d96-8ebf-5d7fd0b8bb85"},"vehicle_type_id":"4","last_reported":1727007311,"current_range_meters":24000,"station_id":"ce4bhn12rcd13ifvqgqg","pricing_plan_id":"cebpf4jnsgd1na2vs0mg"},{"bike_id":"80247f41-cabe-49b6-98e7-0f4faf0dea90","system_id":"levelo_inurba_marseille","lat":43.269337,"lon":5.36649,"is_reserved":false,"is_disabled":false,"rental_uris":{"android":"levelo://app?vid=80247f41-cabe-49b6-98e7-0f4faf0dea90","ios":"levelo://app?vid=80247f41-cabe-49b6-98e7-0f4faf0dea90"},"vehicle_type_id":"4","last_reported":1727007311,"current_range_meters":36000,"station_id":"","pricing_plan_id":"cebpf4jnsgd1na2vs0mg"},{"bike_id":"922422ab-5a2d-48e2-8219-31c99fb052db","system_id":"levelo_inurba_marseille","lat":43.25093,"lon":5.39521,"is_reserved":false,"is_disabled":false,"rental_uris":{"android":"levelo://app?vid=922422ab-5a2d-48e2-8219-31c99fb052db","ios":"levelo://app?vid=922422ab-5a2d-48e2-8219-31c99fb052db"},"vehicle_type_id":"4","last_reported":1727007311,"current_range_meters":25200,"station_id":"ce4bhm12rcd13ifvqgkg","pricing_plan_id":"cebpf4jnsgd1na2vs0mg"},{"bike_id":"1759aa6d-34b4-477a-ad46-3ecafc503c07","system_id":"levelo_inurba_marseille","lat":43.26956,"lon":5.38635,"is_reserved":false,"is_disabled":false,"rental_uris":{"android":"levelo://app?vid=1759aa6d-34b4-477a-ad46-3ecafc503c07","ios":"levelo://app?vid=1759aa6d-34b4-477a-ad46-3ecafc503c07"},"vehicle_type_id":"4","last_reported":1727007311,"current_range_meters":36800,"station_id":"ce4bhh92rcd13ifvqfh0","pricing_plan_id":"cebpf4jnsgd1na2vs0mg"},{"bike_id":"9db086ca-e7d0-4cbd-a8a0-00e1ea9007af","system_id":"levelo_inurba_marseille","lat":43.26204,"lon":5.37926,"is_reserved":false,"is_disabled":false,"rental_uris":{"android":"levelo://app?vid=9db086ca-e7d0-4cbd-a8a0-00e1ea9007af","ios":"levelo://app?vid=9db086ca-e7d0-4cbd-a8a0-00e1ea9007af"},"vehicle_type_id":"4","last_reported":1727007311,"current_range_meters":6000,"station_id":"ce4bhjp2rcd13ifvqg90","pricing_plan_id":"cebpf4jnsgd1na2vs0mg"},{"bike_id":"fa690805-233a-4a70-a9f3-33f1b67cdb1f","system_id":"levelo_inurba_marseille","lat":43.32287,"lon":5.38266,"is_reserved":false,"is_disabled":false,"rental_uris":{"android":"levelo://app?vid=fa690805-233a-4a70-a9f3-33f1b67cdb1f","ios":"levelo://app?vid=fa690805-233a-4a70-a9f3-33f1b67cdb1f"},"vehicle_type_id":"4","last_reported":1727007311,"current_range_meters":8000,"station_id":"ce4bhr12rcd13ifvqhqg","pricing_plan_id":"cebpf4jnsgd1na2vs0mg"},{"bike_id":"80e63dfc-a645-4d2f-a0b5-3f87a2df0aaa","system_id":"levelo_inurba_marseille","lat":43.24668,"lon":5.38162,"is_reserved":false,"is_disabled":false,"rental_uris":{"android":"levelo://app?vid=80e63dfc-a645-4d2f-a0b5-3f87a2df0aaa","ios":"levelo://app?vid=80e63dfc-a645-4d2f-a0b5-3f87a2df0aaa"},"vehicle_type_id":"4","last_reported":1727007311,"current_range_meters":27600,"station_id":"ce4bhih2rcd13ifvqfr0","pricing_plan_id":"cebpf4jnsgd1na2vs0mg"},{"bike_id":"fd44e78c-b02a-471f-bf37-b0e8fa0bcc9a","system_id":"levelo_inurba_marseille","lat":43.2862,"lon":5.35107,"is_reserved":false,"is_disabled":false,"rental_uris":{"android":"levelo://app?vid=fd44e78c-b02a-471f-bf37-b0e8fa0bcc9a","ios":"levelo://app?vid=fd44e78c-b02a-471f-bf37-b0e8fa0bcc9a"},"vehicle_type_id":"4","last_reported":1727007311,"current_range_meters":3200,"station_id":"ce4bhch2rcd13ifvqeug","pricing_plan_id":"cebpf4jnsgd1na2vs0mg"},{"bike_id":"e8126802-2acb-4ed2-87db-2389929f881f","system_id":"levelo_inurba_marseille","lat":43.28031,"lon":5.36945,"is_reserved":false,"is_disabled":false,"rental_uris":{"android":"levelo://app?vid=e8126802-2acb-4ed2-87db-2389929f881f","ios":"levelo://app?vid=e8126802-2acb-4ed2-87db-2389929f881f"},"vehicle_type_id":"4","last_reported":1727007311,"current_range_meters":4000,"station_id":"ce4bha12rcd13ifvqef0","pricing_plan_id":"cebpf4jnsgd1na2vs0mg"},{"bike_id":"d83359cb-4b0f-4d51-b545-ef538aebd8be","system_id":"levelo_inurba_marseille","lat":43.305389,"lon":5.365493,"is_reserved":false,"is_disabled":false,"rental_uris":{"android":"levelo://app?vid=d83359cb-4b0f-4d51-b545-ef538aebd8be","ios":"levelo://app?vid=d83359cb-4b0f-4d51-b545-ef538aebd8be"},"vehicle_type_id":"4","last_reported":1727007311,"current_range_meters":21600,"station_id":"ce4bgr92rcd13ifvqc7g","pricing_plan_id":"cebpf4jnsgd1na2vs0mg"},{"bike_id":"fecfa792-a07c-4ec0-81d5-2fe7a6beed2d","system_id":"levelo_inurba_marseille","lat":43.27069,"lon":5.42277,"is_reserved":false,"is_disabled":false,"rental_uris":{"android":"levelo://app?vid=fecfa792-a07c-4ec0-81d5-2fe7a6beed2d","ios":"levelo://app?vid=fecfa792-a07c-4ec0-81d5-2fe7a6beed2d"},"vehicle_type_id":"4","last_reported":1727007311,"current_range_meters":39200,"station_id":"ce4bhk92rcd13ifvqgb0","pricing_plan_id":"cebpf4jnsgd1na2vs0mg"},{"bike_id":"b2763354-ec6c-4733-8de6-6c4493759ae9","system_id":"levelo_inurba_marseille","lat":43.29043,"lon":5.4013,"is_reserved":false,"is_disabled":false,"rental_uris":{"android":"levelo://app?vid=b2763354-ec6c-4733-8de6-6c4493759ae9","ios":"levelo://app?vid=b2763354-ec6c-4733-8de6-6c4493759ae9"},"vehicle_type_id":"4","last_reported":1727007311,"current_range_meters":8800,"station_id":"","pricing_plan_id":"cebpf4jnsgd1na2vs0mg"},{"bike_id":"a06de6bd-0b68-4685-b09c-0e19b05de90b","system_id":"levelo_inurba_marseille","lat":43.29579,"lon":5.36748,"is_reserved":false,"is_disabled":false,"rental_uris":{"android":"levelo://app?vid=a06de6bd-0b68-4685-b09c-0e19b05de90b","ios":"levelo://app?vid=a06de6bd-0b68-4685-b09c-0e19b05de90b"},"vehicle_type_id":"4","last_reported":1727007311,"current_range_meters":30000,"station_id":"ce4bgph2rcd13ifvqc2g","pricing_plan_id":"cebpf4jnsgd1na2vs0mg"},{"bike_id":"597e3162-86ec-4152-a818-034c252cf3b9","system_id":"levelo_inurba_marseille","lat":43.28699,"lon":5.37392,"is_reserved":false,"is_disabled":false,"rental_uris":{"android":"levelo://app?vid=597e3162-86ec-4152-a818-034c252cf3b9","ios":"levelo://app?vid=597e3162-86ec-4152-a818-034c252cf3b9"},"vehicle_type_id":"4","last_reported":1727007311,"current_range_meters":39200,"station_id":"ce4bh3p2rcd13ifvqdq0","pricing_plan_id":"cebpf4jnsgd1na2vs0mg"},{"bike_id":"27bfd98a-3548-4c9d-a80d-c9f7f0496016","system_id":"levelo_inurba_marseille","lat":43.23193,"lon":5.35558,"is_reserved":false,"is_disabled":false,"rental_uris":{"android":"levelo://app?vid=27bfd98a-3548-4c9d-a80d-c9f7f0496016","ios":"levelo://app?vid=27bfd98a-3548-4c9d-a80d-c9f7f0496016"},"vehicle_type_id":"4","last_reported":1727007311,"current_range_meters":34800,"station_id":"ce4bhu92rcd13ifvqi70","pricing_plan_id":"cebpf4jnsgd1na2vs0mg"},{"bike_id":"bf83abd2-a37e-42b9-aa6d-594dc3d594b8","system_id":"levelo_inurba_marseille","lat":43.27308,"lon":5.39082,"is_reserved":false,"is_disabled":false,"rental_uris":{"android":"levelo://app?vid=bf83abd2-a37e-42b9-aa6d-594dc3d594b8","ios":"levelo://app?vid=bf83abd2-a37e-42b9-aa6d-594dc3d594b8"},"vehicle_type_id":"4","last_reported":1727007311,"current_range_meters":11600,"station_id":"ce4bhgp2rcd13ifvqfe0","pricing_plan_id":"cebpf4jnsgd1na2vs0mg"},{"bike_id":"6e866676-6958-47a0-bba1-aad239c4e52e","system_id":"levelo_inurba_marseille","lat":43.30352,"lon":5.41885,"is_reserved":false,"is_disabled":false,"rental_uris":{"android":"levelo://app?vid=6e866676-6958-47a0-bba1-aad239c4e52e","ios":"levelo://app?vid=6e866676-6958-47a0-bba1-aad239c4e52e"},"vehicle_type_id":"4","last_reported":1727007311,"current_range_meters":20800,"station_id":"ce4bhop2rcd13ifvqh7g","pricing_plan_id":"cebpf4jnsgd1na2vs0mg"},{"bike_id":"d28ffa41-9d7e-41f1-8b70-1aa04f034503","system_id":"levelo_inurba_marseille","lat":43.2956,"lon":5.42291,"is_reserved":false,"is_disabled":false,"rental_uris":{"android":"levelo://app?vid=d28ffa41-9d7e-41f1-8b70-1aa04f034503","ios":"levelo://app?vid=d28ffa41-9d7e-41f1-8b70-1aa04f034503"},"vehicle_type_id":"4","last_reported":1727007311,"current_range_meters":4000,"station_id":"ce4bhph2rcd13ifvqhdg","pricing_plan_id":"cebpf4jnsgd1na2vs0mg"},{"bike_id":"397349b3-2c2d-44e5-a149-6f78c0100682","system_id":"levelo_inurba_marseille","lat":43.23193,"lon":5.35549,"is_reserved":false,"is_disabled":false,"rental_uris":{"android":"levelo://app?vid=397349b3-2c2d-44e5-a149-6f78c0100682","ios":"levelo://app?vid=397349b3-2c2d-44e5-a149-6f78c0100682"},"vehicle_type_id":"4","last_reported":1727007311,"current_range_meters":14400,"station_id":"ce4bhu92rcd13ifvqi70","pricing_plan_id":"cebpf4jnsgd1na2vs0mg"},{"bike_id":"d9e9593f-8885-4948-a7a9-2aaa96deb751","system_id":"levelo_inurba_marseille","lat":43.31271,"lon":5.40176,"is_reserved":false,"is_disabled":false,"rental_uris":{"android":"levelo://app?vid=d9e9593f-8885-4948-a7a9-2aaa96deb751","ios":"levelo://app?vid=d9e9593f-8885-4948-a7a9-2aaa96deb751"},"vehicle_type_id":"4","last_reported":1727007311,"current_range_meters":38400,"station_id":"ce4bh092rcd13ifvqd30","pricing_plan_id":"cebpf4jnsgd1na2vs0mg"},{"bike_id":"073f7559-b1ac-461c-97d5-7be8d2549ae4","system_id":"levelo_inurba_marseille","lat":43.24995,"lon":5.38938,"is_reserved":false,"is_disabled":false,"rental_uris":{"android":"levelo://app?vid=073f7559-b1ac-461c-97d5-7be8d2549ae4","ios":"levelo://app?vid=073f7559-b1ac-461c-97d5-7be8d2549ae4"},"vehicle_type_id":"4","last_reported":1727007311,"current_range_meters":20800,"station_id":"ce4bhgp2rcd13ifvqfd0","pricing_plan_id":"cebpf4jnsgd1na2vs0mg"},{"bike_id":"3e215b87-0eb3-49a0-9491-ec7c07e98203","system_id":"levelo_inurba_marseille","lat":43.31884,"lon":5.40733,"is_reserved":false,"is_disabled":false,"rental_uris":{"android":"levelo://app?vid=3e215b87-0eb3-49a0-9491-ec7c07e98203","ios":"levelo://app?vid=3e215b87-0eb3-49a0-9491-ec7c07e98203"},"vehicle_type_id":"4","last_reported":1727007311,"current_range_meters":37600,"station_id":"ce4bhq12rcd13ifvqhig","pricing_plan_id":"cebpf4jnsgd1na2vs0mg"},{"bike_id":"e77d6246-130b-48aa-a635-c8996ec92695","system_id":"levelo_inurba_marseille","lat":43.30886,"lon":5.37194,"is_reserved":false,"is_disabled":false,"rental_uris":{"android":"levelo://app?vid=e77d6246-130b-48aa-a635-c8996ec92695","ios":"levelo://app?vid=e77d6246-130b-48aa-a635-c8996ec92695"},"vehicle_type_id":"4","last_reported":1727007311,"current_range_meters":14800,"station_id":"ce4bguh2rcd13ifvqckg","pricing_plan_id":"cebpf4jnsgd1na2vs0mg"},{"bike_id":"5feb8f9d-df3e-4036-aaa2-6a9de2f6503a","system_id":"levelo_inurba_marseille","lat":43.29902,"lon":5.43672,"is_reserved":false,"is_disabled":false,"rental_uris":{"android":"levelo://app?vid=5feb8f9d-df3e-4036-aaa2-6a9de2f6503a","ios":"levelo://app?vid=5feb8f9d-df3e-4036-aaa2-6a9de2f6503a"},"vehicle_type_id":"4","last_reported":1727007311,"current_range_meters":37600,"station_id":"ce4bhpp2rcd13ifvqhfg","pricing_plan_id":"cebpf4jnsgd1na2vs0mg"},{"bike_id":"461c049b-e693-4aa6-94e1-830be39ab9a3","system_id":"levelo_inurba_marseille","lat":43.296143,"lon":5.370529,"is_reserved":false,"is_disabled":false,"rental_uris":{"android":"levelo://app?vid=461c049b-e693-4aa6-94e1-830be39ab9a3","ios":"levelo://app?vid=461c049b-e693-4aa6-94e1-830be39ab9a3"},"vehicle_type_id":"4","last_reported":1727007311,"current_range_meters":32800,"station_id":"ce4bh692rcd13ifvqea0","pricing_plan_id":"cebpf4jnsgd1na2vs0mg"},{"bike_id":"903651b3-439a-4da6-a900-16533f164ad2","system_id":"levelo_inurba_marseille","lat":43.2804,"lon":5.3695,"is_reserved":false,"is_disabled":false,"rental_uris":{"android":"levelo://app?vid=903651b3-439a-4da6-a900-16533f164ad2","ios":"levelo://app?vid=903651b3-439a-4da6-a900-16533f164ad2"},"vehicle_type_id":"4","last_reported":1727007311,"current_range_meters":13600,"station_id":"ce4bha12rcd13ifvqef0","pricing_plan_id":"cebpf4jnsgd1na2vs0mg"},{"bike_id":"6a08fb94-58ce-4e71-b2e9-255d4a6b03ee","system_id":"levelo_inurba_marseille","lat":43.3203,"lon":5.41571,"is_reserved":false,"is_disabled":false,"rental_uris":{"android":"levelo://app?vid=6a08fb94-58ce-4e71-b2e9-255d4a6b03ee","ios":"levelo://app?vid=6a08fb94-58ce-4e71-b2e9-255d4a6b03ee"},"vehicle_type_id":"4","last_reported":1727007311,"current_range_meters":38000,"station_id":"ce4bhq92rcd13ifvqhkg","pricing_plan_id":"cebpf4jnsgd1na2vs0mg"},{"bike_id":"bb67ce9b-1b6e-4b69-bf4b-d17567f1a2b7","system_id":"levelo_inurba_marseille","lat":43.28415,"lon":5.34976,"is_reserved":false,"is_disabled":false,"rental_uris":{"android":"levelo://app?vid=bb67ce9b-1b6e-4b69-bf4b-d17567f1a2b7","ios":"levelo://app?vid=bb67ce9b-1b6e-4b69-bf4b-d17567f1a2b7"},"vehicle_type_id":"4","last_reported":1727007311,"current_range_meters":25600,"station_id":"ce4bhbh2rcd13ifvqepg","pricing_plan_id":"cebpf4jnsgd1na2vs0mg"},{"bike_id":"d3625153-c352-4a7d-ab40-ddb9cfcf68d7","system_id":"levelo_inurba_marseille","lat":43.27569,"lon":5.38431,"is_reserved":false,"is_disabled":false,"rental_uris":{"android":"levelo://app?vid=d3625153-c352-4a7d-ab40-ddb9cfcf68d7","ios":"levelo://app?vid=d3625153-c352-4a7d-ab40-ddb9cfcf68d7"},"vehicle_type_id":"4","last_reported":1727007311,"current_range_meters":2800,"station_id":"ce4bhh92rcd13ifvqfi0","pricing_plan_id":"cebpf4jnsgd1na2vs0mg"},{"bike_id":"4ee96c7b-3913-4d87-aa10-c04da1f3977e","system_id":"levelo_inurba_marseille","lat":43.29853,"lon":5.36276,"is_reserved":false,"is_disabled":false,"rental_uris":{"android":"levelo://app?vid=4ee96c7b-3913-4d87-aa10-c04da1f3977e","ios":"levelo://app?vid=4ee96c7b-3913-4d87-aa10-c04da1f3977e"},"vehicle_type_id":"4","last_reported":1727007311,"current_range_meters":31200,"station_id":"ce4bgpp2rcd13ifvqc3g","pricing_plan_id":"cebpf4jnsgd1na2vs0mg"},{"bike_id":"a9c824d3-0b71-497d-93e4-b8684acc6f44","system_id":"levelo_inurba_marseille","lat":43.23199,"lon":5.35551,"is_reserved":false,"is_disabled":false,"rental_uris":{"android":"levelo://app?vid=a9c824d3-0b71-497d-93e4-b8684acc6f44","ios":"levelo://app?vid=a9c824d3-0b71-497d-93e4-b8684acc6f44"},"vehicle_type_id":"4","last_reported":1727007311,"current_range_meters":11200,"station_id":"ce4bhu92rcd13ifvqi70","pricing_plan_id":"cebpf4jnsgd1na2vs0mg"},{"bike_id":"7f02c607-826a-4a2a-b6aa-fd3e33f706a0","system_id":"levelo_inurba_marseille","lat":43.25863,"lon":5.39903,"is_reserved":false,"is_disabled":false,"rental_uris":{"android":"levelo://app?vid=7f02c607-826a-4a2a-b6aa-fd3e33f706a0","ios":"levelo://app?vid=7f02c607-826a-4a2a-b6aa-fd3e33f706a0"},"vehicle_type_id":"4","last_reported":1727007311,"current_range_meters":27200,"station_id":"ce4bhl92rcd13ifvqghg","pricing_plan_id":"cebpf4jnsgd1na2vs0mg"},{"bike_id":"a94bcfc4-fb99-4e59-88f0-6e34ce892fbe","system_id":"levelo_inurba_marseille","lat":43.24182,"lon":5.39735,"is_reserved":false,"is_disabled":false,"rental_uris":{"android":"levelo://app?vid=a94bcfc4-fb99-4e59-88f0-6e34ce892fbe","ios":"levelo://app?vid=a94bcfc4-fb99-4e59-88f0-6e34ce892fbe"},"vehicle_type_id":"4","last_reported":1727007311,"current_range_meters":38400,"station_id":"ce4bhn12rcd13ifvqgpg","pricing_plan_id":"cebpf4jnsgd1na2vs0mg"},{"bike_id":"3dea8802-3cab-432d-baa1-c1a12ec9ffa4","system_id":"levelo_inurba_marseille","lat":43.31883,"lon":5.40743,"is_reserved":false,"is_disabled":false,"rental_uris":{"android":"levelo://app?vid=3dea8802-3cab-432d-baa1-c1a12ec9ffa4","ios":"levelo://app?vid=3dea8802-3cab-432d-baa1-c1a12ec9ffa4"},"vehicle_type_id":"4","last_reported":1727007311,"current_range_meters":38800,"station_id":"ce4bhq12rcd13ifvqhig","pricing_plan_id":"cebpf4jnsgd1na2vs0mg"},{"bike_id":"4cea81fe-b79d-4d9b-b1a7-062cac32a634","system_id":"levelo_inurba_marseille","lat":43.3136,"lon":5.38496,"is_reserved":false,"is_disabled":false,"rental_uris":{"android":"levelo://app?vid=4cea81fe-b79d-4d9b-b1a7-062cac32a634","ios":"levelo://app?vid=4cea81fe-b79d-4d9b-b1a7-062cac32a634"},"vehicle_type_id":"4","last_reported":1727007311,"current_range_meters":7200,"station_id":"ce4bgt92rcd13ifvqcf0","pricing_plan_id":"cebpf4jnsgd1na2vs0mg"},{"bike_id":"ecd87928-9ce4-40b2-bd15-1cb3e0aae524","system_id":"levelo_inurba_marseille","lat":43.24172,"lon":5.36394,"is_reserved":false,"is_disabled":false,"rental_uris":{"android":"levelo://app?vid=ecd87928-9ce4-40b2-bd15-1cb3e0aae524","ios":"levelo://app?vid=ecd87928-9ce4-40b2-bd15-1cb3e0aae524"},"vehicle_type_id":"4","last_reported":1727007311,"current_range_meters":33600,"station_id":"cpo36qri1sfpv3e86is0","pricing_plan_id":"cebpf4jnsgd1na2vs0mg"},{"bike_id":"d323bc23-4105-4d98-87ab-fb3899c88f8a","system_id":"levelo_inurba_marseille","lat":43.23191,"lon":5.3555,"is_reserved":false,"is_disabled":false,"rental_uris":{"android":"levelo://app?vid=d323bc23-4105-4d98-87ab-fb3899c88f8a","ios":"levelo://app?vid=d323bc23-4105-4d98-87ab-fb3899c88f8a"},"vehicle_type_id":"4","last_reported":1727007311,"current_range_meters":32000,"station_id":"ce4bhu92rcd13ifvqi70","pricing_plan_id":"cebpf4jnsgd1na2vs0mg"},{"bike_id":"18202697-ecc0-4169-82ee-d076ba29dc83","system_id":"levelo_inurba_marseille","lat":43.29035,"lon":5.35914,"is_reserved":false,"is_disabled":false,"rental_uris":{"android":"levelo://app?vid=18202697-ecc0-4169-82ee-d076ba29dc83","ios":"levelo://app?vid=18202697-ecc0-4169-82ee-d076ba29dc83"},"vehicle_type_id":"4","last_reported":1727007311,"current_range_meters":19200,"station_id":"ce4bha92rcd13ifvqeg0","pricing_plan_id":"cebpf4jnsgd1na2vs0mg"},{"bike_id":"8c95e4dd-dcfd-43d4-9a20-cea16208859d","system_id":"levelo_inurba_marseille","lat":43.25012,"lon":5.38913,"is_reserved":false,"is_disabled":false,"rental_uris":{"android":"levelo://app?vid=8c95e4dd-dcfd-43d4-9a20-cea16208859d","ios":"levelo://app?vid=8c95e4dd-dcfd-43d4-9a20-cea16208859d"},"vehicle_type_id":"4","last_reported":1727007311,"current_range_meters":26800,"station_id":"ce4bhgp2rcd13ifvqfd0","pricing_plan_id":"cebpf4jnsgd1na2vs0mg"},{"bike_id":"5de90350-eece-4dc9-8c24-5e5f8a365ac4","system_id":"levelo_inurba_marseille","lat":43.30796,"lon":5.43526,"is_reserved":false,"is_disabled":false,"rental_uris":{"android":"levelo://app?vid=5de90350-eece-4dc9-8c24-5e5f8a365ac4","ios":"levelo://app?vid=5de90350-eece-4dc9-8c24-5e5f8a365ac4"},"vehicle_type_id":"4","last_reported":1727007311,"current_range_meters":38800,"station_id":"ce4bhph2rcd13ifvqheg","pricing_plan_id":"cebpf4jnsgd1na2vs0mg"},{"bike_id":"10f307c2-fdf2-4c38-a8d7-28c47c9e07ea","system_id":"levelo_inurba_marseille","lat":43.28414,"lon":5.37521,"is_reserved":false,"is_disabled":false,"rental_uris":{"android":"levelo://app?vid=10f307c2-fdf2-4c38-a8d7-28c47c9e07ea","ios":"levelo://app?vid=10f307c2-fdf2-4c38-a8d7-28c47c9e07ea"},"vehicle_type_id":"4","last_reported":1727007311,"current_range_meters":8000,"station_id":"ce4bh412rcd13ifvqds0","pricing_plan_id":"cebpf4jnsgd1na2vs0mg"},{"bike_id":"32c2c272-0537-415c-99f1-3cf1c5dd92c8","system_id":"levelo_inurba_marseille","lat":43.31689,"lon":5.40476,"is_reserved":false,"is_disabled":false,"rental_uris":{"android":"levelo://app?vid=32c2c272-0537-415c-99f1-3cf1c5dd92c8","ios":"levelo://app?vid=32c2c272-0537-415c-99f1-3cf1c5dd92c8"},"vehicle_type_id":"4","last_reported":1727007311,"current_range_meters":16400,"station_id":"ce4bh012rcd13ifvqd00","pricing_plan_id":"cebpf4jnsgd1na2vs0mg"},{"bike_id":"0d6a39c3-296c-4f54-988b-2404fa27160b","system_id":"levelo_inurba_marseille","lat":43.28611,"lon":5.35102,"is_reserved":false,"is_disabled":false,"rental_uris":{"android":"levelo://app?vid=0d6a39c3-296c-4f54-988b-2404fa27160b","ios":"levelo://app?vid=0d6a39c3-296c-4f54-988b-2404fa27160b"},"vehicle_type_id":"4","last_reported":1727007311,"current_range_meters":9200,"station_id":"ce4bhch2rcd13ifvqeug","pricing_plan_id":"cebpf4jnsgd1na2vs0mg"},{"bike_id":"68adcd7f-3622-406c-94e4-a46417b116db","system_id":"levelo_inurba_marseille","lat":43.27181,"lon":5.39166,"is_reserved":false,"is_disabled":false,"rental_uris":{"android":"levelo://app?vid=68adcd7f-3622-406c-94e4-a46417b116db","ios":"levelo://app?vid=68adcd7f-3622-406c-94e4-a46417b116db"},"vehicle_type_id":"4","last_reported":1727007311,"current_range_meters":24800,"station_id":"ce4bhhp2rcd13ifvqfm0","pricing_plan_id":"cebpf4jnsgd1na2vs0mg"},{"bike_id":"36dc71fe-bfc9-4a4d-b2ef-39ebb067c458","system_id":"levelo_inurba_marseille","lat":43.29554,"lon":5.42285,"is_reserved":false,"is_disabled":false,"rental_uris":{"android":"levelo://app?vid=36dc71fe-bfc9-4a4d-b2ef-39ebb067c458","ios":"levelo://app?vid=36dc71fe-bfc9-4a4d-b2ef-39ebb067c458"},"vehicle_type_id":"4","last_reported":1727007311,"current_range_meters":36800,"station_id":"ce4bhph2rcd13ifvqhdg","pricing_plan_id":"cebpf4jnsgd1na2vs0mg"},{"bike_id":"c1f197f5-162f-4834-a47a-57373f6b7918","system_id":"levelo_inurba_marseille","lat":43.29552,"lon":5.37778,"is_reserved":false,"is_disabled":false,"rental_uris":{"android":"levelo://app?vid=c1f197f5-162f-4834-a47a-57373f6b7918","ios":"levelo://app?vid=c1f197f5-162f-4834-a47a-57373f6b7918"},"vehicle_type_id":"4","last_reported":1727007311,"current_range_meters":6800,"station_id":"ce4bgi92rcd13ifvqb90","pricing_plan_id":"cebpf4jnsgd1na2vs0mg"},{"bike_id":"baad33e0-e11d-4e13-9910-d7ae58107e3b","system_id":"levelo_inurba_marseille","lat":43.32106,"lon":5.36772,"is_reserved":false,"is_disabled":false,"rental_uris":{"android":"levelo://app?vid=baad33e0-e11d-4e13-9910-d7ae58107e3b","ios":"levelo://app?vid=baad33e0-e11d-4e13-9910-d7ae58107e3b"},"vehicle_type_id":"4","last_reported":1727007311,"current_range_meters":36400,"station_id":"","pricing_plan_id":"cebpf4jnsgd1na2vs0mg"},{"bike_id":"bcbe6095-74c6-4e6a-9235-6041481bec8a","system_id":"levelo_inurba_marseille","lat":43.23178,"lon":5.39993,"is_reserved":false,"is_disabled":false,"rental_uris":{"android":"levelo://app?vid=bcbe6095-74c6-4e6a-9235-6041481bec8a","ios":"levelo://app?vid=bcbe6095-74c6-4e6a-9235-6041481bec8a"},"vehicle_type_id":"4","last_reported":1727007311,"current_range_meters":8000,"station_id":"ce4bhn12rcd13ifvqgqg","pricing_plan_id":"cebpf4jnsgd1na2vs0mg"},{"bike_id":"1390ff87-3b81-4772-8d1a-5b882a7214c4","system_id":"levelo_inurba_marseille","lat":43.31359,"lon":5.38505,"is_reserved":false,"is_disabled":false,"rental_uris":{"android":"levelo://app?vid=1390ff87-3b81-4772-8d1a-5b882a7214c4","ios":"levelo://app?vid=1390ff87-3b81-4772-8d1a-5b882a7214c4"},"vehicle_type_id":"4","last_reported":1727007311,"current_range_meters":32400,"station_id":"ce4bgt92rcd13ifvqcf0","pricing_plan_id":"cebpf4jnsgd1na2vs0mg"},{"bike_id":"1437b30c-7d45-456f-be5f-6d19204997b1","system_id":"levelo_inurba_marseille","lat":43.32477,"lon":5.36568,"is_reserved":false,"is_disabled":false,"rental_uris":{"android":"levelo://app?vid=1437b30c-7d45-456f-be5f-6d19204997b1","ios":"levelo://app?vid=1437b30c-7d45-456f-be5f-6d19204997b1"},"vehicle_type_id":"4","last_reported":1727007311,"current_range_meters":27600,"station_id":"ce4bhs12rcd13ifvqhvg","pricing_plan_id":"cebpf4jnsgd1na2vs0mg"},{"bike_id":"6bf6e797-cb3e-4dee-9fb5-57db47528f05","system_id":"levelo_inurba_marseille","lat":43.304157,"lon":5.41289,"is_reserved":false,"is_disabled":false,"rental_uris":{"android":"levelo://app?vid=6bf6e797-cb3e-4dee-9fb5-57db47528f05","ios":"levelo://app?vid=6bf6e797-cb3e-4dee-9fb5-57db47528f05"},"vehicle_type_id":"4","last_reported":1727007311,"current_range_meters":30400,"station_id":"ce4bhop2rcd13ifvqh8g","pricing_plan_id":"cebpf4jnsgd1na2vs0mg"},{"bike_id":"da2713a2-6928-4531-bdd8-42c9caac36c9","system_id":"levelo_inurba_marseille","lat":43.32,"lon":5.38158,"is_reserved":false,"is_disabled":false,"rental_uris":{"android":"levelo://app?vid=da2713a2-6928-4531-bdd8-42c9caac36c9","ios":"levelo://app?vid=da2713a2-6928-4531-bdd8-42c9caac36c9"},"vehicle_type_id":"4","last_reported":1727007311,"current_range_meters":39200,"station_id":"ce4bhr12rcd13ifvqhpg","pricing_plan_id":"cebpf4jnsgd1na2vs0mg"},{"bike_id":"7ae379da-9440-4378-a690-86693789de4b","system_id":"levelo_inurba_marseille","lat":43.29563,"lon":5.4229,"is_reserved":false,"is_disabled":false,"rental_uris":{"android":"levelo://app?vid=7ae379da-9440-4378-a690-86693789de4b","ios":"levelo://app?vid=7ae379da-9440-4378-a690-86693789de4b"},"vehicle_type_id":"4","last_reported":1727007311,"current_range_meters":18000,"station_id":"ce4bhph2rcd13ifvqhdg","pricing_plan_id":"cebpf4jnsgd1na2vs0mg"},{"bike_id":"02552a84-93ac-4f47-9115-b594cbf16674","system_id":"levelo_inurba_marseille","lat":43.29558,"lon":5.42294,"is_reserved":false,"is_disabled":false,"rental_uris":{"android":"levelo://app?vid=02552a84-93ac-4f47-9115-b594cbf16674","ios":"levelo://app?vid=02552a84-93ac-4f47-9115-b594cbf16674"},"vehicle_type_id":"4","last_reported":1727007311,"current_range_meters":32000,"station_id":"ce4bhph2rcd13ifvqhdg","pricing_plan_id":"cebpf4jnsgd1na2vs0mg"},{"bike_id":"fca85833-47bd-46da-b114-70e079878b4a","system_id":"levelo_inurba_marseille","lat":43.25828,"lon":5.39421,"is_reserved":false,"is_disabled":false,"rental_uris":{"android":"levelo://app?vid=fca85833-47bd-46da-b114-70e079878b4a","ios":"levelo://app?vid=fca85833-47bd-46da-b114-70e079878b4a"},"vehicle_type_id":"4","last_reported":1727007311,"current_range_meters":20400,"station_id":"ce4bhip2rcd13ifvqft0","pricing_plan_id":"cebpf4jnsgd1na2vs0mg"},{"bike_id":"b49e8aa4-b4d7-4f9d-a437-8d1bbdfe618a","system_id":"levelo_inurba_marseille","lat":43.29557,"lon":5.42284,"is_reserved":false,"is_disabled":false,"rental_uris":{"android":"levelo://app?vid=b49e8aa4-b4d7-4f9d-a437-8d1bbdfe618a","ios":"levelo://app?vid=b49e8aa4-b4d7-4f9d-a437-8d1bbdfe618a"},"vehicle_type_id":"4","last_reported":1727007311,"current_range_meters":38400,"station_id":"ce4bhph2rcd13ifvqhdg","pricing_plan_id":"cebpf4jnsgd1na2vs0mg"},{"bike_id":"046a85f4-8120-4f83-84b8-47039827dedc","system_id":"levelo_inurba_marseille","lat":43.2481,"lon":5.3746,"is_reserved":false,"is_disabled":false,"rental_uris":{"android":"levelo://app?vid=046a85f4-8120-4f83-84b8-47039827dedc","ios":"levelo://app?vid=046a85f4-8120-4f83-84b8-47039827dedc"},"vehicle_type_id":"4","last_reported":1727007311,"current_range_meters":32400,"station_id":"ce4bhgh2rcd13ifvqfb0","pricing_plan_id":"cebpf4jnsgd1na2vs0mg"},{"bike_id":"02ac7e77-2455-44a5-b359-8c51b1c6cc15","system_id":"levelo_inurba_marseille","lat":43.27378,"lon":5.36255,"is_reserved":false,"is_disabled":false,"rental_uris":{"android":"levelo://app?vid=02ac7e77-2455-44a5-b359-8c51b1c6cc15","ios":"levelo://app?vid=02ac7e77-2455-44a5-b359-8c51b1c6cc15"},"vehicle_type_id":"4","last_reported":1727007311,"current_range_meters":26000,"station_id":"ce4bhbh2rcd13ifvqeo0","pricing_plan_id":"cebpf4jnsgd1na2vs0mg"},{"bike_id":"79fb06b0-60c0-475a-84e2-03f817a1f128","system_id":"levelo_inurba_marseille","lat":43.23191,"lon":5.35549,"is_reserved":false,"is_disabled":false,"rental_uris":{"android":"levelo://app?vid=79fb06b0-60c0-475a-84e2-03f817a1f128","ios":"levelo://app?vid=79fb06b0-60c0-475a-84e2-03f817a1f128"},"vehicle_type_id":"4","last_reported":1727007311,"current_range_meters":3600,"station_id":"ce4bhu92rcd13ifvqi70","pricing_plan_id":"cebpf4jnsgd1na2vs0mg"},{"bike_id":"8edef3dd-fa77-4e88-a5ca-dc35e252c4ff","system_id":"levelo_inurba_marseille","lat":43.29194,"lon":5.35799,"is_reserved":false,"is_disabled":false,"rental_uris":{"android":"levelo://app?vid=8edef3dd-fa77-4e88-a5ca-dc35e252c4ff","ios":"levelo://app?vid=8edef3dd-fa77-4e88-a5ca-dc35e252c4ff"},"vehicle_type_id":"4","last_reported":1727007311,"current_range_meters":4800,"station_id":"ce4bhb12rcd13ifvqel0","pricing_plan_id":"cebpf4jnsgd1na2vs0mg"},{"bike_id":"3ae5ac1f-2b61-47cb-8e91-7f47484eb226","system_id":"levelo_inurba_marseille","lat":43.31713,"lon":5.43708,"is_reserved":false,"is_disabled":false,"rental_uris":{"android":"levelo://app?vid=3ae5ac1f-2b61-47cb-8e91-7f47484eb226","ios":"levelo://app?vid=3ae5ac1f-2b61-47cb-8e91-7f47484eb226"},"vehicle_type_id":"4","last_reported":1727007311,"current_range_meters":19200,"station_id":"ce4bhp92rcd13ifvqhcg","pricing_plan_id":"cebpf4jnsgd1na2vs0mg"},{"bike_id":"01b257a7-974b-41c2-aabd-02b1d7857171","system_id":"levelo_inurba_marseille","lat":43.290964,"lon":5.381419,"is_reserved":false,"is_disabled":false,"rental_uris":{"android":"levelo://app?vid=01b257a7-974b-41c2-aabd-02b1d7857171","ios":"levelo://app?vid=01b257a7-974b-41c2-aabd-02b1d7857171"},"vehicle_type_id":"4","last_reported":1727007311,"current_range_meters":37600,"station_id":"ce4bh512rcd13ifvqe2g","pricing_plan_id":"cebpf4jnsgd1na2vs0mg"},{"bike_id":"8197c9d7-b640-448b-9782-b98ddebda6b0","system_id":"levelo_inurba_marseille","lat":43.29572,"lon":5.37503,"is_reserved":false,"is_disabled":false,"rental_uris":{"android":"levelo://app?vid=8197c9d7-b640-448b-9782-b98ddebda6b0","ios":"levelo://app?vid=8197c9d7-b640-448b-9782-b98ddebda6b0"},"vehicle_type_id":"4","last_reported":1727007311,"current_range_meters":19600,"station_id":"ce4bgh92rcd13ifvqb50","pricing_plan_id":"cebpf4jnsgd1na2vs0mg"},{"bike_id":"58ce228a-9752-4836-be16-78032d12f378","system_id":"levelo_inurba_marseille","lat":43.25824,"lon":5.39427,"is_reserved":false,"is_disabled":false,"rental_uris":{"android":"levelo://app?vid=58ce228a-9752-4836-be16-78032d12f378","ios":"levelo://app?vid=58ce228a-9752-4836-be16-78032d12f378"},"vehicle_type_id":"4","last_reported":1727007311,"current_range_meters":38800,"station_id":"ce4bhip2rcd13ifvqft0","pricing_plan_id":"cebpf4jnsgd1na2vs0mg"},{"bike_id":"4606fad2-f794-41df-884a-a3ba45831ef9","system_id":"levelo_inurba_marseille","lat":43.29719,"lon":5.3661,"is_reserved":false,"is_disabled":false,"rental_uris":{"android":"levelo://app?vid=4606fad2-f794-41df-884a-a3ba45831ef9","ios":"levelo://app?vid=4606fad2-f794-41df-884a-a3ba45831ef9"},"vehicle_type_id":"4","last_reported":1727007311,"current_range_meters":4000,"station_id":"ce4bgn12rcd13ifvqbt0","pricing_plan_id":"cebpf4jnsgd1na2vs0mg"},{"bike_id":"c9d9e68e-1d8a-4f8b-8378-daa49e2f38e4","system_id":"levelo_inurba_marseille","lat":43.258179,"lon":5.394408,"is_reserved":false,"is_disabled":false,"rental_uris":{"android":"levelo://app?vid=c9d9e68e-1d8a-4f8b-8378-daa49e2f38e4","ios":"levelo://app?vid=c9d9e68e-1d8a-4f8b-8378-daa49e2f38e4"},"vehicle_type_id":"4","last_reported":1727007311,"current_range_meters":36400,"station_id":"ce4bhip2rcd13ifvqft0","pricing_plan_id":"cebpf4jnsgd1na2vs0mg"},{"bike_id":"71745df1-8511-42d1-b236-94ecb1109e61","system_id":"levelo_inurba_marseille","lat":43.31707,"lon":5.39615,"is_reserved":false,"is_disabled":false,"rental_uris":{"android":"levelo://app?vid=71745df1-8511-42d1-b236-94ecb1109e61","ios":"levelo://app?vid=71745df1-8511-42d1-b236-94ecb1109e61"},"vehicle_type_id":"4","last_reported":1727007311,"current_range_meters":8800,"station_id":"","pricing_plan_id":"cebpf4jnsgd1na2vs0mg"},{"bike_id":"429a8509-53ef-4f50-8d3e-2590263747f2","system_id":"levelo_inurba_marseille","lat":43.33022,"lon":5.39044,"is_reserved":false,"is_disabled":false,"rental_uris":{"android":"levelo://app?vid=429a8509-53ef-4f50-8d3e-2590263747f2","ios":"levelo://app?vid=429a8509-53ef-4f50-8d3e-2590263747f2"},"vehicle_type_id":"4","last_reported":1727007311,"current_range_meters":6400,"station_id":"ce4bhr92rcd13ifvqhrg","pricing_plan_id":"cebpf4jnsgd1na2vs0mg"},