{"last_updated":1756261258,"ttl":60,"version":"2.2","data":{"bikes":[{"bike_id":"fb0ecd7c-2c0f-42f1-9e73-9448c9893367","system_id":"levelo_inurba_marseille","lat":43.26476,"lon":5.37028,"is_reserved":false,"is_disabled":false,"rental_uris":{"android":"levelo://app?vid=fb0ecd7c-2c0f-42f1-9e73-9448c9893367","ios":"levelo://app?vid=fb0ecd7c-2c0f-42f1-9e73-9448c9893367"},"vehicle_type_id":"4","last_reported":1756261258,"current_range_meters":2800,"station_id":"","pricing_plan_id":"cebpf4jnsgd1na2vs0mg"},{"bike_id":"0a9e3777-f07f-4c43-868d-4cb38bccdca6","system_id":"levelo_inurba_marseille","lat":43.301325,"lon":5.398542,"is_reserved":false,"is_disabled":false,"rental_uris":{"android":"levelo://app?vid=0a9e3777-f07f-4c43-868d-4cb38bccdca6","ios":"levelo://app?vid=0a9e3777-f07f-4c43-868d-4cb38bccdca6"},"vehicle_type_id":"4","last_reported":1756261258,"current_range_meters":3200,"station_id":"ce4bh0h2rcd13ifvqd40","pricing_plan_id":"cebpf4jnsgd1na2vs0mg"},{"bike_id":"2d70e939-9022-4487-871a-5344dea5fb7f","system_id":"levelo_inurba_marseille","lat":43.32337,"lon":5.40629,"is_reserved":false,"is_disabled":false,"rental_uris":{"android":"levelo://app?vid=2d70e939-9022-4487-871a-5344dea5fb7f","ios":"levelo://app?vid=2d70e939-9022-4487-871a-5344dea5fb7f"},"vehicle_type_id":"4","last_reported":1756261258,"current_range_meters":3200,"station_id":"ce4bhq92rcd13ifvqhjg","pricing_plan_id":"cebpf4jnsgd1na2vs0mg"},{"bike_id":"69dea794-ff41-4ff0-9312-973f237cfcb2","system_id":"levelo_inurba_marseille","lat":43.211879,"lon":5.35075,"is_reserved":false,"is_disabled":false,"rental_uris":{"android":"levelo://app?vid=69dea794-ff41-4ff0-9312-973f237cfcb2","ios":"levelo://app?vid=69dea794-ff41-4ff0-9312-973f237cfcb2"},"vehicle_type_id":"4","last_reported":1756261258,"current_range_meters":3600,"station_id":"","pricing_plan_id":"cebpf4jnsgd1na2vs0mg"},{"bike_id":"6d9cf491-c9c5-4489-bed0-4b6420aff5fc","system_id":"levelo_inurba_marseille","lat":43.28855,"lon":5.3584,"is_reserved":false,"is_disabled":false,"rental_uris":{"android":"levelo://app?vid=6d9cf491-c9c5-4489-bed0-4b6420aff5fc","ios":"levelo://app?vid=6d9cf491-c9c5-4489-bed0-4b6420aff5fc"},"vehicle_type_id":"4","last_reported":1756261258,"current_range_meters":3600,"station_id":"ce4bhb12rcd13ifvqem0","pricing_plan_id":"cebpf4jnsgd1na2vs0mg"},{"bike_id":"bdf85e08-5676-48b0-8060-453cc8bae2cf","system_id":"levelo_inurba_marseille","lat":43.29188,"lon":5.35797,"is_reserved":false,"is_disabled":true,"rental_uris":{"android":"levelo://app?vid=bdf85e08-5676-48b0-8060-453cc8bae2cf","ios":"levelo://app?vid=bdf85e08-5676-48b0-8060-453cc8bae2cf"},"vehicle_type_id":"4","last_reported":1756261258,"current_range_meters":4000,"station_id":"ce4bhb12rcd13ifvqel0","pricing_plan_id":"cebpf4jnsgd1na2vs0mg"},{"bike_id":"ebd026ba-d5f1-4e33-a742-0cdbe375b351","system_id":"levelo_inurba_marseille","lat":43.26195,"lon":5.37454,"is_reserved":false,"is_disabled":true,"rental_uris":{"android":"levelo://app?vid=ebd026ba-d5f1-4e33-a742-0cdbe375b351","ios":"levelo://app?vid=ebd026ba-d5f1-4e33-a742-0cdbe375b351"},"vehicle_type_id":"4","last_reported":1756261258,"current_range_meters":4000,"station_id":"ce4bhgp2rcd13ifvqfc0","pricing_plan_id":"cebpf4jnsgd1na2vs0mg"},{"bike_id":"2c6911da-bb3e-4211-a2e7-78996802ae49","system_id":"levelo_inurba_marseille","lat":43.26717,"lon":5.38165,"is_reserved":false,"is_disabled":false,"rental_uris":{"android":"levelo://app?vid=2c6911da-bb3e-4211-a2e7-78996802ae49","ios":"levelo://app?vid=2c6911da-bb3e-4211-a2e7-78996802ae49"},"vehicle_type_id":"4","last_reported":1756261258,"current_range_meters":4000,"station_id":"","pricing_plan_id":"cebpf4jnsgd1na2vs0mg"},{"bike_id":"7b818e63-e4fb-4473-b335-44ef19f5bb79","system_id":"levelo_inurba_marseille","lat":43.282745,"lon":5.350694,"is_reserved":false,"is_disabled":true,"rental_uris":{"android":"levelo://app?vid=7b818e63-e4fb-4473-b335-44ef19f5bb79","ios":"levelo://app?vid=7b818e63-e4fb-4473-b335-44ef19f5bb79"},"vehicle_type_id":"4","last_reported":1756261258,"current_range_meters":4400,"station_id":"ce4bhbp2rcd13ifvqerg","pricing_plan_id":"cebpf4jnsgd1na2vs0mg"},{"bike_id":"3ca3456b-a704-45c4-b366-ae3b69d517e2","system_id":"levelo_inurba_marseille","lat":43.302155,"lon":5.379491,"is_reserved":false,"is_disabled":false,"rental_uris":{"android":"levelo://app?vid=3ca3456b-a704-45c4-b366-ae3b69d517e2","ios":"levelo://app?vid=3ca3456b-a704-45c4-b366-ae3b69d517e2"},"vehicle_type_id":"4","last_reported":1756261258,"current_range_meters":4400,"station_id":"ce4bgjp2rcd13ifvqbh0","pricing_plan_id":"cebpf4jnsgd1na2vs0mg"},{"bike_id":"910a2fe9-c763-44c1-8de4-85789a7f1606","system_id":"levelo_inurba_marseille","lat":43.27426,"lon":5.39416,"is_reserved":false,"is_disabled":true,"rental_uris":{"android":"levelo://app?vid=910a2fe9-c763-44c1-8de4-85789a7f1606","ios":"levelo://app?vid=910a2fe9-c763-44c1-8de4-85789a7f1606"},"vehicle_type_id":"4","last_reported":1756261258,"current_range_meters":4800,"station_id":"ce4bhdp2rcd13ifvqf20","pricing_plan_id":"cebpf4jnsgd1na2vs0mg"},{"bike_id":"dff2fd5e-e41a-4b82-a882-15e8da47df31","system_id":"levelo_inurba_marseille","lat":43.309403,"lon":5.379139,"is_reserved":false,"is_disabled":false,"rental_uris":{"android":"levelo://app?vid=dff2fd5e-e41a-4b82-a882-15e8da47df31","ios":"levelo://app?vid=dff2fd5e-e41a-4b82-a882-15e8da47df31"},"vehicle_type_id":"4","last_reported":1756261258,"current_range_meters":4800,"station_id":"","pricing_plan_id":"cebpf4jnsgd1na2vs0mg"},{"bike_id":"f6bd5b86-eb54-487c-8a4e-3da908b177ef","system_id":"levelo_inurba_marseille","lat":43.29568,"lon":5.37527,"is_reserved":false,"is_disabled":true,"rental_uris":{"android":"levelo://app?vid=f6bd5b86-eb54-487c-8a4e-3da908b177ef","ios":"levelo://app?vid=f6bd5b86-eb54-487c-8a4e-3da908b177ef"},"vehicle_type_id":"4","last_reported":1756261258,"current_range_meters":5600,"station_id":"","pricing_plan_id":"cebpf4jnsgd1na2vs0mg"},{"bike_id":"236f1a17-bd84-4b8e-977f-7df7d8cf402c","system_id":"levelo_inurba_marseille","lat":43.307982,"lon":5.435278,"is_reserved":false,"is_disabled":true,"rental_uris":{"android":"levelo://app?vid=236f1a17-bd84-4b8e-977f-7df7d8cf402c","ios":"levelo://app?vid=236f1a17-bd84-4b8e-977f-7df7d8cf402c"},"vehicle_type_id":"4","last_reported":1756261258,"current_range_meters":6000,"station_id":"ce4bhph2rcd13ifvqheg","pricing_plan_id":"cebpf4jnsgd1na2vs0mg"},{"bike_id":"43a14931-dcd0-4ae0-861f-dece37fa7f4d","system_id":"levelo_inurba_marseille","lat":43.31074,"lon":5.40074,"is_reserved":false,"is_disabled":false,"rental_uris":{"android":"levelo://app?vid=43a14931-dcd0-4ae0-861f-dece37fa7f4d","ios":"levelo://app?vid=43a14931-dcd0-4ae0-861f-dece37fa7f4d"},"vehicle_type_id":"4","last_reported":1756261258,"current_range_meters":6400,"station_id":"","pricing_plan_id":"cebpf4jnsgd1na2vs0mg"},{"bike_id":"03be758f-3e6d-4c72-8876-95a4359600d6","system_id":"levelo_inurba_marseille","lat":43.337673,"lon":5.374911,"is_reserved":false,"is_disabled":false,"rental_uris":{"android":"levelo://app?vid=03be758f-3e6d-4c72-8876-95a4359600d6","ios":"levelo://app?vid=03be758f-3e6d-4c72-8876-95a4359600d6"},"vehicle_type_id":"4","last_reported":1756261258,"current_range_meters":6400,"station_id":"","pricing_plan_id":"cebpf4jnsgd1na2vs0mg"},{"bike_id":"b46639d3-0e19-46be-a590-754abfdbb7c9","system_id":"levelo_inurba_marseille","lat":43.295337,"lon":5.38546,"is_reserved":false,"is_disabled":true,"rental_uris":{"android":"levelo://app?vid=b46639d3-0e19-46be-a590-754abfdbb7c9","ios":"levelo://app?vid=b46639d3-0e19-46be-a590-754abfdbb7c9"},"vehicle_type_id":"4","last_reported":1756261258,"current_range_meters":6800,"station_id":"ce4bgih2rcd13ifvqba0","pricing_plan_id":"cebpf4jnsgd1na2vs0mg"},{"bike_id":"6833361a-7ff2-4f8e-a2d1-6e42b96883f5","system_id":"levelo_inurba_marseille","lat":43.29599,"lon":5.3811,"is_reserved":false,"is_disabled":false,"rental_uris":{"android":"levelo://app?vid=6833361a-7ff2-4f8e-a2d1-6e42b96883f5","ios":"levelo://app?vid=6833361a-7ff2-4f8e-a2d1-6e42b96883f5"},"vehicle_type_id":"4","last_reported":1756261258,"current_range_meters":6800,"station_id":"ce4bgl12rcd13ifvqbo0","pricing_plan_id":"cebpf4jnsgd1na2vs0mg"},{"bike_id":"2f4e8b28-6095-4b3f-ae0a-f9f0c872541a","system_id":"levelo_inurba_marseille","lat":43.29035,"lon":5.37571,"is_reserved":false,"is_disabled":false,"rental_uris":{"android":"levelo://app?vid=2f4e8b28-6095-4b3f-ae0a-f9f0c872541a","ios":"levelo://app?vid=2f4e8b28-6095-4b3f-ae0a-f9f0c872541a"},"vehicle_type_id":"4","last_reported":1756261258,"current_range_meters":8000,"station_id":"ce4bh692rcd13ifvqe90","pricing_plan_id":"cebpf4jnsgd1na2vs0mg"},{"bike_id":"6eff41d7-5d4a-46ee-858f-d18dbc13ba08","system_id":"levelo_inurba_marseille","lat":43.3081,"lon":5.38153,"is_reserved":false,"is_disabled":false,"rental_uris":{"android":"levelo://app?vid=6eff41d7-5d4a-46ee-858f-d18dbc13ba08","ios":"levelo://app?vid=6eff41d7-5d4a-46ee-858f-d18dbc13ba08"},"vehicle_type_id":"4","last_reported":1756261258,"current_range_meters":8000,"station_id":"ce4bgt12rcd13ifvqce0","pricing_plan_id":"cebpf4jnsgd1na2vs0mg"},{"bike_id":"f81c8074-fd30-4a1c-8f21-f44a688769d9","system_id":"levelo_inurba_marseille","lat":43.30325,"lon":5.40445,"is_reserved":false,"is_disabled":false,"rental_uris":{"android":"levelo://app?vid=f81c8074-fd30-4a1c-8f21-f44a688769d9","ios":"levelo://app?vid=f81c8074-fd30-4a1c-8f21-f44a688769d9"},"vehicle_type_id":"4","last_reported":1756261258,"current_range_meters":8000,"station_id":"ce4bh012rcd13ifvqd10","pricing_plan_id":"cebpf4jnsgd1na2vs0mg"},{"bike_id":"d902b193-c032-4f07-9f41-2b1838121c24","system_id":"levelo_inurba_marseille","lat":43.280857,"lon":5.396559,"is_reserved":false,"is_disabled":true,"rental_uris":{"android":"levelo://app?vid=d902b193-c032-4f07-9f41-2b1838121c24","ios":"levelo://app?vid=d902b193-c032-4f07-9f41-2b1838121c24"},"vehicle_type_id":"4","last_reported":1756261258,"current_range_meters":8400,"station_id":"ce4bho12rcd13ifvqh2g","pricing_plan_id":"cebpf4jnsgd1na2vs0mg"},{"bike_id":"9ebbca0f-8b0f-49e0-bbc0-5934ebb0e846","system_id":"levelo_inurba_marseille","lat":43.211902,"lon":5.350747,"is_reserved":false,"is_disabled":false,"rental_uris":{"android":"levelo://app?vid=9ebbca0f-8b0f-49e0-bbc0-5934ebb0e846","ios":"levelo://app?vid=9ebbca0f-8b0f-49e0-bbc0-5934ebb0e846"},"vehicle_type_id":"4","last_reported":1756261258,"current_range_meters":8400,"station_id":"st_cvj6sg6p6f1abm77japg","pricing_plan_id":"cebpf4jnsgd1na2vs0mg"},{"bike_id":"edc4c588-4db1-4b48-bddb-0eba1d72ba9f","system_id":"levelo_inurba_marseille","lat":43.211914,"lon":5.350758,"is_reserved":false,"is_disabled":false,"rental_uris":{"android":"levelo://app?vid=edc4c588-4db1-4b48-bddb-0eba1d72ba9f","ios":"levelo://app?vid=edc4c588-4db1-4b48-bddb-0eba1d72ba9f"},"vehicle_type_id":"4","last_reported":1756261258,"current_range_meters":8400,"station_id":"st_cvj6sg6p6f1abm77japg","pricing_plan_id":"cebpf4jnsgd1na2vs0mg"},{"bike_id":"b167edfd-c54d-4027-83e0-98edda92909f","system_id":"levelo_inurba_marseille","lat":43.30814,"lon":5.38175,"is_reserved":false,"is_disabled":false,"rental_uris":{"android":"levelo://app?vid=b167edfd-c54d-4027-83e0-98edda92909f","ios":"levelo://app?vid=b167edfd-c54d-4027-83e0-98edda92909f"},"vehicle_type_id":"4","last_reported":1756261258,"current_range_meters":8400,"station_id":"ce4bgt12rcd13ifvqce0","pricing_plan_id":"cebpf4jnsgd1na2vs0mg"},{"bike_id":"d7bfe4ef-096f-44b6-8b30-8748c29b5f59","system_id":"levelo_inurba_marseille","lat":43.292538,"lon":5.409133,"is_reserved":false,"is_disabled":false,"rental_uris":{"android":"levelo://app?vid=d7bfe4ef-096f-44b6-8b30-8748c29b5f59","ios":"levelo://app?vid=d7bfe4ef-096f-44b6-8b30-8748c29b5f59"},"vehicle_type_id":"4","last_reported":1756261258,"current_range_meters":8400,"station_id":"ce4bh192rcd13ifvqdc0","pricing_plan_id":"cebpf4jnsgd1na2vs0mg"},{"bike_id":"f781d014-afa9-4acc-b6f7-3670b0862de3","system_id":"levelo_inurba_marseille","lat":43.21194,"lon":5.3508,"is_reserved":false,"is_disabled":false,"rental_uris":{"android":"levelo://app?vid=f781d014-afa9-4acc-b6f7-3670b0862de3","ios":"levelo://app?vid=f781d014-afa9-4acc-b6f7-3670b0862de3"},"vehicle_type_id":"4","last_reported":1756261258,"current_range_meters":8400,"station_id":"st_cvj6sg6p6f1abm77japg","pricing_plan_id":"cebpf4jnsgd1na2vs0mg"},{"bike_id":"07be3376-6eb8-44ae-b4d0-90e190b8b837","system_id":"levelo_inurba_marseille","lat":43.28456,"lon":5.35892,"is_reserved":false,"is_disabled":false,"rental_uris":{"android":"levelo://app?vid=07be3376-6eb8-44ae-b4d0-90e190b8b837","ios":"levelo://app?vid=07be3376-6eb8-44ae-b4d0-90e190b8b837"},"vehicle_type_id":"4","last_reported":1756261258,"current_range_meters":8800,"station_id":"ce4bhah2rcd13ifvqei0","pricing_plan_id":"cebpf4jnsgd1na2vs0mg"},{"bike_id":"2d9b7b89-1d46-482a-b640-af660ab41bc8","system_id":"levelo_inurba_marseille","lat":43.253366,"lon":5.42174,"is_reserved":false,"is_disabled":false,"rental_uris":{"android":"levelo://app?vid=2d9b7b89-1d46-482a-b640-af660ab41bc8","ios":"levelo://app?vid=2d9b7b89-1d46-482a-b640-af660ab41bc8"},"vehicle_type_id":"4","last_reported":1756261258,"current_range_meters":9200,"station_id":"st_d2m65c5bi1j21697t3ng","pricing_plan_id":"cebpf4jnsgd1na2vs0mg"},{"bike_id":"540ce205-844f-4d40-8cfb-d5d924d9065e","system_id":"levelo_inurba_marseille","lat":43.29227,"lon":5.39305,"is_reserved":false,"is_disabled":false,"rental_uris":{"android":"levelo://app?vid=540ce205-844f-4d40-8cfb-d5d924d9065e","ios":"levelo://app?vid=540ce205-844f-4d40-8cfb-d5d924d9065e"},"vehicle_type_id":"4","last_reported":1756261258,"current_range_meters":9600,"station_id":"ce4bh192rcd13ifvqdd0","pricing_plan_id":"cebpf4jnsgd1na2vs0mg"},{"bike_id":"69a01144-4cb0-4f43-b8a7-d8bba1210d75","system_id":"levelo_inurba_marseille","lat":43.315848,"lon":5.374429,"is_reserved":false,"is_disabled":false,"rental_uris":{"android":"levelo://app?vid=69a01144-4cb0-4f43-b8a7-d8bba1210d75","ios":"levelo://app?vid=69a01144-4cb0-4f43-b8a7-d8bba1210d75"},"vehicle_type_id":"4","last_reported":1756261258,"current_range_meters":9600,"station_id":"","pricing_plan_id":"cebpf4jnsgd1na2vs0mg"},{"bike_id":"47c72c85-64e7-43b8-ada4-0f17a3d10859","system_id":"levelo_inurba_marseille","lat":43.21753,"lon":5.346,"is_reserved":false,"is_disabled":true,"rental_uris":{"android":"levelo://app?vid=47c72c85-64e7-43b8-ada4-0f17a3d10859","ios":"levelo://app?vid=47c72c85-64e7-43b8-ada4-0f17a3d10859"},"vehicle_type_id":"4","last_reported":1756261258,"current_range_meters":9600,"station_id":"st_cvj6r9ubvosntc0bgbag","pricing_plan_id":"cebpf4jnsgd1na2vs0mg"},{"bike_id":"57d42a8a-a2d6-40a1-8b91-73a5fdc49be5","system_id":"levelo_inurba_marseille","lat":43.26563,"lon":5.40327,"is_reserved":false,"is_disabled":false,"rental_uris":{"android":"levelo://app?vid=57d42a8a-a2d6-40a1-8b91-73a5fdc49be5","ios":"levelo://app?vid=57d42a8a-a2d6-40a1-8b91-73a5fdc49be5"},"vehicle_type_id":"4","last_reported":1756261258,"current_range_meters":9600,"station_id":"ce4bhmp2rcd13ifvqgng","pricing_plan_id":"cebpf4jnsgd1na2vs0mg"},{"bike_id":"4dd4428e-edbe-4c5d-9dc1-a53e9a716334","system_id":"levelo_inurba_marseille","lat":43.22507,"lon":5.34792,"is_reserved":false,"is_disabled":true,"rental_uris":{"android":"levelo://app?vid=4dd4428e-edbe-4c5d-9dc1-a53e9a716334","ios":"levelo://app?vid=4dd4428e-edbe-4c5d-9dc1-a53e9a716334"},"vehicle_type_id":"4","last_reported":1756261258,"current_range_meters":10000,"station_id":"","pricing_plan_id":"cebpf4jnsgd1na2vs0mg"},{"bike_id":"eaac1ac6-6c5d-4274-970f-7bad9d177f4b","system_id":"levelo_inurba_marseille","lat":43.33765,"lon":5.37473,"is_reserved":false,"is_disabled":false,"rental_uris":{"android":"levelo://app?vid=eaac1ac6-6c5d-4274-970f-7bad9d177f4b","ios":"levelo://app?vid=eaac1ac6-6c5d-4274-970f-7bad9d177f4b"},"vehicle_type_id":"4","last_reported":1756261258,"current_range_meters":10000,"station_id":"","pricing_plan_id":"cebpf4jnsgd1na2vs0mg"},{"bike_id":"e3ecb78a-e609-4697-ac45-3452b344682b","system_id":"levelo_inurba_marseille","lat":43.24675,"lon":5.38162,"is_reserved":false,"is_disabled":false,"rental_uris":{"android":"levelo://app?vid=e3ecb78a-e609-4697-ac45-3452b344682b","ios":"levelo://app?vid=e3ecb78a-e609-4697-ac45-3452b344682b"},"vehicle_type_id":"4","last_reported":1756261258,"current_range_meters":10000,"station_id":"ce4bhih2rcd13ifvqfr0","pricing_plan_id":"cebpf4jnsgd1na2vs0mg"},{"bike_id":"325f6c5a-86a0-4b70-adef-ff6206674622","system_id":"levelo_inurba_marseille","lat":43.32356,"lon":5.36744,"is_reserved":false,"is_disabled":false,"rental_uris":{"android":"levelo://app?vid=325f6c5a-86a0-4b70-adef-ff6206674622","ios":"levelo://app?vid=325f6c5a-86a0-4b70-adef-ff6206674622"},"vehicle_type_id":"4","last_reported":1756261258,"current_range_meters":10000,"station_id":"ce4bhsh2rcd13ifvqi2g","pricing_plan_id":"cebpf4jnsgd1na2vs0mg"},{"bike_id":"ec6705ad-1994-4f7b-8ba1-066d763e7f38","system_id":"levelo_inurba_marseille","lat":43.255812,"lon":5.382126,"is_reserved":false,"is_disabled":true,"rental_uris":{"android":"levelo://app?vid=ec6705ad-1994-4f7b-8ba1-066d763e7f38","ios":"levelo://app?vid=ec6705ad-1994-4f7b-8ba1-066d763e7f38"},"vehicle_type_id":"4","last_reported":1756261258,"current_range_meters":10000,"station_id":"ce4bhih2rcd13ifvqfs0","pricing_plan_id":"cebpf4jnsgd1na2vs0mg"},{"bike_id":"0d502687-08ef-4491-8893-8a03d8688be8","system_id":"levelo_inurba_marseille","lat":43.29638,"lon":5.36106,"is_reserved":false,"is_disabled":false,"rental_uris":{"android":"levelo://app?vid=0d502687-08ef-4491-8893-8a03d8688be8","ios":"levelo://app?vid=0d502687-08ef-4491-8893-8a03d8688be8"},"vehicle_type_id":"4","last_reported":1756261258,"current_range_meters":10000,"station_id":"","pricing_plan_id":"cebpf4jnsgd1na2vs0mg"},{"bike_id":"a4578e98-0c0e-42ba-b4cc-92d22d1008a9","system_id":"levelo_inurba_marseille","lat":43.290306,"lon":5.38122,"is_reserved":false,"is_disabled":true,"rental_uris":{"android":"levelo://app?vid=a4578e98-0c0e-42ba-b4cc-92d22d1008a9","ios":"levelo://app?vid=a4578e98-0c0e-42ba-b4cc-92d22d1008a9"},"vehicle_type_id":"4","last_reported":1756261258,"current_range_meters":10000,"station_id":"ce4bh4p2rcd13ifvqe1g","pricing_plan_id":"cebpf4jnsgd1na2vs0mg"},{"bike_id":"53944674-977f-435b-bef3-a65156ce20ac","system_id":"levelo_inurba_marseille","lat":43.28946,"lon":5.36634,"is_reserved":false,"is_disabled":false,"rental_uris":{"android":"levelo://app?vid=53944674-977f-435b-bef3-a65156ce20ac","ios":"levelo://app?vid=53944674-977f-435b-bef3-a65156ce20ac"},"vehicle_type_id":"4","last_reported":1756261258,"current_range_meters":10000,"station_id":"ce4bhap2rcd13ifvqek0","pricing_plan_id":"cebpf4jnsgd1na2vs0mg"},{"bike_id":"c6c273a6-565b-4365-b44a-6ee491dc4707","system_id":"levelo_inurba_marseille","lat":43.23193,"lon":5.35547,"is_reserved":false,"is_disabled":true,"rental_uris":{"android":"levelo://app?vid=c6c273a6-565b-4365-b44a-6ee491dc4707","ios":"levelo://app?vid=c6c273a6-565b-4365-b44a-6ee491dc4707"},"vehicle_type_id":"4","last_reported":1756261258,"current_range_meters":10800,"station_id":"ce4bhu92rcd13ifvqi70","pricing_plan_id":"cebpf4jnsgd1na2vs0mg"},{"bike_id":"51842e17-ef10-4624-a23e-c8a182427991","system_id":"levelo_inurba_marseille","lat":43.31619,"lon":5.38206,"is_reserved":false,"is_disabled":false,"rental_uris":{"android":"levelo://app?vid=51842e17-ef10-4624-a23e-c8a182427991","ios":"levelo://app?vid=51842e17-ef10-4624-a23e-c8a182427991"},"vehicle_type_id":"4","last_reported":1756261258,"current_range_meters":10800,"station_id":"","pricing_plan_id":"cebpf4jnsgd1na2vs0mg"},{"bike_id":"8a00d99b-940c-4dd8-b9d9-a9e3540088dd","system_id":"levelo_inurba_marseille","lat":43.29186,"lon":5.39308,"is_reserved":false,"is_disabled":false,"rental_uris":{"android":"levelo://app?vid=8a00d99b-940c-4dd8-b9d9-a9e3540088dd","ios":"levelo://app?vid=8a00d99b-940c-4dd8-b9d9-a9e3540088dd"},"vehicle_type_id":"4","last_reported":1756261258,"current_range_meters":10800,"station_id":"ce4bh192rcd13ifvqdd0","pricing_plan_id":"cebpf4jnsgd1na2vs0mg"},{"bike_id":"cfa378dc-95aa-4571-8437-b63172d17092","system_id":"levelo_inurba_marseille","lat":43.24682,"lon":5.38163,"is_reserved":false,"is_disabled":false,"rental_uris":{"android":"levelo://app?vid=cfa378dc-95aa-4571-8437-b63172d17092","ios":"levelo://app?vid=cfa378dc-95aa-4571-8437-b63172d17092"},"vehicle_type_id":"4","last_reported":1756261258,"current_range_meters":11200,"station_id":"ce4bhih2rcd13ifvqfr0","pricing_plan_id":"cebpf4jnsgd1na2vs0mg"},{"bike_id":"22204b3f-0752-4e89-997e-d062562f8b6a","system_id":"levelo_inurba_marseille","lat":43.29255,"lon":5.40903,"is_reserved":false,"is_disabled":false,"rental_uris":{"android":"levelo://app?vid=22204b3f-0752-4e89-997e-d062562f8b6a","ios":"levelo://app?vid=22204b3f-0752-4e89-997e-d062562f8b6a"},"vehicle_type_id":"4","last_reported":1756261258,"current_range_meters":11200,"station_id":"ce4bh192rcd13ifvqdc0","pricing_plan_id":"cebpf4jnsgd1na2vs0mg"},{"bike_id":"da4fbb2f-e275-4d42-bb2b-48b9958ae534","system_id":"levelo_inurba_marseille","lat":43.2534,"lon":5.42175,"is_reserved":false,"is_disabled":false,"rental_uris":{"android":"levelo://app?vid=da4fbb2f-e275-4d42-bb2b-48b9958ae534","ios":"levelo://app?vid=da4fbb2f-e275-4d42-bb2b-48b9958ae534"},"vehicle_type_id":"4","last_reported":1756261258,"current_range_meters":11200,"station_id":"st_d2m65c5bi1j21697t3ng","pricing_plan_id":"cebpf4jnsgd1na2vs0mg"},{"bike_id":"2d018b38-51dc-4c2d-b935-970f32cf436f","system_id":"levelo_inurba_marseille","lat":43.25345,"lon":5.42149,"is_reserved":false,"is_disabled":false,"rental_uris":{"android":"levelo://app?vid=2d018b38-51dc-4c2d-b935-970f32cf436f","ios":"levelo://app?vid=2d018b38-51dc-4c2d-b935-970f32cf436f"},"vehicle_type_id":"4","last_reported":1756261258,"current_range_meters":11200,"station_id":"st_d2m65c5bi1j21697t3ng","pricing_plan_id":"cebpf4jnsgd1na2vs0mg"},{"bike_id":"cf113ad4-b4a3-421f-872e-dfb5537698dd","system_id":"levelo_inurba_marseille","lat":43.29571,"lon":5.39944,"is_reserved":false,"is_disabled":false,"rental_uris":{"android":"levelo://app?vid=cf113ad4-b4a3-421f-872e-dfb5537698dd","ios":"levelo://app?vid=cf113ad4-b4a3-421f-872e-dfb5537698dd"},"vehicle_type_id":"4","last_reported":1756261258,"current_range_meters":11200,"station_id":"ce4bh312rcd13ifvqdj0","pricing_plan_id":"cebpf4jnsgd1na2vs0mg"},{"bike_id":"bfcde6a8-ccc6-4d52-a2bf-66c07481b52c","system_id":"levelo_inurba_marseille","lat":43.29284,"lon":5.401,"is_reserved":false,"is_disabled":false,"rental_uris":{"android":"levelo://app?vid=bfcde6a8-ccc6-4d52-a2bf-66c07481b52c","ios":"levelo://app?vid=bfcde6a8-ccc6-4d52-a2bf-66c07481b52c"},"vehicle_type_id":"4","last_reported":1756261258,"current_range_meters":11200,"station_id":"ce4bh312rcd13ifvqdk0","pricing_plan_id":"cebpf4jnsgd1na2vs0mg"},{"bike_id":"ca90d0c9-ea31-4b7a-ac13-eb7c663855d4","system_id":"levelo_inurba_marseille","lat":43.28406,"lon":5.37498,"is_reserved":false,"is_disabled":false,"rental_uris":{"android":"levelo://app?vid=ca90d0c9-ea31-4b7a-ac13-eb7c663855d4","ios":"levelo://app?vid=ca90d0c9-ea31-4b7a-ac13-eb7c663855d4"},"vehicle_type_id":"4","last_reported":1756261258,"current_range_meters":11200,"station_id":"ce4bh412rcd13ifvqds0","pricing_plan_id":"cebpf4jnsgd1na2vs0mg"},{"bike_id":"89bb2efc-5c45-48e0-b659-b8ecb63211d5","system_id":"levelo_inurba_marseille","lat":43.29797,"lon":5.3935,"is_reserved":false,"is_disabled":false,"rental_uris":{"android":"levelo://app?vid=89bb2efc-5c45-48e0-b659-b8ecb63211d5","ios":"levelo://app?vid=89bb2efc-5c45-48e0-b659-b8ecb63211d5"},"vehicle_type_id":"4","last_reported":1756261258,"current_range_meters":11600,"station_id":"chh1huq6cuj3fo74tm60","pricing_plan_id":"cebpf4jnsgd1na2vs0mg"},{"bike_id":"b4d6c33d-a0bf-42a3-9ab7-0db80b72b559","system_id":"levelo_inurba_marseille","lat":43.28951,"lon":5.36638,"is_reserved":false,"is_disabled":true,"rental_uris":{"android":"levelo://app?vid=b4d6c33d-a0bf-42a3-9ab7-0db80b72b559","ios":"levelo://app?vid=b4d6c33d-a0bf-42a3-9ab7-0db80b72b559"},"vehicle_type_id":"4","last_reported":1756261258,"current_range_meters":11600,"station_id":"ce4bhap2rcd13ifvqek0","pricing_plan_id":"cebpf4jnsgd1na2vs0mg"},{"bike_id":"63f2abed-057a-4b88-a942-7fb1eb5fe235","system_id":"levelo_inurba_marseille","lat":43.279179,"lon":5.395734,"is_reserved":false,"is_disabled":false,"rental_uris":{"android":"levelo://app?vid=63f2abed-057a-4b88-a942-7fb1eb5fe235","ios":"levelo://app?vid=63f2abed-057a-4b88-a942-7fb1eb5fe235"},"vehicle_type_id":"4","last_reported":1756261258,"current_range_meters":11600,"station_id":"ce4bhf92rcd13ifvqf40","pricing_plan_id":"cebpf4jnsgd1na2vs0mg"},{"bike_id":"70725e45-1278-4337-bab4-392de6291b76","system_id":"levelo_inurba_marseille","lat":43.27819,"lon":5.40709,"is_reserved":false,"is_disabled":false,"rental_uris":{"android":"levelo://app?vid=70725e45-1278-4337-bab4-392de6291b76","ios":"levelo://app?vid=70725e45-1278-4337-bab4-392de6291b76"},"vehicle_type_id":"4","last_reported":1756261258,"current_range_meters":11600,"station_id":"ce4bhnh2rcd13ifvqgtg","pricing_plan_id":"cebpf4jnsgd1na2vs0mg"},{"bike_id":"4e330b1f-161c-4651-9fd6-20401a194c71","system_id":"levelo_inurba_marseille","lat":43.24081,"lon":5.37756,"is_reserved":false,"is_disabled":false,"rental_uris":{"android":"levelo://app?vid=4e330b1f-161c-4651-9fd6-20401a194c71","ios":"levelo://app?vid=4e330b1f-161c-4651-9fd6-20401a194c71"},"vehicle_type_id":"4","last_reported":1756261258,"current_range_meters":11600,"station_id":"ce4bhnp2rcd13ifvqgvg","pricing_plan_id":"cebpf4jnsgd1na2vs0mg"},{"bike_id":"a9c8448e-6218-4e69-a780-11bdb66755b5","system_id":"levelo_inurba_marseille","lat":43.28397,"lon":5.3753,"is_reserved":false,"is_disabled":false,"rental_uris":{"android":"levelo://app?vid=a9c8448e-6218-4e69-a780-11bdb66755b5","ios":"levelo://app?vid=a9c8448e-6218-4e69-a780-11bdb66755b5"},"vehicle_type_id":"4","last_reported":1756261258,"current_range_meters":12000,"station_id":"ce4bh412rcd13ifvqds0","pricing_plan_id":"cebpf4jnsgd1na2vs0mg"},{"bike_id":"8ad69d7f-6d52-4611-bf92-39c173b24a99","system_id":"levelo_inurba_marseille","lat":43.29274,"lon":5.36837,"is_reserved":false,"is_disabled":false,"rental_uris":{"android":"levelo://app?vid=8ad69d7f-6d52-4611-bf92-39c173b24a99","ios":"levelo://app?vid=8ad69d7f-6d52-4611-bf92-39c173b24a99"},"vehicle_type_id":"4","last_reported":1756261258,"current_range_meters":12000,"station_id":"ce4bhbp2rcd13ifvqesg","pricing_plan_id":"cebpf4jnsgd1na2vs0mg"},{"bike_id":"1027bb83-a668-47de-9094-84302cb909d4","system_id":"levelo_inurba_marseille","lat":43.21182,"lon":5.35079,"is_reserved":false,"is_disabled":false,"rental_uris":{"android":"levelo://app?vid=1027bb83-a668-47de-9094-84302cb909d4","ios":"levelo://app?vid=1027bb83-a668-47de-9094-84302cb909d4"},"vehicle_type_id":"4","last_reported":1756261258,"current_range_meters":12000,"station_id":"st_cvj6sg6p6f1abm77japg","pricing_plan_id":"cebpf4jnsgd1na2vs0mg"},{"bike_id":"92c082b0-21bd-43f1-a1c8-1d12806833ca","system_id":"levelo_inurba_marseille","lat":43.283435,"lon":5.381048,"is_reserved":false,"is_disabled":true,"rental_uris":{"android":"levelo://app?vid=92c082b0-21bd-43f1-a1c8-1d12806833ca","ios":"levelo://app?vid=92c082b0-21bd-43f1-a1c8-1d12806833ca"},"vehicle_type_id":"4","last_reported":1756261258,"current_range_meters":12000,"station_id":"ce4bh412rcd13ifvqdr0","pricing_plan_id":"cebpf4jnsgd1na2vs0mg"},{"bike_id":"1921085e-f62f-4779-92b3-2f6e9c198564","system_id":"levelo_inurba_marseille","lat":43.240724,"lon":5.377509,"is_reserved":false,"is_disabled":false,"rental_uris":{"android":"levelo://app?vid=1921085e-f62f-4779-92b3-2f6e9c198564","ios":"levelo://app?vid=1921085e-f62f-4779-92b3-2f6e9c198564"},"vehicle_type_id":"4","last_reported":1756261258,"current_range_meters":12000,"station_id":"ce4bhnp2rcd13ifvqgvg","pricing_plan_id":"cebpf4jnsgd1na2vs0mg"},{"bike_id":"c73d9183-822c-4a14-a8c1-53bf72c04baf","system_id":"levelo_inurba_marseille","lat":43.2942,"lon":5.43235,"is_reserved":false,"is_disabled":false,"rental_uris":{"android":"levelo://app?vid=c73d9183-822c-4a14-a8c1-53bf72c04baf","ios":"levelo://app?vid=c73d9183-822c-4a14-a8c1-53bf72c04baf"},"vehicle_type_id":"4","last_reported":1756261258,"current_range_meters":12000,"station_id":"","pricing_plan_id":"cebpf4jnsgd1na2vs0mg"},{"bike_id":"6b1581e2-1543-434c-b1e5-28d7a00a39b0","system_id":"levelo_inurba_marseille","lat":43.25343,"lon":5.42159,"is_reserved":false,"is_disabled":false,"rental_uris":{"android":"levelo://app?vid=6b1581e2-1543-434c-b1e5-28d7a00a39b0","ios":"levelo://app?vid=6b1581e2-1543-434c-b1e5-28d7a00a39b0"},"vehicle_type_id":"4","last_reported":1756261258,"current_range_meters":12000,"station_id":"st_d2m65c5bi1j21697t3ng","pricing_plan_id":"cebpf4jnsgd1na2vs0mg"},{"bike_id":"39002f5b-a23e-4630-90a0-e2481b8443c4","system_id":"levelo_inurba_marseille","lat":43.25006,"lon":5.389113,"is_reserved":false,"is_disabled":false,"rental_uris":{"android":"levelo://app?vid=39002f5b-a23e-4630-90a0-e2481b8443c4","ios":"levelo://app?vid=39002f5b-a23e-4630-90a0-e2481b8443c4"},"vehicle_type_id":"4","last_reported":1756261258,"current_range_meters":12000,"station_id":"","pricing_plan_id":"cebpf4jnsgd1na2vs0mg"},{"bike_id":"695ffa86-8ccd-4897-bd34-8f745cdff49b","system_id":"levelo_inurba_marseille","lat":43.2841,"lon":5.37517,"is_reserved":false,"is_disabled":false,"rental_uris":{"android":"levelo://app?vid=695ffa86-8ccd-4897-bd34-8f745cdff49b","ios":"levelo://app?vid=695ffa86-8ccd-4897-bd34-8f745cdff49b"},"vehicle_type_id":"4","last_reported":1756261258,"current_range_meters":12000,"station_id":"ce4bh412rcd13ifvqds0","pricing_plan_id":"cebpf4jnsgd1na2vs0mg"},{"bike_id":"098a3003-b369-4d74-b40b-8cae8a40f5ad","system_id":"levelo_inurba_marseille","lat":43.280005,"lon":5.416657,"is_reserved":false,"is_disabled":false,"rental_uris":{"android":"levelo://app?vid=098a3003-b369-4d74-b40b-8cae8a40f5ad","ios":"levelo://app?vid=098a3003-b369-4d74-b40b-8cae8a40f5ad"},"vehicle_type_id":"4","last_reported":1756261258,"current_range_meters":12400,"station_id":"ce4bho12rcd13ifvqh1g","pricing_plan_id":"cebpf4jnsgd1na2vs0mg"},{"bike_id":"1d7023ef-959e-48df-b075-0a4bd90cc9ae","system_id":"levelo_inurba_marseille","lat":43.27365,"lon":5.36253,"is_reserved":false,"is_disabled":true,"rental_uris":{"android":"levelo://app?vid=1d7023ef-959e-48df-b075-0a4bd90cc9ae","ios":"levelo://app?vid=1d7023ef-959e-48df-b075-0a4bd90cc9ae"},"vehicle_type_id":"4","last_reported":1756261258,"current_range_meters":12400,"station_id":"ce4bhbh2rcd13ifvqeo0","pricing_plan_id":"cebpf4jnsgd1na2vs0mg"},{"bike_id":"e44bc05c-e6c3-432c-9d71-fd17a85f949c","system_id":"levelo_inurba_marseille","lat":43.291962,"lon":5.393273,"is_reserved":false,"is_disabled":false,"rental_uris":{"android":"levelo://app?vid=e44bc05c-e6c3-432c-9d71-fd17a85f949c","ios":"levelo://app?vid=e44bc05c-e6c3-432c-9d71-fd17a85f949c"},"vehicle_type_id":"4","last_reported":1756261258,"current_range_meters":12400,"station_id":"ce4bh192rcd13ifvqdd0","pricing_plan_id":"cebpf4jnsgd1na2vs0mg"},{"bike_id":"22ab1208-c6f7-4b7f-b55d-758b70d286ac","system_id":"levelo_inurba_marseille","lat":43.27991,"lon":5.41658,"is_reserved":false,"is_disabled":false,"rental_uris":{"android":"levelo://app?vid=22ab1208-c6f7-4b7f-b55d-758b70d286ac","ios":"levelo://app?vid=22ab1208-c6f7-4b7f-b55d-758b70d286ac"},"vehicle_type_id":"4","last_reported":1756261258,"current_range_meters":12400,"station_id":"ce4bho12rcd13ifvqh1g","pricing_plan_id":"cebpf4jnsgd1na2vs0mg"},{"bike_id":"301dddba-146e-4031-bcae-5ef0f95944c9","system_id":"levelo_inurba_marseille","lat":43.304381,"lon":5.388866,"is_reserved":false,"is_disabled":false,"rental_uris":{"android":"levelo://app?vid=301dddba-146e-4031-bcae-5ef0f95944c9","ios":"levelo://app?vid=301dddba-146e-4031-bcae-5ef0f95944c9"},"vehicle_type_id":"4","last_reported":1756261258,"current_range_meters":12800,"station_id":"ce4bgk12rcd13ifvqbi0","pricing_plan_id":"cebpf4jnsgd1na2vs0mg"},{"bike_id":"1fb6ecce-4d2c-4249-84b3-96fb4eb273aa","system_id":"levelo_inurba_marseille","lat":43.287163,"lon":5.399833,"is_reserved":false,"is_disabled":false,"rental_uris":{"android":"levelo://app?vid=1fb6ecce-4d2c-4249-84b3-96fb4eb273aa","ios":"levelo://app?vid=1fb6ecce-4d2c-4249-84b3-96fb4eb273aa"},"vehicle_type_id":"4","last_reported":1756261258,"current_range_meters":12800,"station_id":"ce4bho92rcd13ifvqh3g","pricing_plan_id":"cebpf4jnsgd1na2vs0mg"},{"bike_id":"142fad44-9e99-4639-8110-7e6b40f4890a","system_id":"levelo_inurba_marseille","lat":43.308878,"lon":5.396293,"is_reserved":false,"is_disabled":false,"rental_uris":{"android":"levelo://app?vid=142fad44-9e99-4639-8110-7e6b40f4890a","ios":"levelo://app?vid=142fad44-9e99-4639-8110-7e6b40f4890a"},"vehicle_type_id":"4","last_reported":1756261258,"current_range_meters":12800,"station_id":"ce4bh012rcd13ifvqcv0","pricing_plan_id":"cebpf4jnsgd1na2vs0mg"},{"bike_id":"f0400c37-c7f6-4929-b1ac-d92430ff6f2d","system_id":"levelo_inurba_marseille","lat":43.27595,"lon":5.39659,"is_reserved":false,"is_disabled":false,"rental_uris":{"android":"levelo://app?vid=f0400c37-c7f6-4929-b1ac-d92430ff6f2d","ios":"levelo://app?vid=f0400c37-c7f6-4929-b1ac-d92430ff6f2d"},"vehicle_type_id":"4","last_reported":1756261258,"current_range_meters":12800,"station_id":"","pricing_plan_id":"cebpf4jnsgd1na2vs0mg"},{"bike_id":"cd5f5dc3-8366-4b0c-a73e-2e0775b42f9e","system_id":"levelo_inurba_marseille","lat":43.292881,"lon":5.368564,"is_reserved":false,"is_disabled":true,"rental_uris":{"android":"levelo://app?vid=cd5f5dc3-8366-4b0c-a73e-2e0775b42f9e","ios":"levelo://app?vid=cd5f5dc3-8366-4b0c-a73e-2e0775b42f9e"},"vehicle_type_id":"4","last_reported":1756261258,"current_range_meters":12800,"station_id":"ce4bhbp2rcd13ifvqesg","pricing_plan_id":"cebpf4jnsgd1na2vs0mg"},{"bike_id":"35293f9d-ecc5-4090-ae0e-2e4ab9a73a16","system_id":"levelo_inurba_marseille","lat":43.32358,"lon":5.36753,"is_reserved":false,"is_disabled":false,"rental_uris":{"android":"levelo://app?vid=35293f9d-ecc5-4090-ae0e-2e4ab9a73a16","ios":"levelo://app?vid=35293f9d-ecc5-4090-ae0e-2e4ab9a73a16"},"vehicle_type_id":"4","last_reported":1756261258,"current_range_meters":12800,"station_id":"ce4bhsh2rcd13ifvqi2g","pricing_plan_id":"cebpf4jnsgd1na2vs0mg"},{"bike_id":"777a8c83-aed8-4881-84b6-34465956e738","system_id":"levelo_inurba_marseille","lat":43.25772,"lon":5.41061,"is_reserved":false,"is_disabled":false,"rental_uris":{"android":"levelo://app?vid=777a8c83-aed8-4881-84b6-34465956e738","ios":"levelo://app?vid=777a8c83-aed8-4881-84b6-34465956e738"},"vehicle_type_id":"4","last_reported":1756261258,"current_range_meters":12800,"station_id":"","pricing_plan_id":"cebpf4jnsgd1na2vs0mg"},{"bike_id":"af744081-2681-4d1e-9525-a9843cca33d2","system_id":"levelo_inurba_marseille","lat":43.325263,"lon":5.364493,"is_reserved":false,"is_disabled":false,"rental_uris":{"android":"levelo://app?vid=af744081-2681-4d1e-9525-a9843cca33d2","ios":"levelo://app?vid=af744081-2681-4d1e-9525-a9843cca33d2"},"vehicle_type_id":"4","last_reported":1756261258,"current_range_meters":12800,"station_id":"","pricing_plan_id":"cebpf4jnsgd1na2vs0mg"},{"bike_id":"d6a0cdc4-c0c8-43c5-a1dc-7b3067a9fd31","system_id":"levelo_inurba_marseille","lat":43.27953,"lon":5.4103,"is_reserved":false,"is_disabled":false,"rental_uris":{"android":"levelo://app?vid=d6a0cdc4-c0c8-43c5-a1dc-7b3067a9fd31","ios":"levelo://app?vid=d6a0cdc4-c0c8-43c5-a1dc-7b3067a9fd31"},"vehicle_type_id":"4","last_reported":1756261258,"current_range_meters":13600,"station_id":"ce4bhnp2rcd13ifvqh0g","pricing_plan_id":"cebpf4jnsgd1na2vs0mg"},{"bike_id":"5bce688b-fc81-4596-8277-b66f54be87c1","system_id":"levelo_inurba_marseille","lat":43.33768,"lon":5.37438,"is_reserved":false,"is_disabled":false,"rental_uris":{"android":"levelo://app?vid=5bce688b-fc81-4596-8277-b66f54be87c1","ios":"levelo://app?vid=5bce688b-fc81-4596-8277-b66f54be87c1"},"vehicle_type_id":"4","last_reported":1756261258,"current_range_meters":13600,"station_id":"","pricing_plan_id":"cebpf4jnsgd1na2vs0mg"},{"bike_id":"fbf0e9b4-0244-4455-89e8-bb336b1646cf","system_id":"levelo_inurba_marseille","lat":43.23175,"lon":5.3996,"is_reserved":false,"is_disabled":false,"rental_uris":{"android":"levelo://app?vid=fbf0e9b4-0244-4455-89e8-bb336b1646cf","ios":"levelo://app?vid=fbf0e9b4-0244-4455-89e8-bb336b1646cf"},"vehicle_type_id":"4","last_reported":1756261258,"current_range_meters":13600,"station_id":"ce4bhn12rcd13ifvqgqg","pricing_plan_id":"cebpf4jnsgd1na2vs0mg"},{"bike_id":"503cade9-51c1-4e76-b53f-3ba4bc1efb57","system_id":"levelo_inurba_marseille","lat":43.26567,"lon":5.39021,"is_reserved":false,"is_disabled":false,"rental_uris":{"android":"levelo://app?vid=503cade9-51c1-4e76-b53f-3ba4bc1efb57","ios":"levelo://app?vid=503cade9-51c1-4e76-b53f-3ba4bc1efb57"},"vehicle_type_id":"4","last_reported":1756261258,"current_range_meters":13600,"station_id":"ce4bhe12rcd13ifvqf30","pricing_plan_id":"cebpf4jnsgd1na2vs0mg"},{"bike_id":"684fa901-ec61-438d-92cf-f534789a0a9e","system_id":"levelo_inurba_marseille","lat":43.24645,"lon":5.38185,"is_reserved":false,"is_disabled":false,"rental_uris":{"android":"levelo://app?vid=684fa901-ec61-438d-92cf-f534789a0a9e","ios":"levelo://app?vid=684fa901-ec61-438d-92cf-f534789a0a9e"},"vehicle_type_id":"4","last_reported":1756261258,"current_range_meters":14000,"station_id":"ce4bhih2rcd13ifvqfr0","pricing_plan_id":"cebpf4jnsgd1na2vs0mg"},{"bike_id":"a14f40cc-8e22-4e79-af47-b7910100959f","system_id":"levelo_inurba_marseille","lat":43.31071,"lon":5.3835,"is_reserved":false,"is_disabled":false,"rental_uris":{"android":"levelo://app?vid=a14f40cc-8e22-4e79-af47-b7910100959f","ios":"levelo://app?vid=a14f40cc-8e22-4e79-af47-b7910100959f"},"vehicle_type_id":"4","last_reported":1756261258,"current_range_meters":14000,"station_id":"ce4bgv92rcd13ifvqcr0","pricing_plan_id":"cebpf4jnsgd1na2vs0mg"},{"bike_id":"5687a27c-fc8d-4391-93ce-b691835cea92","system_id":"levelo_inurba_marseille","lat":43.30145,"lon":5.38081,"is_reserved":false,"is_disabled":false,"rental_uris":{"android":"levelo://app?vid=5687a27c-fc8d-4391-93ce-b691835cea92","ios":"levelo://app?vid=5687a27c-fc8d-4391-93ce-b691835cea92"},"vehicle_type_id":"4","last_reported":1756261258,"current_range_meters":14000,"station_id":"ce4bgjp2rcd13ifvqbh0","pricing_plan_id":"cebpf4jnsgd1na2vs0mg"},{"bike_id":"96cec4be-b413-4d93-bff0-6af55bac8e67","system_id":"levelo_inurba_marseille","lat":43.292782,"lon":5.368364,"is_reserved":false,"is_disabled":true,"rental_uris":{"android":"levelo://app?vid=96cec4be-b413-4d93-bff0-6af55bac8e67","ios":"levelo://app?vid=96cec4be-b413-4d93-bff0-6af55bac8e67"},"vehicle_type_id":"4","last_reported":1756261258,"current_range_meters":14000,"station_id":"ce4bhbp2rcd13ifvqesg","pricing_plan_id":"cebpf4jnsgd1na2vs0mg"},{"bike_id":"e8e75b32-f754-41b1-819b-d12e020e0388","system_id":"levelo_inurba_marseille","lat":43.292766,"lon":5.40148,"is_reserved":false,"is_disabled":false,"rental_uris":{"android":"levelo://app?vid=e8e75b32-f754-41b1-819b-d12e020e0388","ios":"levelo://app?vid=e8e75b32-f754-41b1-819b-d12e020e0388"},"vehicle_type_id":"4","last_reported":1756261258,"current_range_meters":14000,"station_id":"ce4bh312rcd13ifvqdk0","pricing_plan_id":"cebpf4jnsgd1na2vs0mg"},{"bike_id":"68478dcc-391e-4123-a5cb-f62408cce5d3","system_id":"levelo_inurba_marseille","lat":43.30156,"lon":5.39882,"is_reserved":false,"is_disabled":false,"rental_uris":{"android":"levelo://app?vid=68478dcc-391e-4123-a5cb-f62408cce5d3","ios":"levelo://app?vid=68478dcc-391e-4123-a5cb-f62408cce5d3"},"vehicle_type_id":"4","last_reported":1756261258,"current_range_meters":14000,"station_id":"ce4bh0h2rcd13ifvqd40","pricing_plan_id":"cebpf4jnsgd1na2vs0mg"},{"bike_id":"c29ff7db-6058-4e54-972d-21ca6fde6711","system_id":"levelo_inurba_marseille","lat":43.273714,"lon":5.362316,"is_reserved":false,"is_disabled":false,"rental_uris":{"android":"levelo://app?vid=c29ff7db-6058-4e54-972d-21ca6fde6711","ios":"levelo://app?vid=c29ff7db-6058-4e54-972d-21ca6fde6711"},"vehicle_type_id":"4","last_reported":1756261258,"current_range_meters":14400,"station_id":"ce4bhbh2rcd13ifvqeo0","pricing_plan_id":"cebpf4jnsgd1na2vs0mg"},{"bike_id":"3ac95f56-21bb-43b7-af92-6f798e162ba4","system_id":"levelo_inurba_marseille","lat":43.28346,"lon":5.38117,"is_reserved":false,"is_disabled":false,"rental_uris":{"android":"levelo://app?vid=3ac95f56-21bb-43b7-af92-6f798e162ba4","ios":"levelo://app?vid=3ac95f56-21bb-43b7-af92-6f798e162ba4"},"vehicle_type_id":"4","last_reported":1756261258,"current_range_meters":14400,"station_id":"ce4bh412rcd13ifvqdr0","pricing_plan_id":"cebpf4jnsgd1na2vs0mg"},{"bike_id":"444185a1-99b2-4724-a588-1f691746c053","system_id":"levelo_inurba_marseille","lat":43.270721,"lon":5.422743,"is_reserved":false,"is_disabled":false,"rental_uris":{"android":"levelo://app?vid=444185a1-99b2-4724-a588-1f691746c053","ios":"levelo://app?vid=444185a1-99b2-4724-a588-1f691746c053"},"vehicle_type_id":"4","last_reported":1756261258,"current_range_meters":14400,"station_id":"ce4bhk92rcd13ifvqgb0","pricing_plan_id":"cebpf4jnsgd1na2vs0mg"},{"bike_id":"853a16b6-2446-401b-81c3-820e1ac2b4d5","system_id":"levelo_inurba_marseille","lat":43.302588,"lon":5.400565,"is_reserved":false,"is_disabled":false,"rental_uris":{"android":"levelo://app?vid=853a16b6-2446-401b-81c3-820e1ac2b4d5","ios":"levelo://app?vid=853a16b6-2446-401b-81c3-820e1ac2b4d5"},"vehicle_type_id":"4","last_reported":1756261258,"current_range_meters":14400,"station_id":"ce4bgvh2rcd13ifvqcs0","pricing_plan_id":"cebpf4jnsgd1na2vs0mg"},{"bike_id":"92b4870c-dbed-4330-9be5-cb1f91be9ff0","system_id":"levelo_inurba_marseille","lat":43.31335,"lon":5.39689,"is_reserved":false,"is_disabled":false,"rental_uris":{"android":"levelo://app?vid=92b4870c-dbed-4330-9be5-cb1f91be9ff0","ios":"levelo://app?vid=92b4870c-dbed-4330-9be5-cb1f91be9ff0"},"vehicle_type_id":"4","last_reported":1756261258,"current_range_meters":14400,"station_id":"ce4bgvp2rcd13ifvqcu0","pricing_plan_id":"cebpf4jnsgd1na2vs0mg"},{"bike_id":"b79f626f-4cce-45e0-9b7e-79f3f3a6033f","system_id":"levelo_inurba_marseille","lat":43.246337,"lon":5.431451,"is_reserved":false,"is_disabled":false,"rental_uris":{"android":"levelo://app?vid=b79f626f-4cce-45e0-9b7e-79f3f3a6033f","ios":"levelo://app?vid=b79f626f-4cce-45e0-9b7e-79f3f3a6033f"},"vehicle_type_id":"4","last_reported":1756261258,"current_range_meters":14800,"station_id":"st_d2m6c4gdas8pm72e190g","pricing_plan_id":"cebpf4jnsgd1na2vs0mg"},{"bike_id":"b3343c33-41a0-46c5-bc81-b2b62fd22fa5","system_id":"levelo_inurba_marseille","lat":43.28561,"lon":5.39492,"is_reserved":false,"is_disabled":false,"rental_uris":{"android":"levelo://app?vid=b3343c33-41a0-46c5-bc81-b2b62fd22fa5","ios":"levelo://app?vid=b3343c33-41a0-46c5-bc81-b2b62fd22fa5"},"vehicle_type_id":"4","last_reported":1756261258,"current_range_meters":14800,"station_id":"ce4bh292rcd13ifvqdg0","pricing_plan_id":"cebpf4jnsgd1na2vs0mg"},{"bike_id":"e71745a0-e1dd-46b2-b178-c77ff9f67425","system_id":"levelo_inurba_marseille","lat":43.231855,"lon":5.399806,"is_reserved":false,"is_disabled":false,"rental_uris":{"android":"levelo://app?vid=e71745a0-e1dd-46b2-b178-c77ff9f67425","ios":"levelo://app?vid=e71745a0-e1dd-46b2-b178-c77ff9f67425"},"vehicle_type_id":"4","last_reported":1756261258,"current_range_meters":14800,"station_id":"ce4bhn12rcd13ifvqgqg","pricing_plan_id":"cebpf4jnsgd1na2vs0mg"},{"bike_id":"22de714c-1384-4949-a370-33fb1db46187","system_id":"levelo_inurba_marseille","lat":43.23156,"lon":5.43724,"is_reserved":false,"is_disabled":false,"rental_uris":{"android":"levelo://app?vid=22de714c-1384-4949-a370-33fb1db46187","ios":"levelo://app?vid=22de714c-1384-4949-a370-33fb1db46187"},"vehicle_type_id":"4","last_reported":1756261258,"current_range_meters":14400,"station_id":"ce4bhmp2rcd13ifvqgog","pricing_plan_id":"cebpf4jnsgd1na2vs0mg"},{"bike_id":"16ffd5c2-31ae-43e4-9d4b-a32211f13845","system_id":"levelo_inurba_marseille","lat":43.314922,"lon":5.372952,"is_reserved":false,"is_disabled":false,"rental_uris":{"android":"levelo://app?vid=16ffd5c2-31ae-43e4-9d4b-a32211f13845","ios":"levelo://app?vid=16ffd5c2-31ae-43e4-9d4b-a32211f13845"},"vehicle_type_id":"4","last_reported":1756261258,"current_range_meters":15200,"station_id":"ce4bgt12rcd13ifvqcd0","pricing_plan_id":"cebpf4jnsgd1na2vs0mg"},{"bike_id":"b92b7418-aac7-42e0-beab-fc709969b12d","system_id":"levelo_inurba_marseille","lat":43.2512,"lon":5.40311,"is_reserved":false,"is_disabled":false,"rental_uris":{"android":"levelo://app?vid=b92b7418-aac7-42e0-beab-fc709969b12d","ios":"levelo://app?vid=b92b7418-aac7-42e0-beab-fc709969b12d"},"vehicle_type_id":"4","last_reported":1756261258,"current_range_meters":15200,"station_id":"ce4bhlh2rcd13ifvqgig","pricing_plan_id":"cebpf4jnsgd1na2vs0mg"},{"bike_id":"7a219051-7efb-4522-96ba-d55f32fa5f09","system_id":"levelo_inurba_marseille","lat":43.23162,"lon":5.43716,"is_reserved":false,"is_disabled":false,"rental_uris":{"android":"levelo://app?vid=7a219051-7efb-4522-96ba-d55f32fa5f09","ios":"levelo://app?vid=7a219051-7efb-4522-96ba-d55f32fa5f09"},"vehicle_type_id":"4","last_reported":1756261258,"current_range_meters":15200,"station_id":"ce4bhmp2rcd13ifvqgog","pricing_plan_id":"cebpf4jnsgd1na2vs0mg"},{"bike_id":"af732ca8-2cea-448a-9928-59e03d12656f","system_id":"levelo_inurba_marseille","lat":43.33478,"lon":5.35997,"is_reserved":false,"is_disabled":false,"rental_uris":{"android":"levelo://app?vid=af732ca8-2cea-448a-9928-59e03d12656f","ios":"levelo://app?vid=af732ca8-2cea-448a-9928-59e03d12656f"},"vehicle_type_id":"4","last_reported":1756261258,"current_range_meters":15200,"station_id":"","pricing_plan_id":"cebpf4jnsgd1na2vs0mg"},{"bike_id":"d262369f-4201-4652-91ef-8adb9d2a4ede","system_id":"levelo_inurba_marseille","lat":43.24094,"lon":5.37748,"is_reserved":false,"is_disabled":false,"rental_uris":{"android":"levelo://app?vid=d262369f-4201-4652-91ef-8adb9d2a4ede","ios":"levelo://app?vid=d262369f-4201-4652-91ef-8adb9d2a4ede"},"vehicle_type_id":"4","last_reported":1756261258,"current_range_meters":15200,"station_id":"ce4bhnp2rcd13ifvqgvg","pricing_plan_id":"cebpf4jnsgd1na2vs0mg"},{"bike_id":"bd3ad3c1-6706-40fc-8c2f-0af6b414c661","system_id":"levelo_inurba_marseille","lat":43.28507,"lon":5.38569,"is_reserved":false,"is_disabled":false,"rental_uris":{"android":"levelo://app?vid=bd3ad3c1-6706-40fc-8c2f-0af6b414c661","ios":"levelo://app?vid=bd3ad3c1-6706-40fc-8c2f-0af6b414c661"},"vehicle_type_id":"4","last_reported":1756261258,"current_range_meters":15200,"station_id":"ce4bh8p2rcd13ifvqeb0","pricing_plan_id":"cebpf4jnsgd1na2vs0mg"},{"bike_id":"fe181338-fb88-4a8c-9d9a-8641023dd72c","system_id":"levelo_inurba_marseille","lat":43.29274,"lon":5.40118,"is_reserved":false,"is_disabled":false,"rental_uris":{"android":"levelo://app?vid=fe181338-fb88-4a8c-9d9a-8641023dd72c","ios":"levelo://app?vid=fe181338-fb88-4a8c-9d9a-8641023dd72c"},"vehicle_type_id":"4","last_reported":1756261258,"current_range_meters":16000,"station_id":"ce4bh312rcd13ifvqdk0","pricing_plan_id":"cebpf4jnsgd1na2vs0mg"},{"bike_id":"27f62945-b0f2-4483-b6b2-874ab1a270e9","system_id":"levelo_inurba_marseille","lat":43.30145,"lon":5.38779,"is_reserved":false,"is_disabled":false,"rental_uris":{"android":"levelo://app?vid=27f62945-b0f2-4483-b6b2-874ab1a270e9","ios":"levelo://app?vid=27f62945-b0f2-4483-b6b2-874ab1a270e9"},"vehicle_type_id":"4","last_reported":1756261258,"current_range_meters":16000,"station_id":"ce4bghh2rcd13ifvqb60","pricing_plan_id":"cebpf4jnsgd1na2vs0mg"},{"bike_id":"973f3014-bd4c-4319-a79d-280716aa09eb","system_id":"levelo_inurba_marseille","lat":43.31492,"lon":5.3729,"is_reserved":false,"is_disabled":false,"rental_uris":{"android":"levelo://app?vid=973f3014-bd4c-4319-a79d-280716aa09eb","ios":"levelo://app?vid=973f3014-bd4c-4319-a79d-280716aa09eb"},"vehicle_type_id":"4","last_reported":1756261258,"current_range_meters":16000,"station_id":"ce4bgt12rcd13ifvqcd0","pricing_plan_id":"cebpf4jnsgd1na2vs0mg"},{"bike_id":"61d57af3-4d0f-4789-bb77-f21e0badc633","system_id":"levelo_inurba_marseille","lat":43.31112,"lon":5.37763,"is_reserved":false,"is_disabled":false,"rental_uris":{"android":"levelo://app?vid=61d57af3-4d0f-4789-bb77-f21e0badc633","ios":"levelo://app?vid=61d57af3-4d0f-4789-bb77-f21e0badc633"},"vehicle_type_id":"4","last_reported":1756261258,"current_range_meters":16000,"station_id":"ce4bgt92rcd13ifvqcg0","pricing_plan_id":"cebpf4jnsgd1na2vs0mg"},{"bike_id":"0306ba73-3d0f-4523-9d11-9a4554b2d8ff","system_id":"levelo_inurba_marseille","lat":43.21204,"lon":5.35068,"is_reserved":false,"is_disabled":false,"rental_uris":{"android":"levelo://app?vid=0306ba73-3d0f-4523-9d11-9a4554b2d8ff","ios":"levelo://app?vid=0306ba73-3d0f-4523-9d11-9a4554b2d8ff"},"vehicle_type_id":"4","last_reported":1756261258,"current_range_meters":16000,"station_id":"st_cvj6sg6p6f1abm77japg","pricing_plan_id":"cebpf4jnsgd1na2vs0mg"},{"bike_id":"ff1bb8b5-d1e3-4c05-ab59-ddf6bb569c56","system_id":"levelo_inurba_marseille","lat":43.27572,"lon":5.38411,"is_reserved":false,"is_disabled":false,"rental_uris":{"android":"levelo://app?vid=ff1bb8b5-d1e3-4c05-ab59-ddf6bb569c56","ios":"levelo://app?vid=ff1bb8b5-d1e3-4c05-ab59-ddf6bb569c56"},"vehicle_type_id":"4","last_reported":1756261258,"current_range_meters":16000,"station_id":"ce4bhh92rcd13ifvqfi0","pricing_plan_id":"cebpf4jnsgd1na2vs0mg"},{"bike_id":"148b3563-fa76-4398-9867-f2cca510a852","system_id":"levelo_inurba_marseille","lat":43.28007,"lon":5.41672,"is_reserved":false,"is_disabled":false,"rental_uris":{"android":"levelo://app?vid=148b3563-fa76-4398-9867-f2cca510a852","ios":"levelo://app?vid=148b3563-fa76-4398-9867-f2cca510a852"},"vehicle_type_id":"4","last_reported":1756261258,"current_range_meters":16000,"station_id":"ce4bho12rcd13ifvqh1g","pricing_plan_id":"cebpf4jnsgd1na2vs0mg"},{"bike_id":"a7a53c19-66aa-4d2e-85c1-ae889e6d2638","system_id":"levelo_inurba_marseille","lat":43.30808,"lon":5.43541,"is_reserved":false,"is_disabled":false,"rental_uris":{"android":"levelo://app?vid=a7a53c19-66aa-4d2e-85c1-ae889e6d2638","ios":"levelo://app?vid=a7a53c19-66aa-4d2e-85c1-ae889e6d2638"},"vehicle_type_id":"4","last_reported":1756261258,"current_range_meters":16000,"station_id":"ce4bhph2rcd13ifvqheg","pricing_plan_id":"cebpf4jnsgd1na2vs0mg"},{"bike_id":"4e54e4fd-bbbf-4d68-a084-2926b89872a0","system_id":"levelo_inurba_marseille","lat":43.291884,"lon":5.393201,"is_reserved":false,"is_disabled":false,"rental_uris":{"android":"levelo://app?vid=4e54e4fd-bbbf-4d68-a084-2926b89872a0","ios":"levelo://app?vid=4e54e4fd-bbbf-4d68-a084-2926b89872a0"},"vehicle_type_id":"4","last_reported":1756261258,"current_range_meters":16000,"station_id":"ce4bh192rcd13ifvqdd0","pricing_plan_id":"cebpf4jnsgd1na2vs0mg"},{"bike_id":"f01a8f5a-0f24-412e-b0ec-90c80d131e83","system_id":"levelo_inurba_marseille","lat":43.24621,"lon":5.40878,"is_reserved":false,"is_disabled":false,"rental_uris":{"android":"levelo://app?vid=f01a8f5a-0f24-412e-b0ec-90c80d131e83","ios":"levelo://app?vid=f01a8f5a-0f24-412e-b0ec-90c80d131e83"},"vehicle_type_id":"4","last_reported":1756261258,"current_range_meters":16400,"station_id":"","pricing_plan_id":"cebpf4jnsgd1na2vs0mg"},{"bike_id":"b5ae0016-67e1-4c37-91cb-4d986fbc09a4","system_id":"levelo_inurba_marseille","lat":43.246259,"lon":5.431444,"is_reserved":false,"is_disabled":false,"rental_uris":{"android":"levelo://app?vid=b5ae0016-67e1-4c37-91cb-4d986fbc09a4","ios":"levelo://app?vid=b5ae0016-67e1-4c37-91cb-4d986fbc09a4"},"vehicle_type_id":"4","last_reported":1756261258,"current_range_meters":16400,"station_id":"st_d2m6c4gdas8pm72e190g","pricing_plan_id":"cebpf4jnsgd1na2vs0mg"},{"bike_id":"e5eabf25-4e1c-476e-b130-9f83cdcfc80c","system_id":"levelo_inurba_marseille","lat":43.298033,"lon":5.417076,"is_reserved":false,"is_disabled":false,"rental_uris":{"android":"levelo://app?vid=e5eabf25-4e1c-476e-b130-9f83cdcfc80c","ios":"levelo://app?vid=e5eabf25-4e1c-476e-b130-9f83cdcfc80c"},"vehicle_type_id":"4","last_reported":1756261258,"current_range_meters":16400,"station_id":"","pricing_plan_id":"cebpf4jnsgd1na2vs0mg"},{"bike_id":"b5133710-52a6-42c6-b487-40f265b37cba","system_id":"levelo_inurba_marseille","lat":43.30814,"lon":5.43551,"is_reserved":false,"is_disabled":false,"rental_uris":{"android":"levelo://app?vid=b5133710-52a6-42c6-b487-40f265b37cba","ios":"levelo://app?vid=b5133710-52a6-42c6-b487-40f265b37cba"},"vehicle_type_id":"4","last_reported":1756261258,"current_range_meters":16400,"station_id":"ce4bhph2rcd13ifvqheg","pricing_plan_id":"cebpf4jnsgd1na2vs0mg"},{"bike_id":"f770de0b-2599-4f2d-8ce3-8a9e24116e0a","system_id":"levelo_inurba_marseille","lat":43.250884,"lon":5.395147,"is_reserved":false,"is_disabled":false,"rental_uris":{"android":"levelo://app?vid=f770de0b-2599-4f2d-8ce3-8a9e24116e0a","ios":"levelo://app?vid=f770de0b-2599-4f2d-8ce3-8a9e24116e0a"},"vehicle_type_id":"4","last_reported":1756261258,"current_range_meters":16400,"station_id":"ce4bhm12rcd13ifvqgkg","pricing_plan_id":"cebpf4jnsgd1na2vs0mg"},{"bike_id":"1dec5f96-d953-4203-b13d-0ce3f02e61a0","system_id":"levelo_inurba_marseille","lat":43.27081,"lon":5.42274,"is_reserved":false,"is_disabled":false,"rental_uris":{"android":"levelo://app?vid=1dec5f96-d953-4203-b13d-0ce3f02e61a0","ios":"levelo://app?vid=1dec5f96-d953-4203-b13d-0ce3f02e61a0"},"vehicle_type_id":"4","last_reported":1756261258,"current_range_meters":16400,"station_id":"ce4bhk92rcd13ifvqgb0","pricing_plan_id":"cebpf4jnsgd1na2vs0mg"},{"bike_id":"968096ff-cdb0-4c7f-af2c-bdcd971a78ce","system_id":"levelo_inurba_marseille","lat":43.321078,"lon":5.367701,"is_reserved":false,"is_disabled":false,"rental_uris":{"android":"levelo://app?vid=968096ff-cdb0-4c7f-af2c-bdcd971a78ce","ios":"levelo://app?vid=968096ff-cdb0-4c7f-af2c-bdcd971a78ce"},"vehicle_type_id":"4","last_reported":1756261258,"current_range_meters":16400,"station_id":"ce4bhrh2rcd13ifvqhug","pricing_plan_id":"cebpf4jnsgd1na2vs0mg"},{"bike_id":"93d93ad3-c54c-4001-ad56-abd61019181f","system_id":"levelo_inurba_marseille","lat":43.31068,"lon":5.3835,"is_reserved":false,"is_disabled":false,"rental_uris":{"android":"levelo://app?vid=93d93ad3-c54c-4001-ad56-abd61019181f","ios":"levelo://app?vid=93d93ad3-c54c-4001-ad56-abd61019181f"},"vehicle_type_id":"4","last_reported":1756261258,"current_range_meters":16400,"station_id":"ce4bgv92rcd13ifvqcr0","pricing_plan_id":"cebpf4jnsgd1na2vs0mg"},{"bike_id":"9d2c80df-2423-4f32-b331-72fea580046d","system_id":"levelo_inurba_marseille","lat":43.302531,"lon":5.400609,"is_reserved":false,"is_disabled":false,"rental_uris":{"android":"levelo://app?vid=9d2c80df-2423-4f32-b331-72fea580046d","ios":"levelo://app?vid=9d2c80df-2423-4f32-b331-72fea580046d"},"vehicle_type_id":"4","last_reported":1756261258,"current_range_meters":16400,"station_id":"ce4bgvh2rcd13ifvqcs0","pricing_plan_id":"cebpf4jnsgd1na2vs0mg"},{"bike_id":"2e131540-b2e9-4376-9854-eb0061cc45b5","system_id":"levelo_inurba_marseille","lat":43.31072,"lon":5.38352,"is_reserved":false,"is_disabled":false,"rental_uris":{"android":"levelo://app?vid=2e131540-b2e9-4376-9854-eb0061cc45b5","ios":"levelo://app?vid=2e131540-b2e9-4376-9854-eb0061cc45b5"},"vehicle_type_id":"4","last_reported":1756261258,"current_range_meters":16400,"station_id":"ce4bgv92rcd13ifvqcr0","pricing_plan_id":"cebpf4jnsgd1na2vs0mg"},{"bike_id":"f3a5cd40-5bb7-43ee-b794-3db1f6a09aa3","system_id":"levelo_inurba_marseille","lat":43.31085,"lon":5.4243,"is_reserved":false,"is_disabled":false,"rental_uris":{"android":"levelo://app?vid=f3a5cd40-5bb7-43ee-b794-3db1f6a09aa3","ios":"levelo://app?vid=f3a5cd40-5bb7-43ee-b794-3db1f6a09aa3"},"vehicle_type_id":"4","last_reported":1756261258,"current_range_meters":16400,"station_id":"ce4bhp92rcd13ifvqhag","pricing_plan_id":"cebpf4jnsgd1na2vs0mg"},{"bike_id":"3ce18fbc-ec38-4f9e-9dd9-9a3dee5c503d","system_id":"levelo_inurba_marseille","lat":43.26024,"lon":5.37556,"is_reserved":false,"is_disabled":true,"rental_uris":{"android":"levelo://app?vid=3ce18fbc-ec38-4f9e-9dd9-9a3dee5c503d","ios":"levelo://app?vid=3ce18fbc-ec38-4f9e-9dd9-9a3dee5c503d"},"vehicle_type_id":"4","last_reported":1756261258,"current_range_meters":16400,"station_id":"ce4bhgh2rcd13ifvqfa0","pricing_plan_id":"cebpf4jnsgd1na2vs0mg"},{"bike_id":"3dff11d5-3872-4ffe-8cce-b5631d6c6058","system_id":"levelo_inurba_marseille","lat":43.32675,"lon":5.39182,"is_reserved":false,"is_disabled":false,"rental_uris":{"android":"levelo://app?vid=3dff11d5-3872-4ffe-8cce-b5631d6c6058","ios":"levelo://app?vid=3dff11d5-3872-4ffe-8cce-b5631d6c6058"},"vehicle_type_id":"4","last_reported":1756261258,"current_range_meters":16400,"station_id":"","pricing_plan_id":"cebpf4jnsgd1na2vs0mg"},{"bike_id":"3a5ddd8f-25c9-4890-99a6-948cb53df8e3","system_id":"levelo_inurba_marseille","lat":43.27072,"lon":5.4228,"is_reserved":false,"is_disabled":false,"rental_uris":{"android":"levelo://app?vid=3a5ddd8f-25c9-4890-99a6-948cb53df8e3","ios":"levelo://app?vid=3a5ddd8f-25c9-4890-99a6-948cb53df8e3"},"vehicle_type_id":"4","last_reported":1756261258,"current_range_meters":16400,"station_id":"ce4bhk92rcd13ifvqgb0","pricing_plan_id":"cebpf4jnsgd1na2vs0mg"},{"bike_id":"cb567a16-f56a-4bcd-9c16-b35cef4fac8f","system_id":"levelo_inurba_marseille","lat":43.298787,"lon":5.389126,"is_reserved":false,"is_disabled":true,"rental_uris":{"android":"levelo://app?vid=cb567a16-f56a-4bcd-9c16-b35cef4fac8f","ios":"levelo://app?vid=cb567a16-f56a-4bcd-9c16-b35cef4fac8f"},"vehicle_type_id":"4","last_reported":1756261258,"current_range_meters":16400,"station_id":"ce4bh392rcd13ifvqdl0","pricing_plan_id":"cebpf4jnsgd1na2vs0mg"},{"bike_id":"4d28c8ea-480e-498e-8ec9-be6bf3a3fe48","system_id":"levelo_inurba_marseille","lat":43.28414,"lon":5.37509,"is_reserved":false,"is_disabled":false,"rental_uris":{"android":"levelo://app?vid=4d28c8ea-480e-498e-8ec9-be6bf3a3fe48","ios":"levelo://app?vid=4d28c8ea-480e-498e-8ec9-be6bf3a3fe48"},"vehicle_type_id":"4","last_reported":1756261258,"current_range_meters":16400,"station_id":"ce4bh412rcd13ifvqds0","pricing_plan_id":"cebpf4jnsgd1na2vs0mg"},{"bike_id":"f40368ce-ed3c-4c8e-9dae-ede8b2d9e7a1","system_id":"levelo_inurba_marseille","lat":43.29982,"lon":5.400402,"is_reserved":false,"is_disabled":false,"rental_uris":{"android":"levelo://app?vid=f40368ce-ed3c-4c8e-9dae-ede8b2d9e7a1","ios":"levelo://app?vid=f40368ce-ed3c-4c8e-9dae-ede8b2d9e7a1"},"vehicle_type_id":"4","last_reported":1756261258,"current_range_meters":16400,"station_id":"","pricing_plan_id":"cebpf4jnsgd1na2vs0mg"},{"bike_id":"e4b35d5a-908b-4b97-8341-4396d77099da","system_id":"levelo_inurba_marseille","lat":43.27382,"lon":5.36256,"is_reserved":false,"is_disabled":true,"rental_uris":{"android":"levelo://app?vid=e4b35d5a-908b-4b97-8341-4396d77099da","ios":"levelo://app?vid=e4b35d5a-908b-4b97-8341-4396d77099da"},"vehicle_type_id":"4","last_reported":1756261258,"current_range_meters":16400,"station_id":"ce4bhbh2rcd13ifvqeo0","pricing_plan_id":"cebpf4jnsgd1na2vs0mg"},{"bike_id":"9cee6ac4-b323-4dc3-9e81-cfd228e75a7f","system_id":"levelo_inurba_marseille","lat":43.3114,"lon":5.39471,"is_reserved":false,"is_disabled":false,"rental_uris":{"android":"levelo://app?vid=9cee6ac4-b323-4dc3-9e81-cfd228e75a7f","ios":"levelo://app?vid=9cee6ac4-b323-4dc3-9e81-cfd228e75a7f"},"vehicle_type_id":"4","last_reported":1756261258,"current_range_meters":16800,"station_id":"","pricing_plan_id":"cebpf4jnsgd1na2vs0mg"},{"bike_id":"685105d1-bcda-4899-9d64-d94adf158a64","system_id":"levelo_inurba_marseille","lat":43.314676,"lon":5.373608,"is_reserved":false,"is_disabled":true,"rental_uris":{"android":"levelo://app?vid=685105d1-bcda-4899-9d64-d94adf158a64","ios":"levelo://app?vid=685105d1-bcda-4899-9d64-d94adf158a64"},"vehicle_type_id":"4","last_reported":1756261258,"current_range_meters":16800,"station_id":"","pricing_plan_id":"cebpf4jnsgd1na2vs0mg"},{"bike_id":"1c0a755a-395e-4158-836e-53d5912b37a7","system_id":"levelo_inurba_marseille","lat":43.24678,"lon":5.3815,"is_reserved":false,"is_disabled":false,"rental_uris":{"android":"levelo://app?vid=1c0a755a-395e-4158-836e-53d5912b37a7","ios":"levelo://app?vid=1c0a755a-395e-4158-836e-53d5912b37a7"},"vehicle_type_id":"4","last_reported":1756261258,"current_range_meters":16800,"station_id":"ce4bhih2rcd13ifvqfr0","pricing_plan_id":"cebpf4jnsgd1na2vs0mg"},{"bike_id":"05333f1f-8cc0-4dc9-bbd8-a1f0e18ceb88","system_id":"levelo_inurba_marseille","lat":43.262751,"lon":5.399058,"is_reserved":false,"is_disabled":false,"rental_uris":{"android":"levelo://app?vid=05333f1f-8cc0-4dc9-bbd8-a1f0e18ceb88","ios":"levelo://app?vid=05333f1f-8cc0-4dc9-bbd8-a1f0e18ceb88"},"vehicle_type_id":"4","last_reported":1756261258,"current_range_meters":16800,"station_id":"","pricing_plan_id":"cebpf4jnsgd1na2vs0mg"},{"bike_id":"2aa422b5-63bb-4986-9bf9-964ffd1709ab","system_id":"levelo_inurba_marseille","lat":43.24548,"lon":5.39538,"is_reserved":false,"is_disabled":false,"rental_uris":{"android":"levelo://app?vid=2aa422b5-63bb-4986-9bf9-964ffd1709ab","ios":"levelo://app?vid=2aa422b5-63bb-4986-9bf9-964ffd1709ab"},"vehicle_type_id":"4","last_reported":1756261258,"current_range_meters":16800,"station_id":"ce4bhlp2rcd13ifvqgjg","pricing_plan_id":"cebpf4jnsgd1na2vs0mg"},{"bike_id":"71136ea1-3aaf-4521-8084-554abe261412","system_id":"levelo_inurba_marseille","lat":43.303037,"lon":5.369059,"is_reserved":false,"is_disabled":true,"rental_uris":{"android":"levelo://app?vid=71136ea1-3aaf-4521-8084-554abe261412","ios":"levelo://app?vid=71136ea1-3aaf-4521-8084-554abe261412"},"vehicle_type_id":"4","last_reported":1756261258,"current_range_meters":17200,"station_id":"","pricing_plan_id":"cebpf4jnsgd1na2vs0mg"},{"bike_id":"95f848b0-16a6-4e4a-9b12-04276a2c6679","system_id":"levelo_inurba_marseille","lat":43.2925,"lon":5.40912,"is_reserved":false,"is_disabled":true,"rental_uris":{"android":"levelo://app?vid=95f848b0-16a6-4e4a-9b12-04276a2c6679","ios":"levelo://app?vid=95f848b0-16a6-4e4a-9b12-04276a2c6679"},"vehicle_type_id":"4","last_reported":1756261258,"current_range_meters":17200,"station_id":"ce4bh192rcd13ifvqdc0","pricing_plan_id":"cebpf4jnsgd1na2vs0mg"},{"bike_id":"f67c8e5e-7af8-4847-a4ce-1e12088b4291","system_id":"levelo_inurba_marseille","lat":43.325237,"lon":5.368582,"is_reserved":false,"is_disabled":false,"rental_uris":{"android":"levelo://app?vid=f67c8e5e-7af8-4847-a4ce-1e12088b4291","ios":"levelo://app?vid=f67c8e5e-7af8-4847-a4ce-1e12088b4291"},"vehicle_type_id":"4","last_reported":1756261258,"current_range_meters":17200,"station_id":"","pricing_plan_id":"cebpf4jnsgd1na2vs0mg"},{"bike_id":"9e748692-5855-43ee-aa5c-10f2fc5f505a","system_id":"levelo_inurba_marseille","lat":43.31113,"lon":5.37755,"is_reserved":false,"is_disabled":false,"rental_uris":{"android":"levelo://app?vid=9e748692-5855-43ee-aa5c-10f2fc5f505a","ios":"levelo://app?vid=9e748692-5855-43ee-aa5c-10f2fc5f505a"},"vehicle_type_id":"4","last_reported":1756261258,"current_range_meters":17200,"station_id":"ce4bgt92rcd13ifvqcg0","pricing_plan_id":"cebpf4jnsgd1na2vs0mg"},{"bike_id":"3f2116d9-8d47-4362-8585-93d27bf7fe84","system_id":"levelo_inurba_marseille","lat":43.26573,"lon":5.39058,"is_reserved":false,"is_disabled":false,"rental_uris":{"android":"levelo://app?vid=3f2116d9-8d47-4362-8585-93d27bf7fe84","ios":"levelo://app?vid=3f2116d9-8d47-4362-8585-93d27bf7fe84"},"vehicle_type_id":"4","last_reported":1756261258,"current_range_meters":17200,"station_id":"ce4bhe12rcd13ifvqf30","pricing_plan_id":"cebpf4jnsgd1na2vs0mg"},{"bike_id":"f6ec731b-0cea-4609-b119-496e0174f9a5","system_id":"levelo_inurba_marseille","lat":43.28041,"lon":5.36947,"is_reserved":false,"is_disabled":false,"rental_uris":{"android":"levelo://app?vid=f6ec731b-0cea-4609-b119-496e0174f9a5","ios":"levelo://app?vid=f6ec731b-0cea-4609-b119-496e0174f9a5"},"vehicle_type_id":"4","last_reported":1756261258,"current_range_meters":16800,"station_id":"ce4bha12rcd13ifvqef0","pricing_plan_id":"cebpf4jnsgd1na2vs0mg"},{"bike_id":"14f2b864-cea9-45e8-a4b9-eb9637fd7d14","system_id":"levelo_inurba_marseille","lat":43.29072,"lon":5.3717,"is_reserved":false,"is_disabled":true,"rental_uris":{"android":"levelo://app?vid=14f2b864-cea9-45e8-a4b9-eb9637fd7d14","ios":"levelo://app?vid=14f2b864-cea9-45e8-a4b9-eb9637fd7d14"},"vehicle_type_id":"4","last_reported":1756261258,"current_range_meters":17200,"station_id":"ce4bh5p2rcd13ifvqe4g","pricing_plan_id":"cebpf4jnsgd1na2vs0mg"},{"bike_id":"db7d3d83-f39a-4469-8445-29697e69fec4","system_id":"levelo_inurba_marseille","lat":43.3107,"lon":5.40216,"is_reserved":false,"is_disabled":false,"rental_uris":{"android":"levelo://app?vid=db7d3d83-f39a-4469-8445-29697e69fec4","ios":"levelo://app?vid=db7d3d83-f39a-4469-8445-29697e69fec4"},"vehicle_type_id":"4","last_reported":1756261258,"current_range_meters":17200,"station_id":"","pricing_plan_id":"cebpf4jnsgd1na2vs0mg"},{"bike_id":"5c26a54e-1e97-4ad3-a16d-614ad930b130","system_id":"levelo_inurba_marseille","lat":43.32112,"lon":5.36769,"is_reserved":false,"is_disabled":false,"rental_uris":{"android":"levelo://app?vid=5c26a54e-1e97-4ad3-a16d-614ad930b130","ios":"levelo://app?vid=5c26a54e-1e97-4ad3-a16d-614ad930b130"},"vehicle_type_id":"4","last_reported":1756261258,"current_range_meters":17600,"station_id":"ce4bhrh2rcd13ifvqhug","pricing_plan_id":"cebpf4jnsgd1na2vs0mg"},{"bike_id":"ca1f8c62-27dc-4b7e-8f0e-b3651a1fe9c5","system_id":"levelo_inurba_marseille","lat":43.311044,"lon":5.377766,"is_reserved":false,"is_disabled":false,"rental_uris":{"android":"levelo://app?vid=ca1f8c62-27dc-4b7e-8f0e-b3651a1fe9c5","ios":"levelo://app?vid=ca1f8c62-27dc-4b7e-8f0e-b3651a1fe9c5"},"vehicle_type_id":"4","last_reported":1756261258,"current_range_meters":17600,"station_id":"ce4bgt92rcd13ifvqcg0","pricing_plan_id":"cebpf4jnsgd1na2vs0mg"},{"bike_id":"fc33c77b-a9d9-4a1b-847c-adcfbe10f61e","system_id":"levelo_inurba_marseille","lat":43.24693,"lon":5.38161,"is_reserved":false,"is_disabled":false,"rental_uris":{"android":"levelo://app?vid=fc33c77b-a9d9-4a1b-847c-adcfbe10f61e","ios":"levelo://app?vid=fc33c77b-a9d9-4a1b-847c-adcfbe10f61e"},"vehicle_type_id":"4","last_reported":1756261258,"current_range_meters":17600,"station_id":"ce4bhih2rcd13ifvqfr0","pricing_plan_id":"cebpf4jnsgd1na2vs0mg"},{"bike_id":"76931a50-f6ce-4372-9db5-3156eb781040","system_id":"levelo_inurba_marseille","lat":43.30906,"lon":5.39649,"is_reserved":false,"is_disabled":false,"rental_uris":{"android":"levelo://app?vid=76931a50-f6ce-4372-9db5-3156eb781040","ios":"levelo://app?vid=76931a50-f6ce-4372-9db5-3156eb781040"},"vehicle_type_id":"4","last_reported":1756261258,"current_range_meters":17600,"station_id":"ce4bh012rcd13ifvqcv0","pricing_plan_id":"cebpf4jnsgd1na2vs0mg"},{"bike_id":"a9d83b21-9821-4029-bb59-40c830188146","system_id":"levelo_inurba_marseille","lat":43.323758,"lon":5.367557,"is_reserved":false,"is_disabled":false,"rental_uris":{"android":"levelo://app?vid=a9d83b21-9821-4029-bb59-40c830188146","ios":"levelo://app?vid=a9d83b21-9821-4029-bb59-40c830188146"},"vehicle_type_id":"4","last_reported":1756261258,"current_range_meters":17600,"station_id":"ce4bhsh2rcd13ifvqi2g","pricing_plan_id":"cebpf4jnsgd1na2vs0mg"},{"bike_id":"936d6ea6-8d4b-4cef-a4b0-f1cb4e627612","system_id":"levelo_inurba_marseille","lat":43.27092,"lon":5.42267,"is_reserved":false,"is_disabled":false,"rental_uris":{"android":"levelo://app?vid=936d6ea6-8d4b-4cef-a4b0-f1cb4e627612","ios":"levelo://app?vid=936d6ea6-8d4b-4cef-a4b0-f1cb4e627612"},"vehicle_type_id":"4","last_reported":1756261258,"current_range_meters":17600,"station_id":"ce4bhk92rcd13ifvqgb0","pricing_plan_id":"cebpf4jnsgd1na2vs0mg"},{"bike_id":"182848e1-c128-499b-944e-cad0c910e9fb","system_id":"levelo_inurba_marseille","lat":43.21208,"lon":5.35048,"is_reserved":false,"is_disabled":false,"rental_uris":{"android":"levelo://app?vid=182848e1-c128-499b-944e-cad0c910e9fb","ios":"levelo://app?vid=182848e1-c128-499b-944e-cad0c910e9fb"},"vehicle_type_id":"4","last_reported":1756261258,"current_range_meters":17600,"station_id":"st_cvj6sg6p6f1abm77japg","pricing_plan_id":"cebpf4jnsgd1na2vs0mg"},{"bike_id":"ffd21136-ae47-45ee-8fc5-e7f85ea84802","system_id":"levelo_inurba_marseille","lat":43.29816,"lon":5.38257,"is_reserved":false,"is_disabled":false,"rental_uris":{"android":"levelo://app?vid=ffd21136-ae47-45ee-8fc5-e7f85ea84802","ios":"levelo://app?vid=ffd21136-ae47-45ee-8fc5-e7f85ea84802"},"vehicle_type_id":"4","last_reported":1756261258,"current_range_meters":17600,"station_id":"","pricing_plan_id":"cebpf4jnsgd1na2vs0mg"},{"bike_id":"c561b3be-23f4-46ed-8d38-1fc2450f503d","system_id":"levelo_inurba_marseille","lat":43.2366,"lon":5.36224,"is_reserved":false,"is_disabled":false,"rental_uris":{"android":"levelo://app?vid=c561b3be-23f4-46ed-8d38-1fc2450f503d","ios":"levelo://app?vid=c561b3be-23f4-46ed-8d38-1fc2450f503d"},"vehicle_type_id":"4","last_reported":1756261258,"current_range_meters":17600,"station_id":"","pricing_plan_id":"cebpf4jnsgd1na2vs0mg"},{"bike_id":"cd822ebe-8d01-44f2-b9e8-1f0b3a981bae","system_id":"levelo_inurba_marseille","lat":43.288433,"lon":5.358396,"is_reserved":false,"is_disabled":true,"rental_uris":{"android":"levelo://app?vid=cd822ebe-8d01-44f2-b9e8-1f0b3a981bae","ios":"levelo://app?vid=cd822ebe-8d01-44f2-b9e8-1f0b3a981bae"},"vehicle_type_id":"4","last_reported":1756261258,"current_range_meters":17600,"station_id":"ce4bhb12rcd13ifvqem0","pricing_plan_id":"cebpf4jnsgd1na2vs0mg"},{"bike_id":"cfd66be3-eb77-4fcb-9808-b084ac439d43","system_id":"levelo_inurba_marseille","lat":43.30018,"lon":5.37645,"is_reserved":false,"is_disabled":false,"rental_uris":{"android":"levelo://app?vid=cfd66be3-eb77-4fcb-9808-b084ac439d43","ios":"levelo://app?vid=cfd66be3-eb77-4fcb-9808-b084ac439d43"},"vehicle_type_id":"4","last_reported":1756261258,"current_range_meters":17600,"station_id":"","pricing_plan_id":"cebpf4jnsgd1na2vs0mg"},{"bike_id":"d9b5a70e-8ef3-45d5-b1bd-44dd3688175e","system_id":"levelo_inurba_marseille","lat":43.308928,"lon":5.396224,"is_reserved":false,"is_disabled":false,"rental_uris":{"android":"levelo://app?vid=d9b5a70e-8ef3-45d5-b1bd-44dd3688175e","ios":"levelo://app?vid=d9b5a70e-8ef3-45d5-b1bd-44dd3688175e"},"vehicle_type_id":"4","last_reported":1756261258,"current_range_meters":18000,"station_id":"ce4bh012rcd13ifvqcv0","pricing_plan_id":"cebpf4jnsgd1na2vs0mg"},{"bike_id":"34fbfb6d-16c6-4c38-acd4-c060d12c1de5","system_id":"levelo_inurba_marseille","lat":43.2928,"lon":5.40131,"is_reserved":false,"is_disabled":false,"rental_uris":{"android":"levelo://app?vid=34fbfb6d-16c6-4c38-acd4-c060d12c1de5","ios":"levelo://app?vid=34fbfb6d-16c6-4c38-acd4-c060d12c1de5"},"vehicle_type_id":"4","last_reported":1756261258,"current_range_meters":18000,"station_id":"ce4bh312rcd13ifvqdk0","pricing_plan_id":"cebpf4jnsgd1na2vs0mg"},{"bike_id":"412ca752-6704-477a-a2f3-b26874f736f1","system_id":"levelo_inurba_marseille","lat":43.240696,"lon":5.377648,"is_reserved":false,"is_disabled":false,"rental_uris":{"android":"levelo://app?vid=412ca752-6704-477a-a2f3-b26874f736f1","ios":"levelo://app?vid=412ca752-6704-477a-a2f3-b26874f736f1"},"vehicle_type_id":"4","last_reported":1756261258,"current_range_meters":18000,"station_id":"ce4bhnp2rcd13ifvqgvg","pricing_plan_id":"cebpf4jnsgd1na2vs0mg"},{"bike_id":"f84f46c8-243d-42cd-b308-2b289e4c09d3","system_id":"levelo_inurba_marseille","lat":43.33444,"lon":5.35696,"is_reserved":false,"is_disabled":false,"rental_uris":{"android":"levelo://app?vid=f84f46c8-243d-42cd-b308-2b289e4c09d3","ios":"levelo://app?vid=f84f46c8-243d-42cd-b308-2b289e4c09d3"},"vehicle_type_id":"4","last_reported":1756261258,"current_range_meters":18000,"station_id":"","pricing_plan_id":"cebpf4jnsgd1na2vs0mg"},{"bike_id":"b104044f-7e0b-4344-af70-6099d15a5086","system_id":"levelo_inurba_marseille","lat":43.304177,"lon":5.412899,"is_reserved":false,"is_disabled":false,"rental_uris":{"android":"levelo://app?vid=b104044f-7e0b-4344-af70-6099d15a5086","ios":"levelo://app?vid=b104044f-7e0b-4344-af70-6099d15a5086"},"vehicle_type_id":"4","last_reported":1756261258,"current_range_meters":18000,"station_id":"ce4bhop2rcd13ifvqh8g","pricing_plan_id":"cebpf4jnsgd1na2vs0mg"},{"bike_id":"3d67bad6-b533-4f57-9452-686d772960f8","system_id":"levelo_inurba_marseille","lat":43.27919,"lon":5.39564,"is_reserved":false,"is_disabled":false,"rental_uris":{"android":"levelo://app?vid=3d67bad6-b533-4f57-9452-686d772960f8","ios":"levelo://app?vid=3d67bad6-b533-4f57-9452-686d772960f8"},"vehicle_type_id":"4","last_reported":1756261258,"current_range_meters":18000,"station_id":"ce4bhf92rcd13ifvqf40","pricing_plan_id":"cebpf4jnsgd1na2vs0mg"},{"bike_id":"fb85f7c8-d34d-4ed2-b0ad-e43d821bac7b","system_id":"levelo_inurba_marseille","lat":43.265576,"lon":5.403303,"is_reserved":false,"is_disabled":false,"rental_uris":{"android":"levelo://app?vid=fb85f7c8-d34d-4ed2-b0ad-e43d821bac7b","ios":"levelo://app?vid=fb85f7c8-d34d-4ed2-b0ad-e43d821bac7b"},"vehicle_type_id":"4","last_reported":1756261258,"current_range_meters":18000,"station_id":"ce4bhmp2rcd13ifvqgng","pricing_plan_id":"cebpf4jnsgd1na2vs0mg"},{"bike_id":"bd4376ea-7d2d-4cf4-9dc1-caf98f82dced","system_id":"levelo_inurba_marseille","lat":43.333257,"lon":5.39742,"is_reserved":false,"is_disabled":false,"rental_uris":{"android":"levelo://app?vid=bd4376ea-7d2d-4cf4-9dc1-caf98f82dced","ios":"levelo://app?vid=bd4376ea-7d2d-4cf4-9dc1-caf98f82dced"},"vehicle_type_id":"4","last_reported":1756261258,"current_range_meters":18800,"station_id":"","pricing_plan_id":"cebpf4jnsgd1na2vs0mg"},{"bike_id":"5ad7a699-db4b-4f51-a3c6-9b619b7bd6c8","system_id":"levelo_inurba_marseille","lat":43.311789,"lon":5.387174,"is_reserved":false,"is_disabled":false,"rental_uris":{"android":"levelo://app?vid=5ad7a699-db4b-4f51-a3c6-9b619b7bd6c8","ios":"levelo://app?vid=5ad7a699-db4b-4f51-a3c6-9b619b7bd6c8"},"vehicle_type_id":"4","last_reported":1756261258,"current_range_meters":18800,"station_id":"ce4bgv12rcd13ifvqcp0","pricing_plan_id":"cebpf4jnsgd1na2vs0mg"},{"bike_id":"219189a7-6b7a-47fd-8a66-ed7ef9c30784","system_id":"levelo_inurba_marseille","lat":43.33034,"lon":5.39235,"is_reserved":false,"is_disabled":false,"rental_uris":{"android":"levelo://app?vid=219189a7-6b7a-47fd-8a66-ed7ef9c30784","ios":"levelo://app?vid=219189a7-6b7a-47fd-8a66-ed7ef9c30784"},"vehicle_type_id":"4","last_reported":1756261258,"current_range_meters":18800,"station_id":"","pricing_plan_id":"cebpf4jnsgd1na2vs0mg"},{"bike_id":"66e0a403-9848-4a61-83d6-ca6c879e0442","system_id":"levelo_inurba_marseille","lat":43.29213,"lon":5.36058,"is_reserved":false,"is_disabled":true,"rental_uris":{"android":"levelo://app?vid=66e0a403-9848-4a61-83d6-ca6c879e0442","ios":"levelo://app?vid=66e0a403-9848-4a61-83d6-ca6c879e0442"},"vehicle_type_id":"4","last_reported":1756261258,"current_range_meters":18800,"station_id":"ce4bhbh2rcd13ifvqeqg","pricing_plan_id":"cebpf4jnsgd1na2vs0mg"},{"bike_id":"d810acf0-5bd2-4bf1-848d-31cd30d105e6","system_id":"levelo_inurba_marseille","lat":43.269831,"lon":5.392782,"is_reserved":false,"is_disabled":false,"rental_uris":{"android":"levelo://app?vid=d810acf0-5bd2-4bf1-848d-31cd30d105e6","ios":"levelo://app?vid=d810acf0-5bd2-4bf1-848d-31cd30d105e6"},"vehicle_type_id":"4","last_reported":1756261258,"current_range_meters":18800,"station_id":"","pricing_plan_id":"cebpf4jnsgd1na2vs0mg"},{"bike_id":"d1ab4433-94d0-4b2e-aecd-cb94ea10bdaa","system_id":"levelo_inurba_marseille","lat":43.261926,"lon":5.374481,"is_reserved":false,"is_disabled":true,"rental_uris":{"android":"levelo://app?vid=d1ab4433-94d0-4b2e-aecd-cb94ea10bdaa","ios":"levelo://app?vid=d1ab4433-94d0-4b2e-aecd-cb94ea10bdaa"},"vehicle_type_id":"4","last_reported":1756261258,"current_range_meters":18800,"station_id":"","pricing_plan_id":"cebpf4jnsgd1na2vs0mg"},{"bike_id":"4c82beab-1cad-46f7-a8ca-eb8dcbd949ef","system_id":"levelo_inurba_marseille","lat":43.275675,"lon":5.39674,"is_reserved":false,"is_disabled":false,"rental_uris":{"android":"levelo://app?vid=4c82beab-1cad-46f7-a8ca-eb8dcbd949ef","ios":"levelo://app?vid=4c82beab-1cad-46f7-a8ca-eb8dcbd949ef"},"vehicle_type_id":"4","last_reported":1756261258,"current_range_meters":18800,"station_id":"","pricing_plan_id":"cebpf4jnsgd1na2vs0mg"},{"bike_id":"56617e93-dfaa-4db2-9c67-a6ef24f9648e","system_id":"levelo_inurba_marseille","lat":43.231894,"lon":5.355573,"is_reserved":false,"is_disabled":false,"rental_uris":{"android":"levelo://app?vid=56617e93-dfaa-4db2-9c67-a6ef24f9648e","ios":"levelo://app?vid=56617e93-dfaa-4db2-9c67-a6ef24f9648e"},"vehicle_type_id":"4","last_reported":1756261258,"current_range_meters":18800,"station_id":"ce4bhu92rcd13ifvqi70","pricing_plan_id":"cebpf4jnsgd1na2vs0mg"},{"bike_id":"33767b19-49d2-43d6-9855-7f25ee9dd4ce","system_id":"levelo_inurba_marseille","lat":43.2952,"lon":5.37534,"is_reserved":false,"is_disabled":true,"rental_uris":{"android":"levelo://app?vid=33767b19-49d2-43d6-9855-7f25ee9dd4ce","ios":"levelo://app?vid=33767b19-49d2-43d6-9855-7f25ee9dd4ce"},"vehicle_type_id":"4","last_reported":1756261258,"current_range_meters":18800,"station_id":"ce4bgkp2rcd13ifvqbmg","pricing_plan_id":"cebpf4jnsgd1na2vs0mg"},{"bike_id":"098b93ab-61e0-4204-b411-cdeb76f31f07","system_id":"levelo_inurba_marseille","lat":43.32075,"lon":5.36752,"is_reserved":false,"is_disabled":false,"rental_uris":{"android":"levelo://app?vid=098b93ab-61e0-4204-b411-cdeb76f31f07","ios":"levelo://app?vid=098b93ab-61e0-4204-b411-cdeb76f31f07"},"vehicle_type_id":"4","last_reported":1756261258,"current_range_meters":19200,"station_id":"ce4bhrh2rcd13ifvqhug","pricing_plan_id":"cebpf4jnsgd1na2vs0mg"},{"bike_id":"fd8c465d-11d0-449f-a4f6-d345f306873d","system_id":"levelo_inurba_marseille","lat":43.31731,"lon":5.4369,"is_reserved":false,"is_disabled":false,"rental_uris":{"android":"levelo://app?vid=fd8c465d-11d0-449f-a4f6-d345f306873d","ios":"levelo://app?vid=fd8c465d-11d0-449f-a4f6-d345f306873d"},"vehicle_type_id":"4","last_reported":1756261258,"current_range_meters":19200,"station_id":"ce4bhp92rcd13ifvqhcg","pricing_plan_id":"cebpf4jnsgd1na2vs0mg"},{"bike_id":"ffe6df59-3fc1-4d81-9326-f6f6418e7718","system_id":"levelo_inurba_marseille","lat":43.29778,"lon":5.37337,"is_reserved":false,"is_disabled":false,"rental_uris":{"android":"levelo://app?vid=ffe6df59-3fc1-4d81-9326-f6f6418e7718","ios":"levelo://app?vid=ffe6df59-3fc1-4d81-9326-f6f6418e7718"},"vehicle_type_id":"4","last_reported":1756261258,"current_range_meters":19200,"station_id":"","pricing_plan_id":"cebpf4jnsgd1na2vs0mg"},{"bike_id":"6c83adfd-6e50-4a57-980c-569b605502d1","system_id":"levelo_inurba_marseille","lat":43.23206,"lon":5.39958,"is_reserved":false,"is_disabled":false,"rental_uris":{"android":"levelo://app?vid=6c83adfd-6e50-4a57-980c-569b605502d1","ios":"levelo://app?vid=6c83adfd-6e50-4a57-980c-569b605502d1"},"vehicle_type_id":"4","last_reported":1756261258,"current_range_meters":19200,"station_id":"ce4bhn12rcd13ifvqgqg","pricing_plan_id":"cebpf4jnsgd1na2vs0mg"},{"bike_id":"10461901-bb80-4e0b-9f69-b80d7fe789fe","system_id":"levelo_inurba_marseille","lat":43.25119,"lon":5.40323,"is_reserved":false,"is_disabled":false,"rental_uris":{"android":"levelo://app?vid=10461901-bb80-4e0b-9f69-b80d7fe789fe","ios":"levelo://app?vid=10461901-bb80-4e0b-9f69-b80d7fe789fe"},"vehicle_type_id":"4","last_reported":1756261258,"current_range_meters":19200,"station_id":"ce4bhlh2rcd13ifvqgig","pricing_plan_id":"cebpf4jnsgd1na2vs0mg"},{"bike_id":"4e9e705b-7667-42c6-adf5-4a09a858987f","system_id":"levelo_inurba_marseille","lat":43.21186,"lon":5.35082,"is_reserved":false,"is_disabled":false,"rental_uris":{"android":"levelo://app?vid=4e9e705b-7667-42c6-adf5-4a09a858987f","ios":"levelo://app?vid=4e9e705b-7667-42c6-adf5-4a09a858987f"},"vehicle_type_id":"4","last_reported":1756261258,"current_range_meters":19200,"station_id":"st_cvj6sg6p6f1abm77japg","pricing_plan_id":"cebpf4jnsgd1na2vs0mg"},{"bike_id":"d6c27885-caf4-4991-8fd7-4322953e0264","system_id":"levelo_inurba_marseille","lat":43.304309,"lon":5.388896,"is_reserved":false,"is_disabled":false,"rental_uris":{"android":"levelo://app?vid=d6c27885-caf4-4991-8fd7-4322953e0264","ios":"levelo://app?vid=d6c27885-caf4-4991-8fd7-4322953e0264"},"vehicle_type_id":"4","last_reported":1756261258,"current_range_meters":19200,"station_id":"ce4bgk12rcd13ifvqbi0","pricing_plan_id":"cebpf4jnsgd1na2vs0mg"},{"bike_id":"8fa43e4c-6ebe-4d40-91e6-b766c3929365","system_id":"levelo_inurba_marseille","lat":43.309331,"lon":5.401633,"is_reserved":false,"is_disabled":false,"rental_uris":{"android":"levelo://app?vid=8fa43e4c-6ebe-4d40-91e6-b766c3929365","ios":"levelo://app?vid=8fa43e4c-6ebe-4d40-91e6-b766c3929365"},"vehicle_type_id":"4","last_reported":1756261258,"current_range_meters":19200,"station_id":"ce4bgvp2rcd13ifvqct0","pricing_plan_id":"cebpf4jnsgd1na2vs0mg"},{"bike_id":"bc4c6e1c-d694-4a7d-b3af-90d3bb1a77a1","system_id":"levelo_inurba_marseille","lat":43.211931,"lon":5.350692,"is_reserved":false,"is_disabled":false,"rental_uris":{"android":"levelo://app?vid=bc4c6e1c-d694-4a7d-b3af-90d3bb1a77a1","ios":"levelo://app?vid=bc4c6e1c-d694-4a7d-b3af-90d3bb1a77a1"},"vehicle_type_id":"4","last_reported":1756261258,"current_range_meters":19600,"station_id":"st_cvj6sg6p6f1abm77japg","pricing_plan_id":"cebpf4jnsgd1na2vs0mg"},{"bike_id":"bb19511d-f146-4eb3-a653-281a6191039a","system_id":"levelo_inurba_marseille","lat":43.24072,"lon":5.37773,"is_reserved":false,"is_disabled":false,"rental_uris":{"android":"levelo://app?vid=bb19511d-f146-4eb3-a653-281a6191039a","ios":"levelo://app?vid=bb19511d-f146-4eb3-a653-281a6191039a"},"vehicle_type_id":"4","last_reported":1756261258,"current_range_meters":19600,"station_id":"ce4bhnp2rcd13ifvqgvg","pricing_plan_id":"cebpf4jnsgd1na2vs0mg"},{"bike_id":"c9a9df02-5e13-40c1-97e7-11e022683961","system_id":"levelo_inurba_marseille","lat":43.28342,"lon":5.38093,"is_reserved":false,"is_disabled":false,"rental_uris":{"android":"levelo://app?vid=c9a9df02-5e13-40c1-97e7-11e022683961","ios":"levelo://app?vid=c9a9df02-5e13-40c1-97e7-11e022683961"},"vehicle_type_id":"4","last_reported":1756261258,"current_range_meters":19600,"station_id":"ce4bh412rcd13ifvqdr0","pricing_plan_id":"cebpf4jnsgd1na2vs0mg"},{"bike_id":"7c681bcc-2e88-4e8a-a74e-ab41cb772638","system_id":"levelo_inurba_marseille","lat":43.28967,"lon":5.37841,"is_reserved":false,"is_disabled":true,"rental_uris":{"android":"levelo://app?vid=7c681bcc-2e88-4e8a-a74e-ab41cb772638","ios":"levelo://app?vid=7c681bcc-2e88-4e8a-a74e-ab41cb772638"},"vehicle_type_id":"4","last_reported":1756261258,"current_range_meters":19600,"station_id":"ce4bh9p2rcd13ifvqed0","pricing_plan_id":"cebpf4jnsgd1na2vs0mg"},{"bike_id":"2128c581-3e87-4dfd-96c1-40f2dfd1d35d","system_id":"levelo_inurba_marseille","lat":43.310757,"lon":5.383516,"is_reserved":false,"is_disabled":false,"rental_uris":{"android":"levelo://app?vid=2128c581-3e87-4dfd-96c1-40f2dfd1d35d","ios":"levelo://app?vid=2128c581-3e87-4dfd-96c1-40f2dfd1d35d"},"vehicle_type_id":"4","last_reported":1756261258,"current_range_meters":19600,"station_id":"ce4bgv92rcd13ifvqcr0","pricing_plan_id":"cebpf4jnsgd1na2vs0mg"},{"bike_id":"e1fd7270-05b1-4560-83fd-da44537648a2","system_id":"levelo_inurba_marseille","lat":43.309247,"lon":5.401483,"is_reserved":false,"is_disabled":false,"rental_uris":{"android":"levelo://app?vid=e1fd7270-05b1-4560-83fd-da44537648a2","ios":"levelo://app?vid=e1fd7270-05b1-4560-83fd-da44537648a2"},"vehicle_type_id":"4","last_reported":1756261258,"current_range_meters":19600,"station_id":"ce4bgvp2rcd13ifvqct0","pricing_plan_id":"cebpf4jnsgd1na2vs0mg"},{"bike_id":"23ae6fed-deff-411b-8b6e-f95e32ccd4d0","system_id":"levelo_inurba_marseille","lat":43.321252,"lon":5.367821,"is_reserved":false,"is_disabled":false,"rental_uris":{"android":"levelo://app?vid=23ae6fed-deff-411b-8b6e-f95e32ccd4d0","ios":"levelo://app?vid=23ae6fed-deff-411b-8b6e-f95e32ccd4d0"},"vehicle_type_id":"4","last_reported":1756261258,"current_range_meters":19600,"station_id":"ce4bhrh2rcd13ifvqhug","pricing_plan_id":"cebpf4jnsgd1na2vs0mg"},{"bike_id":"799d1b85-3867-46d4-9243-41085bbe6e56","system_id":"levelo_inurba_marseille","lat":43.279989,"lon":5.416544,"is_reserved":false,"is_disabled":false,"rental_uris":{"android":"levelo://app?vid=799d1b85-3867-46d4-9243-41085bbe6e56","ios":"levelo://app?vid=799d1b85-3867-46d4-9243-41085bbe6e56"},"vehicle_type_id":"4","last_reported":1756261258,"current_range_meters":19600,"station_id":"ce4bho12rcd13ifvqh1g","pricing_plan_id":"cebpf4jnsgd1na2vs0mg"},{"bike_id":"714d5c3f-5ed0-416d-abfd-48ed1fa771ef","system_id":"levelo_inurba_marseille","lat":43.21206,"lon":5.35056,"is_reserved":false,"is_disabled":false,"rental_uris":{"android":"levelo://app?vid=714d5c3f-5ed0-416d-abfd-48ed1fa771ef","ios":"levelo://app?vid=714d5c3f-5ed0-416d-abfd-48ed1fa771ef"},"vehicle_type_id":"4","last_reported":1756261258,"current_range_meters":19600,"station_id":"st_cvj6sg6p6f1abm77japg","pricing_plan_id":"cebpf4jnsgd1na2vs0mg"},{"bike_id":"7424fac4-4ede-4b57-8095-35b598815e96","system_id":"levelo_inurba_marseille","lat":43.31168,"lon":5.38701,"is_reserved":false,"is_disabled":false,"rental_uris":{"android":"levelo://app?vid=7424fac4-4ede-4b57-8095-35b598815e96","ios":"levelo://app?vid=7424fac4-4ede-4b57-8095-35b598815e96"},"vehicle_type_id":"4","last_reported":1756261258,"current_range_meters":19600,"station_id":"ce4bgv12rcd13ifvqcp0","pricing_plan_id":"cebpf4jnsgd1na2vs0mg"},{"bike_id":"7a6ba0e4-0845-44af-8bf2-af850a87f539","system_id":"levelo_inurba_marseille","lat":43.25955,"lon":5.41369,"is_reserved":false,"is_disabled":false,"rental_uris":{"android":"levelo://app?vid=7a6ba0e4-0845-44af-8bf2-af850a87f539","ios":"levelo://app?vid=7a6ba0e4-0845-44af-8bf2-af850a87f539"},"vehicle_type_id":"4","last_reported":1756261258,"current_range_meters":19600,"station_id":"","pricing_plan_id":"cebpf4jnsgd1na2vs0mg"},{"bike_id":"54e4d960-e4b3-45a3-9fff-c3e476033c51","system_id":"levelo_inurba_marseille","lat":43.30329,"lon":5.40446,"is_reserved":false,"is_disabled":false,"rental_uris":{"android":"levelo://app?vid=54e4d960-e4b3-45a3-9fff-c3e476033c51","ios":"levelo://app?vid=54e4d960-e4b3-45a3-9fff-c3e476033c51"},"vehicle_type_id":"4","last_reported":1756261258,"current_range_meters":19600,"station_id":"ce4bh012rcd13ifvqd10","pricing_plan_id":"cebpf4jnsgd1na2vs0mg"},{"bike_id":"ca43582f-1faa-43b9-8bc5-434d17ea2f02","system_id":"levelo_inurba_marseille","lat":43.29214,"lon":5.36049,"is_reserved":false,"is_disabled":true,"rental_uris":{"android":"levelo://app?vid=ca43582f-1faa-43b9-8bc5-434d17ea2f02","ios":"levelo://app?vid=ca43582f-1faa-43b9-8bc5-434d17ea2f02"},"vehicle_type_id":"4","last_reported":1756261258,"current_range_meters":19600,"station_id":"ce4bhbh2rcd13ifvqeqg","pricing_plan_id":"cebpf4jnsgd1na2vs0mg"},{"bike_id":"bfc400c7-3b6d-474c-a4d2-03ce9007d729","system_id":"levelo_inurba_marseille","lat":43.25089,"lon":5.395058,"is_reserved":false,"is_disabled":false,"rental_uris":{"android":"levelo://app?vid=bfc400c7-3b6d-474c-a4d2-03ce9007d729","ios":"levelo://app?vid=bfc400c7-3b6d-474c-a4d2-03ce9007d729"},"vehicle_type_id":"4","last_reported":1756261258,"current_range_meters":19600,"station_id":"ce4bhm12rcd13ifvqgkg","pricing_plan_id":"cebpf4jnsgd1na2vs0mg"},{"bike_id":"8df4d72a-2534-4225-b0d0-5b48bd4c7385","system_id":"levelo_inurba_marseille","lat":43.294449,"lon":5.39761,"is_reserved":false,"is_disabled":false,"rental_uris":{"android":"levelo://app?vid=8df4d72a-2534-4225-b0d0-5b48bd4c7385","ios":"levelo://app?vid=8df4d72a-2534-4225-b0d0-5b48bd4c7385"},"vehicle_type_id":"4","last_reported":1756261258,"current_range_meters":20000,"station_id":"ce4bh3h2rcd13ifvqdo0","pricing_plan_id":"cebpf4jnsgd1na2vs0mg"},{"bike_id":"97f688f0-b517-49d9-901a-1ee9065ca76d","system_id":"levelo_inurba_marseille","lat":43.26559,"lon":5.38997,"is_reserved":false,"is_disabled":false,"rental_uris":{"android":"levelo://app?vid=97f688f0-b517-49d9-901a-1ee9065ca76d","ios":"levelo://app?vid=97f688f0-b517-49d9-901a-1ee9065ca76d"},"vehicle_type_id":"4","last_reported":1756261258,"current_range_meters":20000,"station_id":"ce4bhe12rcd13ifvqf30","pricing_plan_id":"cebpf4jnsgd1na2vs0mg"},{"bike_id":"77fcd2b0-060c-4fa2-9a64-75d672a71e78","system_id":"levelo_inurba_marseille","lat":43.29043,"lon":5.39967,"is_reserved":false,"is_disabled":false,"rental_uris":{"android":"levelo://app?vid=77fcd2b0-060c-4fa2-9a64-75d672a71e78","ios":"levelo://app?vid=77fcd2b0-060c-4fa2-9a64-75d672a71e78"},"vehicle_type_id":"4","last_reported":1756261258,"current_range_meters":20000,"station_id":"ce4bh392rcd13ifvqdm0","pricing_plan_id":"cebpf4jnsgd1na2vs0mg"},{"bike_id":"1091f287-02ee-4a66-888b-59c35fd65791","system_id":"levelo_inurba_marseille","lat":43.231835,"lon":5.355566,"is_reserved":false,"is_disabled":false,"rental_uris":{"android":"levelo://app?vid=1091f287-02ee-4a66-888b-59c35fd65791","ios":"levelo://app?vid=1091f287-02ee-4a66-888b-59c35fd65791"},"vehicle_type_id":"4","last_reported":1756261258,"current_range_meters":20000,"station_id":"ce4bhu92rcd13ifvqi70","pricing_plan_id":"cebpf4jnsgd1na2vs0mg"},{"bike_id":"ec0f9f0d-0796-42ac-9cf5-bb8596cdf342","system_id":"levelo_inurba_marseille","lat":43.21178,"lon":5.35095,"is_reserved":false,"is_disabled":false,"rental_uris":{"android":"levelo://app?vid=ec0f9f0d-0796-42ac-9cf5-bb8596cdf342","ios":"levelo://app?vid=ec0f9f0d-0796-42ac-9cf5-bb8596cdf342"},"vehicle_type_id":"4","last_reported":1756261258,"current_range_meters":20000,"station_id":"","pricing_plan_id":"cebpf4jnsgd1na2vs0mg"},{"bike_id":"95973e18-1339-4596-a205-8df1bd7fef1f","system_id":"levelo_inurba_marseille","lat":43.231934,"lon":5.355575,"is_reserved":false,"is_disabled":false,"rental_uris":{"android":"levelo://app?vid=95973e18-1339-4596-a205-8df1bd7fef1f","ios":"levelo://app?vid=95973e18-1339-4596-a205-8df1bd7fef1f"},"vehicle_type_id":"4","last_reported":1756261258,"current_range_meters":20000,"station_id":"ce4bhu92rcd13ifvqi70","pricing_plan_id":"cebpf4jnsgd1na2vs0mg"},{"bike_id":"a4fa2404-c997-462b-9aa1-93054805a1e1","system_id":"levelo_inurba_marseille","lat":43.30868,"lon":5.39629,"is_reserved":false,"is_disabled":false,"rental_uris":{"android":"levelo://app?vid=a4fa2404-c997-462b-9aa1-93054805a1e1","ios":"levelo://app?vid=a4fa2404-c997-462b-9aa1-93054805a1e1"},"vehicle_type_id":"4","last_reported":1756261258,"current_range_meters":20000,"station_id":"ce4bh012rcd13ifvqcv0","pricing_plan_id":"cebpf4jnsgd1na2vs0mg"},{"bike_id":"7564ec07-b2a4-4e50-afac-bca8862f6ba0","system_id":"levelo_inurba_marseille","lat":43.28763,"lon":5.37927,"is_reserved":false,"is_disabled":false,"rental_uris":{"android":"levelo://app?vid=7564ec07-b2a4-4e50-afac-bca8862f6ba0","ios":"levelo://app?vid=7564ec07-b2a4-4e50-afac-bca8862f6ba0"},"vehicle_type_id":"4","last_reported":1756261258,"current_range_meters":20000,"station_id":"","pricing_plan_id":"cebpf4jnsgd1na2vs0mg"},{"bike_id":"64d71690-a1ff-46c5-8b53-847ec594fbff","system_id":"levelo_inurba_marseille","lat":43.30403,"lon":5.41276,"is_reserved":false,"is_disabled":false,"rental_uris":{"android":"levelo://app?vid=64d71690-a1ff-46c5-8b53-847ec594fbff","ios":"levelo://app?vid=64d71690-a1ff-46c5-8b53-847ec594fbff"},"vehicle_type_id":"4","last_reported":1756261258,"current_range_meters":20400,"station_id":"ce4bhop2rcd13ifvqh8g","pricing_plan_id":"cebpf4jnsgd1na2vs0mg"},{"bike_id":"2c246624-962d-4f72-8341-3c6523db29ef","system_id":"levelo_inurba_marseille","lat":43.26558,"lon":5.37283,"is_reserved":false,"is_disabled":true,"rental_uris":{"android":"levelo://app?vid=2c246624-962d-4f72-8341-3c6523db29ef","ios":"levelo://app?vid=2c246624-962d-4f72-8341-3c6523db29ef"},"vehicle_type_id":"4","last_reported":1756261258,"current_range_meters":20400,"station_id":"ce4bhg12rcd13ifvqf70","pricing_plan_id":"cebpf4jnsgd1na2vs0mg"},{"bike_id":"2c47ac4c-6803-4b79-976c-3bdaf15e9ed8","system_id":"levelo_inurba_marseille","lat":43.30784,"lon":5.37656,"is_reserved":false,"is_disabled":false,"rental_uris":{"android":"levelo://app?vid=2c47ac4c-6803-4b79-976c-3bdaf15e9ed8","ios":"levelo://app?vid=2c47ac4c-6803-4b79-976c-3bdaf15e9ed8"},"vehicle_type_id":"4","last_reported":1756261258,"current_range_meters":20400,"station_id":"ce4bgv92rcd13ifvqcq0","pricing_plan_id":"cebpf4jnsgd1na2vs0mg"},{"bike_id":"2e1c1f9f-525b-44b6-84e8-621583cba081","system_id":"levelo_inurba_marseille","lat":43.31076,"lon":5.38349,"is_reserved":false,"is_disabled":false,"rental_uris":{"android":"levelo://app?vid=2e1c1f9f-525b-44b6-84e8-621583cba081","ios":"levelo://app?vid=2e1c1f9f-525b-44b6-84e8-621583cba081"},"vehicle_type_id":"4","last_reported":1756261258,"current_range_meters":20400,"station_id":"ce4bgv92rcd13ifvqcr0","pricing_plan_id":"cebpf4jnsgd1na2vs0mg"},{"bike_id":"b5296004-7f08-44ee-a55c-87427972a1b0","system_id":"levelo_inurba_marseille","lat":43.28849,"lon":5.393107,"is_reserved":false,"is_disabled":false,"rental_uris":{"android":"levelo://app?vid=b5296004-7f08-44ee-a55c-87427972a1b0","ios":"levelo://app?vid=b5296004-7f08-44ee-a55c-87427972a1b0"},"vehicle_type_id":"4","last_reported":1756261258,"current_range_meters":20400,"station_id":"ce4bh2p2rcd13ifvqdi0","pricing_plan_id":"cebpf4jnsgd1na2vs0mg"},{"bike_id":"b02742f8-8407-44ec-9412-e3e499be00b3","system_id":"levelo_inurba_marseille","lat":43.30162,"lon":5.40053,"is_reserved":false,"is_disabled":false,"rental_uris":{"android":"levelo://app?vid=b02742f8-8407-44ec-9412-e3e499be00b3","ios":"levelo://app?vid=b02742f8-8407-44ec-9412-e3e499be00b3"},"vehicle_type_id":"4","last_reported":1756261258,"current_range_meters":20800,"station_id":"","pricing_plan_id":"cebpf4jnsgd1na2vs0mg"},{"bike_id":"1a0fd2da-3d68-4a75-99f4-070e509989cd","system_id":"levelo_inurba_marseille","lat":43.30621,"lon":5.37225,"is_reserved":false,"is_disabled":false,"rental_uris":{"android":"levelo://app?vid=1a0fd2da-3d68-4a75-99f4-070e509989cd","ios":"levelo://app?vid=1a0fd2da-3d68-4a75-99f4-070e509989cd"},"vehicle_type_id":"4","last_reported":1756261258,"current_range_meters":20800,"station_id":"ce4bgqh2rcd13ifvqc4g","pricing_plan_id":"cebpf4jnsgd1na2vs0mg"},{"bike_id":"a99cc37b-5625-4f07-ada4-6f9b27cf6ede","system_id":"levelo_inurba_marseille","lat":43.285675,"lon":5.394971,"is_reserved":false,"is_disabled":false,"rental_uris":{"android":"levelo://app?vid=a99cc37b-5625-4f07-ada4-6f9b27cf6ede","ios":"levelo://app?vid=a99cc37b-5625-4f07-ada4-6f9b27cf6ede"},"vehicle_type_id":"4","last_reported":1756261258,"current_range_meters":20800,"station_id":"ce4bh292rcd13ifvqdg0","pricing_plan_id":"cebpf4jnsgd1na2vs0mg"},{"bike_id":"94c44f36-d45b-48d8-9eb0-02cde482dcfd","system_id":"levelo_inurba_marseille","lat":43.293285,"lon":5.382109,"is_reserved":false,"is_disabled":true,"rental_uris":{"android":"levelo://app?vid=94c44f36-d45b-48d8-9eb0-02cde482dcfd","ios":"levelo://app?vid=94c44f36-d45b-48d8-9eb0-02cde482dcfd"},"vehicle_type_id":"4","last_reported":1756261258,"current_range_meters":20800,"station_id":"","pricing_plan_id":"cebpf4jnsgd1na2vs0mg"},{"bike_id":"b324a8f4-cc0a-4691-98db-1b5e33928c7c","system_id":"levelo_inurba_marseille","lat":43.30665,"lon":5.40032,"is_reserved":false,"is_disabled":false,"rental_uris":{"android":"levelo://app?vid=b324a8f4-cc0a-4691-98db-1b5e33928c7c","ios":"levelo://app?vid=b324a8f4-cc0a-4691-98db-1b5e33928c7c"},"vehicle_type_id":"4","last_reported":1756261258,"current_range_meters":20800,"station_id":"ce4bh112rcd13ifvqda0","pricing_plan_id":"cebpf4jnsgd1na2vs0mg"},{"bike_id":"7f96cfc7-6b62-4cd3-a164-5a1ee471a17d","system_id":"levelo_inurba_marseille","lat":43.305509,"lon":5.365302,"is_reserved":false,"is_disabled":true,"rental_uris":{"android":"levelo://app?vid=7f96cfc7-6b62-4cd3-a164-5a1ee471a17d","ios":"levelo://app?vid=7f96cfc7-6b62-4cd3-a164-5a1ee471a17d"},"vehicle_type_id":"4","last_reported":1756261258,"current_range_meters":20800,"station_id":"ce4bgs12rcd13ifvqcag","pricing_plan_id":"cebpf4jnsgd1na2vs0mg"},{"bike_id":"894cd497-a237-4e85-81d5-9b3e524dc76e","system_id":"levelo_inurba_marseille","lat":43.30321,"lon":5.40445,"is_reserved":false,"is_disabled":false,"rental_uris":{"android":"levelo://app?vid=894cd497-a237-4e85-81d5-9b3e524dc76e","ios":"levelo://app?vid=894cd497-a237-4e85-81d5-9b3e524dc76e"},"vehicle_type_id":"4","last_reported":1756261258,"current_range_meters":20800,"station_id":"ce4bh012rcd13ifvqd10","pricing_plan_id":"cebpf4jnsgd1na2vs0mg"},{"bike_id":"dcbd098d-7abc-4d52-a7de-ecb6bf3d9d23","system_id":"levelo_inurba_marseille","lat":43.33105,"lon":5.37854,"is_reserved":false,"is_disabled":false,"rental_uris":{"android":"levelo://app?vid=dcbd098d-7abc-4d52-a7de-ecb6bf3d9d23","ios":"levelo://app?vid=dcbd098d-7abc-4d52-a7de-ecb6bf3d9d23"},"vehicle_type_id":"4","last_reported":1756261258,"current_range_meters":21600,"station_id":"","pricing_plan_id":"cebpf4jnsgd1na2vs0mg"},{"bike_id":"046d131a-76db-40a8-ae69-52f8f0136e31","system_id":"levelo_inurba_marseille","lat":43.30247,"lon":5.4004,"is_reserved":false,"is_disabled":false,"rental_uris":{"android":"levelo://app?vid=046d131a-76db-40a8-ae69-52f8f0136e31","ios":"levelo://app?vid=046d131a-76db-40a8-ae69-52f8f0136e31"},"vehicle_type_id":"4","last_reported":1756261258,"current_range_meters":21600,"station_id":"ce4bgvh2rcd13ifvqcs0","pricing_plan_id":"cebpf4jnsgd1na2vs0mg"},{"bike_id":"e9890577-e24a-4824-a121-dec84876e503","system_id":"levelo_inurba_marseille","lat":43.287027,"lon":5.399869,"is_reserved":false,"is_disabled":false,"rental_uris":{"android":"levelo://app?vid=e9890577-e24a-4824-a121-dec84876e503","ios":"levelo://app?vid=e9890577-e24a-4824-a121-dec84876e503"},"vehicle_type_id":"4","last_reported":1756261258,"current_range_meters":21600,"station_id":"ce4bho92rcd13ifvqh3g","pricing_plan_id":"cebpf4jnsgd1na2vs0mg"},{"bike_id":"9e0300d5-a333-4159-83ea-23c956430e0a","system_id":"levelo_inurba_marseille","lat":43.28862,"lon":5.39332,"is_reserved":false,"is_disabled":false,"rental_uris":{"android":"levelo://app?vid=9e0300d5-a333-4159-83ea-23c956430e0a","ios":"levelo://app?vid=9e0300d5-a333-4159-83ea-23c956430e0a"},"vehicle_type_id":"4","last_reported":1756261258,"current_range_meters":21600,"station_id":"ce4bh2p2rcd13ifvqdi0","pricing_plan_id":"cebpf4jnsgd1na2vs0mg"},{"bike_id":"c7947910-f6df-4351-95cb-ad7cab6a3f07","system_id":"levelo_inurba_marseille","lat":43.30796,"lon":5.37662,"is_reserved":false,"is_disabled":true,"rental_uris":{"android":"levelo://app?vid=c7947910-f6df-4351-95cb-ad7cab6a3f07","ios":"levelo://app?vid=c7947910-f6df-4351-95cb-ad7cab6a3f07"},"vehicle_type_id":"4","last_reported":1756261258,"current_range_meters":21600,"station_id":"ce4bgv92rcd13ifvqcq0","pricing_plan_id":"cebpf4jnsgd1na2vs0mg"},{"bike_id":"0337ea93-caa5-43b1-9318-3a0b1b28be55","system_id":"levelo_inurba_marseille","lat":43.31712,"lon":5.43702,"is_reserved":false,"is_disabled":false,"rental_uris":{"android":"levelo://app?vid=0337ea93-caa5-43b1-9318-3a0b1b28be55","ios":"levelo://app?vid=0337ea93-caa5-43b1-9318-3a0b1b28be55"},"vehicle_type_id":"4","last_reported":1756261258,"current_range_meters":21600,"station_id":"ce4bhp92rcd13ifvqhcg","pricing_plan_id":"cebpf4jnsgd1na2vs0mg"},{"bike_id":"06990e2e-d25e-4a21-862d-47d93a81c509","system_id":"levelo_inurba_marseille","lat":43.27956,"lon":5.41049,"is_reserved":false,"is_disabled":false,"rental_uris":{"android":"levelo://app?vid=06990e2e-d25e-4a21-862d-47d93a81c509","ios":"levelo://app?vid=06990e2e-d25e-4a21-862d-47d93a81c509"},"vehicle_type_id":"4","last_reported":1756261258,"current_range_meters":21600,"station_id":"ce4bhnp2rcd13ifvqh0g","pricing_plan_id":"cebpf4jnsgd1na2vs0mg"},{"bike_id":"e6355257-0814-4cf5-8dbe-cf3412b6ec52","system_id":"levelo_inurba_marseille","lat":43.271852,"lon":5.409986,"is_reserved":false,"is_disabled":true,"rental_uris":{"android":"levelo://app?vid=e6355257-0814-4cf5-8dbe-cf3412b6ec52","ios":"levelo://app?vid=e6355257-0814-4cf5-8dbe-cf3412b6ec52"},"vehicle_type_id":"4","last_reported":1756261258,"current_range_meters":21600,"station_id":"ce4bhl12rcd13ifvqgf0","pricing_plan_id":"cebpf4jnsgd1na2vs0mg"},{"bike_id":"dae9d78a-1ee2-42e8-89e0-34657556fb09","system_id":"levelo_inurba_marseille","lat":43.28177,"lon":5.42628,"is_reserved":false,"is_disabled":false,"rental_uris":{"android":"levelo://app?vid=dae9d78a-1ee2-42e8-89e0-34657556fb09","ios":"levelo://app?vid=dae9d78a-1ee2-42e8-89e0-34657556fb09"},"vehicle_type_id":"4","last_reported":1756261258,"current_range_meters":22000,"station_id":"ce4bhnh2rcd13ifvqgug","pricing_plan_id":"cebpf4jnsgd1na2vs0mg"},