{"last_updated":1767608070,"ttl":60,"version":"2.2","data":{"bikes":[{"bike_id":"c157ae06-18bb-40ad-80ba-81929ea54416","system_id":"levelo_inurba_marseille","lat":43.25108,"lon":5.40324,"is_reserved":false,"is_disabled":false,"rental_uris":{"android":"levelo://app?vid=c157ae06-18bb-40ad-80ba-81929ea54416","ios":"levelo://app?vid=c157ae06-18bb-40ad-80ba-81929ea54416"},"vehicle_type_id":"4","last_reported":1767608071,"current_range_meters":2800,"station_id":"ce4bhlh2rcd13ifvqgig","pricing_plan_id":"cebpf4jnsgd1na2vs0mg"},{"bike_id":"be6085b8-eb59-4196-bf5d-44f58e2acf4e","system_id":"levelo_inurba_marseille","lat":43.295404,"lon":5.390353,"is_reserved":false,"is_disabled":false,"rental_uris":{"android":"levelo://app?vid=be6085b8-eb59-4196-bf5d-44f58e2acf4e","ios":"levelo://app?vid=be6085b8-eb59-4196-bf5d-44f58e2acf4e"},"vehicle_type_id":"4","last_reported":1767608071,"current_range_meters":2800,"station_id":"ce4bh3p2rcd13ifvqdp0","pricing_plan_id":"cebpf4jnsgd1na2vs0mg"},{"bike_id":"236dd84d-8375-4d9b-8e7d-9db60d676bfe","system_id":"levelo_inurba_marseille","lat":43.24654,"lon":5.38191,"is_reserved":false,"is_disabled":false,"rental_uris":{"android":"levelo://app?vid=236dd84d-8375-4d9b-8e7d-9db60d676bfe","ios":"levelo://app?vid=236dd84d-8375-4d9b-8e7d-9db60d676bfe"},"vehicle_type_id":"4","last_reported":1767608071,"current_range_meters":2800,"station_id":"ce4bhih2rcd13ifvqfr0","pricing_plan_id":"cebpf4jnsgd1na2vs0mg"},{"bike_id":"aae9c2a5-79bf-4ec7-8997-46de8698fb01","system_id":"levelo_inurba_marseille","lat":43.32673,"lon":5.35868,"is_reserved":false,"is_disabled":false,"rental_uris":{"android":"levelo://app?vid=aae9c2a5-79bf-4ec7-8997-46de8698fb01","ios":"levelo://app?vid=aae9c2a5-79bf-4ec7-8997-46de8698fb01"},"vehicle_type_id":"4","last_reported":1767608071,"current_range_meters":2800,"station_id":"","pricing_plan_id":"cebpf4jnsgd1na2vs0mg"},{"bike_id":"7f82846f-a9c2-426e-b04f-d573601c2c1e","system_id":"levelo_inurba_marseille","lat":43.246337,"lon":5.4315,"is_reserved":false,"is_disabled":false,"rental_uris":{"android":"levelo://app?vid=7f82846f-a9c2-426e-b04f-d573601c2c1e","ios":"levelo://app?vid=7f82846f-a9c2-426e-b04f-d573601c2c1e"},"vehicle_type_id":"4","last_reported":1767608071,"current_range_meters":2800,"station_id":"st_d2m6c4gdas8pm72e190g","pricing_plan_id":"cebpf4jnsgd1na2vs0mg"},{"bike_id":"dd1e0418-c61b-4102-a323-55dfd0941e3d","system_id":"levelo_inurba_marseille","lat":43.23182,"lon":5.35588,"is_reserved":false,"is_disabled":false,"rental_uris":{"android":"levelo://app?vid=dd1e0418-c61b-4102-a323-55dfd0941e3d","ios":"levelo://app?vid=dd1e0418-c61b-4102-a323-55dfd0941e3d"},"vehicle_type_id":"4","last_reported":1767608071,"current_range_meters":2800,"station_id":"ce4bhu92rcd13ifvqi70","pricing_plan_id":"cebpf4jnsgd1na2vs0mg"},{"bike_id":"81836f61-6224-43e5-8936-15047b1f95b8","system_id":"levelo_inurba_marseille","lat":43.305457,"lon":5.365521,"is_reserved":false,"is_disabled":false,"rental_uris":{"android":"levelo://app?vid=81836f61-6224-43e5-8936-15047b1f95b8","ios":"levelo://app?vid=81836f61-6224-43e5-8936-15047b1f95b8"},"vehicle_type_id":"4","last_reported":1767608071,"current_range_meters":2800,"station_id":"ce4bgs12rcd13ifvqcag","pricing_plan_id":"cebpf4jnsgd1na2vs0mg"},{"bike_id":"a84a59f1-9d8c-4cdc-a9fd-0443183d04cc","system_id":"levelo_inurba_marseille","lat":43.28159,"lon":5.42777,"is_reserved":false,"is_disabled":false,"rental_uris":{"android":"levelo://app?vid=a84a59f1-9d8c-4cdc-a9fd-0443183d04cc","ios":"levelo://app?vid=a84a59f1-9d8c-4cdc-a9fd-0443183d04cc"},"vehicle_type_id":"4","last_reported":1767608071,"current_range_meters":3200,"station_id":"","pricing_plan_id":"cebpf4jnsgd1na2vs0mg"},{"bike_id":"069e0897-8da2-45e6-aee3-9dedd86fd186","system_id":"levelo_inurba_marseille","lat":43.26211,"lon":5.37431,"is_reserved":false,"is_disabled":false,"rental_uris":{"android":"levelo://app?vid=069e0897-8da2-45e6-aee3-9dedd86fd186","ios":"levelo://app?vid=069e0897-8da2-45e6-aee3-9dedd86fd186"},"vehicle_type_id":"4","last_reported":1767608071,"current_range_meters":3200,"station_id":"ce4bhgp2rcd13ifvqfc0","pricing_plan_id":"cebpf4jnsgd1na2vs0mg"},{"bike_id":"29987126-4611-431b-bd67-fc41cb0a4501","system_id":"levelo_inurba_marseille","lat":43.26616,"lon":5.38981,"is_reserved":false,"is_disabled":false,"rental_uris":{"android":"levelo://app?vid=29987126-4611-431b-bd67-fc41cb0a4501","ios":"levelo://app?vid=29987126-4611-431b-bd67-fc41cb0a4501"},"vehicle_type_id":"4","last_reported":1767608071,"current_range_meters":3200,"station_id":"ce4bhe12rcd13ifvqf30","pricing_plan_id":"cebpf4jnsgd1na2vs0mg"},{"bike_id":"c6e51788-4960-4dd0-a40f-de7c4c202044","system_id":"levelo_inurba_marseille","lat":43.26061,"lon":5.3939,"is_reserved":false,"is_disabled":false,"rental_uris":{"android":"levelo://app?vid=c6e51788-4960-4dd0-a40f-de7c4c202044","ios":"levelo://app?vid=c6e51788-4960-4dd0-a40f-de7c4c202044"},"vehicle_type_id":"4","last_reported":1767608071,"current_range_meters":3200,"station_id":"ce4bhh92rcd13ifvqfj0","pricing_plan_id":"cebpf4jnsgd1na2vs0mg"},{"bike_id":"f257b2d0-1f16-4656-837f-b9ab9f001b03","system_id":"levelo_inurba_marseille","lat":43.22563,"lon":5.41641,"is_reserved":false,"is_disabled":false,"rental_uris":{"android":"levelo://app?vid=f257b2d0-1f16-4656-837f-b9ab9f001b03","ios":"levelo://app?vid=f257b2d0-1f16-4656-837f-b9ab9f001b03"},"vehicle_type_id":"4","last_reported":1767608071,"current_range_meters":3200,"station_id":"st_d2o4gvlbi1j2169b742g","pricing_plan_id":"cebpf4jnsgd1na2vs0mg"},{"bike_id":"4e839bab-c0a4-4f9b-8de3-cb292b501eb1","system_id":"levelo_inurba_marseille","lat":43.225293,"lon":5.348363,"is_reserved":false,"is_disabled":false,"rental_uris":{"android":"levelo://app?vid=4e839bab-c0a4-4f9b-8de3-cb292b501eb1","ios":"levelo://app?vid=4e839bab-c0a4-4f9b-8de3-cb292b501eb1"},"vehicle_type_id":"4","last_reported":1767608071,"current_range_meters":3200,"station_id":"","pricing_plan_id":"cebpf4jnsgd1na2vs0mg"},{"bike_id":"ab212917-0222-46c3-89cf-022c04360208","system_id":"levelo_inurba_marseille","lat":43.29756,"lon":5.42773,"is_reserved":false,"is_disabled":false,"rental_uris":{"android":"levelo://app?vid=ab212917-0222-46c3-89cf-022c04360208","ios":"levelo://app?vid=ab212917-0222-46c3-89cf-022c04360208"},"vehicle_type_id":"4","last_reported":1767608071,"current_range_meters":3200,"station_id":"st_d3md5207bmas73dh9klg","pricing_plan_id":"cebpf4jnsgd1na2vs0mg"},{"bike_id":"05f810f7-377e-4677-b966-770dc6ab73f6","system_id":"levelo_inurba_marseille","lat":43.23788,"lon":5.36627,"is_reserved":false,"is_disabled":false,"rental_uris":{"android":"levelo://app?vid=05f810f7-377e-4677-b966-770dc6ab73f6","ios":"levelo://app?vid=05f810f7-377e-4677-b966-770dc6ab73f6"},"vehicle_type_id":"4","last_reported":1767608071,"current_range_meters":3200,"station_id":"st_d3nk18o9ro0c73en2l3g","pricing_plan_id":"cebpf4jnsgd1na2vs0mg"},{"bike_id":"b98c4bb3-e84f-4703-8006-455cb12ed450","system_id":"levelo_inurba_marseille","lat":43.288261,"lon":5.426337,"is_reserved":false,"is_disabled":false,"rental_uris":{"android":"levelo://app?vid=b98c4bb3-e84f-4703-8006-455cb12ed450","ios":"levelo://app?vid=b98c4bb3-e84f-4703-8006-455cb12ed450"},"vehicle_type_id":"4","last_reported":1767608071,"current_range_meters":3200,"station_id":"","pricing_plan_id":"cebpf4jnsgd1na2vs0mg"},{"bike_id":"69161e8f-51d3-4034-b7dc-9a0c99d58e5d","system_id":"levelo_inurba_marseille","lat":43.29696,"lon":5.3779,"is_reserved":false,"is_disabled":false,"rental_uris":{"android":"levelo://app?vid=69161e8f-51d3-4034-b7dc-9a0c99d58e5d","ios":"levelo://app?vid=69161e8f-51d3-4034-b7dc-9a0c99d58e5d"},"vehicle_type_id":"4","last_reported":1767608071,"current_range_meters":3200,"station_id":"","pricing_plan_id":"cebpf4jnsgd1na2vs0mg"},{"bike_id":"5abeab1b-faee-4efd-b658-f0a83fb10313","system_id":"levelo_inurba_marseille","lat":43.26192,"lon":5.37451,"is_reserved":false,"is_disabled":false,"rental_uris":{"android":"levelo://app?vid=5abeab1b-faee-4efd-b658-f0a83fb10313","ios":"levelo://app?vid=5abeab1b-faee-4efd-b658-f0a83fb10313"},"vehicle_type_id":"4","last_reported":1767608071,"current_range_meters":3600,"station_id":"","pricing_plan_id":"cebpf4jnsgd1na2vs0mg"},{"bike_id":"17e06372-e52b-4bdd-90cd-8338755c84dc","system_id":"levelo_inurba_marseille","lat":43.23148,"lon":5.43713,"is_reserved":false,"is_disabled":false,"rental_uris":{"android":"levelo://app?vid=17e06372-e52b-4bdd-90cd-8338755c84dc","ios":"levelo://app?vid=17e06372-e52b-4bdd-90cd-8338755c84dc"},"vehicle_type_id":"4","last_reported":1767608071,"current_range_meters":3600,"station_id":"ce4bhmp2rcd13ifvqgog","pricing_plan_id":"cebpf4jnsgd1na2vs0mg"},{"bike_id":"c05741ac-526e-4c02-8537-595d59a70ecd","system_id":"levelo_inurba_marseille","lat":43.24417,"lon":5.37043,"is_reserved":false,"is_disabled":false,"rental_uris":{"android":"levelo://app?vid=c05741ac-526e-4c02-8537-595d59a70ecd","ios":"levelo://app?vid=c05741ac-526e-4c02-8537-595d59a70ecd"},"vehicle_type_id":"4","last_reported":1767608071,"current_range_meters":3600,"station_id":"ce4bhhh2rcd13ifvqfk0","pricing_plan_id":"cebpf4jnsgd1na2vs0mg"},{"bike_id":"83385d39-706e-459c-b031-fcbc73587bbb","system_id":"levelo_inurba_marseille","lat":43.29214,"lon":5.3604,"is_reserved":false,"is_disabled":true,"rental_uris":{"android":"levelo://app?vid=83385d39-706e-459c-b031-fcbc73587bbb","ios":"levelo://app?vid=83385d39-706e-459c-b031-fcbc73587bbb"},"vehicle_type_id":"4","last_reported":1767608071,"current_range_meters":4000,"station_id":"ce4bhbh2rcd13ifvqeqg","pricing_plan_id":"cebpf4jnsgd1na2vs0mg"},{"bike_id":"1d00a4cb-00d9-4b5d-9884-747e6dfb334b","system_id":"levelo_inurba_marseille","lat":43.24688,"lon":5.38159,"is_reserved":false,"is_disabled":false,"rental_uris":{"android":"levelo://app?vid=1d00a4cb-00d9-4b5d-9884-747e6dfb334b","ios":"levelo://app?vid=1d00a4cb-00d9-4b5d-9884-747e6dfb334b"},"vehicle_type_id":"4","last_reported":1767608071,"current_range_meters":4000,"station_id":"ce4bhih2rcd13ifvqfr0","pricing_plan_id":"cebpf4jnsgd1na2vs0mg"},{"bike_id":"c9b4b63d-ca8e-4acc-b676-a1bcf6c7d6a9","system_id":"levelo_inurba_marseille","lat":43.27364,"lon":5.36267,"is_reserved":false,"is_disabled":false,"rental_uris":{"android":"levelo://app?vid=c9b4b63d-ca8e-4acc-b676-a1bcf6c7d6a9","ios":"levelo://app?vid=c9b4b63d-ca8e-4acc-b676-a1bcf6c7d6a9"},"vehicle_type_id":"4","last_reported":1767608071,"current_range_meters":4000,"station_id":"ce4bhbh2rcd13ifvqeo0","pricing_plan_id":"cebpf4jnsgd1na2vs0mg"},{"bike_id":"dfdca8ae-7890-4f8d-864a-114bbb8dc8c5","system_id":"levelo_inurba_marseille","lat":43.25943,"lon":5.40891,"is_reserved":false,"is_disabled":false,"rental_uris":{"android":"levelo://app?vid=dfdca8ae-7890-4f8d-864a-114bbb8dc8c5","ios":"levelo://app?vid=dfdca8ae-7890-4f8d-864a-114bbb8dc8c5"},"vehicle_type_id":"4","last_reported":1767608071,"current_range_meters":4000,"station_id":"ce4bhm92rcd13ifvqglg","pricing_plan_id":"cebpf4jnsgd1na2vs0mg"},{"bike_id":"9d21dcb0-ce26-48db-a303-317550439f40","system_id":"levelo_inurba_marseille","lat":43.284807,"lon":5.483922,"is_reserved":false,"is_disabled":false,"rental_uris":{"android":"levelo://app?vid=9d21dcb0-ce26-48db-a303-317550439f40","ios":"levelo://app?vid=9d21dcb0-ce26-48db-a303-317550439f40"},"vehicle_type_id":"4","last_reported":1767608071,"current_range_meters":4000,"station_id":"st_d3svhcjqgbts73a3dn0g","pricing_plan_id":"cebpf4jnsgd1na2vs0mg"},{"bike_id":"46c2d8b2-0f06-4ab4-9ea1-a6a2f77053d0","system_id":"levelo_inurba_marseille","lat":43.33741,"lon":5.37454,"is_reserved":false,"is_disabled":false,"rental_uris":{"android":"levelo://app?vid=46c2d8b2-0f06-4ab4-9ea1-a6a2f77053d0","ios":"levelo://app?vid=46c2d8b2-0f06-4ab4-9ea1-a6a2f77053d0"},"vehicle_type_id":"4","last_reported":1767608071,"current_range_meters":4000,"station_id":"","pricing_plan_id":"cebpf4jnsgd1na2vs0mg"},{"bike_id":"195e2e14-0016-420f-a925-0b6877e427aa","system_id":"levelo_inurba_marseille","lat":43.22944,"lon":5.35393,"is_reserved":false,"is_disabled":false,"rental_uris":{"android":"levelo://app?vid=195e2e14-0016-420f-a925-0b6877e427aa","ios":"levelo://app?vid=195e2e14-0016-420f-a925-0b6877e427aa"},"vehicle_type_id":"4","last_reported":1767608071,"current_range_meters":4000,"station_id":"cpo3532slgdg3j2ikp40","pricing_plan_id":"cebpf4jnsgd1na2vs0mg"},{"bike_id":"5762af30-cb8c-4272-a56a-66a9247e457c","system_id":"levelo_inurba_marseille","lat":43.229298,"lon":5.353818,"is_reserved":false,"is_disabled":false,"rental_uris":{"android":"levelo://app?vid=5762af30-cb8c-4272-a56a-66a9247e457c","ios":"levelo://app?vid=5762af30-cb8c-4272-a56a-66a9247e457c"},"vehicle_type_id":"4","last_reported":1767608071,"current_range_meters":4000,"station_id":"cpo3532slgdg3j2ikp40","pricing_plan_id":"cebpf4jnsgd1na2vs0mg"},{"bike_id":"9266c9ee-84f2-41f3-ba5f-42f44b708c8b","system_id":"levelo_inurba_marseille","lat":43.24629,"lon":5.43154,"is_reserved":false,"is_disabled":false,"rental_uris":{"android":"levelo://app?vid=9266c9ee-84f2-41f3-ba5f-42f44b708c8b","ios":"levelo://app?vid=9266c9ee-84f2-41f3-ba5f-42f44b708c8b"},"vehicle_type_id":"4","last_reported":1767608071,"current_range_meters":4000,"station_id":"st_d2m6c4gdas8pm72e190g","pricing_plan_id":"cebpf4jnsgd1na2vs0mg"},{"bike_id":"85246bf5-791b-4c2f-925f-a931bac4026e","system_id":"levelo_inurba_marseille","lat":43.30119,"lon":5.43096,"is_reserved":false,"is_disabled":false,"rental_uris":{"android":"levelo://app?vid=85246bf5-791b-4c2f-925f-a931bac4026e","ios":"levelo://app?vid=85246bf5-791b-4c2f-925f-a931bac4026e"},"vehicle_type_id":"4","last_reported":1767608071,"current_range_meters":4400,"station_id":"st_d3js3co5814s73ftftug","pricing_plan_id":"cebpf4jnsgd1na2vs0mg"},{"bike_id":"c83ccfd7-fe3a-42e3-a659-f96bbce77a54","system_id":"levelo_inurba_marseille","lat":43.29846,"lon":5.36278,"is_reserved":false,"is_disabled":false,"rental_uris":{"android":"levelo://app?vid=c83ccfd7-fe3a-42e3-a659-f96bbce77a54","ios":"levelo://app?vid=c83ccfd7-fe3a-42e3-a659-f96bbce77a54"},"vehicle_type_id":"4","last_reported":1767608071,"current_range_meters":4400,"station_id":"ce4bgpp2rcd13ifvqc3g","pricing_plan_id":"cebpf4jnsgd1na2vs0mg"},{"bike_id":"1344b698-8650-40c6-84ae-c77983c95c2f","system_id":"levelo_inurba_marseille","lat":43.28925,"lon":5.36167,"is_reserved":false,"is_disabled":false,"rental_uris":{"android":"levelo://app?vid=1344b698-8650-40c6-84ae-c77983c95c2f","ios":"levelo://app?vid=1344b698-8650-40c6-84ae-c77983c95c2f"},"vehicle_type_id":"4","last_reported":1767608071,"current_range_meters":4400,"station_id":"","pricing_plan_id":"cebpf4jnsgd1na2vs0mg"},{"bike_id":"088ffd9e-e621-46be-9471-ab036728f8c5","system_id":"levelo_inurba_marseille","lat":43.31045,"lon":5.37176,"is_reserved":false,"is_disabled":true,"rental_uris":{"android":"levelo://app?vid=088ffd9e-e621-46be-9471-ab036728f8c5","ios":"levelo://app?vid=088ffd9e-e621-46be-9471-ab036728f8c5"},"vehicle_type_id":"4","last_reported":1767608071,"current_range_meters":4400,"station_id":"st_d4kl2rp97mjs73e7tdfg","pricing_plan_id":"cebpf4jnsgd1na2vs0mg"},{"bike_id":"1ddba20c-c151-4163-a24c-8401feb00dde","system_id":"levelo_inurba_marseille","lat":43.25928,"lon":5.40904,"is_reserved":false,"is_disabled":false,"rental_uris":{"android":"levelo://app?vid=1ddba20c-c151-4163-a24c-8401feb00dde","ios":"levelo://app?vid=1ddba20c-c151-4163-a24c-8401feb00dde"},"vehicle_type_id":"4","last_reported":1767608071,"current_range_meters":4400,"station_id":"ce4bhm92rcd13ifvqglg","pricing_plan_id":"cebpf4jnsgd1na2vs0mg"},{"bike_id":"7641e2cb-b528-4a50-85fd-1f2943174001","system_id":"levelo_inurba_marseille","lat":43.290894,"lon":5.381262,"is_reserved":false,"is_disabled":false,"rental_uris":{"android":"levelo://app?vid=7641e2cb-b528-4a50-85fd-1f2943174001","ios":"levelo://app?vid=7641e2cb-b528-4a50-85fd-1f2943174001"},"vehicle_type_id":"4","last_reported":1767608071,"current_range_meters":4400,"station_id":"ce4bh512rcd13ifvqe2g","pricing_plan_id":"cebpf4jnsgd1na2vs0mg"},{"bike_id":"746607d7-0d50-445a-b435-314ed89afc68","system_id":"levelo_inurba_marseille","lat":43.299,"lon":5.43675,"is_reserved":false,"is_disabled":false,"rental_uris":{"android":"levelo://app?vid=746607d7-0d50-445a-b435-314ed89afc68","ios":"levelo://app?vid=746607d7-0d50-445a-b435-314ed89afc68"},"vehicle_type_id":"4","last_reported":1767608071,"current_range_meters":4400,"station_id":"ce4bhpp2rcd13ifvqhfg","pricing_plan_id":"cebpf4jnsgd1na2vs0mg"},{"bike_id":"5c87c002-2c7a-45ab-9fb0-6d21d93b8259","system_id":"levelo_inurba_marseille","lat":43.313474,"lon":5.367379,"is_reserved":false,"is_disabled":false,"rental_uris":{"android":"levelo://app?vid=5c87c002-2c7a-45ab-9fb0-6d21d93b8259","ios":"levelo://app?vid=5c87c002-2c7a-45ab-9fb0-6d21d93b8259"},"vehicle_type_id":"4","last_reported":1767608071,"current_range_meters":4400,"station_id":"ce4bgr92rcd13ifvqc6g","pricing_plan_id":"cebpf4jnsgd1na2vs0mg"},{"bike_id":"1dc1ec37-c8df-4885-96ac-e15569601df4","system_id":"levelo_inurba_marseille","lat":43.28327,"lon":5.38397,"is_reserved":false,"is_disabled":false,"rental_uris":{"android":"levelo://app?vid=1dc1ec37-c8df-4885-96ac-e15569601df4","ios":"levelo://app?vid=1dc1ec37-c8df-4885-96ac-e15569601df4"},"vehicle_type_id":"4","last_reported":1767608071,"current_range_meters":4400,"station_id":"","pricing_plan_id":"cebpf4jnsgd1na2vs0mg"},{"bike_id":"807ad6d5-a3be-44a8-9c65-b5acfffa4afd","system_id":"levelo_inurba_marseille","lat":43.32547,"lon":5.41466,"is_reserved":false,"is_disabled":false,"rental_uris":{"android":"levelo://app?vid=807ad6d5-a3be-44a8-9c65-b5acfffa4afd","ios":"levelo://app?vid=807ad6d5-a3be-44a8-9c65-b5acfffa4afd"},"vehicle_type_id":"4","last_reported":1767608071,"current_range_meters":4400,"station_id":"ce4bhq12rcd13ifvqhhg","pricing_plan_id":"cebpf4jnsgd1na2vs0mg"},{"bike_id":"b638425e-f8e4-49a1-9c09-1fc288c24970","system_id":"levelo_inurba_marseille","lat":43.32353,"lon":5.36758,"is_reserved":false,"is_disabled":false,"rental_uris":{"android":"levelo://app?vid=b638425e-f8e4-49a1-9c09-1fc288c24970","ios":"levelo://app?vid=b638425e-f8e4-49a1-9c09-1fc288c24970"},"vehicle_type_id":"4","last_reported":1767608071,"current_range_meters":4400,"station_id":"ce4bhsh2rcd13ifvqi2g","pricing_plan_id":"cebpf4jnsgd1na2vs0mg"},{"bike_id":"21e29948-bff4-4f62-8a60-9a15334c77e7","system_id":"levelo_inurba_marseille","lat":43.30581,"lon":5.36766,"is_reserved":false,"is_disabled":false,"rental_uris":{"android":"levelo://app?vid=21e29948-bff4-4f62-8a60-9a15334c77e7","ios":"levelo://app?vid=21e29948-bff4-4f62-8a60-9a15334c77e7"},"vehicle_type_id":"4","last_reported":1767608071,"current_range_meters":4400,"station_id":"","pricing_plan_id":"cebpf4jnsgd1na2vs0mg"},{"bike_id":"425ce350-524e-48dd-a844-94e9e3c62d4b","system_id":"levelo_inurba_marseille","lat":43.26569,"lon":5.39014,"is_reserved":false,"is_disabled":false,"rental_uris":{"android":"levelo://app?vid=425ce350-524e-48dd-a844-94e9e3c62d4b","ios":"levelo://app?vid=425ce350-524e-48dd-a844-94e9e3c62d4b"},"vehicle_type_id":"4","last_reported":1767608071,"current_range_meters":4400,"station_id":"ce4bhe12rcd13ifvqf30","pricing_plan_id":"cebpf4jnsgd1na2vs0mg"},{"bike_id":"f0c1deb2-eba3-4d8c-868f-c557271f2f4f","system_id":"levelo_inurba_marseille","lat":43.286176,"lon":5.351052,"is_reserved":false,"is_disabled":false,"rental_uris":{"android":"levelo://app?vid=f0c1deb2-eba3-4d8c-868f-c557271f2f4f","ios":"levelo://app?vid=f0c1deb2-eba3-4d8c-868f-c557271f2f4f"},"vehicle_type_id":"4","last_reported":1767608071,"current_range_meters":4400,"station_id":"ce4bhch2rcd13ifvqeug","pricing_plan_id":"cebpf4jnsgd1na2vs0mg"},{"bike_id":"75f514f3-a391-4f43-9ffc-c99bb058b876","system_id":"levelo_inurba_marseille","lat":43.25486,"lon":5.37635,"is_reserved":false,"is_disabled":false,"rental_uris":{"android":"levelo://app?vid=75f514f3-a391-4f43-9ffc-c99bb058b876","ios":"levelo://app?vid=75f514f3-a391-4f43-9ffc-c99bb058b876"},"vehicle_type_id":"4","last_reported":1767608071,"current_range_meters":4400,"station_id":"","pricing_plan_id":"cebpf4jnsgd1na2vs0mg"},{"bike_id":"e9f3270a-d88a-4cb3-a37f-6048c91f446c","system_id":"levelo_inurba_marseille","lat":43.26216,"lon":5.37441,"is_reserved":false,"is_disabled":false,"rental_uris":{"android":"levelo://app?vid=e9f3270a-d88a-4cb3-a37f-6048c91f446c","ios":"levelo://app?vid=e9f3270a-d88a-4cb3-a37f-6048c91f446c"},"vehicle_type_id":"4","last_reported":1767608071,"current_range_meters":4800,"station_id":"ce4bhgp2rcd13ifvqfc0","pricing_plan_id":"cebpf4jnsgd1na2vs0mg"},{"bike_id":"074722cb-2569-4df8-9492-e46ca66ccdc6","system_id":"levelo_inurba_marseille","lat":43.32614,"lon":5.36161,"is_reserved":false,"is_disabled":false,"rental_uris":{"android":"levelo://app?vid=074722cb-2569-4df8-9492-e46ca66ccdc6","ios":"levelo://app?vid=074722cb-2569-4df8-9492-e46ca66ccdc6"},"vehicle_type_id":"4","last_reported":1767608071,"current_range_meters":4800,"station_id":"","pricing_plan_id":"cebpf4jnsgd1na2vs0mg"},{"bike_id":"832630b7-1265-4116-b046-a0d5dd971800","system_id":"levelo_inurba_marseille","lat":43.29779,"lon":5.37112,"is_reserved":false,"is_disabled":false,"rental_uris":{"android":"levelo://app?vid=832630b7-1265-4116-b046-a0d5dd971800","ios":"levelo://app?vid=832630b7-1265-4116-b046-a0d5dd971800"},"vehicle_type_id":"4","last_reported":1767608071,"current_range_meters":4800,"station_id":"ce4bgop2rcd13ifvqc1g","pricing_plan_id":"cebpf4jnsgd1na2vs0mg"},{"bike_id":"30b8b232-0149-43fe-aeaf-d6f987f833ea","system_id":"levelo_inurba_marseille","lat":43.26204,"lon":5.37445,"is_reserved":false,"is_disabled":false,"rental_uris":{"android":"levelo://app?vid=30b8b232-0149-43fe-aeaf-d6f987f833ea","ios":"levelo://app?vid=30b8b232-0149-43fe-aeaf-d6f987f833ea"},"vehicle_type_id":"4","last_reported":1767608071,"current_range_meters":4800,"station_id":"ce4bhgp2rcd13ifvqfc0","pricing_plan_id":"cebpf4jnsgd1na2vs0mg"},{"bike_id":"63447985-41e3-43a3-92a4-1e959fa40808","system_id":"levelo_inurba_marseille","lat":43.26573,"lon":5.40333,"is_reserved":false,"is_disabled":false,"rental_uris":{"android":"levelo://app?vid=63447985-41e3-43a3-92a4-1e959fa40808","ios":"levelo://app?vid=63447985-41e3-43a3-92a4-1e959fa40808"},"vehicle_type_id":"4","last_reported":1767608071,"current_range_meters":4800,"station_id":"ce4bhmp2rcd13ifvqgng","pricing_plan_id":"cebpf4jnsgd1na2vs0mg"},{"bike_id":"70667a03-e379-4325-a762-80c67113f984","system_id":"levelo_inurba_marseille","lat":43.305427,"lon":5.365472,"is_reserved":false,"is_disabled":false,"rental_uris":{"android":"levelo://app?vid=70667a03-e379-4325-a762-80c67113f984","ios":"levelo://app?vid=70667a03-e379-4325-a762-80c67113f984"},"vehicle_type_id":"4","last_reported":1767608071,"current_range_meters":4800,"station_id":"ce4bgs12rcd13ifvqcag","pricing_plan_id":"cebpf4jnsgd1na2vs0mg"},{"bike_id":"2a121ede-0a24-482a-80af-c6ef1da34d0d","system_id":"levelo_inurba_marseille","lat":43.2929,"lon":5.37455,"is_reserved":false,"is_disabled":false,"rental_uris":{"android":"levelo://app?vid=2a121ede-0a24-482a-80af-c6ef1da34d0d","ios":"levelo://app?vid=2a121ede-0a24-482a-80af-c6ef1da34d0d"},"vehicle_type_id":"4","last_reported":1767608071,"current_range_meters":4800,"station_id":"ce4bgi12rcd13ifvqb70","pricing_plan_id":"cebpf4jnsgd1na2vs0mg"},{"bike_id":"ecfba3ac-804e-418b-a7fa-cc102335e836","system_id":"levelo_inurba_marseille","lat":43.30308,"lon":5.45647,"is_reserved":false,"is_disabled":false,"rental_uris":{"android":"levelo://app?vid=ecfba3ac-804e-418b-a7fa-cc102335e836","ios":"levelo://app?vid=ecfba3ac-804e-418b-a7fa-cc102335e836"},"vehicle_type_id":"4","last_reported":1767608071,"current_range_meters":4800,"station_id":"","pricing_plan_id":"cebpf4jnsgd1na2vs0mg"},{"bike_id":"bdede2df-5136-4975-b8bc-afb2bb9fe55a","system_id":"levelo_inurba_marseille","lat":43.26216,"lon":5.40478,"is_reserved":false,"is_disabled":false,"rental_uris":{"android":"levelo://app?vid=bdede2df-5136-4975-b8bc-afb2bb9fe55a","ios":"levelo://app?vid=bdede2df-5136-4975-b8bc-afb2bb9fe55a"},"vehicle_type_id":"4","last_reported":1767608071,"current_range_meters":4800,"station_id":"ce4bhmh2rcd13ifvqgmg","pricing_plan_id":"cebpf4jnsgd1na2vs0mg"},{"bike_id":"9a9d89e1-ed3b-4e37-9ae7-756165f3aeff","system_id":"levelo_inurba_marseille","lat":43.272124,"lon":5.391804,"is_reserved":false,"is_disabled":false,"rental_uris":{"android":"levelo://app?vid=9a9d89e1-ed3b-4e37-9ae7-756165f3aeff","ios":"levelo://app?vid=9a9d89e1-ed3b-4e37-9ae7-756165f3aeff"},"vehicle_type_id":"4","last_reported":1767608071,"current_range_meters":4800,"station_id":"ce4bhhp2rcd13ifvqfm0","pricing_plan_id":"cebpf4jnsgd1na2vs0mg"},{"bike_id":"efd33062-2cef-445f-af98-648f578e9c2a","system_id":"levelo_inurba_marseille","lat":43.32622,"lon":5.41931,"is_reserved":false,"is_disabled":false,"rental_uris":{"android":"levelo://app?vid=efd33062-2cef-445f-af98-648f578e9c2a","ios":"levelo://app?vid=efd33062-2cef-445f-af98-648f578e9c2a"},"vehicle_type_id":"4","last_reported":1767608071,"current_range_meters":5600,"station_id":"","pricing_plan_id":"cebpf4jnsgd1na2vs0mg"},{"bike_id":"067249c4-fb35-421e-9a6c-c895241c197a","system_id":"levelo_inurba_marseille","lat":43.29486,"lon":5.39308,"is_reserved":false,"is_disabled":false,"rental_uris":{"android":"levelo://app?vid=067249c4-fb35-421e-9a6c-c895241c197a","ios":"levelo://app?vid=067249c4-fb35-421e-9a6c-c895241c197a"},"vehicle_type_id":"4","last_reported":1767608071,"current_range_meters":5600,"station_id":"","pricing_plan_id":"cebpf4jnsgd1na2vs0mg"},{"bike_id":"225bdd2a-0ec2-4312-a816-23bf65227ab6","system_id":"levelo_inurba_marseille","lat":43.26367,"lon":5.41089,"is_reserved":false,"is_disabled":true,"rental_uris":{"android":"levelo://app?vid=225bdd2a-0ec2-4312-a816-23bf65227ab6","ios":"levelo://app?vid=225bdd2a-0ec2-4312-a816-23bf65227ab6"},"vehicle_type_id":"4","last_reported":1767608071,"current_range_meters":5600,"station_id":"","pricing_plan_id":"cebpf4jnsgd1na2vs0mg"},{"bike_id":"90d22c71-20fc-4cbc-87b3-42495e1fb6ef","system_id":"levelo_inurba_marseille","lat":43.29668,"lon":5.36587,"is_reserved":false,"is_disabled":false,"rental_uris":{"android":"levelo://app?vid=90d22c71-20fc-4cbc-87b3-42495e1fb6ef","ios":"levelo://app?vid=90d22c71-20fc-4cbc-87b3-42495e1fb6ef"},"vehicle_type_id":"4","last_reported":1767608071,"current_range_meters":5600,"station_id":"ce4bgn12rcd13ifvqbt0","pricing_plan_id":"cebpf4jnsgd1na2vs0mg"},{"bike_id":"050f47f9-c4e7-47b5-bec0-71c05ca51658","system_id":"levelo_inurba_marseille","lat":43.31093,"lon":5.38346,"is_reserved":false,"is_disabled":false,"rental_uris":{"android":"levelo://app?vid=050f47f9-c4e7-47b5-bec0-71c05ca51658","ios":"levelo://app?vid=050f47f9-c4e7-47b5-bec0-71c05ca51658"},"vehicle_type_id":"4","last_reported":1767608071,"current_range_meters":5600,"station_id":"ce4bgv92rcd13ifvqcr0","pricing_plan_id":"cebpf4jnsgd1na2vs0mg"},{"bike_id":"02ff1d46-61cc-4d9d-bb70-e643a204102f","system_id":"levelo_inurba_marseille","lat":43.29593,"lon":5.38091,"is_reserved":false,"is_disabled":false,"rental_uris":{"android":"levelo://app?vid=02ff1d46-61cc-4d9d-bb70-e643a204102f","ios":"levelo://app?vid=02ff1d46-61cc-4d9d-bb70-e643a204102f"},"vehicle_type_id":"4","last_reported":1767608071,"current_range_meters":5600,"station_id":"ce4bgl12rcd13ifvqbo0","pricing_plan_id":"cebpf4jnsgd1na2vs0mg"},{"bike_id":"f37c8ab2-4055-4d0c-bc22-679bade32c8c","system_id":"levelo_inurba_marseille","lat":43.30648,"lon":5.37204,"is_reserved":false,"is_disabled":false,"rental_uris":{"android":"levelo://app?vid=f37c8ab2-4055-4d0c-bc22-679bade32c8c","ios":"levelo://app?vid=f37c8ab2-4055-4d0c-bc22-679bade32c8c"},"vehicle_type_id":"4","last_reported":1767608071,"current_range_meters":5600,"station_id":"ce4bgqh2rcd13ifvqc4g","pricing_plan_id":"cebpf4jnsgd1na2vs0mg"},{"bike_id":"c966fa7f-540d-4e2a-bc2b-5644b9dfd18d","system_id":"levelo_inurba_marseille","lat":43.30547,"lon":5.3672,"is_reserved":false,"is_disabled":false,"rental_uris":{"android":"levelo://app?vid=c966fa7f-540d-4e2a-bc2b-5644b9dfd18d","ios":"levelo://app?vid=c966fa7f-540d-4e2a-bc2b-5644b9dfd18d"},"vehicle_type_id":"4","last_reported":1767608071,"current_range_meters":5600,"station_id":"ce4bgrp2rcd13ifvqc9g","pricing_plan_id":"cebpf4jnsgd1na2vs0mg"},{"bike_id":"278b026d-7c90-4296-9421-3e0684d777fa","system_id":"levelo_inurba_marseille","lat":43.29706,"lon":5.376858,"is_reserved":false,"is_disabled":false,"rental_uris":{"android":"levelo://app?vid=278b026d-7c90-4296-9421-3e0684d777fa","ios":"levelo://app?vid=278b026d-7c90-4296-9421-3e0684d777fa"},"vehicle_type_id":"4","last_reported":1767608071,"current_range_meters":5600,"station_id":"ce4bgkh2rcd13ifvqbl0","pricing_plan_id":"cebpf4jnsgd1na2vs0mg"},{"bike_id":"12a80fe3-61e3-412b-a4be-0e9fe67491bf","system_id":"levelo_inurba_marseille","lat":43.25509,"lon":5.37663,"is_reserved":false,"is_disabled":false,"rental_uris":{"android":"levelo://app?vid=12a80fe3-61e3-412b-a4be-0e9fe67491bf","ios":"levelo://app?vid=12a80fe3-61e3-412b-a4be-0e9fe67491bf"},"vehicle_type_id":"4","last_reported":1767608071,"current_range_meters":5600,"station_id":"ce4bhh12rcd13ifvqff0","pricing_plan_id":"cebpf4jnsgd1na2vs0mg"},{"bike_id":"5f40631d-9a4a-4ee3-8fd0-5c76c6a9d9ee","system_id":"levelo_inurba_marseille","lat":43.271901,"lon":5.409926,"is_reserved":false,"is_disabled":false,"rental_uris":{"android":"levelo://app?vid=5f40631d-9a4a-4ee3-8fd0-5c76c6a9d9ee","ios":"levelo://app?vid=5f40631d-9a4a-4ee3-8fd0-5c76c6a9d9ee"},"vehicle_type_id":"4","last_reported":1767608071,"current_range_meters":6000,"station_id":"ce4bhl12rcd13ifvqgf0","pricing_plan_id":"cebpf4jnsgd1na2vs0mg"},{"bike_id":"9a4508be-da1e-4b60-8c57-f6164bd9ccab","system_id":"levelo_inurba_marseille","lat":43.29933,"lon":5.36556,"is_reserved":false,"is_disabled":false,"rental_uris":{"android":"levelo://app?vid=9a4508be-da1e-4b60-8c57-f6164bd9ccab","ios":"levelo://app?vid=9a4508be-da1e-4b60-8c57-f6164bd9ccab"},"vehicle_type_id":"4","last_reported":1767608071,"current_range_meters":6000,"station_id":"ce4bgm92rcd13ifvqbr0","pricing_plan_id":"cebpf4jnsgd1na2vs0mg"},{"bike_id":"66b553e9-0cf1-4dd2-828c-a7a8e942eb4a","system_id":"levelo_inurba_marseille","lat":43.28943,"lon":5.39644,"is_reserved":false,"is_disabled":false,"rental_uris":{"android":"levelo://app?vid=66b553e9-0cf1-4dd2-828c-a7a8e942eb4a","ios":"levelo://app?vid=66b553e9-0cf1-4dd2-828c-a7a8e942eb4a"},"vehicle_type_id":"4","last_reported":1767608071,"current_range_meters":6000,"station_id":"ce4bh3h2rcd13ifvqdn0","pricing_plan_id":"cebpf4jnsgd1na2vs0mg"},{"bike_id":"0e471836-29c5-4d70-93bc-4b375d486538","system_id":"levelo_inurba_marseille","lat":43.29451,"lon":5.39715,"is_reserved":false,"is_disabled":false,"rental_uris":{"android":"levelo://app?vid=0e471836-29c5-4d70-93bc-4b375d486538","ios":"levelo://app?vid=0e471836-29c5-4d70-93bc-4b375d486538"},"vehicle_type_id":"4","last_reported":1767608071,"current_range_meters":6000,"station_id":"ce4bh3h2rcd13ifvqdo0","pricing_plan_id":"cebpf4jnsgd1na2vs0mg"},{"bike_id":"86f4117e-bfd7-4a5f-b403-eeb9a7153bb3","system_id":"levelo_inurba_marseille","lat":43.225324,"lon":5.348299,"is_reserved":false,"is_disabled":false,"rental_uris":{"android":"levelo://app?vid=86f4117e-bfd7-4a5f-b403-eeb9a7153bb3","ios":"levelo://app?vid=86f4117e-bfd7-4a5f-b403-eeb9a7153bb3"},"vehicle_type_id":"4","last_reported":1767608071,"current_range_meters":6000,"station_id":"","pricing_plan_id":"cebpf4jnsgd1na2vs0mg"},{"bike_id":"3fedbda4-18fb-4459-8990-789e6012cbd1","system_id":"levelo_inurba_marseille","lat":43.2938,"lon":5.37854,"is_reserved":false,"is_disabled":false,"rental_uris":{"android":"levelo://app?vid=3fedbda4-18fb-4459-8990-789e6012cbd1","ios":"levelo://app?vid=3fedbda4-18fb-4459-8990-789e6012cbd1"},"vehicle_type_id":"4","last_reported":1767608071,"current_range_meters":6000,"station_id":"ce4bgjh2rcd13ifvqbf0","pricing_plan_id":"cebpf4jnsgd1na2vs0mg"},{"bike_id":"ea433994-4165-420a-9223-37582f30485d","system_id":"levelo_inurba_marseille","lat":43.30312,"lon":5.37824,"is_reserved":false,"is_disabled":false,"rental_uris":{"android":"levelo://app?vid=ea433994-4165-420a-9223-37582f30485d","ios":"levelo://app?vid=ea433994-4165-420a-9223-37582f30485d"},"vehicle_type_id":"4","last_reported":1767608071,"current_range_meters":6000,"station_id":"","pricing_plan_id":"cebpf4jnsgd1na2vs0mg"},{"bike_id":"20600a83-ffb2-4ea6-adcc-6f03f7742df5","system_id":"levelo_inurba_marseille","lat":43.27067,"lon":5.42283,"is_reserved":false,"is_disabled":false,"rental_uris":{"android":"levelo://app?vid=20600a83-ffb2-4ea6-adcc-6f03f7742df5","ios":"levelo://app?vid=20600a83-ffb2-4ea6-adcc-6f03f7742df5"},"vehicle_type_id":"4","last_reported":1767608071,"current_range_meters":6000,"station_id":"ce4bhk92rcd13ifvqgb0","pricing_plan_id":"cebpf4jnsgd1na2vs0mg"},{"bike_id":"09de8293-0bc7-4093-9fd7-78e5ee68b962","system_id":"levelo_inurba_marseille","lat":43.27991,"lon":5.41648,"is_reserved":false,"is_disabled":false,"rental_uris":{"android":"levelo://app?vid=09de8293-0bc7-4093-9fd7-78e5ee68b962","ios":"levelo://app?vid=09de8293-0bc7-4093-9fd7-78e5ee68b962"},"vehicle_type_id":"4","last_reported":1767608071,"current_range_meters":6000,"station_id":"ce4bho12rcd13ifvqh1g","pricing_plan_id":"cebpf4jnsgd1na2vs0mg"},{"bike_id":"8e000377-6bb2-46ca-84e4-f3d2a4baf08c","system_id":"levelo_inurba_marseille","lat":43.239629,"lon":5.366348,"is_reserved":false,"is_disabled":false,"rental_uris":{"android":"levelo://app?vid=8e000377-6bb2-46ca-84e4-f3d2a4baf08c","ios":"levelo://app?vid=8e000377-6bb2-46ca-84e4-f3d2a4baf08c"},"vehicle_type_id":"4","last_reported":1767608071,"current_range_meters":6000,"station_id":"ce4bhi12rcd13ifvqfp0","pricing_plan_id":"cebpf4jnsgd1na2vs0mg"},{"bike_id":"4a2d0bd7-1a95-48c1-92d2-8f9a54867963","system_id":"levelo_inurba_marseille","lat":43.231944,"lon":5.355499,"is_reserved":false,"is_disabled":false,"rental_uris":{"android":"levelo://app?vid=4a2d0bd7-1a95-48c1-92d2-8f9a54867963","ios":"levelo://app?vid=4a2d0bd7-1a95-48c1-92d2-8f9a54867963"},"vehicle_type_id":"4","last_reported":1767608071,"current_range_meters":6000,"station_id":"","pricing_plan_id":"cebpf4jnsgd1na2vs0mg"},{"bike_id":"f4d6478d-8b0e-4cd8-8426-1f22392dad13","system_id":"levelo_inurba_marseille","lat":43.2847,"lon":5.38412,"is_reserved":false,"is_disabled":false,"rental_uris":{"android":"levelo://app?vid=f4d6478d-8b0e-4cd8-8426-1f22392dad13","ios":"levelo://app?vid=f4d6478d-8b0e-4cd8-8426-1f22392dad13"},"vehicle_type_id":"4","last_reported":1767608071,"current_range_meters":6000,"station_id":"ce4bh512rcd13ifvqe3g","pricing_plan_id":"cebpf4jnsgd1na2vs0mg"},{"bike_id":"38478ce1-a447-4641-99f3-89c5bb836bdb","system_id":"levelo_inurba_marseille","lat":43.27428,"lon":5.41861,"is_reserved":false,"is_disabled":false,"rental_uris":{"android":"levelo://app?vid=38478ce1-a447-4641-99f3-89c5bb836bdb","ios":"levelo://app?vid=38478ce1-a447-4641-99f3-89c5bb836bdb"},"vehicle_type_id":"4","last_reported":1767608071,"current_range_meters":6000,"station_id":"","pricing_plan_id":"cebpf4jnsgd1na2vs0mg"},{"bike_id":"47f5f321-0859-44a5-a3e2-7e35572c8bac","system_id":"levelo_inurba_marseille","lat":43.27095,"lon":5.42244,"is_reserved":false,"is_disabled":false,"rental_uris":{"android":"levelo://app?vid=47f5f321-0859-44a5-a3e2-7e35572c8bac","ios":"levelo://app?vid=47f5f321-0859-44a5-a3e2-7e35572c8bac"},"vehicle_type_id":"4","last_reported":1767608071,"current_range_meters":6000,"station_id":"ce4bhk92rcd13ifvqgb0","pricing_plan_id":"cebpf4jnsgd1na2vs0mg"},{"bike_id":"9b4021cf-15f5-49ee-bfc4-492922ebf4c9","system_id":"levelo_inurba_marseille","lat":43.30277,"lon":5.37264,"is_reserved":false,"is_disabled":false,"rental_uris":{"android":"levelo://app?vid=9b4021cf-15f5-49ee-bfc4-492922ebf4c9","ios":"levelo://app?vid=9b4021cf-15f5-49ee-bfc4-492922ebf4c9"},"vehicle_type_id":"4","last_reported":1767608071,"current_range_meters":6000,"station_id":"","pricing_plan_id":"cebpf4jnsgd1na2vs0mg"},{"bike_id":"ce5b50c4-8b7f-4836-923c-9b6bb4694e91","system_id":"levelo_inurba_marseille","lat":43.29911,"lon":5.37562,"is_reserved":false,"is_disabled":false,"rental_uris":{"android":"levelo://app?vid=ce5b50c4-8b7f-4836-923c-9b6bb4694e91","ios":"levelo://app?vid=ce5b50c4-8b7f-4836-923c-9b6bb4694e91"},"vehicle_type_id":"4","last_reported":1767608071,"current_range_meters":6000,"station_id":"","pricing_plan_id":"cebpf4jnsgd1na2vs0mg"},{"bike_id":"84d50ded-4138-49f0-b1b3-e3d414324cce","system_id":"levelo_inurba_marseille","lat":43.29835,"lon":5.36276,"is_reserved":false,"is_disabled":false,"rental_uris":{"android":"levelo://app?vid=84d50ded-4138-49f0-b1b3-e3d414324cce","ios":"levelo://app?vid=84d50ded-4138-49f0-b1b3-e3d414324cce"},"vehicle_type_id":"4","last_reported":1767608071,"current_range_meters":6400,"station_id":"ce4bgpp2rcd13ifvqc3g","pricing_plan_id":"cebpf4jnsgd1na2vs0mg"},{"bike_id":"7167ba4f-aa65-4708-ba59-8c724bc4a4df","system_id":"levelo_inurba_marseille","lat":43.27093,"lon":5.42296,"is_reserved":false,"is_disabled":false,"rental_uris":{"android":"levelo://app?vid=7167ba4f-aa65-4708-ba59-8c724bc4a4df","ios":"levelo://app?vid=7167ba4f-aa65-4708-ba59-8c724bc4a4df"},"vehicle_type_id":"4","last_reported":1767608071,"current_range_meters":6400,"station_id":"ce4bhk92rcd13ifvqgb0","pricing_plan_id":"cebpf4jnsgd1na2vs0mg"},{"bike_id":"3a4a33f2-0c22-4cbf-9583-42e1fc73a2ca","system_id":"levelo_inurba_marseille","lat":43.2799,"lon":5.40032,"is_reserved":false,"is_disabled":false,"rental_uris":{"android":"levelo://app?vid=3a4a33f2-0c22-4cbf-9583-42e1fc73a2ca","ios":"levelo://app?vid=3a4a33f2-0c22-4cbf-9583-42e1fc73a2ca"},"vehicle_type_id":"4","last_reported":1767608071,"current_range_meters":6400,"station_id":"ce4bho92rcd13ifvqh4g","pricing_plan_id":"cebpf4jnsgd1na2vs0mg"},{"bike_id":"440d3194-0d14-4ad3-af30-300f942592c2","system_id":"levelo_inurba_marseille","lat":43.31117,"lon":5.37749,"is_reserved":false,"is_disabled":false,"rental_uris":{"android":"levelo://app?vid=440d3194-0d14-4ad3-af30-300f942592c2","ios":"levelo://app?vid=440d3194-0d14-4ad3-af30-300f942592c2"},"vehicle_type_id":"4","last_reported":1767608071,"current_range_meters":6400,"station_id":"ce4bgt92rcd13ifvqcg0","pricing_plan_id":"cebpf4jnsgd1na2vs0mg"},{"bike_id":"3115bbd7-1c85-4603-a617-db0a037ecab5","system_id":"levelo_inurba_marseille","lat":43.29408,"lon":5.43275,"is_reserved":false,"is_disabled":false,"rental_uris":{"android":"levelo://app?vid=3115bbd7-1c85-4603-a617-db0a037ecab5","ios":"levelo://app?vid=3115bbd7-1c85-4603-a617-db0a037ecab5"},"vehicle_type_id":"4","last_reported":1767608071,"current_range_meters":6400,"station_id":"","pricing_plan_id":"cebpf4jnsgd1na2vs0mg"},{"bike_id":"8569552e-a2e0-4de0-870e-4a9f15a35ade","system_id":"levelo_inurba_marseille","lat":43.24077,"lon":5.37761,"is_reserved":false,"is_disabled":false,"rental_uris":{"android":"levelo://app?vid=8569552e-a2e0-4de0-870e-4a9f15a35ade","ios":"levelo://app?vid=8569552e-a2e0-4de0-870e-4a9f15a35ade"},"vehicle_type_id":"4","last_reported":1767608071,"current_range_meters":6400,"station_id":"ce4bhnp2rcd13ifvqgvg","pricing_plan_id":"cebpf4jnsgd1na2vs0mg"},{"bike_id":"8f67289a-c445-41d3-a7c1-2b5874f96ec2","system_id":"levelo_inurba_marseille","lat":43.31329,"lon":5.40446,"is_reserved":false,"is_disabled":false,"rental_uris":{"android":"levelo://app?vid=8f67289a-c445-41d3-a7c1-2b5874f96ec2","ios":"levelo://app?vid=8f67289a-c445-41d3-a7c1-2b5874f96ec2"},"vehicle_type_id":"4","last_reported":1767608071,"current_range_meters":6400,"station_id":"","pricing_plan_id":"cebpf4jnsgd1na2vs0mg"},{"bike_id":"bede67ae-d11b-47aa-b9f8-7e50bcc4ccf2","system_id":"levelo_inurba_marseille","lat":43.270668,"lon":5.402656,"is_reserved":false,"is_disabled":false,"rental_uris":{"android":"levelo://app?vid=bede67ae-d11b-47aa-b9f8-7e50bcc4ccf2","ios":"levelo://app?vid=bede67ae-d11b-47aa-b9f8-7e50bcc4ccf2"},"vehicle_type_id":"4","last_reported":1767608071,"current_range_meters":6400,"station_id":"ce4bhk92rcd13ifvqgc0","pricing_plan_id":"cebpf4jnsgd1na2vs0mg"},{"bike_id":"ec2e2d97-541d-4f0e-9289-f85c25486ad3","system_id":"levelo_inurba_marseille","lat":43.25717,"lon":5.4111,"is_reserved":false,"is_disabled":false,"rental_uris":{"android":"levelo://app?vid=ec2e2d97-541d-4f0e-9289-f85c25486ad3","ios":"levelo://app?vid=ec2e2d97-541d-4f0e-9289-f85c25486ad3"},"vehicle_type_id":"4","last_reported":1767608071,"current_range_meters":6400,"station_id":"ce4bhkp2rcd13ifvqgd0","pricing_plan_id":"cebpf4jnsgd1na2vs0mg"},{"bike_id":"24f7e1d6-0722-4c30-b6f6-93c144573baf","system_id":"levelo_inurba_marseille","lat":43.29006,"lon":5.35613,"is_reserved":false,"is_disabled":false,"rental_uris":{"android":"levelo://app?vid=24f7e1d6-0722-4c30-b6f6-93c144573baf","ios":"levelo://app?vid=24f7e1d6-0722-4c30-b6f6-93c144573baf"},"vehicle_type_id":"4","last_reported":1767608071,"current_range_meters":6400,"station_id":"ce4bhb92rcd13ifvqen0","pricing_plan_id":"cebpf4jnsgd1na2vs0mg"},{"bike_id":"61bede02-2851-4fcf-827d-afeac7ac0523","system_id":"levelo_inurba_marseille","lat":43.29858,"lon":5.3766,"is_reserved":false,"is_disabled":false,"rental_uris":{"android":"levelo://app?vid=61bede02-2851-4fcf-827d-afeac7ac0523","ios":"levelo://app?vid=61bede02-2851-4fcf-827d-afeac7ac0523"},"vehicle_type_id":"4","last_reported":1767608071,"current_range_meters":6400,"station_id":"ce4bhr92rcd13ifvqhrg","pricing_plan_id":"cebpf4jnsgd1na2vs0mg"},{"bike_id":"17122469-6fe8-44cc-83aa-2add588c9ff0","system_id":"levelo_inurba_marseille","lat":43.27077,"lon":5.42264,"is_reserved":false,"is_disabled":false,"rental_uris":{"android":"levelo://app?vid=17122469-6fe8-44cc-83aa-2add588c9ff0","ios":"levelo://app?vid=17122469-6fe8-44cc-83aa-2add588c9ff0"},"vehicle_type_id":"4","last_reported":1767608071,"current_range_meters":6400,"station_id":"ce4bhk92rcd13ifvqgb0","pricing_plan_id":"cebpf4jnsgd1na2vs0mg"},{"bike_id":"d9318f65-ec50-471d-911b-5b9ba9433a63","system_id":"levelo_inurba_marseille","lat":43.24179,"lon":5.39734,"is_reserved":false,"is_disabled":false,"rental_uris":{"android":"levelo://app?vid=d9318f65-ec50-471d-911b-5b9ba9433a63","ios":"levelo://app?vid=d9318f65-ec50-471d-911b-5b9ba9433a63"},"vehicle_type_id":"4","last_reported":1767608071,"current_range_meters":6400,"station_id":"ce4bhn12rcd13ifvqgpg","pricing_plan_id":"cebpf4jnsgd1na2vs0mg"},{"bike_id":"1f1bfc90-c16d-43bf-b03c-d479766ea213","system_id":"levelo_inurba_marseille","lat":43.217455,"lon":5.34617,"is_reserved":false,"is_disabled":false,"rental_uris":{"android":"levelo://app?vid=1f1bfc90-c16d-43bf-b03c-d479766ea213","ios":"levelo://app?vid=1f1bfc90-c16d-43bf-b03c-d479766ea213"},"vehicle_type_id":"4","last_reported":1767608071,"current_range_meters":6400,"station_id":"st_cvj6r9ubvosntc0bgbag","pricing_plan_id":"cebpf4jnsgd1na2vs0mg"},{"bike_id":"a6dba7cb-e2f5-4858-8914-f775ef56796c","system_id":"levelo_inurba_marseille","lat":43.24947,"lon":5.4049,"is_reserved":false,"is_disabled":false,"rental_uris":{"android":"levelo://app?vid=a6dba7cb-e2f5-4858-8914-f775ef56796c","ios":"levelo://app?vid=a6dba7cb-e2f5-4858-8914-f775ef56796c"},"vehicle_type_id":"4","last_reported":1767608071,"current_range_meters":6400,"station_id":"st_d2ngiaodas8pm72gd1h0","pricing_plan_id":"cebpf4jnsgd1na2vs0mg"},{"bike_id":"8c3e87fb-1d28-47b4-8c2c-d2b9f5aa74c7","system_id":"levelo_inurba_marseille","lat":43.28157,"lon":5.4265,"is_reserved":false,"is_disabled":false,"rental_uris":{"android":"levelo://app?vid=8c3e87fb-1d28-47b4-8c2c-d2b9f5aa74c7","ios":"levelo://app?vid=8c3e87fb-1d28-47b4-8c2c-d2b9f5aa74c7"},"vehicle_type_id":"4","last_reported":1767608071,"current_range_meters":6400,"station_id":"ce4bhnh2rcd13ifvqgug","pricing_plan_id":"cebpf4jnsgd1na2vs0mg"},{"bike_id":"313a26e2-6d5c-4db1-9b5b-ccc981e39b88","system_id":"levelo_inurba_marseille","lat":43.23783,"lon":5.36632,"is_reserved":false,"is_disabled":false,"rental_uris":{"android":"levelo://app?vid=313a26e2-6d5c-4db1-9b5b-ccc981e39b88","ios":"levelo://app?vid=313a26e2-6d5c-4db1-9b5b-ccc981e39b88"},"vehicle_type_id":"4","last_reported":1767608071,"current_range_meters":6400,"station_id":"st_d3nk18o9ro0c73en2l3g","pricing_plan_id":"cebpf4jnsgd1na2vs0mg"},{"bike_id":"59bca459-f8ba-4ca0-be09-8ae241edab81","system_id":"levelo_inurba_marseille","lat":43.333411,"lon":5.411336,"is_reserved":false,"is_disabled":false,"rental_uris":{"android":"levelo://app?vid=59bca459-f8ba-4ca0-be09-8ae241edab81","ios":"levelo://app?vid=59bca459-f8ba-4ca0-be09-8ae241edab81"},"vehicle_type_id":"4","last_reported":1767608071,"current_range_meters":6400,"station_id":"","pricing_plan_id":"cebpf4jnsgd1na2vs0mg"},{"bike_id":"689e1e25-96b9-418c-bbe1-0e8f9558c52f","system_id":"levelo_inurba_marseille","lat":43.31328,"lon":5.37666,"is_reserved":false,"is_disabled":false,"rental_uris":{"android":"levelo://app?vid=689e1e25-96b9-418c-bbe1-0e8f9558c52f","ios":"levelo://app?vid=689e1e25-96b9-418c-bbe1-0e8f9558c52f"},"vehicle_type_id":"4","last_reported":1767608071,"current_range_meters":6400,"station_id":"","pricing_plan_id":"cebpf4jnsgd1na2vs0mg"},{"bike_id":"cf3413ab-e422-46e1-8949-476104009a26","system_id":"levelo_inurba_marseille","lat":43.27836,"lon":5.3921,"is_reserved":false,"is_disabled":false,"rental_uris":{"android":"levelo://app?vid=cf3413ab-e422-46e1-8949-476104009a26","ios":"levelo://app?vid=cf3413ab-e422-46e1-8949-476104009a26"},"vehicle_type_id":"4","last_reported":1767608071,"current_range_meters":6400,"station_id":"ce4bhjp2rcd13ifvqga0","pricing_plan_id":"cebpf4jnsgd1na2vs0mg"},{"bike_id":"6d7d192a-6d54-469c-8fb1-e8e3b9db202c","system_id":"levelo_inurba_marseille","lat":43.26231,"lon":5.40462,"is_reserved":false,"is_disabled":false,"rental_uris":{"android":"levelo://app?vid=6d7d192a-6d54-469c-8fb1-e8e3b9db202c","ios":"levelo://app?vid=6d7d192a-6d54-469c-8fb1-e8e3b9db202c"},"vehicle_type_id":"4","last_reported":1767608071,"current_range_meters":6400,"station_id":"ce4bhmh2rcd13ifvqgmg","pricing_plan_id":"cebpf4jnsgd1na2vs0mg"},{"bike_id":"2d00e765-c5e3-4921-bdc3-7b346757eae1","system_id":"levelo_inurba_marseille","lat":43.28387,"lon":5.43314,"is_reserved":false,"is_disabled":false,"rental_uris":{"android":"levelo://app?vid=2d00e765-c5e3-4921-bdc3-7b346757eae1","ios":"levelo://app?vid=2d00e765-c5e3-4921-bdc3-7b346757eae1"},"vehicle_type_id":"4","last_reported":1767608071,"current_range_meters":6800,"station_id":"","pricing_plan_id":"cebpf4jnsgd1na2vs0mg"},{"bike_id":"d7927a0c-acc6-4dbc-b121-3fe1c24d45cd","system_id":"levelo_inurba_marseille","lat":43.23962,"lon":5.36654,"is_reserved":false,"is_disabled":false,"rental_uris":{"android":"levelo://app?vid=d7927a0c-acc6-4dbc-b121-3fe1c24d45cd","ios":"levelo://app?vid=d7927a0c-acc6-4dbc-b121-3fe1c24d45cd"},"vehicle_type_id":"4","last_reported":1767608071,"current_range_meters":6800,"station_id":"ce4bhi12rcd13ifvqfp0","pricing_plan_id":"cebpf4jnsgd1na2vs0mg"},{"bike_id":"fa425a2b-b01f-4040-b6da-de1021f8b95c","system_id":"levelo_inurba_marseille","lat":43.29459,"lon":5.37943,"is_reserved":false,"is_disabled":false,"rental_uris":{"android":"levelo://app?vid=fa425a2b-b01f-4040-b6da-de1021f8b95c","ios":"levelo://app?vid=fa425a2b-b01f-4040-b6da-de1021f8b95c"},"vehicle_type_id":"4","last_reported":1767608071,"current_range_meters":6800,"station_id":"","pricing_plan_id":"cebpf4jnsgd1na2vs0mg"},{"bike_id":"2a61f7a8-d2f7-4b6f-8828-528b5bab141c","system_id":"levelo_inurba_marseille","lat":43.27179,"lon":5.41011,"is_reserved":false,"is_disabled":false,"rental_uris":{"android":"levelo://app?vid=2a61f7a8-d2f7-4b6f-8828-528b5bab141c","ios":"levelo://app?vid=2a61f7a8-d2f7-4b6f-8828-528b5bab141c"},"vehicle_type_id":"4","last_reported":1767608071,"current_range_meters":6800,"station_id":"ce4bhl12rcd13ifvqgf0","pricing_plan_id":"cebpf4jnsgd1na2vs0mg"},{"bike_id":"1c4b2bf4-ceba-465d-8191-639338c588e3","system_id":"levelo_inurba_marseille","lat":43.27084,"lon":5.42235,"is_reserved":false,"is_disabled":false,"rental_uris":{"android":"levelo://app?vid=1c4b2bf4-ceba-465d-8191-639338c588e3","ios":"levelo://app?vid=1c4b2bf4-ceba-465d-8191-639338c588e3"},"vehicle_type_id":"4","last_reported":1767608071,"current_range_meters":6800,"station_id":"ce4bhk92rcd13ifvqgb0","pricing_plan_id":"cebpf4jnsgd1na2vs0mg"},{"bike_id":"246c6b83-d7eb-487f-b32f-aeb3bf09ab9b","system_id":"levelo_inurba_marseille","lat":43.274195,"lon":5.394195,"is_reserved":false,"is_disabled":false,"rental_uris":{"android":"levelo://app?vid=246c6b83-d7eb-487f-b32f-aeb3bf09ab9b","ios":"levelo://app?vid=246c6b83-d7eb-487f-b32f-aeb3bf09ab9b"},"vehicle_type_id":"4","last_reported":1767608071,"current_range_meters":6800,"station_id":"ce4bhdp2rcd13ifvqf20","pricing_plan_id":"cebpf4jnsgd1na2vs0mg"},{"bike_id":"895e91c4-84a8-40bd-8ea8-4cf94a0cb21b","system_id":"levelo_inurba_marseille","lat":43.30549,"lon":5.38436,"is_reserved":false,"is_disabled":false,"rental_uris":{"android":"levelo://app?vid=895e91c4-84a8-40bd-8ea8-4cf94a0cb21b","ios":"levelo://app?vid=895e91c4-84a8-40bd-8ea8-4cf94a0cb21b"},"vehicle_type_id":"4","last_reported":1767608071,"current_range_meters":6800,"station_id":"ce4bgg92rcd13ifvqb30","pricing_plan_id":"cebpf4jnsgd1na2vs0mg"},{"bike_id":"3f40a5f2-fac1-4f8c-b601-5ab221d91cf7","system_id":"levelo_inurba_marseille","lat":43.27404,"lon":5.39373,"is_reserved":false,"is_disabled":false,"rental_uris":{"android":"levelo://app?vid=3f40a5f2-fac1-4f8c-b601-5ab221d91cf7","ios":"levelo://app?vid=3f40a5f2-fac1-4f8c-b601-5ab221d91cf7"},"vehicle_type_id":"4","last_reported":1767608071,"current_range_meters":6800,"station_id":"ce4bhdp2rcd13ifvqf20","pricing_plan_id":"cebpf4jnsgd1na2vs0mg"},{"bike_id":"06868716-cb7f-4b55-bfe4-13c0ff95059e","system_id":"levelo_inurba_marseille","lat":43.284894,"lon":5.384326,"is_reserved":false,"is_disabled":false,"rental_uris":{"android":"levelo://app?vid=06868716-cb7f-4b55-bfe4-13c0ff95059e","ios":"levelo://app?vid=06868716-cb7f-4b55-bfe4-13c0ff95059e"},"vehicle_type_id":"4","last_reported":1767608071,"current_range_meters":6800,"station_id":"ce4bh512rcd13ifvqe3g","pricing_plan_id":"cebpf4jnsgd1na2vs0mg"},{"bike_id":"f45af1ed-ba57-4931-a22f-bc2fde3d778c","system_id":"levelo_inurba_marseille","lat":43.303822,"lon":5.424901,"is_reserved":false,"is_disabled":false,"rental_uris":{"android":"levelo://app?vid=f45af1ed-ba57-4931-a22f-bc2fde3d778c","ios":"levelo://app?vid=f45af1ed-ba57-4931-a22f-bc2fde3d778c"},"vehicle_type_id":"4","last_reported":1767608071,"current_range_meters":6800,"station_id":"ce4bhoh2rcd13ifvqh6g","pricing_plan_id":"cebpf4jnsgd1na2vs0mg"},{"bike_id":"ba6d00c7-98fb-4893-88c1-e89754894058","system_id":"levelo_inurba_marseille","lat":43.29248,"lon":5.37637,"is_reserved":false,"is_disabled":false,"rental_uris":{"android":"levelo://app?vid=ba6d00c7-98fb-4893-88c1-e89754894058","ios":"levelo://app?vid=ba6d00c7-98fb-4893-88c1-e89754894058"},"vehicle_type_id":"4","last_reported":1767608071,"current_range_meters":6800,"station_id":"ce4bgi12rcd13ifvqb80","pricing_plan_id":"cebpf4jnsgd1na2vs0mg"},{"bike_id":"1c4b8293-a967-49d2-92e1-b1729eeb58f7","system_id":"levelo_inurba_marseille","lat":43.27355,"lon":5.42404,"is_reserved":false,"is_disabled":false,"rental_uris":{"android":"levelo://app?vid=1c4b8293-a967-49d2-92e1-b1729eeb58f7","ios":"levelo://app?vid=1c4b8293-a967-49d2-92e1-b1729eeb58f7"},"vehicle_type_id":"4","last_reported":1767608071,"current_range_meters":6800,"station_id":"","pricing_plan_id":"cebpf4jnsgd1na2vs0mg"},{"bike_id":"bce66af8-8072-412b-8e25-869b7c8565d3","system_id":"levelo_inurba_marseille","lat":43.25823,"lon":5.39439,"is_reserved":false,"is_disabled":false,"rental_uris":{"android":"levelo://app?vid=bce66af8-8072-412b-8e25-869b7c8565d3","ios":"levelo://app?vid=bce66af8-8072-412b-8e25-869b7c8565d3"},"vehicle_type_id":"4","last_reported":1767608071,"current_range_meters":6800,"station_id":"ce4bhip2rcd13ifvqft0","pricing_plan_id":"cebpf4jnsgd1na2vs0mg"},{"bike_id":"e630d12d-138f-4190-b7d9-05082017e1c2","system_id":"levelo_inurba_marseille","lat":43.279197,"lon":5.395805,"is_reserved":false,"is_disabled":false,"rental_uris":{"android":"levelo://app?vid=e630d12d-138f-4190-b7d9-05082017e1c2","ios":"levelo://app?vid=e630d12d-138f-4190-b7d9-05082017e1c2"},"vehicle_type_id":"4","last_reported":1767608071,"current_range_meters":6800,"station_id":"ce4bhf92rcd13ifvqf40","pricing_plan_id":"cebpf4jnsgd1na2vs0mg"},{"bike_id":"da5c5a0f-95ef-4de5-9f48-33641c70fc23","system_id":"levelo_inurba_marseille","lat":43.26357,"lon":5.41074,"is_reserved":false,"is_disabled":false,"rental_uris":{"android":"levelo://app?vid=da5c5a0f-95ef-4de5-9f48-33641c70fc23","ios":"levelo://app?vid=da5c5a0f-95ef-4de5-9f48-33641c70fc23"},"vehicle_type_id":"4","last_reported":1767608071,"current_range_meters":6800,"station_id":"st_d4e5ca6na9uc73bfl5fg","pricing_plan_id":"cebpf4jnsgd1na2vs0mg"},{"bike_id":"edbb502a-babb-4b56-b7b2-69e8e10c7c11","system_id":"levelo_inurba_marseille","lat":43.2852,"lon":5.48363,"is_reserved":false,"is_disabled":false,"rental_uris":{"android":"levelo://app?vid=edbb502a-babb-4b56-b7b2-69e8e10c7c11","ios":"levelo://app?vid=edbb502a-babb-4b56-b7b2-69e8e10c7c11"},"vehicle_type_id":"4","last_reported":1767608071,"current_range_meters":6800,"station_id":"","pricing_plan_id":"cebpf4jnsgd1na2vs0mg"},{"bike_id":"693db67c-bb03-4814-abed-8ef0afc331ef","system_id":"levelo_inurba_marseille","lat":43.30538,"lon":5.36703,"is_reserved":false,"is_disabled":false,"rental_uris":{"android":"levelo://app?vid=693db67c-bb03-4814-abed-8ef0afc331ef","ios":"levelo://app?vid=693db67c-bb03-4814-abed-8ef0afc331ef"},"vehicle_type_id":"4","last_reported":1767608071,"current_range_meters":6800,"station_id":"ce4bgrp2rcd13ifvqc9g","pricing_plan_id":"cebpf4jnsgd1na2vs0mg"},{"bike_id":"64ad2198-bb6b-4352-8eba-06813ed4fceb","system_id":"levelo_inurba_marseille","lat":43.26217,"lon":5.40479,"is_reserved":false,"is_disabled":false,"rental_uris":{"android":"levelo://app?vid=64ad2198-bb6b-4352-8eba-06813ed4fceb","ios":"levelo://app?vid=64ad2198-bb6b-4352-8eba-06813ed4fceb"},"vehicle_type_id":"4","last_reported":1767608071,"current_range_meters":6800,"station_id":"ce4bhmh2rcd13ifvqgmg","pricing_plan_id":"cebpf4jnsgd1na2vs0mg"},{"bike_id":"27deac45-e711-41b2-b7a5-98c7278bfea1","system_id":"levelo_inurba_marseille","lat":43.25367,"lon":5.42159,"is_reserved":false,"is_disabled":false,"rental_uris":{"android":"levelo://app?vid=27deac45-e711-41b2-b7a5-98c7278bfea1","ios":"levelo://app?vid=27deac45-e711-41b2-b7a5-98c7278bfea1"},"vehicle_type_id":"4","last_reported":1767608071,"current_range_meters":6800,"station_id":"st_d2m65c5bi1j21697t3ng","pricing_plan_id":"cebpf4jnsgd1na2vs0mg"},{"bike_id":"0abda507-827b-4ba6-b5d5-a4467158d662","system_id":"levelo_inurba_marseille","lat":43.23183,"lon":5.39985,"is_reserved":false,"is_disabled":false,"rental_uris":{"android":"levelo://app?vid=0abda507-827b-4ba6-b5d5-a4467158d662","ios":"levelo://app?vid=0abda507-827b-4ba6-b5d5-a4467158d662"},"vehicle_type_id":"4","last_reported":1767608071,"current_range_meters":6800,"station_id":"ce4bhn12rcd13ifvqgqg","pricing_plan_id":"cebpf4jnsgd1na2vs0mg"},{"bike_id":"c48b8ab0-3aed-485b-9e87-5ea8f52478d4","system_id":"levelo_inurba_marseille","lat":43.31598,"lon":5.38399,"is_reserved":false,"is_disabled":false,"rental_uris":{"android":"levelo://app?vid=c48b8ab0-3aed-485b-9e87-5ea8f52478d4","ios":"levelo://app?vid=c48b8ab0-3aed-485b-9e87-5ea8f52478d4"},"vehicle_type_id":"4","last_reported":1767608071,"current_range_meters":6800,"station_id":"","pricing_plan_id":"cebpf4jnsgd1na2vs0mg"},{"bike_id":"edad4923-c57c-4b26-94be-edebf070c2f8","system_id":"levelo_inurba_marseille","lat":43.29851,"lon":5.36277,"is_reserved":false,"is_disabled":false,"rental_uris":{"android":"levelo://app?vid=edad4923-c57c-4b26-94be-edebf070c2f8","ios":"levelo://app?vid=edad4923-c57c-4b26-94be-edebf070c2f8"},"vehicle_type_id":"4","last_reported":1767608071,"current_range_meters":6800,"station_id":"ce4bgpp2rcd13ifvqc3g","pricing_plan_id":"cebpf4jnsgd1na2vs0mg"},{"bike_id":"9eb9f2a9-0def-423d-bc04-f48d9e280ab5","system_id":"levelo_inurba_marseille","lat":43.30537,"lon":5.36708,"is_reserved":false,"is_disabled":false,"rental_uris":{"android":"levelo://app?vid=9eb9f2a9-0def-423d-bc04-f48d9e280ab5","ios":"levelo://app?vid=9eb9f2a9-0def-423d-bc04-f48d9e280ab5"},"vehicle_type_id":"4","last_reported":1767608071,"current_range_meters":7200,"station_id":"ce4bgrp2rcd13ifvqc9g","pricing_plan_id":"cebpf4jnsgd1na2vs0mg"},{"bike_id":"8ec64094-d70b-40bc-ace1-abe2d837fbf9","system_id":"levelo_inurba_marseille","lat":43.27061,"lon":5.40267,"is_reserved":false,"is_disabled":false,"rental_uris":{"android":"levelo://app?vid=8ec64094-d70b-40bc-ace1-abe2d837fbf9","ios":"levelo://app?vid=8ec64094-d70b-40bc-ace1-abe2d837fbf9"},"vehicle_type_id":"4","last_reported":1767608071,"current_range_meters":7200,"station_id":"ce4bhk92rcd13ifvqgc0","pricing_plan_id":"cebpf4jnsgd1na2vs0mg"},{"bike_id":"beaa8deb-72e1-43ea-b30d-4be9f484e5a6","system_id":"levelo_inurba_marseille","lat":43.29487,"lon":5.43308,"is_reserved":false,"is_disabled":false,"rental_uris":{"android":"levelo://app?vid=beaa8deb-72e1-43ea-b30d-4be9f484e5a6","ios":"levelo://app?vid=beaa8deb-72e1-43ea-b30d-4be9f484e5a6"},"vehicle_type_id":"4","last_reported":1767608071,"current_range_meters":7200,"station_id":"st_d3j5ugp08ojc73fj9d10","pricing_plan_id":"cebpf4jnsgd1na2vs0mg"},{"bike_id":"85f65327-244d-4e0f-989f-0ca631a03630","system_id":"levelo_inurba_marseille","lat":43.28154,"lon":5.42638,"is_reserved":false,"is_disabled":false,"rental_uris":{"android":"levelo://app?vid=85f65327-244d-4e0f-989f-0ca631a03630","ios":"levelo://app?vid=85f65327-244d-4e0f-989f-0ca631a03630"},"vehicle_type_id":"4","last_reported":1767608071,"current_range_meters":7200,"station_id":"ce4bhnh2rcd13ifvqgug","pricing_plan_id":"cebpf4jnsgd1na2vs0mg"},{"bike_id":"13588b82-272e-4400-af96-5365185f6624","system_id":"levelo_inurba_marseille","lat":43.29557,"lon":5.37524,"is_reserved":false,"is_disabled":false,"rental_uris":{"android":"levelo://app?vid=13588b82-272e-4400-af96-5365185f6624","ios":"levelo://app?vid=13588b82-272e-4400-af96-5365185f6624"},"vehicle_type_id":"4","last_reported":1767608071,"current_range_meters":7200,"station_id":"ce4bgh92rcd13ifvqb50","pricing_plan_id":"cebpf4jnsgd1na2vs0mg"},{"bike_id":"3bc151a5-6a42-4f15-984e-e4dbbdbf3b09","system_id":"levelo_inurba_marseille","lat":43.32339,"lon":5.36739,"is_reserved":false,"is_disabled":false,"rental_uris":{"android":"levelo://app?vid=3bc151a5-6a42-4f15-984e-e4dbbdbf3b09","ios":"levelo://app?vid=3bc151a5-6a42-4f15-984e-e4dbbdbf3b09"},"vehicle_type_id":"4","last_reported":1767608071,"current_range_meters":7200,"station_id":"ce4bhsh2rcd13ifvqi2g","pricing_plan_id":"cebpf4jnsgd1na2vs0mg"},{"bike_id":"952ccc80-7181-4120-9423-08211bedb630","system_id":"levelo_inurba_marseille","lat":43.24072,"lon":5.37763,"is_reserved":false,"is_disabled":false,"rental_uris":{"android":"levelo://app?vid=952ccc80-7181-4120-9423-08211bedb630","ios":"levelo://app?vid=952ccc80-7181-4120-9423-08211bedb630"},"vehicle_type_id":"4","last_reported":1767608071,"current_range_meters":7200,"station_id":"ce4bhnp2rcd13ifvqgvg","pricing_plan_id":"cebpf4jnsgd1na2vs0mg"},{"bike_id":"a63d2d59-a10a-46f9-adcb-a6461219fb1b","system_id":"levelo_inurba_marseille","lat":43.23776,"lon":5.36631,"is_reserved":false,"is_disabled":false,"rental_uris":{"android":"levelo://app?vid=a63d2d59-a10a-46f9-adcb-a6461219fb1b","ios":"levelo://app?vid=a63d2d59-a10a-46f9-adcb-a6461219fb1b"},"vehicle_type_id":"4","last_reported":1767608071,"current_range_meters":7200,"station_id":"st_d3nk18o9ro0c73en2l3g","pricing_plan_id":"cebpf4jnsgd1na2vs0mg"},{"bike_id":"2d28e57e-73b2-4407-820d-34a7b9b643b1","system_id":"levelo_inurba_marseille","lat":43.30232,"lon":5.39059,"is_reserved":false,"is_disabled":false,"rental_uris":{"android":"levelo://app?vid=2d28e57e-73b2-4407-820d-34a7b9b643b1","ios":"levelo://app?vid=2d28e57e-73b2-4407-820d-34a7b9b643b1"},"vehicle_type_id":"4","last_reported":1767608071,"current_range_meters":7200,"station_id":"","pricing_plan_id":"cebpf4jnsgd1na2vs0mg"},{"bike_id":"738ebe4e-38b3-4d22-9081-30b4d727fffe","system_id":"levelo_inurba_marseille","lat":43.30953,"lon":5.39024,"is_reserved":false,"is_disabled":false,"rental_uris":{"android":"levelo://app?vid=738ebe4e-38b3-4d22-9081-30b4d727fffe","ios":"levelo://app?vid=738ebe4e-38b3-4d22-9081-30b4d727fffe"},"vehicle_type_id":"4","last_reported":1767608071,"current_range_meters":7200,"station_id":"ce4bgup2rcd13ifvqco0","pricing_plan_id":"cebpf4jnsgd1na2vs0mg"},{"bike_id":"577a8429-e907-45de-a0fc-b8c3d38163f6","system_id":"levelo_inurba_marseille","lat":43.279,"lon":5.38033,"is_reserved":false,"is_disabled":false,"rental_uris":{"android":"levelo://app?vid=577a8429-e907-45de-a0fc-b8c3d38163f6","ios":"levelo://app?vid=577a8429-e907-45de-a0fc-b8c3d38163f6"},"vehicle_type_id":"4","last_reported":1767608071,"current_range_meters":7200,"station_id":"ce4bhf92rcd13ifvqf50","pricing_plan_id":"cebpf4jnsgd1na2vs0mg"},{"bike_id":"e3aa32d8-6703-4bb5-89dd-c6404061fee0","system_id":"levelo_inurba_marseille","lat":43.31377,"lon":5.38048,"is_reserved":false,"is_disabled":false,"rental_uris":{"android":"levelo://app?vid=e3aa32d8-6703-4bb5-89dd-c6404061fee0","ios":"levelo://app?vid=e3aa32d8-6703-4bb5-89dd-c6404061fee0"},"vehicle_type_id":"4","last_reported":1767608071,"current_range_meters":7200,"station_id":"","pricing_plan_id":"cebpf4jnsgd1na2vs0mg"},{"bike_id":"d1a8582c-3d84-4b4e-ace7-3ba06413c6cb","system_id":"levelo_inurba_marseille","lat":43.31225,"lon":5.36864,"is_reserved":false,"is_disabled":false,"rental_uris":{"android":"levelo://app?vid=d1a8582c-3d84-4b4e-ace7-3ba06413c6cb","ios":"levelo://app?vid=d1a8582c-3d84-4b4e-ace7-3ba06413c6cb"},"vehicle_type_id":"4","last_reported":1767608071,"current_range_meters":7200,"station_id":"ce4bgl92rcd13ifvqbq0","pricing_plan_id":"cebpf4jnsgd1na2vs0mg"},{"bike_id":"13a148c5-a1fd-4e51-be3e-efc9d5f353fa","system_id":"levelo_inurba_marseille","lat":43.2552,"lon":5.37666,"is_reserved":false,"is_disabled":false,"rental_uris":{"android":"levelo://app?vid=13a148c5-a1fd-4e51-be3e-efc9d5f353fa","ios":"levelo://app?vid=13a148c5-a1fd-4e51-be3e-efc9d5f353fa"},"vehicle_type_id":"4","last_reported":1767608071,"current_range_meters":7200,"station_id":"ce4bhh12rcd13ifvqff0","pricing_plan_id":"cebpf4jnsgd1na2vs0mg"},{"bike_id":"395714ae-3c89-4365-ab0e-27c826ff066b","system_id":"levelo_inurba_marseille","lat":43.29939,"lon":5.36559,"is_reserved":false,"is_disabled":false,"rental_uris":{"android":"levelo://app?vid=395714ae-3c89-4365-ab0e-27c826ff066b","ios":"levelo://app?vid=395714ae-3c89-4365-ab0e-27c826ff066b"},"vehicle_type_id":"4","last_reported":1767608071,"current_range_meters":7200,"station_id":"ce4bgm92rcd13ifvqbr0","pricing_plan_id":"cebpf4jnsgd1na2vs0mg"},{"bike_id":"a37d40f7-6a7a-463a-8f5a-b25737a5a4f2","system_id":"levelo_inurba_marseille","lat":43.299,"lon":5.38004,"is_reserved":false,"is_disabled":false,"rental_uris":{"android":"levelo://app?vid=a37d40f7-6a7a-463a-8f5a-b25737a5a4f2","ios":"levelo://app?vid=a37d40f7-6a7a-463a-8f5a-b25737a5a4f2"},"vehicle_type_id":"4","last_reported":1767608071,"current_range_meters":7200,"station_id":"","pricing_plan_id":"cebpf4jnsgd1na2vs0mg"},{"bike_id":"fdf0eff4-9b5a-4907-8250-d268003ad409","system_id":"levelo_inurba_marseille","lat":43.2447,"lon":5.42536,"is_reserved":false,"is_disabled":false,"rental_uris":{"android":"levelo://app?vid=fdf0eff4-9b5a-4907-8250-d268003ad409","ios":"levelo://app?vid=fdf0eff4-9b5a-4907-8250-d268003ad409"},"vehicle_type_id":"4","last_reported":1767608071,"current_range_meters":7200,"station_id":"st_d4a3vfp97mjs738cd8kg","pricing_plan_id":"cebpf4jnsgd1na2vs0mg"},{"bike_id":"40b5b67b-d3e0-4f8e-80fc-cb6089aa8f05","system_id":"levelo_inurba_marseille","lat":43.30558,"lon":5.36704,"is_reserved":false,"is_disabled":false,"rental_uris":{"android":"levelo://app?vid=40b5b67b-d3e0-4f8e-80fc-cb6089aa8f05","ios":"levelo://app?vid=40b5b67b-d3e0-4f8e-80fc-cb6089aa8f05"},"vehicle_type_id":"4","last_reported":1767608071,"current_range_meters":7200,"station_id":"ce4bgrp2rcd13ifvqc9g","pricing_plan_id":"cebpf4jnsgd1na2vs0mg"},{"bike_id":"92d3f6a9-9b89-4e79-ac3a-49727f881221","system_id":"levelo_inurba_marseille","lat":43.284698,"lon":5.384194,"is_reserved":false,"is_disabled":false,"rental_uris":{"android":"levelo://app?vid=92d3f6a9-9b89-4e79-ac3a-49727f881221","ios":"levelo://app?vid=92d3f6a9-9b89-4e79-ac3a-49727f881221"},"vehicle_type_id":"4","last_reported":1767608071,"current_range_meters":7200,"station_id":"","pricing_plan_id":"cebpf4jnsgd1na2vs0mg"},{"bike_id":"27be231c-4b43-4455-90e6-db00b0cea063","system_id":"levelo_inurba_marseille","lat":43.26499,"lon":5.39544,"is_reserved":false,"is_disabled":false,"rental_uris":{"android":"levelo://app?vid=27be231c-4b43-4455-90e6-db00b0cea063","ios":"levelo://app?vid=27be231c-4b43-4455-90e6-db00b0cea063"},"vehicle_type_id":"4","last_reported":1767608071,"current_range_meters":7200,"station_id":"ce4bhi12rcd13ifvqfq0","pricing_plan_id":"cebpf4jnsgd1na2vs0mg"},{"bike_id":"3edfa42b-0b07-498d-b1b1-085e304f2c30","system_id":"levelo_inurba_marseille","lat":43.29029,"lon":5.40001,"is_reserved":false,"is_disabled":false,"rental_uris":{"android":"levelo://app?vid=3edfa42b-0b07-498d-b1b1-085e304f2c30","ios":"levelo://app?vid=3edfa42b-0b07-498d-b1b1-085e304f2c30"},"vehicle_type_id":"4","last_reported":1767608071,"current_range_meters":7200,"station_id":"ce4bh392rcd13ifvqdm0","pricing_plan_id":"cebpf4jnsgd1na2vs0mg"},{"bike_id":"d938298d-16c1-4fcf-a2a1-90f5a487d129","system_id":"levelo_inurba_marseille","lat":43.28113,"lon":5.35987,"is_reserved":false,"is_disabled":false,"rental_uris":{"android":"levelo://app?vid=d938298d-16c1-4fcf-a2a1-90f5a487d129","ios":"levelo://app?vid=d938298d-16c1-4fcf-a2a1-90f5a487d129"},"vehicle_type_id":"4","last_reported":1767608071,"current_range_meters":7200,"station_id":"","pricing_plan_id":"cebpf4jnsgd1na2vs0mg"},{"bike_id":"c49e27b4-a5f9-4c71-aa66-1ae8ec3b129e","system_id":"levelo_inurba_marseille","lat":43.29276,"lon":5.38904,"is_reserved":false,"is_disabled":false,"rental_uris":{"android":"levelo://app?vid=c49e27b4-a5f9-4c71-aa66-1ae8ec3b129e","ios":"levelo://app?vid=c49e27b4-a5f9-4c71-aa66-1ae8ec3b129e"},"vehicle_type_id":"4","last_reported":1767608071,"current_range_meters":7200,"station_id":"","pricing_plan_id":"cebpf4jnsgd1na2vs0mg"},{"bike_id":"de2eceef-4654-4452-8a0e-c4c2e6806006","system_id":"levelo_inurba_marseille","lat":43.24085,"lon":5.3776,"is_reserved":false,"is_disabled":false,"rental_uris":{"android":"levelo://app?vid=de2eceef-4654-4452-8a0e-c4c2e6806006","ios":"levelo://app?vid=de2eceef-4654-4452-8a0e-c4c2e6806006"},"vehicle_type_id":"4","last_reported":1767608071,"current_range_meters":7200,"station_id":"ce4bhnp2rcd13ifvqgvg","pricing_plan_id":"cebpf4jnsgd1na2vs0mg"},{"bike_id":"d921e2ef-d57d-414d-a30d-b85b95f31cac","system_id":"levelo_inurba_marseille","lat":43.23783,"lon":5.36623,"is_reserved":false,"is_disabled":false,"rental_uris":{"android":"levelo://app?vid=d921e2ef-d57d-414d-a30d-b85b95f31cac","ios":"levelo://app?vid=d921e2ef-d57d-414d-a30d-b85b95f31cac"},"vehicle_type_id":"4","last_reported":1767608071,"current_range_meters":7200,"station_id":"st_d3nk18o9ro0c73en2l3g","pricing_plan_id":"cebpf4jnsgd1na2vs0mg"},{"bike_id":"4fd4322f-65dc-4f07-99c5-66841cd5fc55","system_id":"levelo_inurba_marseille","lat":43.2418,"lon":5.39727,"is_reserved":false,"is_disabled":false,"rental_uris":{"android":"levelo://app?vid=4fd4322f-65dc-4f07-99c5-66841cd5fc55","ios":"levelo://app?vid=4fd4322f-65dc-4f07-99c5-66841cd5fc55"},"vehicle_type_id":"4","last_reported":1767608071,"current_range_meters":8000,"station_id":"ce4bhn12rcd13ifvqgpg","pricing_plan_id":"cebpf4jnsgd1na2vs0mg"},{"bike_id":"801e0e40-fac2-4fbc-9636-b8eb982b0989","system_id":"levelo_inurba_marseille","lat":43.23957,"lon":5.36626,"is_reserved":false,"is_disabled":false,"rental_uris":{"android":"levelo://app?vid=801e0e40-fac2-4fbc-9636-b8eb982b0989","ios":"levelo://app?vid=801e0e40-fac2-4fbc-9636-b8eb982b0989"},"vehicle_type_id":"4","last_reported":1767608071,"current_range_meters":8000,"station_id":"ce4bhi12rcd13ifvqfp0","pricing_plan_id":"cebpf4jnsgd1na2vs0mg"},{"bike_id":"8c1916f3-9874-4eb0-8987-deefc3073e14","system_id":"levelo_inurba_marseille","lat":43.29105,"lon":5.3814,"is_reserved":false,"is_disabled":false,"rental_uris":{"android":"levelo://app?vid=8c1916f3-9874-4eb0-8987-deefc3073e14","ios":"levelo://app?vid=8c1916f3-9874-4eb0-8987-deefc3073e14"},"vehicle_type_id":"4","last_reported":1767608071,"current_range_meters":8000,"station_id":"ce4bh512rcd13ifvqe2g","pricing_plan_id":"cebpf4jnsgd1na2vs0mg"},{"bike_id":"ecea263e-e186-4826-b53d-91a373885ae8","system_id":"levelo_inurba_marseille","lat":43.30429,"lon":5.39747,"is_reserved":false,"is_disabled":false,"rental_uris":{"android":"levelo://app?vid=ecea263e-e186-4826-b53d-91a373885ae8","ios":"levelo://app?vid=ecea263e-e186-4826-b53d-91a373885ae8"},"vehicle_type_id":"4","last_reported":1767608071,"current_range_meters":8000,"station_id":"ce4bh092rcd13ifvqd20","pricing_plan_id":"cebpf4jnsgd1na2vs0mg"},{"bike_id":"cf3b018b-0b3a-48c9-b15a-9a9634884f1a","system_id":"levelo_inurba_marseille","lat":43.27063,"lon":5.42272,"is_reserved":false,"is_disabled":false,"rental_uris":{"android":"levelo://app?vid=cf3b018b-0b3a-48c9-b15a-9a9634884f1a","ios":"levelo://app?vid=cf3b018b-0b3a-48c9-b15a-9a9634884f1a"},"vehicle_type_id":"4","last_reported":1767608071,"current_range_meters":8000,"station_id":"ce4bhk92rcd13ifvqgb0","pricing_plan_id":"cebpf4jnsgd1na2vs0mg"},{"bike_id":"8797d0e0-3f72-4cce-b6f6-fa9e7c04cd9b","system_id":"levelo_inurba_marseille","lat":43.29524,"lon":5.37493,"is_reserved":false,"is_disabled":false,"rental_uris":{"android":"levelo://app?vid=8797d0e0-3f72-4cce-b6f6-fa9e7c04cd9b","ios":"levelo://app?vid=8797d0e0-3f72-4cce-b6f6-fa9e7c04cd9b"},"vehicle_type_id":"4","last_reported":1767608071,"current_range_meters":8000,"station_id":"ce4bgkp2rcd13ifvqbmg","pricing_plan_id":"cebpf4jnsgd1na2vs0mg"},{"bike_id":"9259d09f-d41b-49e0-9f9b-4ad9ad56af9a","system_id":"levelo_inurba_marseille","lat":43.2919,"lon":5.35793,"is_reserved":false,"is_disabled":false,"rental_uris":{"android":"levelo://app?vid=9259d09f-d41b-49e0-9f9b-4ad9ad56af9a","ios":"levelo://app?vid=9259d09f-d41b-49e0-9f9b-4ad9ad56af9a"},"vehicle_type_id":"4","last_reported":1767608071,"current_range_meters":8000,"station_id":"ce4bhb12rcd13ifvqel0","pricing_plan_id":"cebpf4jnsgd1na2vs0mg"},{"bike_id":"a414d67b-9afa-4a87-9fac-f67cdff12698","system_id":"levelo_inurba_marseille","lat":43.29404,"lon":5.37969,"is_reserved":false,"is_disabled":false,"rental_uris":{"android":"levelo://app?vid=a414d67b-9afa-4a87-9fac-f67cdff12698","ios":"levelo://app?vid=a414d67b-9afa-4a87-9fac-f67cdff12698"},"vehicle_type_id":"4","last_reported":1767608071,"current_range_meters":8000,"station_id":"","pricing_plan_id":"cebpf4jnsgd1na2vs0mg"},{"bike_id":"fe711f1b-2574-4e43-8e23-21465b534317","system_id":"levelo_inurba_marseille","lat":43.27056,"lon":5.42276,"is_reserved":false,"is_disabled":false,"rental_uris":{"android":"levelo://app?vid=fe711f1b-2574-4e43-8e23-21465b534317","ios":"levelo://app?vid=fe711f1b-2574-4e43-8e23-21465b534317"},"vehicle_type_id":"4","last_reported":1767608071,"current_range_meters":8000,"station_id":"ce4bhk92rcd13ifvqgb0","pricing_plan_id":"cebpf4jnsgd1na2vs0mg"},{"bike_id":"f30bf0a9-8201-44e6-8d70-cdd018ef3173","system_id":"levelo_inurba_marseille","lat":43.30599,"lon":5.39368,"is_reserved":false,"is_disabled":false,"rental_uris":{"android":"levelo://app?vid=f30bf0a9-8201-44e6-8d70-cdd018ef3173","ios":"levelo://app?vid=f30bf0a9-8201-44e6-8d70-cdd018ef3173"},"vehicle_type_id":"4","last_reported":1767608071,"current_range_meters":8000,"station_id":"ce4bh0p2rcd13ifvqd80","pricing_plan_id":"cebpf4jnsgd1na2vs0mg"},{"bike_id":"a8cd7802-144d-4c11-af29-be2259acf14c","system_id":"levelo_inurba_marseille","lat":43.24393,"lon":5.37049,"is_reserved":false,"is_disabled":false,"rental_uris":{"android":"levelo://app?vid=a8cd7802-144d-4c11-af29-be2259acf14c","ios":"levelo://app?vid=a8cd7802-144d-4c11-af29-be2259acf14c"},"vehicle_type_id":"4","last_reported":1767608071,"current_range_meters":8000,"station_id":"ce4bhhh2rcd13ifvqfk0","pricing_plan_id":"cebpf4jnsgd1na2vs0mg"},{"bike_id":"fd8f368a-790a-472f-8659-a02b635b9f3b","system_id":"levelo_inurba_marseille","lat":43.31063,"lon":5.37465,"is_reserved":false,"is_disabled":false,"rental_uris":{"android":"levelo://app?vid=fd8f368a-790a-472f-8659-a02b635b9f3b","ios":"levelo://app?vid=fd8f368a-790a-472f-8659-a02b635b9f3b"},"vehicle_type_id":"4","last_reported":1767608071,"current_range_meters":8000,"station_id":"","pricing_plan_id":"cebpf4jnsgd1na2vs0mg"},{"bike_id":"5c752d77-7b25-48ba-99ef-9b278d0c9e59","system_id":"levelo_inurba_marseille","lat":43.24392,"lon":5.37052,"is_reserved":false,"is_disabled":false,"rental_uris":{"android":"levelo://app?vid=5c752d77-7b25-48ba-99ef-9b278d0c9e59","ios":"levelo://app?vid=5c752d77-7b25-48ba-99ef-9b278d0c9e59"},"vehicle_type_id":"4","last_reported":1767608071,"current_range_meters":8000,"station_id":"ce4bhhh2rcd13ifvqfk0","pricing_plan_id":"cebpf4jnsgd1na2vs0mg"},{"bike_id":"f112bcb2-304e-4137-be6b-5d9d46648251","system_id":"levelo_inurba_marseille","lat":43.292563,"lon":5.383807,"is_reserved":false,"is_disabled":false,"rental_uris":{"android":"levelo://app?vid=f112bcb2-304e-4137-be6b-5d9d46648251","ios":"levelo://app?vid=f112bcb2-304e-4137-be6b-5d9d46648251"},"vehicle_type_id":"4","last_reported":1767608071,"current_range_meters":8000,"station_id":"ce4bh692rcd13ifvqea0","pricing_plan_id":"cebpf4jnsgd1na2vs0mg"},{"bike_id":"bbaa755b-89c8-4330-8ec8-c88b96935f41","system_id":"levelo_inurba_marseille","lat":43.26501,"lon":5.39534,"is_reserved":false,"is_disabled":false,"rental_uris":{"android":"levelo://app?vid=bbaa755b-89c8-4330-8ec8-c88b96935f41","ios":"levelo://app?vid=bbaa755b-89c8-4330-8ec8-c88b96935f41"},"vehicle_type_id":"4","last_reported":1767608071,"current_range_meters":8000,"station_id":"ce4bhi12rcd13ifvqfq0","pricing_plan_id":"cebpf4jnsgd1na2vs0mg"},{"bike_id":"c5365846-c619-4f12-8c92-97c9f9725a15","system_id":"levelo_inurba_marseille","lat":43.2952,"lon":5.37897,"is_reserved":false,"is_disabled":false,"rental_uris":{"android":"levelo://app?vid=c5365846-c619-4f12-8c92-97c9f9725a15","ios":"levelo://app?vid=c5365846-c619-4f12-8c92-97c9f9725a15"},"vehicle_type_id":"4","last_reported":1767608071,"current_range_meters":8000,"station_id":"","pricing_plan_id":"cebpf4jnsgd1na2vs0mg"},{"bike_id":"7409f8d2-dfa9-4964-9bc6-c3a46a1923df","system_id":"levelo_inurba_marseille","lat":43.27377,"lon":5.36243,"is_reserved":false,"is_disabled":false,"rental_uris":{"android":"levelo://app?vid=7409f8d2-dfa9-4964-9bc6-c3a46a1923df","ios":"levelo://app?vid=7409f8d2-dfa9-4964-9bc6-c3a46a1923df"},"vehicle_type_id":"4","last_reported":1767608071,"current_range_meters":8000,"station_id":"ce4bhbh2rcd13ifvqeo0","pricing_plan_id":"cebpf4jnsgd1na2vs0mg"},{"bike_id":"2381ef54-11a1-481a-b62e-8306a571b181","system_id":"levelo_inurba_marseille","lat":43.31274,"lon":5.40166,"is_reserved":false,"is_disabled":false,"rental_uris":{"android":"levelo://app?vid=2381ef54-11a1-481a-b62e-8306a571b181","ios":"levelo://app?vid=2381ef54-11a1-481a-b62e-8306a571b181"},"vehicle_type_id":"4","last_reported":1767608071,"current_range_meters":8000,"station_id":"ce4bh092rcd13ifvqd30","pricing_plan_id":"cebpf4jnsgd1na2vs0mg"},{"bike_id":"ad04117d-b152-4ebe-9d0d-f71c42ab46e0","system_id":"levelo_inurba_marseille","lat":43.29586,"lon":5.37507,"is_reserved":false,"is_disabled":true,"rental_uris":{"android":"levelo://app?vid=ad04117d-b152-4ebe-9d0d-f71c42ab46e0","ios":"levelo://app?vid=ad04117d-b152-4ebe-9d0d-f71c42ab46e0"},"vehicle_type_id":"4","last_reported":1767608071,"current_range_meters":8000,"station_id":"ce4bgh92rcd13ifvqb50","pricing_plan_id":"cebpf4jnsgd1na2vs0mg"},{"bike_id":"0e46187b-cda4-414f-b962-30d82923e000","system_id":"levelo_inurba_marseille","lat":43.29992,"lon":5.37174,"is_reserved":false,"is_disabled":false,"rental_uris":{"android":"levelo://app?vid=0e46187b-cda4-414f-b962-30d82923e000","ios":"levelo://app?vid=0e46187b-cda4-414f-b962-30d82923e000"},"vehicle_type_id":"4","last_reported":1767608071,"current_range_meters":8000,"station_id":"ce4bgr92rcd13ifvqc7g","pricing_plan_id":"cebpf4jnsgd1na2vs0mg"},{"bike_id":"6c6ca060-9ec2-479f-b4b3-a53fec0b7495","system_id":"levelo_inurba_marseille","lat":43.30431,"lon":5.38892,"is_reserved":false,"is_disabled":false,"rental_uris":{"android":"levelo://app?vid=6c6ca060-9ec2-479f-b4b3-a53fec0b7495","ios":"levelo://app?vid=6c6ca060-9ec2-479f-b4b3-a53fec0b7495"},"vehicle_type_id":"4","last_reported":1767608071,"current_range_meters":8000,"station_id":"ce4bgk12rcd13ifvqbi0","pricing_plan_id":"cebpf4jnsgd1na2vs0mg"},{"bike_id":"bb20fce4-d02b-4ec1-a2f9-e33a7624d70c","system_id":"levelo_inurba_marseille","lat":43.26574,"lon":5.3903,"is_reserved":false,"is_disabled":false,"rental_uris":{"android":"levelo://app?vid=bb20fce4-d02b-4ec1-a2f9-e33a7624d70c","ios":"levelo://app?vid=bb20fce4-d02b-4ec1-a2f9-e33a7624d70c"},"vehicle_type_id":"4","last_reported":1767608071,"current_range_meters":8400,"station_id":"ce4bhe12rcd13ifvqf30","pricing_plan_id":"cebpf4jnsgd1na2vs0mg"},{"bike_id":"f97c9d69-08f3-4e6e-837a-e318a0cb9742","system_id":"levelo_inurba_marseille","lat":43.29248,"lon":5.36859,"is_reserved":false,"is_disabled":false,"rental_uris":{"android":"levelo://app?vid=f97c9d69-08f3-4e6e-837a-e318a0cb9742","ios":"levelo://app?vid=f97c9d69-08f3-4e6e-837a-e318a0cb9742"},"vehicle_type_id":"4","last_reported":1767608071,"current_range_meters":8400,"station_id":"ce4bhbp2rcd13ifvqesg","pricing_plan_id":"cebpf4jnsgd1na2vs0mg"},{"bike_id":"ed036b25-0b98-4a06-85ae-01ca3a95e6bf","system_id":"levelo_inurba_marseille","lat":43.28844,"lon":5.35851,"is_reserved":false,"is_disabled":true,"rental_uris":{"android":"levelo://app?vid=ed036b25-0b98-4a06-85ae-01ca3a95e6bf","ios":"levelo://app?vid=ed036b25-0b98-4a06-85ae-01ca3a95e6bf"},"vehicle_type_id":"4","last_reported":1767608071,"current_range_meters":8400,"station_id":"ce4bhb12rcd13ifvqem0","pricing_plan_id":"cebpf4jnsgd1na2vs0mg"},{"bike_id":"3496ad41-5ff2-4122-a84c-0ba30d6c83cf","system_id":"levelo_inurba_marseille","lat":43.30957,"lon":5.39033,"is_reserved":false,"is_disabled":false,"rental_uris":{"android":"levelo://app?vid=3496ad41-5ff2-4122-a84c-0ba30d6c83cf","ios":"levelo://app?vid=3496ad41-5ff2-4122-a84c-0ba30d6c83cf"},"vehicle_type_id":"4","last_reported":1767608071,"current_range_meters":8400,"station_id":"ce4bgup2rcd13ifvqco0","pricing_plan_id":"cebpf4jnsgd1na2vs0mg"},{"bike_id":"f05c1d4b-75fd-44fe-b9b1-cf33fc6b3f49","system_id":"levelo_inurba_marseille","lat":43.26681,"lon":5.38267,"is_reserved":false,"is_disabled":false,"rental_uris":{"android":"levelo://app?vid=f05c1d4b-75fd-44fe-b9b1-cf33fc6b3f49","ios":"levelo://app?vid=f05c1d4b-75fd-44fe-b9b1-cf33fc6b3f49"},"vehicle_type_id":"4","last_reported":1767608071,"current_range_meters":8400,"station_id":"ce4bhg92rcd13ifvqf90","pricing_plan_id":"cebpf4jnsgd1na2vs0mg"},{"bike_id":"4c45c742-3454-42f6-9f1e-3403337e4d53","system_id":"levelo_inurba_marseille","lat":43.28482,"lon":5.38425,"is_reserved":false,"is_disabled":false,"rental_uris":{"android":"levelo://app?vid=4c45c742-3454-42f6-9f1e-3403337e4d53","ios":"levelo://app?vid=4c45c742-3454-42f6-9f1e-3403337e4d53"},"vehicle_type_id":"4","last_reported":1767608071,"current_range_meters":8400,"station_id":"ce4bh512rcd13ifvqe3g","pricing_plan_id":"cebpf4jnsgd1na2vs0mg"},{"bike_id":"00da6500-68b4-4b45-be1f-48d675212bd1","system_id":"levelo_inurba_marseille","lat":43.30537,"lon":5.3654,"is_reserved":false,"is_disabled":false,"rental_uris":{"android":"levelo://app?vid=00da6500-68b4-4b45-be1f-48d675212bd1","ios":"levelo://app?vid=00da6500-68b4-4b45-be1f-48d675212bd1"},"vehicle_type_id":"4","last_reported":1767608071,"current_range_meters":8400,"station_id":"ce4bgs12rcd13ifvqcag","pricing_plan_id":"cebpf4jnsgd1na2vs0mg"},{"bike_id":"3a21fc49-74d8-422d-b8d8-1b086ae3f045","system_id":"levelo_inurba_marseille","lat":43.29566,"lon":5.4,"is_reserved":false,"is_disabled":false,"rental_uris":{"android":"levelo://app?vid=3a21fc49-74d8-422d-b8d8-1b086ae3f045","ios":"levelo://app?vid=3a21fc49-74d8-422d-b8d8-1b086ae3f045"},"vehicle_type_id":"4","last_reported":1767608071,"current_range_meters":8400,"station_id":"ce4bh312rcd13ifvqdj0","pricing_plan_id":"cebpf4jnsgd1na2vs0mg"},{"bike_id":"78b11bb5-5700-4fb6-b0c1-d37e13475e71","system_id":"levelo_inurba_marseille","lat":43.29366,"lon":5.37868,"is_reserved":false,"is_disabled":false,"rental_uris":{"android":"levelo://app?vid=78b11bb5-5700-4fb6-b0c1-d37e13475e71","ios":"levelo://app?vid=78b11bb5-5700-4fb6-b0c1-d37e13475e71"},"vehicle_type_id":"4","last_reported":1767608071,"current_range_meters":8400,"station_id":"ce4bgjh2rcd13ifvqbf0","pricing_plan_id":"cebpf4jnsgd1na2vs0mg"},{"bike_id":"d19e7d8f-8d39-4e32-b60a-b3305948b30b","system_id":"levelo_inurba_marseille","lat":43.24165,"lon":5.36392,"is_reserved":false,"is_disabled":false,"rental_uris":{"android":"levelo://app?vid=d19e7d8f-8d39-4e32-b60a-b3305948b30b","ios":"levelo://app?vid=d19e7d8f-8d39-4e32-b60a-b3305948b30b"},"vehicle_type_id":"4","last_reported":1767608071,"current_range_meters":8400,"station_id":"cpo36qri1sfpv3e86is0","pricing_plan_id":"cebpf4jnsgd1na2vs0mg"},{"bike_id":"3f08c65c-ca13-4904-b011-a7ba03d7747b","system_id":"levelo_inurba_marseille","lat":43.28979,"lon":5.35615,"is_reserved":false,"is_disabled":true,"rental_uris":{"android":"levelo://app?vid=3f08c65c-ca13-4904-b011-a7ba03d7747b","ios":"levelo://app?vid=3f08c65c-ca13-4904-b011-a7ba03d7747b"},"vehicle_type_id":"4","last_reported":1767608071,"current_range_meters":8400,"station_id":"ce4bhb92rcd13ifvqen0","pricing_plan_id":"cebpf4jnsgd1na2vs0mg"},{"bike_id":"cfd96779-ac06-41e3-84f7-a5ca7fe9eaab","system_id":"levelo_inurba_marseille","lat":43.28488,"lon":5.48385,"is_reserved":false,"is_disabled":false,"rental_uris":{"android":"levelo://app?vid=cfd96779-ac06-41e3-84f7-a5ca7fe9eaab","ios":"levelo://app?vid=cfd96779-ac06-41e3-84f7-a5ca7fe9eaab"},"vehicle_type_id":"4","last_reported":1767608071,"current_range_meters":8400,"station_id":"","pricing_plan_id":"cebpf4jnsgd1na2vs0mg"},{"bike_id":"1e10dcce-a010-467a-a316-8a67faec7426","system_id":"levelo_inurba_marseille","lat":43.29759,"lon":5.42784,"is_reserved":false,"is_disabled":false,"rental_uris":{"android":"levelo://app?vid=1e10dcce-a010-467a-a316-8a67faec7426","ios":"levelo://app?vid=1e10dcce-a010-467a-a316-8a67faec7426"},"vehicle_type_id":"4","last_reported":1767608071,"current_range_meters":8400,"station_id":"st_d3md5207bmas73dh9klg","pricing_plan_id":"cebpf4jnsgd1na2vs0mg"},{"bike_id":"831294d3-0f66-4ca1-a706-138b980b5682","system_id":"levelo_inurba_marseille","lat":43.30584,"lon":5.37105,"is_reserved":false,"is_disabled":false,"rental_uris":{"android":"levelo://app?vid=831294d3-0f66-4ca1-a706-138b980b5682","ios":"levelo://app?vid=831294d3-0f66-4ca1-a706-138b980b5682"},"vehicle_type_id":"4","last_reported":1767608071,"current_range_meters":8400,"station_id":"","pricing_plan_id":"cebpf4jnsgd1na2vs0mg"},{"bike_id":"08399a39-f969-43ab-8391-2896245d413e","system_id":"levelo_inurba_marseille","lat":43.29916,"lon":5.3747,"is_reserved":false,"is_disabled":false,"rental_uris":{"android":"levelo://app?vid=08399a39-f969-43ab-8391-2896245d413e","ios":"levelo://app?vid=08399a39-f969-43ab-8391-2896245d413e"},"vehicle_type_id":"4","last_reported":1767608071,"current_range_meters":8400,"station_id":"ce4bgjh2rcd13ifvqbg0","pricing_plan_id":"cebpf4jnsgd1na2vs0mg"},{"bike_id":"55654a27-5cd8-4223-b844-2fc4c9f1600a","system_id":"levelo_inurba_marseille","lat":43.31349,"lon":5.38003,"is_reserved":false,"is_disabled":false,"rental_uris":{"android":"levelo://app?vid=55654a27-5cd8-4223-b844-2fc4c9f1600a","ios":"levelo://app?vid=55654a27-5cd8-4223-b844-2fc4c9f1600a"},"vehicle_type_id":"4","last_reported":1767608071,"current_range_meters":8400,"station_id":"","pricing_plan_id":"cebpf4jnsgd1na2vs0mg"},{"bike_id":"4bd23ea9-b05f-4fa4-b129-e810a0577ee2","system_id":"levelo_inurba_marseille","lat":43.29838,"lon":5.36278,"is_reserved":false,"is_disabled":false,"rental_uris":{"android":"levelo://app?vid=4bd23ea9-b05f-4fa4-b129-e810a0577ee2","ios":"levelo://app?vid=4bd23ea9-b05f-4fa4-b129-e810a0577ee2"},"vehicle_type_id":"4","last_reported":1767608071,"current_range_meters":8400,"station_id":"ce4bgpp2rcd13ifvqc3g","pricing_plan_id":"cebpf4jnsgd1na2vs0mg"},{"bike_id":"eb595865-9a18-481b-a261-31233cdb3c91","system_id":"levelo_inurba_marseille","lat":43.337444,"lon":5.374475,"is_reserved":false,"is_disabled":true,"rental_uris":{"android":"levelo://app?vid=eb595865-9a18-481b-a261-31233cdb3c91","ios":"levelo://app?vid=eb595865-9a18-481b-a261-31233cdb3c91"},"vehicle_type_id":"4","last_reported":1767608071,"current_range_meters":8400,"station_id":"","pricing_plan_id":"cebpf4jnsgd1na2vs0mg"},{"bike_id":"e5a92705-6f42-4511-9af8-f55fb26c0e79","system_id":"levelo_inurba_marseille","lat":43.28476,"lon":5.48375,"is_reserved":false,"is_disabled":false,"rental_uris":{"android":"levelo://app?vid=e5a92705-6f42-4511-9af8-f55fb26c0e79","ios":"levelo://app?vid=e5a92705-6f42-4511-9af8-f55fb26c0e79"},"vehicle_type_id":"4","last_reported":1767608071,"current_range_meters":8400,"station_id":"st_d3svhcjqgbts73a3dn0g","pricing_plan_id":"cebpf4jnsgd1na2vs0mg"},{"bike_id":"0af0c702-db86-4650-bff9-2ad4cfa4f80e","system_id":"levelo_inurba_marseille","lat":43.290428,"lon":5.399537,"is_reserved":false,"is_disabled":false,"rental_uris":{"android":"levelo://app?vid=0af0c702-db86-4650-bff9-2ad4cfa4f80e","ios":"levelo://app?vid=0af0c702-db86-4650-bff9-2ad4cfa4f80e"},"vehicle_type_id":"4","last_reported":1767608071,"current_range_meters":8400,"station_id":"ce4bh392rcd13ifvqdm0","pricing_plan_id":"cebpf4jnsgd1na2vs0mg"},{"bike_id":"5213f932-a457-45f5-a08c-e35a5e6cbcd6","system_id":"levelo_inurba_marseille","lat":43.25928,"lon":5.40875,"is_reserved":false,"is_disabled":false,"rental_uris":{"android":"levelo://app?vid=5213f932-a457-45f5-a08c-e35a5e6cbcd6","ios":"levelo://app?vid=5213f932-a457-45f5-a08c-e35a5e6cbcd6"},"vehicle_type_id":"4","last_reported":1767608071,"current_range_meters":8800,"station_id":"ce4bhm92rcd13ifvqglg","pricing_plan_id":"cebpf4jnsgd1na2vs0mg"},{"bike_id":"e2c32de2-616c-4a3a-ae14-a6bdd2b204cd","system_id":"levelo_inurba_marseille","lat":43.28444,"lon":5.3921,"is_reserved":false,"is_disabled":false,"rental_uris":{"android":"levelo://app?vid=e2c32de2-616c-4a3a-ae14-a6bdd2b204cd","ios":"levelo://app?vid=e2c32de2-616c-4a3a-ae14-a6bdd2b204cd"},"vehicle_type_id":"4","last_reported":1767608071,"current_range_meters":8800,"station_id":"ce4bhoh2rcd13ifvqh5g","pricing_plan_id":"cebpf4jnsgd1na2vs0mg"},{"bike_id":"e5080626-6fd3-465a-95fc-ffeeb81121ed","system_id":"levelo_inurba_marseille","lat":43.3057,"lon":5.36725,"is_reserved":false,"is_disabled":false,"rental_uris":{"android":"levelo://app?vid=e5080626-6fd3-465a-95fc-ffeeb81121ed","ios":"levelo://app?vid=e5080626-6fd3-465a-95fc-ffeeb81121ed"},"vehicle_type_id":"4","last_reported":1767608071,"current_range_meters":8800,"station_id":"ce4bgrp2rcd13ifvqc9g","pricing_plan_id":"cebpf4jnsgd1na2vs0mg"},{"bike_id":"c4b58807-426a-4584-af0e-219da3bf2f5a","system_id":"levelo_inurba_marseille","lat":43.27371,"lon":5.36245,"is_reserved":false,"is_disabled":false,"rental_uris":{"android":"levelo://app?vid=c4b58807-426a-4584-af0e-219da3bf2f5a","ios":"levelo://app?vid=c4b58807-426a-4584-af0e-219da3bf2f5a"},"vehicle_type_id":"4","last_reported":1767608071,"current_range_meters":8800,"station_id":"","pricing_plan_id":"cebpf4jnsgd1na2vs0mg"},{"bike_id":"6fc77415-c649-4769-8910-bd3b4dceb30b","system_id":"levelo_inurba_marseille","lat":43.24078,"lon":5.37752,"is_reserved":false,"is_disabled":false,"rental_uris":{"android":"levelo://app?vid=6fc77415-c649-4769-8910-bd3b4dceb30b","ios":"levelo://app?vid=6fc77415-c649-4769-8910-bd3b4dceb30b"},"vehicle_type_id":"4","last_reported":1767608071,"current_range_meters":8800,"station_id":"ce4bhnp2rcd13ifvqgvg","pricing_plan_id":"cebpf4jnsgd1na2vs0mg"},{"bike_id":"fb8690e4-7bf8-40b2-86ae-cc6b72716ee9","system_id":"levelo_inurba_marseille","lat":43.29271,"lon":5.3685,"is_reserved":false,"is_disabled":false,"rental_uris":{"android":"levelo://app?vid=fb8690e4-7bf8-40b2-86ae-cc6b72716ee9","ios":"levelo://app?vid=fb8690e4-7bf8-40b2-86ae-cc6b72716ee9"},"vehicle_type_id":"4","last_reported":1767608071,"current_range_meters":8800,"station_id":"ce4bhbp2rcd13ifvqesg","pricing_plan_id":"cebpf4jnsgd1na2vs0mg"},{"bike_id":"e3a366e7-432a-4c86-8fda-c24791fb1ce5","system_id":"levelo_inurba_marseille","lat":43.29796,"lon":5.37752,"is_reserved":false,"is_disabled":false,"rental_uris":{"android":"levelo://app?vid=e3a366e7-432a-4c86-8fda-c24791fb1ce5","ios":"levelo://app?vid=e3a366e7-432a-4c86-8fda-c24791fb1ce5"},"vehicle_type_id":"4","last_reported":1767608071,"current_range_meters":8800,"station_id":"","pricing_plan_id":"cebpf4jnsgd1na2vs0mg"},{"bike_id":"e1d9e51d-67c4-408d-97a1-3632b867e604","system_id":"levelo_inurba_marseille","lat":43.26211,"lon":5.37448,"is_reserved":false,"is_disabled":false,"rental_uris":{"android":"levelo://app?vid=e1d9e51d-67c4-408d-97a1-3632b867e604","ios":"levelo://app?vid=e1d9e51d-67c4-408d-97a1-3632b867e604"},"vehicle_type_id":"4","last_reported":1767608071,"current_range_meters":8800,"station_id":"ce4bhgp2rcd13ifvqfc0","pricing_plan_id":"cebpf4jnsgd1na2vs0mg"},{"bike_id":"c243dc2a-ba09-4c4d-b881-eb73a5487935","system_id":"levelo_inurba_marseille","lat":43.2827,"lon":5.35063,"is_reserved":false,"is_disabled":false,"rental_uris":{"android":"levelo://app?vid=c243dc2a-ba09-4c4d-b881-eb73a5487935","ios":"levelo://app?vid=c243dc2a-ba09-4c4d-b881-eb73a5487935"},"vehicle_type_id":"4","last_reported":1767608071,"current_range_meters":8800,"station_id":"ce4bhbp2rcd13ifvqerg","pricing_plan_id":"cebpf4jnsgd1na2vs0mg"},{"bike_id":"5ca9a1bf-5194-49d6-8c79-961d718aa3b9","system_id":"levelo_inurba_marseille","lat":43.2827,"lon":5.35068,"is_reserved":false,"is_disabled":false,"rental_uris":{"android":"levelo://app?vid=5ca9a1bf-5194-49d6-8c79-961d718aa3b9","ios":"levelo://app?vid=5ca9a1bf-5194-49d6-8c79-961d718aa3b9"},"vehicle_type_id":"4","last_reported":1767608071,"current_range_meters":8800,"station_id":"ce4bhbp2rcd13ifvqerg","pricing_plan_id":"cebpf4jnsgd1na2vs0mg"},{"bike_id":"676e2477-09e3-4b44-84c1-2ae5524a2022","system_id":"levelo_inurba_marseille","lat":43.27358,"lon":5.42403,"is_reserved":false,"is_disabled":false,"rental_uris":{"android":"levelo://app?vid=676e2477-09e3-4b44-84c1-2ae5524a2022","ios":"levelo://app?vid=676e2477-09e3-4b44-84c1-2ae5524a2022"},"vehicle_type_id":"4","last_reported":1767608071,"current_range_meters":8800,"station_id":"","pricing_plan_id":"cebpf4jnsgd1na2vs0mg"},{"bike_id":"4fbca29d-741e-4ea2-8642-fc6ee9342350","system_id":"levelo_inurba_marseille","lat":43.25925,"lon":5.40906,"is_reserved":false,"is_disabled":false,"rental_uris":{"android":"levelo://app?vid=4fbca29d-741e-4ea2-8642-fc6ee9342350","ios":"levelo://app?vid=4fbca29d-741e-4ea2-8642-fc6ee9342350"},"vehicle_type_id":"4","last_reported":1767608071,"current_range_meters":8800,"station_id":"ce4bhm92rcd13ifvqglg","pricing_plan_id":"cebpf4jnsgd1na2vs0mg"},{"bike_id":"4461ab1a-7426-4f3d-8e8f-c17f6932f92d","system_id":"levelo_inurba_marseille","lat":43.24386,"lon":5.37053,"is_reserved":false,"is_disabled":false,"rental_uris":{"android":"levelo://app?vid=4461ab1a-7426-4f3d-8e8f-c17f6932f92d","ios":"levelo://app?vid=4461ab1a-7426-4f3d-8e8f-c17f6932f92d"},"vehicle_type_id":"4","last_reported":1767608071,"current_range_meters":9200,"station_id":"ce4bhhh2rcd13ifvqfk0","pricing_plan_id":"cebpf4jnsgd1na2vs0mg"},{"bike_id":"49a70347-36ae-4442-a0c3-32c4ed4b4ff4","system_id":"levelo_inurba_marseille","lat":43.28856,"lon":5.42524,"is_reserved":false,"is_disabled":false,"rental_uris":{"android":"levelo://app?vid=49a70347-36ae-4442-a0c3-32c4ed4b4ff4","ios":"levelo://app?vid=49a70347-36ae-4442-a0c3-32c4ed4b4ff4"},"vehicle_type_id":"4","last_reported":1767608071,"current_range_meters":9200,"station_id":"st_d3b462108ojc7389ooeg","pricing_plan_id":"cebpf4jnsgd1na2vs0mg"},{"bike_id":"2ad11e8b-6525-4219-97fa-e942c570f9bd","system_id":"levelo_inurba_marseille","lat":43.27066,"lon":5.38309,"is_reserved":false,"is_disabled":false,"rental_uris":{"android":"levelo://app?vid=2ad11e8b-6525-4219-97fa-e942c570f9bd","ios":"levelo://app?vid=2ad11e8b-6525-4219-97fa-e942c570f9bd"},"vehicle_type_id":"4","last_reported":1767608071,"current_range_meters":9200,"station_id":"st_d3n2fo6cfp8s73cte1j0","pricing_plan_id":"cebpf4jnsgd1na2vs0mg"},{"bike_id":"0f7eefdf-8972-4dc8-89aa-952cc1944736","system_id":"levelo_inurba_marseille","lat":43.27813,"lon":5.40712,"is_reserved":false,"is_disabled":false,"rental_uris":{"android":"levelo://app?vid=0f7eefdf-8972-4dc8-89aa-952cc1944736","ios":"levelo://app?vid=0f7eefdf-8972-4dc8-89aa-952cc1944736"},"vehicle_type_id":"4","last_reported":1767608071,"current_range_meters":9200,"station_id":"ce4bhnh2rcd13ifvqgtg","pricing_plan_id":"cebpf4jnsgd1na2vs0mg"},{"bike_id":"e5968f50-2b33-4c07-bc69-20cc0904fe74","system_id":"levelo_inurba_marseille","lat":43.30131,"lon":5.38102,"is_reserved":false,"is_disabled":false,"rental_uris":{"android":"levelo://app?vid=e5968f50-2b33-4c07-bc69-20cc0904fe74","ios":"levelo://app?vid=e5968f50-2b33-4c07-bc69-20cc0904fe74"},"vehicle_type_id":"4","last_reported":1767608071,"current_range_meters":9200,"station_id":"ce4bgjp2rcd13ifvqbh0","pricing_plan_id":"cebpf4jnsgd1na2vs0mg"},{"bike_id":"99b37424-8035-4cc9-8acd-c48002807839","system_id":"levelo_inurba_marseille","lat":43.30482,"lon":5.37926,"is_reserved":false,"is_disabled":false,"rental_uris":{"android":"levelo://app?vid=99b37424-8035-4cc9-8acd-c48002807839","ios":"levelo://app?vid=99b37424-8035-4cc9-8acd-c48002807839"},"vehicle_type_id":"4","last_reported":1767608071,"current_range_meters":9200,"station_id":"ce4bgup2rcd13ifvqcn0","pricing_plan_id":"cebpf4jnsgd1na2vs0mg"},{"bike_id":"8d29a8cf-8dd9-4ccf-94bb-9d73d6440d3c","system_id":"levelo_inurba_marseille","lat":43.29512,"lon":5.37525,"is_reserved":false,"is_disabled":false,"rental_uris":{"android":"levelo://app?vid=8d29a8cf-8dd9-4ccf-94bb-9d73d6440d3c","ios":"levelo://app?vid=8d29a8cf-8dd9-4ccf-94bb-9d73d6440d3c"},"vehicle_type_id":"4","last_reported":1767608071,"current_range_meters":9200,"station_id":"ce4bgkp2rcd13ifvqbmg","pricing_plan_id":"cebpf4jnsgd1na2vs0mg"},{"bike_id":"150aba92-ff82-4e7d-aa4f-4d9583997907","system_id":"levelo_inurba_marseille","lat":43.22936,"lon":5.35361,"is_reserved":false,"is_disabled":false,"rental_uris":{"android":"levelo://app?vid=150aba92-ff82-4e7d-aa4f-4d9583997907","ios":"levelo://app?vid=150aba92-ff82-4e7d-aa4f-4d9583997907"},"vehicle_type_id":"4","last_reported":1767608071,"current_range_meters":9200,"station_id":"cpo3532slgdg3j2ikp40","pricing_plan_id":"cebpf4jnsgd1na2vs0mg"},{"bike_id":"139e13a1-e72b-4a5d-ab11-5f421c44da57","system_id":"levelo_inurba_marseille","lat":43.30384,"lon":5.42539,"is_reserved":false,"is_disabled":false,"rental_uris":{"android":"levelo://app?vid=139e13a1-e72b-4a5d-ab11-5f421c44da57","ios":"levelo://app?vid=139e13a1-e72b-4a5d-ab11-5f421c44da57"},"vehicle_type_id":"4","last_reported":1767608071,"current_range_meters":9200,"station_id":"","pricing_plan_id":"cebpf4jnsgd1na2vs0mg"},{"bike_id":"27937b26-2efb-47e3-b24e-f428cf28b343","system_id":"levelo_inurba_marseille","lat":43.243962,"lon":5.370718,"is_reserved":false,"is_disabled":false,"rental_uris":{"android":"levelo://app?vid=27937b26-2efb-47e3-b24e-f428cf28b343","ios":"levelo://app?vid=27937b26-2efb-47e3-b24e-f428cf28b343"},"vehicle_type_id":"4","last_reported":1767608071,"current_range_meters":9200,"station_id":"ce4bhhh2rcd13ifvqfk0","pricing_plan_id":"cebpf4jnsgd1na2vs0mg"},{"bike_id":"9645f65a-5cc6-494d-89f5-c60be2e5f5fe","system_id":"levelo_inurba_marseille","lat":43.313553,"lon":5.367027,"is_reserved":false,"is_disabled":false,"rental_uris":{"android":"levelo://app?vid=9645f65a-5cc6-494d-89f5-c60be2e5f5fe","ios":"levelo://app?vid=9645f65a-5cc6-494d-89f5-c60be2e5f5fe"},"vehicle_type_id":"4","last_reported":1767608071,"current_range_meters":9200,"station_id":"ce4bgr92rcd13ifvqc6g","pricing_plan_id":"cebpf4jnsgd1na2vs0mg"},{"bike_id":"fde24df3-addb-4a7b-b0e7-f2e289c22e5d","system_id":"levelo_inurba_marseille","lat":43.31028,"lon":5.39337,"is_reserved":false,"is_disabled":false,"rental_uris":{"android":"levelo://app?vid=fde24df3-addb-4a7b-b0e7-f2e289c22e5d","ios":"levelo://app?vid=fde24df3-addb-4a7b-b0e7-f2e289c22e5d"},"vehicle_type_id":"4","last_reported":1767608071,"current_range_meters":9200,"station_id":"","pricing_plan_id":"cebpf4jnsgd1na2vs0mg"},{"bike_id":"8b4198e6-5f96-4999-8664-dc5ff1c5a333","system_id":"levelo_inurba_marseille","lat":43.29039,"lon":5.39996,"is_reserved":false,"is_disabled":false,"rental_uris":{"android":"levelo://app?vid=8b4198e6-5f96-4999-8664-dc5ff1c5a333","ios":"levelo://app?vid=8b4198e6-5f96-4999-8664-dc5ff1c5a333"},"vehicle_type_id":"4","last_reported":1767608071,"current_range_meters":9200,"station_id":"ce4bh392rcd13ifvqdm0","pricing_plan_id":"cebpf4jnsgd1na2vs0mg"},{"bike_id":"504c62db-8dc0-4d03-9c83-c1acce2e5fab","system_id":"levelo_inurba_marseille","lat":43.29147,"lon":5.37972,"is_reserved":false,"is_disabled":false,"rental_uris":{"android":"levelo://app?vid=504c62db-8dc0-4d03-9c83-c1acce2e5fab","ios":"levelo://app?vid=504c62db-8dc0-4d03-9c83-c1acce2e5fab"},"vehicle_type_id":"4","last_reported":1767608071,"current_range_meters":9200,"station_id":"","pricing_plan_id":"cebpf4jnsgd1na2vs0mg"},{"bike_id":"531ba190-2d4e-4722-99ab-7185252e6433","system_id":"levelo_inurba_marseille","lat":43.22565,"lon":5.41629,"is_reserved":false,"is_disabled":false,"rental_uris":{"android":"levelo://app?vid=531ba190-2d4e-4722-99ab-7185252e6433","ios":"levelo://app?vid=531ba190-2d4e-4722-99ab-7185252e6433"},"vehicle_type_id":"4","last_reported":1767608071,"current_range_meters":9200,"station_id":"st_d2o4gvlbi1j2169b742g","pricing_plan_id":"cebpf4jnsgd1na2vs0mg"},{"bike_id":"6978fec3-7553-4c88-b8a0-53d7a29ef142","system_id":"levelo_inurba_marseille","lat":43.26281,"lon":5.39817,"is_reserved":false,"is_disabled":false,"rental_uris":{"android":"levelo://app?vid=6978fec3-7553-4c88-b8a0-53d7a29ef142","ios":"levelo://app?vid=6978fec3-7553-4c88-b8a0-53d7a29ef142"},"vehicle_type_id":"4","last_reported":1767608071,"current_range_meters":9200,"station_id":"","pricing_plan_id":"cebpf4jnsgd1na2vs0mg"},{"bike_id":"95222c6e-5009-452b-a164-835a74f00260","system_id":"levelo_inurba_marseille","lat":43.31479,"lon":5.37271,"is_reserved":false,"is_disabled":false,"rental_uris":{"android":"levelo://app?vid=95222c6e-5009-452b-a164-835a74f00260","ios":"levelo://app?vid=95222c6e-5009-452b-a164-835a74f00260"},"vehicle_type_id":"4","last_reported":1767608071,"current_range_meters":9200,"station_id":"ce4bgt12rcd13ifvqcd0","pricing_plan_id":"cebpf4jnsgd1na2vs0mg"},{"bike_id":"da033954-77a4-4a42-af93-ddd0b90806cb","system_id":"levelo_inurba_marseille","lat":43.31278,"lon":5.37404,"is_reserved":false,"is_disabled":false,"rental_uris":{"android":"levelo://app?vid=da033954-77a4-4a42-af93-ddd0b90806cb","ios":"levelo://app?vid=da033954-77a4-4a42-af93-ddd0b90806cb"},"vehicle_type_id":"4","last_reported":1767608071,"current_range_meters":9600,"station_id":"","pricing_plan_id":"cebpf4jnsgd1na2vs0mg"},{"bike_id":"ad886984-2c60-4bbf-87ae-5863c4c31ed7","system_id":"levelo_inurba_marseille","lat":43.29636,"lon":5.37168,"is_reserved":false,"is_disabled":false,"rental_uris":{"android":"levelo://app?vid=ad886984-2c60-4bbf-87ae-5863c4c31ed7","ios":"levelo://app?vid=ad886984-2c60-4bbf-87ae-5863c4c31ed7"},"vehicle_type_id":"4","last_reported":1767608071,"current_range_meters":9600,"station_id":"ce4bgnh2rcd13ifvqc0g","pricing_plan_id":"cebpf4jnsgd1na2vs0mg"},{"bike_id":"8499876e-7ce0-42d9-b6a5-2973ace5a67e","system_id":"levelo_inurba_marseille","lat":43.26208,"lon":5.3746,"is_reserved":false,"is_disabled":false,"rental_uris":{"android":"levelo://app?vid=8499876e-7ce0-42d9-b6a5-2973ace5a67e","ios":"levelo://app?vid=8499876e-7ce0-42d9-b6a5-2973ace5a67e"},"vehicle_type_id":"4","last_reported":1767608071,"current_range_meters":9600,"station_id":"ce4bhgp2rcd13ifvqfc0","pricing_plan_id":"cebpf4jnsgd1na2vs0mg"},