{"last_updated":1784281559,"ttl":60,"version":"2.2","data":{"bikes":[{"bike_id":"ba0c28b1-8732-48e2-8079-f25b2b3fbc3c","system_id":"levelo_inurba_marseille","lat":43.337444,"lon":5.374475,"is_reserved":false,"is_disabled":false,"rental_uris":{"android":"levelo://app?vid=ba0c28b1-8732-48e2-8079-f25b2b3fbc3c","ios":"levelo://app?vid=ba0c28b1-8732-48e2-8079-f25b2b3fbc3c"},"vehicle_type_id":"4","last_reported":1784281560,"current_range_meters":0,"station_id":"","pricing_plan_id":"cebpf4jnsgd1na2vs0mg"},{"bike_id":"c3dc1f36-124b-43b3-bbd8-29c118b5de98","system_id":"levelo_inurba_marseille","lat":43.31352,"lon":5.40532,"is_reserved":false,"is_disabled":false,"rental_uris":{"android":"levelo://app?vid=c3dc1f36-124b-43b3-bbd8-29c118b5de98","ios":"levelo://app?vid=c3dc1f36-124b-43b3-bbd8-29c118b5de98"},"vehicle_type_id":"4","last_reported":1784281560,"current_range_meters":35600,"station_id":"","pricing_plan_id":"cebpf4jnsgd1na2vs0mg"},{"bike_id":"66c71a93-3e3f-414d-8a4e-0a0acec748b4","system_id":"levelo_inurba_marseille","lat":43.26487,"lon":5.39579,"is_reserved":false,"is_disabled":false,"rental_uris":{"android":"levelo://app?vid=66c71a93-3e3f-414d-8a4e-0a0acec748b4","ios":"levelo://app?vid=66c71a93-3e3f-414d-8a4e-0a0acec748b4"},"vehicle_type_id":"4","last_reported":1784281560,"current_range_meters":31200,"station_id":"ce4bhi12rcd13ifvqfq0","pricing_plan_id":"cebpf4jnsgd1na2vs0mg"},{"bike_id":"63dc20ac-90f4-4eae-ac6c-d24ae13a7929","system_id":"levelo_inurba_marseille","lat":43.25336,"lon":5.42172,"is_reserved":false,"is_disabled":false,"rental_uris":{"android":"levelo://app?vid=63dc20ac-90f4-4eae-ac6c-d24ae13a7929","ios":"levelo://app?vid=63dc20ac-90f4-4eae-ac6c-d24ae13a7929"},"vehicle_type_id":"4","last_reported":1784281560,"current_range_meters":36800,"station_id":"st_d2m65c5bi1j21697t3ng","pricing_plan_id":"cebpf4jnsgd1na2vs0mg"},{"bike_id":"e648e2a2-5326-48b6-ba40-1e3856de6d9c","system_id":"levelo_inurba_marseille","lat":43.21181,"lon":5.35099,"is_reserved":false,"is_disabled":false,"rental_uris":{"android":"levelo://app?vid=e648e2a2-5326-48b6-ba40-1e3856de6d9c","ios":"levelo://app?vid=e648e2a2-5326-48b6-ba40-1e3856de6d9c"},"vehicle_type_id":"4","last_reported":1784281560,"current_range_meters":28000,"station_id":"st_cvj6sg6p6f1abm77japg","pricing_plan_id":"cebpf4jnsgd1na2vs0mg"},{"bike_id":"76b63993-96f7-484a-8343-5ea3ca2d69bf","system_id":"levelo_inurba_marseille","lat":43.27459,"lon":5.36149,"is_reserved":false,"is_disabled":false,"rental_uris":{"android":"levelo://app?vid=76b63993-96f7-484a-8343-5ea3ca2d69bf","ios":"levelo://app?vid=76b63993-96f7-484a-8343-5ea3ca2d69bf"},"vehicle_type_id":"4","last_reported":1784281560,"current_range_meters":29600,"station_id":"","pricing_plan_id":"cebpf4jnsgd1na2vs0mg"},{"bike_id":"382bb15b-49be-4b4d-a782-042762a0883b","system_id":"levelo_inurba_marseille","lat":43.26371,"lon":5.41059,"is_reserved":false,"is_disabled":false,"rental_uris":{"android":"levelo://app?vid=382bb15b-49be-4b4d-a782-042762a0883b","ios":"levelo://app?vid=382bb15b-49be-4b4d-a782-042762a0883b"},"vehicle_type_id":"4","last_reported":1784281560,"current_range_meters":8400,"station_id":"st_d4e5ca6na9uc73bfl5fg","pricing_plan_id":"cebpf4jnsgd1na2vs0mg"},{"bike_id":"a0437164-419a-4e09-9676-85c512958c75","system_id":"levelo_inurba_marseille","lat":43.2406,"lon":5.37774,"is_reserved":false,"is_disabled":false,"rental_uris":{"android":"levelo://app?vid=a0437164-419a-4e09-9676-85c512958c75","ios":"levelo://app?vid=a0437164-419a-4e09-9676-85c512958c75"},"vehicle_type_id":"4","last_reported":1784281560,"current_range_meters":30400,"station_id":"ce4bhnp2rcd13ifvqgvg","pricing_plan_id":"cebpf4jnsgd1na2vs0mg"},{"bike_id":"6955b959-bdb0-43ea-9c6f-1af74a3a6b90","system_id":"levelo_inurba_marseille","lat":43.23182,"lon":5.39989,"is_reserved":false,"is_disabled":true,"rental_uris":{"android":"levelo://app?vid=6955b959-bdb0-43ea-9c6f-1af74a3a6b90","ios":"levelo://app?vid=6955b959-bdb0-43ea-9c6f-1af74a3a6b90"},"vehicle_type_id":"4","last_reported":1784281560,"current_range_meters":1600,"station_id":"ce4bhn12rcd13ifvqgqg","pricing_plan_id":"cebpf4jnsgd1na2vs0mg"},{"bike_id":"efd3b0db-a47f-4cbd-be93-174f0b8e3872","system_id":"levelo_inurba_marseille","lat":43.31244,"lon":5.3683,"is_reserved":false,"is_disabled":false,"rental_uris":{"android":"levelo://app?vid=efd3b0db-a47f-4cbd-be93-174f0b8e3872","ios":"levelo://app?vid=efd3b0db-a47f-4cbd-be93-174f0b8e3872"},"vehicle_type_id":"4","last_reported":1784281560,"current_range_meters":22000,"station_id":"ce4bgl92rcd13ifvqbq0","pricing_plan_id":"cebpf4jnsgd1na2vs0mg"},{"bike_id":"db8bd5d3-bb99-4688-8de3-0b156a227ffe","system_id":"levelo_inurba_marseille","lat":43.29936,"lon":5.37473,"is_reserved":false,"is_disabled":true,"rental_uris":{"android":"levelo://app?vid=db8bd5d3-bb99-4688-8de3-0b156a227ffe","ios":"levelo://app?vid=db8bd5d3-bb99-4688-8de3-0b156a227ffe"},"vehicle_type_id":"4","last_reported":1784281560,"current_range_meters":10800,"station_id":"ce4bgjh2rcd13ifvqbg0","pricing_plan_id":"cebpf4jnsgd1na2vs0mg"},{"bike_id":"d749523d-f93c-49d0-8009-b305dd6d3874","system_id":"levelo_inurba_marseille","lat":43.25099,"lon":5.39513,"is_reserved":false,"is_disabled":false,"rental_uris":{"android":"levelo://app?vid=d749523d-f93c-49d0-8009-b305dd6d3874","ios":"levelo://app?vid=d749523d-f93c-49d0-8009-b305dd6d3874"},"vehicle_type_id":"4","last_reported":1784281560,"current_range_meters":22400,"station_id":"ce4bhm12rcd13ifvqgkg","pricing_plan_id":"cebpf4jnsgd1na2vs0mg"},{"bike_id":"96849611-00d5-4884-b0dc-e03df79fa9c3","system_id":"levelo_inurba_marseille","lat":43.24417,"lon":5.37065,"is_reserved":false,"is_disabled":false,"rental_uris":{"android":"levelo://app?vid=96849611-00d5-4884-b0dc-e03df79fa9c3","ios":"levelo://app?vid=96849611-00d5-4884-b0dc-e03df79fa9c3"},"vehicle_type_id":"4","last_reported":1784281560,"current_range_meters":15200,"station_id":"ce4bhhh2rcd13ifvqfk0","pricing_plan_id":"cebpf4jnsgd1na2vs0mg"},{"bike_id":"cf1bec2f-8c6b-4a4e-8bca-07a1fd68d9b8","system_id":"levelo_inurba_marseille","lat":43.29316,"lon":5.37146,"is_reserved":false,"is_disabled":false,"rental_uris":{"android":"levelo://app?vid=cf1bec2f-8c6b-4a4e-8bca-07a1fd68d9b8","ios":"levelo://app?vid=cf1bec2f-8c6b-4a4e-8bca-07a1fd68d9b8"},"vehicle_type_id":"4","last_reported":1784281560,"current_range_meters":39200,"station_id":"ce4bgh92rcd13ifvqb40","pricing_plan_id":"cebpf4jnsgd1na2vs0mg"},{"bike_id":"e71494cd-d4a8-436a-a5c6-260a2924500e","system_id":"levelo_inurba_marseille","lat":43.26214,"lon":5.38777,"is_reserved":false,"is_disabled":true,"rental_uris":{"android":"levelo://app?vid=e71494cd-d4a8-436a-a5c6-260a2924500e","ios":"levelo://app?vid=e71494cd-d4a8-436a-a5c6-260a2924500e"},"vehicle_type_id":"4","last_reported":1784281560,"current_range_meters":31200,"station_id":"st_d8gjfg747rts73coq3b0","pricing_plan_id":"cebpf4jnsgd1na2vs0mg"},{"bike_id":"4dd83e35-73dd-44b8-9d3c-9c21e3418d4e","system_id":"levelo_inurba_marseille","lat":43.27491,"lon":5.42568,"is_reserved":false,"is_disabled":false,"rental_uris":{"android":"levelo://app?vid=4dd83e35-73dd-44b8-9d3c-9c21e3418d4e","ios":"levelo://app?vid=4dd83e35-73dd-44b8-9d3c-9c21e3418d4e"},"vehicle_type_id":"4","last_reported":1784281560,"current_range_meters":16400,"station_id":"st_d8t4bh7nbrqs73arha60","pricing_plan_id":"cebpf4jnsgd1na2vs0mg"},{"bike_id":"a99dd7cd-3d87-44d8-a37a-5cde278f4cda","system_id":"levelo_inurba_marseille","lat":43.29551,"lon":5.37493,"is_reserved":false,"is_disabled":false,"rental_uris":{"android":"levelo://app?vid=a99dd7cd-3d87-44d8-a37a-5cde278f4cda","ios":"levelo://app?vid=a99dd7cd-3d87-44d8-a37a-5cde278f4cda"},"vehicle_type_id":"4","last_reported":1784281560,"current_range_meters":8800,"station_id":"ce4bgkp2rcd13ifvqbmg","pricing_plan_id":"cebpf4jnsgd1na2vs0mg"},{"bike_id":"b3a0f5c7-3575-43be-b38f-c45ce04cb8e0","system_id":"levelo_inurba_marseille","lat":43.24818,"lon":5.3747,"is_reserved":false,"is_disabled":false,"rental_uris":{"android":"levelo://app?vid=b3a0f5c7-3575-43be-b38f-c45ce04cb8e0","ios":"levelo://app?vid=b3a0f5c7-3575-43be-b38f-c45ce04cb8e0"},"vehicle_type_id":"4","last_reported":1784281560,"current_range_meters":36800,"station_id":"ce4bhgh2rcd13ifvqfb0","pricing_plan_id":"cebpf4jnsgd1na2vs0mg"},{"bike_id":"5369b032-dcc5-484a-9b18-671fceb20e9f","system_id":"levelo_inurba_marseille","lat":43.25006,"lon":5.38932,"is_reserved":false,"is_disabled":false,"rental_uris":{"android":"levelo://app?vid=5369b032-dcc5-484a-9b18-671fceb20e9f","ios":"levelo://app?vid=5369b032-dcc5-484a-9b18-671fceb20e9f"},"vehicle_type_id":"4","last_reported":1784281560,"current_range_meters":22000,"station_id":"ce4bhgp2rcd13ifvqfd0","pricing_plan_id":"cebpf4jnsgd1na2vs0mg"},{"bike_id":"7cf07e0f-9872-47d1-91d5-b3f66165664d","system_id":"levelo_inurba_marseille","lat":43.30964,"lon":5.39069,"is_reserved":false,"is_disabled":false,"rental_uris":{"android":"levelo://app?vid=7cf07e0f-9872-47d1-91d5-b3f66165664d","ios":"levelo://app?vid=7cf07e0f-9872-47d1-91d5-b3f66165664d"},"vehicle_type_id":"4","last_reported":1784281560,"current_range_meters":16800,"station_id":"ce4bgup2rcd13ifvqco0","pricing_plan_id":"cebpf4jnsgd1na2vs0mg"},{"bike_id":"daf11da9-09e4-45d4-814b-e16971bc59a4","system_id":"levelo_inurba_marseille","lat":43.27931,"lon":5.38696,"is_reserved":false,"is_disabled":true,"rental_uris":{"android":"levelo://app?vid=daf11da9-09e4-45d4-814b-e16971bc59a4","ios":"levelo://app?vid=daf11da9-09e4-45d4-814b-e16971bc59a4"},"vehicle_type_id":"4","last_reported":1784281560,"current_range_meters":24800,"station_id":"","pricing_plan_id":"cebpf4jnsgd1na2vs0mg"},{"bike_id":"208641bb-2077-49cc-b121-1fafc8038876","system_id":"levelo_inurba_marseille","lat":43.30533,"lon":5.36554,"is_reserved":false,"is_disabled":false,"rental_uris":{"android":"levelo://app?vid=208641bb-2077-49cc-b121-1fafc8038876","ios":"levelo://app?vid=208641bb-2077-49cc-b121-1fafc8038876"},"vehicle_type_id":"4","last_reported":1784281560,"current_range_meters":35200,"station_id":"ce4bgs12rcd13ifvqcag","pricing_plan_id":"cebpf4jnsgd1na2vs0mg"},{"bike_id":"6f681dcb-ee4c-458d-aac3-7caa1c6605da","system_id":"levelo_inurba_marseille","lat":43.26481,"lon":5.39573,"is_reserved":false,"is_disabled":false,"rental_uris":{"android":"levelo://app?vid=6f681dcb-ee4c-458d-aac3-7caa1c6605da","ios":"levelo://app?vid=6f681dcb-ee4c-458d-aac3-7caa1c6605da"},"vehicle_type_id":"4","last_reported":1784281560,"current_range_meters":39200,"station_id":"ce4bhi12rcd13ifvqfq0","pricing_plan_id":"cebpf4jnsgd1na2vs0mg"},{"bike_id":"22e1b113-9867-434a-82ea-d58589157a46","system_id":"levelo_inurba_marseille","lat":43.31703,"lon":5.40476,"is_reserved":false,"is_disabled":false,"rental_uris":{"android":"levelo://app?vid=22e1b113-9867-434a-82ea-d58589157a46","ios":"levelo://app?vid=22e1b113-9867-434a-82ea-d58589157a46"},"vehicle_type_id":"4","last_reported":1784281560,"current_range_meters":9600,"station_id":"ce4bh012rcd13ifvqd00","pricing_plan_id":"cebpf4jnsgd1na2vs0mg"},{"bike_id":"f1eb4e7d-d584-4f50-97e2-e4dc6a955be4","system_id":"levelo_inurba_marseille","lat":43.29914,"lon":5.3814,"is_reserved":false,"is_disabled":false,"rental_uris":{"android":"levelo://app?vid=f1eb4e7d-d584-4f50-97e2-e4dc6a955be4","ios":"levelo://app?vid=f1eb4e7d-d584-4f50-97e2-e4dc6a955be4"},"vehicle_type_id":"4","last_reported":1784281560,"current_range_meters":26800,"station_id":"ce4bgj12rcd13ifvqbc0","pricing_plan_id":"cebpf4jnsgd1na2vs0mg"},{"bike_id":"c201d3df-a631-49ab-a54b-68c45f2b08cc","system_id":"levelo_inurba_marseille","lat":43.30549,"lon":5.36687,"is_reserved":false,"is_disabled":false,"rental_uris":{"android":"levelo://app?vid=c201d3df-a631-49ab-a54b-68c45f2b08cc","ios":"levelo://app?vid=c201d3df-a631-49ab-a54b-68c45f2b08cc"},"vehicle_type_id":"4","last_reported":1784281560,"current_range_meters":33600,"station_id":"ce4bgrp2rcd13ifvqc9g","pricing_plan_id":"cebpf4jnsgd1na2vs0mg"},{"bike_id":"5061d283-4b70-41bd-b799-dd2033cafa15","system_id":"levelo_inurba_marseille","lat":43.28331,"lon":5.38106,"is_reserved":false,"is_disabled":false,"rental_uris":{"android":"levelo://app?vid=5061d283-4b70-41bd-b799-dd2033cafa15","ios":"levelo://app?vid=5061d283-4b70-41bd-b799-dd2033cafa15"},"vehicle_type_id":"4","last_reported":1784281560,"current_range_meters":36000,"station_id":"ce4bh412rcd13ifvqdr0","pricing_plan_id":"cebpf4jnsgd1na2vs0mg"},{"bike_id":"8c691d7a-4d6a-44b5-9ca9-8ad0c4f58584","system_id":"levelo_inurba_marseille","lat":43.27182,"lon":5.40998,"is_reserved":false,"is_disabled":false,"rental_uris":{"android":"levelo://app?vid=8c691d7a-4d6a-44b5-9ca9-8ad0c4f58584","ios":"levelo://app?vid=8c691d7a-4d6a-44b5-9ca9-8ad0c4f58584"},"vehicle_type_id":"4","last_reported":1784281560,"current_range_meters":17200,"station_id":"ce4bhl12rcd13ifvqgf0","pricing_plan_id":"cebpf4jnsgd1na2vs0mg"},{"bike_id":"aa48a20c-b25f-4521-94ad-e170f96e0611","system_id":"levelo_inurba_marseille","lat":43.27996,"lon":5.38264,"is_reserved":false,"is_disabled":false,"rental_uris":{"android":"levelo://app?vid=aa48a20c-b25f-4521-94ad-e170f96e0611","ios":"levelo://app?vid=aa48a20c-b25f-4521-94ad-e170f96e0611"},"vehicle_type_id":"4","last_reported":1784281560,"current_range_meters":28400,"station_id":"","pricing_plan_id":"cebpf4jnsgd1na2vs0mg"},{"bike_id":"e4064152-b01a-460a-934b-4b0ab157c51c","system_id":"levelo_inurba_marseille","lat":43.23072,"lon":5.35508,"is_reserved":false,"is_disabled":false,"rental_uris":{"android":"levelo://app?vid=e4064152-b01a-460a-934b-4b0ab157c51c","ios":"levelo://app?vid=e4064152-b01a-460a-934b-4b0ab157c51c"},"vehicle_type_id":"4","last_reported":1784281560,"current_range_meters":9200,"station_id":"cpo3342slgdg3j2ifvpg","pricing_plan_id":"cebpf4jnsgd1na2vs0mg"},{"bike_id":"4d103531-dc76-4632-9ed6-3b8eae789ecc","system_id":"levelo_inurba_marseille","lat":43.32149,"lon":5.37098,"is_reserved":false,"is_disabled":false,"rental_uris":{"android":"levelo://app?vid=4d103531-dc76-4632-9ed6-3b8eae789ecc","ios":"levelo://app?vid=4d103531-dc76-4632-9ed6-3b8eae789ecc"},"vehicle_type_id":"4","last_reported":1784281560,"current_range_meters":12800,"station_id":"","pricing_plan_id":"cebpf4jnsgd1na2vs0mg"},{"bike_id":"d59b8e52-8fc5-4e87-bdf5-414d504c62d3","system_id":"levelo_inurba_marseille","lat":43.29877,"lon":5.39748,"is_reserved":false,"is_disabled":false,"rental_uris":{"android":"levelo://app?vid=d59b8e52-8fc5-4e87-bdf5-414d504c62d3","ios":"levelo://app?vid=d59b8e52-8fc5-4e87-bdf5-414d504c62d3"},"vehicle_type_id":"4","last_reported":1784281560,"current_range_meters":36800,"station_id":"ce4bh0h2rcd13ifvqd50","pricing_plan_id":"cebpf4jnsgd1na2vs0mg"},{"bike_id":"ef6880d0-6944-4f6a-8f40-6662368b8f75","system_id":"levelo_inurba_marseille","lat":43.31435,"lon":5.45413,"is_reserved":false,"is_disabled":false,"rental_uris":{"android":"levelo://app?vid=ef6880d0-6944-4f6a-8f40-6662368b8f75","ios":"levelo://app?vid=ef6880d0-6944-4f6a-8f40-6662368b8f75"},"vehicle_type_id":"4","last_reported":1784281560,"current_range_meters":14800,"station_id":"","pricing_plan_id":"cebpf4jnsgd1na2vs0mg"},{"bike_id":"9ee20dbb-25af-4842-9017-29ca9cd3c0d2","system_id":"levelo_inurba_marseille","lat":43.2827,"lon":5.35067,"is_reserved":false,"is_disabled":false,"rental_uris":{"android":"levelo://app?vid=9ee20dbb-25af-4842-9017-29ca9cd3c0d2","ios":"levelo://app?vid=9ee20dbb-25af-4842-9017-29ca9cd3c0d2"},"vehicle_type_id":"4","last_reported":1784281560,"current_range_meters":20400,"station_id":"ce4bhbp2rcd13ifvqerg","pricing_plan_id":"cebpf4jnsgd1na2vs0mg"},{"bike_id":"09935cea-f0aa-4944-a6ed-cbfaa6daebfb","system_id":"levelo_inurba_marseille","lat":43.28608,"lon":5.37082,"is_reserved":false,"is_disabled":false,"rental_uris":{"android":"levelo://app?vid=09935cea-f0aa-4944-a6ed-cbfaa6daebfb","ios":"levelo://app?vid=09935cea-f0aa-4944-a6ed-cbfaa6daebfb"},"vehicle_type_id":"4","last_reported":1784281560,"current_range_meters":38400,"station_id":"ce4bht12rcd13ifvqi60","pricing_plan_id":"cebpf4jnsgd1na2vs0mg"},{"bike_id":"d4a92905-6c8f-44d5-af92-a78732a325d5","system_id":"levelo_inurba_marseille","lat":43.29003,"lon":5.3561,"is_reserved":false,"is_disabled":false,"rental_uris":{"android":"levelo://app?vid=d4a92905-6c8f-44d5-af92-a78732a325d5","ios":"levelo://app?vid=d4a92905-6c8f-44d5-af92-a78732a325d5"},"vehicle_type_id":"4","last_reported":1784281560,"current_range_meters":15200,"station_id":"ce4bhb92rcd13ifvqen0","pricing_plan_id":"cebpf4jnsgd1na2vs0mg"},{"bike_id":"864a38e5-18ed-497d-8a1d-3e425de9f388","system_id":"levelo_inurba_marseille","lat":43.31273,"lon":5.36877,"is_reserved":false,"is_disabled":false,"rental_uris":{"android":"levelo://app?vid=864a38e5-18ed-497d-8a1d-3e425de9f388","ios":"levelo://app?vid=864a38e5-18ed-497d-8a1d-3e425de9f388"},"vehicle_type_id":"4","last_reported":1784281560,"current_range_meters":38000,"station_id":"","pricing_plan_id":"cebpf4jnsgd1na2vs0mg"},{"bike_id":"beeeee44-efc8-41e9-9c10-249206d980e9","system_id":"levelo_inurba_marseille","lat":43.290497,"lon":5.359108,"is_reserved":false,"is_disabled":false,"rental_uris":{"android":"levelo://app?vid=beeeee44-efc8-41e9-9c10-249206d980e9","ios":"levelo://app?vid=beeeee44-efc8-41e9-9c10-249206d980e9"},"vehicle_type_id":"4","last_reported":1784281560,"current_range_meters":14800,"station_id":"ce4bha92rcd13ifvqeg0","pricing_plan_id":"cebpf4jnsgd1na2vs0mg"},{"bike_id":"d183c213-4177-4bf2-b9e0-24872be8a9c8","system_id":"levelo_inurba_marseille","lat":43.28477,"lon":5.48386,"is_reserved":false,"is_disabled":false,"rental_uris":{"android":"levelo://app?vid=d183c213-4177-4bf2-b9e0-24872be8a9c8","ios":"levelo://app?vid=d183c213-4177-4bf2-b9e0-24872be8a9c8"},"vehicle_type_id":"4","last_reported":1784281560,"current_range_meters":20400,"station_id":"st_d3svhcjqgbts73a3dn0g","pricing_plan_id":"cebpf4jnsgd1na2vs0mg"},{"bike_id":"4a9dc560-9f7e-4b5e-a61c-920a63c5a8c5","system_id":"levelo_inurba_marseille","lat":43.28265,"lon":5.35075,"is_reserved":false,"is_disabled":false,"rental_uris":{"android":"levelo://app?vid=4a9dc560-9f7e-4b5e-a61c-920a63c5a8c5","ios":"levelo://app?vid=4a9dc560-9f7e-4b5e-a61c-920a63c5a8c5"},"vehicle_type_id":"4","last_reported":1784281560,"current_range_meters":27200,"station_id":"ce4bhbp2rcd13ifvqerg","pricing_plan_id":"cebpf4jnsgd1na2vs0mg"},{"bike_id":"2cf1277f-3ca9-4d60-bfca-3be887851f47","system_id":"levelo_inurba_marseille","lat":43.26383,"lon":5.41068,"is_reserved":false,"is_disabled":false,"rental_uris":{"android":"levelo://app?vid=2cf1277f-3ca9-4d60-bfca-3be887851f47","ios":"levelo://app?vid=2cf1277f-3ca9-4d60-bfca-3be887851f47"},"vehicle_type_id":"4","last_reported":1784281560,"current_range_meters":10000,"station_id":"st_d4e5ca6na9uc73bfl5fg","pricing_plan_id":"cebpf4jnsgd1na2vs0mg"},{"bike_id":"930a26e6-38b4-4fff-a16a-2d1b93308d5b","system_id":"levelo_inurba_marseille","lat":43.28693,"lon":5.37384,"is_reserved":false,"is_disabled":true,"rental_uris":{"android":"levelo://app?vid=930a26e6-38b4-4fff-a16a-2d1b93308d5b","ios":"levelo://app?vid=930a26e6-38b4-4fff-a16a-2d1b93308d5b"},"vehicle_type_id":"4","last_reported":1784281560,"current_range_meters":7200,"station_id":"ce4bh3p2rcd13ifvqdq0","pricing_plan_id":"cebpf4jnsgd1na2vs0mg"},{"bike_id":"e4e2da61-31a3-435a-b1ec-9bb834559f2e","system_id":"levelo_inurba_marseille","lat":43.25002,"lon":5.38932,"is_reserved":false,"is_disabled":false,"rental_uris":{"android":"levelo://app?vid=e4e2da61-31a3-435a-b1ec-9bb834559f2e","ios":"levelo://app?vid=e4e2da61-31a3-435a-b1ec-9bb834559f2e"},"vehicle_type_id":"4","last_reported":1784281560,"current_range_meters":31200,"station_id":"ce4bhgp2rcd13ifvqfd0","pricing_plan_id":"cebpf4jnsgd1na2vs0mg"},{"bike_id":"87932bdc-5e35-4e62-8b81-4961770ea33b","system_id":"levelo_inurba_marseille","lat":43.21739,"lon":5.34605,"is_reserved":false,"is_disabled":false,"rental_uris":{"android":"levelo://app?vid=87932bdc-5e35-4e62-8b81-4961770ea33b","ios":"levelo://app?vid=87932bdc-5e35-4e62-8b81-4961770ea33b"},"vehicle_type_id":"4","last_reported":1784281560,"current_range_meters":20800,"station_id":"st_cvj6r9ubvosntc0bgbag","pricing_plan_id":"cebpf4jnsgd1na2vs0mg"},{"bike_id":"e0c7065e-7f74-4b06-ae7b-f933c635df87","system_id":"levelo_inurba_marseille","lat":43.29546,"lon":5.42292,"is_reserved":false,"is_disabled":false,"rental_uris":{"android":"levelo://app?vid=e0c7065e-7f74-4b06-ae7b-f933c635df87","ios":"levelo://app?vid=e0c7065e-7f74-4b06-ae7b-f933c635df87"},"vehicle_type_id":"4","last_reported":1784281560,"current_range_meters":39200,"station_id":"ce4bhph2rcd13ifvqhdg","pricing_plan_id":"cebpf4jnsgd1na2vs0mg"},{"bike_id":"3d9d15ce-5804-4209-b92a-723f598d0341","system_id":"levelo_inurba_marseille","lat":43.21188,"lon":5.35069,"is_reserved":false,"is_disabled":false,"rental_uris":{"android":"levelo://app?vid=3d9d15ce-5804-4209-b92a-723f598d0341","ios":"levelo://app?vid=3d9d15ce-5804-4209-b92a-723f598d0341"},"vehicle_type_id":"4","last_reported":1784281560,"current_range_meters":13600,"station_id":"st_cvj6sg6p6f1abm77japg","pricing_plan_id":"cebpf4jnsgd1na2vs0mg"},{"bike_id":"355c8e63-b581-4853-94e6-46a77994b615","system_id":"levelo_inurba_marseille","lat":43.2901,"lon":5.35611,"is_reserved":false,"is_disabled":false,"rental_uris":{"android":"levelo://app?vid=355c8e63-b581-4853-94e6-46a77994b615","ios":"levelo://app?vid=355c8e63-b581-4853-94e6-46a77994b615"},"vehicle_type_id":"4","last_reported":1784281560,"current_range_meters":30000,"station_id":"ce4bhb92rcd13ifvqen0","pricing_plan_id":"cebpf4jnsgd1na2vs0mg"},{"bike_id":"92f9377a-62ba-495b-8de9-1750140cdb94","system_id":"levelo_inurba_marseille","lat":43.29622,"lon":5.37144,"is_reserved":false,"is_disabled":true,"rental_uris":{"android":"levelo://app?vid=92f9377a-62ba-495b-8de9-1750140cdb94","ios":"levelo://app?vid=92f9377a-62ba-495b-8de9-1750140cdb94"},"vehicle_type_id":"4","last_reported":1784281560,"current_range_meters":9200,"station_id":"","pricing_plan_id":"cebpf4jnsgd1na2vs0mg"},{"bike_id":"e1bb6861-ee59-438c-aa2a-2a553b2d6f43","system_id":"levelo_inurba_marseille","lat":43.27191,"lon":5.40992,"is_reserved":false,"is_disabled":true,"rental_uris":{"android":"levelo://app?vid=e1bb6861-ee59-438c-aa2a-2a553b2d6f43","ios":"levelo://app?vid=e1bb6861-ee59-438c-aa2a-2a553b2d6f43"},"vehicle_type_id":"4","last_reported":1784281560,"current_range_meters":34800,"station_id":"ce4bhl12rcd13ifvqgf0","pricing_plan_id":"cebpf4jnsgd1na2vs0mg"},{"bike_id":"d61f5f42-3266-4ab9-bc4e-5a83331a7ece","system_id":"levelo_inurba_marseille","lat":43.25568,"lon":5.38242,"is_reserved":false,"is_disabled":true,"rental_uris":{"android":"levelo://app?vid=d61f5f42-3266-4ab9-bc4e-5a83331a7ece","ios":"levelo://app?vid=d61f5f42-3266-4ab9-bc4e-5a83331a7ece"},"vehicle_type_id":"4","last_reported":1784281560,"current_range_meters":36000,"station_id":"ce4bhih2rcd13ifvqfs0","pricing_plan_id":"cebpf4jnsgd1na2vs0mg"},{"bike_id":"448ab149-1e23-45d2-8d41-536c144b6b21","system_id":"levelo_inurba_marseille","lat":43.31761,"lon":5.39024,"is_reserved":false,"is_disabled":false,"rental_uris":{"android":"levelo://app?vid=448ab149-1e23-45d2-8d41-536c144b6b21","ios":"levelo://app?vid=448ab149-1e23-45d2-8d41-536c144b6b21"},"vehicle_type_id":"4","last_reported":1784281560,"current_range_meters":16000,"station_id":"ce4bhqp2rcd13ifvqhng","pricing_plan_id":"cebpf4jnsgd1na2vs0mg"},{"bike_id":"e4069052-09f3-4aad-a4cf-82efe46eca69","system_id":"levelo_inurba_marseille","lat":43.27948,"lon":5.37953,"is_reserved":false,"is_disabled":false,"rental_uris":{"android":"levelo://app?vid=e4069052-09f3-4aad-a4cf-82efe46eca69","ios":"levelo://app?vid=e4069052-09f3-4aad-a4cf-82efe46eca69"},"vehicle_type_id":"4","last_reported":1784281560,"current_range_meters":38000,"station_id":"","pricing_plan_id":"cebpf4jnsgd1na2vs0mg"},{"bike_id":"2623e023-e953-40ac-8068-15d2169ca99d","system_id":"levelo_inurba_marseille","lat":43.28703,"lon":5.46682,"is_reserved":false,"is_disabled":false,"rental_uris":{"android":"levelo://app?vid=2623e023-e953-40ac-8068-15d2169ca99d","ios":"levelo://app?vid=2623e023-e953-40ac-8068-15d2169ca99d"},"vehicle_type_id":"4","last_reported":1784281560,"current_range_meters":6800,"station_id":"st_d6tc3vkotcvc738tfjhg","pricing_plan_id":"cebpf4jnsgd1na2vs0mg"},{"bike_id":"7ee306a9-c228-430d-ab7f-c49a30f20926","system_id":"levelo_inurba_marseille","lat":43.2803,"lon":5.36949,"is_reserved":false,"is_disabled":false,"rental_uris":{"android":"levelo://app?vid=7ee306a9-c228-430d-ab7f-c49a30f20926","ios":"levelo://app?vid=7ee306a9-c228-430d-ab7f-c49a30f20926"},"vehicle_type_id":"4","last_reported":1784281560,"current_range_meters":38000,"station_id":"ce4bha12rcd13ifvqef0","pricing_plan_id":"cebpf4jnsgd1na2vs0mg"},{"bike_id":"7a5203cf-b3c3-4680-afa1-0e3d4d1fb7e2","system_id":"levelo_inurba_marseille","lat":43.23909,"lon":5.3748,"is_reserved":false,"is_disabled":false,"rental_uris":{"android":"levelo://app?vid=7a5203cf-b3c3-4680-afa1-0e3d4d1fb7e2","ios":"levelo://app?vid=7a5203cf-b3c3-4680-afa1-0e3d4d1fb7e2"},"vehicle_type_id":"4","last_reported":1784281560,"current_range_meters":38400,"station_id":"st_d6sm7csbq4hs73f8fpjg","pricing_plan_id":"cebpf4jnsgd1na2vs0mg"},{"bike_id":"69b6ed8c-1f17-46c2-8d4a-815055a3a3c4","system_id":"levelo_inurba_marseille","lat":43.28989,"lon":5.35607,"is_reserved":false,"is_disabled":true,"rental_uris":{"android":"levelo://app?vid=69b6ed8c-1f17-46c2-8d4a-815055a3a3c4","ios":"levelo://app?vid=69b6ed8c-1f17-46c2-8d4a-815055a3a3c4"},"vehicle_type_id":"4","last_reported":1784281560,"current_range_meters":38400,"station_id":"ce4bhb92rcd13ifvqen0","pricing_plan_id":"cebpf4jnsgd1na2vs0mg"},{"bike_id":"ebc9b3c7-9a3f-47fe-86c0-8ccdcb2b70ca","system_id":"levelo_inurba_marseille","lat":43.30126,"lon":5.38099,"is_reserved":false,"is_disabled":false,"rental_uris":{"android":"levelo://app?vid=ebc9b3c7-9a3f-47fe-86c0-8ccdcb2b70ca","ios":"levelo://app?vid=ebc9b3c7-9a3f-47fe-86c0-8ccdcb2b70ca"},"vehicle_type_id":"4","last_reported":1784281560,"current_range_meters":20000,"station_id":"ce4bgjp2rcd13ifvqbh0","pricing_plan_id":"cebpf4jnsgd1na2vs0mg"},{"bike_id":"7805d26b-bae0-4e9d-96e6-e037e3eeb62b","system_id":"levelo_inurba_marseille","lat":43.2292,"lon":5.35386,"is_reserved":false,"is_disabled":false,"rental_uris":{"android":"levelo://app?vid=7805d26b-bae0-4e9d-96e6-e037e3eeb62b","ios":"levelo://app?vid=7805d26b-bae0-4e9d-96e6-e037e3eeb62b"},"vehicle_type_id":"4","last_reported":1784281560,"current_range_meters":3600,"station_id":"cpo3532slgdg3j2ikp40","pricing_plan_id":"cebpf4jnsgd1na2vs0mg"},{"bike_id":"b24dfb91-f5ce-42a0-b9b3-5cc6fb7df858","system_id":"levelo_inurba_marseille","lat":43.26956,"lon":5.38639,"is_reserved":false,"is_disabled":false,"rental_uris":{"android":"levelo://app?vid=b24dfb91-f5ce-42a0-b9b3-5cc6fb7df858","ios":"levelo://app?vid=b24dfb91-f5ce-42a0-b9b3-5cc6fb7df858"},"vehicle_type_id":"4","last_reported":1784281560,"current_range_meters":28000,"station_id":"ce4bhh92rcd13ifvqfh0","pricing_plan_id":"cebpf4jnsgd1na2vs0mg"},{"bike_id":"530d5b81-1545-4b49-8624-2c00cc3d9834","system_id":"levelo_inurba_marseille","lat":43.25341,"lon":5.42164,"is_reserved":false,"is_disabled":false,"rental_uris":{"android":"levelo://app?vid=530d5b81-1545-4b49-8624-2c00cc3d9834","ios":"levelo://app?vid=530d5b81-1545-4b49-8624-2c00cc3d9834"},"vehicle_type_id":"4","last_reported":1784281560,"current_range_meters":17200,"station_id":"st_d2m65c5bi1j21697t3ng","pricing_plan_id":"cebpf4jnsgd1na2vs0mg"},{"bike_id":"863d0357-9100-4091-8be6-61d932e4e898","system_id":"levelo_inurba_marseille","lat":43.33742,"lon":5.37457,"is_reserved":false,"is_disabled":false,"rental_uris":{"android":"levelo://app?vid=863d0357-9100-4091-8be6-61d932e4e898","ios":"levelo://app?vid=863d0357-9100-4091-8be6-61d932e4e898"},"vehicle_type_id":"4","last_reported":1784281560,"current_range_meters":38800,"station_id":"","pricing_plan_id":"cebpf4jnsgd1na2vs0mg"},{"bike_id":"f44d0928-8ad6-4308-b10f-ade40ce37ee2","system_id":"levelo_inurba_marseille","lat":43.28013,"lon":5.38274,"is_reserved":false,"is_disabled":false,"rental_uris":{"android":"levelo://app?vid=f44d0928-8ad6-4308-b10f-ade40ce37ee2","ios":"levelo://app?vid=f44d0928-8ad6-4308-b10f-ade40ce37ee2"},"vehicle_type_id":"4","last_reported":1784281560,"current_range_meters":27600,"station_id":"","pricing_plan_id":"cebpf4jnsgd1na2vs0mg"},{"bike_id":"476582e1-be21-4bc4-8542-d86de0e420c6","system_id":"levelo_inurba_marseille","lat":43.24541,"lon":5.39531,"is_reserved":false,"is_disabled":false,"rental_uris":{"android":"levelo://app?vid=476582e1-be21-4bc4-8542-d86de0e420c6","ios":"levelo://app?vid=476582e1-be21-4bc4-8542-d86de0e420c6"},"vehicle_type_id":"4","last_reported":1784281560,"current_range_meters":39200,"station_id":"ce4bhlp2rcd13ifvqgjg","pricing_plan_id":"cebpf4jnsgd1na2vs0mg"},{"bike_id":"b6908eb2-f015-4f41-93b8-274540d27714","system_id":"levelo_inurba_marseille","lat":43.29028,"lon":5.38126,"is_reserved":false,"is_disabled":false,"rental_uris":{"android":"levelo://app?vid=b6908eb2-f015-4f41-93b8-274540d27714","ios":"levelo://app?vid=b6908eb2-f015-4f41-93b8-274540d27714"},"vehicle_type_id":"4","last_reported":1784281560,"current_range_meters":39200,"station_id":"ce4bh4p2rcd13ifvqe1g","pricing_plan_id":"cebpf4jnsgd1na2vs0mg"},{"bike_id":"10ef5bd0-f130-4452-b7f2-391aef329ae1","system_id":"levelo_inurba_marseille","lat":43.28156,"lon":5.42632,"is_reserved":false,"is_disabled":false,"rental_uris":{"android":"levelo://app?vid=10ef5bd0-f130-4452-b7f2-391aef329ae1","ios":"levelo://app?vid=10ef5bd0-f130-4452-b7f2-391aef329ae1"},"vehicle_type_id":"4","last_reported":1784281560,"current_range_meters":32400,"station_id":"ce4bhnh2rcd13ifvqgug","pricing_plan_id":"cebpf4jnsgd1na2vs0mg"},{"bike_id":"ccbc8778-9fb1-4697-a4f1-aa5a01a4daf2","system_id":"levelo_inurba_marseille","lat":43.31356,"lon":5.36701,"is_reserved":false,"is_disabled":false,"rental_uris":{"android":"levelo://app?vid=ccbc8778-9fb1-4697-a4f1-aa5a01a4daf2","ios":"levelo://app?vid=ccbc8778-9fb1-4697-a4f1-aa5a01a4daf2"},"vehicle_type_id":"4","last_reported":1784281560,"current_range_meters":38000,"station_id":"ce4bgr92rcd13ifvqc6g","pricing_plan_id":"cebpf4jnsgd1na2vs0mg"},{"bike_id":"8ba7f2d6-52d3-4c56-b19a-19a142e62779","system_id":"levelo_inurba_marseille","lat":43.24068,"lon":5.37747,"is_reserved":false,"is_disabled":false,"rental_uris":{"android":"levelo://app?vid=8ba7f2d6-52d3-4c56-b19a-19a142e62779","ios":"levelo://app?vid=8ba7f2d6-52d3-4c56-b19a-19a142e62779"},"vehicle_type_id":"4","last_reported":1784281560,"current_range_meters":17200,"station_id":"ce4bhnp2rcd13ifvqgvg","pricing_plan_id":"cebpf4jnsgd1na2vs0mg"},{"bike_id":"3df7b3ee-3083-4a49-a1f1-8ec2f9d7ba3b","system_id":"levelo_inurba_marseille","lat":43.26066,"lon":5.39412,"is_reserved":false,"is_disabled":false,"rental_uris":{"android":"levelo://app?vid=3df7b3ee-3083-4a49-a1f1-8ec2f9d7ba3b","ios":"levelo://app?vid=3df7b3ee-3083-4a49-a1f1-8ec2f9d7ba3b"},"vehicle_type_id":"4","last_reported":1784281560,"current_range_meters":28800,"station_id":"ce4bhh92rcd13ifvqfj0","pricing_plan_id":"cebpf4jnsgd1na2vs0mg"},{"bike_id":"692e39d8-285b-41d0-a15a-1de09e6388a5","system_id":"levelo_inurba_marseille","lat":43.24808,"lon":5.37451,"is_reserved":false,"is_disabled":false,"rental_uris":{"android":"levelo://app?vid=692e39d8-285b-41d0-a15a-1de09e6388a5","ios":"levelo://app?vid=692e39d8-285b-41d0-a15a-1de09e6388a5"},"vehicle_type_id":"4","last_reported":1784281560,"current_range_meters":39200,"station_id":"ce4bhgh2rcd13ifvqfb0","pricing_plan_id":"cebpf4jnsgd1na2vs0mg"},{"bike_id":"eeaaed66-36f9-477d-98fb-d53a7ffce760","system_id":"levelo_inurba_marseille","lat":43.26546,"lon":5.37293,"is_reserved":false,"is_disabled":true,"rental_uris":{"android":"levelo://app?vid=eeaaed66-36f9-477d-98fb-d53a7ffce760","ios":"levelo://app?vid=eeaaed66-36f9-477d-98fb-d53a7ffce760"},"vehicle_type_id":"4","last_reported":1784281560,"current_range_meters":35600,"station_id":"ce4bhg12rcd13ifvqf70","pricing_plan_id":"cebpf4jnsgd1na2vs0mg"},{"bike_id":"1702cc2f-2c66-448b-8b54-58c477324e70","system_id":"levelo_inurba_marseille","lat":43.27339,"lon":5.39097,"is_reserved":false,"is_disabled":false,"rental_uris":{"android":"levelo://app?vid=1702cc2f-2c66-448b-8b54-58c477324e70","ios":"levelo://app?vid=1702cc2f-2c66-448b-8b54-58c477324e70"},"vehicle_type_id":"4","last_reported":1784281560,"current_range_meters":13600,"station_id":"ce4bhgp2rcd13ifvqfe0","pricing_plan_id":"cebpf4jnsgd1na2vs0mg"},{"bike_id":"4fb3f049-924f-4c9c-9f9d-de641cc8ae83","system_id":"levelo_inurba_marseille","lat":43.30149,"lon":5.38068,"is_reserved":false,"is_disabled":false,"rental_uris":{"android":"levelo://app?vid=4fb3f049-924f-4c9c-9f9d-de641cc8ae83","ios":"levelo://app?vid=4fb3f049-924f-4c9c-9f9d-de641cc8ae83"},"vehicle_type_id":"4","last_reported":1784281560,"current_range_meters":38000,"station_id":"ce4bgjp2rcd13ifvqbh0","pricing_plan_id":"cebpf4jnsgd1na2vs0mg"},{"bike_id":"1e83d8be-5733-48f1-ae39-38a135622227","system_id":"levelo_inurba_marseille","lat":43.22559,"lon":5.41631,"is_reserved":false,"is_disabled":false,"rental_uris":{"android":"levelo://app?vid=1e83d8be-5733-48f1-ae39-38a135622227","ios":"levelo://app?vid=1e83d8be-5733-48f1-ae39-38a135622227"},"vehicle_type_id":"4","last_reported":1784281560,"current_range_meters":30000,"station_id":"st_d2o4gvlbi1j2169b742g","pricing_plan_id":"cebpf4jnsgd1na2vs0mg"},{"bike_id":"5ee03f4b-159d-426a-a2ca-0b6a084e3698","system_id":"levelo_inurba_marseille","lat":43.23779,"lon":5.36631,"is_reserved":false,"is_disabled":false,"rental_uris":{"android":"levelo://app?vid=5ee03f4b-159d-426a-a2ca-0b6a084e3698","ios":"levelo://app?vid=5ee03f4b-159d-426a-a2ca-0b6a084e3698"},"vehicle_type_id":"4","last_reported":1784281560,"current_range_meters":30400,"station_id":"st_d3nk18o9ro0c73en2l3g","pricing_plan_id":"cebpf4jnsgd1na2vs0mg"},{"bike_id":"e9700518-bfab-4e19-9c8e-e3cb6414cf72","system_id":"levelo_inurba_marseille","lat":43.29152,"lon":5.35804,"is_reserved":false,"is_disabled":true,"rental_uris":{"android":"levelo://app?vid=e9700518-bfab-4e19-9c8e-e3cb6414cf72","ios":"levelo://app?vid=e9700518-bfab-4e19-9c8e-e3cb6414cf72"},"vehicle_type_id":"4","last_reported":1784281560,"current_range_meters":12000,"station_id":"","pricing_plan_id":"cebpf4jnsgd1na2vs0mg"},{"bike_id":"6e2fa25e-c4e4-473c-b5d3-3e0f51dcc142","system_id":"levelo_inurba_marseille","lat":43.297967,"lon":5.381153,"is_reserved":false,"is_disabled":true,"rental_uris":{"android":"levelo://app?vid=6e2fa25e-c4e4-473c-b5d3-3e0f51dcc142","ios":"levelo://app?vid=6e2fa25e-c4e4-473c-b5d3-3e0f51dcc142"},"vehicle_type_id":"4","last_reported":1784281560,"current_range_meters":36800,"station_id":"ce4bgip2rcd13ifvqbb0","pricing_plan_id":"cebpf4jnsgd1na2vs0mg"},{"bike_id":"95ce5d31-1444-4ecd-9f97-683dd61e0473","system_id":"levelo_inurba_marseille","lat":43.30052,"lon":5.40117,"is_reserved":false,"is_disabled":false,"rental_uris":{"android":"levelo://app?vid=95ce5d31-1444-4ecd-9f97-683dd61e0473","ios":"levelo://app?vid=95ce5d31-1444-4ecd-9f97-683dd61e0473"},"vehicle_type_id":"4","last_reported":1784281560,"current_range_meters":13600,"station_id":"","pricing_plan_id":"cebpf4jnsgd1na2vs0mg"},{"bike_id":"40133888-0505-4ab7-bf98-89cc8c9f1fbd","system_id":"levelo_inurba_marseille","lat":43.31238,"lon":5.38133,"is_reserved":false,"is_disabled":false,"rental_uris":{"android":"levelo://app?vid=40133888-0505-4ab7-bf98-89cc8c9f1fbd","ios":"levelo://app?vid=40133888-0505-4ab7-bf98-89cc8c9f1fbd"},"vehicle_type_id":"4","last_reported":1784281560,"current_range_meters":18800,"station_id":"","pricing_plan_id":"cebpf4jnsgd1na2vs0mg"},{"bike_id":"21e71573-8bf0-4106-b8c8-1a9a53e8a6b4","system_id":"levelo_inurba_marseille","lat":43.28417,"lon":5.34981,"is_reserved":false,"is_disabled":false,"rental_uris":{"android":"levelo://app?vid=21e71573-8bf0-4106-b8c8-1a9a53e8a6b4","ios":"levelo://app?vid=21e71573-8bf0-4106-b8c8-1a9a53e8a6b4"},"vehicle_type_id":"4","last_reported":1784281560,"current_range_meters":28400,"station_id":"ce4bhbh2rcd13ifvqepg","pricing_plan_id":"cebpf4jnsgd1na2vs0mg"},{"bike_id":"27c50ee9-358d-4489-8bb6-49287f904a3a","system_id":"levelo_inurba_marseille","lat":43.28974,"lon":5.37835,"is_reserved":false,"is_disabled":false,"rental_uris":{"android":"levelo://app?vid=27c50ee9-358d-4489-8bb6-49287f904a3a","ios":"levelo://app?vid=27c50ee9-358d-4489-8bb6-49287f904a3a"},"vehicle_type_id":"4","last_reported":1784281560,"current_range_meters":6400,"station_id":"ce4bh9p2rcd13ifvqed0","pricing_plan_id":"cebpf4jnsgd1na2vs0mg"},{"bike_id":"5f995425-8564-4a55-a895-161c709617b0","system_id":"levelo_inurba_marseille","lat":43.23182,"lon":5.39984,"is_reserved":false,"is_disabled":false,"rental_uris":{"android":"levelo://app?vid=5f995425-8564-4a55-a895-161c709617b0","ios":"levelo://app?vid=5f995425-8564-4a55-a895-161c709617b0"},"vehicle_type_id":"4","last_reported":1784281560,"current_range_meters":20800,"station_id":"ce4bhn12rcd13ifvqgqg","pricing_plan_id":"cebpf4jnsgd1na2vs0mg"},{"bike_id":"34b4978e-492d-4d36-a2d7-7a18159a1fee","system_id":"levelo_inurba_marseille","lat":43.24642,"lon":5.38275,"is_reserved":false,"is_disabled":false,"rental_uris":{"android":"levelo://app?vid=34b4978e-492d-4d36-a2d7-7a18159a1fee","ios":"levelo://app?vid=34b4978e-492d-4d36-a2d7-7a18159a1fee"},"vehicle_type_id":"4","last_reported":1784281560,"current_range_meters":21600,"station_id":"","pricing_plan_id":"cebpf4jnsgd1na2vs0mg"},{"bike_id":"583175d7-0c17-4a47-b3d1-50fc3c4eab71","system_id":"levelo_inurba_marseille","lat":43.21188,"lon":5.35073,"is_reserved":false,"is_disabled":false,"rental_uris":{"android":"levelo://app?vid=583175d7-0c17-4a47-b3d1-50fc3c4eab71","ios":"levelo://app?vid=583175d7-0c17-4a47-b3d1-50fc3c4eab71"},"vehicle_type_id":"4","last_reported":1784281560,"current_range_meters":16000,"station_id":"st_cvj6sg6p6f1abm77japg","pricing_plan_id":"cebpf4jnsgd1na2vs0mg"},{"bike_id":"944e3d82-f303-4d6c-a543-b7f5b08cae1f","system_id":"levelo_inurba_marseille","lat":43.32095,"lon":5.36815,"is_reserved":false,"is_disabled":false,"rental_uris":{"android":"levelo://app?vid=944e3d82-f303-4d6c-a543-b7f5b08cae1f","ios":"levelo://app?vid=944e3d82-f303-4d6c-a543-b7f5b08cae1f"},"vehicle_type_id":"4","last_reported":1784281560,"current_range_meters":11600,"station_id":"ce4bhrh2rcd13ifvqhug","pricing_plan_id":"cebpf4jnsgd1na2vs0mg"},{"bike_id":"4c127758-d8a2-4e39-b263-1d9a63ee1e29","system_id":"levelo_inurba_marseille","lat":43.24076,"lon":5.37739,"is_reserved":false,"is_disabled":false,"rental_uris":{"android":"levelo://app?vid=4c127758-d8a2-4e39-b263-1d9a63ee1e29","ios":"levelo://app?vid=4c127758-d8a2-4e39-b263-1d9a63ee1e29"},"vehicle_type_id":"4","last_reported":1784281560,"current_range_meters":38800,"station_id":"ce4bhnp2rcd13ifvqgvg","pricing_plan_id":"cebpf4jnsgd1na2vs0mg"},{"bike_id":"d7a06262-b22c-406e-a126-a1dd3bb1618e","system_id":"levelo_inurba_marseille","lat":43.29065,"lon":5.37172,"is_reserved":false,"is_disabled":false,"rental_uris":{"android":"levelo://app?vid=d7a06262-b22c-406e-a126-a1dd3bb1618e","ios":"levelo://app?vid=d7a06262-b22c-406e-a126-a1dd3bb1618e"},"vehicle_type_id":"4","last_reported":1784281560,"current_range_meters":26000,"station_id":"ce4bh5p2rcd13ifvqe4g","pricing_plan_id":"cebpf4jnsgd1na2vs0mg"},{"bike_id":"865639b8-b1fe-40cb-8f37-368b97d6caca","system_id":"levelo_inurba_marseille","lat":43.2798,"lon":5.40008,"is_reserved":false,"is_disabled":false,"rental_uris":{"android":"levelo://app?vid=865639b8-b1fe-40cb-8f37-368b97d6caca","ios":"levelo://app?vid=865639b8-b1fe-40cb-8f37-368b97d6caca"},"vehicle_type_id":"4","last_reported":1784281560,"current_range_meters":38000,"station_id":"ce4bho92rcd13ifvqh4g","pricing_plan_id":"cebpf4jnsgd1na2vs0mg"},{"bike_id":"22a35046-b329-46c2-ba56-677aa14545bc","system_id":"levelo_inurba_marseille","lat":43.24385,"lon":5.37117,"is_reserved":false,"is_disabled":false,"rental_uris":{"android":"levelo://app?vid=22a35046-b329-46c2-ba56-677aa14545bc","ios":"levelo://app?vid=22a35046-b329-46c2-ba56-677aa14545bc"},"vehicle_type_id":"4","last_reported":1784281560,"current_range_meters":33200,"station_id":"ce4bhhh2rcd13ifvqfk0","pricing_plan_id":"cebpf4jnsgd1na2vs0mg"},{"bike_id":"f35ef753-bb14-4ec9-bff5-5492c18743a0","system_id":"levelo_inurba_marseille","lat":43.29597,"lon":5.37723,"is_reserved":false,"is_disabled":false,"rental_uris":{"android":"levelo://app?vid=f35ef753-bb14-4ec9-bff5-5492c18743a0","ios":"levelo://app?vid=f35ef753-bb14-4ec9-bff5-5492c18743a0"},"vehicle_type_id":"4","last_reported":1784281560,"current_range_meters":40000,"station_id":"ce4bgi92rcd13ifvqb90","pricing_plan_id":"cebpf4jnsgd1na2vs0mg"},{"bike_id":"81587832-75ed-49cd-91c3-f57f9b8cec45","system_id":"levelo_inurba_marseille","lat":43.29034,"lon":5.35925,"is_reserved":false,"is_disabled":true,"rental_uris":{"android":"levelo://app?vid=81587832-75ed-49cd-91c3-f57f9b8cec45","ios":"levelo://app?vid=81587832-75ed-49cd-91c3-f57f9b8cec45"},"vehicle_type_id":"4","last_reported":1784281560,"current_range_meters":11200,"station_id":"ce4bha92rcd13ifvqeg0","pricing_plan_id":"cebpf4jnsgd1na2vs0mg"},{"bike_id":"d4037206-0988-49a5-9589-9cf52ca0b5da","system_id":"levelo_inurba_marseille","lat":43.30334,"lon":5.40741,"is_reserved":false,"is_disabled":true,"rental_uris":{"android":"levelo://app?vid=d4037206-0988-49a5-9589-9cf52ca0b5da","ios":"levelo://app?vid=d4037206-0988-49a5-9589-9cf52ca0b5da"},"vehicle_type_id":"4","last_reported":1784281560,"current_range_meters":0,"station_id":"","pricing_plan_id":"cebpf4jnsgd1na2vs0mg"},{"bike_id":"808515ac-ec3b-4b47-92da-1a049f53ff69","system_id":"levelo_inurba_marseille","lat":43.28415,"lon":5.34987,"is_reserved":false,"is_disabled":true,"rental_uris":{"android":"levelo://app?vid=808515ac-ec3b-4b47-92da-1a049f53ff69","ios":"levelo://app?vid=808515ac-ec3b-4b47-92da-1a049f53ff69"},"vehicle_type_id":"4","last_reported":1784281560,"current_range_meters":400,"station_id":"","pricing_plan_id":"cebpf4jnsgd1na2vs0mg"},{"bike_id":"8a2ed306-8405-4822-b70f-abc1f81e1070","system_id":"levelo_inurba_marseille","lat":43.24542,"lon":5.39521,"is_reserved":false,"is_disabled":false,"rental_uris":{"android":"levelo://app?vid=8a2ed306-8405-4822-b70f-abc1f81e1070","ios":"levelo://app?vid=8a2ed306-8405-4822-b70f-abc1f81e1070"},"vehicle_type_id":"4","last_reported":1784281560,"current_range_meters":26000,"station_id":"ce4bhlp2rcd13ifvqgjg","pricing_plan_id":"cebpf4jnsgd1na2vs0mg"},{"bike_id":"16cc449f-16a3-4fe7-a9b5-0e4008cc40a2","system_id":"levelo_inurba_marseille","lat":43.27914,"lon":5.38045,"is_reserved":false,"is_disabled":false,"rental_uris":{"android":"levelo://app?vid=16cc449f-16a3-4fe7-a9b5-0e4008cc40a2","ios":"levelo://app?vid=16cc449f-16a3-4fe7-a9b5-0e4008cc40a2"},"vehicle_type_id":"4","last_reported":1784281560,"current_range_meters":37600,"station_id":"ce4bhf92rcd13ifvqf50","pricing_plan_id":"cebpf4jnsgd1na2vs0mg"},{"bike_id":"02fca35e-6bde-4c8b-9280-89f1b51d7527","system_id":"levelo_inurba_marseille","lat":43.30553,"lon":5.36523,"is_reserved":false,"is_disabled":false,"rental_uris":{"android":"levelo://app?vid=02fca35e-6bde-4c8b-9280-89f1b51d7527","ios":"levelo://app?vid=02fca35e-6bde-4c8b-9280-89f1b51d7527"},"vehicle_type_id":"4","last_reported":1784281560,"current_range_meters":36000,"station_id":"ce4bgs12rcd13ifvqcag","pricing_plan_id":"cebpf4jnsgd1na2vs0mg"},{"bike_id":"5dc61c06-bebd-4da3-baac-3c58ca456e4c","system_id":"levelo_inurba_marseille","lat":43.25704,"lon":5.41119,"is_reserved":false,"is_disabled":false,"rental_uris":{"android":"levelo://app?vid=5dc61c06-bebd-4da3-baac-3c58ca456e4c","ios":"levelo://app?vid=5dc61c06-bebd-4da3-baac-3c58ca456e4c"},"vehicle_type_id":"4","last_reported":1784281560,"current_range_meters":16400,"station_id":"ce4bhkp2rcd13ifvqgd0","pricing_plan_id":"cebpf4jnsgd1na2vs0mg"},{"bike_id":"e363b584-92a2-4c61-adfd-371a2577000d","system_id":"levelo_inurba_marseille","lat":43.29894,"lon":5.43686,"is_reserved":false,"is_disabled":false,"rental_uris":{"android":"levelo://app?vid=e363b584-92a2-4c61-adfd-371a2577000d","ios":"levelo://app?vid=e363b584-92a2-4c61-adfd-371a2577000d"},"vehicle_type_id":"4","last_reported":1784281560,"current_range_meters":39200,"station_id":"ce4bhpp2rcd13ifvqhfg","pricing_plan_id":"cebpf4jnsgd1na2vs0mg"},{"bike_id":"8618d24b-e7ef-47e0-bbc4-32a5c73e7e9d","system_id":"levelo_inurba_marseille","lat":43.29729,"lon":5.37721,"is_reserved":false,"is_disabled":false,"rental_uris":{"android":"levelo://app?vid=8618d24b-e7ef-47e0-bbc4-32a5c73e7e9d","ios":"levelo://app?vid=8618d24b-e7ef-47e0-bbc4-32a5c73e7e9d"},"vehicle_type_id":"4","last_reported":1784281560,"current_range_meters":40000,"station_id":"ce4bgkh2rcd13ifvqbl0","pricing_plan_id":"cebpf4jnsgd1na2vs0mg"},{"bike_id":"2eee671b-6c38-4902-b0a2-792e08ab381b","system_id":"levelo_inurba_marseille","lat":43.26058,"lon":5.39399,"is_reserved":false,"is_disabled":false,"rental_uris":{"android":"levelo://app?vid=2eee671b-6c38-4902-b0a2-792e08ab381b","ios":"levelo://app?vid=2eee671b-6c38-4902-b0a2-792e08ab381b"},"vehicle_type_id":"4","last_reported":1784281560,"current_range_meters":12000,"station_id":"ce4bhh92rcd13ifvqfj0","pricing_plan_id":"cebpf4jnsgd1na2vs0mg"},{"bike_id":"2322d216-5245-4f2d-b498-05459a3de200","system_id":"levelo_inurba_marseille","lat":43.25491,"lon":5.37662,"is_reserved":false,"is_disabled":false,"rental_uris":{"android":"levelo://app?vid=2322d216-5245-4f2d-b498-05459a3de200","ios":"levelo://app?vid=2322d216-5245-4f2d-b498-05459a3de200"},"vehicle_type_id":"4","last_reported":1784281560,"current_range_meters":20400,"station_id":"ce4bhh12rcd13ifvqff0","pricing_plan_id":"cebpf4jnsgd1na2vs0mg"},{"bike_id":"7ff8118f-6c81-4cdf-8a1d-4753d954065d","system_id":"levelo_inurba_marseille","lat":43.29593,"lon":5.38003,"is_reserved":false,"is_disabled":false,"rental_uris":{"android":"levelo://app?vid=7ff8118f-6c81-4cdf-8a1d-4753d954065d","ios":"levelo://app?vid=7ff8118f-6c81-4cdf-8a1d-4753d954065d"},"vehicle_type_id":"4","last_reported":1784281560,"current_range_meters":10000,"station_id":"","pricing_plan_id":"cebpf4jnsgd1na2vs0mg"},{"bike_id":"3da6bd28-86e6-4bb5-9156-89be9ed06d84","system_id":"levelo_inurba_marseille","lat":43.28312,"lon":5.38839,"is_reserved":false,"is_disabled":false,"rental_uris":{"android":"levelo://app?vid=3da6bd28-86e6-4bb5-9156-89be9ed06d84","ios":"levelo://app?vid=3da6bd28-86e6-4bb5-9156-89be9ed06d84"},"vehicle_type_id":"4","last_reported":1784281560,"current_range_meters":28000,"station_id":"","pricing_plan_id":"cebpf4jnsgd1na2vs0mg"},{"bike_id":"f853e491-d7e8-464d-9464-55b9e28faacc","system_id":"levelo_inurba_marseille","lat":43.26791,"lon":5.38408,"is_reserved":false,"is_disabled":false,"rental_uris":{"android":"levelo://app?vid=f853e491-d7e8-464d-9464-55b9e28faacc","ios":"levelo://app?vid=f853e491-d7e8-464d-9464-55b9e28faacc"},"vehicle_type_id":"4","last_reported":1784281560,"current_range_meters":6400,"station_id":"","pricing_plan_id":"cebpf4jnsgd1na2vs0mg"},{"bike_id":"7da6c927-d6d1-4fe6-b05b-adb7fb207004","system_id":"levelo_inurba_marseille","lat":43.32448,"lon":5.36579,"is_reserved":false,"is_disabled":false,"rental_uris":{"android":"levelo://app?vid=7da6c927-d6d1-4fe6-b05b-adb7fb207004","ios":"levelo://app?vid=7da6c927-d6d1-4fe6-b05b-adb7fb207004"},"vehicle_type_id":"4","last_reported":1784281560,"current_range_meters":29600,"station_id":"ce4bhs12rcd13ifvqhvg","pricing_plan_id":"cebpf4jnsgd1na2vs0mg"},{"bike_id":"d7c11974-bca2-402d-a8ff-28eaf16f0c66","system_id":"levelo_inurba_marseille","lat":43.32468,"lon":5.36581,"is_reserved":false,"is_disabled":false,"rental_uris":{"android":"levelo://app?vid=d7c11974-bca2-402d-a8ff-28eaf16f0c66","ios":"levelo://app?vid=d7c11974-bca2-402d-a8ff-28eaf16f0c66"},"vehicle_type_id":"4","last_reported":1784281560,"current_range_meters":38400,"station_id":"ce4bhs12rcd13ifvqhvg","pricing_plan_id":"cebpf4jnsgd1na2vs0mg"},{"bike_id":"1de5753c-f77d-4a34-b134-58bee8bc010c","system_id":"levelo_inurba_marseille","lat":43.26526,"lon":5.37324,"is_reserved":false,"is_disabled":true,"rental_uris":{"android":"levelo://app?vid=1de5753c-f77d-4a34-b134-58bee8bc010c","ios":"levelo://app?vid=1de5753c-f77d-4a34-b134-58bee8bc010c"},"vehicle_type_id":"4","last_reported":1784281560,"current_range_meters":24800,"station_id":"ce4bhg12rcd13ifvqf70","pricing_plan_id":"cebpf4jnsgd1na2vs0mg"},{"bike_id":"779a5cee-e819-40a2-9873-2ba8ca2f0706","system_id":"levelo_inurba_marseille","lat":43.315,"lon":5.37298,"is_reserved":false,"is_disabled":false,"rental_uris":{"android":"levelo://app?vid=779a5cee-e819-40a2-9873-2ba8ca2f0706","ios":"levelo://app?vid=779a5cee-e819-40a2-9873-2ba8ca2f0706"},"vehicle_type_id":"4","last_reported":1784281560,"current_range_meters":38800,"station_id":"ce4bgt12rcd13ifvqcd0","pricing_plan_id":"cebpf4jnsgd1na2vs0mg"},{"bike_id":"6b7bc794-a8b6-4b15-bdfb-b2fb240ae758","system_id":"levelo_inurba_marseille","lat":43.28413,"lon":5.34985,"is_reserved":false,"is_disabled":true,"rental_uris":{"android":"levelo://app?vid=6b7bc794-a8b6-4b15-bdfb-b2fb240ae758","ios":"levelo://app?vid=6b7bc794-a8b6-4b15-bdfb-b2fb240ae758"},"vehicle_type_id":"4","last_reported":1784281560,"current_range_meters":40000,"station_id":"ce4bhbh2rcd13ifvqepg","pricing_plan_id":"cebpf4jnsgd1na2vs0mg"},{"bike_id":"3cc3e250-cc6e-48e9-a3ad-0c4979ea1bfd","system_id":"levelo_inurba_marseille","lat":43.28464,"lon":5.37512,"is_reserved":false,"is_disabled":false,"rental_uris":{"android":"levelo://app?vid=3cc3e250-cc6e-48e9-a3ad-0c4979ea1bfd","ios":"levelo://app?vid=3cc3e250-cc6e-48e9-a3ad-0c4979ea1bfd"},"vehicle_type_id":"4","last_reported":1784281560,"current_range_meters":4000,"station_id":"","pricing_plan_id":"cebpf4jnsgd1na2vs0mg"},{"bike_id":"f5c6aafd-6df8-40b0-9d9d-3ffc14d0db7b","system_id":"levelo_inurba_marseille","lat":43.28149,"lon":5.42647,"is_reserved":false,"is_disabled":false,"rental_uris":{"android":"levelo://app?vid=f5c6aafd-6df8-40b0-9d9d-3ffc14d0db7b","ios":"levelo://app?vid=f5c6aafd-6df8-40b0-9d9d-3ffc14d0db7b"},"vehicle_type_id":"4","last_reported":1784281560,"current_range_meters":26000,"station_id":"ce4bhnh2rcd13ifvqgug","pricing_plan_id":"cebpf4jnsgd1na2vs0mg"},{"bike_id":"b757706d-1d17-4285-9a90-30a7e24d51ef","system_id":"levelo_inurba_marseille","lat":43.28463,"lon":5.38463,"is_reserved":false,"is_disabled":false,"rental_uris":{"android":"levelo://app?vid=b757706d-1d17-4285-9a90-30a7e24d51ef","ios":"levelo://app?vid=b757706d-1d17-4285-9a90-30a7e24d51ef"},"vehicle_type_id":"4","last_reported":1784281560,"current_range_meters":39200,"station_id":"ce4bh512rcd13ifvqe3g","pricing_plan_id":"cebpf4jnsgd1na2vs0mg"},{"bike_id":"d6b0724d-3030-4e7b-8778-a4d582b3070a","system_id":"levelo_inurba_marseille","lat":43.28626,"lon":5.3509,"is_reserved":false,"is_disabled":true,"rental_uris":{"android":"levelo://app?vid=d6b0724d-3030-4e7b-8778-a4d582b3070a","ios":"levelo://app?vid=d6b0724d-3030-4e7b-8778-a4d582b3070a"},"vehicle_type_id":"4","last_reported":1784281560,"current_range_meters":25200,"station_id":"ce4bhch2rcd13ifvqeug","pricing_plan_id":"cebpf4jnsgd1na2vs0mg"},{"bike_id":"70b4266b-6f2a-4bb7-934f-a2a2bf37b44f","system_id":"levelo_inurba_marseille","lat":43.25132,"lon":5.40325,"is_reserved":false,"is_disabled":true,"rental_uris":{"android":"levelo://app?vid=70b4266b-6f2a-4bb7-934f-a2a2bf37b44f","ios":"levelo://app?vid=70b4266b-6f2a-4bb7-934f-a2a2bf37b44f"},"vehicle_type_id":"4","last_reported":1784281560,"current_range_meters":0,"station_id":"ce4bhlh2rcd13ifvqgig","pricing_plan_id":"cebpf4jnsgd1na2vs0mg"},{"bike_id":"8d641355-9017-4fcd-97ec-2d72a9448ada","system_id":"levelo_inurba_marseille","lat":43.29615,"lon":5.37489,"is_reserved":false,"is_disabled":false,"rental_uris":{"android":"levelo://app?vid=8d641355-9017-4fcd-97ec-2d72a9448ada","ios":"levelo://app?vid=8d641355-9017-4fcd-97ec-2d72a9448ada"},"vehicle_type_id":"4","last_reported":1784281560,"current_range_meters":36800,"station_id":"","pricing_plan_id":"cebpf4jnsgd1na2vs0mg"},{"bike_id":"5366d360-d7dc-4e04-831f-62f49098b2c0","system_id":"levelo_inurba_marseille","lat":43.26214,"lon":5.39332,"is_reserved":false,"is_disabled":false,"rental_uris":{"android":"levelo://app?vid=5366d360-d7dc-4e04-831f-62f49098b2c0","ios":"levelo://app?vid=5366d360-d7dc-4e04-831f-62f49098b2c0"},"vehicle_type_id":"4","last_reported":1784281560,"current_range_meters":38400,"station_id":"","pricing_plan_id":"cebpf4jnsgd1na2vs0mg"},{"bike_id":"ba1031fe-940a-4977-baac-8cb8365e1fca","system_id":"levelo_inurba_marseille","lat":43.31288,"lon":5.36789,"is_reserved":false,"is_disabled":false,"rental_uris":{"android":"levelo://app?vid=ba1031fe-940a-4977-baac-8cb8365e1fca","ios":"levelo://app?vid=ba1031fe-940a-4977-baac-8cb8365e1fca"},"vehicle_type_id":"4","last_reported":1784281560,"current_range_meters":33600,"station_id":"ce4bgr92rcd13ifvqc6g","pricing_plan_id":"cebpf4jnsgd1na2vs0mg"},{"bike_id":"17ef7521-be57-48c8-a115-ded8df7df309","system_id":"levelo_inurba_marseille","lat":43.26184,"lon":5.37477,"is_reserved":false,"is_disabled":false,"rental_uris":{"android":"levelo://app?vid=17ef7521-be57-48c8-a115-ded8df7df309","ios":"levelo://app?vid=17ef7521-be57-48c8-a115-ded8df7df309"},"vehicle_type_id":"4","last_reported":1784281560,"current_range_meters":38800,"station_id":"ce4bhgp2rcd13ifvqfc0","pricing_plan_id":"cebpf4jnsgd1na2vs0mg"},{"bike_id":"0f6ff1da-c9e3-42e7-a8d3-8280d1c0addc","system_id":"levelo_inurba_marseille","lat":43.33736,"lon":5.3747,"is_reserved":false,"is_disabled":false,"rental_uris":{"android":"levelo://app?vid=0f6ff1da-c9e3-42e7-a8d3-8280d1c0addc","ios":"levelo://app?vid=0f6ff1da-c9e3-42e7-a8d3-8280d1c0addc"},"vehicle_type_id":"4","last_reported":1784281560,"current_range_meters":32400,"station_id":"","pricing_plan_id":"cebpf4jnsgd1na2vs0mg"},{"bike_id":"1e628dec-3141-48e0-b510-1c285ab03f4c","system_id":"levelo_inurba_marseille","lat":43.26397,"lon":5.41067,"is_reserved":false,"is_disabled":true,"rental_uris":{"android":"levelo://app?vid=1e628dec-3141-48e0-b510-1c285ab03f4c","ios":"levelo://app?vid=1e628dec-3141-48e0-b510-1c285ab03f4c"},"vehicle_type_id":"4","last_reported":1784281560,"current_range_meters":400,"station_id":"st_d4e5ca6na9uc73bfl5fg","pricing_plan_id":"cebpf4jnsgd1na2vs0mg"},{"bike_id":"dba95777-cb14-4e1b-8f71-08f792d0dd48","system_id":"levelo_inurba_marseille","lat":43.33588,"lon":5.4099,"is_reserved":false,"is_disabled":false,"rental_uris":{"android":"levelo://app?vid=dba95777-cb14-4e1b-8f71-08f792d0dd48","ios":"levelo://app?vid=dba95777-cb14-4e1b-8f71-08f792d0dd48"},"vehicle_type_id":"4","last_reported":1784281560,"current_range_meters":39200,"station_id":"ce4bhqh2rcd13ifvqhmg","pricing_plan_id":"cebpf4jnsgd1na2vs0mg"},{"bike_id":"9816fcfb-fed5-46a5-a828-dec154df7717","system_id":"levelo_inurba_marseille","lat":43.2682,"lon":5.40314,"is_reserved":false,"is_disabled":false,"rental_uris":{"android":"levelo://app?vid=9816fcfb-fed5-46a5-a828-dec154df7717","ios":"levelo://app?vid=9816fcfb-fed5-46a5-a828-dec154df7717"},"vehicle_type_id":"4","last_reported":1784281560,"current_range_meters":28400,"station_id":"ce501612rcd8frsf0b60","pricing_plan_id":"cebpf4jnsgd1na2vs0mg"},{"bike_id":"9ef35bb0-1b26-4ff2-ae9f-8281bf19dd05","system_id":"levelo_inurba_marseille","lat":43.311204,"lon":5.37774,"is_reserved":false,"is_disabled":false,"rental_uris":{"android":"levelo://app?vid=9ef35bb0-1b26-4ff2-ae9f-8281bf19dd05","ios":"levelo://app?vid=9ef35bb0-1b26-4ff2-ae9f-8281bf19dd05"},"vehicle_type_id":"4","last_reported":1784281560,"current_range_meters":2800,"station_id":"ce4bgt92rcd13ifvqcg0","pricing_plan_id":"cebpf4jnsgd1na2vs0mg"},{"bike_id":"aa288d2a-61f7-461c-8f19-1d622847bbc4","system_id":"levelo_inurba_marseille","lat":43.29001,"lon":5.35612,"is_reserved":false,"is_disabled":false,"rental_uris":{"android":"levelo://app?vid=aa288d2a-61f7-461c-8f19-1d622847bbc4","ios":"levelo://app?vid=aa288d2a-61f7-461c-8f19-1d622847bbc4"},"vehicle_type_id":"4","last_reported":1784281560,"current_range_meters":26800,"station_id":"ce4bhb92rcd13ifvqen0","pricing_plan_id":"cebpf4jnsgd1na2vs0mg"},{"bike_id":"832a74fa-6640-4f4e-a94c-86b76477eb6c","system_id":"levelo_inurba_marseille","lat":43.29274,"lon":5.36832,"is_reserved":false,"is_disabled":false,"rental_uris":{"android":"levelo://app?vid=832a74fa-6640-4f4e-a94c-86b76477eb6c","ios":"levelo://app?vid=832a74fa-6640-4f4e-a94c-86b76477eb6c"},"vehicle_type_id":"4","last_reported":1784281560,"current_range_meters":16400,"station_id":"","pricing_plan_id":"cebpf4jnsgd1na2vs0mg"},{"bike_id":"57861aa2-3770-4cb0-9ca6-87fa36583c4f","system_id":"levelo_inurba_marseille","lat":43.31379,"lon":5.38491,"is_reserved":false,"is_disabled":true,"rental_uris":{"android":"levelo://app?vid=57861aa2-3770-4cb0-9ca6-87fa36583c4f","ios":"levelo://app?vid=57861aa2-3770-4cb0-9ca6-87fa36583c4f"},"vehicle_type_id":"4","last_reported":1784281560,"current_range_meters":0,"station_id":"ce4bgt92rcd13ifvqcf0","pricing_plan_id":"cebpf4jnsgd1na2vs0mg"},{"bike_id":"d5c9c027-ce9b-46f0-b4eb-fc40b239d150","system_id":"levelo_inurba_marseille","lat":43.31714,"lon":5.40498,"is_reserved":false,"is_disabled":false,"rental_uris":{"android":"levelo://app?vid=d5c9c027-ce9b-46f0-b4eb-fc40b239d150","ios":"levelo://app?vid=d5c9c027-ce9b-46f0-b4eb-fc40b239d150"},"vehicle_type_id":"4","last_reported":1784281560,"current_range_meters":38000,"station_id":"ce4bh012rcd13ifvqd00","pricing_plan_id":"cebpf4jnsgd1na2vs0mg"},{"bike_id":"a9f12f72-4ef8-4985-9bad-1949cda70459","system_id":"levelo_inurba_marseille","lat":43.29519,"lon":5.37511,"is_reserved":false,"is_disabled":false,"rental_uris":{"android":"levelo://app?vid=a9f12f72-4ef8-4985-9bad-1949cda70459","ios":"levelo://app?vid=a9f12f72-4ef8-4985-9bad-1949cda70459"},"vehicle_type_id":"4","last_reported":1784281560,"current_range_meters":15200,"station_id":"ce4bgkp2rcd13ifvqbmg","pricing_plan_id":"cebpf4jnsgd1na2vs0mg"},{"bike_id":"942148f9-90f2-4171-8f05-98ba0ca85bcb","system_id":"levelo_inurba_marseille","lat":43.28478,"lon":5.48399,"is_reserved":false,"is_disabled":true,"rental_uris":{"android":"levelo://app?vid=942148f9-90f2-4171-8f05-98ba0ca85bcb","ios":"levelo://app?vid=942148f9-90f2-4171-8f05-98ba0ca85bcb"},"vehicle_type_id":"4","last_reported":1784281560,"current_range_meters":9600,"station_id":"st_d3svhcjqgbts73a3dn0g","pricing_plan_id":"cebpf4jnsgd1na2vs0mg"},{"bike_id":"2cd21150-d2b7-4b36-880f-cb5e3af2b424","system_id":"levelo_inurba_marseille","lat":43.24164,"lon":5.39724,"is_reserved":false,"is_disabled":false,"rental_uris":{"android":"levelo://app?vid=2cd21150-d2b7-4b36-880f-cb5e3af2b424","ios":"levelo://app?vid=2cd21150-d2b7-4b36-880f-cb5e3af2b424"},"vehicle_type_id":"4","last_reported":1784281560,"current_range_meters":3200,"station_id":"ce4bhn12rcd13ifvqgpg","pricing_plan_id":"cebpf4jnsgd1na2vs0mg"},{"bike_id":"b2b194ed-86a5-4dc8-b828-5b80e1681197","system_id":"levelo_inurba_marseille","lat":43.28514,"lon":5.44071,"is_reserved":false,"is_disabled":false,"rental_uris":{"android":"levelo://app?vid=b2b194ed-86a5-4dc8-b828-5b80e1681197","ios":"levelo://app?vid=b2b194ed-86a5-4dc8-b828-5b80e1681197"},"vehicle_type_id":"4","last_reported":1784281560,"current_range_meters":39200,"station_id":"st_d3j3df2ikq2c7380ej80","pricing_plan_id":"cebpf4jnsgd1na2vs0mg"},{"bike_id":"22af084b-faec-475a-a5ed-b6fa98023e28","system_id":"levelo_inurba_marseille","lat":43.28271,"lon":5.35069,"is_reserved":false,"is_disabled":false,"rental_uris":{"android":"levelo://app?vid=22af084b-faec-475a-a5ed-b6fa98023e28","ios":"levelo://app?vid=22af084b-faec-475a-a5ed-b6fa98023e28"},"vehicle_type_id":"4","last_reported":1784281560,"current_range_meters":24400,"station_id":"ce4bhbp2rcd13ifvqerg","pricing_plan_id":"cebpf4jnsgd1na2vs0mg"},{"bike_id":"2a93def1-9840-4751-b465-b53bb0ce6123","system_id":"levelo_inurba_marseille","lat":43.22556,"lon":5.41642,"is_reserved":false,"is_disabled":false,"rental_uris":{"android":"levelo://app?vid=2a93def1-9840-4751-b465-b53bb0ce6123","ios":"levelo://app?vid=2a93def1-9840-4751-b465-b53bb0ce6123"},"vehicle_type_id":"4","last_reported":1784281560,"current_range_meters":17200,"station_id":"st_d2o4gvlbi1j2169b742g","pricing_plan_id":"cebpf4jnsgd1na2vs0mg"},{"bike_id":"ff8cbcca-37d3-49dd-af4b-126722b555ff","system_id":"levelo_inurba_marseille","lat":43.24061,"lon":5.37734,"is_reserved":false,"is_disabled":false,"rental_uris":{"android":"levelo://app?vid=ff8cbcca-37d3-49dd-af4b-126722b555ff","ios":"levelo://app?vid=ff8cbcca-37d3-49dd-af4b-126722b555ff"},"vehicle_type_id":"4","last_reported":1784281560,"current_range_meters":25200,"station_id":"ce4bhnp2rcd13ifvqgvg","pricing_plan_id":"cebpf4jnsgd1na2vs0mg"},{"bike_id":"c5300617-66e6-4074-9160-d6283c101daf","system_id":"levelo_inurba_marseille","lat":43.28129,"lon":5.42674,"is_reserved":false,"is_disabled":false,"rental_uris":{"android":"levelo://app?vid=c5300617-66e6-4074-9160-d6283c101daf","ios":"levelo://app?vid=c5300617-66e6-4074-9160-d6283c101daf"},"vehicle_type_id":"4","last_reported":1784281560,"current_range_meters":36400,"station_id":"ce4bhnh2rcd13ifvqgug","pricing_plan_id":"cebpf4jnsgd1na2vs0mg"},{"bike_id":"86269a4c-fbcc-411d-b7a3-0de3f55cc311","system_id":"levelo_inurba_marseille","lat":43.3015,"lon":5.37455,"is_reserved":false,"is_disabled":false,"rental_uris":{"android":"levelo://app?vid=86269a4c-fbcc-411d-b7a3-0de3f55cc311","ios":"levelo://app?vid=86269a4c-fbcc-411d-b7a3-0de3f55cc311"},"vehicle_type_id":"4","last_reported":1784281560,"current_range_meters":19600,"station_id":"ce4bgs92rcd13ifvqcc0","pricing_plan_id":"cebpf4jnsgd1na2vs0mg"},{"bike_id":"b617c35b-7c51-4687-9948-30e5ef21086e","system_id":"levelo_inurba_marseille","lat":43.28703,"lon":5.46685,"is_reserved":false,"is_disabled":false,"rental_uris":{"android":"levelo://app?vid=b617c35b-7c51-4687-9948-30e5ef21086e","ios":"levelo://app?vid=b617c35b-7c51-4687-9948-30e5ef21086e"},"vehicle_type_id":"4","last_reported":1784281560,"current_range_meters":14000,"station_id":"st_d6tc3vkotcvc738tfjhg","pricing_plan_id":"cebpf4jnsgd1na2vs0mg"},{"bike_id":"e97d923d-d560-461e-94e7-6b746b3d8d92","system_id":"levelo_inurba_marseille","lat":43.3207,"lon":5.36867,"is_reserved":false,"is_disabled":false,"rental_uris":{"android":"levelo://app?vid=e97d923d-d560-461e-94e7-6b746b3d8d92","ios":"levelo://app?vid=e97d923d-d560-461e-94e7-6b746b3d8d92"},"vehicle_type_id":"4","last_reported":1784281560,"current_range_meters":29600,"station_id":"","pricing_plan_id":"cebpf4jnsgd1na2vs0mg"},{"bike_id":"ed742eca-6f01-42aa-8690-c704a6c8088f","system_id":"levelo_inurba_marseille","lat":43.30889,"lon":5.37193,"is_reserved":false,"is_disabled":false,"rental_uris":{"android":"levelo://app?vid=ed742eca-6f01-42aa-8690-c704a6c8088f","ios":"levelo://app?vid=ed742eca-6f01-42aa-8690-c704a6c8088f"},"vehicle_type_id":"4","last_reported":1784281560,"current_range_meters":38400,"station_id":"ce4bguh2rcd13ifvqckg","pricing_plan_id":"cebpf4jnsgd1na2vs0mg"},{"bike_id":"abd28b51-9db3-4251-8023-1ab1c1cc68c9","system_id":"levelo_inurba_marseille","lat":43.27992,"lon":5.41669,"is_reserved":false,"is_disabled":false,"rental_uris":{"android":"levelo://app?vid=abd28b51-9db3-4251-8023-1ab1c1cc68c9","ios":"levelo://app?vid=abd28b51-9db3-4251-8023-1ab1c1cc68c9"},"vehicle_type_id":"4","last_reported":1784281560,"current_range_meters":24800,"station_id":"ce4bho12rcd13ifvqh1g","pricing_plan_id":"cebpf4jnsgd1na2vs0mg"},{"bike_id":"e484f7af-39b4-45cb-9ec6-ea8e832497a6","system_id":"levelo_inurba_marseille","lat":43.29952,"lon":5.37173,"is_reserved":false,"is_disabled":false,"rental_uris":{"android":"levelo://app?vid=e484f7af-39b4-45cb-9ec6-ea8e832497a6","ios":"levelo://app?vid=e484f7af-39b4-45cb-9ec6-ea8e832497a6"},"vehicle_type_id":"4","last_reported":1784281560,"current_range_meters":32000,"station_id":"ce4bgr92rcd13ifvqc7g","pricing_plan_id":"cebpf4jnsgd1na2vs0mg"},{"bike_id":"6d32b765-aa0d-46a8-942b-fd272d4b06e6","system_id":"levelo_inurba_marseille","lat":43.27612,"lon":5.36121,"is_reserved":false,"is_disabled":false,"rental_uris":{"android":"levelo://app?vid=6d32b765-aa0d-46a8-942b-fd272d4b06e6","ios":"levelo://app?vid=6d32b765-aa0d-46a8-942b-fd272d4b06e6"},"vehicle_type_id":"4","last_reported":1784281560,"current_range_meters":12800,"station_id":"ce4bgj92rcd13ifvqbe0","pricing_plan_id":"cebpf4jnsgd1na2vs0mg"},{"bike_id":"21f439ca-4336-4cea-8a70-612d8a89f5e8","system_id":"levelo_inurba_marseille","lat":43.21761,"lon":5.3463,"is_reserved":false,"is_disabled":false,"rental_uris":{"android":"levelo://app?vid=21f439ca-4336-4cea-8a70-612d8a89f5e8","ios":"levelo://app?vid=21f439ca-4336-4cea-8a70-612d8a89f5e8"},"vehicle_type_id":"4","last_reported":1784281560,"current_range_meters":16400,"station_id":"st_cvj6r9ubvosntc0bgbag","pricing_plan_id":"cebpf4jnsgd1na2vs0mg"},{"bike_id":"b5306203-c67d-425d-bcd1-9b3c52e4bccc","system_id":"levelo_inurba_marseille","lat":43.23957,"lon":5.36641,"is_reserved":false,"is_disabled":false,"rental_uris":{"android":"levelo://app?vid=b5306203-c67d-425d-bcd1-9b3c52e4bccc","ios":"levelo://app?vid=b5306203-c67d-425d-bcd1-9b3c52e4bccc"},"vehicle_type_id":"4","last_reported":1784281560,"current_range_meters":23200,"station_id":"ce4bhi12rcd13ifvqfp0","pricing_plan_id":"cebpf4jnsgd1na2vs0mg"},{"bike_id":"57889d2e-37dd-4f8f-b3ab-1bc0a62b2215","system_id":"levelo_inurba_marseille","lat":43.304631,"lon":5.379007,"is_reserved":false,"is_disabled":true,"rental_uris":{"android":"levelo://app?vid=57889d2e-37dd-4f8f-b3ab-1bc0a62b2215","ios":"levelo://app?vid=57889d2e-37dd-4f8f-b3ab-1bc0a62b2215"},"vehicle_type_id":"4","last_reported":1784281560,"current_range_meters":26800,"station_id":"ce4bgup2rcd13ifvqcn0","pricing_plan_id":"cebpf4jnsgd1na2vs0mg"},{"bike_id":"af11d38b-f951-44bd-81fd-09ec92cc5383","system_id":"levelo_inurba_marseille","lat":43.30534,"lon":5.36531,"is_reserved":false,"is_disabled":false,"rental_uris":{"android":"levelo://app?vid=af11d38b-f951-44bd-81fd-09ec92cc5383","ios":"levelo://app?vid=af11d38b-f951-44bd-81fd-09ec92cc5383"},"vehicle_type_id":"4","last_reported":1784281560,"current_range_meters":10800,"station_id":"ce4bgs12rcd13ifvqcag","pricing_plan_id":"cebpf4jnsgd1na2vs0mg"},{"bike_id":"8946fedd-2e32-49ed-b51d-8d2209da3742","system_id":"levelo_inurba_marseille","lat":43.2943,"lon":5.38121,"is_reserved":false,"is_disabled":false,"rental_uris":{"android":"levelo://app?vid=8946fedd-2e32-49ed-b51d-8d2209da3742","ios":"levelo://app?vid=8946fedd-2e32-49ed-b51d-8d2209da3742"},"vehicle_type_id":"4","last_reported":1784281560,"current_range_meters":8800,"station_id":"","pricing_plan_id":"cebpf4jnsgd1na2vs0mg"},{"bike_id":"51905566-557d-413c-97fd-b84daf11e827","system_id":"levelo_inurba_marseille","lat":43.27896,"lon":5.39579,"is_reserved":false,"is_disabled":true,"rental_uris":{"android":"levelo://app?vid=51905566-557d-413c-97fd-b84daf11e827","ios":"levelo://app?vid=51905566-557d-413c-97fd-b84daf11e827"},"vehicle_type_id":"4","last_reported":1784281560,"current_range_meters":30400,"station_id":"ce4bhf92rcd13ifvqf40","pricing_plan_id":"cebpf4jnsgd1na2vs0mg"},{"bike_id":"1fd3872c-1cbb-4e5b-97bc-1f5e2bf1ca78","system_id":"levelo_inurba_marseille","lat":43.231527,"lon":5.437046,"is_reserved":false,"is_disabled":false,"rental_uris":{"android":"levelo://app?vid=1fd3872c-1cbb-4e5b-97bc-1f5e2bf1ca78","ios":"levelo://app?vid=1fd3872c-1cbb-4e5b-97bc-1f5e2bf1ca78"},"vehicle_type_id":"4","last_reported":1784281560,"current_range_meters":36800,"station_id":"ce4bhmp2rcd13ifvqgog","pricing_plan_id":"cebpf4jnsgd1na2vs0mg"},{"bike_id":"04f79851-52e6-4303-9105-2ba3a3dca261","system_id":"levelo_inurba_marseille","lat":43.2439,"lon":5.37055,"is_reserved":false,"is_disabled":false,"rental_uris":{"android":"levelo://app?vid=04f79851-52e6-4303-9105-2ba3a3dca261","ios":"levelo://app?vid=04f79851-52e6-4303-9105-2ba3a3dca261"},"vehicle_type_id":"4","last_reported":1784281560,"current_range_meters":39200,"station_id":"ce4bhhh2rcd13ifvqfk0","pricing_plan_id":"cebpf4jnsgd1na2vs0mg"},{"bike_id":"78b472ae-7ca1-438d-a65f-f93d06645001","system_id":"levelo_inurba_marseille","lat":43.29211,"lon":5.36055,"is_reserved":false,"is_disabled":true,"rental_uris":{"android":"levelo://app?vid=78b472ae-7ca1-438d-a65f-f93d06645001","ios":"levelo://app?vid=78b472ae-7ca1-438d-a65f-f93d06645001"},"vehicle_type_id":"4","last_reported":1784281560,"current_range_meters":6800,"station_id":"","pricing_plan_id":"cebpf4jnsgd1na2vs0mg"},{"bike_id":"aea11bbc-2d6f-4be0-b121-dbc2d33dd165","system_id":"levelo_inurba_marseille","lat":43.31986,"lon":5.41591,"is_reserved":false,"is_disabled":false,"rental_uris":{"android":"levelo://app?vid=aea11bbc-2d6f-4be0-b121-dbc2d33dd165","ios":"levelo://app?vid=aea11bbc-2d6f-4be0-b121-dbc2d33dd165"},"vehicle_type_id":"4","last_reported":1784281560,"current_range_meters":39200,"station_id":"","pricing_plan_id":"cebpf4jnsgd1na2vs0mg"},{"bike_id":"b4946daf-69c3-40cd-9846-e8dc3a52f4e3","system_id":"levelo_inurba_marseille","lat":43.28468,"lon":5.34989,"is_reserved":false,"is_disabled":false,"rental_uris":{"android":"levelo://app?vid=b4946daf-69c3-40cd-9846-e8dc3a52f4e3","ios":"levelo://app?vid=b4946daf-69c3-40cd-9846-e8dc3a52f4e3"},"vehicle_type_id":"4","last_reported":1784281560,"current_range_meters":38000,"station_id":"","pricing_plan_id":"cebpf4jnsgd1na2vs0mg"},{"bike_id":"49580048-747a-45e3-b761-255f0b0be064","system_id":"levelo_inurba_marseille","lat":43.29261,"lon":5.37615,"is_reserved":false,"is_disabled":false,"rental_uris":{"android":"levelo://app?vid=49580048-747a-45e3-b761-255f0b0be064","ios":"levelo://app?vid=49580048-747a-45e3-b761-255f0b0be064"},"vehicle_type_id":"4","last_reported":1784281560,"current_range_meters":6400,"station_id":"ce4bgi12rcd13ifvqb80","pricing_plan_id":"cebpf4jnsgd1na2vs0mg"},{"bike_id":"96825e0c-14e6-44a1-9638-22706c4a0540","system_id":"levelo_inurba_marseille","lat":43.2721,"lon":5.39203,"is_reserved":false,"is_disabled":true,"rental_uris":{"android":"levelo://app?vid=96825e0c-14e6-44a1-9638-22706c4a0540","ios":"levelo://app?vid=96825e0c-14e6-44a1-9638-22706c4a0540"},"vehicle_type_id":"4","last_reported":1784281560,"current_range_meters":0,"station_id":"ce4bhhp2rcd13ifvqfm0","pricing_plan_id":"cebpf4jnsgd1na2vs0mg"},{"bike_id":"7d4057f6-5b2f-4886-b1dc-30dae912042e","system_id":"levelo_inurba_marseille","lat":43.31114,"lon":5.37784,"is_reserved":false,"is_disabled":false,"rental_uris":{"android":"levelo://app?vid=7d4057f6-5b2f-4886-b1dc-30dae912042e","ios":"levelo://app?vid=7d4057f6-5b2f-4886-b1dc-30dae912042e"},"vehicle_type_id":"4","last_reported":1784281560,"current_range_meters":11600,"station_id":"ce4bgt92rcd13ifvqcg0","pricing_plan_id":"cebpf4jnsgd1na2vs0mg"},{"bike_id":"f5b08427-f0af-4a1e-92a1-c4077e977708","system_id":"levelo_inurba_marseille","lat":43.300777,"lon":5.390274,"is_reserved":false,"is_disabled":false,"rental_uris":{"android":"levelo://app?vid=f5b08427-f0af-4a1e-92a1-c4077e977708","ios":"levelo://app?vid=f5b08427-f0af-4a1e-92a1-c4077e977708"},"vehicle_type_id":"4","last_reported":1784281560,"current_range_meters":30400,"station_id":"ce4bh192rcd13ifvqdb0","pricing_plan_id":"cebpf4jnsgd1na2vs0mg"},{"bike_id":"49336744-f847-4735-b223-cecf4946723e","system_id":"levelo_inurba_marseille","lat":43.26678,"lon":5.38277,"is_reserved":false,"is_disabled":false,"rental_uris":{"android":"levelo://app?vid=49336744-f847-4735-b223-cecf4946723e","ios":"levelo://app?vid=49336744-f847-4735-b223-cecf4946723e"},"vehicle_type_id":"4","last_reported":1784281560,"current_range_meters":35200,"station_id":"ce4bhg92rcd13ifvqf90","pricing_plan_id":"cebpf4jnsgd1na2vs0mg"},{"bike_id":"ebeb86f7-4534-4bb1-aa48-061858d8a660","system_id":"levelo_inurba_marseille","lat":43.25944,"lon":5.40914,"is_reserved":false,"is_disabled":false,"rental_uris":{"android":"levelo://app?vid=ebeb86f7-4534-4bb1-aa48-061858d8a660","ios":"levelo://app?vid=ebeb86f7-4534-4bb1-aa48-061858d8a660"},"vehicle_type_id":"4","last_reported":1784281560,"current_range_meters":16000,"station_id":"ce4bhm92rcd13ifvqglg","pricing_plan_id":"cebpf4jnsgd1na2vs0mg"},{"bike_id":"cbf57bb6-373a-442c-9860-92cf9215a1bb","system_id":"levelo_inurba_marseille","lat":43.30538,"lon":5.36573,"is_reserved":false,"is_disabled":true,"rental_uris":{"android":"levelo://app?vid=cbf57bb6-373a-442c-9860-92cf9215a1bb","ios":"levelo://app?vid=cbf57bb6-373a-442c-9860-92cf9215a1bb"},"vehicle_type_id":"4","last_reported":1784281560,"current_range_meters":28400,"station_id":"ce4bgs12rcd13ifvqcag","pricing_plan_id":"cebpf4jnsgd1na2vs0mg"},{"bike_id":"ca553299-8d31-49bd-a6b4-332c888225b5","system_id":"levelo_inurba_marseille","lat":43.25717,"lon":5.41109,"is_reserved":false,"is_disabled":false,"rental_uris":{"android":"levelo://app?vid=ca553299-8d31-49bd-a6b4-332c888225b5","ios":"levelo://app?vid=ca553299-8d31-49bd-a6b4-332c888225b5"},"vehicle_type_id":"4","last_reported":1784281560,"current_range_meters":35600,"station_id":"ce4bhkp2rcd13ifvqgd0","pricing_plan_id":"cebpf4jnsgd1na2vs0mg"},{"bike_id":"e751cf14-619d-4770-83bc-1188bd809a57","system_id":"levelo_inurba_marseille","lat":43.24798,"lon":5.37452,"is_reserved":false,"is_disabled":false,"rental_uris":{"android":"levelo://app?vid=e751cf14-619d-4770-83bc-1188bd809a57","ios":"levelo://app?vid=e751cf14-619d-4770-83bc-1188bd809a57"},"vehicle_type_id":"4","last_reported":1784281560,"current_range_meters":25200,"station_id":"ce4bhgh2rcd13ifvqfb0","pricing_plan_id":"cebpf4jnsgd1na2vs0mg"},{"bike_id":"e8b2132e-2e2f-4678-bd27-ce3f9f11f158","system_id":"levelo_inurba_marseille","lat":43.304638,"lon":5.379007,"is_reserved":false,"is_disabled":true,"rental_uris":{"android":"levelo://app?vid=e8b2132e-2e2f-4678-bd27-ce3f9f11f158","ios":"levelo://app?vid=e8b2132e-2e2f-4678-bd27-ce3f9f11f158"},"vehicle_type_id":"4","last_reported":1784281560,"current_range_meters":19600,"station_id":"ce4bgup2rcd13ifvqcn0","pricing_plan_id":"cebpf4jnsgd1na2vs0mg"},{"bike_id":"17f00b12-f8d0-413a-b992-98dadbd11261","system_id":"levelo_inurba_marseille","lat":43.25016,"lon":5.38939,"is_reserved":false,"is_disabled":false,"rental_uris":{"android":"levelo://app?vid=17f00b12-f8d0-413a-b992-98dadbd11261","ios":"levelo://app?vid=17f00b12-f8d0-413a-b992-98dadbd11261"},"vehicle_type_id":"4","last_reported":1784281560,"current_range_meters":36000,"station_id":"ce4bhgp2rcd13ifvqfd0","pricing_plan_id":"cebpf4jnsgd1na2vs0mg"},{"bike_id":"cff35bfb-c79c-4442-8aa5-ce8500459e6e","system_id":"levelo_inurba_marseille","lat":43.29873,"lon":5.389,"is_reserved":false,"is_disabled":false,"rental_uris":{"android":"levelo://app?vid=cff35bfb-c79c-4442-8aa5-ce8500459e6e","ios":"levelo://app?vid=cff35bfb-c79c-4442-8aa5-ce8500459e6e"},"vehicle_type_id":"4","last_reported":1784281560,"current_range_meters":23200,"station_id":"ce4bh392rcd13ifvqdl0","pricing_plan_id":"cebpf4jnsgd1na2vs0mg"},{"bike_id":"f96974ba-e6ad-4805-b9fc-bca3bdc6359f","system_id":"levelo_inurba_marseille","lat":43.24404,"lon":5.37066,"is_reserved":false,"is_disabled":false,"rental_uris":{"android":"levelo://app?vid=f96974ba-e6ad-4805-b9fc-bca3bdc6359f","ios":"levelo://app?vid=f96974ba-e6ad-4805-b9fc-bca3bdc6359f"},"vehicle_type_id":"4","last_reported":1784281560,"current_range_meters":26000,"station_id":"ce4bhhh2rcd13ifvqfk0","pricing_plan_id":"cebpf4jnsgd1na2vs0mg"},{"bike_id":"4f54c651-15d1-492f-8d09-70f1f809ad4f","system_id":"levelo_inurba_marseille","lat":43.27487,"lon":5.42538,"is_reserved":false,"is_disabled":false,"rental_uris":{"android":"levelo://app?vid=4f54c651-15d1-492f-8d09-70f1f809ad4f","ios":"levelo://app?vid=4f54c651-15d1-492f-8d09-70f1f809ad4f"},"vehicle_type_id":"4","last_reported":1784281560,"current_range_meters":30000,"station_id":"st_d8t4bh7nbrqs73arha60","pricing_plan_id":"cebpf4jnsgd1na2vs0mg"},{"bike_id":"04ed4e41-07b7-4d3e-ad9d-b2def000bec2","system_id":"levelo_inurba_marseille","lat":43.31757,"lon":5.39011,"is_reserved":false,"is_disabled":false,"rental_uris":{"android":"levelo://app?vid=04ed4e41-07b7-4d3e-ad9d-b2def000bec2","ios":"levelo://app?vid=04ed4e41-07b7-4d3e-ad9d-b2def000bec2"},"vehicle_type_id":"4","last_reported":1784281560,"current_range_meters":36800,"station_id":"ce4bhqp2rcd13ifvqhng","pricing_plan_id":"cebpf4jnsgd1na2vs0mg"},{"bike_id":"99d8bb7d-1a2c-4d8e-94b4-da8e22dbd083","system_id":"levelo_inurba_marseille","lat":43.29255,"lon":5.3762,"is_reserved":false,"is_disabled":false,"rental_uris":{"android":"levelo://app?vid=99d8bb7d-1a2c-4d8e-94b4-da8e22dbd083","ios":"levelo://app?vid=99d8bb7d-1a2c-4d8e-94b4-da8e22dbd083"},"vehicle_type_id":"4","last_reported":1784281560,"current_range_meters":36400,"station_id":"ce4bgi12rcd13ifvqb80","pricing_plan_id":"cebpf4jnsgd1na2vs0mg"},{"bike_id":"4c3bc6ab-4050-437f-88fc-b705e8310160","system_id":"levelo_inurba_marseille","lat":43.31229,"lon":5.36866,"is_reserved":false,"is_disabled":false,"rental_uris":{"android":"levelo://app?vid=4c3bc6ab-4050-437f-88fc-b705e8310160","ios":"levelo://app?vid=4c3bc6ab-4050-437f-88fc-b705e8310160"},"vehicle_type_id":"4","last_reported":1784281560,"current_range_meters":35600,"station_id":"ce4bgl92rcd13ifvqbq0","pricing_plan_id":"cebpf4jnsgd1na2vs0mg"},{"bike_id":"f0e8fbee-116b-4575-8cba-462368abdb7b","system_id":"levelo_inurba_marseille","lat":43.299,"lon":5.37469,"is_reserved":false,"is_disabled":false,"rental_uris":{"android":"levelo://app?vid=f0e8fbee-116b-4575-8cba-462368abdb7b","ios":"levelo://app?vid=f0e8fbee-116b-4575-8cba-462368abdb7b"},"vehicle_type_id":"4","last_reported":1784281560,"current_range_meters":22000,"station_id":"ce4bgjh2rcd13ifvqbg0","pricing_plan_id":"cebpf4jnsgd1na2vs0mg"},{"bike_id":"237fcdd5-ea18-4c71-8a37-a101920e3d3f","system_id":"levelo_inurba_marseille","lat":43.29568,"lon":5.37506,"is_reserved":false,"is_disabled":false,"rental_uris":{"android":"levelo://app?vid=237fcdd5-ea18-4c71-8a37-a101920e3d3f","ios":"levelo://app?vid=237fcdd5-ea18-4c71-8a37-a101920e3d3f"},"vehicle_type_id":"4","last_reported":1784281560,"current_range_meters":2800,"station_id":"ce4bgh92rcd13ifvqb50","pricing_plan_id":"cebpf4jnsgd1na2vs0mg"},{"bike_id":"e35b3037-ccf2-48a7-b6f2-14a77143bba4","system_id":"levelo_inurba_marseille","lat":43.3235,"lon":5.36764,"is_reserved":false,"is_disabled":false,"rental_uris":{"android":"levelo://app?vid=e35b3037-ccf2-48a7-b6f2-14a77143bba4","ios":"levelo://app?vid=e35b3037-ccf2-48a7-b6f2-14a77143bba4"},"vehicle_type_id":"4","last_reported":1784281560,"current_range_meters":35200,"station_id":"ce4bhsh2rcd13ifvqi2g","pricing_plan_id":"cebpf4jnsgd1na2vs0mg"},{"bike_id":"0cc9064c-9e67-4dd7-b11e-84260d626c23","system_id":"levelo_inurba_marseille","lat":43.29891,"lon":5.38135,"is_reserved":false,"is_disabled":true,"rental_uris":{"android":"levelo://app?vid=0cc9064c-9e67-4dd7-b11e-84260d626c23","ios":"levelo://app?vid=0cc9064c-9e67-4dd7-b11e-84260d626c23"},"vehicle_type_id":"4","last_reported":1784281560,"current_range_meters":35600,"station_id":"ce4bgj12rcd13ifvqbc0","pricing_plan_id":"cebpf4jnsgd1na2vs0mg"},{"bike_id":"75418dad-a440-4596-b1b1-706c93f7d57d","system_id":"levelo_inurba_marseille","lat":43.24193,"lon":5.39714,"is_reserved":false,"is_disabled":false,"rental_uris":{"android":"levelo://app?vid=75418dad-a440-4596-b1b1-706c93f7d57d","ios":"levelo://app?vid=75418dad-a440-4596-b1b1-706c93f7d57d"},"vehicle_type_id":"4","last_reported":1784281560,"current_range_meters":28400,"station_id":"ce4bhn12rcd13ifvqgpg","pricing_plan_id":"cebpf4jnsgd1na2vs0mg"},{"bike_id":"7a42978c-e1f0-4cac-a7eb-046de05ccaea","system_id":"levelo_inurba_marseille","lat":43.31238,"lon":5.3687,"is_reserved":false,"is_disabled":false,"rental_uris":{"android":"levelo://app?vid=7a42978c-e1f0-4cac-a7eb-046de05ccaea","ios":"levelo://app?vid=7a42978c-e1f0-4cac-a7eb-046de05ccaea"},"vehicle_type_id":"4","last_reported":1784281560,"current_range_meters":36000,"station_id":"ce4bgl92rcd13ifvqbq0","pricing_plan_id":"cebpf4jnsgd1na2vs0mg"},{"bike_id":"1f743d69-ba21-4d8f-9729-ca99eaf40b11","system_id":"levelo_inurba_marseille","lat":43.2667,"lon":5.38265,"is_reserved":false,"is_disabled":false,"rental_uris":{"android":"levelo://app?vid=1f743d69-ba21-4d8f-9729-ca99eaf40b11","ios":"levelo://app?vid=1f743d69-ba21-4d8f-9729-ca99eaf40b11"},"vehicle_type_id":"4","last_reported":1784281560,"current_range_meters":20400,"station_id":"ce4bhg92rcd13ifvqf90","pricing_plan_id":"cebpf4jnsgd1na2vs0mg"},{"bike_id":"44413a42-674c-488e-b3bd-a9f37182866f","system_id":"levelo_inurba_marseille","lat":43.29266,"lon":5.36853,"is_reserved":false,"is_disabled":false,"rental_uris":{"android":"levelo://app?vid=44413a42-674c-488e-b3bd-a9f37182866f","ios":"levelo://app?vid=44413a42-674c-488e-b3bd-a9f37182866f"},"vehicle_type_id":"4","last_reported":1784281560,"current_range_meters":22000,"station_id":"","pricing_plan_id":"cebpf4jnsgd1na2vs0mg"},{"bike_id":"d45333fb-8568-4470-852b-a80a11353993","system_id":"levelo_inurba_marseille","lat":43.25566,"lon":5.3829,"is_reserved":false,"is_disabled":false,"rental_uris":{"android":"levelo://app?vid=d45333fb-8568-4470-852b-a80a11353993","ios":"levelo://app?vid=d45333fb-8568-4470-852b-a80a11353993"},"vehicle_type_id":"4","last_reported":1784281560,"current_range_meters":21600,"station_id":"ce4bhih2rcd13ifvqfs0","pricing_plan_id":"cebpf4jnsgd1na2vs0mg"},{"bike_id":"1d9f3df3-4693-4dfa-8626-345c609c22e4","system_id":"levelo_inurba_marseille","lat":43.29064,"lon":5.37388,"is_reserved":false,"is_disabled":false,"rental_uris":{"android":"levelo://app?vid=1d9f3df3-4693-4dfa-8626-345c609c22e4","ios":"levelo://app?vid=1d9f3df3-4693-4dfa-8626-345c609c22e4"},"vehicle_type_id":"4","last_reported":1784281560,"current_range_meters":25200,"station_id":"","pricing_plan_id":"cebpf4jnsgd1na2vs0mg"},{"bike_id":"202f9ad0-42a8-41b4-9ba7-c7ec0280e620","system_id":"levelo_inurba_marseille","lat":43.23194,"lon":5.35565,"is_reserved":false,"is_disabled":false,"rental_uris":{"android":"levelo://app?vid=202f9ad0-42a8-41b4-9ba7-c7ec0280e620","ios":"levelo://app?vid=202f9ad0-42a8-41b4-9ba7-c7ec0280e620"},"vehicle_type_id":"4","last_reported":1784281560,"current_range_meters":38400,"station_id":"ce4bhu92rcd13ifvqi70","pricing_plan_id":"cebpf4jnsgd1na2vs0mg"},{"bike_id":"c1ee1d48-1ffa-40ca-a1df-8f0989c3a89e","system_id":"levelo_inurba_marseille","lat":43.30131,"lon":5.38104,"is_reserved":false,"is_disabled":false,"rental_uris":{"android":"levelo://app?vid=c1ee1d48-1ffa-40ca-a1df-8f0989c3a89e","ios":"levelo://app?vid=c1ee1d48-1ffa-40ca-a1df-8f0989c3a89e"},"vehicle_type_id":"4","last_reported":1784281560,"current_range_meters":29600,"station_id":"ce4bgjp2rcd13ifvqbh0","pricing_plan_id":"cebpf4jnsgd1na2vs0mg"},{"bike_id":"ce919813-724a-4d97-82ad-b1af9c37dc6d","system_id":"levelo_inurba_marseille","lat":43.24164,"lon":5.39709,"is_reserved":false,"is_disabled":false,"rental_uris":{"android":"levelo://app?vid=ce919813-724a-4d97-82ad-b1af9c37dc6d","ios":"levelo://app?vid=ce919813-724a-4d97-82ad-b1af9c37dc6d"},"vehicle_type_id":"4","last_reported":1784281560,"current_range_meters":4400,"station_id":"ce4bhn12rcd13ifvqgpg","pricing_plan_id":"cebpf4jnsgd1na2vs0mg"},{"bike_id":"f3955824-bc9b-40e3-bb4b-91c4e41aa833","system_id":"levelo_inurba_marseille","lat":43.30113,"lon":5.37395,"is_reserved":false,"is_disabled":true,"rental_uris":{"android":"levelo://app?vid=f3955824-bc9b-40e3-bb4b-91c4e41aa833","ios":"levelo://app?vid=f3955824-bc9b-40e3-bb4b-91c4e41aa833"},"vehicle_type_id":"4","last_reported":1784281560,"current_range_meters":16400,"station_id":"ce4bgs92rcd13ifvqcc0","pricing_plan_id":"cebpf4jnsgd1na2vs0mg"},{"bike_id":"308a89af-2a4d-4c5c-a169-aebe7bf98b2b","system_id":"levelo_inurba_marseille","lat":43.31048,"lon":5.37162,"is_reserved":false,"is_disabled":false,"rental_uris":{"android":"levelo://app?vid=308a89af-2a4d-4c5c-a169-aebe7bf98b2b","ios":"levelo://app?vid=308a89af-2a4d-4c5c-a169-aebe7bf98b2b"},"vehicle_type_id":"4","last_reported":1784281560,"current_range_meters":16800,"station_id":"st_d4kl2rp97mjs73e7tdfg","pricing_plan_id":"cebpf4jnsgd1na2vs0mg"},{"bike_id":"98797e61-8b55-484a-8a3d-c116ae966b0f","system_id":"levelo_inurba_marseille","lat":43.22971,"lon":5.44471,"is_reserved":false,"is_disabled":false,"rental_uris":{"android":"levelo://app?vid=98797e61-8b55-484a-8a3d-c116ae966b0f","ios":"levelo://app?vid=98797e61-8b55-484a-8a3d-c116ae966b0f"},"vehicle_type_id":"4","last_reported":1784281560,"current_range_meters":7200,"station_id":"","pricing_plan_id":"cebpf4jnsgd1na2vs0mg"},{"bike_id":"d3080228-6b70-492b-8795-04183ba0ffbf","system_id":"levelo_inurba_marseille","lat":43.26244,"lon":5.38727,"is_reserved":false,"is_disabled":false,"rental_uris":{"android":"levelo://app?vid=d3080228-6b70-492b-8795-04183ba0ffbf","ios":"levelo://app?vid=d3080228-6b70-492b-8795-04183ba0ffbf"},"vehicle_type_id":"4","last_reported":1784281560,"current_range_meters":38400,"station_id":"st_d8gjfg747rts73coq3b0","pricing_plan_id":"cebpf4jnsgd1na2vs0mg"},{"bike_id":"1619980e-21bc-4421-80d5-381761aace5b","system_id":"levelo_inurba_marseille","lat":43.23149,"lon":5.43757,"is_reserved":false,"is_disabled":false,"rental_uris":{"android":"levelo://app?vid=1619980e-21bc-4421-80d5-381761aace5b","ios":"levelo://app?vid=1619980e-21bc-4421-80d5-381761aace5b"},"vehicle_type_id":"4","last_reported":1784281560,"current_range_meters":25600,"station_id":"ce4bhmp2rcd13ifvqgog","pricing_plan_id":"cebpf4jnsgd1na2vs0mg"},{"bike_id":"123ef66d-c326-4ba8-82db-83357a97afdc","system_id":"levelo_inurba_marseille","lat":43.28939,"lon":5.36637,"is_reserved":false,"is_disabled":false,"rental_uris":{"android":"levelo://app?vid=123ef66d-c326-4ba8-82db-83357a97afdc","ios":"levelo://app?vid=123ef66d-c326-4ba8-82db-83357a97afdc"},"vehicle_type_id":"4","last_reported":1784281560,"current_range_meters":18800,"station_id":"ce4bhap2rcd13ifvqek0","pricing_plan_id":"cebpf4jnsgd1na2vs0mg"},{"bike_id":"0d3e100f-48fe-47e1-bef7-0a1dcfcc4955","system_id":"levelo_inurba_marseille","lat":43.33727,"lon":5.39187,"is_reserved":false,"is_disabled":false,"rental_uris":{"android":"levelo://app?vid=0d3e100f-48fe-47e1-bef7-0a1dcfcc4955","ios":"levelo://app?vid=0d3e100f-48fe-47e1-bef7-0a1dcfcc4955"},"vehicle_type_id":"4","last_reported":1784281560,"current_range_meters":30400,"station_id":"ce4bhr92rcd13ifvqhsg","pricing_plan_id":"cebpf4jnsgd1na2vs0mg"},{"bike_id":"8109b825-2eb6-467e-b313-e806da3e20b4","system_id":"levelo_inurba_marseille","lat":43.28151,"lon":5.42647,"is_reserved":false,"is_disabled":false,"rental_uris":{"android":"levelo://app?vid=8109b825-2eb6-467e-b313-e806da3e20b4","ios":"levelo://app?vid=8109b825-2eb6-467e-b313-e806da3e20b4"},"vehicle_type_id":"4","last_reported":1784281560,"current_range_meters":7200,"station_id":"ce4bhnh2rcd13ifvqgug","pricing_plan_id":"cebpf4jnsgd1na2vs0mg"},{"bike_id":"287adad5-5e66-4962-bf27-f75e78a46f79","system_id":"levelo_inurba_marseille","lat":43.2978,"lon":5.37114,"is_reserved":false,"is_disabled":true,"rental_uris":{"android":"levelo://app?vid=287adad5-5e66-4962-bf27-f75e78a46f79","ios":"levelo://app?vid=287adad5-5e66-4962-bf27-f75e78a46f79"},"vehicle_type_id":"4","last_reported":1784281560,"current_range_meters":9200,"station_id":"ce4bgop2rcd13ifvqc1g","pricing_plan_id":"cebpf4jnsgd1na2vs0mg"},{"bike_id":"ddbfbc6e-9ea5-4164-b0a2-7cc31ec7c025","system_id":"levelo_inurba_marseille","lat":43.32087,"lon":5.36829,"is_reserved":false,"is_disabled":false,"rental_uris":{"android":"levelo://app?vid=ddbfbc6e-9ea5-4164-b0a2-7cc31ec7c025","ios":"levelo://app?vid=ddbfbc6e-9ea5-4164-b0a2-7cc31ec7c025"},"vehicle_type_id":"4","last_reported":1784281560,"current_range_meters":18800,"station_id":"","pricing_plan_id":"cebpf4jnsgd1na2vs0mg"},{"bike_id":"dbb2d67a-8226-40f4-88fb-e7e257c49d02","system_id":"levelo_inurba_marseille","lat":43.29709,"lon":5.37701,"is_reserved":false,"is_disabled":false,"rental_uris":{"android":"levelo://app?vid=dbb2d67a-8226-40f4-88fb-e7e257c49d02","ios":"levelo://app?vid=dbb2d67a-8226-40f4-88fb-e7e257c49d02"},"vehicle_type_id":"4","last_reported":1784281560,"current_range_meters":35200,"station_id":"ce4bgkh2rcd13ifvqbl0","pricing_plan_id":"cebpf4jnsgd1na2vs0mg"},{"bike_id":"b31f3439-8d64-49dd-9c96-ebe0e325aa03","system_id":"levelo_inurba_marseille","lat":43.30543,"lon":5.36565,"is_reserved":false,"is_disabled":false,"rental_uris":{"android":"levelo://app?vid=b31f3439-8d64-49dd-9c96-ebe0e325aa03","ios":"levelo://app?vid=b31f3439-8d64-49dd-9c96-ebe0e325aa03"},"vehicle_type_id":"4","last_reported":1784281560,"current_range_meters":8000,"station_id":"ce4bgs12rcd13ifvqcag","pricing_plan_id":"cebpf4jnsgd1na2vs0mg"},{"bike_id":"d2c6dc5b-50c1-41c0-8297-153e4140dd35","system_id":"levelo_inurba_marseille","lat":43.30549,"lon":5.36682,"is_reserved":false,"is_disabled":false,"rental_uris":{"android":"levelo://app?vid=d2c6dc5b-50c1-41c0-8297-153e4140dd35","ios":"levelo://app?vid=d2c6dc5b-50c1-41c0-8297-153e4140dd35"},"vehicle_type_id":"4","last_reported":1784281560,"current_range_meters":37600,"station_id":"ce4bgrp2rcd13ifvqc9g","pricing_plan_id":"cebpf4jnsgd1na2vs0mg"},{"bike_id":"188cc018-ddbf-4d3a-a706-956f290380c0","system_id":"levelo_inurba_marseille","lat":43.33607,"lon":5.40972,"is_reserved":false,"is_disabled":false,"rental_uris":{"android":"levelo://app?vid=188cc018-ddbf-4d3a-a706-956f290380c0","ios":"levelo://app?vid=188cc018-ddbf-4d3a-a706-956f290380c0"},"vehicle_type_id":"4","last_reported":1784281560,"current_range_meters":37600,"station_id":"ce4bhqh2rcd13ifvqhmg","pricing_plan_id":"cebpf4jnsgd1na2vs0mg"},{"bike_id":"7d609cd8-5555-4970-a8e9-2081ad744fa5","system_id":"levelo_inurba_marseille","lat":43.25718,"lon":5.41103,"is_reserved":false,"is_disabled":false,"rental_uris":{"android":"levelo://app?vid=7d609cd8-5555-4970-a8e9-2081ad744fa5","ios":"levelo://app?vid=7d609cd8-5555-4970-a8e9-2081ad744fa5"},"vehicle_type_id":"4","last_reported":1784281560,"current_range_meters":39200,"station_id":"ce4bhkp2rcd13ifvqgd0","pricing_plan_id":"cebpf4jnsgd1na2vs0mg"},{"bike_id":"6ee73e46-4924-4e22-b765-feccd10ba2e7","system_id":"levelo_inurba_marseille","lat":43.24642,"lon":5.38899,"is_reserved":false,"is_disabled":false,"rental_uris":{"android":"levelo://app?vid=6ee73e46-4924-4e22-b765-feccd10ba2e7","ios":"levelo://app?vid=6ee73e46-4924-4e22-b765-feccd10ba2e7"},"vehicle_type_id":"4","last_reported":1784281560,"current_range_meters":9600,"station_id":"","pricing_plan_id":"cebpf4jnsgd1na2vs0mg"},{"bike_id":"e35a471f-4162-47db-b945-02d55802c4cc","system_id":"levelo_inurba_marseille","lat":43.28534,"lon":5.44109,"is_reserved":false,"is_disabled":false,"rental_uris":{"android":"levelo://app?vid=e35a471f-4162-47db-b945-02d55802c4cc","ios":"levelo://app?vid=e35a471f-4162-47db-b945-02d55802c4cc"},"vehicle_type_id":"4","last_reported":1784281560,"current_range_meters":37600,"station_id":"st_d3j3df2ikq2c7380ej80","pricing_plan_id":"cebpf4jnsgd1na2vs0mg"},{"bike_id":"de33586d-1ad6-43fb-abac-eff95af90a64","system_id":"levelo_inurba_marseille","lat":43.26016,"lon":5.37577,"is_reserved":false,"is_disabled":true,"rental_uris":{"android":"levelo://app?vid=de33586d-1ad6-43fb-abac-eff95af90a64","ios":"levelo://app?vid=de33586d-1ad6-43fb-abac-eff95af90a64"},"vehicle_type_id":"4","last_reported":1784281560,"current_range_meters":24000,"station_id":"ce4bhgh2rcd13ifvqfa0","pricing_plan_id":"cebpf4jnsgd1na2vs0mg"},{"bike_id":"61804fc0-72a7-449f-ad34-2d4f7c8e20d0","system_id":"levelo_inurba_marseille","lat":43.27177,"lon":5.41004,"is_reserved":false,"is_disabled":false,"rental_uris":{"android":"levelo://app?vid=61804fc0-72a7-449f-ad34-2d4f7c8e20d0","ios":"levelo://app?vid=61804fc0-72a7-449f-ad34-2d4f7c8e20d0"},"vehicle_type_id":"4","last_reported":1784281560,"current_range_meters":25600,"station_id":"ce4bhl12rcd13ifvqgf0","pricing_plan_id":"cebpf4jnsgd1na2vs0mg"},{"bike_id":"19b0b2f8-4abf-4b95-87ff-e85edb44e6c4","system_id":"levelo_inurba_marseille","lat":43.27321,"lon":5.39081,"is_reserved":false,"is_disabled":false,"rental_uris":{"android":"levelo://app?vid=19b0b2f8-4abf-4b95-87ff-e85edb44e6c4","ios":"levelo://app?vid=19b0b2f8-4abf-4b95-87ff-e85edb44e6c4"},"vehicle_type_id":"4","last_reported":1784281560,"current_range_meters":36800,"station_id":"ce4bhgp2rcd13ifvqfe0","pricing_plan_id":"cebpf4jnsgd1na2vs0mg"},{"bike_id":"0e083561-0d9f-48e5-91d3-979f0c451ab9","system_id":"levelo_inurba_marseille","lat":43.269268,"lon":5.389179,"is_reserved":false,"is_disabled":false,"rental_uris":{"android":"levelo://app?vid=0e083561-0d9f-48e5-91d3-979f0c451ab9","ios":"levelo://app?vid=0e083561-0d9f-48e5-91d3-979f0c451ab9"},"vehicle_type_id":"4","last_reported":1784281560,"current_range_meters":30000,"station_id":"ce4bhhh2rcd13ifvqfl0","pricing_plan_id":"cebpf4jnsgd1na2vs0mg"},{"bike_id":"44a2d414-1ac1-4189-b47c-dc4459103bc9","system_id":"levelo_inurba_marseille","lat":43.33764,"lon":5.37441,"is_reserved":false,"is_disabled":false,"rental_uris":{"android":"levelo://app?vid=44a2d414-1ac1-4189-b47c-dc4459103bc9","ios":"levelo://app?vid=44a2d414-1ac1-4189-b47c-dc4459103bc9"},"vehicle_type_id":"4","last_reported":1784281560,"current_range_meters":39200,"station_id":"","pricing_plan_id":"cebpf4jnsgd1na2vs0mg"},{"bike_id":"b92582d7-69d4-493e-a0fe-c4cf66ff53e1","system_id":"levelo_inurba_marseille","lat":43.24389,"lon":5.37051,"is_reserved":false,"is_disabled":false,"rental_uris":{"android":"levelo://app?vid=b92582d7-69d4-493e-a0fe-c4cf66ff53e1","ios":"levelo://app?vid=b92582d7-69d4-493e-a0fe-c4cf66ff53e1"},"vehicle_type_id":"4","last_reported":1784281560,"current_range_meters":39200,"station_id":"ce4bhhh2rcd13ifvqfk0","pricing_plan_id":"cebpf4jnsgd1na2vs0mg"},{"bike_id":"5934dfff-666b-4536-966e-3a9ad6955bb0","system_id":"levelo_inurba_marseille","lat":43.29239,"lon":5.40016,"is_reserved":false,"is_disabled":false,"rental_uris":{"android":"levelo://app?vid=5934dfff-666b-4536-966e-3a9ad6955bb0","ios":"levelo://app?vid=5934dfff-666b-4536-966e-3a9ad6955bb0"},"vehicle_type_id":"4","last_reported":1784281560,"current_range_meters":8800,"station_id":"","pricing_plan_id":"cebpf4jnsgd1na2vs0mg"},{"bike_id":"eadbf5e7-6bfc-4e3a-b0e9-0f3c75f13d91","system_id":"levelo_inurba_marseille","lat":43.28092,"lon":5.37839,"is_reserved":false,"is_disabled":false,"rental_uris":{"android":"levelo://app?vid=eadbf5e7-6bfc-4e3a-b0e9-0f3c75f13d91","ios":"levelo://app?vid=eadbf5e7-6bfc-4e3a-b0e9-0f3c75f13d91"},"vehicle_type_id":"4","last_reported":1784281560,"current_range_meters":38000,"station_id":"ce4bha12rcd13ifvqee0","pricing_plan_id":"cebpf4jnsgd1na2vs0mg"},{"bike_id":"3164f71a-d817-432a-8c9d-54f4eb1603f2","system_id":"levelo_inurba_marseille","lat":43.28853,"lon":5.35852,"is_reserved":false,"is_disabled":false,"rental_uris":{"android":"levelo://app?vid=3164f71a-d817-432a-8c9d-54f4eb1603f2","ios":"levelo://app?vid=3164f71a-d817-432a-8c9d-54f4eb1603f2"},"vehicle_type_id":"4","last_reported":1784281560,"current_range_meters":30000,"station_id":"ce4bhb12rcd13ifvqem0","pricing_plan_id":"cebpf4jnsgd1na2vs0mg"},{"bike_id":"9dcfdf96-578b-46e7-b429-1767b2ea8f00","system_id":"levelo_inurba_marseille","lat":43.24669,"lon":5.38174,"is_reserved":false,"is_disabled":false,"rental_uris":{"android":"levelo://app?vid=9dcfdf96-578b-46e7-b429-1767b2ea8f00","ios":"levelo://app?vid=9dcfdf96-578b-46e7-b429-1767b2ea8f00"},"vehicle_type_id":"4","last_reported":1784281560,"current_range_meters":39200,"station_id":"ce4bhih2rcd13ifvqfr0","pricing_plan_id":"cebpf4jnsgd1na2vs0mg"},{"bike_id":"188163cf-083d-4db4-ad88-62be7d50188a","system_id":"levelo_inurba_marseille","lat":43.30317,"lon":5.36926,"is_reserved":false,"is_disabled":false,"rental_uris":{"android":"levelo://app?vid=188163cf-083d-4db4-ad88-62be7d50188a","ios":"levelo://app?vid=188163cf-083d-4db4-ad88-62be7d50188a"},"vehicle_type_id":"4","last_reported":1784281560,"current_range_meters":37600,"station_id":"ce4bgqh2rcd13ifvqc5g","pricing_plan_id":"cebpf4jnsgd1na2vs0mg"},{"bike_id":"011f44bc-69b8-4a18-b9b2-2d7664d4a328","system_id":"levelo_inurba_marseille","lat":43.29104,"lon":5.38218,"is_reserved":false,"is_disabled":false,"rental_uris":{"android":"levelo://app?vid=011f44bc-69b8-4a18-b9b2-2d7664d4a328","ios":"levelo://app?vid=011f44bc-69b8-4a18-b9b2-2d7664d4a328"},"vehicle_type_id":"4","last_reported":1784281560,"current_range_meters":37600,"station_id":"","pricing_plan_id":"cebpf4jnsgd1na2vs0mg"},{"bike_id":"7604574c-06cb-407e-9e16-b7858411e1bc","system_id":"levelo_inurba_marseille","lat":43.27811,"lon":5.40712,"is_reserved":false,"is_disabled":true,"rental_uris":{"android":"levelo://app?vid=7604574c-06cb-407e-9e16-b7858411e1bc","ios":"levelo://app?vid=7604574c-06cb-407e-9e16-b7858411e1bc"},"vehicle_type_id":"4","last_reported":1784281560,"current_range_meters":22400,"station_id":"ce4bhnh2rcd13ifvqgtg","pricing_plan_id":"cebpf4jnsgd1na2vs0mg"},{"bike_id":"600d3649-4b6d-473c-a715-d27921e00684","system_id":"levelo_inurba_marseille","lat":43.23182,"lon":5.3556,"is_reserved":false,"is_disabled":false,"rental_uris":{"android":"levelo://app?vid=600d3649-4b6d-473c-a715-d27921e00684","ios":"levelo://app?vid=600d3649-4b6d-473c-a715-d27921e00684"},"vehicle_type_id":"4","last_reported":1784281560,"current_range_meters":25600,"station_id":"ce4bhu92rcd13ifvqi70","pricing_plan_id":"cebpf4jnsgd1na2vs0mg"},{"bike_id":"03733dd2-52cb-494a-80bd-83c5ddb031c8","system_id":"levelo_inurba_marseille","lat":43.28714,"lon":5.40009,"is_reserved":false,"is_disabled":false,"rental_uris":{"android":"levelo://app?vid=03733dd2-52cb-494a-80bd-83c5ddb031c8","ios":"levelo://app?vid=03733dd2-52cb-494a-80bd-83c5ddb031c8"},"vehicle_type_id":"4","last_reported":1784281560,"current_range_meters":33200,"station_id":"ce4bho92rcd13ifvqh3g","pricing_plan_id":"cebpf4jnsgd1na2vs0mg"},{"bike_id":"a8b20758-f6ec-4a8c-bc09-b850cdd8af44","system_id":"levelo_inurba_marseille","lat":43.30373,"lon":5.42483,"is_reserved":false,"is_disabled":false,"rental_uris":{"android":"levelo://app?vid=a8b20758-f6ec-4a8c-bc09-b850cdd8af44","ios":"levelo://app?vid=a8b20758-f6ec-4a8c-bc09-b850cdd8af44"},"vehicle_type_id":"4","last_reported":1784281560,"current_range_meters":19600,"station_id":"ce4bhoh2rcd13ifvqh6g","pricing_plan_id":"cebpf4jnsgd1na2vs0mg"},{"bike_id":"04d39806-56e1-41b3-bc3d-d8a12480fed5","system_id":"levelo_inurba_marseille","lat":43.30949,"lon":5.39065,"is_reserved":false,"is_disabled":false,"rental_uris":{"android":"levelo://app?vid=04d39806-56e1-41b3-bc3d-d8a12480fed5","ios":"levelo://app?vid=04d39806-56e1-41b3-bc3d-d8a12480fed5"},"vehicle_type_id":"4","last_reported":1784281560,"current_range_meters":16800,"station_id":"ce4bgup2rcd13ifvqco0","pricing_plan_id":"cebpf4jnsgd1na2vs0mg"},{"bike_id":"e53139c2-af85-42de-8da8-64a456a3d74a","system_id":"levelo_inurba_marseille","lat":43.29024,"lon":5.38129,"is_reserved":false,"is_disabled":false,"rental_uris":{"android":"levelo://app?vid=e53139c2-af85-42de-8da8-64a456a3d74a","ios":"levelo://app?vid=e53139c2-af85-42de-8da8-64a456a3d74a"},"vehicle_type_id":"4","last_reported":1784281560,"current_range_meters":14800,"station_id":"ce4bh4p2rcd13ifvqe1g","pricing_plan_id":"cebpf4jnsgd1na2vs0mg"},{"bike_id":"d1210815-3b6f-46d9-8562-5a9f90c2f696","system_id":"levelo_inurba_marseille","lat":43.29187,"lon":5.35796,"is_reserved":false,"is_disabled":true,"rental_uris":{"android":"levelo://app?vid=d1210815-3b6f-46d9-8562-5a9f90c2f696","ios":"levelo://app?vid=d1210815-3b6f-46d9-8562-5a9f90c2f696"},"vehicle_type_id":"4","last_reported":1784281560,"current_range_meters":10800,"station_id":"ce4bhb12rcd13ifvqel0","pricing_plan_id":"cebpf4jnsgd1na2vs0mg"},{"bike_id":"13e10cff-300f-47f7-be54-f61c4654fa80","system_id":"levelo_inurba_marseille","lat":43.27201,"lon":5.39184,"is_reserved":false,"is_disabled":false,"rental_uris":{"android":"levelo://app?vid=13e10cff-300f-47f7-be54-f61c4654fa80","ios":"levelo://app?vid=13e10cff-300f-47f7-be54-f61c4654fa80"},"vehicle_type_id":"4","last_reported":1784281560,"current_range_meters":5600,"station_id":"ce4bhhp2rcd13ifvqfm0","pricing_plan_id":"cebpf4jnsgd1na2vs0mg"},{"bike_id":"5dbb8e1b-cf12-4bdf-9b52-d9d2406d0321","system_id":"levelo_inurba_marseille","lat":43.28234,"lon":5.35078,"is_reserved":false,"is_disabled":false,"rental_uris":{"android":"levelo://app?vid=5dbb8e1b-cf12-4bdf-9b52-d9d2406d0321","ios":"levelo://app?vid=5dbb8e1b-cf12-4bdf-9b52-d9d2406d0321"},"vehicle_type_id":"4","last_reported":1784281560,"current_range_meters":17600,"station_id":"ce4bhbp2rcd13ifvqerg","pricing_plan_id":"cebpf4jnsgd1na2vs0mg"},