{"last_updated":1777572148,"ttl":60,"version":"2.2","data":{"bikes":[{"bike_id":"0f50e91a-cc72-485a-af41-1dd9fc5061ae","system_id":"levelo_inurba_marseille","lat":43.29594,"lon":5.40346,"is_reserved":false,"is_disabled":false,"rental_uris":{"android":"levelo://app?vid=0f50e91a-cc72-485a-af41-1dd9fc5061ae","ios":"levelo://app?vid=0f50e91a-cc72-485a-af41-1dd9fc5061ae"},"vehicle_type_id":"4","last_reported":1777572148,"current_range_meters":2800,"station_id":"","pricing_plan_id":"cebpf4jnsgd1na2vs0mg"},{"bike_id":"62ef4851-0767-41bb-b9f8-fccf750d73f9","system_id":"levelo_inurba_marseille","lat":43.279808,"lon":5.387456,"is_reserved":false,"is_disabled":false,"rental_uris":{"android":"levelo://app?vid=62ef4851-0767-41bb-b9f8-fccf750d73f9","ios":"levelo://app?vid=62ef4851-0767-41bb-b9f8-fccf750d73f9"},"vehicle_type_id":"4","last_reported":1777572148,"current_range_meters":2800,"station_id":"ce4bhg12rcd13ifvqf80","pricing_plan_id":"cebpf4jnsgd1na2vs0mg"},{"bike_id":"fccdea78-0ca4-47ca-b69c-3f078567d6b9","system_id":"levelo_inurba_marseille","lat":43.33548,"lon":5.37442,"is_reserved":false,"is_disabled":false,"rental_uris":{"android":"levelo://app?vid=fccdea78-0ca4-47ca-b69c-3f078567d6b9","ios":"levelo://app?vid=fccdea78-0ca4-47ca-b69c-3f078567d6b9"},"vehicle_type_id":"4","last_reported":1777572148,"current_range_meters":2800,"station_id":"st_d46tts09ee8s73dlu43g","pricing_plan_id":"cebpf4jnsgd1na2vs0mg"},{"bike_id":"ffb2b7d8-6f5e-430b-a4b9-5a8f7275b173","system_id":"levelo_inurba_marseille","lat":43.28727,"lon":5.37935,"is_reserved":false,"is_disabled":false,"rental_uris":{"android":"levelo://app?vid=ffb2b7d8-6f5e-430b-a4b9-5a8f7275b173","ios":"levelo://app?vid=ffb2b7d8-6f5e-430b-a4b9-5a8f7275b173"},"vehicle_type_id":"4","last_reported":1777572148,"current_range_meters":2800,"station_id":"ce4bh9p2rcd13ifvqec0","pricing_plan_id":"cebpf4jnsgd1na2vs0mg"},{"bike_id":"b7746803-f5d7-41fd-8b3d-d05d0775de9d","system_id":"levelo_inurba_marseille","lat":43.21734,"lon":5.34632,"is_reserved":false,"is_disabled":false,"rental_uris":{"android":"levelo://app?vid=b7746803-f5d7-41fd-8b3d-d05d0775de9d","ios":"levelo://app?vid=b7746803-f5d7-41fd-8b3d-d05d0775de9d"},"vehicle_type_id":"4","last_reported":1777572148,"current_range_meters":3200,"station_id":"st_cvj6r9ubvosntc0bgbag","pricing_plan_id":"cebpf4jnsgd1na2vs0mg"},{"bike_id":"3dd1798d-875a-4ff0-8cd3-99ae0d491e59","system_id":"levelo_inurba_marseille","lat":43.26589,"lon":5.39017,"is_reserved":false,"is_disabled":false,"rental_uris":{"android":"levelo://app?vid=3dd1798d-875a-4ff0-8cd3-99ae0d491e59","ios":"levelo://app?vid=3dd1798d-875a-4ff0-8cd3-99ae0d491e59"},"vehicle_type_id":"4","last_reported":1777572148,"current_range_meters":3200,"station_id":"ce4bhe12rcd13ifvqf30","pricing_plan_id":"cebpf4jnsgd1na2vs0mg"},{"bike_id":"687cc692-a29f-45f5-932a-eaeb09c8e53a","system_id":"levelo_inurba_marseille","lat":43.30208,"lon":5.39455,"is_reserved":false,"is_disabled":false,"rental_uris":{"android":"levelo://app?vid=687cc692-a29f-45f5-932a-eaeb09c8e53a","ios":"levelo://app?vid=687cc692-a29f-45f5-932a-eaeb09c8e53a"},"vehicle_type_id":"4","last_reported":1777572148,"current_range_meters":3200,"station_id":"ce4bh0p2rcd13ifvqd70","pricing_plan_id":"cebpf4jnsgd1na2vs0mg"},{"bike_id":"7ca295d7-9c6a-4e0f-a9bc-b02a653c6916","system_id":"levelo_inurba_marseille","lat":43.27618,"lon":5.361,"is_reserved":false,"is_disabled":false,"rental_uris":{"android":"levelo://app?vid=7ca295d7-9c6a-4e0f-a9bc-b02a653c6916","ios":"levelo://app?vid=7ca295d7-9c6a-4e0f-a9bc-b02a653c6916"},"vehicle_type_id":"4","last_reported":1777572148,"current_range_meters":3200,"station_id":"ce4bgj92rcd13ifvqbe0","pricing_plan_id":"cebpf4jnsgd1na2vs0mg"},{"bike_id":"e0f604e1-4930-4b8c-a73f-30a0efc774a8","system_id":"levelo_inurba_marseille","lat":43.26215,"lon":5.3877,"is_reserved":false,"is_disabled":false,"rental_uris":{"android":"levelo://app?vid=e0f604e1-4930-4b8c-a73f-30a0efc774a8","ios":"levelo://app?vid=e0f604e1-4930-4b8c-a73f-30a0efc774a8"},"vehicle_type_id":"4","last_reported":1777572148,"current_range_meters":3200,"station_id":"","pricing_plan_id":"cebpf4jnsgd1na2vs0mg"},{"bike_id":"5670ef6f-2368-4c0c-be6d-11635e7e8211","system_id":"levelo_inurba_marseille","lat":43.31321,"lon":5.39701,"is_reserved":false,"is_disabled":false,"rental_uris":{"android":"levelo://app?vid=5670ef6f-2368-4c0c-be6d-11635e7e8211","ios":"levelo://app?vid=5670ef6f-2368-4c0c-be6d-11635e7e8211"},"vehicle_type_id":"4","last_reported":1777572148,"current_range_meters":3200,"station_id":"ce4bgvp2rcd13ifvqcu0","pricing_plan_id":"cebpf4jnsgd1na2vs0mg"},{"bike_id":"283994a7-a966-4444-808b-d865f76e6d07","system_id":"levelo_inurba_marseille","lat":43.297995,"lon":5.404027,"is_reserved":false,"is_disabled":false,"rental_uris":{"android":"levelo://app?vid=283994a7-a966-4444-808b-d865f76e6d07","ios":"levelo://app?vid=283994a7-a966-4444-808b-d865f76e6d07"},"vehicle_type_id":"4","last_reported":1777572148,"current_range_meters":3200,"station_id":"ce4bh112rcd13ifvqd90","pricing_plan_id":"cebpf4jnsgd1na2vs0mg"},{"bike_id":"b5592bc3-7c5d-4ba9-b1ae-b173928aef8c","system_id":"levelo_inurba_marseille","lat":43.28475,"lon":5.48386,"is_reserved":false,"is_disabled":false,"rental_uris":{"android":"levelo://app?vid=b5592bc3-7c5d-4ba9-b1ae-b173928aef8c","ios":"levelo://app?vid=b5592bc3-7c5d-4ba9-b1ae-b173928aef8c"},"vehicle_type_id":"4","last_reported":1777572148,"current_range_meters":3600,"station_id":"","pricing_plan_id":"cebpf4jnsgd1na2vs0mg"},{"bike_id":"d8de0a64-e3bb-4f89-8f07-313cae5af722","system_id":"levelo_inurba_marseille","lat":43.2255,"lon":5.41652,"is_reserved":false,"is_disabled":false,"rental_uris":{"android":"levelo://app?vid=d8de0a64-e3bb-4f89-8f07-313cae5af722","ios":"levelo://app?vid=d8de0a64-e3bb-4f89-8f07-313cae5af722"},"vehicle_type_id":"4","last_reported":1777572148,"current_range_meters":3600,"station_id":"st_d2o4gvlbi1j2169b742g","pricing_plan_id":"cebpf4jnsgd1na2vs0mg"},{"bike_id":"c4038235-4414-445b-9740-82412a3bc762","system_id":"levelo_inurba_marseille","lat":43.30574,"lon":5.4003,"is_reserved":false,"is_disabled":false,"rental_uris":{"android":"levelo://app?vid=c4038235-4414-445b-9740-82412a3bc762","ios":"levelo://app?vid=c4038235-4414-445b-9740-82412a3bc762"},"vehicle_type_id":"4","last_reported":1777572148,"current_range_meters":3600,"station_id":"","pricing_plan_id":"cebpf4jnsgd1na2vs0mg"},{"bike_id":"0438d68d-b4c6-4b23-a7e1-82657231ebe9","system_id":"levelo_inurba_marseille","lat":43.28476,"lon":5.48401,"is_reserved":false,"is_disabled":false,"rental_uris":{"android":"levelo://app?vid=0438d68d-b4c6-4b23-a7e1-82657231ebe9","ios":"levelo://app?vid=0438d68d-b4c6-4b23-a7e1-82657231ebe9"},"vehicle_type_id":"4","last_reported":1777572148,"current_range_meters":3600,"station_id":"","pricing_plan_id":"cebpf4jnsgd1na2vs0mg"},{"bike_id":"fc5f424f-d395-4e45-876c-75f6acd942c2","system_id":"levelo_inurba_marseille","lat":43.24812,"lon":5.37457,"is_reserved":false,"is_disabled":false,"rental_uris":{"android":"levelo://app?vid=fc5f424f-d395-4e45-876c-75f6acd942c2","ios":"levelo://app?vid=fc5f424f-d395-4e45-876c-75f6acd942c2"},"vehicle_type_id":"4","last_reported":1777572148,"current_range_meters":3600,"station_id":"ce4bhgh2rcd13ifvqfb0","pricing_plan_id":"cebpf4jnsgd1na2vs0mg"},{"bike_id":"f24d14a0-8e86-4ca5-9cd0-760c7e2a2e89","system_id":"levelo_inurba_marseille","lat":43.28965,"lon":5.37845,"is_reserved":false,"is_disabled":true,"rental_uris":{"android":"levelo://app?vid=f24d14a0-8e86-4ca5-9cd0-760c7e2a2e89","ios":"levelo://app?vid=f24d14a0-8e86-4ca5-9cd0-760c7e2a2e89"},"vehicle_type_id":"4","last_reported":1777572148,"current_range_meters":3600,"station_id":"ce4bh9p2rcd13ifvqed0","pricing_plan_id":"cebpf4jnsgd1na2vs0mg"},{"bike_id":"4b04508f-dd7d-40f4-aa04-e897b83a481b","system_id":"levelo_inurba_marseille","lat":43.30194,"lon":5.36603,"is_reserved":false,"is_disabled":true,"rental_uris":{"android":"levelo://app?vid=4b04508f-dd7d-40f4-aa04-e897b83a481b","ios":"levelo://app?vid=4b04508f-dd7d-40f4-aa04-e897b83a481b"},"vehicle_type_id":"4","last_reported":1777572148,"current_range_meters":3600,"station_id":"ce4bgrh2rcd13ifvqc8g","pricing_plan_id":"cebpf4jnsgd1na2vs0mg"},{"bike_id":"f126df62-0e32-4422-ad2d-794326ca816d","system_id":"levelo_inurba_marseille","lat":43.27677,"lon":5.38825,"is_reserved":false,"is_disabled":true,"rental_uris":{"android":"levelo://app?vid=f126df62-0e32-4422-ad2d-794326ca816d","ios":"levelo://app?vid=f126df62-0e32-4422-ad2d-794326ca816d"},"vehicle_type_id":"4","last_reported":1777572148,"current_range_meters":3600,"station_id":"ce4bhi12rcd13ifvqfo0","pricing_plan_id":"cebpf4jnsgd1na2vs0mg"},{"bike_id":"456a2ae5-8803-4ee2-8c8b-cd9dd356abdb","system_id":"levelo_inurba_marseille","lat":43.28572,"lon":5.39492,"is_reserved":false,"is_disabled":false,"rental_uris":{"android":"levelo://app?vid=456a2ae5-8803-4ee2-8c8b-cd9dd356abdb","ios":"levelo://app?vid=456a2ae5-8803-4ee2-8c8b-cd9dd356abdb"},"vehicle_type_id":"4","last_reported":1777572148,"current_range_meters":3600,"station_id":"ce4bh292rcd13ifvqdg0","pricing_plan_id":"cebpf4jnsgd1na2vs0mg"},{"bike_id":"b91f4f99-7987-40ea-afbb-1e1af65ec675","system_id":"levelo_inurba_marseille","lat":43.29437,"lon":5.4094,"is_reserved":false,"is_disabled":false,"rental_uris":{"android":"levelo://app?vid=b91f4f99-7987-40ea-afbb-1e1af65ec675","ios":"levelo://app?vid=b91f4f99-7987-40ea-afbb-1e1af65ec675"},"vehicle_type_id":"4","last_reported":1777572148,"current_range_meters":3600,"station_id":"","pricing_plan_id":"cebpf4jnsgd1na2vs0mg"},{"bike_id":"f11cc162-ef2e-4215-b4e4-73a8f48a43ce","system_id":"levelo_inurba_marseille","lat":43.31918,"lon":5.36806,"is_reserved":false,"is_disabled":false,"rental_uris":{"android":"levelo://app?vid=f11cc162-ef2e-4215-b4e4-73a8f48a43ce","ios":"levelo://app?vid=f11cc162-ef2e-4215-b4e4-73a8f48a43ce"},"vehicle_type_id":"4","last_reported":1777572148,"current_range_meters":3600,"station_id":"st_d6o2h0d0559c73evc1b0","pricing_plan_id":"cebpf4jnsgd1na2vs0mg"},{"bike_id":"8829f460-aa5f-4233-9846-cd6731fc4acd","system_id":"levelo_inurba_marseille","lat":43.26983,"lon":5.40434,"is_reserved":false,"is_disabled":false,"rental_uris":{"android":"levelo://app?vid=8829f460-aa5f-4233-9846-cd6731fc4acd","ios":"levelo://app?vid=8829f460-aa5f-4233-9846-cd6731fc4acd"},"vehicle_type_id":"4","last_reported":1777572148,"current_range_meters":4000,"station_id":"","pricing_plan_id":"cebpf4jnsgd1na2vs0mg"},{"bike_id":"f02ced90-ce05-45ed-b1dc-61ec255979c4","system_id":"levelo_inurba_marseille","lat":43.26895,"lon":5.40254,"is_reserved":false,"is_disabled":false,"rental_uris":{"android":"levelo://app?vid=f02ced90-ce05-45ed-b1dc-61ec255979c4","ios":"levelo://app?vid=f02ced90-ce05-45ed-b1dc-61ec255979c4"},"vehicle_type_id":"4","last_reported":1777572148,"current_range_meters":4000,"station_id":"cjm6bp8fraef2m0cb0m0","pricing_plan_id":"cebpf4jnsgd1na2vs0mg"},{"bike_id":"dde9cb7a-d2cd-49d4-9390-db18f4c0f172","system_id":"levelo_inurba_marseille","lat":43.337444,"lon":5.374475,"is_reserved":false,"is_disabled":false,"rental_uris":{"android":"levelo://app?vid=dde9cb7a-d2cd-49d4-9390-db18f4c0f172","ios":"levelo://app?vid=dde9cb7a-d2cd-49d4-9390-db18f4c0f172"},"vehicle_type_id":"4","last_reported":1777572148,"current_range_meters":4000,"station_id":"ce4bgj12rcd13ifvqbc0","pricing_plan_id":"cebpf4jnsgd1na2vs0mg"},{"bike_id":"acc57406-75de-43a2-a6ec-d941193f0be0","system_id":"levelo_inurba_marseille","lat":43.32338,"lon":5.36739,"is_reserved":false,"is_disabled":false,"rental_uris":{"android":"levelo://app?vid=acc57406-75de-43a2-a6ec-d941193f0be0","ios":"levelo://app?vid=acc57406-75de-43a2-a6ec-d941193f0be0"},"vehicle_type_id":"4","last_reported":1777572148,"current_range_meters":4000,"station_id":"ce4bhsh2rcd13ifvqi2g","pricing_plan_id":"cebpf4jnsgd1na2vs0mg"},{"bike_id":"cefbb474-553e-4985-a534-8b89b5df6fc8","system_id":"levelo_inurba_marseille","lat":43.27191,"lon":5.40978,"is_reserved":false,"is_disabled":true,"rental_uris":{"android":"levelo://app?vid=cefbb474-553e-4985-a534-8b89b5df6fc8","ios":"levelo://app?vid=cefbb474-553e-4985-a534-8b89b5df6fc8"},"vehicle_type_id":"4","last_reported":1777572148,"current_range_meters":4000,"station_id":"ce4bhl12rcd13ifvqgf0","pricing_plan_id":"cebpf4jnsgd1na2vs0mg"},{"bike_id":"61fa7dc2-655e-485a-9de3-6c935349efed","system_id":"levelo_inurba_marseille","lat":43.21189,"lon":5.35079,"is_reserved":false,"is_disabled":false,"rental_uris":{"android":"levelo://app?vid=61fa7dc2-655e-485a-9de3-6c935349efed","ios":"levelo://app?vid=61fa7dc2-655e-485a-9de3-6c935349efed"},"vehicle_type_id":"4","last_reported":1777572148,"current_range_meters":4000,"station_id":"st_cvj6sg6p6f1abm77japg","pricing_plan_id":"cebpf4jnsgd1na2vs0mg"},{"bike_id":"7a4f9c5b-0770-4973-b065-ff441b4f0ec4","system_id":"levelo_inurba_marseille","lat":43.28842,"lon":5.42544,"is_reserved":false,"is_disabled":false,"rental_uris":{"android":"levelo://app?vid=7a4f9c5b-0770-4973-b065-ff441b4f0ec4","ios":"levelo://app?vid=7a4f9c5b-0770-4973-b065-ff441b4f0ec4"},"vehicle_type_id":"4","last_reported":1777572148,"current_range_meters":4400,"station_id":"st_d3b462108ojc7389ooeg","pricing_plan_id":"cebpf4jnsgd1na2vs0mg"},{"bike_id":"262fc285-b6eb-4eda-9ac1-639b6caaacc5","system_id":"levelo_inurba_marseille","lat":43.32348,"lon":5.36725,"is_reserved":false,"is_disabled":false,"rental_uris":{"android":"levelo://app?vid=262fc285-b6eb-4eda-9ac1-639b6caaacc5","ios":"levelo://app?vid=262fc285-b6eb-4eda-9ac1-639b6caaacc5"},"vehicle_type_id":"4","last_reported":1777572148,"current_range_meters":4400,"station_id":"ce4bhsh2rcd13ifvqi2g","pricing_plan_id":"cebpf4jnsgd1na2vs0mg"},{"bike_id":"dcbc0d3b-c793-4982-b0e1-2878cedc77ea","system_id":"levelo_inurba_marseille","lat":43.29774,"lon":5.38361,"is_reserved":false,"is_disabled":false,"rental_uris":{"android":"levelo://app?vid=dcbc0d3b-c793-4982-b0e1-2878cedc77ea","ios":"levelo://app?vid=dcbc0d3b-c793-4982-b0e1-2878cedc77ea"},"vehicle_type_id":"4","last_reported":1777572148,"current_range_meters":4400,"station_id":"","pricing_plan_id":"cebpf4jnsgd1na2vs0mg"},{"bike_id":"4fe88492-90fb-4ee6-8699-782240be7bcc","system_id":"levelo_inurba_marseille","lat":43.29538,"lon":5.38545,"is_reserved":false,"is_disabled":false,"rental_uris":{"android":"levelo://app?vid=4fe88492-90fb-4ee6-8699-782240be7bcc","ios":"levelo://app?vid=4fe88492-90fb-4ee6-8699-782240be7bcc"},"vehicle_type_id":"4","last_reported":1777572148,"current_range_meters":4400,"station_id":"ce4bgih2rcd13ifvqba0","pricing_plan_id":"cebpf4jnsgd1na2vs0mg"},{"bike_id":"c1995dfc-3d7a-44a7-990d-b8343c1a3752","system_id":"levelo_inurba_marseille","lat":43.27368,"lon":5.36212,"is_reserved":false,"is_disabled":false,"rental_uris":{"android":"levelo://app?vid=c1995dfc-3d7a-44a7-990d-b8343c1a3752","ios":"levelo://app?vid=c1995dfc-3d7a-44a7-990d-b8343c1a3752"},"vehicle_type_id":"4","last_reported":1777572148,"current_range_meters":4400,"station_id":"ce4bhbh2rcd13ifvqeo0","pricing_plan_id":"cebpf4jnsgd1na2vs0mg"},{"bike_id":"2c643380-91d7-4842-8b8a-455f2a3a03cf","system_id":"levelo_inurba_marseille","lat":43.284027,"lon":5.375056,"is_reserved":false,"is_disabled":false,"rental_uris":{"android":"levelo://app?vid=2c643380-91d7-4842-8b8a-455f2a3a03cf","ios":"levelo://app?vid=2c643380-91d7-4842-8b8a-455f2a3a03cf"},"vehicle_type_id":"4","last_reported":1777572148,"current_range_meters":4400,"station_id":"ce4bh412rcd13ifvqds0","pricing_plan_id":"cebpf4jnsgd1na2vs0mg"},{"bike_id":"26335112-9b2a-4a27-9ec1-b93b9cc755ad","system_id":"levelo_inurba_marseille","lat":43.3085,"lon":5.41892,"is_reserved":false,"is_disabled":false,"rental_uris":{"android":"levelo://app?vid=26335112-9b2a-4a27-9ec1-b93b9cc755ad","ios":"levelo://app?vid=26335112-9b2a-4a27-9ec1-b93b9cc755ad"},"vehicle_type_id":"4","last_reported":1777572148,"current_range_meters":4400,"station_id":"","pricing_plan_id":"cebpf4jnsgd1na2vs0mg"},{"bike_id":"4c4fd5bf-edd1-4e64-bbba-8e4e3d30b47b","system_id":"levelo_inurba_marseille","lat":43.28882,"lon":5.43058,"is_reserved":false,"is_disabled":false,"rental_uris":{"android":"levelo://app?vid=4c4fd5bf-edd1-4e64-bbba-8e4e3d30b47b","ios":"levelo://app?vid=4c4fd5bf-edd1-4e64-bbba-8e4e3d30b47b"},"vehicle_type_id":"4","last_reported":1777572148,"current_range_meters":4400,"station_id":"","pricing_plan_id":"cebpf4jnsgd1na2vs0mg"},{"bike_id":"482fe954-5989-4e3b-a341-c889b5ac175c","system_id":"levelo_inurba_marseille","lat":43.29511,"lon":5.39039,"is_reserved":false,"is_disabled":false,"rental_uris":{"android":"levelo://app?vid=482fe954-5989-4e3b-a341-c889b5ac175c","ios":"levelo://app?vid=482fe954-5989-4e3b-a341-c889b5ac175c"},"vehicle_type_id":"4","last_reported":1777572148,"current_range_meters":4400,"station_id":"ce4bh3p2rcd13ifvqdp0","pricing_plan_id":"cebpf4jnsgd1na2vs0mg"},{"bike_id":"c2113cdb-7bc5-496b-ae16-d7d758fadeb5","system_id":"levelo_inurba_marseille","lat":43.33229,"lon":5.37984,"is_reserved":false,"is_disabled":false,"rental_uris":{"android":"levelo://app?vid=c2113cdb-7bc5-496b-ae16-d7d758fadeb5","ios":"levelo://app?vid=c2113cdb-7bc5-496b-ae16-d7d758fadeb5"},"vehicle_type_id":"4","last_reported":1777572148,"current_range_meters":4400,"station_id":"","pricing_plan_id":"cebpf4jnsgd1na2vs0mg"},{"bike_id":"60d77da4-6419-429b-9e7a-b2cf161a2f69","system_id":"levelo_inurba_marseille","lat":43.32642,"lon":5.39497,"is_reserved":false,"is_disabled":false,"rental_uris":{"android":"levelo://app?vid=60d77da4-6419-429b-9e7a-b2cf161a2f69","ios":"levelo://app?vid=60d77da4-6419-429b-9e7a-b2cf161a2f69"},"vehicle_type_id":"4","last_reported":1777572148,"current_range_meters":4400,"station_id":"","pricing_plan_id":"cebpf4jnsgd1na2vs0mg"},{"bike_id":"d97ed6ed-9254-4b2c-9752-a3aaf3378900","system_id":"levelo_inurba_marseille","lat":43.33539,"lon":5.37459,"is_reserved":false,"is_disabled":false,"rental_uris":{"android":"levelo://app?vid=d97ed6ed-9254-4b2c-9752-a3aaf3378900","ios":"levelo://app?vid=d97ed6ed-9254-4b2c-9752-a3aaf3378900"},"vehicle_type_id":"4","last_reported":1777572148,"current_range_meters":4800,"station_id":"st_d46tts09ee8s73dlu43g","pricing_plan_id":"cebpf4jnsgd1na2vs0mg"},{"bike_id":"86e54579-4d19-4715-9800-2ca47c0c169f","system_id":"levelo_inurba_marseille","lat":43.25578,"lon":5.38237,"is_reserved":false,"is_disabled":false,"rental_uris":{"android":"levelo://app?vid=86e54579-4d19-4715-9800-2ca47c0c169f","ios":"levelo://app?vid=86e54579-4d19-4715-9800-2ca47c0c169f"},"vehicle_type_id":"4","last_reported":1777572148,"current_range_meters":4800,"station_id":"ce4bhih2rcd13ifvqfs0","pricing_plan_id":"cebpf4jnsgd1na2vs0mg"},{"bike_id":"05d7b1cd-3948-4351-bce9-b66f1419b6f3","system_id":"levelo_inurba_marseille","lat":43.26474,"lon":5.3955,"is_reserved":false,"is_disabled":false,"rental_uris":{"android":"levelo://app?vid=05d7b1cd-3948-4351-bce9-b66f1419b6f3","ios":"levelo://app?vid=05d7b1cd-3948-4351-bce9-b66f1419b6f3"},"vehicle_type_id":"4","last_reported":1777572148,"current_range_meters":4800,"station_id":"ce4bhi12rcd13ifvqfq0","pricing_plan_id":"cebpf4jnsgd1na2vs0mg"},{"bike_id":"beb952bb-4f22-4dfb-aaff-ff82f958651d","system_id":"levelo_inurba_marseille","lat":43.31725,"lon":5.42407,"is_reserved":false,"is_disabled":false,"rental_uris":{"android":"levelo://app?vid=beb952bb-4f22-4dfb-aaff-ff82f958651d","ios":"levelo://app?vid=beb952bb-4f22-4dfb-aaff-ff82f958651d"},"vehicle_type_id":"4","last_reported":1777572148,"current_range_meters":4800,"station_id":"ce4bhp92rcd13ifvqhbg","pricing_plan_id":"cebpf4jnsgd1na2vs0mg"},{"bike_id":"4976901a-dde4-4d59-a0d4-79fdbcd9cff6","system_id":"levelo_inurba_marseille","lat":43.29263,"lon":5.38435,"is_reserved":false,"is_disabled":false,"rental_uris":{"android":"levelo://app?vid=4976901a-dde4-4d59-a0d4-79fdbcd9cff6","ios":"levelo://app?vid=4976901a-dde4-4d59-a0d4-79fdbcd9cff6"},"vehicle_type_id":"4","last_reported":1777572148,"current_range_meters":4800,"station_id":"ce4bh692rcd13ifvqea0","pricing_plan_id":"cebpf4jnsgd1na2vs0mg"},{"bike_id":"e80cdd52-06cd-43e4-b53b-b72767428c38","system_id":"levelo_inurba_marseille","lat":43.27651,"lon":5.39771,"is_reserved":false,"is_disabled":false,"rental_uris":{"android":"levelo://app?vid=e80cdd52-06cd-43e4-b53b-b72767428c38","ios":"levelo://app?vid=e80cdd52-06cd-43e4-b53b-b72767428c38"},"vehicle_type_id":"4","last_reported":1777572148,"current_range_meters":4800,"station_id":"","pricing_plan_id":"cebpf4jnsgd1na2vs0mg"},{"bike_id":"8b10ce4e-94a1-493f-970e-8ffc96babf75","system_id":"levelo_inurba_marseille","lat":43.31177,"lon":5.36895,"is_reserved":false,"is_disabled":false,"rental_uris":{"android":"levelo://app?vid=8b10ce4e-94a1-493f-970e-8ffc96babf75","ios":"levelo://app?vid=8b10ce4e-94a1-493f-970e-8ffc96babf75"},"vehicle_type_id":"4","last_reported":1777572148,"current_range_meters":4800,"station_id":"","pricing_plan_id":"cebpf4jnsgd1na2vs0mg"},{"bike_id":"c3b60130-108c-4b82-bada-afb38b911ff6","system_id":"levelo_inurba_marseille","lat":43.27826,"lon":5.40713,"is_reserved":false,"is_disabled":false,"rental_uris":{"android":"levelo://app?vid=c3b60130-108c-4b82-bada-afb38b911ff6","ios":"levelo://app?vid=c3b60130-108c-4b82-bada-afb38b911ff6"},"vehicle_type_id":"4","last_reported":1777572148,"current_range_meters":4800,"station_id":"ce4bhnh2rcd13ifvqgtg","pricing_plan_id":"cebpf4jnsgd1na2vs0mg"},{"bike_id":"5165c1e0-5413-4f9b-87c8-1fcf446b8da4","system_id":"levelo_inurba_marseille","lat":43.29525,"lon":5.38556,"is_reserved":false,"is_disabled":false,"rental_uris":{"android":"levelo://app?vid=5165c1e0-5413-4f9b-87c8-1fcf446b8da4","ios":"levelo://app?vid=5165c1e0-5413-4f9b-87c8-1fcf446b8da4"},"vehicle_type_id":"4","last_reported":1777572148,"current_range_meters":4800,"station_id":"ce4bgih2rcd13ifvqba0","pricing_plan_id":"cebpf4jnsgd1na2vs0mg"},{"bike_id":"c836b09f-a666-4145-8191-473bc44c6a36","system_id":"levelo_inurba_marseille","lat":43.255772,"lon":5.382272,"is_reserved":false,"is_disabled":true,"rental_uris":{"android":"levelo://app?vid=c836b09f-a666-4145-8191-473bc44c6a36","ios":"levelo://app?vid=c836b09f-a666-4145-8191-473bc44c6a36"},"vehicle_type_id":"4","last_reported":1777572148,"current_range_meters":4800,"station_id":"ce4bhih2rcd13ifvqfs0","pricing_plan_id":"cebpf4jnsgd1na2vs0mg"},{"bike_id":"69981b08-a222-4096-bea7-f3855cb9125b","system_id":"levelo_inurba_marseille","lat":43.28725,"lon":5.37355,"is_reserved":false,"is_disabled":false,"rental_uris":{"android":"levelo://app?vid=69981b08-a222-4096-bea7-f3855cb9125b","ios":"levelo://app?vid=69981b08-a222-4096-bea7-f3855cb9125b"},"vehicle_type_id":"4","last_reported":1777572148,"current_range_meters":4800,"station_id":"ce4bh3p2rcd13ifvqdq0","pricing_plan_id":"cebpf4jnsgd1na2vs0mg"},{"bike_id":"bdcf1640-77b1-4f17-affc-bec89c32e9e7","system_id":"levelo_inurba_marseille","lat":43.2905,"lon":5.3592,"is_reserved":false,"is_disabled":false,"rental_uris":{"android":"levelo://app?vid=bdcf1640-77b1-4f17-affc-bec89c32e9e7","ios":"levelo://app?vid=bdcf1640-77b1-4f17-affc-bec89c32e9e7"},"vehicle_type_id":"4","last_reported":1777572148,"current_range_meters":5600,"station_id":"ce4bha92rcd13ifvqeg0","pricing_plan_id":"cebpf4jnsgd1na2vs0mg"},{"bike_id":"9426faf5-6b65-4758-9ad7-f7640673ac48","system_id":"levelo_inurba_marseille","lat":43.28098,"lon":5.37844,"is_reserved":false,"is_disabled":false,"rental_uris":{"android":"levelo://app?vid=9426faf5-6b65-4758-9ad7-f7640673ac48","ios":"levelo://app?vid=9426faf5-6b65-4758-9ad7-f7640673ac48"},"vehicle_type_id":"4","last_reported":1777572148,"current_range_meters":5600,"station_id":"ce4bha12rcd13ifvqee0","pricing_plan_id":"cebpf4jnsgd1na2vs0mg"},{"bike_id":"46523cb2-6b8e-455f-9277-3808cf80d4d2","system_id":"levelo_inurba_marseille","lat":43.337444,"lon":5.374475,"is_reserved":false,"is_disabled":true,"rental_uris":{"android":"levelo://app?vid=46523cb2-6b8e-455f-9277-3808cf80d4d2","ios":"levelo://app?vid=46523cb2-6b8e-455f-9277-3808cf80d4d2"},"vehicle_type_id":"4","last_reported":1777572148,"current_range_meters":5600,"station_id":"","pricing_plan_id":"cebpf4jnsgd1na2vs0mg"},{"bike_id":"60820c8a-2f21-4e2c-bc67-5d131d94b61c","system_id":"levelo_inurba_marseille","lat":43.25578,"lon":5.38267,"is_reserved":false,"is_disabled":false,"rental_uris":{"android":"levelo://app?vid=60820c8a-2f21-4e2c-bc67-5d131d94b61c","ios":"levelo://app?vid=60820c8a-2f21-4e2c-bc67-5d131d94b61c"},"vehicle_type_id":"4","last_reported":1777572148,"current_range_meters":5600,"station_id":"ce4bhih2rcd13ifvqfs0","pricing_plan_id":"cebpf4jnsgd1na2vs0mg"},{"bike_id":"be31ee5e-90bb-4e8d-9465-01ac2b847cd2","system_id":"levelo_inurba_marseille","lat":43.29013,"lon":5.38661,"is_reserved":false,"is_disabled":false,"rental_uris":{"android":"levelo://app?vid=be31ee5e-90bb-4e8d-9465-01ac2b847cd2","ios":"levelo://app?vid=be31ee5e-90bb-4e8d-9465-01ac2b847cd2"},"vehicle_type_id":"4","last_reported":1777572148,"current_range_meters":5600,"station_id":"ce4bh4p2rcd13ifvqe0g","pricing_plan_id":"cebpf4jnsgd1na2vs0mg"},{"bike_id":"1779c4c0-f603-47b9-af0e-89fb3b794de1","system_id":"levelo_inurba_marseille","lat":43.23167,"lon":5.40025,"is_reserved":false,"is_disabled":false,"rental_uris":{"android":"levelo://app?vid=1779c4c0-f603-47b9-af0e-89fb3b794de1","ios":"levelo://app?vid=1779c4c0-f603-47b9-af0e-89fb3b794de1"},"vehicle_type_id":"4","last_reported":1777572148,"current_range_meters":5600,"station_id":"ce4bhn12rcd13ifvqgqg","pricing_plan_id":"cebpf4jnsgd1na2vs0mg"},{"bike_id":"a7b48954-f7bc-4efc-8069-c10e07424229","system_id":"levelo_inurba_marseille","lat":43.27813,"lon":5.40695,"is_reserved":false,"is_disabled":false,"rental_uris":{"android":"levelo://app?vid=a7b48954-f7bc-4efc-8069-c10e07424229","ios":"levelo://app?vid=a7b48954-f7bc-4efc-8069-c10e07424229"},"vehicle_type_id":"4","last_reported":1777572148,"current_range_meters":5600,"station_id":"ce4bhnh2rcd13ifvqgtg","pricing_plan_id":"cebpf4jnsgd1na2vs0mg"},{"bike_id":"a8984c0e-d9bd-4017-b517-d44d2e790ca4","system_id":"levelo_inurba_marseille","lat":43.29242,"lon":5.38452,"is_reserved":false,"is_disabled":false,"rental_uris":{"android":"levelo://app?vid=a8984c0e-d9bd-4017-b517-d44d2e790ca4","ios":"levelo://app?vid=a8984c0e-d9bd-4017-b517-d44d2e790ca4"},"vehicle_type_id":"4","last_reported":1777572148,"current_range_meters":5600,"station_id":"ce4bh692rcd13ifvqea0","pricing_plan_id":"cebpf4jnsgd1na2vs0mg"},{"bike_id":"526b747d-7e98-412f-9393-ae01f88f9ef1","system_id":"levelo_inurba_marseille","lat":43.33719,"lon":5.39189,"is_reserved":false,"is_disabled":false,"rental_uris":{"android":"levelo://app?vid=526b747d-7e98-412f-9393-ae01f88f9ef1","ios":"levelo://app?vid=526b747d-7e98-412f-9393-ae01f88f9ef1"},"vehicle_type_id":"4","last_reported":1777572148,"current_range_meters":5600,"station_id":"ce4bhr92rcd13ifvqhsg","pricing_plan_id":"cebpf4jnsgd1na2vs0mg"},{"bike_id":"33623f3a-0ea5-4d0b-9764-e10da8b1fa99","system_id":"levelo_inurba_marseille","lat":43.31013,"lon":5.36999,"is_reserved":false,"is_disabled":false,"rental_uris":{"android":"levelo://app?vid=33623f3a-0ea5-4d0b-9764-e10da8b1fa99","ios":"levelo://app?vid=33623f3a-0ea5-4d0b-9764-e10da8b1fa99"},"vehicle_type_id":"4","last_reported":1777572148,"current_range_meters":5600,"station_id":"","pricing_plan_id":"cebpf4jnsgd1na2vs0mg"},{"bike_id":"8470c2da-f571-414a-b47a-32dacee6dddc","system_id":"levelo_inurba_marseille","lat":43.31167,"lon":5.3872,"is_reserved":false,"is_disabled":false,"rental_uris":{"android":"levelo://app?vid=8470c2da-f571-414a-b47a-32dacee6dddc","ios":"levelo://app?vid=8470c2da-f571-414a-b47a-32dacee6dddc"},"vehicle_type_id":"4","last_reported":1777572148,"current_range_meters":5600,"station_id":"ce4bgv12rcd13ifvqcp0","pricing_plan_id":"cebpf4jnsgd1na2vs0mg"},{"bike_id":"39f5d49b-df3c-4ac3-8c8c-52433be76380","system_id":"levelo_inurba_marseille","lat":43.25178,"lon":5.37397,"is_reserved":false,"is_disabled":false,"rental_uris":{"android":"levelo://app?vid=39f5d49b-df3c-4ac3-8c8c-52433be76380","ios":"levelo://app?vid=39f5d49b-df3c-4ac3-8c8c-52433be76380"},"vehicle_type_id":"4","last_reported":1777572148,"current_range_meters":5600,"station_id":"","pricing_plan_id":"cebpf4jnsgd1na2vs0mg"},{"bike_id":"dd649e74-ed5e-4ce6-b6fc-191746436a7b","system_id":"levelo_inurba_marseille","lat":43.25072,"lon":5.42537,"is_reserved":false,"is_disabled":false,"rental_uris":{"android":"levelo://app?vid=dd649e74-ed5e-4ce6-b6fc-191746436a7b","ios":"levelo://app?vid=dd649e74-ed5e-4ce6-b6fc-191746436a7b"},"vehicle_type_id":"4","last_reported":1777572148,"current_range_meters":5600,"station_id":"","pricing_plan_id":"cebpf4jnsgd1na2vs0mg"},{"bike_id":"f22a6c01-2eed-4292-a8e4-1cc41ad77b27","system_id":"levelo_inurba_marseille","lat":43.29276,"lon":5.38429,"is_reserved":false,"is_disabled":false,"rental_uris":{"android":"levelo://app?vid=f22a6c01-2eed-4292-a8e4-1cc41ad77b27","ios":"levelo://app?vid=f22a6c01-2eed-4292-a8e4-1cc41ad77b27"},"vehicle_type_id":"4","last_reported":1777572148,"current_range_meters":5600,"station_id":"ce4bh692rcd13ifvqea0","pricing_plan_id":"cebpf4jnsgd1na2vs0mg"},{"bike_id":"9b171422-a10e-441a-8d08-0b74298acb49","system_id":"levelo_inurba_marseille","lat":43.28601,"lon":5.3706,"is_reserved":false,"is_disabled":false,"rental_uris":{"android":"levelo://app?vid=9b171422-a10e-441a-8d08-0b74298acb49","ios":"levelo://app?vid=9b171422-a10e-441a-8d08-0b74298acb49"},"vehicle_type_id":"4","last_reported":1777572148,"current_range_meters":5600,"station_id":"ce4bht12rcd13ifvqi60","pricing_plan_id":"cebpf4jnsgd1na2vs0mg"},{"bike_id":"52fb349b-cce2-4617-90a7-65156702c5c5","system_id":"levelo_inurba_marseille","lat":43.260283,"lon":5.375549,"is_reserved":false,"is_disabled":false,"rental_uris":{"android":"levelo://app?vid=52fb349b-cce2-4617-90a7-65156702c5c5","ios":"levelo://app?vid=52fb349b-cce2-4617-90a7-65156702c5c5"},"vehicle_type_id":"4","last_reported":1777572148,"current_range_meters":6000,"station_id":"ce4bhgh2rcd13ifvqfa0","pricing_plan_id":"cebpf4jnsgd1na2vs0mg"},{"bike_id":"59a7183b-ae19-4732-bd9e-8540942640ea","system_id":"levelo_inurba_marseille","lat":43.26539,"lon":5.39044,"is_reserved":false,"is_disabled":false,"rental_uris":{"android":"levelo://app?vid=59a7183b-ae19-4732-bd9e-8540942640ea","ios":"levelo://app?vid=59a7183b-ae19-4732-bd9e-8540942640ea"},"vehicle_type_id":"4","last_reported":1777572148,"current_range_meters":6000,"station_id":"ce4bhe12rcd13ifvqf30","pricing_plan_id":"cebpf4jnsgd1na2vs0mg"},{"bike_id":"c10e9ddb-36f4-40a9-a01e-246729b8793e","system_id":"levelo_inurba_marseille","lat":43.23376,"lon":5.41242,"is_reserved":false,"is_disabled":false,"rental_uris":{"android":"levelo://app?vid=c10e9ddb-36f4-40a9-a01e-246729b8793e","ios":"levelo://app?vid=c10e9ddb-36f4-40a9-a01e-246729b8793e"},"vehicle_type_id":"4","last_reported":1777572148,"current_range_meters":6000,"station_id":"st_d75pvndhf9lc73cqq3eg","pricing_plan_id":"cebpf4jnsgd1na2vs0mg"},{"bike_id":"6002189b-17d9-496e-9468-3e28ba4c5775","system_id":"levelo_inurba_marseille","lat":43.29521,"lon":5.37509,"is_reserved":false,"is_disabled":true,"rental_uris":{"android":"levelo://app?vid=6002189b-17d9-496e-9468-3e28ba4c5775","ios":"levelo://app?vid=6002189b-17d9-496e-9468-3e28ba4c5775"},"vehicle_type_id":"4","last_reported":1777572148,"current_range_meters":6000,"station_id":"ce4bgkp2rcd13ifvqbmg","pricing_plan_id":"cebpf4jnsgd1na2vs0mg"},{"bike_id":"a3d0ee4a-d5c7-47f6-aa37-85930d0050ef","system_id":"levelo_inurba_marseille","lat":43.30121,"lon":5.38776,"is_reserved":false,"is_disabled":false,"rental_uris":{"android":"levelo://app?vid=a3d0ee4a-d5c7-47f6-aa37-85930d0050ef","ios":"levelo://app?vid=a3d0ee4a-d5c7-47f6-aa37-85930d0050ef"},"vehicle_type_id":"4","last_reported":1777572148,"current_range_meters":6000,"station_id":"ce4bghh2rcd13ifvqb60","pricing_plan_id":"cebpf4jnsgd1na2vs0mg"},{"bike_id":"6b831f69-4734-4f4e-a3c2-fec3bf150dc8","system_id":"levelo_inurba_marseille","lat":43.3015,"lon":5.38075,"is_reserved":false,"is_disabled":false,"rental_uris":{"android":"levelo://app?vid=6b831f69-4734-4f4e-a3c2-fec3bf150dc8","ios":"levelo://app?vid=6b831f69-4734-4f4e-a3c2-fec3bf150dc8"},"vehicle_type_id":"4","last_reported":1777572148,"current_range_meters":6000,"station_id":"ce4bgjp2rcd13ifvqbh0","pricing_plan_id":"cebpf4jnsgd1na2vs0mg"},{"bike_id":"548fdd17-60a3-461c-85b6-1f80e7bb6f07","system_id":"levelo_inurba_marseille","lat":43.296,"lon":5.3945,"is_reserved":false,"is_disabled":false,"rental_uris":{"android":"levelo://app?vid=548fdd17-60a3-461c-85b6-1f80e7bb6f07","ios":"levelo://app?vid=548fdd17-60a3-461c-85b6-1f80e7bb6f07"},"vehicle_type_id":"4","last_reported":1777572148,"current_range_meters":6000,"station_id":"","pricing_plan_id":"cebpf4jnsgd1na2vs0mg"},{"bike_id":"e6807b10-12da-4f8b-9b91-46d8b2356942","system_id":"levelo_inurba_marseille","lat":43.29929,"lon":5.36552,"is_reserved":false,"is_disabled":false,"rental_uris":{"android":"levelo://app?vid=e6807b10-12da-4f8b-9b91-46d8b2356942","ios":"levelo://app?vid=e6807b10-12da-4f8b-9b91-46d8b2356942"},"vehicle_type_id":"4","last_reported":1777572148,"current_range_meters":6000,"station_id":"ce4bgm92rcd13ifvqbr0","pricing_plan_id":"cebpf4jnsgd1na2vs0mg"},{"bike_id":"d9005380-2e69-47c3-8975-80aafd03b4d9","system_id":"levelo_inurba_marseille","lat":43.29958,"lon":5.384983,"is_reserved":false,"is_disabled":false,"rental_uris":{"android":"levelo://app?vid=d9005380-2e69-47c3-8975-80aafd03b4d9","ios":"levelo://app?vid=d9005380-2e69-47c3-8975-80aafd03b4d9"},"vehicle_type_id":"4","last_reported":1777572148,"current_range_meters":6000,"station_id":"ce4bgj92rcd13ifvqbd0","pricing_plan_id":"cebpf4jnsgd1na2vs0mg"},{"bike_id":"76b76a5a-e9c0-44f3-94af-8de1a567c89d","system_id":"levelo_inurba_marseille","lat":43.22535,"lon":5.34839,"is_reserved":false,"is_disabled":false,"rental_uris":{"android":"levelo://app?vid=76b76a5a-e9c0-44f3-94af-8de1a567c89d","ios":"levelo://app?vid=76b76a5a-e9c0-44f3-94af-8de1a567c89d"},"vehicle_type_id":"4","last_reported":1777572148,"current_range_meters":6000,"station_id":"st_cvj5dfep6f1abm77gieg","pricing_plan_id":"cebpf4jnsgd1na2vs0mg"},{"bike_id":"7915e934-4513-4f92-b020-c35409c9dc59","system_id":"levelo_inurba_marseille","lat":43.29207,"lon":5.39331,"is_reserved":false,"is_disabled":false,"rental_uris":{"android":"levelo://app?vid=7915e934-4513-4f92-b020-c35409c9dc59","ios":"levelo://app?vid=7915e934-4513-4f92-b020-c35409c9dc59"},"vehicle_type_id":"4","last_reported":1777572148,"current_range_meters":6000,"station_id":"ce4bh192rcd13ifvqdd0","pricing_plan_id":"cebpf4jnsgd1na2vs0mg"},{"bike_id":"bb61bce6-a905-4678-8a18-289c412e775a","system_id":"levelo_inurba_marseille","lat":43.31352,"lon":5.38502,"is_reserved":false,"is_disabled":false,"rental_uris":{"android":"levelo://app?vid=bb61bce6-a905-4678-8a18-289c412e775a","ios":"levelo://app?vid=bb61bce6-a905-4678-8a18-289c412e775a"},"vehicle_type_id":"4","last_reported":1777572148,"current_range_meters":6400,"station_id":"ce4bgt92rcd13ifvqcf0","pricing_plan_id":"cebpf4jnsgd1na2vs0mg"},{"bike_id":"aa1066a2-52ee-4b5e-9ea8-f5bfb38bf0a4","system_id":"levelo_inurba_marseille","lat":43.32361,"lon":5.36744,"is_reserved":false,"is_disabled":false,"rental_uris":{"android":"levelo://app?vid=aa1066a2-52ee-4b5e-9ea8-f5bfb38bf0a4","ios":"levelo://app?vid=aa1066a2-52ee-4b5e-9ea8-f5bfb38bf0a4"},"vehicle_type_id":"4","last_reported":1777572148,"current_range_meters":6400,"station_id":"ce4bhsh2rcd13ifvqi2g","pricing_plan_id":"cebpf4jnsgd1na2vs0mg"},{"bike_id":"9ac79960-6ea7-499d-96a2-8173e74749ce","system_id":"levelo_inurba_marseille","lat":43.32515,"lon":5.36555,"is_reserved":false,"is_disabled":false,"rental_uris":{"android":"levelo://app?vid=9ac79960-6ea7-499d-96a2-8173e74749ce","ios":"levelo://app?vid=9ac79960-6ea7-499d-96a2-8173e74749ce"},"vehicle_type_id":"4","last_reported":1777572148,"current_range_meters":6400,"station_id":"ce4bhs12rcd13ifvqhvg","pricing_plan_id":"cebpf4jnsgd1na2vs0mg"},{"bike_id":"b99d6fe4-b8e7-4ae2-a227-dc144b9f45f9","system_id":"levelo_inurba_marseille","lat":43.2918,"lon":5.38606,"is_reserved":false,"is_disabled":false,"rental_uris":{"android":"levelo://app?vid=b99d6fe4-b8e7-4ae2-a227-dc144b9f45f9","ios":"levelo://app?vid=b99d6fe4-b8e7-4ae2-a227-dc144b9f45f9"},"vehicle_type_id":"4","last_reported":1777572148,"current_range_meters":6400,"station_id":"","pricing_plan_id":"cebpf4jnsgd1na2vs0mg"},{"bike_id":"26d53b69-750d-4ba2-830f-90716a418b2c","system_id":"levelo_inurba_marseille","lat":43.28933,"lon":5.36631,"is_reserved":false,"is_disabled":false,"rental_uris":{"android":"levelo://app?vid=26d53b69-750d-4ba2-830f-90716a418b2c","ios":"levelo://app?vid=26d53b69-750d-4ba2-830f-90716a418b2c"},"vehicle_type_id":"4","last_reported":1777572148,"current_range_meters":6400,"station_id":"ce4bhap2rcd13ifvqek0","pricing_plan_id":"cebpf4jnsgd1na2vs0mg"},{"bike_id":"5065d36b-0d55-4ad4-838e-c9c37921d4ce","system_id":"levelo_inurba_marseille","lat":43.28661,"lon":5.36351,"is_reserved":false,"is_disabled":false,"rental_uris":{"android":"levelo://app?vid=5065d36b-0d55-4ad4-838e-c9c37921d4ce","ios":"levelo://app?vid=5065d36b-0d55-4ad4-838e-c9c37921d4ce"},"vehicle_type_id":"4","last_reported":1777572148,"current_range_meters":6400,"station_id":"ce4bhah2rcd13ifvqej0","pricing_plan_id":"cebpf4jnsgd1na2vs0mg"},{"bike_id":"c2d3c152-eef5-44bd-9f72-ff670f052999","system_id":"levelo_inurba_marseille","lat":43.25569,"lon":5.38242,"is_reserved":false,"is_disabled":false,"rental_uris":{"android":"levelo://app?vid=c2d3c152-eef5-44bd-9f72-ff670f052999","ios":"levelo://app?vid=c2d3c152-eef5-44bd-9f72-ff670f052999"},"vehicle_type_id":"4","last_reported":1777572148,"current_range_meters":6400,"station_id":"ce4bhih2rcd13ifvqfs0","pricing_plan_id":"cebpf4jnsgd1na2vs0mg"},{"bike_id":"0f871e16-6e59-4d78-99ff-eb37947f72eb","system_id":"levelo_inurba_marseille","lat":43.29978,"lon":5.37174,"is_reserved":false,"is_disabled":false,"rental_uris":{"android":"levelo://app?vid=0f871e16-6e59-4d78-99ff-eb37947f72eb","ios":"levelo://app?vid=0f871e16-6e59-4d78-99ff-eb37947f72eb"},"vehicle_type_id":"4","last_reported":1777572148,"current_range_meters":6400,"station_id":"ce4bgr92rcd13ifvqc7g","pricing_plan_id":"cebpf4jnsgd1na2vs0mg"},{"bike_id":"8a16e35d-673d-41a6-befd-cae743045740","system_id":"levelo_inurba_marseille","lat":43.290796,"lon":5.372048,"is_reserved":false,"is_disabled":false,"rental_uris":{"android":"levelo://app?vid=8a16e35d-673d-41a6-befd-cae743045740","ios":"levelo://app?vid=8a16e35d-673d-41a6-befd-cae743045740"},"vehicle_type_id":"4","last_reported":1777572148,"current_range_meters":6400,"station_id":"ce4bh5p2rcd13ifvqe4g","pricing_plan_id":"cebpf4jnsgd1na2vs0mg"},{"bike_id":"31bc5506-761d-4d3a-92b6-0aca0502188c","system_id":"levelo_inurba_marseille","lat":43.29526,"lon":5.38538,"is_reserved":false,"is_disabled":false,"rental_uris":{"android":"levelo://app?vid=31bc5506-761d-4d3a-92b6-0aca0502188c","ios":"levelo://app?vid=31bc5506-761d-4d3a-92b6-0aca0502188c"},"vehicle_type_id":"4","last_reported":1777572148,"current_range_meters":6400,"station_id":"ce4bgih2rcd13ifvqba0","pricing_plan_id":"cebpf4jnsgd1na2vs0mg"},{"bike_id":"33be1eec-317e-49e9-99c8-35dd1d8d468a","system_id":"levelo_inurba_marseille","lat":43.28723,"lon":5.36094,"is_reserved":false,"is_disabled":false,"rental_uris":{"android":"levelo://app?vid=33be1eec-317e-49e9-99c8-35dd1d8d468a","ios":"levelo://app?vid=33be1eec-317e-49e9-99c8-35dd1d8d468a"},"vehicle_type_id":"4","last_reported":1777572148,"current_range_meters":6400,"station_id":"cki0cbj6b192h4jlfktg","pricing_plan_id":"cebpf4jnsgd1na2vs0mg"},{"bike_id":"d112da17-830f-42d2-9651-eb93b1d44807","system_id":"levelo_inurba_marseille","lat":43.273207,"lon":5.390691,"is_reserved":false,"is_disabled":false,"rental_uris":{"android":"levelo://app?vid=d112da17-830f-42d2-9651-eb93b1d44807","ios":"levelo://app?vid=d112da17-830f-42d2-9651-eb93b1d44807"},"vehicle_type_id":"4","last_reported":1777572148,"current_range_meters":6400,"station_id":"ce4bhgp2rcd13ifvqfe0","pricing_plan_id":"cebpf4jnsgd1na2vs0mg"},{"bike_id":"8fa8a70c-4894-45c7-aa80-4c7765202404","system_id":"levelo_inurba_marseille","lat":43.28725,"lon":5.36073,"is_reserved":false,"is_disabled":false,"rental_uris":{"android":"levelo://app?vid=8fa8a70c-4894-45c7-aa80-4c7765202404","ios":"levelo://app?vid=8fa8a70c-4894-45c7-aa80-4c7765202404"},"vehicle_type_id":"4","last_reported":1777572148,"current_range_meters":6400,"station_id":"cki0cbj6b192h4jlfktg","pricing_plan_id":"cebpf4jnsgd1na2vs0mg"},{"bike_id":"e18c7f3b-d3c9-46a4-95db-3b2d52333082","system_id":"levelo_inurba_marseille","lat":43.30587,"lon":5.37237,"is_reserved":false,"is_disabled":false,"rental_uris":{"android":"levelo://app?vid=e18c7f3b-d3c9-46a4-95db-3b2d52333082","ios":"levelo://app?vid=e18c7f3b-d3c9-46a4-95db-3b2d52333082"},"vehicle_type_id":"4","last_reported":1777572148,"current_range_meters":6400,"station_id":"ce4bgqh2rcd13ifvqc4g","pricing_plan_id":"cebpf4jnsgd1na2vs0mg"},{"bike_id":"69af4d4b-f37e-4054-8bc6-9fcd27e0423b","system_id":"levelo_inurba_marseille","lat":43.23193,"lon":5.35549,"is_reserved":false,"is_disabled":false,"rental_uris":{"android":"levelo://app?vid=69af4d4b-f37e-4054-8bc6-9fcd27e0423b","ios":"levelo://app?vid=69af4d4b-f37e-4054-8bc6-9fcd27e0423b"},"vehicle_type_id":"4","last_reported":1777572148,"current_range_meters":6400,"station_id":"ce4bhu92rcd13ifvqi70","pricing_plan_id":"cebpf4jnsgd1na2vs0mg"},{"bike_id":"286e6736-bb1b-43f2-8424-d6d8030c62f3","system_id":"levelo_inurba_marseille","lat":43.26917,"lon":5.36707,"is_reserved":false,"is_disabled":false,"rental_uris":{"android":"levelo://app?vid=286e6736-bb1b-43f2-8424-d6d8030c62f3","ios":"levelo://app?vid=286e6736-bb1b-43f2-8424-d6d8030c62f3"},"vehicle_type_id":"4","last_reported":1777572148,"current_range_meters":6400,"station_id":"","pricing_plan_id":"cebpf4jnsgd1na2vs0mg"},{"bike_id":"04dde9e6-ff3a-4c8a-af26-9bf536e5d19c","system_id":"levelo_inurba_marseille","lat":43.284075,"lon":5.37505,"is_reserved":false,"is_disabled":false,"rental_uris":{"android":"levelo://app?vid=04dde9e6-ff3a-4c8a-af26-9bf536e5d19c","ios":"levelo://app?vid=04dde9e6-ff3a-4c8a-af26-9bf536e5d19c"},"vehicle_type_id":"4","last_reported":1777572148,"current_range_meters":6800,"station_id":"ce4bh412rcd13ifvqds0","pricing_plan_id":"cebpf4jnsgd1na2vs0mg"},{"bike_id":"5e0e9655-b69b-4906-bc67-574a99d700e7","system_id":"levelo_inurba_marseille","lat":43.29982,"lon":5.37174,"is_reserved":false,"is_disabled":false,"rental_uris":{"android":"levelo://app?vid=5e0e9655-b69b-4906-bc67-574a99d700e7","ios":"levelo://app?vid=5e0e9655-b69b-4906-bc67-574a99d700e7"},"vehicle_type_id":"4","last_reported":1777572148,"current_range_meters":6800,"station_id":"ce4bgr92rcd13ifvqc7g","pricing_plan_id":"cebpf4jnsgd1na2vs0mg"},{"bike_id":"185f2fcd-7bad-48bf-8730-efc2b2fc849a","system_id":"levelo_inurba_marseille","lat":43.2623,"lon":5.40453,"is_reserved":false,"is_disabled":false,"rental_uris":{"android":"levelo://app?vid=185f2fcd-7bad-48bf-8730-efc2b2fc849a","ios":"levelo://app?vid=185f2fcd-7bad-48bf-8730-efc2b2fc849a"},"vehicle_type_id":"4","last_reported":1777572148,"current_range_meters":6800,"station_id":"ce4bhmh2rcd13ifvqgmg","pricing_plan_id":"cebpf4jnsgd1na2vs0mg"},{"bike_id":"17a74b8d-ce86-4f50-99d0-ed8a8292670e","system_id":"levelo_inurba_marseille","lat":43.29565,"lon":5.39969,"is_reserved":false,"is_disabled":false,"rental_uris":{"android":"levelo://app?vid=17a74b8d-ce86-4f50-99d0-ed8a8292670e","ios":"levelo://app?vid=17a74b8d-ce86-4f50-99d0-ed8a8292670e"},"vehicle_type_id":"4","last_reported":1777572148,"current_range_meters":6800,"station_id":"ce4bh312rcd13ifvqdj0","pricing_plan_id":"cebpf4jnsgd1na2vs0mg"},{"bike_id":"63b67293-bd0b-4514-a1b9-bc612cbd3ce1","system_id":"levelo_inurba_marseille","lat":43.254992,"lon":5.376488,"is_reserved":false,"is_disabled":false,"rental_uris":{"android":"levelo://app?vid=63b67293-bd0b-4514-a1b9-bc612cbd3ce1","ios":"levelo://app?vid=63b67293-bd0b-4514-a1b9-bc612cbd3ce1"},"vehicle_type_id":"4","last_reported":1777572148,"current_range_meters":6800,"station_id":"ce4bhh12rcd13ifvqff0","pricing_plan_id":"cebpf4jnsgd1na2vs0mg"},{"bike_id":"c76a4b5d-7caf-4e63-804a-3df554f9e335","system_id":"levelo_inurba_marseille","lat":43.30142,"lon":5.39855,"is_reserved":false,"is_disabled":true,"rental_uris":{"android":"levelo://app?vid=c76a4b5d-7caf-4e63-804a-3df554f9e335","ios":"levelo://app?vid=c76a4b5d-7caf-4e63-804a-3df554f9e335"},"vehicle_type_id":"4","last_reported":1777572148,"current_range_meters":6800,"station_id":"ce4bh0h2rcd13ifvqd40","pricing_plan_id":"cebpf4jnsgd1na2vs0mg"},{"bike_id":"b04a4ab1-ad02-4ba9-8c98-bd93ea2b5a7b","system_id":"levelo_inurba_marseille","lat":43.32075,"lon":5.43369,"is_reserved":false,"is_disabled":false,"rental_uris":{"android":"levelo://app?vid=b04a4ab1-ad02-4ba9-8c98-bd93ea2b5a7b","ios":"levelo://app?vid=b04a4ab1-ad02-4ba9-8c98-bd93ea2b5a7b"},"vehicle_type_id":"4","last_reported":1777572148,"current_range_meters":6800,"station_id":"","pricing_plan_id":"cebpf4jnsgd1na2vs0mg"},{"bike_id":"a2a694ab-bd57-45a8-a651-048e4cefae01","system_id":"levelo_inurba_marseille","lat":43.28702,"lon":5.4668,"is_reserved":false,"is_disabled":false,"rental_uris":{"android":"levelo://app?vid=a2a694ab-bd57-45a8-a651-048e4cefae01","ios":"levelo://app?vid=a2a694ab-bd57-45a8-a651-048e4cefae01"},"vehicle_type_id":"4","last_reported":1777572148,"current_range_meters":6800,"station_id":"st_d6tc3vkotcvc738tfjhg","pricing_plan_id":"cebpf4jnsgd1na2vs0mg"},{"bike_id":"914ce8aa-31ff-47d3-928a-e5f26e44ca8c","system_id":"levelo_inurba_marseille","lat":43.29304,"lon":5.37461,"is_reserved":false,"is_disabled":false,"rental_uris":{"android":"levelo://app?vid=914ce8aa-31ff-47d3-928a-e5f26e44ca8c","ios":"levelo://app?vid=914ce8aa-31ff-47d3-928a-e5f26e44ca8c"},"vehicle_type_id":"4","last_reported":1777572148,"current_range_meters":6800,"station_id":"ce4bgi12rcd13ifvqb70","pricing_plan_id":"cebpf4jnsgd1na2vs0mg"},{"bike_id":"96c1677c-ba34-44c4-b8f0-676f4f85c27f","system_id":"levelo_inurba_marseille","lat":43.2946,"lon":5.38799,"is_reserved":false,"is_disabled":false,"rental_uris":{"android":"levelo://app?vid=96c1677c-ba34-44c4-b8f0-676f4f85c27f","ios":"levelo://app?vid=96c1677c-ba34-44c4-b8f0-676f4f85c27f"},"vehicle_type_id":"4","last_reported":1777572148,"current_range_meters":6800,"station_id":"","pricing_plan_id":"cebpf4jnsgd1na2vs0mg"},{"bike_id":"021651d2-4c60-4088-a359-b9197bac101e","system_id":"levelo_inurba_marseille","lat":43.29755,"lon":5.37941,"is_reserved":false,"is_disabled":false,"rental_uris":{"android":"levelo://app?vid=021651d2-4c60-4088-a359-b9197bac101e","ios":"levelo://app?vid=021651d2-4c60-4088-a359-b9197bac101e"},"vehicle_type_id":"4","last_reported":1777572148,"current_range_meters":6800,"station_id":"","pricing_plan_id":"cebpf4jnsgd1na2vs0mg"},{"bike_id":"609920f7-4488-4266-bb19-e7dd2fbe4685","system_id":"levelo_inurba_marseille","lat":43.29178,"lon":5.35793,"is_reserved":false,"is_disabled":false,"rental_uris":{"android":"levelo://app?vid=609920f7-4488-4266-bb19-e7dd2fbe4685","ios":"levelo://app?vid=609920f7-4488-4266-bb19-e7dd2fbe4685"},"vehicle_type_id":"4","last_reported":1777572148,"current_range_meters":6800,"station_id":"ce4bhb12rcd13ifvqel0","pricing_plan_id":"cebpf4jnsgd1na2vs0mg"},{"bike_id":"f74d53e8-0691-413f-8b3e-e0b2ff080d66","system_id":"levelo_inurba_marseille","lat":43.27058,"lon":5.40258,"is_reserved":false,"is_disabled":false,"rental_uris":{"android":"levelo://app?vid=f74d53e8-0691-413f-8b3e-e0b2ff080d66","ios":"levelo://app?vid=f74d53e8-0691-413f-8b3e-e0b2ff080d66"},"vehicle_type_id":"4","last_reported":1777572148,"current_range_meters":6800,"station_id":"ce4bhk92rcd13ifvqgc0","pricing_plan_id":"cebpf4jnsgd1na2vs0mg"},{"bike_id":"6da546f3-dce9-4193-ab4d-2edb110e52d5","system_id":"levelo_inurba_marseille","lat":43.30244,"lon":5.40082,"is_reserved":false,"is_disabled":false,"rental_uris":{"android":"levelo://app?vid=6da546f3-dce9-4193-ab4d-2edb110e52d5","ios":"levelo://app?vid=6da546f3-dce9-4193-ab4d-2edb110e52d5"},"vehicle_type_id":"4","last_reported":1777572148,"current_range_meters":6800,"station_id":"ce4bgvh2rcd13ifvqcs0","pricing_plan_id":"cebpf4jnsgd1na2vs0mg"},{"bike_id":"d808040d-c977-4867-9de9-fa3d5a539aad","system_id":"levelo_inurba_marseille","lat":43.30536,"lon":5.36726,"is_reserved":false,"is_disabled":false,"rental_uris":{"android":"levelo://app?vid=d808040d-c977-4867-9de9-fa3d5a539aad","ios":"levelo://app?vid=d808040d-c977-4867-9de9-fa3d5a539aad"},"vehicle_type_id":"4","last_reported":1777572148,"current_range_meters":6800,"station_id":"ce4bgrp2rcd13ifvqc9g","pricing_plan_id":"cebpf4jnsgd1na2vs0mg"},{"bike_id":"917cf0f9-4010-4c17-9e76-cdb28c235572","system_id":"levelo_inurba_marseille","lat":43.28409,"lon":5.37514,"is_reserved":false,"is_disabled":false,"rental_uris":{"android":"levelo://app?vid=917cf0f9-4010-4c17-9e76-cdb28c235572","ios":"levelo://app?vid=917cf0f9-4010-4c17-9e76-cdb28c235572"},"vehicle_type_id":"4","last_reported":1777572148,"current_range_meters":7200,"station_id":"ce4bh412rcd13ifvqds0","pricing_plan_id":"cebpf4jnsgd1na2vs0mg"},{"bike_id":"2db651d7-7b81-464a-bb48-581bf1e0c30d","system_id":"levelo_inurba_marseille","lat":43.24059,"lon":5.37791,"is_reserved":false,"is_disabled":false,"rental_uris":{"android":"levelo://app?vid=2db651d7-7b81-464a-bb48-581bf1e0c30d","ios":"levelo://app?vid=2db651d7-7b81-464a-bb48-581bf1e0c30d"},"vehicle_type_id":"4","last_reported":1777572148,"current_range_meters":7200,"station_id":"ce4bhnp2rcd13ifvqgvg","pricing_plan_id":"cebpf4jnsgd1na2vs0mg"},{"bike_id":"e36de38e-9edc-4037-a098-e551d6194be3","system_id":"levelo_inurba_marseille","lat":43.2657,"lon":5.39048,"is_reserved":false,"is_disabled":false,"rental_uris":{"android":"levelo://app?vid=e36de38e-9edc-4037-a098-e551d6194be3","ios":"levelo://app?vid=e36de38e-9edc-4037-a098-e551d6194be3"},"vehicle_type_id":"4","last_reported":1777572148,"current_range_meters":7200,"station_id":"ce4bhe12rcd13ifvqf30","pricing_plan_id":"cebpf4jnsgd1na2vs0mg"},{"bike_id":"3c5bb4a8-b8bc-4f62-8b1e-ea03d92ccf9e","system_id":"levelo_inurba_marseille","lat":43.24953,"lon":5.40498,"is_reserved":false,"is_disabled":false,"rental_uris":{"android":"levelo://app?vid=3c5bb4a8-b8bc-4f62-8b1e-ea03d92ccf9e","ios":"levelo://app?vid=3c5bb4a8-b8bc-4f62-8b1e-ea03d92ccf9e"},"vehicle_type_id":"4","last_reported":1777572148,"current_range_meters":7200,"station_id":"st_d2ngiaodas8pm72gd1h0","pricing_plan_id":"cebpf4jnsgd1na2vs0mg"},{"bike_id":"d754a57a-bb28-4aad-8721-5e9b379ab6a9","system_id":"levelo_inurba_marseille","lat":43.29004,"lon":5.35601,"is_reserved":false,"is_disabled":false,"rental_uris":{"android":"levelo://app?vid=d754a57a-bb28-4aad-8721-5e9b379ab6a9","ios":"levelo://app?vid=d754a57a-bb28-4aad-8721-5e9b379ab6a9"},"vehicle_type_id":"4","last_reported":1777572148,"current_range_meters":7200,"station_id":"ce4bhb92rcd13ifvqen0","pricing_plan_id":"cebpf4jnsgd1na2vs0mg"},{"bike_id":"9946651a-73b2-42d3-8b67-4a03223ca392","system_id":"levelo_inurba_marseille","lat":43.29963,"lon":5.385,"is_reserved":false,"is_disabled":false,"rental_uris":{"android":"levelo://app?vid=9946651a-73b2-42d3-8b67-4a03223ca392","ios":"levelo://app?vid=9946651a-73b2-42d3-8b67-4a03223ca392"},"vehicle_type_id":"4","last_reported":1777572148,"current_range_meters":7200,"station_id":"ce4bgj92rcd13ifvqbd0","pricing_plan_id":"cebpf4jnsgd1na2vs0mg"},{"bike_id":"9c85ea94-e0db-4d3e-baca-fa152ee440d3","system_id":"levelo_inurba_marseille","lat":43.25578,"lon":5.38236,"is_reserved":false,"is_disabled":false,"rental_uris":{"android":"levelo://app?vid=9c85ea94-e0db-4d3e-baca-fa152ee440d3","ios":"levelo://app?vid=9c85ea94-e0db-4d3e-baca-fa152ee440d3"},"vehicle_type_id":"4","last_reported":1777572148,"current_range_meters":7200,"station_id":"ce4bhih2rcd13ifvqfs0","pricing_plan_id":"cebpf4jnsgd1na2vs0mg"},{"bike_id":"7fe635a5-092d-48d8-935e-aafce9cc4cb6","system_id":"levelo_inurba_marseille","lat":43.292458,"lon":5.383583,"is_reserved":false,"is_disabled":false,"rental_uris":{"android":"levelo://app?vid=7fe635a5-092d-48d8-935e-aafce9cc4cb6","ios":"levelo://app?vid=7fe635a5-092d-48d8-935e-aafce9cc4cb6"},"vehicle_type_id":"4","last_reported":1777572148,"current_range_meters":7200,"station_id":"ce4bh4p2rcd13ifvqe0g","pricing_plan_id":"cebpf4jnsgd1na2vs0mg"},{"bike_id":"95f47514-1d7f-4013-95fe-a0916f7cc45a","system_id":"levelo_inurba_marseille","lat":43.33558,"lon":5.37466,"is_reserved":false,"is_disabled":false,"rental_uris":{"android":"levelo://app?vid=95f47514-1d7f-4013-95fe-a0916f7cc45a","ios":"levelo://app?vid=95f47514-1d7f-4013-95fe-a0916f7cc45a"},"vehicle_type_id":"4","last_reported":1777572148,"current_range_meters":7200,"station_id":"st_d46tts09ee8s73dlu43g","pricing_plan_id":"cebpf4jnsgd1na2vs0mg"},{"bike_id":"2ee1db26-54a9-4a38-974b-0eb0bbac894f","system_id":"levelo_inurba_marseille","lat":43.29594,"lon":5.38097,"is_reserved":false,"is_disabled":true,"rental_uris":{"android":"levelo://app?vid=2ee1db26-54a9-4a38-974b-0eb0bbac894f","ios":"levelo://app?vid=2ee1db26-54a9-4a38-974b-0eb0bbac894f"},"vehicle_type_id":"4","last_reported":1777572148,"current_range_meters":7200,"station_id":"ce4bgl12rcd13ifvqbo0","pricing_plan_id":"cebpf4jnsgd1na2vs0mg"},{"bike_id":"0195b3a7-f19f-4649-864a-4c54bdc7ef80","system_id":"levelo_inurba_marseille","lat":43.337444,"lon":5.374475,"is_reserved":false,"is_disabled":false,"rental_uris":{"android":"levelo://app?vid=0195b3a7-f19f-4649-864a-4c54bdc7ef80","ios":"levelo://app?vid=0195b3a7-f19f-4649-864a-4c54bdc7ef80"},"vehicle_type_id":"4","last_reported":1777572148,"current_range_meters":7200,"station_id":"","pricing_plan_id":"cebpf4jnsgd1na2vs0mg"},{"bike_id":"e03574b8-8c95-4306-8f72-5067424c8039","system_id":"levelo_inurba_marseille","lat":43.30426,"lon":5.41272,"is_reserved":false,"is_disabled":false,"rental_uris":{"android":"levelo://app?vid=e03574b8-8c95-4306-8f72-5067424c8039","ios":"levelo://app?vid=e03574b8-8c95-4306-8f72-5067424c8039"},"vehicle_type_id":"4","last_reported":1777572148,"current_range_meters":7200,"station_id":"ce4bhop2rcd13ifvqh8g","pricing_plan_id":"cebpf4jnsgd1na2vs0mg"},{"bike_id":"37224994-0bd4-4ed8-8c56-3d7f6ae50e29","system_id":"levelo_inurba_marseille","lat":43.27915,"lon":5.39584,"is_reserved":false,"is_disabled":true,"rental_uris":{"android":"levelo://app?vid=37224994-0bd4-4ed8-8c56-3d7f6ae50e29","ios":"levelo://app?vid=37224994-0bd4-4ed8-8c56-3d7f6ae50e29"},"vehicle_type_id":"4","last_reported":1777572148,"current_range_meters":7200,"station_id":"ce4bhf92rcd13ifvqf40","pricing_plan_id":"cebpf4jnsgd1na2vs0mg"},{"bike_id":"5848fcf1-3e28-46d7-9218-d4dc6ebc4868","system_id":"levelo_inurba_marseille","lat":43.2953,"lon":5.38538,"is_reserved":false,"is_disabled":false,"rental_uris":{"android":"levelo://app?vid=5848fcf1-3e28-46d7-9218-d4dc6ebc4868","ios":"levelo://app?vid=5848fcf1-3e28-46d7-9218-d4dc6ebc4868"},"vehicle_type_id":"4","last_reported":1777572148,"current_range_meters":7200,"station_id":"ce4bgih2rcd13ifvqba0","pricing_plan_id":"cebpf4jnsgd1na2vs0mg"},{"bike_id":"d2d2e7f5-75cd-42b3-8b6f-6203421c9e06","system_id":"levelo_inurba_marseille","lat":43.29241,"lon":5.36004,"is_reserved":false,"is_disabled":true,"rental_uris":{"android":"levelo://app?vid=d2d2e7f5-75cd-42b3-8b6f-6203421c9e06","ios":"levelo://app?vid=d2d2e7f5-75cd-42b3-8b6f-6203421c9e06"},"vehicle_type_id":"4","last_reported":1777572148,"current_range_meters":7200,"station_id":"ce4bhbh2rcd13ifvqeqg","pricing_plan_id":"cebpf4jnsgd1na2vs0mg"},{"bike_id":"50cc6683-a4a6-490d-87fd-8c2be5eaa529","system_id":"levelo_inurba_marseille","lat":43.27805,"lon":5.41525,"is_reserved":false,"is_disabled":false,"rental_uris":{"android":"levelo://app?vid=50cc6683-a4a6-490d-87fd-8c2be5eaa529","ios":"levelo://app?vid=50cc6683-a4a6-490d-87fd-8c2be5eaa529"},"vehicle_type_id":"4","last_reported":1777572148,"current_range_meters":7200,"station_id":"","pricing_plan_id":"cebpf4jnsgd1na2vs0mg"},{"bike_id":"d78b7953-6e4e-4639-9bde-924ea3e40ac0","system_id":"levelo_inurba_marseille","lat":43.2871,"lon":5.37405,"is_reserved":false,"is_disabled":false,"rental_uris":{"android":"levelo://app?vid=d78b7953-6e4e-4639-9bde-924ea3e40ac0","ios":"levelo://app?vid=d78b7953-6e4e-4639-9bde-924ea3e40ac0"},"vehicle_type_id":"4","last_reported":1777572148,"current_range_meters":7200,"station_id":"ce4bh3p2rcd13ifvqdq0","pricing_plan_id":"cebpf4jnsgd1na2vs0mg"},{"bike_id":"368d5396-dafa-493e-b98d-6e2ef22688af","system_id":"levelo_inurba_marseille","lat":43.29266,"lon":5.38415,"is_reserved":false,"is_disabled":false,"rental_uris":{"android":"levelo://app?vid=368d5396-dafa-493e-b98d-6e2ef22688af","ios":"levelo://app?vid=368d5396-dafa-493e-b98d-6e2ef22688af"},"vehicle_type_id":"4","last_reported":1777572148,"current_range_meters":7200,"station_id":"ce4bh692rcd13ifvqea0","pricing_plan_id":"cebpf4jnsgd1na2vs0mg"},{"bike_id":"71c79500-e45b-4aad-89df-da6b3c8cd211","system_id":"levelo_inurba_marseille","lat":43.29305,"lon":5.3745,"is_reserved":false,"is_disabled":false,"rental_uris":{"android":"levelo://app?vid=71c79500-e45b-4aad-89df-da6b3c8cd211","ios":"levelo://app?vid=71c79500-e45b-4aad-89df-da6b3c8cd211"},"vehicle_type_id":"4","last_reported":1777572148,"current_range_meters":8000,"station_id":"ce4bgi12rcd13ifvqb70","pricing_plan_id":"cebpf4jnsgd1na2vs0mg"},{"bike_id":"0d23b3b9-8d64-4433-ad79-1bc6b0d4576c","system_id":"levelo_inurba_marseille","lat":43.3014,"lon":5.39841,"is_reserved":false,"is_disabled":false,"rental_uris":{"android":"levelo://app?vid=0d23b3b9-8d64-4433-ad79-1bc6b0d4576c","ios":"levelo://app?vid=0d23b3b9-8d64-4433-ad79-1bc6b0d4576c"},"vehicle_type_id":"4","last_reported":1777572148,"current_range_meters":8000,"station_id":"ce4bh0h2rcd13ifvqd40","pricing_plan_id":"cebpf4jnsgd1na2vs0mg"},{"bike_id":"40ba10b0-e205-4f2a-89a0-79edf2cbbc24","system_id":"levelo_inurba_marseille","lat":43.29546,"lon":5.38539,"is_reserved":false,"is_disabled":false,"rental_uris":{"android":"levelo://app?vid=40ba10b0-e205-4f2a-89a0-79edf2cbbc24","ios":"levelo://app?vid=40ba10b0-e205-4f2a-89a0-79edf2cbbc24"},"vehicle_type_id":"4","last_reported":1777572148,"current_range_meters":8000,"station_id":"ce4bgih2rcd13ifvqba0","pricing_plan_id":"cebpf4jnsgd1na2vs0mg"},{"bike_id":"f5d67f85-8bcc-4037-bcf0-f09ad0e4ef05","system_id":"levelo_inurba_marseille","lat":43.29267,"lon":5.36849,"is_reserved":false,"is_disabled":false,"rental_uris":{"android":"levelo://app?vid=f5d67f85-8bcc-4037-bcf0-f09ad0e4ef05","ios":"levelo://app?vid=f5d67f85-8bcc-4037-bcf0-f09ad0e4ef05"},"vehicle_type_id":"4","last_reported":1777572148,"current_range_meters":8000,"station_id":"ce4bhbp2rcd13ifvqesg","pricing_plan_id":"cebpf4jnsgd1na2vs0mg"},{"bike_id":"3cd3cdfc-c536-4b02-97ce-284cd9f61a9c","system_id":"levelo_inurba_marseille","lat":43.29255,"lon":5.36856,"is_reserved":false,"is_disabled":false,"rental_uris":{"android":"levelo://app?vid=3cd3cdfc-c536-4b02-97ce-284cd9f61a9c","ios":"levelo://app?vid=3cd3cdfc-c536-4b02-97ce-284cd9f61a9c"},"vehicle_type_id":"4","last_reported":1777572148,"current_range_meters":8000,"station_id":"ce4bhbp2rcd13ifvqesg","pricing_plan_id":"cebpf4jnsgd1na2vs0mg"},{"bike_id":"a784a086-3324-46c8-be7b-7913abd8c54d","system_id":"levelo_inurba_marseille","lat":43.29306,"lon":5.37171,"is_reserved":false,"is_disabled":false,"rental_uris":{"android":"levelo://app?vid=a784a086-3324-46c8-be7b-7913abd8c54d","ios":"levelo://app?vid=a784a086-3324-46c8-be7b-7913abd8c54d"},"vehicle_type_id":"4","last_reported":1777572148,"current_range_meters":8000,"station_id":"ce4bgh92rcd13ifvqb40","pricing_plan_id":"cebpf4jnsgd1na2vs0mg"},{"bike_id":"19fc7de2-6422-4e61-af81-d8de6a12be7a","system_id":"levelo_inurba_marseille","lat":43.31481,"lon":5.37256,"is_reserved":false,"is_disabled":false,"rental_uris":{"android":"levelo://app?vid=19fc7de2-6422-4e61-af81-d8de6a12be7a","ios":"levelo://app?vid=19fc7de2-6422-4e61-af81-d8de6a12be7a"},"vehicle_type_id":"4","last_reported":1777572148,"current_range_meters":8000,"station_id":"ce4bgt12rcd13ifvqcd0","pricing_plan_id":"cebpf4jnsgd1na2vs0mg"},{"bike_id":"335fc8dc-ad2f-4253-b0e2-b10d3d2d0173","system_id":"levelo_inurba_marseille","lat":43.28487,"lon":5.38535,"is_reserved":false,"is_disabled":true,"rental_uris":{"android":"levelo://app?vid=335fc8dc-ad2f-4253-b0e2-b10d3d2d0173","ios":"levelo://app?vid=335fc8dc-ad2f-4253-b0e2-b10d3d2d0173"},"vehicle_type_id":"4","last_reported":1777572148,"current_range_meters":8000,"station_id":"ce4bh8p2rcd13ifvqeb0","pricing_plan_id":"cebpf4jnsgd1na2vs0mg"},{"bike_id":"37728412-9808-4848-87a6-e43dab59174b","system_id":"levelo_inurba_marseille","lat":43.27182,"lon":5.40984,"is_reserved":false,"is_disabled":false,"rental_uris":{"android":"levelo://app?vid=37728412-9808-4848-87a6-e43dab59174b","ios":"levelo://app?vid=37728412-9808-4848-87a6-e43dab59174b"},"vehicle_type_id":"4","last_reported":1777572148,"current_range_meters":8000,"station_id":"ce4bhl12rcd13ifvqgf0","pricing_plan_id":"cebpf4jnsgd1na2vs0mg"},{"bike_id":"fda6821c-f243-486f-8ec0-06c0e45711c3","system_id":"levelo_inurba_marseille","lat":43.30326,"lon":5.40434,"is_reserved":false,"is_disabled":false,"rental_uris":{"android":"levelo://app?vid=fda6821c-f243-486f-8ec0-06c0e45711c3","ios":"levelo://app?vid=fda6821c-f243-486f-8ec0-06c0e45711c3"},"vehicle_type_id":"4","last_reported":1777572148,"current_range_meters":8000,"station_id":"ce4bh012rcd13ifvqd10","pricing_plan_id":"cebpf4jnsgd1na2vs0mg"},{"bike_id":"96d2cc4a-59e4-43f8-95a4-fc7e9dee1623","system_id":"levelo_inurba_marseille","lat":43.29163,"lon":5.37157,"is_reserved":false,"is_disabled":false,"rental_uris":{"android":"levelo://app?vid=96d2cc4a-59e4-43f8-95a4-fc7e9dee1623","ios":"levelo://app?vid=96d2cc4a-59e4-43f8-95a4-fc7e9dee1623"},"vehicle_type_id":"4","last_reported":1777572148,"current_range_meters":8000,"station_id":"ce4bha92rcd13ifvqeh0","pricing_plan_id":"cebpf4jnsgd1na2vs0mg"},{"bike_id":"275f0e36-65c4-489f-bd62-ec5e03923f09","system_id":"levelo_inurba_marseille","lat":43.22552,"lon":5.41626,"is_reserved":false,"is_disabled":false,"rental_uris":{"android":"levelo://app?vid=275f0e36-65c4-489f-bd62-ec5e03923f09","ios":"levelo://app?vid=275f0e36-65c4-489f-bd62-ec5e03923f09"},"vehicle_type_id":"4","last_reported":1777572148,"current_range_meters":8000,"station_id":"st_d2o4gvlbi1j2169b742g","pricing_plan_id":"cebpf4jnsgd1na2vs0mg"},{"bike_id":"0de11176-c8c6-4188-aa74-c3bb49d6de62","system_id":"levelo_inurba_marseille","lat":43.29535,"lon":5.38555,"is_reserved":false,"is_disabled":false,"rental_uris":{"android":"levelo://app?vid=0de11176-c8c6-4188-aa74-c3bb49d6de62","ios":"levelo://app?vid=0de11176-c8c6-4188-aa74-c3bb49d6de62"},"vehicle_type_id":"4","last_reported":1777572148,"current_range_meters":8000,"station_id":"ce4bgih2rcd13ifvqba0","pricing_plan_id":"cebpf4jnsgd1na2vs0mg"},{"bike_id":"15ccd033-9a9c-47d6-a972-ff6689c29eee","system_id":"levelo_inurba_marseille","lat":43.32339,"lon":5.36741,"is_reserved":false,"is_disabled":false,"rental_uris":{"android":"levelo://app?vid=15ccd033-9a9c-47d6-a972-ff6689c29eee","ios":"levelo://app?vid=15ccd033-9a9c-47d6-a972-ff6689c29eee"},"vehicle_type_id":"4","last_reported":1777572148,"current_range_meters":8000,"station_id":"ce4bhsh2rcd13ifvqi2g","pricing_plan_id":"cebpf4jnsgd1na2vs0mg"},{"bike_id":"1842cb1e-c9d1-4468-ab6a-87821ed8933b","system_id":"levelo_inurba_marseille","lat":43.2951,"lon":5.37519,"is_reserved":false,"is_disabled":false,"rental_uris":{"android":"levelo://app?vid=1842cb1e-c9d1-4468-ab6a-87821ed8933b","ios":"levelo://app?vid=1842cb1e-c9d1-4468-ab6a-87821ed8933b"},"vehicle_type_id":"4","last_reported":1777572148,"current_range_meters":8000,"station_id":"ce4bgkp2rcd13ifvqbmg","pricing_plan_id":"cebpf4jnsgd1na2vs0mg"},{"bike_id":"bd381285-9688-4b86-bb58-500e4f0f2544","system_id":"levelo_inurba_marseille","lat":43.23302,"lon":5.3996,"is_reserved":false,"is_disabled":false,"rental_uris":{"android":"levelo://app?vid=bd381285-9688-4b86-bb58-500e4f0f2544","ios":"levelo://app?vid=bd381285-9688-4b86-bb58-500e4f0f2544"},"vehicle_type_id":"4","last_reported":1777572148,"current_range_meters":8000,"station_id":"","pricing_plan_id":"cebpf4jnsgd1na2vs0mg"},{"bike_id":"948b0467-201f-470a-90cf-4288eee7c9c6","system_id":"levelo_inurba_marseille","lat":43.2438,"lon":5.37066,"is_reserved":false,"is_disabled":false,"rental_uris":{"android":"levelo://app?vid=948b0467-201f-470a-90cf-4288eee7c9c6","ios":"levelo://app?vid=948b0467-201f-470a-90cf-4288eee7c9c6"},"vehicle_type_id":"4","last_reported":1777572148,"current_range_meters":8000,"station_id":"ce4bhhh2rcd13ifvqfk0","pricing_plan_id":"cebpf4jnsgd1na2vs0mg"},{"bike_id":"b2b5924c-ae57-4d04-8872-ff1b2babdda2","system_id":"levelo_inurba_marseille","lat":43.29791,"lon":5.38067,"is_reserved":false,"is_disabled":false,"rental_uris":{"android":"levelo://app?vid=b2b5924c-ae57-4d04-8872-ff1b2babdda2","ios":"levelo://app?vid=b2b5924c-ae57-4d04-8872-ff1b2babdda2"},"vehicle_type_id":"4","last_reported":1777572148,"current_range_meters":8000,"station_id":"ce4bgip2rcd13ifvqbb0","pricing_plan_id":"cebpf4jnsgd1na2vs0mg"},{"bike_id":"e07ee536-99fd-4be2-bd6b-8b881ebe2126","system_id":"levelo_inurba_marseille","lat":43.27947,"lon":5.41048,"is_reserved":false,"is_disabled":false,"rental_uris":{"android":"levelo://app?vid=e07ee536-99fd-4be2-bd6b-8b881ebe2126","ios":"levelo://app?vid=e07ee536-99fd-4be2-bd6b-8b881ebe2126"},"vehicle_type_id":"4","last_reported":1777572148,"current_range_meters":8000,"station_id":"ce4bhnp2rcd13ifvqh0g","pricing_plan_id":"cebpf4jnsgd1na2vs0mg"},{"bike_id":"1848cbaf-ea3a-4e6c-a148-534cf22d8bff","system_id":"levelo_inurba_marseille","lat":43.298491,"lon":5.362954,"is_reserved":false,"is_disabled":false,"rental_uris":{"android":"levelo://app?vid=1848cbaf-ea3a-4e6c-a148-534cf22d8bff","ios":"levelo://app?vid=1848cbaf-ea3a-4e6c-a148-534cf22d8bff"},"vehicle_type_id":"4","last_reported":1777572148,"current_range_meters":8000,"station_id":"ce4bgpp2rcd13ifvqc3g","pricing_plan_id":"cebpf4jnsgd1na2vs0mg"},{"bike_id":"79ae65ea-eb1d-49f2-b168-b7f1f753b15d","system_id":"levelo_inurba_marseille","lat":43.28473,"lon":5.3856,"is_reserved":false,"is_disabled":false,"rental_uris":{"android":"levelo://app?vid=79ae65ea-eb1d-49f2-b168-b7f1f753b15d","ios":"levelo://app?vid=79ae65ea-eb1d-49f2-b168-b7f1f753b15d"},"vehicle_type_id":"4","last_reported":1777572148,"current_range_meters":8000,"station_id":"ce4bh8p2rcd13ifvqeb0","pricing_plan_id":"cebpf4jnsgd1na2vs0mg"},{"bike_id":"51961052-46c2-4fad-8f48-c684bccb56a1","system_id":"levelo_inurba_marseille","lat":43.30955,"lon":5.3903,"is_reserved":false,"is_disabled":false,"rental_uris":{"android":"levelo://app?vid=51961052-46c2-4fad-8f48-c684bccb56a1","ios":"levelo://app?vid=51961052-46c2-4fad-8f48-c684bccb56a1"},"vehicle_type_id":"4","last_reported":1777572148,"current_range_meters":8400,"station_id":"ce4bgup2rcd13ifvqco0","pricing_plan_id":"cebpf4jnsgd1na2vs0mg"},{"bike_id":"4b3bab27-4771-4615-b487-f46af4c63c33","system_id":"levelo_inurba_marseille","lat":43.30313,"lon":5.40442,"is_reserved":false,"is_disabled":false,"rental_uris":{"android":"levelo://app?vid=4b3bab27-4771-4615-b487-f46af4c63c33","ios":"levelo://app?vid=4b3bab27-4771-4615-b487-f46af4c63c33"},"vehicle_type_id":"4","last_reported":1777572148,"current_range_meters":8400,"station_id":"ce4bh012rcd13ifvqd10","pricing_plan_id":"cebpf4jnsgd1na2vs0mg"},{"bike_id":"354f2656-ca51-4301-84c3-02c148a321d8","system_id":"levelo_inurba_marseille","lat":43.28934,"lon":5.36636,"is_reserved":false,"is_disabled":false,"rental_uris":{"android":"levelo://app?vid=354f2656-ca51-4301-84c3-02c148a321d8","ios":"levelo://app?vid=354f2656-ca51-4301-84c3-02c148a321d8"},"vehicle_type_id":"4","last_reported":1777572148,"current_range_meters":8400,"station_id":"ce4bhap2rcd13ifvqek0","pricing_plan_id":"cebpf4jnsgd1na2vs0mg"},{"bike_id":"46611baa-2233-47d3-a307-4123f065b079","system_id":"levelo_inurba_marseille","lat":43.28479,"lon":5.48404,"is_reserved":false,"is_disabled":false,"rental_uris":{"android":"levelo://app?vid=46611baa-2233-47d3-a307-4123f065b079","ios":"levelo://app?vid=46611baa-2233-47d3-a307-4123f065b079"},"vehicle_type_id":"4","last_reported":1777572148,"current_range_meters":8400,"station_id":"","pricing_plan_id":"cebpf4jnsgd1na2vs0mg"},{"bike_id":"c88704e4-99fa-499e-bc0e-fd0b6ba88c8f","system_id":"levelo_inurba_marseille","lat":43.29527,"lon":5.38541,"is_reserved":false,"is_disabled":false,"rental_uris":{"android":"levelo://app?vid=c88704e4-99fa-499e-bc0e-fd0b6ba88c8f","ios":"levelo://app?vid=c88704e4-99fa-499e-bc0e-fd0b6ba88c8f"},"vehicle_type_id":"4","last_reported":1777572148,"current_range_meters":8400,"station_id":"ce4bgih2rcd13ifvqba0","pricing_plan_id":"cebpf4jnsgd1na2vs0mg"},{"bike_id":"b883c4f4-0ccc-499d-b49d-b5b2d6b66517","system_id":"levelo_inurba_marseille","lat":43.28407,"lon":5.37509,"is_reserved":false,"is_disabled":false,"rental_uris":{"android":"levelo://app?vid=b883c4f4-0ccc-499d-b49d-b5b2d6b66517","ios":"levelo://app?vid=b883c4f4-0ccc-499d-b49d-b5b2d6b66517"},"vehicle_type_id":"4","last_reported":1777572148,"current_range_meters":8400,"station_id":"ce4bh412rcd13ifvqds0","pricing_plan_id":"cebpf4jnsgd1na2vs0mg"},{"bike_id":"627aab7c-ea5f-4639-bf6b-b877977fa5ca","system_id":"levelo_inurba_marseille","lat":43.24175,"lon":5.36399,"is_reserved":false,"is_disabled":false,"rental_uris":{"android":"levelo://app?vid=627aab7c-ea5f-4639-bf6b-b877977fa5ca","ios":"levelo://app?vid=627aab7c-ea5f-4639-bf6b-b877977fa5ca"},"vehicle_type_id":"4","last_reported":1777572148,"current_range_meters":8400,"station_id":"cpo36qri1sfpv3e86is0","pricing_plan_id":"cebpf4jnsgd1na2vs0mg"},{"bike_id":"e018f895-5771-4f44-b64f-db1b733c0c56","system_id":"levelo_inurba_marseille","lat":43.23738,"lon":5.43079,"is_reserved":false,"is_disabled":false,"rental_uris":{"android":"levelo://app?vid=e018f895-5771-4f44-b64f-db1b733c0c56","ios":"levelo://app?vid=e018f895-5771-4f44-b64f-db1b733c0c56"},"vehicle_type_id":"4","last_reported":1777572148,"current_range_meters":8400,"station_id":"","pricing_plan_id":"cebpf4jnsgd1na2vs0mg"},{"bike_id":"4699b1a7-2bea-48db-b1bf-cf34e93a2709","system_id":"levelo_inurba_marseille","lat":43.27835,"lon":5.40759,"is_reserved":false,"is_disabled":false,"rental_uris":{"android":"levelo://app?vid=4699b1a7-2bea-48db-b1bf-cf34e93a2709","ios":"levelo://app?vid=4699b1a7-2bea-48db-b1bf-cf34e93a2709"},"vehicle_type_id":"4","last_reported":1777572148,"current_range_meters":8400,"station_id":"ce4bhnh2rcd13ifvqgtg","pricing_plan_id":"cebpf4jnsgd1na2vs0mg"},{"bike_id":"41caa364-25fc-475f-9c53-97a6cb892a35","system_id":"levelo_inurba_marseille","lat":43.29971,"lon":5.38498,"is_reserved":false,"is_disabled":true,"rental_uris":{"android":"levelo://app?vid=41caa364-25fc-475f-9c53-97a6cb892a35","ios":"levelo://app?vid=41caa364-25fc-475f-9c53-97a6cb892a35"},"vehicle_type_id":"4","last_reported":1777572148,"current_range_meters":8400,"station_id":"ce4bgj92rcd13ifvqbd0","pricing_plan_id":"cebpf4jnsgd1na2vs0mg"},{"bike_id":"b45c2db5-63f6-4e46-9e83-4ebd6db061c1","system_id":"levelo_inurba_marseille","lat":43.29431,"lon":5.39739,"is_reserved":false,"is_disabled":false,"rental_uris":{"android":"levelo://app?vid=b45c2db5-63f6-4e46-9e83-4ebd6db061c1","ios":"levelo://app?vid=b45c2db5-63f6-4e46-9e83-4ebd6db061c1"},"vehicle_type_id":"4","last_reported":1777572148,"current_range_meters":8400,"station_id":"ce4bh3h2rcd13ifvqdo0","pricing_plan_id":"cebpf4jnsgd1na2vs0mg"},{"bike_id":"c7217e04-22e1-453c-a8e6-b3e617503565","system_id":"levelo_inurba_marseille","lat":43.30911,"lon":5.41622,"is_reserved":false,"is_disabled":false,"rental_uris":{"android":"levelo://app?vid=c7217e04-22e1-453c-a8e6-b3e617503565","ios":"levelo://app?vid=c7217e04-22e1-453c-a8e6-b3e617503565"},"vehicle_type_id":"4","last_reported":1777572148,"current_range_meters":8400,"station_id":"","pricing_plan_id":"cebpf4jnsgd1na2vs0mg"},{"bike_id":"b189f71a-272d-46c8-bace-772a06a7d2c4","system_id":"levelo_inurba_marseille","lat":43.265538,"lon":5.403414,"is_reserved":false,"is_disabled":false,"rental_uris":{"android":"levelo://app?vid=b189f71a-272d-46c8-bace-772a06a7d2c4","ios":"levelo://app?vid=b189f71a-272d-46c8-bace-772a06a7d2c4"},"vehicle_type_id":"4","last_reported":1777572148,"current_range_meters":8400,"station_id":"ce4bhmp2rcd13ifvqgng","pricing_plan_id":"cebpf4jnsgd1na2vs0mg"},{"bike_id":"d5555d2c-756d-4594-84c9-7a47e33dbe78","system_id":"levelo_inurba_marseille","lat":43.2762,"lon":5.36105,"is_reserved":false,"is_disabled":false,"rental_uris":{"android":"levelo://app?vid=d5555d2c-756d-4594-84c9-7a47e33dbe78","ios":"levelo://app?vid=d5555d2c-756d-4594-84c9-7a47e33dbe78"},"vehicle_type_id":"4","last_reported":1777572148,"current_range_meters":8400,"station_id":"ce4bgj92rcd13ifvqbe0","pricing_plan_id":"cebpf4jnsgd1na2vs0mg"},{"bike_id":"42cf4239-0087-491d-ad83-1bd4e28c5c8f","system_id":"levelo_inurba_marseille","lat":43.29532,"lon":5.38542,"is_reserved":false,"is_disabled":false,"rental_uris":{"android":"levelo://app?vid=42cf4239-0087-491d-ad83-1bd4e28c5c8f","ios":"levelo://app?vid=42cf4239-0087-491d-ad83-1bd4e28c5c8f"},"vehicle_type_id":"4","last_reported":1777572148,"current_range_meters":8400,"station_id":"ce4bgih2rcd13ifvqba0","pricing_plan_id":"cebpf4jnsgd1na2vs0mg"},{"bike_id":"b90c1d01-6a44-4d47-adc9-f51f5ae2109b","system_id":"levelo_inurba_marseille","lat":43.22556,"lon":5.41624,"is_reserved":false,"is_disabled":false,"rental_uris":{"android":"levelo://app?vid=b90c1d01-6a44-4d47-adc9-f51f5ae2109b","ios":"levelo://app?vid=b90c1d01-6a44-4d47-adc9-f51f5ae2109b"},"vehicle_type_id":"4","last_reported":1777572148,"current_range_meters":8400,"station_id":"st_d2o4gvlbi1j2169b742g","pricing_plan_id":"cebpf4jnsgd1na2vs0mg"},{"bike_id":"f89c3ea2-cf18-42ee-8d5d-55002b495006","system_id":"levelo_inurba_marseille","lat":43.30885,"lon":5.39662,"is_reserved":false,"is_disabled":false,"rental_uris":{"android":"levelo://app?vid=f89c3ea2-cf18-42ee-8d5d-55002b495006","ios":"levelo://app?vid=f89c3ea2-cf18-42ee-8d5d-55002b495006"},"vehicle_type_id":"4","last_reported":1777572148,"current_range_meters":8400,"station_id":"ce4bh012rcd13ifvqcv0","pricing_plan_id":"cebpf4jnsgd1na2vs0mg"},{"bike_id":"4d26e890-9e5c-410e-98e4-5bf91a618030","system_id":"levelo_inurba_marseille","lat":43.25573,"lon":5.38236,"is_reserved":false,"is_disabled":false,"rental_uris":{"android":"levelo://app?vid=4d26e890-9e5c-410e-98e4-5bf91a618030","ios":"levelo://app?vid=4d26e890-9e5c-410e-98e4-5bf91a618030"},"vehicle_type_id":"4","last_reported":1777572148,"current_range_meters":8800,"station_id":"ce4bhih2rcd13ifvqfs0","pricing_plan_id":"cebpf4jnsgd1na2vs0mg"},{"bike_id":"1161f69b-9569-4f58-82e5-77f9d582e6f4","system_id":"levelo_inurba_marseille","lat":43.26234,"lon":5.40454,"is_reserved":false,"is_disabled":false,"rental_uris":{"android":"levelo://app?vid=1161f69b-9569-4f58-82e5-77f9d582e6f4","ios":"levelo://app?vid=1161f69b-9569-4f58-82e5-77f9d582e6f4"},"vehicle_type_id":"4","last_reported":1777572148,"current_range_meters":8800,"station_id":"ce4bhmh2rcd13ifvqgmg","pricing_plan_id":"cebpf4jnsgd1na2vs0mg"},{"bike_id":"1dc803a7-ca06-4b19-a122-1835a508b670","system_id":"levelo_inurba_marseille","lat":43.24168,"lon":5.36391,"is_reserved":false,"is_disabled":false,"rental_uris":{"android":"levelo://app?vid=1dc803a7-ca06-4b19-a122-1835a508b670","ios":"levelo://app?vid=1dc803a7-ca06-4b19-a122-1835a508b670"},"vehicle_type_id":"4","last_reported":1777572148,"current_range_meters":8800,"station_id":"cpo36qri1sfpv3e86is0","pricing_plan_id":"cebpf4jnsgd1na2vs0mg"},{"bike_id":"662d3ade-7838-42e9-9b62-a1e5749bd144","system_id":"levelo_inurba_marseille","lat":43.28721,"lon":5.46667,"is_reserved":false,"is_disabled":false,"rental_uris":{"android":"levelo://app?vid=662d3ade-7838-42e9-9b62-a1e5749bd144","ios":"levelo://app?vid=662d3ade-7838-42e9-9b62-a1e5749bd144"},"vehicle_type_id":"4","last_reported":1777572148,"current_range_meters":8800,"station_id":"st_d6tc3vkotcvc738tfjhg","pricing_plan_id":"cebpf4jnsgd1na2vs0mg"},{"bike_id":"e3d0e9d9-cbeb-4e7b-aa61-dfc4941f4180","system_id":"levelo_inurba_marseille","lat":43.32118,"lon":5.36785,"is_reserved":false,"is_disabled":false,"rental_uris":{"android":"levelo://app?vid=e3d0e9d9-cbeb-4e7b-aa61-dfc4941f4180","ios":"levelo://app?vid=e3d0e9d9-cbeb-4e7b-aa61-dfc4941f4180"},"vehicle_type_id":"4","last_reported":1777572148,"current_range_meters":8800,"station_id":"ce4bhrh2rcd13ifvqhug","pricing_plan_id":"cebpf4jnsgd1na2vs0mg"},{"bike_id":"55c062cb-7615-4a33-8fe1-e52517cd6d1e","system_id":"levelo_inurba_marseille","lat":43.30931,"lon":5.37141,"is_reserved":false,"is_disabled":false,"rental_uris":{"android":"levelo://app?vid=55c062cb-7615-4a33-8fe1-e52517cd6d1e","ios":"levelo://app?vid=55c062cb-7615-4a33-8fe1-e52517cd6d1e"},"vehicle_type_id":"4","last_reported":1777572148,"current_range_meters":8800,"station_id":"ce4bguh2rcd13ifvqckg","pricing_plan_id":"cebpf4jnsgd1na2vs0mg"},{"bike_id":"5719672b-6e96-43f1-891e-407b602a15ad","system_id":"levelo_inurba_marseille","lat":43.30919,"lon":5.40148,"is_reserved":false,"is_disabled":false,"rental_uris":{"android":"levelo://app?vid=5719672b-6e96-43f1-891e-407b602a15ad","ios":"levelo://app?vid=5719672b-6e96-43f1-891e-407b602a15ad"},"vehicle_type_id":"4","last_reported":1777572148,"current_range_meters":8800,"station_id":"ce4bgvp2rcd13ifvqct0","pricing_plan_id":"cebpf4jnsgd1na2vs0mg"},{"bike_id":"18c9cc6a-eca3-4bd3-bbef-1289207e575c","system_id":"levelo_inurba_marseille","lat":43.29045,"lon":5.35897,"is_reserved":false,"is_disabled":false,"rental_uris":{"android":"levelo://app?vid=18c9cc6a-eca3-4bd3-bbef-1289207e575c","ios":"levelo://app?vid=18c9cc6a-eca3-4bd3-bbef-1289207e575c"},"vehicle_type_id":"4","last_reported":1777572148,"current_range_meters":8800,"station_id":"ce4bha92rcd13ifvqeg0","pricing_plan_id":"cebpf4jnsgd1na2vs0mg"},{"bike_id":"a5e387fa-49b5-4a17-a925-09d5f690af8f","system_id":"levelo_inurba_marseille","lat":43.32099,"lon":5.36791,"is_reserved":false,"is_disabled":false,"rental_uris":{"android":"levelo://app?vid=a5e387fa-49b5-4a17-a925-09d5f690af8f","ios":"levelo://app?vid=a5e387fa-49b5-4a17-a925-09d5f690af8f"},"vehicle_type_id":"4","last_reported":1777572148,"current_range_meters":8800,"station_id":"ce4bhrh2rcd13ifvqhug","pricing_plan_id":"cebpf4jnsgd1na2vs0mg"},{"bike_id":"c7969dbe-1082-4f6f-bca8-de46a1b07950","system_id":"levelo_inurba_marseille","lat":43.31326,"lon":5.36763,"is_reserved":false,"is_disabled":false,"rental_uris":{"android":"levelo://app?vid=c7969dbe-1082-4f6f-bca8-de46a1b07950","ios":"levelo://app?vid=c7969dbe-1082-4f6f-bca8-de46a1b07950"},"vehicle_type_id":"4","last_reported":1777572148,"current_range_meters":8800,"station_id":"ce4bgr92rcd13ifvqc6g","pricing_plan_id":"cebpf4jnsgd1na2vs0mg"},{"bike_id":"743fad6f-981f-4f96-96fb-6687216d4fe4","system_id":"levelo_inurba_marseille","lat":43.28617,"lon":5.35118,"is_reserved":false,"is_disabled":false,"rental_uris":{"android":"levelo://app?vid=743fad6f-981f-4f96-96fb-6687216d4fe4","ios":"levelo://app?vid=743fad6f-981f-4f96-96fb-6687216d4fe4"},"vehicle_type_id":"4","last_reported":1777572148,"current_range_meters":8800,"station_id":"ce4bhch2rcd13ifvqeug","pricing_plan_id":"cebpf4jnsgd1na2vs0mg"},{"bike_id":"23b4ee1c-d1dd-4f28-8980-c20ec17d324b","system_id":"levelo_inurba_marseille","lat":43.2952,"lon":5.38546,"is_reserved":false,"is_disabled":false,"rental_uris":{"android":"levelo://app?vid=23b4ee1c-d1dd-4f28-8980-c20ec17d324b","ios":"levelo://app?vid=23b4ee1c-d1dd-4f28-8980-c20ec17d324b"},"vehicle_type_id":"4","last_reported":1777572148,"current_range_meters":8800,"station_id":"ce4bgih2rcd13ifvqba0","pricing_plan_id":"cebpf4jnsgd1na2vs0mg"},{"bike_id":"6c33eaec-7524-4765-a3b4-3421cf14e6ae","system_id":"levelo_inurba_marseille","lat":43.28472,"lon":5.48397,"is_reserved":false,"is_disabled":false,"rental_uris":{"android":"levelo://app?vid=6c33eaec-7524-4765-a3b4-3421cf14e6ae","ios":"levelo://app?vid=6c33eaec-7524-4765-a3b4-3421cf14e6ae"},"vehicle_type_id":"4","last_reported":1777572148,"current_range_meters":8800,"station_id":"","pricing_plan_id":"cebpf4jnsgd1na2vs0mg"},{"bike_id":"a895155c-23ca-46f8-8e14-6144d82a1a45","system_id":"levelo_inurba_marseille","lat":43.254944,"lon":5.376497,"is_reserved":false,"is_disabled":false,"rental_uris":{"android":"levelo://app?vid=a895155c-23ca-46f8-8e14-6144d82a1a45","ios":"levelo://app?vid=a895155c-23ca-46f8-8e14-6144d82a1a45"},"vehicle_type_id":"4","last_reported":1777572148,"current_range_meters":8800,"station_id":"ce4bhh12rcd13ifvqff0","pricing_plan_id":"cebpf4jnsgd1na2vs0mg"},{"bike_id":"5af2fecc-1c6d-4478-a1fb-7470a739ce4f","system_id":"levelo_inurba_marseille","lat":43.2807,"lon":5.3966,"is_reserved":false,"is_disabled":false,"rental_uris":{"android":"levelo://app?vid=5af2fecc-1c6d-4478-a1fb-7470a739ce4f","ios":"levelo://app?vid=5af2fecc-1c6d-4478-a1fb-7470a739ce4f"},"vehicle_type_id":"4","last_reported":1777572148,"current_range_meters":8800,"station_id":"ce4bho12rcd13ifvqh2g","pricing_plan_id":"cebpf4jnsgd1na2vs0mg"},{"bike_id":"452e26a1-dff9-4fb7-9791-ef4548b29c85","system_id":"levelo_inurba_marseille","lat":43.2925,"lon":5.38441,"is_reserved":false,"is_disabled":false,"rental_uris":{"android":"levelo://app?vid=452e26a1-dff9-4fb7-9791-ef4548b29c85","ios":"levelo://app?vid=452e26a1-dff9-4fb7-9791-ef4548b29c85"},"vehicle_type_id":"4","last_reported":1777572148,"current_range_meters":8800,"station_id":"ce4bh692rcd13ifvqea0","pricing_plan_id":"cebpf4jnsgd1na2vs0mg"},{"bike_id":"d193cfeb-a038-436f-91b9-4221c91e3d89","system_id":"levelo_inurba_marseille","lat":43.2749,"lon":5.41581,"is_reserved":false,"is_disabled":true,"rental_uris":{"android":"levelo://app?vid=d193cfeb-a038-436f-91b9-4221c91e3d89","ios":"levelo://app?vid=d193cfeb-a038-436f-91b9-4221c91e3d89"},"vehicle_type_id":"4","last_reported":1777572148,"current_range_meters":8800,"station_id":"st_d6im8g6chgec73a5pndg","pricing_plan_id":"cebpf4jnsgd1na2vs0mg"},{"bike_id":"0114097f-635c-4b35-a17e-1cca641282e0","system_id":"levelo_inurba_marseille","lat":43.23194,"lon":5.35553,"is_reserved":false,"is_disabled":false,"rental_uris":{"android":"levelo://app?vid=0114097f-635c-4b35-a17e-1cca641282e0","ios":"levelo://app?vid=0114097f-635c-4b35-a17e-1cca641282e0"},"vehicle_type_id":"4","last_reported":1777572148,"current_range_meters":8800,"station_id":"ce4bhu92rcd13ifvqi70","pricing_plan_id":"cebpf4jnsgd1na2vs0mg"},{"bike_id":"cfbf3059-fd7e-4626-bbb7-f76607be3dd8","system_id":"levelo_inurba_marseille","lat":43.30543,"lon":5.36709,"is_reserved":false,"is_disabled":true,"rental_uris":{"android":"levelo://app?vid=cfbf3059-fd7e-4626-bbb7-f76607be3dd8","ios":"levelo://app?vid=cfbf3059-fd7e-4626-bbb7-f76607be3dd8"},"vehicle_type_id":"4","last_reported":1777572148,"current_range_meters":8800,"station_id":"ce4bgrp2rcd13ifvqc9g","pricing_plan_id":"cebpf4jnsgd1na2vs0mg"},{"bike_id":"9af80983-7303-4488-a030-6e14bff4a386","system_id":"levelo_inurba_marseille","lat":43.27556,"lon":5.38418,"is_reserved":false,"is_disabled":false,"rental_uris":{"android":"levelo://app?vid=9af80983-7303-4488-a030-6e14bff4a386","ios":"levelo://app?vid=9af80983-7303-4488-a030-6e14bff4a386"},"vehicle_type_id":"4","last_reported":1777572148,"current_range_meters":8800,"station_id":"ce4bhh92rcd13ifvqfi0","pricing_plan_id":"cebpf4jnsgd1na2vs0mg"},{"bike_id":"fdfe4582-d4e9-435b-a504-60aa6d6ba3e2","system_id":"levelo_inurba_marseille","lat":43.27367,"lon":5.36261,"is_reserved":false,"is_disabled":false,"rental_uris":{"android":"levelo://app?vid=fdfe4582-d4e9-435b-a504-60aa6d6ba3e2","ios":"levelo://app?vid=fdfe4582-d4e9-435b-a504-60aa6d6ba3e2"},"vehicle_type_id":"4","last_reported":1777572148,"current_range_meters":8800,"station_id":"ce4bhbh2rcd13ifvqeo0","pricing_plan_id":"cebpf4jnsgd1na2vs0mg"},{"bike_id":"7d7cb943-c3b3-4aa6-8e39-6eb37a53f658","system_id":"levelo_inurba_marseille","lat":43.2923,"lon":5.38454,"is_reserved":false,"is_disabled":false,"rental_uris":{"android":"levelo://app?vid=7d7cb943-c3b3-4aa6-8e39-6eb37a53f658","ios":"levelo://app?vid=7d7cb943-c3b3-4aa6-8e39-6eb37a53f658"},"vehicle_type_id":"4","last_reported":1777572148,"current_range_meters":8800,"station_id":"ce4bh692rcd13ifvqea0","pricing_plan_id":"cebpf4jnsgd1na2vs0mg"},{"bike_id":"3d3a599f-f0bd-4bea-9d63-bc97e2770ebc","system_id":"levelo_inurba_marseille","lat":43.29529,"lon":5.38541,"is_reserved":false,"is_disabled":false,"rental_uris":{"android":"levelo://app?vid=3d3a599f-f0bd-4bea-9d63-bc97e2770ebc","ios":"levelo://app?vid=3d3a599f-f0bd-4bea-9d63-bc97e2770ebc"},"vehicle_type_id":"4","last_reported":1777572148,"current_range_meters":8800,"station_id":"ce4bgih2rcd13ifvqba0","pricing_plan_id":"cebpf4jnsgd1na2vs0mg"},{"bike_id":"aa064241-5111-4924-9b17-2d62aac04f99","system_id":"levelo_inurba_marseille","lat":43.29528,"lon":5.38544,"is_reserved":false,"is_disabled":false,"rental_uris":{"android":"levelo://app?vid=aa064241-5111-4924-9b17-2d62aac04f99","ios":"levelo://app?vid=aa064241-5111-4924-9b17-2d62aac04f99"},"vehicle_type_id":"4","last_reported":1777572148,"current_range_meters":8800,"station_id":"ce4bgih2rcd13ifvqba0","pricing_plan_id":"cebpf4jnsgd1na2vs0mg"},{"bike_id":"cf756aed-771f-48de-b6e4-695766cf71a3","system_id":"levelo_inurba_marseille","lat":43.30961,"lon":5.39701,"is_reserved":false,"is_disabled":false,"rental_uris":{"android":"levelo://app?vid=cf756aed-771f-48de-b6e4-695766cf71a3","ios":"levelo://app?vid=cf756aed-771f-48de-b6e4-695766cf71a3"},"vehicle_type_id":"4","last_reported":1777572148,"current_range_meters":8800,"station_id":"","pricing_plan_id":"cebpf4jnsgd1na2vs0mg"},{"bike_id":"777b5b2a-7d7d-4308-8581-4b69e8a2d556","system_id":"levelo_inurba_marseille","lat":43.32334,"lon":5.36763,"is_reserved":false,"is_disabled":false,"rental_uris":{"android":"levelo://app?vid=777b5b2a-7d7d-4308-8581-4b69e8a2d556","ios":"levelo://app?vid=777b5b2a-7d7d-4308-8581-4b69e8a2d556"},"vehicle_type_id":"4","last_reported":1777572148,"current_range_meters":9200,"station_id":"ce4bhsh2rcd13ifvqi2g","pricing_plan_id":"cebpf4jnsgd1na2vs0mg"},{"bike_id":"99b56566-90b7-4789-9971-cb596eb3d5b6","system_id":"levelo_inurba_marseille","lat":43.30581,"lon":5.39355,"is_reserved":false,"is_disabled":false,"rental_uris":{"android":"levelo://app?vid=99b56566-90b7-4789-9971-cb596eb3d5b6","ios":"levelo://app?vid=99b56566-90b7-4789-9971-cb596eb3d5b6"},"vehicle_type_id":"4","last_reported":1777572148,"current_range_meters":9200,"station_id":"ce4bh0p2rcd13ifvqd80","pricing_plan_id":"cebpf4jnsgd1na2vs0mg"},{"bike_id":"3ae19c8d-7993-4bce-8a56-bc8493cb10a6","system_id":"levelo_inurba_marseille","lat":43.22558,"lon":5.41625,"is_reserved":false,"is_disabled":false,"rental_uris":{"android":"levelo://app?vid=3ae19c8d-7993-4bce-8a56-bc8493cb10a6","ios":"levelo://app?vid=3ae19c8d-7993-4bce-8a56-bc8493cb10a6"},"vehicle_type_id":"4","last_reported":1777572148,"current_range_meters":9200,"station_id":"st_d2o4gvlbi1j2169b742g","pricing_plan_id":"cebpf4jnsgd1na2vs0mg"},{"bike_id":"f9b52c2e-eac8-43b2-acc5-5fc3d2981121","system_id":"levelo_inurba_marseille","lat":43.29569,"lon":5.37505,"is_reserved":false,"is_disabled":false,"rental_uris":{"android":"levelo://app?vid=f9b52c2e-eac8-43b2-acc5-5fc3d2981121","ios":"levelo://app?vid=f9b52c2e-eac8-43b2-acc5-5fc3d2981121"},"vehicle_type_id":"4","last_reported":1777572148,"current_range_meters":9200,"station_id":"ce4bgh92rcd13ifvqb50","pricing_plan_id":"cebpf4jnsgd1na2vs0mg"},{"bike_id":"5c0b4ab8-c719-47ab-8162-ad676d444fc7","system_id":"levelo_inurba_marseille","lat":43.24945,"lon":5.40489,"is_reserved":false,"is_disabled":false,"rental_uris":{"android":"levelo://app?vid=5c0b4ab8-c719-47ab-8162-ad676d444fc7","ios":"levelo://app?vid=5c0b4ab8-c719-47ab-8162-ad676d444fc7"},"vehicle_type_id":"4","last_reported":1777572148,"current_range_meters":9200,"station_id":"st_d2ngiaodas8pm72gd1h0","pricing_plan_id":"cebpf4jnsgd1na2vs0mg"},{"bike_id":"3e37a766-0224-460c-ab40-46eb5e15117f","system_id":"levelo_inurba_marseille","lat":43.25609,"lon":5.38065,"is_reserved":false,"is_disabled":false,"rental_uris":{"android":"levelo://app?vid=3e37a766-0224-460c-ab40-46eb5e15117f","ios":"levelo://app?vid=3e37a766-0224-460c-ab40-46eb5e15117f"},"vehicle_type_id":"4","last_reported":1777572148,"current_range_meters":9200,"station_id":"","pricing_plan_id":"cebpf4jnsgd1na2vs0mg"},{"bike_id":"50706fb1-98c0-4b8e-9a6f-b85dfd20f727","system_id":"levelo_inurba_marseille","lat":43.31881,"lon":5.40734,"is_reserved":false,"is_disabled":false,"rental_uris":{"android":"levelo://app?vid=50706fb1-98c0-4b8e-9a6f-b85dfd20f727","ios":"levelo://app?vid=50706fb1-98c0-4b8e-9a6f-b85dfd20f727"},"vehicle_type_id":"4","last_reported":1777572148,"current_range_meters":9200,"station_id":"ce4bhq12rcd13ifvqhig","pricing_plan_id":"cebpf4jnsgd1na2vs0mg"},{"bike_id":"18559b63-7d98-4de4-babb-0c0ae1cb0c2e","system_id":"levelo_inurba_marseille","lat":43.2979,"lon":5.38084,"is_reserved":false,"is_disabled":false,"rental_uris":{"android":"levelo://app?vid=18559b63-7d98-4de4-babb-0c0ae1cb0c2e","ios":"levelo://app?vid=18559b63-7d98-4de4-babb-0c0ae1cb0c2e"},"vehicle_type_id":"4","last_reported":1777572148,"current_range_meters":9200,"station_id":"ce4bgip2rcd13ifvqbb0","pricing_plan_id":"cebpf4jnsgd1na2vs0mg"},{"bike_id":"73b4ac51-6d12-43bc-b829-a81e0a897ec1","system_id":"levelo_inurba_marseille","lat":43.28837,"lon":5.39242,"is_reserved":false,"is_disabled":false,"rental_uris":{"android":"levelo://app?vid=73b4ac51-6d12-43bc-b829-a81e0a897ec1","ios":"levelo://app?vid=73b4ac51-6d12-43bc-b829-a81e0a897ec1"},"vehicle_type_id":"4","last_reported":1777572148,"current_range_meters":9200,"station_id":"","pricing_plan_id":"cebpf4jnsgd1na2vs0mg"},{"bike_id":"24eabd38-01f1-49e3-9b96-d24bb03f2e53","system_id":"levelo_inurba_marseille","lat":43.24858,"lon":5.37412,"is_reserved":false,"is_disabled":false,"rental_uris":{"android":"levelo://app?vid=24eabd38-01f1-49e3-9b96-d24bb03f2e53","ios":"levelo://app?vid=24eabd38-01f1-49e3-9b96-d24bb03f2e53"},"vehicle_type_id":"4","last_reported":1777572148,"current_range_meters":9200,"station_id":"","pricing_plan_id":"cebpf4jnsgd1na2vs0mg"},{"bike_id":"3bab5da5-8f04-429e-a8cc-b94afa4e8e70","system_id":"levelo_inurba_marseille","lat":43.22568,"lon":5.41581,"is_reserved":false,"is_disabled":false,"rental_uris":{"android":"levelo://app?vid=3bab5da5-8f04-429e-a8cc-b94afa4e8e70","ios":"levelo://app?vid=3bab5da5-8f04-429e-a8cc-b94afa4e8e70"},"vehicle_type_id":"4","last_reported":1777572148,"current_range_meters":9200,"station_id":"st_d2o4gvlbi1j2169b742g","pricing_plan_id":"cebpf4jnsgd1na2vs0mg"},{"bike_id":"63cf4435-6895-46c9-96b0-447e33f9e9f9","system_id":"levelo_inurba_marseille","lat":43.31707,"lon":5.3776,"is_reserved":false,"is_disabled":false,"rental_uris":{"android":"levelo://app?vid=63cf4435-6895-46c9-96b0-447e33f9e9f9","ios":"levelo://app?vid=63cf4435-6895-46c9-96b0-447e33f9e9f9"},"vehicle_type_id":"4","last_reported":1777572148,"current_range_meters":9200,"station_id":"ce4bgth2rcd13ifvqch0","pricing_plan_id":"cebpf4jnsgd1na2vs0mg"},{"bike_id":"3cb78b49-e4b8-4131-b542-0c3011372242","system_id":"levelo_inurba_marseille","lat":43.26536,"lon":5.39048,"is_reserved":false,"is_disabled":false,"rental_uris":{"android":"levelo://app?vid=3cb78b49-e4b8-4131-b542-0c3011372242","ios":"levelo://app?vid=3cb78b49-e4b8-4131-b542-0c3011372242"},"vehicle_type_id":"4","last_reported":1777572148,"current_range_meters":9200,"station_id":"ce4bhe12rcd13ifvqf30","pricing_plan_id":"cebpf4jnsgd1na2vs0mg"},{"bike_id":"13a82a3c-1cf5-4f48-afe0-f025ffac6554","system_id":"levelo_inurba_marseille","lat":43.24387,"lon":5.37051,"is_reserved":false,"is_disabled":false,"rental_uris":{"android":"levelo://app?vid=13a82a3c-1cf5-4f48-afe0-f025ffac6554","ios":"levelo://app?vid=13a82a3c-1cf5-4f48-afe0-f025ffac6554"},"vehicle_type_id":"4","last_reported":1777572148,"current_range_meters":9200,"station_id":"ce4bhhh2rcd13ifvqfk0","pricing_plan_id":"cebpf4jnsgd1na2vs0mg"},{"bike_id":"97e4a574-6430-44c9-a72d-519157e16f57","system_id":"levelo_inurba_marseille","lat":43.29523,"lon":5.38546,"is_reserved":false,"is_disabled":false,"rental_uris":{"android":"levelo://app?vid=97e4a574-6430-44c9-a72d-519157e16f57","ios":"levelo://app?vid=97e4a574-6430-44c9-a72d-519157e16f57"},"vehicle_type_id":"4","last_reported":1777572148,"current_range_meters":9200,"station_id":"ce4bgih2rcd13ifvqba0","pricing_plan_id":"cebpf4jnsgd1na2vs0mg"},{"bike_id":"33b102e2-ff43-4e99-aab2-02b1a48ed212","system_id":"levelo_inurba_marseille","lat":43.24999,"lon":5.38945,"is_reserved":false,"is_disabled":false,"rental_uris":{"android":"levelo://app?vid=33b102e2-ff43-4e99-aab2-02b1a48ed212","ios":"levelo://app?vid=33b102e2-ff43-4e99-aab2-02b1a48ed212"},"vehicle_type_id":"4","last_reported":1777572148,"current_range_meters":9200,"station_id":"ce4bhgp2rcd13ifvqfd0","pricing_plan_id":"cebpf4jnsgd1na2vs0mg"},{"bike_id":"dac3437d-d4f7-491f-b722-b2d3815517d7","system_id":"levelo_inurba_marseille","lat":43.29589,"lon":5.38107,"is_reserved":false,"is_disabled":false,"rental_uris":{"android":"levelo://app?vid=dac3437d-d4f7-491f-b722-b2d3815517d7","ios":"levelo://app?vid=dac3437d-d4f7-491f-b722-b2d3815517d7"},"vehicle_type_id":"4","last_reported":1777572148,"current_range_meters":9200,"station_id":"ce4bgl12rcd13ifvqbo0","pricing_plan_id":"cebpf4jnsgd1na2vs0mg"},{"bike_id":"1ec68436-888d-4e71-a2c5-9132dfa26f6b","system_id":"levelo_inurba_marseille","lat":43.29268,"lon":5.36838,"is_reserved":false,"is_disabled":false,"rental_uris":{"android":"levelo://app?vid=1ec68436-888d-4e71-a2c5-9132dfa26f6b","ios":"levelo://app?vid=1ec68436-888d-4e71-a2c5-9132dfa26f6b"},"vehicle_type_id":"4","last_reported":1777572148,"current_range_meters":9200,"station_id":"ce4bhbp2rcd13ifvqesg","pricing_plan_id":"cebpf4jnsgd1na2vs0mg"},{"bike_id":"e992959d-a856-4103-b127-9b597b91a45a","system_id":"levelo_inurba_marseille","lat":43.24478,"lon":5.42535,"is_reserved":false,"is_disabled":false,"rental_uris":{"android":"levelo://app?vid=e992959d-a856-4103-b127-9b597b91a45a","ios":"levelo://app?vid=e992959d-a856-4103-b127-9b597b91a45a"},"vehicle_type_id":"4","last_reported":1777572148,"current_range_meters":9200,"station_id":"st_d4a3vfp97mjs738cd8kg","pricing_plan_id":"cebpf4jnsgd1na2vs0mg"},{"bike_id":"5917f89c-6639-4302-b633-631d26a8870a","system_id":"levelo_inurba_marseille","lat":43.29592,"lon":5.38101,"is_reserved":false,"is_disabled":false,"rental_uris":{"android":"levelo://app?vid=5917f89c-6639-4302-b633-631d26a8870a","ios":"levelo://app?vid=5917f89c-6639-4302-b633-631d26a8870a"},"vehicle_type_id":"4","last_reported":1777572148,"current_range_meters":9200,"station_id":"ce4bgl12rcd13ifvqbo0","pricing_plan_id":"cebpf4jnsgd1na2vs0mg"},{"bike_id":"423ab3b0-348f-4934-a61e-0af0a38bab68","system_id":"levelo_inurba_marseille","lat":43.30819,"lon":5.38146,"is_reserved":false,"is_disabled":false,"rental_uris":{"android":"levelo://app?vid=423ab3b0-348f-4934-a61e-0af0a38bab68","ios":"levelo://app?vid=423ab3b0-348f-4934-a61e-0af0a38bab68"},"vehicle_type_id":"4","last_reported":1777572148,"current_range_meters":9200,"station_id":"ce4bgt12rcd13ifvqce0","pricing_plan_id":"cebpf4jnsgd1na2vs0mg"},{"bike_id":"db7994d5-2ac7-4db1-9146-4c39ed1478c1","system_id":"levelo_inurba_marseille","lat":43.29592,"lon":5.38113,"is_reserved":false,"is_disabled":false,"rental_uris":{"android":"levelo://app?vid=db7994d5-2ac7-4db1-9146-4c39ed1478c1","ios":"levelo://app?vid=db7994d5-2ac7-4db1-9146-4c39ed1478c1"},"vehicle_type_id":"4","last_reported":1777572148,"current_range_meters":9200,"station_id":"ce4bgl12rcd13ifvqbo0","pricing_plan_id":"cebpf4jnsgd1na2vs0mg"},{"bike_id":"692aeef0-606e-488d-a3cd-5d5c17e82333","system_id":"levelo_inurba_marseille","lat":43.28254,"lon":5.37241,"is_reserved":false,"is_disabled":false,"rental_uris":{"android":"levelo://app?vid=692aeef0-606e-488d-a3cd-5d5c17e82333","ios":"levelo://app?vid=692aeef0-606e-488d-a3cd-5d5c17e82333"},"vehicle_type_id":"4","last_reported":1777572148,"current_range_meters":9200,"station_id":"","pricing_plan_id":"cebpf4jnsgd1na2vs0mg"},{"bike_id":"25fa13e7-b97a-46d1-b04f-40fe7efcbcbf","system_id":"levelo_inurba_marseille","lat":43.29168,"lon":5.39335,"is_reserved":false,"is_disabled":false,"rental_uris":{"android":"levelo://app?vid=25fa13e7-b97a-46d1-b04f-40fe7efcbcbf","ios":"levelo://app?vid=25fa13e7-b97a-46d1-b04f-40fe7efcbcbf"},"vehicle_type_id":"4","last_reported":1777572148,"current_range_meters":9200,"station_id":"ce4bh192rcd13ifvqdd0","pricing_plan_id":"cebpf4jnsgd1na2vs0mg"},{"bike_id":"80606ad2-4ad4-440d-8a66-11c0ead016e3","system_id":"levelo_inurba_marseille","lat":43.29595,"lon":5.37704,"is_reserved":false,"is_disabled":true,"rental_uris":{"android":"levelo://app?vid=80606ad2-4ad4-440d-8a66-11c0ead016e3","ios":"levelo://app?vid=80606ad2-4ad4-440d-8a66-11c0ead016e3"},"vehicle_type_id":"4","last_reported":1777572148,"current_range_meters":9200,"station_id":"ce4bgi92rcd13ifvqb90","pricing_plan_id":"cebpf4jnsgd1na2vs0mg"},{"bike_id":"12db932e-a058-4af8-b0da-d76c0831a431","system_id":"levelo_inurba_marseille","lat":43.31285,"lon":5.36716,"is_reserved":false,"is_disabled":false,"rental_uris":{"android":"levelo://app?vid=12db932e-a058-4af8-b0da-d76c0831a431","ios":"levelo://app?vid=12db932e-a058-4af8-b0da-d76c0831a431"},"vehicle_type_id":"4","last_reported":1777572148,"current_range_meters":9200,"station_id":"","pricing_plan_id":"cebpf4jnsgd1na2vs0mg"},{"bike_id":"b523adde-c1af-44da-98e3-23f5e04a208c","system_id":"levelo_inurba_marseille","lat":43.32088,"lon":5.36795,"is_reserved":false,"is_disabled":false,"rental_uris":{"android":"levelo://app?vid=b523adde-c1af-44da-98e3-23f5e04a208c","ios":"levelo://app?vid=b523adde-c1af-44da-98e3-23f5e04a208c"},"vehicle_type_id":"4","last_reported":1777572148,"current_range_meters":9200,"station_id":"ce4bhrh2rcd13ifvqhug","pricing_plan_id":"cebpf4jnsgd1na2vs0mg"},{"bike_id":"a844376f-c1df-4fda-85d7-08848a70bf3c","system_id":"levelo_inurba_marseille","lat":43.33523,"lon":5.37463,"is_reserved":false,"is_disabled":false,"rental_uris":{"android":"levelo://app?vid=a844376f-c1df-4fda-85d7-08848a70bf3c","ios":"levelo://app?vid=a844376f-c1df-4fda-85d7-08848a70bf3c"},"vehicle_type_id":"4","last_reported":1777572148,"current_range_meters":9200,"station_id":"st_d46tts09ee8s73dlu43g","pricing_plan_id":"cebpf4jnsgd1na2vs0mg"},{"bike_id":"f91881d4-bc58-459c-960b-960cce52dc8e","system_id":"levelo_inurba_marseille","lat":43.26068,"lon":5.39389,"is_reserved":false,"is_disabled":false,"rental_uris":{"android":"levelo://app?vid=f91881d4-bc58-459c-960b-960cce52dc8e","ios":"levelo://app?vid=f91881d4-bc58-459c-960b-960cce52dc8e"},"vehicle_type_id":"4","last_reported":1777572148,"current_range_meters":9200,"station_id":"ce4bhh92rcd13ifvqfj0","pricing_plan_id":"cebpf4jnsgd1na2vs0mg"},{"bike_id":"b06b5173-e69b-4f09-88a1-b916dea66339","system_id":"levelo_inurba_marseille","lat":43.25583,"lon":5.382338,"is_reserved":false,"is_disabled":false,"rental_uris":{"android":"levelo://app?vid=b06b5173-e69b-4f09-88a1-b916dea66339","ios":"levelo://app?vid=b06b5173-e69b-4f09-88a1-b916dea66339"},"vehicle_type_id":"4","last_reported":1777572148,"current_range_meters":9200,"station_id":"ce4bhih2rcd13ifvqfs0","pricing_plan_id":"cebpf4jnsgd1na2vs0mg"},{"bike_id":"9810c688-dd4d-4380-adc9-9557450d055b","system_id":"levelo_inurba_marseille","lat":43.28482,"lon":5.4839,"is_reserved":false,"is_disabled":false,"rental_uris":{"android":"levelo://app?vid=9810c688-dd4d-4380-adc9-9557450d055b","ios":"levelo://app?vid=9810c688-dd4d-4380-adc9-9557450d055b"},"vehicle_type_id":"4","last_reported":1777572148,"current_range_meters":9200,"station_id":"st_d3svhcjqgbts73a3dn0g","pricing_plan_id":"cebpf4jnsgd1na2vs0mg"},{"bike_id":"e6c8a65e-5ae3-419a-be6f-e51d08baa253","system_id":"levelo_inurba_marseille","lat":43.2954,"lon":5.38551,"is_reserved":false,"is_disabled":false,"rental_uris":{"android":"levelo://app?vid=e6c8a65e-5ae3-419a-be6f-e51d08baa253","ios":"levelo://app?vid=e6c8a65e-5ae3-419a-be6f-e51d08baa253"},"vehicle_type_id":"4","last_reported":1777572148,"current_range_meters":9200,"station_id":"ce4bgih2rcd13ifvqba0","pricing_plan_id":"cebpf4jnsgd1na2vs0mg"},{"bike_id":"57181307-1446-4e96-965a-4ef0d610d0ea","system_id":"levelo_inurba_marseille","lat":43.28105,"lon":5.37855,"is_reserved":false,"is_disabled":false,"rental_uris":{"android":"levelo://app?vid=57181307-1446-4e96-965a-4ef0d610d0ea","ios":"levelo://app?vid=57181307-1446-4e96-965a-4ef0d610d0ea"},