{"last_updated":1774002468,"ttl":60,"version":"2.2","data":{"bikes":[{"bike_id":"7f2076e4-240a-489d-b666-85437b5b5c8b","system_id":"levelo_inurba_marseille","lat":43.23779,"lon":5.3663,"is_reserved":false,"is_disabled":false,"rental_uris":{"android":"levelo://app?vid=7f2076e4-240a-489d-b666-85437b5b5c8b","ios":"levelo://app?vid=7f2076e4-240a-489d-b666-85437b5b5c8b"},"vehicle_type_id":"4","last_reported":1774002469,"current_range_meters":2800,"station_id":"st_d3nk18o9ro0c73en2l3g","pricing_plan_id":"cebpf4jnsgd1na2vs0mg"},{"bike_id":"147432ee-2cec-4d26-b432-daa8336fb772","system_id":"levelo_inurba_marseille","lat":43.29066,"lon":5.37162,"is_reserved":false,"is_disabled":false,"rental_uris":{"android":"levelo://app?vid=147432ee-2cec-4d26-b432-daa8336fb772","ios":"levelo://app?vid=147432ee-2cec-4d26-b432-daa8336fb772"},"vehicle_type_id":"4","last_reported":1774002469,"current_range_meters":2800,"station_id":"ce4bh5p2rcd13ifvqe4g","pricing_plan_id":"cebpf4jnsgd1na2vs0mg"},{"bike_id":"719e9861-af82-4022-a2ea-bd7d6f00ff5f","system_id":"levelo_inurba_marseille","lat":43.28741,"lon":5.42516,"is_reserved":false,"is_disabled":true,"rental_uris":{"android":"levelo://app?vid=719e9861-af82-4022-a2ea-bd7d6f00ff5f","ios":"levelo://app?vid=719e9861-af82-4022-a2ea-bd7d6f00ff5f"},"vehicle_type_id":"4","last_reported":1774002469,"current_range_meters":2800,"station_id":"","pricing_plan_id":"cebpf4jnsgd1na2vs0mg"},{"bike_id":"cbc8599d-0f53-4276-b29f-85b323d36cb9","system_id":"levelo_inurba_marseille","lat":43.2548,"lon":5.37646,"is_reserved":false,"is_disabled":false,"rental_uris":{"android":"levelo://app?vid=cbc8599d-0f53-4276-b29f-85b323d36cb9","ios":"levelo://app?vid=cbc8599d-0f53-4276-b29f-85b323d36cb9"},"vehicle_type_id":"4","last_reported":1774002469,"current_range_meters":2800,"station_id":"ce4bhh12rcd13ifvqff0","pricing_plan_id":"cebpf4jnsgd1na2vs0mg"},{"bike_id":"82cf9b6c-bb16-4e3c-9fb4-e331ebf59e36","system_id":"levelo_inurba_marseille","lat":43.24398,"lon":5.37065,"is_reserved":false,"is_disabled":false,"rental_uris":{"android":"levelo://app?vid=82cf9b6c-bb16-4e3c-9fb4-e331ebf59e36","ios":"levelo://app?vid=82cf9b6c-bb16-4e3c-9fb4-e331ebf59e36"},"vehicle_type_id":"4","last_reported":1774002469,"current_range_meters":2800,"station_id":"ce4bhhh2rcd13ifvqfk0","pricing_plan_id":"cebpf4jnsgd1na2vs0mg"},{"bike_id":"3fd8ef50-88b4-42ca-93ad-316de6f9e9bc","system_id":"levelo_inurba_marseille","lat":43.28161,"lon":5.42619,"is_reserved":false,"is_disabled":false,"rental_uris":{"android":"levelo://app?vid=3fd8ef50-88b4-42ca-93ad-316de6f9e9bc","ios":"levelo://app?vid=3fd8ef50-88b4-42ca-93ad-316de6f9e9bc"},"vehicle_type_id":"4","last_reported":1774002469,"current_range_meters":2800,"station_id":"ce4bhnh2rcd13ifvqgug","pricing_plan_id":"cebpf4jnsgd1na2vs0mg"},{"bike_id":"52b04e3f-565e-43b7-b40b-0bec55f769b5","system_id":"levelo_inurba_marseille","lat":43.3016,"lon":5.38083,"is_reserved":false,"is_disabled":false,"rental_uris":{"android":"levelo://app?vid=52b04e3f-565e-43b7-b40b-0bec55f769b5","ios":"levelo://app?vid=52b04e3f-565e-43b7-b40b-0bec55f769b5"},"vehicle_type_id":"4","last_reported":1774002469,"current_range_meters":2800,"station_id":"ce4bgjp2rcd13ifvqbh0","pricing_plan_id":"cebpf4jnsgd1na2vs0mg"},{"bike_id":"caf5e45c-f3f2-43eb-99a6-b11ec33451e8","system_id":"levelo_inurba_marseille","lat":43.23977,"lon":5.36612,"is_reserved":false,"is_disabled":false,"rental_uris":{"android":"levelo://app?vid=caf5e45c-f3f2-43eb-99a6-b11ec33451e8","ios":"levelo://app?vid=caf5e45c-f3f2-43eb-99a6-b11ec33451e8"},"vehicle_type_id":"4","last_reported":1774002469,"current_range_meters":2800,"station_id":"ce4bhi12rcd13ifvqfp0","pricing_plan_id":"cebpf4jnsgd1na2vs0mg"},{"bike_id":"acb3feac-d311-4175-82ed-f856df7ee5aa","system_id":"levelo_inurba_marseille","lat":43.29271,"lon":5.36845,"is_reserved":false,"is_disabled":false,"rental_uris":{"android":"levelo://app?vid=acb3feac-d311-4175-82ed-f856df7ee5aa","ios":"levelo://app?vid=acb3feac-d311-4175-82ed-f856df7ee5aa"},"vehicle_type_id":"4","last_reported":1774002469,"current_range_meters":2800,"station_id":"ce4bhbp2rcd13ifvqesg","pricing_plan_id":"cebpf4jnsgd1na2vs0mg"},{"bike_id":"f3ed1967-899f-4443-abb4-e9abf1154776","system_id":"levelo_inurba_marseille","lat":43.24074,"lon":5.37738,"is_reserved":false,"is_disabled":false,"rental_uris":{"android":"levelo://app?vid=f3ed1967-899f-4443-abb4-e9abf1154776","ios":"levelo://app?vid=f3ed1967-899f-4443-abb4-e9abf1154776"},"vehicle_type_id":"4","last_reported":1774002469,"current_range_meters":2800,"station_id":"ce4bhnp2rcd13ifvqgvg","pricing_plan_id":"cebpf4jnsgd1na2vs0mg"},{"bike_id":"ae914744-2b6b-4cc1-9451-ab672e7d8aab","system_id":"levelo_inurba_marseille","lat":43.24171,"lon":5.3973,"is_reserved":false,"is_disabled":false,"rental_uris":{"android":"levelo://app?vid=ae914744-2b6b-4cc1-9451-ab672e7d8aab","ios":"levelo://app?vid=ae914744-2b6b-4cc1-9451-ab672e7d8aab"},"vehicle_type_id":"4","last_reported":1774002469,"current_range_meters":2800,"station_id":"ce4bhn12rcd13ifvqgpg","pricing_plan_id":"cebpf4jnsgd1na2vs0mg"},{"bike_id":"73e44213-1cd8-4593-a09e-a9c4a914a5d2","system_id":"levelo_inurba_marseille","lat":43.2848,"lon":5.48396,"is_reserved":false,"is_disabled":false,"rental_uris":{"android":"levelo://app?vid=73e44213-1cd8-4593-a09e-a9c4a914a5d2","ios":"levelo://app?vid=73e44213-1cd8-4593-a09e-a9c4a914a5d2"},"vehicle_type_id":"4","last_reported":1774002469,"current_range_meters":2800,"station_id":"st_d3svhcjqgbts73a3dn0g","pricing_plan_id":"cebpf4jnsgd1na2vs0mg"},{"bike_id":"52c87666-6ad4-4b76-8cf7-ec1c417216ff","system_id":"levelo_inurba_marseille","lat":43.28938,"lon":5.39629,"is_reserved":false,"is_disabled":false,"rental_uris":{"android":"levelo://app?vid=52c87666-6ad4-4b76-8cf7-ec1c417216ff","ios":"levelo://app?vid=52c87666-6ad4-4b76-8cf7-ec1c417216ff"},"vehicle_type_id":"4","last_reported":1774002469,"current_range_meters":2800,"station_id":"ce4bh3h2rcd13ifvqdn0","pricing_plan_id":"cebpf4jnsgd1na2vs0mg"},{"bike_id":"eb0625c3-56ca-4a76-98e8-d1417125d291","system_id":"levelo_inurba_marseille","lat":43.30932,"lon":5.36817,"is_reserved":false,"is_disabled":false,"rental_uris":{"android":"levelo://app?vid=eb0625c3-56ca-4a76-98e8-d1417125d291","ios":"levelo://app?vid=eb0625c3-56ca-4a76-98e8-d1417125d291"},"vehicle_type_id":"4","last_reported":1774002469,"current_range_meters":2800,"station_id":"ce4bgn92rcd13ifvqbvg","pricing_plan_id":"cebpf4jnsgd1na2vs0mg"},{"bike_id":"37b975f8-1f84-4e4b-92cd-3bedcf69760d","system_id":"levelo_inurba_marseille","lat":43.30456,"lon":5.37919,"is_reserved":false,"is_disabled":false,"rental_uris":{"android":"levelo://app?vid=37b975f8-1f84-4e4b-92cd-3bedcf69760d","ios":"levelo://app?vid=37b975f8-1f84-4e4b-92cd-3bedcf69760d"},"vehicle_type_id":"4","last_reported":1774002469,"current_range_meters":2800,"station_id":"","pricing_plan_id":"cebpf4jnsgd1na2vs0mg"},{"bike_id":"75707260-728c-4931-8387-7bb087758c91","system_id":"levelo_inurba_marseille","lat":43.26365,"lon":5.41077,"is_reserved":false,"is_disabled":false,"rental_uris":{"android":"levelo://app?vid=75707260-728c-4931-8387-7bb087758c91","ios":"levelo://app?vid=75707260-728c-4931-8387-7bb087758c91"},"vehicle_type_id":"4","last_reported":1774002469,"current_range_meters":3200,"station_id":"st_d4e5ca6na9uc73bfl5fg","pricing_plan_id":"cebpf4jnsgd1na2vs0mg"},{"bike_id":"f8002e32-7d40-48f8-99b3-a631b985eba5","system_id":"levelo_inurba_marseille","lat":43.337566,"lon":5.374557,"is_reserved":false,"is_disabled":false,"rental_uris":{"android":"levelo://app?vid=f8002e32-7d40-48f8-99b3-a631b985eba5","ios":"levelo://app?vid=f8002e32-7d40-48f8-99b3-a631b985eba5"},"vehicle_type_id":"4","last_reported":1774002469,"current_range_meters":3200,"station_id":"","pricing_plan_id":"cebpf4jnsgd1na2vs0mg"},{"bike_id":"bd60a6ec-18d4-4476-ab1b-f354043c4b72","system_id":"levelo_inurba_marseille","lat":43.2979,"lon":5.4259,"is_reserved":false,"is_disabled":false,"rental_uris":{"android":"levelo://app?vid=bd60a6ec-18d4-4476-ab1b-f354043c4b72","ios":"levelo://app?vid=bd60a6ec-18d4-4476-ab1b-f354043c4b72"},"vehicle_type_id":"4","last_reported":1774002469,"current_range_meters":3200,"station_id":"","pricing_plan_id":"cebpf4jnsgd1na2vs0mg"},{"bike_id":"8c29270d-5d11-446e-a3f0-f5c56ae9c816","system_id":"levelo_inurba_marseille","lat":43.27574,"lon":5.43274,"is_reserved":false,"is_disabled":false,"rental_uris":{"android":"levelo://app?vid=8c29270d-5d11-446e-a3f0-f5c56ae9c816","ios":"levelo://app?vid=8c29270d-5d11-446e-a3f0-f5c56ae9c816"},"vehicle_type_id":"4","last_reported":1774002469,"current_range_meters":3200,"station_id":"","pricing_plan_id":"cebpf4jnsgd1na2vs0mg"},{"bike_id":"653417a1-4b3e-4d39-9c57-a85e662a0357","system_id":"levelo_inurba_marseille","lat":43.32183,"lon":5.36679,"is_reserved":false,"is_disabled":false,"rental_uris":{"android":"levelo://app?vid=653417a1-4b3e-4d39-9c57-a85e662a0357","ios":"levelo://app?vid=653417a1-4b3e-4d39-9c57-a85e662a0357"},"vehicle_type_id":"4","last_reported":1774002469,"current_range_meters":3200,"station_id":"","pricing_plan_id":"cebpf4jnsgd1na2vs0mg"},{"bike_id":"7c5dbeca-b7a2-43ed-bbc1-2c55d0db34e8","system_id":"levelo_inurba_marseille","lat":43.30436,"lon":5.38892,"is_reserved":false,"is_disabled":false,"rental_uris":{"android":"levelo://app?vid=7c5dbeca-b7a2-43ed-bbc1-2c55d0db34e8","ios":"levelo://app?vid=7c5dbeca-b7a2-43ed-bbc1-2c55d0db34e8"},"vehicle_type_id":"4","last_reported":1774002469,"current_range_meters":3200,"station_id":"ce4bgk12rcd13ifvqbi0","pricing_plan_id":"cebpf4jnsgd1na2vs0mg"},{"bike_id":"e1fcda96-10f8-4416-a2de-b3c0381d6f12","system_id":"levelo_inurba_marseille","lat":43.2737,"lon":5.36246,"is_reserved":false,"is_disabled":true,"rental_uris":{"android":"levelo://app?vid=e1fcda96-10f8-4416-a2de-b3c0381d6f12","ios":"levelo://app?vid=e1fcda96-10f8-4416-a2de-b3c0381d6f12"},"vehicle_type_id":"4","last_reported":1774002469,"current_range_meters":3200,"station_id":"ce4bhbh2rcd13ifvqeo0","pricing_plan_id":"cebpf4jnsgd1na2vs0mg"},{"bike_id":"3cdb9282-92ea-46a0-a841-f2dd988ecc68","system_id":"levelo_inurba_marseille","lat":43.22956,"lon":5.35364,"is_reserved":false,"is_disabled":false,"rental_uris":{"android":"levelo://app?vid=3cdb9282-92ea-46a0-a841-f2dd988ecc68","ios":"levelo://app?vid=3cdb9282-92ea-46a0-a841-f2dd988ecc68"},"vehicle_type_id":"4","last_reported":1774002469,"current_range_meters":3200,"station_id":"cpo3532slgdg3j2ikp40","pricing_plan_id":"cebpf4jnsgd1na2vs0mg"},{"bike_id":"a0ae2982-85c4-4de7-b9eb-5ab3919346ff","system_id":"levelo_inurba_marseille","lat":43.2319,"lon":5.39984,"is_reserved":false,"is_disabled":false,"rental_uris":{"android":"levelo://app?vid=a0ae2982-85c4-4de7-b9eb-5ab3919346ff","ios":"levelo://app?vid=a0ae2982-85c4-4de7-b9eb-5ab3919346ff"},"vehicle_type_id":"4","last_reported":1774002469,"current_range_meters":3600,"station_id":"ce4bhn12rcd13ifvqgqg","pricing_plan_id":"cebpf4jnsgd1na2vs0mg"},{"bike_id":"24dc1ce5-2db6-421b-869a-69d6f082b300","system_id":"levelo_inurba_marseille","lat":43.29799,"lon":5.36156,"is_reserved":false,"is_disabled":false,"rental_uris":{"android":"levelo://app?vid=24dc1ce5-2db6-421b-869a-69d6f082b300","ios":"levelo://app?vid=24dc1ce5-2db6-421b-869a-69d6f082b300"},"vehicle_type_id":"4","last_reported":1774002469,"current_range_meters":3600,"station_id":"","pricing_plan_id":"cebpf4jnsgd1na2vs0mg"},{"bike_id":"5df3eb6f-dd6f-44dc-8f01-656ea95f9b9f","system_id":"levelo_inurba_marseille","lat":43.28954,"lon":5.36411,"is_reserved":false,"is_disabled":false,"rental_uris":{"android":"levelo://app?vid=5df3eb6f-dd6f-44dc-8f01-656ea95f9b9f","ios":"levelo://app?vid=5df3eb6f-dd6f-44dc-8f01-656ea95f9b9f"},"vehicle_type_id":"4","last_reported":1774002469,"current_range_meters":3600,"station_id":"ce4bhc92rcd13ifvqetg","pricing_plan_id":"cebpf4jnsgd1na2vs0mg"},{"bike_id":"c77bedd8-9eb8-4528-8da1-2c9030c3fb0d","system_id":"levelo_inurba_marseille","lat":43.29799,"lon":5.38101,"is_reserved":false,"is_disabled":false,"rental_uris":{"android":"levelo://app?vid=c77bedd8-9eb8-4528-8da1-2c9030c3fb0d","ios":"levelo://app?vid=c77bedd8-9eb8-4528-8da1-2c9030c3fb0d"},"vehicle_type_id":"4","last_reported":1774002469,"current_range_meters":3600,"station_id":"ce4bgip2rcd13ifvqbb0","pricing_plan_id":"cebpf4jnsgd1na2vs0mg"},{"bike_id":"a2858752-113b-4571-b0d9-f5de0d1f5974","system_id":"levelo_inurba_marseille","lat":43.2439,"lon":5.37054,"is_reserved":false,"is_disabled":false,"rental_uris":{"android":"levelo://app?vid=a2858752-113b-4571-b0d9-f5de0d1f5974","ios":"levelo://app?vid=a2858752-113b-4571-b0d9-f5de0d1f5974"},"vehicle_type_id":"4","last_reported":1774002469,"current_range_meters":3600,"station_id":"ce4bhhh2rcd13ifvqfk0","pricing_plan_id":"cebpf4jnsgd1na2vs0mg"},{"bike_id":"87a216de-014a-44cf-aa03-ec77d4a126ac","system_id":"levelo_inurba_marseille","lat":43.29814,"lon":5.38085,"is_reserved":false,"is_disabled":false,"rental_uris":{"android":"levelo://app?vid=87a216de-014a-44cf-aa03-ec77d4a126ac","ios":"levelo://app?vid=87a216de-014a-44cf-aa03-ec77d4a126ac"},"vehicle_type_id":"4","last_reported":1774002469,"current_range_meters":3600,"station_id":"ce4bgip2rcd13ifvqbb0","pricing_plan_id":"cebpf4jnsgd1na2vs0mg"},{"bike_id":"19962afb-c05d-40c2-b180-66056af81508","system_id":"levelo_inurba_marseille","lat":43.23175,"lon":5.43707,"is_reserved":false,"is_disabled":false,"rental_uris":{"android":"levelo://app?vid=19962afb-c05d-40c2-b180-66056af81508","ios":"levelo://app?vid=19962afb-c05d-40c2-b180-66056af81508"},"vehicle_type_id":"4","last_reported":1774002469,"current_range_meters":3600,"station_id":"ce4bhmp2rcd13ifvqgog","pricing_plan_id":"cebpf4jnsgd1na2vs0mg"},{"bike_id":"cf21a704-d1d6-45ac-b508-b7d48f023c9f","system_id":"levelo_inurba_marseille","lat":43.32105,"lon":5.36772,"is_reserved":false,"is_disabled":false,"rental_uris":{"android":"levelo://app?vid=cf21a704-d1d6-45ac-b508-b7d48f023c9f","ios":"levelo://app?vid=cf21a704-d1d6-45ac-b508-b7d48f023c9f"},"vehicle_type_id":"4","last_reported":1774002469,"current_range_meters":4000,"station_id":"ce4bhrh2rcd13ifvqhug","pricing_plan_id":"cebpf4jnsgd1na2vs0mg"},{"bike_id":"78beea6e-fd38-45c1-919e-297e7a3c4aab","system_id":"levelo_inurba_marseille","lat":43.28602,"lon":5.37066,"is_reserved":false,"is_disabled":false,"rental_uris":{"android":"levelo://app?vid=78beea6e-fd38-45c1-919e-297e7a3c4aab","ios":"levelo://app?vid=78beea6e-fd38-45c1-919e-297e7a3c4aab"},"vehicle_type_id":"4","last_reported":1774002469,"current_range_meters":4000,"station_id":"ce4bht12rcd13ifvqi60","pricing_plan_id":"cebpf4jnsgd1na2vs0mg"},{"bike_id":"dd10efc5-28b9-436a-be78-8011941e89fc","system_id":"levelo_inurba_marseille","lat":43.28499,"lon":5.48409,"is_reserved":false,"is_disabled":false,"rental_uris":{"android":"levelo://app?vid=dd10efc5-28b9-436a-be78-8011941e89fc","ios":"levelo://app?vid=dd10efc5-28b9-436a-be78-8011941e89fc"},"vehicle_type_id":"4","last_reported":1774002469,"current_range_meters":4000,"station_id":"","pricing_plan_id":"cebpf4jnsgd1na2vs0mg"},{"bike_id":"a7589a93-7e92-46e3-9adb-33c382fc7b2d","system_id":"levelo_inurba_marseille","lat":43.23949,"lon":5.36662,"is_reserved":false,"is_disabled":false,"rental_uris":{"android":"levelo://app?vid=a7589a93-7e92-46e3-9adb-33c382fc7b2d","ios":"levelo://app?vid=a7589a93-7e92-46e3-9adb-33c382fc7b2d"},"vehicle_type_id":"4","last_reported":1774002469,"current_range_meters":4000,"station_id":"ce4bhi12rcd13ifvqfp0","pricing_plan_id":"cebpf4jnsgd1na2vs0mg"},{"bike_id":"299e519b-3b2c-4aa3-9af1-362f343fe8f8","system_id":"levelo_inurba_marseille","lat":43.23781,"lon":5.36624,"is_reserved":false,"is_disabled":false,"rental_uris":{"android":"levelo://app?vid=299e519b-3b2c-4aa3-9af1-362f343fe8f8","ios":"levelo://app?vid=299e519b-3b2c-4aa3-9af1-362f343fe8f8"},"vehicle_type_id":"4","last_reported":1774002469,"current_range_meters":4000,"station_id":"st_d3nk18o9ro0c73en2l3g","pricing_plan_id":"cebpf4jnsgd1na2vs0mg"},{"bike_id":"13243d3c-36f1-423c-9b1a-5632aef121d8","system_id":"levelo_inurba_marseille","lat":43.337444,"lon":5.374475,"is_reserved":false,"is_disabled":false,"rental_uris":{"android":"levelo://app?vid=13243d3c-36f1-423c-9b1a-5632aef121d8","ios":"levelo://app?vid=13243d3c-36f1-423c-9b1a-5632aef121d8"},"vehicle_type_id":"4","last_reported":1774002469,"current_range_meters":4000,"station_id":"","pricing_plan_id":"cebpf4jnsgd1na2vs0mg"},{"bike_id":"5ab2600a-040b-4995-bfc6-9e44799ea303","system_id":"levelo_inurba_marseille","lat":43.30965,"lon":5.39033,"is_reserved":false,"is_disabled":false,"rental_uris":{"android":"levelo://app?vid=5ab2600a-040b-4995-bfc6-9e44799ea303","ios":"levelo://app?vid=5ab2600a-040b-4995-bfc6-9e44799ea303"},"vehicle_type_id":"4","last_reported":1774002469,"current_range_meters":4000,"station_id":"ce4bgup2rcd13ifvqco0","pricing_plan_id":"cebpf4jnsgd1na2vs0mg"},{"bike_id":"bcd31f41-82f7-4519-81ac-6d4a88020210","system_id":"levelo_inurba_marseille","lat":43.28086,"lon":5.39646,"is_reserved":false,"is_disabled":false,"rental_uris":{"android":"levelo://app?vid=bcd31f41-82f7-4519-81ac-6d4a88020210","ios":"levelo://app?vid=bcd31f41-82f7-4519-81ac-6d4a88020210"},"vehicle_type_id":"4","last_reported":1774002469,"current_range_meters":4000,"station_id":"ce4bho12rcd13ifvqh2g","pricing_plan_id":"cebpf4jnsgd1na2vs0mg"},{"bike_id":"3f9fb310-6fac-4137-b487-279ff0e33710","system_id":"levelo_inurba_marseille","lat":43.26034,"lon":5.37549,"is_reserved":false,"is_disabled":false,"rental_uris":{"android":"levelo://app?vid=3f9fb310-6fac-4137-b487-279ff0e33710","ios":"levelo://app?vid=3f9fb310-6fac-4137-b487-279ff0e33710"},"vehicle_type_id":"4","last_reported":1774002469,"current_range_meters":4400,"station_id":"ce4bhgh2rcd13ifvqfa0","pricing_plan_id":"cebpf4jnsgd1na2vs0mg"},{"bike_id":"24e02049-7d35-48ad-9eee-757709960f87","system_id":"levelo_inurba_marseille","lat":43.26036,"lon":5.37564,"is_reserved":false,"is_disabled":false,"rental_uris":{"android":"levelo://app?vid=24e02049-7d35-48ad-9eee-757709960f87","ios":"levelo://app?vid=24e02049-7d35-48ad-9eee-757709960f87"},"vehicle_type_id":"4","last_reported":1774002469,"current_range_meters":4400,"station_id":"ce4bhgh2rcd13ifvqfa0","pricing_plan_id":"cebpf4jnsgd1na2vs0mg"},{"bike_id":"8d5674df-ab48-4722-bf79-c4299042c0a4","system_id":"levelo_inurba_marseille","lat":43.29306,"lon":5.37215,"is_reserved":false,"is_disabled":false,"rental_uris":{"android":"levelo://app?vid=8d5674df-ab48-4722-bf79-c4299042c0a4","ios":"levelo://app?vid=8d5674df-ab48-4722-bf79-c4299042c0a4"},"vehicle_type_id":"4","last_reported":1774002469,"current_range_meters":4400,"station_id":"ce4bgh92rcd13ifvqb40","pricing_plan_id":"cebpf4jnsgd1na2vs0mg"},{"bike_id":"d5f7f0bf-c4f5-45e1-bf7d-f4959ca7505e","system_id":"levelo_inurba_marseille","lat":43.24401,"lon":5.37067,"is_reserved":false,"is_disabled":false,"rental_uris":{"android":"levelo://app?vid=d5f7f0bf-c4f5-45e1-bf7d-f4959ca7505e","ios":"levelo://app?vid=d5f7f0bf-c4f5-45e1-bf7d-f4959ca7505e"},"vehicle_type_id":"4","last_reported":1774002469,"current_range_meters":4400,"station_id":"ce4bhhh2rcd13ifvqfk0","pricing_plan_id":"cebpf4jnsgd1na2vs0mg"},{"bike_id":"21588457-c3a6-4b76-bff5-54611492464f","system_id":"levelo_inurba_marseille","lat":43.28265,"lon":5.35066,"is_reserved":false,"is_disabled":false,"rental_uris":{"android":"levelo://app?vid=21588457-c3a6-4b76-bff5-54611492464f","ios":"levelo://app?vid=21588457-c3a6-4b76-bff5-54611492464f"},"vehicle_type_id":"4","last_reported":1774002469,"current_range_meters":4400,"station_id":"ce4bhbp2rcd13ifvqerg","pricing_plan_id":"cebpf4jnsgd1na2vs0mg"},{"bike_id":"d835e231-57f3-4579-8c11-f14bf6e98c11","system_id":"levelo_inurba_marseille","lat":43.24073,"lon":5.3776,"is_reserved":false,"is_disabled":false,"rental_uris":{"android":"levelo://app?vid=d835e231-57f3-4579-8c11-f14bf6e98c11","ios":"levelo://app?vid=d835e231-57f3-4579-8c11-f14bf6e98c11"},"vehicle_type_id":"4","last_reported":1774002469,"current_range_meters":4400,"station_id":"ce4bhnp2rcd13ifvqgvg","pricing_plan_id":"cebpf4jnsgd1na2vs0mg"},{"bike_id":"15750178-4f9b-426f-bafa-493e04eb7e36","system_id":"levelo_inurba_marseille","lat":43.30809,"lon":5.40674,"is_reserved":false,"is_disabled":false,"rental_uris":{"android":"levelo://app?vid=15750178-4f9b-426f-bafa-493e04eb7e36","ios":"levelo://app?vid=15750178-4f9b-426f-bafa-493e04eb7e36"},"vehicle_type_id":"4","last_reported":1774002469,"current_range_meters":4400,"station_id":"","pricing_plan_id":"cebpf4jnsgd1na2vs0mg"},{"bike_id":"868e32ef-041c-4da6-9818-4d2e0ec63d82","system_id":"levelo_inurba_marseille","lat":43.3097,"lon":5.39064,"is_reserved":false,"is_disabled":false,"rental_uris":{"android":"levelo://app?vid=868e32ef-041c-4da6-9818-4d2e0ec63d82","ios":"levelo://app?vid=868e32ef-041c-4da6-9818-4d2e0ec63d82"},"vehicle_type_id":"4","last_reported":1774002469,"current_range_meters":4800,"station_id":"ce4bgup2rcd13ifvqco0","pricing_plan_id":"cebpf4jnsgd1na2vs0mg"},{"bike_id":"d51fe815-5335-4e1f-8e42-efe91c7e85aa","system_id":"levelo_inurba_marseille","lat":43.22933,"lon":5.35383,"is_reserved":false,"is_disabled":false,"rental_uris":{"android":"levelo://app?vid=d51fe815-5335-4e1f-8e42-efe91c7e85aa","ios":"levelo://app?vid=d51fe815-5335-4e1f-8e42-efe91c7e85aa"},"vehicle_type_id":"4","last_reported":1774002469,"current_range_meters":4800,"station_id":"cpo3532slgdg3j2ikp40","pricing_plan_id":"cebpf4jnsgd1na2vs0mg"},{"bike_id":"be523ae7-f0fc-4e2a-970b-30a3029fa717","system_id":"levelo_inurba_marseille","lat":43.2848,"lon":5.48391,"is_reserved":false,"is_disabled":false,"rental_uris":{"android":"levelo://app?vid=be523ae7-f0fc-4e2a-970b-30a3029fa717","ios":"levelo://app?vid=be523ae7-f0fc-4e2a-970b-30a3029fa717"},"vehicle_type_id":"4","last_reported":1774002469,"current_range_meters":4800,"station_id":"st_d3svhcjqgbts73a3dn0g","pricing_plan_id":"cebpf4jnsgd1na2vs0mg"},{"bike_id":"27cfd7f2-48c6-4fe4-9d82-e5b76120df75","system_id":"levelo_inurba_marseille","lat":43.29835,"lon":5.44037,"is_reserved":false,"is_disabled":false,"rental_uris":{"android":"levelo://app?vid=27cfd7f2-48c6-4fe4-9d82-e5b76120df75","ios":"levelo://app?vid=27cfd7f2-48c6-4fe4-9d82-e5b76120df75"},"vehicle_type_id":"4","last_reported":1774002469,"current_range_meters":5600,"station_id":"st_d3jp68qikq2c7381ktn0","pricing_plan_id":"cebpf4jnsgd1na2vs0mg"},{"bike_id":"9083b64c-9df9-44ed-95a6-7fe8603be4f3","system_id":"levelo_inurba_marseille","lat":43.29251,"lon":5.36841,"is_reserved":false,"is_disabled":false,"rental_uris":{"android":"levelo://app?vid=9083b64c-9df9-44ed-95a6-7fe8603be4f3","ios":"levelo://app?vid=9083b64c-9df9-44ed-95a6-7fe8603be4f3"},"vehicle_type_id":"4","last_reported":1774002469,"current_range_meters":5600,"station_id":"ce4bhbp2rcd13ifvqesg","pricing_plan_id":"cebpf4jnsgd1na2vs0mg"},{"bike_id":"52f6a6b9-7af9-4956-b458-baf5061e66bf","system_id":"levelo_inurba_marseille","lat":43.2333,"lon":5.44461,"is_reserved":false,"is_disabled":false,"rental_uris":{"android":"levelo://app?vid=52f6a6b9-7af9-4956-b458-baf5061e66bf","ios":"levelo://app?vid=52f6a6b9-7af9-4956-b458-baf5061e66bf"},"vehicle_type_id":"4","last_reported":1774002469,"current_range_meters":5600,"station_id":"","pricing_plan_id":"cebpf4jnsgd1na2vs0mg"},{"bike_id":"347a0133-45d3-4213-ae48-606f4453bbf3","system_id":"levelo_inurba_marseille","lat":43.23052,"lon":5.35491,"is_reserved":false,"is_disabled":false,"rental_uris":{"android":"levelo://app?vid=347a0133-45d3-4213-ae48-606f4453bbf3","ios":"levelo://app?vid=347a0133-45d3-4213-ae48-606f4453bbf3"},"vehicle_type_id":"4","last_reported":1774002469,"current_range_meters":5600,"station_id":"cpo3342slgdg3j2ifvpg","pricing_plan_id":"cebpf4jnsgd1na2vs0mg"},{"bike_id":"88f62a4c-1dd5-4d07-a59a-902271acdb70","system_id":"levelo_inurba_marseille","lat":43.2815,"lon":5.42641,"is_reserved":false,"is_disabled":false,"rental_uris":{"android":"levelo://app?vid=88f62a4c-1dd5-4d07-a59a-902271acdb70","ios":"levelo://app?vid=88f62a4c-1dd5-4d07-a59a-902271acdb70"},"vehicle_type_id":"4","last_reported":1774002469,"current_range_meters":5600,"station_id":"ce4bhnh2rcd13ifvqgug","pricing_plan_id":"cebpf4jnsgd1na2vs0mg"},{"bike_id":"741ca2ef-c085-4c7a-a9dd-c998b701c041","system_id":"levelo_inurba_marseille","lat":43.31757,"lon":5.39015,"is_reserved":false,"is_disabled":false,"rental_uris":{"android":"levelo://app?vid=741ca2ef-c085-4c7a-a9dd-c998b701c041","ios":"levelo://app?vid=741ca2ef-c085-4c7a-a9dd-c998b701c041"},"vehicle_type_id":"4","last_reported":1774002469,"current_range_meters":5600,"station_id":"ce4bhqp2rcd13ifvqhng","pricing_plan_id":"cebpf4jnsgd1na2vs0mg"},{"bike_id":"c381dafb-158a-44b8-bb2d-3700b906f21e","system_id":"levelo_inurba_marseille","lat":43.29552,"lon":5.42289,"is_reserved":false,"is_disabled":false,"rental_uris":{"android":"levelo://app?vid=c381dafb-158a-44b8-bb2d-3700b906f21e","ios":"levelo://app?vid=c381dafb-158a-44b8-bb2d-3700b906f21e"},"vehicle_type_id":"4","last_reported":1774002469,"current_range_meters":5600,"station_id":"ce4bhph2rcd13ifvqhdg","pricing_plan_id":"cebpf4jnsgd1na2vs0mg"},{"bike_id":"69702193-a99a-495b-8636-af811a266439","system_id":"levelo_inurba_marseille","lat":43.28841,"lon":5.39339,"is_reserved":false,"is_disabled":false,"rental_uris":{"android":"levelo://app?vid=69702193-a99a-495b-8636-af811a266439","ios":"levelo://app?vid=69702193-a99a-495b-8636-af811a266439"},"vehicle_type_id":"4","last_reported":1774002469,"current_range_meters":5600,"station_id":"ce4bh2p2rcd13ifvqdi0","pricing_plan_id":"cebpf4jnsgd1na2vs0mg"},{"bike_id":"6e50a54a-c657-4ef5-9339-4c225154dc0d","system_id":"levelo_inurba_marseille","lat":43.27921,"lon":5.42224,"is_reserved":false,"is_disabled":false,"rental_uris":{"android":"levelo://app?vid=6e50a54a-c657-4ef5-9339-4c225154dc0d","ios":"levelo://app?vid=6e50a54a-c657-4ef5-9339-4c225154dc0d"},"vehicle_type_id":"4","last_reported":1774002469,"current_range_meters":5600,"station_id":"","pricing_plan_id":"cebpf4jnsgd1na2vs0mg"},{"bike_id":"018f383f-026c-403e-b2b9-73e0977eb086","system_id":"levelo_inurba_marseille","lat":43.28459,"lon":5.3588,"is_reserved":false,"is_disabled":false,"rental_uris":{"android":"levelo://app?vid=018f383f-026c-403e-b2b9-73e0977eb086","ios":"levelo://app?vid=018f383f-026c-403e-b2b9-73e0977eb086"},"vehicle_type_id":"4","last_reported":1774002469,"current_range_meters":6000,"station_id":"ce4bhah2rcd13ifvqei0","pricing_plan_id":"cebpf4jnsgd1na2vs0mg"},{"bike_id":"b790cc6c-beda-4dcd-96dd-e541806c10fa","system_id":"levelo_inurba_marseille","lat":43.27474,"lon":5.41586,"is_reserved":false,"is_disabled":false,"rental_uris":{"android":"levelo://app?vid=b790cc6c-beda-4dcd-96dd-e541806c10fa","ios":"levelo://app?vid=b790cc6c-beda-4dcd-96dd-e541806c10fa"},"vehicle_type_id":"4","last_reported":1774002469,"current_range_meters":6000,"station_id":"st_d6im8g6chgec73a5pndg","pricing_plan_id":"cebpf4jnsgd1na2vs0mg"},{"bike_id":"a7dd1c2f-1863-4db6-9064-755a90a3283b","system_id":"levelo_inurba_marseille","lat":43.29715,"lon":5.42601,"is_reserved":false,"is_disabled":false,"rental_uris":{"android":"levelo://app?vid=a7dd1c2f-1863-4db6-9064-755a90a3283b","ios":"levelo://app?vid=a7dd1c2f-1863-4db6-9064-755a90a3283b"},"vehicle_type_id":"4","last_reported":1774002469,"current_range_meters":6000,"station_id":"","pricing_plan_id":"cebpf4jnsgd1na2vs0mg"},{"bike_id":"9624d0fe-1127-4586-a71c-89b3d7fa57ae","system_id":"levelo_inurba_marseille","lat":43.31755,"lon":5.39012,"is_reserved":false,"is_disabled":false,"rental_uris":{"android":"levelo://app?vid=9624d0fe-1127-4586-a71c-89b3d7fa57ae","ios":"levelo://app?vid=9624d0fe-1127-4586-a71c-89b3d7fa57ae"},"vehicle_type_id":"4","last_reported":1774002469,"current_range_meters":6000,"station_id":"ce4bhqp2rcd13ifvqhng","pricing_plan_id":"cebpf4jnsgd1na2vs0mg"},{"bike_id":"01c10d09-46fb-48b1-845c-499bd918fc71","system_id":"levelo_inurba_marseille","lat":43.27985,"lon":5.41666,"is_reserved":false,"is_disabled":false,"rental_uris":{"android":"levelo://app?vid=01c10d09-46fb-48b1-845c-499bd918fc71","ios":"levelo://app?vid=01c10d09-46fb-48b1-845c-499bd918fc71"},"vehicle_type_id":"4","last_reported":1774002469,"current_range_meters":6000,"station_id":"ce4bho12rcd13ifvqh1g","pricing_plan_id":"cebpf4jnsgd1na2vs0mg"},{"bike_id":"35e353d1-ed6e-4b88-a1a3-98a7fe0f8054","system_id":"levelo_inurba_marseille","lat":43.31702,"lon":5.40469,"is_reserved":false,"is_disabled":false,"rental_uris":{"android":"levelo://app?vid=35e353d1-ed6e-4b88-a1a3-98a7fe0f8054","ios":"levelo://app?vid=35e353d1-ed6e-4b88-a1a3-98a7fe0f8054"},"vehicle_type_id":"4","last_reported":1774002469,"current_range_meters":6000,"station_id":"ce4bh012rcd13ifvqd00","pricing_plan_id":"cebpf4jnsgd1na2vs0mg"},{"bike_id":"f6aea14a-72ef-4586-b343-d62580af1a1b","system_id":"levelo_inurba_marseille","lat":43.27329,"lon":5.39105,"is_reserved":false,"is_disabled":false,"rental_uris":{"android":"levelo://app?vid=f6aea14a-72ef-4586-b343-d62580af1a1b","ios":"levelo://app?vid=f6aea14a-72ef-4586-b343-d62580af1a1b"},"vehicle_type_id":"4","last_reported":1774002469,"current_range_meters":6000,"station_id":"ce4bhgp2rcd13ifvqfe0","pricing_plan_id":"cebpf4jnsgd1na2vs0mg"},{"bike_id":"b3c6ee7e-839e-47ca-8bd1-12618e78dd87","system_id":"levelo_inurba_marseille","lat":43.23965,"lon":5.36614,"is_reserved":false,"is_disabled":false,"rental_uris":{"android":"levelo://app?vid=b3c6ee7e-839e-47ca-8bd1-12618e78dd87","ios":"levelo://app?vid=b3c6ee7e-839e-47ca-8bd1-12618e78dd87"},"vehicle_type_id":"4","last_reported":1774002469,"current_range_meters":6000,"station_id":"ce4bhi12rcd13ifvqfp0","pricing_plan_id":"cebpf4jnsgd1na2vs0mg"},{"bike_id":"1fc87fed-6040-40bc-99c6-6f694d257aa1","system_id":"levelo_inurba_marseille","lat":43.30941,"lon":5.40863,"is_reserved":false,"is_disabled":false,"rental_uris":{"android":"levelo://app?vid=1fc87fed-6040-40bc-99c6-6f694d257aa1","ios":"levelo://app?vid=1fc87fed-6040-40bc-99c6-6f694d257aa1"},"vehicle_type_id":"4","last_reported":1774002469,"current_range_meters":6000,"station_id":"","pricing_plan_id":"cebpf4jnsgd1na2vs0mg"},{"bike_id":"b656aabe-7c73-4de4-a3ab-51dc49496f82","system_id":"levelo_inurba_marseille","lat":43.29289,"lon":5.37171,"is_reserved":false,"is_disabled":true,"rental_uris":{"android":"levelo://app?vid=b656aabe-7c73-4de4-a3ab-51dc49496f82","ios":"levelo://app?vid=b656aabe-7c73-4de4-a3ab-51dc49496f82"},"vehicle_type_id":"4","last_reported":1774002469,"current_range_meters":6400,"station_id":"ce4bgh92rcd13ifvqb40","pricing_plan_id":"cebpf4jnsgd1na2vs0mg"},{"bike_id":"f14aff41-730a-4b5e-a3d1-aa44d92a860d","system_id":"levelo_inurba_marseille","lat":43.29267,"lon":5.36851,"is_reserved":false,"is_disabled":false,"rental_uris":{"android":"levelo://app?vid=f14aff41-730a-4b5e-a3d1-aa44d92a860d","ios":"levelo://app?vid=f14aff41-730a-4b5e-a3d1-aa44d92a860d"},"vehicle_type_id":"4","last_reported":1774002469,"current_range_meters":6400,"station_id":"ce4bhbp2rcd13ifvqesg","pricing_plan_id":"cebpf4jnsgd1na2vs0mg"},{"bike_id":"0836c59c-4e19-4ca7-8410-a79df9dfcc6b","system_id":"levelo_inurba_marseille","lat":43.28534,"lon":5.44097,"is_reserved":false,"is_disabled":false,"rental_uris":{"android":"levelo://app?vid=0836c59c-4e19-4ca7-8410-a79df9dfcc6b","ios":"levelo://app?vid=0836c59c-4e19-4ca7-8410-a79df9dfcc6b"},"vehicle_type_id":"4","last_reported":1774002469,"current_range_meters":6400,"station_id":"st_d3j3df2ikq2c7380ej80","pricing_plan_id":"cebpf4jnsgd1na2vs0mg"},{"bike_id":"addd9e53-bfde-4c2f-8c89-4a891b6a7add","system_id":"levelo_inurba_marseille","lat":43.31362,"lon":5.37909,"is_reserved":false,"is_disabled":false,"rental_uris":{"android":"levelo://app?vid=addd9e53-bfde-4c2f-8c89-4a891b6a7add","ios":"levelo://app?vid=addd9e53-bfde-4c2f-8c89-4a891b6a7add"},"vehicle_type_id":"4","last_reported":1774002469,"current_range_meters":6400,"station_id":"","pricing_plan_id":"cebpf4jnsgd1na2vs0mg"},{"bike_id":"61c23795-1439-461a-a748-75b400ea5152","system_id":"levelo_inurba_marseille","lat":43.28454,"lon":5.35891,"is_reserved":false,"is_disabled":true,"rental_uris":{"android":"levelo://app?vid=61c23795-1439-461a-a748-75b400ea5152","ios":"levelo://app?vid=61c23795-1439-461a-a748-75b400ea5152"},"vehicle_type_id":"4","last_reported":1774002469,"current_range_meters":6400,"station_id":"ce4bhah2rcd13ifvqei0","pricing_plan_id":"cebpf4jnsgd1na2vs0mg"},{"bike_id":"8ba5e59c-1b23-4850-921f-9f05aa4326d2","system_id":"levelo_inurba_marseille","lat":43.3271,"lon":5.41015,"is_reserved":false,"is_disabled":true,"rental_uris":{"android":"levelo://app?vid=8ba5e59c-1b23-4850-921f-9f05aa4326d2","ios":"levelo://app?vid=8ba5e59c-1b23-4850-921f-9f05aa4326d2"},"vehicle_type_id":"4","last_reported":1774002469,"current_range_meters":6400,"station_id":"","pricing_plan_id":"cebpf4jnsgd1na2vs0mg"},{"bike_id":"10ced8a1-0004-454c-a343-b116c3880ed6","system_id":"levelo_inurba_marseille","lat":43.32102,"lon":5.36759,"is_reserved":false,"is_disabled":false,"rental_uris":{"android":"levelo://app?vid=10ced8a1-0004-454c-a343-b116c3880ed6","ios":"levelo://app?vid=10ced8a1-0004-454c-a343-b116c3880ed6"},"vehicle_type_id":"4","last_reported":1774002469,"current_range_meters":6400,"station_id":"ce4bhrh2rcd13ifvqhug","pricing_plan_id":"cebpf4jnsgd1na2vs0mg"},{"bike_id":"33e015f6-34a2-44b9-a37e-fd5fd3630f6d","system_id":"levelo_inurba_marseille","lat":43.24204,"lon":5.3642,"is_reserved":false,"is_disabled":false,"rental_uris":{"android":"levelo://app?vid=33e015f6-34a2-44b9-a37e-fd5fd3630f6d","ios":"levelo://app?vid=33e015f6-34a2-44b9-a37e-fd5fd3630f6d"},"vehicle_type_id":"4","last_reported":1774002469,"current_range_meters":6400,"station_id":"cpo36qri1sfpv3e86is0","pricing_plan_id":"cebpf4jnsgd1na2vs0mg"},{"bike_id":"e08d225b-8f4a-4ce0-895d-d9f7f842408c","system_id":"levelo_inurba_marseille","lat":43.24163,"lon":5.36394,"is_reserved":false,"is_disabled":false,"rental_uris":{"android":"levelo://app?vid=e08d225b-8f4a-4ce0-895d-d9f7f842408c","ios":"levelo://app?vid=e08d225b-8f4a-4ce0-895d-d9f7f842408c"},"vehicle_type_id":"4","last_reported":1774002469,"current_range_meters":6400,"station_id":"cpo36qri1sfpv3e86is0","pricing_plan_id":"cebpf4jnsgd1na2vs0mg"},{"bike_id":"025e7519-efd0-4df5-9386-14a4133eeaef","system_id":"levelo_inurba_marseille","lat":43.2893,"lon":5.36637,"is_reserved":false,"is_disabled":false,"rental_uris":{"android":"levelo://app?vid=025e7519-efd0-4df5-9386-14a4133eeaef","ios":"levelo://app?vid=025e7519-efd0-4df5-9386-14a4133eeaef"},"vehicle_type_id":"4","last_reported":1774002469,"current_range_meters":6400,"station_id":"ce4bhap2rcd13ifvqek0","pricing_plan_id":"cebpf4jnsgd1na2vs0mg"},{"bike_id":"3bcd3f37-7909-4e8a-be03-a9562a2c0e45","system_id":"levelo_inurba_marseille","lat":43.28485,"lon":5.48366,"is_reserved":false,"is_disabled":false,"rental_uris":{"android":"levelo://app?vid=3bcd3f37-7909-4e8a-be03-a9562a2c0e45","ios":"levelo://app?vid=3bcd3f37-7909-4e8a-be03-a9562a2c0e45"},"vehicle_type_id":"4","last_reported":1774002469,"current_range_meters":6800,"station_id":"","pricing_plan_id":"cebpf4jnsgd1na2vs0mg"},{"bike_id":"adc37302-b25c-40e8-b947-c68ece37f278","system_id":"levelo_inurba_marseille","lat":43.24104,"lon":5.37752,"is_reserved":false,"is_disabled":false,"rental_uris":{"android":"levelo://app?vid=adc37302-b25c-40e8-b947-c68ece37f278","ios":"levelo://app?vid=adc37302-b25c-40e8-b947-c68ece37f278"},"vehicle_type_id":"4","last_reported":1774002469,"current_range_meters":6800,"station_id":"ce4bhnp2rcd13ifvqgvg","pricing_plan_id":"cebpf4jnsgd1na2vs0mg"},{"bike_id":"856fe66d-4acf-4111-b537-8a0bb0fdb356","system_id":"levelo_inurba_marseille","lat":43.29909,"lon":5.38459,"is_reserved":false,"is_disabled":false,"rental_uris":{"android":"levelo://app?vid=856fe66d-4acf-4111-b537-8a0bb0fdb356","ios":"levelo://app?vid=856fe66d-4acf-4111-b537-8a0bb0fdb356"},"vehicle_type_id":"4","last_reported":1774002469,"current_range_meters":6800,"station_id":"","pricing_plan_id":"cebpf4jnsgd1na2vs0mg"},{"bike_id":"ba719c66-0ae6-4529-b3a1-20ede8f7e401","system_id":"levelo_inurba_marseille","lat":43.28534,"lon":5.44097,"is_reserved":false,"is_disabled":false,"rental_uris":{"android":"levelo://app?vid=ba719c66-0ae6-4529-b3a1-20ede8f7e401","ios":"levelo://app?vid=ba719c66-0ae6-4529-b3a1-20ede8f7e401"},"vehicle_type_id":"4","last_reported":1774002469,"current_range_meters":6800,"station_id":"st_d3j3df2ikq2c7380ej80","pricing_plan_id":"cebpf4jnsgd1na2vs0mg"},{"bike_id":"a6926df5-1efd-42f2-ab94-95c9ef32f46c","system_id":"levelo_inurba_marseille","lat":43.30602,"lon":5.37204,"is_reserved":false,"is_disabled":false,"rental_uris":{"android":"levelo://app?vid=a6926df5-1efd-42f2-ab94-95c9ef32f46c","ios":"levelo://app?vid=a6926df5-1efd-42f2-ab94-95c9ef32f46c"},"vehicle_type_id":"4","last_reported":1774002469,"current_range_meters":6800,"station_id":"ce4bgqh2rcd13ifvqc4g","pricing_plan_id":"cebpf4jnsgd1na2vs0mg"},{"bike_id":"69067704-4b9d-4067-8ddd-5b71f4ef1a8a","system_id":"levelo_inurba_marseille","lat":43.25921,"lon":5.40847,"is_reserved":false,"is_disabled":true,"rental_uris":{"android":"levelo://app?vid=69067704-4b9d-4067-8ddd-5b71f4ef1a8a","ios":"levelo://app?vid=69067704-4b9d-4067-8ddd-5b71f4ef1a8a"},"vehicle_type_id":"4","last_reported":1774002469,"current_range_meters":6800,"station_id":"ce4bhm92rcd13ifvqglg","pricing_plan_id":"cebpf4jnsgd1na2vs0mg"},{"bike_id":"7977fd22-7727-4c3b-80a3-f1e8eb972222","system_id":"levelo_inurba_marseille","lat":43.2408,"lon":5.37761,"is_reserved":false,"is_disabled":false,"rental_uris":{"android":"levelo://app?vid=7977fd22-7727-4c3b-80a3-f1e8eb972222","ios":"levelo://app?vid=7977fd22-7727-4c3b-80a3-f1e8eb972222"},"vehicle_type_id":"4","last_reported":1774002469,"current_range_meters":6800,"station_id":"ce4bhnp2rcd13ifvqgvg","pricing_plan_id":"cebpf4jnsgd1na2vs0mg"},{"bike_id":"4ebc5a1c-fa8c-44d8-a7fc-38229c55eb9d","system_id":"levelo_inurba_marseille","lat":43.24655,"lon":5.38892,"is_reserved":false,"is_disabled":false,"rental_uris":{"android":"levelo://app?vid=4ebc5a1c-fa8c-44d8-a7fc-38229c55eb9d","ios":"levelo://app?vid=4ebc5a1c-fa8c-44d8-a7fc-38229c55eb9d"},"vehicle_type_id":"4","last_reported":1774002469,"current_range_meters":6800,"station_id":"ce4bhg12rcd13ifvqf60","pricing_plan_id":"cebpf4jnsgd1na2vs0mg"},{"bike_id":"681f5372-2ff2-4dd0-a093-84c447cff888","system_id":"levelo_inurba_marseille","lat":43.22563,"lon":5.41635,"is_reserved":false,"is_disabled":false,"rental_uris":{"android":"levelo://app?vid=681f5372-2ff2-4dd0-a093-84c447cff888","ios":"levelo://app?vid=681f5372-2ff2-4dd0-a093-84c447cff888"},"vehicle_type_id":"4","last_reported":1774002469,"current_range_meters":6800,"station_id":"st_d2o4gvlbi1j2169b742g","pricing_plan_id":"cebpf4jnsgd1na2vs0mg"},{"bike_id":"35c47293-aa6a-4c8a-812e-8fef6d481c48","system_id":"levelo_inurba_marseille","lat":43.26794,"lon":5.39412,"is_reserved":false,"is_disabled":false,"rental_uris":{"android":"levelo://app?vid=35c47293-aa6a-4c8a-812e-8fef6d481c48","ios":"levelo://app?vid=35c47293-aa6a-4c8a-812e-8fef6d481c48"},"vehicle_type_id":"4","last_reported":1774002469,"current_range_meters":7200,"station_id":"ce4bhh12rcd13ifvqfg0","pricing_plan_id":"cebpf4jnsgd1na2vs0mg"},{"bike_id":"12118d88-8157-4d76-ad00-12ce3bc20921","system_id":"levelo_inurba_marseille","lat":43.30853,"lon":5.37104,"is_reserved":false,"is_disabled":false,"rental_uris":{"android":"levelo://app?vid=12118d88-8157-4d76-ad00-12ce3bc20921","ios":"levelo://app?vid=12118d88-8157-4d76-ad00-12ce3bc20921"},"vehicle_type_id":"4","last_reported":1774002469,"current_range_meters":7200,"station_id":"","pricing_plan_id":"cebpf4jnsgd1na2vs0mg"},{"bike_id":"0264288d-82fa-4432-8751-6c08c0e54bb7","system_id":"levelo_inurba_marseille","lat":43.30296,"lon":5.42496,"is_reserved":false,"is_disabled":false,"rental_uris":{"android":"levelo://app?vid=0264288d-82fa-4432-8751-6c08c0e54bb7","ios":"levelo://app?vid=0264288d-82fa-4432-8751-6c08c0e54bb7"},"vehicle_type_id":"4","last_reported":1774002469,"current_range_meters":7200,"station_id":"","pricing_plan_id":"cebpf4jnsgd1na2vs0mg"},{"bike_id":"6f0de27a-db02-41cb-9376-9fa9cdb18cf7","system_id":"levelo_inurba_marseille","lat":43.23891,"lon":5.37454,"is_reserved":false,"is_disabled":false,"rental_uris":{"android":"levelo://app?vid=6f0de27a-db02-41cb-9376-9fa9cdb18cf7","ios":"levelo://app?vid=6f0de27a-db02-41cb-9376-9fa9cdb18cf7"},"vehicle_type_id":"4","last_reported":1774002469,"current_range_meters":7200,"station_id":"st_d6sm7csbq4hs73f8fpjg","pricing_plan_id":"cebpf4jnsgd1na2vs0mg"},{"bike_id":"c142af26-b83c-4aa3-ab8b-699576493d34","system_id":"levelo_inurba_marseille","lat":43.21192,"lon":5.35088,"is_reserved":false,"is_disabled":true,"rental_uris":{"android":"levelo://app?vid=c142af26-b83c-4aa3-ab8b-699576493d34","ios":"levelo://app?vid=c142af26-b83c-4aa3-ab8b-699576493d34"},"vehicle_type_id":"4","last_reported":1774002469,"current_range_meters":7200,"station_id":"","pricing_plan_id":"cebpf4jnsgd1na2vs0mg"},{"bike_id":"29705345-7a8e-4bdd-8b65-5ba8856c877f","system_id":"levelo_inurba_marseille","lat":43.30293,"lon":5.4494,"is_reserved":false,"is_disabled":false,"rental_uris":{"android":"levelo://app?vid=29705345-7a8e-4bdd-8b65-5ba8856c877f","ios":"levelo://app?vid=29705345-7a8e-4bdd-8b65-5ba8856c877f"},"vehicle_type_id":"4","last_reported":1774002469,"current_range_meters":7200,"station_id":"","pricing_plan_id":"cebpf4jnsgd1na2vs0mg"},{"bike_id":"5d093622-4e87-4d50-9da4-eab65f5eb92c","system_id":"levelo_inurba_marseille","lat":43.26365,"lon":5.41054,"is_reserved":false,"is_disabled":false,"rental_uris":{"android":"levelo://app?vid=5d093622-4e87-4d50-9da4-eab65f5eb92c","ios":"levelo://app?vid=5d093622-4e87-4d50-9da4-eab65f5eb92c"},"vehicle_type_id":"4","last_reported":1774002469,"current_range_meters":7200,"station_id":"st_d4e5ca6na9uc73bfl5fg","pricing_plan_id":"cebpf4jnsgd1na2vs0mg"},{"bike_id":"c48440d7-f4d5-4be3-a842-7dc1a317748e","system_id":"levelo_inurba_marseille","lat":43.33932,"lon":5.35682,"is_reserved":false,"is_disabled":false,"rental_uris":{"android":"levelo://app?vid=c48440d7-f4d5-4be3-a842-7dc1a317748e","ios":"levelo://app?vid=c48440d7-f4d5-4be3-a842-7dc1a317748e"},"vehicle_type_id":"4","last_reported":1774002469,"current_range_meters":7200,"station_id":"","pricing_plan_id":"cebpf4jnsgd1na2vs0mg"},{"bike_id":"ab09d209-60f6-4303-8d09-86dc43261279","system_id":"levelo_inurba_marseille","lat":43.21195,"lon":5.35067,"is_reserved":false,"is_disabled":false,"rental_uris":{"android":"levelo://app?vid=ab09d209-60f6-4303-8d09-86dc43261279","ios":"levelo://app?vid=ab09d209-60f6-4303-8d09-86dc43261279"},"vehicle_type_id":"4","last_reported":1774002469,"current_range_meters":7200,"station_id":"st_cvj6sg6p6f1abm77japg","pricing_plan_id":"cebpf4jnsgd1na2vs0mg"},{"bike_id":"b8af7d45-c198-42a0-a3da-edeb4ef58804","system_id":"levelo_inurba_marseille","lat":43.30775,"lon":5.37662,"is_reserved":false,"is_disabled":false,"rental_uris":{"android":"levelo://app?vid=b8af7d45-c198-42a0-a3da-edeb4ef58804","ios":"levelo://app?vid=b8af7d45-c198-42a0-a3da-edeb4ef58804"},"vehicle_type_id":"4","last_reported":1774002469,"current_range_meters":7200,"station_id":"ce4bgv92rcd13ifvqcq0","pricing_plan_id":"cebpf4jnsgd1na2vs0mg"},{"bike_id":"ea5f9520-90f0-49e6-8d6a-50c76753ddaa","system_id":"levelo_inurba_marseille","lat":43.308952,"lon":5.396642,"is_reserved":false,"is_disabled":false,"rental_uris":{"android":"levelo://app?vid=ea5f9520-90f0-49e6-8d6a-50c76753ddaa","ios":"levelo://app?vid=ea5f9520-90f0-49e6-8d6a-50c76753ddaa"},"vehicle_type_id":"4","last_reported":1774002469,"current_range_meters":8000,"station_id":"ce4bh012rcd13ifvqcv0","pricing_plan_id":"cebpf4jnsgd1na2vs0mg"},{"bike_id":"f328e3b6-a38c-49fe-80e0-c552630893a5","system_id":"levelo_inurba_marseille","lat":43.22922,"lon":5.35367,"is_reserved":false,"is_disabled":false,"rental_uris":{"android":"levelo://app?vid=f328e3b6-a38c-49fe-80e0-c552630893a5","ios":"levelo://app?vid=f328e3b6-a38c-49fe-80e0-c552630893a5"},"vehicle_type_id":"4","last_reported":1774002469,"current_range_meters":8000,"station_id":"cpo3532slgdg3j2ikp40","pricing_plan_id":"cebpf4jnsgd1na2vs0mg"},{"bike_id":"a775511c-9985-4a58-8c4c-775aad7f3e36","system_id":"levelo_inurba_marseille","lat":43.29899,"lon":5.43677,"is_reserved":false,"is_disabled":false,"rental_uris":{"android":"levelo://app?vid=a775511c-9985-4a58-8c4c-775aad7f3e36","ios":"levelo://app?vid=a775511c-9985-4a58-8c4c-775aad7f3e36"},"vehicle_type_id":"4","last_reported":1774002469,"current_range_meters":8000,"station_id":"ce4bhpp2rcd13ifvqhfg","pricing_plan_id":"cebpf4jnsgd1na2vs0mg"},{"bike_id":"349ea28b-d62f-495c-9d28-cb14d29d97f5","system_id":"levelo_inurba_marseille","lat":43.309,"lon":5.36867,"is_reserved":false,"is_disabled":false,"rental_uris":{"android":"levelo://app?vid=349ea28b-d62f-495c-9d28-cb14d29d97f5","ios":"levelo://app?vid=349ea28b-d62f-495c-9d28-cb14d29d97f5"},"vehicle_type_id":"4","last_reported":1774002469,"current_range_meters":8000,"station_id":"ce4bgn92rcd13ifvqbvg","pricing_plan_id":"cebpf4jnsgd1na2vs0mg"},{"bike_id":"be9b4f06-9d1a-41ee-b10b-9de4e628d9db","system_id":"levelo_inurba_marseille","lat":43.25549,"lon":5.38183,"is_reserved":false,"is_disabled":false,"rental_uris":{"android":"levelo://app?vid=be9b4f06-9d1a-41ee-b10b-9de4e628d9db","ios":"levelo://app?vid=be9b4f06-9d1a-41ee-b10b-9de4e628d9db"},"vehicle_type_id":"4","last_reported":1774002469,"current_range_meters":8000,"station_id":"ce4bhih2rcd13ifvqfs0","pricing_plan_id":"cebpf4jnsgd1na2vs0mg"},{"bike_id":"4962d21e-cde3-4527-bd5b-917c2eb4bb67","system_id":"levelo_inurba_marseille","lat":43.25606,"lon":5.38236,"is_reserved":false,"is_disabled":false,"rental_uris":{"android":"levelo://app?vid=4962d21e-cde3-4527-bd5b-917c2eb4bb67","ios":"levelo://app?vid=4962d21e-cde3-4527-bd5b-917c2eb4bb67"},"vehicle_type_id":"4","last_reported":1774002469,"current_range_meters":8000,"station_id":"ce4bhih2rcd13ifvqfs0","pricing_plan_id":"cebpf4jnsgd1na2vs0mg"},{"bike_id":"dd74091b-705a-4531-bc39-afff2195d9a1","system_id":"levelo_inurba_marseille","lat":43.24803,"lon":5.37433,"is_reserved":false,"is_disabled":false,"rental_uris":{"android":"levelo://app?vid=dd74091b-705a-4531-bc39-afff2195d9a1","ios":"levelo://app?vid=dd74091b-705a-4531-bc39-afff2195d9a1"},"vehicle_type_id":"4","last_reported":1774002469,"current_range_meters":8000,"station_id":"ce4bhgh2rcd13ifvqfb0","pricing_plan_id":"cebpf4jnsgd1na2vs0mg"},{"bike_id":"4e864c7e-8c56-4442-8a7f-711e53a22077","system_id":"levelo_inurba_marseille","lat":43.29277,"lon":5.3843,"is_reserved":false,"is_disabled":true,"rental_uris":{"android":"levelo://app?vid=4e864c7e-8c56-4442-8a7f-711e53a22077","ios":"levelo://app?vid=4e864c7e-8c56-4442-8a7f-711e53a22077"},"vehicle_type_id":"4","last_reported":1774002469,"current_range_meters":8000,"station_id":"ce4bh692rcd13ifvqea0","pricing_plan_id":"cebpf4jnsgd1na2vs0mg"},{"bike_id":"b0fdb614-72ea-42ad-a41e-f4b22f3c1a01","system_id":"levelo_inurba_marseille","lat":43.27491,"lon":5.4246,"is_reserved":false,"is_disabled":false,"rental_uris":{"android":"levelo://app?vid=b0fdb614-72ea-42ad-a41e-f4b22f3c1a01","ios":"levelo://app?vid=b0fdb614-72ea-42ad-a41e-f4b22f3c1a01"},"vehicle_type_id":"4","last_reported":1774002469,"current_range_meters":8000,"station_id":"","pricing_plan_id":"cebpf4jnsgd1na2vs0mg"},{"bike_id":"29ceb06a-4df8-4e2a-9dd9-b070e185b37f","system_id":"levelo_inurba_marseille","lat":43.28501,"lon":5.48423,"is_reserved":false,"is_disabled":false,"rental_uris":{"android":"levelo://app?vid=29ceb06a-4df8-4e2a-9dd9-b070e185b37f","ios":"levelo://app?vid=29ceb06a-4df8-4e2a-9dd9-b070e185b37f"},"vehicle_type_id":"4","last_reported":1774002469,"current_range_meters":8000,"station_id":"","pricing_plan_id":"cebpf4jnsgd1na2vs0mg"},{"bike_id":"4c924e0f-7bf7-4aff-a215-fe98ac0c8b95","system_id":"levelo_inurba_marseille","lat":43.31353,"lon":5.36697,"is_reserved":false,"is_disabled":false,"rental_uris":{"android":"levelo://app?vid=4c924e0f-7bf7-4aff-a215-fe98ac0c8b95","ios":"levelo://app?vid=4c924e0f-7bf7-4aff-a215-fe98ac0c8b95"},"vehicle_type_id":"4","last_reported":1774002469,"current_range_meters":8000,"station_id":"ce4bgr92rcd13ifvqc6g","pricing_plan_id":"cebpf4jnsgd1na2vs0mg"},{"bike_id":"e5eba928-e3a4-441b-9540-937747ee47b9","system_id":"levelo_inurba_marseille","lat":43.22572,"lon":5.41642,"is_reserved":false,"is_disabled":false,"rental_uris":{"android":"levelo://app?vid=e5eba928-e3a4-441b-9540-937747ee47b9","ios":"levelo://app?vid=e5eba928-e3a4-441b-9540-937747ee47b9"},"vehicle_type_id":"4","last_reported":1774002469,"current_range_meters":8000,"station_id":"st_d2o4gvlbi1j2169b742g","pricing_plan_id":"cebpf4jnsgd1na2vs0mg"},{"bike_id":"646c7015-5400-49b6-9ecb-1fc782efa767","system_id":"levelo_inurba_marseille","lat":43.21747,"lon":5.34606,"is_reserved":false,"is_disabled":false,"rental_uris":{"android":"levelo://app?vid=646c7015-5400-49b6-9ecb-1fc782efa767","ios":"levelo://app?vid=646c7015-5400-49b6-9ecb-1fc782efa767"},"vehicle_type_id":"4","last_reported":1774002469,"current_range_meters":8000,"station_id":"st_cvj6r9ubvosntc0bgbag","pricing_plan_id":"cebpf4jnsgd1na2vs0mg"},{"bike_id":"5d76d7be-3aca-461e-84ed-7cc20b2099bf","system_id":"levelo_inurba_marseille","lat":43.24812,"lon":5.37449,"is_reserved":false,"is_disabled":false,"rental_uris":{"android":"levelo://app?vid=5d76d7be-3aca-461e-84ed-7cc20b2099bf","ios":"levelo://app?vid=5d76d7be-3aca-461e-84ed-7cc20b2099bf"},"vehicle_type_id":"4","last_reported":1774002469,"current_range_meters":8000,"station_id":"ce4bhgh2rcd13ifvqfb0","pricing_plan_id":"cebpf4jnsgd1na2vs0mg"},{"bike_id":"1aa40628-9ae0-4ab2-81a2-ab6d3a0d35a5","system_id":"levelo_inurba_marseille","lat":43.30148,"lon":5.38069,"is_reserved":false,"is_disabled":false,"rental_uris":{"android":"levelo://app?vid=1aa40628-9ae0-4ab2-81a2-ab6d3a0d35a5","ios":"levelo://app?vid=1aa40628-9ae0-4ab2-81a2-ab6d3a0d35a5"},"vehicle_type_id":"4","last_reported":1774002469,"current_range_meters":8400,"station_id":"ce4bgjp2rcd13ifvqbh0","pricing_plan_id":"cebpf4jnsgd1na2vs0mg"},{"bike_id":"53f48266-4564-420b-96ab-d243233055dc","system_id":"levelo_inurba_marseille","lat":43.28476,"lon":5.48402,"is_reserved":false,"is_disabled":false,"rental_uris":{"android":"levelo://app?vid=53f48266-4564-420b-96ab-d243233055dc","ios":"levelo://app?vid=53f48266-4564-420b-96ab-d243233055dc"},"vehicle_type_id":"4","last_reported":1774002469,"current_range_meters":8400,"station_id":"","pricing_plan_id":"cebpf4jnsgd1na2vs0mg"},{"bike_id":"5c37a49c-ab60-4c11-8a61-6592ff444186","system_id":"levelo_inurba_marseille","lat":43.27908,"lon":5.39175,"is_reserved":false,"is_disabled":false,"rental_uris":{"android":"levelo://app?vid=5c37a49c-ab60-4c11-8a61-6592ff444186","ios":"levelo://app?vid=5c37a49c-ab60-4c11-8a61-6592ff444186"},"vehicle_type_id":"4","last_reported":1774002469,"current_range_meters":8400,"station_id":"","pricing_plan_id":"cebpf4jnsgd1na2vs0mg"},{"bike_id":"ac94a75f-91df-4818-a357-956d25b78ee0","system_id":"levelo_inurba_marseille","lat":43.30433,"lon":5.40927,"is_reserved":false,"is_disabled":false,"rental_uris":{"android":"levelo://app?vid=ac94a75f-91df-4818-a357-956d25b78ee0","ios":"levelo://app?vid=ac94a75f-91df-4818-a357-956d25b78ee0"},"vehicle_type_id":"4","last_reported":1774002469,"current_range_meters":8400,"station_id":"","pricing_plan_id":"cebpf4jnsgd1na2vs0mg"},{"bike_id":"5699875e-fcca-46d5-bff2-a39d06c4cefa","system_id":"levelo_inurba_marseille","lat":43.306,"lon":5.37217,"is_reserved":false,"is_disabled":false,"rental_uris":{"android":"levelo://app?vid=5699875e-fcca-46d5-bff2-a39d06c4cefa","ios":"levelo://app?vid=5699875e-fcca-46d5-bff2-a39d06c4cefa"},"vehicle_type_id":"4","last_reported":1774002469,"current_range_meters":8400,"station_id":"ce4bgqh2rcd13ifvqc4g","pricing_plan_id":"cebpf4jnsgd1na2vs0mg"},{"bike_id":"0f0ec3e7-954e-4cbf-8ae3-c6f7f4826e6a","system_id":"levelo_inurba_marseille","lat":43.28758,"lon":5.37955,"is_reserved":false,"is_disabled":true,"rental_uris":{"android":"levelo://app?vid=0f0ec3e7-954e-4cbf-8ae3-c6f7f4826e6a","ios":"levelo://app?vid=0f0ec3e7-954e-4cbf-8ae3-c6f7f4826e6a"},"vehicle_type_id":"4","last_reported":1774002469,"current_range_meters":8400,"station_id":"ce4bh9p2rcd13ifvqec0","pricing_plan_id":"cebpf4jnsgd1na2vs0mg"},{"bike_id":"91aa598b-3fb8-4341-b0c3-0da042590735","system_id":"levelo_inurba_marseille","lat":43.2854,"lon":5.44092,"is_reserved":false,"is_disabled":false,"rental_uris":{"android":"levelo://app?vid=91aa598b-3fb8-4341-b0c3-0da042590735","ios":"levelo://app?vid=91aa598b-3fb8-4341-b0c3-0da042590735"},"vehicle_type_id":"4","last_reported":1774002469,"current_range_meters":8400,"station_id":"st_d3j3df2ikq2c7380ej80","pricing_plan_id":"cebpf4jnsgd1na2vs0mg"},{"bike_id":"89ad46cf-ad84-4e5e-be57-87ac2cebe69c","system_id":"levelo_inurba_marseille","lat":43.28472,"lon":5.48385,"is_reserved":false,"is_disabled":false,"rental_uris":{"android":"levelo://app?vid=89ad46cf-ad84-4e5e-be57-87ac2cebe69c","ios":"levelo://app?vid=89ad46cf-ad84-4e5e-be57-87ac2cebe69c"},"vehicle_type_id":"4","last_reported":1774002469,"current_range_meters":8400,"station_id":"st_d3svhcjqgbts73a3dn0g","pricing_plan_id":"cebpf4jnsgd1na2vs0mg"},{"bike_id":"d663735b-585c-4ace-822e-5c6cacd3fff9","system_id":"levelo_inurba_marseille","lat":43.27049,"lon":5.38315,"is_reserved":false,"is_disabled":false,"rental_uris":{"android":"levelo://app?vid=d663735b-585c-4ace-822e-5c6cacd3fff9","ios":"levelo://app?vid=d663735b-585c-4ace-822e-5c6cacd3fff9"},"vehicle_type_id":"4","last_reported":1774002469,"current_range_meters":8400,"station_id":"st_d3n2fo6cfp8s73cte1j0","pricing_plan_id":"cebpf4jnsgd1na2vs0mg"},{"bike_id":"9e2308d9-37dd-470c-aa56-a0dd7a027efb","system_id":"levelo_inurba_marseille","lat":43.29545,"lon":5.37507,"is_reserved":false,"is_disabled":true,"rental_uris":{"android":"levelo://app?vid=9e2308d9-37dd-470c-aa56-a0dd7a027efb","ios":"levelo://app?vid=9e2308d9-37dd-470c-aa56-a0dd7a027efb"},"vehicle_type_id":"4","last_reported":1774002469,"current_range_meters":8400,"station_id":"ce4bgkp2rcd13ifvqbmg","pricing_plan_id":"cebpf4jnsgd1na2vs0mg"},{"bike_id":"59d2267f-7247-4a75-b01c-e6739320c121","system_id":"levelo_inurba_marseille","lat":43.28968,"lon":5.37828,"is_reserved":false,"is_disabled":true,"rental_uris":{"android":"levelo://app?vid=59d2267f-7247-4a75-b01c-e6739320c121","ios":"levelo://app?vid=59d2267f-7247-4a75-b01c-e6739320c121"},"vehicle_type_id":"4","last_reported":1774002469,"current_range_meters":8400,"station_id":"ce4bh9p2rcd13ifvqed0","pricing_plan_id":"cebpf4jnsgd1na2vs0mg"},{"bike_id":"0f77ab19-02c3-4b4a-be9a-c8801aa3d4b5","system_id":"levelo_inurba_marseille","lat":43.33152,"lon":5.37691,"is_reserved":false,"is_disabled":false,"rental_uris":{"android":"levelo://app?vid=0f77ab19-02c3-4b4a-be9a-c8801aa3d4b5","ios":"levelo://app?vid=0f77ab19-02c3-4b4a-be9a-c8801aa3d4b5"},"vehicle_type_id":"4","last_reported":1774002469,"current_range_meters":8400,"station_id":"st_d46cu089ee8s73dldbu0","pricing_plan_id":"cebpf4jnsgd1na2vs0mg"},{"bike_id":"524d4f4d-9481-4c69-a364-dc591d52f94a","system_id":"levelo_inurba_marseille","lat":43.30954,"lon":5.39027,"is_reserved":false,"is_disabled":false,"rental_uris":{"android":"levelo://app?vid=524d4f4d-9481-4c69-a364-dc591d52f94a","ios":"levelo://app?vid=524d4f4d-9481-4c69-a364-dc591d52f94a"},"vehicle_type_id":"4","last_reported":1774002469,"current_range_meters":8400,"station_id":"ce4bgup2rcd13ifvqco0","pricing_plan_id":"cebpf4jnsgd1na2vs0mg"},{"bike_id":"a545c754-e350-45a1-864b-ec76871d3bf7","system_id":"levelo_inurba_marseille","lat":43.21745,"lon":5.34603,"is_reserved":false,"is_disabled":false,"rental_uris":{"android":"levelo://app?vid=a545c754-e350-45a1-864b-ec76871d3bf7","ios":"levelo://app?vid=a545c754-e350-45a1-864b-ec76871d3bf7"},"vehicle_type_id":"4","last_reported":1774002469,"current_range_meters":8400,"station_id":"","pricing_plan_id":"cebpf4jnsgd1na2vs0mg"},{"bike_id":"852f518b-c53f-4169-93fa-c62e8e358f9f","system_id":"levelo_inurba_marseille","lat":43.29266,"lon":5.36812,"is_reserved":false,"is_disabled":false,"rental_uris":{"android":"levelo://app?vid=852f518b-c53f-4169-93fa-c62e8e358f9f","ios":"levelo://app?vid=852f518b-c53f-4169-93fa-c62e8e358f9f"},"vehicle_type_id":"4","last_reported":1774002469,"current_range_meters":8400,"station_id":"ce4bhbp2rcd13ifvqesg","pricing_plan_id":"cebpf4jnsgd1na2vs0mg"},{"bike_id":"5f3cb7ac-7ae3-44f9-b2d0-1f822681fdae","system_id":"levelo_inurba_marseille","lat":43.24077,"lon":5.3774,"is_reserved":false,"is_disabled":false,"rental_uris":{"android":"levelo://app?vid=5f3cb7ac-7ae3-44f9-b2d0-1f822681fdae","ios":"levelo://app?vid=5f3cb7ac-7ae3-44f9-b2d0-1f822681fdae"},"vehicle_type_id":"4","last_reported":1774002469,"current_range_meters":8800,"station_id":"ce4bhnp2rcd13ifvqgvg","pricing_plan_id":"cebpf4jnsgd1na2vs0mg"},{"bike_id":"912e5f30-2e0b-48a9-85db-a984611241c9","system_id":"levelo_inurba_marseille","lat":43.29833,"lon":5.44046,"is_reserved":false,"is_disabled":false,"rental_uris":{"android":"levelo://app?vid=912e5f30-2e0b-48a9-85db-a984611241c9","ios":"levelo://app?vid=912e5f30-2e0b-48a9-85db-a984611241c9"},"vehicle_type_id":"4","last_reported":1774002469,"current_range_meters":8800,"station_id":"","pricing_plan_id":"cebpf4jnsgd1na2vs0mg"},{"bike_id":"9ec1942c-b173-4801-9f27-3e6493805e2b","system_id":"levelo_inurba_marseille","lat":43.24648,"lon":5.38888,"is_reserved":false,"is_disabled":false,"rental_uris":{"android":"levelo://app?vid=9ec1942c-b173-4801-9f27-3e6493805e2b","ios":"levelo://app?vid=9ec1942c-b173-4801-9f27-3e6493805e2b"},"vehicle_type_id":"4","last_reported":1774002469,"current_range_meters":8800,"station_id":"ce4bhg12rcd13ifvqf60","pricing_plan_id":"cebpf4jnsgd1na2vs0mg"},{"bike_id":"4a0e609e-6c21-48e8-8aeb-8e3d0c22ce4c","system_id":"levelo_inurba_marseille","lat":43.26531,"lon":5.37285,"is_reserved":false,"is_disabled":false,"rental_uris":{"android":"levelo://app?vid=4a0e609e-6c21-48e8-8aeb-8e3d0c22ce4c","ios":"levelo://app?vid=4a0e609e-6c21-48e8-8aeb-8e3d0c22ce4c"},"vehicle_type_id":"4","last_reported":1774002469,"current_range_meters":8800,"station_id":"ce4bhg12rcd13ifvqf70","pricing_plan_id":"cebpf4jnsgd1na2vs0mg"},{"bike_id":"97dc21d4-f745-4c2a-b0a9-0abdf5c15159","system_id":"levelo_inurba_marseille","lat":43.31104,"lon":5.37757,"is_reserved":false,"is_disabled":false,"rental_uris":{"android":"levelo://app?vid=97dc21d4-f745-4c2a-b0a9-0abdf5c15159","ios":"levelo://app?vid=97dc21d4-f745-4c2a-b0a9-0abdf5c15159"},"vehicle_type_id":"4","last_reported":1774002469,"current_range_meters":8800,"station_id":"ce4bgt92rcd13ifvqcg0","pricing_plan_id":"cebpf4jnsgd1na2vs0mg"},{"bike_id":"360fd481-1b79-4851-bf35-4750a475ff1d","system_id":"levelo_inurba_marseille","lat":43.28621,"lon":5.35095,"is_reserved":false,"is_disabled":false,"rental_uris":{"android":"levelo://app?vid=360fd481-1b79-4851-bf35-4750a475ff1d","ios":"levelo://app?vid=360fd481-1b79-4851-bf35-4750a475ff1d"},"vehicle_type_id":"4","last_reported":1774002469,"current_range_meters":8800,"station_id":"ce4bhch2rcd13ifvqeug","pricing_plan_id":"cebpf4jnsgd1na2vs0mg"},{"bike_id":"8648ff3d-a49d-4491-be6c-bab3f9812603","system_id":"levelo_inurba_marseille","lat":43.28285,"lon":5.43808,"is_reserved":false,"is_disabled":false,"rental_uris":{"android":"levelo://app?vid=8648ff3d-a49d-4491-be6c-bab3f9812603","ios":"levelo://app?vid=8648ff3d-a49d-4491-be6c-bab3f9812603"},"vehicle_type_id":"4","last_reported":1774002469,"current_range_meters":8800,"station_id":"","pricing_plan_id":"cebpf4jnsgd1na2vs0mg"},{"bike_id":"ab3d5fd6-ca74-4192-86f4-e33e6a943adb","system_id":"levelo_inurba_marseille","lat":43.31182,"lon":5.3688,"is_reserved":false,"is_disabled":false,"rental_uris":{"android":"levelo://app?vid=ab3d5fd6-ca74-4192-86f4-e33e6a943adb","ios":"levelo://app?vid=ab3d5fd6-ca74-4192-86f4-e33e6a943adb"},"vehicle_type_id":"4","last_reported":1774002469,"current_range_meters":8800,"station_id":"","pricing_plan_id":"cebpf4jnsgd1na2vs0mg"},{"bike_id":"1b491845-a098-414f-bdf6-ed8b8d983f9f","system_id":"levelo_inurba_marseille","lat":43.27201,"lon":5.39177,"is_reserved":false,"is_disabled":false,"rental_uris":{"android":"levelo://app?vid=1b491845-a098-414f-bdf6-ed8b8d983f9f","ios":"levelo://app?vid=1b491845-a098-414f-bdf6-ed8b8d983f9f"},"vehicle_type_id":"4","last_reported":1774002469,"current_range_meters":8800,"station_id":"ce4bhhp2rcd13ifvqfm0","pricing_plan_id":"cebpf4jnsgd1na2vs0mg"},{"bike_id":"58cc871d-ff3a-406d-a1ed-6dd3d9248448","system_id":"levelo_inurba_marseille","lat":43.26545,"lon":5.37303,"is_reserved":false,"is_disabled":false,"rental_uris":{"android":"levelo://app?vid=58cc871d-ff3a-406d-a1ed-6dd3d9248448","ios":"levelo://app?vid=58cc871d-ff3a-406d-a1ed-6dd3d9248448"},"vehicle_type_id":"4","last_reported":1774002469,"current_range_meters":8800,"station_id":"ce4bhg12rcd13ifvqf70","pricing_plan_id":"cebpf4jnsgd1na2vs0mg"},{"bike_id":"962e3e51-db50-4f61-a079-9b1c6a103eb5","system_id":"levelo_inurba_marseille","lat":43.30963,"lon":5.36814,"is_reserved":false,"is_disabled":false,"rental_uris":{"android":"levelo://app?vid=962e3e51-db50-4f61-a079-9b1c6a103eb5","ios":"levelo://app?vid=962e3e51-db50-4f61-a079-9b1c6a103eb5"},"vehicle_type_id":"4","last_reported":1774002469,"current_range_meters":8800,"station_id":"","pricing_plan_id":"cebpf4jnsgd1na2vs0mg"},{"bike_id":"9a7d9096-5d71-43cd-a43b-2a0e768872b8","system_id":"levelo_inurba_marseille","lat":43.30306,"lon":5.36904,"is_reserved":false,"is_disabled":false,"rental_uris":{"android":"levelo://app?vid=9a7d9096-5d71-43cd-a43b-2a0e768872b8","ios":"levelo://app?vid=9a7d9096-5d71-43cd-a43b-2a0e768872b8"},"vehicle_type_id":"4","last_reported":1774002469,"current_range_meters":8800,"station_id":"ce4bgqh2rcd13ifvqc5g","pricing_plan_id":"cebpf4jnsgd1na2vs0mg"},{"bike_id":"cd8e074c-5d51-42cd-b95f-935d5af10ad3","system_id":"levelo_inurba_marseille","lat":43.26686,"lon":5.38252,"is_reserved":false,"is_disabled":false,"rental_uris":{"android":"levelo://app?vid=cd8e074c-5d51-42cd-b95f-935d5af10ad3","ios":"levelo://app?vid=cd8e074c-5d51-42cd-b95f-935d5af10ad3"},"vehicle_type_id":"4","last_reported":1774002469,"current_range_meters":8800,"station_id":"ce4bhg92rcd13ifvqf90","pricing_plan_id":"cebpf4jnsgd1na2vs0mg"},{"bike_id":"3e0b9bfd-c6b5-4ad9-8940-b1537c358547","system_id":"levelo_inurba_marseille","lat":43.25864,"lon":5.39903,"is_reserved":false,"is_disabled":false,"rental_uris":{"android":"levelo://app?vid=3e0b9bfd-c6b5-4ad9-8940-b1537c358547","ios":"levelo://app?vid=3e0b9bfd-c6b5-4ad9-8940-b1537c358547"},"vehicle_type_id":"4","last_reported":1774002469,"current_range_meters":8800,"station_id":"ce4bhl92rcd13ifvqghg","pricing_plan_id":"cebpf4jnsgd1na2vs0mg"},{"bike_id":"feb0a619-4754-42a7-a12d-439ca4ce4df1","system_id":"levelo_inurba_marseille","lat":43.30194,"lon":5.3662,"is_reserved":false,"is_disabled":false,"rental_uris":{"android":"levelo://app?vid=feb0a619-4754-42a7-a12d-439ca4ce4df1","ios":"levelo://app?vid=feb0a619-4754-42a7-a12d-439ca4ce4df1"},"vehicle_type_id":"4","last_reported":1774002469,"current_range_meters":8800,"station_id":"ce4bgrh2rcd13ifvqc8g","pricing_plan_id":"cebpf4jnsgd1na2vs0mg"},{"bike_id":"7fa64d84-cd92-4f02-a79d-c348b129b15f","system_id":"levelo_inurba_marseille","lat":43.24169,"lon":5.364,"is_reserved":false,"is_disabled":false,"rental_uris":{"android":"levelo://app?vid=7fa64d84-cd92-4f02-a79d-c348b129b15f","ios":"levelo://app?vid=7fa64d84-cd92-4f02-a79d-c348b129b15f"},"vehicle_type_id":"4","last_reported":1774002469,"current_range_meters":8800,"station_id":"cpo36qri1sfpv3e86is0","pricing_plan_id":"cebpf4jnsgd1na2vs0mg"},{"bike_id":"cf644b4a-b00b-4198-9a69-695c69bc416b","system_id":"levelo_inurba_marseille","lat":43.23052,"lon":5.35493,"is_reserved":false,"is_disabled":false,"rental_uris":{"android":"levelo://app?vid=cf644b4a-b00b-4198-9a69-695c69bc416b","ios":"levelo://app?vid=cf644b4a-b00b-4198-9a69-695c69bc416b"},"vehicle_type_id":"4","last_reported":1774002469,"current_range_meters":8800,"station_id":"cpo3342slgdg3j2ifvpg","pricing_plan_id":"cebpf4jnsgd1na2vs0mg"},{"bike_id":"fe7e8afa-502f-4288-a75f-d6e489b174c6","system_id":"levelo_inurba_marseille","lat":43.26968,"lon":5.386,"is_reserved":false,"is_disabled":false,"rental_uris":{"android":"levelo://app?vid=fe7e8afa-502f-4288-a75f-d6e489b174c6","ios":"levelo://app?vid=fe7e8afa-502f-4288-a75f-d6e489b174c6"},"vehicle_type_id":"4","last_reported":1774002469,"current_range_meters":8800,"station_id":"ce4bhh92rcd13ifvqfh0","pricing_plan_id":"cebpf4jnsgd1na2vs0mg"},{"bike_id":"d98676a3-493e-49af-8b89-e7d7e5b495a4","system_id":"levelo_inurba_marseille","lat":43.30551,"lon":5.36698,"is_reserved":false,"is_disabled":false,"rental_uris":{"android":"levelo://app?vid=d98676a3-493e-49af-8b89-e7d7e5b495a4","ios":"levelo://app?vid=d98676a3-493e-49af-8b89-e7d7e5b495a4"},"vehicle_type_id":"4","last_reported":1774002469,"current_range_meters":9200,"station_id":"ce4bgrp2rcd13ifvqc9g","pricing_plan_id":"cebpf4jnsgd1na2vs0mg"},{"bike_id":"e2420c11-4646-4145-aa2e-baedb91a43dc","system_id":"levelo_inurba_marseille","lat":43.32357,"lon":5.36854,"is_reserved":false,"is_disabled":false,"rental_uris":{"android":"levelo://app?vid=e2420c11-4646-4145-aa2e-baedb91a43dc","ios":"levelo://app?vid=e2420c11-4646-4145-aa2e-baedb91a43dc"},"vehicle_type_id":"4","last_reported":1774002469,"current_range_meters":9200,"station_id":"","pricing_plan_id":"cebpf4jnsgd1na2vs0mg"},{"bike_id":"159add0d-ea6a-46ed-b970-2db41ca50e1b","system_id":"levelo_inurba_marseille","lat":43.26677,"lon":5.38261,"is_reserved":false,"is_disabled":false,"rental_uris":{"android":"levelo://app?vid=159add0d-ea6a-46ed-b970-2db41ca50e1b","ios":"levelo://app?vid=159add0d-ea6a-46ed-b970-2db41ca50e1b"},"vehicle_type_id":"4","last_reported":1774002469,"current_range_meters":9200,"station_id":"ce4bhg92rcd13ifvqf90","pricing_plan_id":"cebpf4jnsgd1na2vs0mg"},{"bike_id":"d00ce6b1-d263-4644-9ac8-801c3d34ac19","system_id":"levelo_inurba_marseille","lat":43.22567,"lon":5.41605,"is_reserved":false,"is_disabled":false,"rental_uris":{"android":"levelo://app?vid=d00ce6b1-d263-4644-9ac8-801c3d34ac19","ios":"levelo://app?vid=d00ce6b1-d263-4644-9ac8-801c3d34ac19"},"vehicle_type_id":"4","last_reported":1774002469,"current_range_meters":9200,"station_id":"st_d2o4gvlbi1j2169b742g","pricing_plan_id":"cebpf4jnsgd1na2vs0mg"},{"bike_id":"a8c8307b-e1e9-4950-a785-578e1a82f805","system_id":"levelo_inurba_marseille","lat":43.31257,"lon":5.37785,"is_reserved":false,"is_disabled":false,"rental_uris":{"android":"levelo://app?vid=a8c8307b-e1e9-4950-a785-578e1a82f805","ios":"levelo://app?vid=a8c8307b-e1e9-4950-a785-578e1a82f805"},"vehicle_type_id":"4","last_reported":1774002469,"current_range_meters":9200,"station_id":"","pricing_plan_id":"cebpf4jnsgd1na2vs0mg"},{"bike_id":"7f166c91-9eb1-4dc8-a940-85d8139ad9d9","system_id":"levelo_inurba_marseille","lat":43.23956,"lon":5.36629,"is_reserved":false,"is_disabled":false,"rental_uris":{"android":"levelo://app?vid=7f166c91-9eb1-4dc8-a940-85d8139ad9d9","ios":"levelo://app?vid=7f166c91-9eb1-4dc8-a940-85d8139ad9d9"},"vehicle_type_id":"4","last_reported":1774002469,"current_range_meters":9200,"station_id":"ce4bhi12rcd13ifvqfp0","pricing_plan_id":"cebpf4jnsgd1na2vs0mg"},{"bike_id":"d83d86a0-48a4-442a-9465-a11cff966d5c","system_id":"levelo_inurba_marseille","lat":43.30497,"lon":5.37907,"is_reserved":false,"is_disabled":false,"rental_uris":{"android":"levelo://app?vid=d83d86a0-48a4-442a-9465-a11cff966d5c","ios":"levelo://app?vid=d83d86a0-48a4-442a-9465-a11cff966d5c"},"vehicle_type_id":"4","last_reported":1774002469,"current_range_meters":9200,"station_id":"","pricing_plan_id":"cebpf4jnsgd1na2vs0mg"},{"bike_id":"634e73ed-d6ff-4b60-9983-037c478aa67e","system_id":"levelo_inurba_marseille","lat":43.31879,"lon":5.40727,"is_reserved":false,"is_disabled":false,"rental_uris":{"android":"levelo://app?vid=634e73ed-d6ff-4b60-9983-037c478aa67e","ios":"levelo://app?vid=634e73ed-d6ff-4b60-9983-037c478aa67e"},"vehicle_type_id":"4","last_reported":1774002469,"current_range_meters":9200,"station_id":"ce4bhq12rcd13ifvqhig","pricing_plan_id":"cebpf4jnsgd1na2vs0mg"},{"bike_id":"2b86208f-8086-4e01-8e6f-3bdaebe5cd81","system_id":"levelo_inurba_marseille","lat":43.30955,"lon":5.39041,"is_reserved":false,"is_disabled":false,"rental_uris":{"android":"levelo://app?vid=2b86208f-8086-4e01-8e6f-3bdaebe5cd81","ios":"levelo://app?vid=2b86208f-8086-4e01-8e6f-3bdaebe5cd81"},"vehicle_type_id":"4","last_reported":1774002469,"current_range_meters":9200,"station_id":"ce4bgup2rcd13ifvqco0","pricing_plan_id":"cebpf4jnsgd1na2vs0mg"},{"bike_id":"086b6e9d-5651-4f8f-8948-d3090ad08b80","system_id":"levelo_inurba_marseille","lat":43.24064,"lon":5.37739,"is_reserved":false,"is_disabled":false,"rental_uris":{"android":"levelo://app?vid=086b6e9d-5651-4f8f-8948-d3090ad08b80","ios":"levelo://app?vid=086b6e9d-5651-4f8f-8948-d3090ad08b80"},"vehicle_type_id":"4","last_reported":1774002469,"current_range_meters":9200,"station_id":"ce4bhnp2rcd13ifvqgvg","pricing_plan_id":"cebpf4jnsgd1na2vs0mg"},{"bike_id":"1919d8af-2c65-4a98-82dc-f67d83dfecc8","system_id":"levelo_inurba_marseille","lat":43.23144,"lon":5.43717,"is_reserved":false,"is_disabled":false,"rental_uris":{"android":"levelo://app?vid=1919d8af-2c65-4a98-82dc-f67d83dfecc8","ios":"levelo://app?vid=1919d8af-2c65-4a98-82dc-f67d83dfecc8"},"vehicle_type_id":"4","last_reported":1774002469,"current_range_meters":9200,"station_id":"ce4bhmp2rcd13ifvqgog","pricing_plan_id":"cebpf4jnsgd1na2vs0mg"},{"bike_id":"e05d1ed7-bbc1-4b39-bce6-dc34bf6cb512","system_id":"levelo_inurba_marseille","lat":43.24079,"lon":5.37746,"is_reserved":false,"is_disabled":false,"rental_uris":{"android":"levelo://app?vid=e05d1ed7-bbc1-4b39-bce6-dc34bf6cb512","ios":"levelo://app?vid=e05d1ed7-bbc1-4b39-bce6-dc34bf6cb512"},"vehicle_type_id":"4","last_reported":1774002469,"current_range_meters":9200,"station_id":"ce4bhnp2rcd13ifvqgvg","pricing_plan_id":"cebpf4jnsgd1na2vs0mg"},{"bike_id":"bd41e192-5def-446f-884b-7636c2db130f","system_id":"levelo_inurba_marseille","lat":43.33153,"lon":5.37683,"is_reserved":false,"is_disabled":false,"rental_uris":{"android":"levelo://app?vid=bd41e192-5def-446f-884b-7636c2db130f","ios":"levelo://app?vid=bd41e192-5def-446f-884b-7636c2db130f"},"vehicle_type_id":"4","last_reported":1774002469,"current_range_meters":9200,"station_id":"st_d46cu089ee8s73dldbu0","pricing_plan_id":"cebpf4jnsgd1na2vs0mg"},{"bike_id":"7c8a44c8-2fc0-4b6c-a063-df4cba4aa6e3","system_id":"levelo_inurba_marseille","lat":43.29971,"lon":5.37153,"is_reserved":false,"is_disabled":false,"rental_uris":{"android":"levelo://app?vid=7c8a44c8-2fc0-4b6c-a063-df4cba4aa6e3","ios":"levelo://app?vid=7c8a44c8-2fc0-4b6c-a063-df4cba4aa6e3"},"vehicle_type_id":"4","last_reported":1774002469,"current_range_meters":9200,"station_id":"ce4bgr92rcd13ifvqc7g","pricing_plan_id":"cebpf4jnsgd1na2vs0mg"},{"bike_id":"9063fa8e-72d4-4162-95e1-843acb4eeb50","system_id":"levelo_inurba_marseille","lat":43.24395,"lon":5.37054,"is_reserved":false,"is_disabled":false,"rental_uris":{"android":"levelo://app?vid=9063fa8e-72d4-4162-95e1-843acb4eeb50","ios":"levelo://app?vid=9063fa8e-72d4-4162-95e1-843acb4eeb50"},"vehicle_type_id":"4","last_reported":1774002469,"current_range_meters":9200,"station_id":"ce4bhhh2rcd13ifvqfk0","pricing_plan_id":"cebpf4jnsgd1na2vs0mg"},{"bike_id":"164ef4bd-d279-4e43-b18f-276ca93b0ec8","system_id":"levelo_inurba_marseille","lat":43.26672,"lon":5.38277,"is_reserved":false,"is_disabled":false,"rental_uris":{"android":"levelo://app?vid=164ef4bd-d279-4e43-b18f-276ca93b0ec8","ios":"levelo://app?vid=164ef4bd-d279-4e43-b18f-276ca93b0ec8"},"vehicle_type_id":"4","last_reported":1774002469,"current_range_meters":9200,"station_id":"ce4bhg92rcd13ifvqf90","pricing_plan_id":"cebpf4jnsgd1na2vs0mg"},{"bike_id":"5f6ac779-237c-4fbd-92ca-83b1d20b59f1","system_id":"levelo_inurba_marseille","lat":43.28983,"lon":5.37826,"is_reserved":false,"is_disabled":false,"rental_uris":{"android":"levelo://app?vid=5f6ac779-237c-4fbd-92ca-83b1d20b59f1","ios":"levelo://app?vid=5f6ac779-237c-4fbd-92ca-83b1d20b59f1"},"vehicle_type_id":"4","last_reported":1774002469,"current_range_meters":9200,"station_id":"ce4bh9p2rcd13ifvqed0","pricing_plan_id":"cebpf4jnsgd1na2vs0mg"},{"bike_id":"42883a64-6cea-404b-8006-6d278d254b8e","system_id":"levelo_inurba_marseille","lat":43.29171,"lon":5.3715,"is_reserved":false,"is_disabled":false,"rental_uris":{"android":"levelo://app?vid=42883a64-6cea-404b-8006-6d278d254b8e","ios":"levelo://app?vid=42883a64-6cea-404b-8006-6d278d254b8e"},"vehicle_type_id":"4","last_reported":1774002469,"current_range_meters":9600,"station_id":"ce4bha92rcd13ifvqeh0","pricing_plan_id":"cebpf4jnsgd1na2vs0mg"},{"bike_id":"15c3e7ad-f871-4796-b17d-a8e4059ab7b4","system_id":"levelo_inurba_marseille","lat":43.28493,"lon":5.38533,"is_reserved":false,"is_disabled":false,"rental_uris":{"android":"levelo://app?vid=15c3e7ad-f871-4796-b17d-a8e4059ab7b4","ios":"levelo://app?vid=15c3e7ad-f871-4796-b17d-a8e4059ab7b4"},"vehicle_type_id":"4","last_reported":1774002469,"current_range_meters":9600,"station_id":"ce4bh8p2rcd13ifvqeb0","pricing_plan_id":"cebpf4jnsgd1na2vs0mg"},{"bike_id":"ebb2b79e-0246-465d-872a-d70796bea6eb","system_id":"levelo_inurba_marseille","lat":43.30134,"lon":5.37434,"is_reserved":false,"is_disabled":false,"rental_uris":{"android":"levelo://app?vid=ebb2b79e-0246-465d-872a-d70796bea6eb","ios":"levelo://app?vid=ebb2b79e-0246-465d-872a-d70796bea6eb"},"vehicle_type_id":"4","last_reported":1774002469,"current_range_meters":9600,"station_id":"ce4bgs92rcd13ifvqcc0","pricing_plan_id":"cebpf4jnsgd1na2vs0mg"},{"bike_id":"31f54568-ee2a-4e1a-8776-1ff926e2109d","system_id":"levelo_inurba_marseille","lat":43.25928,"lon":5.40896,"is_reserved":false,"is_disabled":false,"rental_uris":{"android":"levelo://app?vid=31f54568-ee2a-4e1a-8776-1ff926e2109d","ios":"levelo://app?vid=31f54568-ee2a-4e1a-8776-1ff926e2109d"},"vehicle_type_id":"4","last_reported":1774002469,"current_range_meters":9600,"station_id":"ce4bhm92rcd13ifvqglg","pricing_plan_id":"cebpf4jnsgd1na2vs0mg"},{"bike_id":"b63e28c4-e4db-4a92-a9ce-06fc27566f70","system_id":"levelo_inurba_marseille","lat":43.254928,"lon":5.376482,"is_reserved":false,"is_disabled":true,"rental_uris":{"android":"levelo://app?vid=b63e28c4-e4db-4a92-a9ce-06fc27566f70","ios":"levelo://app?vid=b63e28c4-e4db-4a92-a9ce-06fc27566f70"},"vehicle_type_id":"4","last_reported":1774002469,"current_range_meters":9600,"station_id":"ce4bhh12rcd13ifvqff0","pricing_plan_id":"cebpf4jnsgd1na2vs0mg"},{"bike_id":"d4c6f501-fff5-4202-ab66-c28212c8a314","system_id":"levelo_inurba_marseille","lat":43.23189,"lon":5.39992,"is_reserved":false,"is_disabled":false,"rental_uris":{"android":"levelo://app?vid=d4c6f501-fff5-4202-ab66-c28212c8a314","ios":"levelo://app?vid=d4c6f501-fff5-4202-ab66-c28212c8a314"},"vehicle_type_id":"4","last_reported":1774002469,"current_range_meters":9600,"station_id":"ce4bhn12rcd13ifvqgqg","pricing_plan_id":"cebpf4jnsgd1na2vs0mg"},{"bike_id":"c6e6a545-189c-40fb-9326-5a7e5e70d475","system_id":"levelo_inurba_marseille","lat":43.30159,"lon":5.38087,"is_reserved":false,"is_disabled":false,"rental_uris":{"android":"levelo://app?vid=c6e6a545-189c-40fb-9326-5a7e5e70d475","ios":"levelo://app?vid=c6e6a545-189c-40fb-9326-5a7e5e70d475"},"vehicle_type_id":"4","last_reported":1774002469,"current_range_meters":9600,"station_id":"ce4bgjp2rcd13ifvqbh0","pricing_plan_id":"cebpf4jnsgd1na2vs0mg"},{"bike_id":"47786148-3158-4346-a285-e47a9280a644","system_id":"levelo_inurba_marseille","lat":43.26564,"lon":5.39,"is_reserved":false,"is_disabled":false,"rental_uris":{"android":"levelo://app?vid=47786148-3158-4346-a285-e47a9280a644","ios":"levelo://app?vid=47786148-3158-4346-a285-e47a9280a644"},"vehicle_type_id":"4","last_reported":1774002469,"current_range_meters":9600,"station_id":"ce4bhe12rcd13ifvqf30","pricing_plan_id":"cebpf4jnsgd1na2vs0mg"},{"bike_id":"f3414e99-2d7c-4b03-96db-df8c1c6d3f2b","system_id":"levelo_inurba_marseille","lat":43.28478,"lon":5.484,"is_reserved":false,"is_disabled":false,"rental_uris":{"android":"levelo://app?vid=f3414e99-2d7c-4b03-96db-df8c1c6d3f2b","ios":"levelo://app?vid=f3414e99-2d7c-4b03-96db-df8c1c6d3f2b"},"vehicle_type_id":"4","last_reported":1774002469,"current_range_meters":9600,"station_id":"","pricing_plan_id":"cebpf4jnsgd1na2vs0mg"},{"bike_id":"bfa999de-7a32-454a-b31e-f99ace51a3fc","system_id":"levelo_inurba_marseille","lat":43.2847,"lon":5.48392,"is_reserved":false,"is_disabled":false,"rental_uris":{"android":"levelo://app?vid=bfa999de-7a32-454a-b31e-f99ace51a3fc","ios":"levelo://app?vid=bfa999de-7a32-454a-b31e-f99ace51a3fc"},"vehicle_type_id":"4","last_reported":1774002469,"current_range_meters":9600,"station_id":"","pricing_plan_id":"cebpf4jnsgd1na2vs0mg"},{"bike_id":"b3b3bb0b-fb2d-4490-a557-6f80b344e03f","system_id":"levelo_inurba_marseille","lat":43.28945,"lon":5.3964,"is_reserved":false,"is_disabled":true,"rental_uris":{"android":"levelo://app?vid=b3b3bb0b-fb2d-4490-a557-6f80b344e03f","ios":"levelo://app?vid=b3b3bb0b-fb2d-4490-a557-6f80b344e03f"},"vehicle_type_id":"4","last_reported":1774002469,"current_range_meters":9600,"station_id":"ce4bh3h2rcd13ifvqdn0","pricing_plan_id":"cebpf4jnsgd1na2vs0mg"},{"bike_id":"abce8bf2-55ad-4073-96c9-021689cbe091","system_id":"levelo_inurba_marseille","lat":43.2314,"lon":5.43672,"is_reserved":false,"is_disabled":false,"rental_uris":{"android":"levelo://app?vid=abce8bf2-55ad-4073-96c9-021689cbe091","ios":"levelo://app?vid=abce8bf2-55ad-4073-96c9-021689cbe091"},"vehicle_type_id":"4","last_reported":1774002469,"current_range_meters":9600,"station_id":"ce4bhmp2rcd13ifvqgog","pricing_plan_id":"cebpf4jnsgd1na2vs0mg"},{"bike_id":"aef78bd0-ea9a-490e-b29e-79fe1986976a","system_id":"levelo_inurba_marseille","lat":43.24649,"lon":5.38858,"is_reserved":false,"is_disabled":false,"rental_uris":{"android":"levelo://app?vid=aef78bd0-ea9a-490e-b29e-79fe1986976a","ios":"levelo://app?vid=aef78bd0-ea9a-490e-b29e-79fe1986976a"},"vehicle_type_id":"4","last_reported":1774002469,"current_range_meters":9600,"station_id":"ce4bhg12rcd13ifvqf60","pricing_plan_id":"cebpf4jnsgd1na2vs0mg"},{"bike_id":"5d4a7186-6760-4a0a-977a-3b5b899bd9be","system_id":"levelo_inurba_marseille","lat":43.28689,"lon":5.39957,"is_reserved":false,"is_disabled":false,"rental_uris":{"android":"levelo://app?vid=5d4a7186-6760-4a0a-977a-3b5b899bd9be","ios":"levelo://app?vid=5d4a7186-6760-4a0a-977a-3b5b899bd9be"},"vehicle_type_id":"4","last_reported":1774002469,"current_range_meters":9600,"station_id":"ce4bho92rcd13ifvqh3g","pricing_plan_id":"cebpf4jnsgd1na2vs0mg"},{"bike_id":"c49bbaaa-2352-4fdc-b3de-1140d58d5fea","system_id":"levelo_inurba_marseille","lat":43.29161,"lon":5.42783,"is_reserved":false,"is_disabled":false,"rental_uris":{"android":"levelo://app?vid=c49bbaaa-2352-4fdc-b3de-1140d58d5fea","ios":"levelo://app?vid=c49bbaaa-2352-4fdc-b3de-1140d58d5fea"},"vehicle_type_id":"4","last_reported":1774002469,"current_range_meters":9600,"station_id":"","pricing_plan_id":"cebpf4jnsgd1na2vs0mg"},{"bike_id":"54b8391b-9041-426a-8386-b4be1f248145","system_id":"levelo_inurba_marseille","lat":43.25007,"lon":5.38909,"is_reserved":false,"is_disabled":false,"rental_uris":{"android":"levelo://app?vid=54b8391b-9041-426a-8386-b4be1f248145","ios":"levelo://app?vid=54b8391b-9041-426a-8386-b4be1f248145"},"vehicle_type_id":"4","last_reported":1774002469,"current_range_meters":10000,"station_id":"ce4bhgp2rcd13ifvqfd0","pricing_plan_id":"cebpf4jnsgd1na2vs0mg"},{"bike_id":"92f32112-8a58-4a2d-8380-c50aa46da344","system_id":"levelo_inurba_marseille","lat":43.24064,"lon":5.36366,"is_reserved":false,"is_disabled":false,"rental_uris":{"android":"levelo://app?vid=92f32112-8a58-4a2d-8380-c50aa46da344","ios":"levelo://app?vid=92f32112-8a58-4a2d-8380-c50aa46da344"},"vehicle_type_id":"4","last_reported":1774002469,"current_range_meters":10000,"station_id":"","pricing_plan_id":"cebpf4jnsgd1na2vs0mg"},{"bike_id":"1ada5283-9afe-4610-93e7-df507e72c73e","system_id":"levelo_inurba_marseille","lat":43.27241,"lon":5.3922,"is_reserved":false,"is_disabled":false,"rental_uris":{"android":"levelo://app?vid=1ada5283-9afe-4610-93e7-df507e72c73e","ios":"levelo://app?vid=1ada5283-9afe-4610-93e7-df507e72c73e"},"vehicle_type_id":"4","last_reported":1774002469,"current_range_meters":10000,"station_id":"ce4bhhp2rcd13ifvqfm0","pricing_plan_id":"cebpf4jnsgd1na2vs0mg"},{"bike_id":"3676a395-9d4a-4d07-81c5-7b1d4a0acb38","system_id":"levelo_inurba_marseille","lat":43.31556,"lon":5.37293,"is_reserved":false,"is_disabled":false,"rental_uris":{"android":"levelo://app?vid=3676a395-9d4a-4d07-81c5-7b1d4a0acb38","ios":"levelo://app?vid=3676a395-9d4a-4d07-81c5-7b1d4a0acb38"},"vehicle_type_id":"4","last_reported":1774002469,"current_range_meters":10000,"station_id":"","pricing_plan_id":"cebpf4jnsgd1na2vs0mg"},{"bike_id":"5823234a-ebe5-4f73-a6ca-e22e8e37fb65","system_id":"levelo_inurba_marseille","lat":43.30792,"lon":5.37669,"is_reserved":false,"is_disabled":true,"rental_uris":{"android":"levelo://app?vid=5823234a-ebe5-4f73-a6ca-e22e8e37fb65","ios":"levelo://app?vid=5823234a-ebe5-4f73-a6ca-e22e8e37fb65"},"vehicle_type_id":"4","last_reported":1774002469,"current_range_meters":10000,"station_id":"ce4bgv92rcd13ifvqcq0","pricing_plan_id":"cebpf4jnsgd1na2vs0mg"},{"bike_id":"d56a2729-0f5e-4511-82bb-cd36a7190119","system_id":"levelo_inurba_marseille","lat":43.26947,"lon":5.38625,"is_reserved":false,"is_disabled":false,"rental_uris":{"android":"levelo://app?vid=d56a2729-0f5e-4511-82bb-cd36a7190119","ios":"levelo://app?vid=d56a2729-0f5e-4511-82bb-cd36a7190119"},"vehicle_type_id":"4","last_reported":1774002469,"current_range_meters":10000,"station_id":"ce4bhh92rcd13ifvqfh0","pricing_plan_id":"cebpf4jnsgd1na2vs0mg"},{"bike_id":"d19146e6-2683-4992-978e-a0caddfdc508","system_id":"levelo_inurba_marseille","lat":43.29899,"lon":5.37476,"is_reserved":false,"is_disabled":false,"rental_uris":{"android":"levelo://app?vid=d19146e6-2683-4992-978e-a0caddfdc508","ios":"levelo://app?vid=d19146e6-2683-4992-978e-a0caddfdc508"},"vehicle_type_id":"4","last_reported":1774002469,"current_range_meters":10000,"station_id":"ce4bgjh2rcd13ifvqbg0","pricing_plan_id":"cebpf4jnsgd1na2vs0mg"},{"bike_id":"48e41e1a-1cc1-42b5-b80a-07f88f66c64f","system_id":"levelo_inurba_marseille","lat":43.27423,"lon":5.39399,"is_reserved":false,"is_disabled":false,"rental_uris":{"android":"levelo://app?vid=48e41e1a-1cc1-42b5-b80a-07f88f66c64f","ios":"levelo://app?vid=48e41e1a-1cc1-42b5-b80a-07f88f66c64f"},"vehicle_type_id":"4","last_reported":1774002469,"current_range_meters":10000,"station_id":"ce4bhdp2rcd13ifvqf20","pricing_plan_id":"cebpf4jnsgd1na2vs0mg"},{"bike_id":"56fe43ae-5724-4ddf-81d8-01b89d490e95","system_id":"levelo_inurba_marseille","lat":43.26016,"lon":5.37565,"is_reserved":false,"is_disabled":false,"rental_uris":{"android":"levelo://app?vid=56fe43ae-5724-4ddf-81d8-01b89d490e95","ios":"levelo://app?vid=56fe43ae-5724-4ddf-81d8-01b89d490e95"},"vehicle_type_id":"4","last_reported":1774002469,"current_range_meters":10000,"station_id":"ce4bhgh2rcd13ifvqfa0","pricing_plan_id":"cebpf4jnsgd1na2vs0mg"},{"bike_id":"94b15f30-15b7-4635-a81b-764f12a8cc53","system_id":"levelo_inurba_marseille","lat":43.26677,"lon":5.38272,"is_reserved":false,"is_disabled":false,"rental_uris":{"android":"levelo://app?vid=94b15f30-15b7-4635-a81b-764f12a8cc53","ios":"levelo://app?vid=94b15f30-15b7-4635-a81b-764f12a8cc53"},"vehicle_type_id":"4","last_reported":1774002469,"current_range_meters":10000,"station_id":"ce4bhg92rcd13ifvqf90","pricing_plan_id":"cebpf4jnsgd1na2vs0mg"},{"bike_id":"e0cac70a-102e-45a3-a5cc-d5ba79673d38","system_id":"levelo_inurba_marseille","lat":43.28156,"lon":5.42641,"is_reserved":false,"is_disabled":false,"rental_uris":{"android":"levelo://app?vid=e0cac70a-102e-45a3-a5cc-d5ba79673d38","ios":"levelo://app?vid=e0cac70a-102e-45a3-a5cc-d5ba79673d38"},"vehicle_type_id":"4","last_reported":1774002469,"current_range_meters":10000,"station_id":"ce4bhnh2rcd13ifvqgug","pricing_plan_id":"cebpf4jnsgd1na2vs0mg"},{"bike_id":"c2f05ab1-0a5a-4ca7-a5a2-17b706b57d7a","system_id":"levelo_inurba_marseille","lat":43.2826,"lon":5.35056,"is_reserved":false,"is_disabled":false,"rental_uris":{"android":"levelo://app?vid=c2f05ab1-0a5a-4ca7-a5a2-17b706b57d7a","ios":"levelo://app?vid=c2f05ab1-0a5a-4ca7-a5a2-17b706b57d7a"},"vehicle_type_id":"4","last_reported":1774002469,"current_range_meters":10000,"station_id":"ce4bhbp2rcd13ifvqerg","pricing_plan_id":"cebpf4jnsgd1na2vs0mg"},{"bike_id":"be631923-2fc9-4bee-b02e-b5a58c1860ef","system_id":"levelo_inurba_marseille","lat":43.270635,"lon":5.402593,"is_reserved":false,"is_disabled":false,"rental_uris":{"android":"levelo://app?vid=be631923-2fc9-4bee-b02e-b5a58c1860ef","ios":"levelo://app?vid=be631923-2fc9-4bee-b02e-b5a58c1860ef"},"vehicle_type_id":"4","last_reported":1774002469,"current_range_meters":10000,"station_id":"ce4bhk92rcd13ifvqgc0","pricing_plan_id":"cebpf4jnsgd1na2vs0mg"},{"bike_id":"7ce3409f-d94a-4922-9a4f-e3b03712f760","system_id":"levelo_inurba_marseille","lat":43.29785,"lon":5.37103,"is_reserved":false,"is_disabled":false,"rental_uris":{"android":"levelo://app?vid=7ce3409f-d94a-4922-9a4f-e3b03712f760","ios":"levelo://app?vid=7ce3409f-d94a-4922-9a4f-e3b03712f760"},"vehicle_type_id":"4","last_reported":1774002469,"current_range_meters":10000,"station_id":"ce4bgop2rcd13ifvqc1g","pricing_plan_id":"cebpf4jnsgd1na2vs0mg"},{"bike_id":"5837513d-77a9-43ef-8655-a455c9a91fa8","system_id":"levelo_inurba_marseille","lat":43.26553,"lon":5.37295,"is_reserved":false,"is_disabled":false,"rental_uris":{"android":"levelo://app?vid=5837513d-77a9-43ef-8655-a455c9a91fa8","ios":"levelo://app?vid=5837513d-77a9-43ef-8655-a455c9a91fa8"},"vehicle_type_id":"4","last_reported":1774002469,"current_range_meters":10000,"station_id":"ce4bhg12rcd13ifvqf70","pricing_plan_id":"cebpf4jnsgd1na2vs0mg"},{"bike_id":"bb64248e-0e5d-4ee1-9d8f-d48a0dd77d66","system_id":"levelo_inurba_marseille","lat":43.21623,"lon":5.3446,"is_reserved":false,"is_disabled":false,"rental_uris":{"android":"levelo://app?vid=bb64248e-0e5d-4ee1-9d8f-d48a0dd77d66","ios":"levelo://app?vid=bb64248e-0e5d-4ee1-9d8f-d48a0dd77d66"},"vehicle_type_id":"4","last_reported":1774002469,"current_range_meters":10000,"station_id":"","pricing_plan_id":"cebpf4jnsgd1na2vs0mg"},{"bike_id":"3e2982da-4b77-43dc-8e9f-b50920ff82f4","system_id":"levelo_inurba_marseille","lat":43.24371,"lon":5.37036,"is_reserved":false,"is_disabled":false,"rental_uris":{"android":"levelo://app?vid=3e2982da-4b77-43dc-8e9f-b50920ff82f4","ios":"levelo://app?vid=3e2982da-4b77-43dc-8e9f-b50920ff82f4"},"vehicle_type_id":"4","last_reported":1774002469,"current_range_meters":10000,"station_id":"ce4bhhh2rcd13ifvqfk0","pricing_plan_id":"cebpf4jnsgd1na2vs0mg"},{"bike_id":"34915e0f-2644-49d6-a2aa-713b23e3b38c","system_id":"levelo_inurba_marseille","lat":43.31274,"lon":5.40161,"is_reserved":false,"is_disabled":false,"rental_uris":{"android":"levelo://app?vid=34915e0f-2644-49d6-a2aa-713b23e3b38c","ios":"levelo://app?vid=34915e0f-2644-49d6-a2aa-713b23e3b38c"},"vehicle_type_id":"4","last_reported":1774002469,"current_range_meters":10000,"station_id":"ce4bh092rcd13ifvqd30","pricing_plan_id":"cebpf4jnsgd1na2vs0mg"},{"bike_id":"cc777a7e-f3d4-4026-819d-66c6f1a5d2b6","system_id":"levelo_inurba_marseille","lat":43.29206,"lon":5.42601,"is_reserved":false,"is_disabled":false,"rental_uris":{"android":"levelo://app?vid=cc777a7e-f3d4-4026-819d-66c6f1a5d2b6","ios":"levelo://app?vid=cc777a7e-f3d4-4026-819d-66c6f1a5d2b6"},"vehicle_type_id":"4","last_reported":1774002469,"current_range_meters":10800,"station_id":"","pricing_plan_id":"cebpf4jnsgd1na2vs0mg"},{"bike_id":"df5ad533-8354-43dd-b4db-d4118becde63","system_id":"levelo_inurba_marseille","lat":43.28508,"lon":5.48334,"is_reserved":false,"is_disabled":false,"rental_uris":{"android":"levelo://app?vid=df5ad533-8354-43dd-b4db-d4118becde63","ios":"levelo://app?vid=df5ad533-8354-43dd-b4db-d4118becde63"},"vehicle_type_id":"4","last_reported":1774002469,"current_range_meters":10800,"station_id":"","pricing_plan_id":"cebpf4jnsgd1na2vs0mg"},{"bike_id":"5cedefe2-ed17-4452-9933-659cd1a0200b","system_id":"levelo_inurba_marseille","lat":43.30335,"lon":5.36913,"is_reserved":false,"is_disabled":false,"rental_uris":{"android":"levelo://app?vid=5cedefe2-ed17-4452-9933-659cd1a0200b","ios":"levelo://app?vid=5cedefe2-ed17-4452-9933-659cd1a0200b"},"vehicle_type_id":"4","last_reported":1774002469,"current_range_meters":10800,"station_id":"ce4bgqh2rcd13ifvqc5g","pricing_plan_id":"cebpf4jnsgd1na2vs0mg"},{"bike_id":"60d2ea08-2b7e-44e7-8315-9304b8a5f88f","system_id":"levelo_inurba_marseille","lat":43.31724,"lon":5.42385,"is_reserved":false,"is_disabled":false,"rental_uris":{"android":"levelo://app?vid=60d2ea08-2b7e-44e7-8315-9304b8a5f88f","ios":"levelo://app?vid=60d2ea08-2b7e-44e7-8315-9304b8a5f88f"},"vehicle_type_id":"4","last_reported":1774002469,"current_range_meters":10800,"station_id":"ce4bhp92rcd13ifvqhbg","pricing_plan_id":"cebpf4jnsgd1na2vs0mg"},{"bike_id":"d9a2340f-4dc0-456b-89f0-454af4d93a65","system_id":"levelo_inurba_marseille","lat":43.28494,"lon":5.35119,"is_reserved":false,"is_disabled":false,"rental_uris":{"android":"levelo://app?vid=d9a2340f-4dc0-456b-89f0-454af4d93a65","ios":"levelo://app?vid=d9a2340f-4dc0-456b-89f0-454af4d93a65"},"vehicle_type_id":"4","last_reported":1774002469,"current_range_meters":10800,"station_id":"","pricing_plan_id":"cebpf4jnsgd1na2vs0mg"},{"bike_id":"082220aa-d370-432c-9051-6818fbf15d1d","system_id":"levelo_inurba_marseille","lat":43.31119,"lon":5.36902,"is_reserved":false,"is_disabled":true,"rental_uris":{"android":"levelo://app?vid=082220aa-d370-432c-9051-6818fbf15d1d","ios":"levelo://app?vid=082220aa-d370-432c-9051-6818fbf15d1d"},"vehicle_type_id":"4","last_reported":1774002469,"current_range_meters":10800,"station_id":"ce4bgl92rcd13ifvqbq0","pricing_plan_id":"cebpf4jnsgd1na2vs0mg"},{"bike_id":"5218ac48-a8a1-4acf-aec6-5a46081b22ce","system_id":"levelo_inurba_marseille","lat":43.301452,"lon":5.380733,"is_reserved":false,"is_disabled":true,"rental_uris":{"android":"levelo://app?vid=5218ac48-a8a1-4acf-aec6-5a46081b22ce","ios":"levelo://app?vid=5218ac48-a8a1-4acf-aec6-5a46081b22ce"},"vehicle_type_id":"4","last_reported":1774002469,"current_range_meters":10800,"station_id":"ce4bgjp2rcd13ifvqbh0","pricing_plan_id":"cebpf4jnsgd1na2vs0mg"},{"bike_id":"c3419223-a78f-46ea-9de1-512bd722cd84","system_id":"levelo_inurba_marseille","lat":43.29841,"lon":5.4056,"is_reserved":false,"is_disabled":false,"rental_uris":{"android":"levelo://app?vid=c3419223-a78f-46ea-9de1-512bd722cd84","ios":"levelo://app?vid=c3419223-a78f-46ea-9de1-512bd722cd84"},"vehicle_type_id":"4","last_reported":1774002469,"current_range_meters":10800,"station_id":"","pricing_plan_id":"cebpf4jnsgd1na2vs0mg"},{"bike_id":"269e3b0a-f918-4659-80d7-ae5f59491a30","system_id":"levelo_inurba_marseille","lat":43.2991,"lon":5.3813,"is_reserved":false,"is_disabled":true,"rental_uris":{"android":"levelo://app?vid=269e3b0a-f918-4659-80d7-ae5f59491a30","ios":"levelo://app?vid=269e3b0a-f918-4659-80d7-ae5f59491a30"},"vehicle_type_id":"4","last_reported":1774002469,"current_range_meters":10800,"station_id":"ce4bgj12rcd13ifvqbc0","pricing_plan_id":"cebpf4jnsgd1na2vs0mg"},{"bike_id":"f44e27c5-d3c1-470f-b047-cface7316b82","system_id":"levelo_inurba_marseille","lat":43.31239,"lon":5.3687,"is_reserved":false,"is_disabled":false,"rental_uris":{"android":"levelo://app?vid=f44e27c5-d3c1-470f-b047-cface7316b82","ios":"levelo://app?vid=f44e27c5-d3c1-470f-b047-cface7316b82"},"vehicle_type_id":"4","last_reported":1774002469,"current_range_meters":10800,"station_id":"ce4bgl92rcd13ifvqbq0","pricing_plan_id":"cebpf4jnsgd1na2vs0mg"},{"bike_id":"b1144be4-4642-4dc6-9a38-cb8cd1471a8e","system_id":"levelo_inurba_marseille","lat":43.26684,"lon":5.38244,"is_reserved":false,"is_disabled":false,"rental_uris":{"android":"levelo://app?vid=b1144be4-4642-4dc6-9a38-cb8cd1471a8e","ios":"levelo://app?vid=b1144be4-4642-4dc6-9a38-cb8cd1471a8e"},"vehicle_type_id":"4","last_reported":1774002469,"current_range_meters":10800,"station_id":"ce4bhg92rcd13ifvqf90","pricing_plan_id":"cebpf4jnsgd1na2vs0mg"},{"bike_id":"7b872287-314c-4d83-8fa7-890133a9b88e","system_id":"levelo_inurba_marseille","lat":43.27075,"lon":5.42232,"is_reserved":false,"is_disabled":false,"rental_uris":{"android":"levelo://app?vid=7b872287-314c-4d83-8fa7-890133a9b88e","ios":"levelo://app?vid=7b872287-314c-4d83-8fa7-890133a9b88e"},"vehicle_type_id":"4","last_reported":1774002469,"current_range_meters":11200,"station_id":"ce4bhk92rcd13ifvqgb0","pricing_plan_id":"cebpf4jnsgd1na2vs0mg"},{"bike_id":"36750a5a-e715-404b-ab4e-4dfa557014c3","system_id":"levelo_inurba_marseille","lat":43.24459,"lon":5.42539,"is_reserved":false,"is_disabled":false,"rental_uris":{"android":"levelo://app?vid=36750a5a-e715-404b-ab4e-4dfa557014c3","ios":"levelo://app?vid=36750a5a-e715-404b-ab4e-4dfa557014c3"},"vehicle_type_id":"4","last_reported":1774002469,"current_range_meters":11200,"station_id":"st_d4a3vfp97mjs738cd8kg","pricing_plan_id":"cebpf4jnsgd1na2vs0mg"},{"bike_id":"1daf8e04-6b38-4d97-a5a1-fc5565c9ae79","system_id":"levelo_inurba_marseille","lat":43.29678,"lon":5.37326,"is_reserved":false,"is_disabled":false,"rental_uris":{"android":"levelo://app?vid=1daf8e04-6b38-4d97-a5a1-fc5565c9ae79","ios":"levelo://app?vid=1daf8e04-6b38-4d97-a5a1-fc5565c9ae79"},"vehicle_type_id":"4","last_reported":1774002469,"current_range_meters":11200,"station_id":"ce4bgk12rcd13ifvqbj0","pricing_plan_id":"cebpf4jnsgd1na2vs0mg"},{"bike_id":"8ff4739f-da8f-493e-b609-b54b4435f7a9","system_id":"levelo_inurba_marseille","lat":43.30955,"lon":5.39057,"is_reserved":false,"is_disabled":false,"rental_uris":{"android":"levelo://app?vid=8ff4739f-da8f-493e-b609-b54b4435f7a9","ios":"levelo://app?vid=8ff4739f-da8f-493e-b609-b54b4435f7a9"},"vehicle_type_id":"4","last_reported":1774002469,"current_range_meters":11200,"station_id":"ce4bgup2rcd13ifvqco0","pricing_plan_id":"cebpf4jnsgd1na2vs0mg"},{"bike_id":"3727d6e3-4577-49ea-959e-93a5e09450a3","system_id":"levelo_inurba_marseille","lat":43.31443,"lon":5.40089,"is_reserved":false,"is_disabled":false,"rental_uris":{"android":"levelo://app?vid=3727d6e3-4577-49ea-959e-93a5e09450a3","ios":"levelo://app?vid=3727d6e3-4577-49ea-959e-93a5e09450a3"},"vehicle_type_id":"4","last_reported":1774002469,"current_range_meters":11200,"station_id":"","pricing_plan_id":"cebpf4jnsgd1na2vs0mg"},{"bike_id":"f4d8d68b-4de5-44fa-8aa4-02d44d645f5e","system_id":"levelo_inurba_marseille","lat":43.246229,"lon":5.373728,"is_reserved":false,"is_disabled":false,"rental_uris":{"android":"levelo://app?vid=f4d8d68b-4de5-44fa-8aa4-02d44d645f5e","ios":"levelo://app?vid=f4d8d68b-4de5-44fa-8aa4-02d44d645f5e"},"vehicle_type_id":"4","last_reported":1774002469,"current_range_meters":11200,"station_id":"","pricing_plan_id":"cebpf4jnsgd1na2vs0mg"},{"bike_id":"7db5496d-09d6-4603-99f4-8236883013ea","system_id":"levelo_inurba_marseille","lat":43.27077,"lon":5.42292,"is_reserved":false,"is_disabled":false,"rental_uris":{"android":"levelo://app?vid=7db5496d-09d6-4603-99f4-8236883013ea","ios":"levelo://app?vid=7db5496d-09d6-4603-99f4-8236883013ea"},"vehicle_type_id":"4","last_reported":1774002469,"current_range_meters":11200,"station_id":"ce4bhk92rcd13ifvqgb0","pricing_plan_id":"cebpf4jnsgd1na2vs0mg"},{"bike_id":"01364959-f5cb-45fc-b2ab-fcb016f80f7e","system_id":"levelo_inurba_marseille","lat":43.289355,"lon":5.384042,"is_reserved":false,"is_disabled":false,"rental_uris":{"android":"levelo://app?vid=01364959-f5cb-45fc-b2ab-fcb016f80f7e","ios":"levelo://app?vid=01364959-f5cb-45fc-b2ab-fcb016f80f7e"},"vehicle_type_id":"4","last_reported":1774002469,"current_range_meters":11200,"station_id":"ce4bh4p2rcd13ifvqe0g","pricing_plan_id":"cebpf4jnsgd1na2vs0mg"},{"bike_id":"703efbe1-feef-417d-a9e3-0fca1a7eab74","system_id":"levelo_inurba_marseille","lat":43.35152,"lon":5.38007,"is_reserved":false,"is_disabled":false,"rental_uris":{"android":"levelo://app?vid=703efbe1-feef-417d-a9e3-0fca1a7eab74","ios":"levelo://app?vid=703efbe1-feef-417d-a9e3-0fca1a7eab74"},"vehicle_type_id":"4","last_reported":1774002469,"current_range_meters":11200,"station_id":"","pricing_plan_id":"cebpf4jnsgd1na2vs0mg"},{"bike_id":"972ad57a-a3c2-4b95-85c1-7578e0fa3f49","system_id":"levelo_inurba_marseille","lat":43.26368,"lon":5.41065,"is_reserved":false,"is_disabled":false,"rental_uris":{"android":"levelo://app?vid=972ad57a-a3c2-4b95-85c1-7578e0fa3f49","ios":"levelo://app?vid=972ad57a-a3c2-4b95-85c1-7578e0fa3f49"},"vehicle_type_id":"4","last_reported":1774002469,"current_range_meters":11200,"station_id":"st_d4e5ca6na9uc73bfl5fg","pricing_plan_id":"cebpf4jnsgd1na2vs0mg"},{"bike_id":"7e1ea396-1040-4c78-bb74-94936b3df103","system_id":"levelo_inurba_marseille","lat":43.30539,"lon":5.36519,"is_reserved":false,"is_disabled":false,"rental_uris":{"android":"levelo://app?vid=7e1ea396-1040-4c78-bb74-94936b3df103","ios":"levelo://app?vid=7e1ea396-1040-4c78-bb74-94936b3df103"},"vehicle_type_id":"4","last_reported":1774002469,"current_range_meters":11600,"station_id":"ce4bgs12rcd13ifvqcag","pricing_plan_id":"cebpf4jnsgd1na2vs0mg"},{"bike_id":"4e7144fd-da6e-4ea4-9570-e4ed1bd664ff","system_id":"levelo_inurba_marseille","lat":43.28868,"lon":5.42504,"is_reserved":false,"is_disabled":false,"rental_uris":{"android":"levelo://app?vid=4e7144fd-da6e-4ea4-9570-e4ed1bd664ff","ios":"levelo://app?vid=4e7144fd-da6e-4ea4-9570-e4ed1bd664ff"},"vehicle_type_id":"4","last_reported":1774002469,"current_range_meters":11600,"station_id":"","pricing_plan_id":"cebpf4jnsgd1na2vs0mg"},{"bike_id":"b6e55c5e-2d1c-490c-9328-030a17ddc48a","system_id":"levelo_inurba_marseille","lat":43.29685,"lon":5.37283,"is_reserved":false,"is_disabled":false,"rental_uris":{"android":"levelo://app?vid=b6e55c5e-2d1c-490c-9328-030a17ddc48a","ios":"levelo://app?vid=b6e55c5e-2d1c-490c-9328-030a17ddc48a"},"vehicle_type_id":"4","last_reported":1774002469,"current_range_meters":11600,"station_id":"ce4bgk12rcd13ifvqbj0","pricing_plan_id":"cebpf4jnsgd1na2vs0mg"},{"bike_id":"3ed078f5-5498-466f-b8bc-cc4221a03208","system_id":"levelo_inurba_marseille","lat":43.30139,"lon":5.37397,"is_reserved":false,"is_disabled":false,"rental_uris":{"android":"levelo://app?vid=3ed078f5-5498-466f-b8bc-cc4221a03208","ios":"levelo://app?vid=3ed078f5-5498-466f-b8bc-cc4221a03208"},"vehicle_type_id":"4","last_reported":1774002469,"current_range_meters":11600,"station_id":"ce4bgs92rcd13ifvqcc0","pricing_plan_id":"cebpf4jnsgd1na2vs0mg"},{"bike_id":"b79edf21-0164-4a0c-b31c-d86dd5687815","system_id":"levelo_inurba_marseille","lat":43.337572,"lon":5.37466,"is_reserved":false,"is_disabled":false,"rental_uris":{"android":"levelo://app?vid=b79edf21-0164-4a0c-b31c-d86dd5687815","ios":"levelo://app?vid=b79edf21-0164-4a0c-b31c-d86dd5687815"},"vehicle_type_id":"4","last_reported":1774002469,"current_range_meters":11600,"station_id":"","pricing_plan_id":"cebpf4jnsgd1na2vs0mg"},{"bike_id":"a9ca645c-495f-4e35-a2f0-ebfe99c4421f","system_id":"levelo_inurba_marseille","lat":43.26954,"lon":5.38682,"is_reserved":false,"is_disabled":true,"rental_uris":{"android":"levelo://app?vid=a9ca645c-495f-4e35-a2f0-ebfe99c4421f","ios":"levelo://app?vid=a9ca645c-495f-4e35-a2f0-ebfe99c4421f"},"vehicle_type_id":"4","last_reported":1774002469,"current_range_meters":11600,"station_id":"ce4bhh92rcd13ifvqfh0","pricing_plan_id":"cebpf4jnsgd1na2vs0mg"},{"bike_id":"3405ff2e-ce38-4884-b882-bbb62512483a","system_id":"levelo_inurba_marseille","lat":43.23157,"lon":5.43702,"is_reserved":false,"is_disabled":false,"rental_uris":{"android":"levelo://app?vid=3405ff2e-ce38-4884-b882-bbb62512483a","ios":"levelo://app?vid=3405ff2e-ce38-4884-b882-bbb62512483a"},"vehicle_type_id":"4","last_reported":1774002469,"current_range_meters":11600,"station_id":"ce4bhmp2rcd13ifvqgog","pricing_plan_id":"cebpf4jnsgd1na2vs0mg"},{"bike_id":"5fa32832-a325-481d-8ce5-c92f3a9fa830","system_id":"levelo_inurba_marseille","lat":43.24812,"lon":5.37464,"is_reserved":false,"is_disabled":false,"rental_uris":{"android":"levelo://app?vid=5fa32832-a325-481d-8ce5-c92f3a9fa830","ios":"levelo://app?vid=5fa32832-a325-481d-8ce5-c92f3a9fa830"},"vehicle_type_id":"4","last_reported":1774002469,"current_range_meters":11600,"station_id":"ce4bhgh2rcd13ifvqfb0","pricing_plan_id":"cebpf4jnsgd1na2vs0mg"},