{"last_updated":1708553206,"ttl":30,"version":"2.2","data":{"bikes":[{"bike_id":"d649cd95-726a-4eec-acf8-9d39db8a8443","system_id":"levelo_inurba_marseille","lat":43.313391,"lon":5.36706,"is_reserved":false,"is_disabled":false,"rental_uris":{"android":"levelo://app?vid=d649cd95-726a-4eec-acf8-9d39db8a8443","ios":"levelo://app?vid=d649cd95-726a-4eec-acf8-9d39db8a8443"},"vehicle_type_id":"4","last_reported":1708553206,"current_range_meters":27200,"station_id":"ce4bgr92rcd13ifvqc6g","pricing_plan_id":"cebpf4jnsgd1na2vs0mg"},{"bike_id":"f7750617-3519-4049-af38-28ea135a1e45","system_id":"levelo_inurba_marseille","lat":43.312239,"lon":5.368562,"is_reserved":false,"is_disabled":false,"rental_uris":{"android":"levelo://app?vid=f7750617-3519-4049-af38-28ea135a1e45","ios":"levelo://app?vid=f7750617-3519-4049-af38-28ea135a1e45"},"vehicle_type_id":"4","last_reported":1708553206,"current_range_meters":24400,"station_id":"ce4bgl92rcd13ifvqbq0","pricing_plan_id":"cebpf4jnsgd1na2vs0mg"},{"bike_id":"29a4e9b6-8c1d-4898-bbd6-81f97f03a5a2","system_id":"levelo_inurba_marseille","lat":43.309076,"lon":5.368465,"is_reserved":false,"is_disabled":false,"rental_uris":{"android":"levelo://app?vid=29a4e9b6-8c1d-4898-bbd6-81f97f03a5a2","ios":"levelo://app?vid=29a4e9b6-8c1d-4898-bbd6-81f97f03a5a2"},"vehicle_type_id":"4","last_reported":1708553206,"current_range_meters":27200,"station_id":"ce4bgn92rcd13ifvqbvg","pricing_plan_id":"cebpf4jnsgd1na2vs0mg"},{"bike_id":"34ca0b0a-7cff-48db-b590-085fab3dfffa","system_id":"levelo_inurba_marseille","lat":43.314811,"lon":5.373103,"is_reserved":false,"is_disabled":false,"rental_uris":{"android":"levelo://app?vid=34ca0b0a-7cff-48db-b590-085fab3dfffa","ios":"levelo://app?vid=34ca0b0a-7cff-48db-b590-085fab3dfffa"},"vehicle_type_id":"4","last_reported":1708553206,"current_range_meters":30800,"station_id":"ce4bgt12rcd13ifvqcd0","pricing_plan_id":"cebpf4jnsgd1na2vs0mg"},{"bike_id":"16f46bea-efcb-4d39-9e33-b5d5ebbc0de7","system_id":"levelo_inurba_marseille","lat":43.314811,"lon":5.373103,"is_reserved":false,"is_disabled":false,"rental_uris":{"android":"levelo://app?vid=16f46bea-efcb-4d39-9e33-b5d5ebbc0de7","ios":"levelo://app?vid=16f46bea-efcb-4d39-9e33-b5d5ebbc0de7"},"vehicle_type_id":"4","last_reported":1708553206,"current_range_meters":4800,"station_id":"ce4bgt12rcd13ifvqcd0","pricing_plan_id":"cebpf4jnsgd1na2vs0mg"},{"bike_id":"e84eaa91-7a9f-4639-b616-64c6b80e80dc","system_id":"levelo_inurba_marseille","lat":43.314811,"lon":5.373103,"is_reserved":false,"is_disabled":false,"rental_uris":{"android":"levelo://app?vid=e84eaa91-7a9f-4639-b616-64c6b80e80dc","ios":"levelo://app?vid=e84eaa91-7a9f-4639-b616-64c6b80e80dc"},"vehicle_type_id":"4","last_reported":1708553206,"current_range_meters":25200,"station_id":"ce4bgt12rcd13ifvqcd0","pricing_plan_id":"cebpf4jnsgd1na2vs0mg"},{"bike_id":"5801b675-ea3c-473f-8252-ffbab53b72b2","system_id":"levelo_inurba_marseille","lat":43.314811,"lon":5.373104,"is_reserved":false,"is_disabled":false,"rental_uris":{"android":"levelo://app?vid=5801b675-ea3c-473f-8252-ffbab53b72b2","ios":"levelo://app?vid=5801b675-ea3c-473f-8252-ffbab53b72b2"},"vehicle_type_id":"4","last_reported":1708553206,"current_range_meters":14400,"station_id":"ce4bgt12rcd13ifvqcd0","pricing_plan_id":"cebpf4jnsgd1na2vs0mg"},{"bike_id":"9242d2ef-c973-4390-840a-bb02dac4916d","system_id":"levelo_inurba_marseille","lat":43.314811,"lon":5.373104,"is_reserved":false,"is_disabled":false,"rental_uris":{"android":"levelo://app?vid=9242d2ef-c973-4390-840a-bb02dac4916d","ios":"levelo://app?vid=9242d2ef-c973-4390-840a-bb02dac4916d"},"vehicle_type_id":"4","last_reported":1708553206,"current_range_meters":18800,"station_id":"ce4bgt12rcd13ifvqcd0","pricing_plan_id":"cebpf4jnsgd1na2vs0mg"},{"bike_id":"7580059f-acef-4679-bd29-a632e2940ff2","system_id":"levelo_inurba_marseille","lat":43.309039,"lon":5.371797,"is_reserved":false,"is_disabled":false,"rental_uris":{"android":"levelo://app?vid=7580059f-acef-4679-bd29-a632e2940ff2","ios":"levelo://app?vid=7580059f-acef-4679-bd29-a632e2940ff2"},"vehicle_type_id":"4","last_reported":1708553206,"current_range_meters":18800,"station_id":"ce4bguh2rcd13ifvqckg","pricing_plan_id":"cebpf4jnsgd1na2vs0mg"},{"bike_id":"4c743e16-6323-4bc3-b76c-7184afc40cef","system_id":"levelo_inurba_marseille","lat":43.305633,"lon":5.36544,"is_reserved":false,"is_disabled":false,"rental_uris":{"android":"levelo://app?vid=4c743e16-6323-4bc3-b76c-7184afc40cef","ios":"levelo://app?vid=4c743e16-6323-4bc3-b76c-7184afc40cef"},"vehicle_type_id":"4","last_reported":1708553206,"current_range_meters":0,"station_id":"ce4bgs12rcd13ifvqcag","pricing_plan_id":"cebpf4jnsgd1na2vs0mg"},{"bike_id":"06c5c821-1400-44f2-a0a7-3fc80cf47d12","system_id":"levelo_inurba_marseille","lat":43.306077,"lon":5.37239,"is_reserved":false,"is_disabled":false,"rental_uris":{"android":"levelo://app?vid=06c5c821-1400-44f2-a0a7-3fc80cf47d12","ios":"levelo://app?vid=06c5c821-1400-44f2-a0a7-3fc80cf47d12"},"vehicle_type_id":"4","last_reported":1708553206,"current_range_meters":21600,"station_id":"ce4bgqh2rcd13ifvqc4g","pricing_plan_id":"cebpf4jnsgd1na2vs0mg"},{"bike_id":"457d60a5-f3eb-4996-a827-ad5d499e73f3","system_id":"levelo_inurba_marseille","lat":43.306,"lon":5.37239,"is_reserved":false,"is_disabled":false,"rental_uris":{"android":"levelo://app?vid=457d60a5-f3eb-4996-a827-ad5d499e73f3","ios":"levelo://app?vid=457d60a5-f3eb-4996-a827-ad5d499e73f3"},"vehicle_type_id":"4","last_reported":1708553206,"current_range_meters":23600,"station_id":"ce4bgqh2rcd13ifvqc4g","pricing_plan_id":"cebpf4jnsgd1na2vs0mg"},{"bike_id":"fdbee48e-e73d-4dc5-bf89-99ff94c47cbf","system_id":"levelo_inurba_marseille","lat":43.311125,"lon":5.377624,"is_reserved":false,"is_disabled":false,"rental_uris":{"android":"levelo://app?vid=fdbee48e-e73d-4dc5-bf89-99ff94c47cbf","ios":"levelo://app?vid=fdbee48e-e73d-4dc5-bf89-99ff94c47cbf"},"vehicle_type_id":"4","last_reported":1708553206,"current_range_meters":12000,"station_id":"ce4bgt92rcd13ifvqcg0","pricing_plan_id":"cebpf4jnsgd1na2vs0mg"},{"bike_id":"124bc45e-74cf-4ad4-8459-dbf4b16683b3","system_id":"levelo_inurba_marseille","lat":43.30588,"lon":5.37228,"is_reserved":false,"is_disabled":false,"rental_uris":{"android":"levelo://app?vid=124bc45e-74cf-4ad4-8459-dbf4b16683b3","ios":"levelo://app?vid=124bc45e-74cf-4ad4-8459-dbf4b16683b3"},"vehicle_type_id":"4","last_reported":1708553206,"current_range_meters":17200,"station_id":"ce4bgqh2rcd13ifvqc4g","pricing_plan_id":"cebpf4jnsgd1na2vs0mg"},{"bike_id":"5d194c45-8fe7-45c3-ab6c-5dae72dcd7d5","system_id":"levelo_inurba_marseille","lat":43.311131,"lon":5.377651,"is_reserved":false,"is_disabled":false,"rental_uris":{"android":"levelo://app?vid=5d194c45-8fe7-45c3-ab6c-5dae72dcd7d5","ios":"levelo://app?vid=5d194c45-8fe7-45c3-ab6c-5dae72dcd7d5"},"vehicle_type_id":"4","last_reported":1708553206,"current_range_meters":12400,"station_id":"ce4bgt92rcd13ifvqcg0","pricing_plan_id":"cebpf4jnsgd1na2vs0mg"},{"bike_id":"f3c1a207-8448-4ead-b928-4b99b6ca3566","system_id":"levelo_inurba_marseille","lat":43.311131,"lon":5.377651,"is_reserved":false,"is_disabled":false,"rental_uris":{"android":"levelo://app?vid=f3c1a207-8448-4ead-b928-4b99b6ca3566","ios":"levelo://app?vid=f3c1a207-8448-4ead-b928-4b99b6ca3566"},"vehicle_type_id":"4","last_reported":1708553206,"current_range_meters":18000,"station_id":"ce4bgt92rcd13ifvqcg0","pricing_plan_id":"cebpf4jnsgd1na2vs0mg"},{"bike_id":"d99f5e5f-b763-41a3-9300-b1b434e296d4","system_id":"levelo_inurba_marseille","lat":43.311125,"lon":5.377624,"is_reserved":false,"is_disabled":false,"rental_uris":{"android":"levelo://app?vid=d99f5e5f-b763-41a3-9300-b1b434e296d4","ios":"levelo://app?vid=d99f5e5f-b763-41a3-9300-b1b434e296d4"},"vehicle_type_id":"4","last_reported":1708553206,"current_range_meters":15200,"station_id":"ce4bgt92rcd13ifvqcg0","pricing_plan_id":"cebpf4jnsgd1na2vs0mg"},{"bike_id":"dc22c28f-522a-4fb4-b7ab-c6251b90de82","system_id":"levelo_inurba_marseille","lat":43.31654,"lon":5.37675,"is_reserved":false,"is_disabled":false,"rental_uris":{"android":"levelo://app?vid=dc22c28f-522a-4fb4-b7ab-c6251b90de82","ios":"levelo://app?vid=dc22c28f-522a-4fb4-b7ab-c6251b90de82"},"vehicle_type_id":"4","last_reported":1708553206,"current_range_meters":26000,"station_id":"","pricing_plan_id":"cebpf4jnsgd1na2vs0mg"},{"bike_id":"6356d138-f96c-4ece-b202-d8da273c62ab","system_id":"levelo_inurba_marseille","lat":43.316582,"lon":5.376807,"is_reserved":false,"is_disabled":false,"rental_uris":{"android":"levelo://app?vid=6356d138-f96c-4ece-b202-d8da273c62ab","ios":"levelo://app?vid=6356d138-f96c-4ece-b202-d8da273c62ab"},"vehicle_type_id":"4","last_reported":1708553206,"current_range_meters":10800,"station_id":"","pricing_plan_id":"cebpf4jnsgd1na2vs0mg"},{"bike_id":"b8dfd805-9c6f-4616-b6c0-ae21303c8cd4","system_id":"levelo_inurba_marseille","lat":43.307945,"lon":5.376487,"is_reserved":false,"is_disabled":false,"rental_uris":{"android":"levelo://app?vid=b8dfd805-9c6f-4616-b6c0-ae21303c8cd4","ios":"levelo://app?vid=b8dfd805-9c6f-4616-b6c0-ae21303c8cd4"},"vehicle_type_id":"4","last_reported":1708553206,"current_range_meters":19600,"station_id":"ce4bgv92rcd13ifvqcq0","pricing_plan_id":"cebpf4jnsgd1na2vs0mg"},{"bike_id":"5a1f3d15-ba5e-490d-85ea-eaab84163f9d","system_id":"levelo_inurba_marseille","lat":43.307945,"lon":5.376487,"is_reserved":false,"is_disabled":false,"rental_uris":{"android":"levelo://app?vid=5a1f3d15-ba5e-490d-85ea-eaab84163f9d","ios":"levelo://app?vid=5a1f3d15-ba5e-490d-85ea-eaab84163f9d"},"vehicle_type_id":"4","last_reported":1708553206,"current_range_meters":22800,"station_id":"ce4bgv92rcd13ifvqcq0","pricing_plan_id":"cebpf4jnsgd1na2vs0mg"},{"bike_id":"017e20a3-9bef-415a-9098-ad4219762367","system_id":"levelo_inurba_marseille","lat":43.307945,"lon":5.376487,"is_reserved":false,"is_disabled":false,"rental_uris":{"android":"levelo://app?vid=017e20a3-9bef-415a-9098-ad4219762367","ios":"levelo://app?vid=017e20a3-9bef-415a-9098-ad4219762367"},"vehicle_type_id":"4","last_reported":1708553206,"current_range_meters":19600,"station_id":"ce4bgv92rcd13ifvqcq0","pricing_plan_id":"cebpf4jnsgd1na2vs0mg"},{"bike_id":"83c8f234-d3b6-4193-a9b6-30fe31fe0cdd","system_id":"levelo_inurba_marseille","lat":43.307945,"lon":5.376487,"is_reserved":false,"is_disabled":false,"rental_uris":{"android":"levelo://app?vid=83c8f234-d3b6-4193-a9b6-30fe31fe0cdd","ios":"levelo://app?vid=83c8f234-d3b6-4193-a9b6-30fe31fe0cdd"},"vehicle_type_id":"4","last_reported":1708553206,"current_range_meters":15200,"station_id":"ce4bgv92rcd13ifvqcq0","pricing_plan_id":"cebpf4jnsgd1na2vs0mg"},{"bike_id":"e940a45f-5fab-4976-94e4-0f9151471b8b","system_id":"levelo_inurba_marseille","lat":43.307945,"lon":5.376487,"is_reserved":false,"is_disabled":false,"rental_uris":{"android":"levelo://app?vid=e940a45f-5fab-4976-94e4-0f9151471b8b","ios":"levelo://app?vid=e940a45f-5fab-4976-94e4-0f9151471b8b"},"vehicle_type_id":"4","last_reported":1708553206,"current_range_meters":17200,"station_id":"ce4bgv92rcd13ifvqcq0","pricing_plan_id":"cebpf4jnsgd1na2vs0mg"},{"bike_id":"e9eccf01-b9b3-473e-aeea-0af0dcc4f674","system_id":"levelo_inurba_marseille","lat":43.307945,"lon":5.376487,"is_reserved":false,"is_disabled":false,"rental_uris":{"android":"levelo://app?vid=e9eccf01-b9b3-473e-aeea-0af0dcc4f674","ios":"levelo://app?vid=e9eccf01-b9b3-473e-aeea-0af0dcc4f674"},"vehicle_type_id":"4","last_reported":1708553206,"current_range_meters":1200,"station_id":"ce4bgv92rcd13ifvqcq0","pricing_plan_id":"cebpf4jnsgd1na2vs0mg"},{"bike_id":"b9b43757-2604-4d44-b7fe-8af614a65b5d","system_id":"levelo_inurba_marseille","lat":43.30782,"lon":5.376516,"is_reserved":false,"is_disabled":false,"rental_uris":{"android":"levelo://app?vid=b9b43757-2604-4d44-b7fe-8af614a65b5d","ios":"levelo://app?vid=b9b43757-2604-4d44-b7fe-8af614a65b5d"},"vehicle_type_id":"4","last_reported":1708553206,"current_range_meters":31200,"station_id":"","pricing_plan_id":"cebpf4jnsgd1na2vs0mg"},{"bike_id":"8acc267a-b18a-42c6-80fd-4f862e84038f","system_id":"levelo_inurba_marseille","lat":43.307945,"lon":5.376487,"is_reserved":false,"is_disabled":false,"rental_uris":{"android":"levelo://app?vid=8acc267a-b18a-42c6-80fd-4f862e84038f","ios":"levelo://app?vid=8acc267a-b18a-42c6-80fd-4f862e84038f"},"vehicle_type_id":"4","last_reported":1708553206,"current_range_meters":4000,"station_id":"ce4bgv92rcd13ifvqcq0","pricing_plan_id":"cebpf4jnsgd1na2vs0mg"},{"bike_id":"82927855-1e2e-411a-a6fb-a7723427e057","system_id":"levelo_inurba_marseille","lat":43.307945,"lon":5.376487,"is_reserved":false,"is_disabled":false,"rental_uris":{"android":"levelo://app?vid=82927855-1e2e-411a-a6fb-a7723427e057","ios":"levelo://app?vid=82927855-1e2e-411a-a6fb-a7723427e057"},"vehicle_type_id":"4","last_reported":1708553206,"current_range_meters":31200,"station_id":"ce4bgv92rcd13ifvqcq0","pricing_plan_id":"cebpf4jnsgd1na2vs0mg"},{"bike_id":"e122d3cf-2dbb-4f60-b27b-ff2308d999db","system_id":"levelo_inurba_marseille","lat":43.307945,"lon":5.376487,"is_reserved":false,"is_disabled":false,"rental_uris":{"android":"levelo://app?vid=e122d3cf-2dbb-4f60-b27b-ff2308d999db","ios":"levelo://app?vid=e122d3cf-2dbb-4f60-b27b-ff2308d999db"},"vehicle_type_id":"4","last_reported":1708553206,"current_range_meters":23600,"station_id":"ce4bgv92rcd13ifvqcq0","pricing_plan_id":"cebpf4jnsgd1na2vs0mg"},{"bike_id":"e683024e-cbcd-4fc2-9950-c20c0c07dd32","system_id":"levelo_inurba_marseille","lat":43.307945,"lon":5.376487,"is_reserved":false,"is_disabled":false,"rental_uris":{"android":"levelo://app?vid=e683024e-cbcd-4fc2-9950-c20c0c07dd32","ios":"levelo://app?vid=e683024e-cbcd-4fc2-9950-c20c0c07dd32"},"vehicle_type_id":"4","last_reported":1708553206,"current_range_meters":4000,"station_id":"ce4bgv92rcd13ifvqcq0","pricing_plan_id":"cebpf4jnsgd1na2vs0mg"},{"bike_id":"e9ca0df7-9d12-4d6a-95d0-ceeb7d710869","system_id":"levelo_inurba_marseille","lat":43.307945,"lon":5.376487,"is_reserved":false,"is_disabled":false,"rental_uris":{"android":"levelo://app?vid=e9ca0df7-9d12-4d6a-95d0-ceeb7d710869","ios":"levelo://app?vid=e9ca0df7-9d12-4d6a-95d0-ceeb7d710869"},"vehicle_type_id":"4","last_reported":1708553206,"current_range_meters":31600,"station_id":"ce4bgv92rcd13ifvqcq0","pricing_plan_id":"cebpf4jnsgd1na2vs0mg"},{"bike_id":"8335b374-9ed7-4ebb-ab34-949d0718f352","system_id":"levelo_inurba_marseille","lat":43.307945,"lon":5.376487,"is_reserved":false,"is_disabled":false,"rental_uris":{"android":"levelo://app?vid=8335b374-9ed7-4ebb-ab34-949d0718f352","ios":"levelo://app?vid=8335b374-9ed7-4ebb-ab34-949d0718f352"},"vehicle_type_id":"4","last_reported":1708553206,"current_range_meters":22400,"station_id":"ce4bgv92rcd13ifvqcq0","pricing_plan_id":"cebpf4jnsgd1na2vs0mg"},{"bike_id":"b0e61ad8-1550-42e6-afdf-86e3d1a0409c","system_id":"levelo_inurba_marseille","lat":43.317075,"lon":5.377367,"is_reserved":false,"is_disabled":false,"rental_uris":{"android":"levelo://app?vid=b0e61ad8-1550-42e6-afdf-86e3d1a0409c","ios":"levelo://app?vid=b0e61ad8-1550-42e6-afdf-86e3d1a0409c"},"vehicle_type_id":"4","last_reported":1708553206,"current_range_meters":13200,"station_id":"ce4bgth2rcd13ifvqch0","pricing_plan_id":"cebpf4jnsgd1na2vs0mg"},{"bike_id":"c9356d07-b09d-4572-838a-45dc45790cbe","system_id":"levelo_inurba_marseille","lat":43.317075,"lon":5.377367,"is_reserved":false,"is_disabled":false,"rental_uris":{"android":"levelo://app?vid=c9356d07-b09d-4572-838a-45dc45790cbe","ios":"levelo://app?vid=c9356d07-b09d-4572-838a-45dc45790cbe"},"vehicle_type_id":"4","last_reported":1708553206,"current_range_meters":16400,"station_id":"ce4bgth2rcd13ifvqch0","pricing_plan_id":"cebpf4jnsgd1na2vs0mg"},{"bike_id":"51231e14-7d04-4030-8c0d-345bccbbbeb3","system_id":"levelo_inurba_marseille","lat":43.317075,"lon":5.377367,"is_reserved":false,"is_disabled":false,"rental_uris":{"android":"levelo://app?vid=51231e14-7d04-4030-8c0d-345bccbbbeb3","ios":"levelo://app?vid=51231e14-7d04-4030-8c0d-345bccbbbeb3"},"vehicle_type_id":"4","last_reported":1708553206,"current_range_meters":3600,"station_id":"ce4bgth2rcd13ifvqch0","pricing_plan_id":"cebpf4jnsgd1na2vs0mg"},{"bike_id":"0f6f6541-413e-4380-9493-8d25b6d3d332","system_id":"levelo_inurba_marseille","lat":43.317075,"lon":5.377367,"is_reserved":false,"is_disabled":false,"rental_uris":{"android":"levelo://app?vid=0f6f6541-413e-4380-9493-8d25b6d3d332","ios":"levelo://app?vid=0f6f6541-413e-4380-9493-8d25b6d3d332"},"vehicle_type_id":"4","last_reported":1708553206,"current_range_meters":15600,"station_id":"ce4bgth2rcd13ifvqch0","pricing_plan_id":"cebpf4jnsgd1na2vs0mg"},{"bike_id":"a9107724-bf94-4625-9505-de67816d6f9c","system_id":"levelo_inurba_marseille","lat":43.317075,"lon":5.377367,"is_reserved":false,"is_disabled":false,"rental_uris":{"android":"levelo://app?vid=a9107724-bf94-4625-9505-de67816d6f9c","ios":"levelo://app?vid=a9107724-bf94-4625-9505-de67816d6f9c"},"vehicle_type_id":"4","last_reported":1708553206,"current_range_meters":31200,"station_id":"ce4bgth2rcd13ifvqch0","pricing_plan_id":"cebpf4jnsgd1na2vs0mg"},{"bike_id":"2091d652-b602-4295-80f9-745a2541b03a","system_id":"levelo_inurba_marseille","lat":43.317075,"lon":5.377367,"is_reserved":false,"is_disabled":false,"rental_uris":{"android":"levelo://app?vid=2091d652-b602-4295-80f9-745a2541b03a","ios":"levelo://app?vid=2091d652-b602-4295-80f9-745a2541b03a"},"vehicle_type_id":"4","last_reported":1708553206,"current_range_meters":7200,"station_id":"ce4bgth2rcd13ifvqch0","pricing_plan_id":"cebpf4jnsgd1na2vs0mg"},{"bike_id":"c640a8c1-4269-45c5-af59-6df7e4f3324e","system_id":"levelo_inurba_marseille","lat":43.317075,"lon":5.377367,"is_reserved":false,"is_disabled":false,"rental_uris":{"android":"levelo://app?vid=c640a8c1-4269-45c5-af59-6df7e4f3324e","ios":"levelo://app?vid=c640a8c1-4269-45c5-af59-6df7e4f3324e"},"vehicle_type_id":"4","last_reported":1708553206,"current_range_meters":20400,"station_id":"ce4bgth2rcd13ifvqch0","pricing_plan_id":"cebpf4jnsgd1na2vs0mg"},{"bike_id":"2fdee98a-f697-45bc-8de9-c6509a38d890","system_id":"levelo_inurba_marseille","lat":43.31711,"lon":5.37754,"is_reserved":false,"is_disabled":false,"rental_uris":{"android":"levelo://app?vid=2fdee98a-f697-45bc-8de9-c6509a38d890","ios":"levelo://app?vid=2fdee98a-f697-45bc-8de9-c6509a38d890"},"vehicle_type_id":"4","last_reported":1708553206,"current_range_meters":6000,"station_id":"ce4bgth2rcd13ifvqch0","pricing_plan_id":"cebpf4jnsgd1na2vs0mg"},{"bike_id":"9d5ba42e-09e1-4efe-8d39-6ce86ed0c121","system_id":"levelo_inurba_marseille","lat":43.317075,"lon":5.377367,"is_reserved":false,"is_disabled":false,"rental_uris":{"android":"levelo://app?vid=9d5ba42e-09e1-4efe-8d39-6ce86ed0c121","ios":"levelo://app?vid=9d5ba42e-09e1-4efe-8d39-6ce86ed0c121"},"vehicle_type_id":"4","last_reported":1708553206,"current_range_meters":6400,"station_id":"ce4bgth2rcd13ifvqch0","pricing_plan_id":"cebpf4jnsgd1na2vs0mg"},{"bike_id":"ab3a85b2-31e7-40cb-9999-50b70ecf8f49","system_id":"levelo_inurba_marseille","lat":43.303046,"lon":5.368981,"is_reserved":false,"is_disabled":false,"rental_uris":{"android":"levelo://app?vid=ab3a85b2-31e7-40cb-9999-50b70ecf8f49","ios":"levelo://app?vid=ab3a85b2-31e7-40cb-9999-50b70ecf8f49"},"vehicle_type_id":"4","last_reported":1708553206,"current_range_meters":4000,"station_id":"ce4bgqh2rcd13ifvqc5g","pricing_plan_id":"cebpf4jnsgd1na2vs0mg"},{"bike_id":"9d40227a-7516-4798-97b7-8e69c0f7a326","system_id":"levelo_inurba_marseille","lat":43.315293,"lon":5.380349,"is_reserved":false,"is_disabled":false,"rental_uris":{"android":"levelo://app?vid=9d40227a-7516-4798-97b7-8e69c0f7a326","ios":"levelo://app?vid=9d40227a-7516-4798-97b7-8e69c0f7a326"},"vehicle_type_id":"4","last_reported":1708553206,"current_range_meters":23200,"station_id":"ce4bhsp2rcd13ifvqi50","pricing_plan_id":"cebpf4jnsgd1na2vs0mg"},{"bike_id":"8f9827ff-6989-411e-adf7-8b41c4896bc1","system_id":"levelo_inurba_marseille","lat":43.315293,"lon":5.380349,"is_reserved":false,"is_disabled":false,"rental_uris":{"android":"levelo://app?vid=8f9827ff-6989-411e-adf7-8b41c4896bc1","ios":"levelo://app?vid=8f9827ff-6989-411e-adf7-8b41c4896bc1"},"vehicle_type_id":"4","last_reported":1708553206,"current_range_meters":26000,"station_id":"ce4bhsp2rcd13ifvqi50","pricing_plan_id":"cebpf4jnsgd1na2vs0mg"},{"bike_id":"513a5460-908d-4868-a63f-44baa6ac446e","system_id":"levelo_inurba_marseille","lat":43.301939,"lon":5.366286,"is_reserved":false,"is_disabled":false,"rental_uris":{"android":"levelo://app?vid=513a5460-908d-4868-a63f-44baa6ac446e","ios":"levelo://app?vid=513a5460-908d-4868-a63f-44baa6ac446e"},"vehicle_type_id":"4","last_reported":1708553206,"current_range_meters":0,"station_id":"ce4bgrh2rcd13ifvqc8g","pricing_plan_id":"cebpf4jnsgd1na2vs0mg"},{"bike_id":"950c3951-e8fd-42aa-918f-a31e0999f50f","system_id":"levelo_inurba_marseille","lat":43.30628,"lon":5.38012,"is_reserved":false,"is_disabled":false,"rental_uris":{"android":"levelo://app?vid=950c3951-e8fd-42aa-918f-a31e0999f50f","ios":"levelo://app?vid=950c3951-e8fd-42aa-918f-a31e0999f50f"},"vehicle_type_id":"4","last_reported":1708553206,"current_range_meters":24800,"station_id":"ce4bgt12rcd13ifvqce0","pricing_plan_id":"cebpf4jnsgd1na2vs0mg"},{"bike_id":"44bc7686-779a-4dd4-a245-abf0a84d5cd5","system_id":"levelo_inurba_marseille","lat":43.308012,"lon":5.381511,"is_reserved":false,"is_disabled":false,"rental_uris":{"android":"levelo://app?vid=44bc7686-779a-4dd4-a245-abf0a84d5cd5","ios":"levelo://app?vid=44bc7686-779a-4dd4-a245-abf0a84d5cd5"},"vehicle_type_id":"4","last_reported":1708553206,"current_range_meters":12400,"station_id":"ce4bgt12rcd13ifvqce0","pricing_plan_id":"cebpf4jnsgd1na2vs0mg"},{"bike_id":"c383ba24-c633-4306-b31a-daa4da7aa401","system_id":"levelo_inurba_marseille","lat":43.30807,"lon":5.38152,"is_reserved":false,"is_disabled":false,"rental_uris":{"android":"levelo://app?vid=c383ba24-c633-4306-b31a-daa4da7aa401","ios":"levelo://app?vid=c383ba24-c633-4306-b31a-daa4da7aa401"},"vehicle_type_id":"4","last_reported":1708553206,"current_range_meters":0,"station_id":"ce4bgt12rcd13ifvqce0","pricing_plan_id":"cebpf4jnsgd1na2vs0mg"},{"bike_id":"be3bd6ab-5d20-45e7-9711-6bad131af93a","system_id":"levelo_inurba_marseille","lat":43.30801,"lon":5.38153,"is_reserved":false,"is_disabled":false,"rental_uris":{"android":"levelo://app?vid=be3bd6ab-5d20-45e7-9711-6bad131af93a","ios":"levelo://app?vid=be3bd6ab-5d20-45e7-9711-6bad131af93a"},"vehicle_type_id":"4","last_reported":1708553206,"current_range_meters":14800,"station_id":"ce4bgt12rcd13ifvqce0","pricing_plan_id":"cebpf4jnsgd1na2vs0mg"},{"bike_id":"c422a653-217b-4111-bdb4-8d0b362a1df0","system_id":"levelo_inurba_marseille","lat":43.308012,"lon":5.381511,"is_reserved":false,"is_disabled":false,"rental_uris":{"android":"levelo://app?vid=c422a653-217b-4111-bdb4-8d0b362a1df0","ios":"levelo://app?vid=c422a653-217b-4111-bdb4-8d0b362a1df0"},"vehicle_type_id":"4","last_reported":1708553206,"current_range_meters":25200,"station_id":"ce4bgt12rcd13ifvqce0","pricing_plan_id":"cebpf4jnsgd1na2vs0mg"},{"bike_id":"ec5c5936-1a53-4737-a699-b0348ce89032","system_id":"levelo_inurba_marseille","lat":43.324771,"lon":5.36557,"is_reserved":false,"is_disabled":false,"rental_uris":{"android":"levelo://app?vid=ec5c5936-1a53-4737-a699-b0348ce89032","ios":"levelo://app?vid=ec5c5936-1a53-4737-a699-b0348ce89032"},"vehicle_type_id":"4","last_reported":1708553206,"current_range_meters":4400,"station_id":"ce4bhs12rcd13ifvqhvg","pricing_plan_id":"cebpf4jnsgd1na2vs0mg"},{"bike_id":"6c581da6-d340-44bb-8dcf-2d6491d8b2b7","system_id":"levelo_inurba_marseille","lat":43.324771,"lon":5.36557,"is_reserved":false,"is_disabled":false,"rental_uris":{"android":"levelo://app?vid=6c581da6-d340-44bb-8dcf-2d6491d8b2b7","ios":"levelo://app?vid=6c581da6-d340-44bb-8dcf-2d6491d8b2b7"},"vehicle_type_id":"4","last_reported":1708553206,"current_range_meters":22000,"station_id":"ce4bhs12rcd13ifvqhvg","pricing_plan_id":"cebpf4jnsgd1na2vs0mg"},{"bike_id":"b9ae61e1-8ac4-46f9-a192-ec9a4f6353bd","system_id":"levelo_inurba_marseille","lat":43.324771,"lon":5.36557,"is_reserved":false,"is_disabled":false,"rental_uris":{"android":"levelo://app?vid=b9ae61e1-8ac4-46f9-a192-ec9a4f6353bd","ios":"levelo://app?vid=b9ae61e1-8ac4-46f9-a192-ec9a4f6353bd"},"vehicle_type_id":"4","last_reported":1708553206,"current_range_meters":13200,"station_id":"ce4bhs12rcd13ifvqhvg","pricing_plan_id":"cebpf4jnsgd1na2vs0mg"},{"bike_id":"f2cff5d1-a87e-43e1-8ace-015f611533e5","system_id":"levelo_inurba_marseille","lat":43.324771,"lon":5.36557,"is_reserved":false,"is_disabled":false,"rental_uris":{"android":"levelo://app?vid=f2cff5d1-a87e-43e1-8ace-015f611533e5","ios":"levelo://app?vid=f2cff5d1-a87e-43e1-8ace-015f611533e5"},"vehicle_type_id":"4","last_reported":1708553206,"current_range_meters":8400,"station_id":"ce4bhs12rcd13ifvqhvg","pricing_plan_id":"cebpf4jnsgd1na2vs0mg"},{"bike_id":"22b73e16-38da-4530-8d8a-3453426d23df","system_id":"levelo_inurba_marseille","lat":43.324771,"lon":5.36557,"is_reserved":false,"is_disabled":false,"rental_uris":{"android":"levelo://app?vid=22b73e16-38da-4530-8d8a-3453426d23df","ios":"levelo://app?vid=22b73e16-38da-4530-8d8a-3453426d23df"},"vehicle_type_id":"4","last_reported":1708553206,"current_range_meters":22800,"station_id":"ce4bhs12rcd13ifvqhvg","pricing_plan_id":"cebpf4jnsgd1na2vs0mg"},{"bike_id":"caaf26f8-fbed-445b-be7b-3ecf625cc521","system_id":"levelo_inurba_marseille","lat":43.324771,"lon":5.36557,"is_reserved":false,"is_disabled":false,"rental_uris":{"android":"levelo://app?vid=caaf26f8-fbed-445b-be7b-3ecf625cc521","ios":"levelo://app?vid=caaf26f8-fbed-445b-be7b-3ecf625cc521"},"vehicle_type_id":"4","last_reported":1708553206,"current_range_meters":24400,"station_id":"ce4bhs12rcd13ifvqhvg","pricing_plan_id":"cebpf4jnsgd1na2vs0mg"},{"bike_id":"4cd60cd3-101b-4a05-9703-76840434a255","system_id":"levelo_inurba_marseille","lat":43.324771,"lon":5.36557,"is_reserved":false,"is_disabled":false,"rental_uris":{"android":"levelo://app?vid=4cd60cd3-101b-4a05-9703-76840434a255","ios":"levelo://app?vid=4cd60cd3-101b-4a05-9703-76840434a255"},"vehicle_type_id":"4","last_reported":1708553206,"current_range_meters":18800,"station_id":"ce4bhs12rcd13ifvqhvg","pricing_plan_id":"cebpf4jnsgd1na2vs0mg"},{"bike_id":"dbae0462-c3c3-4b28-9239-4f7d2e1a2049","system_id":"levelo_inurba_marseille","lat":43.324771,"lon":5.36557,"is_reserved":false,"is_disabled":false,"rental_uris":{"android":"levelo://app?vid=dbae0462-c3c3-4b28-9239-4f7d2e1a2049","ios":"levelo://app?vid=dbae0462-c3c3-4b28-9239-4f7d2e1a2049"},"vehicle_type_id":"4","last_reported":1708553206,"current_range_meters":0,"station_id":"ce4bhs12rcd13ifvqhvg","pricing_plan_id":"cebpf4jnsgd1na2vs0mg"},{"bike_id":"99e90435-9362-4238-b73b-2423e73b8891","system_id":"levelo_inurba_marseille","lat":43.31071,"lon":5.38348,"is_reserved":false,"is_disabled":false,"rental_uris":{"android":"levelo://app?vid=99e90435-9362-4238-b73b-2423e73b8891","ios":"levelo://app?vid=99e90435-9362-4238-b73b-2423e73b8891"},"vehicle_type_id":"4","last_reported":1708553206,"current_range_meters":8800,"station_id":"ce4bgv92rcd13ifvqcr0","pricing_plan_id":"cebpf4jnsgd1na2vs0mg"},{"bike_id":"09ec64bc-336f-43c3-bebb-1c5d7c1772ec","system_id":"levelo_inurba_marseille","lat":43.310721,"lon":5.383497,"is_reserved":false,"is_disabled":false,"rental_uris":{"android":"levelo://app?vid=09ec64bc-336f-43c3-bebb-1c5d7c1772ec","ios":"levelo://app?vid=09ec64bc-336f-43c3-bebb-1c5d7c1772ec"},"vehicle_type_id":"4","last_reported":1708553206,"current_range_meters":15600,"station_id":"ce4bgv92rcd13ifvqcr0","pricing_plan_id":"cebpf4jnsgd1na2vs0mg"},{"bike_id":"972022a9-894c-4b38-81e2-29cf64f53229","system_id":"levelo_inurba_marseille","lat":43.310804,"lon":5.38359,"is_reserved":false,"is_disabled":false,"rental_uris":{"android":"levelo://app?vid=972022a9-894c-4b38-81e2-29cf64f53229","ios":"levelo://app?vid=972022a9-894c-4b38-81e2-29cf64f53229"},"vehicle_type_id":"4","last_reported":1708553206,"current_range_meters":20000,"station_id":"ce4bgv92rcd13ifvqcr0","pricing_plan_id":"cebpf4jnsgd1na2vs0mg"},{"bike_id":"4909bb31-c40b-4758-af49-2261e940ac72","system_id":"levelo_inurba_marseille","lat":43.310804,"lon":5.38359,"is_reserved":false,"is_disabled":false,"rental_uris":{"android":"levelo://app?vid=4909bb31-c40b-4758-af49-2261e940ac72","ios":"levelo://app?vid=4909bb31-c40b-4758-af49-2261e940ac72"},"vehicle_type_id":"4","last_reported":1708553206,"current_range_meters":22800,"station_id":"ce4bgv92rcd13ifvqcr0","pricing_plan_id":"cebpf4jnsgd1na2vs0mg"},{"bike_id":"0c604330-f19e-4a3f-ac51-408fcf7faf25","system_id":"levelo_inurba_marseille","lat":43.301429,"lon":5.37413,"is_reserved":false,"is_disabled":false,"rental_uris":{"android":"levelo://app?vid=0c604330-f19e-4a3f-ac51-408fcf7faf25","ios":"levelo://app?vid=0c604330-f19e-4a3f-ac51-408fcf7faf25"},"vehicle_type_id":"4","last_reported":1708553206,"current_range_meters":9200,"station_id":"ce4bgs92rcd13ifvqcc0","pricing_plan_id":"cebpf4jnsgd1na2vs0mg"},{"bike_id":"a72a70b4-999d-4521-a656-c262325b5106","system_id":"levelo_inurba_marseille","lat":43.30143,"lon":5.37413,"is_reserved":false,"is_disabled":false,"rental_uris":{"android":"levelo://app?vid=a72a70b4-999d-4521-a656-c262325b5106","ios":"levelo://app?vid=a72a70b4-999d-4521-a656-c262325b5106"},"vehicle_type_id":"4","last_reported":1708553206,"current_range_meters":14400,"station_id":"ce4bgs92rcd13ifvqcc0","pricing_plan_id":"cebpf4jnsgd1na2vs0mg"},{"bike_id":"a4f7ef6b-3647-4030-89f6-14582e219033","system_id":"levelo_inurba_marseille","lat":43.301429,"lon":5.37413,"is_reserved":false,"is_disabled":false,"rental_uris":{"android":"levelo://app?vid=a4f7ef6b-3647-4030-89f6-14582e219033","ios":"levelo://app?vid=a4f7ef6b-3647-4030-89f6-14582e219033"},"vehicle_type_id":"4","last_reported":1708553206,"current_range_meters":26800,"station_id":"ce4bgs92rcd13ifvqcc0","pricing_plan_id":"cebpf4jnsgd1na2vs0mg"},{"bike_id":"76cb3c24-5e51-42a4-8fa3-c5cd762ab669","system_id":"levelo_inurba_marseille","lat":43.30669,"lon":5.38196,"is_reserved":false,"is_disabled":false,"rental_uris":{"android":"levelo://app?vid=76cb3c24-5e51-42a4-8fa3-c5cd762ab669","ios":"levelo://app?vid=76cb3c24-5e51-42a4-8fa3-c5cd762ab669"},"vehicle_type_id":"4","last_reported":1708553206,"current_range_meters":22800,"station_id":"","pricing_plan_id":"cebpf4jnsgd1na2vs0mg"},{"bike_id":"8e2def0f-3cc0-4780-a4e7-d709135681cc","system_id":"levelo_inurba_marseille","lat":43.319935,"lon":5.381699,"is_reserved":false,"is_disabled":false,"rental_uris":{"android":"levelo://app?vid=8e2def0f-3cc0-4780-a4e7-d709135681cc","ios":"levelo://app?vid=8e2def0f-3cc0-4780-a4e7-d709135681cc"},"vehicle_type_id":"4","last_reported":1708553206,"current_range_meters":5600,"station_id":"ce4bhr12rcd13ifvqhpg","pricing_plan_id":"cebpf4jnsgd1na2vs0mg"},{"bike_id":"2dfb92cc-ea3b-4091-8c27-ecfa50d3effe","system_id":"levelo_inurba_marseille","lat":43.319968,"lon":5.381505,"is_reserved":false,"is_disabled":false,"rental_uris":{"android":"levelo://app?vid=2dfb92cc-ea3b-4091-8c27-ecfa50d3effe","ios":"levelo://app?vid=2dfb92cc-ea3b-4091-8c27-ecfa50d3effe"},"vehicle_type_id":"4","last_reported":1708553206,"current_range_meters":3600,"station_id":"ce4bhr12rcd13ifvqhpg","pricing_plan_id":"cebpf4jnsgd1na2vs0mg"},{"bike_id":"d3aeb068-bd7b-49e8-816f-c6030cda4afc","system_id":"levelo_inurba_marseille","lat":43.319935,"lon":5.381699,"is_reserved":false,"is_disabled":false,"rental_uris":{"android":"levelo://app?vid=d3aeb068-bd7b-49e8-816f-c6030cda4afc","ios":"levelo://app?vid=d3aeb068-bd7b-49e8-816f-c6030cda4afc"},"vehicle_type_id":"4","last_reported":1708553206,"current_range_meters":27600,"station_id":"ce4bhr12rcd13ifvqhpg","pricing_plan_id":"cebpf4jnsgd1na2vs0mg"},{"bike_id":"bd6dd9e9-9b0d-4e67-8a52-ee9abfc17e25","system_id":"levelo_inurba_marseille","lat":43.319935,"lon":5.381699,"is_reserved":false,"is_disabled":false,"rental_uris":{"android":"levelo://app?vid=bd6dd9e9-9b0d-4e67-8a52-ee9abfc17e25","ios":"levelo://app?vid=bd6dd9e9-9b0d-4e67-8a52-ee9abfc17e25"},"vehicle_type_id":"4","last_reported":1708553206,"current_range_meters":5200,"station_id":"ce4bhr12rcd13ifvqhpg","pricing_plan_id":"cebpf4jnsgd1na2vs0mg"},{"bike_id":"928cf716-e2f4-42ad-a9ab-f209d6d652f8","system_id":"levelo_inurba_marseille","lat":43.31998,"lon":5.38154,"is_reserved":false,"is_disabled":false,"rental_uris":{"android":"levelo://app?vid=928cf716-e2f4-42ad-a9ab-f209d6d652f8","ios":"levelo://app?vid=928cf716-e2f4-42ad-a9ab-f209d6d652f8"},"vehicle_type_id":"4","last_reported":1708553206,"current_range_meters":10400,"station_id":"ce4bhr12rcd13ifvqhpg","pricing_plan_id":"cebpf4jnsgd1na2vs0mg"},{"bike_id":"a88e631f-9ad3-4e3a-b1ce-d7828b6ae959","system_id":"levelo_inurba_marseille","lat":43.319935,"lon":5.381699,"is_reserved":false,"is_disabled":false,"rental_uris":{"android":"levelo://app?vid=a88e631f-9ad3-4e3a-b1ce-d7828b6ae959","ios":"levelo://app?vid=a88e631f-9ad3-4e3a-b1ce-d7828b6ae959"},"vehicle_type_id":"4","last_reported":1708553206,"current_range_meters":0,"station_id":"ce4bhr12rcd13ifvqhpg","pricing_plan_id":"cebpf4jnsgd1na2vs0mg"},{"bike_id":"ba476218-799b-4051-8a73-1d31173b4597","system_id":"levelo_inurba_marseille","lat":43.319935,"lon":5.381699,"is_reserved":false,"is_disabled":false,"rental_uris":{"android":"levelo://app?vid=ba476218-799b-4051-8a73-1d31173b4597","ios":"levelo://app?vid=ba476218-799b-4051-8a73-1d31173b4597"},"vehicle_type_id":"4","last_reported":1708553206,"current_range_meters":16800,"station_id":"ce4bhr12rcd13ifvqhpg","pricing_plan_id":"cebpf4jnsgd1na2vs0mg"},{"bike_id":"0268a593-05f3-40b2-809a-21f4c866fa88","system_id":"levelo_inurba_marseille","lat":43.319935,"lon":5.381699,"is_reserved":false,"is_disabled":false,"rental_uris":{"android":"levelo://app?vid=0268a593-05f3-40b2-809a-21f4c866fa88","ios":"levelo://app?vid=0268a593-05f3-40b2-809a-21f4c866fa88"},"vehicle_type_id":"4","last_reported":1708553206,"current_range_meters":1200,"station_id":"ce4bhr12rcd13ifvqhpg","pricing_plan_id":"cebpf4jnsgd1na2vs0mg"},{"bike_id":"4e5f536f-cc8e-4b04-a393-fac4e748719b","system_id":"levelo_inurba_marseille","lat":43.313571,"lon":5.384829,"is_reserved":false,"is_disabled":false,"rental_uris":{"android":"levelo://app?vid=4e5f536f-cc8e-4b04-a393-fac4e748719b","ios":"levelo://app?vid=4e5f536f-cc8e-4b04-a393-fac4e748719b"},"vehicle_type_id":"4","last_reported":1708553206,"current_range_meters":3200,"station_id":"ce4bgt92rcd13ifvqcf0","pricing_plan_id":"cebpf4jnsgd1na2vs0mg"},{"bike_id":"f9d2fa65-654d-4b81-9eac-f2b3a1a50d2e","system_id":"levelo_inurba_marseille","lat":43.313571,"lon":5.384829,"is_reserved":false,"is_disabled":false,"rental_uris":{"android":"levelo://app?vid=f9d2fa65-654d-4b81-9eac-f2b3a1a50d2e","ios":"levelo://app?vid=f9d2fa65-654d-4b81-9eac-f2b3a1a50d2e"},"vehicle_type_id":"4","last_reported":1708553206,"current_range_meters":9600,"station_id":"ce4bgt92rcd13ifvqcf0","pricing_plan_id":"cebpf4jnsgd1na2vs0mg"},{"bike_id":"a804ce14-0298-4924-9860-3ae76a940536","system_id":"levelo_inurba_marseille","lat":43.313571,"lon":5.384829,"is_reserved":false,"is_disabled":false,"rental_uris":{"android":"levelo://app?vid=a804ce14-0298-4924-9860-3ae76a940536","ios":"levelo://app?vid=a804ce14-0298-4924-9860-3ae76a940536"},"vehicle_type_id":"4","last_reported":1708553206,"current_range_meters":4400,"station_id":"ce4bgt92rcd13ifvqcf0","pricing_plan_id":"cebpf4jnsgd1na2vs0mg"},{"bike_id":"c07bbd7e-9d62-4e2d-bdca-04429ff52059","system_id":"levelo_inurba_marseille","lat":43.313571,"lon":5.384829,"is_reserved":false,"is_disabled":false,"rental_uris":{"android":"levelo://app?vid=c07bbd7e-9d62-4e2d-bdca-04429ff52059","ios":"levelo://app?vid=c07bbd7e-9d62-4e2d-bdca-04429ff52059"},"vehicle_type_id":"4","last_reported":1708553206,"current_range_meters":19200,"station_id":"ce4bgt92rcd13ifvqcf0","pricing_plan_id":"cebpf4jnsgd1na2vs0mg"},{"bike_id":"4a830569-04ba-464f-a4d6-20c30257d450","system_id":"levelo_inurba_marseille","lat":43.313571,"lon":5.384829,"is_reserved":false,"is_disabled":false,"rental_uris":{"android":"levelo://app?vid=4a830569-04ba-464f-a4d6-20c30257d450","ios":"levelo://app?vid=4a830569-04ba-464f-a4d6-20c30257d450"},"vehicle_type_id":"4","last_reported":1708553206,"current_range_meters":0,"station_id":"ce4bgt92rcd13ifvqcf0","pricing_plan_id":"cebpf4jnsgd1na2vs0mg"},{"bike_id":"5ed10ad2-155b-428c-8dd1-f7f1ec943e88","system_id":"levelo_inurba_marseille","lat":43.313571,"lon":5.384829,"is_reserved":false,"is_disabled":false,"rental_uris":{"android":"levelo://app?vid=5ed10ad2-155b-428c-8dd1-f7f1ec943e88","ios":"levelo://app?vid=5ed10ad2-155b-428c-8dd1-f7f1ec943e88"},"vehicle_type_id":"4","last_reported":1708553206,"current_range_meters":20400,"station_id":"ce4bgt92rcd13ifvqcf0","pricing_plan_id":"cebpf4jnsgd1na2vs0mg"},{"bike_id":"a366bbef-4121-451f-97f4-4103e2fb0d6b","system_id":"levelo_inurba_marseille","lat":43.29987,"lon":5.37171,"is_reserved":false,"is_disabled":false,"rental_uris":{"android":"levelo://app?vid=a366bbef-4121-451f-97f4-4103e2fb0d6b","ios":"levelo://app?vid=a366bbef-4121-451f-97f4-4103e2fb0d6b"},"vehicle_type_id":"4","last_reported":1708553206,"current_range_meters":10400,"station_id":"ce4bgr92rcd13ifvqc7g","pricing_plan_id":"cebpf4jnsgd1na2vs0mg"},{"bike_id":"7595f458-5f4f-4047-9cf6-3406da5154cb","system_id":"levelo_inurba_marseille","lat":43.299222,"lon":5.365554,"is_reserved":false,"is_disabled":false,"rental_uris":{"android":"levelo://app?vid=7595f458-5f4f-4047-9cf6-3406da5154cb","ios":"levelo://app?vid=7595f458-5f4f-4047-9cf6-3406da5154cb"},"vehicle_type_id":"4","last_reported":1708553206,"current_range_meters":8000,"station_id":"ce4bgm92rcd13ifvqbr0","pricing_plan_id":"cebpf4jnsgd1na2vs0mg"},{"bike_id":"c263ddc2-c641-4b9d-be29-24276f82ac05","system_id":"levelo_inurba_marseille","lat":43.314,"lon":5.38609,"is_reserved":false,"is_disabled":false,"rental_uris":{"android":"levelo://app?vid=c263ddc2-c641-4b9d-be29-24276f82ac05","ios":"levelo://app?vid=c263ddc2-c641-4b9d-be29-24276f82ac05"},"vehicle_type_id":"4","last_reported":1708553206,"current_range_meters":24000,"station_id":"","pricing_plan_id":"cebpf4jnsgd1na2vs0mg"},{"bike_id":"2b2fa38b-47b3-4b75-a55b-921aae0a2f3c","system_id":"levelo_inurba_marseille","lat":43.29849,"lon":5.36276,"is_reserved":false,"is_disabled":false,"rental_uris":{"android":"levelo://app?vid=2b2fa38b-47b3-4b75-a55b-921aae0a2f3c","ios":"levelo://app?vid=2b2fa38b-47b3-4b75-a55b-921aae0a2f3c"},"vehicle_type_id":"4","last_reported":1708553206,"current_range_meters":22000,"station_id":"ce4bgpp2rcd13ifvqc3g","pricing_plan_id":"cebpf4jnsgd1na2vs0mg"},{"bike_id":"6731116a-2e2a-425a-98d9-a78236181736","system_id":"levelo_inurba_marseille","lat":43.298433,"lon":5.362774,"is_reserved":false,"is_disabled":false,"rental_uris":{"android":"levelo://app?vid=6731116a-2e2a-425a-98d9-a78236181736","ios":"levelo://app?vid=6731116a-2e2a-425a-98d9-a78236181736"},"vehicle_type_id":"4","last_reported":1708553206,"current_range_meters":19600,"station_id":"ce4bgpp2rcd13ifvqc3g","pricing_plan_id":"cebpf4jnsgd1na2vs0mg"},{"bike_id":"bf7e8f85-f101-4364-827b-51f913dc0ce6","system_id":"levelo_inurba_marseille","lat":43.311722,"lon":5.387247,"is_reserved":false,"is_disabled":false,"rental_uris":{"android":"levelo://app?vid=bf7e8f85-f101-4364-827b-51f913dc0ce6","ios":"levelo://app?vid=bf7e8f85-f101-4364-827b-51f913dc0ce6"},"vehicle_type_id":"4","last_reported":1708553206,"current_range_meters":28000,"station_id":"ce4bgv12rcd13ifvqcp0","pricing_plan_id":"cebpf4jnsgd1na2vs0mg"},{"bike_id":"e3b83e8e-20bf-4e56-ba89-ae4b48e18956","system_id":"levelo_inurba_marseille","lat":43.311722,"lon":5.387247,"is_reserved":false,"is_disabled":false,"rental_uris":{"android":"levelo://app?vid=e3b83e8e-20bf-4e56-ba89-ae4b48e18956","ios":"levelo://app?vid=e3b83e8e-20bf-4e56-ba89-ae4b48e18956"},"vehicle_type_id":"4","last_reported":1708553206,"current_range_meters":25600,"station_id":"ce4bgv12rcd13ifvqcp0","pricing_plan_id":"cebpf4jnsgd1na2vs0mg"},{"bike_id":"733924c8-68f4-4c36-bce2-e09a0a4c80c9","system_id":"levelo_inurba_marseille","lat":43.313571,"lon":5.384829,"is_reserved":false,"is_disabled":false,"rental_uris":{"android":"levelo://app?vid=733924c8-68f4-4c36-bce2-e09a0a4c80c9","ios":"levelo://app?vid=733924c8-68f4-4c36-bce2-e09a0a4c80c9"},"vehicle_type_id":"4","last_reported":1708553206,"current_range_meters":16000,"station_id":"ce4bgt92rcd13ifvqcf0","pricing_plan_id":"cebpf4jnsgd1na2vs0mg"},{"bike_id":"2ef39172-1800-49c8-b65d-c3876a017e00","system_id":"levelo_inurba_marseille","lat":43.311722,"lon":5.387247,"is_reserved":false,"is_disabled":false,"rental_uris":{"android":"levelo://app?vid=2ef39172-1800-49c8-b65d-c3876a017e00","ios":"levelo://app?vid=2ef39172-1800-49c8-b65d-c3876a017e00"},"vehicle_type_id":"4","last_reported":1708553206,"current_range_meters":4800,"station_id":"ce4bgv12rcd13ifvqcp0","pricing_plan_id":"cebpf4jnsgd1na2vs0mg"},{"bike_id":"8d6c41e8-3af5-4183-b345-7301b4b0e91a","system_id":"levelo_inurba_marseille","lat":43.311722,"lon":5.387247,"is_reserved":false,"is_disabled":false,"rental_uris":{"android":"levelo://app?vid=8d6c41e8-3af5-4183-b345-7301b4b0e91a","ios":"levelo://app?vid=8d6c41e8-3af5-4183-b345-7301b4b0e91a"},"vehicle_type_id":"4","last_reported":1708553206,"current_range_meters":28000,"station_id":"ce4bgv12rcd13ifvqcp0","pricing_plan_id":"cebpf4jnsgd1na2vs0mg"},{"bike_id":"0679957d-c2be-4fac-949a-793ad0d23a13","system_id":"levelo_inurba_marseille","lat":43.297794,"lon":5.370888,"is_reserved":false,"is_disabled":false,"rental_uris":{"android":"levelo://app?vid=0679957d-c2be-4fac-949a-793ad0d23a13","ios":"levelo://app?vid=0679957d-c2be-4fac-949a-793ad0d23a13"},"vehicle_type_id":"4","last_reported":1708553206,"current_range_meters":3200,"station_id":"ce4bgop2rcd13ifvqc1g","pricing_plan_id":"cebpf4jnsgd1na2vs0mg"},{"bike_id":"8c38fcf2-2074-4863-b8d6-e4d0562d5ae9","system_id":"levelo_inurba_marseille","lat":43.322872,"lon":5.382756,"is_reserved":false,"is_disabled":false,"rental_uris":{"android":"levelo://app?vid=8c38fcf2-2074-4863-b8d6-e4d0562d5ae9","ios":"levelo://app?vid=8c38fcf2-2074-4863-b8d6-e4d0562d5ae9"},"vehicle_type_id":"4","last_reported":1708553206,"current_range_meters":25600,"station_id":"ce4bhr12rcd13ifvqhqg","pricing_plan_id":"cebpf4jnsgd1na2vs0mg"},{"bike_id":"dc84b517-faa5-4085-b8eb-ffade7a3674d","system_id":"levelo_inurba_marseille","lat":43.322872,"lon":5.382756,"is_reserved":false,"is_disabled":false,"rental_uris":{"android":"levelo://app?vid=dc84b517-faa5-4085-b8eb-ffade7a3674d","ios":"levelo://app?vid=dc84b517-faa5-4085-b8eb-ffade7a3674d"},"vehicle_type_id":"4","last_reported":1708553206,"current_range_meters":30400,"station_id":"ce4bhr12rcd13ifvqhqg","pricing_plan_id":"cebpf4jnsgd1na2vs0mg"},{"bike_id":"315279a6-c766-4621-85fb-2d30497faa5f","system_id":"levelo_inurba_marseille","lat":43.30177,"lon":5.38173,"is_reserved":false,"is_disabled":false,"rental_uris":{"android":"levelo://app?vid=315279a6-c766-4621-85fb-2d30497faa5f","ios":"levelo://app?vid=315279a6-c766-4621-85fb-2d30497faa5f"},"vehicle_type_id":"4","last_reported":1708553206,"current_range_meters":18800,"station_id":"","pricing_plan_id":"cebpf4jnsgd1na2vs0mg"},{"bike_id":"b462cd0e-e4ce-4fb8-a4ca-de5dbf0b08d3","system_id":"levelo_inurba_marseille","lat":43.297082,"lon":5.366242,"is_reserved":false,"is_disabled":false,"rental_uris":{"android":"levelo://app?vid=b462cd0e-e4ce-4fb8-a4ca-de5dbf0b08d3","ios":"levelo://app?vid=b462cd0e-e4ce-4fb8-a4ca-de5dbf0b08d3"},"vehicle_type_id":"4","last_reported":1708553206,"current_range_meters":1600,"station_id":"ce4bgn12rcd13ifvqbt0","pricing_plan_id":"cebpf4jnsgd1na2vs0mg"},{"bike_id":"582f99f4-6790-4850-9fdb-a48b4c5856f9","system_id":"levelo_inurba_marseille","lat":43.297163,"lon":5.365866,"is_reserved":false,"is_disabled":false,"rental_uris":{"android":"levelo://app?vid=582f99f4-6790-4850-9fdb-a48b4c5856f9","ios":"levelo://app?vid=582f99f4-6790-4850-9fdb-a48b4c5856f9"},"vehicle_type_id":"4","last_reported":1708553206,"current_range_meters":31600,"station_id":"ce4bgn12rcd13ifvqbt0","pricing_plan_id":"cebpf4jnsgd1na2vs0mg"},{"bike_id":"9d2e10bf-e054-4c5b-8b5c-863bd4fa7118","system_id":"levelo_inurba_marseille","lat":43.297163,"lon":5.365866,"is_reserved":false,"is_disabled":false,"rental_uris":{"android":"levelo://app?vid=9d2e10bf-e054-4c5b-8b5c-863bd4fa7118","ios":"levelo://app?vid=9d2e10bf-e054-4c5b-8b5c-863bd4fa7118"},"vehicle_type_id":"4","last_reported":1708553206,"current_range_meters":20000,"station_id":"ce4bgn12rcd13ifvqbt0","pricing_plan_id":"cebpf4jnsgd1na2vs0mg"},{"bike_id":"85a4d11c-289d-4628-8388-5671fa361a18","system_id":"levelo_inurba_marseille","lat":43.29704,"lon":5.3661,"is_reserved":false,"is_disabled":false,"rental_uris":{"android":"levelo://app?vid=85a4d11c-289d-4628-8388-5671fa361a18","ios":"levelo://app?vid=85a4d11c-289d-4628-8388-5671fa361a18"},"vehicle_type_id":"4","last_reported":1708553206,"current_range_meters":28000,"station_id":"ce4bgn12rcd13ifvqbt0","pricing_plan_id":"cebpf4jnsgd1na2vs0mg"},{"bike_id":"d6691360-ca71-4f56-a2b0-1e5ce6e1787b","system_id":"levelo_inurba_marseille","lat":43.297009,"lon":5.36618,"is_reserved":false,"is_disabled":false,"rental_uris":{"android":"levelo://app?vid=d6691360-ca71-4f56-a2b0-1e5ce6e1787b","ios":"levelo://app?vid=d6691360-ca71-4f56-a2b0-1e5ce6e1787b"},"vehicle_type_id":"4","last_reported":1708553206,"current_range_meters":11200,"station_id":"ce4bgn12rcd13ifvqbt0","pricing_plan_id":"cebpf4jnsgd1na2vs0mg"},{"bike_id":"ab8d2ab0-9a51-4900-8a7f-a001c9041be0","system_id":"levelo_inurba_marseille","lat":43.296131,"lon":5.370791,"is_reserved":false,"is_disabled":false,"rental_uris":{"android":"levelo://app?vid=ab8d2ab0-9a51-4900-8a7f-a001c9041be0","ios":"levelo://app?vid=ab8d2ab0-9a51-4900-8a7f-a001c9041be0"},"vehicle_type_id":"4","last_reported":1708553206,"current_range_meters":16800,"station_id":"ce4bgnh2rcd13ifvqc0g","pricing_plan_id":"cebpf4jnsgd1na2vs0mg"},{"bike_id":"6d9aced2-e168-4c88-a6c3-463454dc8d40","system_id":"levelo_inurba_marseille","lat":43.299028,"lon":5.381509,"is_reserved":false,"is_disabled":false,"rental_uris":{"android":"levelo://app?vid=6d9aced2-e168-4c88-a6c3-463454dc8d40","ios":"levelo://app?vid=6d9aced2-e168-4c88-a6c3-463454dc8d40"},"vehicle_type_id":"4","last_reported":1708553206,"current_range_meters":12800,"station_id":"ce4bgj12rcd13ifvqbc0","pricing_plan_id":"cebpf4jnsgd1na2vs0mg"},{"bike_id":"4f9eb919-0275-41c1-bb55-4d79f771cc3f","system_id":"levelo_inurba_marseille","lat":43.29911,"lon":5.38124,"is_reserved":false,"is_disabled":false,"rental_uris":{"android":"levelo://app?vid=4f9eb919-0275-41c1-bb55-4d79f771cc3f","ios":"levelo://app?vid=4f9eb919-0275-41c1-bb55-4d79f771cc3f"},"vehicle_type_id":"4","last_reported":1708553206,"current_range_meters":23600,"station_id":"ce4bgj12rcd13ifvqbc0","pricing_plan_id":"cebpf4jnsgd1na2vs0mg"},{"bike_id":"eeb0e1e3-3de3-4948-b61b-46c0af147d85","system_id":"levelo_inurba_marseille","lat":43.299063,"lon":5.381353,"is_reserved":false,"is_disabled":false,"rental_uris":{"android":"levelo://app?vid=eeb0e1e3-3de3-4948-b61b-46c0af147d85","ios":"levelo://app?vid=eeb0e1e3-3de3-4948-b61b-46c0af147d85"},"vehicle_type_id":"4","last_reported":1708553206,"current_range_meters":28000,"station_id":"ce4bgj12rcd13ifvqbc0","pricing_plan_id":"cebpf4jnsgd1na2vs0mg"},{"bike_id":"c3255687-6c69-410f-bca6-4ef30aa299f6","system_id":"levelo_inurba_marseille","lat":43.309589,"lon":5.390258,"is_reserved":false,"is_disabled":false,"rental_uris":{"android":"levelo://app?vid=c3255687-6c69-410f-bca6-4ef30aa299f6","ios":"levelo://app?vid=c3255687-6c69-410f-bca6-4ef30aa299f6"},"vehicle_type_id":"4","last_reported":1708553206,"current_range_meters":17200,"station_id":"ce4bgup2rcd13ifvqco0","pricing_plan_id":"cebpf4jnsgd1na2vs0mg"},{"bike_id":"e6961fda-8768-4921-9524-520e4ea32d92","system_id":"levelo_inurba_marseille","lat":43.309589,"lon":5.390258,"is_reserved":false,"is_disabled":false,"rental_uris":{"android":"levelo://app?vid=e6961fda-8768-4921-9524-520e4ea32d92","ios":"levelo://app?vid=e6961fda-8768-4921-9524-520e4ea32d92"},"vehicle_type_id":"4","last_reported":1708553206,"current_range_meters":29200,"station_id":"ce4bgup2rcd13ifvqco0","pricing_plan_id":"cebpf4jnsgd1na2vs0mg"},{"bike_id":"6d38667b-caf7-426c-9682-4f401d1f605e","system_id":"levelo_inurba_marseille","lat":43.31761,"lon":5.39007,"is_reserved":false,"is_disabled":false,"rental_uris":{"android":"levelo://app?vid=6d38667b-caf7-426c-9682-4f401d1f605e","ios":"levelo://app?vid=6d38667b-caf7-426c-9682-4f401d1f605e"},"vehicle_type_id":"4","last_reported":1708553206,"current_range_meters":26000,"station_id":"ce4bhqp2rcd13ifvqhng","pricing_plan_id":"cebpf4jnsgd1na2vs0mg"},{"bike_id":"c4eea628-8412-4da0-8993-64b792016ba4","system_id":"levelo_inurba_marseille","lat":43.31755,"lon":5.39015,"is_reserved":false,"is_disabled":false,"rental_uris":{"android":"levelo://app?vid=c4eea628-8412-4da0-8993-64b792016ba4","ios":"levelo://app?vid=c4eea628-8412-4da0-8993-64b792016ba4"},"vehicle_type_id":"4","last_reported":1708553206,"current_range_meters":6400,"station_id":"ce4bhqp2rcd13ifvqhng","pricing_plan_id":"cebpf4jnsgd1na2vs0mg"},{"bike_id":"0c228192-9b6d-49e6-87dd-6796cddaa509","system_id":"levelo_inurba_marseille","lat":43.317557,"lon":5.390173,"is_reserved":false,"is_disabled":false,"rental_uris":{"android":"levelo://app?vid=0c228192-9b6d-49e6-87dd-6796cddaa509","ios":"levelo://app?vid=0c228192-9b6d-49e6-87dd-6796cddaa509"},"vehicle_type_id":"4","last_reported":1708553206,"current_range_meters":13200,"station_id":"ce4bhqp2rcd13ifvqhng","pricing_plan_id":"cebpf4jnsgd1na2vs0mg"},{"bike_id":"af08c82d-ac9e-405b-9884-7b4d86d1edbe","system_id":"levelo_inurba_marseille","lat":43.317557,"lon":5.390173,"is_reserved":false,"is_disabled":false,"rental_uris":{"android":"levelo://app?vid=af08c82d-ac9e-405b-9884-7b4d86d1edbe","ios":"levelo://app?vid=af08c82d-ac9e-405b-9884-7b4d86d1edbe"},"vehicle_type_id":"4","last_reported":1708553206,"current_range_meters":21600,"station_id":"ce4bhqp2rcd13ifvqhng","pricing_plan_id":"cebpf4jnsgd1na2vs0mg"},{"bike_id":"0b205bab-24a5-4225-b9e1-04a909a5b36e","system_id":"levelo_inurba_marseille","lat":43.297227,"lon":5.379467,"is_reserved":false,"is_disabled":false,"rental_uris":{"android":"levelo://app?vid=0b205bab-24a5-4225-b9e1-04a909a5b36e","ios":"levelo://app?vid=0b205bab-24a5-4225-b9e1-04a909a5b36e"},"vehicle_type_id":"4","last_reported":1708553206,"current_range_meters":14800,"station_id":"","pricing_plan_id":"cebpf4jnsgd1na2vs0mg"},{"bike_id":"89237188-73f9-4f9e-8244-e24c99b028ea","system_id":"levelo_inurba_marseille","lat":43.304274,"lon":5.388873,"is_reserved":false,"is_disabled":false,"rental_uris":{"android":"levelo://app?vid=89237188-73f9-4f9e-8244-e24c99b028ea","ios":"levelo://app?vid=89237188-73f9-4f9e-8244-e24c99b028ea"},"vehicle_type_id":"4","last_reported":1708553206,"current_range_meters":29200,"station_id":"ce4bgk12rcd13ifvqbi0","pricing_plan_id":"cebpf4jnsgd1na2vs0mg"},{"bike_id":"f591246c-1b7a-4c55-b424-910c554cf511","system_id":"levelo_inurba_marseille","lat":43.30428,"lon":5.38879,"is_reserved":false,"is_disabled":false,"rental_uris":{"android":"levelo://app?vid=f591246c-1b7a-4c55-b424-910c554cf511","ios":"levelo://app?vid=f591246c-1b7a-4c55-b424-910c554cf511"},"vehicle_type_id":"4","last_reported":1708553206,"current_range_meters":9200,"station_id":"ce4bgk12rcd13ifvqbi0","pricing_plan_id":"cebpf4jnsgd1na2vs0mg"},{"bike_id":"ddb88b4b-3f5e-4132-adb6-3749cfb207e8","system_id":"levelo_inurba_marseille","lat":43.30437,"lon":5.38886,"is_reserved":false,"is_disabled":false,"rental_uris":{"android":"levelo://app?vid=ddb88b4b-3f5e-4132-adb6-3749cfb207e8","ios":"levelo://app?vid=ddb88b4b-3f5e-4132-adb6-3749cfb207e8"},"vehicle_type_id":"4","last_reported":1708553206,"current_range_meters":20400,"station_id":"ce4bgk12rcd13ifvqbi0","pricing_plan_id":"cebpf4jnsgd1na2vs0mg"},{"bike_id":"7b34ac0e-9a6e-42d6-a317-85c40a094f2f","system_id":"levelo_inurba_marseille","lat":43.30434,"lon":5.38885,"is_reserved":false,"is_disabled":false,"rental_uris":{"android":"levelo://app?vid=7b34ac0e-9a6e-42d6-a317-85c40a094f2f","ios":"levelo://app?vid=7b34ac0e-9a6e-42d6-a317-85c40a094f2f"},"vehicle_type_id":"4","last_reported":1708553206,"current_range_meters":10800,"station_id":"ce4bgk12rcd13ifvqbi0","pricing_plan_id":"cebpf4jnsgd1na2vs0mg"},{"bike_id":"f7ac2c49-6f93-4edc-9120-f88266891552","system_id":"levelo_inurba_marseille","lat":43.30432,"lon":5.38884,"is_reserved":false,"is_disabled":false,"rental_uris":{"android":"levelo://app?vid=f7ac2c49-6f93-4edc-9120-f88266891552","ios":"levelo://app?vid=f7ac2c49-6f93-4edc-9120-f88266891552"},"vehicle_type_id":"4","last_reported":1708553206,"current_range_meters":10000,"station_id":"ce4bgk12rcd13ifvqbi0","pricing_plan_id":"cebpf4jnsgd1na2vs0mg"},{"bike_id":"03adbbda-23da-4814-afe1-318988bc93e9","system_id":"levelo_inurba_marseille","lat":43.304343,"lon":5.388907,"is_reserved":false,"is_disabled":false,"rental_uris":{"android":"levelo://app?vid=03adbbda-23da-4814-afe1-318988bc93e9","ios":"levelo://app?vid=03adbbda-23da-4814-afe1-318988bc93e9"},"vehicle_type_id":"4","last_reported":1708553206,"current_range_meters":17600,"station_id":"ce4bgk12rcd13ifvqbi0","pricing_plan_id":"cebpf4jnsgd1na2vs0mg"},{"bike_id":"96d68c5e-82c6-45e7-a65e-d0733c5dd49b","system_id":"levelo_inurba_marseille","lat":43.30431,"lon":5.38889,"is_reserved":false,"is_disabled":false,"rental_uris":{"android":"levelo://app?vid=96d68c5e-82c6-45e7-a65e-d0733c5dd49b","ios":"levelo://app?vid=96d68c5e-82c6-45e7-a65e-d0733c5dd49b"},"vehicle_type_id":"4","last_reported":1708553206,"current_range_meters":21600,"station_id":"ce4bgk12rcd13ifvqbi0","pricing_plan_id":"cebpf4jnsgd1na2vs0mg"},{"bike_id":"cd31e8fb-3c63-4ae2-8a36-bf930ac1b93e","system_id":"levelo_inurba_marseille","lat":43.30431,"lon":5.38892,"is_reserved":false,"is_disabled":false,"rental_uris":{"android":"levelo://app?vid=cd31e8fb-3c63-4ae2-8a36-bf930ac1b93e","ios":"levelo://app?vid=cd31e8fb-3c63-4ae2-8a36-bf930ac1b93e"},"vehicle_type_id":"4","last_reported":1708553206,"current_range_meters":18000,"station_id":"ce4bgk12rcd13ifvqbi0","pricing_plan_id":"cebpf4jnsgd1na2vs0mg"},{"bike_id":"c2292dd9-0817-491a-aa37-e5ea38c2e8e2","system_id":"levelo_inurba_marseille","lat":43.304274,"lon":5.388873,"is_reserved":false,"is_disabled":false,"rental_uris":{"android":"levelo://app?vid=c2292dd9-0817-491a-aa37-e5ea38c2e8e2","ios":"levelo://app?vid=c2292dd9-0817-491a-aa37-e5ea38c2e8e2"},"vehicle_type_id":"4","last_reported":1708553206,"current_range_meters":19600,"station_id":"ce4bgk12rcd13ifvqbi0","pricing_plan_id":"cebpf4jnsgd1na2vs0mg"},{"bike_id":"d0b04147-7650-4a56-bfce-03f2ea473212","system_id":"levelo_inurba_marseille","lat":43.304312,"lon":5.38898,"is_reserved":false,"is_disabled":false,"rental_uris":{"android":"levelo://app?vid=d0b04147-7650-4a56-bfce-03f2ea473212","ios":"levelo://app?vid=d0b04147-7650-4a56-bfce-03f2ea473212"},"vehicle_type_id":"4","last_reported":1708553206,"current_range_meters":15200,"station_id":"ce4bgk12rcd13ifvqbi0","pricing_plan_id":"cebpf4jnsgd1na2vs0mg"},{"bike_id":"550c58d9-8423-4974-a3bd-41df17fd88ff","system_id":"levelo_inurba_marseille","lat":43.299712,"lon":5.38493,"is_reserved":false,"is_disabled":false,"rental_uris":{"android":"levelo://app?vid=550c58d9-8423-4974-a3bd-41df17fd88ff","ios":"levelo://app?vid=550c58d9-8423-4974-a3bd-41df17fd88ff"},"vehicle_type_id":"4","last_reported":1708553206,"current_range_meters":27600,"station_id":"ce4bgj92rcd13ifvqbd0","pricing_plan_id":"cebpf4jnsgd1na2vs0mg"},{"bike_id":"235cf193-61ae-44c7-a824-0fdab5666ccc","system_id":"levelo_inurba_marseille","lat":43.31107,"lon":5.39324,"is_reserved":false,"is_disabled":false,"rental_uris":{"android":"levelo://app?vid=235cf193-61ae-44c7-a824-0fdab5666ccc","ios":"levelo://app?vid=235cf193-61ae-44c7-a824-0fdab5666ccc"},"vehicle_type_id":"4","last_reported":1708553206,"current_range_meters":21200,"station_id":"","pricing_plan_id":"cebpf4jnsgd1na2vs0mg"},{"bike_id":"e1331ad4-e372-4556-a92a-5ceabd47d69f","system_id":"levelo_inurba_marseille","lat":43.32367,"lon":5.388836,"is_reserved":false,"is_disabled":false,"rental_uris":{"android":"levelo://app?vid=e1331ad4-e372-4556-a92a-5ceabd47d69f","ios":"levelo://app?vid=e1331ad4-e372-4556-a92a-5ceabd47d69f"},"vehicle_type_id":"4","last_reported":1708553206,"current_range_meters":0,"station_id":"ce4bhqp2rcd13ifvqhog","pricing_plan_id":"cebpf4jnsgd1na2vs0mg"},{"bike_id":"83b7bea1-b4a8-450e-a684-4aefcf81733c","system_id":"levelo_inurba_marseille","lat":43.32367,"lon":5.388836,"is_reserved":false,"is_disabled":false,"rental_uris":{"android":"levelo://app?vid=83b7bea1-b4a8-450e-a684-4aefcf81733c","ios":"levelo://app?vid=83b7bea1-b4a8-450e-a684-4aefcf81733c"},"vehicle_type_id":"4","last_reported":1708553206,"current_range_meters":13200,"station_id":"ce4bhqp2rcd13ifvqhog","pricing_plan_id":"cebpf4jnsgd1na2vs0mg"},{"bike_id":"5e419ec8-e3e1-4756-ac2b-ffa1b2c8f48b","system_id":"levelo_inurba_marseille","lat":43.32367,"lon":5.388836,"is_reserved":false,"is_disabled":false,"rental_uris":{"android":"levelo://app?vid=5e419ec8-e3e1-4756-ac2b-ffa1b2c8f48b","ios":"levelo://app?vid=5e419ec8-e3e1-4756-ac2b-ffa1b2c8f48b"},"vehicle_type_id":"4","last_reported":1708553206,"current_range_meters":9200,"station_id":"ce4bhqp2rcd13ifvqhog","pricing_plan_id":"cebpf4jnsgd1na2vs0mg"},{"bike_id":"71255df0-7a97-4081-be41-5c0f53a7608c","system_id":"levelo_inurba_marseille","lat":43.32367,"lon":5.388836,"is_reserved":false,"is_disabled":false,"rental_uris":{"android":"levelo://app?vid=71255df0-7a97-4081-be41-5c0f53a7608c","ios":"levelo://app?vid=71255df0-7a97-4081-be41-5c0f53a7608c"},"vehicle_type_id":"4","last_reported":1708553206,"current_range_meters":16800,"station_id":"ce4bhqp2rcd13ifvqhog","pricing_plan_id":"cebpf4jnsgd1na2vs0mg"},{"bike_id":"8673e119-03b9-4bd7-a69f-6b553725966d","system_id":"levelo_inurba_marseille","lat":43.278401,"lon":5.392152,"is_reserved":false,"is_disabled":false,"rental_uris":{"android":"levelo://app?vid=8673e119-03b9-4bd7-a69f-6b553725966d","ios":"levelo://app?vid=8673e119-03b9-4bd7-a69f-6b553725966d"},"vehicle_type_id":"4","last_reported":1708553206,"current_range_meters":7600,"station_id":"ce4bhjp2rcd13ifvqga0","pricing_plan_id":"cebpf4jnsgd1na2vs0mg"},{"bike_id":"389b7902-31f2-4212-9123-98b3c3272d61","system_id":"levelo_inurba_marseille","lat":43.29596,"lon":5.38099,"is_reserved":false,"is_disabled":false,"rental_uris":{"android":"levelo://app?vid=389b7902-31f2-4212-9123-98b3c3272d61","ios":"levelo://app?vid=389b7902-31f2-4212-9123-98b3c3272d61"},"vehicle_type_id":"4","last_reported":1708553206,"current_range_meters":0,"station_id":"ce4bgl12rcd13ifvqbo0","pricing_plan_id":"cebpf4jnsgd1na2vs0mg"},{"bike_id":"f4128349-1300-4770-aafc-29c042deb3da","system_id":"levelo_inurba_marseille","lat":43.293259,"lon":5.371586,"is_reserved":false,"is_disabled":false,"rental_uris":{"android":"levelo://app?vid=f4128349-1300-4770-aafc-29c042deb3da","ios":"levelo://app?vid=f4128349-1300-4770-aafc-29c042deb3da"},"vehicle_type_id":"4","last_reported":1708553206,"current_range_meters":6000,"station_id":"ce4bgh92rcd13ifvqb40","pricing_plan_id":"cebpf4jnsgd1na2vs0mg"},{"bike_id":"334f1f84-2ad9-438f-bac2-32fb41257b5f","system_id":"levelo_inurba_marseille","lat":43.292749,"lon":5.368402,"is_reserved":false,"is_disabled":false,"rental_uris":{"android":"levelo://app?vid=334f1f84-2ad9-438f-bac2-32fb41257b5f","ios":"levelo://app?vid=334f1f84-2ad9-438f-bac2-32fb41257b5f"},"vehicle_type_id":"4","last_reported":1708553206,"current_range_meters":0,"station_id":"ce4bhbp2rcd13ifvqesg","pricing_plan_id":"cebpf4jnsgd1na2vs0mg"},{"bike_id":"12a02f6a-fe4e-40f4-bf50-a430cf116a69","system_id":"levelo_inurba_marseille","lat":43.292749,"lon":5.368398,"is_reserved":false,"is_disabled":false,"rental_uris":{"android":"levelo://app?vid=12a02f6a-fe4e-40f4-bf50-a430cf116a69","ios":"levelo://app?vid=12a02f6a-fe4e-40f4-bf50-a430cf116a69"},"vehicle_type_id":"4","last_reported":1708553206,"current_range_meters":28000,"station_id":"ce4bhbp2rcd13ifvqesg","pricing_plan_id":"cebpf4jnsgd1na2vs0mg"},{"bike_id":"56e518e7-bde7-451a-8616-5473f6d968eb","system_id":"levelo_inurba_marseille","lat":43.29273,"lon":5.36838,"is_reserved":false,"is_disabled":false,"rental_uris":{"android":"levelo://app?vid=56e518e7-bde7-451a-8616-5473f6d968eb","ios":"levelo://app?vid=56e518e7-bde7-451a-8616-5473f6d968eb"},"vehicle_type_id":"4","last_reported":1708553206,"current_range_meters":25200,"station_id":"ce4bhbp2rcd13ifvqesg","pricing_plan_id":"cebpf4jnsgd1na2vs0mg"},{"bike_id":"2440475f-1a06-4512-ae2a-6c63f9585f9d","system_id":"levelo_inurba_marseille","lat":43.292749,"lon":5.368398,"is_reserved":false,"is_disabled":false,"rental_uris":{"android":"levelo://app?vid=2440475f-1a06-4512-ae2a-6c63f9585f9d","ios":"levelo://app?vid=2440475f-1a06-4512-ae2a-6c63f9585f9d"},"vehicle_type_id":"4","last_reported":1708553206,"current_range_meters":26000,"station_id":"ce4bhbp2rcd13ifvqesg","pricing_plan_id":"cebpf4jnsgd1na2vs0mg"},{"bike_id":"8521c94e-a2d8-4301-ad27-e65e94818cb8","system_id":"levelo_inurba_marseille","lat":43.29273,"lon":5.36841,"is_reserved":false,"is_disabled":false,"rental_uris":{"android":"levelo://app?vid=8521c94e-a2d8-4301-ad27-e65e94818cb8","ios":"levelo://app?vid=8521c94e-a2d8-4301-ad27-e65e94818cb8"},"vehicle_type_id":"4","last_reported":1708553206,"current_range_meters":28400,"station_id":"ce4bhbp2rcd13ifvqesg","pricing_plan_id":"cebpf4jnsgd1na2vs0mg"},{"bike_id":"4d85dec3-af89-4f9b-b190-f61400a65f1d","system_id":"levelo_inurba_marseille","lat":43.292749,"lon":5.368402,"is_reserved":false,"is_disabled":false,"rental_uris":{"android":"levelo://app?vid=4d85dec3-af89-4f9b-b190-f61400a65f1d","ios":"levelo://app?vid=4d85dec3-af89-4f9b-b190-f61400a65f1d"},"vehicle_type_id":"4","last_reported":1708553206,"current_range_meters":19600,"station_id":"ce4bhbp2rcd13ifvqesg","pricing_plan_id":"cebpf4jnsgd1na2vs0mg"},{"bike_id":"2c772a92-2287-4a7c-bdfe-13fdbd30cdcb","system_id":"levelo_inurba_marseille","lat":43.29264,"lon":5.36839,"is_reserved":false,"is_disabled":false,"rental_uris":{"android":"levelo://app?vid=2c772a92-2287-4a7c-bdfe-13fdbd30cdcb","ios":"levelo://app?vid=2c772a92-2287-4a7c-bdfe-13fdbd30cdcb"},"vehicle_type_id":"4","last_reported":1708553206,"current_range_meters":28400,"station_id":"ce4bhbp2rcd13ifvqesg","pricing_plan_id":"cebpf4jnsgd1na2vs0mg"},{"bike_id":"6289d8bf-782b-4c02-bc16-9fd77654128e","system_id":"levelo_inurba_marseille","lat":43.30587,"lon":5.39356,"is_reserved":false,"is_disabled":false,"rental_uris":{"android":"levelo://app?vid=6289d8bf-782b-4c02-bc16-9fd77654128e","ios":"levelo://app?vid=6289d8bf-782b-4c02-bc16-9fd77654128e"},"vehicle_type_id":"4","last_reported":1708553206,"current_range_meters":17200,"station_id":"ce4bh0p2rcd13ifvqd80","pricing_plan_id":"cebpf4jnsgd1na2vs0mg"},{"bike_id":"a206341b-1869-47f3-a1dc-1861d12f3e47","system_id":"levelo_inurba_marseille","lat":43.305994,"lon":5.393651,"is_reserved":false,"is_disabled":false,"rental_uris":{"android":"levelo://app?vid=a206341b-1869-47f3-a1dc-1861d12f3e47","ios":"levelo://app?vid=a206341b-1869-47f3-a1dc-1861d12f3e47"},"vehicle_type_id":"4","last_reported":1708553206,"current_range_meters":20400,"station_id":"ce4bh0p2rcd13ifvqd80","pricing_plan_id":"cebpf4jnsgd1na2vs0mg"},{"bike_id":"37ba75ad-84e3-465e-9b62-3e402b398b70","system_id":"levelo_inurba_marseille","lat":43.305994,"lon":5.393687,"is_reserved":false,"is_disabled":false,"rental_uris":{"android":"levelo://app?vid=37ba75ad-84e3-465e-9b62-3e402b398b70","ios":"levelo://app?vid=37ba75ad-84e3-465e-9b62-3e402b398b70"},"vehicle_type_id":"4","last_reported":1708553206,"current_range_meters":29600,"station_id":"ce4bh0p2rcd13ifvqd80","pricing_plan_id":"cebpf4jnsgd1na2vs0mg"},{"bike_id":"8521facc-82d6-4647-aeea-f181b776c156","system_id":"levelo_inurba_marseille","lat":43.30306,"lon":5.39198,"is_reserved":false,"is_disabled":false,"rental_uris":{"android":"levelo://app?vid=8521facc-82d6-4647-aeea-f181b776c156","ios":"levelo://app?vid=8521facc-82d6-4647-aeea-f181b776c156"},"vehicle_type_id":"4","last_reported":1708553206,"current_range_meters":24800,"station_id":"ce4bgkh2rcd13ifvqbk0","pricing_plan_id":"cebpf4jnsgd1na2vs0mg"},{"bike_id":"d8136c71-bee2-42ed-95e6-1ce6d4a3c7d9","system_id":"levelo_inurba_marseille","lat":43.30309,"lon":5.39208,"is_reserved":false,"is_disabled":false,"rental_uris":{"android":"levelo://app?vid=d8136c71-bee2-42ed-95e6-1ce6d4a3c7d9","ios":"levelo://app?vid=d8136c71-bee2-42ed-95e6-1ce6d4a3c7d9"},"vehicle_type_id":"4","last_reported":1708553206,"current_range_meters":2400,"station_id":"ce4bgkh2rcd13ifvqbk0","pricing_plan_id":"cebpf4jnsgd1na2vs0mg"},{"bike_id":"5f7a80ff-b8f0-4efc-bef0-b87b986911d0","system_id":"levelo_inurba_marseille","lat":43.303002,"lon":5.392142,"is_reserved":false,"is_disabled":false,"rental_uris":{"android":"levelo://app?vid=5f7a80ff-b8f0-4efc-bef0-b87b986911d0","ios":"levelo://app?vid=5f7a80ff-b8f0-4efc-bef0-b87b986911d0"},"vehicle_type_id":"4","last_reported":1708553206,"current_range_meters":11600,"station_id":"ce4bgkh2rcd13ifvqbk0","pricing_plan_id":"cebpf4jnsgd1na2vs0mg"},{"bike_id":"90c7ee03-d185-459a-a4c9-f644963d441c","system_id":"levelo_inurba_marseille","lat":43.2936,"lon":5.37835,"is_reserved":false,"is_disabled":false,"rental_uris":{"android":"levelo://app?vid=90c7ee03-d185-459a-a4c9-f644963d441c","ios":"levelo://app?vid=90c7ee03-d185-459a-a4c9-f644963d441c"},"vehicle_type_id":"4","last_reported":1708553206,"current_range_meters":10000,"station_id":"ce4bgjh2rcd13ifvqbf0","pricing_plan_id":"cebpf4jnsgd1na2vs0mg"},{"bike_id":"e707994d-81e7-490a-9e6d-43ef3e5f6b50","system_id":"levelo_inurba_marseille","lat":43.2936,"lon":5.37835,"is_reserved":false,"is_disabled":false,"rental_uris":{"android":"levelo://app?vid=e707994d-81e7-490a-9e6d-43ef3e5f6b50","ios":"levelo://app?vid=e707994d-81e7-490a-9e6d-43ef3e5f6b50"},"vehicle_type_id":"4","last_reported":1708553206,"current_range_meters":8400,"station_id":"ce4bgjh2rcd13ifvqbf0","pricing_plan_id":"cebpf4jnsgd1na2vs0mg"},{"bike_id":"98a88736-0191-407a-a6bd-6850ed796dbb","system_id":"levelo_inurba_marseille","lat":43.2936,"lon":5.37835,"is_reserved":false,"is_disabled":false,"rental_uris":{"android":"levelo://app?vid=98a88736-0191-407a-a6bd-6850ed796dbb","ios":"levelo://app?vid=98a88736-0191-407a-a6bd-6850ed796dbb"},"vehicle_type_id":"4","last_reported":1708553206,"current_range_meters":18000,"station_id":"ce4bgjh2rcd13ifvqbf0","pricing_plan_id":"cebpf4jnsgd1na2vs0mg"},{"bike_id":"d501d863-bf4a-4a2e-8426-18baa6e6c72c","system_id":"levelo_inurba_marseille","lat":43.302759,"lon":5.400793,"is_reserved":false,"is_disabled":false,"rental_uris":{"android":"levelo://app?vid=d501d863-bf4a-4a2e-8426-18baa6e6c72c","ios":"levelo://app?vid=d501d863-bf4a-4a2e-8426-18baa6e6c72c"},"vehicle_type_id":"4","last_reported":1708553206,"current_range_meters":0,"station_id":"ce4bgvh2rcd13ifvqcs0","pricing_plan_id":"cebpf4jnsgd1na2vs0mg"},{"bike_id":"9961486a-cc9c-4a4d-8fad-3b72637f61f1","system_id":"levelo_inurba_marseille","lat":43.300852,"lon":5.390859,"is_reserved":false,"is_disabled":false,"rental_uris":{"android":"levelo://app?vid=9961486a-cc9c-4a4d-8fad-3b72637f61f1","ios":"levelo://app?vid=9961486a-cc9c-4a4d-8fad-3b72637f61f1"},"vehicle_type_id":"4","last_reported":1708553206,"current_range_meters":6000,"station_id":"ce4bh192rcd13ifvqdb0","pricing_plan_id":"cebpf4jnsgd1na2vs0mg"},{"bike_id":"8726305d-e6dd-4dd2-b9cc-631ea9be41b8","system_id":"levelo_inurba_marseille","lat":43.29221,"lon":5.36056,"is_reserved":false,"is_disabled":false,"rental_uris":{"android":"levelo://app?vid=8726305d-e6dd-4dd2-b9cc-631ea9be41b8","ios":"levelo://app?vid=8726305d-e6dd-4dd2-b9cc-631ea9be41b8"},"vehicle_type_id":"4","last_reported":1708553206,"current_range_meters":31200,"station_id":"ce4bhbh2rcd13ifvqeqg","pricing_plan_id":"cebpf4jnsgd1na2vs0mg"},{"bike_id":"48df24b0-1a3f-4d44-a65b-95b2c6faf8d8","system_id":"levelo_inurba_marseille","lat":43.292211,"lon":5.36051,"is_reserved":false,"is_disabled":false,"rental_uris":{"android":"levelo://app?vid=48df24b0-1a3f-4d44-a65b-95b2c6faf8d8","ios":"levelo://app?vid=48df24b0-1a3f-4d44-a65b-95b2c6faf8d8"},"vehicle_type_id":"4","last_reported":1708553206,"current_range_meters":28800,"station_id":"ce4bhbh2rcd13ifvqeqg","pricing_plan_id":"cebpf4jnsgd1na2vs0mg"},{"bike_id":"6def3e69-3f1c-4788-830d-a3a345b9adb6","system_id":"levelo_inurba_marseille","lat":43.292176,"lon":5.360519,"is_reserved":false,"is_disabled":false,"rental_uris":{"android":"levelo://app?vid=6def3e69-3f1c-4788-830d-a3a345b9adb6","ios":"levelo://app?vid=6def3e69-3f1c-4788-830d-a3a345b9adb6"},"vehicle_type_id":"4","last_reported":1708553206,"current_range_meters":13200,"station_id":"ce4bhbh2rcd13ifvqeqg","pricing_plan_id":"cebpf4jnsgd1na2vs0mg"},{"bike_id":"9bf33dbb-396b-4760-a4ac-208aae7befb0","system_id":"levelo_inurba_marseille","lat":43.2989,"lon":5.38905,"is_reserved":false,"is_disabled":false,"rental_uris":{"android":"levelo://app?vid=9bf33dbb-396b-4760-a4ac-208aae7befb0","ios":"levelo://app?vid=9bf33dbb-396b-4760-a4ac-208aae7befb0"},"vehicle_type_id":"4","last_reported":1708553206,"current_range_meters":29600,"station_id":"ce4bh392rcd13ifvqdl0","pricing_plan_id":"cebpf4jnsgd1na2vs0mg"},{"bike_id":"30a9b701-fcef-4f24-b017-4961c7f3279a","system_id":"levelo_inurba_marseille","lat":43.298764,"lon":5.388973,"is_reserved":false,"is_disabled":false,"rental_uris":{"android":"levelo://app?vid=30a9b701-fcef-4f24-b017-4961c7f3279a","ios":"levelo://app?vid=30a9b701-fcef-4f24-b017-4961c7f3279a"},"vehicle_type_id":"4","last_reported":1708553206,"current_range_meters":14400,"station_id":"ce4bh392rcd13ifvqdl0","pricing_plan_id":"cebpf4jnsgd1na2vs0mg"},{"bike_id":"61a7d2fd-ed2a-4f44-9d1b-943a87c2cba7","system_id":"levelo_inurba_marseille","lat":43.298764,"lon":5.388973,"is_reserved":false,"is_disabled":false,"rental_uris":{"android":"levelo://app?vid=61a7d2fd-ed2a-4f44-9d1b-943a87c2cba7","ios":"levelo://app?vid=61a7d2fd-ed2a-4f44-9d1b-943a87c2cba7"},"vehicle_type_id":"4","last_reported":1708553206,"current_range_meters":9600,"station_id":"ce4bh392rcd13ifvqdl0","pricing_plan_id":"cebpf4jnsgd1na2vs0mg"},{"bike_id":"a1c52c4d-2b2e-464d-a3b8-ad196ffe1d7b","system_id":"levelo_inurba_marseille","lat":43.298764,"lon":5.388973,"is_reserved":false,"is_disabled":false,"rental_uris":{"android":"levelo://app?vid=a1c52c4d-2b2e-464d-a3b8-ad196ffe1d7b","ios":"levelo://app?vid=a1c52c4d-2b2e-464d-a3b8-ad196ffe1d7b"},"vehicle_type_id":"4","last_reported":1708553206,"current_range_meters":13200,"station_id":"ce4bh392rcd13ifvqdl0","pricing_plan_id":"cebpf4jnsgd1na2vs0mg"},{"bike_id":"56ed24b1-4f39-4d4a-9df6-19203e5ef269","system_id":"levelo_inurba_marseille","lat":43.298764,"lon":5.388973,"is_reserved":false,"is_disabled":false,"rental_uris":{"android":"levelo://app?vid=56ed24b1-4f39-4d4a-9df6-19203e5ef269","ios":"levelo://app?vid=56ed24b1-4f39-4d4a-9df6-19203e5ef269"},"vehicle_type_id":"4","last_reported":1708553206,"current_range_meters":19600,"station_id":"ce4bh392rcd13ifvqdl0","pricing_plan_id":"cebpf4jnsgd1na2vs0mg"},{"bike_id":"5009213e-fd43-4568-a938-a1b6b775fa40","system_id":"levelo_inurba_marseille","lat":43.298764,"lon":5.388973,"is_reserved":false,"is_disabled":false,"rental_uris":{"android":"levelo://app?vid=5009213e-fd43-4568-a938-a1b6b775fa40","ios":"levelo://app?vid=5009213e-fd43-4568-a938-a1b6b775fa40"},"vehicle_type_id":"4","last_reported":1708553206,"current_range_meters":3200,"station_id":"ce4bh392rcd13ifvqdl0","pricing_plan_id":"cebpf4jnsgd1na2vs0mg"},{"bike_id":"db8d4abc-5349-4988-aadd-38e8ea8d4f46","system_id":"levelo_inurba_marseille","lat":43.298764,"lon":5.388973,"is_reserved":false,"is_disabled":false,"rental_uris":{"android":"levelo://app?vid=db8d4abc-5349-4988-aadd-38e8ea8d4f46","ios":"levelo://app?vid=db8d4abc-5349-4988-aadd-38e8ea8d4f46"},"vehicle_type_id":"4","last_reported":1708553206,"current_range_meters":28800,"station_id":"ce4bh392rcd13ifvqdl0","pricing_plan_id":"cebpf4jnsgd1na2vs0mg"},{"bike_id":"62e42057-1be5-4aa1-a5fb-49b015e300d6","system_id":"levelo_inurba_marseille","lat":43.298764,"lon":5.388973,"is_reserved":false,"is_disabled":false,"rental_uris":{"android":"levelo://app?vid=62e42057-1be5-4aa1-a5fb-49b015e300d6","ios":"levelo://app?vid=62e42057-1be5-4aa1-a5fb-49b015e300d6"},"vehicle_type_id":"4","last_reported":1708553206,"current_range_meters":800,"station_id":"ce4bh392rcd13ifvqdl0","pricing_plan_id":"cebpf4jnsgd1na2vs0mg"},{"bike_id":"c8f9cec4-206d-47c7-804c-bfdf74044dde","system_id":"levelo_inurba_marseille","lat":43.298764,"lon":5.388973,"is_reserved":false,"is_disabled":false,"rental_uris":{"android":"levelo://app?vid=c8f9cec4-206d-47c7-804c-bfdf74044dde","ios":"levelo://app?vid=c8f9cec4-206d-47c7-804c-bfdf74044dde"},"vehicle_type_id":"4","last_reported":1708553206,"current_range_meters":11600,"station_id":"ce4bh392rcd13ifvqdl0","pricing_plan_id":"cebpf4jnsgd1na2vs0mg"},{"bike_id":"efe1fa90-ae58-4f60-ac81-8b5b897e4d6e","system_id":"levelo_inurba_marseille","lat":43.291675,"lon":5.371583,"is_reserved":false,"is_disabled":false,"rental_uris":{"android":"levelo://app?vid=efe1fa90-ae58-4f60-ac81-8b5b897e4d6e","ios":"levelo://app?vid=efe1fa90-ae58-4f60-ac81-8b5b897e4d6e"},"vehicle_type_id":"4","last_reported":1708553206,"current_range_meters":800,"station_id":"ce4bha92rcd13ifvqeh0","pricing_plan_id":"cebpf4jnsgd1na2vs0mg"},{"bike_id":"0eaa2b07-8e1e-4ebf-b515-8a3dc8a90f10","system_id":"levelo_inurba_marseille","lat":43.298764,"lon":5.388973,"is_reserved":false,"is_disabled":false,"rental_uris":{"android":"levelo://app?vid=0eaa2b07-8e1e-4ebf-b515-8a3dc8a90f10","ios":"levelo://app?vid=0eaa2b07-8e1e-4ebf-b515-8a3dc8a90f10"},"vehicle_type_id":"4","last_reported":1708553206,"current_range_meters":3200,"station_id":"ce4bh392rcd13ifvqdl0","pricing_plan_id":"cebpf4jnsgd1na2vs0mg"},{"bike_id":"9e5f5a77-3f34-46e1-998a-2669efbaf37a","system_id":"levelo_inurba_marseille","lat":43.298764,"lon":5.388973,"is_reserved":false,"is_disabled":false,"rental_uris":{"android":"levelo://app?vid=9e5f5a77-3f34-46e1-998a-2669efbaf37a","ios":"levelo://app?vid=9e5f5a77-3f34-46e1-998a-2669efbaf37a"},"vehicle_type_id":"4","last_reported":1708553206,"current_range_meters":27600,"station_id":"ce4bh392rcd13ifvqdl0","pricing_plan_id":"cebpf4jnsgd1na2vs0mg"},{"bike_id":"b1064b26-7d46-4735-a349-f6a81a25ba6f","system_id":"levelo_inurba_marseille","lat":43.298764,"lon":5.388973,"is_reserved":false,"is_disabled":false,"rental_uris":{"android":"levelo://app?vid=b1064b26-7d46-4735-a349-f6a81a25ba6f","ios":"levelo://app?vid=b1064b26-7d46-4735-a349-f6a81a25ba6f"},"vehicle_type_id":"4","last_reported":1708553206,"current_range_meters":31200,"station_id":"ce4bh392rcd13ifvqdl0","pricing_plan_id":"cebpf4jnsgd1na2vs0mg"},{"bike_id":"bf49e66f-0bfb-442d-a33b-2e4da996e4a3","system_id":"levelo_inurba_marseille","lat":43.30885,"lon":5.3963,"is_reserved":false,"is_disabled":false,"rental_uris":{"android":"levelo://app?vid=bf49e66f-0bfb-442d-a33b-2e4da996e4a3","ios":"levelo://app?vid=bf49e66f-0bfb-442d-a33b-2e4da996e4a3"},"vehicle_type_id":"4","last_reported":1708553206,"current_range_meters":13600,"station_id":"ce4bh012rcd13ifvqcv0","pricing_plan_id":"cebpf4jnsgd1na2vs0mg"},{"bike_id":"39975749-bd00-43f8-ae9b-d9c405b8909e","system_id":"levelo_inurba_marseille","lat":43.30881,"lon":5.39629,"is_reserved":false,"is_disabled":false,"rental_uris":{"android":"levelo://app?vid=39975749-bd00-43f8-ae9b-d9c405b8909e","ios":"levelo://app?vid=39975749-bd00-43f8-ae9b-d9c405b8909e"},"vehicle_type_id":"4","last_reported":1708553206,"current_range_meters":4400,"station_id":"ce4bh012rcd13ifvqcv0","pricing_plan_id":"cebpf4jnsgd1na2vs0mg"},{"bike_id":"c91731f1-20f5-488c-9ca0-eba0498083e7","system_id":"levelo_inurba_marseille","lat":43.30883,"lon":5.39632,"is_reserved":false,"is_disabled":false,"rental_uris":{"android":"levelo://app?vid=c91731f1-20f5-488c-9ca0-eba0498083e7","ios":"levelo://app?vid=c91731f1-20f5-488c-9ca0-eba0498083e7"},"vehicle_type_id":"4","last_reported":1708553206,"current_range_meters":26000,"station_id":"ce4bh012rcd13ifvqcv0","pricing_plan_id":"cebpf4jnsgd1na2vs0mg"},{"bike_id":"ae0dae5c-6d14-4513-84e4-98decf70e417","system_id":"levelo_inurba_marseille","lat":43.30889,"lon":5.39635,"is_reserved":false,"is_disabled":false,"rental_uris":{"android":"levelo://app?vid=ae0dae5c-6d14-4513-84e4-98decf70e417","ios":"levelo://app?vid=ae0dae5c-6d14-4513-84e4-98decf70e417"},"vehicle_type_id":"4","last_reported":1708553206,"current_range_meters":2800,"station_id":"ce4bh012rcd13ifvqcv0","pricing_plan_id":"cebpf4jnsgd1na2vs0mg"},{"bike_id":"f15d0195-b1d6-467f-aec9-1f9b5a852d89","system_id":"levelo_inurba_marseille","lat":43.308801,"lon":5.396333,"is_reserved":false,"is_disabled":false,"rental_uris":{"android":"levelo://app?vid=f15d0195-b1d6-467f-aec9-1f9b5a852d89","ios":"levelo://app?vid=f15d0195-b1d6-467f-aec9-1f9b5a852d89"},"vehicle_type_id":"4","last_reported":1708553206,"current_range_meters":18000,"station_id":"ce4bh012rcd13ifvqcv0","pricing_plan_id":"cebpf4jnsgd1na2vs0mg"},{"bike_id":"c2316938-e5ab-41c5-a015-9c669c8b584f","system_id":"levelo_inurba_marseille","lat":43.30891,"lon":5.39637,"is_reserved":false,"is_disabled":false,"rental_uris":{"android":"levelo://app?vid=c2316938-e5ab-41c5-a015-9c669c8b584f","ios":"levelo://app?vid=c2316938-e5ab-41c5-a015-9c669c8b584f"},"vehicle_type_id":"4","last_reported":1708553206,"current_range_meters":3200,"station_id":"ce4bh012rcd13ifvqcv0","pricing_plan_id":"cebpf4jnsgd1na2vs0mg"},{"bike_id":"2fba6f72-41d0-4e78-b374-f5facf51b3ca","system_id":"levelo_inurba_marseille","lat":43.29194,"lon":5.35809,"is_reserved":false,"is_disabled":false,"rental_uris":{"android":"levelo://app?vid=2fba6f72-41d0-4e78-b374-f5facf51b3ca","ios":"levelo://app?vid=2fba6f72-41d0-4e78-b374-f5facf51b3ca"},"vehicle_type_id":"4","last_reported":1708553206,"current_range_meters":0,"station_id":"ce4bhb12rcd13ifvqel0","pricing_plan_id":"cebpf4jnsgd1na2vs0mg"},{"bike_id":"8bcadd97-2cbf-46d1-952a-441b1b883d99","system_id":"levelo_inurba_marseille","lat":43.313291,"lon":5.396838,"is_reserved":false,"is_disabled":false,"rental_uris":{"android":"levelo://app?vid=8bcadd97-2cbf-46d1-952a-441b1b883d99","ios":"levelo://app?vid=8bcadd97-2cbf-46d1-952a-441b1b883d99"},"vehicle_type_id":"4","last_reported":1708553206,"current_range_meters":13600,"station_id":"ce4bgvp2rcd13ifvqcu0","pricing_plan_id":"cebpf4jnsgd1na2vs0mg"},{"bike_id":"1d4d7044-d4e2-443f-9247-dbdedc572d06","system_id":"levelo_inurba_marseille","lat":43.313291,"lon":5.396838,"is_reserved":false,"is_disabled":false,"rental_uris":{"android":"levelo://app?vid=1d4d7044-d4e2-443f-9247-dbdedc572d06","ios":"levelo://app?vid=1d4d7044-d4e2-443f-9247-dbdedc572d06"},"vehicle_type_id":"4","last_reported":1708553206,"current_range_meters":6800,"station_id":"ce4bgvp2rcd13ifvqcu0","pricing_plan_id":"cebpf4jnsgd1na2vs0mg"},{"bike_id":"05e7815b-6b2a-447b-b952-b70f7ea302cb","system_id":"levelo_inurba_marseille","lat":43.309038,"lon":5.396546,"is_reserved":false,"is_disabled":false,"rental_uris":{"android":"levelo://app?vid=05e7815b-6b2a-447b-b952-b70f7ea302cb","ios":"levelo://app?vid=05e7815b-6b2a-447b-b952-b70f7ea302cb"},"vehicle_type_id":"4","last_reported":1708553206,"current_range_meters":16800,"station_id":"ce4bh012rcd13ifvqcv0","pricing_plan_id":"cebpf4jnsgd1na2vs0mg"},{"bike_id":"e7685a00-3b1e-4d0e-9988-a0d294cdb5dd","system_id":"levelo_inurba_marseille","lat":43.309038,"lon":5.396546,"is_reserved":false,"is_disabled":false,"rental_uris":{"android":"levelo://app?vid=e7685a00-3b1e-4d0e-9988-a0d294cdb5dd","ios":"levelo://app?vid=e7685a00-3b1e-4d0e-9988-a0d294cdb5dd"},"vehicle_type_id":"4","last_reported":1708553206,"current_range_meters":31200,"station_id":"ce4bh012rcd13ifvqcv0","pricing_plan_id":"cebpf4jnsgd1na2vs0mg"},{"bike_id":"803f9f80-7289-49f5-9161-c7de9833dbf8","system_id":"levelo_inurba_marseille","lat":43.293752,"lon":5.381642,"is_reserved":false,"is_disabled":false,"rental_uris":{"android":"levelo://app?vid=803f9f80-7289-49f5-9161-c7de9833dbf8","ios":"levelo://app?vid=803f9f80-7289-49f5-9161-c7de9833dbf8"},"vehicle_type_id":"4","last_reported":1708553206,"current_range_meters":4400,"station_id":"","pricing_plan_id":"cebpf4jnsgd1na2vs0mg"},{"bike_id":"4c79dbf3-648e-4b04-a815-6ea8b27e9798","system_id":"levelo_inurba_marseille","lat":43.313291,"lon":5.396838,"is_reserved":false,"is_disabled":false,"rental_uris":{"android":"levelo://app?vid=4c79dbf3-648e-4b04-a815-6ea8b27e9798","ios":"levelo://app?vid=4c79dbf3-648e-4b04-a815-6ea8b27e9798"},"vehicle_type_id":"4","last_reported":1708553206,"current_range_meters":30000,"station_id":"ce4bgvp2rcd13ifvqcu0","pricing_plan_id":"cebpf4jnsgd1na2vs0mg"},{"bike_id":"1e63554d-11d9-4a35-86a8-116fe8a9f3c3","system_id":"levelo_inurba_marseille","lat":43.308893,"lon":5.39642,"is_reserved":false,"is_disabled":false,"rental_uris":{"android":"levelo://app?vid=1e63554d-11d9-4a35-86a8-116fe8a9f3c3","ios":"levelo://app?vid=1e63554d-11d9-4a35-86a8-116fe8a9f3c3"},"vehicle_type_id":"4","last_reported":1708553206,"current_range_meters":1200,"station_id":"ce4bh012rcd13ifvqcv0","pricing_plan_id":"cebpf4jnsgd1na2vs0mg"},{"bike_id":"894b1826-f42e-4407-ab09-a650a0b14f27","system_id":"levelo_inurba_marseille","lat":43.309038,"lon":5.396546,"is_reserved":false,"is_disabled":false,"rental_uris":{"android":"levelo://app?vid=894b1826-f42e-4407-ab09-a650a0b14f27","ios":"levelo://app?vid=894b1826-f42e-4407-ab09-a650a0b14f27"},"vehicle_type_id":"4","last_reported":1708553206,"current_range_meters":27200,"station_id":"ce4bh012rcd13ifvqcv0","pricing_plan_id":"cebpf4jnsgd1na2vs0mg"},{"bike_id":"acf74330-9b38-44a0-aa13-b4f874ae19f0","system_id":"levelo_inurba_marseille","lat":43.30887,"lon":5.39644,"is_reserved":false,"is_disabled":false,"rental_uris":{"android":"levelo://app?vid=acf74330-9b38-44a0-aa13-b4f874ae19f0","ios":"levelo://app?vid=acf74330-9b38-44a0-aa13-b4f874ae19f0"},"vehicle_type_id":"4","last_reported":1708553206,"current_range_meters":0,"station_id":"ce4bh012rcd13ifvqcv0","pricing_plan_id":"cebpf4jnsgd1na2vs0mg"},{"bike_id":"a432ab9f-685c-4b66-9de6-9ca469252cba","system_id":"levelo_inurba_marseille","lat":43.309047,"lon":5.396551,"is_reserved":false,"is_disabled":false,"rental_uris":{"android":"levelo://app?vid=a432ab9f-685c-4b66-9de6-9ca469252cba","ios":"levelo://app?vid=a432ab9f-685c-4b66-9de6-9ca469252cba"},"vehicle_type_id":"4","last_reported":1708553206,"current_range_meters":22400,"station_id":"ce4bh012rcd13ifvqcv0","pricing_plan_id":"cebpf4jnsgd1na2vs0mg"},{"bike_id":"8edc9bad-95da-4a8c-99f4-39034fb031ad","system_id":"levelo_inurba_marseille","lat":43.30888,"lon":5.39645,"is_reserved":false,"is_disabled":false,"rental_uris":{"android":"levelo://app?vid=8edc9bad-95da-4a8c-99f4-39034fb031ad","ios":"levelo://app?vid=8edc9bad-95da-4a8c-99f4-39034fb031ad"},"vehicle_type_id":"4","last_reported":1708553206,"current_range_meters":18400,"station_id":"ce4bh012rcd13ifvqcv0","pricing_plan_id":"cebpf4jnsgd1na2vs0mg"},{"bike_id":"9db5e2a7-794d-4209-8c23-969e026295c4","system_id":"levelo_inurba_marseille","lat":43.30896,"lon":5.39648,"is_reserved":false,"is_disabled":false,"rental_uris":{"android":"levelo://app?vid=9db5e2a7-794d-4209-8c23-969e026295c4","ios":"levelo://app?vid=9db5e2a7-794d-4209-8c23-969e026295c4"},"vehicle_type_id":"4","last_reported":1708553206,"current_range_meters":0,"station_id":"ce4bh012rcd13ifvqcv0","pricing_plan_id":"cebpf4jnsgd1na2vs0mg"},{"bike_id":"fa5382d6-2dc0-4314-bb86-4ebe7a97c444","system_id":"levelo_inurba_marseille","lat":43.313291,"lon":5.396838,"is_reserved":false,"is_disabled":false,"rental_uris":{"android":"levelo://app?vid=fa5382d6-2dc0-4314-bb86-4ebe7a97c444","ios":"levelo://app?vid=fa5382d6-2dc0-4314-bb86-4ebe7a97c444"},"vehicle_type_id":"4","last_reported":1708553206,"current_range_meters":9600,"station_id":"ce4bgvp2rcd13ifvqcu0","pricing_plan_id":"cebpf4jnsgd1na2vs0mg"},{"bike_id":"71afaae6-1e9e-423d-953c-3a6eba8f4f6f","system_id":"levelo_inurba_marseille","lat":43.3133,"lon":5.39693,"is_reserved":false,"is_disabled":false,"rental_uris":{"android":"levelo://app?vid=71afaae6-1e9e-423d-953c-3a6eba8f4f6f","ios":"levelo://app?vid=71afaae6-1e9e-423d-953c-3a6eba8f4f6f"},"vehicle_type_id":"4","last_reported":1708553206,"current_range_meters":0,"station_id":"ce4bgvp2rcd13ifvqcu0","pricing_plan_id":"cebpf4jnsgd1na2vs0mg"},{"bike_id":"553ac31c-1fdb-4662-8fad-344a38a03419","system_id":"levelo_inurba_marseille","lat":43.30885,"lon":5.39646,"is_reserved":false,"is_disabled":false,"rental_uris":{"android":"levelo://app?vid=553ac31c-1fdb-4662-8fad-344a38a03419","ios":"levelo://app?vid=553ac31c-1fdb-4662-8fad-344a38a03419"},"vehicle_type_id":"4","last_reported":1708553206,"current_range_meters":9600,"station_id":"ce4bh012rcd13ifvqcv0","pricing_plan_id":"cebpf4jnsgd1na2vs0mg"},{"bike_id":"475a941b-68c3-41d1-965e-d969142a1536","system_id":"levelo_inurba_marseille","lat":43.313291,"lon":5.396838,"is_reserved":false,"is_disabled":false,"rental_uris":{"android":"levelo://app?vid=475a941b-68c3-41d1-965e-d969142a1536","ios":"levelo://app?vid=475a941b-68c3-41d1-965e-d969142a1536"},"vehicle_type_id":"4","last_reported":1708553206,"current_range_meters":6400,"station_id":"ce4bgvp2rcd13ifvqcu0","pricing_plan_id":"cebpf4jnsgd1na2vs0mg"},{"bike_id":"87c7ccfc-0369-440c-ad33-8ef5b9c5492c","system_id":"levelo_inurba_marseille","lat":43.31333,"lon":5.39694,"is_reserved":false,"is_disabled":false,"rental_uris":{"android":"levelo://app?vid=87c7ccfc-0369-440c-ad33-8ef5b9c5492c","ios":"levelo://app?vid=87c7ccfc-0369-440c-ad33-8ef5b9c5492c"},"vehicle_type_id":"4","last_reported":1708553206,"current_range_meters":7200,"station_id":"ce4bgvp2rcd13ifvqcu0","pricing_plan_id":"cebpf4jnsgd1na2vs0mg"},{"bike_id":"98a2f629-1365-4c4f-8707-b615126c80a6","system_id":"levelo_inurba_marseille","lat":43.313291,"lon":5.396838,"is_reserved":false,"is_disabled":false,"rental_uris":{"android":"levelo://app?vid=98a2f629-1365-4c4f-8707-b615126c80a6","ios":"levelo://app?vid=98a2f629-1365-4c4f-8707-b615126c80a6"},"vehicle_type_id":"4","last_reported":1708553206,"current_range_meters":2400,"station_id":"ce4bgvp2rcd13ifvqcu0","pricing_plan_id":"cebpf4jnsgd1na2vs0mg"},{"bike_id":"50cfe226-b270-4a8b-a2c2-c711cda37840","system_id":"levelo_inurba_marseille","lat":43.309038,"lon":5.396546,"is_reserved":false,"is_disabled":false,"rental_uris":{"android":"levelo://app?vid=50cfe226-b270-4a8b-a2c2-c711cda37840","ios":"levelo://app?vid=50cfe226-b270-4a8b-a2c2-c711cda37840"},"vehicle_type_id":"4","last_reported":1708553206,"current_range_meters":20800,"station_id":"ce4bh012rcd13ifvqcv0","pricing_plan_id":"cebpf4jnsgd1na2vs0mg"},{"bike_id":"3032157a-f4bb-4cdd-a4e0-7cc1262d8902","system_id":"levelo_inurba_marseille","lat":43.31329,"lon":5.39698,"is_reserved":false,"is_disabled":false,"rental_uris":{"android":"levelo://app?vid=3032157a-f4bb-4cdd-a4e0-7cc1262d8902","ios":"levelo://app?vid=3032157a-f4bb-4cdd-a4e0-7cc1262d8902"},"vehicle_type_id":"4","last_reported":1708553206,"current_range_meters":15600,"station_id":"ce4bgvp2rcd13ifvqcu0","pricing_plan_id":"cebpf4jnsgd1na2vs0mg"},{"bike_id":"7acdffe1-7d26-4334-881a-e07bd571ea5b","system_id":"levelo_inurba_marseille","lat":43.31332,"lon":5.39698,"is_reserved":false,"is_disabled":false,"rental_uris":{"android":"levelo://app?vid=7acdffe1-7d26-4334-881a-e07bd571ea5b","ios":"levelo://app?vid=7acdffe1-7d26-4334-881a-e07bd571ea5b"},"vehicle_type_id":"4","last_reported":1708553206,"current_range_meters":9200,"station_id":"ce4bgvp2rcd13ifvqcu0","pricing_plan_id":"cebpf4jnsgd1na2vs0mg"},{"bike_id":"155f81e6-d6b4-406f-b2a5-ca6a2d321b6b","system_id":"levelo_inurba_marseille","lat":43.308873,"lon":5.396517,"is_reserved":false,"is_disabled":false,"rental_uris":{"android":"levelo://app?vid=155f81e6-d6b4-406f-b2a5-ca6a2d321b6b","ios":"levelo://app?vid=155f81e6-d6b4-406f-b2a5-ca6a2d321b6b"},"vehicle_type_id":"4","last_reported":1708553206,"current_range_meters":1600,"station_id":"ce4bh012rcd13ifvqcv0","pricing_plan_id":"cebpf4jnsgd1na2vs0mg"},{"bike_id":"a01f3ae9-7905-47de-b50e-302797093ab0","system_id":"levelo_inurba_marseille","lat":43.309038,"lon":5.396546,"is_reserved":false,"is_disabled":false,"rental_uris":{"android":"levelo://app?vid=a01f3ae9-7905-47de-b50e-302797093ab0","ios":"levelo://app?vid=a01f3ae9-7905-47de-b50e-302797093ab0"},"vehicle_type_id":"4","last_reported":1708553206,"current_range_meters":19600,"station_id":"ce4bh012rcd13ifvqcv0","pricing_plan_id":"cebpf4jnsgd1na2vs0mg"},{"bike_id":"e43f5693-bdf4-4000-8d59-c5582bb22ad6","system_id":"levelo_inurba_marseille","lat":43.29186,"lon":5.35791,"is_reserved":false,"is_disabled":false,"rental_uris":{"android":"levelo://app?vid=e43f5693-bdf4-4000-8d59-c5582bb22ad6","ios":"levelo://app?vid=e43f5693-bdf4-4000-8d59-c5582bb22ad6"},"vehicle_type_id":"4","last_reported":1708553206,"current_range_meters":31200,"station_id":"ce4bhb12rcd13ifvqel0","pricing_plan_id":"cebpf4jnsgd1na2vs0mg"},{"bike_id":"751bd1d8-46c5-40c4-b363-779ce7c3732c","system_id":"levelo_inurba_marseille","lat":43.30883,"lon":5.39655,"is_reserved":false,"is_disabled":false,"rental_uris":{"android":"levelo://app?vid=751bd1d8-46c5-40c4-b363-779ce7c3732c","ios":"levelo://app?vid=751bd1d8-46c5-40c4-b363-779ce7c3732c"},"vehicle_type_id":"4","last_reported":1708553206,"current_range_meters":2400,"station_id":"ce4bh012rcd13ifvqcv0","pricing_plan_id":"cebpf4jnsgd1na2vs0mg"},{"bike_id":"d2e76ae0-3012-4b01-a41b-9709ed70ed8a","system_id":"levelo_inurba_marseille","lat":43.30891,"lon":5.39658,"is_reserved":false,"is_disabled":false,"rental_uris":{"android":"levelo://app?vid=d2e76ae0-3012-4b01-a41b-9709ed70ed8a","ios":"levelo://app?vid=d2e76ae0-3012-4b01-a41b-9709ed70ed8a"},"vehicle_type_id":"4","last_reported":1708553206,"current_range_meters":21200,"station_id":"ce4bh012rcd13ifvqcv0","pricing_plan_id":"cebpf4jnsgd1na2vs0mg"},{"bike_id":"a6adbe1d-3c0c-4700-87a7-232caff1c784","system_id":"levelo_inurba_marseille","lat":43.30896,"lon":5.39662,"is_reserved":false,"is_disabled":false,"rental_uris":{"android":"levelo://app?vid=a6adbe1d-3c0c-4700-87a7-232caff1c784","ios":"levelo://app?vid=a6adbe1d-3c0c-4700-87a7-232caff1c784"},"vehicle_type_id":"4","last_reported":1708553206,"current_range_meters":18800,"station_id":"ce4bh012rcd13ifvqcv0","pricing_plan_id":"cebpf4jnsgd1na2vs0mg"},{"bike_id":"e5a5a15b-38b3-4bd9-bb8f-030e3df7f605","system_id":"levelo_inurba_marseille","lat":43.29529,"lon":5.385581,"is_reserved":false,"is_disabled":false,"rental_uris":{"android":"levelo://app?vid=e5a5a15b-38b3-4bd9-bb8f-030e3df7f605","ios":"levelo://app?vid=e5a5a15b-38b3-4bd9-bb8f-030e3df7f605"},"vehicle_type_id":"4","last_reported":1708553206,"current_range_meters":0,"station_id":"ce4bgih2rcd13ifvqba0","pricing_plan_id":"cebpf4jnsgd1na2vs0mg"},{"bike_id":"3ae1e8fd-d748-4ab9-8a96-7c1ec558e323","system_id":"levelo_inurba_marseille","lat":43.29529,"lon":5.385581,"is_reserved":false,"is_disabled":false,"rental_uris":{"android":"levelo://app?vid=3ae1e8fd-d748-4ab9-8a96-7c1ec558e323","ios":"levelo://app?vid=3ae1e8fd-d748-4ab9-8a96-7c1ec558e323"},"vehicle_type_id":"4","last_reported":1708553206,"current_range_meters":18800,"station_id":"ce4bgih2rcd13ifvqba0","pricing_plan_id":"cebpf4jnsgd1na2vs0mg"},{"bike_id":"5495949f-9f5c-4eb0-9c5e-716a076249e2","system_id":"levelo_inurba_marseille","lat":43.29529,"lon":5.385581,"is_reserved":false,"is_disabled":false,"rental_uris":{"android":"levelo://app?vid=5495949f-9f5c-4eb0-9c5e-716a076249e2","ios":"levelo://app?vid=5495949f-9f5c-4eb0-9c5e-716a076249e2"},"vehicle_type_id":"4","last_reported":1708553206,"current_range_meters":25200,"station_id":"ce4bgih2rcd13ifvqba0","pricing_plan_id":"cebpf4jnsgd1na2vs0mg"},{"bike_id":"add1ca04-89a6-480f-85e2-53791da6f8c0","system_id":"levelo_inurba_marseille","lat":43.29529,"lon":5.385581,"is_reserved":false,"is_disabled":false,"rental_uris":{"android":"levelo://app?vid=add1ca04-89a6-480f-85e2-53791da6f8c0","ios":"levelo://app?vid=add1ca04-89a6-480f-85e2-53791da6f8c0"},"vehicle_type_id":"4","last_reported":1708553206,"current_range_meters":18400,"station_id":"ce4bgih2rcd13ifvqba0","pricing_plan_id":"cebpf4jnsgd1na2vs0mg"},{"bike_id":"dd7704a6-a9f1-42ef-93f9-e6aecc3361c3","system_id":"levelo_inurba_marseille","lat":43.291444,"lon":5.358964,"is_reserved":false,"is_disabled":false,"rental_uris":{"android":"levelo://app?vid=dd7704a6-a9f1-42ef-93f9-e6aecc3361c3","ios":"levelo://app?vid=dd7704a6-a9f1-42ef-93f9-e6aecc3361c3"},"vehicle_type_id":"4","last_reported":1708553206,"current_range_meters":5600,"station_id":"","pricing_plan_id":"cebpf4jnsgd1na2vs0mg"},{"bike_id":"45d4e5f1-8e86-47d8-b960-1dbbbae3ad68","system_id":"levelo_inurba_marseille","lat":43.29529,"lon":5.385581,"is_reserved":false,"is_disabled":false,"rental_uris":{"android":"levelo://app?vid=45d4e5f1-8e86-47d8-b960-1dbbbae3ad68","ios":"levelo://app?vid=45d4e5f1-8e86-47d8-b960-1dbbbae3ad68"},"vehicle_type_id":"4","last_reported":1708553206,"current_range_meters":7200,"station_id":"ce4bgih2rcd13ifvqba0","pricing_plan_id":"cebpf4jnsgd1na2vs0mg"},{"bike_id":"06b0d804-6a02-43aa-a0b7-e59923c79f89","system_id":"levelo_inurba_marseille","lat":43.290779,"lon":5.371482,"is_reserved":false,"is_disabled":false,"rental_uris":{"android":"levelo://app?vid=06b0d804-6a02-43aa-a0b7-e59923c79f89","ios":"levelo://app?vid=06b0d804-6a02-43aa-a0b7-e59923c79f89"},"vehicle_type_id":"4","last_reported":1708553206,"current_range_meters":24400,"station_id":"ce4bh5p2rcd13ifvqe4g","pricing_plan_id":"cebpf4jnsgd1na2vs0mg"},{"bike_id":"91f26ecc-9f3d-48ca-9803-9f68dafb88ad","system_id":"levelo_inurba_marseille","lat":43.290779,"lon":5.371482,"is_reserved":false,"is_disabled":false,"rental_uris":{"android":"levelo://app?vid=91f26ecc-9f3d-48ca-9803-9f68dafb88ad","ios":"levelo://app?vid=91f26ecc-9f3d-48ca-9803-9f68dafb88ad"},"vehicle_type_id":"4","last_reported":1708553206,"current_range_meters":0,"station_id":"ce4bh5p2rcd13ifvqe4g","pricing_plan_id":"cebpf4jnsgd1na2vs0mg"},{"bike_id":"735e9681-75e0-456f-baff-fcb404c36212","system_id":"levelo_inurba_marseille","lat":43.29529,"lon":5.385581,"is_reserved":false,"is_disabled":false,"rental_uris":{"android":"levelo://app?vid=735e9681-75e0-456f-baff-fcb404c36212","ios":"levelo://app?vid=735e9681-75e0-456f-baff-fcb404c36212"},"vehicle_type_id":"4","last_reported":1708553206,"current_range_meters":11600,"station_id":"ce4bgih2rcd13ifvqba0","pricing_plan_id":"cebpf4jnsgd1na2vs0mg"},{"bike_id":"62308972-da13-4c91-b6ba-0f61d5b70f98","system_id":"levelo_inurba_marseille","lat":43.30212,"lon":5.39464,"is_reserved":false,"is_disabled":false,"rental_uris":{"android":"levelo://app?vid=62308972-da13-4c91-b6ba-0f61d5b70f98","ios":"levelo://app?vid=62308972-da13-4c91-b6ba-0f61d5b70f98"},"vehicle_type_id":"4","last_reported":1708553206,"current_range_meters":0,"station_id":"ce4bh0p2rcd13ifvqd70","pricing_plan_id":"cebpf4jnsgd1na2vs0mg"},{"bike_id":"7f6827ce-0bcd-411a-8456-b2318a431d37","system_id":"levelo_inurba_marseille","lat":43.290631,"lon":5.359244,"is_reserved":false,"is_disabled":false,"rental_uris":{"android":"levelo://app?vid=7f6827ce-0bcd-411a-8456-b2318a431d37","ios":"levelo://app?vid=7f6827ce-0bcd-411a-8456-b2318a431d37"},"vehicle_type_id":"4","last_reported":1708553206,"current_range_meters":18400,"station_id":"ce4bha92rcd13ifvqeg0","pricing_plan_id":"cebpf4jnsgd1na2vs0mg"},{"bike_id":"20d0152b-9b4c-4211-b74e-154f891aa5e3","system_id":"levelo_inurba_marseille","lat":43.290631,"lon":5.359244,"is_reserved":false,"is_disabled":false,"rental_uris":{"android":"levelo://app?vid=20d0152b-9b4c-4211-b74e-154f891aa5e3","ios":"levelo://app?vid=20d0152b-9b4c-4211-b74e-154f891aa5e3"},"vehicle_type_id":"4","last_reported":1708553206,"current_range_meters":24000,"station_id":"ce4bha92rcd13ifvqeg0","pricing_plan_id":"cebpf4jnsgd1na2vs0mg"},{"bike_id":"386ac23b-6172-40a0-b9df-bd7ff31a567a","system_id":"levelo_inurba_marseille","lat":43.290631,"lon":5.359244,"is_reserved":false,"is_disabled":false,"rental_uris":{"android":"levelo://app?vid=386ac23b-6172-40a0-b9df-bd7ff31a567a","ios":"levelo://app?vid=386ac23b-6172-40a0-b9df-bd7ff31a567a"},"vehicle_type_id":"4","last_reported":1708553206,"current_range_meters":27600,"station_id":"ce4bha92rcd13ifvqeg0","pricing_plan_id":"cebpf4jnsgd1na2vs0mg"},{"bike_id":"170cc9b6-ed73-490c-bd84-efb8e2838bf4","system_id":"levelo_inurba_marseille","lat":43.294188,"lon":5.386222,"is_reserved":false,"is_disabled":false,"rental_uris":{"android":"levelo://app?vid=170cc9b6-ed73-490c-bd84-efb8e2838bf4","ios":"levelo://app?vid=170cc9b6-ed73-490c-bd84-efb8e2838bf4"},"vehicle_type_id":"4","last_reported":1708553206,"current_range_meters":0,"station_id":"ce4bh2h2rcd13ifvqdh0","pricing_plan_id":"cebpf4jnsgd1na2vs0mg"},{"bike_id":"f039af80-799b-4b58-bec1-a249ccc6497f","system_id":"levelo_inurba_marseille","lat":43.294162,"lon":5.386292,"is_reserved":false,"is_disabled":false,"rental_uris":{"android":"levelo://app?vid=f039af80-799b-4b58-bec1-a249ccc6497f","ios":"levelo://app?vid=f039af80-799b-4b58-bec1-a249ccc6497f"},"vehicle_type_id":"4","last_reported":1708553206,"current_range_meters":0,"station_id":"ce4bh2h2rcd13ifvqdh0","pricing_plan_id":"cebpf4jnsgd1na2vs0mg"},{"bike_id":"1acf3c0c-72b5-4737-ad29-5c2cfde18d8a","system_id":"levelo_inurba_marseille","lat":43.29414,"lon":5.38625,"is_reserved":false,"is_disabled":false,"rental_uris":{"android":"levelo://app?vid=1acf3c0c-72b5-4737-ad29-5c2cfde18d8a","ios":"levelo://app?vid=1acf3c0c-72b5-4737-ad29-5c2cfde18d8a"},"vehicle_type_id":"4","last_reported":1708553206,"current_range_meters":0,"station_id":"ce4bh2h2rcd13ifvqdh0","pricing_plan_id":"cebpf4jnsgd1na2vs0mg"},{"bike_id":"75413fd9-f5b6-4703-9a20-571e00feb777","system_id":"levelo_inurba_marseille","lat":43.289184,"lon":5.366408,"is_reserved":false,"is_disabled":false,"rental_uris":{"android":"levelo://app?vid=75413fd9-f5b6-4703-9a20-571e00feb777","ios":"levelo://app?vid=75413fd9-f5b6-4703-9a20-571e00feb777"},"vehicle_type_id":"4","last_reported":1708553206,"current_range_meters":14000,"station_id":"ce4bhap2rcd13ifvqek0","pricing_plan_id":"cebpf4jnsgd1na2vs0mg"},{"bike_id":"10b96f95-877a-482c-a927-f259cbb8ef50","system_id":"levelo_inurba_marseille","lat":43.289184,"lon":5.366408,"is_reserved":false,"is_disabled":false,"rental_uris":{"android":"levelo://app?vid=10b96f95-877a-482c-a927-f259cbb8ef50","ios":"levelo://app?vid=10b96f95-877a-482c-a927-f259cbb8ef50"},"vehicle_type_id":"4","last_reported":1708553206,"current_range_meters":17200,"station_id":"ce4bhap2rcd13ifvqek0","pricing_plan_id":"cebpf4jnsgd1na2vs0mg"},{"bike_id":"5f37d672-34de-435b-996a-3810b8554ad3","system_id":"levelo_inurba_marseille","lat":43.289184,"lon":5.366408,"is_reserved":false,"is_disabled":false,"rental_uris":{"android":"levelo://app?vid=5f37d672-34de-435b-996a-3810b8554ad3","ios":"levelo://app?vid=5f37d672-34de-435b-996a-3810b8554ad3"},"vehicle_type_id":"4","last_reported":1708553206,"current_range_meters":2000,"station_id":"ce4bhap2rcd13ifvqek0","pricing_plan_id":"cebpf4jnsgd1na2vs0mg"},{"bike_id":"8a9e670f-3e97-4d30-bd22-ce744fd35960","system_id":"levelo_inurba_marseille","lat":43.289184,"lon":5.366408,"is_reserved":false,"is_disabled":false,"rental_uris":{"android":"levelo://app?vid=8a9e670f-3e97-4d30-bd22-ce744fd35960","ios":"levelo://app?vid=8a9e670f-3e97-4d30-bd22-ce744fd35960"},"vehicle_type_id":"4","last_reported":1708553206,"current_range_meters":6000,"station_id":"ce4bhap2rcd13ifvqek0","pricing_plan_id":"cebpf4jnsgd1na2vs0mg"},{"bike_id":"67d8278f-1a49-4e5c-aa01-58faf7b7f256","system_id":"levelo_inurba_marseille","lat":43.29414,"lon":5.38628,"is_reserved":false,"is_disabled":false,"rental_uris":{"android":"levelo://app?vid=67d8278f-1a49-4e5c-aa01-58faf7b7f256","ios":"levelo://app?vid=67d8278f-1a49-4e5c-aa01-58faf7b7f256"},"vehicle_type_id":"4","last_reported":1708553206,"current_range_meters":0,"station_id":"ce4bh2h2rcd13ifvqdh0","pricing_plan_id":"cebpf4jnsgd1na2vs0mg"},{"bike_id":"25fae155-0dad-4fe0-9303-8677ab83f9dc","system_id":"levelo_inurba_marseille","lat":43.289184,"lon":5.366408,"is_reserved":false,"is_disabled":false,"rental_uris":{"android":"levelo://app?vid=25fae155-0dad-4fe0-9303-8677ab83f9dc","ios":"levelo://app?vid=25fae155-0dad-4fe0-9303-8677ab83f9dc"},