{"last_updated":1751504174,"ttl":60,"version":"2.2","data":{"bikes":[{"bike_id":"3da29fb8-fc97-44c6-b9ac-31dd456b2fd4","system_id":"levelo_inurba_marseille","lat":43.33771,"lon":5.37424,"is_reserved":false,"is_disabled":true,"rental_uris":{"android":"levelo://app?vid=3da29fb8-fc97-44c6-b9ac-31dd456b2fd4","ios":"levelo://app?vid=3da29fb8-fc97-44c6-b9ac-31dd456b2fd4"},"vehicle_type_id":"4","last_reported":1751504174,"current_range_meters":0,"station_id":"","pricing_plan_id":"cebpf4jnsgd1na2vs0mg"},{"bike_id":"01861ad8-a8d7-4be6-816e-651927c87584","system_id":"levelo_inurba_marseille","lat":43.33751,"lon":5.37456,"is_reserved":false,"is_disabled":true,"rental_uris":{"android":"levelo://app?vid=01861ad8-a8d7-4be6-816e-651927c87584","ios":"levelo://app?vid=01861ad8-a8d7-4be6-816e-651927c87584"},"vehicle_type_id":"4","last_reported":1751504174,"current_range_meters":0,"station_id":"","pricing_plan_id":"cebpf4jnsgd1na2vs0mg"},{"bike_id":"6e5b5a4d-1ee5-4068-9613-fb44ab4d8a9a","system_id":"levelo_inurba_marseille","lat":43.34853,"lon":5.34669,"is_reserved":false,"is_disabled":true,"rental_uris":{"android":"levelo://app?vid=6e5b5a4d-1ee5-4068-9613-fb44ab4d8a9a","ios":"levelo://app?vid=6e5b5a4d-1ee5-4068-9613-fb44ab4d8a9a"},"vehicle_type_id":"4","last_reported":1751504174,"current_range_meters":0,"station_id":"","pricing_plan_id":"cebpf4jnsgd1na2vs0mg"},{"bike_id":"88ba2eb8-6abc-42f0-a2b7-fafab863863b","system_id":"levelo_inurba_marseille","lat":43.2611,"lon":5.37358,"is_reserved":false,"is_disabled":true,"rental_uris":{"android":"levelo://app?vid=88ba2eb8-6abc-42f0-a2b7-fafab863863b","ios":"levelo://app?vid=88ba2eb8-6abc-42f0-a2b7-fafab863863b"},"vehicle_type_id":"4","last_reported":1751504174,"current_range_meters":0,"station_id":"","pricing_plan_id":"cebpf4jnsgd1na2vs0mg"},{"bike_id":"701744c3-c3e5-41bf-a223-12228847178f","system_id":"levelo_inurba_marseille","lat":43.27913,"lon":5.39578,"is_reserved":false,"is_disabled":true,"rental_uris":{"android":"levelo://app?vid=701744c3-c3e5-41bf-a223-12228847178f","ios":"levelo://app?vid=701744c3-c3e5-41bf-a223-12228847178f"},"vehicle_type_id":"4","last_reported":1751504174,"current_range_meters":0,"station_id":"ce4bhf92rcd13ifvqf40","pricing_plan_id":"cebpf4jnsgd1na2vs0mg"},{"bike_id":"cbab8e8e-76d8-4b25-9f75-190c476c076a","system_id":"levelo_inurba_marseille","lat":43.33607,"lon":5.41033,"is_reserved":false,"is_disabled":true,"rental_uris":{"android":"levelo://app?vid=cbab8e8e-76d8-4b25-9f75-190c476c076a","ios":"levelo://app?vid=cbab8e8e-76d8-4b25-9f75-190c476c076a"},"vehicle_type_id":"4","last_reported":1751504174,"current_range_meters":0,"station_id":"ce4bhqh2rcd13ifvqhmg","pricing_plan_id":"cebpf4jnsgd1na2vs0mg"},{"bike_id":"be4771a0-f822-40f0-a95c-2aaca1d3fb3c","system_id":"levelo_inurba_marseille","lat":43.21761,"lon":5.34627,"is_reserved":false,"is_disabled":true,"rental_uris":{"android":"levelo://app?vid=be4771a0-f822-40f0-a95c-2aaca1d3fb3c","ios":"levelo://app?vid=be4771a0-f822-40f0-a95c-2aaca1d3fb3c"},"vehicle_type_id":"4","last_reported":1751504174,"current_range_meters":0,"station_id":"st_cvj6r9ubvosntc0bgbag","pricing_plan_id":"cebpf4jnsgd1na2vs0mg"},{"bike_id":"64542f81-f98d-48fc-a956-f76d89966b90","system_id":"levelo_inurba_marseille","lat":43.29887,"lon":5.39749,"is_reserved":false,"is_disabled":true,"rental_uris":{"android":"levelo://app?vid=64542f81-f98d-48fc-a956-f76d89966b90","ios":"levelo://app?vid=64542f81-f98d-48fc-a956-f76d89966b90"},"vehicle_type_id":"4","last_reported":1751504174,"current_range_meters":1200,"station_id":"ce4bh0h2rcd13ifvqd50","pricing_plan_id":"cebpf4jnsgd1na2vs0mg"},{"bike_id":"10be7a19-7bb3-4be8-8e03-f074498ccbe9","system_id":"levelo_inurba_marseille","lat":43.21755,"lon":5.34613,"is_reserved":false,"is_disabled":true,"rental_uris":{"android":"levelo://app?vid=10be7a19-7bb3-4be8-8e03-f074498ccbe9","ios":"levelo://app?vid=10be7a19-7bb3-4be8-8e03-f074498ccbe9"},"vehicle_type_id":"4","last_reported":1751504174,"current_range_meters":1200,"station_id":"st_cvj6r9ubvosntc0bgbag","pricing_plan_id":"cebpf4jnsgd1na2vs0mg"},{"bike_id":"8e365e3c-559a-4ba6-a6c5-4c159e2434fc","system_id":"levelo_inurba_marseille","lat":43.21745,"lon":5.34618,"is_reserved":false,"is_disabled":true,"rental_uris":{"android":"levelo://app?vid=8e365e3c-559a-4ba6-a6c5-4c159e2434fc","ios":"levelo://app?vid=8e365e3c-559a-4ba6-a6c5-4c159e2434fc"},"vehicle_type_id":"4","last_reported":1751504174,"current_range_meters":2000,"station_id":"","pricing_plan_id":"cebpf4jnsgd1na2vs0mg"},{"bike_id":"8252b44a-d048-4379-9209-2efa2e627825","system_id":"levelo_inurba_marseille","lat":43.29229,"lon":5.40589,"is_reserved":false,"is_disabled":false,"rental_uris":{"android":"levelo://app?vid=8252b44a-d048-4379-9209-2efa2e627825","ios":"levelo://app?vid=8252b44a-d048-4379-9209-2efa2e627825"},"vehicle_type_id":"4","last_reported":1751504174,"current_range_meters":2800,"station_id":"","pricing_plan_id":"cebpf4jnsgd1na2vs0mg"},{"bike_id":"eb6298f3-da23-4583-904d-84a7d9251bb0","system_id":"levelo_inurba_marseille","lat":43.296428,"lon":5.405962,"is_reserved":false,"is_disabled":false,"rental_uris":{"android":"levelo://app?vid=eb6298f3-da23-4583-904d-84a7d9251bb0","ios":"levelo://app?vid=eb6298f3-da23-4583-904d-84a7d9251bb0"},"vehicle_type_id":"4","last_reported":1751504174,"current_range_meters":3200,"station_id":"ce4bh0h2rcd13ifvqd60","pricing_plan_id":"cebpf4jnsgd1na2vs0mg"},{"bike_id":"ad6b9678-2aa0-4e15-86da-9d07103f6c74","system_id":"levelo_inurba_marseille","lat":43.302478,"lon":5.392841,"is_reserved":false,"is_disabled":false,"rental_uris":{"android":"levelo://app?vid=ad6b9678-2aa0-4e15-86da-9d07103f6c74","ios":"levelo://app?vid=ad6b9678-2aa0-4e15-86da-9d07103f6c74"},"vehicle_type_id":"4","last_reported":1751504174,"current_range_meters":3600,"station_id":"ce4bgkh2rcd13ifvqbk0","pricing_plan_id":"cebpf4jnsgd1na2vs0mg"},{"bike_id":"4e0ceeee-cc6c-4d5b-9838-93c57bc1c3b0","system_id":"levelo_inurba_marseille","lat":43.3123,"lon":5.3684,"is_reserved":false,"is_disabled":false,"rental_uris":{"android":"levelo://app?vid=4e0ceeee-cc6c-4d5b-9838-93c57bc1c3b0","ios":"levelo://app?vid=4e0ceeee-cc6c-4d5b-9838-93c57bc1c3b0"},"vehicle_type_id":"4","last_reported":1751504174,"current_range_meters":3600,"station_id":"ce4bgl92rcd13ifvqbq0","pricing_plan_id":"cebpf4jnsgd1na2vs0mg"},{"bike_id":"68b2349c-6f12-4221-a715-e2c4004b49b1","system_id":"levelo_inurba_marseille","lat":43.30328,"lon":5.404393,"is_reserved":false,"is_disabled":false,"rental_uris":{"android":"levelo://app?vid=68b2349c-6f12-4221-a715-e2c4004b49b1","ios":"levelo://app?vid=68b2349c-6f12-4221-a715-e2c4004b49b1"},"vehicle_type_id":"4","last_reported":1751504174,"current_range_meters":4000,"station_id":"ce4bh012rcd13ifvqd10","pricing_plan_id":"cebpf4jnsgd1na2vs0mg"},{"bike_id":"273082dd-dd48-4bf4-8530-6d2c6e8e1334","system_id":"levelo_inurba_marseille","lat":43.30922,"lon":5.40143,"is_reserved":false,"is_disabled":false,"rental_uris":{"android":"levelo://app?vid=273082dd-dd48-4bf4-8530-6d2c6e8e1334","ios":"levelo://app?vid=273082dd-dd48-4bf4-8530-6d2c6e8e1334"},"vehicle_type_id":"4","last_reported":1751504174,"current_range_meters":4800,"station_id":"ce4bgvp2rcd13ifvqct0","pricing_plan_id":"cebpf4jnsgd1na2vs0mg"},{"bike_id":"e11d94e3-dfd9-44c6-a2a8-4a3067f15209","system_id":"levelo_inurba_marseille","lat":43.3091,"lon":5.39652,"is_reserved":false,"is_disabled":false,"rental_uris":{"android":"levelo://app?vid=e11d94e3-dfd9-44c6-a2a8-4a3067f15209","ios":"levelo://app?vid=e11d94e3-dfd9-44c6-a2a8-4a3067f15209"},"vehicle_type_id":"4","last_reported":1751504174,"current_range_meters":6400,"station_id":"ce4bh012rcd13ifvqcv0","pricing_plan_id":"cebpf4jnsgd1na2vs0mg"},{"bike_id":"9a2a2fc1-620c-4521-acbb-9ab16b58fb34","system_id":"levelo_inurba_marseille","lat":43.29888,"lon":5.39741,"is_reserved":false,"is_disabled":false,"rental_uris":{"android":"levelo://app?vid=9a2a2fc1-620c-4521-acbb-9ab16b58fb34","ios":"levelo://app?vid=9a2a2fc1-620c-4521-acbb-9ab16b58fb34"},"vehicle_type_id":"4","last_reported":1751504174,"current_range_meters":6400,"station_id":"ce4bh0h2rcd13ifvqd50","pricing_plan_id":"cebpf4jnsgd1na2vs0mg"},{"bike_id":"29c5ba0f-727f-4a5f-a809-9108e5a801e9","system_id":"levelo_inurba_marseille","lat":43.30558,"lon":5.37219,"is_reserved":false,"is_disabled":false,"rental_uris":{"android":"levelo://app?vid=29c5ba0f-727f-4a5f-a809-9108e5a801e9","ios":"levelo://app?vid=29c5ba0f-727f-4a5f-a809-9108e5a801e9"},"vehicle_type_id":"4","last_reported":1751504174,"current_range_meters":6800,"station_id":"","pricing_plan_id":"cebpf4jnsgd1na2vs0mg"},{"bike_id":"b818001a-a18a-4e07-9e76-49b9f4085183","system_id":"levelo_inurba_marseille","lat":43.29544,"lon":5.38539,"is_reserved":false,"is_disabled":false,"rental_uris":{"android":"levelo://app?vid=b818001a-a18a-4e07-9e76-49b9f4085183","ios":"levelo://app?vid=b818001a-a18a-4e07-9e76-49b9f4085183"},"vehicle_type_id":"4","last_reported":1751504174,"current_range_meters":6800,"station_id":"ce4bgih2rcd13ifvqba0","pricing_plan_id":"cebpf4jnsgd1na2vs0mg"},{"bike_id":"a98e9b2e-2cd7-455a-b4d2-274d7e49192f","system_id":"levelo_inurba_marseille","lat":43.3132,"lon":5.39715,"is_reserved":false,"is_disabled":false,"rental_uris":{"android":"levelo://app?vid=a98e9b2e-2cd7-455a-b4d2-274d7e49192f","ios":"levelo://app?vid=a98e9b2e-2cd7-455a-b4d2-274d7e49192f"},"vehicle_type_id":"4","last_reported":1751504174,"current_range_meters":6800,"station_id":"ce4bgvp2rcd13ifvqcu0","pricing_plan_id":"cebpf4jnsgd1na2vs0mg"},{"bike_id":"0eaf2857-a337-402c-85aa-624ad3ffe4ca","system_id":"levelo_inurba_marseille","lat":43.28461,"lon":5.35889,"is_reserved":false,"is_disabled":false,"rental_uris":{"android":"levelo://app?vid=0eaf2857-a337-402c-85aa-624ad3ffe4ca","ios":"levelo://app?vid=0eaf2857-a337-402c-85aa-624ad3ffe4ca"},"vehicle_type_id":"4","last_reported":1751504174,"current_range_meters":7200,"station_id":"ce4bhah2rcd13ifvqei0","pricing_plan_id":"cebpf4jnsgd1na2vs0mg"},{"bike_id":"9610e57b-e24c-4c16-838c-092b893b30dc","system_id":"levelo_inurba_marseille","lat":43.21757,"lon":5.34609,"is_reserved":false,"is_disabled":false,"rental_uris":{"android":"levelo://app?vid=9610e57b-e24c-4c16-838c-092b893b30dc","ios":"levelo://app?vid=9610e57b-e24c-4c16-838c-092b893b30dc"},"vehicle_type_id":"4","last_reported":1751504174,"current_range_meters":7200,"station_id":"st_cvj6r9ubvosntc0bgbag","pricing_plan_id":"cebpf4jnsgd1na2vs0mg"},{"bike_id":"8becf1b9-b72c-4763-a062-bbd587ae45bf","system_id":"levelo_inurba_marseille","lat":43.32592,"lon":5.42548,"is_reserved":false,"is_disabled":false,"rental_uris":{"android":"levelo://app?vid=8becf1b9-b72c-4763-a062-bbd587ae45bf","ios":"levelo://app?vid=8becf1b9-b72c-4763-a062-bbd587ae45bf"},"vehicle_type_id":"4","last_reported":1751504174,"current_range_meters":8000,"station_id":"","pricing_plan_id":"cebpf4jnsgd1na2vs0mg"},{"bike_id":"23071046-9602-43ba-91b4-200a2b70c9eb","system_id":"levelo_inurba_marseille","lat":43.265675,"lon":5.390245,"is_reserved":false,"is_disabled":false,"rental_uris":{"android":"levelo://app?vid=23071046-9602-43ba-91b4-200a2b70c9eb","ios":"levelo://app?vid=23071046-9602-43ba-91b4-200a2b70c9eb"},"vehicle_type_id":"4","last_reported":1751504174,"current_range_meters":8400,"station_id":"ce4bhe12rcd13ifvqf30","pricing_plan_id":"cebpf4jnsgd1na2vs0mg"},{"bike_id":"3fbceb20-d877-411e-a90d-f13a05e02fc6","system_id":"levelo_inurba_marseille","lat":43.30325,"lon":5.37932,"is_reserved":false,"is_disabled":false,"rental_uris":{"android":"levelo://app?vid=3fbceb20-d877-411e-a90d-f13a05e02fc6","ios":"levelo://app?vid=3fbceb20-d877-411e-a90d-f13a05e02fc6"},"vehicle_type_id":"4","last_reported":1751504174,"current_range_meters":8800,"station_id":"","pricing_plan_id":"cebpf4jnsgd1na2vs0mg"},{"bike_id":"88f0d88a-1dec-4977-a19a-71293da7fba4","system_id":"levelo_inurba_marseille","lat":43.32353,"lon":5.36631,"is_reserved":false,"is_disabled":false,"rental_uris":{"android":"levelo://app?vid=88f0d88a-1dec-4977-a19a-71293da7fba4","ios":"levelo://app?vid=88f0d88a-1dec-4977-a19a-71293da7fba4"},"vehicle_type_id":"4","last_reported":1751504174,"current_range_meters":8800,"station_id":"","pricing_plan_id":"cebpf4jnsgd1na2vs0mg"},{"bike_id":"6b196946-974b-415f-bf32-433df9b3293c","system_id":"levelo_inurba_marseille","lat":43.29537,"lon":5.39044,"is_reserved":false,"is_disabled":false,"rental_uris":{"android":"levelo://app?vid=6b196946-974b-415f-bf32-433df9b3293c","ios":"levelo://app?vid=6b196946-974b-415f-bf32-433df9b3293c"},"vehicle_type_id":"4","last_reported":1751504174,"current_range_meters":8800,"station_id":"ce4bh3p2rcd13ifvqdp0","pricing_plan_id":"cebpf4jnsgd1na2vs0mg"},{"bike_id":"29af087b-39c4-4cd8-b63b-f71c06c593ff","system_id":"levelo_inurba_marseille","lat":43.30602,"lon":5.37201,"is_reserved":false,"is_disabled":false,"rental_uris":{"android":"levelo://app?vid=29af087b-39c4-4cd8-b63b-f71c06c593ff","ios":"levelo://app?vid=29af087b-39c4-4cd8-b63b-f71c06c593ff"},"vehicle_type_id":"4","last_reported":1751504174,"current_range_meters":9600,"station_id":"ce4bgqh2rcd13ifvqc4g","pricing_plan_id":"cebpf4jnsgd1na2vs0mg"},{"bike_id":"086a1315-d879-4513-ad87-ce3e7e4bdda4","system_id":"levelo_inurba_marseille","lat":43.31709,"lon":5.37758,"is_reserved":false,"is_disabled":false,"rental_uris":{"android":"levelo://app?vid=086a1315-d879-4513-ad87-ce3e7e4bdda4","ios":"levelo://app?vid=086a1315-d879-4513-ad87-ce3e7e4bdda4"},"vehicle_type_id":"4","last_reported":1751504174,"current_range_meters":9600,"station_id":"ce4bgth2rcd13ifvqch0","pricing_plan_id":"cebpf4jnsgd1na2vs0mg"},{"bike_id":"2c444815-8fc3-4906-a6a5-eb44a7876731","system_id":"levelo_inurba_marseille","lat":43.28717,"lon":5.37398,"is_reserved":false,"is_disabled":false,"rental_uris":{"android":"levelo://app?vid=2c444815-8fc3-4906-a6a5-eb44a7876731","ios":"levelo://app?vid=2c444815-8fc3-4906-a6a5-eb44a7876731"},"vehicle_type_id":"4","last_reported":1751504174,"current_range_meters":9600,"station_id":"ce4bh3p2rcd13ifvqdq0","pricing_plan_id":"cebpf4jnsgd1na2vs0mg"},{"bike_id":"6c59dd74-c74b-4a90-a279-698d906454bf","system_id":"levelo_inurba_marseille","lat":43.31712,"lon":5.43709,"is_reserved":false,"is_disabled":false,"rental_uris":{"android":"levelo://app?vid=6c59dd74-c74b-4a90-a279-698d906454bf","ios":"levelo://app?vid=6c59dd74-c74b-4a90-a279-698d906454bf"},"vehicle_type_id":"4","last_reported":1751504174,"current_range_meters":9600,"station_id":"ce4bhp92rcd13ifvqhcg","pricing_plan_id":"cebpf4jnsgd1na2vs0mg"},{"bike_id":"8ad00ccc-3ccb-493b-a2b4-49cd4dd94c33","system_id":"levelo_inurba_marseille","lat":43.21755,"lon":5.34601,"is_reserved":false,"is_disabled":false,"rental_uris":{"android":"levelo://app?vid=8ad00ccc-3ccb-493b-a2b4-49cd4dd94c33","ios":"levelo://app?vid=8ad00ccc-3ccb-493b-a2b4-49cd4dd94c33"},"vehicle_type_id":"4","last_reported":1751504174,"current_range_meters":9600,"station_id":"st_cvj6r9ubvosntc0bgbag","pricing_plan_id":"cebpf4jnsgd1na2vs0mg"},{"bike_id":"eb6f172f-68c2-4fbc-b984-276818caa76a","system_id":"levelo_inurba_marseille","lat":43.293129,"lon":5.439146,"is_reserved":false,"is_disabled":false,"rental_uris":{"android":"levelo://app?vid=eb6f172f-68c2-4fbc-b984-276818caa76a","ios":"levelo://app?vid=eb6f172f-68c2-4fbc-b984-276818caa76a"},"vehicle_type_id":"4","last_reported":1751504174,"current_range_meters":10000,"station_id":"","pricing_plan_id":"cebpf4jnsgd1na2vs0mg"},{"bike_id":"77a8aa44-ccc3-4411-92e2-24abedbedb2c","system_id":"levelo_inurba_marseille","lat":43.28858,"lon":5.39322,"is_reserved":false,"is_disabled":false,"rental_uris":{"android":"levelo://app?vid=77a8aa44-ccc3-4411-92e2-24abedbedb2c","ios":"levelo://app?vid=77a8aa44-ccc3-4411-92e2-24abedbedb2c"},"vehicle_type_id":"4","last_reported":1751504174,"current_range_meters":10000,"station_id":"ce4bh2p2rcd13ifvqdi0","pricing_plan_id":"cebpf4jnsgd1na2vs0mg"},{"bike_id":"eb39a9a0-4fa6-44a4-b44e-fca77c526f7a","system_id":"levelo_inurba_marseille","lat":43.28336,"lon":5.3811,"is_reserved":false,"is_disabled":false,"rental_uris":{"android":"levelo://app?vid=eb39a9a0-4fa6-44a4-b44e-fca77c526f7a","ios":"levelo://app?vid=eb39a9a0-4fa6-44a4-b44e-fca77c526f7a"},"vehicle_type_id":"4","last_reported":1751504174,"current_range_meters":10000,"station_id":"ce4bh412rcd13ifvqdr0","pricing_plan_id":"cebpf4jnsgd1na2vs0mg"},{"bike_id":"66d14237-07a1-4be1-b1a1-047eb4a238a5","system_id":"levelo_inurba_marseille","lat":43.29811,"lon":5.39353,"is_reserved":false,"is_disabled":false,"rental_uris":{"android":"levelo://app?vid=66d14237-07a1-4be1-b1a1-047eb4a238a5","ios":"levelo://app?vid=66d14237-07a1-4be1-b1a1-047eb4a238a5"},"vehicle_type_id":"4","last_reported":1751504174,"current_range_meters":10000,"station_id":"chh1huq6cuj3fo74tm60","pricing_plan_id":"cebpf4jnsgd1na2vs0mg"},{"bike_id":"13f4b965-89f7-4a4f-8624-7f42ad9ce8bd","system_id":"levelo_inurba_marseille","lat":43.302965,"lon":5.392095,"is_reserved":false,"is_disabled":false,"rental_uris":{"android":"levelo://app?vid=13f4b965-89f7-4a4f-8624-7f42ad9ce8bd","ios":"levelo://app?vid=13f4b965-89f7-4a4f-8624-7f42ad9ce8bd"},"vehicle_type_id":"4","last_reported":1751504174,"current_range_meters":10800,"station_id":"ce4bgkh2rcd13ifvqbk0","pricing_plan_id":"cebpf4jnsgd1na2vs0mg"},{"bike_id":"5508769a-e540-4ee2-a165-4ca58bfaffab","system_id":"levelo_inurba_marseille","lat":43.30311,"lon":5.39211,"is_reserved":false,"is_disabled":false,"rental_uris":{"android":"levelo://app?vid=5508769a-e540-4ee2-a165-4ca58bfaffab","ios":"levelo://app?vid=5508769a-e540-4ee2-a165-4ca58bfaffab"},"vehicle_type_id":"4","last_reported":1751504174,"current_range_meters":10800,"station_id":"ce4bgkh2rcd13ifvqbk0","pricing_plan_id":"cebpf4jnsgd1na2vs0mg"},{"bike_id":"53eab548-c9ae-4b06-bcf9-65448b096482","system_id":"levelo_inurba_marseille","lat":43.28859,"lon":5.39342,"is_reserved":false,"is_disabled":false,"rental_uris":{"android":"levelo://app?vid=53eab548-c9ae-4b06-bcf9-65448b096482","ios":"levelo://app?vid=53eab548-c9ae-4b06-bcf9-65448b096482"},"vehicle_type_id":"4","last_reported":1751504174,"current_range_meters":10800,"station_id":"ce4bh2p2rcd13ifvqdi0","pricing_plan_id":"cebpf4jnsgd1na2vs0mg"},{"bike_id":"de4790f9-a731-4d5f-9aa3-a4b1d4df22af","system_id":"levelo_inurba_marseille","lat":43.29449,"lon":5.39753,"is_reserved":false,"is_disabled":false,"rental_uris":{"android":"levelo://app?vid=de4790f9-a731-4d5f-9aa3-a4b1d4df22af","ios":"levelo://app?vid=de4790f9-a731-4d5f-9aa3-a4b1d4df22af"},"vehicle_type_id":"4","last_reported":1751504174,"current_range_meters":10800,"station_id":"ce4bh3h2rcd13ifvqdo0","pricing_plan_id":"cebpf4jnsgd1na2vs0mg"},{"bike_id":"b28aa0a0-791c-4a08-9a16-c7bf6ea0ed5a","system_id":"levelo_inurba_marseille","lat":43.2251,"lon":5.34778,"is_reserved":false,"is_disabled":false,"rental_uris":{"android":"levelo://app?vid=b28aa0a0-791c-4a08-9a16-c7bf6ea0ed5a","ios":"levelo://app?vid=b28aa0a0-791c-4a08-9a16-c7bf6ea0ed5a"},"vehicle_type_id":"4","last_reported":1751504174,"current_range_meters":10800,"station_id":"st_cvj5dfep6f1abm77gieg","pricing_plan_id":"cebpf4jnsgd1na2vs0mg"},{"bike_id":"d16b9dec-c438-4000-91c8-6cda5b0545dc","system_id":"levelo_inurba_marseille","lat":43.2489,"lon":5.37525,"is_reserved":false,"is_disabled":false,"rental_uris":{"android":"levelo://app?vid=d16b9dec-c438-4000-91c8-6cda5b0545dc","ios":"levelo://app?vid=d16b9dec-c438-4000-91c8-6cda5b0545dc"},"vehicle_type_id":"4","last_reported":1751504174,"current_range_meters":11200,"station_id":"","pricing_plan_id":"cebpf4jnsgd1na2vs0mg"},{"bike_id":"15685ff9-4ea7-4801-9755-adfa9b50a352","system_id":"levelo_inurba_marseille","lat":43.30434,"lon":5.3889,"is_reserved":false,"is_disabled":false,"rental_uris":{"android":"levelo://app?vid=15685ff9-4ea7-4801-9755-adfa9b50a352","ios":"levelo://app?vid=15685ff9-4ea7-4801-9755-adfa9b50a352"},"vehicle_type_id":"4","last_reported":1751504174,"current_range_meters":11200,"station_id":"ce4bgk12rcd13ifvqbi0","pricing_plan_id":"cebpf4jnsgd1na2vs0mg"},{"bike_id":"6f187575-31af-4e1c-b0e1-6d77c6f2f751","system_id":"levelo_inurba_marseille","lat":43.286628,"lon":5.386752,"is_reserved":false,"is_disabled":false,"rental_uris":{"android":"levelo://app?vid=6f187575-31af-4e1c-b0e1-6d77c6f2f751","ios":"levelo://app?vid=6f187575-31af-4e1c-b0e1-6d77c6f2f751"},"vehicle_type_id":"4","last_reported":1751504174,"current_range_meters":11200,"station_id":"ce4bh492rcd13ifvqdug","pricing_plan_id":"cebpf4jnsgd1na2vs0mg"},{"bike_id":"c2cc3873-3136-4ba7-984d-6514f2a6bcc2","system_id":"levelo_inurba_marseille","lat":43.26692,"lon":5.3827,"is_reserved":false,"is_disabled":false,"rental_uris":{"android":"levelo://app?vid=c2cc3873-3136-4ba7-984d-6514f2a6bcc2","ios":"levelo://app?vid=c2cc3873-3136-4ba7-984d-6514f2a6bcc2"},"vehicle_type_id":"4","last_reported":1751504174,"current_range_meters":11200,"station_id":"ce4bhg92rcd13ifvqf90","pricing_plan_id":"cebpf4jnsgd1na2vs0mg"},{"bike_id":"f5469626-344e-4334-9049-486e9f34a090","system_id":"levelo_inurba_marseille","lat":43.32089,"lon":5.36769,"is_reserved":false,"is_disabled":false,"rental_uris":{"android":"levelo://app?vid=f5469626-344e-4334-9049-486e9f34a090","ios":"levelo://app?vid=f5469626-344e-4334-9049-486e9f34a090"},"vehicle_type_id":"4","last_reported":1751504174,"current_range_meters":11200,"station_id":"ce4bhrh2rcd13ifvqhug","pricing_plan_id":"cebpf4jnsgd1na2vs0mg"},{"bike_id":"7e62b058-a7ed-4634-80f1-04d3de596de7","system_id":"levelo_inurba_marseille","lat":43.29843,"lon":5.36803,"is_reserved":false,"is_disabled":false,"rental_uris":{"android":"levelo://app?vid=7e62b058-a7ed-4634-80f1-04d3de596de7","ios":"levelo://app?vid=7e62b058-a7ed-4634-80f1-04d3de596de7"},"vehicle_type_id":"4","last_reported":1751504174,"current_range_meters":11600,"station_id":"","pricing_plan_id":"cebpf4jnsgd1na2vs0mg"},{"bike_id":"bf00a211-3496-4df0-8e4e-99767047ca09","system_id":"levelo_inurba_marseille","lat":43.2997,"lon":5.37621,"is_reserved":false,"is_disabled":false,"rental_uris":{"android":"levelo://app?vid=bf00a211-3496-4df0-8e4e-99767047ca09","ios":"levelo://app?vid=bf00a211-3496-4df0-8e4e-99767047ca09"},"vehicle_type_id":"4","last_reported":1751504174,"current_range_meters":11600,"station_id":"","pricing_plan_id":"cebpf4jnsgd1na2vs0mg"},{"bike_id":"e26ba497-efc7-4420-b8c5-9fa5e27f2ce4","system_id":"levelo_inurba_marseille","lat":43.31356,"lon":5.37073,"is_reserved":false,"is_disabled":false,"rental_uris":{"android":"levelo://app?vid=e26ba497-efc7-4420-b8c5-9fa5e27f2ce4","ios":"levelo://app?vid=e26ba497-efc7-4420-b8c5-9fa5e27f2ce4"},"vehicle_type_id":"4","last_reported":1751504174,"current_range_meters":11600,"station_id":"","pricing_plan_id":"cebpf4jnsgd1na2vs0mg"},{"bike_id":"d51214b0-3fa7-4feb-98c5-cd3bdead480c","system_id":"levelo_inurba_marseille","lat":43.31689,"lon":5.40478,"is_reserved":false,"is_disabled":false,"rental_uris":{"android":"levelo://app?vid=d51214b0-3fa7-4feb-98c5-cd3bdead480c","ios":"levelo://app?vid=d51214b0-3fa7-4feb-98c5-cd3bdead480c"},"vehicle_type_id":"4","last_reported":1751504174,"current_range_meters":11600,"station_id":"ce4bh012rcd13ifvqd00","pricing_plan_id":"cebpf4jnsgd1na2vs0mg"},{"bike_id":"cb82481d-3fdd-44c6-a6dd-53e8df93963e","system_id":"levelo_inurba_marseille","lat":43.28394,"lon":5.37505,"is_reserved":false,"is_disabled":false,"rental_uris":{"android":"levelo://app?vid=cb82481d-3fdd-44c6-a6dd-53e8df93963e","ios":"levelo://app?vid=cb82481d-3fdd-44c6-a6dd-53e8df93963e"},"vehicle_type_id":"4","last_reported":1751504174,"current_range_meters":11600,"station_id":"ce4bh412rcd13ifvqds0","pricing_plan_id":"cebpf4jnsgd1na2vs0mg"},{"bike_id":"ae698825-2b59-4495-8ad5-6cc2b8bb90e6","system_id":"levelo_inurba_marseille","lat":43.271617,"lon":5.410027,"is_reserved":false,"is_disabled":false,"rental_uris":{"android":"levelo://app?vid=ae698825-2b59-4495-8ad5-6cc2b8bb90e6","ios":"levelo://app?vid=ae698825-2b59-4495-8ad5-6cc2b8bb90e6"},"vehicle_type_id":"4","last_reported":1751504174,"current_range_meters":11600,"station_id":"ce4bhl12rcd13ifvqgf0","pricing_plan_id":"cebpf4jnsgd1na2vs0mg"},{"bike_id":"14291010-175d-42f0-a4a5-2d79bae5a826","system_id":"levelo_inurba_marseille","lat":43.25061,"lon":5.39556,"is_reserved":false,"is_disabled":false,"rental_uris":{"android":"levelo://app?vid=14291010-175d-42f0-a4a5-2d79bae5a826","ios":"levelo://app?vid=14291010-175d-42f0-a4a5-2d79bae5a826"},"vehicle_type_id":"4","last_reported":1751504174,"current_range_meters":11600,"station_id":"ce4bhm12rcd13ifvqgkg","pricing_plan_id":"cebpf4jnsgd1na2vs0mg"},{"bike_id":"2297614d-ddea-4c3e-b99d-c90edbac75c0","system_id":"levelo_inurba_marseille","lat":43.30296,"lon":5.39213,"is_reserved":false,"is_disabled":false,"rental_uris":{"android":"levelo://app?vid=2297614d-ddea-4c3e-b99d-c90edbac75c0","ios":"levelo://app?vid=2297614d-ddea-4c3e-b99d-c90edbac75c0"},"vehicle_type_id":"4","last_reported":1751504174,"current_range_meters":12400,"station_id":"ce4bgkh2rcd13ifvqbk0","pricing_plan_id":"cebpf4jnsgd1na2vs0mg"},{"bike_id":"bbd9d48f-0f1e-446b-8873-48cd4909c43d","system_id":"levelo_inurba_marseille","lat":43.246658,"lon":5.381656,"is_reserved":false,"is_disabled":false,"rental_uris":{"android":"levelo://app?vid=bbd9d48f-0f1e-446b-8873-48cd4909c43d","ios":"levelo://app?vid=bbd9d48f-0f1e-446b-8873-48cd4909c43d"},"vehicle_type_id":"4","last_reported":1751504174,"current_range_meters":12400,"station_id":"ce4bhih2rcd13ifvqfr0","pricing_plan_id":"cebpf4jnsgd1na2vs0mg"},{"bike_id":"56eb3fdf-ea87-4fcf-85df-3680fa66363e","system_id":"levelo_inurba_marseille","lat":43.22528,"lon":5.34801,"is_reserved":false,"is_disabled":false,"rental_uris":{"android":"levelo://app?vid=56eb3fdf-ea87-4fcf-85df-3680fa66363e","ios":"levelo://app?vid=56eb3fdf-ea87-4fcf-85df-3680fa66363e"},"vehicle_type_id":"4","last_reported":1751504174,"current_range_meters":12400,"station_id":"st_cvj5dfep6f1abm77gieg","pricing_plan_id":"cebpf4jnsgd1na2vs0mg"},{"bike_id":"bcfd0eda-b9ab-4bec-9ca3-3f2b86617415","system_id":"levelo_inurba_marseille","lat":43.21195,"lon":5.35081,"is_reserved":false,"is_disabled":false,"rental_uris":{"android":"levelo://app?vid=bcfd0eda-b9ab-4bec-9ca3-3f2b86617415","ios":"levelo://app?vid=bcfd0eda-b9ab-4bec-9ca3-3f2b86617415"},"vehicle_type_id":"4","last_reported":1751504174,"current_range_meters":12400,"station_id":"st_cvj6sg6p6f1abm77japg","pricing_plan_id":"cebpf4jnsgd1na2vs0mg"},{"bike_id":"9f4d3d14-e470-4ede-baac-761a7ff86bea","system_id":"levelo_inurba_marseille","lat":43.29911,"lon":5.39764,"is_reserved":false,"is_disabled":false,"rental_uris":{"android":"levelo://app?vid=9f4d3d14-e470-4ede-baac-761a7ff86bea","ios":"levelo://app?vid=9f4d3d14-e470-4ede-baac-761a7ff86bea"},"vehicle_type_id":"4","last_reported":1751504174,"current_range_meters":12800,"station_id":"","pricing_plan_id":"cebpf4jnsgd1na2vs0mg"},{"bike_id":"17ad145c-f881-4017-969d-c8638a36a818","system_id":"levelo_inurba_marseille","lat":43.2656,"lon":5.39016,"is_reserved":false,"is_disabled":false,"rental_uris":{"android":"levelo://app?vid=17ad145c-f881-4017-969d-c8638a36a818","ios":"levelo://app?vid=17ad145c-f881-4017-969d-c8638a36a818"},"vehicle_type_id":"4","last_reported":1751504174,"current_range_meters":12800,"station_id":"ce4bhe12rcd13ifvqf30","pricing_plan_id":"cebpf4jnsgd1na2vs0mg"},{"bike_id":"a845bc47-93f7-4e07-bad6-282a1d836dad","system_id":"levelo_inurba_marseille","lat":43.32653,"lon":5.40979,"is_reserved":false,"is_disabled":false,"rental_uris":{"android":"levelo://app?vid=a845bc47-93f7-4e07-bad6-282a1d836dad","ios":"levelo://app?vid=a845bc47-93f7-4e07-bad6-282a1d836dad"},"vehicle_type_id":"4","last_reported":1751504174,"current_range_meters":12800,"station_id":"ce4bhpp2rcd13ifvqhgg","pricing_plan_id":"cebpf4jnsgd1na2vs0mg"},{"bike_id":"b50da02d-1fb5-4383-a93d-332785610080","system_id":"levelo_inurba_marseille","lat":43.21753,"lon":5.346131,"is_reserved":false,"is_disabled":false,"rental_uris":{"android":"levelo://app?vid=b50da02d-1fb5-4383-a93d-332785610080","ios":"levelo://app?vid=b50da02d-1fb5-4383-a93d-332785610080"},"vehicle_type_id":"4","last_reported":1751504174,"current_range_meters":12800,"station_id":"st_cvj6r9ubvosntc0bgbag","pricing_plan_id":"cebpf4jnsgd1na2vs0mg"},{"bike_id":"38bac79f-e35b-4649-a124-62df32b2dd19","system_id":"levelo_inurba_marseille","lat":43.311736,"lon":5.38713,"is_reserved":false,"is_disabled":false,"rental_uris":{"android":"levelo://app?vid=38bac79f-e35b-4649-a124-62df32b2dd19","ios":"levelo://app?vid=38bac79f-e35b-4649-a124-62df32b2dd19"},"vehicle_type_id":"4","last_reported":1751504174,"current_range_meters":13600,"station_id":"ce4bgv12rcd13ifvqcp0","pricing_plan_id":"cebpf4jnsgd1na2vs0mg"},{"bike_id":"fb895bd1-8bbf-4a13-805b-9dd3ab93b82d","system_id":"levelo_inurba_marseille","lat":43.30128,"lon":5.39875,"is_reserved":false,"is_disabled":false,"rental_uris":{"android":"levelo://app?vid=fb895bd1-8bbf-4a13-805b-9dd3ab93b82d","ios":"levelo://app?vid=fb895bd1-8bbf-4a13-805b-9dd3ab93b82d"},"vehicle_type_id":"4","last_reported":1751504174,"current_range_meters":13600,"station_id":"ce4bh0h2rcd13ifvqd40","pricing_plan_id":"cebpf4jnsgd1na2vs0mg"},{"bike_id":"d86436f8-f523-4db0-8e2c-cda1e0e0211e","system_id":"levelo_inurba_marseille","lat":43.28033,"lon":5.36954,"is_reserved":false,"is_disabled":false,"rental_uris":{"android":"levelo://app?vid=d86436f8-f523-4db0-8e2c-cda1e0e0211e","ios":"levelo://app?vid=d86436f8-f523-4db0-8e2c-cda1e0e0211e"},"vehicle_type_id":"4","last_reported":1751504174,"current_range_meters":13600,"station_id":"ce4bha12rcd13ifvqef0","pricing_plan_id":"cebpf4jnsgd1na2vs0mg"},{"bike_id":"1b95998f-c622-402b-b8e8-4d1779a15cc7","system_id":"levelo_inurba_marseille","lat":43.3073,"lon":5.42451,"is_reserved":false,"is_disabled":false,"rental_uris":{"android":"levelo://app?vid=1b95998f-c622-402b-b8e8-4d1779a15cc7","ios":"levelo://app?vid=1b95998f-c622-402b-b8e8-4d1779a15cc7"},"vehicle_type_id":"4","last_reported":1751504174,"current_range_meters":13600,"station_id":"st_cvj6ca6bvosntc0bfgr0","pricing_plan_id":"cebpf4jnsgd1na2vs0mg"},{"bike_id":"110be0f7-19b6-4419-935c-8afdb1f29359","system_id":"levelo_inurba_marseille","lat":43.2121,"lon":5.35061,"is_reserved":false,"is_disabled":false,"rental_uris":{"android":"levelo://app?vid=110be0f7-19b6-4419-935c-8afdb1f29359","ios":"levelo://app?vid=110be0f7-19b6-4419-935c-8afdb1f29359"},"vehicle_type_id":"4","last_reported":1751504174,"current_range_meters":13600,"station_id":"st_cvj6sg6p6f1abm77japg","pricing_plan_id":"cebpf4jnsgd1na2vs0mg"},{"bike_id":"16a8afe6-e43e-4d1b-a7bd-ed83d113735a","system_id":"levelo_inurba_marseille","lat":43.32436,"lon":5.41185,"is_reserved":false,"is_disabled":false,"rental_uris":{"android":"levelo://app?vid=16a8afe6-e43e-4d1b-a7bd-ed83d113735a","ios":"levelo://app?vid=16a8afe6-e43e-4d1b-a7bd-ed83d113735a"},"vehicle_type_id":"4","last_reported":1751504174,"current_range_meters":14000,"station_id":"","pricing_plan_id":"cebpf4jnsgd1na2vs0mg"},{"bike_id":"1173f98d-ee9c-4d54-9f0b-8d325054fc35","system_id":"levelo_inurba_marseille","lat":43.29538,"lon":5.38546,"is_reserved":false,"is_disabled":false,"rental_uris":{"android":"levelo://app?vid=1173f98d-ee9c-4d54-9f0b-8d325054fc35","ios":"levelo://app?vid=1173f98d-ee9c-4d54-9f0b-8d325054fc35"},"vehicle_type_id":"4","last_reported":1751504174,"current_range_meters":14000,"station_id":"ce4bgih2rcd13ifvqba0","pricing_plan_id":"cebpf4jnsgd1na2vs0mg"},{"bike_id":"7e0f75b3-8986-4c62-836b-8e50bf158139","system_id":"levelo_inurba_marseille","lat":43.31167,"lon":5.38696,"is_reserved":false,"is_disabled":false,"rental_uris":{"android":"levelo://app?vid=7e0f75b3-8986-4c62-836b-8e50bf158139","ios":"levelo://app?vid=7e0f75b3-8986-4c62-836b-8e50bf158139"},"vehicle_type_id":"4","last_reported":1751504174,"current_range_meters":14000,"station_id":"ce4bgv12rcd13ifvqcp0","pricing_plan_id":"cebpf4jnsgd1na2vs0mg"},{"bike_id":"6a785a02-909e-4d8a-8794-668155cdebef","system_id":"levelo_inurba_marseille","lat":43.30635,"lon":5.40105,"is_reserved":false,"is_disabled":false,"rental_uris":{"android":"levelo://app?vid=6a785a02-909e-4d8a-8794-668155cdebef","ios":"levelo://app?vid=6a785a02-909e-4d8a-8794-668155cdebef"},"vehicle_type_id":"4","last_reported":1751504174,"current_range_meters":14000,"station_id":"ce4bh112rcd13ifvqda0","pricing_plan_id":"cebpf4jnsgd1na2vs0mg"},{"bike_id":"e5083142-f0d3-48ba-8ecd-37fdc0440456","system_id":"levelo_inurba_marseille","lat":43.27948,"lon":5.41048,"is_reserved":false,"is_disabled":false,"rental_uris":{"android":"levelo://app?vid=e5083142-f0d3-48ba-8ecd-37fdc0440456","ios":"levelo://app?vid=e5083142-f0d3-48ba-8ecd-37fdc0440456"},"vehicle_type_id":"4","last_reported":1751504174,"current_range_meters":14000,"station_id":"ce4bhnp2rcd13ifvqh0g","pricing_plan_id":"cebpf4jnsgd1na2vs0mg"},{"bike_id":"e36eeb04-35cc-4a52-97d7-6ba58bfe555b","system_id":"levelo_inurba_marseille","lat":43.295511,"lon":5.422838,"is_reserved":false,"is_disabled":false,"rental_uris":{"android":"levelo://app?vid=e36eeb04-35cc-4a52-97d7-6ba58bfe555b","ios":"levelo://app?vid=e36eeb04-35cc-4a52-97d7-6ba58bfe555b"},"vehicle_type_id":"4","last_reported":1751504174,"current_range_meters":14000,"station_id":"ce4bhph2rcd13ifvqhdg","pricing_plan_id":"cebpf4jnsgd1na2vs0mg"},{"bike_id":"400ca6ec-6f53-43c9-b30e-4f01df7ad9e8","system_id":"levelo_inurba_marseille","lat":43.26813,"lon":5.40265,"is_reserved":false,"is_disabled":false,"rental_uris":{"android":"levelo://app?vid=400ca6ec-6f53-43c9-b30e-4f01df7ad9e8","ios":"levelo://app?vid=400ca6ec-6f53-43c9-b30e-4f01df7ad9e8"},"vehicle_type_id":"4","last_reported":1751504174,"current_range_meters":14000,"station_id":"ce501612rcd8frsf0b60","pricing_plan_id":"cebpf4jnsgd1na2vs0mg"},{"bike_id":"116a65fd-ba85-4855-b765-b1c858ee38ca","system_id":"levelo_inurba_marseille","lat":43.29784,"lon":5.39373,"is_reserved":false,"is_disabled":false,"rental_uris":{"android":"levelo://app?vid=116a65fd-ba85-4855-b765-b1c858ee38ca","ios":"levelo://app?vid=116a65fd-ba85-4855-b765-b1c858ee38ca"},"vehicle_type_id":"4","last_reported":1751504174,"current_range_meters":14000,"station_id":"chh1huq6cuj3fo74tm60","pricing_plan_id":"cebpf4jnsgd1na2vs0mg"},{"bike_id":"959e6f20-8ed0-4d36-bc1d-3efb82d6190b","system_id":"levelo_inurba_marseille","lat":43.21187,"lon":5.35077,"is_reserved":false,"is_disabled":false,"rental_uris":{"android":"levelo://app?vid=959e6f20-8ed0-4d36-bc1d-3efb82d6190b","ios":"levelo://app?vid=959e6f20-8ed0-4d36-bc1d-3efb82d6190b"},"vehicle_type_id":"4","last_reported":1751504174,"current_range_meters":14000,"station_id":"st_cvj6sg6p6f1abm77japg","pricing_plan_id":"cebpf4jnsgd1na2vs0mg"},{"bike_id":"fe16e5d6-c086-4644-bea1-4f57a2866519","system_id":"levelo_inurba_marseille","lat":43.28564,"lon":5.35064,"is_reserved":false,"is_disabled":false,"rental_uris":{"android":"levelo://app?vid=fe16e5d6-c086-4644-bea1-4f57a2866519","ios":"levelo://app?vid=fe16e5d6-c086-4644-bea1-4f57a2866519"},"vehicle_type_id":"4","last_reported":1751504174,"current_range_meters":14400,"station_id":"","pricing_plan_id":"cebpf4jnsgd1na2vs0mg"},{"bike_id":"64bb485e-0856-48ce-befe-bde5a394f93d","system_id":"levelo_inurba_marseille","lat":43.27609,"lon":5.38877,"is_reserved":false,"is_disabled":false,"rental_uris":{"android":"levelo://app?vid=64bb485e-0856-48ce-befe-bde5a394f93d","ios":"levelo://app?vid=64bb485e-0856-48ce-befe-bde5a394f93d"},"vehicle_type_id":"4","last_reported":1751504174,"current_range_meters":14400,"station_id":"","pricing_plan_id":"cebpf4jnsgd1na2vs0mg"},{"bike_id":"07c84fd8-7a10-40ae-8e1a-2796bec86e0e","system_id":"levelo_inurba_marseille","lat":43.264926,"lon":5.395381,"is_reserved":false,"is_disabled":false,"rental_uris":{"android":"levelo://app?vid=07c84fd8-7a10-40ae-8e1a-2796bec86e0e","ios":"levelo://app?vid=07c84fd8-7a10-40ae-8e1a-2796bec86e0e"},"vehicle_type_id":"4","last_reported":1751504174,"current_range_meters":14400,"station_id":"ce4bhi12rcd13ifvqfq0","pricing_plan_id":"cebpf4jnsgd1na2vs0mg"},{"bike_id":"0e030323-4386-4e72-9a0d-0f6a2ff539de","system_id":"levelo_inurba_marseille","lat":43.29615,"lon":5.40551,"is_reserved":false,"is_disabled":false,"rental_uris":{"android":"levelo://app?vid=0e030323-4386-4e72-9a0d-0f6a2ff539de","ios":"levelo://app?vid=0e030323-4386-4e72-9a0d-0f6a2ff539de"},"vehicle_type_id":"4","last_reported":1751504174,"current_range_meters":14800,"station_id":"ce4bh0h2rcd13ifvqd60","pricing_plan_id":"cebpf4jnsgd1na2vs0mg"},{"bike_id":"09a94feb-8911-4d3d-9f22-a7f611710ea1","system_id":"levelo_inurba_marseille","lat":43.21193,"lon":5.35072,"is_reserved":false,"is_disabled":false,"rental_uris":{"android":"levelo://app?vid=09a94feb-8911-4d3d-9f22-a7f611710ea1","ios":"levelo://app?vid=09a94feb-8911-4d3d-9f22-a7f611710ea1"},"vehicle_type_id":"4","last_reported":1751504174,"current_range_meters":14800,"station_id":"st_cvj6sg6p6f1abm77japg","pricing_plan_id":"cebpf4jnsgd1na2vs0mg"},{"bike_id":"a011bf6f-5b73-42df-b628-b2dcf5029277","system_id":"levelo_inurba_marseille","lat":43.24173,"lon":5.38499,"is_reserved":false,"is_disabled":false,"rental_uris":{"android":"levelo://app?vid=a011bf6f-5b73-42df-b628-b2dcf5029277","ios":"levelo://app?vid=a011bf6f-5b73-42df-b628-b2dcf5029277"},"vehicle_type_id":"4","last_reported":1751504174,"current_range_meters":15200,"station_id":"","pricing_plan_id":"cebpf4jnsgd1na2vs0mg"},{"bike_id":"9dbea238-2ef6-46e4-acce-4271b0047517","system_id":"levelo_inurba_marseille","lat":43.31064,"lon":5.38344,"is_reserved":false,"is_disabled":false,"rental_uris":{"android":"levelo://app?vid=9dbea238-2ef6-46e4-acce-4271b0047517","ios":"levelo://app?vid=9dbea238-2ef6-46e4-acce-4271b0047517"},"vehicle_type_id":"4","last_reported":1751504174,"current_range_meters":15200,"station_id":"ce4bgv92rcd13ifvqcr0","pricing_plan_id":"cebpf4jnsgd1na2vs0mg"},{"bike_id":"a07f0fdd-2914-45ae-8716-263aed7fb306","system_id":"levelo_inurba_marseille","lat":43.29563,"lon":5.39975,"is_reserved":false,"is_disabled":false,"rental_uris":{"android":"levelo://app?vid=a07f0fdd-2914-45ae-8716-263aed7fb306","ios":"levelo://app?vid=a07f0fdd-2914-45ae-8716-263aed7fb306"},"vehicle_type_id":"4","last_reported":1751504174,"current_range_meters":15200,"station_id":"ce4bh312rcd13ifvqdj0","pricing_plan_id":"cebpf4jnsgd1na2vs0mg"},{"bike_id":"44c32a50-c1de-42ea-bf6b-a34381c0bd23","system_id":"levelo_inurba_marseille","lat":43.28328,"lon":5.3809,"is_reserved":false,"is_disabled":false,"rental_uris":{"android":"levelo://app?vid=44c32a50-c1de-42ea-bf6b-a34381c0bd23","ios":"levelo://app?vid=44c32a50-c1de-42ea-bf6b-a34381c0bd23"},"vehicle_type_id":"4","last_reported":1751504174,"current_range_meters":15200,"station_id":"ce4bh412rcd13ifvqdr0","pricing_plan_id":"cebpf4jnsgd1na2vs0mg"},{"bike_id":"bfb5db2d-ccad-4bfa-91db-998edbed86aa","system_id":"levelo_inurba_marseille","lat":43.28383,"lon":5.37505,"is_reserved":false,"is_disabled":false,"rental_uris":{"android":"levelo://app?vid=bfb5db2d-ccad-4bfa-91db-998edbed86aa","ios":"levelo://app?vid=bfb5db2d-ccad-4bfa-91db-998edbed86aa"},"vehicle_type_id":"4","last_reported":1751504174,"current_range_meters":15200,"station_id":"ce4bh412rcd13ifvqds0","pricing_plan_id":"cebpf4jnsgd1na2vs0mg"},{"bike_id":"8027ba18-6b68-46ed-810a-bacee77786fd","system_id":"levelo_inurba_marseille","lat":43.28406,"lon":5.37524,"is_reserved":false,"is_disabled":false,"rental_uris":{"android":"levelo://app?vid=8027ba18-6b68-46ed-810a-bacee77786fd","ios":"levelo://app?vid=8027ba18-6b68-46ed-810a-bacee77786fd"},"vehicle_type_id":"4","last_reported":1751504174,"current_range_meters":15200,"station_id":"ce4bh412rcd13ifvqds0","pricing_plan_id":"cebpf4jnsgd1na2vs0mg"},{"bike_id":"6c0d24f1-3c10-4351-9923-09e6da1bd482","system_id":"levelo_inurba_marseille","lat":43.251055,"lon":5.403287,"is_reserved":false,"is_disabled":false,"rental_uris":{"android":"levelo://app?vid=6c0d24f1-3c10-4351-9923-09e6da1bd482","ios":"levelo://app?vid=6c0d24f1-3c10-4351-9923-09e6da1bd482"},"vehicle_type_id":"4","last_reported":1751504174,"current_range_meters":15200,"station_id":"ce4bhlh2rcd13ifvqgig","pricing_plan_id":"cebpf4jnsgd1na2vs0mg"},{"bike_id":"18974184-022a-4948-a40d-04085271b61f","system_id":"levelo_inurba_marseille","lat":43.31998,"lon":5.38156,"is_reserved":false,"is_disabled":false,"rental_uris":{"android":"levelo://app?vid=18974184-022a-4948-a40d-04085271b61f","ios":"levelo://app?vid=18974184-022a-4948-a40d-04085271b61f"},"vehicle_type_id":"4","last_reported":1751504174,"current_range_meters":15200,"station_id":"ce4bhr12rcd13ifvqhpg","pricing_plan_id":"cebpf4jnsgd1na2vs0mg"},{"bike_id":"63072e0c-9f69-4913-be48-96789ec98037","system_id":"levelo_inurba_marseille","lat":43.33427,"lon":5.40061,"is_reserved":false,"is_disabled":false,"rental_uris":{"android":"levelo://app?vid=63072e0c-9f69-4913-be48-96789ec98037","ios":"levelo://app?vid=63072e0c-9f69-4913-be48-96789ec98037"},"vehicle_type_id":"4","last_reported":1751504174,"current_range_meters":16000,"station_id":"","pricing_plan_id":"cebpf4jnsgd1na2vs0mg"},{"bike_id":"5d756fc8-7eff-429b-99d6-f03252413f12","system_id":"levelo_inurba_marseille","lat":43.3058,"lon":5.37213,"is_reserved":false,"is_disabled":false,"rental_uris":{"android":"levelo://app?vid=5d756fc8-7eff-429b-99d6-f03252413f12","ios":"levelo://app?vid=5d756fc8-7eff-429b-99d6-f03252413f12"},"vehicle_type_id":"4","last_reported":1751504174,"current_range_meters":16000,"station_id":"ce4bgqh2rcd13ifvqc4g","pricing_plan_id":"cebpf4jnsgd1na2vs0mg"},{"bike_id":"29cb0c3c-dacf-4851-8a83-db66a6a15b87","system_id":"levelo_inurba_marseille","lat":43.3135,"lon":5.384994,"is_reserved":false,"is_disabled":false,"rental_uris":{"android":"levelo://app?vid=29cb0c3c-dacf-4851-8a83-db66a6a15b87","ios":"levelo://app?vid=29cb0c3c-dacf-4851-8a83-db66a6a15b87"},"vehicle_type_id":"4","last_reported":1751504174,"current_range_meters":16000,"station_id":"ce4bgt92rcd13ifvqcf0","pricing_plan_id":"cebpf4jnsgd1na2vs0mg"},{"bike_id":"9f8ca976-1d33-4202-baf8-9442771dfdb2","system_id":"levelo_inurba_marseille","lat":43.28167,"lon":5.42656,"is_reserved":false,"is_disabled":false,"rental_uris":{"android":"levelo://app?vid=9f8ca976-1d33-4202-baf8-9442771dfdb2","ios":"levelo://app?vid=9f8ca976-1d33-4202-baf8-9442771dfdb2"},"vehicle_type_id":"4","last_reported":1751504174,"current_range_meters":16000,"station_id":"ce4bhnh2rcd13ifvqgug","pricing_plan_id":"cebpf4jnsgd1na2vs0mg"},{"bike_id":"9671bc7e-cfc8-43b8-910b-34586791d9e1","system_id":"levelo_inurba_marseille","lat":43.2844,"lon":5.39192,"is_reserved":false,"is_disabled":false,"rental_uris":{"android":"levelo://app?vid=9671bc7e-cfc8-43b8-910b-34586791d9e1","ios":"levelo://app?vid=9671bc7e-cfc8-43b8-910b-34586791d9e1"},"vehicle_type_id":"4","last_reported":1751504174,"current_range_meters":16000,"station_id":"ce4bhoh2rcd13ifvqh5g","pricing_plan_id":"cebpf4jnsgd1na2vs0mg"},{"bike_id":"8bf0d992-d2a0-428e-940a-091ee9b7c2a4","system_id":"levelo_inurba_marseille","lat":43.21197,"lon":5.35092,"is_reserved":false,"is_disabled":false,"rental_uris":{"android":"levelo://app?vid=8bf0d992-d2a0-428e-940a-091ee9b7c2a4","ios":"levelo://app?vid=8bf0d992-d2a0-428e-940a-091ee9b7c2a4"},"vehicle_type_id":"4","last_reported":1751504174,"current_range_meters":16000,"station_id":"st_cvj6sg6p6f1abm77japg","pricing_plan_id":"cebpf4jnsgd1na2vs0mg"},{"bike_id":"c10a4283-320d-4e64-8d75-ff83e94026ba","system_id":"levelo_inurba_marseille","lat":43.2119,"lon":5.35071,"is_reserved":false,"is_disabled":false,"rental_uris":{"android":"levelo://app?vid=c10a4283-320d-4e64-8d75-ff83e94026ba","ios":"levelo://app?vid=c10a4283-320d-4e64-8d75-ff83e94026ba"},"vehicle_type_id":"4","last_reported":1751504174,"current_range_meters":16000,"station_id":"st_cvj6sg6p6f1abm77japg","pricing_plan_id":"cebpf4jnsgd1na2vs0mg"},{"bike_id":"8a74f5cd-9efa-4362-bea7-a32db4dcc85c","system_id":"levelo_inurba_marseille","lat":43.21194,"lon":5.35074,"is_reserved":false,"is_disabled":false,"rental_uris":{"android":"levelo://app?vid=8a74f5cd-9efa-4362-bea7-a32db4dcc85c","ios":"levelo://app?vid=8a74f5cd-9efa-4362-bea7-a32db4dcc85c"},"vehicle_type_id":"4","last_reported":1751504174,"current_range_meters":16000,"station_id":"st_cvj6sg6p6f1abm77japg","pricing_plan_id":"cebpf4jnsgd1na2vs0mg"},{"bike_id":"a588469b-12ca-41c6-8c6f-3f3bda5b7f15","system_id":"levelo_inurba_marseille","lat":43.31558,"lon":5.38381,"is_reserved":false,"is_disabled":false,"rental_uris":{"android":"levelo://app?vid=a588469b-12ca-41c6-8c6f-3f3bda5b7f15","ios":"levelo://app?vid=a588469b-12ca-41c6-8c6f-3f3bda5b7f15"},"vehicle_type_id":"4","last_reported":1751504174,"current_range_meters":16400,"station_id":"","pricing_plan_id":"cebpf4jnsgd1na2vs0mg"},{"bike_id":"f1acddb2-bdb2-48cc-a3c3-58e7e9f8eb26","system_id":"levelo_inurba_marseille","lat":43.30931,"lon":5.40157,"is_reserved":false,"is_disabled":false,"rental_uris":{"android":"levelo://app?vid=f1acddb2-bdb2-48cc-a3c3-58e7e9f8eb26","ios":"levelo://app?vid=f1acddb2-bdb2-48cc-a3c3-58e7e9f8eb26"},"vehicle_type_id":"4","last_reported":1751504174,"current_range_meters":16400,"station_id":"ce4bgvp2rcd13ifvqct0","pricing_plan_id":"cebpf4jnsgd1na2vs0mg"},{"bike_id":"ff42c446-544b-4974-b21b-72ce5c234e88","system_id":"levelo_inurba_marseille","lat":43.29279,"lon":5.40117,"is_reserved":false,"is_disabled":false,"rental_uris":{"android":"levelo://app?vid=ff42c446-544b-4974-b21b-72ce5c234e88","ios":"levelo://app?vid=ff42c446-544b-4974-b21b-72ce5c234e88"},"vehicle_type_id":"4","last_reported":1751504174,"current_range_meters":16400,"station_id":"ce4bh312rcd13ifvqdk0","pricing_plan_id":"cebpf4jnsgd1na2vs0mg"},{"bike_id":"23202a3d-d0ae-48a0-b9be-d6d93409246e","system_id":"levelo_inurba_marseille","lat":43.27213,"lon":5.39186,"is_reserved":false,"is_disabled":false,"rental_uris":{"android":"levelo://app?vid=23202a3d-d0ae-48a0-b9be-d6d93409246e","ios":"levelo://app?vid=23202a3d-d0ae-48a0-b9be-d6d93409246e"},"vehicle_type_id":"4","last_reported":1751504174,"current_range_meters":16400,"station_id":"ce4bhhp2rcd13ifvqfm0","pricing_plan_id":"cebpf4jnsgd1na2vs0mg"},{"bike_id":"912d67f3-78e7-48fd-8929-37f0572cfee4","system_id":"levelo_inurba_marseille","lat":43.26361,"lon":5.37405,"is_reserved":false,"is_disabled":false,"rental_uris":{"android":"levelo://app?vid=912d67f3-78e7-48fd-8929-37f0572cfee4","ios":"levelo://app?vid=912d67f3-78e7-48fd-8929-37f0572cfee4"},"vehicle_type_id":"4","last_reported":1751504174,"current_range_meters":16800,"station_id":"","pricing_plan_id":"cebpf4jnsgd1na2vs0mg"},{"bike_id":"09fae636-3f69-4553-b897-e1c9a05f7a07","system_id":"levelo_inurba_marseille","lat":43.31176,"lon":5.38707,"is_reserved":false,"is_disabled":false,"rental_uris":{"android":"levelo://app?vid=09fae636-3f69-4553-b897-e1c9a05f7a07","ios":"levelo://app?vid=09fae636-3f69-4553-b897-e1c9a05f7a07"},"vehicle_type_id":"4","last_reported":1751504174,"current_range_meters":16800,"station_id":"ce4bgv12rcd13ifvqcp0","pricing_plan_id":"cebpf4jnsgd1na2vs0mg"},{"bike_id":"c3207bfa-c5d7-49c9-b859-50dc55d6b517","system_id":"levelo_inurba_marseille","lat":43.29804,"lon":5.40402,"is_reserved":false,"is_disabled":false,"rental_uris":{"android":"levelo://app?vid=c3207bfa-c5d7-49c9-b859-50dc55d6b517","ios":"levelo://app?vid=c3207bfa-c5d7-49c9-b859-50dc55d6b517"},"vehicle_type_id":"4","last_reported":1751504174,"current_range_meters":16800,"station_id":"ce4bh112rcd13ifvqd90","pricing_plan_id":"cebpf4jnsgd1na2vs0mg"},{"bike_id":"0f590c2a-c81e-469d-a7d1-2741de3642a2","system_id":"levelo_inurba_marseille","lat":43.21192,"lon":5.35086,"is_reserved":false,"is_disabled":false,"rental_uris":{"android":"levelo://app?vid=0f590c2a-c81e-469d-a7d1-2741de3642a2","ios":"levelo://app?vid=0f590c2a-c81e-469d-a7d1-2741de3642a2"},"vehicle_type_id":"4","last_reported":1751504174,"current_range_meters":16800,"station_id":"st_cvj6sg6p6f1abm77japg","pricing_plan_id":"cebpf4jnsgd1na2vs0mg"},{"bike_id":"ba154a12-11bd-42a5-958a-5992f5d043d1","system_id":"levelo_inurba_marseille","lat":43.304916,"lon":5.37086,"is_reserved":false,"is_disabled":false,"rental_uris":{"android":"levelo://app?vid=ba154a12-11bd-42a5-958a-5992f5d043d1","ios":"levelo://app?vid=ba154a12-11bd-42a5-958a-5992f5d043d1"},"vehicle_type_id":"4","last_reported":1751504174,"current_range_meters":17200,"station_id":"","pricing_plan_id":"cebpf4jnsgd1na2vs0mg"},{"bike_id":"ad4becc0-0281-4fb5-833b-dab4ce81a333","system_id":"levelo_inurba_marseille","lat":43.31721,"lon":5.40457,"is_reserved":false,"is_disabled":false,"rental_uris":{"android":"levelo://app?vid=ad4becc0-0281-4fb5-833b-dab4ce81a333","ios":"levelo://app?vid=ad4becc0-0281-4fb5-833b-dab4ce81a333"},"vehicle_type_id":"4","last_reported":1751504174,"current_range_meters":17200,"station_id":"ce4bh012rcd13ifvqd00","pricing_plan_id":"cebpf4jnsgd1na2vs0mg"},{"bike_id":"460f39c4-75ad-4525-a2ea-c965626a9a40","system_id":"levelo_inurba_marseille","lat":43.26209,"lon":5.40447,"is_reserved":false,"is_disabled":false,"rental_uris":{"android":"levelo://app?vid=460f39c4-75ad-4525-a2ea-c965626a9a40","ios":"levelo://app?vid=460f39c4-75ad-4525-a2ea-c965626a9a40"},"vehicle_type_id":"4","last_reported":1751504174,"current_range_meters":17200,"station_id":"ce4bhmh2rcd13ifvqgmg","pricing_plan_id":"cebpf4jnsgd1na2vs0mg"},{"bike_id":"68e309f4-b1e4-4f3a-b754-9a7df441dc33","system_id":"levelo_inurba_marseille","lat":43.28139,"lon":5.42633,"is_reserved":false,"is_disabled":false,"rental_uris":{"android":"levelo://app?vid=68e309f4-b1e4-4f3a-b754-9a7df441dc33","ios":"levelo://app?vid=68e309f4-b1e4-4f3a-b754-9a7df441dc33"},"vehicle_type_id":"4","last_reported":1751504174,"current_range_meters":17200,"station_id":"ce4bhnh2rcd13ifvqgug","pricing_plan_id":"cebpf4jnsgd1na2vs0mg"},{"bike_id":"3e0e6c0f-b9ae-433e-bdf9-f459eaeaeb11","system_id":"levelo_inurba_marseille","lat":43.29274,"lon":5.38449,"is_reserved":false,"is_disabled":false,"rental_uris":{"android":"levelo://app?vid=3e0e6c0f-b9ae-433e-bdf9-f459eaeaeb11","ios":"levelo://app?vid=3e0e6c0f-b9ae-433e-bdf9-f459eaeaeb11"},"vehicle_type_id":"4","last_reported":1751504174,"current_range_meters":17600,"station_id":"ce4bh692rcd13ifvqea0","pricing_plan_id":"cebpf4jnsgd1na2vs0mg"},{"bike_id":"772debc4-7a23-48ac-9b74-f20080f28919","system_id":"levelo_inurba_marseille","lat":43.25867,"lon":5.39923,"is_reserved":false,"is_disabled":false,"rental_uris":{"android":"levelo://app?vid=772debc4-7a23-48ac-9b74-f20080f28919","ios":"levelo://app?vid=772debc4-7a23-48ac-9b74-f20080f28919"},"vehicle_type_id":"4","last_reported":1751504174,"current_range_meters":17600,"station_id":"ce4bhl92rcd13ifvqghg","pricing_plan_id":"cebpf4jnsgd1na2vs0mg"},{"bike_id":"37b84a38-055a-4a6e-a56a-8ff3d0c1b2ec","system_id":"levelo_inurba_marseille","lat":43.21192,"lon":5.35077,"is_reserved":false,"is_disabled":false,"rental_uris":{"android":"levelo://app?vid=37b84a38-055a-4a6e-a56a-8ff3d0c1b2ec","ios":"levelo://app?vid=37b84a38-055a-4a6e-a56a-8ff3d0c1b2ec"},"vehicle_type_id":"4","last_reported":1751504174,"current_range_meters":17600,"station_id":"st_cvj6sg6p6f1abm77japg","pricing_plan_id":"cebpf4jnsgd1na2vs0mg"},{"bike_id":"afc674af-1cfb-4db9-b4f3-736204ee0c0c","system_id":"levelo_inurba_marseille","lat":43.31178,"lon":5.38717,"is_reserved":false,"is_disabled":false,"rental_uris":{"android":"levelo://app?vid=afc674af-1cfb-4db9-b4f3-736204ee0c0c","ios":"levelo://app?vid=afc674af-1cfb-4db9-b4f3-736204ee0c0c"},"vehicle_type_id":"4","last_reported":1751504174,"current_range_meters":18000,"station_id":"ce4bgv12rcd13ifvqcp0","pricing_plan_id":"cebpf4jnsgd1na2vs0mg"},{"bike_id":"0c9664b8-ad92-4e52-996b-b5a37d9410bf","system_id":"levelo_inurba_marseille","lat":43.30089,"lon":5.39093,"is_reserved":false,"is_disabled":false,"rental_uris":{"android":"levelo://app?vid=0c9664b8-ad92-4e52-996b-b5a37d9410bf","ios":"levelo://app?vid=0c9664b8-ad92-4e52-996b-b5a37d9410bf"},"vehicle_type_id":"4","last_reported":1751504174,"current_range_meters":18000,"station_id":"ce4bh192rcd13ifvqdb0","pricing_plan_id":"cebpf4jnsgd1na2vs0mg"},{"bike_id":"54557343-aa5d-425a-86c5-c48dce2d8949","system_id":"levelo_inurba_marseille","lat":43.29051,"lon":5.39962,"is_reserved":false,"is_disabled":false,"rental_uris":{"android":"levelo://app?vid=54557343-aa5d-425a-86c5-c48dce2d8949","ios":"levelo://app?vid=54557343-aa5d-425a-86c5-c48dce2d8949"},"vehicle_type_id":"4","last_reported":1751504174,"current_range_meters":18000,"station_id":"ce4bh392rcd13ifvqdm0","pricing_plan_id":"cebpf4jnsgd1na2vs0mg"},{"bike_id":"0c5e46df-9adb-4aa5-842c-17a1961c0106","system_id":"levelo_inurba_marseille","lat":43.27998,"lon":5.407,"is_reserved":false,"is_disabled":false,"rental_uris":{"android":"levelo://app?vid=0c5e46df-9adb-4aa5-842c-17a1961c0106","ios":"levelo://app?vid=0c5e46df-9adb-4aa5-842c-17a1961c0106"},"vehicle_type_id":"4","last_reported":1751504174,"current_range_meters":18800,"station_id":"","pricing_plan_id":"cebpf4jnsgd1na2vs0mg"},{"bike_id":"b7bfc45a-54fe-4bda-9820-e6374b43b68e","system_id":"levelo_inurba_marseille","lat":43.303,"lon":5.39208,"is_reserved":false,"is_disabled":false,"rental_uris":{"android":"levelo://app?vid=b7bfc45a-54fe-4bda-9820-e6374b43b68e","ios":"levelo://app?vid=b7bfc45a-54fe-4bda-9820-e6374b43b68e"},"vehicle_type_id":"4","last_reported":1751504174,"current_range_meters":18800,"station_id":"ce4bgkh2rcd13ifvqbk0","pricing_plan_id":"cebpf4jnsgd1na2vs0mg"},{"bike_id":"1f378b1f-54e0-42c0-986b-0ae91e2ba79c","system_id":"levelo_inurba_marseille","lat":43.31124,"lon":5.37774,"is_reserved":false,"is_disabled":false,"rental_uris":{"android":"levelo://app?vid=1f378b1f-54e0-42c0-986b-0ae91e2ba79c","ios":"levelo://app?vid=1f378b1f-54e0-42c0-986b-0ae91e2ba79c"},"vehicle_type_id":"4","last_reported":1751504174,"current_range_meters":18800,"station_id":"ce4bgt92rcd13ifvqcg0","pricing_plan_id":"cebpf4jnsgd1na2vs0mg"},{"bike_id":"723ce655-3305-4456-bcf3-317a44e39960","system_id":"levelo_inurba_marseille","lat":43.30644,"lon":5.40097,"is_reserved":false,"is_disabled":false,"rental_uris":{"android":"levelo://app?vid=723ce655-3305-4456-bcf3-317a44e39960","ios":"levelo://app?vid=723ce655-3305-4456-bcf3-317a44e39960"},"vehicle_type_id":"4","last_reported":1751504174,"current_range_meters":18800,"station_id":"ce4bh112rcd13ifvqda0","pricing_plan_id":"cebpf4jnsgd1na2vs0mg"},{"bike_id":"f2750764-8c01-445c-84a6-a41e37f605a8","system_id":"levelo_inurba_marseille","lat":43.29255,"lon":5.40141,"is_reserved":false,"is_disabled":false,"rental_uris":{"android":"levelo://app?vid=f2750764-8c01-445c-84a6-a41e37f605a8","ios":"levelo://app?vid=f2750764-8c01-445c-84a6-a41e37f605a8"},"vehicle_type_id":"4","last_reported":1751504174,"current_range_meters":18800,"station_id":"ce4bh312rcd13ifvqdk0","pricing_plan_id":"cebpf4jnsgd1na2vs0mg"},{"bike_id":"a6715104-7492-4ec6-a996-23050baf8551","system_id":"levelo_inurba_marseille","lat":43.22502,"lon":5.3478,"is_reserved":false,"is_disabled":false,"rental_uris":{"android":"levelo://app?vid=a6715104-7492-4ec6-a996-23050baf8551","ios":"levelo://app?vid=a6715104-7492-4ec6-a996-23050baf8551"},"vehicle_type_id":"4","last_reported":1751504174,"current_range_meters":18800,"station_id":"st_cvj5dfep6f1abm77gieg","pricing_plan_id":"cebpf4jnsgd1na2vs0mg"},{"bike_id":"0a638a6c-7976-4cac-aa15-32d07db1b29a","system_id":"levelo_inurba_marseille","lat":43.30737,"lon":5.42436,"is_reserved":false,"is_disabled":false,"rental_uris":{"android":"levelo://app?vid=0a638a6c-7976-4cac-aa15-32d07db1b29a","ios":"levelo://app?vid=0a638a6c-7976-4cac-aa15-32d07db1b29a"},"vehicle_type_id":"4","last_reported":1751504174,"current_range_meters":18800,"station_id":"st_cvj6ca6bvosntc0bfgr0","pricing_plan_id":"cebpf4jnsgd1na2vs0mg"},{"bike_id":"4d4995e7-0bba-4ac2-a238-afd84a5e99b5","system_id":"levelo_inurba_marseille","lat":43.304848,"lon":5.398345,"is_reserved":false,"is_disabled":false,"rental_uris":{"android":"levelo://app?vid=4d4995e7-0bba-4ac2-a238-afd84a5e99b5","ios":"levelo://app?vid=4d4995e7-0bba-4ac2-a238-afd84a5e99b5"},"vehicle_type_id":"4","last_reported":1751504174,"current_range_meters":19200,"station_id":"","pricing_plan_id":"cebpf4jnsgd1na2vs0mg"},{"bike_id":"50bb0fdb-2cc1-4d8d-af26-b7febba54985","system_id":"levelo_inurba_marseille","lat":43.274139,"lon":5.39007,"is_reserved":false,"is_disabled":false,"rental_uris":{"android":"levelo://app?vid=50bb0fdb-2cc1-4d8d-af26-b7febba54985","ios":"levelo://app?vid=50bb0fdb-2cc1-4d8d-af26-b7febba54985"},"vehicle_type_id":"4","last_reported":1751504174,"current_range_meters":19200,"station_id":"","pricing_plan_id":"cebpf4jnsgd1na2vs0mg"},{"bike_id":"83ada4fb-6a40-4152-8235-de894a5258cf","system_id":"levelo_inurba_marseille","lat":43.30595,"lon":5.40075,"is_reserved":false,"is_disabled":false,"rental_uris":{"android":"levelo://app?vid=83ada4fb-6a40-4152-8235-de894a5258cf","ios":"levelo://app?vid=83ada4fb-6a40-4152-8235-de894a5258cf"},"vehicle_type_id":"4","last_reported":1751504174,"current_range_meters":19200,"station_id":"","pricing_plan_id":"cebpf4jnsgd1na2vs0mg"},{"bike_id":"b06883e0-0dcb-4a71-9d16-964cfea4b361","system_id":"levelo_inurba_marseille","lat":43.31523,"lon":5.37308,"is_reserved":false,"is_disabled":false,"rental_uris":{"android":"levelo://app?vid=b06883e0-0dcb-4a71-9d16-964cfea4b361","ios":"levelo://app?vid=b06883e0-0dcb-4a71-9d16-964cfea4b361"},"vehicle_type_id":"4","last_reported":1751504174,"current_range_meters":19200,"station_id":"ce4bgt12rcd13ifvqcd0","pricing_plan_id":"cebpf4jnsgd1na2vs0mg"},{"bike_id":"05655a7e-2c7e-46a8-ab33-e4b9a82e4d88","system_id":"levelo_inurba_marseille","lat":43.31325,"lon":5.3972,"is_reserved":false,"is_disabled":false,"rental_uris":{"android":"levelo://app?vid=05655a7e-2c7e-46a8-ab33-e4b9a82e4d88","ios":"levelo://app?vid=05655a7e-2c7e-46a8-ab33-e4b9a82e4d88"},"vehicle_type_id":"4","last_reported":1751504174,"current_range_meters":19200,"station_id":"ce4bgvp2rcd13ifvqcu0","pricing_plan_id":"cebpf4jnsgd1na2vs0mg"},{"bike_id":"ff0897d0-cd0f-4fbe-8e8d-1c5e77cc2308","system_id":"levelo_inurba_marseille","lat":43.286533,"lon":5.363557,"is_reserved":false,"is_disabled":false,"rental_uris":{"android":"levelo://app?vid=ff0897d0-cd0f-4fbe-8e8d-1c5e77cc2308","ios":"levelo://app?vid=ff0897d0-cd0f-4fbe-8e8d-1c5e77cc2308"},"vehicle_type_id":"4","last_reported":1751504174,"current_range_meters":19200,"station_id":"ce4bhah2rcd13ifvqej0","pricing_plan_id":"cebpf4jnsgd1na2vs0mg"},{"bike_id":"0c903c56-b56b-4de0-a93c-465e3e07232c","system_id":"levelo_inurba_marseille","lat":43.28606,"lon":5.37068,"is_reserved":false,"is_disabled":false,"rental_uris":{"android":"levelo://app?vid=0c903c56-b56b-4de0-a93c-465e3e07232c","ios":"levelo://app?vid=0c903c56-b56b-4de0-a93c-465e3e07232c"},"vehicle_type_id":"4","last_reported":1751504174,"current_range_meters":19200,"station_id":"ce4bht12rcd13ifvqi60","pricing_plan_id":"cebpf4jnsgd1na2vs0mg"},{"bike_id":"7e21e8f2-09c8-4cc5-8113-278ebd23888d","system_id":"levelo_inurba_marseille","lat":43.211865,"lon":5.350774,"is_reserved":false,"is_disabled":false,"rental_uris":{"android":"levelo://app?vid=7e21e8f2-09c8-4cc5-8113-278ebd23888d","ios":"levelo://app?vid=7e21e8f2-09c8-4cc5-8113-278ebd23888d"},"vehicle_type_id":"4","last_reported":1751504174,"current_range_meters":19200,"station_id":"st_cvj6sg6p6f1abm77japg","pricing_plan_id":"cebpf4jnsgd1na2vs0mg"},{"bike_id":"b2ce53ca-166b-417e-9d70-9bee393f75bb","system_id":"levelo_inurba_marseille","lat":43.21188,"lon":5.35092,"is_reserved":false,"is_disabled":false,"rental_uris":{"android":"levelo://app?vid=b2ce53ca-166b-417e-9d70-9bee393f75bb","ios":"levelo://app?vid=b2ce53ca-166b-417e-9d70-9bee393f75bb"},"vehicle_type_id":"4","last_reported":1751504174,"current_range_meters":19200,"station_id":"st_cvj6sg6p6f1abm77japg","pricing_plan_id":"cebpf4jnsgd1na2vs0mg"},{"bike_id":"d0153f08-65a6-4010-a4da-412b805362a5","system_id":"levelo_inurba_marseille","lat":43.3081,"lon":5.38158,"is_reserved":false,"is_disabled":false,"rental_uris":{"android":"levelo://app?vid=d0153f08-65a6-4010-a4da-412b805362a5","ios":"levelo://app?vid=d0153f08-65a6-4010-a4da-412b805362a5"},"vehicle_type_id":"4","last_reported":1751504174,"current_range_meters":19600,"station_id":"ce4bgt12rcd13ifvqce0","pricing_plan_id":"cebpf4jnsgd1na2vs0mg"},{"bike_id":"7c8b500e-ac56-4088-b0af-520d4e58222f","system_id":"levelo_inurba_marseille","lat":43.30881,"lon":5.39643,"is_reserved":false,"is_disabled":false,"rental_uris":{"android":"levelo://app?vid=7c8b500e-ac56-4088-b0af-520d4e58222f","ios":"levelo://app?vid=7c8b500e-ac56-4088-b0af-520d4e58222f"},"vehicle_type_id":"4","last_reported":1751504174,"current_range_meters":19600,"station_id":"ce4bh012rcd13ifvqcv0","pricing_plan_id":"cebpf4jnsgd1na2vs0mg"},{"bike_id":"9c70cf19-dd31-467e-b1f2-297f54f832ae","system_id":"levelo_inurba_marseille","lat":43.285684,"lon":5.394972,"is_reserved":false,"is_disabled":false,"rental_uris":{"android":"levelo://app?vid=9c70cf19-dd31-467e-b1f2-297f54f832ae","ios":"levelo://app?vid=9c70cf19-dd31-467e-b1f2-297f54f832ae"},"vehicle_type_id":"4","last_reported":1751504174,"current_range_meters":19600,"station_id":"ce4bh292rcd13ifvqdg0","pricing_plan_id":"cebpf4jnsgd1na2vs0mg"},{"bike_id":"cc04118e-9312-4bf8-9106-d64e829afbaa","system_id":"levelo_inurba_marseille","lat":43.21188,"lon":5.35081,"is_reserved":false,"is_disabled":false,"rental_uris":{"android":"levelo://app?vid=cc04118e-9312-4bf8-9106-d64e829afbaa","ios":"levelo://app?vid=cc04118e-9312-4bf8-9106-d64e829afbaa"},"vehicle_type_id":"4","last_reported":1751504174,"current_range_meters":19600,"station_id":"st_cvj6sg6p6f1abm77japg","pricing_plan_id":"cebpf4jnsgd1na2vs0mg"},{"bike_id":"1c8ab180-05fd-405f-9922-b2b2c2d5142f","system_id":"levelo_inurba_marseille","lat":43.33793,"lon":5.38116,"is_reserved":false,"is_disabled":false,"rental_uris":{"android":"levelo://app?vid=1c8ab180-05fd-405f-9922-b2b2c2d5142f","ios":"levelo://app?vid=1c8ab180-05fd-405f-9922-b2b2c2d5142f"},"vehicle_type_id":"4","last_reported":1751504174,"current_range_meters":20000,"station_id":"","pricing_plan_id":"cebpf4jnsgd1na2vs0mg"},{"bike_id":"f10d6634-8e0e-404b-a2d1-83daa4ce0042","system_id":"levelo_inurba_marseille","lat":43.28859,"lon":5.39321,"is_reserved":false,"is_disabled":false,"rental_uris":{"android":"levelo://app?vid=f10d6634-8e0e-404b-a2d1-83daa4ce0042","ios":"levelo://app?vid=f10d6634-8e0e-404b-a2d1-83daa4ce0042"},"vehicle_type_id":"4","last_reported":1751504174,"current_range_meters":20000,"station_id":"ce4bh2p2rcd13ifvqdi0","pricing_plan_id":"cebpf4jnsgd1na2vs0mg"},{"bike_id":"0c401de6-85b7-4c47-9aae-7ff75e6987fd","system_id":"levelo_inurba_marseille","lat":43.25094,"lon":5.39492,"is_reserved":false,"is_disabled":false,"rental_uris":{"android":"levelo://app?vid=0c401de6-85b7-4c47-9aae-7ff75e6987fd","ios":"levelo://app?vid=0c401de6-85b7-4c47-9aae-7ff75e6987fd"},"vehicle_type_id":"4","last_reported":1751504174,"current_range_meters":20000,"station_id":"ce4bhm12rcd13ifvqgkg","pricing_plan_id":"cebpf4jnsgd1na2vs0mg"},{"bike_id":"8e9660c7-1dfa-4d27-a121-57b2808f9a5c","system_id":"levelo_inurba_marseille","lat":43.30585,"lon":5.37198,"is_reserved":false,"is_disabled":false,"rental_uris":{"android":"levelo://app?vid=8e9660c7-1dfa-4d27-a121-57b2808f9a5c","ios":"levelo://app?vid=8e9660c7-1dfa-4d27-a121-57b2808f9a5c"},"vehicle_type_id":"4","last_reported":1751504174,"current_range_meters":20400,"station_id":"ce4bgqh2rcd13ifvqc4g","pricing_plan_id":"cebpf4jnsgd1na2vs0mg"},{"bike_id":"a37f58cf-3b95-48ef-b6de-fecb08336145","system_id":"levelo_inurba_marseille","lat":43.30949,"lon":5.40156,"is_reserved":false,"is_disabled":false,"rental_uris":{"android":"levelo://app?vid=a37f58cf-3b95-48ef-b6de-fecb08336145","ios":"levelo://app?vid=a37f58cf-3b95-48ef-b6de-fecb08336145"},"vehicle_type_id":"4","last_reported":1751504174,"current_range_meters":20400,"station_id":"ce4bgvp2rcd13ifvqct0","pricing_plan_id":"cebpf4jnsgd1na2vs0mg"},{"bike_id":"8f48b285-902b-48b4-8b23-e52ade59b5f5","system_id":"levelo_inurba_marseille","lat":43.31329,"lon":5.39685,"is_reserved":false,"is_disabled":false,"rental_uris":{"android":"levelo://app?vid=8f48b285-902b-48b4-8b23-e52ade59b5f5","ios":"levelo://app?vid=8f48b285-902b-48b4-8b23-e52ade59b5f5"},"vehicle_type_id":"4","last_reported":1751504174,"current_range_meters":20400,"station_id":"ce4bgvp2rcd13ifvqcu0","pricing_plan_id":"cebpf4jnsgd1na2vs0mg"},{"bike_id":"adf5d5eb-b552-4b8a-a217-c13d7a6adc15","system_id":"levelo_inurba_marseille","lat":43.28858,"lon":5.39342,"is_reserved":false,"is_disabled":false,"rental_uris":{"android":"levelo://app?vid=adf5d5eb-b552-4b8a-a217-c13d7a6adc15","ios":"levelo://app?vid=adf5d5eb-b552-4b8a-a217-c13d7a6adc15"},"vehicle_type_id":"4","last_reported":1751504174,"current_range_meters":20400,"station_id":"ce4bh2p2rcd13ifvqdi0","pricing_plan_id":"cebpf4jnsgd1na2vs0mg"},{"bike_id":"b104ab62-283f-4496-8f7f-d1c732f16c33","system_id":"levelo_inurba_marseille","lat":43.28841,"lon":5.39333,"is_reserved":false,"is_disabled":false,"rental_uris":{"android":"levelo://app?vid=b104ab62-283f-4496-8f7f-d1c732f16c33","ios":"levelo://app?vid=b104ab62-283f-4496-8f7f-d1c732f16c33"},"vehicle_type_id":"4","last_reported":1751504174,"current_range_meters":20400,"station_id":"ce4bh2p2rcd13ifvqdi0","pricing_plan_id":"cebpf4jnsgd1na2vs0mg"},{"bike_id":"8efd6d75-c4ae-499b-9331-5ea7c2d46d89","system_id":"levelo_inurba_marseille","lat":43.28865,"lon":5.39325,"is_reserved":false,"is_disabled":false,"rental_uris":{"android":"levelo://app?vid=8efd6d75-c4ae-499b-9331-5ea7c2d46d89","ios":"levelo://app?vid=8efd6d75-c4ae-499b-9331-5ea7c2d46d89"},"vehicle_type_id":"4","last_reported":1751504174,"current_range_meters":20400,"station_id":"ce4bh2p2rcd13ifvqdi0","pricing_plan_id":"cebpf4jnsgd1na2vs0mg"},{"bike_id":"d950dcc2-7e2e-4b4f-b0d4-2a4154ef138c","system_id":"levelo_inurba_marseille","lat":43.280373,"lon":5.369388,"is_reserved":false,"is_disabled":false,"rental_uris":{"android":"levelo://app?vid=d950dcc2-7e2e-4b4f-b0d4-2a4154ef138c","ios":"levelo://app?vid=d950dcc2-7e2e-4b4f-b0d4-2a4154ef138c"},"vehicle_type_id":"4","last_reported":1751504174,"current_range_meters":20400,"station_id":"ce4bha12rcd13ifvqef0","pricing_plan_id":"cebpf4jnsgd1na2vs0mg"},{"bike_id":"d5d751e2-1112-4345-bdeb-facfcc29c9d3","system_id":"levelo_inurba_marseille","lat":43.30449,"lon":5.38896,"is_reserved":false,"is_disabled":false,"rental_uris":{"android":"levelo://app?vid=d5d751e2-1112-4345-bdeb-facfcc29c9d3","ios":"levelo://app?vid=d5d751e2-1112-4345-bdeb-facfcc29c9d3"},"vehicle_type_id":"4","last_reported":1751504174,"current_range_meters":20800,"station_id":"ce4bgk12rcd13ifvqbi0","pricing_plan_id":"cebpf4jnsgd1na2vs0mg"},{"bike_id":"81a5c92d-28eb-4459-bc2d-cbe1bad60ae7","system_id":"levelo_inurba_marseille","lat":43.29566,"lon":5.39978,"is_reserved":false,"is_disabled":false,"rental_uris":{"android":"levelo://app?vid=81a5c92d-28eb-4459-bc2d-cbe1bad60ae7","ios":"levelo://app?vid=81a5c92d-28eb-4459-bc2d-cbe1bad60ae7"},"vehicle_type_id":"4","last_reported":1751504174,"current_range_meters":20800,"station_id":"ce4bh312rcd13ifvqdj0","pricing_plan_id":"cebpf4jnsgd1na2vs0mg"},{"bike_id":"4a2f3007-16e3-456c-a0d6-dffbbd686e29","system_id":"levelo_inurba_marseille","lat":43.29558,"lon":5.39968,"is_reserved":false,"is_disabled":false,"rental_uris":{"android":"levelo://app?vid=4a2f3007-16e3-456c-a0d6-dffbbd686e29","ios":"levelo://app?vid=4a2f3007-16e3-456c-a0d6-dffbbd686e29"},"vehicle_type_id":"4","last_reported":1751504174,"current_range_meters":20800,"station_id":"ce4bh312rcd13ifvqdj0","pricing_plan_id":"cebpf4jnsgd1na2vs0mg"},{"bike_id":"1fec5f32-8b87-4aea-b22d-0f614d28af36","system_id":"levelo_inurba_marseille","lat":43.28024,"lon":5.369595,"is_reserved":false,"is_disabled":false,"rental_uris":{"android":"levelo://app?vid=1fec5f32-8b87-4aea-b22d-0f614d28af36","ios":"levelo://app?vid=1fec5f32-8b87-4aea-b22d-0f614d28af36"},"vehicle_type_id":"4","last_reported":1751504174,"current_range_meters":20800,"station_id":"ce4bha12rcd13ifvqef0","pricing_plan_id":"cebpf4jnsgd1na2vs0mg"},{"bike_id":"39a426f5-115a-45e5-bede-c3bdb1e3c555","system_id":"levelo_inurba_marseille","lat":43.25084,"lon":5.39516,"is_reserved":false,"is_disabled":false,"rental_uris":{"android":"levelo://app?vid=39a426f5-115a-45e5-bede-c3bdb1e3c555","ios":"levelo://app?vid=39a426f5-115a-45e5-bede-c3bdb1e3c555"},"vehicle_type_id":"4","last_reported":1751504174,"current_range_meters":20800,"station_id":"ce4bhm12rcd13ifvqgkg","pricing_plan_id":"cebpf4jnsgd1na2vs0mg"},{"bike_id":"08e81811-c9ab-430d-a98b-a4424b37dd49","system_id":"levelo_inurba_marseille","lat":43.29549,"lon":5.42291,"is_reserved":false,"is_disabled":false,"rental_uris":{"android":"levelo://app?vid=08e81811-c9ab-430d-a98b-a4424b37dd49","ios":"levelo://app?vid=08e81811-c9ab-430d-a98b-a4424b37dd49"},"vehicle_type_id":"4","last_reported":1751504174,"current_range_meters":20800,"station_id":"ce4bhph2rcd13ifvqhdg","pricing_plan_id":"cebpf4jnsgd1na2vs0mg"},{"bike_id":"0dbbfd7c-5e93-4301-aea8-6d89ce7ed33b","system_id":"levelo_inurba_marseille","lat":43.21759,"lon":5.34599,"is_reserved":false,"is_disabled":false,"rental_uris":{"android":"levelo://app?vid=0dbbfd7c-5e93-4301-aea8-6d89ce7ed33b","ios":"levelo://app?vid=0dbbfd7c-5e93-4301-aea8-6d89ce7ed33b"},"vehicle_type_id":"4","last_reported":1751504174,"current_range_meters":20800,"station_id":"st_cvj6r9ubvosntc0bgbag","pricing_plan_id":"cebpf4jnsgd1na2vs0mg"},{"bike_id":"5f1e5526-9ff8-4075-8194-48a897f058b4","system_id":"levelo_inurba_marseille","lat":43.2119,"lon":5.35087,"is_reserved":false,"is_disabled":false,"rental_uris":{"android":"levelo://app?vid=5f1e5526-9ff8-4075-8194-48a897f058b4","ios":"levelo://app?vid=5f1e5526-9ff8-4075-8194-48a897f058b4"},"vehicle_type_id":"4","last_reported":1751504174,"current_range_meters":20800,"station_id":"st_cvj6sg6p6f1abm77japg","pricing_plan_id":"cebpf4jnsgd1na2vs0mg"},{"bike_id":"02df6f30-b752-4f9a-a914-3490bb86eac2","system_id":"levelo_inurba_marseille","lat":43.30806,"lon":5.38156,"is_reserved":false,"is_disabled":false,"rental_uris":{"android":"levelo://app?vid=02df6f30-b752-4f9a-a914-3490bb86eac2","ios":"levelo://app?vid=02df6f30-b752-4f9a-a914-3490bb86eac2"},"vehicle_type_id":"4","last_reported":1751504174,"current_range_meters":21600,"station_id":"ce4bgt12rcd13ifvqce0","pricing_plan_id":"cebpf4jnsgd1na2vs0mg"},{"bike_id":"7076608e-fac3-4854-985d-7d5849b88389","system_id":"levelo_inurba_marseille","lat":43.3094,"lon":5.40163,"is_reserved":false,"is_disabled":false,"rental_uris":{"android":"levelo://app?vid=7076608e-fac3-4854-985d-7d5849b88389","ios":"levelo://app?vid=7076608e-fac3-4854-985d-7d5849b88389"},"vehicle_type_id":"4","last_reported":1751504174,"current_range_meters":21600,"station_id":"ce4bgvp2rcd13ifvqct0","pricing_plan_id":"cebpf4jnsgd1na2vs0mg"},{"bike_id":"93e902d2-f27a-47f4-88b6-a0ce487dfdc7","system_id":"levelo_inurba_marseille","lat":43.28854,"lon":5.39327,"is_reserved":false,"is_disabled":false,"rental_uris":{"android":"levelo://app?vid=93e902d2-f27a-47f4-88b6-a0ce487dfdc7","ios":"levelo://app?vid=93e902d2-f27a-47f4-88b6-a0ce487dfdc7"},"vehicle_type_id":"4","last_reported":1751504174,"current_range_meters":21600,"station_id":"ce4bh2p2rcd13ifvqdi0","pricing_plan_id":"cebpf4jnsgd1na2vs0mg"},{"bike_id":"ebb08b90-8fc1-4002-b7b4-75a5af836dfd","system_id":"levelo_inurba_marseille","lat":43.28851,"lon":5.39314,"is_reserved":false,"is_disabled":false,"rental_uris":{"android":"levelo://app?vid=ebb08b90-8fc1-4002-b7b4-75a5af836dfd","ios":"levelo://app?vid=ebb08b90-8fc1-4002-b7b4-75a5af836dfd"},"vehicle_type_id":"4","last_reported":1751504174,"current_range_meters":21600,"station_id":"ce4bh2p2rcd13ifvqdi0","pricing_plan_id":"cebpf4jnsgd1na2vs0mg"},{"bike_id":"32c0fc37-6823-41d0-9497-8d1eea24742c","system_id":"levelo_inurba_marseille","lat":43.24167,"lon":5.36399,"is_reserved":false,"is_disabled":false,"rental_uris":{"android":"levelo://app?vid=32c0fc37-6823-41d0-9497-8d1eea24742c","ios":"levelo://app?vid=32c0fc37-6823-41d0-9497-8d1eea24742c"},"vehicle_type_id":"4","last_reported":1751504174,"current_range_meters":21600,"station_id":"cpo36qri1sfpv3e86is0","pricing_plan_id":"cebpf4jnsgd1na2vs0mg"},{"bike_id":"3eabe1e2-f9f5-41cb-a4ed-73ca7f909c5c","system_id":"levelo_inurba_marseille","lat":43.21183,"lon":5.35073,"is_reserved":false,"is_disabled":false,"rental_uris":{"android":"levelo://app?vid=3eabe1e2-f9f5-41cb-a4ed-73ca7f909c5c","ios":"levelo://app?vid=3eabe1e2-f9f5-41cb-a4ed-73ca7f909c5c"},"vehicle_type_id":"4","last_reported":1751504174,"current_range_meters":21600,"station_id":"st_cvj6sg6p6f1abm77japg","pricing_plan_id":"cebpf4jnsgd1na2vs0mg"},{"bike_id":"b0f6c07c-af42-4b6f-a0c4-954bd6bf58cc","system_id":"levelo_inurba_marseille","lat":43.31487,"lon":5.37313,"is_reserved":false,"is_disabled":false,"rental_uris":{"android":"levelo://app?vid=b0f6c07c-af42-4b6f-a0c4-954bd6bf58cc","ios":"levelo://app?vid=b0f6c07c-af42-4b6f-a0c4-954bd6bf58cc"},"vehicle_type_id":"4","last_reported":1751504174,"current_range_meters":22000,"station_id":"ce4bgt12rcd13ifvqcd0","pricing_plan_id":"cebpf4jnsgd1na2vs0mg"},{"bike_id":"dc7df308-0f4b-449b-8355-a2642542e9ed","system_id":"levelo_inurba_marseille","lat":43.26587,"lon":5.39001,"is_reserved":false,"is_disabled":false,"rental_uris":{"android":"levelo://app?vid=dc7df308-0f4b-449b-8355-a2642542e9ed","ios":"levelo://app?vid=dc7df308-0f4b-449b-8355-a2642542e9ed"},"vehicle_type_id":"4","last_reported":1751504174,"current_range_meters":22000,"station_id":"ce4bhe12rcd13ifvqf30","pricing_plan_id":"cebpf4jnsgd1na2vs0mg"},{"bike_id":"6f3623bd-129a-4d07-b516-53e9294419a2","system_id":"levelo_inurba_marseille","lat":43.24659,"lon":5.3819,"is_reserved":false,"is_disabled":false,"rental_uris":{"android":"levelo://app?vid=6f3623bd-129a-4d07-b516-53e9294419a2","ios":"levelo://app?vid=6f3623bd-129a-4d07-b516-53e9294419a2"},"vehicle_type_id":"4","last_reported":1751504174,"current_range_meters":22000,"station_id":"ce4bhih2rcd13ifvqfr0","pricing_plan_id":"cebpf4jnsgd1na2vs0mg"},{"bike_id":"89da5e73-11ab-48f2-8281-2178bbf7fe7b","system_id":"levelo_inurba_marseille","lat":43.25708,"lon":5.41066,"is_reserved":false,"is_disabled":false,"rental_uris":{"android":"levelo://app?vid=89da5e73-11ab-48f2-8281-2178bbf7fe7b","ios":"levelo://app?vid=89da5e73-11ab-48f2-8281-2178bbf7fe7b"},"vehicle_type_id":"4","last_reported":1751504174,"current_range_meters":22000,"station_id":"ce4bhkp2rcd13ifvqgd0","pricing_plan_id":"cebpf4jnsgd1na2vs0mg"},{"bike_id":"ba926bfc-9632-4680-b0ed-32a040d6fb83","system_id":"levelo_inurba_marseille","lat":43.2118,"lon":5.35086,"is_reserved":false,"is_disabled":false,"rental_uris":{"android":"levelo://app?vid=ba926bfc-9632-4680-b0ed-32a040d6fb83","ios":"levelo://app?vid=ba926bfc-9632-4680-b0ed-32a040d6fb83"},"vehicle_type_id":"4","last_reported":1751504174,"current_range_meters":22000,"station_id":"st_cvj6sg6p6f1abm77japg","pricing_plan_id":"cebpf4jnsgd1na2vs0mg"},{"bike_id":"b13877a6-4825-4d82-b46b-67fa8ad66c5d","system_id":"levelo_inurba_marseille","lat":43.21192,"lon":5.35076,"is_reserved":false,"is_disabled":false,"rental_uris":{"android":"levelo://app?vid=b13877a6-4825-4d82-b46b-67fa8ad66c5d","ios":"levelo://app?vid=b13877a6-4825-4d82-b46b-67fa8ad66c5d"},"vehicle_type_id":"4","last_reported":1751504174,"current_range_meters":22000,"station_id":"st_cvj6sg6p6f1abm77japg","pricing_plan_id":"cebpf4jnsgd1na2vs0mg"},{"bike_id":"7712491c-e18b-4b09-bb79-30880b357c07","system_id":"levelo_inurba_marseille","lat":43.21191,"lon":5.35076,"is_reserved":false,"is_disabled":false,"rental_uris":{"android":"levelo://app?vid=7712491c-e18b-4b09-bb79-30880b357c07","ios":"levelo://app?vid=7712491c-e18b-4b09-bb79-30880b357c07"},"vehicle_type_id":"4","last_reported":1751504174,"current_range_meters":22000,"station_id":"st_cvj6sg6p6f1abm77japg","pricing_plan_id":"cebpf4jnsgd1na2vs0mg"},{"bike_id":"b8498bc8-47af-40fb-9371-e71476626cb8","system_id":"levelo_inurba_marseille","lat":43.26935,"lon":5.39341,"is_reserved":false,"is_disabled":false,"rental_uris":{"android":"levelo://app?vid=b8498bc8-47af-40fb-9371-e71476626cb8","ios":"levelo://app?vid=b8498bc8-47af-40fb-9371-e71476626cb8"},"vehicle_type_id":"4","last_reported":1751504174,"current_range_meters":22400,"station_id":"","pricing_plan_id":"cebpf4jnsgd1na2vs0mg"},{"bike_id":"e9d26c79-d78f-4002-bc79-c4aa63e66364","system_id":"levelo_inurba_marseille","lat":43.311743,"lon":5.387243,"is_reserved":false,"is_disabled":false,"rental_uris":{"android":"levelo://app?vid=e9d26c79-d78f-4002-bc79-c4aa63e66364","ios":"levelo://app?vid=e9d26c79-d78f-4002-bc79-c4aa63e66364"},"vehicle_type_id":"4","last_reported":1751504174,"current_range_meters":22400,"station_id":"ce4bgv12rcd13ifvqcp0","pricing_plan_id":"cebpf4jnsgd1na2vs0mg"},{"bike_id":"ddd32879-ca96-47e1-93dc-975ca4c0ce6f","system_id":"levelo_inurba_marseille","lat":43.30885,"lon":5.39643,"is_reserved":false,"is_disabled":false,"rental_uris":{"android":"levelo://app?vid=ddd32879-ca96-47e1-93dc-975ca4c0ce6f","ios":"levelo://app?vid=ddd32879-ca96-47e1-93dc-975ca4c0ce6f"},"vehicle_type_id":"4","last_reported":1751504174,"current_range_meters":22400,"station_id":"ce4bh012rcd13ifvqcv0","pricing_plan_id":"cebpf4jnsgd1na2vs0mg"},{"bike_id":"efac48a5-1b35-40a7-8e7f-43a5cc6091f3","system_id":"levelo_inurba_marseille","lat":43.29264,"lon":5.40927,"is_reserved":false,"is_disabled":false,"rental_uris":{"android":"levelo://app?vid=efac48a5-1b35-40a7-8e7f-43a5cc6091f3","ios":"levelo://app?vid=efac48a5-1b35-40a7-8e7f-43a5cc6091f3"},"vehicle_type_id":"4","last_reported":1751504174,"current_range_meters":22400,"station_id":"ce4bh192rcd13ifvqdc0","pricing_plan_id":"cebpf4jnsgd1na2vs0mg"},{"bike_id":"62faf2ff-17d9-48ef-b764-d2eb9b80a3b6","system_id":"levelo_inurba_marseille","lat":43.28845,"lon":5.39322,"is_reserved":false,"is_disabled":false,"rental_uris":{"android":"levelo://app?vid=62faf2ff-17d9-48ef-b764-d2eb9b80a3b6","ios":"levelo://app?vid=62faf2ff-17d9-48ef-b764-d2eb9b80a3b6"},"vehicle_type_id":"4","last_reported":1751504174,"current_range_meters":22400,"station_id":"ce4bh2p2rcd13ifvqdi0","pricing_plan_id":"cebpf4jnsgd1na2vs0mg"},{"bike_id":"d3cefdd2-b81e-4a2a-b412-7fb159d89b44","system_id":"levelo_inurba_marseille","lat":43.28705,"lon":5.37933,"is_reserved":false,"is_disabled":false,"rental_uris":{"android":"levelo://app?vid=d3cefdd2-b81e-4a2a-b412-7fb159d89b44","ios":"levelo://app?vid=d3cefdd2-b81e-4a2a-b412-7fb159d89b44"},"vehicle_type_id":"4","last_reported":1751504174,"current_range_meters":22400,"station_id":"ce4bh9p2rcd13ifvqec0","pricing_plan_id":"cebpf4jnsgd1na2vs0mg"},{"bike_id":"8d60398f-157b-403e-afe4-5a0864dff191","system_id":"levelo_inurba_marseille","lat":43.27042,"lon":5.40275,"is_reserved":false,"is_disabled":false,"rental_uris":{"android":"levelo://app?vid=8d60398f-157b-403e-afe4-5a0864dff191","ios":"levelo://app?vid=8d60398f-157b-403e-afe4-5a0864dff191"},"vehicle_type_id":"4","last_reported":1751504174,"current_range_meters":22400,"station_id":"ce4bhk92rcd13ifvqgc0","pricing_plan_id":"cebpf4jnsgd1na2vs0mg"},{"bike_id":"32b69e2f-44e7-4fcf-a4f3-4a2e482f3a38","system_id":"levelo_inurba_marseille","lat":43.25136,"lon":5.40324,"is_reserved":false,"is_disabled":false,"rental_uris":{"android":"levelo://app?vid=32b69e2f-44e7-4fcf-a4f3-4a2e482f3a38","ios":"levelo://app?vid=32b69e2f-44e7-4fcf-a4f3-4a2e482f3a38"},"vehicle_type_id":"4","last_reported":1751504174,"current_range_meters":22400,"station_id":"ce4bhlh2rcd13ifvqgig","pricing_plan_id":"cebpf4jnsgd1na2vs0mg"},{"bike_id":"0c39aa6f-2486-4f82-b13b-fbf99b07af01","system_id":"levelo_inurba_marseille","lat":43.2512,"lon":5.40324,"is_reserved":false,"is_disabled":false,"rental_uris":{"android":"levelo://app?vid=0c39aa6f-2486-4f82-b13b-fbf99b07af01","ios":"levelo://app?vid=0c39aa6f-2486-4f82-b13b-fbf99b07af01"},"vehicle_type_id":"4","last_reported":1751504174,"current_range_meters":22400,"station_id":"ce4bhlh2rcd13ifvqgig","pricing_plan_id":"cebpf4jnsgd1na2vs0mg"},{"bike_id":"39fa5f31-4afa-4271-a36e-400e3970d6f0","system_id":"levelo_inurba_marseille","lat":43.30371,"lon":5.37593,"is_reserved":false,"is_disabled":false,"rental_uris":{"android":"levelo://app?vid=39fa5f31-4afa-4271-a36e-400e3970d6f0","ios":"levelo://app?vid=39fa5f31-4afa-4271-a36e-400e3970d6f0"},"vehicle_type_id":"4","last_reported":1751504174,"current_range_meters":22800,"station_id":"","pricing_plan_id":"cebpf4jnsgd1na2vs0mg"},{"bike_id":"cdafb99f-1874-49af-b2be-46b62cf01dc3","system_id":"levelo_inurba_marseille","lat":43.30409,"lon":5.3888,"is_reserved":false,"is_disabled":false,"rental_uris":{"android":"levelo://app?vid=cdafb99f-1874-49af-b2be-46b62cf01dc3","ios":"levelo://app?vid=cdafb99f-1874-49af-b2be-46b62cf01dc3"},"vehicle_type_id":"4","last_reported":1751504174,"current_range_meters":22800,"station_id":"ce4bgk12rcd13ifvqbi0","pricing_plan_id":"cebpf4jnsgd1na2vs0mg"},{"bike_id":"6ec0cea8-39ad-4bae-bba6-beee2c53a1b8","system_id":"levelo_inurba_marseille","lat":43.30445,"lon":5.38909,"is_reserved":false,"is_disabled":false,"rental_uris":{"android":"levelo://app?vid=6ec0cea8-39ad-4bae-bba6-beee2c53a1b8","ios":"levelo://app?vid=6ec0cea8-39ad-4bae-bba6-beee2c53a1b8"},"vehicle_type_id":"4","last_reported":1751504174,"current_range_meters":22800,"station_id":"ce4bgk12rcd13ifvqbi0","pricing_plan_id":"cebpf4jnsgd1na2vs0mg"},{"bike_id":"94fca6de-845f-401a-ba31-1dd7e6bf5b7f","system_id":"levelo_inurba_marseille","lat":43.29811,"lon":5.40407,"is_reserved":false,"is_disabled":false,"rental_uris":{"android":"levelo://app?vid=94fca6de-845f-401a-ba31-1dd7e6bf5b7f","ios":"levelo://app?vid=94fca6de-845f-401a-ba31-1dd7e6bf5b7f"},"vehicle_type_id":"4","last_reported":1751504174,"current_range_meters":22800,"station_id":"ce4bh112rcd13ifvqd90","pricing_plan_id":"cebpf4jnsgd1na2vs0mg"},{"bike_id":"b3d7a6ac-4ad8-404e-91ae-53d96dbbd9fb","system_id":"levelo_inurba_marseille","lat":43.2121,"lon":5.35079,"is_reserved":false,"is_disabled":false,"rental_uris":{"android":"levelo://app?vid=b3d7a6ac-4ad8-404e-91ae-53d96dbbd9fb","ios":"levelo://app?vid=b3d7a6ac-4ad8-404e-91ae-53d96dbbd9fb"},"vehicle_type_id":"4","last_reported":1751504174,"current_range_meters":22800,"station_id":"st_cvj6sg6p6f1abm77japg","pricing_plan_id":"cebpf4jnsgd1na2vs0mg"},{"bike_id":"fd5453c4-b513-4e66-a5c8-fb9bec973655","system_id":"levelo_inurba_marseille","lat":43.29237,"lon":5.40912,"is_reserved":false,"is_disabled":false,"rental_uris":{"android":"levelo://app?vid=fd5453c4-b513-4e66-a5c8-fb9bec973655","ios":"levelo://app?vid=fd5453c4-b513-4e66-a5c8-fb9bec973655"},"vehicle_type_id":"4","last_reported":1751504174,"current_range_meters":23200,"station_id":"ce4bh192rcd13ifvqdc0","pricing_plan_id":"cebpf4jnsgd1na2vs0mg"},{"bike_id":"338f4d3a-8e33-4b85-a0ca-61aa911cca29","system_id":"levelo_inurba_marseille","lat":43.291992,"lon":5.393336,"is_reserved":false,"is_disabled":false,"rental_uris":{"android":"levelo://app?vid=338f4d3a-8e33-4b85-a0ca-61aa911cca29","ios":"levelo://app?vid=338f4d3a-8e33-4b85-a0ca-61aa911cca29"},"vehicle_type_id":"4","last_reported":1751504174,"current_range_meters":23200,"station_id":"ce4bh192rcd13ifvqdd0","pricing_plan_id":"cebpf4jnsgd1na2vs0mg"},{"bike_id":"1795b805-b66b-48e6-8ad9-70b307bcde03","system_id":"levelo_inurba_marseille","lat":43.28725,"lon":5.39981,"is_reserved":false,"is_disabled":false,"rental_uris":{"android":"levelo://app?vid=1795b805-b66b-48e6-8ad9-70b307bcde03","ios":"levelo://app?vid=1795b805-b66b-48e6-8ad9-70b307bcde03"},"vehicle_type_id":"4","last_reported":1751504174,"current_range_meters":23200,"station_id":"ce4bho92rcd13ifvqh3g","pricing_plan_id":"cebpf4jnsgd1na2vs0mg"},{"bike_id":"132b23ac-fe68-465e-a140-d27c98616424","system_id":"levelo_inurba_marseille","lat":43.287024,"lon":5.399989,"is_reserved":false,"is_disabled":false,"rental_uris":{"android":"levelo://app?vid=132b23ac-fe68-465e-a140-d27c98616424","ios":"levelo://app?vid=132b23ac-fe68-465e-a140-d27c98616424"},"vehicle_type_id":"4","last_reported":1751504174,"current_range_meters":23200,"station_id":"ce4bho92rcd13ifvqh3g","pricing_plan_id":"cebpf4jnsgd1na2vs0mg"},{"bike_id":"65f2c1b8-aea5-44cd-a646-896310662439","system_id":"levelo_inurba_marseille","lat":43.28434,"lon":5.39184,"is_reserved":false,"is_disabled":false,"rental_uris":{"android":"levelo://app?vid=65f2c1b8-aea5-44cd-a646-896310662439","ios":"levelo://app?vid=65f2c1b8-aea5-44cd-a646-896310662439"},"vehicle_type_id":"4","last_reported":1751504174,"current_range_meters":23200,"station_id":"ce4bhoh2rcd13ifvqh5g","pricing_plan_id":"cebpf4jnsgd1na2vs0mg"},{"bike_id":"7be93d05-2405-4cfe-a0c4-c6f3670e10c7","system_id":"levelo_inurba_marseille","lat":43.211886,"lon":5.350672,"is_reserved":false,"is_disabled":false,"rental_uris":{"android":"levelo://app?vid=7be93d05-2405-4cfe-a0c4-c6f3670e10c7","ios":"levelo://app?vid=7be93d05-2405-4cfe-a0c4-c6f3670e10c7"},"vehicle_type_id":"4","last_reported":1751504174,"current_range_meters":23200,"station_id":"st_cvj6sg6p6f1abm77japg","pricing_plan_id":"cebpf4jnsgd1na2vs0mg"},{"bike_id":"833bb9ff-7b15-4a8e-91f3-ff216ef28553","system_id":"levelo_inurba_marseille","lat":43.31669,"lon":5.37509,"is_reserved":false,"is_disabled":false,"rental_uris":{"android":"levelo://app?vid=833bb9ff-7b15-4a8e-91f3-ff216ef28553","ios":"levelo://app?vid=833bb9ff-7b15-4a8e-91f3-ff216ef28553"},"vehicle_type_id":"4","last_reported":1751504174,"current_range_meters":24000,"station_id":"","pricing_plan_id":"cebpf4jnsgd1na2vs0mg"},{"bike_id":"4b8da722-ee9e-48a4-a5e5-3a8a10364708","system_id":"levelo_inurba_marseille","lat":43.312219,"lon":5.378214,"is_reserved":false,"is_disabled":false,"rental_uris":{"android":"levelo://app?vid=4b8da722-ee9e-48a4-a5e5-3a8a10364708","ios":"levelo://app?vid=4b8da722-ee9e-48a4-a5e5-3a8a10364708"},"vehicle_type_id":"4","last_reported":1751504174,"current_range_meters":24000,"station_id":"","pricing_plan_id":"cebpf4jnsgd1na2vs0mg"},{"bike_id":"f6ddf5a4-4696-4262-8096-871ce854aca5","system_id":"levelo_inurba_marseille","lat":43.31321,"lon":5.39733,"is_reserved":false,"is_disabled":false,"rental_uris":{"android":"levelo://app?vid=f6ddf5a4-4696-4262-8096-871ce854aca5","ios":"levelo://app?vid=f6ddf5a4-4696-4262-8096-871ce854aca5"},"vehicle_type_id":"4","last_reported":1751504174,"current_range_meters":24000,"station_id":"ce4bgvp2rcd13ifvqcu0","pricing_plan_id":"cebpf4jnsgd1na2vs0mg"},{"bike_id":"94c0fd4b-8c02-4dc9-bbff-b64994f05cb8","system_id":"levelo_inurba_marseille","lat":43.30136,"lon":5.39864,"is_reserved":false,"is_disabled":false,"rental_uris":{"android":"levelo://app?vid=94c0fd4b-8c02-4dc9-bbff-b64994f05cb8","ios":"levelo://app?vid=94c0fd4b-8c02-4dc9-bbff-b64994f05cb8"},"vehicle_type_id":"4","last_reported":1751504174,"current_range_meters":24000,"station_id":"ce4bh0h2rcd13ifvqd40","pricing_plan_id":"cebpf4jnsgd1na2vs0mg"},{"bike_id":"2494a4ea-d0bd-400e-9f6a-71e035c047f7","system_id":"levelo_inurba_marseille","lat":43.30656,"lon":5.40105,"is_reserved":false,"is_disabled":false,"rental_uris":{"android":"levelo://app?vid=2494a4ea-d0bd-400e-9f6a-71e035c047f7","ios":"levelo://app?vid=2494a4ea-d0bd-400e-9f6a-71e035c047f7"},"vehicle_type_id":"4","last_reported":1751504174,"current_range_meters":24000,"station_id":"ce4bh112rcd13ifvqda0","pricing_plan_id":"cebpf4jnsgd1na2vs0mg"},{"bike_id":"c40be66c-25e4-4d54-89cf-a2102bf1a64c","system_id":"levelo_inurba_marseille","lat":43.2955,"lon":5.422862,"is_reserved":false,"is_disabled":false,"rental_uris":{"android":"levelo://app?vid=c40be66c-25e4-4d54-89cf-a2102bf1a64c","ios":"levelo://app?vid=c40be66c-25e4-4d54-89cf-a2102bf1a64c"},"vehicle_type_id":"4","last_reported":1751504174,"current_range_meters":24000,"station_id":"ce4bhph2rcd13ifvqhdg","pricing_plan_id":"cebpf4jnsgd1na2vs0mg"},{"bike_id":"205ecc0b-9432-4620-98d2-864e84b14e39","system_id":"levelo_inurba_marseille","lat":43.32342,"lon":5.40625,"is_reserved":false,"is_disabled":false,"rental_uris":{"android":"levelo://app?vid=205ecc0b-9432-4620-98d2-864e84b14e39","ios":"levelo://app?vid=205ecc0b-9432-4620-98d2-864e84b14e39"},"vehicle_type_id":"4","last_reported":1751504174,"current_range_meters":24000,"station_id":"ce4bhq92rcd13ifvqhjg","pricing_plan_id":"cebpf4jnsgd1na2vs0mg"},{"bike_id":"c13c93ac-6b62-443c-9e36-caf61b27325a","system_id":"levelo_inurba_marseille","lat":43.211894,"lon":5.350701,"is_reserved":false,"is_disabled":false,"rental_uris":{"android":"levelo://app?vid=c13c93ac-6b62-443c-9e36-caf61b27325a","ios":"levelo://app?vid=c13c93ac-6b62-443c-9e36-caf61b27325a"},"vehicle_type_id":"4","last_reported":1751504174,"current_range_meters":24000,"station_id":"st_cvj6sg6p6f1abm77japg","pricing_plan_id":"cebpf4jnsgd1na2vs0mg"},{"bike_id":"6381fed5-8a74-48cb-bdfc-e16a9a5ba26a","system_id":"levelo_inurba_marseille","lat":43.307747,"lon":5.376655,"is_reserved":false,"is_disabled":false,"rental_uris":{"android":"levelo://app?vid=6381fed5-8a74-48cb-bdfc-e16a9a5ba26a","ios":"levelo://app?vid=6381fed5-8a74-48cb-bdfc-e16a9a5ba26a"},"vehicle_type_id":"4","last_reported":1751504174,"current_range_meters":24400,"station_id":"ce4bgv92rcd13ifvqcq0","pricing_plan_id":"cebpf4jnsgd1na2vs0mg"},{"bike_id":"37aacdef-4a48-473e-a624-ef3a35f1b191","system_id":"levelo_inurba_marseille","lat":43.30928,"lon":5.40148,"is_reserved":false,"is_disabled":false,"rental_uris":{"android":"levelo://app?vid=37aacdef-4a48-473e-a624-ef3a35f1b191","ios":"levelo://app?vid=37aacdef-4a48-473e-a624-ef3a35f1b191"},"vehicle_type_id":"4","last_reported":1751504174,"current_range_meters":24400,"station_id":"ce4bgvp2rcd13ifvqct0","pricing_plan_id":"cebpf4jnsgd1na2vs0mg"},{"bike_id":"d86e72b7-c13d-43b4-8f47-cdde3cbeff94","system_id":"levelo_inurba_marseille","lat":43.30927,"lon":5.40153,"is_reserved":false,"is_disabled":false,"rental_uris":{"android":"levelo://app?vid=d86e72b7-c13d-43b4-8f47-cdde3cbeff94","ios":"levelo://app?vid=d86e72b7-c13d-43b4-8f47-cdde3cbeff94"},"vehicle_type_id":"4","last_reported":1751504174,"current_range_meters":24400,"station_id":"ce4bgvp2rcd13ifvqct0","pricing_plan_id":"cebpf4jnsgd1na2vs0mg"},{"bike_id":"c17a984b-ae1a-464a-b1cd-2e2050b63db0","system_id":"levelo_inurba_marseille","lat":43.29528,"lon":5.39407,"is_reserved":false,"is_disabled":false,"rental_uris":{"android":"levelo://app?vid=c17a984b-ae1a-464a-b1cd-2e2050b63db0","ios":"levelo://app?vid=c17a984b-ae1a-464a-b1cd-2e2050b63db0"},"vehicle_type_id":"4","last_reported":1751504174,"current_range_meters":24400,"station_id":"ce4bh292rcd13ifvqdf0","pricing_plan_id":"cebpf4jnsgd1na2vs0mg"},{"bike_id":"68a945f7-a2d9-441e-8cb0-b97fbae07d8f","system_id":"levelo_inurba_marseille","lat":43.26546,"lon":5.39023,"is_reserved":false,"is_disabled":false,"rental_uris":{"android":"levelo://app?vid=68a945f7-a2d9-441e-8cb0-b97fbae07d8f","ios":"levelo://app?vid=68a945f7-a2d9-441e-8cb0-b97fbae07d8f"},"vehicle_type_id":"4","last_reported":1751504174,"current_range_meters":24400,"station_id":"ce4bhe12rcd13ifvqf30","pricing_plan_id":"cebpf4jnsgd1na2vs0mg"},{"bike_id":"390a291e-e8cd-4674-b52d-bba1eade14e3","system_id":"levelo_inurba_marseille","lat":43.25116,"lon":5.40377,"is_reserved":false,"is_disabled":false,"rental_uris":{"android":"levelo://app?vid=390a291e-e8cd-4674-b52d-bba1eade14e3","ios":"levelo://app?vid=390a291e-e8cd-4674-b52d-bba1eade14e3"},"vehicle_type_id":"4","last_reported":1751504174,"current_range_meters":24400,"station_id":"ce4bhlh2rcd13ifvqgig","pricing_plan_id":"cebpf4jnsgd1na2vs0mg"},{"bike_id":"0f7c232c-2eba-473d-bc9d-bab441c952a3","system_id":"levelo_inurba_marseille","lat":43.31362,"lon":5.38498,"is_reserved":false,"is_disabled":false,"rental_uris":{"android":"levelo://app?vid=0f7c232c-2eba-473d-bc9d-bab441c952a3","ios":"levelo://app?vid=0f7c232c-2eba-473d-bc9d-bab441c952a3"},"vehicle_type_id":"4","last_reported":1751504174,"current_range_meters":24800,"station_id":"ce4bgt92rcd13ifvqcf0","pricing_plan_id":"cebpf4jnsgd1na2vs0mg"},{"bike_id":"e0b8641d-4ac5-49ce-a85b-a9822dd7fff2","system_id":"levelo_inurba_marseille","lat":43.31365,"lon":5.385,"is_reserved":false,"is_disabled":false,"rental_uris":{"android":"levelo://app?vid=e0b8641d-4ac5-49ce-a85b-a9822dd7fff2","ios":"levelo://app?vid=e0b8641d-4ac5-49ce-a85b-a9822dd7fff2"},"vehicle_type_id":"4","last_reported":1751504174,"current_range_meters":24800,"station_id":"ce4bgt92rcd13ifvqcf0","pricing_plan_id":"cebpf4jnsgd1na2vs0mg"},{"bike_id":"ac0d6ace-e8f9-427f-8032-655cf2d01167","system_id":"levelo_inurba_marseille","lat":43.31079,"lon":5.38361,"is_reserved":false,"is_disabled":false,"rental_uris":{"android":"levelo://app?vid=ac0d6ace-e8f9-427f-8032-655cf2d01167","ios":"levelo://app?vid=ac0d6ace-e8f9-427f-8032-655cf2d01167"},"vehicle_type_id":"4","last_reported":1751504174,"current_range_meters":24800,"station_id":"ce4bgv92rcd13ifvqcr0","pricing_plan_id":"cebpf4jnsgd1na2vs0mg"},{"bike_id":"3ffb30c0-2d77-4127-8f4a-388ca1348657","system_id":"levelo_inurba_marseille","lat":43.281008,"lon":5.378343,"is_reserved":false,"is_disabled":false,"rental_uris":{"android":"levelo://app?vid=3ffb30c0-2d77-4127-8f4a-388ca1348657","ios":"levelo://app?vid=3ffb30c0-2d77-4127-8f4a-388ca1348657"},"vehicle_type_id":"4","last_reported":1751504174,"current_range_meters":24800,"station_id":"ce4bha12rcd13ifvqee0","pricing_plan_id":"cebpf4jnsgd1na2vs0mg"},{"bike_id":"d847d3fd-af81-4db7-ac5f-9bb08855cffe","system_id":"levelo_inurba_marseille","lat":43.28958,"lon":5.36404,"is_reserved":false,"is_disabled":false,"rental_uris":{"android":"levelo://app?vid=d847d3fd-af81-4db7-ac5f-9bb08855cffe","ios":"levelo://app?vid=d847d3fd-af81-4db7-ac5f-9bb08855cffe"},"vehicle_type_id":"4","last_reported":1751504174,"current_range_meters":24800,"station_id":"ce4bhc92rcd13ifvqetg","pricing_plan_id":"cebpf4jnsgd1na2vs0mg"},{"bike_id":"c4368a78-1796-4a05-bdf8-6d3f1745cfe1","system_id":"levelo_inurba_marseille","lat":43.27506,"lon":5.42445,"is_reserved":false,"is_disabled":false,"rental_uris":{"android":"levelo://app?vid=c4368a78-1796-4a05-bdf8-6d3f1745cfe1","ios":"levelo://app?vid=c4368a78-1796-4a05-bdf8-6d3f1745cfe1"},"vehicle_type_id":"4","last_reported":1751504174,"current_range_meters":24800,"station_id":"ce4bhn92rcd13ifvqgrg","pricing_plan_id":"cebpf4jnsgd1na2vs0mg"},{"bike_id":"7033ce56-b50f-4add-88f8-f37cbfd878d8","system_id":"levelo_inurba_marseille","lat":43.21753,"lon":5.34614,"is_reserved":false,"is_disabled":false,"rental_uris":{"android":"levelo://app?vid=7033ce56-b50f-4add-88f8-f37cbfd878d8","ios":"levelo://app?vid=7033ce56-b50f-4add-88f8-f37cbfd878d8"},"vehicle_type_id":"4","last_reported":1751504174,"current_range_meters":24800,"station_id":"st_cvj6r9ubvosntc0bgbag","pricing_plan_id":"cebpf4jnsgd1na2vs0mg"},{"bike_id":"5f470112-8139-4343-b082-08a74e0b7074","system_id":"levelo_inurba_marseille","lat":43.211914,"lon":5.350744,"is_reserved":false,"is_disabled":false,"rental_uris":{"android":"levelo://app?vid=5f470112-8139-4343-b082-08a74e0b7074","ios":"levelo://app?vid=5f470112-8139-4343-b082-08a74e0b7074"},"vehicle_type_id":"4","last_reported":1751504174,"current_range_meters":24800,"station_id":"st_cvj6sg6p6f1abm77japg","pricing_plan_id":"cebpf4jnsgd1na2vs0mg"},{"bike_id":"7824bf20-52de-4460-aa13-c5e459f36d09","system_id":"levelo_inurba_marseille","lat":43.31077,"lon":5.38351,"is_reserved":false,"is_disabled":false,"rental_uris":{"android":"levelo://app?vid=7824bf20-52de-4460-aa13-c5e459f36d09","ios":"levelo://app?vid=7824bf20-52de-4460-aa13-c5e459f36d09"},"vehicle_type_id":"4","last_reported":1751504174,"current_range_meters":25200,"station_id":"ce4bgv92rcd13ifvqcr0","pricing_plan_id":"cebpf4jnsgd1na2vs0mg"},{"bike_id":"90e54bb1-9992-4d02-8dd8-b193ce72b677","system_id":"levelo_inurba_marseille","lat":43.30642,"lon":5.40074,"is_reserved":false,"is_disabled":false,"rental_uris":{"android":"levelo://app?vid=90e54bb1-9992-4d02-8dd8-b193ce72b677","ios":"levelo://app?vid=90e54bb1-9992-4d02-8dd8-b193ce72b677"},"vehicle_type_id":"4","last_reported":1751504174,"current_range_meters":25200,"station_id":"ce4bh112rcd13ifvqda0","pricing_plan_id":"cebpf4jnsgd1na2vs0mg"},{"bike_id":"eef96f5e-da5d-4fc3-9a38-9612055d2c39","system_id":"levelo_inurba_marseille","lat":43.284052,"lon":5.375118,"is_reserved":false,"is_disabled":false,"rental_uris":{"android":"levelo://app?vid=eef96f5e-da5d-4fc3-9a38-9612055d2c39","ios":"levelo://app?vid=eef96f5e-da5d-4fc3-9a38-9612055d2c39"},"vehicle_type_id":"4","last_reported":1751504174,"current_range_meters":25200,"station_id":"ce4bh412rcd13ifvqds0","pricing_plan_id":"cebpf4jnsgd1na2vs0mg"},{"bike_id":"3092b187-56de-41a6-8601-30a9f9a7bb4a","system_id":"levelo_inurba_marseille","lat":43.28918,"lon":5.38398,"is_reserved":false,"is_disabled":false,"rental_uris":{"android":"levelo://app?vid=3092b187-56de-41a6-8601-30a9f9a7bb4a","ios":"levelo://app?vid=3092b187-56de-41a6-8601-30a9f9a7bb4a"},"vehicle_type_id":"4","last_reported":1751504174,"current_range_meters":25200,"station_id":"ce4bh612rcd13ifvqe6g","pricing_plan_id":"cebpf4jnsgd1na2vs0mg"},{"bike_id":"f2b61d89-6d45-4bdd-a875-d861c9d1bacb","system_id":"levelo_inurba_marseille","lat":43.32288,"lon":5.38299,"is_reserved":false,"is_disabled":false,"rental_uris":{"android":"levelo://app?vid=f2b61d89-6d45-4bdd-a875-d861c9d1bacb","ios":"levelo://app?vid=f2b61d89-6d45-4bdd-a875-d861c9d1bacb"},"vehicle_type_id":"4","last_reported":1751504174,"current_range_meters":25200,"station_id":"ce4bhr12rcd13ifvqhqg","pricing_plan_id":"cebpf4jnsgd1na2vs0mg"},{"bike_id":"a3dca0ed-2dea-423c-a46a-e35b06647b39","system_id":"levelo_inurba_marseille","lat":43.311695,"lon":5.387146,"is_reserved":false,"is_disabled":false,"rental_uris":{"android":"levelo://app?vid=a3dca0ed-2dea-423c-a46a-e35b06647b39","ios":"levelo://app?vid=a3dca0ed-2dea-423c-a46a-e35b06647b39"},"vehicle_type_id":"4","last_reported":1751504174,"current_range_meters":25600,"station_id":"ce4bgv12rcd13ifvqcp0","pricing_plan_id":"cebpf4jnsgd1na2vs0mg"},{"bike_id":"ab82951c-2d86-4299-aa1f-8d2f5503ed2d","system_id":"levelo_inurba_marseille","lat":43.31066,"lon":5.38357,"is_reserved":false,"is_disabled":false,"rental_uris":{"android":"levelo://app?vid=ab82951c-2d86-4299-aa1f-8d2f5503ed2d","ios":"levelo://app?vid=ab82951c-2d86-4299-aa1f-8d2f5503ed2d"},"vehicle_type_id":"4","last_reported":1751504174,"current_range_meters":25600,"station_id":"ce4bgv92rcd13ifvqcr0","pricing_plan_id":"cebpf4jnsgd1na2vs0mg"},{"bike_id":"b01d100e-1ff0-430e-9706-16bc7cdb8cbf","system_id":"levelo_inurba_marseille","lat":43.30435,"lon":5.39747,"is_reserved":false,"is_disabled":false,"rental_uris":{"android":"levelo://app?vid=b01d100e-1ff0-430e-9706-16bc7cdb8cbf","ios":"levelo://app?vid=b01d100e-1ff0-430e-9706-16bc7cdb8cbf"},"vehicle_type_id":"4","last_reported":1751504174,"current_range_meters":25600,"station_id":"ce4bh092rcd13ifvqd20","pricing_plan_id":"cebpf4jnsgd1na2vs0mg"},{"bike_id":"e51977de-b9cf-4f2b-a00f-29f9e1f8ce61","system_id":"levelo_inurba_marseille","lat":43.28847,"lon":5.39338,"is_reserved":false,"is_disabled":false,"rental_uris":{"android":"levelo://app?vid=e51977de-b9cf-4f2b-a00f-29f9e1f8ce61","ios":"levelo://app?vid=e51977de-b9cf-4f2b-a00f-29f9e1f8ce61"},"vehicle_type_id":"4","last_reported":1751504174,"current_range_meters":25600,"station_id":"ce4bh2p2rcd13ifvqdi0","pricing_plan_id":"cebpf4jnsgd1na2vs0mg"},{"bike_id":"ce8ef9a3-3130-4090-b8c2-a8ff34d96f7e","system_id":"levelo_inurba_marseille","lat":43.29272,"lon":5.4013,"is_reserved":false,"is_disabled":false,"rental_uris":{"android":"levelo://app?vid=ce8ef9a3-3130-4090-b8c2-a8ff34d96f7e","ios":"levelo://app?vid=ce8ef9a3-3130-4090-b8c2-a8ff34d96f7e"},"vehicle_type_id":"4","last_reported":1751504174,"current_range_meters":25600,"station_id":"ce4bh312rcd13ifvqdk0","pricing_plan_id":"cebpf4jnsgd1na2vs0mg"},{"bike_id":"aa3a62de-0397-48e2-bdc3-63171b67601b","system_id":"levelo_inurba_marseille","lat":43.2841,"lon":5.375165,"is_reserved":false,"is_disabled":false,"rental_uris":{"android":"levelo://app?vid=aa3a62de-0397-48e2-bdc3-63171b67601b","ios":"levelo://app?vid=aa3a62de-0397-48e2-bdc3-63171b67601b"},"vehicle_type_id":"4","last_reported":1751504174,"current_range_meters":25600,"station_id":"ce4bh412rcd13ifvqds0","pricing_plan_id":"cebpf4jnsgd1na2vs0mg"},{"bike_id":"c4a0137e-a333-4bf2-be2c-dc9d4d53e9f7","system_id":"levelo_inurba_marseille","lat":43.21189,"lon":5.35076,"is_reserved":false,"is_disabled":false,"rental_uris":{"android":"levelo://app?vid=c4a0137e-a333-4bf2-be2c-dc9d4d53e9f7","ios":"levelo://app?vid=c4a0137e-a333-4bf2-be2c-dc9d4d53e9f7"},