{"last_updated":1721660938,"ttl":30,"version":"2.2","data":{"bikes":[{"bike_id":"a2610bec-28cf-4e46-bfa7-b619ea248969","system_id":"levelo_inurba_marseille","lat":43.31257,"lon":5.36767,"is_reserved":false,"is_disabled":false,"rental_uris":{"android":"levelo://app?vid=a2610bec-28cf-4e46-bfa7-b619ea248969","ios":"levelo://app?vid=a2610bec-28cf-4e46-bfa7-b619ea248969"},"vehicle_type_id":"4","last_reported":1721660938,"current_range_meters":12400,"station_id":"","pricing_plan_id":"cebpf4jnsgd1na2vs0mg"},{"bike_id":"870324fd-d8b7-412f-b030-7e1e8ea0da21","system_id":"levelo_inurba_marseille","lat":43.312239,"lon":5.368562,"is_reserved":false,"is_disabled":false,"rental_uris":{"android":"levelo://app?vid=870324fd-d8b7-412f-b030-7e1e8ea0da21","ios":"levelo://app?vid=870324fd-d8b7-412f-b030-7e1e8ea0da21"},"vehicle_type_id":"4","last_reported":1721660938,"current_range_meters":29600,"station_id":"ce4bgl92rcd13ifvqbq0","pricing_plan_id":"cebpf4jnsgd1na2vs0mg"},{"bike_id":"9f932b4e-7e79-4494-b63e-857ad0401baf","system_id":"levelo_inurba_marseille","lat":43.312239,"lon":5.368562,"is_reserved":false,"is_disabled":false,"rental_uris":{"android":"levelo://app?vid=9f932b4e-7e79-4494-b63e-857ad0401baf","ios":"levelo://app?vid=9f932b4e-7e79-4494-b63e-857ad0401baf"},"vehicle_type_id":"4","last_reported":1721660938,"current_range_meters":4400,"station_id":"ce4bgl92rcd13ifvqbq0","pricing_plan_id":"cebpf4jnsgd1na2vs0mg"},{"bike_id":"10fa87e5-c092-43be-8e98-e3b37fa06878","system_id":"levelo_inurba_marseille","lat":43.312239,"lon":5.368562,"is_reserved":false,"is_disabled":false,"rental_uris":{"android":"levelo://app?vid=10fa87e5-c092-43be-8e98-e3b37fa06878","ios":"levelo://app?vid=10fa87e5-c092-43be-8e98-e3b37fa06878"},"vehicle_type_id":"4","last_reported":1721660938,"current_range_meters":26800,"station_id":"ce4bgl92rcd13ifvqbq0","pricing_plan_id":"cebpf4jnsgd1na2vs0mg"},{"bike_id":"35631806-4aeb-43d5-b9b5-6b92147814b5","system_id":"levelo_inurba_marseille","lat":43.312239,"lon":5.368562,"is_reserved":false,"is_disabled":false,"rental_uris":{"android":"levelo://app?vid=35631806-4aeb-43d5-b9b5-6b92147814b5","ios":"levelo://app?vid=35631806-4aeb-43d5-b9b5-6b92147814b5"},"vehicle_type_id":"4","last_reported":1721660938,"current_range_meters":31600,"station_id":"ce4bgl92rcd13ifvqbq0","pricing_plan_id":"cebpf4jnsgd1na2vs0mg"},{"bike_id":"12c02ca2-07b1-46a2-8f10-d2751257ea2e","system_id":"levelo_inurba_marseille","lat":43.3056,"lon":5.365415,"is_reserved":false,"is_disabled":false,"rental_uris":{"android":"levelo://app?vid=12c02ca2-07b1-46a2-8f10-d2751257ea2e","ios":"levelo://app?vid=12c02ca2-07b1-46a2-8f10-d2751257ea2e"},"vehicle_type_id":"4","last_reported":1721660938,"current_range_meters":0,"station_id":"ce4bgs12rcd13ifvqcag","pricing_plan_id":"cebpf4jnsgd1na2vs0mg"},{"bike_id":"26887aa6-4423-480d-8b68-10c0b0c3f7bb","system_id":"levelo_inurba_marseille","lat":43.305714,"lon":5.365633,"is_reserved":false,"is_disabled":false,"rental_uris":{"android":"levelo://app?vid=26887aa6-4423-480d-8b68-10c0b0c3f7bb","ios":"levelo://app?vid=26887aa6-4423-480d-8b68-10c0b0c3f7bb"},"vehicle_type_id":"4","last_reported":1721660938,"current_range_meters":0,"station_id":"ce4bgs12rcd13ifvqcag","pricing_plan_id":"cebpf4jnsgd1na2vs0mg"},{"bike_id":"0475fc04-30a6-4927-99f5-1b025aeece76","system_id":"levelo_inurba_marseille","lat":43.315636,"lon":5.376453,"is_reserved":false,"is_disabled":false,"rental_uris":{"android":"levelo://app?vid=0475fc04-30a6-4927-99f5-1b025aeece76","ios":"levelo://app?vid=0475fc04-30a6-4927-99f5-1b025aeece76"},"vehicle_type_id":"4","last_reported":1721660938,"current_range_meters":3600,"station_id":"","pricing_plan_id":"cebpf4jnsgd1na2vs0mg"},{"bike_id":"42625468-dfe9-477b-b5c3-c911166beb90","system_id":"levelo_inurba_marseille","lat":43.305989,"lon":5.37225,"is_reserved":false,"is_disabled":false,"rental_uris":{"android":"levelo://app?vid=42625468-dfe9-477b-b5c3-c911166beb90","ios":"levelo://app?vid=42625468-dfe9-477b-b5c3-c911166beb90"},"vehicle_type_id":"4","last_reported":1721660938,"current_range_meters":26800,"station_id":"ce4bgqh2rcd13ifvqc4g","pricing_plan_id":"cebpf4jnsgd1na2vs0mg"},{"bike_id":"0f75b6fe-930b-49ae-bdef-2c0c5fb7e767","system_id":"levelo_inurba_marseille","lat":43.305989,"lon":5.37225,"is_reserved":false,"is_disabled":false,"rental_uris":{"android":"levelo://app?vid=0f75b6fe-930b-49ae-bdef-2c0c5fb7e767","ios":"levelo://app?vid=0f75b6fe-930b-49ae-bdef-2c0c5fb7e767"},"vehicle_type_id":"4","last_reported":1721660938,"current_range_meters":29200,"station_id":"ce4bgqh2rcd13ifvqc4g","pricing_plan_id":"cebpf4jnsgd1na2vs0mg"},{"bike_id":"25cd3423-38ad-43fd-93b9-0be10b16e87b","system_id":"levelo_inurba_marseille","lat":43.305989,"lon":5.37225,"is_reserved":false,"is_disabled":false,"rental_uris":{"android":"levelo://app?vid=25cd3423-38ad-43fd-93b9-0be10b16e87b","ios":"levelo://app?vid=25cd3423-38ad-43fd-93b9-0be10b16e87b"},"vehicle_type_id":"4","last_reported":1721660938,"current_range_meters":22400,"station_id":"ce4bgqh2rcd13ifvqc4g","pricing_plan_id":"cebpf4jnsgd1na2vs0mg"},{"bike_id":"35bf1639-6860-4425-ba33-3ec0fc205a5f","system_id":"levelo_inurba_marseille","lat":43.305989,"lon":5.37225,"is_reserved":false,"is_disabled":false,"rental_uris":{"android":"levelo://app?vid=35bf1639-6860-4425-ba33-3ec0fc205a5f","ios":"levelo://app?vid=35bf1639-6860-4425-ba33-3ec0fc205a5f"},"vehicle_type_id":"4","last_reported":1721660938,"current_range_meters":14800,"station_id":"ce4bgqh2rcd13ifvqc4g","pricing_plan_id":"cebpf4jnsgd1na2vs0mg"},{"bike_id":"c466d685-6557-4976-8641-80f2bc0e46a8","system_id":"levelo_inurba_marseille","lat":43.305989,"lon":5.37225,"is_reserved":false,"is_disabled":false,"rental_uris":{"android":"levelo://app?vid=c466d685-6557-4976-8641-80f2bc0e46a8","ios":"levelo://app?vid=c466d685-6557-4976-8641-80f2bc0e46a8"},"vehicle_type_id":"4","last_reported":1721660938,"current_range_meters":26400,"station_id":"ce4bgqh2rcd13ifvqc4g","pricing_plan_id":"cebpf4jnsgd1na2vs0mg"},{"bike_id":"0a82c713-05d7-4bc1-b271-08429b3d9aaa","system_id":"levelo_inurba_marseille","lat":43.311125,"lon":5.377624,"is_reserved":false,"is_disabled":false,"rental_uris":{"android":"levelo://app?vid=0a82c713-05d7-4bc1-b271-08429b3d9aaa","ios":"levelo://app?vid=0a82c713-05d7-4bc1-b271-08429b3d9aaa"},"vehicle_type_id":"4","last_reported":1721660938,"current_range_meters":29600,"station_id":"ce4bgt92rcd13ifvqcg0","pricing_plan_id":"cebpf4jnsgd1na2vs0mg"},{"bike_id":"466a6d03-f445-4ee5-843e-68656dd18e11","system_id":"levelo_inurba_marseille","lat":43.307945,"lon":5.376487,"is_reserved":false,"is_disabled":false,"rental_uris":{"android":"levelo://app?vid=466a6d03-f445-4ee5-843e-68656dd18e11","ios":"levelo://app?vid=466a6d03-f445-4ee5-843e-68656dd18e11"},"vehicle_type_id":"4","last_reported":1721660938,"current_range_meters":8800,"station_id":"ce4bgv92rcd13ifvqcq0","pricing_plan_id":"cebpf4jnsgd1na2vs0mg"},{"bike_id":"935debec-bc12-4685-a241-6ade3b71bec0","system_id":"levelo_inurba_marseille","lat":43.311464,"lon":5.379489,"is_reserved":false,"is_disabled":false,"rental_uris":{"android":"levelo://app?vid=935debec-bc12-4685-a241-6ade3b71bec0","ios":"levelo://app?vid=935debec-bc12-4685-a241-6ade3b71bec0"},"vehicle_type_id":"4","last_reported":1721660938,"current_range_meters":4800,"station_id":"","pricing_plan_id":"cebpf4jnsgd1na2vs0mg"},{"bike_id":"cbb694a8-0929-4097-aae8-82a8ab3bacc5","system_id":"levelo_inurba_marseille","lat":43.315289,"lon":5.380349,"is_reserved":false,"is_disabled":false,"rental_uris":{"android":"levelo://app?vid=cbb694a8-0929-4097-aae8-82a8ab3bacc5","ios":"levelo://app?vid=cbb694a8-0929-4097-aae8-82a8ab3bacc5"},"vehicle_type_id":"4","last_reported":1721660938,"current_range_meters":30800,"station_id":"ce4bhsp2rcd13ifvqi50","pricing_plan_id":"cebpf4jnsgd1na2vs0mg"},{"bike_id":"096851b0-8662-4114-aa3e-5108637b5468","system_id":"levelo_inurba_marseille","lat":43.301939,"lon":5.366286,"is_reserved":false,"is_disabled":false,"rental_uris":{"android":"levelo://app?vid=096851b0-8662-4114-aa3e-5108637b5468","ios":"levelo://app?vid=096851b0-8662-4114-aa3e-5108637b5468"},"vehicle_type_id":"4","last_reported":1721660938,"current_range_meters":7600,"station_id":"ce4bgrh2rcd13ifvqc8g","pricing_plan_id":"cebpf4jnsgd1na2vs0mg"},{"bike_id":"29fe8393-57fa-4ecf-a2b1-9f814145310d","system_id":"levelo_inurba_marseille","lat":43.308012,"lon":5.381511,"is_reserved":false,"is_disabled":false,"rental_uris":{"android":"levelo://app?vid=29fe8393-57fa-4ecf-a2b1-9f814145310d","ios":"levelo://app?vid=29fe8393-57fa-4ecf-a2b1-9f814145310d"},"vehicle_type_id":"4","last_reported":1721660938,"current_range_meters":0,"station_id":"ce4bgt12rcd13ifvqce0","pricing_plan_id":"cebpf4jnsgd1na2vs0mg"},{"bike_id":"22652296-704f-40aa-a180-5e2686694338","system_id":"levelo_inurba_marseille","lat":43.308012,"lon":5.381511,"is_reserved":false,"is_disabled":false,"rental_uris":{"android":"levelo://app?vid=22652296-704f-40aa-a180-5e2686694338","ios":"levelo://app?vid=22652296-704f-40aa-a180-5e2686694338"},"vehicle_type_id":"4","last_reported":1721660938,"current_range_meters":19200,"station_id":"ce4bgt12rcd13ifvqce0","pricing_plan_id":"cebpf4jnsgd1na2vs0mg"},{"bike_id":"212d0609-803a-4913-910b-6ea4d48749ba","system_id":"levelo_inurba_marseille","lat":43.308012,"lon":5.381511,"is_reserved":false,"is_disabled":false,"rental_uris":{"android":"levelo://app?vid=212d0609-803a-4913-910b-6ea4d48749ba","ios":"levelo://app?vid=212d0609-803a-4913-910b-6ea4d48749ba"},"vehicle_type_id":"4","last_reported":1721660938,"current_range_meters":16800,"station_id":"ce4bgt12rcd13ifvqce0","pricing_plan_id":"cebpf4jnsgd1na2vs0mg"},{"bike_id":"9ddb14e0-ec2a-49ba-881e-eb94bdf52b47","system_id":"levelo_inurba_marseille","lat":43.324771,"lon":5.36557,"is_reserved":false,"is_disabled":false,"rental_uris":{"android":"levelo://app?vid=9ddb14e0-ec2a-49ba-881e-eb94bdf52b47","ios":"levelo://app?vid=9ddb14e0-ec2a-49ba-881e-eb94bdf52b47"},"vehicle_type_id":"4","last_reported":1721660938,"current_range_meters":7200,"station_id":"ce4bhs12rcd13ifvqhvg","pricing_plan_id":"cebpf4jnsgd1na2vs0mg"},{"bike_id":"96c73b6c-d089-41ad-bf6d-e9683d76a987","system_id":"levelo_inurba_marseille","lat":43.308012,"lon":5.381511,"is_reserved":false,"is_disabled":false,"rental_uris":{"android":"levelo://app?vid=96c73b6c-d089-41ad-bf6d-e9683d76a987","ios":"levelo://app?vid=96c73b6c-d089-41ad-bf6d-e9683d76a987"},"vehicle_type_id":"4","last_reported":1721660938,"current_range_meters":22800,"station_id":"ce4bgt12rcd13ifvqce0","pricing_plan_id":"cebpf4jnsgd1na2vs0mg"},{"bike_id":"6917d33c-f0df-43fe-a3b6-662dd8f842d8","system_id":"levelo_inurba_marseille","lat":43.308012,"lon":5.381511,"is_reserved":false,"is_disabled":false,"rental_uris":{"android":"levelo://app?vid=6917d33c-f0df-43fe-a3b6-662dd8f842d8","ios":"levelo://app?vid=6917d33c-f0df-43fe-a3b6-662dd8f842d8"},"vehicle_type_id":"4","last_reported":1721660938,"current_range_meters":8800,"station_id":"ce4bgt12rcd13ifvqce0","pricing_plan_id":"cebpf4jnsgd1na2vs0mg"},{"bike_id":"88a0053a-33c9-432e-aaa7-0f3efc9a72a2","system_id":"levelo_inurba_marseille","lat":43.304606,"lon":5.379026,"is_reserved":false,"is_disabled":false,"rental_uris":{"android":"levelo://app?vid=88a0053a-33c9-432e-aaa7-0f3efc9a72a2","ios":"levelo://app?vid=88a0053a-33c9-432e-aaa7-0f3efc9a72a2"},"vehicle_type_id":"4","last_reported":1721660938,"current_range_meters":9600,"station_id":"ce4bgup2rcd13ifvqcn0","pricing_plan_id":"cebpf4jnsgd1na2vs0mg"},{"bike_id":"c9c7bb68-97a4-45b0-b606-b63f119e5db6","system_id":"levelo_inurba_marseille","lat":43.304606,"lon":5.379026,"is_reserved":false,"is_disabled":false,"rental_uris":{"android":"levelo://app?vid=c9c7bb68-97a4-45b0-b606-b63f119e5db6","ios":"levelo://app?vid=c9c7bb68-97a4-45b0-b606-b63f119e5db6"},"vehicle_type_id":"4","last_reported":1721660938,"current_range_meters":26400,"station_id":"ce4bgup2rcd13ifvqcn0","pricing_plan_id":"cebpf4jnsgd1na2vs0mg"},{"bike_id":"e408dd43-ef12-4fdf-8097-b5959102b744","system_id":"levelo_inurba_marseille","lat":43.30462,"lon":5.37909,"is_reserved":false,"is_disabled":false,"rental_uris":{"android":"levelo://app?vid=e408dd43-ef12-4fdf-8097-b5959102b744","ios":"levelo://app?vid=e408dd43-ef12-4fdf-8097-b5959102b744"},"vehicle_type_id":"4","last_reported":1721660938,"current_range_meters":6400,"station_id":"ce4bgup2rcd13ifvqcn0","pricing_plan_id":"cebpf4jnsgd1na2vs0mg"},{"bike_id":"3718a24a-4a5c-401e-bd2e-4179955a191b","system_id":"levelo_inurba_marseille","lat":43.30464,"lon":5.37913,"is_reserved":false,"is_disabled":false,"rental_uris":{"android":"levelo://app?vid=3718a24a-4a5c-401e-bd2e-4179955a191b","ios":"levelo://app?vid=3718a24a-4a5c-401e-bd2e-4179955a191b"},"vehicle_type_id":"4","last_reported":1721660938,"current_range_meters":24400,"station_id":"","pricing_plan_id":"cebpf4jnsgd1na2vs0mg"},{"bike_id":"e611dfcd-2957-4537-8660-c57c5d90395f","system_id":"levelo_inurba_marseille","lat":43.304606,"lon":5.379026,"is_reserved":false,"is_disabled":false,"rental_uris":{"android":"levelo://app?vid=e611dfcd-2957-4537-8660-c57c5d90395f","ios":"levelo://app?vid=e611dfcd-2957-4537-8660-c57c5d90395f"},"vehicle_type_id":"4","last_reported":1721660938,"current_range_meters":0,"station_id":"ce4bgup2rcd13ifvqcn0","pricing_plan_id":"cebpf4jnsgd1na2vs0mg"},{"bike_id":"28b01638-de75-4596-a4c5-d39f1c20e839","system_id":"levelo_inurba_marseille","lat":43.324771,"lon":5.36557,"is_reserved":false,"is_disabled":false,"rental_uris":{"android":"levelo://app?vid=28b01638-de75-4596-a4c5-d39f1c20e839","ios":"levelo://app?vid=28b01638-de75-4596-a4c5-d39f1c20e839"},"vehicle_type_id":"4","last_reported":1721660938,"current_range_meters":20800,"station_id":"ce4bhs12rcd13ifvqhvg","pricing_plan_id":"cebpf4jnsgd1na2vs0mg"},{"bike_id":"1f4533b3-e703-403a-b03b-cd00a38d2954","system_id":"levelo_inurba_marseille","lat":43.324858,"lon":5.36578,"is_reserved":false,"is_disabled":false,"rental_uris":{"android":"levelo://app?vid=1f4533b3-e703-403a-b03b-cd00a38d2954","ios":"levelo://app?vid=1f4533b3-e703-403a-b03b-cd00a38d2954"},"vehicle_type_id":"4","last_reported":1721660938,"current_range_meters":31200,"station_id":"ce4bhs12rcd13ifvqhvg","pricing_plan_id":"cebpf4jnsgd1na2vs0mg"},{"bike_id":"501d5411-c949-4316-b217-9931176b4ca7","system_id":"levelo_inurba_marseille","lat":43.324771,"lon":5.36557,"is_reserved":false,"is_disabled":false,"rental_uris":{"android":"levelo://app?vid=501d5411-c949-4316-b217-9931176b4ca7","ios":"levelo://app?vid=501d5411-c949-4316-b217-9931176b4ca7"},"vehicle_type_id":"4","last_reported":1721660938,"current_range_meters":31200,"station_id":"ce4bhs12rcd13ifvqhvg","pricing_plan_id":"cebpf4jnsgd1na2vs0mg"},{"bike_id":"5874d757-4c2b-4308-aed0-34e372a262cf","system_id":"levelo_inurba_marseille","lat":43.324771,"lon":5.36557,"is_reserved":false,"is_disabled":false,"rental_uris":{"android":"levelo://app?vid=5874d757-4c2b-4308-aed0-34e372a262cf","ios":"levelo://app?vid=5874d757-4c2b-4308-aed0-34e372a262cf"},"vehicle_type_id":"4","last_reported":1721660938,"current_range_meters":31600,"station_id":"ce4bhs12rcd13ifvqhvg","pricing_plan_id":"cebpf4jnsgd1na2vs0mg"},{"bike_id":"09c46b28-270e-4cea-ae42-ac15ada608c9","system_id":"levelo_inurba_marseille","lat":43.324771,"lon":5.36557,"is_reserved":false,"is_disabled":false,"rental_uris":{"android":"levelo://app?vid=09c46b28-270e-4cea-ae42-ac15ada608c9","ios":"levelo://app?vid=09c46b28-270e-4cea-ae42-ac15ada608c9"},"vehicle_type_id":"4","last_reported":1721660938,"current_range_meters":24800,"station_id":"ce4bhs12rcd13ifvqhvg","pricing_plan_id":"cebpf4jnsgd1na2vs0mg"},{"bike_id":"115af8bb-11d0-40e4-a954-6b509fa1329c","system_id":"levelo_inurba_marseille","lat":43.324771,"lon":5.36557,"is_reserved":false,"is_disabled":false,"rental_uris":{"android":"levelo://app?vid=115af8bb-11d0-40e4-a954-6b509fa1329c","ios":"levelo://app?vid=115af8bb-11d0-40e4-a954-6b509fa1329c"},"vehicle_type_id":"4","last_reported":1721660938,"current_range_meters":31200,"station_id":"ce4bhs12rcd13ifvqhvg","pricing_plan_id":"cebpf4jnsgd1na2vs0mg"},{"bike_id":"d6877e46-9301-4a01-9f79-d92a9f4d926d","system_id":"levelo_inurba_marseille","lat":43.324771,"lon":5.36557,"is_reserved":false,"is_disabled":false,"rental_uris":{"android":"levelo://app?vid=d6877e46-9301-4a01-9f79-d92a9f4d926d","ios":"levelo://app?vid=d6877e46-9301-4a01-9f79-d92a9f4d926d"},"vehicle_type_id":"4","last_reported":1721660938,"current_range_meters":21200,"station_id":"ce4bhs12rcd13ifvqhvg","pricing_plan_id":"cebpf4jnsgd1na2vs0mg"},{"bike_id":"b6085923-b19b-4eb8-9ae3-d78bebccefe4","system_id":"levelo_inurba_marseille","lat":43.324771,"lon":5.36557,"is_reserved":false,"is_disabled":false,"rental_uris":{"android":"levelo://app?vid=b6085923-b19b-4eb8-9ae3-d78bebccefe4","ios":"levelo://app?vid=b6085923-b19b-4eb8-9ae3-d78bebccefe4"},"vehicle_type_id":"4","last_reported":1721660938,"current_range_meters":12400,"station_id":"ce4bhs12rcd13ifvqhvg","pricing_plan_id":"cebpf4jnsgd1na2vs0mg"},{"bike_id":"7609025d-ad2d-43a6-aebb-f513e3417503","system_id":"levelo_inurba_marseille","lat":43.310804,"lon":5.38359,"is_reserved":false,"is_disabled":false,"rental_uris":{"android":"levelo://app?vid=7609025d-ad2d-43a6-aebb-f513e3417503","ios":"levelo://app?vid=7609025d-ad2d-43a6-aebb-f513e3417503"},"vehicle_type_id":"4","last_reported":1721660938,"current_range_meters":9600,"station_id":"ce4bgv92rcd13ifvqcr0","pricing_plan_id":"cebpf4jnsgd1na2vs0mg"},{"bike_id":"3a471e7f-f985-4177-a335-f4d77a164055","system_id":"levelo_inurba_marseille","lat":43.285848,"lon":5.350787,"is_reserved":false,"is_disabled":false,"rental_uris":{"android":"levelo://app?vid=3a471e7f-f985-4177-a335-f4d77a164055","ios":"levelo://app?vid=3a471e7f-f985-4177-a335-f4d77a164055"},"vehicle_type_id":"4","last_reported":1721660938,"current_range_meters":0,"station_id":"ce4bhch2rcd13ifvqeug","pricing_plan_id":"cebpf4jnsgd1na2vs0mg"},{"bike_id":"a2a0c4fc-ded0-426a-83df-13eb04096cdb","system_id":"levelo_inurba_marseille","lat":43.30606,"lon":5.38209,"is_reserved":false,"is_disabled":false,"rental_uris":{"android":"levelo://app?vid=a2a0c4fc-ded0-426a-83df-13eb04096cdb","ios":"levelo://app?vid=a2a0c4fc-ded0-426a-83df-13eb04096cdb"},"vehicle_type_id":"4","last_reported":1721660938,"current_range_meters":26800,"station_id":"","pricing_plan_id":"cebpf4jnsgd1na2vs0mg"},{"bike_id":"d256b0b5-b6bd-46f1-aad5-3115e24ebb99","system_id":"levelo_inurba_marseille","lat":43.31364,"lon":5.38494,"is_reserved":false,"is_disabled":false,"rental_uris":{"android":"levelo://app?vid=d256b0b5-b6bd-46f1-aad5-3115e24ebb99","ios":"levelo://app?vid=d256b0b5-b6bd-46f1-aad5-3115e24ebb99"},"vehicle_type_id":"4","last_reported":1721660938,"current_range_meters":4000,"station_id":"ce4bgt92rcd13ifvqcf0","pricing_plan_id":"cebpf4jnsgd1na2vs0mg"},{"bike_id":"22aa4e84-aa85-4f13-8712-32f5297b3611","system_id":"levelo_inurba_marseille","lat":43.313571,"lon":5.384829,"is_reserved":false,"is_disabled":false,"rental_uris":{"android":"levelo://app?vid=22aa4e84-aa85-4f13-8712-32f5297b3611","ios":"levelo://app?vid=22aa4e84-aa85-4f13-8712-32f5297b3611"},"vehicle_type_id":"4","last_reported":1721660938,"current_range_meters":17600,"station_id":"ce4bgt92rcd13ifvqcf0","pricing_plan_id":"cebpf4jnsgd1na2vs0mg"},{"bike_id":"c80e4268-70f7-4bca-ae0e-f799fed182b3","system_id":"levelo_inurba_marseille","lat":43.313571,"lon":5.384829,"is_reserved":false,"is_disabled":false,"rental_uris":{"android":"levelo://app?vid=c80e4268-70f7-4bca-ae0e-f799fed182b3","ios":"levelo://app?vid=c80e4268-70f7-4bca-ae0e-f799fed182b3"},"vehicle_type_id":"4","last_reported":1721660938,"current_range_meters":16800,"station_id":"ce4bgt92rcd13ifvqcf0","pricing_plan_id":"cebpf4jnsgd1na2vs0mg"},{"bike_id":"8aa0686c-7b1a-4987-9953-c129c44d6627","system_id":"levelo_inurba_marseille","lat":43.299222,"lon":5.365554,"is_reserved":false,"is_disabled":false,"rental_uris":{"android":"levelo://app?vid=8aa0686c-7b1a-4987-9953-c129c44d6627","ios":"levelo://app?vid=8aa0686c-7b1a-4987-9953-c129c44d6627"},"vehicle_type_id":"4","last_reported":1721660938,"current_range_meters":10400,"station_id":"ce4bgm92rcd13ifvqbr0","pricing_plan_id":"cebpf4jnsgd1na2vs0mg"},{"bike_id":"131d1398-ee31-4813-b637-903256968295","system_id":"levelo_inurba_marseille","lat":43.3004,"lon":5.37538,"is_reserved":false,"is_disabled":false,"rental_uris":{"android":"levelo://app?vid=131d1398-ee31-4813-b637-903256968295","ios":"levelo://app?vid=131d1398-ee31-4813-b637-903256968295"},"vehicle_type_id":"4","last_reported":1721660938,"current_range_meters":24400,"station_id":"","pricing_plan_id":"cebpf4jnsgd1na2vs0mg"},{"bike_id":"166974db-e792-41c8-b846-ab694e117269","system_id":"levelo_inurba_marseille","lat":43.305364,"lon":5.384119,"is_reserved":false,"is_disabled":false,"rental_uris":{"android":"levelo://app?vid=166974db-e792-41c8-b846-ab694e117269","ios":"levelo://app?vid=166974db-e792-41c8-b846-ab694e117269"},"vehicle_type_id":"4","last_reported":1721660938,"current_range_meters":800,"station_id":"ce4bgg92rcd13ifvqb30","pricing_plan_id":"cebpf4jnsgd1na2vs0mg"},{"bike_id":"8ee6471d-6969-49b1-b1c6-2fd278941b30","system_id":"levelo_inurba_marseille","lat":43.305364,"lon":5.384119,"is_reserved":false,"is_disabled":false,"rental_uris":{"android":"levelo://app?vid=8ee6471d-6969-49b1-b1c6-2fd278941b30","ios":"levelo://app?vid=8ee6471d-6969-49b1-b1c6-2fd278941b30"},"vehicle_type_id":"4","last_reported":1721660938,"current_range_meters":14000,"station_id":"ce4bgg92rcd13ifvqb30","pricing_plan_id":"cebpf4jnsgd1na2vs0mg"},{"bike_id":"b394544e-188f-46da-83cb-e96d13d2e288","system_id":"levelo_inurba_marseille","lat":43.298433,"lon":5.362774,"is_reserved":false,"is_disabled":false,"rental_uris":{"android":"levelo://app?vid=b394544e-188f-46da-83cb-e96d13d2e288","ios":"levelo://app?vid=b394544e-188f-46da-83cb-e96d13d2e288"},"vehicle_type_id":"4","last_reported":1721660938,"current_range_meters":11200,"station_id":"ce4bgpp2rcd13ifvqc3g","pricing_plan_id":"cebpf4jnsgd1na2vs0mg"},{"bike_id":"7992ae04-ea49-4517-a9e8-4de23eb8d51c","system_id":"levelo_inurba_marseille","lat":43.299243,"lon":5.374807,"is_reserved":false,"is_disabled":false,"rental_uris":{"android":"levelo://app?vid=7992ae04-ea49-4517-a9e8-4de23eb8d51c","ios":"levelo://app?vid=7992ae04-ea49-4517-a9e8-4de23eb8d51c"},"vehicle_type_id":"4","last_reported":1721660938,"current_range_meters":6400,"station_id":"ce4bgjh2rcd13ifvqbg0","pricing_plan_id":"cebpf4jnsgd1na2vs0mg"},{"bike_id":"31b4ba2b-47ce-467a-bf0d-8a5c201a096f","system_id":"levelo_inurba_marseille","lat":43.299243,"lon":5.374807,"is_reserved":false,"is_disabled":false,"rental_uris":{"android":"levelo://app?vid=31b4ba2b-47ce-467a-bf0d-8a5c201a096f","ios":"levelo://app?vid=31b4ba2b-47ce-467a-bf0d-8a5c201a096f"},"vehicle_type_id":"4","last_reported":1721660938,"current_range_meters":31200,"station_id":"ce4bgjh2rcd13ifvqbg0","pricing_plan_id":"cebpf4jnsgd1na2vs0mg"},{"bike_id":"cd6a3336-9aa0-4d1e-88d3-48a0e878ea53","system_id":"levelo_inurba_marseille","lat":43.31178,"lon":5.38715,"is_reserved":false,"is_disabled":false,"rental_uris":{"android":"levelo://app?vid=cd6a3336-9aa0-4d1e-88d3-48a0e878ea53","ios":"levelo://app?vid=cd6a3336-9aa0-4d1e-88d3-48a0e878ea53"},"vehicle_type_id":"4","last_reported":1721660938,"current_range_meters":0,"station_id":"ce4bgv12rcd13ifvqcp0","pricing_plan_id":"cebpf4jnsgd1na2vs0mg"},{"bike_id":"1b5596fa-85c1-4827-a6c5-8c3b2cfbd959","system_id":"levelo_inurba_marseille","lat":43.311722,"lon":5.387247,"is_reserved":false,"is_disabled":false,"rental_uris":{"android":"levelo://app?vid=1b5596fa-85c1-4827-a6c5-8c3b2cfbd959","ios":"levelo://app?vid=1b5596fa-85c1-4827-a6c5-8c3b2cfbd959"},"vehicle_type_id":"4","last_reported":1721660938,"current_range_meters":30800,"station_id":"ce4bgv12rcd13ifvqcp0","pricing_plan_id":"cebpf4jnsgd1na2vs0mg"},{"bike_id":"b423586d-a309-4393-bd7e-857799ef3082","system_id":"levelo_inurba_marseille","lat":43.311722,"lon":5.387247,"is_reserved":false,"is_disabled":false,"rental_uris":{"android":"levelo://app?vid=b423586d-a309-4393-bd7e-857799ef3082","ios":"levelo://app?vid=b423586d-a309-4393-bd7e-857799ef3082"},"vehicle_type_id":"4","last_reported":1721660938,"current_range_meters":24400,"station_id":"ce4bgv12rcd13ifvqcp0","pricing_plan_id":"cebpf4jnsgd1na2vs0mg"},{"bike_id":"9d468e45-7bf7-44ab-b1f9-2ad1c6176913","system_id":"levelo_inurba_marseille","lat":43.297794,"lon":5.370888,"is_reserved":false,"is_disabled":false,"rental_uris":{"android":"levelo://app?vid=9d468e45-7bf7-44ab-b1f9-2ad1c6176913","ios":"levelo://app?vid=9d468e45-7bf7-44ab-b1f9-2ad1c6176913"},"vehicle_type_id":"4","last_reported":1721660938,"current_range_meters":22000,"station_id":"ce4bgop2rcd13ifvqc1g","pricing_plan_id":"cebpf4jnsgd1na2vs0mg"},{"bike_id":"e139f85e-7244-4310-a607-df21abf3d210","system_id":"levelo_inurba_marseille","lat":43.322872,"lon":5.382756,"is_reserved":false,"is_disabled":false,"rental_uris":{"android":"levelo://app?vid=e139f85e-7244-4310-a607-df21abf3d210","ios":"levelo://app?vid=e139f85e-7244-4310-a607-df21abf3d210"},"vehicle_type_id":"4","last_reported":1721660938,"current_range_meters":18800,"station_id":"ce4bhr12rcd13ifvqhqg","pricing_plan_id":"cebpf4jnsgd1na2vs0mg"},{"bike_id":"88d3e286-97c6-4910-88d9-edf76e83a4b3","system_id":"levelo_inurba_marseille","lat":43.3229,"lon":5.38261,"is_reserved":false,"is_disabled":false,"rental_uris":{"android":"levelo://app?vid=88d3e286-97c6-4910-88d9-edf76e83a4b3","ios":"levelo://app?vid=88d3e286-97c6-4910-88d9-edf76e83a4b3"},"vehicle_type_id":"4","last_reported":1721660938,"current_range_meters":8000,"station_id":"ce4bhr12rcd13ifvqhqg","pricing_plan_id":"cebpf4jnsgd1na2vs0mg"},{"bike_id":"98130cc7-b273-4dee-89a1-15b990d570f8","system_id":"levelo_inurba_marseille","lat":43.32293,"lon":5.38267,"is_reserved":false,"is_disabled":false,"rental_uris":{"android":"levelo://app?vid=98130cc7-b273-4dee-89a1-15b990d570f8","ios":"levelo://app?vid=98130cc7-b273-4dee-89a1-15b990d570f8"},"vehicle_type_id":"4","last_reported":1721660938,"current_range_meters":12400,"station_id":"ce4bhr12rcd13ifvqhqg","pricing_plan_id":"cebpf4jnsgd1na2vs0mg"},{"bike_id":"21ab087e-a163-4c57-8ad8-08f4cd143d86","system_id":"levelo_inurba_marseille","lat":43.32291,"lon":5.3827,"is_reserved":false,"is_disabled":false,"rental_uris":{"android":"levelo://app?vid=21ab087e-a163-4c57-8ad8-08f4cd143d86","ios":"levelo://app?vid=21ab087e-a163-4c57-8ad8-08f4cd143d86"},"vehicle_type_id":"4","last_reported":1721660938,"current_range_meters":8800,"station_id":"ce4bhr12rcd13ifvqhqg","pricing_plan_id":"cebpf4jnsgd1na2vs0mg"},{"bike_id":"64a95390-d97c-4990-9511-28a821bbdb6f","system_id":"levelo_inurba_marseille","lat":43.32293,"lon":5.3827,"is_reserved":false,"is_disabled":false,"rental_uris":{"android":"levelo://app?vid=64a95390-d97c-4990-9511-28a821bbdb6f","ios":"levelo://app?vid=64a95390-d97c-4990-9511-28a821bbdb6f"},"vehicle_type_id":"4","last_reported":1721660938,"current_range_meters":0,"station_id":"ce4bhr12rcd13ifvqhqg","pricing_plan_id":"cebpf4jnsgd1na2vs0mg"},{"bike_id":"5b943f28-e2ff-4060-8b16-d8ce5c239b2c","system_id":"levelo_inurba_marseille","lat":43.322928,"lon":5.382707,"is_reserved":false,"is_disabled":false,"rental_uris":{"android":"levelo://app?vid=5b943f28-e2ff-4060-8b16-d8ce5c239b2c","ios":"levelo://app?vid=5b943f28-e2ff-4060-8b16-d8ce5c239b2c"},"vehicle_type_id":"4","last_reported":1721660938,"current_range_meters":17200,"station_id":"ce4bhr12rcd13ifvqhqg","pricing_plan_id":"cebpf4jnsgd1na2vs0mg"},{"bike_id":"a1971f0c-7174-4aeb-9996-617384ce9157","system_id":"levelo_inurba_marseille","lat":43.322872,"lon":5.382756,"is_reserved":false,"is_disabled":false,"rental_uris":{"android":"levelo://app?vid=a1971f0c-7174-4aeb-9996-617384ce9157","ios":"levelo://app?vid=a1971f0c-7174-4aeb-9996-617384ce9157"},"vehicle_type_id":"4","last_reported":1721660938,"current_range_meters":25600,"station_id":"ce4bhr12rcd13ifvqhqg","pricing_plan_id":"cebpf4jnsgd1na2vs0mg"},{"bike_id":"7400a47f-23a1-45e8-8cdb-83e38fd86dbb","system_id":"levelo_inurba_marseille","lat":43.322872,"lon":5.382756,"is_reserved":false,"is_disabled":false,"rental_uris":{"android":"levelo://app?vid=7400a47f-23a1-45e8-8cdb-83e38fd86dbb","ios":"levelo://app?vid=7400a47f-23a1-45e8-8cdb-83e38fd86dbb"},"vehicle_type_id":"4","last_reported":1721660938,"current_range_meters":31200,"station_id":"ce4bhr12rcd13ifvqhqg","pricing_plan_id":"cebpf4jnsgd1na2vs0mg"},{"bike_id":"d1524c38-272a-4647-ac5e-400258017ada","system_id":"levelo_inurba_marseille","lat":43.32292,"lon":5.38275,"is_reserved":false,"is_disabled":false,"rental_uris":{"android":"levelo://app?vid=d1524c38-272a-4647-ac5e-400258017ada","ios":"levelo://app?vid=d1524c38-272a-4647-ac5e-400258017ada"},"vehicle_type_id":"4","last_reported":1721660938,"current_range_meters":9200,"station_id":"ce4bhr12rcd13ifvqhqg","pricing_plan_id":"cebpf4jnsgd1na2vs0mg"},{"bike_id":"63774387-f20f-4c25-bcd4-50bc688e6dd5","system_id":"levelo_inurba_marseille","lat":43.32285,"lon":5.38284,"is_reserved":false,"is_disabled":false,"rental_uris":{"android":"levelo://app?vid=63774387-f20f-4c25-bcd4-50bc688e6dd5","ios":"levelo://app?vid=63774387-f20f-4c25-bcd4-50bc688e6dd5"},"vehicle_type_id":"4","last_reported":1721660938,"current_range_meters":28800,"station_id":"ce4bhr12rcd13ifvqhqg","pricing_plan_id":"cebpf4jnsgd1na2vs0mg"},{"bike_id":"64f1ef29-dd87-4dd4-a776-1c9e29baed3a","system_id":"levelo_inurba_marseille","lat":43.32286,"lon":5.38284,"is_reserved":false,"is_disabled":false,"rental_uris":{"android":"levelo://app?vid=64f1ef29-dd87-4dd4-a776-1c9e29baed3a","ios":"levelo://app?vid=64f1ef29-dd87-4dd4-a776-1c9e29baed3a"},"vehicle_type_id":"4","last_reported":1721660938,"current_range_meters":25200,"station_id":"ce4bhr12rcd13ifvqhqg","pricing_plan_id":"cebpf4jnsgd1na2vs0mg"},{"bike_id":"b629b0e1-2a3b-4a7e-9a50-5b6c10b6a7a5","system_id":"levelo_inurba_marseille","lat":43.322872,"lon":5.382756,"is_reserved":false,"is_disabled":false,"rental_uris":{"android":"levelo://app?vid=b629b0e1-2a3b-4a7e-9a50-5b6c10b6a7a5","ios":"levelo://app?vid=b629b0e1-2a3b-4a7e-9a50-5b6c10b6a7a5"},"vehicle_type_id":"4","last_reported":1721660938,"current_range_meters":26800,"station_id":"ce4bhr12rcd13ifvqhqg","pricing_plan_id":"cebpf4jnsgd1na2vs0mg"},{"bike_id":"e8277278-3e8f-4061-accc-94932752b3cf","system_id":"levelo_inurba_marseille","lat":43.299028,"lon":5.381509,"is_reserved":false,"is_disabled":false,"rental_uris":{"android":"levelo://app?vid=e8277278-3e8f-4061-accc-94932752b3cf","ios":"levelo://app?vid=e8277278-3e8f-4061-accc-94932752b3cf"},"vehicle_type_id":"4","last_reported":1721660938,"current_range_meters":12800,"station_id":"ce4bgj12rcd13ifvqbc0","pricing_plan_id":"cebpf4jnsgd1na2vs0mg"},{"bike_id":"c499bfef-422f-4afe-9219-132fe36bfe41","system_id":"levelo_inurba_marseille","lat":43.299028,"lon":5.381509,"is_reserved":false,"is_disabled":false,"rental_uris":{"android":"levelo://app?vid=c499bfef-422f-4afe-9219-132fe36bfe41","ios":"levelo://app?vid=c499bfef-422f-4afe-9219-132fe36bfe41"},"vehicle_type_id":"4","last_reported":1721660938,"current_range_meters":14000,"station_id":"ce4bgj12rcd13ifvqbc0","pricing_plan_id":"cebpf4jnsgd1na2vs0mg"},{"bike_id":"fe6fd3e6-3d82-4333-9238-4b6c2d6562fd","system_id":"levelo_inurba_marseille","lat":43.296935,"lon":5.376544,"is_reserved":false,"is_disabled":false,"rental_uris":{"android":"levelo://app?vid=fe6fd3e6-3d82-4333-9238-4b6c2d6562fd","ios":"levelo://app?vid=fe6fd3e6-3d82-4333-9238-4b6c2d6562fd"},"vehicle_type_id":"4","last_reported":1721660938,"current_range_meters":3200,"station_id":"ce4bgkh2rcd13ifvqbl0","pricing_plan_id":"cebpf4jnsgd1na2vs0mg"},{"bike_id":"1061f733-a40f-4800-a83e-7d0518e46b68","system_id":"levelo_inurba_marseille","lat":43.309589,"lon":5.390258,"is_reserved":false,"is_disabled":false,"rental_uris":{"android":"levelo://app?vid=1061f733-a40f-4800-a83e-7d0518e46b68","ios":"levelo://app?vid=1061f733-a40f-4800-a83e-7d0518e46b68"},"vehicle_type_id":"4","last_reported":1721660938,"current_range_meters":0,"station_id":"ce4bgup2rcd13ifvqco0","pricing_plan_id":"cebpf4jnsgd1na2vs0mg"},{"bike_id":"f628eb48-3bcc-4fb2-94c8-7a97113002b0","system_id":"levelo_inurba_marseille","lat":43.309589,"lon":5.390258,"is_reserved":false,"is_disabled":false,"rental_uris":{"android":"levelo://app?vid=f628eb48-3bcc-4fb2-94c8-7a97113002b0","ios":"levelo://app?vid=f628eb48-3bcc-4fb2-94c8-7a97113002b0"},"vehicle_type_id":"4","last_reported":1721660938,"current_range_meters":0,"station_id":"ce4bgup2rcd13ifvqco0","pricing_plan_id":"cebpf4jnsgd1na2vs0mg"},{"bike_id":"1ea24572-db27-44c5-89a5-fb2c0a99e639","system_id":"levelo_inurba_marseille","lat":43.296935,"lon":5.376544,"is_reserved":false,"is_disabled":false,"rental_uris":{"android":"levelo://app?vid=1ea24572-db27-44c5-89a5-fb2c0a99e639","ios":"levelo://app?vid=1ea24572-db27-44c5-89a5-fb2c0a99e639"},"vehicle_type_id":"4","last_reported":1721660938,"current_range_meters":19600,"station_id":"ce4bgkh2rcd13ifvqbl0","pricing_plan_id":"cebpf4jnsgd1na2vs0mg"},{"bike_id":"2c6b4f26-0c97-4aff-85b8-cc384171ab6e","system_id":"levelo_inurba_marseille","lat":43.317557,"lon":5.390173,"is_reserved":false,"is_disabled":false,"rental_uris":{"android":"levelo://app?vid=2c6b4f26-0c97-4aff-85b8-cc384171ab6e","ios":"levelo://app?vid=2c6b4f26-0c97-4aff-85b8-cc384171ab6e"},"vehicle_type_id":"4","last_reported":1721660938,"current_range_meters":13600,"station_id":"ce4bhqp2rcd13ifvqhng","pricing_plan_id":"cebpf4jnsgd1na2vs0mg"},{"bike_id":"e41a4e97-da92-4965-b096-21bb4823824a","system_id":"levelo_inurba_marseille","lat":43.304274,"lon":5.388873,"is_reserved":false,"is_disabled":false,"rental_uris":{"android":"levelo://app?vid=e41a4e97-da92-4965-b096-21bb4823824a","ios":"levelo://app?vid=e41a4e97-da92-4965-b096-21bb4823824a"},"vehicle_type_id":"4","last_reported":1721660938,"current_range_meters":6800,"station_id":"ce4bgk12rcd13ifvqbi0","pricing_plan_id":"cebpf4jnsgd1na2vs0mg"},{"bike_id":"c58e1a18-100c-488c-821b-a4be2ca17f07","system_id":"levelo_inurba_marseille","lat":43.298037,"lon":5.381066,"is_reserved":false,"is_disabled":false,"rental_uris":{"android":"levelo://app?vid=c58e1a18-100c-488c-821b-a4be2ca17f07","ios":"levelo://app?vid=c58e1a18-100c-488c-821b-a4be2ca17f07"},"vehicle_type_id":"4","last_reported":1721660938,"current_range_meters":800,"station_id":"ce4bgip2rcd13ifvqbb0","pricing_plan_id":"cebpf4jnsgd1na2vs0mg"},{"bike_id":"e0092820-a66e-4785-8699-79f02e1b06aa","system_id":"levelo_inurba_marseille","lat":43.304274,"lon":5.388873,"is_reserved":false,"is_disabled":false,"rental_uris":{"android":"levelo://app?vid=e0092820-a66e-4785-8699-79f02e1b06aa","ios":"levelo://app?vid=e0092820-a66e-4785-8699-79f02e1b06aa"},"vehicle_type_id":"4","last_reported":1721660938,"current_range_meters":25600,"station_id":"ce4bgk12rcd13ifvqbi0","pricing_plan_id":"cebpf4jnsgd1na2vs0mg"},{"bike_id":"d551a502-d43a-4062-869e-4ffc783eb557","system_id":"levelo_inurba_marseille","lat":43.296263,"lon":5.377094,"is_reserved":false,"is_disabled":false,"rental_uris":{"android":"levelo://app?vid=d551a502-d43a-4062-869e-4ffc783eb557","ios":"levelo://app?vid=d551a502-d43a-4062-869e-4ffc783eb557"},"vehicle_type_id":"4","last_reported":1721660938,"current_range_meters":0,"station_id":"ce4bgi92rcd13ifvqb90","pricing_plan_id":"cebpf4jnsgd1na2vs0mg"},{"bike_id":"32e58a19-f085-415d-85d5-37b461c87339","system_id":"levelo_inurba_marseille","lat":43.304274,"lon":5.388873,"is_reserved":false,"is_disabled":false,"rental_uris":{"android":"levelo://app?vid=32e58a19-f085-415d-85d5-37b461c87339","ios":"levelo://app?vid=32e58a19-f085-415d-85d5-37b461c87339"},"vehicle_type_id":"4","last_reported":1721660938,"current_range_meters":26400,"station_id":"ce4bgk12rcd13ifvqbi0","pricing_plan_id":"cebpf4jnsgd1na2vs0mg"},{"bike_id":"5730097e-c8d9-4e7d-93f8-851c66005cf6","system_id":"levelo_inurba_marseille","lat":43.304274,"lon":5.388873,"is_reserved":false,"is_disabled":false,"rental_uris":{"android":"levelo://app?vid=5730097e-c8d9-4e7d-93f8-851c66005cf6","ios":"levelo://app?vid=5730097e-c8d9-4e7d-93f8-851c66005cf6"},"vehicle_type_id":"4","last_reported":1721660938,"current_range_meters":4000,"station_id":"ce4bgk12rcd13ifvqbi0","pricing_plan_id":"cebpf4jnsgd1na2vs0mg"},{"bike_id":"8cabf9f3-11cd-4d82-9629-9dacb7a6d372","system_id":"levelo_inurba_marseille","lat":43.29571,"lon":5.37516,"is_reserved":false,"is_disabled":false,"rental_uris":{"android":"levelo://app?vid=8cabf9f3-11cd-4d82-9629-9dacb7a6d372","ios":"levelo://app?vid=8cabf9f3-11cd-4d82-9629-9dacb7a6d372"},"vehicle_type_id":"4","last_reported":1721660938,"current_range_meters":12400,"station_id":"ce4bgh92rcd13ifvqb50","pricing_plan_id":"cebpf4jnsgd1na2vs0mg"},{"bike_id":"d9b12016-c35d-4d22-9738-02f0070a84d5","system_id":"levelo_inurba_marseille","lat":43.298037,"lon":5.381066,"is_reserved":false,"is_disabled":false,"rental_uris":{"android":"levelo://app?vid=d9b12016-c35d-4d22-9738-02f0070a84d5","ios":"levelo://app?vid=d9b12016-c35d-4d22-9738-02f0070a84d5"},"vehicle_type_id":"4","last_reported":1721660938,"current_range_meters":31200,"station_id":"ce4bgip2rcd13ifvqbb0","pricing_plan_id":"cebpf4jnsgd1na2vs0mg"},{"bike_id":"c9fe6d92-0fa8-4514-ac00-9ac92b67f3e1","system_id":"levelo_inurba_marseille","lat":43.304278,"lon":5.388868,"is_reserved":false,"is_disabled":false,"rental_uris":{"android":"levelo://app?vid=c9fe6d92-0fa8-4514-ac00-9ac92b67f3e1","ios":"levelo://app?vid=c9fe6d92-0fa8-4514-ac00-9ac92b67f3e1"},"vehicle_type_id":"4","last_reported":1721660938,"current_range_meters":0,"station_id":"ce4bgk12rcd13ifvqbi0","pricing_plan_id":"cebpf4jnsgd1na2vs0mg"},{"bike_id":"b41870d4-9694-41f4-a6fe-70488992a3a2","system_id":"levelo_inurba_marseille","lat":43.304274,"lon":5.388873,"is_reserved":false,"is_disabled":false,"rental_uris":{"android":"levelo://app?vid=b41870d4-9694-41f4-a6fe-70488992a3a2","ios":"levelo://app?vid=b41870d4-9694-41f4-a6fe-70488992a3a2"},"vehicle_type_id":"4","last_reported":1721660938,"current_range_meters":22400,"station_id":"ce4bgk12rcd13ifvqbi0","pricing_plan_id":"cebpf4jnsgd1na2vs0mg"},{"bike_id":"d08497aa-7c7e-4499-aa6d-e61237caa446","system_id":"levelo_inurba_marseille","lat":43.304278,"lon":5.388868,"is_reserved":false,"is_disabled":false,"rental_uris":{"android":"levelo://app?vid=d08497aa-7c7e-4499-aa6d-e61237caa446","ios":"levelo://app?vid=d08497aa-7c7e-4499-aa6d-e61237caa446"},"vehicle_type_id":"4","last_reported":1721660938,"current_range_meters":2400,"station_id":"ce4bgk12rcd13ifvqbi0","pricing_plan_id":"cebpf4jnsgd1na2vs0mg"},{"bike_id":"671e87f0-590b-46e6-999c-b84fbb71eb50","system_id":"levelo_inurba_marseille","lat":43.301396,"lon":5.387812,"is_reserved":false,"is_disabled":false,"rental_uris":{"android":"levelo://app?vid=671e87f0-590b-46e6-999c-b84fbb71eb50","ios":"levelo://app?vid=671e87f0-590b-46e6-999c-b84fbb71eb50"},"vehicle_type_id":"4","last_reported":1721660938,"current_range_meters":5600,"station_id":"ce4bghh2rcd13ifvqb60","pricing_plan_id":"cebpf4jnsgd1na2vs0mg"},{"bike_id":"0d8d9d26-69b3-4c04-b064-050ddff29fcc","system_id":"levelo_inurba_marseille","lat":43.325034,"lon":5.387804,"is_reserved":false,"is_disabled":false,"rental_uris":{"android":"levelo://app?vid=0d8d9d26-69b3-4c04-b064-050ddff29fcc","ios":"levelo://app?vid=0d8d9d26-69b3-4c04-b064-050ddff29fcc"},"vehicle_type_id":"4","last_reported":1721660938,"current_range_meters":1200,"station_id":"","pricing_plan_id":"cebpf4jnsgd1na2vs0mg"},{"bike_id":"e04ebd9c-7e05-4435-b6fc-14c07f30b7ab","system_id":"levelo_inurba_marseille","lat":43.292749,"lon":5.368402,"is_reserved":false,"is_disabled":false,"rental_uris":{"android":"levelo://app?vid=e04ebd9c-7e05-4435-b6fc-14c07f30b7ab","ios":"levelo://app?vid=e04ebd9c-7e05-4435-b6fc-14c07f30b7ab"},"vehicle_type_id":"4","last_reported":1721660938,"current_range_meters":27200,"station_id":"ce4bhbp2rcd13ifvqesg","pricing_plan_id":"cebpf4jnsgd1na2vs0mg"},{"bike_id":"c385e8cf-f82e-4ab0-9b0e-9630d26970b5","system_id":"levelo_inurba_marseille","lat":43.33267,"lon":5.36219,"is_reserved":false,"is_disabled":false,"rental_uris":{"android":"levelo://app?vid=c385e8cf-f82e-4ab0-9b0e-9630d26970b5","ios":"levelo://app?vid=c385e8cf-f82e-4ab0-9b0e-9630d26970b5"},"vehicle_type_id":"4","last_reported":1721660938,"current_range_meters":0,"station_id":"","pricing_plan_id":"cebpf4jnsgd1na2vs0mg"},{"bike_id":"1bbdd0cd-b774-4ff6-aac7-d8c2c9938e67","system_id":"levelo_inurba_marseille","lat":43.292749,"lon":5.368402,"is_reserved":false,"is_disabled":false,"rental_uris":{"android":"levelo://app?vid=1bbdd0cd-b774-4ff6-aac7-d8c2c9938e67","ios":"levelo://app?vid=1bbdd0cd-b774-4ff6-aac7-d8c2c9938e67"},"vehicle_type_id":"4","last_reported":1721660938,"current_range_meters":17200,"station_id":"ce4bhbp2rcd13ifvqesg","pricing_plan_id":"cebpf4jnsgd1na2vs0mg"},{"bike_id":"29a281b4-ca9b-4f21-b4b8-64fa1dc1371e","system_id":"levelo_inurba_marseille","lat":43.30311,"lon":5.39197,"is_reserved":false,"is_disabled":false,"rental_uris":{"android":"levelo://app?vid=29a281b4-ca9b-4f21-b4b8-64fa1dc1371e","ios":"levelo://app?vid=29a281b4-ca9b-4f21-b4b8-64fa1dc1371e"},"vehicle_type_id":"4","last_reported":1721660938,"current_range_meters":0,"station_id":"ce4bgkh2rcd13ifvqbk0","pricing_plan_id":"cebpf4jnsgd1na2vs0mg"},{"bike_id":"09977b67-f733-4409-bdc2-79952b370c39","system_id":"levelo_inurba_marseille","lat":43.33097,"lon":5.38019,"is_reserved":false,"is_disabled":false,"rental_uris":{"android":"levelo://app?vid=09977b67-f733-4409-bdc2-79952b370c39","ios":"levelo://app?vid=09977b67-f733-4409-bdc2-79952b370c39"},"vehicle_type_id":"4","last_reported":1721660938,"current_range_meters":14000,"station_id":"","pricing_plan_id":"cebpf4jnsgd1na2vs0mg"},{"bike_id":"74cb26cd-fcae-4700-96b0-0dabe5aca843","system_id":"levelo_inurba_marseille","lat":43.30302,"lon":5.39198,"is_reserved":false,"is_disabled":false,"rental_uris":{"android":"levelo://app?vid=74cb26cd-fcae-4700-96b0-0dabe5aca843","ios":"levelo://app?vid=74cb26cd-fcae-4700-96b0-0dabe5aca843"},"vehicle_type_id":"4","last_reported":1721660938,"current_range_meters":28000,"station_id":"ce4bgkh2rcd13ifvqbk0","pricing_plan_id":"cebpf4jnsgd1na2vs0mg"},{"bike_id":"213d82a4-111d-4b9b-9af4-11a8d5a9d53c","system_id":"levelo_inurba_marseille","lat":43.30305,"lon":5.39202,"is_reserved":false,"is_disabled":false,"rental_uris":{"android":"levelo://app?vid=213d82a4-111d-4b9b-9af4-11a8d5a9d53c","ios":"levelo://app?vid=213d82a4-111d-4b9b-9af4-11a8d5a9d53c"},"vehicle_type_id":"4","last_reported":1721660938,"current_range_meters":14800,"station_id":"ce4bgkh2rcd13ifvqbk0","pricing_plan_id":"cebpf4jnsgd1na2vs0mg"},{"bike_id":"6da81a19-2744-4893-8f9b-9c4c46efa623","system_id":"levelo_inurba_marseille","lat":43.30305,"lon":5.39206,"is_reserved":false,"is_disabled":false,"rental_uris":{"android":"levelo://app?vid=6da81a19-2744-4893-8f9b-9c4c46efa623","ios":"levelo://app?vid=6da81a19-2744-4893-8f9b-9c4c46efa623"},"vehicle_type_id":"4","last_reported":1721660938,"current_range_meters":0,"station_id":"ce4bgkh2rcd13ifvqbk0","pricing_plan_id":"cebpf4jnsgd1na2vs0mg"},{"bike_id":"bc04cf0f-3729-4bf6-b9a5-7acfa69f9f29","system_id":"levelo_inurba_marseille","lat":43.302992,"lon":5.392136,"is_reserved":false,"is_disabled":false,"rental_uris":{"android":"levelo://app?vid=bc04cf0f-3729-4bf6-b9a5-7acfa69f9f29","ios":"levelo://app?vid=bc04cf0f-3729-4bf6-b9a5-7acfa69f9f29"},"vehicle_type_id":"4","last_reported":1721660938,"current_range_meters":29200,"station_id":"ce4bgkh2rcd13ifvqbk0","pricing_plan_id":"cebpf4jnsgd1na2vs0mg"},{"bike_id":"2bef30db-dc41-47ca-a049-60a502c60ac1","system_id":"levelo_inurba_marseille","lat":43.2936,"lon":5.37835,"is_reserved":false,"is_disabled":false,"rental_uris":{"android":"levelo://app?vid=2bef30db-dc41-47ca-a049-60a502c60ac1","ios":"levelo://app?vid=2bef30db-dc41-47ca-a049-60a502c60ac1"},"vehicle_type_id":"4","last_reported":1721660938,"current_range_meters":2800,"station_id":"ce4bgjh2rcd13ifvqbf0","pricing_plan_id":"cebpf4jnsgd1na2vs0mg"},{"bike_id":"50087d8d-b101-42e6-a143-97d77eae0338","system_id":"levelo_inurba_marseille","lat":43.2936,"lon":5.37835,"is_reserved":false,"is_disabled":false,"rental_uris":{"android":"levelo://app?vid=50087d8d-b101-42e6-a143-97d77eae0338","ios":"levelo://app?vid=50087d8d-b101-42e6-a143-97d77eae0338"},"vehicle_type_id":"4","last_reported":1721660938,"current_range_meters":2000,"station_id":"ce4bgjh2rcd13ifvqbf0","pricing_plan_id":"cebpf4jnsgd1na2vs0mg"},{"bike_id":"6e648fdd-9834-4107-b7cd-ee8006a1ae8e","system_id":"levelo_inurba_marseille","lat":43.292311,"lon":5.360731,"is_reserved":false,"is_disabled":false,"rental_uris":{"android":"levelo://app?vid=6e648fdd-9834-4107-b7cd-ee8006a1ae8e","ios":"levelo://app?vid=6e648fdd-9834-4107-b7cd-ee8006a1ae8e"},"vehicle_type_id":"4","last_reported":1721660938,"current_range_meters":23200,"station_id":"ce4bhbh2rcd13ifvqeqg","pricing_plan_id":"cebpf4jnsgd1na2vs0mg"},{"bike_id":"2f8416c3-1ebb-4253-9643-fef63bc36906","system_id":"levelo_inurba_marseille","lat":43.298764,"lon":5.388973,"is_reserved":false,"is_disabled":false,"rental_uris":{"android":"levelo://app?vid=2f8416c3-1ebb-4253-9643-fef63bc36906","ios":"levelo://app?vid=2f8416c3-1ebb-4253-9643-fef63bc36906"},"vehicle_type_id":"4","last_reported":1721660938,"current_range_meters":0,"station_id":"ce4bh392rcd13ifvqdl0","pricing_plan_id":"cebpf4jnsgd1na2vs0mg"},{"bike_id":"dbaf6cc7-0718-4f69-9eba-dbb1da9ca4b2","system_id":"levelo_inurba_marseille","lat":43.291671,"lon":5.371575,"is_reserved":false,"is_disabled":false,"rental_uris":{"android":"levelo://app?vid=dbaf6cc7-0718-4f69-9eba-dbb1da9ca4b2","ios":"levelo://app?vid=dbaf6cc7-0718-4f69-9eba-dbb1da9ca4b2"},"vehicle_type_id":"4","last_reported":1721660938,"current_range_meters":18400,"station_id":"ce4bha92rcd13ifvqeh0","pricing_plan_id":"cebpf4jnsgd1na2vs0mg"},{"bike_id":"6022a7f1-3721-4f83-8429-5d56e4d4b6b9","system_id":"levelo_inurba_marseille","lat":43.313357,"lon":5.397063,"is_reserved":false,"is_disabled":false,"rental_uris":{"android":"levelo://app?vid=6022a7f1-3721-4f83-8429-5d56e4d4b6b9","ios":"levelo://app?vid=6022a7f1-3721-4f83-8429-5d56e4d4b6b9"},"vehicle_type_id":"4","last_reported":1721660938,"current_range_meters":6400,"station_id":"ce4bgvp2rcd13ifvqcu0","pricing_plan_id":"cebpf4jnsgd1na2vs0mg"},{"bike_id":"3763d08f-7d3b-4113-97ee-71ab6b9579de","system_id":"levelo_inurba_marseille","lat":43.29065,"lon":5.3716,"is_reserved":false,"is_disabled":false,"rental_uris":{"android":"levelo://app?vid=3763d08f-7d3b-4113-97ee-71ab6b9579de","ios":"levelo://app?vid=3763d08f-7d3b-4113-97ee-71ab6b9579de"},"vehicle_type_id":"4","last_reported":1721660938,"current_range_meters":24000,"station_id":"ce4bh5p2rcd13ifvqe4g","pricing_plan_id":"cebpf4jnsgd1na2vs0mg"},{"bike_id":"55df9f2d-f7a3-4665-a41f-444ee3ba63d7","system_id":"levelo_inurba_marseille","lat":43.290631,"lon":5.359244,"is_reserved":false,"is_disabled":false,"rental_uris":{"android":"levelo://app?vid=55df9f2d-f7a3-4665-a41f-444ee3ba63d7","ios":"levelo://app?vid=55df9f2d-f7a3-4665-a41f-444ee3ba63d7"},"vehicle_type_id":"4","last_reported":1721660938,"current_range_meters":0,"station_id":"ce4bha92rcd13ifvqeg0","pricing_plan_id":"cebpf4jnsgd1na2vs0mg"},{"bike_id":"8be30041-c5df-4d95-84ac-36d973e3e368","system_id":"levelo_inurba_marseille","lat":43.28952,"lon":5.36471,"is_reserved":false,"is_disabled":false,"rental_uris":{"android":"levelo://app?vid=8be30041-c5df-4d95-84ac-36d973e3e368","ios":"levelo://app?vid=8be30041-c5df-4d95-84ac-36d973e3e368"},"vehicle_type_id":"4","last_reported":1721660938,"current_range_meters":4000,"station_id":"","pricing_plan_id":"cebpf4jnsgd1na2vs0mg"},{"bike_id":"9c7db638-4287-4c5f-a9c6-33e256e00b69","system_id":"levelo_inurba_marseille","lat":43.28945,"lon":5.36639,"is_reserved":false,"is_disabled":false,"rental_uris":{"android":"levelo://app?vid=9c7db638-4287-4c5f-a9c6-33e256e00b69","ios":"levelo://app?vid=9c7db638-4287-4c5f-a9c6-33e256e00b69"},"vehicle_type_id":"4","last_reported":1721660938,"current_range_meters":0,"station_id":"ce4bhap2rcd13ifvqek0","pricing_plan_id":"cebpf4jnsgd1na2vs0mg"},{"bike_id":"088d5eda-8c89-4503-a526-4562361341f1","system_id":"levelo_inurba_marseille","lat":43.2894,"lon":5.36633,"is_reserved":false,"is_disabled":false,"rental_uris":{"android":"levelo://app?vid=088d5eda-8c89-4503-a526-4562361341f1","ios":"levelo://app?vid=088d5eda-8c89-4503-a526-4562361341f1"},"vehicle_type_id":"4","last_reported":1721660938,"current_range_meters":0,"station_id":"ce4bhap2rcd13ifvqek0","pricing_plan_id":"cebpf4jnsgd1na2vs0mg"},{"bike_id":"48d37d0b-7f9c-4495-b85c-0798b41fbe99","system_id":"levelo_inurba_marseille","lat":43.289184,"lon":5.366408,"is_reserved":false,"is_disabled":false,"rental_uris":{"android":"levelo://app?vid=48d37d0b-7f9c-4495-b85c-0798b41fbe99","ios":"levelo://app?vid=48d37d0b-7f9c-4495-b85c-0798b41fbe99"},"vehicle_type_id":"4","last_reported":1721660938,"current_range_meters":20400,"station_id":"ce4bhap2rcd13ifvqek0","pricing_plan_id":"cebpf4jnsgd1na2vs0mg"},{"bike_id":"72d574d1-5942-46f9-894a-2c8e4a99fee2","system_id":"levelo_inurba_marseille","lat":43.28937,"lon":5.363983,"is_reserved":false,"is_disabled":false,"rental_uris":{"android":"levelo://app?vid=72d574d1-5942-46f9-894a-2c8e4a99fee2","ios":"levelo://app?vid=72d574d1-5942-46f9-894a-2c8e4a99fee2"},"vehicle_type_id":"4","last_reported":1721660938,"current_range_meters":0,"station_id":"ce4bhc92rcd13ifvqetg","pricing_plan_id":"cebpf4jnsgd1na2vs0mg"},{"bike_id":"e11c84c8-38a3-4373-b05b-96c28805b4ed","system_id":"levelo_inurba_marseille","lat":43.292644,"lon":5.384257,"is_reserved":false,"is_disabled":false,"rental_uris":{"android":"levelo://app?vid=e11c84c8-38a3-4373-b05b-96c28805b4ed","ios":"levelo://app?vid=e11c84c8-38a3-4373-b05b-96c28805b4ed"},"vehicle_type_id":"4","last_reported":1721660938,"current_range_meters":0,"station_id":"ce4bh692rcd13ifvqea0","pricing_plan_id":"cebpf4jnsgd1na2vs0mg"},{"bike_id":"cc55692b-ed73-4f41-a761-2a7dd86c294b","system_id":"levelo_inurba_marseille","lat":43.292644,"lon":5.384257,"is_reserved":false,"is_disabled":false,"rental_uris":{"android":"levelo://app?vid=cc55692b-ed73-4f41-a761-2a7dd86c294b","ios":"levelo://app?vid=cc55692b-ed73-4f41-a761-2a7dd86c294b"},"vehicle_type_id":"4","last_reported":1721660938,"current_range_meters":3200,"station_id":"ce4bh692rcd13ifvqea0","pricing_plan_id":"cebpf4jnsgd1na2vs0mg"},{"bike_id":"c0606ec3-48e8-48bc-8e91-95062d222cd9","system_id":"levelo_inurba_marseille","lat":43.304274,"lon":5.397513,"is_reserved":false,"is_disabled":false,"rental_uris":{"android":"levelo://app?vid=c0606ec3-48e8-48bc-8e91-95062d222cd9","ios":"levelo://app?vid=c0606ec3-48e8-48bc-8e91-95062d222cd9"},"vehicle_type_id":"4","last_reported":1721660938,"current_range_meters":6000,"station_id":"ce4bh092rcd13ifvqd20","pricing_plan_id":"cebpf4jnsgd1na2vs0mg"},{"bike_id":"5476f1b7-d634-4fe4-af36-7845afac2274","system_id":"levelo_inurba_marseille","lat":43.290103,"lon":5.356114,"is_reserved":false,"is_disabled":false,"rental_uris":{"android":"levelo://app?vid=5476f1b7-d634-4fe4-af36-7845afac2274","ios":"levelo://app?vid=5476f1b7-d634-4fe4-af36-7845afac2274"},"vehicle_type_id":"4","last_reported":1721660938,"current_range_meters":18800,"station_id":"ce4bhb92rcd13ifvqen0","pricing_plan_id":"cebpf4jnsgd1na2vs0mg"},{"bike_id":"347eeaf2-84f6-440d-9c88-4cd58da1ca97","system_id":"levelo_inurba_marseille","lat":43.290104,"lon":5.356111,"is_reserved":false,"is_disabled":false,"rental_uris":{"android":"levelo://app?vid=347eeaf2-84f6-440d-9c88-4cd58da1ca97","ios":"levelo://app?vid=347eeaf2-84f6-440d-9c88-4cd58da1ca97"},"vehicle_type_id":"4","last_reported":1721660938,"current_range_meters":30000,"station_id":"ce4bhb92rcd13ifvqen0","pricing_plan_id":"cebpf4jnsgd1na2vs0mg"},{"bike_id":"02fc271a-fac2-434b-9420-bcf391d6fca8","system_id":"levelo_inurba_marseille","lat":43.290104,"lon":5.356111,"is_reserved":false,"is_disabled":false,"rental_uris":{"android":"levelo://app?vid=02fc271a-fac2-434b-9420-bcf391d6fca8","ios":"levelo://app?vid=02fc271a-fac2-434b-9420-bcf391d6fca8"},"vehicle_type_id":"4","last_reported":1721660938,"current_range_meters":400,"station_id":"ce4bhb92rcd13ifvqen0","pricing_plan_id":"cebpf4jnsgd1na2vs0mg"},{"bike_id":"8d0e4391-6c95-444d-9075-7ec63d43e870","system_id":"levelo_inurba_marseille","lat":43.290104,"lon":5.356111,"is_reserved":false,"is_disabled":false,"rental_uris":{"android":"levelo://app?vid=8d0e4391-6c95-444d-9075-7ec63d43e870","ios":"levelo://app?vid=8d0e4391-6c95-444d-9075-7ec63d43e870"},"vehicle_type_id":"4","last_reported":1721660938,"current_range_meters":4000,"station_id":"ce4bhb92rcd13ifvqen0","pricing_plan_id":"cebpf4jnsgd1na2vs0mg"},{"bike_id":"314666b4-76d2-421a-b3ea-0ba98d76c6da","system_id":"levelo_inurba_marseille","lat":43.295169,"lon":5.390426,"is_reserved":false,"is_disabled":false,"rental_uris":{"android":"levelo://app?vid=314666b4-76d2-421a-b3ea-0ba98d76c6da","ios":"levelo://app?vid=314666b4-76d2-421a-b3ea-0ba98d76c6da"},"vehicle_type_id":"4","last_reported":1721660938,"current_range_meters":27600,"station_id":"ce4bh3p2rcd13ifvqdp0","pricing_plan_id":"cebpf4jnsgd1na2vs0mg"},{"bike_id":"e3a94db4-0088-4c6c-b921-9c7de04efd17","system_id":"levelo_inurba_marseille","lat":43.33024,"lon":5.39047,"is_reserved":false,"is_disabled":false,"rental_uris":{"android":"levelo://app?vid=e3a94db4-0088-4c6c-b921-9c7de04efd17","ios":"levelo://app?vid=e3a94db4-0088-4c6c-b921-9c7de04efd17"},"vehicle_type_id":"4","last_reported":1721660938,"current_range_meters":27600,"station_id":"ce4bhr92rcd13ifvqhrg","pricing_plan_id":"cebpf4jnsgd1na2vs0mg"},{"bike_id":"db7346cb-212e-4d82-95e3-e815ab162370","system_id":"levelo_inurba_marseille","lat":43.31074,"lon":5.40089,"is_reserved":false,"is_disabled":false,"rental_uris":{"android":"levelo://app?vid=db7346cb-212e-4d82-95e3-e815ab162370","ios":"levelo://app?vid=db7346cb-212e-4d82-95e3-e815ab162370"},"vehicle_type_id":"4","last_reported":1721660938,"current_range_meters":31200,"station_id":"","pricing_plan_id":"cebpf4jnsgd1na2vs0mg"},{"bike_id":"cd0a8744-497f-4936-9998-8a2135ab3e31","system_id":"levelo_inurba_marseille","lat":43.310677,"lon":5.40093,"is_reserved":false,"is_disabled":false,"rental_uris":{"android":"levelo://app?vid=cd0a8744-497f-4936-9998-8a2135ab3e31","ios":"levelo://app?vid=cd0a8744-497f-4936-9998-8a2135ab3e31"},"vehicle_type_id":"4","last_reported":1721660938,"current_range_meters":24800,"station_id":"","pricing_plan_id":"cebpf4jnsgd1na2vs0mg"},{"bike_id":"b9f4fa9d-2a7b-4761-ad19-9a366ee33247","system_id":"levelo_inurba_marseille","lat":43.2901,"lon":5.381269,"is_reserved":false,"is_disabled":false,"rental_uris":{"android":"levelo://app?vid=b9f4fa9d-2a7b-4761-ad19-9a366ee33247","ios":"levelo://app?vid=b9f4fa9d-2a7b-4761-ad19-9a366ee33247"},"vehicle_type_id":"4","last_reported":1721660938,"current_range_meters":400,"station_id":"ce4bh4p2rcd13ifvqe1g","pricing_plan_id":"cebpf4jnsgd1na2vs0mg"},{"bike_id":"020d94fd-67d1-4f87-ae24-f2b8b256f83c","system_id":"levelo_inurba_marseille","lat":43.309371,"lon":5.401449,"is_reserved":false,"is_disabled":false,"rental_uris":{"android":"levelo://app?vid=020d94fd-67d1-4f87-ae24-f2b8b256f83c","ios":"levelo://app?vid=020d94fd-67d1-4f87-ae24-f2b8b256f83c"},"vehicle_type_id":"4","last_reported":1721660938,"current_range_meters":16400,"station_id":"ce4bgvp2rcd13ifvqct0","pricing_plan_id":"cebpf4jnsgd1na2vs0mg"},{"bike_id":"8aad4b3a-5383-408e-ab3c-637816395348","system_id":"levelo_inurba_marseille","lat":43.33747,"lon":5.37457,"is_reserved":false,"is_disabled":false,"rental_uris":{"android":"levelo://app?vid=8aad4b3a-5383-408e-ab3c-637816395348","ios":"levelo://app?vid=8aad4b3a-5383-408e-ab3c-637816395348"},"vehicle_type_id":"4","last_reported":1721660938,"current_range_meters":20400,"station_id":"","pricing_plan_id":"cebpf4jnsgd1na2vs0mg"},{"bike_id":"9f4f7a69-64d9-4e57-a016-472cdb89d3bd","system_id":"levelo_inurba_marseille","lat":43.33747,"lon":5.37459,"is_reserved":false,"is_disabled":false,"rental_uris":{"android":"levelo://app?vid=9f4f7a69-64d9-4e57-a016-472cdb89d3bd","ios":"levelo://app?vid=9f4f7a69-64d9-4e57-a016-472cdb89d3bd"},"vehicle_type_id":"4","last_reported":1721660938,"current_range_meters":23600,"station_id":"","pricing_plan_id":"cebpf4jnsgd1na2vs0mg"},{"bike_id":"2fa75b7e-def1-4555-95f4-25083259dc68","system_id":"levelo_inurba_marseille","lat":43.33749,"lon":5.37448,"is_reserved":false,"is_disabled":false,"rental_uris":{"android":"levelo://app?vid=2fa75b7e-def1-4555-95f4-25083259dc68","ios":"levelo://app?vid=2fa75b7e-def1-4555-95f4-25083259dc68"},"vehicle_type_id":"4","last_reported":1721660938,"current_range_meters":21600,"station_id":"","pricing_plan_id":"cebpf4jnsgd1na2vs0mg"},{"bike_id":"d30176d3-57cf-4662-85ac-4d2def454fa4","system_id":"levelo_inurba_marseille","lat":43.337497,"lon":5.374523,"is_reserved":false,"is_disabled":false,"rental_uris":{"android":"levelo://app?vid=d30176d3-57cf-4662-85ac-4d2def454fa4","ios":"levelo://app?vid=d30176d3-57cf-4662-85ac-4d2def454fa4"},"vehicle_type_id":"4","last_reported":1721660938,"current_range_meters":26800,"station_id":"","pricing_plan_id":"cebpf4jnsgd1na2vs0mg"},{"bike_id":"4eaef2c7-71f5-4744-ab23-cf70bd4039ee","system_id":"levelo_inurba_marseille","lat":43.3375,"lon":5.37454,"is_reserved":false,"is_disabled":false,"rental_uris":{"android":"levelo://app?vid=4eaef2c7-71f5-4744-ab23-cf70bd4039ee","ios":"levelo://app?vid=4eaef2c7-71f5-4744-ab23-cf70bd4039ee"},"vehicle_type_id":"4","last_reported":1721660938,"current_range_meters":25200,"station_id":"","pricing_plan_id":"cebpf4jnsgd1na2vs0mg"},{"bike_id":"729da992-572f-4e25-b807-f56a27b5dd22","system_id":"levelo_inurba_marseille","lat":43.33752,"lon":5.37449,"is_reserved":false,"is_disabled":false,"rental_uris":{"android":"levelo://app?vid=729da992-572f-4e25-b807-f56a27b5dd22","ios":"levelo://app?vid=729da992-572f-4e25-b807-f56a27b5dd22"},"vehicle_type_id":"4","last_reported":1721660938,"current_range_meters":16400,"station_id":"","pricing_plan_id":"cebpf4jnsgd1na2vs0mg"},{"bike_id":"192a866a-6f86-404d-812c-31129be9ed74","system_id":"levelo_inurba_marseille","lat":43.33754,"lon":5.37451,"is_reserved":false,"is_disabled":false,"rental_uris":{"android":"levelo://app?vid=192a866a-6f86-404d-812c-31129be9ed74","ios":"levelo://app?vid=192a866a-6f86-404d-812c-31129be9ed74"},"vehicle_type_id":"4","last_reported":1721660938,"current_range_meters":28000,"station_id":"","pricing_plan_id":"cebpf4jnsgd1na2vs0mg"},{"bike_id":"5597d3ad-9e62-46fc-b8ff-1ca2163dbd74","system_id":"levelo_inurba_marseille","lat":43.33755,"lon":5.37483,"is_reserved":false,"is_disabled":false,"rental_uris":{"android":"levelo://app?vid=5597d3ad-9e62-46fc-b8ff-1ca2163dbd74","ios":"levelo://app?vid=5597d3ad-9e62-46fc-b8ff-1ca2163dbd74"},"vehicle_type_id":"4","last_reported":1721660938,"current_range_meters":24000,"station_id":"","pricing_plan_id":"cebpf4jnsgd1na2vs0mg"},{"bike_id":"81c9a9b0-13bf-4fdc-87d1-19574fecb107","system_id":"levelo_inurba_marseille","lat":43.30642,"lon":5.401031,"is_reserved":false,"is_disabled":false,"rental_uris":{"android":"levelo://app?vid=81c9a9b0-13bf-4fdc-87d1-19574fecb107","ios":"levelo://app?vid=81c9a9b0-13bf-4fdc-87d1-19574fecb107"},"vehicle_type_id":"4","last_reported":1721660938,"current_range_meters":21200,"station_id":"ce4bh112rcd13ifvqda0","pricing_plan_id":"cebpf4jnsgd1na2vs0mg"},{"bike_id":"a476c9c4-c5c6-405b-93b1-01d15a6fa4ec","system_id":"levelo_inurba_marseille","lat":43.286961,"lon":5.373785,"is_reserved":false,"is_disabled":false,"rental_uris":{"android":"levelo://app?vid=a476c9c4-c5c6-405b-93b1-01d15a6fa4ec","ios":"levelo://app?vid=a476c9c4-c5c6-405b-93b1-01d15a6fa4ec"},"vehicle_type_id":"4","last_reported":1721660938,"current_range_meters":2800,"station_id":"ce4bh3p2rcd13ifvqdq0","pricing_plan_id":"cebpf4jnsgd1na2vs0mg"},{"bike_id":"841d106e-7492-4453-b81e-075c25ef704d","system_id":"levelo_inurba_marseille","lat":43.298681,"lon":5.397225,"is_reserved":false,"is_disabled":false,"rental_uris":{"android":"levelo://app?vid=841d106e-7492-4453-b81e-075c25ef704d","ios":"levelo://app?vid=841d106e-7492-4453-b81e-075c25ef704d"},"vehicle_type_id":"4","last_reported":1721660938,"current_range_meters":12400,"station_id":"ce4bh0h2rcd13ifvqd50","pricing_plan_id":"cebpf4jnsgd1na2vs0mg"},{"bike_id":"3a0e6d63-ee7c-4a23-a99a-8b6425afa419","system_id":"levelo_inurba_marseille","lat":43.286961,"lon":5.373785,"is_reserved":false,"is_disabled":false,"rental_uris":{"android":"levelo://app?vid=3a0e6d63-ee7c-4a23-a99a-8b6425afa419","ios":"levelo://app?vid=3a0e6d63-ee7c-4a23-a99a-8b6425afa419"},"vehicle_type_id":"4","last_reported":1721660938,"current_range_meters":26000,"station_id":"ce4bh3p2rcd13ifvqdq0","pricing_plan_id":"cebpf4jnsgd1na2vs0mg"},{"bike_id":"e9ce37dc-870e-4c6c-a50d-4930ce34b9a4","system_id":"levelo_inurba_marseille","lat":43.290336,"lon":5.386425,"is_reserved":false,"is_disabled":false,"rental_uris":{"android":"levelo://app?vid=e9ce37dc-870e-4c6c-a50d-4930ce34b9a4","ios":"levelo://app?vid=e9ce37dc-870e-4c6c-a50d-4930ce34b9a4"},"vehicle_type_id":"4","last_reported":1721660938,"current_range_meters":0,"station_id":"ce4bh4p2rcd13ifvqe0g","pricing_plan_id":"cebpf4jnsgd1na2vs0mg"},{"bike_id":"d4afd9c3-e72d-4040-8e6d-551eb68a35d9","system_id":"levelo_inurba_marseille","lat":43.302759,"lon":5.400793,"is_reserved":false,"is_disabled":false,"rental_uris":{"android":"levelo://app?vid=d4afd9c3-e72d-4040-8e6d-551eb68a35d9","ios":"levelo://app?vid=d4afd9c3-e72d-4040-8e6d-551eb68a35d9"},"vehicle_type_id":"4","last_reported":1721660938,"current_range_meters":26000,"station_id":"ce4bgvh2rcd13ifvqcs0","pricing_plan_id":"cebpf4jnsgd1na2vs0mg"},{"bike_id":"cceb58ad-c78a-4d4e-9062-c05a08011d05","system_id":"levelo_inurba_marseille","lat":43.290336,"lon":5.386425,"is_reserved":false,"is_disabled":false,"rental_uris":{"android":"levelo://app?vid=cceb58ad-c78a-4d4e-9062-c05a08011d05","ios":"levelo://app?vid=cceb58ad-c78a-4d4e-9062-c05a08011d05"},"vehicle_type_id":"4","last_reported":1721660938,"current_range_meters":0,"station_id":"ce4bh4p2rcd13ifvqe0g","pricing_plan_id":"cebpf4jnsgd1na2vs0mg"},{"bike_id":"6e91fd91-a2c1-492a-9fda-d4de62a75286","system_id":"levelo_inurba_marseille","lat":43.286039,"lon":5.370679,"is_reserved":false,"is_disabled":false,"rental_uris":{"android":"levelo://app?vid=6e91fd91-a2c1-492a-9fda-d4de62a75286","ios":"levelo://app?vid=6e91fd91-a2c1-492a-9fda-d4de62a75286"},"vehicle_type_id":"4","last_reported":1721660938,"current_range_meters":20400,"station_id":"ce4bht12rcd13ifvqi60","pricing_plan_id":"cebpf4jnsgd1na2vs0mg"},{"bike_id":"4e42062f-63d0-40bc-8e68-86e920508aaa","system_id":"levelo_inurba_marseille","lat":43.286039,"lon":5.370679,"is_reserved":false,"is_disabled":false,"rental_uris":{"android":"levelo://app?vid=4e42062f-63d0-40bc-8e68-86e920508aaa","ios":"levelo://app?vid=4e42062f-63d0-40bc-8e68-86e920508aaa"},"vehicle_type_id":"4","last_reported":1721660938,"current_range_meters":14800,"station_id":"ce4bht12rcd13ifvqi60","pricing_plan_id":"cebpf4jnsgd1na2vs0mg"},{"bike_id":"1fbc4636-9251-4079-bc4c-480a80baf57e","system_id":"levelo_inurba_marseille","lat":43.286039,"lon":5.370681,"is_reserved":false,"is_disabled":false,"rental_uris":{"android":"levelo://app?vid=1fbc4636-9251-4079-bc4c-480a80baf57e","ios":"levelo://app?vid=1fbc4636-9251-4079-bc4c-480a80baf57e"},"vehicle_type_id":"4","last_reported":1721660938,"current_range_meters":17600,"station_id":"ce4bht12rcd13ifvqi60","pricing_plan_id":"cebpf4jnsgd1na2vs0mg"},{"bike_id":"78fc42b8-ca9e-4364-95f3-29f2ce9f4a58","system_id":"levelo_inurba_marseille","lat":43.286039,"lon":5.370679,"is_reserved":false,"is_disabled":false,"rental_uris":{"android":"levelo://app?vid=78fc42b8-ca9e-4364-95f3-29f2ce9f4a58","ios":"levelo://app?vid=78fc42b8-ca9e-4364-95f3-29f2ce9f4a58"},"vehicle_type_id":"4","last_reported":1721660938,"current_range_meters":5600,"station_id":"ce4bht12rcd13ifvqi60","pricing_plan_id":"cebpf4jnsgd1na2vs0mg"},{"bike_id":"ae33b776-4ae5-4531-aa19-e3f46b6ef28e","system_id":"levelo_inurba_marseille","lat":43.287184,"lon":5.37937,"is_reserved":false,"is_disabled":false,"rental_uris":{"android":"levelo://app?vid=ae33b776-4ae5-4531-aa19-e3f46b6ef28e","ios":"levelo://app?vid=ae33b776-4ae5-4531-aa19-e3f46b6ef28e"},"vehicle_type_id":"4","last_reported":1721660938,"current_range_meters":2800,"station_id":"ce4bh9p2rcd13ifvqec0","pricing_plan_id":"cebpf4jnsgd1na2vs0mg"},{"bike_id":"502155ee-8a95-4f59-9f0c-77d1d1045b13","system_id":"levelo_inurba_marseille","lat":43.28715,"lon":5.37924,"is_reserved":false,"is_disabled":false,"rental_uris":{"android":"levelo://app?vid=502155ee-8a95-4f59-9f0c-77d1d1045b13","ios":"levelo://app?vid=502155ee-8a95-4f59-9f0c-77d1d1045b13"},"vehicle_type_id":"4","last_reported":1721660938,"current_range_meters":4400,"station_id":"ce4bh9p2rcd13ifvqec0","pricing_plan_id":"cebpf4jnsgd1na2vs0mg"},{"bike_id":"0321fbb6-be1d-412d-b2c9-60c5cb75fe21","system_id":"levelo_inurba_marseille","lat":43.316828,"lon":5.404723,"is_reserved":false,"is_disabled":false,"rental_uris":{"android":"levelo://app?vid=0321fbb6-be1d-412d-b2c9-60c5cb75fe21","ios":"levelo://app?vid=0321fbb6-be1d-412d-b2c9-60c5cb75fe21"},"vehicle_type_id":"4","last_reported":1721660938,"current_range_meters":0,"station_id":"ce4bh012rcd13ifvqd00","pricing_plan_id":"cebpf4jnsgd1na2vs0mg"},{"bike_id":"9dfeccf4-e77a-4fba-86ce-8f11b28c0f46","system_id":"levelo_inurba_marseille","lat":43.284538,"lon":5.358657,"is_reserved":false,"is_disabled":false,"rental_uris":{"android":"levelo://app?vid=9dfeccf4-e77a-4fba-86ce-8f11b28c0f46","ios":"levelo://app?vid=9dfeccf4-e77a-4fba-86ce-8f11b28c0f46"},"vehicle_type_id":"4","last_reported":1721660938,"current_range_meters":8800,"station_id":"ce4bhah2rcd13ifvqei0","pricing_plan_id":"cebpf4jnsgd1na2vs0mg"},{"bike_id":"9e8321d1-a5bb-4da3-a04e-9d9a333d621c","system_id":"levelo_inurba_marseille","lat":43.284538,"lon":5.358657,"is_reserved":false,"is_disabled":false,"rental_uris":{"android":"levelo://app?vid=9e8321d1-a5bb-4da3-a04e-9d9a333d621c","ios":"levelo://app?vid=9e8321d1-a5bb-4da3-a04e-9d9a333d621c"},"vehicle_type_id":"4","last_reported":1721660938,"current_range_meters":15200,"station_id":"ce4bhah2rcd13ifvqei0","pricing_plan_id":"cebpf4jnsgd1na2vs0mg"},{"bike_id":"f09ff14e-402a-4f53-9dd5-ff516f68dd91","system_id":"levelo_inurba_marseille","lat":43.294314,"lon":5.397498,"is_reserved":false,"is_disabled":false,"rental_uris":{"android":"levelo://app?vid=f09ff14e-402a-4f53-9dd5-ff516f68dd91","ios":"levelo://app?vid=f09ff14e-402a-4f53-9dd5-ff516f68dd91"},"vehicle_type_id":"4","last_reported":1721660938,"current_range_meters":20000,"station_id":"ce4bh3h2rcd13ifvqdo0","pricing_plan_id":"cebpf4jnsgd1na2vs0mg"},{"bike_id":"d52c7007-869e-4829-8007-1708dbb35baa","system_id":"levelo_inurba_marseille","lat":43.286217,"lon":5.351173,"is_reserved":false,"is_disabled":false,"rental_uris":{"android":"levelo://app?vid=d52c7007-869e-4829-8007-1708dbb35baa","ios":"levelo://app?vid=d52c7007-869e-4829-8007-1708dbb35baa"},"vehicle_type_id":"4","last_reported":1721660938,"current_range_meters":16400,"station_id":"","pricing_plan_id":"cebpf4jnsgd1na2vs0mg"},{"bike_id":"0afc1f41-d21f-411b-a297-df451a39972f","system_id":"levelo_inurba_marseille","lat":43.2862,"lon":5.35106,"is_reserved":false,"is_disabled":false,"rental_uris":{"android":"levelo://app?vid=0afc1f41-d21f-411b-a297-df451a39972f","ios":"levelo://app?vid=0afc1f41-d21f-411b-a297-df451a39972f"},"vehicle_type_id":"4","last_reported":1721660938,"current_range_meters":25600,"station_id":"ce4bhch2rcd13ifvqeug","pricing_plan_id":"cebpf4jnsgd1na2vs0mg"},{"bike_id":"ffd4acb4-06c0-44ee-b0c4-a6ec0e71d953","system_id":"levelo_inurba_marseille","lat":43.2862,"lon":5.35103,"is_reserved":false,"is_disabled":false,"rental_uris":{"android":"levelo://app?vid=ffd4acb4-06c0-44ee-b0c4-a6ec0e71d953","ios":"levelo://app?vid=ffd4acb4-06c0-44ee-b0c4-a6ec0e71d953"},"vehicle_type_id":"4","last_reported":1721660938,"current_range_meters":4000,"station_id":"ce4bhch2rcd13ifvqeug","pricing_plan_id":"cebpf4jnsgd1na2vs0mg"},{"bike_id":"93aa6bb3-b971-4ab8-b5bc-78e329b59335","system_id":"levelo_inurba_marseille","lat":43.2862,"lon":5.35103,"is_reserved":false,"is_disabled":false,"rental_uris":{"android":"levelo://app?vid=93aa6bb3-b971-4ab8-b5bc-78e329b59335","ios":"levelo://app?vid=93aa6bb3-b971-4ab8-b5bc-78e329b59335"},"vehicle_type_id":"4","last_reported":1721660938,"current_range_meters":30400,"station_id":"ce4bhch2rcd13ifvqeug","pricing_plan_id":"cebpf4jnsgd1na2vs0mg"},{"bike_id":"24710ee4-e247-4a9f-95e6-512daa4f1261","system_id":"levelo_inurba_marseille","lat":43.28619,"lon":5.35105,"is_reserved":false,"is_disabled":false,"rental_uris":{"android":"levelo://app?vid=24710ee4-e247-4a9f-95e6-512daa4f1261","ios":"levelo://app?vid=24710ee4-e247-4a9f-95e6-512daa4f1261"},"vehicle_type_id":"4","last_reported":1721660938,"current_range_meters":9200,"station_id":"ce4bhch2rcd13ifvqeug","pricing_plan_id":"cebpf4jnsgd1na2vs0mg"},{"bike_id":"b8f37fdf-8b94-4cc7-aaa7-8b4370eb18e4","system_id":"levelo_inurba_marseille","lat":43.28618,"lon":5.35108,"is_reserved":false,"is_disabled":false,"rental_uris":{"android":"levelo://app?vid=b8f37fdf-8b94-4cc7-aaa7-8b4370eb18e4","ios":"levelo://app?vid=b8f37fdf-8b94-4cc7-aaa7-8b4370eb18e4"},"vehicle_type_id":"4","last_reported":1721660938,"current_range_meters":5600,"station_id":"ce4bhch2rcd13ifvqeug","pricing_plan_id":"cebpf4jnsgd1na2vs0mg"},{"bike_id":"e7742d52-9602-47d8-b20d-fd6bfc38e65b","system_id":"levelo_inurba_marseille","lat":43.2862,"lon":5.35099,"is_reserved":false,"is_disabled":false,"rental_uris":{"android":"levelo://app?vid=e7742d52-9602-47d8-b20d-fd6bfc38e65b","ios":"levelo://app?vid=e7742d52-9602-47d8-b20d-fd6bfc38e65b"},"vehicle_type_id":"4","last_reported":1721660938,"current_range_meters":19600,"station_id":"ce4bhch2rcd13ifvqeug","pricing_plan_id":"cebpf4jnsgd1na2vs0mg"},{"bike_id":"8f65dc7d-dd02-46b2-8d35-57d527702450","system_id":"levelo_inurba_marseille","lat":43.28617,"lon":5.35108,"is_reserved":false,"is_disabled":false,"rental_uris":{"android":"levelo://app?vid=8f65dc7d-dd02-46b2-8d35-57d527702450","ios":"levelo://app?vid=8f65dc7d-dd02-46b2-8d35-57d527702450"},"vehicle_type_id":"4","last_reported":1721660938,"current_range_meters":26400,"station_id":"ce4bhch2rcd13ifvqeug","pricing_plan_id":"cebpf4jnsgd1na2vs0mg"},{"bike_id":"4349abd9-325d-4cb3-87e1-c00e1d4ea19e","system_id":"levelo_inurba_marseille","lat":43.28616,"lon":5.35108,"is_reserved":false,"is_disabled":false,"rental_uris":{"android":"levelo://app?vid=4349abd9-325d-4cb3-87e1-c00e1d4ea19e","ios":"levelo://app?vid=4349abd9-325d-4cb3-87e1-c00e1d4ea19e"},"vehicle_type_id":"4","last_reported":1721660938,"current_range_meters":12400,"station_id":"ce4bhch2rcd13ifvqeug","pricing_plan_id":"cebpf4jnsgd1na2vs0mg"},{"bike_id":"dbdf25c0-12e8-4b4f-be43-32b56fc0fda3","system_id":"levelo_inurba_marseille","lat":43.285856,"lon":5.350771,"is_reserved":false,"is_disabled":false,"rental_uris":{"android":"levelo://app?vid=dbdf25c0-12e8-4b4f-be43-32b56fc0fda3","ios":"levelo://app?vid=dbdf25c0-12e8-4b4f-be43-32b56fc0fda3"},"vehicle_type_id":"4","last_reported":1721660938,"current_range_meters":6400,"station_id":"ce4bhch2rcd13ifvqeug","pricing_plan_id":"cebpf4jnsgd1na2vs0mg"},{"bike_id":"a9d25fcb-196c-4e14-882e-83df44502184","system_id":"levelo_inurba_marseille","lat":43.285856,"lon":5.350771,"is_reserved":false,"is_disabled":false,"rental_uris":{"android":"levelo://app?vid=a9d25fcb-196c-4e14-882e-83df44502184","ios":"levelo://app?vid=a9d25fcb-196c-4e14-882e-83df44502184"},"vehicle_type_id":"4","last_reported":1721660938,"current_range_meters":3600,"station_id":"ce4bhch2rcd13ifvqeug","pricing_plan_id":"cebpf4jnsgd1na2vs0mg"},{"bike_id":"3e2a386a-7d47-4d2c-b20b-8afb5b6c7601","system_id":"levelo_inurba_marseille","lat":43.28616,"lon":5.35104,"is_reserved":false,"is_disabled":false,"rental_uris":{"android":"levelo://app?vid=3e2a386a-7d47-4d2c-b20b-8afb5b6c7601","ios":"levelo://app?vid=3e2a386a-7d47-4d2c-b20b-8afb5b6c7601"},"vehicle_type_id":"4","last_reported":1721660938,"current_range_meters":24000,"station_id":"ce4bhch2rcd13ifvqeug","pricing_plan_id":"cebpf4jnsgd1na2vs0mg"},{"bike_id":"a7f64a50-b1e4-40a3-aaae-4e05cb78ff0a","system_id":"levelo_inurba_marseille","lat":43.28615,"lon":5.35102,"is_reserved":false,"is_disabled":false,"rental_uris":{"android":"levelo://app?vid=a7f64a50-b1e4-40a3-aaae-4e05cb78ff0a","ios":"levelo://app?vid=a7f64a50-b1e4-40a3-aaae-4e05cb78ff0a"},"vehicle_type_id":"4","last_reported":1721660938,"current_range_meters":9200,"station_id":"ce4bhch2rcd13ifvqeug","pricing_plan_id":"cebpf4jnsgd1na2vs0mg"},{"bike_id":"7ce2d101-6a5e-4c7d-8889-2dce6c184269","system_id":"levelo_inurba_marseille","lat":43.28613,"lon":5.35106,"is_reserved":false,"is_disabled":false,"rental_uris":{"android":"levelo://app?vid=7ce2d101-6a5e-4c7d-8889-2dce6c184269","ios":"levelo://app?vid=7ce2d101-6a5e-4c7d-8889-2dce6c184269"},"vehicle_type_id":"4","last_reported":1721660938,"current_range_meters":27600,"station_id":"ce4bhch2rcd13ifvqeug","pricing_plan_id":"cebpf4jnsgd1na2vs0mg"},{"bike_id":"977fdc93-12b7-4607-967c-4c0235a5a2d4","system_id":"levelo_inurba_marseille","lat":43.285848,"lon":5.350787,"is_reserved":false,"is_disabled":false,"rental_uris":{"android":"levelo://app?vid=977fdc93-12b7-4607-967c-4c0235a5a2d4","ios":"levelo://app?vid=977fdc93-12b7-4607-967c-4c0235a5a2d4"},"vehicle_type_id":"4","last_reported":1721660938,"current_range_meters":1600,"station_id":"ce4bhch2rcd13ifvqeug","pricing_plan_id":"cebpf4jnsgd1na2vs0mg"},{"bike_id":"09ef0bd5-e4e1-4709-b68f-99eeee3ab66f","system_id":"levelo_inurba_marseille","lat":43.285848,"lon":5.350787,"is_reserved":false,"is_disabled":false,"rental_uris":{"android":"levelo://app?vid=09ef0bd5-e4e1-4709-b68f-99eeee3ab66f","ios":"levelo://app?vid=09ef0bd5-e4e1-4709-b68f-99eeee3ab66f"},"vehicle_type_id":"4","last_reported":1721660938,"current_range_meters":24000,"station_id":"ce4bhch2rcd13ifvqeug","pricing_plan_id":"cebpf4jnsgd1na2vs0mg"},{"bike_id":"b332d821-f29a-4ac0-8dec-8c2c8450232b","system_id":"levelo_inurba_marseille","lat":43.2861,"lon":5.3511,"is_reserved":false,"is_disabled":false,"rental_uris":{"android":"levelo://app?vid=b332d821-f29a-4ac0-8dec-8c2c8450232b","ios":"levelo://app?vid=b332d821-f29a-4ac0-8dec-8c2c8450232b"},"vehicle_type_id":"4","last_reported":1721660938,"current_range_meters":6400,"station_id":"ce4bhch2rcd13ifvqeug","pricing_plan_id":"cebpf4jnsgd1na2vs0mg"},{"bike_id":"6c1ca359-9323-4d89-a96b-a8a31a26bad3","system_id":"levelo_inurba_marseille","lat":43.28611,"lon":5.35105,"is_reserved":false,"is_disabled":false,"rental_uris":{"android":"levelo://app?vid=6c1ca359-9323-4d89-a96b-a8a31a26bad3","ios":"levelo://app?vid=6c1ca359-9323-4d89-a96b-a8a31a26bad3"},"vehicle_type_id":"4","last_reported":1721660938,"current_range_meters":17200,"station_id":"ce4bhch2rcd13ifvqeug","pricing_plan_id":"cebpf4jnsgd1na2vs0mg"},{"bike_id":"201516f5-6b07-4b29-8055-4f7a403c7a96","system_id":"levelo_inurba_marseille","lat":43.285856,"lon":5.350771,"is_reserved":false,"is_disabled":false,"rental_uris":{"android":"levelo://app?vid=201516f5-6b07-4b29-8055-4f7a403c7a96","ios":"levelo://app?vid=201516f5-6b07-4b29-8055-4f7a403c7a96"},"vehicle_type_id":"4","last_reported":1721660938,"current_range_meters":1200,"station_id":"ce4bhch2rcd13ifvqeug","pricing_plan_id":"cebpf4jnsgd1na2vs0mg"},{"bike_id":"e5291535-43cd-4072-9083-7762706cc7ce","system_id":"levelo_inurba_marseille","lat":43.285848,"lon":5.350787,"is_reserved":false,"is_disabled":false,"rental_uris":{"android":"levelo://app?vid=e5291535-43cd-4072-9083-7762706cc7ce","ios":"levelo://app?vid=e5291535-43cd-4072-9083-7762706cc7ce"},"vehicle_type_id":"4","last_reported":1721660938,"current_range_meters":20800,"station_id":"ce4bhch2rcd13ifvqeug","pricing_plan_id":"cebpf4jnsgd1na2vs0mg"},{"bike_id":"46ba3346-7289-4170-b721-b7d8a6fa6cca","system_id":"levelo_inurba_marseille","lat":43.283998,"lon":5.375062,"is_reserved":false,"is_disabled":false,"rental_uris":{"android":"levelo://app?vid=46ba3346-7289-4170-b721-b7d8a6fa6cca","ios":"levelo://app?vid=46ba3346-7289-4170-b721-b7d8a6fa6cca"},"vehicle_type_id":"4","last_reported":1721660938,"current_range_meters":4400,"station_id":"ce4bh412rcd13ifvqds0","pricing_plan_id":"cebpf4jnsgd1na2vs0mg"},{"bike_id":"56ed91d4-aad9-4de7-8d32-73610d5b67cd","system_id":"levelo_inurba_marseille","lat":43.283998,"lon":5.375062,"is_reserved":false,"is_disabled":false,"rental_uris":{"android":"levelo://app?vid=56ed91d4-aad9-4de7-8d32-73610d5b67cd","ios":"levelo://app?vid=56ed91d4-aad9-4de7-8d32-73610d5b67cd"},"vehicle_type_id":"4","last_reported":1721660938,"current_range_meters":26000,"station_id":"ce4bh412rcd13ifvqds0","pricing_plan_id":"cebpf4jnsgd1na2vs0mg"},{"bike_id":"1f40643c-3356-4af7-9999-bde4b30c0aec","system_id":"levelo_inurba_marseille","lat":43.283998,"lon":5.375062,"is_reserved":false,"is_disabled":false,"rental_uris":{"android":"levelo://app?vid=1f40643c-3356-4af7-9999-bde4b30c0aec","ios":"levelo://app?vid=1f40643c-3356-4af7-9999-bde4b30c0aec"},"vehicle_type_id":"4","last_reported":1721660938,"current_range_meters":7600,"station_id":"ce4bh412rcd13ifvqds0","pricing_plan_id":"cebpf4jnsgd1na2vs0mg"},{"bike_id":"ecf70f86-2a87-4825-98e6-42db1f69efaa","system_id":"levelo_inurba_marseille","lat":43.286795,"lon":5.3865,"is_reserved":false,"is_disabled":false,"rental_uris":{"android":"levelo://app?vid=ecf70f86-2a87-4825-98e6-42db1f69efaa","ios":"levelo://app?vid=ecf70f86-2a87-4825-98e6-42db1f69efaa"},"vehicle_type_id":"4","last_reported":1721660938,"current_range_meters":0,"station_id":"ce4bh492rcd13ifvqdug","pricing_plan_id":"cebpf4jnsgd1na2vs0mg"},{"bike_id":"b5d468fe-8536-4f8a-9e4b-53aa1e48dbc3","system_id":"levelo_inurba_marseille","lat":43.286595,"lon":5.386795,"is_reserved":false,"is_disabled":false,"rental_uris":{"android":"levelo://app?vid=b5d468fe-8536-4f8a-9e4b-53aa1e48dbc3","ios":"levelo://app?vid=b5d468fe-8536-4f8a-9e4b-53aa1e48dbc3"},"vehicle_type_id":"4","last_reported":1721660938,"current_range_meters":4000,"station_id":"ce4bh492rcd13ifvqdug","pricing_plan_id":"cebpf4jnsgd1na2vs0mg"},{"bike_id":"46a23df9-1ddb-48e1-9183-92ad8451bec0","system_id":"levelo_inurba_marseille","lat":43.286595,"lon":5.386795,"is_reserved":false,"is_disabled":false,"rental_uris":{"android":"levelo://app?vid=46a23df9-1ddb-48e1-9183-92ad8451bec0","ios":"levelo://app?vid=46a23df9-1ddb-48e1-9183-92ad8451bec0"},"vehicle_type_id":"4","last_reported":1721660938,"current_range_meters":4800,"station_id":"ce4bh492rcd13ifvqdug","pricing_plan_id":"cebpf4jnsgd1na2vs0mg"},{"bike_id":"13cd697a-2538-4368-9e18-71439dc17365","system_id":"levelo_inurba_marseille","lat":43.283494,"lon":5.380945,"is_reserved":false,"is_disabled":false,"rental_uris":{"android":"levelo://app?vid=13cd697a-2538-4368-9e18-71439dc17365","ios":"levelo://app?vid=13cd697a-2538-4368-9e18-71439dc17365"},"vehicle_type_id":"4","last_reported":1721660938,"current_range_meters":13600,"station_id":"ce4bh412rcd13ifvqdr0","pricing_plan_id":"cebpf4jnsgd1na2vs0mg"},{"bike_id":"c5b52362-45cf-45a0-8407-e7339c4a07c2","system_id":"levelo_inurba_marseille","lat":43.3234,"lon":5.40618,"is_reserved":false,"is_disabled":false,"rental_uris":{"android":"levelo://app?vid=c5b52362-45cf-45a0-8407-e7339c4a07c2","ios":"levelo://app?vid=c5b52362-45cf-45a0-8407-e7339c4a07c2"},"vehicle_type_id":"4","last_reported":1721660938,"current_range_meters":10400,"station_id":"ce4bhq92rcd13ifvqhjg","pricing_plan_id":"cebpf4jnsgd1na2vs0mg"},{"bike_id":"38eae32d-5805-4b37-9f68-7b97692c7d8f","system_id":"levelo_inurba_marseille","lat":43.32335,"lon":5.40626,"is_reserved":false,"is_disabled":false,"rental_uris":{"android":"levelo://app?vid=38eae32d-5805-4b37-9f68-7b97692c7d8f","ios":"levelo://app?vid=38eae32d-5805-4b37-9f68-7b97692c7d8f"},"vehicle_type_id":"4","last_reported":1721660938,"current_range_meters":11600,"station_id":"ce4bhq92rcd13ifvqhjg","pricing_plan_id":"cebpf4jnsgd1na2vs0mg"},{"bike_id":"3d2a829e-bb79-4e68-8975-83d3bc392cd0","system_id":"levelo_inurba_marseille","lat":43.323464,"lon":5.406297,"is_reserved":false,"is_disabled":false,"rental_uris":{"android":"levelo://app?vid=3d2a829e-bb79-4e68-8975-83d3bc392cd0","ios":"levelo://app?vid=3d2a829e-bb79-4e68-8975-83d3bc392cd0"},"vehicle_type_id":"4","last_reported":1721660938,"current_range_meters":9600,"station_id":"ce4bhq92rcd13ifvqhjg","pricing_plan_id":"cebpf4jnsgd1na2vs0mg"},{"bike_id":"e77073b4-b37c-4e98-83f1-5a3945820abf","system_id":"levelo_inurba_marseille","lat":43.337168,"lon":5.391825,"is_reserved":false,"is_disabled":false,"rental_uris":{"android":"levelo://app?vid=e77073b4-b37c-4e98-83f1-5a3945820abf","ios":"levelo://app?vid=e77073b4-b37c-4e98-83f1-5a3945820abf"},"vehicle_type_id":"4","last_reported":1721660938,"current_range_meters":26800,"station_id":"ce4bhr92rcd13ifvqhsg","pricing_plan_id":"cebpf4jnsgd1na2vs0mg"},{"bike_id":"867719cc-093b-4e23-89c4-3f12626821d8","system_id":"levelo_inurba_marseille","lat":43.323517,"lon":5.406227,"is_reserved":false,"is_disabled":false,"rental_uris":{"android":"levelo://app?vid=867719cc-093b-4e23-89c4-3f12626821d8","ios":"levelo://app?vid=867719cc-093b-4e23-89c4-3f12626821d8"},"vehicle_type_id":"4","last_reported":1721660938,"current_range_meters":18800,"station_id":"ce4bhq92rcd13ifvqhjg","pricing_plan_id":"cebpf4jnsgd1na2vs0mg"},{"bike_id":"27b6caa7-691b-4cfa-bda9-beb30d2da9ec","system_id":"levelo_inurba_marseille","lat":43.284793,"lon":5.384119,"is_reserved":false,"is_disabled":false,"rental_uris":{"android":"levelo://app?vid=27b6caa7-691b-4cfa-bda9-beb30d2da9ec","ios":"levelo://app?vid=27b6caa7-691b-4cfa-bda9-beb30d2da9ec"},"vehicle_type_id":"4","last_reported":1721660938,"current_range_meters":3600,"station_id":"ce4bh512rcd13ifvqe3g","pricing_plan_id":"cebpf4jnsgd1na2vs0mg"},{"bike_id":"ea2f1790-d143-455e-a743-35cab750887c","system_id":"levelo_inurba_marseille","lat":43.284219,"lon":5.3497,"is_reserved":false,"is_disabled":false,"rental_uris":{"android":"levelo://app?vid=ea2f1790-d143-455e-a743-35cab750887c","ios":"levelo://app?vid=ea2f1790-d143-455e-a743-35cab750887c"},"vehicle_type_id":"4","last_reported":1721660938,"current_range_meters":22000,"station_id":"ce4bhbh2rcd13ifvqepg","pricing_plan_id":"cebpf4jnsgd1na2vs0mg"},{"bike_id":"f157b4e9-5ad3-4440-ab75-6d7c25dbe143","system_id":"levelo_inurba_marseille","lat":43.284219,"lon":5.3497,"is_reserved":false,"is_disabled":false,"rental_uris":{"android":"levelo://app?vid=f157b4e9-5ad3-4440-ab75-6d7c25dbe143","ios":"levelo://app?vid=f157b4e9-5ad3-4440-ab75-6d7c25dbe143"},"vehicle_type_id":"4","last_reported":1721660938,"current_range_meters":23200,"station_id":"ce4bhbh2rcd13ifvqepg","pricing_plan_id":"cebpf4jnsgd1na2vs0mg"},{"bike_id":"f9a43cc8-3e88-47c2-93a8-f61ff586b2f2","system_id":"levelo_inurba_marseille","lat":43.284325,"lon":5.349889,"is_reserved":false,"is_disabled":false,"rental_uris":{"android":"levelo://app?vid=f9a43cc8-3e88-47c2-93a8-f61ff586b2f2","ios":"levelo://app?vid=f9a43cc8-3e88-47c2-93a8-f61ff586b2f2"},"vehicle_type_id":"4","last_reported":1721660938,"current_range_meters":28000,"station_id":"ce4bhbh2rcd13ifvqepg","pricing_plan_id":"cebpf4jnsgd1na2vs0mg"},{"bike_id":"77a0eb7d-259d-4dcc-a5f6-ed10e64299af","system_id":"levelo_inurba_marseille","lat":43.284219,"lon":5.3497,"is_reserved":false,"is_disabled":false,"rental_uris":{"android":"levelo://app?vid=77a0eb7d-259d-4dcc-a5f6-ed10e64299af","ios":"levelo://app?vid=77a0eb7d-259d-4dcc-a5f6-ed10e64299af"},"vehicle_type_id":"4","last_reported":1721660938,"current_range_meters":30800,"station_id":"ce4bhbh2rcd13ifvqepg","pricing_plan_id":"cebpf4jnsgd1na2vs0mg"},{"bike_id":"5c7f31e3-3ef5-4fce-b3ba-4748de3d06fb","system_id":"levelo_inurba_marseille","lat":43.28423,"lon":5.35009,"is_reserved":false,"is_disabled":false,"rental_uris":{"android":"levelo://app?vid=5c7f31e3-3ef5-4fce-b3ba-4748de3d06fb","ios":"levelo://app?vid=5c7f31e3-3ef5-4fce-b3ba-4748de3d06fb"},"vehicle_type_id":"4","last_reported":1721660938,"current_range_meters":18000,"station_id":"ce4bhbh2rcd13ifvqepg","pricing_plan_id":"cebpf4jnsgd1na2vs0mg"},{"bike_id":"b031b23c-41ce-4681-8f1a-e2a5d8e1ece4","system_id":"levelo_inurba_marseille","lat":43.283498,"lon":5.380948,"is_reserved":false,"is_disabled":false,"rental_uris":{"android":"levelo://app?vid=b031b23c-41ce-4681-8f1a-e2a5d8e1ece4","ios":"levelo://app?vid=b031b23c-41ce-4681-8f1a-e2a5d8e1ece4"},"vehicle_type_id":"4","last_reported":1721660938,"current_range_meters":400,"station_id":"ce4bh412rcd13ifvqdr0","pricing_plan_id":"cebpf4jnsgd1na2vs0mg"},{"bike_id":"39968a2c-1fb0-488c-a2f4-559a5c61c96d","system_id":"levelo_inurba_marseille","lat":43.284219,"lon":5.3497,"is_reserved":false,"is_disabled":false,"rental_uris":{"android":"levelo://app?vid=39968a2c-1fb0-488c-a2f4-559a5c61c96d","ios":"levelo://app?vid=39968a2c-1fb0-488c-a2f4-559a5c61c96d"},"vehicle_type_id":"4","last_reported":1721660938,"current_range_meters":31200,"station_id":"ce4bhbh2rcd13ifvqepg","pricing_plan_id":"cebpf4jnsgd1na2vs0mg"},{"bike_id":"2b502cd4-4e57-45e7-a8c8-eec8c626e3bc","system_id":"levelo_inurba_marseille","lat":43.284219,"lon":5.3497,"is_reserved":false,"is_disabled":false,"rental_uris":{"android":"levelo://app?vid=2b502cd4-4e57-45e7-a8c8-eec8c626e3bc","ios":"levelo://app?vid=2b502cd4-4e57-45e7-a8c8-eec8c626e3bc"},"vehicle_type_id":"4","last_reported":1721660938,"current_range_meters":28400,"station_id":"ce4bhbh2rcd13ifvqepg","pricing_plan_id":"cebpf4jnsgd1na2vs0mg"},{"bike_id":"01719bff-14fa-4122-840f-31bf9883fb9b","system_id":"levelo_inurba_marseille","lat":43.284219,"lon":5.3497,"is_reserved":false,"is_disabled":false,"rental_uris":{"android":"levelo://app?vid=01719bff-14fa-4122-840f-31bf9883fb9b","ios":"levelo://app?vid=01719bff-14fa-4122-840f-31bf9883fb9b"},"vehicle_type_id":"4","last_reported":1721660938,"current_range_meters":24000,"station_id":"ce4bhbh2rcd13ifvqepg","pricing_plan_id":"cebpf4jnsgd1na2vs0mg"},{"bike_id":"0c297fa9-6b34-4eb4-8ffe-89fa18a517c8","system_id":"levelo_inurba_marseille","lat":43.284219,"lon":5.3497,"is_reserved":false,"is_disabled":false,"rental_uris":{"android":"levelo://app?vid=0c297fa9-6b34-4eb4-8ffe-89fa18a517c8","ios":"levelo://app?vid=0c297fa9-6b34-4eb4-8ffe-89fa18a517c8"},"vehicle_type_id":"4","last_reported":1721660938,"current_range_meters":15600,"station_id":"ce4bhbh2rcd13ifvqepg","pricing_plan_id":"cebpf4jnsgd1na2vs0mg"},{"bike_id":"965a7451-b428-44da-bb4b-3e9eb059f318","system_id":"levelo_inurba_marseille","lat":43.284219,"lon":5.3497,"is_reserved":false,"is_disabled":false,"rental_uris":{"android":"levelo://app?vid=965a7451-b428-44da-bb4b-3e9eb059f318","ios":"levelo://app?vid=965a7451-b428-44da-bb4b-3e9eb059f318"},"vehicle_type_id":"4","last_reported":1721660938,"current_range_meters":31200,"station_id":"ce4bhbh2rcd13ifvqepg","pricing_plan_id":"cebpf4jnsgd1na2vs0mg"},{"bike_id":"eaa36c80-68e8-406c-8e36-81a7c389ec01","system_id":"levelo_inurba_marseille","lat":43.284219,"lon":5.3497,"is_reserved":false,"is_disabled":false,"rental_uris":{"android":"levelo://app?vid=eaa36c80-68e8-406c-8e36-81a7c389ec01","ios":"levelo://app?vid=eaa36c80-68e8-406c-8e36-81a7c389ec01"},"vehicle_type_id":"4","last_reported":1721660938,"current_range_meters":8400,"station_id":"ce4bhbh2rcd13ifvqepg","pricing_plan_id":"cebpf4jnsgd1na2vs0mg"},{"bike_id":"92f6c048-4535-49f1-b3d7-db72867d1d38","system_id":"levelo_inurba_marseille","lat":43.284186,"lon":5.350038,"is_reserved":false,"is_disabled":false,"rental_uris":{"android":"levelo://app?vid=92f6c048-4535-49f1-b3d7-db72867d1d38","ios":"levelo://app?vid=92f6c048-4535-49f1-b3d7-db72867d1d38"},"vehicle_type_id":"4","last_reported":1721660938,"current_range_meters":31200,"station_id":"ce4bhbh2rcd13ifvqepg","pricing_plan_id":"cebpf4jnsgd1na2vs0mg"},{"bike_id":"bd844829-dbf4-42dc-b785-d83e9d2eaae1","system_id":"levelo_inurba_marseille","lat":43.284217,"lon":5.349697,"is_reserved":false,"is_disabled":false,"rental_uris":{"android":"levelo://app?vid=bd844829-dbf4-42dc-b785-d83e9d2eaae1","ios":"levelo://app?vid=bd844829-dbf4-42dc-b785-d83e9d2eaae1"},"vehicle_type_id":"4","last_reported":1721660938,"current_range_meters":29600,"station_id":"ce4bhbh2rcd13ifvqepg","pricing_plan_id":"cebpf4jnsgd1na2vs0mg"},{"bike_id":"09146f52-3373-465e-9a12-1a419da61067","system_id":"levelo_inurba_marseille","lat":43.284219,"lon":5.3497,"is_reserved":false,"is_disabled":false,"rental_uris":{"android":"levelo://app?vid=09146f52-3373-465e-9a12-1a419da61067","ios":"levelo://app?vid=09146f52-3373-465e-9a12-1a419da61067"},"vehicle_type_id":"4","last_reported":1721660938,"current_range_meters":30800,"station_id":"ce4bhbh2rcd13ifvqepg","pricing_plan_id":"cebpf4jnsgd1na2vs0mg"},{"bike_id":"c5315605-f046-4b2f-985c-364459705088","system_id":"levelo_inurba_marseille","lat":43.28423,"lon":5.34989,"is_reserved":false,"is_disabled":false,"rental_uris":{"android":"levelo://app?vid=c5315605-f046-4b2f-985c-364459705088","ios":"levelo://app?vid=c5315605-f046-4b2f-985c-364459705088"},"vehicle_type_id":"4","last_reported":1721660938,"current_range_meters":19200,"station_id":"ce4bhbh2rcd13ifvqepg","pricing_plan_id":"cebpf4jnsgd1na2vs0mg"},{"bike_id":"3a94babe-bbaf-43cb-afc2-61136e833c85","system_id":"levelo_inurba_marseille","lat":43.284251,"lon":5.349806,"is_reserved":false,"is_disabled":false,"rental_uris":{"android":"levelo://app?vid=3a94babe-bbaf-43cb-afc2-61136e833c85","ios":"levelo://app?vid=3a94babe-bbaf-43cb-afc2-61136e833c85"},"vehicle_type_id":"4","last_reported":1721660938,"current_range_meters":22800,"station_id":"ce4bhbh2rcd13ifvqepg","pricing_plan_id":"cebpf4jnsgd1na2vs0mg"},{"bike_id":"b221b380-0549-4c3c-b42c-9d6dddb8e808","system_id":"levelo_inurba_marseille","lat":43.28422,"lon":5.34989,"is_reserved":false,"is_disabled":false,"rental_uris":{"android":"levelo://app?vid=b221b380-0549-4c3c-b42c-9d6dddb8e808","ios":"levelo://app?vid=b221b380-0549-4c3c-b42c-9d6dddb8e808"},"vehicle_type_id":"4","last_reported":1721660938,"current_range_meters":30000,"station_id":"ce4bhbh2rcd13ifvqepg","pricing_plan_id":"cebpf4jnsgd1na2vs0mg"},{"bike_id":"8a85bd17-39a2-4386-ac53-a91dcef8784c","system_id":"levelo_inurba_marseille","lat":43.28421,"lon":5.34992,"is_reserved":false,"is_disabled":false,"rental_uris":{"android":"levelo://app?vid=8a85bd17-39a2-4386-ac53-a91dcef8784c","ios":"levelo://app?vid=8a85bd17-39a2-4386-ac53-a91dcef8784c"},"vehicle_type_id":"4","last_reported":1721660938,"current_range_meters":7200,"station_id":"ce4bhbh2rcd13ifvqepg","pricing_plan_id":"cebpf4jnsgd1na2vs0mg"},{"bike_id":"a519fe54-f9b1-4070-8e14-96788636c279","system_id":"levelo_inurba_marseille","lat":43.284219,"lon":5.3497,"is_reserved":false,"is_disabled":false,"rental_uris":{"android":"levelo://app?vid=a519fe54-f9b1-4070-8e14-96788636c279","ios":"levelo://app?vid=a519fe54-f9b1-4070-8e14-96788636c279"},"vehicle_type_id":"4","last_reported":1721660938,"current_range_meters":16800,"station_id":"ce4bhbh2rcd13ifvqepg","pricing_plan_id":"cebpf4jnsgd1na2vs0mg"},{"bike_id":"6a6d25dd-5446-46b4-abfd-b55ae1a14b49","system_id":"levelo_inurba_marseille","lat":43.284219,"lon":5.3497,"is_reserved":false,"is_disabled":false,"rental_uris":{"android":"levelo://app?vid=6a6d25dd-5446-46b4-abfd-b55ae1a14b49","ios":"levelo://app?vid=6a6d25dd-5446-46b4-abfd-b55ae1a14b49"},"vehicle_type_id":"4","last_reported":1721660938,"current_range_meters":30800,"station_id":"ce4bhbh2rcd13ifvqepg","pricing_plan_id":"cebpf4jnsgd1na2vs0mg"},{"bike_id":"dd806d12-af81-44af-897a-35f94d4e4ae7","system_id":"levelo_inurba_marseille","lat":43.284219,"lon":5.3497,"is_reserved":false,"is_disabled":false,"rental_uris":{"android":"levelo://app?vid=dd806d12-af81-44af-897a-35f94d4e4ae7","ios":"levelo://app?vid=dd806d12-af81-44af-897a-35f94d4e4ae7"},"vehicle_type_id":"4","last_reported":1721660938,"current_range_meters":24400,"station_id":"ce4bhbh2rcd13ifvqepg","pricing_plan_id":"cebpf4jnsgd1na2vs0mg"},{"bike_id":"88634380-ce65-42e4-b9e5-6ef2183e6b72","system_id":"levelo_inurba_marseille","lat":43.284197,"lon":5.349843,"is_reserved":false,"is_disabled":false,"rental_uris":{"android":"levelo://app?vid=88634380-ce65-42e4-b9e5-6ef2183e6b72","ios":"levelo://app?vid=88634380-ce65-42e4-b9e5-6ef2183e6b72"},"vehicle_type_id":"4","last_reported":1721660938,"current_range_meters":12800,"station_id":"ce4bhbh2rcd13ifvqepg","pricing_plan_id":"cebpf4jnsgd1na2vs0mg"},{"bike_id":"d59f83f6-298f-4b7e-acee-3782f700593d","system_id":"levelo_inurba_marseille","lat":43.28418,"lon":5.34989,"is_reserved":false,"is_disabled":false,"rental_uris":{"android":"levelo://app?vid=d59f83f6-298f-4b7e-acee-3782f700593d","ios":"levelo://app?vid=d59f83f6-298f-4b7e-acee-3782f700593d"},"vehicle_type_id":"4","last_reported":1721660938,"current_range_meters":0,"station_id":"ce4bhbh2rcd13ifvqepg","pricing_plan_id":"cebpf4jnsgd1na2vs0mg"},{"bike_id":"981fe311-fc75-4a37-bc3a-519589f62a5a","system_id":"levelo_inurba_marseille","lat":43.284219,"lon":5.3497,"is_reserved":false,"is_disabled":false,"rental_uris":{"android":"levelo://app?vid=981fe311-fc75-4a37-bc3a-519589f62a5a","ios":"levelo://app?vid=981fe311-fc75-4a37-bc3a-519589f62a5a"},"vehicle_type_id":"4","last_reported":1721660938,"current_range_meters":11200,"station_id":"ce4bhbh2rcd13ifvqepg","pricing_plan_id":"cebpf4jnsgd1na2vs0mg"},{"bike_id":"48a2942e-ed29-4327-a0b9-58768b529993","system_id":"levelo_inurba_marseille","lat":43.284214,"lon":5.349706,"is_reserved":false,"is_disabled":false,"rental_uris":{"android":"levelo://app?vid=48a2942e-ed29-4327-a0b9-58768b529993","ios":"levelo://app?vid=48a2942e-ed29-4327-a0b9-58768b529993"},"vehicle_type_id":"4","last_reported":1721660938,"current_range_meters":31200,"station_id":"ce4bhbh2rcd13ifvqepg","pricing_plan_id":"cebpf4jnsgd1na2vs0mg"},{"bike_id":"4545732a-05ee-4dae-8227-7fdaad2d8394","system_id":"levelo_inurba_marseille","lat":43.284169,"lon":5.349906,"is_reserved":false,"is_disabled":false,"rental_uris":{"android":"levelo://app?vid=4545732a-05ee-4dae-8227-7fdaad2d8394","ios":"levelo://app?vid=4545732a-05ee-4dae-8227-7fdaad2d8394"},"vehicle_type_id":"4","last_reported":1721660938,"current_range_meters":20000,"station_id":"ce4bhbh2rcd13ifvqepg","pricing_plan_id":"cebpf4jnsgd1na2vs0mg"},{"bike_id":"6847ad3f-e3f7-4385-b84e-5bd2d827bbce","system_id":"levelo_inurba_marseille","lat":43.284214,"lon":5.349706,"is_reserved":false,"is_disabled":false,"rental_uris":{"android":"levelo://app?vid=6847ad3f-e3f7-4385-b84e-5bd2d827bbce","ios":"levelo://app?vid=6847ad3f-e3f7-4385-b84e-5bd2d827bbce"},"vehicle_type_id":"4","last_reported":1721660938,"current_range_meters":31200,"station_id":"ce4bhbh2rcd13ifvqepg","pricing_plan_id":"cebpf4jnsgd1na2vs0mg"},{"bike_id":"15aaf9bd-7dd4-402c-b647-769f2e662456","system_id":"levelo_inurba_marseille","lat":43.284193,"lon":5.34972,"is_reserved":false,"is_disabled":false,"rental_uris":{"android":"levelo://app?vid=15aaf9bd-7dd4-402c-b647-769f2e662456","ios":"levelo://app?vid=15aaf9bd-7dd4-402c-b647-769f2e662456"},"vehicle_type_id":"4","last_reported":1721660938,"current_range_meters":0,"station_id":"ce4bhbh2rcd13ifvqepg","pricing_plan_id":"cebpf4jnsgd1na2vs0mg"},{"bike_id":"644caec1-c7b5-4e4c-8a19-e8383dd34e0b","system_id":"levelo_inurba_marseille","lat":43.284217,"lon":5.349697,"is_reserved":false,"is_disabled":false,"rental_uris":{"android":"levelo://app?vid=644caec1-c7b5-4e4c-8a19-e8383dd34e0b","ios":"levelo://app?vid=644caec1-c7b5-4e4c-8a19-e8383dd34e0b"},"vehicle_type_id":"4","last_reported":1721660938,"current_range_meters":28000,"station_id":"ce4bhbh2rcd13ifvqepg","pricing_plan_id":"cebpf4jnsgd1na2vs0mg"},{"bike_id":"584e988e-42e0-484f-b027-978047d858a8","system_id":"levelo_inurba_marseille","lat":43.284117,"lon":5.34995,"is_reserved":false,"is_disabled":false,"rental_uris":{"android":"levelo://app?vid=584e988e-42e0-484f-b027-978047d858a8","ios":"levelo://app?vid=584e988e-42e0-484f-b027-978047d858a8"},"vehicle_type_id":"4","last_reported":1721660938,"current_range_meters":14000,"station_id":"ce4bhbh2rcd13ifvqepg","pricing_plan_id":"cebpf4jnsgd1na2vs0mg"},{"bike_id":"a1099a48-2e88-4640-9729-31f5d1bf0d11","system_id":"levelo_inurba_marseille","lat":43.284214,"lon":5.349706,"is_reserved":false,"is_disabled":false,"rental_uris":{"android":"levelo://app?vid=a1099a48-2e88-4640-9729-31f5d1bf0d11","ios":"levelo://app?vid=a1099a48-2e88-4640-9729-31f5d1bf0d11"},"vehicle_type_id":"4","last_reported":1721660938,"current_range_meters":22000,"station_id":"ce4bhbh2rcd13ifvqepg","pricing_plan_id":"cebpf4jnsgd1na2vs0mg"},{"bike_id":"bdf14f31-cedc-4a6b-bde6-10f2f34258d3","system_id":"levelo_inurba_marseille","lat":43.284219,"lon":5.3497,"is_reserved":false,"is_disabled":false,"rental_uris":{"android":"levelo://app?vid=bdf14f31-cedc-4a6b-bde6-10f2f34258d3","ios":"levelo://app?vid=bdf14f31-cedc-4a6b-bde6-10f2f34258d3"},"vehicle_type_id":"4","last_reported":1721660938,"current_range_meters":6000,"station_id":"ce4bhbh2rcd13ifvqepg","pricing_plan_id":"cebpf4jnsgd1na2vs0mg"},{"bike_id":"203843d8-9f5d-4bb5-baa3-9a9a88741552","system_id":"levelo_inurba_marseille","lat":43.28414,"lon":5.34982,"is_reserved":false,"is_disabled":false,"rental_uris":{"android":"levelo://app?vid=203843d8-9f5d-4bb5-baa3-9a9a88741552","ios":"levelo://app?vid=203843d8-9f5d-4bb5-baa3-9a9a88741552"},"vehicle_type_id":"4","last_reported":1721660938,"current_range_meters":17600,"station_id":"ce4bhbh2rcd13ifvqepg","pricing_plan_id":"cebpf4jnsgd1na2vs0mg"},{"bike_id":"f0dd3d28-0309-40e7-bbb5-2b68a23564a0","system_id":"levelo_inurba_marseille","lat":43.28412,"lon":5.34986,"is_reserved":false,"is_disabled":false,"rental_uris":{"android":"levelo://app?vid=f0dd3d28-0309-40e7-bbb5-2b68a23564a0","ios":"levelo://app?vid=f0dd3d28-0309-40e7-bbb5-2b68a23564a0"},"vehicle_type_id":"4","last_reported":1721660938,"current_range_meters":12400,"station_id":"ce4bhbh2rcd13ifvqepg","pricing_plan_id":"cebpf4jnsgd1na2vs0mg"},{"bike_id":"89f47192-870a-4245-8f7e-97f6363a3b4b","system_id":"levelo_inurba_marseille","lat":43.284214,"lon":5.349706,"is_reserved":false,"is_disabled":false,"rental_uris":{"android":"levelo://app?vid=89f47192-870a-4245-8f7e-97f6363a3b4b","ios":"levelo://app?vid=89f47192-870a-4245-8f7e-97f6363a3b4b"},"vehicle_type_id":"4","last_reported":1721660938,"current_range_meters":11200,"station_id":"ce4bhbh2rcd13ifvqepg","pricing_plan_id":"cebpf4jnsgd1na2vs0mg"},{"bike_id":"9790598b-069c-4bcd-8619-0d8aa6f2f2fc","system_id":"levelo_inurba_marseille","lat":43.2841,"lon":5.3499,"is_reserved":false,"is_disabled":false,"rental_uris":{"android":"levelo://app?vid=9790598b-069c-4bcd-8619-0d8aa6f2f2fc","ios":"levelo://app?vid=9790598b-069c-4bcd-8619-0d8aa6f2f2fc"},"vehicle_type_id":"4","last_reported":1721660938,"current_range_meters":16400,"station_id":"ce4bhbh2rcd13ifvqepg","pricing_plan_id":"cebpf4jnsgd1na2vs0mg"},{"bike_id":"54ce9d8d-2bf6-4ca9-9da3-db92bf2774d7","system_id":"levelo_inurba_marseille","lat":43.284214,"lon":5.349706,"is_reserved":false,"is_disabled":false,"rental_uris":{"android":"levelo://app?vid=54ce9d8d-2bf6-4ca9-9da3-db92bf2774d7","ios":"levelo://app?vid=54ce9d8d-2bf6-4ca9-9da3-db92bf2774d7"},"vehicle_type_id":"4","last_reported":1721660938,"current_range_meters":2000,"station_id":"ce4bhbh2rcd13ifvqepg","pricing_plan_id":"cebpf4jnsgd1na2vs0mg"},{"bike_id":"6fb3880c-31b4-4d51-b56e-33572125e6e2","system_id":"levelo_inurba_marseille","lat":43.284214,"lon":5.349706,"is_reserved":false,"is_disabled":false,"rental_uris":{"android":"levelo://app?vid=6fb3880c-31b4-4d51-b56e-33572125e6e2","ios":"levelo://app?vid=6fb3880c-31b4-4d51-b56e-33572125e6e2"},"vehicle_type_id":"4","last_reported":1721660938,"current_range_meters":19200,"station_id":"ce4bhbh2rcd13ifvqepg","pricing_plan_id":"cebpf4jnsgd1na2vs0mg"},{"bike_id":"677d531d-4281-44c1-920d-00e62d813cce","system_id":"levelo_inurba_marseille","lat":43.282744,"lon":5.350533,"is_reserved":false,"is_disabled":false,"rental_uris":{"android":"levelo://app?vid=677d531d-4281-44c1-920d-00e62d813cce","ios":"levelo://app?vid=677d531d-4281-44c1-920d-00e62d813cce"},"vehicle_type_id":"4","last_reported":1721660938,"current_range_meters":3600,"station_id":"ce4bhbp2rcd13ifvqerg","pricing_plan_id":"cebpf4jnsgd1na2vs0mg"},