{"last_updated":1729703280,"ttl":60,"version":"2.2","data":{"bikes":[{"bike_id":"1ba4fac4-2099-4987-b572-7bda99a09ac0","system_id":"levelo_inurba_marseille","lat":43.27617,"lon":5.36116,"is_reserved":false,"is_disabled":false,"rental_uris":{"android":"levelo://app?vid=1ba4fac4-2099-4987-b572-7bda99a09ac0","ios":"levelo://app?vid=1ba4fac4-2099-4987-b572-7bda99a09ac0"},"vehicle_type_id":"4","last_reported":1729703281,"current_range_meters":8000,"station_id":"ce4bgj92rcd13ifvqbe0","pricing_plan_id":"cebpf4jnsgd1na2vs0mg"},{"bike_id":"2f8114b4-de1e-44ec-a474-c32c53bd4f7d","system_id":"levelo_inurba_marseille","lat":43.28466,"lon":5.35888,"is_reserved":false,"is_disabled":false,"rental_uris":{"android":"levelo://app?vid=2f8114b4-de1e-44ec-a474-c32c53bd4f7d","ios":"levelo://app?vid=2f8114b4-de1e-44ec-a474-c32c53bd4f7d"},"vehicle_type_id":"4","last_reported":1729703281,"current_range_meters":12400,"station_id":"ce4bhah2rcd13ifvqei0","pricing_plan_id":"cebpf4jnsgd1na2vs0mg"},{"bike_id":"a0495abb-9c75-421a-9aa6-4b5d48b7b7f8","system_id":"levelo_inurba_marseille","lat":43.2926,"lon":5.40895,"is_reserved":false,"is_disabled":false,"rental_uris":{"android":"levelo://app?vid=a0495abb-9c75-421a-9aa6-4b5d48b7b7f8","ios":"levelo://app?vid=a0495abb-9c75-421a-9aa6-4b5d48b7b7f8"},"vehicle_type_id":"4","last_reported":1729703281,"current_range_meters":34000,"station_id":"ce4bh192rcd13ifvqdc0","pricing_plan_id":"cebpf4jnsgd1na2vs0mg"},{"bike_id":"7231193f-dc5d-43bd-a2f9-4b3228223d6b","system_id":"levelo_inurba_marseille","lat":43.25572,"lon":5.38235,"is_reserved":false,"is_disabled":false,"rental_uris":{"android":"levelo://app?vid=7231193f-dc5d-43bd-a2f9-4b3228223d6b","ios":"levelo://app?vid=7231193f-dc5d-43bd-a2f9-4b3228223d6b"},"vehicle_type_id":"4","last_reported":1729703281,"current_range_meters":16400,"station_id":"ce4bhih2rcd13ifvqfs0","pricing_plan_id":"cebpf4jnsgd1na2vs0mg"},{"bike_id":"f54bdea2-a1fc-4b2a-98f6-7782b4924bfb","system_id":"levelo_inurba_marseille","lat":43.3093,"lon":5.40146,"is_reserved":false,"is_disabled":false,"rental_uris":{"android":"levelo://app?vid=f54bdea2-a1fc-4b2a-98f6-7782b4924bfb","ios":"levelo://app?vid=f54bdea2-a1fc-4b2a-98f6-7782b4924bfb"},"vehicle_type_id":"4","last_reported":1729703281,"current_range_meters":24400,"station_id":"ce4bgvp2rcd13ifvqct0","pricing_plan_id":"cebpf4jnsgd1na2vs0mg"},{"bike_id":"f307cb71-ae51-4738-a200-b6638ac19ca9","system_id":"levelo_inurba_marseille","lat":43.29188,"lon":5.35804,"is_reserved":false,"is_disabled":false,"rental_uris":{"android":"levelo://app?vid=f307cb71-ae51-4738-a200-b6638ac19ca9","ios":"levelo://app?vid=f307cb71-ae51-4738-a200-b6638ac19ca9"},"vehicle_type_id":"4","last_reported":1729703281,"current_range_meters":27200,"station_id":"ce4bhb12rcd13ifvqel0","pricing_plan_id":"cebpf4jnsgd1na2vs0mg"},{"bike_id":"72d66fb8-f7a7-4fe3-a522-bd2bf6abb98f","system_id":"levelo_inurba_marseille","lat":43.29859,"lon":5.39738,"is_reserved":false,"is_disabled":false,"rental_uris":{"android":"levelo://app?vid=72d66fb8-f7a7-4fe3-a522-bd2bf6abb98f","ios":"levelo://app?vid=72d66fb8-f7a7-4fe3-a522-bd2bf6abb98f"},"vehicle_type_id":"4","last_reported":1729703281,"current_range_meters":39200,"station_id":"ce4bh0h2rcd13ifvqd50","pricing_plan_id":"cebpf4jnsgd1na2vs0mg"},{"bike_id":"a0473e7c-7b8d-427a-84bf-66119ef8b115","system_id":"levelo_inurba_marseille","lat":43.26552,"lon":5.37289,"is_reserved":false,"is_disabled":false,"rental_uris":{"android":"levelo://app?vid=a0473e7c-7b8d-427a-84bf-66119ef8b115","ios":"levelo://app?vid=a0473e7c-7b8d-427a-84bf-66119ef8b115"},"vehicle_type_id":"4","last_reported":1729703281,"current_range_meters":24000,"station_id":"ce4bhg12rcd13ifvqf70","pricing_plan_id":"cebpf4jnsgd1na2vs0mg"},{"bike_id":"2aec5b76-d608-41f5-82cf-2607e63e612f","system_id":"levelo_inurba_marseille","lat":43.28271,"lon":5.35079,"is_reserved":false,"is_disabled":false,"rental_uris":{"android":"levelo://app?vid=2aec5b76-d608-41f5-82cf-2607e63e612f","ios":"levelo://app?vid=2aec5b76-d608-41f5-82cf-2607e63e612f"},"vehicle_type_id":"4","last_reported":1729703281,"current_range_meters":18800,"station_id":"ce4bhbp2rcd13ifvqerg","pricing_plan_id":"cebpf4jnsgd1na2vs0mg"},{"bike_id":"6e3e2ff9-36f9-479e-a6da-7b665ec23763","system_id":"levelo_inurba_marseille","lat":43.25562,"lon":5.38215,"is_reserved":false,"is_disabled":false,"rental_uris":{"android":"levelo://app?vid=6e3e2ff9-36f9-479e-a6da-7b665ec23763","ios":"levelo://app?vid=6e3e2ff9-36f9-479e-a6da-7b665ec23763"},"vehicle_type_id":"4","last_reported":1729703281,"current_range_meters":27600,"station_id":"ce4bhih2rcd13ifvqfs0","pricing_plan_id":"cebpf4jnsgd1na2vs0mg"},{"bike_id":"a35f81ea-d161-42b9-b804-471d99da41ca","system_id":"levelo_inurba_marseille","lat":43.2893,"lon":5.36393,"is_reserved":false,"is_disabled":false,"rental_uris":{"android":"levelo://app?vid=a35f81ea-d161-42b9-b804-471d99da41ca","ios":"levelo://app?vid=a35f81ea-d161-42b9-b804-471d99da41ca"},"vehicle_type_id":"4","last_reported":1729703281,"current_range_meters":28800,"station_id":"ce4bhc92rcd13ifvqetg","pricing_plan_id":"cebpf4jnsgd1na2vs0mg"},{"bike_id":"9ae2a4ba-60e7-4309-b23b-89402d452b78","system_id":"levelo_inurba_marseille","lat":43.29972,"lon":5.38502,"is_reserved":false,"is_disabled":false,"rental_uris":{"android":"levelo://app?vid=9ae2a4ba-60e7-4309-b23b-89402d452b78","ios":"levelo://app?vid=9ae2a4ba-60e7-4309-b23b-89402d452b78"},"vehicle_type_id":"4","last_reported":1729703281,"current_range_meters":30000,"station_id":"ce4bgj92rcd13ifvqbd0","pricing_plan_id":"cebpf4jnsgd1na2vs0mg"},{"bike_id":"29714e1b-b2ca-4947-a281-4137ae0c9c7f","system_id":"levelo_inurba_marseille","lat":43.28456,"lon":5.35891,"is_reserved":false,"is_disabled":false,"rental_uris":{"android":"levelo://app?vid=29714e1b-b2ca-4947-a281-4137ae0c9c7f","ios":"levelo://app?vid=29714e1b-b2ca-4947-a281-4137ae0c9c7f"},"vehicle_type_id":"4","last_reported":1729703281,"current_range_meters":33600,"station_id":"ce4bhah2rcd13ifvqei0","pricing_plan_id":"cebpf4jnsgd1na2vs0mg"},{"bike_id":"2a30bbc1-454c-42f6-a499-6fb323b5a4a1","system_id":"levelo_inurba_marseille","lat":43.29536,"lon":5.38552,"is_reserved":false,"is_disabled":false,"rental_uris":{"android":"levelo://app?vid=2a30bbc1-454c-42f6-a499-6fb323b5a4a1","ios":"levelo://app?vid=2a30bbc1-454c-42f6-a499-6fb323b5a4a1"},"vehicle_type_id":"4","last_reported":1729703281,"current_range_meters":16400,"station_id":"ce4bgih2rcd13ifvqba0","pricing_plan_id":"cebpf4jnsgd1na2vs0mg"},{"bike_id":"ec4a1cb4-c095-4836-9ba9-9ba341b93a96","system_id":"levelo_inurba_marseille","lat":43.3065,"lon":5.40072,"is_reserved":false,"is_disabled":false,"rental_uris":{"android":"levelo://app?vid=ec4a1cb4-c095-4836-9ba9-9ba341b93a96","ios":"levelo://app?vid=ec4a1cb4-c095-4836-9ba9-9ba341b93a96"},"vehicle_type_id":"4","last_reported":1729703281,"current_range_meters":4400,"station_id":"ce4bh112rcd13ifvqda0","pricing_plan_id":"cebpf4jnsgd1na2vs0mg"},{"bike_id":"5c449356-4ac4-4d08-a405-c433fbe21a80","system_id":"levelo_inurba_marseille","lat":43.33737,"lon":5.37458,"is_reserved":false,"is_disabled":false,"rental_uris":{"android":"levelo://app?vid=5c449356-4ac4-4d08-a405-c433fbe21a80","ios":"levelo://app?vid=5c449356-4ac4-4d08-a405-c433fbe21a80"},"vehicle_type_id":"4","last_reported":1729703281,"current_range_meters":28400,"station_id":"","pricing_plan_id":"cebpf4jnsgd1na2vs0mg"},{"bike_id":"8e637c1d-d4b5-42fb-97d3-984d29536c1f","system_id":"levelo_inurba_marseille","lat":43.29971,"lon":5.38506,"is_reserved":false,"is_disabled":false,"rental_uris":{"android":"levelo://app?vid=8e637c1d-d4b5-42fb-97d3-984d29536c1f","ios":"levelo://app?vid=8e637c1d-d4b5-42fb-97d3-984d29536c1f"},"vehicle_type_id":"4","last_reported":1729703281,"current_range_meters":38800,"station_id":"ce4bgj92rcd13ifvqbd0","pricing_plan_id":"cebpf4jnsgd1na2vs0mg"},{"bike_id":"1a6e5ce9-ce1b-4ffa-bdb1-e58296bb4ef2","system_id":"levelo_inurba_marseille","lat":43.26554,"lon":5.37288,"is_reserved":false,"is_disabled":false,"rental_uris":{"android":"levelo://app?vid=1a6e5ce9-ce1b-4ffa-bdb1-e58296bb4ef2","ios":"levelo://app?vid=1a6e5ce9-ce1b-4ffa-bdb1-e58296bb4ef2"},"vehicle_type_id":"4","last_reported":1729703281,"current_range_meters":38800,"station_id":"ce4bhg12rcd13ifvqf70","pricing_plan_id":"cebpf4jnsgd1na2vs0mg"},{"bike_id":"e2b5f832-d7ed-4dfe-bcd2-c1e6c55b9baf","system_id":"levelo_inurba_marseille","lat":43.265,"lon":5.39541,"is_reserved":false,"is_disabled":false,"rental_uris":{"android":"levelo://app?vid=e2b5f832-d7ed-4dfe-bcd2-c1e6c55b9baf","ios":"levelo://app?vid=e2b5f832-d7ed-4dfe-bcd2-c1e6c55b9baf"},"vehicle_type_id":"4","last_reported":1729703281,"current_range_meters":8000,"station_id":"ce4bhi12rcd13ifvqfq0","pricing_plan_id":"cebpf4jnsgd1na2vs0mg"},{"bike_id":"a3bd2ca2-6282-4707-90a4-e2f7624c31d5","system_id":"levelo_inurba_marseille","lat":43.30883,"lon":5.39655,"is_reserved":false,"is_disabled":false,"rental_uris":{"android":"levelo://app?vid=a3bd2ca2-6282-4707-90a4-e2f7624c31d5","ios":"levelo://app?vid=a3bd2ca2-6282-4707-90a4-e2f7624c31d5"},"vehicle_type_id":"4","last_reported":1729703281,"current_range_meters":16000,"station_id":"ce4bh012rcd13ifvqcv0","pricing_plan_id":"cebpf4jnsgd1na2vs0mg"},{"bike_id":"74001895-f230-4e75-94d7-e23bdef761d3","system_id":"levelo_inurba_marseille","lat":43.24652,"lon":5.38889,"is_reserved":false,"is_disabled":false,"rental_uris":{"android":"levelo://app?vid=74001895-f230-4e75-94d7-e23bdef761d3","ios":"levelo://app?vid=74001895-f230-4e75-94d7-e23bdef761d3"},"vehicle_type_id":"4","last_reported":1729703281,"current_range_meters":6400,"station_id":"ce4bhg12rcd13ifvqf60","pricing_plan_id":"cebpf4jnsgd1na2vs0mg"},{"bike_id":"c769be1b-4262-45e1-ae17-91133a0a1d6c","system_id":"levelo_inurba_marseille","lat":43.3053,"lon":5.36659,"is_reserved":false,"is_disabled":false,"rental_uris":{"android":"levelo://app?vid=c769be1b-4262-45e1-ae17-91133a0a1d6c","ios":"levelo://app?vid=c769be1b-4262-45e1-ae17-91133a0a1d6c"},"vehicle_type_id":"4","last_reported":1729703281,"current_range_meters":11200,"station_id":"","pricing_plan_id":"cebpf4jnsgd1na2vs0mg"},{"bike_id":"4882a116-5452-4f97-bdbd-13df4cccb9d6","system_id":"levelo_inurba_marseille","lat":43.3059,"lon":5.3726,"is_reserved":false,"is_disabled":false,"rental_uris":{"android":"levelo://app?vid=4882a116-5452-4f97-bdbd-13df4cccb9d6","ios":"levelo://app?vid=4882a116-5452-4f97-bdbd-13df4cccb9d6"},"vehicle_type_id":"4","last_reported":1729703281,"current_range_meters":28400,"station_id":"ce4bgqh2rcd13ifvqc4g","pricing_plan_id":"cebpf4jnsgd1na2vs0mg"},{"bike_id":"3a74ffac-a502-4c55-9d9c-952dcf7e1f94","system_id":"levelo_inurba_marseille","lat":43.29962,"lon":5.37171,"is_reserved":false,"is_disabled":false,"rental_uris":{"android":"levelo://app?vid=3a74ffac-a502-4c55-9d9c-952dcf7e1f94","ios":"levelo://app?vid=3a74ffac-a502-4c55-9d9c-952dcf7e1f94"},"vehicle_type_id":"4","last_reported":1729703281,"current_range_meters":10000,"station_id":"ce4bgr92rcd13ifvqc7g","pricing_plan_id":"cebpf4jnsgd1na2vs0mg"},{"bike_id":"abbca22d-b2ce-4e37-867c-33df7523b59f","system_id":"levelo_inurba_marseille","lat":43.25832,"lon":5.39439,"is_reserved":false,"is_disabled":false,"rental_uris":{"android":"levelo://app?vid=abbca22d-b2ce-4e37-867c-33df7523b59f","ios":"levelo://app?vid=abbca22d-b2ce-4e37-867c-33df7523b59f"},"vehicle_type_id":"4","last_reported":1729703281,"current_range_meters":35200,"station_id":"ce4bhip2rcd13ifvqft0","pricing_plan_id":"cebpf4jnsgd1na2vs0mg"},{"bike_id":"5a506f23-a21b-4ceb-9872-6b8e1f6ececd","system_id":"levelo_inurba_marseille","lat":43.29098,"lon":5.37991,"is_reserved":false,"is_disabled":false,"rental_uris":{"android":"levelo://app?vid=5a506f23-a21b-4ceb-9872-6b8e1f6ececd","ios":"levelo://app?vid=5a506f23-a21b-4ceb-9872-6b8e1f6ececd"},"vehicle_type_id":"4","last_reported":1729703281,"current_range_meters":33600,"station_id":"ce4bhhh2rcd13ifvqfl0","pricing_plan_id":"cebpf4jnsgd1na2vs0mg"},{"bike_id":"5f226615-4855-4cd3-9a51-f145088067d3","system_id":"levelo_inurba_marseille","lat":43.295715,"lon":5.375264,"is_reserved":false,"is_disabled":false,"rental_uris":{"android":"levelo://app?vid=5f226615-4855-4cd3-9a51-f145088067d3","ios":"levelo://app?vid=5f226615-4855-4cd3-9a51-f145088067d3"},"vehicle_type_id":"4","last_reported":1729703281,"current_range_meters":34000,"station_id":"ce4bhb12rcd13ifvqel0","pricing_plan_id":"cebpf4jnsgd1na2vs0mg"},{"bike_id":"f3b883ea-e87c-4431-9e8f-c158f9bd1e67","system_id":"levelo_inurba_marseille","lat":43.30209,"lon":5.3947,"is_reserved":false,"is_disabled":false,"rental_uris":{"android":"levelo://app?vid=f3b883ea-e87c-4431-9e8f-c158f9bd1e67","ios":"levelo://app?vid=f3b883ea-e87c-4431-9e8f-c158f9bd1e67"},"vehicle_type_id":"4","last_reported":1729703281,"current_range_meters":16400,"station_id":"ce4bh0p2rcd13ifvqd70","pricing_plan_id":"cebpf4jnsgd1na2vs0mg"},{"bike_id":"d1103c44-e8ca-4a46-9fe8-d6c96216480f","system_id":"levelo_inurba_marseille","lat":43.29929,"lon":5.37469,"is_reserved":false,"is_disabled":false,"rental_uris":{"android":"levelo://app?vid=d1103c44-e8ca-4a46-9fe8-d6c96216480f","ios":"levelo://app?vid=d1103c44-e8ca-4a46-9fe8-d6c96216480f"},"vehicle_type_id":"4","last_reported":1729703281,"current_range_meters":6000,"station_id":"ce4bgjh2rcd13ifvqbg0","pricing_plan_id":"cebpf4jnsgd1na2vs0mg"},{"bike_id":"ff2082e7-99a7-41c7-9ff1-0d6516d9b8f7","system_id":"levelo_inurba_marseille","lat":43.25574,"lon":5.38241,"is_reserved":false,"is_disabled":false,"rental_uris":{"android":"levelo://app?vid=ff2082e7-99a7-41c7-9ff1-0d6516d9b8f7","ios":"levelo://app?vid=ff2082e7-99a7-41c7-9ff1-0d6516d9b8f7"},"vehicle_type_id":"4","last_reported":1729703281,"current_range_meters":28400,"station_id":"ce4bhih2rcd13ifvqfs0","pricing_plan_id":"cebpf4jnsgd1na2vs0mg"},{"bike_id":"db04cafe-6482-4092-981d-e247ffa71167","system_id":"levelo_inurba_marseille","lat":43.2649,"lon":5.39556,"is_reserved":false,"is_disabled":false,"rental_uris":{"android":"levelo://app?vid=db04cafe-6482-4092-981d-e247ffa71167","ios":"levelo://app?vid=db04cafe-6482-4092-981d-e247ffa71167"},"vehicle_type_id":"4","last_reported":1729703281,"current_range_meters":38800,"station_id":"ce4bhi12rcd13ifvqfq0","pricing_plan_id":"cebpf4jnsgd1na2vs0mg"},{"bike_id":"1ac86525-af1a-4b1e-b545-ac083fdea7ae","system_id":"levelo_inurba_marseille","lat":43.29006,"lon":5.35613,"is_reserved":false,"is_disabled":false,"rental_uris":{"android":"levelo://app?vid=1ac86525-af1a-4b1e-b545-ac083fdea7ae","ios":"levelo://app?vid=1ac86525-af1a-4b1e-b545-ac083fdea7ae"},"vehicle_type_id":"4","last_reported":1729703281,"current_range_meters":38800,"station_id":"ce4bhb92rcd13ifvqen0","pricing_plan_id":"cebpf4jnsgd1na2vs0mg"},{"bike_id":"6fe90a3b-3396-4c92-a005-b978393d4823","system_id":"levelo_inurba_marseille","lat":43.290266,"lon":5.386534,"is_reserved":false,"is_disabled":false,"rental_uris":{"android":"levelo://app?vid=6fe90a3b-3396-4c92-a005-b978393d4823","ios":"levelo://app?vid=6fe90a3b-3396-4c92-a005-b978393d4823"},"vehicle_type_id":"4","last_reported":1729703281,"current_range_meters":18800,"station_id":"ce4bh4p2rcd13ifvqe0g","pricing_plan_id":"cebpf4jnsgd1na2vs0mg"},{"bike_id":"92db86b2-c324-4bda-a984-f7bc024a59af","system_id":"levelo_inurba_marseille","lat":43.27902,"lon":5.38015,"is_reserved":false,"is_disabled":false,"rental_uris":{"android":"levelo://app?vid=92db86b2-c324-4bda-a984-f7bc024a59af","ios":"levelo://app?vid=92db86b2-c324-4bda-a984-f7bc024a59af"},"vehicle_type_id":"4","last_reported":1729703281,"current_range_meters":36400,"station_id":"ce4bhf92rcd13ifvqf50","pricing_plan_id":"cebpf4jnsgd1na2vs0mg"},{"bike_id":"0b144a21-bc1d-440f-8437-0794928899e6","system_id":"levelo_inurba_marseille","lat":43.33023,"lon":5.3904,"is_reserved":false,"is_disabled":false,"rental_uris":{"android":"levelo://app?vid=0b144a21-bc1d-440f-8437-0794928899e6","ios":"levelo://app?vid=0b144a21-bc1d-440f-8437-0794928899e6"},"vehicle_type_id":"4","last_reported":1729703281,"current_range_meters":38800,"station_id":"ce4bhr92rcd13ifvqhrg","pricing_plan_id":"cebpf4jnsgd1na2vs0mg"},{"bike_id":"bebf5780-1b57-4933-af8f-87d8d0101c79","system_id":"levelo_inurba_marseille","lat":43.2844,"lon":5.39207,"is_reserved":false,"is_disabled":false,"rental_uris":{"android":"levelo://app?vid=bebf5780-1b57-4933-af8f-87d8d0101c79","ios":"levelo://app?vid=bebf5780-1b57-4933-af8f-87d8d0101c79"},"vehicle_type_id":"4","last_reported":1729703281,"current_range_meters":4800,"station_id":"ce4bhoh2rcd13ifvqh5g","pricing_plan_id":"cebpf4jnsgd1na2vs0mg"},{"bike_id":"5df79437-8791-4a70-b062-6201aa1f4526","system_id":"levelo_inurba_marseille","lat":43.28863,"lon":5.35846,"is_reserved":false,"is_disabled":false,"rental_uris":{"android":"levelo://app?vid=5df79437-8791-4a70-b062-6201aa1f4526","ios":"levelo://app?vid=5df79437-8791-4a70-b062-6201aa1f4526"},"vehicle_type_id":"4","last_reported":1729703281,"current_range_meters":36000,"station_id":"ce4bhb12rcd13ifvqem0","pricing_plan_id":"cebpf4jnsgd1na2vs0mg"},{"bike_id":"4640c3cf-861b-4850-8ec2-0be8a63dabd0","system_id":"levelo_inurba_marseille","lat":43.29514,"lon":5.39039,"is_reserved":false,"is_disabled":false,"rental_uris":{"android":"levelo://app?vid=4640c3cf-861b-4850-8ec2-0be8a63dabd0","ios":"levelo://app?vid=4640c3cf-861b-4850-8ec2-0be8a63dabd0"},"vehicle_type_id":"4","last_reported":1729703281,"current_range_meters":16400,"station_id":"ce4bh3p2rcd13ifvqdp0","pricing_plan_id":"cebpf4jnsgd1na2vs0mg"},{"bike_id":"212bf56a-23dd-47da-8f2a-7324e18f0ba2","system_id":"levelo_inurba_marseille","lat":43.27921,"lon":5.39577,"is_reserved":false,"is_disabled":false,"rental_uris":{"android":"levelo://app?vid=212bf56a-23dd-47da-8f2a-7324e18f0ba2","ios":"levelo://app?vid=212bf56a-23dd-47da-8f2a-7324e18f0ba2"},"vehicle_type_id":"4","last_reported":1729703281,"current_range_meters":4000,"station_id":"ce4bhf92rcd13ifvqf40","pricing_plan_id":"cebpf4jnsgd1na2vs0mg"},{"bike_id":"04514445-4fe5-4c40-9195-db6f8f153d56","system_id":"levelo_inurba_marseille","lat":43.27491,"lon":5.42454,"is_reserved":false,"is_disabled":false,"rental_uris":{"android":"levelo://app?vid=04514445-4fe5-4c40-9195-db6f8f153d56","ios":"levelo://app?vid=04514445-4fe5-4c40-9195-db6f8f153d56"},"vehicle_type_id":"4","last_reported":1729703281,"current_range_meters":36400,"station_id":"ce4bhn92rcd13ifvqgrg","pricing_plan_id":"cebpf4jnsgd1na2vs0mg"},{"bike_id":"3e41417e-0b0c-4908-8670-c6d49ee292be","system_id":"levelo_inurba_marseille","lat":43.33755,"lon":5.37446,"is_reserved":false,"is_disabled":false,"rental_uris":{"android":"levelo://app?vid=3e41417e-0b0c-4908-8670-c6d49ee292be","ios":"levelo://app?vid=3e41417e-0b0c-4908-8670-c6d49ee292be"},"vehicle_type_id":"4","last_reported":1729703281,"current_range_meters":34800,"station_id":"","pricing_plan_id":"cebpf4jnsgd1na2vs0mg"},{"bike_id":"025df8b3-3508-44fc-8e5b-f41c88d506da","system_id":"levelo_inurba_marseille","lat":43.32658,"lon":5.40999,"is_reserved":false,"is_disabled":false,"rental_uris":{"android":"levelo://app?vid=025df8b3-3508-44fc-8e5b-f41c88d506da","ios":"levelo://app?vid=025df8b3-3508-44fc-8e5b-f41c88d506da"},"vehicle_type_id":"4","last_reported":1729703281,"current_range_meters":38400,"station_id":"ce4bhpp2rcd13ifvqhgg","pricing_plan_id":"cebpf4jnsgd1na2vs0mg"},{"bike_id":"e024eb93-1388-4b38-b4ea-c427c9954604","system_id":"levelo_inurba_marseille","lat":43.29028,"lon":5.38659,"is_reserved":false,"is_disabled":false,"rental_uris":{"android":"levelo://app?vid=e024eb93-1388-4b38-b4ea-c427c9954604","ios":"levelo://app?vid=e024eb93-1388-4b38-b4ea-c427c9954604"},"vehicle_type_id":"4","last_reported":1729703281,"current_range_meters":29600,"station_id":"ce4bh4p2rcd13ifvqe0g","pricing_plan_id":"cebpf4jnsgd1na2vs0mg"},{"bike_id":"60b310b0-2987-419b-aec2-c123423ca884","system_id":"levelo_inurba_marseille","lat":43.30216,"lon":5.39467,"is_reserved":false,"is_disabled":false,"rental_uris":{"android":"levelo://app?vid=60b310b0-2987-419b-aec2-c123423ca884","ios":"levelo://app?vid=60b310b0-2987-419b-aec2-c123423ca884"},"vehicle_type_id":"4","last_reported":1729703281,"current_range_meters":28000,"station_id":"ce4bh0p2rcd13ifvqd70","pricing_plan_id":"cebpf4jnsgd1na2vs0mg"},{"bike_id":"5163a10a-ab0d-4290-a728-048330f69281","system_id":"levelo_inurba_marseille","lat":43.3132,"lon":5.39703,"is_reserved":false,"is_disabled":false,"rental_uris":{"android":"levelo://app?vid=5163a10a-ab0d-4290-a728-048330f69281","ios":"levelo://app?vid=5163a10a-ab0d-4290-a728-048330f69281"},"vehicle_type_id":"4","last_reported":1729703281,"current_range_meters":35600,"station_id":"ce4bgvp2rcd13ifvqcu0","pricing_plan_id":"cebpf4jnsgd1na2vs0mg"},{"bike_id":"aa9ff60d-da17-4ac1-8afe-a9e047c5a93b","system_id":"levelo_inurba_marseille","lat":43.26553,"lon":5.39016,"is_reserved":false,"is_disabled":false,"rental_uris":{"android":"levelo://app?vid=aa9ff60d-da17-4ac1-8afe-a9e047c5a93b","ios":"levelo://app?vid=aa9ff60d-da17-4ac1-8afe-a9e047c5a93b"},"vehicle_type_id":"4","last_reported":1729703281,"current_range_meters":31200,"station_id":"ce4bhe12rcd13ifvqf30","pricing_plan_id":"cebpf4jnsgd1na2vs0mg"},{"bike_id":"1a97b12a-edc2-451e-871f-3f14db50c65d","system_id":"levelo_inurba_marseille","lat":43.28918,"lon":5.38405,"is_reserved":false,"is_disabled":false,"rental_uris":{"android":"levelo://app?vid=1a97b12a-edc2-451e-871f-3f14db50c65d","ios":"levelo://app?vid=1a97b12a-edc2-451e-871f-3f14db50c65d"},"vehicle_type_id":"4","last_reported":1729703281,"current_range_meters":24400,"station_id":"ce4bh612rcd13ifvqe6g","pricing_plan_id":"cebpf4jnsgd1na2vs0mg"},{"bike_id":"bf49555a-290c-42e4-81dd-b6b979cb00c8","system_id":"levelo_inurba_marseille","lat":43.29962,"lon":5.38504,"is_reserved":false,"is_disabled":false,"rental_uris":{"android":"levelo://app?vid=bf49555a-290c-42e4-81dd-b6b979cb00c8","ios":"levelo://app?vid=bf49555a-290c-42e4-81dd-b6b979cb00c8"},"vehicle_type_id":"4","last_reported":1729703281,"current_range_meters":16400,"station_id":"ce4bgj92rcd13ifvqbd0","pricing_plan_id":"cebpf4jnsgd1na2vs0mg"},{"bike_id":"8c523b2d-1f0e-4f9b-991f-aa6e189479eb","system_id":"levelo_inurba_marseille","lat":43.30547,"lon":5.38416,"is_reserved":false,"is_disabled":false,"rental_uris":{"android":"levelo://app?vid=8c523b2d-1f0e-4f9b-991f-aa6e189479eb","ios":"levelo://app?vid=8c523b2d-1f0e-4f9b-991f-aa6e189479eb"},"vehicle_type_id":"4","last_reported":1729703281,"current_range_meters":10000,"station_id":"ce4bgg92rcd13ifvqb30","pricing_plan_id":"cebpf4jnsgd1na2vs0mg"},{"bike_id":"85333cb8-55d0-4a1a-9d75-50e19da35598","system_id":"levelo_inurba_marseille","lat":43.28941,"lon":5.36395,"is_reserved":false,"is_disabled":false,"rental_uris":{"android":"levelo://app?vid=85333cb8-55d0-4a1a-9d75-50e19da35598","ios":"levelo://app?vid=85333cb8-55d0-4a1a-9d75-50e19da35598"},"vehicle_type_id":"4","last_reported":1729703281,"current_range_meters":6400,"station_id":"ce4bhc92rcd13ifvqetg","pricing_plan_id":"cebpf4jnsgd1na2vs0mg"},{"bike_id":"a537eebe-c618-4150-b723-b974b3c4fbe5","system_id":"levelo_inurba_marseille","lat":43.298817,"lon":5.389046,"is_reserved":false,"is_disabled":false,"rental_uris":{"android":"levelo://app?vid=a537eebe-c618-4150-b723-b974b3c4fbe5","ios":"levelo://app?vid=a537eebe-c618-4150-b723-b974b3c4fbe5"},"vehicle_type_id":"4","last_reported":1729703281,"current_range_meters":25200,"station_id":"ce4bh392rcd13ifvqdl0","pricing_plan_id":"cebpf4jnsgd1na2vs0mg"},{"bike_id":"1395aefb-edbf-4a21-89b0-3f7fc03d9f45","system_id":"levelo_inurba_marseille","lat":43.29005,"lon":5.35612,"is_reserved":false,"is_disabled":false,"rental_uris":{"android":"levelo://app?vid=1395aefb-edbf-4a21-89b0-3f7fc03d9f45","ios":"levelo://app?vid=1395aefb-edbf-4a21-89b0-3f7fc03d9f45"},"vehicle_type_id":"4","last_reported":1729703281,"current_range_meters":2000,"station_id":"ce4bhb92rcd13ifvqen0","pricing_plan_id":"cebpf4jnsgd1na2vs0mg"},{"bike_id":"afea88b7-4b93-4828-80d0-707a1795fba5","system_id":"levelo_inurba_marseille","lat":43.25583,"lon":5.38229,"is_reserved":false,"is_disabled":false,"rental_uris":{"android":"levelo://app?vid=afea88b7-4b93-4828-80d0-707a1795fba5","ios":"levelo://app?vid=afea88b7-4b93-4828-80d0-707a1795fba5"},"vehicle_type_id":"4","last_reported":1729703281,"current_range_meters":28400,"station_id":"ce4bhih2rcd13ifvqfs0","pricing_plan_id":"cebpf4jnsgd1na2vs0mg"},{"bike_id":"268d04dd-3d34-4888-8980-df082f1b5382","system_id":"levelo_inurba_marseille","lat":43.3254,"lon":5.41433,"is_reserved":false,"is_disabled":false,"rental_uris":{"android":"levelo://app?vid=268d04dd-3d34-4888-8980-df082f1b5382","ios":"levelo://app?vid=268d04dd-3d34-4888-8980-df082f1b5382"},"vehicle_type_id":"4","last_reported":1729703281,"current_range_meters":14000,"station_id":"ce4bhq12rcd13ifvqhhg","pricing_plan_id":"cebpf4jnsgd1na2vs0mg"},{"bike_id":"2a215e81-0ee9-4177-82d5-634ce42d69eb","system_id":"levelo_inurba_marseille","lat":43.29889,"lon":5.38893,"is_reserved":false,"is_disabled":false,"rental_uris":{"android":"levelo://app?vid=2a215e81-0ee9-4177-82d5-634ce42d69eb","ios":"levelo://app?vid=2a215e81-0ee9-4177-82d5-634ce42d69eb"},"vehicle_type_id":"4","last_reported":1729703281,"current_range_meters":8800,"station_id":"ce4bh392rcd13ifvqdl0","pricing_plan_id":"cebpf4jnsgd1na2vs0mg"},{"bike_id":"b47a95dc-cef9-4bc4-be36-5269367165de","system_id":"levelo_inurba_marseille","lat":43.29218,"lon":5.3607,"is_reserved":false,"is_disabled":false,"rental_uris":{"android":"levelo://app?vid=b47a95dc-cef9-4bc4-be36-5269367165de","ios":"levelo://app?vid=b47a95dc-cef9-4bc4-be36-5269367165de"},"vehicle_type_id":"4","last_reported":1729703281,"current_range_meters":38800,"station_id":"ce4bhbh2rcd13ifvqeqg","pricing_plan_id":"cebpf4jnsgd1na2vs0mg"},{"bike_id":"cacf724b-c889-4eae-812d-563437007dd6","system_id":"levelo_inurba_marseille","lat":43.311462,"lon":5.387775,"is_reserved":false,"is_disabled":false,"rental_uris":{"android":"levelo://app?vid=cacf724b-c889-4eae-812d-563437007dd6","ios":"levelo://app?vid=cacf724b-c889-4eae-812d-563437007dd6"},"vehicle_type_id":"4","last_reported":1729703281,"current_range_meters":39200,"station_id":"ce4bgv12rcd13ifvqcp0","pricing_plan_id":"cebpf4jnsgd1na2vs0mg"},{"bike_id":"b7947e49-bb28-4846-885f-c8bc42ab4a52","system_id":"levelo_inurba_marseille","lat":43.33022,"lon":5.39037,"is_reserved":false,"is_disabled":false,"rental_uris":{"android":"levelo://app?vid=b7947e49-bb28-4846-885f-c8bc42ab4a52","ios":"levelo://app?vid=b7947e49-bb28-4846-885f-c8bc42ab4a52"},"vehicle_type_id":"4","last_reported":1729703281,"current_range_meters":30000,"station_id":"ce4bhr92rcd13ifvqhrg","pricing_plan_id":"cebpf4jnsgd1na2vs0mg"},{"bike_id":"665d43f4-d52d-44d9-8bfa-e06acdc185a6","system_id":"levelo_inurba_marseille","lat":43.30143,"lon":5.39849,"is_reserved":false,"is_disabled":false,"rental_uris":{"android":"levelo://app?vid=665d43f4-d52d-44d9-8bfa-e06acdc185a6","ios":"levelo://app?vid=665d43f4-d52d-44d9-8bfa-e06acdc185a6"},"vehicle_type_id":"4","last_reported":1729703281,"current_range_meters":3600,"station_id":"ce4bh0h2rcd13ifvqd40","pricing_plan_id":"cebpf4jnsgd1na2vs0mg"},{"bike_id":"c475df4d-a826-4059-ab75-1f78184f1cef","system_id":"levelo_inurba_marseille","lat":43.33025,"lon":5.39045,"is_reserved":false,"is_disabled":false,"rental_uris":{"android":"levelo://app?vid=c475df4d-a826-4059-ab75-1f78184f1cef","ios":"levelo://app?vid=c475df4d-a826-4059-ab75-1f78184f1cef"},"vehicle_type_id":"4","last_reported":1729703281,"current_range_meters":29600,"station_id":"ce4bhr92rcd13ifvqhrg","pricing_plan_id":"cebpf4jnsgd1na2vs0mg"},{"bike_id":"26544c47-13ba-40a0-affa-6c9daa374698","system_id":"levelo_inurba_marseille","lat":43.3146,"lon":5.37381,"is_reserved":false,"is_disabled":false,"rental_uris":{"android":"levelo://app?vid=26544c47-13ba-40a0-affa-6c9daa374698","ios":"levelo://app?vid=26544c47-13ba-40a0-affa-6c9daa374698"},"vehicle_type_id":"4","last_reported":1729703281,"current_range_meters":37600,"station_id":"","pricing_plan_id":"cebpf4jnsgd1na2vs0mg"},{"bike_id":"c2e79817-2083-400a-8352-8c5c28f75e9a","system_id":"levelo_inurba_marseille","lat":43.29982,"lon":5.3849,"is_reserved":false,"is_disabled":false,"rental_uris":{"android":"levelo://app?vid=c2e79817-2083-400a-8352-8c5c28f75e9a","ios":"levelo://app?vid=c2e79817-2083-400a-8352-8c5c28f75e9a"},"vehicle_type_id":"4","last_reported":1729703281,"current_range_meters":30000,"station_id":"ce4bgj92rcd13ifvqbd0","pricing_plan_id":"cebpf4jnsgd1na2vs0mg"},{"bike_id":"a862e632-b591-4a82-b88c-0c185d2125b7","system_id":"levelo_inurba_marseille","lat":43.30938,"lon":5.40149,"is_reserved":false,"is_disabled":false,"rental_uris":{"android":"levelo://app?vid=a862e632-b591-4a82-b88c-0c185d2125b7","ios":"levelo://app?vid=a862e632-b591-4a82-b88c-0c185d2125b7"},"vehicle_type_id":"4","last_reported":1729703281,"current_range_meters":6800,"station_id":"ce4bgvp2rcd13ifvqct0","pricing_plan_id":"cebpf4jnsgd1na2vs0mg"},{"bike_id":"80477d68-e1a0-47a7-a3ce-7cb0b2929b43","system_id":"levelo_inurba_marseille","lat":43.29976,"lon":5.3849,"is_reserved":false,"is_disabled":false,"rental_uris":{"android":"levelo://app?vid=80477d68-e1a0-47a7-a3ce-7cb0b2929b43","ios":"levelo://app?vid=80477d68-e1a0-47a7-a3ce-7cb0b2929b43"},"vehicle_type_id":"4","last_reported":1729703281,"current_range_meters":16800,"station_id":"ce4bgj92rcd13ifvqbd0","pricing_plan_id":"cebpf4jnsgd1na2vs0mg"},{"bike_id":"84adf3bc-72df-4e94-9725-2e799636c54f","system_id":"levelo_inurba_marseille","lat":43.28856,"lon":5.39312,"is_reserved":false,"is_disabled":false,"rental_uris":{"android":"levelo://app?vid=84adf3bc-72df-4e94-9725-2e799636c54f","ios":"levelo://app?vid=84adf3bc-72df-4e94-9725-2e799636c54f"},"vehicle_type_id":"4","last_reported":1729703281,"current_range_meters":10800,"station_id":"ce4bh2p2rcd13ifvqdi0","pricing_plan_id":"cebpf4jnsgd1na2vs0mg"},{"bike_id":"6b12e348-48b7-4626-8383-38c5820d0c3c","system_id":"levelo_inurba_marseille","lat":43.28929,"lon":5.3664,"is_reserved":false,"is_disabled":false,"rental_uris":{"android":"levelo://app?vid=6b12e348-48b7-4626-8383-38c5820d0c3c","ios":"levelo://app?vid=6b12e348-48b7-4626-8383-38c5820d0c3c"},"vehicle_type_id":"4","last_reported":1729703281,"current_range_meters":38400,"station_id":"ce4bhap2rcd13ifvqek0","pricing_plan_id":"cebpf4jnsgd1na2vs0mg"},{"bike_id":"39c8b112-9a49-4084-8901-d901b56d2fee","system_id":"levelo_inurba_marseille","lat":43.30678,"lon":5.382,"is_reserved":false,"is_disabled":false,"rental_uris":{"android":"levelo://app?vid=39c8b112-9a49-4084-8901-d901b56d2fee","ios":"levelo://app?vid=39c8b112-9a49-4084-8901-d901b56d2fee"},"vehicle_type_id":"4","last_reported":1729703281,"current_range_meters":32800,"station_id":"","pricing_plan_id":"cebpf4jnsgd1na2vs0mg"},{"bike_id":"79aca2ed-4b63-4fb6-8e1d-d13888063054","system_id":"levelo_inurba_marseille","lat":43.28275,"lon":5.35065,"is_reserved":false,"is_disabled":false,"rental_uris":{"android":"levelo://app?vid=79aca2ed-4b63-4fb6-8e1d-d13888063054","ios":"levelo://app?vid=79aca2ed-4b63-4fb6-8e1d-d13888063054"},"vehicle_type_id":"4","last_reported":1729703281,"current_range_meters":33600,"station_id":"ce4bhbp2rcd13ifvqerg","pricing_plan_id":"cebpf4jnsgd1na2vs0mg"},{"bike_id":"0878f0be-ee74-4e14-b961-a99e2658adc0","system_id":"levelo_inurba_marseille","lat":43.27074,"lon":5.4228,"is_reserved":false,"is_disabled":false,"rental_uris":{"android":"levelo://app?vid=0878f0be-ee74-4e14-b961-a99e2658adc0","ios":"levelo://app?vid=0878f0be-ee74-4e14-b961-a99e2658adc0"},"vehicle_type_id":"4","last_reported":1729703281,"current_range_meters":30800,"station_id":"ce4bhk92rcd13ifvqgb0","pricing_plan_id":"cebpf4jnsgd1na2vs0mg"},{"bike_id":"10acd08e-2c97-4dd2-8024-94bf5f911bfa","system_id":"levelo_inurba_marseille","lat":43.29256,"lon":5.38444,"is_reserved":false,"is_disabled":false,"rental_uris":{"android":"levelo://app?vid=10acd08e-2c97-4dd2-8024-94bf5f911bfa","ios":"levelo://app?vid=10acd08e-2c97-4dd2-8024-94bf5f911bfa"},"vehicle_type_id":"4","last_reported":1729703281,"current_range_meters":29600,"station_id":"ce4bh692rcd13ifvqea0","pricing_plan_id":"cebpf4jnsgd1na2vs0mg"},{"bike_id":"417f9555-0d98-431e-9ab0-0699d629cf81","system_id":"levelo_inurba_marseille","lat":43.29974,"lon":5.38488,"is_reserved":false,"is_disabled":false,"rental_uris":{"android":"levelo://app?vid=417f9555-0d98-431e-9ab0-0699d629cf81","ios":"levelo://app?vid=417f9555-0d98-431e-9ab0-0699d629cf81"},"vehicle_type_id":"4","last_reported":1729703281,"current_range_meters":17600,"station_id":"ce4bgj92rcd13ifvqbd0","pricing_plan_id":"cebpf4jnsgd1na2vs0mg"},{"bike_id":"6afcaa1d-e7ea-4857-b6b7-702d82974a7a","system_id":"levelo_inurba_marseille","lat":43.2986,"lon":5.39736,"is_reserved":false,"is_disabled":false,"rental_uris":{"android":"levelo://app?vid=6afcaa1d-e7ea-4857-b6b7-702d82974a7a","ios":"levelo://app?vid=6afcaa1d-e7ea-4857-b6b7-702d82974a7a"},"vehicle_type_id":"4","last_reported":1729703281,"current_range_meters":38800,"station_id":"ce4bh0h2rcd13ifvqd50","pricing_plan_id":"cebpf4jnsgd1na2vs0mg"},{"bike_id":"5721cc6a-fb38-46eb-b7cd-324f9eb735c1","system_id":"levelo_inurba_marseille","lat":43.28611,"lon":5.35107,"is_reserved":false,"is_disabled":false,"rental_uris":{"android":"levelo://app?vid=5721cc6a-fb38-46eb-b7cd-324f9eb735c1","ios":"levelo://app?vid=5721cc6a-fb38-46eb-b7cd-324f9eb735c1"},"vehicle_type_id":"4","last_reported":1729703281,"current_range_meters":23200,"station_id":"ce4bhch2rcd13ifvqeug","pricing_plan_id":"cebpf4jnsgd1na2vs0mg"},{"bike_id":"972c7afb-2b34-4a20-9449-45fcb2dfa21d","system_id":"levelo_inurba_marseille","lat":43.2668,"lon":5.38269,"is_reserved":false,"is_disabled":false,"rental_uris":{"android":"levelo://app?vid=972c7afb-2b34-4a20-9449-45fcb2dfa21d","ios":"levelo://app?vid=972c7afb-2b34-4a20-9449-45fcb2dfa21d"},"vehicle_type_id":"4","last_reported":1729703281,"current_range_meters":36800,"station_id":"ce4bhg92rcd13ifvqf90","pricing_plan_id":"cebpf4jnsgd1na2vs0mg"},{"bike_id":"6dcb1b45-d198-48ea-be8a-e40e42f0d8d0","system_id":"levelo_inurba_marseille","lat":43.24802,"lon":5.3746,"is_reserved":false,"is_disabled":false,"rental_uris":{"android":"levelo://app?vid=6dcb1b45-d198-48ea-be8a-e40e42f0d8d0","ios":"levelo://app?vid=6dcb1b45-d198-48ea-be8a-e40e42f0d8d0"},"vehicle_type_id":"4","last_reported":1729703281,"current_range_meters":34000,"station_id":"ce4bhgh2rcd13ifvqfb0","pricing_plan_id":"cebpf4jnsgd1na2vs0mg"},{"bike_id":"5c30c8c1-76e4-4f01-a65c-9a345419b70b","system_id":"levelo_inurba_marseille","lat":43.28274,"lon":5.35076,"is_reserved":false,"is_disabled":false,"rental_uris":{"android":"levelo://app?vid=5c30c8c1-76e4-4f01-a65c-9a345419b70b","ios":"levelo://app?vid=5c30c8c1-76e4-4f01-a65c-9a345419b70b"},"vehicle_type_id":"4","last_reported":1729703281,"current_range_meters":11600,"station_id":"ce4bhbp2rcd13ifvqerg","pricing_plan_id":"cebpf4jnsgd1na2vs0mg"},{"bike_id":"ccfbd821-0e51-4989-9059-8c8819068688","system_id":"levelo_inurba_marseille","lat":43.243856,"lon":5.370718,"is_reserved":false,"is_disabled":false,"rental_uris":{"android":"levelo://app?vid=ccfbd821-0e51-4989-9059-8c8819068688","ios":"levelo://app?vid=ccfbd821-0e51-4989-9059-8c8819068688"},"vehicle_type_id":"4","last_reported":1729703281,"current_range_meters":14400,"station_id":"ce4bhhh2rcd13ifvqfk0","pricing_plan_id":"cebpf4jnsgd1na2vs0mg"},{"bike_id":"9bb577d9-9e75-47b0-9f20-c1c19cfe035b","system_id":"levelo_inurba_marseille","lat":43.259979,"lon":5.375648,"is_reserved":false,"is_disabled":false,"rental_uris":{"android":"levelo://app?vid=9bb577d9-9e75-47b0-9f20-c1c19cfe035b","ios":"levelo://app?vid=9bb577d9-9e75-47b0-9f20-c1c19cfe035b"},"vehicle_type_id":"4","last_reported":1729703281,"current_range_meters":4400,"station_id":"ce4bhgh2rcd13ifvqfa0","pricing_plan_id":"cebpf4jnsgd1na2vs0mg"},{"bike_id":"bdb5f1e3-126d-499e-a835-1843a92a834a","system_id":"levelo_inurba_marseille","lat":43.27369,"lon":5.36266,"is_reserved":false,"is_disabled":false,"rental_uris":{"android":"levelo://app?vid=bdb5f1e3-126d-499e-a835-1843a92a834a","ios":"levelo://app?vid=bdb5f1e3-126d-499e-a835-1843a92a834a"},"vehicle_type_id":"4","last_reported":1729703281,"current_range_meters":28400,"station_id":"ce4bhbh2rcd13ifvqeo0","pricing_plan_id":"cebpf4jnsgd1na2vs0mg"},{"bike_id":"dd408a1b-ebf8-4821-97ae-2380768db906","system_id":"levelo_inurba_marseille","lat":43.29527,"lon":5.38541,"is_reserved":false,"is_disabled":false,"rental_uris":{"android":"levelo://app?vid=dd408a1b-ebf8-4821-97ae-2380768db906","ios":"levelo://app?vid=dd408a1b-ebf8-4821-97ae-2380768db906"},"vehicle_type_id":"4","last_reported":1729703281,"current_range_meters":38800,"station_id":"ce4bgih2rcd13ifvqba0","pricing_plan_id":"cebpf4jnsgd1na2vs0mg"},{"bike_id":"6b182e01-3e35-41a6-bad4-028cf7309730","system_id":"levelo_inurba_marseille","lat":43.27691,"lon":5.38888,"is_reserved":false,"is_disabled":false,"rental_uris":{"android":"levelo://app?vid=6b182e01-3e35-41a6-bad4-028cf7309730","ios":"levelo://app?vid=6b182e01-3e35-41a6-bad4-028cf7309730"},"vehicle_type_id":"4","last_reported":1729703281,"current_range_meters":4000,"station_id":"ce4bhi12rcd13ifvqfo0","pricing_plan_id":"cebpf4jnsgd1na2vs0mg"},{"bike_id":"1799daef-05f3-419e-bbe3-51a6b4575a5c","system_id":"levelo_inurba_marseille","lat":43.28299,"lon":5.40845,"is_reserved":false,"is_disabled":false,"rental_uris":{"android":"levelo://app?vid=1799daef-05f3-419e-bbe3-51a6b4575a5c","ios":"levelo://app?vid=1799daef-05f3-419e-bbe3-51a6b4575a5c"},"vehicle_type_id":"4","last_reported":1729703281,"current_range_meters":11200,"station_id":"","pricing_plan_id":"cebpf4jnsgd1na2vs0mg"},{"bike_id":"0dc5fd65-6c08-45fc-b9d0-c856107da224","system_id":"levelo_inurba_marseille","lat":43.29579,"lon":5.36742,"is_reserved":false,"is_disabled":false,"rental_uris":{"android":"levelo://app?vid=0dc5fd65-6c08-45fc-b9d0-c856107da224","ios":"levelo://app?vid=0dc5fd65-6c08-45fc-b9d0-c856107da224"},"vehicle_type_id":"4","last_reported":1729703281,"current_range_meters":40000,"station_id":"ce4bgph2rcd13ifvqc2g","pricing_plan_id":"cebpf4jnsgd1na2vs0mg"},{"bike_id":"6eb3a0bb-d2a3-49b8-a9bc-f12220a22dd0","system_id":"levelo_inurba_marseille","lat":43.29531,"lon":5.38538,"is_reserved":false,"is_disabled":false,"rental_uris":{"android":"levelo://app?vid=6eb3a0bb-d2a3-49b8-a9bc-f12220a22dd0","ios":"levelo://app?vid=6eb3a0bb-d2a3-49b8-a9bc-f12220a22dd0"},"vehicle_type_id":"4","last_reported":1729703281,"current_range_meters":25600,"station_id":"ce4bgih2rcd13ifvqba0","pricing_plan_id":"cebpf4jnsgd1na2vs0mg"},{"bike_id":"c3969c76-c484-480f-b0d7-5ac7166aeb01","system_id":"levelo_inurba_marseille","lat":43.29531,"lon":5.38537,"is_reserved":false,"is_disabled":false,"rental_uris":{"android":"levelo://app?vid=c3969c76-c484-480f-b0d7-5ac7166aeb01","ios":"levelo://app?vid=c3969c76-c484-480f-b0d7-5ac7166aeb01"},"vehicle_type_id":"4","last_reported":1729703281,"current_range_meters":19600,"station_id":"ce4bgih2rcd13ifvqba0","pricing_plan_id":"cebpf4jnsgd1na2vs0mg"},{"bike_id":"f54ec824-4a1a-4907-9eb9-6f7e89a75319","system_id":"levelo_inurba_marseille","lat":43.29528,"lon":5.38553,"is_reserved":false,"is_disabled":false,"rental_uris":{"android":"levelo://app?vid=f54ec824-4a1a-4907-9eb9-6f7e89a75319","ios":"levelo://app?vid=f54ec824-4a1a-4907-9eb9-6f7e89a75319"},"vehicle_type_id":"4","last_reported":1729703281,"current_range_meters":25600,"station_id":"ce4bgih2rcd13ifvqba0","pricing_plan_id":"cebpf4jnsgd1na2vs0mg"},{"bike_id":"e5a4851e-d32d-4081-a426-20122e072b9b","system_id":"levelo_inurba_marseille","lat":43.29317,"lon":5.4116,"is_reserved":false,"is_disabled":false,"rental_uris":{"android":"levelo://app?vid=e5a4851e-d32d-4081-a426-20122e072b9b","ios":"levelo://app?vid=e5a4851e-d32d-4081-a426-20122e072b9b"},"vehicle_type_id":"4","last_reported":1729703281,"current_range_meters":16800,"station_id":"","pricing_plan_id":"cebpf4jnsgd1na2vs0mg"},{"bike_id":"70c0db28-8045-42ba-a534-2532b86d3455","system_id":"levelo_inurba_marseille","lat":43.22932,"lon":5.35376,"is_reserved":false,"is_disabled":false,"rental_uris":{"android":"levelo://app?vid=70c0db28-8045-42ba-a534-2532b86d3455","ios":"levelo://app?vid=70c0db28-8045-42ba-a534-2532b86d3455"},"vehicle_type_id":"4","last_reported":1729703281,"current_range_meters":16400,"station_id":"cpo3532slgdg3j2ikp40","pricing_plan_id":"cebpf4jnsgd1na2vs0mg"},{"bike_id":"b58265fe-dc36-402b-81fe-bda91645ebb9","system_id":"levelo_inurba_marseille","lat":43.312347,"lon":5.386536,"is_reserved":false,"is_disabled":false,"rental_uris":{"android":"levelo://app?vid=b58265fe-dc36-402b-81fe-bda91645ebb9","ios":"levelo://app?vid=b58265fe-dc36-402b-81fe-bda91645ebb9"},"vehicle_type_id":"4","last_reported":1729703281,"current_range_meters":14400,"station_id":"ce4bgv12rcd13ifvqcp0","pricing_plan_id":"cebpf4jnsgd1na2vs0mg"},{"bike_id":"c0af99cc-a2d7-486c-b220-51762427a35e","system_id":"levelo_inurba_marseille","lat":43.30135,"lon":5.39859,"is_reserved":false,"is_disabled":false,"rental_uris":{"android":"levelo://app?vid=c0af99cc-a2d7-486c-b220-51762427a35e","ios":"levelo://app?vid=c0af99cc-a2d7-486c-b220-51762427a35e"},"vehicle_type_id":"4","last_reported":1729703281,"current_range_meters":37600,"station_id":"ce4bh0h2rcd13ifvqd40","pricing_plan_id":"cebpf4jnsgd1na2vs0mg"},{"bike_id":"43b7e2eb-7d38-4f88-a91d-36314d58a2cc","system_id":"levelo_inurba_marseille","lat":43.33723,"lon":5.39189,"is_reserved":false,"is_disabled":false,"rental_uris":{"android":"levelo://app?vid=43b7e2eb-7d38-4f88-a91d-36314d58a2cc","ios":"levelo://app?vid=43b7e2eb-7d38-4f88-a91d-36314d58a2cc"},"vehicle_type_id":"4","last_reported":1729703281,"current_range_meters":38000,"station_id":"ce4bhr92rcd13ifvqhsg","pricing_plan_id":"cebpf4jnsgd1na2vs0mg"},{"bike_id":"1c3687d1-db9e-4fd8-9171-226571834376","system_id":"levelo_inurba_marseille","lat":43.28155,"lon":5.4264,"is_reserved":false,"is_disabled":false,"rental_uris":{"android":"levelo://app?vid=1c3687d1-db9e-4fd8-9171-226571834376","ios":"levelo://app?vid=1c3687d1-db9e-4fd8-9171-226571834376"},"vehicle_type_id":"4","last_reported":1729703281,"current_range_meters":36400,"station_id":"ce4bhnh2rcd13ifvqgug","pricing_plan_id":"cebpf4jnsgd1na2vs0mg"},{"bike_id":"32140e32-f834-4995-a719-2df8e8b53dfd","system_id":"levelo_inurba_marseille","lat":43.29422,"lon":5.38608,"is_reserved":false,"is_disabled":false,"rental_uris":{"android":"levelo://app?vid=32140e32-f834-4995-a719-2df8e8b53dfd","ios":"levelo://app?vid=32140e32-f834-4995-a719-2df8e8b53dfd"},"vehicle_type_id":"4","last_reported":1729703281,"current_range_meters":36800,"station_id":"ce4bh2h2rcd13ifvqdh0","pricing_plan_id":"cebpf4jnsgd1na2vs0mg"},{"bike_id":"8dc5085f-2cec-4de1-9597-eafbfd98726b","system_id":"levelo_inurba_marseille","lat":43.28846,"lon":5.39326,"is_reserved":false,"is_disabled":false,"rental_uris":{"android":"levelo://app?vid=8dc5085f-2cec-4de1-9597-eafbfd98726b","ios":"levelo://app?vid=8dc5085f-2cec-4de1-9597-eafbfd98726b"},"vehicle_type_id":"4","last_reported":1729703281,"current_range_meters":10000,"station_id":"ce4bh2p2rcd13ifvqdi0","pricing_plan_id":"cebpf4jnsgd1na2vs0mg"},{"bike_id":"51555d17-a635-40c0-8c92-11978ec4b442","system_id":"levelo_inurba_marseille","lat":43.28564,"lon":5.39519,"is_reserved":false,"is_disabled":false,"rental_uris":{"android":"levelo://app?vid=51555d17-a635-40c0-8c92-11978ec4b442","ios":"levelo://app?vid=51555d17-a635-40c0-8c92-11978ec4b442"},"vehicle_type_id":"4","last_reported":1729703281,"current_range_meters":3600,"station_id":"ce4bh292rcd13ifvqdg0","pricing_plan_id":"cebpf4jnsgd1na2vs0mg"},{"bike_id":"a9a4351f-1613-4657-95da-b9994ce5b84f","system_id":"levelo_inurba_marseille","lat":43.30953,"lon":5.39029,"is_reserved":false,"is_disabled":false,"rental_uris":{"android":"levelo://app?vid=a9a4351f-1613-4657-95da-b9994ce5b84f","ios":"levelo://app?vid=a9a4351f-1613-4657-95da-b9994ce5b84f"},"vehicle_type_id":"4","last_reported":1729703281,"current_range_meters":35200,"station_id":"ce4bgup2rcd13ifvqco0","pricing_plan_id":"cebpf4jnsgd1na2vs0mg"},{"bike_id":"4d9677e1-8059-4ee9-82ec-309e9c9e1531","system_id":"levelo_inurba_marseille","lat":43.29417,"lon":5.38627,"is_reserved":false,"is_disabled":false,"rental_uris":{"android":"levelo://app?vid=4d9677e1-8059-4ee9-82ec-309e9c9e1531","ios":"levelo://app?vid=4d9677e1-8059-4ee9-82ec-309e9c9e1531"},"vehicle_type_id":"4","last_reported":1729703281,"current_range_meters":30400,"station_id":"ce4bh2h2rcd13ifvqdh0","pricing_plan_id":"cebpf4jnsgd1na2vs0mg"},{"bike_id":"e49ef59c-c6f6-4695-96ae-01a40266ab7a","system_id":"levelo_inurba_marseille","lat":43.25577,"lon":5.38236,"is_reserved":false,"is_disabled":false,"rental_uris":{"android":"levelo://app?vid=e49ef59c-c6f6-4695-96ae-01a40266ab7a","ios":"levelo://app?vid=e49ef59c-c6f6-4695-96ae-01a40266ab7a"},"vehicle_type_id":"4","last_reported":1729703281,"current_range_meters":14400,"station_id":"ce4bhih2rcd13ifvqfs0","pricing_plan_id":"cebpf4jnsgd1na2vs0mg"},{"bike_id":"26ebd71f-7bc7-4bad-bbb2-6d15881ecc4c","system_id":"levelo_inurba_marseille","lat":43.30658,"lon":5.39475,"is_reserved":false,"is_disabled":false,"rental_uris":{"android":"levelo://app?vid=26ebd71f-7bc7-4bad-bbb2-6d15881ecc4c","ios":"levelo://app?vid=26ebd71f-7bc7-4bad-bbb2-6d15881ecc4c"},"vehicle_type_id":"4","last_reported":1729703281,"current_range_meters":25600,"station_id":"","pricing_plan_id":"cebpf4jnsgd1na2vs0mg"},{"bike_id":"6ff7dfb9-d8af-461e-9639-4f36babf1919","system_id":"levelo_inurba_marseille","lat":43.27914,"lon":5.37998,"is_reserved":false,"is_disabled":false,"rental_uris":{"android":"levelo://app?vid=6ff7dfb9-d8af-461e-9639-4f36babf1919","ios":"levelo://app?vid=6ff7dfb9-d8af-461e-9639-4f36babf1919"},"vehicle_type_id":"4","last_reported":1729703281,"current_range_meters":37600,"station_id":"ce4bhf92rcd13ifvqf50","pricing_plan_id":"cebpf4jnsgd1na2vs0mg"},{"bike_id":"efbe8f6c-59ee-4926-905b-5225d7b87a03","system_id":"levelo_inurba_marseille","lat":43.31927,"lon":5.40819,"is_reserved":false,"is_disabled":false,"rental_uris":{"android":"levelo://app?vid=efbe8f6c-59ee-4926-905b-5225d7b87a03","ios":"levelo://app?vid=efbe8f6c-59ee-4926-905b-5225d7b87a03"},"vehicle_type_id":"4","last_reported":1729703281,"current_range_meters":7200,"station_id":"ce4bhq12rcd13ifvqhig","pricing_plan_id":"cebpf4jnsgd1na2vs0mg"},{"bike_id":"d9794639-6fae-49d4-a7b4-c5ebb0770b5c","system_id":"levelo_inurba_marseille","lat":43.33022,"lon":5.39046,"is_reserved":false,"is_disabled":false,"rental_uris":{"android":"levelo://app?vid=d9794639-6fae-49d4-a7b4-c5ebb0770b5c","ios":"levelo://app?vid=d9794639-6fae-49d4-a7b4-c5ebb0770b5c"},"vehicle_type_id":"4","last_reported":1729703281,"current_range_meters":38800,"station_id":"ce4bhr92rcd13ifvqhrg","pricing_plan_id":"cebpf4jnsgd1na2vs0mg"},{"bike_id":"c3945b60-e38d-4106-8f18-92c7f436cc4f","system_id":"levelo_inurba_marseille","lat":43.33759,"lon":5.37455,"is_reserved":false,"is_disabled":false,"rental_uris":{"android":"levelo://app?vid=c3945b60-e38d-4106-8f18-92c7f436cc4f","ios":"levelo://app?vid=c3945b60-e38d-4106-8f18-92c7f436cc4f"},"vehicle_type_id":"4","last_reported":1729703281,"current_range_meters":26800,"station_id":"","pricing_plan_id":"cebpf4jnsgd1na2vs0mg"},{"bike_id":"311cad1d-f407-4a56-9ee5-bd50e96223f9","system_id":"levelo_inurba_marseille","lat":43.28341,"lon":5.38108,"is_reserved":false,"is_disabled":false,"rental_uris":{"android":"levelo://app?vid=311cad1d-f407-4a56-9ee5-bd50e96223f9","ios":"levelo://app?vid=311cad1d-f407-4a56-9ee5-bd50e96223f9"},"vehicle_type_id":"4","last_reported":1729703281,"current_range_meters":22000,"station_id":"ce4bh412rcd13ifvqdr0","pricing_plan_id":"cebpf4jnsgd1na2vs0mg"},{"bike_id":"a9135070-c622-4962-aa90-64f005b6bed7","system_id":"levelo_inurba_marseille","lat":43.25579,"lon":5.38232,"is_reserved":false,"is_disabled":false,"rental_uris":{"android":"levelo://app?vid=a9135070-c622-4962-aa90-64f005b6bed7","ios":"levelo://app?vid=a9135070-c622-4962-aa90-64f005b6bed7"},"vehicle_type_id":"4","last_reported":1729703281,"current_range_meters":36800,"station_id":"ce4bhih2rcd13ifvqfs0","pricing_plan_id":"cebpf4jnsgd1na2vs0mg"},{"bike_id":"78018770-86ea-4404-8452-ce018255cd17","system_id":"levelo_inurba_marseille","lat":43.22936,"lon":5.3538,"is_reserved":false,"is_disabled":false,"rental_uris":{"android":"levelo://app?vid=78018770-86ea-4404-8452-ce018255cd17","ios":"levelo://app?vid=78018770-86ea-4404-8452-ce018255cd17"},"vehicle_type_id":"4","last_reported":1729703281,"current_range_meters":21600,"station_id":"cpo3532slgdg3j2ikp40","pricing_plan_id":"cebpf4jnsgd1na2vs0mg"},{"bike_id":"677f36bc-08cb-4cc7-b336-840308c1a03c","system_id":"levelo_inurba_marseille","lat":43.2737,"lon":5.36264,"is_reserved":false,"is_disabled":false,"rental_uris":{"android":"levelo://app?vid=677f36bc-08cb-4cc7-b336-840308c1a03c","ios":"levelo://app?vid=677f36bc-08cb-4cc7-b336-840308c1a03c"},"vehicle_type_id":"4","last_reported":1729703281,"current_range_meters":18000,"station_id":"ce4bhbh2rcd13ifvqeo0","pricing_plan_id":"cebpf4jnsgd1na2vs0mg"},{"bike_id":"abf2f1e0-3be2-43e4-99b1-e4d71ea2cc24","system_id":"levelo_inurba_marseille","lat":43.27913,"lon":5.3958,"is_reserved":false,"is_disabled":false,"rental_uris":{"android":"levelo://app?vid=abf2f1e0-3be2-43e4-99b1-e4d71ea2cc24","ios":"levelo://app?vid=abf2f1e0-3be2-43e4-99b1-e4d71ea2cc24"},"vehicle_type_id":"4","last_reported":1729703281,"current_range_meters":32800,"station_id":"ce4bhf92rcd13ifvqf40","pricing_plan_id":"cebpf4jnsgd1na2vs0mg"},{"bike_id":"597c22ba-c007-44eb-aa06-f4ded3630681","system_id":"levelo_inurba_marseille","lat":43.33025,"lon":5.39039,"is_reserved":false,"is_disabled":false,"rental_uris":{"android":"levelo://app?vid=597c22ba-c007-44eb-aa06-f4ded3630681","ios":"levelo://app?vid=597c22ba-c007-44eb-aa06-f4ded3630681"},"vehicle_type_id":"4","last_reported":1729703281,"current_range_meters":24800,"station_id":"ce4bhr92rcd13ifvqhrg","pricing_plan_id":"cebpf4jnsgd1na2vs0mg"},{"bike_id":"247c1539-097b-46dd-8c24-05380c7705d5","system_id":"levelo_inurba_marseille","lat":43.2958,"lon":5.36744,"is_reserved":false,"is_disabled":false,"rental_uris":{"android":"levelo://app?vid=247c1539-097b-46dd-8c24-05380c7705d5","ios":"levelo://app?vid=247c1539-097b-46dd-8c24-05380c7705d5"},"vehicle_type_id":"4","last_reported":1729703281,"current_range_meters":39200,"station_id":"ce4bgph2rcd13ifvqc2g","pricing_plan_id":"cebpf4jnsgd1na2vs0mg"},{"bike_id":"cd4c3bbe-d2b7-402d-8f00-84732ca3ae6a","system_id":"levelo_inurba_marseille","lat":43.29257,"lon":5.3844,"is_reserved":false,"is_disabled":false,"rental_uris":{"android":"levelo://app?vid=cd4c3bbe-d2b7-402d-8f00-84732ca3ae6a","ios":"levelo://app?vid=cd4c3bbe-d2b7-402d-8f00-84732ca3ae6a"},"vehicle_type_id":"4","last_reported":1729703281,"current_range_meters":36400,"station_id":"ce4bh692rcd13ifvqea0","pricing_plan_id":"cebpf4jnsgd1na2vs0mg"},{"bike_id":"e0f591a5-4a49-47dc-9aa6-eb75178c5760","system_id":"levelo_inurba_marseille","lat":43.22937,"lon":5.35381,"is_reserved":false,"is_disabled":false,"rental_uris":{"android":"levelo://app?vid=e0f591a5-4a49-47dc-9aa6-eb75178c5760","ios":"levelo://app?vid=e0f591a5-4a49-47dc-9aa6-eb75178c5760"},"vehicle_type_id":"4","last_reported":1729703281,"current_range_meters":36000,"station_id":"cpo3532slgdg3j2ikp40","pricing_plan_id":"cebpf4jnsgd1na2vs0mg"},{"bike_id":"2e7464f6-6c5d-45ed-b2ba-6e7a1cc5cd49","system_id":"levelo_inurba_marseille","lat":43.30639,"lon":5.4009,"is_reserved":false,"is_disabled":false,"rental_uris":{"android":"levelo://app?vid=2e7464f6-6c5d-45ed-b2ba-6e7a1cc5cd49","ios":"levelo://app?vid=2e7464f6-6c5d-45ed-b2ba-6e7a1cc5cd49"},"vehicle_type_id":"4","last_reported":1729703281,"current_range_meters":34000,"station_id":"ce4bh112rcd13ifvqda0","pricing_plan_id":"cebpf4jnsgd1na2vs0mg"},{"bike_id":"3758e8e1-6774-4a6d-8d44-4f39d30cb7cf","system_id":"levelo_inurba_marseille","lat":43.22926,"lon":5.35382,"is_reserved":false,"is_disabled":false,"rental_uris":{"android":"levelo://app?vid=3758e8e1-6774-4a6d-8d44-4f39d30cb7cf","ios":"levelo://app?vid=3758e8e1-6774-4a6d-8d44-4f39d30cb7cf"},"vehicle_type_id":"4","last_reported":1729703281,"current_range_meters":36400,"station_id":"cpo3532slgdg3j2ikp40","pricing_plan_id":"cebpf4jnsgd1na2vs0mg"},{"bike_id":"1fecbebc-ce54-4636-aaa5-951853bae069","system_id":"levelo_inurba_marseille","lat":43.29413,"lon":5.38635,"is_reserved":false,"is_disabled":false,"rental_uris":{"android":"levelo://app?vid=1fecbebc-ce54-4636-aaa5-951853bae069","ios":"levelo://app?vid=1fecbebc-ce54-4636-aaa5-951853bae069"},"vehicle_type_id":"4","last_reported":1729703281,"current_range_meters":2000,"station_id":"ce4bh2h2rcd13ifvqdh0","pricing_plan_id":"cebpf4jnsgd1na2vs0mg"},{"bike_id":"1163c2ce-becf-41aa-b931-c0b03f4fe8d1","system_id":"levelo_inurba_marseille","lat":43.28664,"lon":5.36361,"is_reserved":false,"is_disabled":false,"rental_uris":{"android":"levelo://app?vid=1163c2ce-becf-41aa-b931-c0b03f4fe8d1","ios":"levelo://app?vid=1163c2ce-becf-41aa-b931-c0b03f4fe8d1"},"vehicle_type_id":"4","last_reported":1729703281,"current_range_meters":9200,"station_id":"ce4bhah2rcd13ifvqej0","pricing_plan_id":"cebpf4jnsgd1na2vs0mg"},{"bike_id":"e7486f46-eb9d-444d-840b-8a224a521526","system_id":"levelo_inurba_marseille","lat":43.28417,"lon":5.34982,"is_reserved":false,"is_disabled":false,"rental_uris":{"android":"levelo://app?vid=e7486f46-eb9d-444d-840b-8a224a521526","ios":"levelo://app?vid=e7486f46-eb9d-444d-840b-8a224a521526"},"vehicle_type_id":"4","last_reported":1729703281,"current_range_meters":28400,"station_id":"ce4bhbh2rcd13ifvqepg","pricing_plan_id":"cebpf4jnsgd1na2vs0mg"},{"bike_id":"30874172-f8b0-47de-b0d4-6ebffa113c84","system_id":"levelo_inurba_marseille","lat":43.23193,"lon":5.35551,"is_reserved":false,"is_disabled":false,"rental_uris":{"android":"levelo://app?vid=30874172-f8b0-47de-b0d4-6ebffa113c84","ios":"levelo://app?vid=30874172-f8b0-47de-b0d4-6ebffa113c84"},"vehicle_type_id":"4","last_reported":1729703281,"current_range_meters":39200,"station_id":"ce4bhu92rcd13ifvqi70","pricing_plan_id":"cebpf4jnsgd1na2vs0mg"},{"bike_id":"ee0c6a19-64fe-4b0b-bb54-974ea2465e01","system_id":"levelo_inurba_marseille","lat":43.24664,"lon":5.38161,"is_reserved":false,"is_disabled":false,"rental_uris":{"android":"levelo://app?vid=ee0c6a19-64fe-4b0b-bb54-974ea2465e01","ios":"levelo://app?vid=ee0c6a19-64fe-4b0b-bb54-974ea2465e01"},"vehicle_type_id":"4","last_reported":1729703281,"current_range_meters":8000,"station_id":"ce4bhih2rcd13ifvqfr0","pricing_plan_id":"cebpf4jnsgd1na2vs0mg"},{"bike_id":"b55ea397-7284-4350-9e1c-6726519c5849","system_id":"levelo_inurba_marseille","lat":43.26741,"lon":5.39297,"is_reserved":false,"is_disabled":false,"rental_uris":{"android":"levelo://app?vid=b55ea397-7284-4350-9e1c-6726519c5849","ios":"levelo://app?vid=b55ea397-7284-4350-9e1c-6726519c5849"},"vehicle_type_id":"4","last_reported":1729703281,"current_range_meters":6400,"station_id":"","pricing_plan_id":"cebpf4jnsgd1na2vs0mg"},{"bike_id":"a97b4241-7508-42c0-bb38-410299efdfb1","system_id":"levelo_inurba_marseille","lat":43.29529,"lon":5.39036,"is_reserved":false,"is_disabled":false,"rental_uris":{"android":"levelo://app?vid=a97b4241-7508-42c0-bb38-410299efdfb1","ios":"levelo://app?vid=a97b4241-7508-42c0-bb38-410299efdfb1"},"vehicle_type_id":"4","last_reported":1729703281,"current_range_meters":34800,"station_id":"ce4bh3p2rcd13ifvqdp0","pricing_plan_id":"cebpf4jnsgd1na2vs0mg"},{"bike_id":"614e8f87-5767-444c-81bb-46babd71e369","system_id":"levelo_inurba_marseille","lat":43.28155,"lon":5.42648,"is_reserved":false,"is_disabled":false,"rental_uris":{"android":"levelo://app?vid=614e8f87-5767-444c-81bb-46babd71e369","ios":"levelo://app?vid=614e8f87-5767-444c-81bb-46babd71e369"},"vehicle_type_id":"4","last_reported":1729703281,"current_range_meters":27200,"station_id":"ce4bhnh2rcd13ifvqgug","pricing_plan_id":"cebpf4jnsgd1na2vs0mg"},{"bike_id":"70e82507-cae7-43cc-90e4-a6aef293f0e0","system_id":"levelo_inurba_marseille","lat":43.2656,"lon":5.39006,"is_reserved":false,"is_disabled":false,"rental_uris":{"android":"levelo://app?vid=70e82507-cae7-43cc-90e4-a6aef293f0e0","ios":"levelo://app?vid=70e82507-cae7-43cc-90e4-a6aef293f0e0"},"vehicle_type_id":"4","last_reported":1729703281,"current_range_meters":22000,"station_id":"ce4bhe12rcd13ifvqf30","pricing_plan_id":"cebpf4jnsgd1na2vs0mg"},{"bike_id":"98662de2-4377-45c4-8682-e29c782f4a10","system_id":"levelo_inurba_marseille","lat":43.27425,"lon":5.39421,"is_reserved":false,"is_disabled":false,"rental_uris":{"android":"levelo://app?vid=98662de2-4377-45c4-8682-e29c782f4a10","ios":"levelo://app?vid=98662de2-4377-45c4-8682-e29c782f4a10"},"vehicle_type_id":"4","last_reported":1729703281,"current_range_meters":8400,"station_id":"ce4bhdp2rcd13ifvqf20","pricing_plan_id":"cebpf4jnsgd1na2vs0mg"},{"bike_id":"fed29e3d-ded9-4536-b5e9-762e6c2a1343","system_id":"levelo_inurba_marseille","lat":43.29954,"lon":5.39191,"is_reserved":false,"is_disabled":false,"rental_uris":{"android":"levelo://app?vid=fed29e3d-ded9-4536-b5e9-762e6c2a1343","ios":"levelo://app?vid=fed29e3d-ded9-4536-b5e9-762e6c2a1343"},"vehicle_type_id":"4","last_reported":1729703281,"current_range_meters":11200,"station_id":"ce4bghh2rcd13ifvqb60","pricing_plan_id":"cebpf4jnsgd1na2vs0mg"},{"bike_id":"4d934c20-af0a-4134-af24-ca947af692a7","system_id":"levelo_inurba_marseille","lat":43.31075,"lon":5.38344,"is_reserved":false,"is_disabled":false,"rental_uris":{"android":"levelo://app?vid=4d934c20-af0a-4134-af24-ca947af692a7","ios":"levelo://app?vid=4d934c20-af0a-4134-af24-ca947af692a7"},"vehicle_type_id":"4","last_reported":1729703281,"current_range_meters":30000,"station_id":"ce4bgv92rcd13ifvqcr0","pricing_plan_id":"cebpf4jnsgd1na2vs0mg"},{"bike_id":"409c7d05-8bd8-48e6-a031-312baafe8037","system_id":"levelo_inurba_marseille","lat":43.2293,"lon":5.35377,"is_reserved":false,"is_disabled":false,"rental_uris":{"android":"levelo://app?vid=409c7d05-8bd8-48e6-a031-312baafe8037","ios":"levelo://app?vid=409c7d05-8bd8-48e6-a031-312baafe8037"},"vehicle_type_id":"4","last_reported":1729703281,"current_range_meters":7200,"station_id":"cpo3532slgdg3j2ikp40","pricing_plan_id":"cebpf4jnsgd1na2vs0mg"},{"bike_id":"75785403-c74a-4e7f-93be-ce09638be4c9","system_id":"levelo_inurba_marseille","lat":43.29253,"lon":5.40912,"is_reserved":false,"is_disabled":false,"rental_uris":{"android":"levelo://app?vid=75785403-c74a-4e7f-93be-ce09638be4c9","ios":"levelo://app?vid=75785403-c74a-4e7f-93be-ce09638be4c9"},"vehicle_type_id":"4","last_reported":1729703281,"current_range_meters":38800,"station_id":"ce4bh192rcd13ifvqdc0","pricing_plan_id":"cebpf4jnsgd1na2vs0mg"},{"bike_id":"87f3e177-d3b7-4811-af40-3ac63b0b7f65","system_id":"levelo_inurba_marseille","lat":43.25574,"lon":5.38247,"is_reserved":false,"is_disabled":false,"rental_uris":{"android":"levelo://app?vid=87f3e177-d3b7-4811-af40-3ac63b0b7f65","ios":"levelo://app?vid=87f3e177-d3b7-4811-af40-3ac63b0b7f65"},"vehicle_type_id":"4","last_reported":1729703281,"current_range_meters":24000,"station_id":"ce4bhih2rcd13ifvqfs0","pricing_plan_id":"cebpf4jnsgd1na2vs0mg"},{"bike_id":"bc33d698-530d-44c0-bfce-68472fd94c16","system_id":"levelo_inurba_marseille","lat":43.29098,"lon":5.38144,"is_reserved":false,"is_disabled":false,"rental_uris":{"android":"levelo://app?vid=bc33d698-530d-44c0-bfce-68472fd94c16","ios":"levelo://app?vid=bc33d698-530d-44c0-bfce-68472fd94c16"},"vehicle_type_id":"4","last_reported":1729703281,"current_range_meters":25600,"station_id":"ce4bh512rcd13ifvqe2g","pricing_plan_id":"cebpf4jnsgd1na2vs0mg"},{"bike_id":"1c6af9a1-9199-46a9-b711-1f1899c3ea50","system_id":"levelo_inurba_marseille","lat":43.2987,"lon":5.39734,"is_reserved":false,"is_disabled":false,"rental_uris":{"android":"levelo://app?vid=1c6af9a1-9199-46a9-b711-1f1899c3ea50","ios":"levelo://app?vid=1c6af9a1-9199-46a9-b711-1f1899c3ea50"},"vehicle_type_id":"4","last_reported":1729703281,"current_range_meters":13600,"station_id":"ce4bh0h2rcd13ifvqd50","pricing_plan_id":"cebpf4jnsgd1na2vs0mg"},{"bike_id":"7e78c6f3-ed2d-42f2-b80a-8eb8d80f1dcf","system_id":"levelo_inurba_marseille","lat":43.29198,"lon":5.35811,"is_reserved":false,"is_disabled":false,"rental_uris":{"android":"levelo://app?vid=7e78c6f3-ed2d-42f2-b80a-8eb8d80f1dcf","ios":"levelo://app?vid=7e78c6f3-ed2d-42f2-b80a-8eb8d80f1dcf"},"vehicle_type_id":"4","last_reported":1729703281,"current_range_meters":30000,"station_id":"ce4bhb12rcd13ifvqel0","pricing_plan_id":"cebpf4jnsgd1na2vs0mg"},{"bike_id":"aed24de0-8f36-4a86-bd76-6b01467f9a9b","system_id":"levelo_inurba_marseille","lat":43.27997,"lon":5.40019,"is_reserved":false,"is_disabled":false,"rental_uris":{"android":"levelo://app?vid=aed24de0-8f36-4a86-bd76-6b01467f9a9b","ios":"levelo://app?vid=aed24de0-8f36-4a86-bd76-6b01467f9a9b"},"vehicle_type_id":"4","last_reported":1729703281,"current_range_meters":35600,"station_id":"ce4bho92rcd13ifvqh4g","pricing_plan_id":"cebpf4jnsgd1na2vs0mg"},{"bike_id":"383f6f35-c806-4eb3-8e46-999beedbe454","system_id":"levelo_inurba_marseille","lat":43.30232,"lon":5.40063,"is_reserved":false,"is_disabled":false,"rental_uris":{"android":"levelo://app?vid=383f6f35-c806-4eb3-8e46-999beedbe454","ios":"levelo://app?vid=383f6f35-c806-4eb3-8e46-999beedbe454"},"vehicle_type_id":"4","last_reported":1729703281,"current_range_meters":28400,"station_id":"ce4bgvh2rcd13ifvqcs0","pricing_plan_id":"cebpf4jnsgd1na2vs0mg"},{"bike_id":"5a73c92d-fea0-4340-907a-2b9093a3010a","system_id":"levelo_inurba_marseille","lat":43.31083,"lon":5.42431,"is_reserved":false,"is_disabled":false,"rental_uris":{"android":"levelo://app?vid=5a73c92d-fea0-4340-907a-2b9093a3010a","ios":"levelo://app?vid=5a73c92d-fea0-4340-907a-2b9093a3010a"},"vehicle_type_id":"4","last_reported":1729703281,"current_range_meters":4400,"station_id":"ce4bhp92rcd13ifvqhag","pricing_plan_id":"cebpf4jnsgd1na2vs0mg"},{"bike_id":"4ff8928f-f9c3-4616-86ad-fec1cc892029","system_id":"levelo_inurba_marseille","lat":43.26053,"lon":5.39396,"is_reserved":false,"is_disabled":false,"rental_uris":{"android":"levelo://app?vid=4ff8928f-f9c3-4616-86ad-fec1cc892029","ios":"levelo://app?vid=4ff8928f-f9c3-4616-86ad-fec1cc892029"},"vehicle_type_id":"4","last_reported":1729703281,"current_range_meters":39200,"station_id":"ce4bhh92rcd13ifvqfj0","pricing_plan_id":"cebpf4jnsgd1na2vs0mg"},{"bike_id":"b8783ec6-9eeb-45d2-8390-5a1b280be30e","system_id":"levelo_inurba_marseille","lat":43.29978,"lon":5.38494,"is_reserved":false,"is_disabled":false,"rental_uris":{"android":"levelo://app?vid=b8783ec6-9eeb-45d2-8390-5a1b280be30e","ios":"levelo://app?vid=b8783ec6-9eeb-45d2-8390-5a1b280be30e"},"vehicle_type_id":"4","last_reported":1729703281,"current_range_meters":28400,"station_id":"ce4bgj92rcd13ifvqbd0","pricing_plan_id":"cebpf4jnsgd1na2vs0mg"},{"bike_id":"bd62c98f-f8f7-489a-bf60-208dd0fec947","system_id":"levelo_inurba_marseille","lat":43.296224,"lon":5.371631,"is_reserved":false,"is_disabled":false,"rental_uris":{"android":"levelo://app?vid=bd62c98f-f8f7-489a-bf60-208dd0fec947","ios":"levelo://app?vid=bd62c98f-f8f7-489a-bf60-208dd0fec947"},"vehicle_type_id":"4","last_reported":1729703281,"current_range_meters":38800,"station_id":"ce4bgnh2rcd13ifvqc0g","pricing_plan_id":"cebpf4jnsgd1na2vs0mg"},{"bike_id":"d55cb384-a40c-47ef-8484-d482606c2483","system_id":"levelo_inurba_marseille","lat":43.2953,"lon":5.38545,"is_reserved":false,"is_disabled":false,"rental_uris":{"android":"levelo://app?vid=d55cb384-a40c-47ef-8484-d482606c2483","ios":"levelo://app?vid=d55cb384-a40c-47ef-8484-d482606c2483"},"vehicle_type_id":"4","last_reported":1729703281,"current_range_meters":8400,"station_id":"ce4bgih2rcd13ifvqba0","pricing_plan_id":"cebpf4jnsgd1na2vs0mg"},{"bike_id":"995dedfc-6623-4e07-92b7-58785cc57a73","system_id":"levelo_inurba_marseille","lat":43.28658,"lon":5.36368,"is_reserved":false,"is_disabled":false,"rental_uris":{"android":"levelo://app?vid=995dedfc-6623-4e07-92b7-58785cc57a73","ios":"levelo://app?vid=995dedfc-6623-4e07-92b7-58785cc57a73"},"vehicle_type_id":"4","last_reported":1729703281,"current_range_meters":38400,"station_id":"ce4bhah2rcd13ifvqej0","pricing_plan_id":"cebpf4jnsgd1na2vs0mg"},{"bike_id":"35728caa-8512-4564-b093-5f56e14c2af9","system_id":"levelo_inurba_marseille","lat":43.28854,"lon":5.39312,"is_reserved":false,"is_disabled":false,"rental_uris":{"android":"levelo://app?vid=35728caa-8512-4564-b093-5f56e14c2af9","ios":"levelo://app?vid=35728caa-8512-4564-b093-5f56e14c2af9"},"vehicle_type_id":"4","last_reported":1729703281,"current_range_meters":16400,"station_id":"ce4bh2p2rcd13ifvqdi0","pricing_plan_id":"cebpf4jnsgd1na2vs0mg"},{"bike_id":"df10868e-90ef-48b9-bd0c-8259eb55e871","system_id":"levelo_inurba_marseille","lat":43.27369,"lon":5.36261,"is_reserved":false,"is_disabled":false,"rental_uris":{"android":"levelo://app?vid=df10868e-90ef-48b9-bd0c-8259eb55e871","ios":"levelo://app?vid=df10868e-90ef-48b9-bd0c-8259eb55e871"},"vehicle_type_id":"4","last_reported":1729703281,"current_range_meters":3600,"station_id":"ce4bhbh2rcd13ifvqeo0","pricing_plan_id":"cebpf4jnsgd1na2vs0mg"},{"bike_id":"beb64c09-fce9-4e6b-b0da-29b19da09323","system_id":"levelo_inurba_marseille","lat":43.304406,"lon":5.397565,"is_reserved":false,"is_disabled":false,"rental_uris":{"android":"levelo://app?vid=beb64c09-fce9-4e6b-b0da-29b19da09323","ios":"levelo://app?vid=beb64c09-fce9-4e6b-b0da-29b19da09323"},"vehicle_type_id":"4","last_reported":1729703281,"current_range_meters":24000,"station_id":"ce4bh092rcd13ifvqd20","pricing_plan_id":"cebpf4jnsgd1na2vs0mg"},{"bike_id":"759553e7-c639-45d7-b593-ddc846243083","system_id":"levelo_inurba_marseille","lat":43.31713,"lon":5.43712,"is_reserved":false,"is_disabled":false,"rental_uris":{"android":"levelo://app?vid=759553e7-c639-45d7-b593-ddc846243083","ios":"levelo://app?vid=759553e7-c639-45d7-b593-ddc846243083"},"vehicle_type_id":"4","last_reported":1729703281,"current_range_meters":35600,"station_id":"ce4bhp92rcd13ifvqhcg","pricing_plan_id":"cebpf4jnsgd1na2vs0mg"},{"bike_id":"c5a45262-9c22-444f-90e0-18716c3f0935","system_id":"levelo_inurba_marseille","lat":43.316879,"lon":5.40486,"is_reserved":false,"is_disabled":false,"rental_uris":{"android":"levelo://app?vid=c5a45262-9c22-444f-90e0-18716c3f0935","ios":"levelo://app?vid=c5a45262-9c22-444f-90e0-18716c3f0935"},"vehicle_type_id":"4","last_reported":1729703281,"current_range_meters":17200,"station_id":"ce4bh012rcd13ifvqd00","pricing_plan_id":"cebpf4jnsgd1na2vs0mg"},{"bike_id":"6884ee13-1fab-4143-ad0d-62dc48f9bb6c","system_id":"levelo_inurba_marseille","lat":43.26198,"lon":5.37447,"is_reserved":false,"is_disabled":false,"rental_uris":{"android":"levelo://app?vid=6884ee13-1fab-4143-ad0d-62dc48f9bb6c","ios":"levelo://app?vid=6884ee13-1fab-4143-ad0d-62dc48f9bb6c"},"vehicle_type_id":"4","last_reported":1729703281,"current_range_meters":38800,"station_id":"ce4bhgp2rcd13ifvqfc0","pricing_plan_id":"cebpf4jnsgd1na2vs0mg"},{"bike_id":"2f3ff144-aa0c-47a0-9e25-802c732e748f","system_id":"levelo_inurba_marseille","lat":43.26194,"lon":5.374537,"is_reserved":false,"is_disabled":false,"rental_uris":{"android":"levelo://app?vid=2f3ff144-aa0c-47a0-9e25-802c732e748f","ios":"levelo://app?vid=2f3ff144-aa0c-47a0-9e25-802c732e748f"},"vehicle_type_id":"4","last_reported":1729703281,"current_range_meters":39200,"station_id":"ce4bhgp2rcd13ifvqfc0","pricing_plan_id":"cebpf4jnsgd1na2vs0mg"},{"bike_id":"906c46fe-a820-4cf4-813c-d5be74452dd2","system_id":"levelo_inurba_marseille","lat":43.29254,"lon":5.38446,"is_reserved":false,"is_disabled":false,"rental_uris":{"android":"levelo://app?vid=906c46fe-a820-4cf4-813c-d5be74452dd2","ios":"levelo://app?vid=906c46fe-a820-4cf4-813c-d5be74452dd2"},"vehicle_type_id":"4","last_reported":1729703281,"current_range_meters":2000,"station_id":"ce4bh692rcd13ifvqea0","pricing_plan_id":"cebpf4jnsgd1na2vs0mg"},{"bike_id":"3fdc93f6-7387-4ca1-af82-7b9830d6028d","system_id":"levelo_inurba_marseille","lat":43.31231,"lon":5.41613,"is_reserved":false,"is_disabled":false,"rental_uris":{"android":"levelo://app?vid=3fdc93f6-7387-4ca1-af82-7b9830d6028d","ios":"levelo://app?vid=3fdc93f6-7387-4ca1-af82-7b9830d6028d"},"vehicle_type_id":"4","last_reported":1729703281,"current_range_meters":6400,"station_id":"ce4bhp92rcd13ifvqhag","pricing_plan_id":"cebpf4jnsgd1na2vs0mg"},{"bike_id":"e0790a93-78ca-416e-b025-1169b1daffce","system_id":"levelo_inurba_marseille","lat":43.28688,"lon":5.37401,"is_reserved":false,"is_disabled":false,"rental_uris":{"android":"levelo://app?vid=e0790a93-78ca-416e-b025-1169b1daffce","ios":"levelo://app?vid=e0790a93-78ca-416e-b025-1169b1daffce"},"vehicle_type_id":"4","last_reported":1729703281,"current_range_meters":21600,"station_id":"ce4bh3p2rcd13ifvqdq0","pricing_plan_id":"cebpf4jnsgd1na2vs0mg"},{"bike_id":"8e850674-6a68-4a4a-8c55-92928370e194","system_id":"levelo_inurba_marseille","lat":43.29963,"lon":5.385028,"is_reserved":false,"is_disabled":false,"rental_uris":{"android":"levelo://app?vid=8e850674-6a68-4a4a-8c55-92928370e194","ios":"levelo://app?vid=8e850674-6a68-4a4a-8c55-92928370e194"},"vehicle_type_id":"4","last_reported":1729703281,"current_range_meters":38800,"station_id":"ce4bgj92rcd13ifvqbd0","pricing_plan_id":"cebpf4jnsgd1na2vs0mg"},{"bike_id":"e0616f23-ce3e-413f-902e-efb2b0f00a3a","system_id":"levelo_inurba_marseille","lat":43.337444,"lon":5.374475,"is_reserved":false,"is_disabled":false,"rental_uris":{"android":"levelo://app?vid=e0616f23-ce3e-413f-902e-efb2b0f00a3a","ios":"levelo://app?vid=e0616f23-ce3e-413f-902e-efb2b0f00a3a"},"vehicle_type_id":"4","last_reported":1729703281,"current_range_meters":16800,"station_id":"","pricing_plan_id":"cebpf4jnsgd1na2vs0mg"},{"bike_id":"0323a3dd-72fb-4f73-82c9-622daefa68a1","system_id":"levelo_inurba_marseille","lat":43.2834,"lon":5.38114,"is_reserved":false,"is_disabled":false,"rental_uris":{"android":"levelo://app?vid=0323a3dd-72fb-4f73-82c9-622daefa68a1","ios":"levelo://app?vid=0323a3dd-72fb-4f73-82c9-622daefa68a1"},"vehicle_type_id":"4","last_reported":1729703281,"current_range_meters":13600,"station_id":"ce4bh412rcd13ifvqdr0","pricing_plan_id":"cebpf4jnsgd1na2vs0mg"},{"bike_id":"b3e649ef-c579-4d3a-b7a3-c7ca5fdd6a06","system_id":"levelo_inurba_marseille","lat":43.286742,"lon":5.363566,"is_reserved":false,"is_disabled":false,"rental_uris":{"android":"levelo://app?vid=b3e649ef-c579-4d3a-b7a3-c7ca5fdd6a06","ios":"levelo://app?vid=b3e649ef-c579-4d3a-b7a3-c7ca5fdd6a06"},"vehicle_type_id":"4","last_reported":1729703281,"current_range_meters":12800,"station_id":"ce4bhah2rcd13ifvqej0","pricing_plan_id":"cebpf4jnsgd1na2vs0mg"},{"bike_id":"a0374b60-68e0-4f7c-b821-2cbdb02f123f","system_id":"levelo_inurba_marseille","lat":43.26063,"lon":5.39394,"is_reserved":false,"is_disabled":false,"rental_uris":{"android":"levelo://app?vid=a0374b60-68e0-4f7c-b821-2cbdb02f123f","ios":"levelo://app?vid=a0374b60-68e0-4f7c-b821-2cbdb02f123f"},"vehicle_type_id":"4","last_reported":1729703281,"current_range_meters":40000,"station_id":"ce4bhh92rcd13ifvqfj0","pricing_plan_id":"cebpf4jnsgd1na2vs0mg"},{"bike_id":"c6e10789-aafa-4219-9edf-cb515743c6a0","system_id":"levelo_inurba_marseille","lat":43.2971,"lon":5.36594,"is_reserved":false,"is_disabled":false,"rental_uris":{"android":"levelo://app?vid=c6e10789-aafa-4219-9edf-cb515743c6a0","ios":"levelo://app?vid=c6e10789-aafa-4219-9edf-cb515743c6a0"},"vehicle_type_id":"4","last_reported":1729703281,"current_range_meters":19600,"station_id":"ce4bgn12rcd13ifvqbt0","pricing_plan_id":"cebpf4jnsgd1na2vs0mg"},{"bike_id":"bf5e172d-dd33-4b92-84a6-a141b7f6127e","system_id":"levelo_inurba_marseille","lat":43.29792,"lon":5.38094,"is_reserved":false,"is_disabled":false,"rental_uris":{"android":"levelo://app?vid=bf5e172d-dd33-4b92-84a6-a141b7f6127e","ios":"levelo://app?vid=bf5e172d-dd33-4b92-84a6-a141b7f6127e"},"vehicle_type_id":"4","last_reported":1729703281,"current_range_meters":28000,"station_id":"ce4bgip2rcd13ifvqbb0","pricing_plan_id":"cebpf4jnsgd1na2vs0mg"},{"bike_id":"4bad2c15-3169-41b2-99d8-4b08339b9d59","system_id":"levelo_inurba_marseille","lat":43.29263,"lon":5.38456,"is_reserved":false,"is_disabled":false,"rental_uris":{"android":"levelo://app?vid=4bad2c15-3169-41b2-99d8-4b08339b9d59","ios":"levelo://app?vid=4bad2c15-3169-41b2-99d8-4b08339b9d59"},"vehicle_type_id":"4","last_reported":1729703281,"current_range_meters":24400,"station_id":"ce4bh692rcd13ifvqea0","pricing_plan_id":"cebpf4jnsgd1na2vs0mg"},{"bike_id":"d92c4ee6-1f1b-4213-a8d7-e1229e9b1b68","system_id":"levelo_inurba_marseille","lat":43.29858,"lon":5.44149,"is_reserved":false,"is_disabled":false,"rental_uris":{"android":"levelo://app?vid=d92c4ee6-1f1b-4213-a8d7-e1229e9b1b68","ios":"levelo://app?vid=d92c4ee6-1f1b-4213-a8d7-e1229e9b1b68"},"vehicle_type_id":"4","last_reported":1729703281,"current_range_meters":4400,"station_id":"","pricing_plan_id":"cebpf4jnsgd1na2vs0mg"},{"bike_id":"be2103dd-8646-4732-a978-ecdaea234417","system_id":"levelo_inurba_marseille","lat":43.27906,"lon":5.38012,"is_reserved":false,"is_disabled":false,"rental_uris":{"android":"levelo://app?vid=be2103dd-8646-4732-a978-ecdaea234417","ios":"levelo://app?vid=be2103dd-8646-4732-a978-ecdaea234417"},"vehicle_type_id":"4","last_reported":1729703281,"current_range_meters":16800,"station_id":"ce4bhf92rcd13ifvqf50","pricing_plan_id":"cebpf4jnsgd1na2vs0mg"},{"bike_id":"7f171e1a-0921-40ad-b60b-7af9fd268e7f","system_id":"levelo_inurba_marseille","lat":43.26486,"lon":5.39553,"is_reserved":false,"is_disabled":false,"rental_uris":{"android":"levelo://app?vid=7f171e1a-0921-40ad-b60b-7af9fd268e7f","ios":"levelo://app?vid=7f171e1a-0921-40ad-b60b-7af9fd268e7f"},"vehicle_type_id":"4","last_reported":1729703281,"current_range_meters":32400,"station_id":"ce4bhi12rcd13ifvqfq0","pricing_plan_id":"cebpf4jnsgd1na2vs0mg"},{"bike_id":"2f41e296-ad4a-4abe-a354-9be498b1c4f1","system_id":"levelo_inurba_marseille","lat":43.29301,"lon":5.37176,"is_reserved":false,"is_disabled":false,"rental_uris":{"android":"levelo://app?vid=2f41e296-ad4a-4abe-a354-9be498b1c4f1","ios":"levelo://app?vid=2f41e296-ad4a-4abe-a354-9be498b1c4f1"},"vehicle_type_id":"4","last_reported":1729703281,"current_range_meters":38800,"station_id":"ce4bgh92rcd13ifvqb40","pricing_plan_id":"cebpf4jnsgd1na2vs0mg"},{"bike_id":"17378021-bf11-4d19-bb8d-855ef26ae5e6","system_id":"levelo_inurba_marseille","lat":43.29096,"lon":5.37226,"is_reserved":false,"is_disabled":false,"rental_uris":{"android":"levelo://app?vid=17378021-bf11-4d19-bb8d-855ef26ae5e6","ios":"levelo://app?vid=17378021-bf11-4d19-bb8d-855ef26ae5e6"},"vehicle_type_id":"4","last_reported":1729703281,"current_range_meters":8000,"station_id":"ce4bh5p2rcd13ifvqe4g","pricing_plan_id":"cebpf4jnsgd1na2vs0mg"},{"bike_id":"6a79ecb5-8956-4da9-ba7a-69326f6fa15a","system_id":"levelo_inurba_marseille","lat":43.26823,"lon":5.41119,"is_reserved":false,"is_disabled":false,"rental_uris":{"android":"levelo://app?vid=6a79ecb5-8956-4da9-ba7a-69326f6fa15a","ios":"levelo://app?vid=6a79ecb5-8956-4da9-ba7a-69326f6fa15a"},"vehicle_type_id":"4","last_reported":1729703281,"current_range_meters":20000,"station_id":"","pricing_plan_id":"cebpf4jnsgd1na2vs0mg"},{"bike_id":"4603820e-394e-446b-b5fb-b90ba2b2b49a","system_id":"levelo_inurba_marseille","lat":43.28465,"lon":5.35889,"is_reserved":false,"is_disabled":false,"rental_uris":{"android":"levelo://app?vid=4603820e-394e-446b-b5fb-b90ba2b2b49a","ios":"levelo://app?vid=4603820e-394e-446b-b5fb-b90ba2b2b49a"},"vehicle_type_id":"4","last_reported":1729703281,"current_range_meters":29600,"station_id":"ce4bhah2rcd13ifvqei0","pricing_plan_id":"cebpf4jnsgd1na2vs0mg"},{"bike_id":"69d065f5-183a-4a22-ae0f-d2b034d38f0d","system_id":"levelo_inurba_marseille","lat":43.29786,"lon":5.39353,"is_reserved":false,"is_disabled":false,"rental_uris":{"android":"levelo://app?vid=69d065f5-183a-4a22-ae0f-d2b034d38f0d","ios":"levelo://app?vid=69d065f5-183a-4a22-ae0f-d2b034d38f0d"},"vehicle_type_id":"4","last_reported":1729703281,"current_range_meters":37600,"station_id":"chh1huq6cuj3fo74tm60","pricing_plan_id":"cebpf4jnsgd1na2vs0mg"},{"bike_id":"af0f37bc-5ec1-4653-b75f-537c60dc8108","system_id":"levelo_inurba_marseille","lat":43.297549,"lon":5.387579,"is_reserved":false,"is_disabled":false,"rental_uris":{"android":"levelo://app?vid=af0f37bc-5ec1-4653-b75f-537c60dc8108","ios":"levelo://app?vid=af0f37bc-5ec1-4653-b75f-537c60dc8108"},"vehicle_type_id":"4","last_reported":1729703281,"current_range_meters":32400,"station_id":"chh1huq6cuj3fo74tm60","pricing_plan_id":"cebpf4jnsgd1na2vs0mg"},{"bike_id":"a6abc163-ead0-4db5-ad14-7a81ba1fc062","system_id":"levelo_inurba_marseille","lat":43.2958,"lon":5.36744,"is_reserved":false,"is_disabled":false,"rental_uris":{"android":"levelo://app?vid=a6abc163-ead0-4db5-ad14-7a81ba1fc062","ios":"levelo://app?vid=a6abc163-ead0-4db5-ad14-7a81ba1fc062"},"vehicle_type_id":"4","last_reported":1729703281,"current_range_meters":38800,"station_id":"ce4bgph2rcd13ifvqc2g","pricing_plan_id":"cebpf4jnsgd1na2vs0mg"},{"bike_id":"27173d34-2717-497f-ac89-d9e4ce5ef43d","system_id":"levelo_inurba_marseille","lat":43.23181,"lon":5.39986,"is_reserved":false,"is_disabled":false,"rental_uris":{"android":"levelo://app?vid=27173d34-2717-497f-ac89-d9e4ce5ef43d","ios":"levelo://app?vid=27173d34-2717-497f-ac89-d9e4ce5ef43d"},"vehicle_type_id":"4","last_reported":1729703281,"current_range_meters":4400,"station_id":"ce4bhn12rcd13ifvqgqg","pricing_plan_id":"cebpf4jnsgd1na2vs0mg"},{"bike_id":"6bb6c8e5-d699-4107-9730-a9a4f5f0b0ab","system_id":"levelo_inurba_marseille","lat":43.28423,"lon":5.34989,"is_reserved":false,"is_disabled":false,"rental_uris":{"android":"levelo://app?vid=6bb6c8e5-d699-4107-9730-a9a4f5f0b0ab","ios":"levelo://app?vid=6bb6c8e5-d699-4107-9730-a9a4f5f0b0ab"},"vehicle_type_id":"4","last_reported":1729703281,"current_range_meters":7200,"station_id":"ce4bhbh2rcd13ifvqepg","pricing_plan_id":"cebpf4jnsgd1na2vs0mg"},{"bike_id":"c3938d86-d5cd-49db-9f5b-297234911c08","system_id":"levelo_inurba_marseille","lat":43.32109,"lon":5.36788,"is_reserved":false,"is_disabled":false,"rental_uris":{"android":"levelo://app?vid=c3938d86-d5cd-49db-9f5b-297234911c08","ios":"levelo://app?vid=c3938d86-d5cd-49db-9f5b-297234911c08"},"vehicle_type_id":"4","last_reported":1729703281,"current_range_meters":36800,"station_id":"ce4bhrh2rcd13ifvqhug","pricing_plan_id":"cebpf4jnsgd1na2vs0mg"},{"bike_id":"d0e03f14-e8ae-475d-8881-e2f7d3870f8c","system_id":"levelo_inurba_marseille","lat":43.2919,"lon":5.35812,"is_reserved":false,"is_disabled":false,"rental_uris":{"android":"levelo://app?vid=d0e03f14-e8ae-475d-8881-e2f7d3870f8c","ios":"levelo://app?vid=d0e03f14-e8ae-475d-8881-e2f7d3870f8c"},"vehicle_type_id":"4","last_reported":1729703281,"current_range_meters":28800,"station_id":"ce4bhb12rcd13ifvqel0","pricing_plan_id":"cebpf4jnsgd1na2vs0mg"},{"bike_id":"c1e3798e-9455-4a8e-a5c5-4ee30045f872","system_id":"levelo_inurba_marseille","lat":43.31712,"lon":5.37742,"is_reserved":false,"is_disabled":false,"rental_uris":{"android":"levelo://app?vid=c1e3798e-9455-4a8e-a5c5-4ee30045f872","ios":"levelo://app?vid=c1e3798e-9455-4a8e-a5c5-4ee30045f872"},"vehicle_type_id":"4","last_reported":1729703281,"current_range_meters":30400,"station_id":"ce4bgth2rcd13ifvqch0","pricing_plan_id":"cebpf4jnsgd1na2vs0mg"},{"bike_id":"48ad481e-c093-41fd-a2e5-b218a0f28d8b","system_id":"levelo_inurba_marseille","lat":43.26064,"lon":5.39398,"is_reserved":false,"is_disabled":false,"rental_uris":{"android":"levelo://app?vid=48ad481e-c093-41fd-a2e5-b218a0f28d8b","ios":"levelo://app?vid=48ad481e-c093-41fd-a2e5-b218a0f28d8b"},"vehicle_type_id":"4","last_reported":1729703281,"current_range_meters":36000,"station_id":"ce4bhh92rcd13ifvqfj0","pricing_plan_id":"cebpf4jnsgd1na2vs0mg"},{"bike_id":"660040c2-9ec8-4464-92d2-0255c3a2284f","system_id":"levelo_inurba_marseille","lat":43.23191,"lon":5.35563,"is_reserved":false,"is_disabled":false,"rental_uris":{"android":"levelo://app?vid=660040c2-9ec8-4464-92d2-0255c3a2284f","ios":"levelo://app?vid=660040c2-9ec8-4464-92d2-0255c3a2284f"},"vehicle_type_id":"4","last_reported":1729703281,"current_range_meters":23200,"station_id":"ce4bhu92rcd13ifvqi70","pricing_plan_id":"cebpf4jnsgd1na2vs0mg"},{"bike_id":"b3738ebb-3c85-4de0-a116-494027148dce","system_id":"levelo_inurba_marseille","lat":43.29441,"lon":5.39756,"is_reserved":false,"is_disabled":false,"rental_uris":{"android":"levelo://app?vid=b3738ebb-3c85-4de0-a116-494027148dce","ios":"levelo://app?vid=b3738ebb-3c85-4de0-a116-494027148dce"},"vehicle_type_id":"4","last_reported":1729703281,"current_range_meters":17600,"station_id":"ce4bh3h2rcd13ifvqdo0","pricing_plan_id":"cebpf4jnsgd1na2vs0mg"},{"bike_id":"c7fc1a05-2059-4eec-bfe9-74cfdd637940","system_id":"levelo_inurba_marseille","lat":43.29006,"lon":5.35607,"is_reserved":false,"is_disabled":false,"rental_uris":{"android":"levelo://app?vid=c7fc1a05-2059-4eec-bfe9-74cfdd637940","ios":"levelo://app?vid=c7fc1a05-2059-4eec-bfe9-74cfdd637940"},"vehicle_type_id":"4","last_reported":1729703281,"current_range_meters":37600,"station_id":"ce4bhb92rcd13ifvqen0","pricing_plan_id":"cebpf4jnsgd1na2vs0mg"},{"bike_id":"c0197c39-e1a6-4041-8ea9-f5164a5b47d6","system_id":"levelo_inurba_marseille","lat":43.23185,"lon":5.39989,"is_reserved":false,"is_disabled":false,"rental_uris":{"android":"levelo://app?vid=c0197c39-e1a6-4041-8ea9-f5164a5b47d6","ios":"levelo://app?vid=c0197c39-e1a6-4041-8ea9-f5164a5b47d6"},"vehicle_type_id":"4","last_reported":1729703281,"current_range_meters":36000,"station_id":"ce4bhn12rcd13ifvqgqg","pricing_plan_id":"cebpf4jnsgd1na2vs0mg"},{"bike_id":"2b4cdaab-9291-4fda-b86b-915d75522067","system_id":"levelo_inurba_marseille","lat":43.29035,"lon":5.38664,"is_reserved":false,"is_disabled":false,"rental_uris":{"android":"levelo://app?vid=2b4cdaab-9291-4fda-b86b-915d75522067","ios":"levelo://app?vid=2b4cdaab-9291-4fda-b86b-915d75522067"},"vehicle_type_id":"4","last_reported":1729703281,"current_range_meters":26000,"station_id":"ce4bh4p2rcd13ifvqe0g","pricing_plan_id":"cebpf4jnsgd1na2vs0mg"},{"bike_id":"b5ea669b-1e6c-457e-9390-82fc51ed9656","system_id":"levelo_inurba_marseille","lat":43.28104,"lon":5.37846,"is_reserved":false,"is_disabled":false,"rental_uris":{"android":"levelo://app?vid=b5ea669b-1e6c-457e-9390-82fc51ed9656","ios":"levelo://app?vid=b5ea669b-1e6c-457e-9390-82fc51ed9656"},"vehicle_type_id":"4","last_reported":1729703281,"current_range_meters":39200,"station_id":"ce4bha12rcd13ifvqee0","pricing_plan_id":"cebpf4jnsgd1na2vs0mg"},{"bike_id":"517ecd69-925a-40c6-a887-d6451e845ef8","system_id":"levelo_inurba_marseille","lat":43.28152,"lon":5.42634,"is_reserved":false,"is_disabled":false,"rental_uris":{"android":"levelo://app?vid=517ecd69-925a-40c6-a887-d6451e845ef8","ios":"levelo://app?vid=517ecd69-925a-40c6-a887-d6451e845ef8"},"vehicle_type_id":"4","last_reported":1729703281,"current_range_meters":37600,"station_id":"ce4bhnh2rcd13ifvqgug","pricing_plan_id":"cebpf4jnsgd1na2vs0mg"},{"bike_id":"92cde19f-9fb8-4a8f-a043-f65754f16144","system_id":"levelo_inurba_marseille","lat":43.23961,"lon":5.36628,"is_reserved":false,"is_disabled":false,"rental_uris":{"android":"levelo://app?vid=92cde19f-9fb8-4a8f-a043-f65754f16144","ios":"levelo://app?vid=92cde19f-9fb8-4a8f-a043-f65754f16144"},"vehicle_type_id":"4","last_reported":1729703281,"current_range_meters":10000,"station_id":"ce4bhi12rcd13ifvqfp0","pricing_plan_id":"cebpf4jnsgd1na2vs0mg"},{"bike_id":"840ffb30-c4ad-4784-a157-ab5671a438b3","system_id":"levelo_inurba_marseille","lat":43.29418,"lon":5.38632,"is_reserved":false,"is_disabled":false,"rental_uris":{"android":"levelo://app?vid=840ffb30-c4ad-4784-a157-ab5671a438b3","ios":"levelo://app?vid=840ffb30-c4ad-4784-a157-ab5671a438b3"},"vehicle_type_id":"4","last_reported":1729703281,"current_range_meters":22800,"station_id":"ce4bh2h2rcd13ifvqdh0","pricing_plan_id":"cebpf4jnsgd1na2vs0mg"},{"bike_id":"9aa499f5-14bc-4459-b02f-e8bd8e6e746e","system_id":"levelo_inurba_marseille","lat":43.26676,"lon":5.38271,"is_reserved":false,"is_disabled":false,"rental_uris":{"android":"levelo://app?vid=9aa499f5-14bc-4459-b02f-e8bd8e6e746e","ios":"levelo://app?vid=9aa499f5-14bc-4459-b02f-e8bd8e6e746e"},"vehicle_type_id":"4","last_reported":1729703281,"current_range_meters":12800,"station_id":"ce4bhg92rcd13ifvqf90","pricing_plan_id":"cebpf4jnsgd1na2vs0mg"},{"bike_id":"52712485-335e-496f-8993-243ef7c55ddf","system_id":"levelo_inurba_marseille","lat":43.28034,"lon":5.36954,"is_reserved":false,"is_disabled":false,"rental_uris":{"android":"levelo://app?vid=52712485-335e-496f-8993-243ef7c55ddf","ios":"levelo://app?vid=52712485-335e-496f-8993-243ef7c55ddf"},"vehicle_type_id":"4","last_reported":1729703281,"current_range_meters":39200,"station_id":"ce4bha12rcd13ifvqef0","pricing_plan_id":"cebpf4jnsgd1na2vs0mg"},{"bike_id":"bda451b4-f42b-45ed-b6a9-ea06a855cbbc","system_id":"levelo_inurba_marseille","lat":43.27905,"lon":5.38007,"is_reserved":false,"is_disabled":false,"rental_uris":{"android":"levelo://app?vid=bda451b4-f42b-45ed-b6a9-ea06a855cbbc","ios":"levelo://app?vid=bda451b4-f42b-45ed-b6a9-ea06a855cbbc"},"vehicle_type_id":"4","last_reported":1729703281,"current_range_meters":38000,"station_id":"ce4bhf92rcd13ifvqf50","pricing_plan_id":"cebpf4jnsgd1na2vs0mg"},{"bike_id":"c2632a56-eb49-4576-89f2-24ffcb35cebd","system_id":"levelo_inurba_marseille","lat":43.26993,"lon":5.36568,"is_reserved":false,"is_disabled":false,"rental_uris":{"android":"levelo://app?vid=c2632a56-eb49-4576-89f2-24ffcb35cebd","ios":"levelo://app?vid=c2632a56-eb49-4576-89f2-24ffcb35cebd"},"vehicle_type_id":"4","last_reported":1729703281,"current_range_meters":23200,"station_id":"","pricing_plan_id":"cebpf4jnsgd1na2vs0mg"},{"bike_id":"0ea92025-a907-4824-a0b5-88a64e68360b","system_id":"levelo_inurba_marseille","lat":43.287048,"lon":5.399949,"is_reserved":false,"is_disabled":false,"rental_uris":{"android":"levelo://app?vid=0ea92025-a907-4824-a0b5-88a64e68360b","ios":"levelo://app?vid=0ea92025-a907-4824-a0b5-88a64e68360b"},"vehicle_type_id":"4","last_reported":1729703281,"current_range_meters":34000,"station_id":"ce4bho92rcd13ifvqh3g","pricing_plan_id":"cebpf4jnsgd1na2vs0mg"},{"bike_id":"7509b0a8-42e9-48a1-ba20-5c987b5742c5","system_id":"levelo_inurba_marseille","lat":43.29001,"lon":5.35615,"is_reserved":false,"is_disabled":false,"rental_uris":{"android":"levelo://app?vid=7509b0a8-42e9-48a1-ba20-5c987b5742c5","ios":"levelo://app?vid=7509b0a8-42e9-48a1-ba20-5c987b5742c5"},"vehicle_type_id":"4","last_reported":1729703281,"current_range_meters":18800,"station_id":"ce4bhb92rcd13ifvqen0","pricing_plan_id":"cebpf4jnsgd1na2vs0mg"},{"bike_id":"671a4a49-7e98-4f68-b55b-fadc80d53170","system_id":"levelo_inurba_marseille","lat":43.30093,"lon":5.39078,"is_reserved":false,"is_disabled":false,"rental_uris":{"android":"levelo://app?vid=671a4a49-7e98-4f68-b55b-fadc80d53170","ios":"levelo://app?vid=671a4a49-7e98-4f68-b55b-fadc80d53170"},"vehicle_type_id":"4","last_reported":1729703281,"current_range_meters":20400,"station_id":"ce4bh192rcd13ifvqdb0","pricing_plan_id":"cebpf4jnsgd1na2vs0mg"},{"bike_id":"eab42ee7-18a0-41bc-9a99-4a22fb3c4079","system_id":"levelo_inurba_marseille","lat":43.27948,"lon":5.41052,"is_reserved":false,"is_disabled":false,"rental_uris":{"android":"levelo://app?vid=eab42ee7-18a0-41bc-9a99-4a22fb3c4079","ios":"levelo://app?vid=eab42ee7-18a0-41bc-9a99-4a22fb3c4079"},"vehicle_type_id":"4","last_reported":1729703281,"current_range_meters":24400,"station_id":"ce4bhnp2rcd13ifvqh0g","pricing_plan_id":"cebpf4jnsgd1na2vs0mg"},{"bike_id":"0f9f5b9e-bc68-4e91-bb26-40234a74565f","system_id":"levelo_inurba_marseille","lat":43.29257,"lon":5.40906,"is_reserved":false,"is_disabled":false,"rental_uris":{"android":"levelo://app?vid=0f9f5b9e-bc68-4e91-bb26-40234a74565f","ios":"levelo://app?vid=0f9f5b9e-bc68-4e91-bb26-40234a74565f"},"vehicle_type_id":"4","last_reported":1729703281,"current_range_meters":38000,"station_id":"ce4bh192rcd13ifvqdc0","pricing_plan_id":"cebpf4jnsgd1na2vs0mg"},{"bike_id":"655e2135-934a-446f-a525-e22ee15481a2","system_id":"levelo_inurba_marseille","lat":43.28996,"lon":5.35613,"is_reserved":false,"is_disabled":false,"rental_uris":{"android":"levelo://app?vid=655e2135-934a-446f-a525-e22ee15481a2","ios":"levelo://app?vid=655e2135-934a-446f-a525-e22ee15481a2"},"vehicle_type_id":"4","last_reported":1729703281,"current_range_meters":36400,"station_id":"ce4bhb92rcd13ifvqen0","pricing_plan_id":"cebpf4jnsgd1na2vs0mg"},{"bike_id":"ca2e415f-5f6c-4b28-a3ac-92b008906278","system_id":"levelo_inurba_marseille","lat":43.28707,"lon":5.37379,"is_reserved":false,"is_disabled":false,"rental_uris":{"android":"levelo://app?vid=ca2e415f-5f6c-4b28-a3ac-92b008906278","ios":"levelo://app?vid=ca2e415f-5f6c-4b28-a3ac-92b008906278"},"vehicle_type_id":"4","last_reported":1729703281,"current_range_meters":32800,"station_id":"ce4bh3p2rcd13ifvqdq0","pricing_plan_id":"cebpf4jnsgd1na2vs0mg"},{"bike_id":"93cec642-0302-4252-979d-c0f86fb7c555","system_id":"levelo_inurba_marseille","lat":43.30783,"lon":5.37637,"is_reserved":false,"is_disabled":false,"rental_uris":{"android":"levelo://app?vid=93cec642-0302-4252-979d-c0f86fb7c555","ios":"levelo://app?vid=93cec642-0302-4252-979d-c0f86fb7c555"},"vehicle_type_id":"4","last_reported":1729703281,"current_range_meters":32000,"station_id":"ce4bgv92rcd13ifvqcq0","pricing_plan_id":"cebpf4jnsgd1na2vs0mg"},{"bike_id":"fe886959-37a4-401d-9642-1ba08eb7e8d4","system_id":"levelo_inurba_marseille","lat":43.292675,"lon":5.384377,"is_reserved":false,"is_disabled":false,"rental_uris":{"android":"levelo://app?vid=fe886959-37a4-401d-9642-1ba08eb7e8d4","ios":"levelo://app?vid=fe886959-37a4-401d-9642-1ba08eb7e8d4"},"vehicle_type_id":"4","last_reported":1729703281,"current_range_meters":12400,"station_id":"ce4bh692rcd13ifvqea0","pricing_plan_id":"cebpf4jnsgd1na2vs0mg"},{"bike_id":"a25f5171-c873-4e39-90e7-0a7e6daa2754","system_id":"levelo_inurba_marseille","lat":43.25491,"lon":5.37649,"is_reserved":false,"is_disabled":false,"rental_uris":{"android":"levelo://app?vid=a25f5171-c873-4e39-90e7-0a7e6daa2754","ios":"levelo://app?vid=a25f5171-c873-4e39-90e7-0a7e6daa2754"},"vehicle_type_id":"4","last_reported":1729703281,"current_range_meters":37600,"station_id":"ce4bhh12rcd13ifvqff0","pricing_plan_id":"cebpf4jnsgd1na2vs0mg"},{"bike_id":"555a8537-4eec-433b-a978-e7cdf8506123","system_id":"levelo_inurba_marseille","lat":43.28158,"lon":5.42638,"is_reserved":false,"is_disabled":false,"rental_uris":{"android":"levelo://app?vid=555a8537-4eec-433b-a978-e7cdf8506123","ios":"levelo://app?vid=555a8537-4eec-433b-a978-e7cdf8506123"},"vehicle_type_id":"4","last_reported":1729703281,"current_range_meters":37600,"station_id":"ce4bhnh2rcd13ifvqgug","pricing_plan_id":"cebpf4jnsgd1na2vs0mg"},{"bike_id":"1b0418e3-7a61-41b2-b05e-33ceba1af1f2","system_id":"levelo_inurba_marseille","lat":43.26191,"lon":5.37454,"is_reserved":false,"is_disabled":false,"rental_uris":{"android":"levelo://app?vid=1b0418e3-7a61-41b2-b05e-33ceba1af1f2","ios":"levelo://app?vid=1b0418e3-7a61-41b2-b05e-33ceba1af1f2"},"vehicle_type_id":"4","last_reported":1729703281,"current_range_meters":38800,"station_id":"ce4bhgp2rcd13ifvqfc0","pricing_plan_id":"cebpf4jnsgd1na2vs0mg"},{"bike_id":"97b12993-3daf-46aa-a448-2f73604b41c9","system_id":"levelo_inurba_marseille","lat":43.27175,"lon":5.40996,"is_reserved":false,"is_disabled":false,"rental_uris":{"android":"levelo://app?vid=97b12993-3daf-46aa-a448-2f73604b41c9","ios":"levelo://app?vid=97b12993-3daf-46aa-a448-2f73604b41c9"},"vehicle_type_id":"4","last_reported":1729703281,"current_range_meters":20400,"station_id":"ce4bhl12rcd13ifvqgf0","pricing_plan_id":"cebpf4jnsgd1na2vs0mg"},{"bike_id":"d7cf2a06-7347-4073-8453-f6de402e382f","system_id":"levelo_inurba_marseille","lat":43.29963,"lon":5.385,"is_reserved":false,"is_disabled":false,"rental_uris":{"android":"levelo://app?vid=d7cf2a06-7347-4073-8453-f6de402e382f","ios":"levelo://app?vid=d7cf2a06-7347-4073-8453-f6de402e382f"},"vehicle_type_id":"4","last_reported":1729703281,"current_range_meters":10000,"station_id":"ce4bgj92rcd13ifvqbd0","pricing_plan_id":"cebpf4jnsgd1na2vs0mg"},{"bike_id":"d75c65d4-c40e-4f16-9d2a-d4f457ba650d","system_id":"levelo_inurba_marseille","lat":43.28352,"lon":5.38115,"is_reserved":false,"is_disabled":false,"rental_uris":{"android":"levelo://app?vid=d75c65d4-c40e-4f16-9d2a-d4f457ba650d","ios":"levelo://app?vid=d75c65d4-c40e-4f16-9d2a-d4f457ba650d"},"vehicle_type_id":"4","last_reported":1729703281,"current_range_meters":22800,"station_id":"ce4bh412rcd13ifvqdr0","pricing_plan_id":"cebpf4jnsgd1na2vs0mg"},{"bike_id":"695a170b-da5a-429c-8a9b-8cde75cf0017","system_id":"levelo_inurba_marseille","lat":43.24088,"lon":5.37745,"is_reserved":false,"is_disabled":false,"rental_uris":{"android":"levelo://app?vid=695a170b-da5a-429c-8a9b-8cde75cf0017","ios":"levelo://app?vid=695a170b-da5a-429c-8a9b-8cde75cf0017"},"vehicle_type_id":"4","last_reported":1729703281,"current_range_meters":19200,"station_id":"ce4bhnp2rcd13ifvqgvg","pricing_plan_id":"cebpf4jnsgd1na2vs0mg"},{"bike_id":"b2fa8e38-5a30-4180-8257-6f297db1d331","system_id":"levelo_inurba_marseille","lat":43.26067,"lon":5.39394,"is_reserved":false,"is_disabled":false,"rental_uris":{"android":"levelo://app?vid=b2fa8e38-5a30-4180-8257-6f297db1d331","ios":"levelo://app?vid=b2fa8e38-5a30-4180-8257-6f297db1d331"},"vehicle_type_id":"4","last_reported":1729703281,"current_range_meters":30000,"station_id":"ce4bhh92rcd13ifvqfj0","pricing_plan_id":"cebpf4jnsgd1na2vs0mg"},{"bike_id":"e3372e20-182c-4631-af6e-ee38e62f6dd0","system_id":"levelo_inurba_marseille","lat":43.30419,"lon":5.412855,"is_reserved":false,"is_disabled":false,"rental_uris":{"android":"levelo://app?vid=e3372e20-182c-4631-af6e-ee38e62f6dd0","ios":"levelo://app?vid=e3372e20-182c-4631-af6e-ee38e62f6dd0"},"vehicle_type_id":"4","last_reported":1729703281,"current_range_meters":29600,"station_id":"ce4bhop2rcd13ifvqh8g","pricing_plan_id":"cebpf4jnsgd1na2vs0mg"},{"bike_id":"92d0da48-dd5a-4d0b-b42f-616ad5fa8b44","system_id":"levelo_inurba_marseille","lat":43.29305,"lon":5.3719,"is_reserved":false,"is_disabled":false,"rental_uris":{"android":"levelo://app?vid=92d0da48-dd5a-4d0b-b42f-616ad5fa8b44","ios":"levelo://app?vid=92d0da48-dd5a-4d0b-b42f-616ad5fa8b44"},"vehicle_type_id":"4","last_reported":1729703281,"current_range_meters":28800,"station_id":"ce4bgh92rcd13ifvqb40","pricing_plan_id":"cebpf4jnsgd1na2vs0mg"},{"bike_id":"2ae198de-51d1-4cd4-9689-91973986fe72","system_id":"levelo_inurba_marseille","lat":43.2678,"lon":5.39422,"is_reserved":false,"is_disabled":false,"rental_uris":{"android":"levelo://app?vid=2ae198de-51d1-4cd4-9689-91973986fe72","ios":"levelo://app?vid=2ae198de-51d1-4cd4-9689-91973986fe72"},"vehicle_type_id":"4","last_reported":1729703281,"current_range_meters":20400,"station_id":"ce4bhh12rcd13ifvqfg0","pricing_plan_id":"cebpf4jnsgd1na2vs0mg"},{"bike_id":"c2a8d189-62dc-4eb5-97fa-769029c21170","system_id":"levelo_inurba_marseille","lat":43.29026,"lon":5.38631,"is_reserved":false,"is_disabled":false,"rental_uris":{"android":"levelo://app?vid=c2a8d189-62dc-4eb5-97fa-769029c21170","ios":"levelo://app?vid=c2a8d189-62dc-4eb5-97fa-769029c21170"},"vehicle_type_id":"4","last_reported":1729703281,"current_range_meters":28400,"station_id":"ce4bh4p2rcd13ifvqe0g","pricing_plan_id":"cebpf4jnsgd1na2vs0mg"},{"bike_id":"51b4d1a0-029f-4535-b8b6-41d9e318d73e","system_id":"levelo_inurba_marseille","lat":43.29765,"lon":5.37686,"is_reserved":false,"is_disabled":false,"rental_uris":{"android":"levelo://app?vid=51b4d1a0-029f-4535-b8b6-41d9e318d73e","ios":"levelo://app?vid=51b4d1a0-029f-4535-b8b6-41d9e318d73e"},"vehicle_type_id":"4","last_reported":1729703281,"current_range_meters":23200,"station_id":"","pricing_plan_id":"cebpf4jnsgd1na2vs0mg"},{"bike_id":"1fcdf682-75e8-4914-a7ae-1d3d7dcf875a","system_id":"levelo_inurba_marseille","lat":43.29415,"lon":5.38627,"is_reserved":false,"is_disabled":false,"rental_uris":{"android":"levelo://app?vid=1fcdf682-75e8-4914-a7ae-1d3d7dcf875a","ios":"levelo://app?vid=1fcdf682-75e8-4914-a7ae-1d3d7dcf875a"},"vehicle_type_id":"4","last_reported":1729703281,"current_range_meters":8000,"station_id":"ce4bh2h2rcd13ifvqdh0","pricing_plan_id":"cebpf4jnsgd1na2vs0mg"},{"bike_id":"56ecf0cd-296c-4979-bf71-f0e75170daf4","system_id":"levelo_inurba_marseille","lat":43.26552,"lon":5.37289,"is_reserved":false,"is_disabled":false,"rental_uris":{"android":"levelo://app?vid=56ecf0cd-296c-4979-bf71-f0e75170daf4","ios":"levelo://app?vid=56ecf0cd-296c-4979-bf71-f0e75170daf4"},"vehicle_type_id":"4","last_reported":1729703281,"current_range_meters":36400,"station_id":"ce4bhg12rcd13ifvqf70","pricing_plan_id":"cebpf4jnsgd1na2vs0mg"},{"bike_id":"ce210a60-9391-451e-ace1-5222359f2603","system_id":"levelo_inurba_marseille","lat":43.26036,"lon":5.3755,"is_reserved":false,"is_disabled":false,"rental_uris":{"android":"levelo://app?vid=ce210a60-9391-451e-ace1-5222359f2603","ios":"levelo://app?vid=ce210a60-9391-451e-ace1-5222359f2603"},"vehicle_type_id":"4","last_reported":1729703281,"current_range_meters":26000,"station_id":"ce4bhgh2rcd13ifvqfa0","pricing_plan_id":"cebpf4jnsgd1na2vs0mg"},{"bike_id":"c6ffe08e-44e5-4efc-8219-4432da94fe56","system_id":"levelo_inurba_marseille","lat":43.31453,"lon":5.37381,"is_reserved":false,"is_disabled":false,"rental_uris":{"android":"levelo://app?vid=c6ffe08e-44e5-4efc-8219-4432da94fe56","ios":"levelo://app?vid=c6ffe08e-44e5-4efc-8219-4432da94fe56"},"vehicle_type_id":"4","last_reported":1729703281,"current_range_meters":39200,"station_id":"","pricing_plan_id":"cebpf4jnsgd1na2vs0mg"},{"bike_id":"44b1f272-a662-4a27-a8da-dd89088f79d5","system_id":"levelo_inurba_marseille","lat":43.2942,"lon":5.38611,"is_reserved":false,"is_disabled":false,"rental_uris":{"android":"levelo://app?vid=44b1f272-a662-4a27-a8da-dd89088f79d5","ios":"levelo://app?vid=44b1f272-a662-4a27-a8da-dd89088f79d5"},"vehicle_type_id":"4","last_reported":1729703281,"current_range_meters":4000,"station_id":"ce4bh2h2rcd13ifvqdh0","pricing_plan_id":"cebpf4jnsgd1na2vs0mg"},{"bike_id":"71c5894f-c0a5-421e-9ff7-5dd1a04cf456","system_id":"levelo_inurba_marseille","lat":43.30096,"lon":5.39082,"is_reserved":false,"is_disabled":false,"rental_uris":{"android":"levelo://app?vid=71c5894f-c0a5-421e-9ff7-5dd1a04cf456","ios":"levelo://app?vid=71c5894f-c0a5-421e-9ff7-5dd1a04cf456"},"vehicle_type_id":"4","last_reported":1729703281,"current_range_meters":30800,"station_id":"ce4bh192rcd13ifvqdb0","pricing_plan_id":"cebpf4jnsgd1na2vs0mg"},{"bike_id":"2d20780c-9b2c-42d2-b8f7-0f62d32bae50","system_id":"levelo_inurba_marseille","lat":43.2318,"lon":5.39987,"is_reserved":false,"is_disabled":false,"rental_uris":{"android":"levelo://app?vid=2d20780c-9b2c-42d2-b8f7-0f62d32bae50","ios":"levelo://app?vid=2d20780c-9b2c-42d2-b8f7-0f62d32bae50"},"vehicle_type_id":"4","last_reported":1729703281,"current_range_meters":10000,"station_id":"ce4bhn12rcd13ifvqgqg","pricing_plan_id":"cebpf4jnsgd1na2vs0mg"},{"bike_id":"3cca8d89-5842-46a5-a6e4-3faa67909b85","system_id":"levelo_inurba_marseille","lat":43.29421,"lon":5.38618,"is_reserved":false,"is_disabled":false,"rental_uris":{"android":"levelo://app?vid=3cca8d89-5842-46a5-a6e4-3faa67909b85","ios":"levelo://app?vid=3cca8d89-5842-46a5-a6e4-3faa67909b85"},"vehicle_type_id":"4","last_reported":1729703281,"current_range_meters":23200,"station_id":"ce4bh2h2rcd13ifvqdh0","pricing_plan_id":"cebpf4jnsgd1na2vs0mg"},{"bike_id":"28bbd247-8826-410d-8eed-dccf436d2b20","system_id":"levelo_inurba_marseille","lat":43.28942,"lon":5.36403,"is_reserved":false,"is_disabled":false,"rental_uris":{"android":"levelo://app?vid=28bbd247-8826-410d-8eed-dccf436d2b20","ios":"levelo://app?vid=28bbd247-8826-410d-8eed-dccf436d2b20"},"vehicle_type_id":"4","last_reported":1729703281,"current_range_meters":4400,"station_id":"ce4bhc92rcd13ifvqetg","pricing_plan_id":"cebpf4jnsgd1na2vs0mg"},{"bike_id":"e51b1fed-fc1b-402d-9d8e-58157fe330c0","system_id":"levelo_inurba_marseille","lat":43.26213,"lon":5.37442,"is_reserved":false,"is_disabled":false,"rental_uris":{"android":"levelo://app?vid=e51b1fed-fc1b-402d-9d8e-58157fe330c0","ios":"levelo://app?vid=e51b1fed-fc1b-402d-9d8e-58157fe330c0"},"vehicle_type_id":"4","last_reported":1729703281,"current_range_meters":39200,"station_id":"ce4bhgp2rcd13ifvqfc0","pricing_plan_id":"cebpf4jnsgd1na2vs0mg"},