{"last_updated":1726337441,"ttl":30,"version":"2.2","data":{"bikes":[{"bike_id":"78b7b752-89ab-4d79-95ae-11957cb4908d","system_id":"levelo_inurba_marseille","lat":43.32299,"lon":5.38269,"is_reserved":false,"is_disabled":false,"rental_uris":{"android":"levelo://app?vid=78b7b752-89ab-4d79-95ae-11957cb4908d","ios":"levelo://app?vid=78b7b752-89ab-4d79-95ae-11957cb4908d"},"vehicle_type_id":"4","last_reported":1726337441,"current_range_meters":37600,"station_id":"ce4bhr12rcd13ifvqhqg","pricing_plan_id":"cebpf4jnsgd1na2vs0mg"},{"bike_id":"55dcb5fd-8611-42b1-8fd1-e69822dea255","system_id":"levelo_inurba_marseille","lat":43.289283,"lon":5.383994,"is_reserved":false,"is_disabled":false,"rental_uris":{"android":"levelo://app?vid=55dcb5fd-8611-42b1-8fd1-e69822dea255","ios":"levelo://app?vid=55dcb5fd-8611-42b1-8fd1-e69822dea255"},"vehicle_type_id":"4","last_reported":1726337441,"current_range_meters":5600,"station_id":"ce4bha12rcd13ifvqee0","pricing_plan_id":"cebpf4jnsgd1na2vs0mg"},{"bike_id":"083984dd-1abd-4a7d-84c6-e8ceb7b63abe","system_id":"levelo_inurba_marseille","lat":43.31294,"lon":5.37812,"is_reserved":false,"is_disabled":false,"rental_uris":{"android":"levelo://app?vid=083984dd-1abd-4a7d-84c6-e8ceb7b63abe","ios":"levelo://app?vid=083984dd-1abd-4a7d-84c6-e8ceb7b63abe"},"vehicle_type_id":"4","last_reported":1726337441,"current_range_meters":37600,"station_id":"","pricing_plan_id":"cebpf4jnsgd1na2vs0mg"},{"bike_id":"96e4ddaa-8a0d-4617-a9cb-4308b20ffbf8","system_id":"levelo_inurba_marseille","lat":43.29604,"lon":5.38121,"is_reserved":false,"is_disabled":false,"rental_uris":{"android":"levelo://app?vid=96e4ddaa-8a0d-4617-a9cb-4308b20ffbf8","ios":"levelo://app?vid=96e4ddaa-8a0d-4617-a9cb-4308b20ffbf8"},"vehicle_type_id":"4","last_reported":1726337441,"current_range_meters":14000,"station_id":"ce4bgl12rcd13ifvqbo0","pricing_plan_id":"cebpf4jnsgd1na2vs0mg"},{"bike_id":"b40c25cd-ce69-48d8-878d-704517353269","system_id":"levelo_inurba_marseille","lat":43.271758,"lon":5.410044,"is_reserved":false,"is_disabled":false,"rental_uris":{"android":"levelo://app?vid=b40c25cd-ce69-48d8-878d-704517353269","ios":"levelo://app?vid=b40c25cd-ce69-48d8-878d-704517353269"},"vehicle_type_id":"4","last_reported":1726337441,"current_range_meters":22400,"station_id":"ce4bhl12rcd13ifvqgf0","pricing_plan_id":"cebpf4jnsgd1na2vs0mg"},{"bike_id":"0f14130f-3c04-4cce-ae80-99cc5491ec9f","system_id":"levelo_inurba_marseille","lat":43.29018,"lon":5.3864,"is_reserved":false,"is_disabled":false,"rental_uris":{"android":"levelo://app?vid=0f14130f-3c04-4cce-ae80-99cc5491ec9f","ios":"levelo://app?vid=0f14130f-3c04-4cce-ae80-99cc5491ec9f"},"vehicle_type_id":"4","last_reported":1726337441,"current_range_meters":2800,"station_id":"ce4bh4p2rcd13ifvqe0g","pricing_plan_id":"cebpf4jnsgd1na2vs0mg"},{"bike_id":"13c4bde3-79a1-495d-a0c0-1dbceff892e5","system_id":"levelo_inurba_marseille","lat":43.25932,"lon":5.40911,"is_reserved":false,"is_disabled":false,"rental_uris":{"android":"levelo://app?vid=13c4bde3-79a1-495d-a0c0-1dbceff892e5","ios":"levelo://app?vid=13c4bde3-79a1-495d-a0c0-1dbceff892e5"},"vehicle_type_id":"4","last_reported":1726337441,"current_range_meters":8000,"station_id":"ce4bhm92rcd13ifvqglg","pricing_plan_id":"cebpf4jnsgd1na2vs0mg"},{"bike_id":"ab1b09ab-93a3-43e0-b862-8d3c2c187eab","system_id":"levelo_inurba_marseille","lat":43.24676,"lon":5.38167,"is_reserved":false,"is_disabled":false,"rental_uris":{"android":"levelo://app?vid=ab1b09ab-93a3-43e0-b862-8d3c2c187eab","ios":"levelo://app?vid=ab1b09ab-93a3-43e0-b862-8d3c2c187eab"},"vehicle_type_id":"4","last_reported":1726337441,"current_range_meters":2000,"station_id":"ce4bhih2rcd13ifvqfr0","pricing_plan_id":"cebpf4jnsgd1na2vs0mg"},{"bike_id":"13ec4916-f0ea-4897-8afc-596425b42c42","system_id":"levelo_inurba_marseille","lat":43.2319,"lon":5.35557,"is_reserved":false,"is_disabled":false,"rental_uris":{"android":"levelo://app?vid=13ec4916-f0ea-4897-8afc-596425b42c42","ios":"levelo://app?vid=13ec4916-f0ea-4897-8afc-596425b42c42"},"vehicle_type_id":"4","last_reported":1726337441,"current_range_meters":26000,"station_id":"ce4bhu92rcd13ifvqi70","pricing_plan_id":"cebpf4jnsgd1na2vs0mg"},{"bike_id":"d3273e1a-aa38-4491-b878-488e3c68bd42","system_id":"levelo_inurba_marseille","lat":43.26496,"lon":5.39548,"is_reserved":false,"is_disabled":false,"rental_uris":{"android":"levelo://app?vid=d3273e1a-aa38-4491-b878-488e3c68bd42","ios":"levelo://app?vid=d3273e1a-aa38-4491-b878-488e3c68bd42"},"vehicle_type_id":"4","last_reported":1726337441,"current_range_meters":3200,"station_id":"ce4bhi12rcd13ifvqfq0","pricing_plan_id":"cebpf4jnsgd1na2vs0mg"},{"bike_id":"55bc50a0-bff1-4069-a730-21497c0a58ef","system_id":"levelo_inurba_marseille","lat":43.29198,"lon":5.39333,"is_reserved":false,"is_disabled":false,"rental_uris":{"android":"levelo://app?vid=55bc50a0-bff1-4069-a730-21497c0a58ef","ios":"levelo://app?vid=55bc50a0-bff1-4069-a730-21497c0a58ef"},"vehicle_type_id":"4","last_reported":1726337441,"current_range_meters":20400,"station_id":"ce4bh192rcd13ifvqdd0","pricing_plan_id":"cebpf4jnsgd1na2vs0mg"},{"bike_id":"ff32aca5-3a34-4f66-8a33-2df25c151b90","system_id":"levelo_inurba_marseille","lat":43.28671,"lon":5.38676,"is_reserved":false,"is_disabled":false,"rental_uris":{"android":"levelo://app?vid=ff32aca5-3a34-4f66-8a33-2df25c151b90","ios":"levelo://app?vid=ff32aca5-3a34-4f66-8a33-2df25c151b90"},"vehicle_type_id":"4","last_reported":1726337441,"current_range_meters":16400,"station_id":"ce4bh492rcd13ifvqdug","pricing_plan_id":"cebpf4jnsgd1na2vs0mg"},{"bike_id":"1b69e28d-b657-4802-b5dd-aa17fb5a768b","system_id":"levelo_inurba_marseille","lat":43.27141,"lon":5.4279,"is_reserved":false,"is_disabled":false,"rental_uris":{"android":"levelo://app?vid=1b69e28d-b657-4802-b5dd-aa17fb5a768b","ios":"levelo://app?vid=1b69e28d-b657-4802-b5dd-aa17fb5a768b"},"vehicle_type_id":"4","last_reported":1726337441,"current_range_meters":25200,"station_id":"","pricing_plan_id":"cebpf4jnsgd1na2vs0mg"},{"bike_id":"0b2a8ca8-36ba-40f6-8abb-20c8a7e9ee28","system_id":"levelo_inurba_marseille","lat":43.304321,"lon":5.388844,"is_reserved":false,"is_disabled":false,"rental_uris":{"android":"levelo://app?vid=0b2a8ca8-36ba-40f6-8abb-20c8a7e9ee28","ios":"levelo://app?vid=0b2a8ca8-36ba-40f6-8abb-20c8a7e9ee28"},"vehicle_type_id":"4","last_reported":1726337441,"current_range_meters":30000,"station_id":"ce4bgk12rcd13ifvqbi0","pricing_plan_id":"cebpf4jnsgd1na2vs0mg"},{"bike_id":"f0e5fabe-e692-4e5b-8a06-c7c4fe295016","system_id":"levelo_inurba_marseille","lat":43.29032,"lon":5.38649,"is_reserved":false,"is_disabled":false,"rental_uris":{"android":"levelo://app?vid=f0e5fabe-e692-4e5b-8a06-c7c4fe295016","ios":"levelo://app?vid=f0e5fabe-e692-4e5b-8a06-c7c4fe295016"},"vehicle_type_id":"4","last_reported":1726337441,"current_range_meters":32000,"station_id":"ce4bh4p2rcd13ifvqe0g","pricing_plan_id":"cebpf4jnsgd1na2vs0mg"},{"bike_id":"995d3a7e-289e-4ebd-b785-9d2da426ad57","system_id":"levelo_inurba_marseille","lat":43.23193,"lon":5.35549,"is_reserved":false,"is_disabled":false,"rental_uris":{"android":"levelo://app?vid=995d3a7e-289e-4ebd-b785-9d2da426ad57","ios":"levelo://app?vid=995d3a7e-289e-4ebd-b785-9d2da426ad57"},"vehicle_type_id":"4","last_reported":1726337441,"current_range_meters":18800,"station_id":"ce4bhu92rcd13ifvqi70","pricing_plan_id":"cebpf4jnsgd1na2vs0mg"},{"bike_id":"74c67d55-8a5f-40c9-8066-d68354718f8c","system_id":"levelo_inurba_marseille","lat":43.23188,"lon":5.35552,"is_reserved":false,"is_disabled":false,"rental_uris":{"android":"levelo://app?vid=74c67d55-8a5f-40c9-8066-d68354718f8c","ios":"levelo://app?vid=74c67d55-8a5f-40c9-8066-d68354718f8c"},"vehicle_type_id":"4","last_reported":1726337441,"current_range_meters":24400,"station_id":"ce4bhu92rcd13ifvqi70","pricing_plan_id":"cebpf4jnsgd1na2vs0mg"},{"bike_id":"2348432a-2e1b-4480-8221-dc0ae33b40e8","system_id":"levelo_inurba_marseille","lat":43.24391,"lon":5.37062,"is_reserved":false,"is_disabled":false,"rental_uris":{"android":"levelo://app?vid=2348432a-2e1b-4480-8221-dc0ae33b40e8","ios":"levelo://app?vid=2348432a-2e1b-4480-8221-dc0ae33b40e8"},"vehicle_type_id":"4","last_reported":1726337441,"current_range_meters":20000,"station_id":"ce4bhhh2rcd13ifvqfk0","pricing_plan_id":"cebpf4jnsgd1na2vs0mg"},{"bike_id":"800976f0-afec-47ca-8f1d-602c7d4384d7","system_id":"levelo_inurba_marseille","lat":43.31756,"lon":5.39013,"is_reserved":false,"is_disabled":false,"rental_uris":{"android":"levelo://app?vid=800976f0-afec-47ca-8f1d-602c7d4384d7","ios":"levelo://app?vid=800976f0-afec-47ca-8f1d-602c7d4384d7"},"vehicle_type_id":"4","last_reported":1726337441,"current_range_meters":16000,"station_id":"ce4bhqp2rcd13ifvqhng","pricing_plan_id":"cebpf4jnsgd1na2vs0mg"},{"bike_id":"5f3461c7-455c-4dd1-845d-d9b247d646ee","system_id":"levelo_inurba_marseille","lat":43.25109,"lon":5.39444,"is_reserved":false,"is_disabled":false,"rental_uris":{"android":"levelo://app?vid=5f3461c7-455c-4dd1-845d-d9b247d646ee","ios":"levelo://app?vid=5f3461c7-455c-4dd1-845d-d9b247d646ee"},"vehicle_type_id":"4","last_reported":1726337441,"current_range_meters":36800,"station_id":"ce4bhm12rcd13ifvqgkg","pricing_plan_id":"cebpf4jnsgd1na2vs0mg"},{"bike_id":"dfb89513-f211-47bc-95b2-ffac780f14a8","system_id":"levelo_inurba_marseille","lat":43.23195,"lon":5.355485,"is_reserved":false,"is_disabled":false,"rental_uris":{"android":"levelo://app?vid=dfb89513-f211-47bc-95b2-ffac780f14a8","ios":"levelo://app?vid=dfb89513-f211-47bc-95b2-ffac780f14a8"},"vehicle_type_id":"4","last_reported":1726337441,"current_range_meters":12000,"station_id":"ce4bhu92rcd13ifvqi70","pricing_plan_id":"cebpf4jnsgd1na2vs0mg"},{"bike_id":"ebc53b1a-34e8-40a5-b52b-955bae8e6f70","system_id":"levelo_inurba_marseille","lat":43.30134,"lon":5.38784,"is_reserved":false,"is_disabled":false,"rental_uris":{"android":"levelo://app?vid=ebc53b1a-34e8-40a5-b52b-955bae8e6f70","ios":"levelo://app?vid=ebc53b1a-34e8-40a5-b52b-955bae8e6f70"},"vehicle_type_id":"4","last_reported":1726337441,"current_range_meters":24400,"station_id":"ce4bghh2rcd13ifvqb60","pricing_plan_id":"cebpf4jnsgd1na2vs0mg"},{"bike_id":"5695be2b-9a5b-4c85-9c3e-237c284c36d2","system_id":"levelo_inurba_marseille","lat":43.32296,"lon":5.38272,"is_reserved":false,"is_disabled":false,"rental_uris":{"android":"levelo://app?vid=5695be2b-9a5b-4c85-9c3e-237c284c36d2","ios":"levelo://app?vid=5695be2b-9a5b-4c85-9c3e-237c284c36d2"},"vehicle_type_id":"4","last_reported":1726337441,"current_range_meters":39200,"station_id":"ce4bhr12rcd13ifvqhqg","pricing_plan_id":"cebpf4jnsgd1na2vs0mg"},{"bike_id":"653674ef-d9fb-4ea0-a917-67e709484568","system_id":"levelo_inurba_marseille","lat":43.281,"lon":5.37847,"is_reserved":false,"is_disabled":false,"rental_uris":{"android":"levelo://app?vid=653674ef-d9fb-4ea0-a917-67e709484568","ios":"levelo://app?vid=653674ef-d9fb-4ea0-a917-67e709484568"},"vehicle_type_id":"4","last_reported":1726337441,"current_range_meters":3200,"station_id":"ce4bha12rcd13ifvqee0","pricing_plan_id":"cebpf4jnsgd1na2vs0mg"},{"bike_id":"bb2848ff-ecf6-4239-89d7-0f8996373c59","system_id":"levelo_inurba_marseille","lat":43.25114,"lon":5.40322,"is_reserved":false,"is_disabled":false,"rental_uris":{"android":"levelo://app?vid=bb2848ff-ecf6-4239-89d7-0f8996373c59","ios":"levelo://app?vid=bb2848ff-ecf6-4239-89d7-0f8996373c59"},"vehicle_type_id":"4","last_reported":1726337441,"current_range_meters":13600,"station_id":"ce4bhlh2rcd13ifvqgig","pricing_plan_id":"cebpf4jnsgd1na2vs0mg"},{"bike_id":"aac07f6f-d068-41e5-80ed-ad695afca2fa","system_id":"levelo_inurba_marseille","lat":43.25711,"lon":5.4112,"is_reserved":false,"is_disabled":false,"rental_uris":{"android":"levelo://app?vid=aac07f6f-d068-41e5-80ed-ad695afca2fa","ios":"levelo://app?vid=aac07f6f-d068-41e5-80ed-ad695afca2fa"},"vehicle_type_id":"4","last_reported":1726337441,"current_range_meters":36400,"station_id":"ce4bhkp2rcd13ifvqgd0","pricing_plan_id":"cebpf4jnsgd1na2vs0mg"},{"bike_id":"cf8120b6-94e4-42ba-8491-e778a93b9ca0","system_id":"levelo_inurba_marseille","lat":43.30502,"lon":5.367206,"is_reserved":false,"is_disabled":false,"rental_uris":{"android":"levelo://app?vid=cf8120b6-94e4-42ba-8491-e778a93b9ca0","ios":"levelo://app?vid=cf8120b6-94e4-42ba-8491-e778a93b9ca0"},"vehicle_type_id":"4","last_reported":1726337441,"current_range_meters":15200,"station_id":"ce4bgrp2rcd13ifvqc9g","pricing_plan_id":"cebpf4jnsgd1na2vs0mg"},{"bike_id":"30fc1f51-20b6-4e13-8f56-75175e166910","system_id":"levelo_inurba_marseille","lat":43.2306,"lon":5.35492,"is_reserved":false,"is_disabled":false,"rental_uris":{"android":"levelo://app?vid=30fc1f51-20b6-4e13-8f56-75175e166910","ios":"levelo://app?vid=30fc1f51-20b6-4e13-8f56-75175e166910"},"vehicle_type_id":"4","last_reported":1726337441,"current_range_meters":38800,"station_id":"cpo3342slgdg3j2ifvpg","pricing_plan_id":"cebpf4jnsgd1na2vs0mg"},{"bike_id":"83fbdcc9-572d-4098-a1a9-5a8eefd34296","system_id":"levelo_inurba_marseille","lat":43.295136,"lon":5.394098,"is_reserved":false,"is_disabled":false,"rental_uris":{"android":"levelo://app?vid=83fbdcc9-572d-4098-a1a9-5a8eefd34296","ios":"levelo://app?vid=83fbdcc9-572d-4098-a1a9-5a8eefd34296"},"vehicle_type_id":"4","last_reported":1726337441,"current_range_meters":32000,"station_id":"ce4bh292rcd13ifvqdf0","pricing_plan_id":"cebpf4jnsgd1na2vs0mg"},{"bike_id":"8344c512-a10f-4d3e-9047-6eec3b4d39c4","system_id":"levelo_inurba_marseille","lat":43.303307,"lon":5.404442,"is_reserved":false,"is_disabled":false,"rental_uris":{"android":"levelo://app?vid=8344c512-a10f-4d3e-9047-6eec3b4d39c4","ios":"levelo://app?vid=8344c512-a10f-4d3e-9047-6eec3b4d39c4"},"vehicle_type_id":"4","last_reported":1726337441,"current_range_meters":24400,"station_id":"ce4bh012rcd13ifvqd10","pricing_plan_id":"cebpf4jnsgd1na2vs0mg"},{"bike_id":"c86b0092-7fc7-4b72-93c6-667605627665","system_id":"levelo_inurba_marseille","lat":43.30661,"lon":5.39487,"is_reserved":false,"is_disabled":false,"rental_uris":{"android":"levelo://app?vid=c86b0092-7fc7-4b72-93c6-667605627665","ios":"levelo://app?vid=c86b0092-7fc7-4b72-93c6-667605627665"},"vehicle_type_id":"4","last_reported":1726337441,"current_range_meters":7200,"station_id":"","pricing_plan_id":"cebpf4jnsgd1na2vs0mg"},{"bike_id":"f89ebaff-608b-48c6-99bf-a4efd018954e","system_id":"levelo_inurba_marseille","lat":43.25721,"lon":5.41117,"is_reserved":false,"is_disabled":false,"rental_uris":{"android":"levelo://app?vid=f89ebaff-608b-48c6-99bf-a4efd018954e","ios":"levelo://app?vid=f89ebaff-608b-48c6-99bf-a4efd018954e"},"vehicle_type_id":"4","last_reported":1726337441,"current_range_meters":20800,"station_id":"ce4bhkp2rcd13ifvqgd0","pricing_plan_id":"cebpf4jnsgd1na2vs0mg"},{"bike_id":"8c2bcd77-3dfe-4a3e-ad25-cd33e30fd2f5","system_id":"levelo_inurba_marseille","lat":43.30408,"lon":5.39734,"is_reserved":false,"is_disabled":false,"rental_uris":{"android":"levelo://app?vid=8c2bcd77-3dfe-4a3e-ad25-cd33e30fd2f5","ios":"levelo://app?vid=8c2bcd77-3dfe-4a3e-ad25-cd33e30fd2f5"},"vehicle_type_id":"4","last_reported":1726337441,"current_range_meters":34800,"station_id":"ce4bh092rcd13ifvqd20","pricing_plan_id":"cebpf4jnsgd1na2vs0mg"},{"bike_id":"fc8b27c4-f2ac-4aa3-a72e-f0799ca48e22","system_id":"levelo_inurba_marseille","lat":43.23147,"lon":5.43709,"is_reserved":false,"is_disabled":false,"rental_uris":{"android":"levelo://app?vid=fc8b27c4-f2ac-4aa3-a72e-f0799ca48e22","ios":"levelo://app?vid=fc8b27c4-f2ac-4aa3-a72e-f0799ca48e22"},"vehicle_type_id":"4","last_reported":1726337441,"current_range_meters":16000,"station_id":"ce4bhmp2rcd13ifvqgog","pricing_plan_id":"cebpf4jnsgd1na2vs0mg"},{"bike_id":"b163cf08-6ce3-4d2f-a3d2-6a4eb4ce7991","system_id":"levelo_inurba_marseille","lat":43.28162,"lon":5.4265,"is_reserved":false,"is_disabled":false,"rental_uris":{"android":"levelo://app?vid=b163cf08-6ce3-4d2f-a3d2-6a4eb4ce7991","ios":"levelo://app?vid=b163cf08-6ce3-4d2f-a3d2-6a4eb4ce7991"},"vehicle_type_id":"4","last_reported":1726337441,"current_range_meters":12000,"station_id":"ce4bhnh2rcd13ifvqgug","pricing_plan_id":"cebpf4jnsgd1na2vs0mg"},{"bike_id":"322a68fa-b8bd-4dc1-bff4-0b33e7caaf9c","system_id":"levelo_inurba_marseille","lat":43.27998,"lon":5.41666,"is_reserved":false,"is_disabled":false,"rental_uris":{"android":"levelo://app?vid=322a68fa-b8bd-4dc1-bff4-0b33e7caaf9c","ios":"levelo://app?vid=322a68fa-b8bd-4dc1-bff4-0b33e7caaf9c"},"vehicle_type_id":"4","last_reported":1726337441,"current_range_meters":11600,"station_id":"ce4bho12rcd13ifvqh1g","pricing_plan_id":"cebpf4jnsgd1na2vs0mg"},{"bike_id":"16ca6d91-7513-415c-9a61-5d33eb8ad677","system_id":"levelo_inurba_marseille","lat":43.22934,"lon":5.35374,"is_reserved":false,"is_disabled":false,"rental_uris":{"android":"levelo://app?vid=16ca6d91-7513-415c-9a61-5d33eb8ad677","ios":"levelo://app?vid=16ca6d91-7513-415c-9a61-5d33eb8ad677"},"vehicle_type_id":"4","last_reported":1726337441,"current_range_meters":20800,"station_id":"cpo3532slgdg3j2ikp40","pricing_plan_id":"cebpf4jnsgd1na2vs0mg"},{"bike_id":"93643616-c5b1-4647-8fb7-df9ebfd48fb4","system_id":"levelo_inurba_marseille","lat":43.24079,"lon":5.37755,"is_reserved":false,"is_disabled":false,"rental_uris":{"android":"levelo://app?vid=93643616-c5b1-4647-8fb7-df9ebfd48fb4","ios":"levelo://app?vid=93643616-c5b1-4647-8fb7-df9ebfd48fb4"},"vehicle_type_id":"4","last_reported":1726337441,"current_range_meters":38800,"station_id":"ce4bhnp2rcd13ifvqgvg","pricing_plan_id":"cebpf4jnsgd1na2vs0mg"},{"bike_id":"dffd5411-c504-40e7-ba0b-b79ba58dae26","system_id":"levelo_inurba_marseille","lat":43.26957,"lon":5.38645,"is_reserved":false,"is_disabled":false,"rental_uris":{"android":"levelo://app?vid=dffd5411-c504-40e7-ba0b-b79ba58dae26","ios":"levelo://app?vid=dffd5411-c504-40e7-ba0b-b79ba58dae26"},"vehicle_type_id":"4","last_reported":1726337441,"current_range_meters":6800,"station_id":"ce4bhh92rcd13ifvqfh0","pricing_plan_id":"cebpf4jnsgd1na2vs0mg"},{"bike_id":"e8d453b0-fbb4-4314-8665-25e3cf0c5198","system_id":"levelo_inurba_marseille","lat":43.28935,"lon":5.36641,"is_reserved":false,"is_disabled":false,"rental_uris":{"android":"levelo://app?vid=e8d453b0-fbb4-4314-8665-25e3cf0c5198","ios":"levelo://app?vid=e8d453b0-fbb4-4314-8665-25e3cf0c5198"},"vehicle_type_id":"4","last_reported":1726337441,"current_range_meters":22800,"station_id":"ce4bhap2rcd13ifvqek0","pricing_plan_id":"cebpf4jnsgd1na2vs0mg"},{"bike_id":"55ae1fb3-0252-4487-aabf-7b96814c0a04","system_id":"levelo_inurba_marseille","lat":43.31484,"lon":5.3731,"is_reserved":false,"is_disabled":false,"rental_uris":{"android":"levelo://app?vid=55ae1fb3-0252-4487-aabf-7b96814c0a04","ios":"levelo://app?vid=55ae1fb3-0252-4487-aabf-7b96814c0a04"},"vehicle_type_id":"4","last_reported":1726337441,"current_range_meters":24800,"station_id":"ce4bgt12rcd13ifvqcd0","pricing_plan_id":"cebpf4jnsgd1na2vs0mg"},{"bike_id":"90521811-f8fd-48e1-ade7-4d07ddb065bb","system_id":"levelo_inurba_marseille","lat":43.23188,"lon":5.35556,"is_reserved":false,"is_disabled":false,"rental_uris":{"android":"levelo://app?vid=90521811-f8fd-48e1-ade7-4d07ddb065bb","ios":"levelo://app?vid=90521811-f8fd-48e1-ade7-4d07ddb065bb"},"vehicle_type_id":"4","last_reported":1726337441,"current_range_meters":17200,"station_id":"ce4bhu92rcd13ifvqi70","pricing_plan_id":"cebpf4jnsgd1na2vs0mg"},{"bike_id":"116dc1c9-3888-49d7-8807-352f97a03dff","system_id":"levelo_inurba_marseille","lat":43.30908,"lon":5.36846,"is_reserved":false,"is_disabled":false,"rental_uris":{"android":"levelo://app?vid=116dc1c9-3888-49d7-8807-352f97a03dff","ios":"levelo://app?vid=116dc1c9-3888-49d7-8807-352f97a03dff"},"vehicle_type_id":"4","last_reported":1726337441,"current_range_meters":38000,"station_id":"ce4bgn92rcd13ifvqbvg","pricing_plan_id":"cebpf4jnsgd1na2vs0mg"},{"bike_id":"f524e6ce-bd11-4cfb-bffa-8bd27d264bc1","system_id":"levelo_inurba_marseille","lat":43.2511,"lon":5.40321,"is_reserved":false,"is_disabled":false,"rental_uris":{"android":"levelo://app?vid=f524e6ce-bd11-4cfb-bffa-8bd27d264bc1","ios":"levelo://app?vid=f524e6ce-bd11-4cfb-bffa-8bd27d264bc1"},"vehicle_type_id":"4","last_reported":1726337441,"current_range_meters":38000,"station_id":"ce4bhlh2rcd13ifvqgig","pricing_plan_id":"cebpf4jnsgd1na2vs0mg"},{"bike_id":"5c6bbb72-2233-47a4-9276-25d1388ee3b2","system_id":"levelo_inurba_marseille","lat":43.28949,"lon":5.36398,"is_reserved":false,"is_disabled":false,"rental_uris":{"android":"levelo://app?vid=5c6bbb72-2233-47a4-9276-25d1388ee3b2","ios":"levelo://app?vid=5c6bbb72-2233-47a4-9276-25d1388ee3b2"},"vehicle_type_id":"4","last_reported":1726337441,"current_range_meters":10000,"station_id":"ce4bhc92rcd13ifvqetg","pricing_plan_id":"cebpf4jnsgd1na2vs0mg"},{"bike_id":"2d433440-dc14-4d0b-a25b-d57a1795d8e3","system_id":"levelo_inurba_marseille","lat":43.24071,"lon":5.3776,"is_reserved":false,"is_disabled":false,"rental_uris":{"android":"levelo://app?vid=2d433440-dc14-4d0b-a25b-d57a1795d8e3","ios":"levelo://app?vid=2d433440-dc14-4d0b-a25b-d57a1795d8e3"},"vehicle_type_id":"4","last_reported":1726337441,"current_range_meters":4400,"station_id":"ce4bhnp2rcd13ifvqgvg","pricing_plan_id":"cebpf4jnsgd1na2vs0mg"},{"bike_id":"42bf5148-77fe-49c2-bf4e-757ff392a33b","system_id":"levelo_inurba_marseille","lat":43.29527,"lon":5.39031,"is_reserved":false,"is_disabled":false,"rental_uris":{"android":"levelo://app?vid=42bf5148-77fe-49c2-bf4e-757ff392a33b","ios":"levelo://app?vid=42bf5148-77fe-49c2-bf4e-757ff392a33b"},"vehicle_type_id":"4","last_reported":1726337441,"current_range_meters":38400,"station_id":"ce4bh3p2rcd13ifvqdp0","pricing_plan_id":"cebpf4jnsgd1na2vs0mg"},{"bike_id":"26db0265-0a91-4c66-8aa8-67a94f7eef0d","system_id":"levelo_inurba_marseille","lat":43.26943,"lon":5.40068,"is_reserved":false,"is_disabled":false,"rental_uris":{"android":"levelo://app?vid=26db0265-0a91-4c66-8aa8-67a94f7eef0d","ios":"levelo://app?vid=26db0265-0a91-4c66-8aa8-67a94f7eef0d"},"vehicle_type_id":"4","last_reported":1726337441,"current_range_meters":16000,"station_id":"","pricing_plan_id":"cebpf4jnsgd1na2vs0mg"},{"bike_id":"9b49fc06-69dc-4375-9bc8-2ab31283d424","system_id":"levelo_inurba_marseille","lat":43.29903,"lon":5.43662,"is_reserved":false,"is_disabled":false,"rental_uris":{"android":"levelo://app?vid=9b49fc06-69dc-4375-9bc8-2ab31283d424","ios":"levelo://app?vid=9b49fc06-69dc-4375-9bc8-2ab31283d424"},"vehicle_type_id":"4","last_reported":1726337441,"current_range_meters":30800,"station_id":"ce4bhpp2rcd13ifvqhfg","pricing_plan_id":"cebpf4jnsgd1na2vs0mg"},{"bike_id":"52dffc36-c432-4ca9-bdc5-7d22d686b7fb","system_id":"levelo_inurba_marseille","lat":43.30098,"lon":5.39083,"is_reserved":false,"is_disabled":false,"rental_uris":{"android":"levelo://app?vid=52dffc36-c432-4ca9-bdc5-7d22d686b7fb","ios":"levelo://app?vid=52dffc36-c432-4ca9-bdc5-7d22d686b7fb"},"vehicle_type_id":"4","last_reported":1726337441,"current_range_meters":7200,"station_id":"ce4bh192rcd13ifvqdb0","pricing_plan_id":"cebpf4jnsgd1na2vs0mg"},{"bike_id":"da70b7fc-36e0-4271-9ab5-85c1c10f8c7d","system_id":"levelo_inurba_marseille","lat":43.31684,"lon":5.4048,"is_reserved":false,"is_disabled":false,"rental_uris":{"android":"levelo://app?vid=da70b7fc-36e0-4271-9ab5-85c1c10f8c7d","ios":"levelo://app?vid=da70b7fc-36e0-4271-9ab5-85c1c10f8c7d"},"vehicle_type_id":"4","last_reported":1726337441,"current_range_meters":2000,"station_id":"ce4bh012rcd13ifvqd00","pricing_plan_id":"cebpf4jnsgd1na2vs0mg"},{"bike_id":"bea2eb63-6dba-4a7f-ba8a-ed9270863fa0","system_id":"levelo_inurba_marseille","lat":43.255,"lon":5.37656,"is_reserved":false,"is_disabled":false,"rental_uris":{"android":"levelo://app?vid=bea2eb63-6dba-4a7f-ba8a-ed9270863fa0","ios":"levelo://app?vid=bea2eb63-6dba-4a7f-ba8a-ed9270863fa0"},"vehicle_type_id":"4","last_reported":1726337441,"current_range_meters":33200,"station_id":"ce4bhh12rcd13ifvqff0","pricing_plan_id":"cebpf4jnsgd1na2vs0mg"},{"bike_id":"e00d038a-00c7-4258-ab4b-259bdb081cfd","system_id":"levelo_inurba_marseille","lat":43.23196,"lon":5.35549,"is_reserved":false,"is_disabled":false,"rental_uris":{"android":"levelo://app?vid=e00d038a-00c7-4258-ab4b-259bdb081cfd","ios":"levelo://app?vid=e00d038a-00c7-4258-ab4b-259bdb081cfd"},"vehicle_type_id":"4","last_reported":1726337441,"current_range_meters":33600,"station_id":"ce4bhu92rcd13ifvqi70","pricing_plan_id":"cebpf4jnsgd1na2vs0mg"},{"bike_id":"4f847161-8733-40c0-9d1a-924c211b3057","system_id":"levelo_inurba_marseille","lat":43.23199,"lon":5.35546,"is_reserved":false,"is_disabled":false,"rental_uris":{"android":"levelo://app?vid=4f847161-8733-40c0-9d1a-924c211b3057","ios":"levelo://app?vid=4f847161-8733-40c0-9d1a-924c211b3057"},"vehicle_type_id":"4","last_reported":1726337441,"current_range_meters":36800,"station_id":"ce4bhu92rcd13ifvqi70","pricing_plan_id":"cebpf4jnsgd1na2vs0mg"},{"bike_id":"dac00e2b-742f-45a3-b08c-ab584d3392c9","system_id":"levelo_inurba_marseille","lat":43.30436,"lon":5.38887,"is_reserved":false,"is_disabled":false,"rental_uris":{"android":"levelo://app?vid=dac00e2b-742f-45a3-b08c-ab584d3392c9","ios":"levelo://app?vid=dac00e2b-742f-45a3-b08c-ab584d3392c9"},"vehicle_type_id":"4","last_reported":1726337441,"current_range_meters":20400,"station_id":"ce4bgk12rcd13ifvqbi0","pricing_plan_id":"cebpf4jnsgd1na2vs0mg"},{"bike_id":"aced5ab7-b508-4250-8809-353d2c8a330a","system_id":"levelo_inurba_marseille","lat":43.255829,"lon":5.38236,"is_reserved":false,"is_disabled":false,"rental_uris":{"android":"levelo://app?vid=aced5ab7-b508-4250-8809-353d2c8a330a","ios":"levelo://app?vid=aced5ab7-b508-4250-8809-353d2c8a330a"},"vehicle_type_id":"4","last_reported":1726337441,"current_range_meters":18000,"station_id":"ce4bhih2rcd13ifvqfs0","pricing_plan_id":"cebpf4jnsgd1na2vs0mg"},{"bike_id":"fb1a610a-3a18-41a3-902c-be4c287f1a0d","system_id":"levelo_inurba_marseille","lat":43.25868,"lon":5.39896,"is_reserved":false,"is_disabled":false,"rental_uris":{"android":"levelo://app?vid=fb1a610a-3a18-41a3-902c-be4c287f1a0d","ios":"levelo://app?vid=fb1a610a-3a18-41a3-902c-be4c287f1a0d"},"vehicle_type_id":"4","last_reported":1726337441,"current_range_meters":3600,"station_id":"ce4bhl92rcd13ifvqghg","pricing_plan_id":"cebpf4jnsgd1na2vs0mg"},{"bike_id":"80559d9a-aade-4254-9917-969f79771ae5","system_id":"levelo_inurba_marseille","lat":43.2958,"lon":5.375114,"is_reserved":false,"is_disabled":false,"rental_uris":{"android":"levelo://app?vid=80559d9a-aade-4254-9917-969f79771ae5","ios":"levelo://app?vid=80559d9a-aade-4254-9917-969f79771ae5"},"vehicle_type_id":"4","last_reported":1726337441,"current_range_meters":14800,"station_id":"ce4bgh92rcd13ifvqb50","pricing_plan_id":"cebpf4jnsgd1na2vs0mg"},{"bike_id":"98bb5ce4-cd0f-44bc-b90d-81c6030d7404","system_id":"levelo_inurba_marseille","lat":43.24663,"lon":5.3817,"is_reserved":false,"is_disabled":false,"rental_uris":{"android":"levelo://app?vid=98bb5ce4-cd0f-44bc-b90d-81c6030d7404","ios":"levelo://app?vid=98bb5ce4-cd0f-44bc-b90d-81c6030d7404"},"vehicle_type_id":"4","last_reported":1726337441,"current_range_meters":19200,"station_id":"ce4bhih2rcd13ifvqfr0","pricing_plan_id":"cebpf4jnsgd1na2vs0mg"},{"bike_id":"7ec6bc60-e018-4092-b39f-664e99b172a2","system_id":"levelo_inurba_marseille","lat":43.31346,"lon":5.36727,"is_reserved":false,"is_disabled":false,"rental_uris":{"android":"levelo://app?vid=7ec6bc60-e018-4092-b39f-664e99b172a2","ios":"levelo://app?vid=7ec6bc60-e018-4092-b39f-664e99b172a2"},"vehicle_type_id":"4","last_reported":1726337441,"current_range_meters":35200,"station_id":"ce4bgr92rcd13ifvqc6g","pricing_plan_id":"cebpf4jnsgd1na2vs0mg"},{"bike_id":"47ab4668-191b-4b19-90cf-3fab29722f66","system_id":"levelo_inurba_marseille","lat":43.28103,"lon":5.37852,"is_reserved":false,"is_disabled":false,"rental_uris":{"android":"levelo://app?vid=47ab4668-191b-4b19-90cf-3fab29722f66","ios":"levelo://app?vid=47ab4668-191b-4b19-90cf-3fab29722f66"},"vehicle_type_id":"4","last_reported":1726337441,"current_range_meters":10000,"station_id":"ce4bha12rcd13ifvqee0","pricing_plan_id":"cebpf4jnsgd1na2vs0mg"},{"bike_id":"6826fbeb-fe18-4ef8-bcc5-4664d520bb7c","system_id":"levelo_inurba_marseille","lat":43.29613,"lon":5.37708,"is_reserved":false,"is_disabled":false,"rental_uris":{"android":"levelo://app?vid=6826fbeb-fe18-4ef8-bcc5-4664d520bb7c","ios":"levelo://app?vid=6826fbeb-fe18-4ef8-bcc5-4664d520bb7c"},"vehicle_type_id":"4","last_reported":1726337441,"current_range_meters":20800,"station_id":"ce4bgi92rcd13ifvqb90","pricing_plan_id":"cebpf4jnsgd1na2vs0mg"},{"bike_id":"30b16378-58bf-405b-9f40-bc60043e0879","system_id":"levelo_inurba_marseille","lat":43.2952,"lon":5.39032,"is_reserved":false,"is_disabled":false,"rental_uris":{"android":"levelo://app?vid=30b16378-58bf-405b-9f40-bc60043e0879","ios":"levelo://app?vid=30b16378-58bf-405b-9f40-bc60043e0879"},"vehicle_type_id":"4","last_reported":1726337441,"current_range_meters":9600,"station_id":"ce4bh3p2rcd13ifvqdp0","pricing_plan_id":"cebpf4jnsgd1na2vs0mg"},{"bike_id":"c9a3dc7e-ee41-4303-b712-a6435686b363","system_id":"levelo_inurba_marseille","lat":43.29522,"lon":5.39399,"is_reserved":false,"is_disabled":false,"rental_uris":{"android":"levelo://app?vid=c9a3dc7e-ee41-4303-b712-a6435686b363","ios":"levelo://app?vid=c9a3dc7e-ee41-4303-b712-a6435686b363"},"vehicle_type_id":"4","last_reported":1726337441,"current_range_meters":2000,"station_id":"ce4bh292rcd13ifvqdf0","pricing_plan_id":"cebpf4jnsgd1na2vs0mg"},{"bike_id":"9d9ce96c-b6fa-4b2e-aea7-043d9f88676d","system_id":"levelo_inurba_marseille","lat":43.27994,"lon":5.41656,"is_reserved":false,"is_disabled":false,"rental_uris":{"android":"levelo://app?vid=9d9ce96c-b6fa-4b2e-aea7-043d9f88676d","ios":"levelo://app?vid=9d9ce96c-b6fa-4b2e-aea7-043d9f88676d"},"vehicle_type_id":"4","last_reported":1726337441,"current_range_meters":12000,"station_id":"ce4bho12rcd13ifvqh1g","pricing_plan_id":"cebpf4jnsgd1na2vs0mg"},{"bike_id":"b1db6496-7d7b-4acc-a88c-e5406d38e100","system_id":"levelo_inurba_marseille","lat":43.23197,"lon":5.35558,"is_reserved":false,"is_disabled":false,"rental_uris":{"android":"levelo://app?vid=b1db6496-7d7b-4acc-a88c-e5406d38e100","ios":"levelo://app?vid=b1db6496-7d7b-4acc-a88c-e5406d38e100"},"vehicle_type_id":"4","last_reported":1726337441,"current_range_meters":38800,"station_id":"ce4bhu92rcd13ifvqi70","pricing_plan_id":"cebpf4jnsgd1na2vs0mg"},{"bike_id":"48660d4b-6119-42c2-b57d-fd2e1ad319a5","system_id":"levelo_inurba_marseille","lat":43.2315,"lon":5.43711,"is_reserved":false,"is_disabled":false,"rental_uris":{"android":"levelo://app?vid=48660d4b-6119-42c2-b57d-fd2e1ad319a5","ios":"levelo://app?vid=48660d4b-6119-42c2-b57d-fd2e1ad319a5"},"vehicle_type_id":"4","last_reported":1726337441,"current_range_meters":6800,"station_id":"ce4bhmp2rcd13ifvqgog","pricing_plan_id":"cebpf4jnsgd1na2vs0mg"},{"bike_id":"ee721f16-71d0-49c8-9da4-858f78b55bcb","system_id":"levelo_inurba_marseille","lat":43.25937,"lon":5.40904,"is_reserved":false,"is_disabled":false,"rental_uris":{"android":"levelo://app?vid=ee721f16-71d0-49c8-9da4-858f78b55bcb","ios":"levelo://app?vid=ee721f16-71d0-49c8-9da4-858f78b55bcb"},"vehicle_type_id":"4","last_reported":1726337441,"current_range_meters":28800,"station_id":"ce4bhm92rcd13ifvqglg","pricing_plan_id":"cebpf4jnsgd1na2vs0mg"},{"bike_id":"be604cf5-580a-4e20-b6bf-ca40a8589311","system_id":"levelo_inurba_marseille","lat":43.292,"lon":5.39321,"is_reserved":false,"is_disabled":false,"rental_uris":{"android":"levelo://app?vid=be604cf5-580a-4e20-b6bf-ca40a8589311","ios":"levelo://app?vid=be604cf5-580a-4e20-b6bf-ca40a8589311"},"vehicle_type_id":"4","last_reported":1726337441,"current_range_meters":16800,"station_id":"ce4bh192rcd13ifvqdd0","pricing_plan_id":"cebpf4jnsgd1na2vs0mg"},{"bike_id":"154d5780-5cfd-4f04-a6aa-aa27e7d6b8e7","system_id":"levelo_inurba_marseille","lat":43.25121,"lon":5.40317,"is_reserved":false,"is_disabled":false,"rental_uris":{"android":"levelo://app?vid=154d5780-5cfd-4f04-a6aa-aa27e7d6b8e7","ios":"levelo://app?vid=154d5780-5cfd-4f04-a6aa-aa27e7d6b8e7"},"vehicle_type_id":"4","last_reported":1726337441,"current_range_meters":22400,"station_id":"ce4bhlh2rcd13ifvqgig","pricing_plan_id":"cebpf4jnsgd1na2vs0mg"},{"bike_id":"7bd57f11-a884-4a13-b2cd-72769bcade5b","system_id":"levelo_inurba_marseille","lat":43.296242,"lon":5.37718,"is_reserved":false,"is_disabled":false,"rental_uris":{"android":"levelo://app?vid=7bd57f11-a884-4a13-b2cd-72769bcade5b","ios":"levelo://app?vid=7bd57f11-a884-4a13-b2cd-72769bcade5b"},"vehicle_type_id":"4","last_reported":1726337441,"current_range_meters":3600,"station_id":"ce4bgi92rcd13ifvqb90","pricing_plan_id":"cebpf4jnsgd1na2vs0mg"},{"bike_id":"eeda6c0c-0dbb-4846-85aa-c1ab2cdc1105","system_id":"levelo_inurba_marseille","lat":43.25725,"lon":5.41109,"is_reserved":false,"is_disabled":false,"rental_uris":{"android":"levelo://app?vid=eeda6c0c-0dbb-4846-85aa-c1ab2cdc1105","ios":"levelo://app?vid=eeda6c0c-0dbb-4846-85aa-c1ab2cdc1105"},"vehicle_type_id":"4","last_reported":1726337441,"current_range_meters":38000,"station_id":"ce4bhkp2rcd13ifvqgd0","pricing_plan_id":"cebpf4jnsgd1na2vs0mg"},{"bike_id":"5d57090e-631a-43c2-bed6-50c5bdc6029c","system_id":"levelo_inurba_marseille","lat":43.31232,"lon":5.36874,"is_reserved":false,"is_disabled":false,"rental_uris":{"android":"levelo://app?vid=5d57090e-631a-43c2-bed6-50c5bdc6029c","ios":"levelo://app?vid=5d57090e-631a-43c2-bed6-50c5bdc6029c"},"vehicle_type_id":"4","last_reported":1726337441,"current_range_meters":28400,"station_id":"ce4bgl92rcd13ifvqbq0","pricing_plan_id":"cebpf4jnsgd1na2vs0mg"},{"bike_id":"7f938198-b3f2-442e-8683-d6820098532f","system_id":"levelo_inurba_marseille","lat":43.28156,"lon":5.42642,"is_reserved":false,"is_disabled":false,"rental_uris":{"android":"levelo://app?vid=7f938198-b3f2-442e-8683-d6820098532f","ios":"levelo://app?vid=7f938198-b3f2-442e-8683-d6820098532f"},"vehicle_type_id":"4","last_reported":1726337441,"current_range_meters":16800,"station_id":"ce4bhnh2rcd13ifvqgug","pricing_plan_id":"cebpf4jnsgd1na2vs0mg"},{"bike_id":"dfc7e944-178a-43bd-85e8-0abf1cafc416","system_id":"levelo_inurba_marseille","lat":43.22931,"lon":5.35374,"is_reserved":false,"is_disabled":false,"rental_uris":{"android":"levelo://app?vid=dfc7e944-178a-43bd-85e8-0abf1cafc416","ios":"levelo://app?vid=dfc7e944-178a-43bd-85e8-0abf1cafc416"},"vehicle_type_id":"4","last_reported":1726337441,"current_range_meters":25200,"station_id":"cpo3532slgdg3j2ikp40","pricing_plan_id":"cebpf4jnsgd1na2vs0mg"},{"bike_id":"baa9148a-0f76-4b01-b80c-2f16eaf15154","system_id":"levelo_inurba_marseille","lat":43.29533,"lon":5.39017,"is_reserved":false,"is_disabled":false,"rental_uris":{"android":"levelo://app?vid=baa9148a-0f76-4b01-b80c-2f16eaf15154","ios":"levelo://app?vid=baa9148a-0f76-4b01-b80c-2f16eaf15154"},"vehicle_type_id":"4","last_reported":1726337441,"current_range_meters":14400,"station_id":"ce4bh3p2rcd13ifvqdp0","pricing_plan_id":"cebpf4jnsgd1na2vs0mg"},{"bike_id":"bd26f63e-d7bd-4ada-8a1f-3b93d54404f8","system_id":"levelo_inurba_marseille","lat":43.31059,"lon":5.40097,"is_reserved":false,"is_disabled":false,"rental_uris":{"android":"levelo://app?vid=bd26f63e-d7bd-4ada-8a1f-3b93d54404f8","ios":"levelo://app?vid=bd26f63e-d7bd-4ada-8a1f-3b93d54404f8"},"vehicle_type_id":"4","last_reported":1726337441,"current_range_meters":19600,"station_id":"","pricing_plan_id":"cebpf4jnsgd1na2vs0mg"},{"bike_id":"464d87e3-0004-4dd8-b94c-6e23cec7a328","system_id":"levelo_inurba_marseille","lat":43.32039,"lon":5.4155,"is_reserved":false,"is_disabled":false,"rental_uris":{"android":"levelo://app?vid=464d87e3-0004-4dd8-b94c-6e23cec7a328","ios":"levelo://app?vid=464d87e3-0004-4dd8-b94c-6e23cec7a328"},"vehicle_type_id":"4","last_reported":1726337441,"current_range_meters":34800,"station_id":"ce4bhq92rcd13ifvqhkg","pricing_plan_id":"cebpf4jnsgd1na2vs0mg"},{"bike_id":"a526a129-c4b0-4654-8d09-c72fc09cf37d","system_id":"levelo_inurba_marseille","lat":43.2318,"lon":5.39988,"is_reserved":false,"is_disabled":false,"rental_uris":{"android":"levelo://app?vid=a526a129-c4b0-4654-8d09-c72fc09cf37d","ios":"levelo://app?vid=a526a129-c4b0-4654-8d09-c72fc09cf37d"},"vehicle_type_id":"4","last_reported":1726337441,"current_range_meters":37600,"station_id":"ce4bhn12rcd13ifvqgqg","pricing_plan_id":"cebpf4jnsgd1na2vs0mg"},{"bike_id":"ee5c26be-f4ef-4d60-a9c2-f50b84d28b2e","system_id":"levelo_inurba_marseille","lat":43.24069,"lon":5.37764,"is_reserved":false,"is_disabled":false,"rental_uris":{"android":"levelo://app?vid=ee5c26be-f4ef-4d60-a9c2-f50b84d28b2e","ios":"levelo://app?vid=ee5c26be-f4ef-4d60-a9c2-f50b84d28b2e"},"vehicle_type_id":"4","last_reported":1726337441,"current_range_meters":6400,"station_id":"ce4bhnp2rcd13ifvqgvg","pricing_plan_id":"cebpf4jnsgd1na2vs0mg"},{"bike_id":"b645ac77-0d58-4fa9-8ad3-947af8bdb1d9","system_id":"levelo_inurba_marseille","lat":43.29895,"lon":5.43661,"is_reserved":false,"is_disabled":false,"rental_uris":{"android":"levelo://app?vid=b645ac77-0d58-4fa9-8ad3-947af8bdb1d9","ios":"levelo://app?vid=b645ac77-0d58-4fa9-8ad3-947af8bdb1d9"},"vehicle_type_id":"4","last_reported":1726337441,"current_range_meters":37600,"station_id":"ce4bhpp2rcd13ifvqhfg","pricing_plan_id":"cebpf4jnsgd1na2vs0mg"},{"bike_id":"a5678295-0458-4f6d-9ccb-6897bde67101","system_id":"levelo_inurba_marseille","lat":43.2417,"lon":5.36401,"is_reserved":false,"is_disabled":false,"rental_uris":{"android":"levelo://app?vid=a5678295-0458-4f6d-9ccb-6897bde67101","ios":"levelo://app?vid=a5678295-0458-4f6d-9ccb-6897bde67101"},"vehicle_type_id":"4","last_reported":1726337441,"current_range_meters":38800,"station_id":"cpo36qri1sfpv3e86is0","pricing_plan_id":"cebpf4jnsgd1na2vs0mg"},{"bike_id":"91d155a1-0e95-42f4-9cf2-24e586735a13","system_id":"levelo_inurba_marseille","lat":43.33718,"lon":5.39187,"is_reserved":false,"is_disabled":false,"rental_uris":{"android":"levelo://app?vid=91d155a1-0e95-42f4-9cf2-24e586735a13","ios":"levelo://app?vid=91d155a1-0e95-42f4-9cf2-24e586735a13"},"vehicle_type_id":"4","last_reported":1726337441,"current_range_meters":38800,"station_id":"ce4bhr92rcd13ifvqhsg","pricing_plan_id":"cebpf4jnsgd1na2vs0mg"},{"bike_id":"64916f09-68cd-4f29-b83b-a988dd74575d","system_id":"levelo_inurba_marseille","lat":43.2603,"lon":5.37575,"is_reserved":false,"is_disabled":false,"rental_uris":{"android":"levelo://app?vid=64916f09-68cd-4f29-b83b-a988dd74575d","ios":"levelo://app?vid=64916f09-68cd-4f29-b83b-a988dd74575d"},"vehicle_type_id":"4","last_reported":1726337441,"current_range_meters":38800,"station_id":"ce4bhgh2rcd13ifvqfa0","pricing_plan_id":"cebpf4jnsgd1na2vs0mg"},{"bike_id":"c11f97d6-87cf-4460-8a76-9af979a978f6","system_id":"levelo_inurba_marseille","lat":43.285034,"lon":5.385615,"is_reserved":false,"is_disabled":false,"rental_uris":{"android":"levelo://app?vid=c11f97d6-87cf-4460-8a76-9af979a978f6","ios":"levelo://app?vid=c11f97d6-87cf-4460-8a76-9af979a978f6"},"vehicle_type_id":"4","last_reported":1726337441,"current_range_meters":7200,"station_id":"ce4bh8p2rcd13ifvqeb0","pricing_plan_id":"cebpf4jnsgd1na2vs0mg"},{"bike_id":"e1b60fc3-f27f-4eb3-9cc1-d44fe0e7903f","system_id":"levelo_inurba_marseille","lat":43.28934,"lon":5.3664,"is_reserved":false,"is_disabled":false,"rental_uris":{"android":"levelo://app?vid=e1b60fc3-f27f-4eb3-9cc1-d44fe0e7903f","ios":"levelo://app?vid=e1b60fc3-f27f-4eb3-9cc1-d44fe0e7903f"},"vehicle_type_id":"4","last_reported":1726337441,"current_range_meters":4000,"station_id":"ce4bhap2rcd13ifvqek0","pricing_plan_id":"cebpf4jnsgd1na2vs0mg"},{"bike_id":"4123515d-635a-4a62-9f56-c2589ef20496","system_id":"levelo_inurba_marseille","lat":43.29894,"lon":5.43669,"is_reserved":false,"is_disabled":false,"rental_uris":{"android":"levelo://app?vid=4123515d-635a-4a62-9f56-c2589ef20496","ios":"levelo://app?vid=4123515d-635a-4a62-9f56-c2589ef20496"},"vehicle_type_id":"4","last_reported":1726337441,"current_range_meters":38400,"station_id":"ce4bhpp2rcd13ifvqhfg","pricing_plan_id":"cebpf4jnsgd1na2vs0mg"},{"bike_id":"e49ae063-fc4e-4556-9aa6-c0a76332277b","system_id":"levelo_inurba_marseille","lat":43.30614,"lon":5.37232,"is_reserved":false,"is_disabled":false,"rental_uris":{"android":"levelo://app?vid=e49ae063-fc4e-4556-9aa6-c0a76332277b","ios":"levelo://app?vid=e49ae063-fc4e-4556-9aa6-c0a76332277b"},"vehicle_type_id":"4","last_reported":1726337441,"current_range_meters":38800,"station_id":"ce4bgqh2rcd13ifvqc4g","pricing_plan_id":"cebpf4jnsgd1na2vs0mg"},{"bike_id":"4bcc1131-b22c-40ad-a6cd-8ccb58188991","system_id":"levelo_inurba_marseille","lat":43.28267,"lon":5.35085,"is_reserved":false,"is_disabled":false,"rental_uris":{"android":"levelo://app?vid=4bcc1131-b22c-40ad-a6cd-8ccb58188991","ios":"levelo://app?vid=4bcc1131-b22c-40ad-a6cd-8ccb58188991"},"vehicle_type_id":"4","last_reported":1726337441,"current_range_meters":38800,"station_id":"ce4bhbp2rcd13ifvqerg","pricing_plan_id":"cebpf4jnsgd1na2vs0mg"},{"bike_id":"bbd2450a-84a7-42e1-bc94-af6bf7be8eb5","system_id":"levelo_inurba_marseille","lat":43.33025,"lon":5.39045,"is_reserved":false,"is_disabled":false,"rental_uris":{"android":"levelo://app?vid=bbd2450a-84a7-42e1-bc94-af6bf7be8eb5","ios":"levelo://app?vid=bbd2450a-84a7-42e1-bc94-af6bf7be8eb5"},"vehicle_type_id":"4","last_reported":1726337441,"current_range_meters":36800,"station_id":"ce4bhr92rcd13ifvqhrg","pricing_plan_id":"cebpf4jnsgd1na2vs0mg"},{"bike_id":"7c40a855-5515-4099-bea7-cc9dbe12356e","system_id":"levelo_inurba_marseille","lat":43.31484,"lon":5.37309,"is_reserved":false,"is_disabled":false,"rental_uris":{"android":"levelo://app?vid=7c40a855-5515-4099-bea7-cc9dbe12356e","ios":"levelo://app?vid=7c40a855-5515-4099-bea7-cc9dbe12356e"},"vehicle_type_id":"4","last_reported":1726337441,"current_range_meters":11600,"station_id":"ce4bgt12rcd13ifvqcd0","pricing_plan_id":"cebpf4jnsgd1na2vs0mg"},{"bike_id":"d4156f44-54d8-4ed3-8854-a9b62bd214ee","system_id":"levelo_inurba_marseille","lat":43.29001,"lon":5.35609,"is_reserved":false,"is_disabled":false,"rental_uris":{"android":"levelo://app?vid=d4156f44-54d8-4ed3-8854-a9b62bd214ee","ios":"levelo://app?vid=d4156f44-54d8-4ed3-8854-a9b62bd214ee"},"vehicle_type_id":"4","last_reported":1726337441,"current_range_meters":3200,"station_id":"ce4bhb92rcd13ifvqen0","pricing_plan_id":"cebpf4jnsgd1na2vs0mg"},{"bike_id":"552ccea4-a0ab-4fa2-9015-1ea8da64cd61","system_id":"levelo_inurba_marseille","lat":43.25577,"lon":5.38231,"is_reserved":false,"is_disabled":false,"rental_uris":{"android":"levelo://app?vid=552ccea4-a0ab-4fa2-9015-1ea8da64cd61","ios":"levelo://app?vid=552ccea4-a0ab-4fa2-9015-1ea8da64cd61"},"vehicle_type_id":"4","last_reported":1726337441,"current_range_meters":5600,"station_id":"ce4bhih2rcd13ifvqfs0","pricing_plan_id":"cebpf4jnsgd1na2vs0mg"},{"bike_id":"9e387dcd-bbdf-4c7e-affd-5dd769cfccf4","system_id":"levelo_inurba_marseille","lat":43.33021,"lon":5.39043,"is_reserved":false,"is_disabled":false,"rental_uris":{"android":"levelo://app?vid=9e387dcd-bbdf-4c7e-affd-5dd769cfccf4","ios":"levelo://app?vid=9e387dcd-bbdf-4c7e-affd-5dd769cfccf4"},"vehicle_type_id":"4","last_reported":1726337441,"current_range_meters":2000,"station_id":"ce4bhr92rcd13ifvqhrg","pricing_plan_id":"cebpf4jnsgd1na2vs0mg"},{"bike_id":"462d8d65-aff8-460b-a7c0-155fba5b151d","system_id":"levelo_inurba_marseille","lat":43.295267,"lon":5.394037,"is_reserved":false,"is_disabled":false,"rental_uris":{"android":"levelo://app?vid=462d8d65-aff8-460b-a7c0-155fba5b151d","ios":"levelo://app?vid=462d8d65-aff8-460b-a7c0-155fba5b151d"},"vehicle_type_id":"4","last_reported":1726337441,"current_range_meters":7200,"station_id":"ce4bh292rcd13ifvqdf0","pricing_plan_id":"cebpf4jnsgd1na2vs0mg"},{"bike_id":"d761ea0e-244b-498e-ab9f-90781e474447","system_id":"levelo_inurba_marseille","lat":43.295973,"lon":5.39977,"is_reserved":false,"is_disabled":false,"rental_uris":{"android":"levelo://app?vid=d761ea0e-244b-498e-ab9f-90781e474447","ios":"levelo://app?vid=d761ea0e-244b-498e-ab9f-90781e474447"},"vehicle_type_id":"4","last_reported":1726337441,"current_range_meters":4800,"station_id":"ce4bh312rcd13ifvqdj0","pricing_plan_id":"cebpf4jnsgd1na2vs0mg"},{"bike_id":"84a8a0a5-ea13-47c5-bd4d-0bb60cf75cb5","system_id":"levelo_inurba_marseille","lat":43.24667,"lon":5.38162,"is_reserved":false,"is_disabled":false,"rental_uris":{"android":"levelo://app?vid=84a8a0a5-ea13-47c5-bd4d-0bb60cf75cb5","ios":"levelo://app?vid=84a8a0a5-ea13-47c5-bd4d-0bb60cf75cb5"},"vehicle_type_id":"4","last_reported":1726337441,"current_range_meters":40000,"station_id":"ce4bhih2rcd13ifvqfr0","pricing_plan_id":"cebpf4jnsgd1na2vs0mg"},{"bike_id":"7251d55d-befd-400d-90d9-ab0b68ba8caa","system_id":"levelo_inurba_marseille","lat":43.24811,"lon":5.37455,"is_reserved":false,"is_disabled":false,"rental_uris":{"android":"levelo://app?vid=7251d55d-befd-400d-90d9-ab0b68ba8caa","ios":"levelo://app?vid=7251d55d-befd-400d-90d9-ab0b68ba8caa"},"vehicle_type_id":"4","last_reported":1726337441,"current_range_meters":31200,"station_id":"ce4bhgh2rcd13ifvqfb0","pricing_plan_id":"cebpf4jnsgd1na2vs0mg"},{"bike_id":"53a2d874-293d-47cc-bdbd-a03b3468623b","system_id":"levelo_inurba_marseille","lat":43.29908,"lon":5.4368,"is_reserved":false,"is_disabled":false,"rental_uris":{"android":"levelo://app?vid=53a2d874-293d-47cc-bdbd-a03b3468623b","ios":"levelo://app?vid=53a2d874-293d-47cc-bdbd-a03b3468623b"},"vehicle_type_id":"4","last_reported":1726337441,"current_range_meters":8400,"station_id":"ce4bhpp2rcd13ifvqhfg","pricing_plan_id":"cebpf4jnsgd1na2vs0mg"},{"bike_id":"72dd1fb5-d98b-4456-b609-db92ba0b0d5e","system_id":"levelo_inurba_marseille","lat":43.30389,"lon":5.38927,"is_reserved":false,"is_disabled":false,"rental_uris":{"android":"levelo://app?vid=72dd1fb5-d98b-4456-b609-db92ba0b0d5e","ios":"levelo://app?vid=72dd1fb5-d98b-4456-b609-db92ba0b0d5e"},"vehicle_type_id":"4","last_reported":1726337441,"current_range_meters":12800,"station_id":"ce4bgi12rcd13ifvqb70","pricing_plan_id":"cebpf4jnsgd1na2vs0mg"},{"bike_id":"4e29c809-0f62-4eeb-ba58-2308ea3a5e76","system_id":"levelo_inurba_marseille","lat":43.26491,"lon":5.39549,"is_reserved":false,"is_disabled":false,"rental_uris":{"android":"levelo://app?vid=4e29c809-0f62-4eeb-ba58-2308ea3a5e76","ios":"levelo://app?vid=4e29c809-0f62-4eeb-ba58-2308ea3a5e76"},"vehicle_type_id":"4","last_reported":1726337441,"current_range_meters":2800,"station_id":"ce4bhi12rcd13ifvqfq0","pricing_plan_id":"cebpf4jnsgd1na2vs0mg"},{"bike_id":"bb7acf50-b6bc-4b2d-adf4-833abc23b24c","system_id":"levelo_inurba_marseille","lat":43.23195,"lon":5.35546,"is_reserved":false,"is_disabled":false,"rental_uris":{"android":"levelo://app?vid=bb7acf50-b6bc-4b2d-adf4-833abc23b24c","ios":"levelo://app?vid=bb7acf50-b6bc-4b2d-adf4-833abc23b24c"},"vehicle_type_id":"4","last_reported":1726337441,"current_range_meters":38800,"station_id":"ce4bhu92rcd13ifvqi70","pricing_plan_id":"cebpf4jnsgd1na2vs0mg"},{"bike_id":"f6de5503-3f64-4c45-a987-7e74ca5c7044","system_id":"levelo_inurba_marseille","lat":43.24169,"lon":5.36399,"is_reserved":false,"is_disabled":false,"rental_uris":{"android":"levelo://app?vid=f6de5503-3f64-4c45-a987-7e74ca5c7044","ios":"levelo://app?vid=f6de5503-3f64-4c45-a987-7e74ca5c7044"},"vehicle_type_id":"4","last_reported":1726337441,"current_range_meters":29600,"station_id":"cpo36qri1sfpv3e86is0","pricing_plan_id":"cebpf4jnsgd1na2vs0mg"},{"bike_id":"bc8be1fd-7bee-49c5-817c-184bdd69b536","system_id":"levelo_inurba_marseille","lat":43.27374,"lon":5.41942,"is_reserved":false,"is_disabled":false,"rental_uris":{"android":"levelo://app?vid=bc8be1fd-7bee-49c5-817c-184bdd69b536","ios":"levelo://app?vid=bc8be1fd-7bee-49c5-817c-184bdd69b536"},"vehicle_type_id":"4","last_reported":1726337441,"current_range_meters":30000,"station_id":"","pricing_plan_id":"cebpf4jnsgd1na2vs0mg"},{"bike_id":"f7c9731b-1b41-4fa8-83aa-686419453b3a","system_id":"levelo_inurba_marseille","lat":43.31716,"lon":5.42401,"is_reserved":false,"is_disabled":false,"rental_uris":{"android":"levelo://app?vid=f7c9731b-1b41-4fa8-83aa-686419453b3a","ios":"levelo://app?vid=f7c9731b-1b41-4fa8-83aa-686419453b3a"},"vehicle_type_id":"4","last_reported":1726337441,"current_range_meters":21600,"station_id":"ce4bhp92rcd13ifvqhbg","pricing_plan_id":"cebpf4jnsgd1na2vs0mg"},{"bike_id":"632de835-3430-40ed-ac94-819588647085","system_id":"levelo_inurba_marseille","lat":43.24824,"lon":5.37468,"is_reserved":false,"is_disabled":false,"rental_uris":{"android":"levelo://app?vid=632de835-3430-40ed-ac94-819588647085","ios":"levelo://app?vid=632de835-3430-40ed-ac94-819588647085"},"vehicle_type_id":"4","last_reported":1726337441,"current_range_meters":38400,"station_id":"","pricing_plan_id":"cebpf4jnsgd1na2vs0mg"},{"bike_id":"35995940-7b98-4d39-98e0-d8b5928519ea","system_id":"levelo_inurba_marseille","lat":43.29198,"lon":5.39324,"is_reserved":false,"is_disabled":false,"rental_uris":{"android":"levelo://app?vid=35995940-7b98-4d39-98e0-d8b5928519ea","ios":"levelo://app?vid=35995940-7b98-4d39-98e0-d8b5928519ea"},"vehicle_type_id":"4","last_reported":1726337441,"current_range_meters":18000,"station_id":"ce4bh192rcd13ifvqdd0","pricing_plan_id":"cebpf4jnsgd1na2vs0mg"},{"bike_id":"bb046787-1b6f-4a52-9f6c-67f38be48f9e","system_id":"levelo_inurba_marseille","lat":43.24546,"lon":5.39526,"is_reserved":false,"is_disabled":false,"rental_uris":{"android":"levelo://app?vid=bb046787-1b6f-4a52-9f6c-67f38be48f9e","ios":"levelo://app?vid=bb046787-1b6f-4a52-9f6c-67f38be48f9e"},"vehicle_type_id":"4","last_reported":1726337441,"current_range_meters":35600,"station_id":"ce4bhlp2rcd13ifvqgjg","pricing_plan_id":"cebpf4jnsgd1na2vs0mg"},{"bike_id":"8a0cf167-06db-4298-bd5a-ed341e2d94a3","system_id":"levelo_inurba_marseille","lat":43.29868,"lon":5.39738,"is_reserved":false,"is_disabled":false,"rental_uris":{"android":"levelo://app?vid=8a0cf167-06db-4298-bd5a-ed341e2d94a3","ios":"levelo://app?vid=8a0cf167-06db-4298-bd5a-ed341e2d94a3"},"vehicle_type_id":"4","last_reported":1726337441,"current_range_meters":2000,"station_id":"ce4bh0h2rcd13ifvqd50","pricing_plan_id":"cebpf4jnsgd1na2vs0mg"},{"bike_id":"ca8b781d-5570-42de-a0a3-9f5f0f5b8a37","system_id":"levelo_inurba_marseille","lat":43.284667,"lon":5.358865,"is_reserved":false,"is_disabled":false,"rental_uris":{"android":"levelo://app?vid=ca8b781d-5570-42de-a0a3-9f5f0f5b8a37","ios":"levelo://app?vid=ca8b781d-5570-42de-a0a3-9f5f0f5b8a37"},"vehicle_type_id":"4","last_reported":1726337441,"current_range_meters":39200,"station_id":"ce4bhah2rcd13ifvqei0","pricing_plan_id":"cebpf4jnsgd1na2vs0mg"},{"bike_id":"026a8105-a313-4bd8-96fb-a8d6d1b140a9","system_id":"levelo_inurba_marseille","lat":43.23204,"lon":5.35554,"is_reserved":false,"is_disabled":false,"rental_uris":{"android":"levelo://app?vid=026a8105-a313-4bd8-96fb-a8d6d1b140a9","ios":"levelo://app?vid=026a8105-a313-4bd8-96fb-a8d6d1b140a9"},"vehicle_type_id":"4","last_reported":1726337441,"current_range_meters":37600,"station_id":"ce4bhu92rcd13ifvqi70","pricing_plan_id":"cebpf4jnsgd1na2vs0mg"},{"bike_id":"0164e8dd-964f-4570-9cd0-b5b47aa92e22","system_id":"levelo_inurba_marseille","lat":43.30367,"lon":5.36505,"is_reserved":false,"is_disabled":false,"rental_uris":{"android":"levelo://app?vid=0164e8dd-964f-4570-9cd0-b5b47aa92e22","ios":"levelo://app?vid=0164e8dd-964f-4570-9cd0-b5b47aa92e22"},"vehicle_type_id":"4","last_reported":1726337441,"current_range_meters":9200,"station_id":"","pricing_plan_id":"cebpf4jnsgd1na2vs0mg"},{"bike_id":"222f2b0e-e4dd-4b99-9176-959ce73d437a","system_id":"levelo_inurba_marseille","lat":43.24476,"lon":5.39041,"is_reserved":false,"is_disabled":false,"rental_uris":{"android":"levelo://app?vid=222f2b0e-e4dd-4b99-9176-959ce73d437a","ios":"levelo://app?vid=222f2b0e-e4dd-4b99-9176-959ce73d437a"},"vehicle_type_id":"4","last_reported":1726337441,"current_range_meters":15200,"station_id":"","pricing_plan_id":"cebpf4jnsgd1na2vs0mg"},{"bike_id":"ccc81115-c769-40cb-a420-a414e3f0cc3b","system_id":"levelo_inurba_marseille","lat":43.24393,"lon":5.37064,"is_reserved":false,"is_disabled":false,"rental_uris":{"android":"levelo://app?vid=ccc81115-c769-40cb-a420-a414e3f0cc3b","ios":"levelo://app?vid=ccc81115-c769-40cb-a420-a414e3f0cc3b"},"vehicle_type_id":"4","last_reported":1726337441,"current_range_meters":38800,"station_id":"ce4bhhh2rcd13ifvqfk0","pricing_plan_id":"cebpf4jnsgd1na2vs0mg"},{"bike_id":"6229a65c-3dba-4c5d-9e6b-96094c0c07c5","system_id":"levelo_inurba_marseille","lat":43.28714,"lon":5.399998,"is_reserved":false,"is_disabled":false,"rental_uris":{"android":"levelo://app?vid=6229a65c-3dba-4c5d-9e6b-96094c0c07c5","ios":"levelo://app?vid=6229a65c-3dba-4c5d-9e6b-96094c0c07c5"},"vehicle_type_id":"4","last_reported":1726337441,"current_range_meters":38800,"station_id":"ce4bho92rcd13ifvqh3g","pricing_plan_id":"cebpf4jnsgd1na2vs0mg"},{"bike_id":"1b98e7ed-63f6-42ff-9624-1f5d4feba278","system_id":"levelo_inurba_marseille","lat":43.272102,"lon":5.391849,"is_reserved":false,"is_disabled":false,"rental_uris":{"android":"levelo://app?vid=1b98e7ed-63f6-42ff-9624-1f5d4feba278","ios":"levelo://app?vid=1b98e7ed-63f6-42ff-9624-1f5d4feba278"},"vehicle_type_id":"4","last_reported":1726337441,"current_range_meters":30800,"station_id":"ce4bhhp2rcd13ifvqfm0","pricing_plan_id":"cebpf4jnsgd1na2vs0mg"},{"bike_id":"d725d647-419f-4111-85f3-247c95251475","system_id":"levelo_inurba_marseille","lat":43.25722,"lon":5.41115,"is_reserved":false,"is_disabled":false,"rental_uris":{"android":"levelo://app?vid=d725d647-419f-4111-85f3-247c95251475","ios":"levelo://app?vid=d725d647-419f-4111-85f3-247c95251475"},"vehicle_type_id":"4","last_reported":1726337441,"current_range_meters":28000,"station_id":"ce4bhkp2rcd13ifvqgd0","pricing_plan_id":"cebpf4jnsgd1na2vs0mg"},{"bike_id":"e5bfc306-88a2-4918-8129-abd48e2d2244","system_id":"levelo_inurba_marseille","lat":43.29194,"lon":5.39319,"is_reserved":false,"is_disabled":false,"rental_uris":{"android":"levelo://app?vid=e5bfc306-88a2-4918-8129-abd48e2d2244","ios":"levelo://app?vid=e5bfc306-88a2-4918-8129-abd48e2d2244"},"vehicle_type_id":"4","last_reported":1726337441,"current_range_meters":5600,"station_id":"ce4bh192rcd13ifvqdd0","pricing_plan_id":"cebpf4jnsgd1na2vs0mg"},{"bike_id":"6d2f1fdf-ef85-4dbc-b421-2602e9d32ca8","system_id":"levelo_inurba_marseille","lat":43.25931,"lon":5.40911,"is_reserved":false,"is_disabled":false,"rental_uris":{"android":"levelo://app?vid=6d2f1fdf-ef85-4dbc-b421-2602e9d32ca8","ios":"levelo://app?vid=6d2f1fdf-ef85-4dbc-b421-2602e9d32ca8"},"vehicle_type_id":"4","last_reported":1726337441,"current_range_meters":24800,"station_id":"ce4bhm92rcd13ifvqglg","pricing_plan_id":"cebpf4jnsgd1na2vs0mg"},{"bike_id":"4fc9ae0d-dbfc-477d-9ec0-1cc05fb106ff","system_id":"levelo_inurba_marseille","lat":43.29438,"lon":5.39754,"is_reserved":false,"is_disabled":false,"rental_uris":{"android":"levelo://app?vid=4fc9ae0d-dbfc-477d-9ec0-1cc05fb106ff","ios":"levelo://app?vid=4fc9ae0d-dbfc-477d-9ec0-1cc05fb106ff"},"vehicle_type_id":"4","last_reported":1726337441,"current_range_meters":19200,"station_id":"ce4bh3h2rcd13ifvqdo0","pricing_plan_id":"cebpf4jnsgd1na2vs0mg"},{"bike_id":"d09aedb3-0212-456b-a0d7-0a019f75665d","system_id":"levelo_inurba_marseille","lat":43.23153,"lon":5.43707,"is_reserved":false,"is_disabled":false,"rental_uris":{"android":"levelo://app?vid=d09aedb3-0212-456b-a0d7-0a019f75665d","ios":"levelo://app?vid=d09aedb3-0212-456b-a0d7-0a019f75665d"},"vehicle_type_id":"4","last_reported":1726337441,"current_range_meters":38800,"station_id":"ce4bhmp2rcd13ifvqgog","pricing_plan_id":"cebpf4jnsgd1na2vs0mg"},{"bike_id":"721d9eb9-6061-4f1e-847d-0cd924d3fd6f","system_id":"levelo_inurba_marseille","lat":43.284,"lon":5.37526,"is_reserved":false,"is_disabled":false,"rental_uris":{"android":"levelo://app?vid=721d9eb9-6061-4f1e-847d-0cd924d3fd6f","ios":"levelo://app?vid=721d9eb9-6061-4f1e-847d-0cd924d3fd6f"},"vehicle_type_id":"4","last_reported":1726337441,"current_range_meters":32000,"station_id":"ce4bh412rcd13ifvqds0","pricing_plan_id":"cebpf4jnsgd1na2vs0mg"},{"bike_id":"02269f0e-1758-473f-8a5c-764f1ddf9ddc","system_id":"levelo_inurba_marseille","lat":43.23181,"lon":5.39985,"is_reserved":false,"is_disabled":false,"rental_uris":{"android":"levelo://app?vid=02269f0e-1758-473f-8a5c-764f1ddf9ddc","ios":"levelo://app?vid=02269f0e-1758-473f-8a5c-764f1ddf9ddc"},"vehicle_type_id":"4","last_reported":1726337441,"current_range_meters":38800,"station_id":"ce4bhn12rcd13ifvqgqg","pricing_plan_id":"cebpf4jnsgd1na2vs0mg"},{"bike_id":"43412657-8f93-44d7-90fb-da7639962547","system_id":"levelo_inurba_marseille","lat":43.33715,"lon":5.39186,"is_reserved":false,"is_disabled":false,"rental_uris":{"android":"levelo://app?vid=43412657-8f93-44d7-90fb-da7639962547","ios":"levelo://app?vid=43412657-8f93-44d7-90fb-da7639962547"},"vehicle_type_id":"4","last_reported":1726337441,"current_range_meters":25200,"station_id":"ce4bhr92rcd13ifvqhsg","pricing_plan_id":"cebpf4jnsgd1na2vs0mg"},{"bike_id":"046e59b4-d54c-484d-8e6f-09e47c9c6718","system_id":"levelo_inurba_marseille","lat":43.302515,"lon":5.400711,"is_reserved":false,"is_disabled":false,"rental_uris":{"android":"levelo://app?vid=046e59b4-d54c-484d-8e6f-09e47c9c6718","ios":"levelo://app?vid=046e59b4-d54c-484d-8e6f-09e47c9c6718"},"vehicle_type_id":"4","last_reported":1726337441,"current_range_meters":38800,"station_id":"ce4bgvh2rcd13ifvqcs0","pricing_plan_id":"cebpf4jnsgd1na2vs0mg"},{"bike_id":"d9dbb806-ccee-4134-8088-810ae17fc0e9","system_id":"levelo_inurba_marseille","lat":43.27908,"lon":5.38014,"is_reserved":false,"is_disabled":false,"rental_uris":{"android":"levelo://app?vid=d9dbb806-ccee-4134-8088-810ae17fc0e9","ios":"levelo://app?vid=d9dbb806-ccee-4134-8088-810ae17fc0e9"},"vehicle_type_id":"4","last_reported":1726337441,"current_range_meters":24400,"station_id":"ce4bhf92rcd13ifvqf50","pricing_plan_id":"cebpf4jnsgd1na2vs0mg"},{"bike_id":"41cca266-e667-4830-8b41-bdadae2e472f","system_id":"levelo_inurba_marseille","lat":43.24807,"lon":5.37453,"is_reserved":false,"is_disabled":false,"rental_uris":{"android":"levelo://app?vid=41cca266-e667-4830-8b41-bdadae2e472f","ios":"levelo://app?vid=41cca266-e667-4830-8b41-bdadae2e472f"},"vehicle_type_id":"4","last_reported":1726337441,"current_range_meters":24400,"station_id":"ce4bhgh2rcd13ifvqfb0","pricing_plan_id":"cebpf4jnsgd1na2vs0mg"},{"bike_id":"fc724803-b4bd-41a5-ab10-84ecc0c9afb8","system_id":"levelo_inurba_marseille","lat":43.28467,"lon":5.38433,"is_reserved":false,"is_disabled":false,"rental_uris":{"android":"levelo://app?vid=fc724803-b4bd-41a5-ab10-84ecc0c9afb8","ios":"levelo://app?vid=fc724803-b4bd-41a5-ab10-84ecc0c9afb8"},"vehicle_type_id":"4","last_reported":1726337441,"current_range_meters":18000,"station_id":"ce4bh512rcd13ifvqe3g","pricing_plan_id":"cebpf4jnsgd1na2vs0mg"},{"bike_id":"61e00977-be43-400f-99ea-3c33330f7657","system_id":"levelo_inurba_marseille","lat":43.25009,"lon":5.38913,"is_reserved":false,"is_disabled":false,"rental_uris":{"android":"levelo://app?vid=61e00977-be43-400f-99ea-3c33330f7657","ios":"levelo://app?vid=61e00977-be43-400f-99ea-3c33330f7657"},"vehicle_type_id":"4","last_reported":1726337441,"current_range_meters":18000,"station_id":"ce4bhgp2rcd13ifvqfd0","pricing_plan_id":"cebpf4jnsgd1na2vs0mg"},{"bike_id":"d1f38fcd-be46-4877-a9ac-34b365272c30","system_id":"levelo_inurba_marseille","lat":43.27105,"lon":5.43316,"is_reserved":false,"is_disabled":false,"rental_uris":{"android":"levelo://app?vid=d1f38fcd-be46-4877-a9ac-34b365272c30","ios":"levelo://app?vid=d1f38fcd-be46-4877-a9ac-34b365272c30"},"vehicle_type_id":"4","last_reported":1726337441,"current_range_meters":31200,"station_id":"","pricing_plan_id":"cebpf4jnsgd1na2vs0mg"},{"bike_id":"e27ff86c-4b9f-4a50-859e-90350c57fc40","system_id":"levelo_inurba_marseille","lat":43.276184,"lon":5.36104,"is_reserved":false,"is_disabled":false,"rental_uris":{"android":"levelo://app?vid=e27ff86c-4b9f-4a50-859e-90350c57fc40","ios":"levelo://app?vid=e27ff86c-4b9f-4a50-859e-90350c57fc40"},"vehicle_type_id":"4","last_reported":1726337441,"current_range_meters":16000,"station_id":"ce4bgj92rcd13ifvqbe0","pricing_plan_id":"cebpf4jnsgd1na2vs0mg"},{"bike_id":"f9076aec-56e7-4b2e-a7b1-575337aca9d5","system_id":"levelo_inurba_marseille","lat":43.24175,"lon":5.36401,"is_reserved":false,"is_disabled":false,"rental_uris":{"android":"levelo://app?vid=f9076aec-56e7-4b2e-a7b1-575337aca9d5","ios":"levelo://app?vid=f9076aec-56e7-4b2e-a7b1-575337aca9d5"},"vehicle_type_id":"4","last_reported":1726337441,"current_range_meters":31200,"station_id":"cpo36qri1sfpv3e86is0","pricing_plan_id":"cebpf4jnsgd1na2vs0mg"},{"bike_id":"a4f18687-e126-425b-b639-a942cceab9e8","system_id":"levelo_inurba_marseille","lat":43.24654,"lon":5.38895,"is_reserved":false,"is_disabled":false,"rental_uris":{"android":"levelo://app?vid=a4f18687-e126-425b-b639-a942cceab9e8","ios":"levelo://app?vid=a4f18687-e126-425b-b639-a942cceab9e8"},"vehicle_type_id":"4","last_reported":1726337441,"current_range_meters":24800,"station_id":"ce4bhg12rcd13ifvqf60","pricing_plan_id":"cebpf4jnsgd1na2vs0mg"},{"bike_id":"bcc03db8-ba4f-4e75-ac65-c7778a6b696a","system_id":"levelo_inurba_marseille","lat":43.25489,"lon":5.37649,"is_reserved":false,"is_disabled":false,"rental_uris":{"android":"levelo://app?vid=bcc03db8-ba4f-4e75-ac65-c7778a6b696a","ios":"levelo://app?vid=bcc03db8-ba4f-4e75-ac65-c7778a6b696a"},"vehicle_type_id":"4","last_reported":1726337441,"current_range_meters":8000,"station_id":"ce4bhh12rcd13ifvqff0","pricing_plan_id":"cebpf4jnsgd1na2vs0mg"},{"bike_id":"103cf9f9-2f0a-447b-a31f-dbd4bc9e6e95","system_id":"levelo_inurba_marseille","lat":43.29552,"lon":5.42277,"is_reserved":false,"is_disabled":false,"rental_uris":{"android":"levelo://app?vid=103cf9f9-2f0a-447b-a31f-dbd4bc9e6e95","ios":"levelo://app?vid=103cf9f9-2f0a-447b-a31f-dbd4bc9e6e95"},"vehicle_type_id":"4","last_reported":1726337441,"current_range_meters":38800,"station_id":"ce4bhph2rcd13ifvqhdg","pricing_plan_id":"cebpf4jnsgd1na2vs0mg"},{"bike_id":"7560168d-c555-4b8e-a518-1c66771c1c72","system_id":"levelo_inurba_marseille","lat":43.24178,"lon":5.39725,"is_reserved":false,"is_disabled":false,"rental_uris":{"android":"levelo://app?vid=7560168d-c555-4b8e-a518-1c66771c1c72","ios":"levelo://app?vid=7560168d-c555-4b8e-a518-1c66771c1c72"},"vehicle_type_id":"4","last_reported":1726337441,"current_range_meters":14000,"station_id":"ce4bhn12rcd13ifvqgpg","pricing_plan_id":"cebpf4jnsgd1na2vs0mg"},{"bike_id":"fcc1810a-9ff2-41c7-b13e-016a47a053a8","system_id":"levelo_inurba_marseille","lat":43.32338,"lon":5.40627,"is_reserved":false,"is_disabled":false,"rental_uris":{"android":"levelo://app?vid=fcc1810a-9ff2-41c7-b13e-016a47a053a8","ios":"levelo://app?vid=fcc1810a-9ff2-41c7-b13e-016a47a053a8"},"vehicle_type_id":"4","last_reported":1726337441,"current_range_meters":15200,"station_id":"ce4bhq92rcd13ifvqhjg","pricing_plan_id":"cebpf4jnsgd1na2vs0mg"},{"bike_id":"4e26d67f-3260-467d-88af-075a11ad36b7","system_id":"levelo_inurba_marseille","lat":43.29953,"lon":5.38482,"is_reserved":false,"is_disabled":false,"rental_uris":{"android":"levelo://app?vid=4e26d67f-3260-467d-88af-075a11ad36b7","ios":"levelo://app?vid=4e26d67f-3260-467d-88af-075a11ad36b7"},"vehicle_type_id":"4","last_reported":1726337441,"current_range_meters":10800,"station_id":"ce4bgj92rcd13ifvqbd0","pricing_plan_id":"cebpf4jnsgd1na2vs0mg"},{"bike_id":"e77295f3-a44f-483d-9697-a7f23b2e6b04","system_id":"levelo_inurba_marseille","lat":43.29224,"lon":5.36058,"is_reserved":false,"is_disabled":false,"rental_uris":{"android":"levelo://app?vid=e77295f3-a44f-483d-9697-a7f23b2e6b04","ios":"levelo://app?vid=e77295f3-a44f-483d-9697-a7f23b2e6b04"},"vehicle_type_id":"4","last_reported":1726337441,"current_range_meters":2000,"station_id":"ce4bhbh2rcd13ifvqeqg","pricing_plan_id":"cebpf4jnsgd1na2vs0mg"},{"bike_id":"c6096444-1dbe-4652-8375-831853cbcd2d","system_id":"levelo_inurba_marseille","lat":43.30276,"lon":5.37728,"is_reserved":false,"is_disabled":false,"rental_uris":{"android":"levelo://app?vid=c6096444-1dbe-4652-8375-831853cbcd2d","ios":"levelo://app?vid=c6096444-1dbe-4652-8375-831853cbcd2d"},"vehicle_type_id":"4","last_reported":1726337441,"current_range_meters":24000,"station_id":"ce4bguh2rcd13ifvqcj0","pricing_plan_id":"cebpf4jnsgd1na2vs0mg"},{"bike_id":"6559f69a-1220-4d87-94b9-2dcb26506bad","system_id":"levelo_inurba_marseille","lat":43.29613,"lon":5.37724,"is_reserved":false,"is_disabled":false,"rental_uris":{"android":"levelo://app?vid=6559f69a-1220-4d87-94b9-2dcb26506bad","ios":"levelo://app?vid=6559f69a-1220-4d87-94b9-2dcb26506bad"},"vehicle_type_id":"4","last_reported":1726337441,"current_range_meters":38000,"station_id":"ce4bgi92rcd13ifvqb90","pricing_plan_id":"cebpf4jnsgd1na2vs0mg"},{"bike_id":"2f1fdc39-a230-4f08-9be6-d0897f6ed057","system_id":"levelo_inurba_marseille","lat":43.262115,"lon":5.374444,"is_reserved":false,"is_disabled":false,"rental_uris":{"android":"levelo://app?vid=2f1fdc39-a230-4f08-9be6-d0897f6ed057","ios":"levelo://app?vid=2f1fdc39-a230-4f08-9be6-d0897f6ed057"},"vehicle_type_id":"4","last_reported":1726337441,"current_range_meters":3600,"station_id":"ce4bhbh2rcd13ifvqeo0","pricing_plan_id":"cebpf4jnsgd1na2vs0mg"},{"bike_id":"9634f69b-52f2-42cd-bdf4-d0f2648dd285","system_id":"levelo_inurba_marseille","lat":43.29866,"lon":5.38915,"is_reserved":false,"is_disabled":false,"rental_uris":{"android":"levelo://app?vid=9634f69b-52f2-42cd-bdf4-d0f2648dd285","ios":"levelo://app?vid=9634f69b-52f2-42cd-bdf4-d0f2648dd285"},"vehicle_type_id":"4","last_reported":1726337441,"current_range_meters":36000,"station_id":"ce4bh392rcd13ifvqdl0","pricing_plan_id":"cebpf4jnsgd1na2vs0mg"},{"bike_id":"801c4810-d9a3-4657-a303-58e59cf164f3","system_id":"levelo_inurba_marseille","lat":43.30884,"lon":5.39661,"is_reserved":false,"is_disabled":false,"rental_uris":{"android":"levelo://app?vid=801c4810-d9a3-4657-a303-58e59cf164f3","ios":"levelo://app?vid=801c4810-d9a3-4657-a303-58e59cf164f3"},"vehicle_type_id":"4","last_reported":1726337441,"current_range_meters":34000,"station_id":"ce4bh012rcd13ifvqcv0","pricing_plan_id":"cebpf4jnsgd1na2vs0mg"},{"bike_id":"34e6d016-51b7-4cb5-9bc5-8643fec160fd","system_id":"levelo_inurba_marseille","lat":43.28345,"lon":5.38119,"is_reserved":false,"is_disabled":false,"rental_uris":{"android":"levelo://app?vid=34e6d016-51b7-4cb5-9bc5-8643fec160fd","ios":"levelo://app?vid=34e6d016-51b7-4cb5-9bc5-8643fec160fd"},"vehicle_type_id":"4","last_reported":1726337441,"current_range_meters":7200,"station_id":"ce4bh412rcd13ifvqdr0","pricing_plan_id":"cebpf4jnsgd1na2vs0mg"},{"bike_id":"8ff1b66a-03ea-451a-9570-0acab0e95544","system_id":"levelo_inurba_marseille","lat":43.30532,"lon":5.38436,"is_reserved":false,"is_disabled":false,"rental_uris":{"android":"levelo://app?vid=8ff1b66a-03ea-451a-9570-0acab0e95544","ios":"levelo://app?vid=8ff1b66a-03ea-451a-9570-0acab0e95544"},"vehicle_type_id":"4","last_reported":1726337441,"current_range_meters":16000,"station_id":"ce4bgg92rcd13ifvqb30","pricing_plan_id":"cebpf4jnsgd1na2vs0mg"},{"bike_id":"511cb5b3-0238-4cd9-8e2a-27d487e338a0","system_id":"levelo_inurba_marseille","lat":43.29411,"lon":5.38632,"is_reserved":false,"is_disabled":false,"rental_uris":{"android":"levelo://app?vid=511cb5b3-0238-4cd9-8e2a-27d487e338a0","ios":"levelo://app?vid=511cb5b3-0238-4cd9-8e2a-27d487e338a0"},"vehicle_type_id":"4","last_reported":1726337441,"current_range_meters":31200,"station_id":"ce4bh2h2rcd13ifvqdh0","pricing_plan_id":"cebpf4jnsgd1na2vs0mg"},{"bike_id":"cee79c8b-e603-4703-ad93-d4bbc3766215","system_id":"levelo_inurba_marseille","lat":43.29781,"lon":5.38104,"is_reserved":false,"is_disabled":false,"rental_uris":{"android":"levelo://app?vid=cee79c8b-e603-4703-ad93-d4bbc3766215","ios":"levelo://app?vid=cee79c8b-e603-4703-ad93-d4bbc3766215"},"vehicle_type_id":"4","last_reported":1726337441,"current_range_meters":14000,"station_id":"ce4bgip2rcd13ifvqbb0","pricing_plan_id":"cebpf4jnsgd1na2vs0mg"},{"bike_id":"e45c06f9-ad71-4d8e-9ba1-661d1798f960","system_id":"levelo_inurba_marseille","lat":43.2572,"lon":5.41108,"is_reserved":false,"is_disabled":false,"rental_uris":{"android":"levelo://app?vid=e45c06f9-ad71-4d8e-9ba1-661d1798f960","ios":"levelo://app?vid=e45c06f9-ad71-4d8e-9ba1-661d1798f960"},"vehicle_type_id":"4","last_reported":1726337441,"current_range_meters":20400,"station_id":"ce4bhkp2rcd13ifvqgd0","pricing_plan_id":"cebpf4jnsgd1na2vs0mg"},{"bike_id":"eb10b036-7249-49cf-9050-8d49e3bc50ca","system_id":"levelo_inurba_marseille","lat":43.29612,"lon":5.3811,"is_reserved":false,"is_disabled":false,"rental_uris":{"android":"levelo://app?vid=eb10b036-7249-49cf-9050-8d49e3bc50ca","ios":"levelo://app?vid=eb10b036-7249-49cf-9050-8d49e3bc50ca"},"vehicle_type_id":"4","last_reported":1726337441,"current_range_meters":37600,"station_id":"ce4bgl12rcd13ifvqbo0","pricing_plan_id":"cebpf4jnsgd1na2vs0mg"},{"bike_id":"5bb9eeb2-9d6e-478b-9598-395ae66c9e19","system_id":"levelo_inurba_marseille","lat":43.25729,"lon":5.41112,"is_reserved":false,"is_disabled":false,"rental_uris":{"android":"levelo://app?vid=5bb9eeb2-9d6e-478b-9598-395ae66c9e19","ios":"levelo://app?vid=5bb9eeb2-9d6e-478b-9598-395ae66c9e19"},"vehicle_type_id":"4","last_reported":1726337441,"current_range_meters":4800,"station_id":"ce4bhkp2rcd13ifvqgd0","pricing_plan_id":"cebpf4jnsgd1na2vs0mg"},{"bike_id":"4252997a-048e-467d-b47c-5290f1fef794","system_id":"levelo_inurba_marseille","lat":43.245904,"lon":5.394723,"is_reserved":false,"is_disabled":false,"rental_uris":{"android":"levelo://app?vid=4252997a-048e-467d-b47c-5290f1fef794","ios":"levelo://app?vid=4252997a-048e-467d-b47c-5290f1fef794"},"vehicle_type_id":"4","last_reported":1726337441,"current_range_meters":16400,"station_id":"ce4bhlp2rcd13ifvqgjg","pricing_plan_id":"cebpf4jnsgd1na2vs0mg"},{"bike_id":"0ab7c6fd-bd9e-4598-bfb6-20e8b1a327be","system_id":"levelo_inurba_marseille","lat":43.27435,"lon":5.39408,"is_reserved":false,"is_disabled":false,"rental_uris":{"android":"levelo://app?vid=0ab7c6fd-bd9e-4598-bfb6-20e8b1a327be","ios":"levelo://app?vid=0ab7c6fd-bd9e-4598-bfb6-20e8b1a327be"},"vehicle_type_id":"4","last_reported":1726337441,"current_range_meters":39200,"station_id":"ce4bhdp2rcd13ifvqf20","pricing_plan_id":"cebpf4jnsgd1na2vs0mg"},{"bike_id":"328d45f9-980e-4811-97c0-47d761861509","system_id":"levelo_inurba_marseille","lat":43.29847,"lon":5.37836,"is_reserved":false,"is_disabled":false,"rental_uris":{"android":"levelo://app?vid=328d45f9-980e-4811-97c0-47d761861509","ios":"levelo://app?vid=328d45f9-980e-4811-97c0-47d761861509"},"vehicle_type_id":"4","last_reported":1726337441,"current_range_meters":31200,"station_id":"ce4bgkh2rcd13ifvqbl0","pricing_plan_id":"cebpf4jnsgd1na2vs0mg"},{"bike_id":"ebd918ba-9631-47ea-a027-a18a3189378c","system_id":"levelo_inurba_marseille","lat":43.24998,"lon":5.38938,"is_reserved":false,"is_disabled":false,"rental_uris":{"android":"levelo://app?vid=ebd918ba-9631-47ea-a027-a18a3189378c","ios":"levelo://app?vid=ebd918ba-9631-47ea-a027-a18a3189378c"},"vehicle_type_id":"4","last_reported":1726337441,"current_range_meters":14000,"station_id":"ce4bhgp2rcd13ifvqfd0","pricing_plan_id":"cebpf4jnsgd1na2vs0mg"},{"bike_id":"9ef74294-1e9f-40c9-b6de-b65562b51f9f","system_id":"levelo_inurba_marseille","lat":43.29553,"lon":5.42284,"is_reserved":false,"is_disabled":false,"rental_uris":{"android":"levelo://app?vid=9ef74294-1e9f-40c9-b6de-b65562b51f9f","ios":"levelo://app?vid=9ef74294-1e9f-40c9-b6de-b65562b51f9f"},"vehicle_type_id":"4","last_reported":1726337441,"current_range_meters":38800,"station_id":"ce4bhph2rcd13ifvqhdg","pricing_plan_id":"cebpf4jnsgd1na2vs0mg"},{"bike_id":"f38fcef7-e5a9-42bb-a5e4-73a108c8dea0","system_id":"levelo_inurba_marseille","lat":43.24664,"lon":5.3817,"is_reserved":false,"is_disabled":false,"rental_uris":{"android":"levelo://app?vid=f38fcef7-e5a9-42bb-a5e4-73a108c8dea0","ios":"levelo://app?vid=f38fcef7-e5a9-42bb-a5e4-73a108c8dea0"},"vehicle_type_id":"4","last_reported":1726337441,"current_range_meters":12800,"station_id":"ce4bhih2rcd13ifvqfr0","pricing_plan_id":"cebpf4jnsgd1na2vs0mg"},{"bike_id":"8b608b96-fedf-4511-8d4b-09bad2606e1a","system_id":"levelo_inurba_marseille","lat":43.27733,"lon":5.4113,"is_reserved":false,"is_disabled":false,"rental_uris":{"android":"levelo://app?vid=8b608b96-fedf-4511-8d4b-09bad2606e1a","ios":"levelo://app?vid=8b608b96-fedf-4511-8d4b-09bad2606e1a"},"vehicle_type_id":"4","last_reported":1726337441,"current_range_meters":25600,"station_id":"","pricing_plan_id":"cebpf4jnsgd1na2vs0mg"},{"bike_id":"0cd1c978-13e8-4405-af4b-07c5d83560a3","system_id":"levelo_inurba_marseille","lat":43.29904,"lon":5.43666,"is_reserved":false,"is_disabled":false,"rental_uris":{"android":"levelo://app?vid=0cd1c978-13e8-4405-af4b-07c5d83560a3","ios":"levelo://app?vid=0cd1c978-13e8-4405-af4b-07c5d83560a3"},"vehicle_type_id":"4","last_reported":1726337441,"current_range_meters":37600,"station_id":"ce4bhpp2rcd13ifvqhfg","pricing_plan_id":"cebpf4jnsgd1na2vs0mg"},{"bike_id":"446cb251-0763-431f-9adc-18c89be63a93","system_id":"levelo_inurba_marseille","lat":43.29524,"lon":5.39042,"is_reserved":false,"is_disabled":false,"rental_uris":{"android":"levelo://app?vid=446cb251-0763-431f-9adc-18c89be63a93","ios":"levelo://app?vid=446cb251-0763-431f-9adc-18c89be63a93"},"vehicle_type_id":"4","last_reported":1726337441,"current_range_meters":38800,"station_id":"ce4bh3p2rcd13ifvqdp0","pricing_plan_id":"cebpf4jnsgd1na2vs0mg"},{"bike_id":"65105241-d2ff-42ab-93c5-4cfc400b01d5","system_id":"levelo_inurba_marseille","lat":43.29263,"lon":5.38438,"is_reserved":false,"is_disabled":false,"rental_uris":{"android":"levelo://app?vid=65105241-d2ff-42ab-93c5-4cfc400b01d5","ios":"levelo://app?vid=65105241-d2ff-42ab-93c5-4cfc400b01d5"},"vehicle_type_id":"4","last_reported":1726337441,"current_range_meters":13600,"station_id":"ce4bh692rcd13ifvqea0","pricing_plan_id":"cebpf4jnsgd1na2vs0mg"},{"bike_id":"ab167bf4-64dc-47a2-b395-04a9b1602953","system_id":"levelo_inurba_marseille","lat":43.25502,"lon":5.37651,"is_reserved":false,"is_disabled":false,"rental_uris":{"android":"levelo://app?vid=ab167bf4-64dc-47a2-b395-04a9b1602953","ios":"levelo://app?vid=ab167bf4-64dc-47a2-b395-04a9b1602953"},"vehicle_type_id":"4","last_reported":1726337441,"current_range_meters":27200,"station_id":"ce4bhh12rcd13ifvqff0","pricing_plan_id":"cebpf4jnsgd1na2vs0mg"},{"bike_id":"fa2b0a9f-66ad-4cd1-b7bb-93b9cffdc904","system_id":"levelo_inurba_marseille","lat":43.2593,"lon":5.40911,"is_reserved":false,"is_disabled":false,"rental_uris":{"android":"levelo://app?vid=fa2b0a9f-66ad-4cd1-b7bb-93b9cffdc904","ios":"levelo://app?vid=fa2b0a9f-66ad-4cd1-b7bb-93b9cffdc904"},"vehicle_type_id":"4","last_reported":1726337441,"current_range_meters":36400,"station_id":"ce4bhm92rcd13ifvqglg","pricing_plan_id":"cebpf4jnsgd1na2vs0mg"},{"bike_id":"dfdc5a5d-40cf-4ee7-9a62-0843dd4916d7","system_id":"levelo_inurba_marseille","lat":43.27565,"lon":5.40916,"is_reserved":false,"is_disabled":false,"rental_uris":{"android":"levelo://app?vid=dfdc5a5d-40cf-4ee7-9a62-0843dd4916d7","ios":"levelo://app?vid=dfdc5a5d-40cf-4ee7-9a62-0843dd4916d7"},"vehicle_type_id":"4","last_reported":1726337441,"current_range_meters":6400,"station_id":"ce4bhnp2rcd13ifvqh0g","pricing_plan_id":"cebpf4jnsgd1na2vs0mg"},{"bike_id":"2fa7a912-256f-4ebe-9793-d9b6c6940c4a","system_id":"levelo_inurba_marseille","lat":43.25003,"lon":5.38929,"is_reserved":false,"is_disabled":false,"rental_uris":{"android":"levelo://app?vid=2fa7a912-256f-4ebe-9793-d9b6c6940c4a","ios":"levelo://app?vid=2fa7a912-256f-4ebe-9793-d9b6c6940c4a"},"vehicle_type_id":"4","last_reported":1726337441,"current_range_meters":27600,"station_id":"ce4bhgp2rcd13ifvqfd0","pricing_plan_id":"cebpf4jnsgd1na2vs0mg"},{"bike_id":"ffab9f6f-b83a-4f8d-9b89-709e46968bd2","system_id":"levelo_inurba_marseille","lat":43.29303,"lon":5.37458,"is_reserved":false,"is_disabled":false,"rental_uris":{"android":"levelo://app?vid=ffab9f6f-b83a-4f8d-9b89-709e46968bd2","ios":"levelo://app?vid=ffab9f6f-b83a-4f8d-9b89-709e46968bd2"},"vehicle_type_id":"4","last_reported":1726337441,"current_range_meters":38800,"station_id":"ce4bgi12rcd13ifvqb70","pricing_plan_id":"cebpf4jnsgd1na2vs0mg"},{"bike_id":"7784328b-f903-4985-bca8-92252356f301","system_id":"levelo_inurba_marseille","lat":43.31721,"lon":5.42408,"is_reserved":false,"is_disabled":false,"rental_uris":{"android":"levelo://app?vid=7784328b-f903-4985-bca8-92252356f301","ios":"levelo://app?vid=7784328b-f903-4985-bca8-92252356f301"},"vehicle_type_id":"4","last_reported":1726337441,"current_range_meters":2800,"station_id":"ce4bhp92rcd13ifvqhbg","pricing_plan_id":"cebpf4jnsgd1na2vs0mg"},{"bike_id":"e382c78a-7f2f-46f8-b9bf-2b27ee775605","system_id":"levelo_inurba_marseille","lat":43.28095,"lon":5.36713,"is_reserved":false,"is_disabled":false,"rental_uris":{"android":"levelo://app?vid=e382c78a-7f2f-46f8-b9bf-2b27ee775605","ios":"levelo://app?vid=e382c78a-7f2f-46f8-b9bf-2b27ee775605"},"vehicle_type_id":"4","last_reported":1726337441,"current_range_meters":14000,"station_id":"ce4bgj92rcd13ifvqbe0","pricing_plan_id":"cebpf4jnsgd1na2vs0mg"},{"bike_id":"34ec7607-7c16-47c1-a149-eb2dc0a4a57d","system_id":"levelo_inurba_marseille","lat":43.24672,"lon":5.38165,"is_reserved":false,"is_disabled":false,"rental_uris":{"android":"levelo://app?vid=34ec7607-7c16-47c1-a149-eb2dc0a4a57d","ios":"levelo://app?vid=34ec7607-7c16-47c1-a149-eb2dc0a4a57d"},"vehicle_type_id":"4","last_reported":1726337441,"current_range_meters":22800,"station_id":"ce4bhih2rcd13ifvqfr0","pricing_plan_id":"cebpf4jnsgd1na2vs0mg"},{"bike_id":"f1e8ceee-9573-4b77-ab79-482d0d3b70cc","system_id":"levelo_inurba_marseille","lat":43.24168,"lon":5.36404,"is_reserved":false,"is_disabled":false,"rental_uris":{"android":"levelo://app?vid=f1e8ceee-9573-4b77-ab79-482d0d3b70cc","ios":"levelo://app?vid=f1e8ceee-9573-4b77-ab79-482d0d3b70cc"},"vehicle_type_id":"4","last_reported":1726337441,"current_range_meters":38400,"station_id":"cpo36qri1sfpv3e86is0","pricing_plan_id":"cebpf4jnsgd1na2vs0mg"},{"bike_id":"4a255b9f-a006-4a2b-b10e-8a1fc173f41b","system_id":"levelo_inurba_marseille","lat":43.29043,"lon":5.39969,"is_reserved":false,"is_disabled":false,"rental_uris":{"android":"levelo://app?vid=4a255b9f-a006-4a2b-b10e-8a1fc173f41b","ios":"levelo://app?vid=4a255b9f-a006-4a2b-b10e-8a1fc173f41b"},"vehicle_type_id":"4","last_reported":1726337441,"current_range_meters":16000,"station_id":"ce4bh392rcd13ifvqdm0","pricing_plan_id":"cebpf4jnsgd1na2vs0mg"},{"bike_id":"f831edea-d40e-4654-adff-1c1d2ba9c6fc","system_id":"levelo_inurba_marseille","lat":43.24073,"lon":5.37755,"is_reserved":false,"is_disabled":false,"rental_uris":{"android":"levelo://app?vid=f831edea-d40e-4654-adff-1c1d2ba9c6fc","ios":"levelo://app?vid=f831edea-d40e-4654-adff-1c1d2ba9c6fc"},"vehicle_type_id":"4","last_reported":1726337441,"current_range_meters":26800,"station_id":"ce4bhgh2rcd13ifvqfb0","pricing_plan_id":"cebpf4jnsgd1na2vs0mg"},{"bike_id":"fffebf06-905f-40d5-9801-20b1835dd995","system_id":"levelo_inurba_marseille","lat":43.314854,"lon":5.373113,"is_reserved":false,"is_disabled":false,"rental_uris":{"android":"levelo://app?vid=fffebf06-905f-40d5-9801-20b1835dd995","ios":"levelo://app?vid=fffebf06-905f-40d5-9801-20b1835dd995"},"vehicle_type_id":"4","last_reported":1726337441,"current_range_meters":14800,"station_id":"ce4bgt12rcd13ifvqcd0","pricing_plan_id":"cebpf4jnsgd1na2vs0mg"},{"bike_id":"19905df6-e73e-46a1-ae96-6fdb91b17345","system_id":"levelo_inurba_marseille","lat":43.32185,"lon":5.41319,"is_reserved":false,"is_disabled":false,"rental_uris":{"android":"levelo://app?vid=19905df6-e73e-46a1-ae96-6fdb91b17345","ios":"levelo://app?vid=19905df6-e73e-46a1-ae96-6fdb91b17345"},"vehicle_type_id":"4","last_reported":1726337441,"current_range_meters":22400,"station_id":"","pricing_plan_id":"cebpf4jnsgd1na2vs0mg"},{"bike_id":"8d137895-5bb6-4b88-b823-3f3784841b30","system_id":"levelo_inurba_marseille","lat":43.29017,"lon":5.38141,"is_reserved":false,"is_disabled":false,"rental_uris":{"android":"levelo://app?vid=8d137895-5bb6-4b88-b823-3f3784841b30","ios":"levelo://app?vid=8d137895-5bb6-4b88-b823-3f3784841b30"},"vehicle_type_id":"4","last_reported":1726337441,"current_range_meters":18000,"station_id":"ce4bh4p2rcd13ifvqe1g","pricing_plan_id":"cebpf4jnsgd1na2vs0mg"},{"bike_id":"6cbf6734-4566-46f3-8d0e-618b5ff147d2","system_id":"levelo_inurba_marseille","lat":43.29259,"lon":5.40918,"is_reserved":false,"is_disabled":false,"rental_uris":{"android":"levelo://app?vid=6cbf6734-4566-46f3-8d0e-618b5ff147d2","ios":"levelo://app?vid=6cbf6734-4566-46f3-8d0e-618b5ff147d2"},"vehicle_type_id":"4","last_reported":1726337441,"current_range_meters":30000,"station_id":"ce4bh192rcd13ifvqdc0","pricing_plan_id":"cebpf4jnsgd1na2vs0mg"},{"bike_id":"04ab1dee-b868-4cfb-8bbf-c0a2f54169d0","system_id":"levelo_inurba_marseille","lat":43.29898,"lon":5.4367,"is_reserved":false,"is_disabled":false,"rental_uris":{"android":"levelo://app?vid=04ab1dee-b868-4cfb-8bbf-c0a2f54169d0","ios":"levelo://app?vid=04ab1dee-b868-4cfb-8bbf-c0a2f54169d0"},"vehicle_type_id":"4","last_reported":1726337441,"current_range_meters":36400,"station_id":"ce4bhpp2rcd13ifvqhfg","pricing_plan_id":"cebpf4jnsgd1na2vs0mg"},{"bike_id":"ee2e4b3f-c414-4c3b-9d90-0d4b473d78fe","system_id":"levelo_inurba_marseille","lat":43.324792,"lon":5.365643,"is_reserved":false,"is_disabled":false,"rental_uris":{"android":"levelo://app?vid=ee2e4b3f-c414-4c3b-9d90-0d4b473d78fe","ios":"levelo://app?vid=ee2e4b3f-c414-4c3b-9d90-0d4b473d78fe"},"vehicle_type_id":"4","last_reported":1726337441,"current_range_meters":23200,"station_id":"ce4bhs12rcd13ifvqhvg","pricing_plan_id":"cebpf4jnsgd1na2vs0mg"},{"bike_id":"4f76e9f7-4a91-4f69-b8d3-1c2fb494bda7","system_id":"levelo_inurba_marseille","lat":43.30792,"lon":5.43529,"is_reserved":false,"is_disabled":false,"rental_uris":{"android":"levelo://app?vid=4f76e9f7-4a91-4f69-b8d3-1c2fb494bda7","ios":"levelo://app?vid=4f76e9f7-4a91-4f69-b8d3-1c2fb494bda7"},"vehicle_type_id":"4","last_reported":1726337441,"current_range_meters":32000,"station_id":"ce4bhph2rcd13ifvqheg","pricing_plan_id":"cebpf4jnsgd1na2vs0mg"},{"bike_id":"43a67d85-92da-48ef-afca-7dc90c015d65","system_id":"levelo_inurba_marseille","lat":43.303589,"lon":5.418791,"is_reserved":false,"is_disabled":false,"rental_uris":{"android":"levelo://app?vid=43a67d85-92da-48ef-afca-7dc90c015d65","ios":"levelo://app?vid=43a67d85-92da-48ef-afca-7dc90c015d65"},"vehicle_type_id":"4","last_reported":1726337441,"current_range_meters":26800,"station_id":"ce4bhp92rcd13ifvqhcg","pricing_plan_id":"cebpf4jnsgd1na2vs0mg"},{"bike_id":"dac2a5d2-cefe-41d9-94b2-1924445924b0","system_id":"levelo_inurba_marseille","lat":43.29192,"lon":5.39318,"is_reserved":false,"is_disabled":false,"rental_uris":{"android":"levelo://app?vid=dac2a5d2-cefe-41d9-94b2-1924445924b0","ios":"levelo://app?vid=dac2a5d2-cefe-41d9-94b2-1924445924b0"},"vehicle_type_id":"4","last_reported":1726337441,"current_range_meters":5600,"station_id":"ce4bh192rcd13ifvqdd0","pricing_plan_id":"cebpf4jnsgd1na2vs0mg"},{"bike_id":"365d4fdf-35fc-4b52-b73d-cd06fb30677b","system_id":"levelo_inurba_marseille","lat":43.25501,"lon":5.37658,"is_reserved":false,"is_disabled":false,"rental_uris":{"android":"levelo://app?vid=365d4fdf-35fc-4b52-b73d-cd06fb30677b","ios":"levelo://app?vid=365d4fdf-35fc-4b52-b73d-cd06fb30677b"},"vehicle_type_id":"4","last_reported":1726337441,"current_range_meters":8000,"station_id":"ce4bhh12rcd13ifvqff0","pricing_plan_id":"cebpf4jnsgd1na2vs0mg"},{"bike_id":"3d2d841f-4a4f-4dcd-af05-61e747ed57a4","system_id":"levelo_inurba_marseille","lat":43.29226,"lon":5.36051,"is_reserved":false,"is_disabled":false,"rental_uris":{"android":"levelo://app?vid=3d2d841f-4a4f-4dcd-af05-61e747ed57a4","ios":"levelo://app?vid=3d2d841f-4a4f-4dcd-af05-61e747ed57a4"},"vehicle_type_id":"4","last_reported":1726337441,"current_range_meters":35600,"station_id":"ce4bhbh2rcd13ifvqeqg","pricing_plan_id":"cebpf4jnsgd1na2vs0mg"},{"bike_id":"ee41233d-7057-4ec4-b3c6-63f582836de8","system_id":"levelo_inurba_marseille","lat":43.22931,"lon":5.35383,"is_reserved":false,"is_disabled":false,"rental_uris":{"android":"levelo://app?vid=ee41233d-7057-4ec4-b3c6-63f582836de8","ios":"levelo://app?vid=ee41233d-7057-4ec4-b3c6-63f582836de8"},"vehicle_type_id":"4","last_reported":1726337441,"current_range_meters":22800,"station_id":"cpo3532slgdg3j2ikp40","pricing_plan_id":"cebpf4jnsgd1na2vs0mg"},{"bike_id":"e392f712-1369-4b5c-aae8-6795487cc1fb","system_id":"levelo_inurba_marseille","lat":43.30793,"lon":5.38168,"is_reserved":false,"is_disabled":false,"rental_uris":{"android":"levelo://app?vid=e392f712-1369-4b5c-aae8-6795487cc1fb","ios":"levelo://app?vid=e392f712-1369-4b5c-aae8-6795487cc1fb"},"vehicle_type_id":"4","last_reported":1726337441,"current_range_meters":3600,"station_id":"ce4bgv12rcd13ifvqcp0","pricing_plan_id":"cebpf4jnsgd1na2vs0mg"},{"bike_id":"ab633b70-7142-4d89-ab1e-52f918838caa","system_id":"levelo_inurba_marseille","lat":43.30213,"lon":5.39464,"is_reserved":false,"is_disabled":false,"rental_uris":{"android":"levelo://app?vid=ab633b70-7142-4d89-ab1e-52f918838caa","ios":"levelo://app?vid=ab633b70-7142-4d89-ab1e-52f918838caa"},"vehicle_type_id":"4","last_reported":1726337441,"current_range_meters":38800,"station_id":"ce4bh0p2rcd13ifvqd70","pricing_plan_id":"cebpf4jnsgd1na2vs0mg"},{"bike_id":"fba5fd86-6b9c-4af9-9b0e-dd1b1d29726b","system_id":"levelo_inurba_marseille","lat":43.29199,"lon":5.39326,"is_reserved":false,"is_disabled":false,"rental_uris":{"android":"levelo://app?vid=fba5fd86-6b9c-4af9-9b0e-dd1b1d29726b","ios":"levelo://app?vid=fba5fd86-6b9c-4af9-9b0e-dd1b1d29726b"},"vehicle_type_id":"4","last_reported":1726337441,"current_range_meters":27600,"station_id":"ce4bh192rcd13ifvqdd0","pricing_plan_id":"cebpf4jnsgd1na2vs0mg"},{"bike_id":"c4148733-d340-4184-9add-27aa76062a46","system_id":"levelo_inurba_marseille","lat":43.25008,"lon":5.38918,"is_reserved":false,"is_disabled":false,"rental_uris":{"android":"levelo://app?vid=c4148733-d340-4184-9add-27aa76062a46","ios":"levelo://app?vid=c4148733-d340-4184-9add-27aa76062a46"},"vehicle_type_id":"4","last_reported":1726337441,"current_range_meters":38400,"station_id":"ce4bhgp2rcd13ifvqfd0","pricing_plan_id":"cebpf4jnsgd1na2vs0mg"},{"bike_id":"c6c86535-eafd-47dc-bc16-85f11ba7dab5","system_id":"levelo_inurba_marseille","lat":43.30412,"lon":5.41278,"is_reserved":false,"is_disabled":false,"rental_uris":{"android":"levelo://app?vid=c6c86535-eafd-47dc-bc16-85f11ba7dab5","ios":"levelo://app?vid=c6c86535-eafd-47dc-bc16-85f11ba7dab5"},"vehicle_type_id":"4","last_reported":1726337441,"current_range_meters":28800,"station_id":"ce4bhop2rcd13ifvqh8g","pricing_plan_id":"cebpf4jnsgd1na2vs0mg"},{"bike_id":"5838d109-7d10-4dbd-9e31-1aefd3b11a62","system_id":"levelo_inurba_marseille","lat":43.28941,"lon":5.36636,"is_reserved":false,"is_disabled":false,"rental_uris":{"android":"levelo://app?vid=5838d109-7d10-4dbd-9e31-1aefd3b11a62","ios":"levelo://app?vid=5838d109-7d10-4dbd-9e31-1aefd3b11a62"},"vehicle_type_id":"4","last_reported":1726337441,"current_range_meters":38800,"station_id":"ce4bhap2rcd13ifvqek0","pricing_plan_id":"cebpf4jnsgd1na2vs0mg"},{"bike_id":"954a5683-2b62-45c2-affd-e761c0489a8e","system_id":"levelo_inurba_marseille","lat":43.25721,"lon":5.41106,"is_reserved":false,"is_disabled":false,"rental_uris":{"android":"levelo://app?vid=954a5683-2b62-45c2-affd-e761c0489a8e","ios":"levelo://app?vid=954a5683-2b62-45c2-affd-e761c0489a8e"},"vehicle_type_id":"4","last_reported":1726337441,"current_range_meters":7200,"station_id":"ce4bhkp2rcd13ifvqgd0","pricing_plan_id":"cebpf4jnsgd1na2vs0mg"},{"bike_id":"5fbb4f47-1bb6-4e2d-8566-a277014801ab","system_id":"levelo_inurba_marseille","lat":43.28401,"lon":5.37518,"is_reserved":false,"is_disabled":false,"rental_uris":{"android":"levelo://app?vid=5fbb4f47-1bb6-4e2d-8566-a277014801ab","ios":"levelo://app?vid=5fbb4f47-1bb6-4e2d-8566-a277014801ab"},"vehicle_type_id":"4","last_reported":1726337441,"current_range_meters":38000,"station_id":"ce4bh412rcd13ifvqds0","pricing_plan_id":"cebpf4jnsgd1na2vs0mg"},{"bike_id":"fcd897ac-77e3-43f0-8057-45796b3d49f5","system_id":"levelo_inurba_marseille","lat":43.2511,"lon":5.40325,"is_reserved":false,"is_disabled":false,"rental_uris":{"android":"levelo://app?vid=fcd897ac-77e3-43f0-8057-45796b3d49f5","ios":"levelo://app?vid=fcd897ac-77e3-43f0-8057-45796b3d49f5"},"vehicle_type_id":"4","last_reported":1726337441,"current_range_meters":37600,"station_id":"ce4bhlh2rcd13ifvqgig","pricing_plan_id":"cebpf4jnsgd1na2vs0mg"},{"bike_id":"3eaf1591-bc5c-4d0f-927d-889e0d930426","system_id":"levelo_inurba_marseille","lat":43.25105,"lon":5.40317,"is_reserved":false,"is_disabled":false,"rental_uris":{"android":"levelo://app?vid=3eaf1591-bc5c-4d0f-927d-889e0d930426","ios":"levelo://app?vid=3eaf1591-bc5c-4d0f-927d-889e0d930426"},"vehicle_type_id":"4","last_reported":1726337441,"current_range_meters":22400,"station_id":"ce4bhlh2rcd13ifvqgig","pricing_plan_id":"cebpf4jnsgd1na2vs0mg"},{"bike_id":"2a969e1b-8a7b-492e-b672-6602c625e9cd","system_id":"levelo_inurba_marseille","lat":43.23196,"lon":5.35545,"is_reserved":false,"is_disabled":false,"rental_uris":{"android":"levelo://app?vid=2a969e1b-8a7b-492e-b672-6602c625e9cd","ios":"levelo://app?vid=2a969e1b-8a7b-492e-b672-6602c625e9cd"},"vehicle_type_id":"4","last_reported":1726337441,"current_range_meters":26800,"station_id":"ce4bhu92rcd13ifvqi70","pricing_plan_id":"cebpf4jnsgd1na2vs0mg"},{"bike_id":"c1bf74d1-2c34-4276-86df-3328f1c52ff3","system_id":"levelo_inurba_marseille","lat":43.28605,"lon":5.37065,"is_reserved":false,"is_disabled":false,"rental_uris":{"android":"levelo://app?vid=c1bf74d1-2c34-4276-86df-3328f1c52ff3","ios":"levelo://app?vid=c1bf74d1-2c34-4276-86df-3328f1c52ff3"},"vehicle_type_id":"4","last_reported":1726337441,"current_range_meters":6800,"station_id":"ce4bht12rcd13ifvqi60","pricing_plan_id":"cebpf4jnsgd1na2vs0mg"},{"bike_id":"1d4e335d-2bde-4711-8e64-da4ced3723ea","system_id":"levelo_inurba_marseille","lat":43.22935,"lon":5.35374,"is_reserved":false,"is_disabled":false,"rental_uris":{"android":"levelo://app?vid=1d4e335d-2bde-4711-8e64-da4ced3723ea","ios":"levelo://app?vid=1d4e335d-2bde-4711-8e64-da4ced3723ea"},"vehicle_type_id":"4","last_reported":1726337441,"current_range_meters":30000,"station_id":"cpo3532slgdg3j2ikp40","pricing_plan_id":"cebpf4jnsgd1na2vs0mg"},{"bike_id":"c267cd16-cc1d-45ef-a6ad-204b2a50eea4","system_id":"levelo_inurba_marseille","lat":43.31722,"lon":5.42399,"is_reserved":false,"is_disabled":false,"rental_uris":{"android":"levelo://app?vid=c267cd16-cc1d-45ef-a6ad-204b2a50eea4","ios":"levelo://app?vid=c267cd16-cc1d-45ef-a6ad-204b2a50eea4"},"vehicle_type_id":"4","last_reported":1726337441,"current_range_meters":38800,"station_id":"ce4bhp92rcd13ifvqhbg","pricing_plan_id":"cebpf4jnsgd1na2vs0mg"},{"bike_id":"e2e1ddbb-0e35-4236-ad8e-1dd8f338aa8d","system_id":"levelo_inurba_marseille","lat":43.30906,"lon":5.36851,"is_reserved":false,"is_disabled":false,"rental_uris":{"android":"levelo://app?vid=e2e1ddbb-0e35-4236-ad8e-1dd8f338aa8d","ios":"levelo://app?vid=e2e1ddbb-0e35-4236-ad8e-1dd8f338aa8d"},"vehicle_type_id":"4","last_reported":1726337441,"current_range_meters":24000,"station_id":"ce4bgn92rcd13ifvqbvg","pricing_plan_id":"cebpf4jnsgd1na2vs0mg"},{"bike_id":"1e46db75-d18b-49e0-a5e7-f9eb7edf9ced","system_id":"levelo_inurba_marseille","lat":43.26558,"lon":5.37286,"is_reserved":false,"is_disabled":false,"rental_uris":{"android":"levelo://app?vid=1e46db75-d18b-49e0-a5e7-f9eb7edf9ced","ios":"levelo://app?vid=1e46db75-d18b-49e0-a5e7-f9eb7edf9ced"},"vehicle_type_id":"4","last_reported":1726337441,"current_range_meters":34800,"station_id":"ce4bhg12rcd13ifvqf70","pricing_plan_id":"cebpf4jnsgd1na2vs0mg"},{"bike_id":"f9c00423-adeb-4963-892c-81c7168e1aa1","system_id":"levelo_inurba_marseille","lat":43.25004,"lon":5.38923,"is_reserved":false,"is_disabled":false,"rental_uris":{"android":"levelo://app?vid=f9c00423-adeb-4963-892c-81c7168e1aa1","ios":"levelo://app?vid=f9c00423-adeb-4963-892c-81c7168e1aa1"},"vehicle_type_id":"4","last_reported":1726337441,"current_range_meters":10800,"station_id":"ce4bhgp2rcd13ifvqfd0","pricing_plan_id":"cebpf4jnsgd1na2vs0mg"},{"bike_id":"37f42743-ecb4-45bf-9964-3b08c5abaef2","system_id":"levelo_inurba_marseille","lat":43.29417,"lon":5.38634,"is_reserved":false,"is_disabled":false,"rental_uris":{"android":"levelo://app?vid=37f42743-ecb4-45bf-9964-3b08c5abaef2","ios":"levelo://app?vid=37f42743-ecb4-45bf-9964-3b08c5abaef2"},"vehicle_type_id":"4","last_reported":1726337441,"current_range_meters":13600,"station_id":"ce4bh2h2rcd13ifvqdh0","pricing_plan_id":"cebpf4jnsgd1na2vs0mg"},{"bike_id":"ea63500e-74df-41a5-ba4a-0a8573887bd0","system_id":"levelo_inurba_marseille","lat":43.30438,"lon":5.38895,"is_reserved":false,"is_disabled":false,"rental_uris":{"android":"levelo://app?vid=ea63500e-74df-41a5-ba4a-0a8573887bd0","ios":"levelo://app?vid=ea63500e-74df-41a5-ba4a-0a8573887bd0"},"vehicle_type_id":"4","last_reported":1726337441,"current_range_meters":17200,"station_id":"ce4bgk12rcd13ifvqbi0","pricing_plan_id":"cebpf4jnsgd1na2vs0mg"},{"bike_id":"80d071d6-2742-4fc9-9525-6acd3d780edc","system_id":"levelo_inurba_marseille","lat":43.31326,"lon":5.39689,"is_reserved":false,"is_disabled":false,"rental_uris":{"android":"levelo://app?vid=80d071d6-2742-4fc9-9525-6acd3d780edc","ios":"levelo://app?vid=80d071d6-2742-4fc9-9525-6acd3d780edc"},"vehicle_type_id":"4","last_reported":1726337441,"current_range_meters":8000,"station_id":"ce4bgvp2rcd13ifvqcu0","pricing_plan_id":"cebpf4jnsgd1na2vs0mg"},{"bike_id":"765e3f8c-4c5d-4343-896d-b249523c16b4","system_id":"levelo_inurba_marseille","lat":43.3176,"lon":5.39012,"is_reserved":false,"is_disabled":false,"rental_uris":{"android":"levelo://app?vid=765e3f8c-4c5d-4343-896d-b249523c16b4","ios":"levelo://app?vid=765e3f8c-4c5d-4343-896d-b249523c16b4"},"vehicle_type_id":"4","last_reported":1726337441,"current_range_meters":38800,"station_id":"ce4bhqp2rcd13ifvqhng","pricing_plan_id":"cebpf4jnsgd1na2vs0mg"},{"bike_id":"9d15484e-ba20-4f05-a36f-48debf171666","system_id":"levelo_inurba_marseille","lat":43.31758,"lon":5.39013,"is_reserved":false,"is_disabled":false,"rental_uris":{"android":"levelo://app?vid=9d15484e-ba20-4f05-a36f-48debf171666","ios":"levelo://app?vid=9d15484e-ba20-4f05-a36f-48debf171666"},"vehicle_type_id":"4","last_reported":1726337441,"current_range_meters":12400,"station_id":"ce4bhqp2rcd13ifvqhng","pricing_plan_id":"cebpf4jnsgd1na2vs0mg"},{"bike_id":"b978da6c-35f4-4e00-a435-7d032f456209","system_id":"levelo_inurba_marseille","lat":43.298012,"lon":5.381084,"is_reserved":false,"is_disabled":false,"rental_uris":{"android":"levelo://app?vid=b978da6c-35f4-4e00-a435-7d032f456209","ios":"levelo://app?vid=b978da6c-35f4-4e00-a435-7d032f456209"},"vehicle_type_id":"4","last_reported":1726337441,"current_range_meters":38800,"station_id":"ce4bgip2rcd13ifvqbb0","pricing_plan_id":"cebpf4jnsgd1na2vs0mg"},{"bike_id":"0b6ea837-18ec-4596-9d03-3bfed0281bc1","system_id":"levelo_inurba_marseille","lat":43.26212,"lon":5.37442,"is_reserved":false,"is_disabled":false,"rental_uris":{"android":"levelo://app?vid=0b6ea837-18ec-4596-9d03-3bfed0281bc1","ios":"levelo://app?vid=0b6ea837-18ec-4596-9d03-3bfed0281bc1"},"vehicle_type_id":"4","last_reported":1726337441,"current_range_meters":2800,"station_id":"ce4bhgp2rcd13ifvqfc0","pricing_plan_id":"cebpf4jnsgd1na2vs0mg"},{"bike_id":"e3fc7e74-46e0-4ad2-a414-2bda8c0781ed","system_id":"levelo_inurba_marseille","lat":43.267761,"lon":5.39414,"is_reserved":false,"is_disabled":false,"rental_uris":{"android":"levelo://app?vid=e3fc7e74-46e0-4ad2-a414-2bda8c0781ed","ios":"levelo://app?vid=e3fc7e74-46e0-4ad2-a414-2bda8c0781ed"},"vehicle_type_id":"4","last_reported":1726337441,"current_range_meters":32400,"station_id":"ce4bhh12rcd13ifvqfg0","pricing_plan_id":"cebpf4jnsgd1na2vs0mg"},{"bike_id":"fae677b0-9990-414e-b080-0ce19bf67d60","system_id":"levelo_inurba_marseille","lat":43.28456,"lon":5.35882,"is_reserved":false,"is_disabled":false,"rental_uris":{"android":"levelo://app?vid=fae677b0-9990-414e-b080-0ce19bf67d60","ios":"levelo://app?vid=fae677b0-9990-414e-b080-0ce19bf67d60"},"vehicle_type_id":"4","last_reported":1726337441,"current_range_meters":6400,"station_id":"ce4bhah2rcd13ifvqei0","pricing_plan_id":"cebpf4jnsgd1na2vs0mg"},{"bike_id":"c3974e5b-a273-48f7-8fce-6bffad78b67b","system_id":"levelo_inurba_marseille","lat":43.28107,"lon":5.3784,"is_reserved":false,"is_disabled":false,"rental_uris":{"android":"levelo://app?vid=c3974e5b-a273-48f7-8fce-6bffad78b67b","ios":"levelo://app?vid=c3974e5b-a273-48f7-8fce-6bffad78b67b"},"vehicle_type_id":"4","last_reported":1726337441,"current_range_meters":25200,"station_id":"ce4bha12rcd13ifvqee0","pricing_plan_id":"cebpf4jnsgd1na2vs0mg"},{"bike_id":"b743a9c7-bff2-4e35-9357-5b891b452147","system_id":"levelo_inurba_marseille","lat":43.29898,"lon":5.43665,"is_reserved":false,"is_disabled":false,"rental_uris":{"android":"levelo://app?vid=b743a9c7-bff2-4e35-9357-5b891b452147","ios":"levelo://app?vid=b743a9c7-bff2-4e35-9357-5b891b452147"},"vehicle_type_id":"4","last_reported":1726337441,"current_range_meters":24400,"station_id":"ce4bhpp2rcd13ifvqhfg","pricing_plan_id":"cebpf4jnsgd1na2vs0mg"},{"bike_id":"3941c7c1-54d2-4c9d-b5b7-b06daf386fe0","system_id":"levelo_inurba_marseille","lat":43.31324,"lon":5.37955,"is_reserved":false,"is_disabled":false,"rental_uris":{"android":"levelo://app?vid=3941c7c1-54d2-4c9d-b5b7-b06daf386fe0","ios":"levelo://app?vid=3941c7c1-54d2-4c9d-b5b7-b06daf386fe0"},"vehicle_type_id":"4","last_reported":1726337441,"current_range_meters":11600,"station_id":"","pricing_plan_id":"cebpf4jnsgd1na2vs0mg"},{"bike_id":"96ba23e0-3bb6-47f3-977a-358964aa8ca7","system_id":"levelo_inurba_marseille","lat":43.314997,"lon":5.372792,"is_reserved":false,"is_disabled":false,"rental_uris":{"android":"levelo://app?vid=96ba23e0-3bb6-47f3-977a-358964aa8ca7","ios":"levelo://app?vid=96ba23e0-3bb6-47f3-977a-358964aa8ca7"},"vehicle_type_id":"4","last_reported":1726337441,"current_range_meters":22400,"station_id":"ce4bgth2rcd13ifvqch0","pricing_plan_id":"cebpf4jnsgd1na2vs0mg"},{"bike_id":"382c0e91-23dc-4de4-813f-d6e61b3334e4","system_id":"levelo_inurba_marseille","lat":43.22934,"lon":5.35374,"is_reserved":false,"is_disabled":false,"rental_uris":{"android":"levelo://app?vid=382c0e91-23dc-4de4-813f-d6e61b3334e4","ios":"levelo://app?vid=382c0e91-23dc-4de4-813f-d6e61b3334e4"},"vehicle_type_id":"4","last_reported":1726337441,"current_range_meters":10800,"station_id":"cpo3532slgdg3j2ikp40","pricing_plan_id":"cebpf4jnsgd1na2vs0mg"},{"bike_id":"86141fec-5eef-44a7-af74-c77a6a78bfc6","system_id":"levelo_inurba_marseille","lat":43.23201,"lon":5.35553,"is_reserved":false,"is_disabled":false,"rental_uris":{"android":"levelo://app?vid=86141fec-5eef-44a7-af74-c77a6a78bfc6","ios":"levelo://app?vid=86141fec-5eef-44a7-af74-c77a6a78bfc6"},"vehicle_type_id":"4","last_reported":1726337441,"current_range_meters":38800,"station_id":"ce4bhu92rcd13ifvqi70","pricing_plan_id":"cebpf4jnsgd1na2vs0mg"},{"bike_id":"e84118bf-d593-47b0-ab64-33de4a3a4b1c","system_id":"levelo_inurba_marseille","lat":43.292869,"lon":5.374514,"is_reserved":false,"is_disabled":false,"rental_uris":{"android":"levelo://app?vid=e84118bf-d593-47b0-ab64-33de4a3a4b1c","ios":"levelo://app?vid=e84118bf-d593-47b0-ab64-33de4a3a4b1c"},"vehicle_type_id":"4","last_reported":1726337441,"current_range_meters":16800,"station_id":"ce4bgi12rcd13ifvqb70","pricing_plan_id":"cebpf4jnsgd1na2vs0mg"},{"bike_id":"581788f3-75cf-4bb7-868a-64bde562274e","system_id":"levelo_inurba_marseille","lat":43.25933,"lon":5.40912,"is_reserved":false,"is_disabled":false,"rental_uris":{"android":"levelo://app?vid=581788f3-75cf-4bb7-868a-64bde562274e","ios":"levelo://app?vid=581788f3-75cf-4bb7-868a-64bde562274e"},"vehicle_type_id":"4","last_reported":1726337441,"current_range_meters":11600,"station_id":"ce4bhm92rcd13ifvqglg","pricing_plan_id":"cebpf4jnsgd1na2vs0mg"},{"bike_id":"dacd5518-4680-4efa-ba33-4e51e5dfbdaa","system_id":"levelo_inurba_marseille","lat":43.29896,"lon":5.43667,"is_reserved":false,"is_disabled":false,"rental_uris":{"android":"levelo://app?vid=dacd5518-4680-4efa-ba33-4e51e5dfbdaa","ios":"levelo://app?vid=dacd5518-4680-4efa-ba33-4e51e5dfbdaa"},"vehicle_type_id":"4","last_reported":1726337441,"current_range_meters":28000,"station_id":"ce4bhpp2rcd13ifvqhfg","pricing_plan_id":"cebpf4jnsgd1na2vs0mg"},