{"last_updated":1706288757,"ttl":30,"version":"2.2","data":{"bikes":[{"bike_id":"26519efd-a00a-4fee-9696-2d86259344aa","system_id":"levelo_inurba_marseille","lat":43.312239,"lon":5.368562,"is_reserved":false,"is_disabled":false,"rental_uris":{"android":"levelo://app?vid=26519efd-a00a-4fee-9696-2d86259344aa","ios":"levelo://app?vid=26519efd-a00a-4fee-9696-2d86259344aa"},"vehicle_type_id":"4","last_reported":1706288757,"current_range_meters":12800,"station_id":"ce4bgl92rcd13ifvqbq0","pricing_plan_id":"free"},{"bike_id":"7107dd71-5fd5-492a-9ca0-bf02146d0809","system_id":"levelo_inurba_marseille","lat":43.314811,"lon":5.373104,"is_reserved":false,"is_disabled":false,"rental_uris":{"android":"levelo://app?vid=7107dd71-5fd5-492a-9ca0-bf02146d0809","ios":"levelo://app?vid=7107dd71-5fd5-492a-9ca0-bf02146d0809"},"vehicle_type_id":"4","last_reported":1706288757,"current_range_meters":13200,"station_id":"ce4bgt12rcd13ifvqcd0","pricing_plan_id":"free"},{"bike_id":"89eaa86a-7c69-45f1-abea-ec205b7eabe1","system_id":"levelo_inurba_marseille","lat":43.309039,"lon":5.371797,"is_reserved":false,"is_disabled":false,"rental_uris":{"android":"levelo://app?vid=89eaa86a-7c69-45f1-abea-ec205b7eabe1","ios":"levelo://app?vid=89eaa86a-7c69-45f1-abea-ec205b7eabe1"},"vehicle_type_id":"4","last_reported":1706288757,"current_range_meters":4400,"station_id":"ce4bguh2rcd13ifvqckg","pricing_plan_id":"free"},{"bike_id":"84b50cf4-0760-4321-a48f-184031e6c7f8","system_id":"levelo_inurba_marseille","lat":43.30888,"lon":5.37193,"is_reserved":false,"is_disabled":false,"rental_uris":{"android":"levelo://app?vid=84b50cf4-0760-4321-a48f-184031e6c7f8","ios":"levelo://app?vid=84b50cf4-0760-4321-a48f-184031e6c7f8"},"vehicle_type_id":"4","last_reported":1706288757,"current_range_meters":0,"station_id":"ce4bguh2rcd13ifvqckg","pricing_plan_id":"free"},{"bike_id":"43f2e9a3-4e4c-4d41-8a34-9514a3e6c5d3","system_id":"levelo_inurba_marseille","lat":43.31598,"lon":5.37318,"is_reserved":false,"is_disabled":false,"rental_uris":{"android":"levelo://app?vid=43f2e9a3-4e4c-4d41-8a34-9514a3e6c5d3","ios":"levelo://app?vid=43f2e9a3-4e4c-4d41-8a34-9514a3e6c5d3"},"vehicle_type_id":"4","last_reported":1706288757,"current_range_meters":9600,"station_id":"","pricing_plan_id":"free"},{"bike_id":"9443e511-2e2d-41e7-a2cd-4c95bf03992f","system_id":"levelo_inurba_marseille","lat":43.31356,"lon":5.37622,"is_reserved":false,"is_disabled":false,"rental_uris":{"android":"levelo://app?vid=9443e511-2e2d-41e7-a2cd-4c95bf03992f","ios":"levelo://app?vid=9443e511-2e2d-41e7-a2cd-4c95bf03992f"},"vehicle_type_id":"4","last_reported":1706288757,"current_range_meters":10800,"station_id":"","pricing_plan_id":"free"},{"bike_id":"6a8e6f90-184d-4570-a720-d1a42c53eafe","system_id":"levelo_inurba_marseille","lat":43.305706,"lon":5.365654,"is_reserved":false,"is_disabled":false,"rental_uris":{"android":"levelo://app?vid=6a8e6f90-184d-4570-a720-d1a42c53eafe","ios":"levelo://app?vid=6a8e6f90-184d-4570-a720-d1a42c53eafe"},"vehicle_type_id":"4","last_reported":1706288757,"current_range_meters":0,"station_id":"ce4bgs12rcd13ifvqcag","pricing_plan_id":"free"},{"bike_id":"c95f384e-81ea-41a9-8dba-bb365ab44507","system_id":"levelo_inurba_marseille","lat":43.305706,"lon":5.365654,"is_reserved":false,"is_disabled":false,"rental_uris":{"android":"levelo://app?vid=c95f384e-81ea-41a9-8dba-bb365ab44507","ios":"levelo://app?vid=c95f384e-81ea-41a9-8dba-bb365ab44507"},"vehicle_type_id":"4","last_reported":1706288757,"current_range_meters":16400,"station_id":"ce4bgs12rcd13ifvqcag","pricing_plan_id":"free"},{"bike_id":"21e4d5b3-d6ce-4e5f-836e-604ac3ddd7de","system_id":"levelo_inurba_marseille","lat":43.305706,"lon":5.365654,"is_reserved":false,"is_disabled":false,"rental_uris":{"android":"levelo://app?vid=21e4d5b3-d6ce-4e5f-836e-604ac3ddd7de","ios":"levelo://app?vid=21e4d5b3-d6ce-4e5f-836e-604ac3ddd7de"},"vehicle_type_id":"4","last_reported":1706288757,"current_range_meters":20400,"station_id":"ce4bgs12rcd13ifvqcag","pricing_plan_id":"free"},{"bike_id":"b443e97b-fbdd-456b-ba3a-0c6e3d34510c","system_id":"levelo_inurba_marseille","lat":43.305989,"lon":5.37225,"is_reserved":false,"is_disabled":false,"rental_uris":{"android":"levelo://app?vid=b443e97b-fbdd-456b-ba3a-0c6e3d34510c","ios":"levelo://app?vid=b443e97b-fbdd-456b-ba3a-0c6e3d34510c"},"vehicle_type_id":"4","last_reported":1706288757,"current_range_meters":22800,"station_id":"ce4bgqh2rcd13ifvqc4g","pricing_plan_id":"free"},{"bike_id":"c5861ec5-d162-4a11-80e0-a52442d4d68e","system_id":"levelo_inurba_marseille","lat":43.305989,"lon":5.37225,"is_reserved":false,"is_disabled":false,"rental_uris":{"android":"levelo://app?vid=c5861ec5-d162-4a11-80e0-a52442d4d68e","ios":"levelo://app?vid=c5861ec5-d162-4a11-80e0-a52442d4d68e"},"vehicle_type_id":"4","last_reported":1706288757,"current_range_meters":8000,"station_id":"ce4bgqh2rcd13ifvqc4g","pricing_plan_id":"free"},{"bike_id":"7c81727c-5265-4d7c-9735-708db1b3fe50","system_id":"levelo_inurba_marseille","lat":43.31123,"lon":5.37754,"is_reserved":false,"is_disabled":false,"rental_uris":{"android":"levelo://app?vid=7c81727c-5265-4d7c-9735-708db1b3fe50","ios":"levelo://app?vid=7c81727c-5265-4d7c-9735-708db1b3fe50"},"vehicle_type_id":"4","last_reported":1706288757,"current_range_meters":0,"station_id":"ce4bgt92rcd13ifvqcg0","pricing_plan_id":"free"},{"bike_id":"b9f6ac85-c92a-431c-bc36-81aa9b4e5293","system_id":"levelo_inurba_marseille","lat":43.30487,"lon":5.36698,"is_reserved":false,"is_disabled":false,"rental_uris":{"android":"levelo://app?vid=b9f6ac85-c92a-431c-bc36-81aa9b4e5293","ios":"levelo://app?vid=b9f6ac85-c92a-431c-bc36-81aa9b4e5293"},"vehicle_type_id":"4","last_reported":1706288757,"current_range_meters":0,"station_id":"","pricing_plan_id":"free"},{"bike_id":"c5e8f4a8-7d39-4e03-bce9-db237bf71511","system_id":"levelo_inurba_marseille","lat":43.311125,"lon":5.377624,"is_reserved":false,"is_disabled":false,"rental_uris":{"android":"levelo://app?vid=c5e8f4a8-7d39-4e03-bce9-db237bf71511","ios":"levelo://app?vid=c5e8f4a8-7d39-4e03-bce9-db237bf71511"},"vehicle_type_id":"4","last_reported":1706288757,"current_range_meters":14000,"station_id":"ce4bgt92rcd13ifvqcg0","pricing_plan_id":"free"},{"bike_id":"1fcb387e-457b-4b6c-9802-b935a86d85aa","system_id":"levelo_inurba_marseille","lat":43.311125,"lon":5.377624,"is_reserved":false,"is_disabled":false,"rental_uris":{"android":"levelo://app?vid=1fcb387e-457b-4b6c-9802-b935a86d85aa","ios":"levelo://app?vid=1fcb387e-457b-4b6c-9802-b935a86d85aa"},"vehicle_type_id":"4","last_reported":1706288757,"current_range_meters":17600,"station_id":"ce4bgt92rcd13ifvqcg0","pricing_plan_id":"free"},{"bike_id":"08aeb24f-6fd6-400d-a34e-dab7421d9fe8","system_id":"levelo_inurba_marseille","lat":43.311125,"lon":5.377624,"is_reserved":false,"is_disabled":false,"rental_uris":{"android":"levelo://app?vid=08aeb24f-6fd6-400d-a34e-dab7421d9fe8","ios":"levelo://app?vid=08aeb24f-6fd6-400d-a34e-dab7421d9fe8"},"vehicle_type_id":"4","last_reported":1706288757,"current_range_meters":16400,"station_id":"ce4bgt92rcd13ifvqcg0","pricing_plan_id":"free"},{"bike_id":"3dc8fee1-88ee-45a0-9588-a46f96b6f5cf","system_id":"levelo_inurba_marseille","lat":43.311125,"lon":5.377624,"is_reserved":false,"is_disabled":false,"rental_uris":{"android":"levelo://app?vid=3dc8fee1-88ee-45a0-9588-a46f96b6f5cf","ios":"levelo://app?vid=3dc8fee1-88ee-45a0-9588-a46f96b6f5cf"},"vehicle_type_id":"4","last_reported":1706288757,"current_range_meters":25600,"station_id":"ce4bgt92rcd13ifvqcg0","pricing_plan_id":"free"},{"bike_id":"727419b3-634b-479b-8d7c-3c5965c8840f","system_id":"levelo_inurba_marseille","lat":43.29573,"lon":5.367355,"is_reserved":false,"is_disabled":false,"rental_uris":{"android":"levelo://app?vid=727419b3-634b-479b-8d7c-3c5965c8840f","ios":"levelo://app?vid=727419b3-634b-479b-8d7c-3c5965c8840f"},"vehicle_type_id":"4","last_reported":1706288757,"current_range_meters":25200,"station_id":"ce4bgph2rcd13ifvqc2g","pricing_plan_id":"free"},{"bike_id":"6fefa659-c3c7-459e-a0db-f896cd008f72","system_id":"levelo_inurba_marseille","lat":43.311125,"lon":5.377624,"is_reserved":false,"is_disabled":false,"rental_uris":{"android":"levelo://app?vid=6fefa659-c3c7-459e-a0db-f896cd008f72","ios":"levelo://app?vid=6fefa659-c3c7-459e-a0db-f896cd008f72"},"vehicle_type_id":"4","last_reported":1706288757,"current_range_meters":0,"station_id":"ce4bgt92rcd13ifvqcg0","pricing_plan_id":"free"},{"bike_id":"536adb45-2339-4fa4-a545-1cf0dc1e477a","system_id":"levelo_inurba_marseille","lat":43.311125,"lon":5.377624,"is_reserved":false,"is_disabled":false,"rental_uris":{"android":"levelo://app?vid=536adb45-2339-4fa4-a545-1cf0dc1e477a","ios":"levelo://app?vid=536adb45-2339-4fa4-a545-1cf0dc1e477a"},"vehicle_type_id":"4","last_reported":1706288757,"current_range_meters":12400,"station_id":"ce4bgt92rcd13ifvqcg0","pricing_plan_id":"free"},{"bike_id":"71b230a0-9624-46e8-81c0-866082e8aec2","system_id":"levelo_inurba_marseille","lat":43.311125,"lon":5.377624,"is_reserved":false,"is_disabled":false,"rental_uris":{"android":"levelo://app?vid=71b230a0-9624-46e8-81c0-866082e8aec2","ios":"levelo://app?vid=71b230a0-9624-46e8-81c0-866082e8aec2"},"vehicle_type_id":"4","last_reported":1706288757,"current_range_meters":12800,"station_id":"ce4bgt92rcd13ifvqcg0","pricing_plan_id":"free"},{"bike_id":"01be444e-eaaf-4c69-bb5e-70bfa91a2842","system_id":"levelo_inurba_marseille","lat":43.311125,"lon":5.377624,"is_reserved":false,"is_disabled":false,"rental_uris":{"android":"levelo://app?vid=01be444e-eaaf-4c69-bb5e-70bfa91a2842","ios":"levelo://app?vid=01be444e-eaaf-4c69-bb5e-70bfa91a2842"},"vehicle_type_id":"4","last_reported":1706288757,"current_range_meters":25200,"station_id":"ce4bgt92rcd13ifvqcg0","pricing_plan_id":"free"},{"bike_id":"85e77dcb-099f-4898-94f1-8a2d990ee686","system_id":"levelo_inurba_marseille","lat":43.311125,"lon":5.377624,"is_reserved":false,"is_disabled":false,"rental_uris":{"android":"levelo://app?vid=85e77dcb-099f-4898-94f1-8a2d990ee686","ios":"levelo://app?vid=85e77dcb-099f-4898-94f1-8a2d990ee686"},"vehicle_type_id":"4","last_reported":1706288757,"current_range_meters":7200,"station_id":"ce4bgt92rcd13ifvqcg0","pricing_plan_id":"free"},{"bike_id":"6e7d1cb7-e5f8-4313-aa2b-87f7c4d62751","system_id":"levelo_inurba_marseille","lat":43.317075,"lon":5.377367,"is_reserved":false,"is_disabled":false,"rental_uris":{"android":"levelo://app?vid=6e7d1cb7-e5f8-4313-aa2b-87f7c4d62751","ios":"levelo://app?vid=6e7d1cb7-e5f8-4313-aa2b-87f7c4d62751"},"vehicle_type_id":"4","last_reported":1706288757,"current_range_meters":17600,"station_id":"ce4bgth2rcd13ifvqch0","pricing_plan_id":"free"},{"bike_id":"52a9a8b6-e56d-4bcd-a558-12044da36464","system_id":"levelo_inurba_marseille","lat":43.317075,"lon":5.377373,"is_reserved":false,"is_disabled":false,"rental_uris":{"android":"levelo://app?vid=52a9a8b6-e56d-4bcd-a558-12044da36464","ios":"levelo://app?vid=52a9a8b6-e56d-4bcd-a558-12044da36464"},"vehicle_type_id":"4","last_reported":1706288757,"current_range_meters":7200,"station_id":"ce4bgth2rcd13ifvqch0","pricing_plan_id":"free"},{"bike_id":"0f44ee86-190c-4d6f-824c-774c8cd91e5e","system_id":"levelo_inurba_marseille","lat":43.317075,"lon":5.377367,"is_reserved":false,"is_disabled":false,"rental_uris":{"android":"levelo://app?vid=0f44ee86-190c-4d6f-824c-774c8cd91e5e","ios":"levelo://app?vid=0f44ee86-190c-4d6f-824c-774c8cd91e5e"},"vehicle_type_id":"4","last_reported":1706288757,"current_range_meters":19600,"station_id":"ce4bgth2rcd13ifvqch0","pricing_plan_id":"free"},{"bike_id":"8efdb943-2d3b-4b7f-8cb1-b663096d07b6","system_id":"levelo_inurba_marseille","lat":43.317087,"lon":5.377517,"is_reserved":false,"is_disabled":false,"rental_uris":{"android":"levelo://app?vid=8efdb943-2d3b-4b7f-8cb1-b663096d07b6","ios":"levelo://app?vid=8efdb943-2d3b-4b7f-8cb1-b663096d07b6"},"vehicle_type_id":"4","last_reported":1706288757,"current_range_meters":26800,"station_id":"ce4bgth2rcd13ifvqch0","pricing_plan_id":"free"},{"bike_id":"1c0522a1-813f-4f7f-8252-dba325cc1a94","system_id":"levelo_inurba_marseille","lat":43.317075,"lon":5.377367,"is_reserved":false,"is_disabled":false,"rental_uris":{"android":"levelo://app?vid=1c0522a1-813f-4f7f-8252-dba325cc1a94","ios":"levelo://app?vid=1c0522a1-813f-4f7f-8252-dba325cc1a94"},"vehicle_type_id":"4","last_reported":1706288757,"current_range_meters":31200,"station_id":"ce4bgth2rcd13ifvqch0","pricing_plan_id":"free"},{"bike_id":"183bb1c1-398f-466c-b05d-327ac4efc436","system_id":"levelo_inurba_marseille","lat":43.31719,"lon":5.37754,"is_reserved":false,"is_disabled":false,"rental_uris":{"android":"levelo://app?vid=183bb1c1-398f-466c-b05d-327ac4efc436","ios":"levelo://app?vid=183bb1c1-398f-466c-b05d-327ac4efc436"},"vehicle_type_id":"4","last_reported":1706288757,"current_range_meters":18000,"station_id":"ce4bgth2rcd13ifvqch0","pricing_plan_id":"free"},{"bike_id":"be6d0482-372b-432a-8731-d7f5c4663ef0","system_id":"levelo_inurba_marseille","lat":43.308012,"lon":5.381511,"is_reserved":false,"is_disabled":false,"rental_uris":{"android":"levelo://app?vid=be6d0482-372b-432a-8731-d7f5c4663ef0","ios":"levelo://app?vid=be6d0482-372b-432a-8731-d7f5c4663ef0"},"vehicle_type_id":"4","last_reported":1706288757,"current_range_meters":0,"station_id":"ce4bgt12rcd13ifvqce0","pricing_plan_id":"free"},{"bike_id":"5d0093e5-db84-43ed-9cce-72666eb3b8ed","system_id":"levelo_inurba_marseille","lat":43.308012,"lon":5.381511,"is_reserved":false,"is_disabled":false,"rental_uris":{"android":"levelo://app?vid=5d0093e5-db84-43ed-9cce-72666eb3b8ed","ios":"levelo://app?vid=5d0093e5-db84-43ed-9cce-72666eb3b8ed"},"vehicle_type_id":"4","last_reported":1706288757,"current_range_meters":27600,"station_id":"ce4bgt12rcd13ifvqce0","pricing_plan_id":"free"},{"bike_id":"9c3785cc-cb7d-4ec3-9ada-d989e5f1a7dd","system_id":"levelo_inurba_marseille","lat":43.30799,"lon":5.3816,"is_reserved":false,"is_disabled":false,"rental_uris":{"android":"levelo://app?vid=9c3785cc-cb7d-4ec3-9ada-d989e5f1a7dd","ios":"levelo://app?vid=9c3785cc-cb7d-4ec3-9ada-d989e5f1a7dd"},"vehicle_type_id":"4","last_reported":1706288757,"current_range_meters":0,"station_id":"ce4bgt12rcd13ifvqce0","pricing_plan_id":"free"},{"bike_id":"e81be8c8-a75b-429f-9780-cfac65cc4493","system_id":"levelo_inurba_marseille","lat":43.30461,"lon":5.37899,"is_reserved":false,"is_disabled":false,"rental_uris":{"android":"levelo://app?vid=e81be8c8-a75b-429f-9780-cfac65cc4493","ios":"levelo://app?vid=e81be8c8-a75b-429f-9780-cfac65cc4493"},"vehicle_type_id":"4","last_reported":1706288757,"current_range_meters":0,"station_id":"","pricing_plan_id":"free"},{"bike_id":"b65aae7c-fbc8-4c7b-999f-cf1a58a0dead","system_id":"levelo_inurba_marseille","lat":43.304591,"lon":5.37901,"is_reserved":false,"is_disabled":false,"rental_uris":{"android":"levelo://app?vid=b65aae7c-fbc8-4c7b-999f-cf1a58a0dead","ios":"levelo://app?vid=b65aae7c-fbc8-4c7b-999f-cf1a58a0dead"},"vehicle_type_id":"4","last_reported":1706288757,"current_range_meters":0,"station_id":"ce4bgup2rcd13ifvqcn0","pricing_plan_id":"free"},{"bike_id":"67dd0fec-772d-4a91-8e6f-add2eae29409","system_id":"levelo_inurba_marseille","lat":43.324771,"lon":5.36557,"is_reserved":false,"is_disabled":false,"rental_uris":{"android":"levelo://app?vid=67dd0fec-772d-4a91-8e6f-add2eae29409","ios":"levelo://app?vid=67dd0fec-772d-4a91-8e6f-add2eae29409"},"vehicle_type_id":"4","last_reported":1706288757,"current_range_meters":12400,"station_id":"ce4bhs12rcd13ifvqhvg","pricing_plan_id":"free"},{"bike_id":"27548bcf-c75e-421f-819e-88447da39bac","system_id":"levelo_inurba_marseille","lat":43.302784,"lon":5.377158,"is_reserved":false,"is_disabled":false,"rental_uris":{"android":"levelo://app?vid=27548bcf-c75e-421f-819e-88447da39bac","ios":"levelo://app?vid=27548bcf-c75e-421f-819e-88447da39bac"},"vehicle_type_id":"4","last_reported":1706288757,"current_range_meters":14000,"station_id":"ce4bguh2rcd13ifvqcj0","pricing_plan_id":"free"},{"bike_id":"01533f59-2c23-4279-b5fa-c0608335cf09","system_id":"levelo_inurba_marseille","lat":43.319911,"lon":5.38135,"is_reserved":false,"is_disabled":false,"rental_uris":{"android":"levelo://app?vid=01533f59-2c23-4279-b5fa-c0608335cf09","ios":"levelo://app?vid=01533f59-2c23-4279-b5fa-c0608335cf09"},"vehicle_type_id":"4","last_reported":1706288757,"current_range_meters":1600,"station_id":"","pricing_plan_id":"free"},{"bike_id":"fc51b747-b33f-40c9-9c2c-bd6f886bc3e2","system_id":"levelo_inurba_marseille","lat":43.319883,"lon":5.381426,"is_reserved":false,"is_disabled":false,"rental_uris":{"android":"levelo://app?vid=fc51b747-b33f-40c9-9c2c-bd6f886bc3e2","ios":"levelo://app?vid=fc51b747-b33f-40c9-9c2c-bd6f886bc3e2"},"vehicle_type_id":"4","last_reported":1706288757,"current_range_meters":14000,"station_id":"ce4bhr12rcd13ifvqhpg","pricing_plan_id":"free"},{"bike_id":"fd388e30-6c90-4fbf-abdf-dd15ef425659","system_id":"levelo_inurba_marseille","lat":43.319967,"lon":5.381565,"is_reserved":false,"is_disabled":false,"rental_uris":{"android":"levelo://app?vid=fd388e30-6c90-4fbf-abdf-dd15ef425659","ios":"levelo://app?vid=fd388e30-6c90-4fbf-abdf-dd15ef425659"},"vehicle_type_id":"4","last_reported":1706288757,"current_range_meters":9600,"station_id":"ce4bhr12rcd13ifvqhpg","pricing_plan_id":"free"},{"bike_id":"a1667ffa-1634-497f-8dc7-ea0bad5547c1","system_id":"levelo_inurba_marseille","lat":43.309039,"lon":5.371797,"is_reserved":false,"is_disabled":false,"rental_uris":{"android":"levelo://app?vid=a1667ffa-1634-497f-8dc7-ea0bad5547c1","ios":"levelo://app?vid=a1667ffa-1634-497f-8dc7-ea0bad5547c1"},"vehicle_type_id":"4","last_reported":1706288757,"current_range_meters":18800,"station_id":"ce4bguh2rcd13ifvqckg","pricing_plan_id":"free"},{"bike_id":"86ca605a-48b3-433c-9666-07c3c5ac4379","system_id":"levelo_inurba_marseille","lat":43.318422,"lon":5.384278,"is_reserved":false,"is_disabled":false,"rental_uris":{"android":"levelo://app?vid=86ca605a-48b3-433c-9666-07c3c5ac4379","ios":"levelo://app?vid=86ca605a-48b3-433c-9666-07c3c5ac4379"},"vehicle_type_id":"4","last_reported":1706288757,"current_range_meters":1200,"station_id":"","pricing_plan_id":"free"},{"bike_id":"b5e1d934-23a2-47f7-ac27-cfd782f52a39","system_id":"levelo_inurba_marseille","lat":43.30541,"lon":5.38441,"is_reserved":false,"is_disabled":false,"rental_uris":{"android":"levelo://app?vid=b5e1d934-23a2-47f7-ac27-cfd782f52a39","ios":"levelo://app?vid=b5e1d934-23a2-47f7-ac27-cfd782f52a39"},"vehicle_type_id":"4","last_reported":1706288757,"current_range_meters":14800,"station_id":"ce4bgg92rcd13ifvqb30","pricing_plan_id":"free"},{"bike_id":"a21789e9-f085-4b78-8a48-f759f1c974c9","system_id":"levelo_inurba_marseille","lat":43.299243,"lon":5.37481,"is_reserved":false,"is_disabled":false,"rental_uris":{"android":"levelo://app?vid=a21789e9-f085-4b78-8a48-f759f1c974c9","ios":"levelo://app?vid=a21789e9-f085-4b78-8a48-f759f1c974c9"},"vehicle_type_id":"4","last_reported":1706288757,"current_range_meters":3600,"station_id":"ce4bgjh2rcd13ifvqbg0","pricing_plan_id":"free"},{"bike_id":"f214340b-fc6d-45b4-9d29-cd6d0825c5a2","system_id":"levelo_inurba_marseille","lat":43.322872,"lon":5.382756,"is_reserved":false,"is_disabled":false,"rental_uris":{"android":"levelo://app?vid=f214340b-fc6d-45b4-9d29-cd6d0825c5a2","ios":"levelo://app?vid=f214340b-fc6d-45b4-9d29-cd6d0825c5a2"},"vehicle_type_id":"4","last_reported":1706288757,"current_range_meters":22000,"station_id":"ce4bhr12rcd13ifvqhqg","pricing_plan_id":"free"},{"bike_id":"58869f62-9378-499d-b685-f87a15d556a8","system_id":"levelo_inurba_marseille","lat":43.322872,"lon":5.382756,"is_reserved":false,"is_disabled":false,"rental_uris":{"android":"levelo://app?vid=58869f62-9378-499d-b685-f87a15d556a8","ios":"levelo://app?vid=58869f62-9378-499d-b685-f87a15d556a8"},"vehicle_type_id":"4","last_reported":1706288757,"current_range_meters":18400,"station_id":"ce4bhr12rcd13ifvqhqg","pricing_plan_id":"free"},{"bike_id":"8889a62b-f08d-43d6-bbc3-74d3cb3d445f","system_id":"levelo_inurba_marseille","lat":43.322872,"lon":5.382756,"is_reserved":false,"is_disabled":false,"rental_uris":{"android":"levelo://app?vid=8889a62b-f08d-43d6-bbc3-74d3cb3d445f","ios":"levelo://app?vid=8889a62b-f08d-43d6-bbc3-74d3cb3d445f"},"vehicle_type_id":"4","last_reported":1706288757,"current_range_meters":23200,"station_id":"ce4bhr12rcd13ifvqhqg","pricing_plan_id":"free"},{"bike_id":"bb5cc78f-0a25-43e2-927a-9d5a0eeb06b6","system_id":"levelo_inurba_marseille","lat":43.322872,"lon":5.382756,"is_reserved":false,"is_disabled":false,"rental_uris":{"android":"levelo://app?vid=bb5cc78f-0a25-43e2-927a-9d5a0eeb06b6","ios":"levelo://app?vid=bb5cc78f-0a25-43e2-927a-9d5a0eeb06b6"},"vehicle_type_id":"4","last_reported":1706288757,"current_range_meters":20000,"station_id":"ce4bhr12rcd13ifvqhqg","pricing_plan_id":"free"},{"bike_id":"26d7088e-2231-4775-a6df-74d26d9e7ddf","system_id":"levelo_inurba_marseille","lat":43.328371,"lon":5.366909,"is_reserved":false,"is_disabled":false,"rental_uris":{"android":"levelo://app?vid=26d7088e-2231-4775-a6df-74d26d9e7ddf","ios":"levelo://app?vid=26d7088e-2231-4775-a6df-74d26d9e7ddf"},"vehicle_type_id":"4","last_reported":1706288757,"current_range_meters":15600,"station_id":"ce4bhs92rcd13ifvqi0g","pricing_plan_id":"free"},{"bike_id":"914d72db-ac4f-45b1-b4ff-eea208177d9d","system_id":"levelo_inurba_marseille","lat":43.297163,"lon":5.365866,"is_reserved":false,"is_disabled":false,"rental_uris":{"android":"levelo://app?vid=914d72db-ac4f-45b1-b4ff-eea208177d9d","ios":"levelo://app?vid=914d72db-ac4f-45b1-b4ff-eea208177d9d"},"vehicle_type_id":"4","last_reported":1706288757,"current_range_meters":19600,"station_id":"ce4bgn12rcd13ifvqbt0","pricing_plan_id":"free"},{"bike_id":"f0ba7ddf-1076-478b-9cbc-b56e1d1df982","system_id":"levelo_inurba_marseille","lat":43.29577,"lon":5.36694,"is_reserved":false,"is_disabled":false,"rental_uris":{"android":"levelo://app?vid=f0ba7ddf-1076-478b-9cbc-b56e1d1df982","ios":"levelo://app?vid=f0ba7ddf-1076-478b-9cbc-b56e1d1df982"},"vehicle_type_id":"4","last_reported":1706288757,"current_range_meters":26800,"station_id":"","pricing_plan_id":"free"},{"bike_id":"669ca174-5b86-4e7f-a8a7-27da0bbfcd53","system_id":"levelo_inurba_marseille","lat":43.296921,"lon":5.376579,"is_reserved":false,"is_disabled":false,"rental_uris":{"android":"levelo://app?vid=669ca174-5b86-4e7f-a8a7-27da0bbfcd53","ios":"levelo://app?vid=669ca174-5b86-4e7f-a8a7-27da0bbfcd53"},"vehicle_type_id":"4","last_reported":1706288757,"current_range_meters":4000,"station_id":"ce4bgkh2rcd13ifvqbl0","pricing_plan_id":"free"},{"bike_id":"287d6264-0b84-4ebf-b794-e601b0e094d6","system_id":"levelo_inurba_marseille","lat":43.30949,"lon":5.39028,"is_reserved":false,"is_disabled":false,"rental_uris":{"android":"levelo://app?vid=287d6264-0b84-4ebf-b794-e601b0e094d6","ios":"levelo://app?vid=287d6264-0b84-4ebf-b794-e601b0e094d6"},"vehicle_type_id":"4","last_reported":1706288757,"current_range_meters":27600,"station_id":"","pricing_plan_id":"free"},{"bike_id":"b1f5b70c-2edd-4604-9baf-d4387a6db236","system_id":"levelo_inurba_marseille","lat":43.296935,"lon":5.376544,"is_reserved":false,"is_disabled":false,"rental_uris":{"android":"levelo://app?vid=b1f5b70c-2edd-4604-9baf-d4387a6db236","ios":"levelo://app?vid=b1f5b70c-2edd-4604-9baf-d4387a6db236"},"vehicle_type_id":"4","last_reported":1706288757,"current_range_meters":0,"station_id":"ce4bgkh2rcd13ifvqbl0","pricing_plan_id":"free"},{"bike_id":"714c5324-8666-4d90-8c37-c2e8b061eec8","system_id":"levelo_inurba_marseille","lat":43.309589,"lon":5.390258,"is_reserved":false,"is_disabled":false,"rental_uris":{"android":"levelo://app?vid=714c5324-8666-4d90-8c37-c2e8b061eec8","ios":"levelo://app?vid=714c5324-8666-4d90-8c37-c2e8b061eec8"},"vehicle_type_id":"4","last_reported":1706288757,"current_range_meters":17600,"station_id":"ce4bgup2rcd13ifvqco0","pricing_plan_id":"free"},{"bike_id":"ec0be0b0-476d-4397-91c7-78689ee3d5a2","system_id":"levelo_inurba_marseille","lat":43.309589,"lon":5.390258,"is_reserved":false,"is_disabled":false,"rental_uris":{"android":"levelo://app?vid=ec0be0b0-476d-4397-91c7-78689ee3d5a2","ios":"levelo://app?vid=ec0be0b0-476d-4397-91c7-78689ee3d5a2"},"vehicle_type_id":"4","last_reported":1706288757,"current_range_meters":2400,"station_id":"ce4bgup2rcd13ifvqco0","pricing_plan_id":"free"},{"bike_id":"429ba521-cf0e-444c-bbcc-17c7f908d87a","system_id":"levelo_inurba_marseille","lat":43.309589,"lon":5.390258,"is_reserved":false,"is_disabled":false,"rental_uris":{"android":"levelo://app?vid=429ba521-cf0e-444c-bbcc-17c7f908d87a","ios":"levelo://app?vid=429ba521-cf0e-444c-bbcc-17c7f908d87a"},"vehicle_type_id":"4","last_reported":1706288757,"current_range_meters":7600,"station_id":"ce4bgup2rcd13ifvqco0","pricing_plan_id":"free"},{"bike_id":"9eee8bba-9f6c-4442-90f7-b9b7f8a147bb","system_id":"levelo_inurba_marseille","lat":43.317557,"lon":5.390173,"is_reserved":false,"is_disabled":false,"rental_uris":{"android":"levelo://app?vid=9eee8bba-9f6c-4442-90f7-b9b7f8a147bb","ios":"levelo://app?vid=9eee8bba-9f6c-4442-90f7-b9b7f8a147bb"},"vehicle_type_id":"4","last_reported":1706288757,"current_range_meters":22400,"station_id":"ce4bhqp2rcd13ifvqhng","pricing_plan_id":"free"},{"bike_id":"af9f98fc-1b38-483c-9bb8-cf5dbd0ec1e8","system_id":"levelo_inurba_marseille","lat":43.317557,"lon":5.390173,"is_reserved":false,"is_disabled":false,"rental_uris":{"android":"levelo://app?vid=af9f98fc-1b38-483c-9bb8-cf5dbd0ec1e8","ios":"levelo://app?vid=af9f98fc-1b38-483c-9bb8-cf5dbd0ec1e8"},"vehicle_type_id":"4","last_reported":1706288757,"current_range_meters":13600,"station_id":"ce4bhqp2rcd13ifvqhng","pricing_plan_id":"free"},{"bike_id":"6356eb48-1cbc-4ae8-a585-58dc417434e6","system_id":"levelo_inurba_marseille","lat":43.31762,"lon":5.39014,"is_reserved":false,"is_disabled":false,"rental_uris":{"android":"levelo://app?vid=6356eb48-1cbc-4ae8-a585-58dc417434e6","ios":"levelo://app?vid=6356eb48-1cbc-4ae8-a585-58dc417434e6"},"vehicle_type_id":"4","last_reported":1706288757,"current_range_meters":8400,"station_id":"ce4bhqp2rcd13ifvqhng","pricing_plan_id":"free"},{"bike_id":"2ceb589a-5d1f-4b41-8731-91dde3244961","system_id":"levelo_inurba_marseille","lat":43.317557,"lon":5.390173,"is_reserved":false,"is_disabled":false,"rental_uris":{"android":"levelo://app?vid=2ceb589a-5d1f-4b41-8731-91dde3244961","ios":"levelo://app?vid=2ceb589a-5d1f-4b41-8731-91dde3244961"},"vehicle_type_id":"4","last_reported":1706288757,"current_range_meters":18000,"station_id":"ce4bhqp2rcd13ifvqhng","pricing_plan_id":"free"},{"bike_id":"e381c7e8-d010-45cc-9024-eb5220f2e071","system_id":"levelo_inurba_marseille","lat":43.29694,"lon":5.37875,"is_reserved":false,"is_disabled":false,"rental_uris":{"android":"levelo://app?vid=e381c7e8-d010-45cc-9024-eb5220f2e071","ios":"levelo://app?vid=e381c7e8-d010-45cc-9024-eb5220f2e071"},"vehicle_type_id":"4","last_reported":1706288757,"current_range_meters":0,"station_id":"","pricing_plan_id":"free"},{"bike_id":"818f6408-2bc0-46cb-92b9-141628a173fd","system_id":"levelo_inurba_marseille","lat":43.304274,"lon":5.388873,"is_reserved":false,"is_disabled":false,"rental_uris":{"android":"levelo://app?vid=818f6408-2bc0-46cb-92b9-141628a173fd","ios":"levelo://app?vid=818f6408-2bc0-46cb-92b9-141628a173fd"},"vehicle_type_id":"4","last_reported":1706288757,"current_range_meters":7200,"station_id":"ce4bgk12rcd13ifvqbi0","pricing_plan_id":"free"},{"bike_id":"7b781071-2138-4aca-acec-46b802a6b19e","system_id":"levelo_inurba_marseille","lat":43.304274,"lon":5.388873,"is_reserved":false,"is_disabled":false,"rental_uris":{"android":"levelo://app?vid=7b781071-2138-4aca-acec-46b802a6b19e","ios":"levelo://app?vid=7b781071-2138-4aca-acec-46b802a6b19e"},"vehicle_type_id":"4","last_reported":1706288757,"current_range_meters":6800,"station_id":"ce4bgk12rcd13ifvqbi0","pricing_plan_id":"free"},{"bike_id":"0e545ec9-28dd-4d8c-a21a-7db418a84599","system_id":"levelo_inurba_marseille","lat":43.295748,"lon":5.37522,"is_reserved":false,"is_disabled":false,"rental_uris":{"android":"levelo://app?vid=0e545ec9-28dd-4d8c-a21a-7db418a84599","ios":"levelo://app?vid=0e545ec9-28dd-4d8c-a21a-7db418a84599"},"vehicle_type_id":"4","last_reported":1706288757,"current_range_meters":24000,"station_id":"ce4bgh92rcd13ifvqb50","pricing_plan_id":"free"},{"bike_id":"e5cc4451-b8cb-4fa9-a738-cc4a8eb43f22","system_id":"levelo_inurba_marseille","lat":43.296263,"lon":5.377094,"is_reserved":false,"is_disabled":false,"rental_uris":{"android":"levelo://app?vid=e5cc4451-b8cb-4fa9-a738-cc4a8eb43f22","ios":"levelo://app?vid=e5cc4451-b8cb-4fa9-a738-cc4a8eb43f22"},"vehicle_type_id":"4","last_reported":1706288757,"current_range_meters":11200,"station_id":"ce4bgi92rcd13ifvqb90","pricing_plan_id":"free"},{"bike_id":"a9d8eb7f-56d3-4c47-bcdd-cec8fb46a76f","system_id":"levelo_inurba_marseille","lat":43.295748,"lon":5.37522,"is_reserved":false,"is_disabled":false,"rental_uris":{"android":"levelo://app?vid=a9d8eb7f-56d3-4c47-bcdd-cec8fb46a76f","ios":"levelo://app?vid=a9d8eb7f-56d3-4c47-bcdd-cec8fb46a76f"},"vehicle_type_id":"4","last_reported":1706288757,"current_range_meters":22400,"station_id":"ce4bgh92rcd13ifvqb50","pricing_plan_id":"free"},{"bike_id":"c840bce5-0fef-4b89-a898-ac962c1e1d34","system_id":"levelo_inurba_marseille","lat":43.295748,"lon":5.37522,"is_reserved":false,"is_disabled":false,"rental_uris":{"android":"levelo://app?vid=c840bce5-0fef-4b89-a898-ac962c1e1d34","ios":"levelo://app?vid=c840bce5-0fef-4b89-a898-ac962c1e1d34"},"vehicle_type_id":"4","last_reported":1706288757,"current_range_meters":11600,"station_id":"ce4bgh92rcd13ifvqb50","pricing_plan_id":"free"},{"bike_id":"caa184d7-b408-4889-a811-a14b1819e678","system_id":"levelo_inurba_marseille","lat":43.296277,"lon":5.377108,"is_reserved":false,"is_disabled":false,"rental_uris":{"android":"levelo://app?vid=caa184d7-b408-4889-a811-a14b1819e678","ios":"levelo://app?vid=caa184d7-b408-4889-a811-a14b1819e678"},"vehicle_type_id":"4","last_reported":1706288757,"current_range_meters":1600,"station_id":"ce4bgi92rcd13ifvqb90","pricing_plan_id":"free"},{"bike_id":"3d26a50f-25b9-4b17-9d57-b22901720e66","system_id":"levelo_inurba_marseille","lat":43.299707,"lon":5.384859,"is_reserved":false,"is_disabled":false,"rental_uris":{"android":"levelo://app?vid=3d26a50f-25b9-4b17-9d57-b22901720e66","ios":"levelo://app?vid=3d26a50f-25b9-4b17-9d57-b22901720e66"},"vehicle_type_id":"4","last_reported":1706288757,"current_range_meters":6400,"station_id":"ce4bgj92rcd13ifvqbd0","pricing_plan_id":"free"},{"bike_id":"191b5b39-1cf5-40c3-a470-a6ce54dea617","system_id":"levelo_inurba_marseille","lat":43.29967,"lon":5.38493,"is_reserved":false,"is_disabled":false,"rental_uris":{"android":"levelo://app?vid=191b5b39-1cf5-40c3-a470-a6ce54dea617","ios":"levelo://app?vid=191b5b39-1cf5-40c3-a470-a6ce54dea617"},"vehicle_type_id":"4","last_reported":1706288757,"current_range_meters":0,"station_id":"ce4bgj92rcd13ifvqbd0","pricing_plan_id":"free"},{"bike_id":"40996b4a-fac6-4cc2-a8e8-9a9ba72f10c9","system_id":"levelo_inurba_marseille","lat":43.298614,"lon":5.383962,"is_reserved":false,"is_disabled":false,"rental_uris":{"android":"levelo://app?vid=40996b4a-fac6-4cc2-a8e8-9a9ba72f10c9","ios":"levelo://app?vid=40996b4a-fac6-4cc2-a8e8-9a9ba72f10c9"},"vehicle_type_id":"4","last_reported":1706288757,"current_range_meters":12400,"station_id":"","pricing_plan_id":"free"},{"bike_id":"0ea3fd81-3f73-43eb-a24e-cc7fa2617f9d","system_id":"levelo_inurba_marseille","lat":43.32367,"lon":5.388836,"is_reserved":false,"is_disabled":false,"rental_uris":{"android":"levelo://app?vid=0ea3fd81-3f73-43eb-a24e-cc7fa2617f9d","ios":"levelo://app?vid=0ea3fd81-3f73-43eb-a24e-cc7fa2617f9d"},"vehicle_type_id":"4","last_reported":1706288757,"current_range_meters":8400,"station_id":"ce4bhqp2rcd13ifvqhog","pricing_plan_id":"free"},{"bike_id":"d7803bed-fb47-4ba6-b32d-728fc496b369","system_id":"levelo_inurba_marseille","lat":43.32367,"lon":5.388836,"is_reserved":false,"is_disabled":false,"rental_uris":{"android":"levelo://app?vid=d7803bed-fb47-4ba6-b32d-728fc496b369","ios":"levelo://app?vid=d7803bed-fb47-4ba6-b32d-728fc496b369"},"vehicle_type_id":"4","last_reported":1706288757,"current_range_meters":17200,"station_id":"ce4bhqp2rcd13ifvqhog","pricing_plan_id":"free"},{"bike_id":"cec4ad59-07b9-4fac-98fd-7e0e4d5c0fc2","system_id":"levelo_inurba_marseille","lat":43.32367,"lon":5.388836,"is_reserved":false,"is_disabled":false,"rental_uris":{"android":"levelo://app?vid=cec4ad59-07b9-4fac-98fd-7e0e4d5c0fc2","ios":"levelo://app?vid=cec4ad59-07b9-4fac-98fd-7e0e4d5c0fc2"},"vehicle_type_id":"4","last_reported":1706288757,"current_range_meters":13600,"station_id":"ce4bhqp2rcd13ifvqhog","pricing_plan_id":"free"},{"bike_id":"439458f2-c468-43ac-8531-4372a5b8883a","system_id":"levelo_inurba_marseille","lat":43.32367,"lon":5.388836,"is_reserved":false,"is_disabled":false,"rental_uris":{"android":"levelo://app?vid=439458f2-c468-43ac-8531-4372a5b8883a","ios":"levelo://app?vid=439458f2-c468-43ac-8531-4372a5b8883a"},"vehicle_type_id":"4","last_reported":1706288757,"current_range_meters":22400,"station_id":"ce4bhqp2rcd13ifvqhog","pricing_plan_id":"free"},{"bike_id":"6d4e98a9-3b8c-4251-9bc4-f50fadfe25a7","system_id":"levelo_inurba_marseille","lat":43.32367,"lon":5.388836,"is_reserved":false,"is_disabled":false,"rental_uris":{"android":"levelo://app?vid=6d4e98a9-3b8c-4251-9bc4-f50fadfe25a7","ios":"levelo://app?vid=6d4e98a9-3b8c-4251-9bc4-f50fadfe25a7"},"vehicle_type_id":"4","last_reported":1706288757,"current_range_meters":24400,"station_id":"ce4bhqp2rcd13ifvqhog","pricing_plan_id":"free"},{"bike_id":"8d5d7d90-3140-42b3-baec-87e10b9c2cf1","system_id":"levelo_inurba_marseille","lat":43.293249,"lon":5.371578,"is_reserved":false,"is_disabled":false,"rental_uris":{"android":"levelo://app?vid=8d5d7d90-3140-42b3-baec-87e10b9c2cf1","ios":"levelo://app?vid=8d5d7d90-3140-42b3-baec-87e10b9c2cf1"},"vehicle_type_id":"4","last_reported":1706288757,"current_range_meters":21600,"station_id":"ce4bgh92rcd13ifvqb40","pricing_plan_id":"free"},{"bike_id":"e822cf05-2540-45e4-a706-50c518ed4b25","system_id":"levelo_inurba_marseille","lat":43.293009,"lon":5.374584,"is_reserved":false,"is_disabled":false,"rental_uris":{"android":"levelo://app?vid=e822cf05-2540-45e4-a706-50c518ed4b25","ios":"levelo://app?vid=e822cf05-2540-45e4-a706-50c518ed4b25"},"vehicle_type_id":"4","last_reported":1706288757,"current_range_meters":13600,"station_id":"ce4bgi12rcd13ifvqb70","pricing_plan_id":"free"},{"bike_id":"e45da3b9-fa29-4254-97fd-2c725b463bff","system_id":"levelo_inurba_marseille","lat":43.305994,"lon":5.393687,"is_reserved":false,"is_disabled":false,"rental_uris":{"android":"levelo://app?vid=e45da3b9-fa29-4254-97fd-2c725b463bff","ios":"levelo://app?vid=e45da3b9-fa29-4254-97fd-2c725b463bff"},"vehicle_type_id":"4","last_reported":1706288757,"current_range_meters":2400,"station_id":"ce4bh0p2rcd13ifvqd80","pricing_plan_id":"free"},{"bike_id":"74662186-9e1c-4330-8133-c6b7012e034c","system_id":"levelo_inurba_marseille","lat":43.30586,"lon":5.39358,"is_reserved":false,"is_disabled":false,"rental_uris":{"android":"levelo://app?vid=74662186-9e1c-4330-8133-c6b7012e034c","ios":"levelo://app?vid=74662186-9e1c-4330-8133-c6b7012e034c"},"vehicle_type_id":"4","last_reported":1706288757,"current_range_meters":0,"station_id":"ce4bh0p2rcd13ifvqd80","pricing_plan_id":"free"},{"bike_id":"1bec49d1-c645-4be0-9d9e-20225a43f958","system_id":"levelo_inurba_marseille","lat":43.298037,"lon":5.381066,"is_reserved":false,"is_disabled":false,"rental_uris":{"android":"levelo://app?vid=1bec49d1-c645-4be0-9d9e-20225a43f958","ios":"levelo://app?vid=1bec49d1-c645-4be0-9d9e-20225a43f958"},"vehicle_type_id":"4","last_reported":1706288757,"current_range_meters":23600,"station_id":"ce4bgip2rcd13ifvqbb0","pricing_plan_id":"free"},{"bike_id":"0f79b0ee-40a5-4cf3-b33b-f564ba24ea1b","system_id":"levelo_inurba_marseille","lat":43.292311,"lon":5.360731,"is_reserved":false,"is_disabled":false,"rental_uris":{"android":"levelo://app?vid=0f79b0ee-40a5-4cf3-b33b-f564ba24ea1b","ios":"levelo://app?vid=0f79b0ee-40a5-4cf3-b33b-f564ba24ea1b"},"vehicle_type_id":"4","last_reported":1706288757,"current_range_meters":6800,"station_id":"ce4bhbh2rcd13ifvqeqg","pricing_plan_id":"free"},{"bike_id":"3bcf1ec1-cda9-46ac-acc6-ad5acc187428","system_id":"levelo_inurba_marseille","lat":43.290104,"lon":5.356111,"is_reserved":false,"is_disabled":false,"rental_uris":{"android":"levelo://app?vid=3bcf1ec1-cda9-46ac-acc6-ad5acc187428","ios":"levelo://app?vid=3bcf1ec1-cda9-46ac-acc6-ad5acc187428"},"vehicle_type_id":"4","last_reported":1706288757,"current_range_meters":2400,"station_id":"ce4bhb92rcd13ifvqen0","pricing_plan_id":"free"},{"bike_id":"90b0c999-ed44-4bcb-bdd7-85facb9961ee","system_id":"levelo_inurba_marseille","lat":43.300852,"lon":5.390859,"is_reserved":false,"is_disabled":false,"rental_uris":{"android":"levelo://app?vid=90b0c999-ed44-4bcb-bdd7-85facb9961ee","ios":"levelo://app?vid=90b0c999-ed44-4bcb-bdd7-85facb9961ee"},"vehicle_type_id":"4","last_reported":1706288757,"current_range_meters":25200,"station_id":"ce4bh192rcd13ifvqdb0","pricing_plan_id":"free"},{"bike_id":"139a1f49-920d-4c55-9dd5-58cc65562670","system_id":"levelo_inurba_marseille","lat":43.292311,"lon":5.360731,"is_reserved":false,"is_disabled":false,"rental_uris":{"android":"levelo://app?vid=139a1f49-920d-4c55-9dd5-58cc65562670","ios":"levelo://app?vid=139a1f49-920d-4c55-9dd5-58cc65562670"},"vehicle_type_id":"4","last_reported":1706288757,"current_range_meters":15200,"station_id":"ce4bhbh2rcd13ifvqeqg","pricing_plan_id":"free"},{"bike_id":"0b61dc40-37a3-49a8-8e0d-1ebaa5873097","system_id":"levelo_inurba_marseille","lat":43.292311,"lon":5.360731,"is_reserved":false,"is_disabled":false,"rental_uris":{"android":"levelo://app?vid=0b61dc40-37a3-49a8-8e0d-1ebaa5873097","ios":"levelo://app?vid=0b61dc40-37a3-49a8-8e0d-1ebaa5873097"},"vehicle_type_id":"4","last_reported":1706288757,"current_range_meters":0,"station_id":"ce4bhbh2rcd13ifvqeqg","pricing_plan_id":"free"},{"bike_id":"33eb5899-2263-4601-8070-0871b2140d8c","system_id":"levelo_inurba_marseille","lat":43.292311,"lon":5.360731,"is_reserved":false,"is_disabled":false,"rental_uris":{"android":"levelo://app?vid=33eb5899-2263-4601-8070-0871b2140d8c","ios":"levelo://app?vid=33eb5899-2263-4601-8070-0871b2140d8c"},"vehicle_type_id":"4","last_reported":1706288757,"current_range_meters":0,"station_id":"ce4bhbh2rcd13ifvqeqg","pricing_plan_id":"free"},{"bike_id":"f43bc4b9-69b4-4c2e-a7f1-390317b11d36","system_id":"levelo_inurba_marseille","lat":43.292627,"lon":5.376233,"is_reserved":false,"is_disabled":false,"rental_uris":{"android":"levelo://app?vid=f43bc4b9-69b4-4c2e-a7f1-390317b11d36","ios":"levelo://app?vid=f43bc4b9-69b4-4c2e-a7f1-390317b11d36"},"vehicle_type_id":"4","last_reported":1706288757,"current_range_meters":20400,"station_id":"ce4bgi12rcd13ifvqb70","pricing_plan_id":"free"},{"bike_id":"2cdd5039-e8ec-441b-9bd5-4c34b690b828","system_id":"levelo_inurba_marseille","lat":43.304918,"lon":5.394222,"is_reserved":false,"is_disabled":false,"rental_uris":{"android":"levelo://app?vid=2cdd5039-e8ec-441b-9bd5-4c34b690b828","ios":"levelo://app?vid=2cdd5039-e8ec-441b-9bd5-4c34b690b828"},"vehicle_type_id":"4","last_reported":1706288757,"current_range_meters":23600,"station_id":"","pricing_plan_id":"free"},{"bike_id":"09034d29-bd11-43d9-a640-3dee314c0041","system_id":"levelo_inurba_marseille","lat":43.313291,"lon":5.396838,"is_reserved":false,"is_disabled":false,"rental_uris":{"android":"levelo://app?vid=09034d29-bd11-43d9-a640-3dee314c0041","ios":"levelo://app?vid=09034d29-bd11-43d9-a640-3dee314c0041"},"vehicle_type_id":"4","last_reported":1706288757,"current_range_meters":0,"station_id":"ce4bgvp2rcd13ifvqcu0","pricing_plan_id":"free"},{"bike_id":"d81d16ca-a0cb-443a-b147-0d1eaf988295","system_id":"levelo_inurba_marseille","lat":43.309047,"lon":5.396551,"is_reserved":false,"is_disabled":false,"rental_uris":{"android":"levelo://app?vid=d81d16ca-a0cb-443a-b147-0d1eaf988295","ios":"levelo://app?vid=d81d16ca-a0cb-443a-b147-0d1eaf988295"},"vehicle_type_id":"4","last_reported":1706288757,"current_range_meters":20000,"station_id":"ce4bh012rcd13ifvqcv0","pricing_plan_id":"free"},{"bike_id":"a2ad11db-5050-4410-b2fc-bb25eaae3284","system_id":"levelo_inurba_marseille","lat":43.313291,"lon":5.396838,"is_reserved":false,"is_disabled":false,"rental_uris":{"android":"levelo://app?vid=a2ad11db-5050-4410-b2fc-bb25eaae3284","ios":"levelo://app?vid=a2ad11db-5050-4410-b2fc-bb25eaae3284"},"vehicle_type_id":"4","last_reported":1706288757,"current_range_meters":24800,"station_id":"ce4bgvp2rcd13ifvqcu0","pricing_plan_id":"free"},{"bike_id":"123bfbf6-802d-4815-a808-4d6e68fce9b6","system_id":"levelo_inurba_marseille","lat":43.29529,"lon":5.385581,"is_reserved":false,"is_disabled":false,"rental_uris":{"android":"levelo://app?vid=123bfbf6-802d-4815-a808-4d6e68fce9b6","ios":"levelo://app?vid=123bfbf6-802d-4815-a808-4d6e68fce9b6"},"vehicle_type_id":"4","last_reported":1706288757,"current_range_meters":21600,"station_id":"ce4bgih2rcd13ifvqba0","pricing_plan_id":"free"},{"bike_id":"0aca2dae-aafa-4c32-a6b5-0ddbdb0a3f3c","system_id":"levelo_inurba_marseille","lat":43.290779,"lon":5.371482,"is_reserved":false,"is_disabled":false,"rental_uris":{"android":"levelo://app?vid=0aca2dae-aafa-4c32-a6b5-0ddbdb0a3f3c","ios":"levelo://app?vid=0aca2dae-aafa-4c32-a6b5-0ddbdb0a3f3c"},"vehicle_type_id":"4","last_reported":1706288757,"current_range_meters":1200,"station_id":"ce4bh5p2rcd13ifvqe4g","pricing_plan_id":"free"},{"bike_id":"cdb1bfdb-ac56-40e3-9ecc-ec151f1e7e3a","system_id":"levelo_inurba_marseille","lat":43.290779,"lon":5.371482,"is_reserved":false,"is_disabled":false,"rental_uris":{"android":"levelo://app?vid=cdb1bfdb-ac56-40e3-9ecc-ec151f1e7e3a","ios":"levelo://app?vid=cdb1bfdb-ac56-40e3-9ecc-ec151f1e7e3a"},"vehicle_type_id":"4","last_reported":1706288757,"current_range_meters":23200,"station_id":"ce4bh5p2rcd13ifvqe4g","pricing_plan_id":"free"},{"bike_id":"c57b109a-efa5-4bd6-a416-70d86c572fda","system_id":"levelo_inurba_marseille","lat":43.290631,"lon":5.359244,"is_reserved":false,"is_disabled":false,"rental_uris":{"android":"levelo://app?vid=c57b109a-efa5-4bd6-a416-70d86c572fda","ios":"levelo://app?vid=c57b109a-efa5-4bd6-a416-70d86c572fda"},"vehicle_type_id":"4","last_reported":1706288757,"current_range_meters":1600,"station_id":"ce4bha92rcd13ifvqeg0","pricing_plan_id":"free"},{"bike_id":"be207f12-48f0-401c-9b09-f121d751c718","system_id":"levelo_inurba_marseille","lat":43.289184,"lon":5.366408,"is_reserved":false,"is_disabled":false,"rental_uris":{"android":"levelo://app?vid=be207f12-48f0-401c-9b09-f121d751c718","ios":"levelo://app?vid=be207f12-48f0-401c-9b09-f121d751c718"},"vehicle_type_id":"4","last_reported":1706288757,"current_range_meters":20400,"station_id":"ce4bhap2rcd13ifvqek0","pricing_plan_id":"free"},{"bike_id":"d4b55995-352b-4fdb-b543-2f1260742194","system_id":"levelo_inurba_marseille","lat":43.294153,"lon":5.386305,"is_reserved":false,"is_disabled":false,"rental_uris":{"android":"levelo://app?vid=d4b55995-352b-4fdb-b543-2f1260742194","ios":"levelo://app?vid=d4b55995-352b-4fdb-b543-2f1260742194"},"vehicle_type_id":"4","last_reported":1706288757,"current_range_meters":800,"station_id":"ce4bh2h2rcd13ifvqdh0","pricing_plan_id":"free"},{"bike_id":"bb50c0c1-4b61-4286-b7c7-fdeebb3a4ca3","system_id":"levelo_inurba_marseille","lat":43.294153,"lon":5.386305,"is_reserved":false,"is_disabled":false,"rental_uris":{"android":"levelo://app?vid=bb50c0c1-4b61-4286-b7c7-fdeebb3a4ca3","ios":"levelo://app?vid=bb50c0c1-4b61-4286-b7c7-fdeebb3a4ca3"},"vehicle_type_id":"4","last_reported":1706288757,"current_range_meters":25600,"station_id":"ce4bh2h2rcd13ifvqdh0","pricing_plan_id":"free"},{"bike_id":"6284ed12-8138-4921-a60c-80627cdec6df","system_id":"levelo_inurba_marseille","lat":43.294153,"lon":5.386305,"is_reserved":false,"is_disabled":false,"rental_uris":{"android":"levelo://app?vid=6284ed12-8138-4921-a60c-80627cdec6df","ios":"levelo://app?vid=6284ed12-8138-4921-a60c-80627cdec6df"},"vehicle_type_id":"4","last_reported":1706288757,"current_range_meters":0,"station_id":"ce4bh2h2rcd13ifvqdh0","pricing_plan_id":"free"},{"bike_id":"70877b14-3879-49ea-895d-9b1231cebc55","system_id":"levelo_inurba_marseille","lat":43.29419,"lon":5.38624,"is_reserved":false,"is_disabled":false,"rental_uris":{"android":"levelo://app?vid=70877b14-3879-49ea-895d-9b1231cebc55","ios":"levelo://app?vid=70877b14-3879-49ea-895d-9b1231cebc55"},"vehicle_type_id":"4","last_reported":1706288757,"current_range_meters":23600,"station_id":"ce4bh2h2rcd13ifvqdh0","pricing_plan_id":"free"},{"bike_id":"14707217-f534-4bac-83e8-c47f2b9a7230","system_id":"levelo_inurba_marseille","lat":43.289184,"lon":5.366408,"is_reserved":false,"is_disabled":false,"rental_uris":{"android":"levelo://app?vid=14707217-f534-4bac-83e8-c47f2b9a7230","ios":"levelo://app?vid=14707217-f534-4bac-83e8-c47f2b9a7230"},"vehicle_type_id":"4","last_reported":1706288757,"current_range_meters":26800,"station_id":"ce4bhap2rcd13ifvqek0","pricing_plan_id":"free"},{"bike_id":"10de3dfb-c84f-4747-be82-141e530b1858","system_id":"levelo_inurba_marseille","lat":43.289184,"lon":5.366408,"is_reserved":false,"is_disabled":false,"rental_uris":{"android":"levelo://app?vid=10de3dfb-c84f-4747-be82-141e530b1858","ios":"levelo://app?vid=10de3dfb-c84f-4747-be82-141e530b1858"},"vehicle_type_id":"4","last_reported":1706288757,"current_range_meters":23600,"station_id":"ce4bhap2rcd13ifvqek0","pricing_plan_id":"free"},{"bike_id":"0975d7f1-4885-4632-979a-7ae21e8ec5b2","system_id":"levelo_inurba_marseille","lat":43.289184,"lon":5.366408,"is_reserved":false,"is_disabled":false,"rental_uris":{"android":"levelo://app?vid=0975d7f1-4885-4632-979a-7ae21e8ec5b2","ios":"levelo://app?vid=0975d7f1-4885-4632-979a-7ae21e8ec5b2"},"vehicle_type_id":"4","last_reported":1706288757,"current_range_meters":24000,"station_id":"ce4bhap2rcd13ifvqek0","pricing_plan_id":"free"},{"bike_id":"a59e8c60-7bde-4174-a80f-534b7bed05e4","system_id":"levelo_inurba_marseille","lat":43.289184,"lon":5.366408,"is_reserved":false,"is_disabled":false,"rental_uris":{"android":"levelo://app?vid=a59e8c60-7bde-4174-a80f-534b7bed05e4","ios":"levelo://app?vid=a59e8c60-7bde-4174-a80f-534b7bed05e4"},"vehicle_type_id":"4","last_reported":1706288757,"current_range_meters":24800,"station_id":"ce4bhap2rcd13ifvqek0","pricing_plan_id":"free"},{"bike_id":"93fbb00a-65ad-49ed-8af9-6dbf6ce18215","system_id":"levelo_inurba_marseille","lat":43.292598,"lon":5.384198,"is_reserved":false,"is_disabled":false,"rental_uris":{"android":"levelo://app?vid=93fbb00a-65ad-49ed-8af9-6dbf6ce18215","ios":"levelo://app?vid=93fbb00a-65ad-49ed-8af9-6dbf6ce18215"},"vehicle_type_id":"4","last_reported":1706288757,"current_range_meters":14400,"station_id":"ce4bh692rcd13ifvqea0","pricing_plan_id":"free"},{"bike_id":"3e9e9e5b-18a8-4bfb-abb7-3bdedb07dac7","system_id":"levelo_inurba_marseille","lat":43.29259,"lon":5.38437,"is_reserved":false,"is_disabled":false,"rental_uris":{"android":"levelo://app?vid=3e9e9e5b-18a8-4bfb-abb7-3bdedb07dac7","ios":"levelo://app?vid=3e9e9e5b-18a8-4bfb-abb7-3bdedb07dac7"},"vehicle_type_id":"4","last_reported":1706288757,"current_range_meters":0,"station_id":"ce4bh692rcd13ifvqea0","pricing_plan_id":"free"},{"bike_id":"2d41e571-73f1-4340-bb52-79b037b3d7e2","system_id":"levelo_inurba_marseille","lat":43.290104,"lon":5.356111,"is_reserved":false,"is_disabled":false,"rental_uris":{"android":"levelo://app?vid=2d41e571-73f1-4340-bb52-79b037b3d7e2","ios":"levelo://app?vid=2d41e571-73f1-4340-bb52-79b037b3d7e2"},"vehicle_type_id":"4","last_reported":1706288757,"current_range_meters":28400,"station_id":"ce4bhb92rcd13ifvqen0","pricing_plan_id":"free"},{"bike_id":"373f101f-3ec6-4291-9dc9-bdf9e9d8f33d","system_id":"levelo_inurba_marseille","lat":43.290995,"lon":5.381361,"is_reserved":false,"is_disabled":false,"rental_uris":{"android":"levelo://app?vid=373f101f-3ec6-4291-9dc9-bdf9e9d8f33d","ios":"levelo://app?vid=373f101f-3ec6-4291-9dc9-bdf9e9d8f33d"},"vehicle_type_id":"4","last_reported":1706288757,"current_range_meters":15200,"station_id":"ce4bh512rcd13ifvqe2g","pricing_plan_id":"free"},{"bike_id":"ef0e193f-929b-4e83-bf80-4785652f9b3b","system_id":"levelo_inurba_marseille","lat":43.2979,"lon":5.3933,"is_reserved":false,"is_disabled":false,"rental_uris":{"android":"levelo://app?vid=ef0e193f-929b-4e83-bf80-4785652f9b3b","ios":"levelo://app?vid=ef0e193f-929b-4e83-bf80-4785652f9b3b"},"vehicle_type_id":"4","last_reported":1706288757,"current_range_meters":0,"station_id":"chh1huq6cuj3fo74tm60","pricing_plan_id":"free"},{"bike_id":"f0e56acb-6151-448c-a2cf-747f4ced63ff","system_id":"levelo_inurba_marseille","lat":43.29786,"lon":5.393383,"is_reserved":false,"is_disabled":false,"rental_uris":{"android":"levelo://app?vid=f0e56acb-6151-448c-a2cf-747f4ced63ff","ios":"levelo://app?vid=f0e56acb-6151-448c-a2cf-747f4ced63ff"},"vehicle_type_id":"4","last_reported":1706288757,"current_range_meters":0,"station_id":"chh1huq6cuj3fo74tm60","pricing_plan_id":"free"},{"bike_id":"5cac4158-935d-4fb7-9950-b41309d3eaf8","system_id":"levelo_inurba_marseille","lat":43.3302,"lon":5.39044,"is_reserved":false,"is_disabled":false,"rental_uris":{"android":"levelo://app?vid=5cac4158-935d-4fb7-9950-b41309d3eaf8","ios":"levelo://app?vid=5cac4158-935d-4fb7-9950-b41309d3eaf8"},"vehicle_type_id":"4","last_reported":1706288757,"current_range_meters":12000,"station_id":"ce4bhr92rcd13ifvqhrg","pricing_plan_id":"free"},{"bike_id":"3f03f5fa-03bf-4b30-9042-2390357179a1","system_id":"levelo_inurba_marseille","lat":43.330442,"lon":5.389148,"is_reserved":false,"is_disabled":false,"rental_uris":{"android":"levelo://app?vid=3f03f5fa-03bf-4b30-9042-2390357179a1","ios":"levelo://app?vid=3f03f5fa-03bf-4b30-9042-2390357179a1"},"vehicle_type_id":"4","last_reported":1706288757,"current_range_meters":14400,"station_id":"ce4bhr92rcd13ifvqhrg","pricing_plan_id":"free"},{"bike_id":"4fb13e2b-3f23-4e04-8d8d-4e907f527f2e","system_id":"levelo_inurba_marseille","lat":43.295169,"lon":5.390426,"is_reserved":false,"is_disabled":false,"rental_uris":{"android":"levelo://app?vid=4fb13e2b-3f23-4e04-8d8d-4e907f527f2e","ios":"levelo://app?vid=4fb13e2b-3f23-4e04-8d8d-4e907f527f2e"},"vehicle_type_id":"4","last_reported":1706288757,"current_range_meters":11200,"station_id":"ce4bh3p2rcd13ifvqdp0","pricing_plan_id":"free"},{"bike_id":"104e8fcc-bb2d-4add-8072-5a67f4b9bf04","system_id":"levelo_inurba_marseille","lat":43.295169,"lon":5.390426,"is_reserved":false,"is_disabled":false,"rental_uris":{"android":"levelo://app?vid=104e8fcc-bb2d-4add-8072-5a67f4b9bf04","ios":"levelo://app?vid=104e8fcc-bb2d-4add-8072-5a67f4b9bf04"},"vehicle_type_id":"4","last_reported":1706288757,"current_range_meters":4000,"station_id":"ce4bh3p2rcd13ifvqdp0","pricing_plan_id":"free"},{"bike_id":"dd6944be-2e18-4178-b436-fdfab17e6b0e","system_id":"levelo_inurba_marseille","lat":43.295169,"lon":5.390426,"is_reserved":false,"is_disabled":false,"rental_uris":{"android":"levelo://app?vid=dd6944be-2e18-4178-b436-fdfab17e6b0e","ios":"levelo://app?vid=dd6944be-2e18-4178-b436-fdfab17e6b0e"},"vehicle_type_id":"4","last_reported":1706288757,"current_range_meters":12000,"station_id":"ce4bh3p2rcd13ifvqdp0","pricing_plan_id":"free"},{"bike_id":"9db8a14c-dd2e-4801-91ed-e40bf43ac265","system_id":"levelo_inurba_marseille","lat":43.289743,"lon":5.378304,"is_reserved":false,"is_disabled":false,"rental_uris":{"android":"levelo://app?vid=9db8a14c-dd2e-4801-91ed-e40bf43ac265","ios":"levelo://app?vid=9db8a14c-dd2e-4801-91ed-e40bf43ac265"},"vehicle_type_id":"4","last_reported":1706288757,"current_range_meters":400,"station_id":"ce4bh9p2rcd13ifvqed0","pricing_plan_id":"free"},{"bike_id":"94510d2b-50ca-4fa1-b316-85166a784424","system_id":"levelo_inurba_marseille","lat":43.295169,"lon":5.390426,"is_reserved":false,"is_disabled":false,"rental_uris":{"android":"levelo://app?vid=94510d2b-50ca-4fa1-b316-85166a784424","ios":"levelo://app?vid=94510d2b-50ca-4fa1-b316-85166a784424"},"vehicle_type_id":"4","last_reported":1706288757,"current_range_meters":4800,"station_id":"ce4bh3p2rcd13ifvqdp0","pricing_plan_id":"free"},{"bike_id":"1e5ccea4-a85e-4b29-a39e-73e633f762ae","system_id":"levelo_inurba_marseille","lat":43.28856,"lon":5.358371,"is_reserved":false,"is_disabled":false,"rental_uris":{"android":"levelo://app?vid=1e5ccea4-a85e-4b29-a39e-73e633f762ae","ios":"levelo://app?vid=1e5ccea4-a85e-4b29-a39e-73e633f762ae"},"vehicle_type_id":"4","last_reported":1706288757,"current_range_meters":15200,"station_id":"ce4bhb12rcd13ifvqem0","pricing_plan_id":"free"},{"bike_id":"8e293de0-4f93-4e56-b1ad-8888b0badffa","system_id":"levelo_inurba_marseille","lat":43.28856,"lon":5.358371,"is_reserved":false,"is_disabled":false,"rental_uris":{"android":"levelo://app?vid=8e293de0-4f93-4e56-b1ad-8888b0badffa","ios":"levelo://app?vid=8e293de0-4f93-4e56-b1ad-8888b0badffa"},"vehicle_type_id":"4","last_reported":1706288757,"current_range_meters":19600,"station_id":"ce4bhb12rcd13ifvqem0","pricing_plan_id":"free"},{"bike_id":"3405e203-a74f-4e2f-afe7-05da97f61a62","system_id":"levelo_inurba_marseille","lat":43.28938,"lon":5.35492,"is_reserved":false,"is_disabled":false,"rental_uris":{"android":"levelo://app?vid=3405e203-a74f-4e2f-afe7-05da97f61a62","ios":"levelo://app?vid=3405e203-a74f-4e2f-afe7-05da97f61a62"},"vehicle_type_id":"4","last_reported":1706288757,"current_range_meters":400,"station_id":"","pricing_plan_id":"free"},{"bike_id":"f31cdeba-9a1f-4b2e-b205-f2bb01b42b1b","system_id":"levelo_inurba_marseille","lat":43.309332,"lon":5.401408,"is_reserved":false,"is_disabled":false,"rental_uris":{"android":"levelo://app?vid=f31cdeba-9a1f-4b2e-b205-f2bb01b42b1b","ios":"levelo://app?vid=f31cdeba-9a1f-4b2e-b205-f2bb01b42b1b"},"vehicle_type_id":"4","last_reported":1706288757,"current_range_meters":4400,"station_id":"ce4bgvp2rcd13ifvqct0","pricing_plan_id":"free"},{"bike_id":"560bd086-e7a5-4d16-a61d-bb611f4242c4","system_id":"levelo_inurba_marseille","lat":43.30931,"lon":5.40143,"is_reserved":false,"is_disabled":false,"rental_uris":{"android":"levelo://app?vid=560bd086-e7a5-4d16-a61d-bb611f4242c4","ios":"levelo://app?vid=560bd086-e7a5-4d16-a61d-bb611f4242c4"},"vehicle_type_id":"4","last_reported":1706288757,"current_range_meters":17200,"station_id":"ce4bgvp2rcd13ifvqct0","pricing_plan_id":"free"},{"bike_id":"ba1ed5f2-15c5-4c0e-bd2e-2339c1a2205f","system_id":"levelo_inurba_marseille","lat":43.309371,"lon":5.401449,"is_reserved":false,"is_disabled":false,"rental_uris":{"android":"levelo://app?vid=ba1ed5f2-15c5-4c0e-bd2e-2339c1a2205f","ios":"levelo://app?vid=ba1ed5f2-15c5-4c0e-bd2e-2339c1a2205f"},"vehicle_type_id":"4","last_reported":1706288757,"current_range_meters":1200,"station_id":"ce4bgvp2rcd13ifvqct0","pricing_plan_id":"free"},{"bike_id":"ec77907c-3242-4de7-b47d-ba1c78505af3","system_id":"levelo_inurba_marseille","lat":43.309371,"lon":5.401449,"is_reserved":false,"is_disabled":false,"rental_uris":{"android":"levelo://app?vid=ec77907c-3242-4de7-b47d-ba1c78505af3","ios":"levelo://app?vid=ec77907c-3242-4de7-b47d-ba1c78505af3"},"vehicle_type_id":"4","last_reported":1706288757,"current_range_meters":13600,"station_id":"ce4bgvp2rcd13ifvqct0","pricing_plan_id":"free"},{"bike_id":"b9494bfd-c595-4aa2-9139-ca21eccacf3d","system_id":"levelo_inurba_marseille","lat":43.312609,"lon":5.401662,"is_reserved":false,"is_disabled":false,"rental_uris":{"android":"levelo://app?vid=b9494bfd-c595-4aa2-9139-ca21eccacf3d","ios":"levelo://app?vid=b9494bfd-c595-4aa2-9139-ca21eccacf3d"},"vehicle_type_id":"4","last_reported":1706288757,"current_range_meters":20800,"station_id":"ce4bh092rcd13ifvqd30","pricing_plan_id":"free"},{"bike_id":"ab8b0a85-0d97-4d75-bf14-eba1de1f9666","system_id":"levelo_inurba_marseille","lat":43.309366,"lon":5.401518,"is_reserved":false,"is_disabled":false,"rental_uris":{"android":"levelo://app?vid=ab8b0a85-0d97-4d75-bf14-eba1de1f9666","ios":"levelo://app?vid=ab8b0a85-0d97-4d75-bf14-eba1de1f9666"},"vehicle_type_id":"4","last_reported":1706288757,"current_range_meters":23200,"station_id":"ce4bgvp2rcd13ifvqct0","pricing_plan_id":"free"},{"bike_id":"b7f12eab-e0a6-499e-87ec-2b4381c4602a","system_id":"levelo_inurba_marseille","lat":43.337531,"lon":5.374772,"is_reserved":false,"is_disabled":false,"rental_uris":{"android":"levelo://app?vid=b7f12eab-e0a6-499e-87ec-2b4381c4602a","ios":"levelo://app?vid=b7f12eab-e0a6-499e-87ec-2b4381c4602a"},"vehicle_type_id":"4","last_reported":1706288757,"current_range_meters":28000,"station_id":"","pricing_plan_id":"free"},{"bike_id":"b9d43a37-bea7-43f9-8850-2171d4c77f6e","system_id":"levelo_inurba_marseille","lat":43.337591,"lon":5.374581,"is_reserved":false,"is_disabled":false,"rental_uris":{"android":"levelo://app?vid=b9d43a37-bea7-43f9-8850-2171d4c77f6e","ios":"levelo://app?vid=b9d43a37-bea7-43f9-8850-2171d4c77f6e"},"vehicle_type_id":"4","last_reported":1706288757,"current_range_meters":27200,"station_id":"","pricing_plan_id":"free"},{"bike_id":"9027d950-3f66-456b-9ac5-2a9e09db251f","system_id":"levelo_inurba_marseille","lat":43.306437,"lon":5.400967,"is_reserved":false,"is_disabled":false,"rental_uris":{"android":"levelo://app?vid=9027d950-3f66-456b-9ac5-2a9e09db251f","ios":"levelo://app?vid=9027d950-3f66-456b-9ac5-2a9e09db251f"},"vehicle_type_id":"4","last_reported":1706288757,"current_range_meters":4800,"station_id":"ce4bh112rcd13ifvqda0","pricing_plan_id":"free"},{"bike_id":"41f75714-5d17-4dea-bd2e-2fd7e7521ca4","system_id":"levelo_inurba_marseille","lat":43.28727,"lon":5.36078,"is_reserved":false,"is_disabled":false,"rental_uris":{"android":"levelo://app?vid=41f75714-5d17-4dea-bd2e-2fd7e7521ca4","ios":"levelo://app?vid=41f75714-5d17-4dea-bd2e-2fd7e7521ca4"},"vehicle_type_id":"4","last_reported":1706288757,"current_range_meters":7200,"station_id":"cki0cbj6b192h4jlfktg","pricing_plan_id":"free"},{"bike_id":"4cdb22ef-7494-4d94-9e4b-35249b5e5c0e","system_id":"levelo_inurba_marseille","lat":43.286591,"lon":5.363346,"is_reserved":false,"is_disabled":false,"rental_uris":{"android":"levelo://app?vid=4cdb22ef-7494-4d94-9e4b-35249b5e5c0e","ios":"levelo://app?vid=4cdb22ef-7494-4d94-9e4b-35249b5e5c0e"},"vehicle_type_id":"4","last_reported":1706288757,"current_range_meters":12800,"station_id":"ce4bhah2rcd13ifvqej0","pricing_plan_id":"free"},{"bike_id":"f30ff850-e326-4720-8820-a169759710d3","system_id":"levelo_inurba_marseille","lat":43.286591,"lon":5.363346,"is_reserved":false,"is_disabled":false,"rental_uris":{"android":"levelo://app?vid=f30ff850-e326-4720-8820-a169759710d3","ios":"levelo://app?vid=f30ff850-e326-4720-8820-a169759710d3"},"vehicle_type_id":"4","last_reported":1706288757,"current_range_meters":8800,"station_id":"ce4bhah2rcd13ifvqej0","pricing_plan_id":"free"},{"bike_id":"ee617ade-0dd4-4fd8-b64d-1b7d7211d68b","system_id":"levelo_inurba_marseille","lat":43.286591,"lon":5.363346,"is_reserved":false,"is_disabled":false,"rental_uris":{"android":"levelo://app?vid=ee617ade-0dd4-4fd8-b64d-1b7d7211d68b","ios":"levelo://app?vid=ee617ade-0dd4-4fd8-b64d-1b7d7211d68b"},"vehicle_type_id":"4","last_reported":1706288757,"current_range_meters":9200,"station_id":"ce4bhah2rcd13ifvqej0","pricing_plan_id":"free"},{"bike_id":"760e8c0a-1568-4dbe-835b-208abffdca71","system_id":"levelo_inurba_marseille","lat":43.28664,"lon":5.36344,"is_reserved":false,"is_disabled":false,"rental_uris":{"android":"levelo://app?vid=760e8c0a-1568-4dbe-835b-208abffdca71","ios":"levelo://app?vid=760e8c0a-1568-4dbe-835b-208abffdca71"},"vehicle_type_id":"4","last_reported":1706288757,"current_range_meters":13600,"station_id":"ce4bhah2rcd13ifvqej0","pricing_plan_id":"free"},{"bike_id":"c61a3ff4-8535-40f7-a7d8-ced6dd9b6b6c","system_id":"levelo_inurba_marseille","lat":43.2866,"lon":5.36349,"is_reserved":false,"is_disabled":false,"rental_uris":{"android":"levelo://app?vid=c61a3ff4-8535-40f7-a7d8-ced6dd9b6b6c","ios":"levelo://app?vid=c61a3ff4-8535-40f7-a7d8-ced6dd9b6b6c"},"vehicle_type_id":"4","last_reported":1706288757,"current_range_meters":24400,"station_id":"ce4bhah2rcd13ifvqej0","pricing_plan_id":"free"},{"bike_id":"f3860d6e-fe6a-472a-8887-4053c1162f54","system_id":"levelo_inurba_marseille","lat":43.286593,"lon":5.363346,"is_reserved":false,"is_disabled":false,"rental_uris":{"android":"levelo://app?vid=f3860d6e-fe6a-472a-8887-4053c1162f54","ios":"levelo://app?vid=f3860d6e-fe6a-472a-8887-4053c1162f54"},"vehicle_type_id":"4","last_reported":1706288757,"current_range_meters":0,"station_id":"ce4bhah2rcd13ifvqej0","pricing_plan_id":"free"},{"bike_id":"7c9fc9c1-2a23-4d67-8c46-b47dc284e923","system_id":"levelo_inurba_marseille","lat":43.289307,"lon":5.38406,"is_reserved":false,"is_disabled":false,"rental_uris":{"android":"levelo://app?vid=7c9fc9c1-2a23-4d67-8c46-b47dc284e923","ios":"levelo://app?vid=7c9fc9c1-2a23-4d67-8c46-b47dc284e923"},"vehicle_type_id":"4","last_reported":1706288757,"current_range_meters":15200,"station_id":"ce4bh612rcd13ifvqe6g","pricing_plan_id":"free"},{"bike_id":"a7a14f66-bb70-47de-8390-1135926c5007","system_id":"levelo_inurba_marseille","lat":43.290345,"lon":5.38646,"is_reserved":false,"is_disabled":false,"rental_uris":{"android":"levelo://app?vid=a7a14f66-bb70-47de-8390-1135926c5007","ios":"levelo://app?vid=a7a14f66-bb70-47de-8390-1135926c5007"},"vehicle_type_id":"4","last_reported":1706288757,"current_range_meters":0,"station_id":"ce4bh4p2rcd13ifvqe0g","pricing_plan_id":"free"},{"bike_id":"44e7f31f-19c8-4fb3-b4ee-820e227e989b","system_id":"levelo_inurba_marseille","lat":43.302759,"lon":5.400793,"is_reserved":false,"is_disabled":false,"rental_uris":{"android":"levelo://app?vid=44e7f31f-19c8-4fb3-b4ee-820e227e989b","ios":"levelo://app?vid=44e7f31f-19c8-4fb3-b4ee-820e227e989b"},"vehicle_type_id":"4","last_reported":1706288757,"current_range_meters":4800,"station_id":"ce4bgvh2rcd13ifvqcs0","pricing_plan_id":"free"},{"bike_id":"d79ac0ae-39f2-40eb-a75e-3bde85b7c79b","system_id":"levelo_inurba_marseille","lat":43.287185,"lon":5.379373,"is_reserved":false,"is_disabled":false,"rental_uris":{"android":"levelo://app?vid=d79ac0ae-39f2-40eb-a75e-3bde85b7c79b","ios":"levelo://app?vid=d79ac0ae-39f2-40eb-a75e-3bde85b7c79b"},"vehicle_type_id":"4","last_reported":1706288757,"current_range_meters":400,"station_id":"ce4bh9p2rcd13ifvqec0","pricing_plan_id":"free"},{"bike_id":"2eaabd3a-aeca-4813-96fa-c74c7bf509a5","system_id":"levelo_inurba_marseille","lat":43.31681,"lon":5.4047,"is_reserved":false,"is_disabled":false,"rental_uris":{"android":"levelo://app?vid=2eaabd3a-aeca-4813-96fa-c74c7bf509a5","ios":"levelo://app?vid=2eaabd3a-aeca-4813-96fa-c74c7bf509a5"},"vehicle_type_id":"4","last_reported":1706288757,"current_range_meters":8800,"station_id":"ce4bh012rcd13ifvqd00","pricing_plan_id":"free"},{"bike_id":"6913437c-1471-4bf5-8208-ad0134069a15","system_id":"levelo_inurba_marseille","lat":43.291994,"lon":5.392907,"is_reserved":false,"is_disabled":false,"rental_uris":{"android":"levelo://app?vid=6913437c-1471-4bf5-8208-ad0134069a15","ios":"levelo://app?vid=6913437c-1471-4bf5-8208-ad0134069a15"},"vehicle_type_id":"4","last_reported":1706288757,"current_range_meters":10000,"station_id":"ce4bh192rcd13ifvqdd0","pricing_plan_id":"free"},{"bike_id":"8afb9085-4b96-4554-acb2-ebb3817ccb15","system_id":"levelo_inurba_marseille","lat":43.291994,"lon":5.392907,"is_reserved":false,"is_disabled":false,"rental_uris":{"android":"levelo://app?vid=8afb9085-4b96-4554-acb2-ebb3817ccb15","ios":"levelo://app?vid=8afb9085-4b96-4554-acb2-ebb3817ccb15"},"vehicle_type_id":"4","last_reported":1706288757,"current_range_meters":8800,"station_id":"ce4bh192rcd13ifvqdd0","pricing_plan_id":"free"},{"bike_id":"d01ed530-a6ed-4a79-a6bf-532f5076d767","system_id":"levelo_inurba_marseille","lat":43.28463,"lon":5.35893,"is_reserved":false,"is_disabled":false,"rental_uris":{"android":"levelo://app?vid=d01ed530-a6ed-4a79-a6bf-532f5076d767","ios":"levelo://app?vid=d01ed530-a6ed-4a79-a6bf-532f5076d767"},"vehicle_type_id":"4","last_reported":1706288757,"current_range_meters":8000,"station_id":"ce4bhah2rcd13ifvqei0","pricing_plan_id":"free"},{"bike_id":"2936708a-680d-4e1e-aef7-37188de88c4c","system_id":"levelo_inurba_marseille","lat":43.28464,"lon":5.3588,"is_reserved":false,"is_disabled":false,"rental_uris":{"android":"levelo://app?vid=2936708a-680d-4e1e-aef7-37188de88c4c","ios":"levelo://app?vid=2936708a-680d-4e1e-aef7-37188de88c4c"},"vehicle_type_id":"4","last_reported":1706288757,"current_range_meters":0,"station_id":"ce4bhah2rcd13ifvqei0","pricing_plan_id":"free"},{"bike_id":"c07ae0f6-0514-49ac-a119-3be9db4c3f91","system_id":"levelo_inurba_marseille","lat":43.28462,"lon":5.35892,"is_reserved":false,"is_disabled":false,"rental_uris":{"android":"levelo://app?vid=c07ae0f6-0514-49ac-a119-3be9db4c3f91","ios":"levelo://app?vid=c07ae0f6-0514-49ac-a119-3be9db4c3f91"},"vehicle_type_id":"4","last_reported":1706288757,"current_range_meters":1200,"station_id":"ce4bhah2rcd13ifvqei0","pricing_plan_id":"free"},{"bike_id":"3c29331a-6007-43d6-a73f-5e1d13035bd6","system_id":"levelo_inurba_marseille","lat":43.28461,"lon":5.35884,"is_reserved":false,"is_disabled":false,"rental_uris":{"android":"levelo://app?vid=3c29331a-6007-43d6-a73f-5e1d13035bd6","ios":"levelo://app?vid=3c29331a-6007-43d6-a73f-5e1d13035bd6"},"vehicle_type_id":"4","last_reported":1706288757,"current_range_meters":2000,"station_id":"ce4bhah2rcd13ifvqei0","pricing_plan_id":"free"},{"bike_id":"97481e5b-6c30-46f4-8c4a-6cee1bbe44fb","system_id":"levelo_inurba_marseille","lat":43.28458,"lon":5.35884,"is_reserved":false,"is_disabled":false,"rental_uris":{"android":"levelo://app?vid=97481e5b-6c30-46f4-8c4a-6cee1bbe44fb","ios":"levelo://app?vid=97481e5b-6c30-46f4-8c4a-6cee1bbe44fb"},"vehicle_type_id":"4","last_reported":1706288757,"current_range_meters":22400,"station_id":"ce4bhah2rcd13ifvqei0","pricing_plan_id":"free"},{"bike_id":"d13ac71b-24e5-4553-aaa0-e3f36b6a2728","system_id":"levelo_inurba_marseille","lat":43.285848,"lon":5.350787,"is_reserved":false,"is_disabled":false,"rental_uris":{"android":"levelo://app?vid=d13ac71b-24e5-4553-aaa0-e3f36b6a2728","ios":"levelo://app?vid=d13ac71b-24e5-4553-aaa0-e3f36b6a2728"},"vehicle_type_id":"4","last_reported":1706288757,"current_range_meters":22000,"station_id":"ce4bhch2rcd13ifvqeug","pricing_plan_id":"free"},{"bike_id":"04c807ae-04c1-4d15-96a9-d67048fc19b4","system_id":"levelo_inurba_marseille","lat":43.285848,"lon":5.350787,"is_reserved":false,"is_disabled":false,"rental_uris":{"android":"levelo://app?vid=04c807ae-04c1-4d15-96a9-d67048fc19b4","ios":"levelo://app?vid=04c807ae-04c1-4d15-96a9-d67048fc19b4"},"vehicle_type_id":"4","last_reported":1706288757,"current_range_meters":5600,"station_id":"ce4bhch2rcd13ifvqeug","pricing_plan_id":"free"},{"bike_id":"b21b77fb-b8a6-46e8-bcbc-5297880eba72","system_id":"levelo_inurba_marseille","lat":43.285848,"lon":5.350787,"is_reserved":false,"is_disabled":false,"rental_uris":{"android":"levelo://app?vid=b21b77fb-b8a6-46e8-bcbc-5297880eba72","ios":"levelo://app?vid=b21b77fb-b8a6-46e8-bcbc-5297880eba72"},"vehicle_type_id":"4","last_reported":1706288757,"current_range_meters":0,"station_id":"ce4bhch2rcd13ifvqeug","pricing_plan_id":"free"},{"bike_id":"46029e1a-53ce-4064-8455-a2c9cc3c2d43","system_id":"levelo_inurba_marseille","lat":43.285856,"lon":5.350771,"is_reserved":false,"is_disabled":false,"rental_uris":{"android":"levelo://app?vid=46029e1a-53ce-4064-8455-a2c9cc3c2d43","ios":"levelo://app?vid=46029e1a-53ce-4064-8455-a2c9cc3c2d43"},"vehicle_type_id":"4","last_reported":1706288757,"current_range_meters":4800,"station_id":"ce4bhch2rcd13ifvqeug","pricing_plan_id":"free"},{"bike_id":"4afd7c9c-0785-443e-b490-17954106b619","system_id":"levelo_inurba_marseille","lat":43.283998,"lon":5.375062,"is_reserved":false,"is_disabled":false,"rental_uris":{"android":"levelo://app?vid=4afd7c9c-0785-443e-b490-17954106b619","ios":"levelo://app?vid=4afd7c9c-0785-443e-b490-17954106b619"},"vehicle_type_id":"4","last_reported":1706288757,"current_range_meters":4800,"station_id":"ce4bh412rcd13ifvqds0","pricing_plan_id":"free"},{"bike_id":"160922bf-018b-4977-b2c7-9b340e8ffec9","system_id":"levelo_inurba_marseille","lat":43.295713,"lon":5.399639,"is_reserved":false,"is_disabled":false,"rental_uris":{"android":"levelo://app?vid=160922bf-018b-4977-b2c7-9b340e8ffec9","ios":"levelo://app?vid=160922bf-018b-4977-b2c7-9b340e8ffec9"},"vehicle_type_id":"4","last_reported":1706288757,"current_range_meters":23200,"station_id":"ce4bh312rcd13ifvqdj0","pricing_plan_id":"free"},{"bike_id":"87de088f-f744-478e-b5b2-f600ecebacab","system_id":"levelo_inurba_marseille","lat":43.295713,"lon":5.399639,"is_reserved":false,"is_disabled":false,"rental_uris":{"android":"levelo://app?vid=87de088f-f744-478e-b5b2-f600ecebacab","ios":"levelo://app?vid=87de088f-f744-478e-b5b2-f600ecebacab"},"vehicle_type_id":"4","last_reported":1706288757,"current_range_meters":11200,"station_id":"ce4bh312rcd13ifvqdj0","pricing_plan_id":"free"},{"bike_id":"5b0a56ae-3d70-40f6-ad3f-78c604f89c73","system_id":"levelo_inurba_marseille","lat":43.28561,"lon":5.38361,"is_reserved":false,"is_disabled":false,"rental_uris":{"android":"levelo://app?vid=5b0a56ae-3d70-40f6-ad3f-78c604f89c73","ios":"levelo://app?vid=5b0a56ae-3d70-40f6-ad3f-78c604f89c73"},"vehicle_type_id":"4","last_reported":1706288757,"current_range_meters":17600,"station_id":"","pricing_plan_id":"free"},{"bike_id":"10fbea9c-76ec-41fa-8249-c16dbe6a76d9","system_id":"levelo_inurba_marseille","lat":43.284787,"lon":5.384116,"is_reserved":false,"is_disabled":false,"rental_uris":{"android":"levelo://app?vid=10fbea9c-76ec-41fa-8249-c16dbe6a76d9","ios":"levelo://app?vid=10fbea9c-76ec-41fa-8249-c16dbe6a76d9"},"vehicle_type_id":"4","last_reported":1706288757,"current_range_meters":12000,"station_id":"ce4bh512rcd13ifvqe3g","pricing_plan_id":"free"},{"bike_id":"d68dfa8c-9b11-4279-95ba-b9f9d740fa4b","system_id":"levelo_inurba_marseille","lat":43.319179,"lon":5.407725,"is_reserved":false,"is_disabled":false,"rental_uris":{"android":"levelo://app?vid=d68dfa8c-9b11-4279-95ba-b9f9d740fa4b","ios":"levelo://app?vid=d68dfa8c-9b11-4279-95ba-b9f9d740fa4b"},"vehicle_type_id":"4","last_reported":1706288757,"current_range_meters":26400,"station_id":"ce4bhq12rcd13ifvqhig","pricing_plan_id":"free"},{"bike_id":"39d5b51b-a3f0-48bd-b347-a780de53c69b","system_id":"levelo_inurba_marseille","lat":43.323464,"lon":5.406297,"is_reserved":false,"is_disabled":false,"rental_uris":{"android":"levelo://app?vid=39d5b51b-a3f0-48bd-b347-a780de53c69b","ios":"levelo://app?vid=39d5b51b-a3f0-48bd-b347-a780de53c69b"},"vehicle_type_id":"4","last_reported":1706288757,"current_range_meters":28800,"station_id":"ce4bhq92rcd13ifvqhjg","pricing_plan_id":"free"},{"bike_id":"67413b43-878a-49d0-b1e5-0b41e2e6070d","system_id":"levelo_inurba_marseille","lat":43.323464,"lon":5.406297,"is_reserved":false,"is_disabled":false,"rental_uris":{"android":"levelo://app?vid=67413b43-878a-49d0-b1e5-0b41e2e6070d","ios":"levelo://app?vid=67413b43-878a-49d0-b1e5-0b41e2e6070d"},"vehicle_type_id":"4","last_reported":1706288757,"current_range_meters":19600,"station_id":"ce4bhq92rcd13ifvqhjg","pricing_plan_id":"free"},{"bike_id":"b4bd1ce7-26ad-41db-a915-a3b476b9e02e","system_id":"levelo_inurba_marseille","lat":43.323464,"lon":5.406297,"is_reserved":false,"is_disabled":false,"rental_uris":{"android":"levelo://app?vid=b4bd1ce7-26ad-41db-a915-a3b476b9e02e","ios":"levelo://app?vid=b4bd1ce7-26ad-41db-a915-a3b476b9e02e"},"vehicle_type_id":"4","last_reported":1706288757,"current_range_meters":31600,"station_id":"ce4bhq92rcd13ifvqhjg","pricing_plan_id":"free"},{"bike_id":"29c971f3-912e-4f79-8c22-d20e1f4b5d74","system_id":"levelo_inurba_marseille","lat":43.337168,"lon":5.391825,"is_reserved":false,"is_disabled":false,"rental_uris":{"android":"levelo://app?vid=29c971f3-912e-4f79-8c22-d20e1f4b5d74","ios":"levelo://app?vid=29c971f3-912e-4f79-8c22-d20e1f4b5d74"},"vehicle_type_id":"4","last_reported":1706288757,"current_range_meters":24000,"station_id":"ce4bhr92rcd13ifvqhsg","pricing_plan_id":"free"},{"bike_id":"a2701039-1c7f-463f-99eb-356224c6a7ea","system_id":"levelo_inurba_marseille","lat":43.28474,"lon":5.38415,"is_reserved":false,"is_disabled":false,"rental_uris":{"android":"levelo://app?vid=a2701039-1c7f-463f-99eb-356224c6a7ea","ios":"levelo://app?vid=a2701039-1c7f-463f-99eb-356224c6a7ea"},"vehicle_type_id":"4","last_reported":1706288757,"current_range_meters":400,"station_id":"","pricing_plan_id":"free"},{"bike_id":"183f15dd-1bd2-49d5-a248-9bff86edaa14","system_id":"levelo_inurba_marseille","lat":43.284787,"lon":5.384116,"is_reserved":false,"is_disabled":false,"rental_uris":{"android":"levelo://app?vid=183f15dd-1bd2-49d5-a248-9bff86edaa14","ios":"levelo://app?vid=183f15dd-1bd2-49d5-a248-9bff86edaa14"},"vehicle_type_id":"4","last_reported":1706288757,"current_range_meters":16400,"station_id":"ce4bh512rcd13ifvqe3g","pricing_plan_id":"free"},{"bike_id":"2d54a0bb-ba2d-473e-96b6-e6e1bd9847cc","system_id":"levelo_inurba_marseille","lat":43.283494,"lon":5.380945,"is_reserved":false,"is_disabled":false,"rental_uris":{"android":"levelo://app?vid=2d54a0bb-ba2d-473e-96b6-e6e1bd9847cc","ios":"levelo://app?vid=2d54a0bb-ba2d-473e-96b6-e6e1bd9847cc"},"vehicle_type_id":"4","last_reported":1706288757,"current_range_meters":10000,"station_id":"ce4bh412rcd13ifvqdr0","pricing_plan_id":"free"},{"bike_id":"31b8d0e2-2aab-473f-aebc-cd135211893c","system_id":"levelo_inurba_marseille","lat":43.283498,"lon":5.380948,"is_reserved":false,"is_disabled":false,"rental_uris":{"android":"levelo://app?vid=31b8d0e2-2aab-473f-aebc-cd135211893c","ios":"levelo://app?vid=31b8d0e2-2aab-473f-aebc-cd135211893c"},"vehicle_type_id":"4","last_reported":1706288757,"current_range_meters":16400,"station_id":"ce4bh412rcd13ifvqdr0","pricing_plan_id":"free"},{"bike_id":"c4f10559-2815-46ce-9b15-2d0e15b4c335","system_id":"levelo_inurba_marseille","lat":43.283494,"lon":5.380945,"is_reserved":false,"is_disabled":false,"rental_uris":{"android":"levelo://app?vid=c4f10559-2815-46ce-9b15-2d0e15b4c335","ios":"levelo://app?vid=c4f10559-2815-46ce-9b15-2d0e15b4c335"},"vehicle_type_id":"4","last_reported":1706288757,"current_range_meters":26400,"station_id":"ce4bh412rcd13ifvqdr0","pricing_plan_id":"free"},{"bike_id":"68dc68bf-46c3-4ef4-9847-8dc3f4da5b1b","system_id":"levelo_inurba_marseille","lat":43.284217,"lon":5.349697,"is_reserved":false,"is_disabled":false,"rental_uris":{"android":"levelo://app?vid=68dc68bf-46c3-4ef4-9847-8dc3f4da5b1b","ios":"levelo://app?vid=68dc68bf-46c3-4ef4-9847-8dc3f4da5b1b"},"vehicle_type_id":"4","last_reported":1706288757,"current_range_meters":0,"station_id":"ce4bhbh2rcd13ifvqepg","pricing_plan_id":"free"},{"bike_id":"992b2c2d-9a77-4af2-ac2a-abdc06742183","system_id":"levelo_inurba_marseille","lat":43.28428,"lon":5.34997,"is_reserved":false,"is_disabled":false,"rental_uris":{"android":"levelo://app?vid=992b2c2d-9a77-4af2-ac2a-abdc06742183","ios":"levelo://app?vid=992b2c2d-9a77-4af2-ac2a-abdc06742183"},"vehicle_type_id":"4","last_reported":1706288757,"current_range_meters":19600,"station_id":"ce4bhbh2rcd13ifvqepg","pricing_plan_id":"free"},{"bike_id":"c8a4f706-f9a0-4566-88da-4b6370447d16","system_id":"levelo_inurba_marseille","lat":43.284214,"lon":5.349706,"is_reserved":false,"is_disabled":false,"rental_uris":{"android":"levelo://app?vid=c8a4f706-f9a0-4566-88da-4b6370447d16","ios":"levelo://app?vid=c8a4f706-f9a0-4566-88da-4b6370447d16"},"vehicle_type_id":"4","last_reported":1706288757,"current_range_meters":14000,"station_id":"ce4bhbh2rcd13ifvqepg","pricing_plan_id":"free"},{"bike_id":"d36d1feb-bb19-415f-b41e-e7df45ec965f","system_id":"levelo_inurba_marseille","lat":43.284219,"lon":5.3497,"is_reserved":false,"is_disabled":false,"rental_uris":{"android":"levelo://app?vid=d36d1feb-bb19-415f-b41e-e7df45ec965f","ios":"levelo://app?vid=d36d1feb-bb19-415f-b41e-e7df45ec965f"},"vehicle_type_id":"4","last_reported":1706288757,"current_range_meters":2800,"station_id":"ce4bhbh2rcd13ifvqepg","pricing_plan_id":"free"},{"bike_id":"d0114db0-d38e-4e30-8ef0-61b4aaaee3c4","system_id":"levelo_inurba_marseille","lat":43.284217,"lon":5.349697,"is_reserved":false,"is_disabled":false,"rental_uris":{"android":"levelo://app?vid=d0114db0-d38e-4e30-8ef0-61b4aaaee3c4","ios":"levelo://app?vid=d0114db0-d38e-4e30-8ef0-61b4aaaee3c4"},"vehicle_type_id":"4","last_reported":1706288757,"current_range_meters":24000,"station_id":"ce4bhbh2rcd13ifvqepg","pricing_plan_id":"free"},{"bike_id":"b41bcd76-cb12-4b33-95cd-9444d1e23578","system_id":"levelo_inurba_marseille","lat":43.293556,"lon":5.401561,"is_reserved":false,"is_disabled":false,"rental_uris":{"android":"levelo://app?vid=b41bcd76-cb12-4b33-95cd-9444d1e23578","ios":"levelo://app?vid=b41bcd76-cb12-4b33-95cd-9444d1e23578"},"vehicle_type_id":"4","last_reported":1706288757,"current_range_meters":13200,"station_id":"","pricing_plan_id":"free"},{"bike_id":"663d1852-ce05-4ceb-ad62-bba36f2e32d4","system_id":"levelo_inurba_marseille","lat":43.28276,"lon":5.35066,"is_reserved":false,"is_disabled":false,"rental_uris":{"android":"levelo://app?vid=663d1852-ce05-4ceb-ad62-bba36f2e32d4","ios":"levelo://app?vid=663d1852-ce05-4ceb-ad62-bba36f2e32d4"},"vehicle_type_id":"4","last_reported":1706288757,"current_range_meters":0,"station_id":"ce4bhbp2rcd13ifvqerg","pricing_plan_id":"free"},{"bike_id":"99566a63-469d-4955-92f1-a4fd15963112","system_id":"levelo_inurba_marseille","lat":43.287978,"lon":5.39536,"is_reserved":false,"is_disabled":false,"rental_uris":{"android":"levelo://app?vid=99566a63-469d-4955-92f1-a4fd15963112","ios":"levelo://app?vid=99566a63-469d-4955-92f1-a4fd15963112"},"vehicle_type_id":"4","last_reported":1706288757,"current_range_meters":0,"station_id":"","pricing_plan_id":"free"},{"bike_id":"c84d7328-59b4-46b8-9f28-d2d0d410c82e","system_id":"levelo_inurba_marseille","lat":43.28269,"lon":5.35061,"is_reserved":false,"is_disabled":false,"rental_uris":{"android":"levelo://app?vid=c84d7328-59b4-46b8-9f28-d2d0d410c82e","ios":"levelo://app?vid=c84d7328-59b4-46b8-9f28-d2d0d410c82e"},"vehicle_type_id":"4","last_reported":1706288757,"current_range_meters":800,"station_id":"ce4bhbp2rcd13ifvqerg","pricing_plan_id":"free"},{"bike_id":"508ea428-c750-4fc1-9e6e-4e109679acac","system_id":"levelo_inurba_marseille","lat":43.280382,"lon":5.369291,"is_reserved":false,"is_disabled":false,"rental_uris":{"android":"levelo://app?vid=508ea428-c750-4fc1-9e6e-4e109679acac","ios":"levelo://app?vid=508ea428-c750-4fc1-9e6e-4e109679acac"},"vehicle_type_id":"4","last_reported":1706288757,"current_range_meters":14400,"station_id":"ce4bha12rcd13ifvqef0","pricing_plan_id":"free"},{"bike_id":"71801803-ed54-4a84-8d8b-d84e8e2c8579","system_id":"levelo_inurba_marseille","lat":43.283502,"lon":5.386471,"is_reserved":false,"is_disabled":false,"rental_uris":{"android":"levelo://app?vid=71801803-ed54-4a84-8d8b-d84e8e2c8579","ios":"levelo://app?vid=71801803-ed54-4a84-8d8b-d84e8e2c8579"},"vehicle_type_id":"4","last_reported":1706288757,"current_range_meters":18400,"station_id":"ce4bh492rcd13ifvqdvg","pricing_plan_id":"free"},{"bike_id":"45b92037-b3d1-461c-9cf1-4abec09c310f","system_id":"levelo_inurba_marseille","lat":43.281044,"lon":5.378308,"is_reserved":false,"is_disabled":false,"rental_uris":{"android":"levelo://app?vid=45b92037-b3d1-461c-9cf1-4abec09c310f","ios":"levelo://app?vid=45b92037-b3d1-461c-9cf1-4abec09c310f"},"vehicle_type_id":"4","last_reported":1706288757,"current_range_meters":12800,"station_id":"ce4bha12rcd13ifvqee0","pricing_plan_id":"free"},{"bike_id":"8bf1b954-4f37-42a7-a166-085fe8819510","system_id":"levelo_inurba_marseille","lat":43.296263,"lon":5.40601,"is_reserved":false,"is_disabled":false,"rental_uris":{"android":"levelo://app?vid=8bf1b954-4f37-42a7-a166-085fe8819510","ios":"levelo://app?vid=8bf1b954-4f37-42a7-a166-085fe8819510"},"vehicle_type_id":"4","last_reported":1706288757,"current_range_meters":8800,"station_id":"ce4bh0h2rcd13ifvqd60","pricing_plan_id":"free"},{"bike_id":"f3637062-072d-43a1-b535-6d0bd386fdc5","system_id":"levelo_inurba_marseille","lat":43.281044,"lon":5.378308,"is_reserved":false,"is_disabled":false,"rental_uris":{"android":"levelo://app?vid=f3637062-072d-43a1-b535-6d0bd386fdc5","ios":"levelo://app?vid=f3637062-072d-43a1-b535-6d0bd386fdc5"},"vehicle_type_id":"4","last_reported":1706288757,"current_range_meters":19200,"station_id":"ce4bha12rcd13ifvqee0","pricing_plan_id":"free"},{"bike_id":"90e62349-6685-46e0-bcfb-243605378288","system_id":"levelo_inurba_marseille","lat":43.296263,"lon":5.40601,"is_reserved":false,"is_disabled":false,"rental_uris":{"android":"levelo://app?vid=90e62349-6685-46e0-bcfb-243605378288","ios":"levelo://app?vid=90e62349-6685-46e0-bcfb-243605378288"},"vehicle_type_id":"4","last_reported":1706288757,"current_range_meters":15200,"station_id":"ce4bh0h2rcd13ifvqd60","pricing_plan_id":"free"},{"bike_id":"763c4373-37e6-4fcd-8b6f-20e267c4fee0","system_id":"levelo_inurba_marseille","lat":43.296263,"lon":5.40601,"is_reserved":false,"is_disabled":false,"rental_uris":{"android":"levelo://app?vid=763c4373-37e6-4fcd-8b6f-20e267c4fee0","ios":"levelo://app?vid=763c4373-37e6-4fcd-8b6f-20e267c4fee0"},"vehicle_type_id":"4","last_reported":1706288757,"current_range_meters":9600,"station_id":"ce4bh0h2rcd13ifvqd60","pricing_plan_id":"free"},{"bike_id":"800b0cbd-f31a-4f2a-829d-3fdc4398872b","system_id":"levelo_inurba_marseille","lat":43.296263,"lon":5.40601,"is_reserved":false,"is_disabled":false,"rental_uris":{"android":"levelo://app?vid=800b0cbd-f31a-4f2a-829d-3fdc4398872b","ios":"levelo://app?vid=800b0cbd-f31a-4f2a-829d-3fdc4398872b"},"vehicle_type_id":"4","last_reported":1706288757,"current_range_meters":15200,"station_id":"ce4bh0h2rcd13ifvqd60","pricing_plan_id":"free"},{"bike_id":"1022c9ab-e127-46fe-9b89-1cf0c81fa6f8","system_id":"levelo_inurba_marseille","lat":43.296263,"lon":5.40601,"is_reserved":false,"is_disabled":false,"rental_uris":{"android":"levelo://app?vid=1022c9ab-e127-46fe-9b89-1cf0c81fa6f8","ios":"levelo://app?vid=1022c9ab-e127-46fe-9b89-1cf0c81fa6f8"},"vehicle_type_id":"4","last_reported":1706288757,"current_range_meters":800,"station_id":"ce4bh0h2rcd13ifvqd60","pricing_plan_id":"free"},{"bike_id":"4a760b2e-9199-4772-b311-3b0cbf452474","system_id":"levelo_inurba_marseille","lat":43.285742,"lon":5.395004,"is_reserved":false,"is_disabled":false,"rental_uris":{"android":"levelo://app?vid=4a760b2e-9199-4772-b311-3b0cbf452474","ios":"levelo://app?vid=4a760b2e-9199-4772-b311-3b0cbf452474"},"vehicle_type_id":"4","last_reported":1706288757,"current_range_meters":800,"station_id":"ce4bh292rcd13ifvqdg0","pricing_plan_id":"free"},{"bike_id":"3e35acb9-5b12-47ae-a558-9fd0442f7e8a","system_id":"levelo_inurba_marseille","lat":43.285742,"lon":5.395004,"is_reserved":false,"is_disabled":false,"rental_uris":{"android":"levelo://app?vid=3e35acb9-5b12-47ae-a558-9fd0442f7e8a","ios":"levelo://app?vid=3e35acb9-5b12-47ae-a558-9fd0442f7e8a"},"vehicle_type_id":"4","last_reported":1706288757,"current_range_meters":13200,"station_id":"ce4bh292rcd13ifvqdg0","pricing_plan_id":"free"},{"bike_id":"76309a13-c222-48dc-977b-f2fb1904b3b1","system_id":"levelo_inurba_marseille","lat":43.28573,"lon":5.394992,"is_reserved":false,"is_disabled":false,"rental_uris":{"android":"levelo://app?vid=76309a13-c222-48dc-977b-f2fb1904b3b1","ios":"levelo://app?vid=76309a13-c222-48dc-977b-f2fb1904b3b1"},"vehicle_type_id":"4","last_reported":1706288757,"current_range_meters":6400,"station_id":"ce4bh292rcd13ifvqdg0","pricing_plan_id":"free"},{"bike_id":"259b22f4-f9ea-4474-8864-d20059830d64","system_id":"levelo_inurba_marseille","lat":43.304188,"lon":5.412904,"is_reserved":false,"is_disabled":false,"rental_uris":{"android":"levelo://app?vid=259b22f4-f9ea-4474-8864-d20059830d64","ios":"levelo://app?vid=259b22f4-f9ea-4474-8864-d20059830d64"},"vehicle_type_id":"4","last_reported":1706288757,"current_range_meters":28000,"station_id":"ce4bhop2rcd13ifvqh8g","pricing_plan_id":"free"},{"bike_id":"966ee779-41a2-4e9b-a1e2-9f4bf69b43db","system_id":"levelo_inurba_marseille","lat":43.304188,"lon":5.412904,"is_reserved":false,"is_disabled":false,"rental_uris":{"android":"levelo://app?vid=966ee779-41a2-4e9b-a1e2-9f4bf69b43db","ios":"levelo://app?vid=966ee779-41a2-4e9b-a1e2-9f4bf69b43db"},"vehicle_type_id":"4","last_reported":1706288757,"current_range_meters":19600,"station_id":"ce4bhop2rcd13ifvqh8g","pricing_plan_id":"free"},{"bike_id":"58488c7f-51fd-4dec-8a48-304aa579d9db","system_id":"levelo_inurba_marseille","lat":43.304188,"lon":5.412904,"is_reserved":false,"is_disabled":false,"rental_uris":{"android":"levelo://app?vid=58488c7f-51fd-4dec-8a48-304aa579d9db","ios":"levelo://app?vid=58488c7f-51fd-4dec-8a48-304aa579d9db"},"vehicle_type_id":"4","last_reported":1706288757,"current_range_meters":9600,"station_id":"ce4bhop2rcd13ifvqh8g","pricing_plan_id":"free"},{"bike_id":"6b768a53-8e6e-4133-aa72-8765777c135a","system_id":"levelo_inurba_marseille","lat":43.279087,"lon":5.380114,"is_reserved":false,"is_disabled":false,"rental_uris":{"android":"levelo://app?vid=6b768a53-8e6e-4133-aa72-8765777c135a","ios":"levelo://app?vid=6b768a53-8e6e-4133-aa72-8765777c135a"},"vehicle_type_id":"4","last_reported":1706288757,"current_range_meters":3600,"station_id":"ce4bhf92rcd13ifvqf50","pricing_plan_id":"free"},{"bike_id":"61b59cdc-c8f5-4835-b605-d3fa31db3a83","system_id":"levelo_inurba_marseille","lat":43.287154,"lon":5.399979,"is_reserved":false,"is_disabled":false,"rental_uris":{"android":"levelo://app?vid=61b59cdc-c8f5-4835-b605-d3fa31db3a83","ios":"levelo://app?vid=61b59cdc-c8f5-4835-b605-d3fa31db3a83"},"vehicle_type_id":"4","last_reported":1706288757,"current_range_meters":25200,"station_id":"ce4bho92rcd13ifvqh3g","pricing_plan_id":"free"},{"bike_id":"e3d309d6-c244-4504-93bd-e91aad5de330","system_id":"levelo_inurba_marseille","lat":43.299579,"lon":5.413255,"is_reserved":false,"is_disabled":false,"rental_uris":{"android":"levelo://app?vid=e3d309d6-c244-4504-93bd-e91aad5de330","ios":"levelo://app?vid=e3d309d6-c244-4504-93bd-e91aad5de330"},"vehicle_type_id":"4","last_reported":1706288757,"current_range_meters":10400,"station_id":"ce4bhp12rcd13ifvqh9g","pricing_plan_id":"free"},{"bike_id":"b27001ca-795c-434c-90fe-f05a824b4fd9","system_id":"levelo_inurba_marseille","lat":43.289307,"lon":5.38406,"is_reserved":false,"is_disabled":false,"rental_uris":{"android":"levelo://app?vid=b27001ca-795c-434c-90fe-f05a824b4fd9","ios":"levelo://app?vid=b27001ca-795c-434c-90fe-f05a824b4fd9"},"vehicle_type_id":"4","last_reported":1706288757,"current_range_meters":7200,"station_id":"ce4bh612rcd13ifvqe6g","pricing_plan_id":"free"},{"bike_id":"7889a275-94f9-488f-9f4c-bf62a5842fdc","system_id":"levelo_inurba_marseille","lat":43.292571,"lon":5.409107,"is_reserved":false,"is_disabled":false,"rental_uris":{"android":"levelo://app?vid=7889a275-94f9-488f-9f4c-bf62a5842fdc","ios":"levelo://app?vid=7889a275-94f9-488f-9f4c-bf62a5842fdc"},"vehicle_type_id":"4","last_reported":1706288757,"current_range_meters":4000,"station_id":"ce4bh192rcd13ifvqdc0","pricing_plan_id":"free"},{"bike_id":"5a3eefbc-a1d4-4aa7-9346-d8be81379199","system_id":"levelo_inurba_marseille","lat":43.320045,"lon":5.415046,"is_reserved":false,"is_disabled":false,"rental_uris":{"android":"levelo://app?vid=5a3eefbc-a1d4-4aa7-9346-d8be81379199","ios":"levelo://app?vid=5a3eefbc-a1d4-4aa7-9346-d8be81379199"},"vehicle_type_id":"4","last_reported":1706288757,"current_range_meters":16400,"station_id":"ce4bhq92rcd13ifvqhkg","pricing_plan_id":"free"},{"bike_id":"2f94b48c-fdef-4f4c-8e99-e3b5f8211bde","system_id":"levelo_inurba_marseille","lat":43.292571,"lon":5.409107,"is_reserved":false,"is_disabled":false,"rental_uris":{"android":"levelo://app?vid=2f94b48c-fdef-4f4c-8e99-e3b5f8211bde","ios":"levelo://app?vid=2f94b48c-fdef-4f4c-8e99-e3b5f8211bde"},"vehicle_type_id":"4","last_reported":1706288757,"current_range_meters":9200,"station_id":"ce4bh192rcd13ifvqdc0","pricing_plan_id":"free"},{"bike_id":"20c869d3-07bd-41e5-a373-467944675494","system_id":"levelo_inurba_marseille","lat":43.292571,"lon":5.409107,"is_reserved":false,"is_disabled":false,"rental_uris":{"android":"levelo://app?vid=20c869d3-07bd-41e5-a373-467944675494","ios":"levelo://app?vid=20c869d3-07bd-41e5-a373-467944675494"},"vehicle_type_id":"4","last_reported":1706288757,"current_range_meters":20400,"station_id":"ce4bh192rcd13ifvqdc0","pricing_plan_id":"free"},{"bike_id":"4b8b1c81-048f-4b6c-863e-bea53aab5dc3","system_id":"levelo_inurba_marseille","lat":43.2926,"lon":5.40906,"is_reserved":false,"is_disabled":false,"rental_uris":{"android":"levelo://app?vid=4b8b1c81-048f-4b6c-863e-bea53aab5dc3","ios":"levelo://app?vid=4b8b1c81-048f-4b6c-863e-bea53aab5dc3"},"vehicle_type_id":"4","last_reported":1706288757,"current_range_meters":12000,"station_id":"ce4bh192rcd13ifvqdc0","pricing_plan_id":"free"},{"bike_id":"75eeeb27-d3cb-4d24-9784-9a98475b0692","system_id":"levelo_inurba_marseille","lat":43.292571,"lon":5.409107,"is_reserved":false,"is_disabled":false,"rental_uris":{"android":"levelo://app?vid=75eeeb27-d3cb-4d24-9784-9a98475b0692","ios":"levelo://app?vid=75eeeb27-d3cb-4d24-9784-9a98475b0692"},"vehicle_type_id":"4","last_reported":1706288757,"current_range_meters":10000,"station_id":"ce4bh192rcd13ifvqdc0","pricing_plan_id":"free"},{"bike_id":"b6025770-690f-49fa-ab84-67c4ea0f3890","system_id":"levelo_inurba_marseille","lat":43.27618,"lon":5.361009,"is_reserved":false,"is_disabled":false,"rental_uris":{"android":"levelo://app?vid=b6025770-690f-49fa-ab84-67c4ea0f3890","ios":"levelo://app?vid=b6025770-690f-49fa-ab84-67c4ea0f3890"},"vehicle_type_id":"4","last_reported":1706288757,"current_range_meters":22400,"station_id":"ce4bgj92rcd13ifvqbe0","pricing_plan_id":"free"},{"bike_id":"da201c9a-23df-4a66-a8f5-97d00629ee92","system_id":"levelo_inurba_marseille","lat":43.27618,"lon":5.361009,"is_reserved":false,"is_disabled":false,"rental_uris":{"android":"levelo://app?vid=da201c9a-23df-4a66-a8f5-97d00629ee92","ios":"levelo://app?vid=da201c9a-23df-4a66-a8f5-97d00629ee92"},"vehicle_type_id":"4","last_reported":1706288757,"current_range_meters":10000,"station_id":"ce4bgj92rcd13ifvqbe0","pricing_plan_id":"free"},{"bike_id":"338041fe-dce8-4c25-9c14-04aba8afa7bb","system_id":"levelo_inurba_marseille","lat":43.276179,"lon":5.361009,"is_reserved":false,"is_disabled":false,"rental_uris":{"android":"levelo://app?vid=338041fe-dce8-4c25-9c14-04aba8afa7bb","ios":"levelo://app?vid=338041fe-dce8-4c25-9c14-04aba8afa7bb"},"vehicle_type_id":"4","last_reported":1706288757,"current_range_meters":20400,"station_id":"ce4bgj92rcd13ifvqbe0","pricing_plan_id":"free"},{"bike_id":"eee9e160-6bf9-4601-aee1-cc4dc017f053","system_id":"levelo_inurba_marseille","lat":43.27618,"lon":5.361009,"is_reserved":false,"is_disabled":false,"rental_uris":{"android":"levelo://app?vid=eee9e160-6bf9-4601-aee1-cc4dc017f053","ios":"levelo://app?vid=eee9e160-6bf9-4601-aee1-cc4dc017f053"},"vehicle_type_id":"4","last_reported":1706288757,"current_range_meters":27200,"station_id":"ce4bgj92rcd13ifvqbe0","pricing_plan_id":"free"},{"bike_id":"652b7ae3-fda2-43e8-866b-471abf010202","system_id":"levelo_inurba_marseille","lat":43.280784,"lon":5.396622,"is_reserved":false,"is_disabled":false,"rental_uris":{"android":"levelo://app?vid=652b7ae3-fda2-43e8-866b-471abf010202","ios":"levelo://app?vid=652b7ae3-fda2-43e8-866b-471abf010202"},"vehicle_type_id":"4","last_reported":1706288757,"current_range_meters":26800,"station_id":"ce4bho12rcd13ifvqh2g","pricing_plan_id":"free"},{"bike_id":"3090140c-06f4-4eaa-a981-6d0647c8f434","system_id":"levelo_inurba_marseille","lat":43.280784,"lon":5.396622,"is_reserved":false,"is_disabled":false,"rental_uris":{"android":"levelo://app?vid=3090140c-06f4-4eaa-a981-6d0647c8f434","ios":"levelo://app?vid=3090140c-06f4-4eaa-a981-6d0647c8f434"},"vehicle_type_id":"4","last_reported":1706288757,"current_range_meters":12000,"station_id":"ce4bho12rcd13ifvqh2g","pricing_plan_id":"free"},{"bike_id":"e6657332-b483-496e-9a16-01e65f0d7d6e","system_id":"levelo_inurba_marseille","lat":43.280784,"lon":5.396622,"is_reserved":false,"is_disabled":false,"rental_uris":{"android":"levelo://app?vid=e6657332-b483-496e-9a16-01e65f0d7d6e","ios":"levelo://app?vid=e6657332-b483-496e-9a16-01e65f0d7d6e"},"vehicle_type_id":"4","last_reported":1706288757,"current_range_meters":22400,"station_id":"ce4bho12rcd13ifvqh2g","pricing_plan_id":"free"},{"bike_id":"abba452c-1c76-443c-b897-fae9d60f9dfc","system_id":"levelo_inurba_marseille","lat":43.280784,"lon":5.396622,"is_reserved":false,"is_disabled":false,"rental_uris":{"android":"levelo://app?vid=abba452c-1c76-443c-b897-fae9d60f9dfc","ios":"levelo://app?vid=abba452c-1c76-443c-b897-fae9d60f9dfc"},"vehicle_type_id":"4","last_reported":1706288757,"current_range_meters":19200,"station_id":"ce4bho12rcd13ifvqh2g","pricing_plan_id":"free"},{"bike_id":"10aff302-3ef0-44cf-9cae-6793a90ebdd7","system_id":"levelo_inurba_marseille","lat":43.278401,"lon":5.392152,"is_reserved":false,"is_disabled":false,"rental_uris":{"android":"levelo://app?vid=10aff302-3ef0-44cf-9cae-6793a90ebdd7","ios":"levelo://app?vid=10aff302-3ef0-44cf-9cae-6793a90ebdd7"},"vehicle_type_id":"4","last_reported":1706288757,"current_range_meters":4800,"station_id":"ce4bhjp2rcd13ifvqga0","pricing_plan_id":"free"},{"bike_id":"1daf1c39-5119-4d91-9cda-8ee2faa449bf","system_id":"levelo_inurba_marseille","lat":43.278401,"lon":5.392152,"is_reserved":false,"is_disabled":false,"rental_uris":{"android":"levelo://app?vid=1daf1c39-5119-4d91-9cda-8ee2faa449bf","ios":"levelo://app?vid=1daf1c39-5119-4d91-9cda-8ee2faa449bf"},"vehicle_type_id":"4","last_reported":1706288757,"current_range_meters":0,"station_id":"ce4bhjp2rcd13ifvqga0","pricing_plan_id":"free"},{"bike_id":"23ec04f6-e2c2-4068-b5ac-daf51b09fd41","system_id":"levelo_inurba_marseille","lat":43.278399,"lon":5.392139,"is_reserved":false,"is_disabled":false,"rental_uris":{"android":"levelo://app?vid=23ec04f6-e2c2-4068-b5ac-daf51b09fd41","ios":"levelo://app?vid=23ec04f6-e2c2-4068-b5ac-daf51b09fd41"},"vehicle_type_id":"4","last_reported":1706288757,"current_range_meters":23600,"station_id":"ce4bhjp2rcd13ifvqga0","pricing_plan_id":"free"},{"bike_id":"35764404-3748-4aba-81da-367baec88a1f","system_id":"levelo_inurba_marseille","lat":43.275625,"lon":5.384392,"is_reserved":false,"is_disabled":false,"rental_uris":{"android":"levelo://app?vid=35764404-3748-4aba-81da-367baec88a1f","ios":"levelo://app?vid=35764404-3748-4aba-81da-367baec88a1f"},"vehicle_type_id":"4","last_reported":1706288757,"current_range_meters":19600,"station_id":"ce4bhh92rcd13ifvqfi0","pricing_plan_id":"free"},{"bike_id":"99c7dedd-298b-4f6e-8197-9f6dc4a31bf7","system_id":"levelo_inurba_marseille","lat":43.273613,"lon":5.362705,"is_reserved":false,"is_disabled":false,"rental_uris":{"android":"levelo://app?vid=99c7dedd-298b-4f6e-8197-9f6dc4a31bf7","ios":"levelo://app?vid=99c7dedd-298b-4f6e-8197-9f6dc4a31bf7"},"vehicle_type_id":"4","last_reported":1706288757,"current_range_meters":12400,"station_id":"ce4bhbh2rcd13ifvqeo0","pricing_plan_id":"free"},{"bike_id":"4f2ed8c3-91c2-4301-bddd-18621694789c","system_id":"levelo_inurba_marseille","lat":43.273613,"lon":5.362705,"is_reserved":false,"is_disabled":false,"rental_uris":{"android":"levelo://app?vid=4f2ed8c3-91c2-4301-bddd-18621694789c","ios":"levelo://app?vid=4f2ed8c3-91c2-4301-bddd-18621694789c"},"vehicle_type_id":"4","last_reported":1706288757,"current_range_meters":16400,"station_id":"ce4bhbh2rcd13ifvqeo0","pricing_plan_id":"free"},{"bike_id":"cd8c1ef8-fb69-4e5e-ad59-cad435a725c2","system_id":"levelo_inurba_marseille","lat":43.273613,"lon":5.362705,"is_reserved":false,"is_disabled":false,"rental_uris":{"android":"levelo://app?vid=cd8c1ef8-fb69-4e5e-ad59-cad435a725c2","ios":"levelo://app?vid=cd8c1ef8-fb69-4e5e-ad59-cad435a725c2"},"vehicle_type_id":"4","last_reported":1706288757,"current_range_meters":31600,"station_id":"ce4bhbh2rcd13ifvqeo0","pricing_plan_id":"free"},{"bike_id":"bf9e602f-cc80-4c70-b96b-2b0ba9f6a734","system_id":"levelo_inurba_marseille","lat":43.276252,"lon":5.39157,"is_reserved":false,"is_disabled":false,"rental_uris":{"android":"levelo://app?vid=bf9e602f-cc80-4c70-b96b-2b0ba9f6a734","ios":"levelo://app?vid=bf9e602f-cc80-4c70-b96b-2b0ba9f6a734"},"vehicle_type_id":"4","last_reported":1706288757,"current_range_meters":4400,"station_id":"","pricing_plan_id":"free"},{"bike_id":"643d42a3-108e-4748-8bf4-f066e6e1cb82","system_id":"levelo_inurba_marseille","lat":43.279952,"lon":5.400085,"is_reserved":false,"is_disabled":false,"rental_uris":{"android":"levelo://app?vid=643d42a3-108e-4748-8bf4-f066e6e1cb82","ios":"levelo://app?vid=643d42a3-108e-4748-8bf4-f066e6e1cb82"},"vehicle_type_id":"4","last_reported":1706288757,"current_range_meters":7200,"station_id":"ce4bho92rcd13ifvqh4g","pricing_plan_id":"free"},{"bike_id":"0b8b8524-6a9f-4a6e-8443-5dbf7da0d6cd","system_id":"levelo_inurba_marseille","lat":43.27967,"lon":5.39965,"is_reserved":false,"is_disabled":false,"rental_uris":{"android":"levelo://app?vid=0b8b8524-6a9f-4a6e-8443-5dbf7da0d6cd","ios":"levelo://app?vid=0b8b8524-6a9f-4a6e-8443-5dbf7da0d6cd"},"vehicle_type_id":"4","last_reported":1706288757,"current_range_meters":24400,"station_id":"ce4bho92rcd13ifvqh4g","pricing_plan_id":"free"},{"bike_id":"6f46a34b-d5d1-4592-8607-98eec5146735","system_id":"levelo_inurba_marseille","lat":43.283737,"lon":5.407114,"is_reserved":false,"is_disabled":false,"rental_uris":{"android":"levelo://app?vid=6f46a34b-d5d1-4592-8607-98eec5146735","ios":"levelo://app?vid=6f46a34b-d5d1-4592-8607-98eec5146735"},"vehicle_type_id":"4","last_reported":1706288757,"current_range_meters":10800,"station_id":"","pricing_plan_id":"free"},{"bike_id":"d38e4d99-a1b5-49f8-a405-58a2449658bc","system_id":"levelo_inurba_marseille","lat":43.317121,"lon":5.423936,"is_reserved":false,"is_disabled":false,"rental_uris":{"android":"levelo://app?vid=d38e4d99-a1b5-49f8-a405-58a2449658bc","ios":"levelo://app?vid=d38e4d99-a1b5-49f8-a405-58a2449658bc"},"vehicle_type_id":"4","last_reported":1706288757,"current_range_meters":20000,"station_id":"ce4bhp92rcd13ifvqhbg","pricing_plan_id":"free"},{"bike_id":"d2d3580c-2f58-4002-b2ba-eb3efb0174ff","system_id":"levelo_inurba_marseille","lat":43.317121,"lon":5.423936,"is_reserved":false,"is_disabled":false,"rental_uris":{"android":"levelo://app?vid=d2d3580c-2f58-4002-b2ba-eb3efb0174ff","ios":"levelo://app?vid=d2d3580c-2f58-4002-b2ba-eb3efb0174ff"},"vehicle_type_id":"4","last_reported":1706288757,"current_range_meters":30000,"station_id":"ce4bhp92rcd13ifvqhbg","pricing_plan_id":"free"},{"bike_id":"d481f5a4-942f-450a-a783-707126c2e3cf","system_id":"levelo_inurba_marseille","lat":43.317121,"lon":5.423936,"is_reserved":false,"is_disabled":false,"rental_uris":{"android":"levelo://app?vid=d481f5a4-942f-450a-a783-707126c2e3cf","ios":"levelo://app?vid=d481f5a4-942f-450a-a783-707126c2e3cf"},"vehicle_type_id":"4","last_reported":1706288757,"current_range_meters":22000,"station_id":"ce4bhp92rcd13ifvqhbg","pricing_plan_id":"free"},{"bike_id":"28d28eef-5e06-4bab-94cd-642d23547dae","system_id":"levelo_inurba_marseille","lat":43.317121,"lon":5.423936,"is_reserved":false,"is_disabled":false,"rental_uris":{"android":"levelo://app?vid=28d28eef-5e06-4bab-94cd-642d23547dae","ios":"levelo://app?vid=28d28eef-5e06-4bab-94cd-642d23547dae"},"vehicle_type_id":"4","last_reported":1706288757,"current_range_meters":19200,"station_id":"ce4bhp92rcd13ifvqhbg","pricing_plan_id":"free"},{"bike_id":"ad93e3c7-911e-4874-86fc-28a603f65395","system_id":"levelo_inurba_marseille","lat":43.310785,"lon":5.424305,"is_reserved":false,"is_disabled":false,"rental_uris":{"android":"levelo://app?vid=ad93e3c7-911e-4874-86fc-28a603f65395","ios":"levelo://app?vid=ad93e3c7-911e-4874-86fc-28a603f65395"},"vehicle_type_id":"4","last_reported":1706288757,"current_range_meters":25200,"station_id":"ce4bhp92rcd13ifvqhag","pricing_plan_id":"free"},{"bike_id":"1362ed78-dcea-4bae-a774-b4bdd6bbb662","system_id":"levelo_inurba_marseille","lat":43.34144,"lon":5.40963,"is_reserved":false,"is_disabled":false,"rental_uris":{"android":"levelo://app?vid=1362ed78-dcea-4bae-a774-b4bdd6bbb662","ios":"levelo://app?vid=1362ed78-dcea-4bae-a774-b4bdd6bbb662"},"vehicle_type_id":"4","last_reported":1706288757,"current_range_meters":2800,"station_id":"ce4bhqh2rcd13ifvqhlg","pricing_plan_id":"free"},