{"last_updated":1768570226,"ttl":60,"version":"2.2","data":{"bikes":[{"bike_id":"d0d1d698-a748-4849-a68c-b2045ed71aae","system_id":"levelo_inurba_marseille","lat":43.25114,"lon":5.4032,"is_reserved":false,"is_disabled":false,"rental_uris":{"android":"levelo://app?vid=d0d1d698-a748-4849-a68c-b2045ed71aae","ios":"levelo://app?vid=d0d1d698-a748-4849-a68c-b2045ed71aae"},"vehicle_type_id":"4","last_reported":1768570226,"current_range_meters":2800,"station_id":"ce4bhlh2rcd13ifvqgig","pricing_plan_id":"cebpf4jnsgd1na2vs0mg"},{"bike_id":"0e994130-a069-4140-bffc-1e19b05741b3","system_id":"levelo_inurba_marseille","lat":43.22561,"lon":5.41652,"is_reserved":false,"is_disabled":false,"rental_uris":{"android":"levelo://app?vid=0e994130-a069-4140-bffc-1e19b05741b3","ios":"levelo://app?vid=0e994130-a069-4140-bffc-1e19b05741b3"},"vehicle_type_id":"4","last_reported":1768570226,"current_range_meters":2800,"station_id":"st_d2o4gvlbi1j2169b742g","pricing_plan_id":"cebpf4jnsgd1na2vs0mg"},{"bike_id":"294130fc-0ec9-4d2e-966f-c328a1ee476f","system_id":"levelo_inurba_marseille","lat":43.30323,"lon":5.40452,"is_reserved":false,"is_disabled":true,"rental_uris":{"android":"levelo://app?vid=294130fc-0ec9-4d2e-966f-c328a1ee476f","ios":"levelo://app?vid=294130fc-0ec9-4d2e-966f-c328a1ee476f"},"vehicle_type_id":"4","last_reported":1768570226,"current_range_meters":2800,"station_id":"ce4bh012rcd13ifvqd10","pricing_plan_id":"cebpf4jnsgd1na2vs0mg"},{"bike_id":"f9650e24-8048-44b3-9275-13d881c210a3","system_id":"levelo_inurba_marseille","lat":43.30275,"lon":5.37712,"is_reserved":false,"is_disabled":false,"rental_uris":{"android":"levelo://app?vid=f9650e24-8048-44b3-9275-13d881c210a3","ios":"levelo://app?vid=f9650e24-8048-44b3-9275-13d881c210a3"},"vehicle_type_id":"4","last_reported":1768570226,"current_range_meters":2800,"station_id":"ce4bguh2rcd13ifvqcj0","pricing_plan_id":"cebpf4jnsgd1na2vs0mg"},{"bike_id":"d14c563e-7d81-4312-b6b2-f8e7e772a5f6","system_id":"levelo_inurba_marseille","lat":43.244775,"lon":5.425335,"is_reserved":false,"is_disabled":false,"rental_uris":{"android":"levelo://app?vid=d14c563e-7d81-4312-b6b2-f8e7e772a5f6","ios":"levelo://app?vid=d14c563e-7d81-4312-b6b2-f8e7e772a5f6"},"vehicle_type_id":"4","last_reported":1768570226,"current_range_meters":2800,"station_id":"st_d4a3vfp97mjs738cd8kg","pricing_plan_id":"cebpf4jnsgd1na2vs0mg"},{"bike_id":"d1437624-7325-4411-87ce-3009f56ae813","system_id":"levelo_inurba_marseille","lat":43.27822,"lon":5.40738,"is_reserved":false,"is_disabled":false,"rental_uris":{"android":"levelo://app?vid=d1437624-7325-4411-87ce-3009f56ae813","ios":"levelo://app?vid=d1437624-7325-4411-87ce-3009f56ae813"},"vehicle_type_id":"4","last_reported":1768570226,"current_range_meters":3200,"station_id":"ce4bhnh2rcd13ifvqgtg","pricing_plan_id":"cebpf4jnsgd1na2vs0mg"},{"bike_id":"736ec16a-dc55-4587-9b1c-c917e562c9fe","system_id":"levelo_inurba_marseille","lat":43.25498,"lon":5.37637,"is_reserved":false,"is_disabled":false,"rental_uris":{"android":"levelo://app?vid=736ec16a-dc55-4587-9b1c-c917e562c9fe","ios":"levelo://app?vid=736ec16a-dc55-4587-9b1c-c917e562c9fe"},"vehicle_type_id":"4","last_reported":1768570226,"current_range_meters":3200,"station_id":"ce4bhh12rcd13ifvqff0","pricing_plan_id":"cebpf4jnsgd1na2vs0mg"},{"bike_id":"ddc8b24b-072d-40c9-9a57-09c0bcba0d99","system_id":"levelo_inurba_marseille","lat":43.30299,"lon":5.3922,"is_reserved":false,"is_disabled":false,"rental_uris":{"android":"levelo://app?vid=ddc8b24b-072d-40c9-9a57-09c0bcba0d99","ios":"levelo://app?vid=ddc8b24b-072d-40c9-9a57-09c0bcba0d99"},"vehicle_type_id":"4","last_reported":1768570226,"current_range_meters":3200,"station_id":"ce4bgkh2rcd13ifvqbk0","pricing_plan_id":"cebpf4jnsgd1na2vs0mg"},{"bike_id":"05e16fb9-c29b-478d-98b3-025d2b880cd6","system_id":"levelo_inurba_marseille","lat":43.24963,"lon":5.3965,"is_reserved":false,"is_disabled":false,"rental_uris":{"android":"levelo://app?vid=05e16fb9-c29b-478d-98b3-025d2b880cd6","ios":"levelo://app?vid=05e16fb9-c29b-478d-98b3-025d2b880cd6"},"vehicle_type_id":"4","last_reported":1768570226,"current_range_meters":3200,"station_id":"","pricing_plan_id":"cebpf4jnsgd1na2vs0mg"},{"bike_id":"d2d2d908-ffb6-4c0a-97f2-e5e034e39816","system_id":"levelo_inurba_marseille","lat":43.279629,"lon":5.403788,"is_reserved":false,"is_disabled":false,"rental_uris":{"android":"levelo://app?vid=d2d2d908-ffb6-4c0a-97f2-e5e034e39816","ios":"levelo://app?vid=d2d2d908-ffb6-4c0a-97f2-e5e034e39816"},"vehicle_type_id":"4","last_reported":1768570226,"current_range_meters":3200,"station_id":"","pricing_plan_id":"cebpf4jnsgd1na2vs0mg"},{"bike_id":"d20f3c5b-1666-48da-af35-674587b41cd5","system_id":"levelo_inurba_marseille","lat":43.27192,"lon":5.39199,"is_reserved":false,"is_disabled":false,"rental_uris":{"android":"levelo://app?vid=d20f3c5b-1666-48da-af35-674587b41cd5","ios":"levelo://app?vid=d20f3c5b-1666-48da-af35-674587b41cd5"},"vehicle_type_id":"4","last_reported":1768570226,"current_range_meters":3200,"station_id":"ce4bhhp2rcd13ifvqfm0","pricing_plan_id":"cebpf4jnsgd1na2vs0mg"},{"bike_id":"6e35e212-a056-467f-a013-47ea8afb7da9","system_id":"levelo_inurba_marseille","lat":43.27992,"lon":5.40016,"is_reserved":false,"is_disabled":false,"rental_uris":{"android":"levelo://app?vid=6e35e212-a056-467f-a013-47ea8afb7da9","ios":"levelo://app?vid=6e35e212-a056-467f-a013-47ea8afb7da9"},"vehicle_type_id":"4","last_reported":1768570226,"current_range_meters":3200,"station_id":"ce4bho92rcd13ifvqh4g","pricing_plan_id":"cebpf4jnsgd1na2vs0mg"},{"bike_id":"de053820-f473-4d4f-8be6-7eb46f3d1ea3","system_id":"levelo_inurba_marseille","lat":43.310441,"lon":5.393252,"is_reserved":false,"is_disabled":false,"rental_uris":{"android":"levelo://app?vid=de053820-f473-4d4f-8be6-7eb46f3d1ea3","ios":"levelo://app?vid=de053820-f473-4d4f-8be6-7eb46f3d1ea3"},"vehicle_type_id":"4","last_reported":1768570226,"current_range_meters":3200,"station_id":"","pricing_plan_id":"cebpf4jnsgd1na2vs0mg"},{"bike_id":"d09486c8-4409-43b3-b96e-99cd00983656","system_id":"levelo_inurba_marseille","lat":43.3302,"lon":5.39045,"is_reserved":false,"is_disabled":false,"rental_uris":{"android":"levelo://app?vid=d09486c8-4409-43b3-b96e-99cd00983656","ios":"levelo://app?vid=d09486c8-4409-43b3-b96e-99cd00983656"},"vehicle_type_id":"4","last_reported":1768570226,"current_range_meters":3200,"station_id":"ce4bhr92rcd13ifvqhrg","pricing_plan_id":"cebpf4jnsgd1na2vs0mg"},{"bike_id":"0d306a8b-6306-47e1-bb3e-f2327ad54135","system_id":"levelo_inurba_marseille","lat":43.27429,"lon":5.3942,"is_reserved":false,"is_disabled":false,"rental_uris":{"android":"levelo://app?vid=0d306a8b-6306-47e1-bb3e-f2327ad54135","ios":"levelo://app?vid=0d306a8b-6306-47e1-bb3e-f2327ad54135"},"vehicle_type_id":"4","last_reported":1768570226,"current_range_meters":3200,"station_id":"ce4bhdp2rcd13ifvqf20","pricing_plan_id":"cebpf4jnsgd1na2vs0mg"},{"bike_id":"62ffcd28-240a-44e8-833a-ae7151190400","system_id":"levelo_inurba_marseille","lat":43.249484,"lon":5.404904,"is_reserved":false,"is_disabled":false,"rental_uris":{"android":"levelo://app?vid=62ffcd28-240a-44e8-833a-ae7151190400","ios":"levelo://app?vid=62ffcd28-240a-44e8-833a-ae7151190400"},"vehicle_type_id":"4","last_reported":1768570226,"current_range_meters":3200,"station_id":"st_d2ngiaodas8pm72gd1h0","pricing_plan_id":"cebpf4jnsgd1na2vs0mg"},{"bike_id":"8ea47e76-4d6f-4a78-83f5-ab0a1828073d","system_id":"levelo_inurba_marseille","lat":43.22554,"lon":5.41639,"is_reserved":false,"is_disabled":false,"rental_uris":{"android":"levelo://app?vid=8ea47e76-4d6f-4a78-83f5-ab0a1828073d","ios":"levelo://app?vid=8ea47e76-4d6f-4a78-83f5-ab0a1828073d"},"vehicle_type_id":"4","last_reported":1768570226,"current_range_meters":3200,"station_id":"st_d2o4gvlbi1j2169b742g","pricing_plan_id":"cebpf4jnsgd1na2vs0mg"},{"bike_id":"931bef7a-46b6-4b69-9455-e5c7699b211c","system_id":"levelo_inurba_marseille","lat":43.24636,"lon":5.43141,"is_reserved":false,"is_disabled":false,"rental_uris":{"android":"levelo://app?vid=931bef7a-46b6-4b69-9455-e5c7699b211c","ios":"levelo://app?vid=931bef7a-46b6-4b69-9455-e5c7699b211c"},"vehicle_type_id":"4","last_reported":1768570226,"current_range_meters":3200,"station_id":"st_d2m6c4gdas8pm72e190g","pricing_plan_id":"cebpf4jnsgd1na2vs0mg"},{"bike_id":"69e2d55a-807d-462e-b862-21775a4f90d4","system_id":"levelo_inurba_marseille","lat":43.31481,"lon":5.37305,"is_reserved":false,"is_disabled":false,"rental_uris":{"android":"levelo://app?vid=69e2d55a-807d-462e-b862-21775a4f90d4","ios":"levelo://app?vid=69e2d55a-807d-462e-b862-21775a4f90d4"},"vehicle_type_id":"4","last_reported":1768570226,"current_range_meters":3200,"station_id":"ce4bgt12rcd13ifvqcd0","pricing_plan_id":"cebpf4jnsgd1na2vs0mg"},{"bike_id":"3a36667a-93a2-47e6-8728-e382036e6f88","system_id":"levelo_inurba_marseille","lat":43.21739,"lon":5.346041,"is_reserved":false,"is_disabled":false,"rental_uris":{"android":"levelo://app?vid=3a36667a-93a2-47e6-8728-e382036e6f88","ios":"levelo://app?vid=3a36667a-93a2-47e6-8728-e382036e6f88"},"vehicle_type_id":"4","last_reported":1768570226,"current_range_meters":3200,"station_id":"st_cvj6r9ubvosntc0bgbag","pricing_plan_id":"cebpf4jnsgd1na2vs0mg"},{"bike_id":"43144c88-949a-4733-87ab-b28a35da31f6","system_id":"levelo_inurba_marseille","lat":43.26557,"lon":5.37292,"is_reserved":false,"is_disabled":false,"rental_uris":{"android":"levelo://app?vid=43144c88-949a-4733-87ab-b28a35da31f6","ios":"levelo://app?vid=43144c88-949a-4733-87ab-b28a35da31f6"},"vehicle_type_id":"4","last_reported":1768570226,"current_range_meters":3200,"station_id":"ce4bhg12rcd13ifvqf70","pricing_plan_id":"cebpf4jnsgd1na2vs0mg"},{"bike_id":"88d7c9c3-925e-46f2-82a2-5df89a21a7dd","system_id":"levelo_inurba_marseille","lat":43.30135,"lon":5.38775,"is_reserved":false,"is_disabled":false,"rental_uris":{"android":"levelo://app?vid=88d7c9c3-925e-46f2-82a2-5df89a21a7dd","ios":"levelo://app?vid=88d7c9c3-925e-46f2-82a2-5df89a21a7dd"},"vehicle_type_id":"4","last_reported":1768570226,"current_range_meters":3600,"station_id":"ce4bghh2rcd13ifvqb60","pricing_plan_id":"cebpf4jnsgd1na2vs0mg"},{"bike_id":"41bcc576-3262-4c06-a0fd-4f105ce774f7","system_id":"levelo_inurba_marseille","lat":43.27995,"lon":5.40028,"is_reserved":false,"is_disabled":false,"rental_uris":{"android":"levelo://app?vid=41bcc576-3262-4c06-a0fd-4f105ce774f7","ios":"levelo://app?vid=41bcc576-3262-4c06-a0fd-4f105ce774f7"},"vehicle_type_id":"4","last_reported":1768570226,"current_range_meters":3600,"station_id":"ce4bho92rcd13ifvqh4g","pricing_plan_id":"cebpf4jnsgd1na2vs0mg"},{"bike_id":"91dbe188-56c8-4fce-a414-d6e43ed9eb6b","system_id":"levelo_inurba_marseille","lat":43.26719,"lon":5.3996,"is_reserved":false,"is_disabled":false,"rental_uris":{"android":"levelo://app?vid=91dbe188-56c8-4fce-a414-d6e43ed9eb6b","ios":"levelo://app?vid=91dbe188-56c8-4fce-a414-d6e43ed9eb6b"},"vehicle_type_id":"4","last_reported":1768570226,"current_range_meters":3600,"station_id":"","pricing_plan_id":"cebpf4jnsgd1na2vs0mg"},{"bike_id":"7c13900c-9ba6-4085-bea5-af3b0d13af71","system_id":"levelo_inurba_marseille","lat":43.29602,"lon":5.3798,"is_reserved":false,"is_disabled":false,"rental_uris":{"android":"levelo://app?vid=7c13900c-9ba6-4085-bea5-af3b0d13af71","ios":"levelo://app?vid=7c13900c-9ba6-4085-bea5-af3b0d13af71"},"vehicle_type_id":"4","last_reported":1768570226,"current_range_meters":3600,"station_id":"","pricing_plan_id":"cebpf4jnsgd1na2vs0mg"},{"bike_id":"0cdf751e-50be-4213-adcd-ec4933b84284","system_id":"levelo_inurba_marseille","lat":43.285331,"lon":5.441151,"is_reserved":false,"is_disabled":false,"rental_uris":{"android":"levelo://app?vid=0cdf751e-50be-4213-adcd-ec4933b84284","ios":"levelo://app?vid=0cdf751e-50be-4213-adcd-ec4933b84284"},"vehicle_type_id":"4","last_reported":1768570226,"current_range_meters":3600,"station_id":"st_d3j3df2ikq2c7380ej80","pricing_plan_id":"cebpf4jnsgd1na2vs0mg"},{"bike_id":"0e38015e-9317-445e-8ee9-1f7537b3f34b","system_id":"levelo_inurba_marseille","lat":43.29637,"lon":5.40603,"is_reserved":false,"is_disabled":false,"rental_uris":{"android":"levelo://app?vid=0e38015e-9317-445e-8ee9-1f7537b3f34b","ios":"levelo://app?vid=0e38015e-9317-445e-8ee9-1f7537b3f34b"},"vehicle_type_id":"4","last_reported":1768570226,"current_range_meters":3600,"station_id":"ce4bh0h2rcd13ifvqd60","pricing_plan_id":"cebpf4jnsgd1na2vs0mg"},{"bike_id":"75422019-3005-404c-b749-06eb292054c7","system_id":"levelo_inurba_marseille","lat":43.2499,"lon":5.38947,"is_reserved":false,"is_disabled":false,"rental_uris":{"android":"levelo://app?vid=75422019-3005-404c-b749-06eb292054c7","ios":"levelo://app?vid=75422019-3005-404c-b749-06eb292054c7"},"vehicle_type_id":"4","last_reported":1768570226,"current_range_meters":3600,"station_id":"ce4bhgp2rcd13ifvqfd0","pricing_plan_id":"cebpf4jnsgd1na2vs0mg"},{"bike_id":"8ee06e66-23f6-4f1e-9dbd-8d0c047b0c90","system_id":"levelo_inurba_marseille","lat":43.31763,"lon":5.39011,"is_reserved":false,"is_disabled":false,"rental_uris":{"android":"levelo://app?vid=8ee06e66-23f6-4f1e-9dbd-8d0c047b0c90","ios":"levelo://app?vid=8ee06e66-23f6-4f1e-9dbd-8d0c047b0c90"},"vehicle_type_id":"4","last_reported":1768570226,"current_range_meters":3600,"station_id":"ce4bhqp2rcd13ifvqhng","pricing_plan_id":"cebpf4jnsgd1na2vs0mg"},{"bike_id":"3eeb6ee7-3480-43a5-b4ce-60ae5a1bd853","system_id":"levelo_inurba_marseille","lat":43.292285,"lon":5.360591,"is_reserved":false,"is_disabled":false,"rental_uris":{"android":"levelo://app?vid=3eeb6ee7-3480-43a5-b4ce-60ae5a1bd853","ios":"levelo://app?vid=3eeb6ee7-3480-43a5-b4ce-60ae5a1bd853"},"vehicle_type_id":"4","last_reported":1768570226,"current_range_meters":3600,"station_id":"ce4bhbh2rcd13ifvqeqg","pricing_plan_id":"cebpf4jnsgd1na2vs0mg"},{"bike_id":"17b5d082-feb3-424f-8f89-f1cc5de2a456","system_id":"levelo_inurba_marseille","lat":43.303256,"lon":5.404366,"is_reserved":false,"is_disabled":false,"rental_uris":{"android":"levelo://app?vid=17b5d082-feb3-424f-8f89-f1cc5de2a456","ios":"levelo://app?vid=17b5d082-feb3-424f-8f89-f1cc5de2a456"},"vehicle_type_id":"4","last_reported":1768570226,"current_range_meters":3600,"station_id":"ce4bh012rcd13ifvqd10","pricing_plan_id":"cebpf4jnsgd1na2vs0mg"},{"bike_id":"fe510dd3-34bd-4c20-acaf-33abace306d9","system_id":"levelo_inurba_marseille","lat":43.2923,"lon":5.36416,"is_reserved":false,"is_disabled":false,"rental_uris":{"android":"levelo://app?vid=fe510dd3-34bd-4c20-acaf-33abace306d9","ios":"levelo://app?vid=fe510dd3-34bd-4c20-acaf-33abace306d9"},"vehicle_type_id":"4","last_reported":1768570226,"current_range_meters":3600,"station_id":"","pricing_plan_id":"cebpf4jnsgd1na2vs0mg"},{"bike_id":"88db4f0b-74d0-4351-b1b7-dfec4912fbd1","system_id":"levelo_inurba_marseille","lat":43.29052,"lon":5.39961,"is_reserved":false,"is_disabled":false,"rental_uris":{"android":"levelo://app?vid=88db4f0b-74d0-4351-b1b7-dfec4912fbd1","ios":"levelo://app?vid=88db4f0b-74d0-4351-b1b7-dfec4912fbd1"},"vehicle_type_id":"4","last_reported":1768570226,"current_range_meters":3600,"station_id":"ce4bh392rcd13ifvqdm0","pricing_plan_id":"cebpf4jnsgd1na2vs0mg"},{"bike_id":"3bfe3f93-786c-4bda-ad38-770818b98333","system_id":"levelo_inurba_marseille","lat":43.25326,"lon":5.42171,"is_reserved":false,"is_disabled":false,"rental_uris":{"android":"levelo://app?vid=3bfe3f93-786c-4bda-ad38-770818b98333","ios":"levelo://app?vid=3bfe3f93-786c-4bda-ad38-770818b98333"},"vehicle_type_id":"4","last_reported":1768570226,"current_range_meters":3600,"station_id":"st_d2m65c5bi1j21697t3ng","pricing_plan_id":"cebpf4jnsgd1na2vs0mg"},{"bike_id":"f06e4c28-c11a-481e-9b95-e74769cae5a5","system_id":"levelo_inurba_marseille","lat":43.300842,"lon":5.39077,"is_reserved":false,"is_disabled":false,"rental_uris":{"android":"levelo://app?vid=f06e4c28-c11a-481e-9b95-e74769cae5a5","ios":"levelo://app?vid=f06e4c28-c11a-481e-9b95-e74769cae5a5"},"vehicle_type_id":"4","last_reported":1768570226,"current_range_meters":3600,"station_id":"ce4bh192rcd13ifvqdb0","pricing_plan_id":"cebpf4jnsgd1na2vs0mg"},{"bike_id":"06592d86-2a77-4183-a1b8-b489db24a110","system_id":"levelo_inurba_marseille","lat":43.26679,"lon":5.38271,"is_reserved":false,"is_disabled":false,"rental_uris":{"android":"levelo://app?vid=06592d86-2a77-4183-a1b8-b489db24a110","ios":"levelo://app?vid=06592d86-2a77-4183-a1b8-b489db24a110"},"vehicle_type_id":"4","last_reported":1768570226,"current_range_meters":3600,"station_id":"ce4bhg92rcd13ifvqf90","pricing_plan_id":"cebpf4jnsgd1na2vs0mg"},{"bike_id":"342bea6f-2102-471d-af80-955bfe929d6a","system_id":"levelo_inurba_marseille","lat":43.21747,"lon":5.34604,"is_reserved":false,"is_disabled":false,"rental_uris":{"android":"levelo://app?vid=342bea6f-2102-471d-af80-955bfe929d6a","ios":"levelo://app?vid=342bea6f-2102-471d-af80-955bfe929d6a"},"vehicle_type_id":"4","last_reported":1768570226,"current_range_meters":3600,"station_id":"","pricing_plan_id":"cebpf4jnsgd1na2vs0mg"},{"bike_id":"18701c89-5421-4e3f-a08d-533ed7c80837","system_id":"levelo_inurba_marseille","lat":43.27314,"lon":5.39066,"is_reserved":false,"is_disabled":false,"rental_uris":{"android":"levelo://app?vid=18701c89-5421-4e3f-a08d-533ed7c80837","ios":"levelo://app?vid=18701c89-5421-4e3f-a08d-533ed7c80837"},"vehicle_type_id":"4","last_reported":1768570226,"current_range_meters":3600,"station_id":"ce4bhgp2rcd13ifvqfe0","pricing_plan_id":"cebpf4jnsgd1na2vs0mg"},{"bike_id":"f0f77a0a-fb63-466f-8221-ca4aa28e90e6","system_id":"levelo_inurba_marseille","lat":43.2482,"lon":5.37468,"is_reserved":false,"is_disabled":false,"rental_uris":{"android":"levelo://app?vid=f0f77a0a-fb63-466f-8221-ca4aa28e90e6","ios":"levelo://app?vid=f0f77a0a-fb63-466f-8221-ca4aa28e90e6"},"vehicle_type_id":"4","last_reported":1768570226,"current_range_meters":4000,"station_id":"ce4bhgh2rcd13ifvqfb0","pricing_plan_id":"cebpf4jnsgd1na2vs0mg"},{"bike_id":"ccc662fc-472c-4c24-a386-f8f1a4f0aa1b","system_id":"levelo_inurba_marseille","lat":43.29769,"lon":5.42771,"is_reserved":false,"is_disabled":false,"rental_uris":{"android":"levelo://app?vid=ccc662fc-472c-4c24-a386-f8f1a4f0aa1b","ios":"levelo://app?vid=ccc662fc-472c-4c24-a386-f8f1a4f0aa1b"},"vehicle_type_id":"4","last_reported":1768570226,"current_range_meters":4000,"station_id":"st_d3md5207bmas73dh9klg","pricing_plan_id":"cebpf4jnsgd1na2vs0mg"},{"bike_id":"7a28de06-fc29-4dd2-84b3-110457e70da2","system_id":"levelo_inurba_marseille","lat":43.24972,"lon":5.40484,"is_reserved":false,"is_disabled":false,"rental_uris":{"android":"levelo://app?vid=7a28de06-fc29-4dd2-84b3-110457e70da2","ios":"levelo://app?vid=7a28de06-fc29-4dd2-84b3-110457e70da2"},"vehicle_type_id":"4","last_reported":1768570226,"current_range_meters":4000,"station_id":"st_d2ngiaodas8pm72gd1h0","pricing_plan_id":"cebpf4jnsgd1na2vs0mg"},{"bike_id":"8e1f1ed2-bc25-4426-af81-32cf1e4d20f3","system_id":"levelo_inurba_marseille","lat":43.31752,"lon":5.38986,"is_reserved":false,"is_disabled":false,"rental_uris":{"android":"levelo://app?vid=8e1f1ed2-bc25-4426-af81-32cf1e4d20f3","ios":"levelo://app?vid=8e1f1ed2-bc25-4426-af81-32cf1e4d20f3"},"vehicle_type_id":"4","last_reported":1768570226,"current_range_meters":4000,"station_id":"ce4bhqp2rcd13ifvqhng","pricing_plan_id":"cebpf4jnsgd1na2vs0mg"},{"bike_id":"7a5c08cf-d90b-408e-a297-6ea242ed66a8","system_id":"levelo_inurba_marseille","lat":43.25488,"lon":5.37643,"is_reserved":false,"is_disabled":false,"rental_uris":{"android":"levelo://app?vid=7a5c08cf-d90b-408e-a297-6ea242ed66a8","ios":"levelo://app?vid=7a5c08cf-d90b-408e-a297-6ea242ed66a8"},"vehicle_type_id":"4","last_reported":1768570226,"current_range_meters":4000,"station_id":"ce4bhh12rcd13ifvqff0","pricing_plan_id":"cebpf4jnsgd1na2vs0mg"},{"bike_id":"0cd1e779-26e9-49c5-b773-f088de1cb9ab","system_id":"levelo_inurba_marseille","lat":43.26066,"lon":5.38523,"is_reserved":false,"is_disabled":false,"rental_uris":{"android":"levelo://app?vid=0cd1e779-26e9-49c5-b773-f088de1cb9ab","ios":"levelo://app?vid=0cd1e779-26e9-49c5-b773-f088de1cb9ab"},"vehicle_type_id":"4","last_reported":1768570226,"current_range_meters":4000,"station_id":"","pricing_plan_id":"cebpf4jnsgd1na2vs0mg"},{"bike_id":"2618b71e-e626-4cbf-aa0f-e06cd864aacc","system_id":"levelo_inurba_marseille","lat":43.24786,"lon":5.37455,"is_reserved":false,"is_disabled":false,"rental_uris":{"android":"levelo://app?vid=2618b71e-e626-4cbf-aa0f-e06cd864aacc","ios":"levelo://app?vid=2618b71e-e626-4cbf-aa0f-e06cd864aacc"},"vehicle_type_id":"4","last_reported":1768570226,"current_range_meters":4000,"station_id":"ce4bhgh2rcd13ifvqfb0","pricing_plan_id":"cebpf4jnsgd1na2vs0mg"},{"bike_id":"e5aa787f-c7e4-4b02-b6ed-ac65ac7744ea","system_id":"levelo_inurba_marseille","lat":43.23192,"lon":5.39995,"is_reserved":false,"is_disabled":false,"rental_uris":{"android":"levelo://app?vid=e5aa787f-c7e4-4b02-b6ed-ac65ac7744ea","ios":"levelo://app?vid=e5aa787f-c7e4-4b02-b6ed-ac65ac7744ea"},"vehicle_type_id":"4","last_reported":1768570226,"current_range_meters":4000,"station_id":"ce4bhn12rcd13ifvqgqg","pricing_plan_id":"cebpf4jnsgd1na2vs0mg"},{"bike_id":"bd13e7ff-e0f5-4cf4-932c-491c6c62717d","system_id":"levelo_inurba_marseille","lat":43.29368,"lon":5.37851,"is_reserved":false,"is_disabled":false,"rental_uris":{"android":"levelo://app?vid=bd13e7ff-e0f5-4cf4-932c-491c6c62717d","ios":"levelo://app?vid=bd13e7ff-e0f5-4cf4-932c-491c6c62717d"},"vehicle_type_id":"4","last_reported":1768570226,"current_range_meters":4000,"station_id":"ce4bgjh2rcd13ifvqbf0","pricing_plan_id":"cebpf4jnsgd1na2vs0mg"},{"bike_id":"2bdeaf23-621f-4252-8828-331f88fc91ed","system_id":"levelo_inurba_marseille","lat":43.301303,"lon":5.374056,"is_reserved":false,"is_disabled":false,"rental_uris":{"android":"levelo://app?vid=2bdeaf23-621f-4252-8828-331f88fc91ed","ios":"levelo://app?vid=2bdeaf23-621f-4252-8828-331f88fc91ed"},"vehicle_type_id":"4","last_reported":1768570226,"current_range_meters":4000,"station_id":"ce4bgs92rcd13ifvqcc0","pricing_plan_id":"cebpf4jnsgd1na2vs0mg"},{"bike_id":"e1785ee6-3aae-4251-a755-33b65feb8061","system_id":"levelo_inurba_marseille","lat":43.2706,"lon":5.40259,"is_reserved":false,"is_disabled":false,"rental_uris":{"android":"levelo://app?vid=e1785ee6-3aae-4251-a755-33b65feb8061","ios":"levelo://app?vid=e1785ee6-3aae-4251-a755-33b65feb8061"},"vehicle_type_id":"4","last_reported":1768570226,"current_range_meters":4000,"station_id":"ce4bhk92rcd13ifvqgc0","pricing_plan_id":"cebpf4jnsgd1na2vs0mg"},{"bike_id":"f144ad62-0bf8-4424-89a9-d4b6fd8d5562","system_id":"levelo_inurba_marseille","lat":43.25557,"lon":5.38243,"is_reserved":false,"is_disabled":false,"rental_uris":{"android":"levelo://app?vid=f144ad62-0bf8-4424-89a9-d4b6fd8d5562","ios":"levelo://app?vid=f144ad62-0bf8-4424-89a9-d4b6fd8d5562"},"vehicle_type_id":"4","last_reported":1768570226,"current_range_meters":4000,"station_id":"ce4bhih2rcd13ifvqfs0","pricing_plan_id":"cebpf4jnsgd1na2vs0mg"},{"bike_id":"192639a7-fdf7-4bd2-b9a1-97d23a23fd58","system_id":"levelo_inurba_marseille","lat":43.285528,"lon":5.405073,"is_reserved":false,"is_disabled":false,"rental_uris":{"android":"levelo://app?vid=192639a7-fdf7-4bd2-b9a1-97d23a23fd58","ios":"levelo://app?vid=192639a7-fdf7-4bd2-b9a1-97d23a23fd58"},"vehicle_type_id":"4","last_reported":1768570226,"current_range_meters":4400,"station_id":"","pricing_plan_id":"cebpf4jnsgd1na2vs0mg"},{"bike_id":"f2c787eb-1b36-4e92-b487-3132386b8e37","system_id":"levelo_inurba_marseille","lat":43.24827,"lon":5.37458,"is_reserved":false,"is_disabled":false,"rental_uris":{"android":"levelo://app?vid=f2c787eb-1b36-4e92-b487-3132386b8e37","ios":"levelo://app?vid=f2c787eb-1b36-4e92-b487-3132386b8e37"},"vehicle_type_id":"4","last_reported":1768570226,"current_range_meters":4400,"station_id":"ce4bhgh2rcd13ifvqfb0","pricing_plan_id":"cebpf4jnsgd1na2vs0mg"},{"bike_id":"04445095-b038-41a3-a0ad-fec8f36b4c83","system_id":"levelo_inurba_marseille","lat":43.25816,"lon":5.39413,"is_reserved":false,"is_disabled":false,"rental_uris":{"android":"levelo://app?vid=04445095-b038-41a3-a0ad-fec8f36b4c83","ios":"levelo://app?vid=04445095-b038-41a3-a0ad-fec8f36b4c83"},"vehicle_type_id":"4","last_reported":1768570226,"current_range_meters":4400,"station_id":"ce4bhip2rcd13ifvqft0","pricing_plan_id":"cebpf4jnsgd1na2vs0mg"},{"bike_id":"7da25818-7341-4276-9ce2-fcadaa729a27","system_id":"levelo_inurba_marseille","lat":43.301548,"lon":5.381012,"is_reserved":false,"is_disabled":false,"rental_uris":{"android":"levelo://app?vid=7da25818-7341-4276-9ce2-fcadaa729a27","ios":"levelo://app?vid=7da25818-7341-4276-9ce2-fcadaa729a27"},"vehicle_type_id":"4","last_reported":1768570226,"current_range_meters":4400,"station_id":"ce4bgjp2rcd13ifvqbh0","pricing_plan_id":"cebpf4jnsgd1na2vs0mg"},{"bike_id":"cad93ae3-814f-472f-acbd-5cd447d67798","system_id":"levelo_inurba_marseille","lat":43.3013,"lon":5.38768,"is_reserved":false,"is_disabled":false,"rental_uris":{"android":"levelo://app?vid=cad93ae3-814f-472f-acbd-5cd447d67798","ios":"levelo://app?vid=cad93ae3-814f-472f-acbd-5cd447d67798"},"vehicle_type_id":"4","last_reported":1768570226,"current_range_meters":4400,"station_id":"ce4bghh2rcd13ifvqb60","pricing_plan_id":"cebpf4jnsgd1na2vs0mg"},{"bike_id":"f4bc8881-cafb-4d21-83b9-8e903d2e8cd8","system_id":"levelo_inurba_marseille","lat":43.33183,"lon":5.37678,"is_reserved":false,"is_disabled":false,"rental_uris":{"android":"levelo://app?vid=f4bc8881-cafb-4d21-83b9-8e903d2e8cd8","ios":"levelo://app?vid=f4bc8881-cafb-4d21-83b9-8e903d2e8cd8"},"vehicle_type_id":"4","last_reported":1768570226,"current_range_meters":4400,"station_id":"st_d46cu089ee8s73dldbu0","pricing_plan_id":"cebpf4jnsgd1na2vs0mg"},{"bike_id":"fd51db2d-abc2-4f34-a7b2-4ffece986ffe","system_id":"levelo_inurba_marseille","lat":43.24949,"lon":5.40481,"is_reserved":false,"is_disabled":false,"rental_uris":{"android":"levelo://app?vid=fd51db2d-abc2-4f34-a7b2-4ffece986ffe","ios":"levelo://app?vid=fd51db2d-abc2-4f34-a7b2-4ffece986ffe"},"vehicle_type_id":"4","last_reported":1768570226,"current_range_meters":4400,"station_id":"st_d2ngiaodas8pm72gd1h0","pricing_plan_id":"cebpf4jnsgd1na2vs0mg"},{"bike_id":"8f571b24-f4d8-4eb4-bfa5-0862a1b55fa1","system_id":"levelo_inurba_marseille","lat":43.30241,"lon":5.36945,"is_reserved":false,"is_disabled":false,"rental_uris":{"android":"levelo://app?vid=8f571b24-f4d8-4eb4-bfa5-0862a1b55fa1","ios":"levelo://app?vid=8f571b24-f4d8-4eb4-bfa5-0862a1b55fa1"},"vehicle_type_id":"4","last_reported":1768570226,"current_range_meters":4400,"station_id":"","pricing_plan_id":"cebpf4jnsgd1na2vs0mg"},{"bike_id":"3f4ae9b1-4ea2-4b63-a458-b703f4b5664d","system_id":"levelo_inurba_marseille","lat":43.2762,"lon":5.36107,"is_reserved":false,"is_disabled":false,"rental_uris":{"android":"levelo://app?vid=3f4ae9b1-4ea2-4b63-a458-b703f4b5664d","ios":"levelo://app?vid=3f4ae9b1-4ea2-4b63-a458-b703f4b5664d"},"vehicle_type_id":"4","last_reported":1768570226,"current_range_meters":4400,"station_id":"ce4bgj92rcd13ifvqbe0","pricing_plan_id":"cebpf4jnsgd1na2vs0mg"},{"bike_id":"a605cdaa-0a40-429d-87cd-8cfc49d1c0e0","system_id":"levelo_inurba_marseille","lat":43.30202,"lon":5.3735,"is_reserved":false,"is_disabled":false,"rental_uris":{"android":"levelo://app?vid=a605cdaa-0a40-429d-87cd-8cfc49d1c0e0","ios":"levelo://app?vid=a605cdaa-0a40-429d-87cd-8cfc49d1c0e0"},"vehicle_type_id":"4","last_reported":1768570226,"current_range_meters":4400,"station_id":"","pricing_plan_id":"cebpf4jnsgd1na2vs0mg"},{"bike_id":"aa604964-25e0-4fb8-b7cb-fa8cccd0cf05","system_id":"levelo_inurba_marseille","lat":43.30494,"lon":5.36671,"is_reserved":false,"is_disabled":false,"rental_uris":{"android":"levelo://app?vid=aa604964-25e0-4fb8-b7cb-fa8cccd0cf05","ios":"levelo://app?vid=aa604964-25e0-4fb8-b7cb-fa8cccd0cf05"},"vehicle_type_id":"4","last_reported":1768570226,"current_range_meters":4800,"station_id":"","pricing_plan_id":"cebpf4jnsgd1na2vs0mg"},{"bike_id":"7163724e-7d88-4ab5-909f-51d27f65f7d8","system_id":"levelo_inurba_marseille","lat":43.28536,"lon":5.44112,"is_reserved":false,"is_disabled":false,"rental_uris":{"android":"levelo://app?vid=7163724e-7d88-4ab5-909f-51d27f65f7d8","ios":"levelo://app?vid=7163724e-7d88-4ab5-909f-51d27f65f7d8"},"vehicle_type_id":"4","last_reported":1768570226,"current_range_meters":4800,"station_id":"st_d3j3df2ikq2c7380ej80","pricing_plan_id":"cebpf4jnsgd1na2vs0mg"},{"bike_id":"980d7ebb-418f-4873-8f03-823736355ef5","system_id":"levelo_inurba_marseille","lat":43.257078,"lon":5.41074,"is_reserved":false,"is_disabled":false,"rental_uris":{"android":"levelo://app?vid=980d7ebb-418f-4873-8f03-823736355ef5","ios":"levelo://app?vid=980d7ebb-418f-4873-8f03-823736355ef5"},"vehicle_type_id":"4","last_reported":1768570226,"current_range_meters":4800,"station_id":"ce4bhkp2rcd13ifvqgd0","pricing_plan_id":"cebpf4jnsgd1na2vs0mg"},{"bike_id":"7a86726c-97ed-4911-a6e7-fec95faf1904","system_id":"levelo_inurba_marseille","lat":43.297575,"lon":5.427713,"is_reserved":false,"is_disabled":false,"rental_uris":{"android":"levelo://app?vid=7a86726c-97ed-4911-a6e7-fec95faf1904","ios":"levelo://app?vid=7a86726c-97ed-4911-a6e7-fec95faf1904"},"vehicle_type_id":"4","last_reported":1768570226,"current_range_meters":4800,"station_id":"st_d3md5207bmas73dh9klg","pricing_plan_id":"cebpf4jnsgd1na2vs0mg"},{"bike_id":"70792894-c57b-4cfc-812c-19c0e1d72bd9","system_id":"levelo_inurba_marseille","lat":43.27475,"lon":5.42435,"is_reserved":false,"is_disabled":false,"rental_uris":{"android":"levelo://app?vid=70792894-c57b-4cfc-812c-19c0e1d72bd9","ios":"levelo://app?vid=70792894-c57b-4cfc-812c-19c0e1d72bd9"},"vehicle_type_id":"4","last_reported":1768570226,"current_range_meters":4800,"station_id":"ce4bhn92rcd13ifvqgrg","pricing_plan_id":"cebpf4jnsgd1na2vs0mg"},{"bike_id":"90218040-6582-4aa2-8913-05c76010fcbf","system_id":"levelo_inurba_marseille","lat":43.237831,"lon":5.366366,"is_reserved":false,"is_disabled":false,"rental_uris":{"android":"levelo://app?vid=90218040-6582-4aa2-8913-05c76010fcbf","ios":"levelo://app?vid=90218040-6582-4aa2-8913-05c76010fcbf"},"vehicle_type_id":"4","last_reported":1768570226,"current_range_meters":4800,"station_id":"st_d3nk18o9ro0c73en2l3g","pricing_plan_id":"cebpf4jnsgd1na2vs0mg"},{"bike_id":"b62e2e4f-8d17-40db-9aeb-d34b261b865e","system_id":"levelo_inurba_marseille","lat":43.23195,"lon":5.35555,"is_reserved":false,"is_disabled":false,"rental_uris":{"android":"levelo://app?vid=b62e2e4f-8d17-40db-9aeb-d34b261b865e","ios":"levelo://app?vid=b62e2e4f-8d17-40db-9aeb-d34b261b865e"},"vehicle_type_id":"4","last_reported":1768570226,"current_range_meters":5600,"station_id":"ce4bhu92rcd13ifvqi70","pricing_plan_id":"cebpf4jnsgd1na2vs0mg"},{"bike_id":"15027aa8-112d-47b1-b1b3-ca1ab82dd3fb","system_id":"levelo_inurba_marseille","lat":43.28339,"lon":5.3811,"is_reserved":false,"is_disabled":true,"rental_uris":{"android":"levelo://app?vid=15027aa8-112d-47b1-b1b3-ca1ab82dd3fb","ios":"levelo://app?vid=15027aa8-112d-47b1-b1b3-ca1ab82dd3fb"},"vehicle_type_id":"4","last_reported":1768570226,"current_range_meters":5600,"station_id":"ce4bh412rcd13ifvqdr0","pricing_plan_id":"cebpf4jnsgd1na2vs0mg"},{"bike_id":"d10c0024-e2ec-401f-bf30-95042a990a73","system_id":"levelo_inurba_marseille","lat":43.28157,"lon":5.42653,"is_reserved":false,"is_disabled":false,"rental_uris":{"android":"levelo://app?vid=d10c0024-e2ec-401f-bf30-95042a990a73","ios":"levelo://app?vid=d10c0024-e2ec-401f-bf30-95042a990a73"},"vehicle_type_id":"4","last_reported":1768570226,"current_range_meters":5600,"station_id":"ce4bhnh2rcd13ifvqgug","pricing_plan_id":"cebpf4jnsgd1na2vs0mg"},{"bike_id":"a6efb7b3-8c44-4a6c-92e4-ed7eb57f41e2","system_id":"levelo_inurba_marseille","lat":43.28426,"lon":5.36759,"is_reserved":false,"is_disabled":false,"rental_uris":{"android":"levelo://app?vid=a6efb7b3-8c44-4a6c-92e4-ed7eb57f41e2","ios":"levelo://app?vid=a6efb7b3-8c44-4a6c-92e4-ed7eb57f41e2"},"vehicle_type_id":"4","last_reported":1768570226,"current_range_meters":5600,"station_id":"","pricing_plan_id":"cebpf4jnsgd1na2vs0mg"},{"bike_id":"5e878a07-092f-4b63-af36-04a4701880ef","system_id":"levelo_inurba_marseille","lat":43.28542,"lon":5.441,"is_reserved":false,"is_disabled":false,"rental_uris":{"android":"levelo://app?vid=5e878a07-092f-4b63-af36-04a4701880ef","ios":"levelo://app?vid=5e878a07-092f-4b63-af36-04a4701880ef"},"vehicle_type_id":"4","last_reported":1768570226,"current_range_meters":5600,"station_id":"st_d3j3df2ikq2c7380ej80","pricing_plan_id":"cebpf4jnsgd1na2vs0mg"},{"bike_id":"ceb127dd-c990-4e84-9bd5-10a36add8b4c","system_id":"levelo_inurba_marseille","lat":43.28002,"lon":5.40027,"is_reserved":false,"is_disabled":false,"rental_uris":{"android":"levelo://app?vid=ceb127dd-c990-4e84-9bd5-10a36add8b4c","ios":"levelo://app?vid=ceb127dd-c990-4e84-9bd5-10a36add8b4c"},"vehicle_type_id":"4","last_reported":1768570226,"current_range_meters":5600,"station_id":"ce4bho92rcd13ifvqh4g","pricing_plan_id":"cebpf4jnsgd1na2vs0mg"},{"bike_id":"753ccbc1-bc1b-4429-8a43-0dcf4c26b7fc","system_id":"levelo_inurba_marseille","lat":43.33152,"lon":5.37622,"is_reserved":false,"is_disabled":false,"rental_uris":{"android":"levelo://app?vid=753ccbc1-bc1b-4429-8a43-0dcf4c26b7fc","ios":"levelo://app?vid=753ccbc1-bc1b-4429-8a43-0dcf4c26b7fc"},"vehicle_type_id":"4","last_reported":1768570226,"current_range_meters":5600,"station_id":"st_d46cu089ee8s73dldbu0","pricing_plan_id":"cebpf4jnsgd1na2vs0mg"},{"bike_id":"0aaffd21-6317-47b2-85da-6b9bfa421a46","system_id":"levelo_inurba_marseille","lat":43.29824,"lon":5.37664,"is_reserved":false,"is_disabled":false,"rental_uris":{"android":"levelo://app?vid=0aaffd21-6317-47b2-85da-6b9bfa421a46","ios":"levelo://app?vid=0aaffd21-6317-47b2-85da-6b9bfa421a46"},"vehicle_type_id":"4","last_reported":1768570226,"current_range_meters":5600,"station_id":"","pricing_plan_id":"cebpf4jnsgd1na2vs0mg"},{"bike_id":"385d72c6-95ca-4dea-aa17-f2d4bc8493ed","system_id":"levelo_inurba_marseille","lat":43.29162,"lon":5.37156,"is_reserved":false,"is_disabled":false,"rental_uris":{"android":"levelo://app?vid=385d72c6-95ca-4dea-aa17-f2d4bc8493ed","ios":"levelo://app?vid=385d72c6-95ca-4dea-aa17-f2d4bc8493ed"},"vehicle_type_id":"4","last_reported":1768570226,"current_range_meters":5600,"station_id":"ce4bha92rcd13ifvqeh0","pricing_plan_id":"cebpf4jnsgd1na2vs0mg"},{"bike_id":"ec42ced4-c175-4845-8cd8-3f5093934f08","system_id":"levelo_inurba_marseille","lat":43.303201,"lon":5.369131,"is_reserved":false,"is_disabled":false,"rental_uris":{"android":"levelo://app?vid=ec42ced4-c175-4845-8cd8-3f5093934f08","ios":"levelo://app?vid=ec42ced4-c175-4845-8cd8-3f5093934f08"},"vehicle_type_id":"4","last_reported":1768570226,"current_range_meters":5600,"station_id":"ce4bgqh2rcd13ifvqc5g","pricing_plan_id":"cebpf4jnsgd1na2vs0mg"},{"bike_id":"ca4179ba-d96b-437c-ae35-312b23a32116","system_id":"levelo_inurba_marseille","lat":43.25561,"lon":5.38244,"is_reserved":false,"is_disabled":false,"rental_uris":{"android":"levelo://app?vid=ca4179ba-d96b-437c-ae35-312b23a32116","ios":"levelo://app?vid=ca4179ba-d96b-437c-ae35-312b23a32116"},"vehicle_type_id":"4","last_reported":1768570226,"current_range_meters":5600,"station_id":"ce4bhih2rcd13ifvqfs0","pricing_plan_id":"cebpf4jnsgd1na2vs0mg"},{"bike_id":"cf001672-1b79-4be4-b38c-7c16a8075b4a","system_id":"levelo_inurba_marseille","lat":43.2624,"lon":5.37959,"is_reserved":false,"is_disabled":false,"rental_uris":{"android":"levelo://app?vid=cf001672-1b79-4be4-b38c-7c16a8075b4a","ios":"levelo://app?vid=cf001672-1b79-4be4-b38c-7c16a8075b4a"},"vehicle_type_id":"4","last_reported":1768570226,"current_range_meters":5600,"station_id":"ce4bhjp2rcd13ifvqg90","pricing_plan_id":"cebpf4jnsgd1na2vs0mg"},{"bike_id":"9faf4369-99d5-42a9-9b6c-b610c461485b","system_id":"levelo_inurba_marseille","lat":43.217524,"lon":5.346052,"is_reserved":false,"is_disabled":false,"rental_uris":{"android":"levelo://app?vid=9faf4369-99d5-42a9-9b6c-b610c461485b","ios":"levelo://app?vid=9faf4369-99d5-42a9-9b6c-b610c461485b"},"vehicle_type_id":"4","last_reported":1768570226,"current_range_meters":5600,"station_id":"st_cvj6r9ubvosntc0bgbag","pricing_plan_id":"cebpf4jnsgd1na2vs0mg"},{"bike_id":"57c02c57-a422-4dde-95a9-5646f70f026f","system_id":"levelo_inurba_marseille","lat":43.25909,"lon":5.40859,"is_reserved":false,"is_disabled":false,"rental_uris":{"android":"levelo://app?vid=57c02c57-a422-4dde-95a9-5646f70f026f","ios":"levelo://app?vid=57c02c57-a422-4dde-95a9-5646f70f026f"},"vehicle_type_id":"4","last_reported":1768570226,"current_range_meters":5600,"station_id":"ce4bhm92rcd13ifvqglg","pricing_plan_id":"cebpf4jnsgd1na2vs0mg"},{"bike_id":"3056ddad-23db-4a76-857d-1d5015029338","system_id":"levelo_inurba_marseille","lat":43.28438,"lon":5.39188,"is_reserved":false,"is_disabled":false,"rental_uris":{"android":"levelo://app?vid=3056ddad-23db-4a76-857d-1d5015029338","ios":"levelo://app?vid=3056ddad-23db-4a76-857d-1d5015029338"},"vehicle_type_id":"4","last_reported":1768570226,"current_range_meters":5600,"station_id":"ce4bhoh2rcd13ifvqh5g","pricing_plan_id":"cebpf4jnsgd1na2vs0mg"},{"bike_id":"d573dea0-84f2-4278-9343-3e80901c823b","system_id":"levelo_inurba_marseille","lat":43.315092,"lon":5.378548,"is_reserved":false,"is_disabled":false,"rental_uris":{"android":"levelo://app?vid=d573dea0-84f2-4278-9343-3e80901c823b","ios":"levelo://app?vid=d573dea0-84f2-4278-9343-3e80901c823b"},"vehicle_type_id":"4","last_reported":1768570226,"current_range_meters":5600,"station_id":"","pricing_plan_id":"cebpf4jnsgd1na2vs0mg"},{"bike_id":"84a64c9c-ed4f-4996-9c9c-4015389b1dd3","system_id":"levelo_inurba_marseille","lat":43.33756,"lon":5.37437,"is_reserved":false,"is_disabled":false,"rental_uris":{"android":"levelo://app?vid=84a64c9c-ed4f-4996-9c9c-4015389b1dd3","ios":"levelo://app?vid=84a64c9c-ed4f-4996-9c9c-4015389b1dd3"},"vehicle_type_id":"4","last_reported":1768570226,"current_range_meters":5600,"station_id":"","pricing_plan_id":"cebpf4jnsgd1na2vs0mg"},{"bike_id":"96da3c03-4bef-4e0c-a3ee-25cafc865cb3","system_id":"levelo_inurba_marseille","lat":43.29078,"lon":5.38152,"is_reserved":false,"is_disabled":false,"rental_uris":{"android":"levelo://app?vid=96da3c03-4bef-4e0c-a3ee-25cafc865cb3","ios":"levelo://app?vid=96da3c03-4bef-4e0c-a3ee-25cafc865cb3"},"vehicle_type_id":"4","last_reported":1768570226,"current_range_meters":5600,"station_id":"ce4bh512rcd13ifvqe2g","pricing_plan_id":"cebpf4jnsgd1na2vs0mg"},{"bike_id":"24b13bde-24a6-4a9e-8d0f-a64c87085dc9","system_id":"levelo_inurba_marseille","lat":43.298759,"lon":5.383123,"is_reserved":false,"is_disabled":false,"rental_uris":{"android":"levelo://app?vid=24b13bde-24a6-4a9e-8d0f-a64c87085dc9","ios":"levelo://app?vid=24b13bde-24a6-4a9e-8d0f-a64c87085dc9"},"vehicle_type_id":"4","last_reported":1768570226,"current_range_meters":5600,"station_id":"","pricing_plan_id":"cebpf4jnsgd1na2vs0mg"},{"bike_id":"e880c444-60c0-44d9-b6e6-50d0fc91f64e","system_id":"levelo_inurba_marseille","lat":43.28364,"lon":5.38112,"is_reserved":false,"is_disabled":false,"rental_uris":{"android":"levelo://app?vid=e880c444-60c0-44d9-b6e6-50d0fc91f64e","ios":"levelo://app?vid=e880c444-60c0-44d9-b6e6-50d0fc91f64e"},"vehicle_type_id":"4","last_reported":1768570226,"current_range_meters":5600,"station_id":"ce4bh412rcd13ifvqdr0","pricing_plan_id":"cebpf4jnsgd1na2vs0mg"},{"bike_id":"5379f5ed-da06-4adb-b823-51e71e531df4","system_id":"levelo_inurba_marseille","lat":43.24654,"lon":5.43147,"is_reserved":false,"is_disabled":false,"rental_uris":{"android":"levelo://app?vid=5379f5ed-da06-4adb-b823-51e71e531df4","ios":"levelo://app?vid=5379f5ed-da06-4adb-b823-51e71e531df4"},"vehicle_type_id":"4","last_reported":1768570226,"current_range_meters":5600,"station_id":"st_d2m6c4gdas8pm72e190g","pricing_plan_id":"cebpf4jnsgd1na2vs0mg"},{"bike_id":"d232944c-9760-43bc-beb3-acf611cdb292","system_id":"levelo_inurba_marseille","lat":43.29932,"lon":5.38277,"is_reserved":false,"is_disabled":false,"rental_uris":{"android":"levelo://app?vid=d232944c-9760-43bc-beb3-acf611cdb292","ios":"levelo://app?vid=d232944c-9760-43bc-beb3-acf611cdb292"},"vehicle_type_id":"4","last_reported":1768570226,"current_range_meters":6000,"station_id":"","pricing_plan_id":"cebpf4jnsgd1na2vs0mg"},{"bike_id":"9798252a-9361-46ce-9695-59458b1329bc","system_id":"levelo_inurba_marseille","lat":43.231917,"lon":5.355584,"is_reserved":false,"is_disabled":false,"rental_uris":{"android":"levelo://app?vid=9798252a-9361-46ce-9695-59458b1329bc","ios":"levelo://app?vid=9798252a-9361-46ce-9695-59458b1329bc"},"vehicle_type_id":"4","last_reported":1768570226,"current_range_meters":6000,"station_id":"ce4bhu92rcd13ifvqi70","pricing_plan_id":"cebpf4jnsgd1na2vs0mg"},{"bike_id":"34b0fa7e-3f73-4574-950b-62cef101e1f0","system_id":"levelo_inurba_marseille","lat":43.24806,"lon":5.3746,"is_reserved":false,"is_disabled":false,"rental_uris":{"android":"levelo://app?vid=34b0fa7e-3f73-4574-950b-62cef101e1f0","ios":"levelo://app?vid=34b0fa7e-3f73-4574-950b-62cef101e1f0"},"vehicle_type_id":"4","last_reported":1768570226,"current_range_meters":6000,"station_id":"ce4bhgh2rcd13ifvqfb0","pricing_plan_id":"cebpf4jnsgd1na2vs0mg"},{"bike_id":"0105de79-43a8-4de9-af65-6d3d110a6400","system_id":"levelo_inurba_marseille","lat":43.24157,"lon":5.39726,"is_reserved":false,"is_disabled":false,"rental_uris":{"android":"levelo://app?vid=0105de79-43a8-4de9-af65-6d3d110a6400","ios":"levelo://app?vid=0105de79-43a8-4de9-af65-6d3d110a6400"},"vehicle_type_id":"4","last_reported":1768570226,"current_range_meters":6000,"station_id":"ce4bhn12rcd13ifvqgpg","pricing_plan_id":"cebpf4jnsgd1na2vs0mg"},{"bike_id":"a0a43241-d522-4b07-add5-2a27372bb437","system_id":"levelo_inurba_marseille","lat":43.25815,"lon":5.39425,"is_reserved":false,"is_disabled":false,"rental_uris":{"android":"levelo://app?vid=a0a43241-d522-4b07-add5-2a27372bb437","ios":"levelo://app?vid=a0a43241-d522-4b07-add5-2a27372bb437"},"vehicle_type_id":"4","last_reported":1768570226,"current_range_meters":6000,"station_id":"ce4bhip2rcd13ifvqft0","pricing_plan_id":"cebpf4jnsgd1na2vs0mg"},{"bike_id":"011f3f90-1b10-486a-8955-76f8d5a49d25","system_id":"levelo_inurba_marseille","lat":43.279668,"lon":5.436162,"is_reserved":false,"is_disabled":false,"rental_uris":{"android":"levelo://app?vid=011f3f90-1b10-486a-8955-76f8d5a49d25","ios":"levelo://app?vid=011f3f90-1b10-486a-8955-76f8d5a49d25"},"vehicle_type_id":"4","last_reported":1768570226,"current_range_meters":6000,"station_id":"","pricing_plan_id":"cebpf4jnsgd1na2vs0mg"},{"bike_id":"ee09ff72-4bb8-4c38-8508-9fae1bef05c8","system_id":"levelo_inurba_marseille","lat":43.27045,"lon":5.40275,"is_reserved":false,"is_disabled":false,"rental_uris":{"android":"levelo://app?vid=ee09ff72-4bb8-4c38-8508-9fae1bef05c8","ios":"levelo://app?vid=ee09ff72-4bb8-4c38-8508-9fae1bef05c8"},"vehicle_type_id":"4","last_reported":1768570226,"current_range_meters":6000,"station_id":"ce4bhk92rcd13ifvqgc0","pricing_plan_id":"cebpf4jnsgd1na2vs0mg"},{"bike_id":"915691e8-15ef-4758-886d-14b63ea23bec","system_id":"levelo_inurba_marseille","lat":43.29034,"lon":5.38125,"is_reserved":false,"is_disabled":false,"rental_uris":{"android":"levelo://app?vid=915691e8-15ef-4758-886d-14b63ea23bec","ios":"levelo://app?vid=915691e8-15ef-4758-886d-14b63ea23bec"},"vehicle_type_id":"4","last_reported":1768570226,"current_range_meters":6000,"station_id":"ce4bh4p2rcd13ifvqe1g","pricing_plan_id":"cebpf4jnsgd1na2vs0mg"},{"bike_id":"8875f8cc-07a8-40ca-92de-9f4ce77fad56","system_id":"levelo_inurba_marseille","lat":43.28447,"lon":5.38655,"is_reserved":false,"is_disabled":false,"rental_uris":{"android":"levelo://app?vid=8875f8cc-07a8-40ca-92de-9f4ce77fad56","ios":"levelo://app?vid=8875f8cc-07a8-40ca-92de-9f4ce77fad56"},"vehicle_type_id":"4","last_reported":1768570226,"current_range_meters":6000,"station_id":"","pricing_plan_id":"cebpf4jnsgd1na2vs0mg"},{"bike_id":"81c2a11c-706f-4094-b269-ede2fd76d4e4","system_id":"levelo_inurba_marseille","lat":43.31683,"lon":5.40469,"is_reserved":false,"is_disabled":false,"rental_uris":{"android":"levelo://app?vid=81c2a11c-706f-4094-b269-ede2fd76d4e4","ios":"levelo://app?vid=81c2a11c-706f-4094-b269-ede2fd76d4e4"},"vehicle_type_id":"4","last_reported":1768570226,"current_range_meters":6000,"station_id":"ce4bh012rcd13ifvqd00","pricing_plan_id":"cebpf4jnsgd1na2vs0mg"},{"bike_id":"48aeaab0-6b80-4b7a-a472-f0414a5d3089","system_id":"levelo_inurba_marseille","lat":43.29779,"lon":5.37082,"is_reserved":false,"is_disabled":false,"rental_uris":{"android":"levelo://app?vid=48aeaab0-6b80-4b7a-a472-f0414a5d3089","ios":"levelo://app?vid=48aeaab0-6b80-4b7a-a472-f0414a5d3089"},"vehicle_type_id":"4","last_reported":1768570226,"current_range_meters":6000,"station_id":"ce4bgop2rcd13ifvqc1g","pricing_plan_id":"cebpf4jnsgd1na2vs0mg"},{"bike_id":"e1006462-68a0-4ccc-a6ad-e2bac9c35aea","system_id":"levelo_inurba_marseille","lat":43.253312,"lon":5.421722,"is_reserved":false,"is_disabled":false,"rental_uris":{"android":"levelo://app?vid=e1006462-68a0-4ccc-a6ad-e2bac9c35aea","ios":"levelo://app?vid=e1006462-68a0-4ccc-a6ad-e2bac9c35aea"},"vehicle_type_id":"4","last_reported":1768570226,"current_range_meters":6000,"station_id":"st_d2m65c5bi1j21697t3ng","pricing_plan_id":"cebpf4jnsgd1na2vs0mg"},{"bike_id":"0ce3cc02-2962-4286-804f-4dc1590de945","system_id":"levelo_inurba_marseille","lat":43.25506,"lon":5.38248,"is_reserved":false,"is_disabled":false,"rental_uris":{"android":"levelo://app?vid=0ce3cc02-2962-4286-804f-4dc1590de945","ios":"levelo://app?vid=0ce3cc02-2962-4286-804f-4dc1590de945"},"vehicle_type_id":"4","last_reported":1768570226,"current_range_meters":6000,"station_id":"ce4bhih2rcd13ifvqfs0","pricing_plan_id":"cebpf4jnsgd1na2vs0mg"},{"bike_id":"3b06d8ac-0c0e-4815-baae-3f6b7bfae72e","system_id":"levelo_inurba_marseille","lat":43.34151,"lon":5.36029,"is_reserved":false,"is_disabled":false,"rental_uris":{"android":"levelo://app?vid=3b06d8ac-0c0e-4815-baae-3f6b7bfae72e","ios":"levelo://app?vid=3b06d8ac-0c0e-4815-baae-3f6b7bfae72e"},"vehicle_type_id":"4","last_reported":1768570226,"current_range_meters":6000,"station_id":"","pricing_plan_id":"cebpf4jnsgd1na2vs0mg"},{"bike_id":"fb1bdb34-54ea-4e5c-92b9-fac41a4f955c","system_id":"levelo_inurba_marseille","lat":43.24461,"lon":5.4253,"is_reserved":false,"is_disabled":false,"rental_uris":{"android":"levelo://app?vid=fb1bdb34-54ea-4e5c-92b9-fac41a4f955c","ios":"levelo://app?vid=fb1bdb34-54ea-4e5c-92b9-fac41a4f955c"},"vehicle_type_id":"4","last_reported":1768570226,"current_range_meters":6000,"station_id":"st_d4a3vfp97mjs738cd8kg","pricing_plan_id":"cebpf4jnsgd1na2vs0mg"},{"bike_id":"9ee1b860-c4b1-4c5f-ac34-f4f816347276","system_id":"levelo_inurba_marseille","lat":43.31223,"lon":5.36853,"is_reserved":false,"is_disabled":false,"rental_uris":{"android":"levelo://app?vid=9ee1b860-c4b1-4c5f-ac34-f4f816347276","ios":"levelo://app?vid=9ee1b860-c4b1-4c5f-ac34-f4f816347276"},"vehicle_type_id":"4","last_reported":1768570226,"current_range_meters":6000,"station_id":"ce4bgl92rcd13ifvqbq0","pricing_plan_id":"cebpf4jnsgd1na2vs0mg"},{"bike_id":"719955f5-e91c-4f10-8960-5dd31442b666","system_id":"levelo_inurba_marseille","lat":43.28931,"lon":5.36628,"is_reserved":false,"is_disabled":false,"rental_uris":{"android":"levelo://app?vid=719955f5-e91c-4f10-8960-5dd31442b666","ios":"levelo://app?vid=719955f5-e91c-4f10-8960-5dd31442b666"},"vehicle_type_id":"4","last_reported":1768570226,"current_range_meters":6000,"station_id":"ce4bhap2rcd13ifvqek0","pricing_plan_id":"cebpf4jnsgd1na2vs0mg"},{"bike_id":"f546a598-b504-471e-9b6d-f4786269b128","system_id":"levelo_inurba_marseille","lat":43.25209,"lon":5.38053,"is_reserved":false,"is_disabled":false,"rental_uris":{"android":"levelo://app?vid=f546a598-b504-471e-9b6d-f4786269b128","ios":"levelo://app?vid=f546a598-b504-471e-9b6d-f4786269b128"},"vehicle_type_id":"4","last_reported":1768570226,"current_range_meters":6000,"station_id":"","pricing_plan_id":"cebpf4jnsgd1na2vs0mg"},{"bike_id":"7465de0c-3252-438c-a1d0-10a150ee4d72","system_id":"levelo_inurba_marseille","lat":43.22932,"lon":5.35377,"is_reserved":false,"is_disabled":false,"rental_uris":{"android":"levelo://app?vid=7465de0c-3252-438c-a1d0-10a150ee4d72","ios":"levelo://app?vid=7465de0c-3252-438c-a1d0-10a150ee4d72"},"vehicle_type_id":"4","last_reported":1768570226,"current_range_meters":6000,"station_id":"cpo3532slgdg3j2ikp40","pricing_plan_id":"cebpf4jnsgd1na2vs0mg"},{"bike_id":"5032b02a-9efc-499b-80c1-ff1804d0ec8d","system_id":"levelo_inurba_marseille","lat":43.247981,"lon":5.374572,"is_reserved":false,"is_disabled":false,"rental_uris":{"android":"levelo://app?vid=5032b02a-9efc-499b-80c1-ff1804d0ec8d","ios":"levelo://app?vid=5032b02a-9efc-499b-80c1-ff1804d0ec8d"},"vehicle_type_id":"4","last_reported":1768570226,"current_range_meters":6400,"station_id":"ce4bhgh2rcd13ifvqfb0","pricing_plan_id":"cebpf4jnsgd1na2vs0mg"},{"bike_id":"4e182e59-680a-4a6d-8b59-e9fc6416b9f8","system_id":"levelo_inurba_marseille","lat":43.24074,"lon":5.37762,"is_reserved":false,"is_disabled":false,"rental_uris":{"android":"levelo://app?vid=4e182e59-680a-4a6d-8b59-e9fc6416b9f8","ios":"levelo://app?vid=4e182e59-680a-4a6d-8b59-e9fc6416b9f8"},"vehicle_type_id":"4","last_reported":1768570226,"current_range_meters":6400,"station_id":"ce4bhnp2rcd13ifvqgvg","pricing_plan_id":"cebpf4jnsgd1na2vs0mg"},{"bike_id":"38c3b80e-0308-46b2-9a29-2654b96d87d9","system_id":"levelo_inurba_marseille","lat":43.2995,"lon":5.37333,"is_reserved":false,"is_disabled":false,"rental_uris":{"android":"levelo://app?vid=38c3b80e-0308-46b2-9a29-2654b96d87d9","ios":"levelo://app?vid=38c3b80e-0308-46b2-9a29-2654b96d87d9"},"vehicle_type_id":"4","last_reported":1768570226,"current_range_meters":6400,"station_id":"","pricing_plan_id":"cebpf4jnsgd1na2vs0mg"},{"bike_id":"dcba5e0d-8e79-44d0-8827-5e7dfb547664","system_id":"levelo_inurba_marseille","lat":43.285371,"lon":5.44104,"is_reserved":false,"is_disabled":false,"rental_uris":{"android":"levelo://app?vid=dcba5e0d-8e79-44d0-8827-5e7dfb547664","ios":"levelo://app?vid=dcba5e0d-8e79-44d0-8827-5e7dfb547664"},"vehicle_type_id":"4","last_reported":1768570226,"current_range_meters":6400,"station_id":"st_d3j3df2ikq2c7380ej80","pricing_plan_id":"cebpf4jnsgd1na2vs0mg"},{"bike_id":"9f0ca942-43cc-4c26-b45d-b02a363371a5","system_id":"levelo_inurba_marseille","lat":43.27813,"lon":5.40707,"is_reserved":false,"is_disabled":false,"rental_uris":{"android":"levelo://app?vid=9f0ca942-43cc-4c26-b45d-b02a363371a5","ios":"levelo://app?vid=9f0ca942-43cc-4c26-b45d-b02a363371a5"},"vehicle_type_id":"4","last_reported":1768570226,"current_range_meters":6400,"station_id":"ce4bhnh2rcd13ifvqgtg","pricing_plan_id":"cebpf4jnsgd1na2vs0mg"},{"bike_id":"6e8e58b6-23cf-44d5-8153-0dd869667754","system_id":"levelo_inurba_marseille","lat":43.28725,"lon":5.37941,"is_reserved":false,"is_disabled":false,"rental_uris":{"android":"levelo://app?vid=6e8e58b6-23cf-44d5-8153-0dd869667754","ios":"levelo://app?vid=6e8e58b6-23cf-44d5-8153-0dd869667754"},"vehicle_type_id":"4","last_reported":1768570226,"current_range_meters":6400,"station_id":"ce4bh9p2rcd13ifvqec0","pricing_plan_id":"cebpf4jnsgd1na2vs0mg"},{"bike_id":"fdbf5277-1007-42ec-8ab5-2ee4208b3fe0","system_id":"levelo_inurba_marseille","lat":43.24183,"lon":5.39718,"is_reserved":false,"is_disabled":false,"rental_uris":{"android":"levelo://app?vid=fdbf5277-1007-42ec-8ab5-2ee4208b3fe0","ios":"levelo://app?vid=fdbf5277-1007-42ec-8ab5-2ee4208b3fe0"},"vehicle_type_id":"4","last_reported":1768570226,"current_range_meters":6400,"station_id":"ce4bhn12rcd13ifvqgpg","pricing_plan_id":"cebpf4jnsgd1na2vs0mg"},{"bike_id":"843f91d3-3497-4c4b-8a26-d0f129a5f82d","system_id":"levelo_inurba_marseille","lat":43.24137,"lon":5.36429,"is_reserved":false,"is_disabled":false,"rental_uris":{"android":"levelo://app?vid=843f91d3-3497-4c4b-8a26-d0f129a5f82d","ios":"levelo://app?vid=843f91d3-3497-4c4b-8a26-d0f129a5f82d"},"vehicle_type_id":"4","last_reported":1768570226,"current_range_meters":6400,"station_id":"cpo36qri1sfpv3e86is0","pricing_plan_id":"cebpf4jnsgd1na2vs0mg"},{"bike_id":"9f2e3d15-7abf-4360-9f44-ebf925efc69f","system_id":"levelo_inurba_marseille","lat":43.26547,"lon":5.37322,"is_reserved":false,"is_disabled":false,"rental_uris":{"android":"levelo://app?vid=9f2e3d15-7abf-4360-9f44-ebf925efc69f","ios":"levelo://app?vid=9f2e3d15-7abf-4360-9f44-ebf925efc69f"},"vehicle_type_id":"4","last_reported":1768570226,"current_range_meters":6400,"station_id":"ce4bhg12rcd13ifvqf70","pricing_plan_id":"cebpf4jnsgd1na2vs0mg"},{"bike_id":"c2b4618a-3fd0-4afd-9ba8-42e15bb9b66e","system_id":"levelo_inurba_marseille","lat":43.2991,"lon":5.38152,"is_reserved":false,"is_disabled":false,"rental_uris":{"android":"levelo://app?vid=c2b4618a-3fd0-4afd-9ba8-42e15bb9b66e","ios":"levelo://app?vid=c2b4618a-3fd0-4afd-9ba8-42e15bb9b66e"},"vehicle_type_id":"4","last_reported":1768570226,"current_range_meters":6400,"station_id":"ce4bgj12rcd13ifvqbc0","pricing_plan_id":"cebpf4jnsgd1na2vs0mg"},{"bike_id":"8782c85b-4cd2-4d16-816f-ea9c0e380452","system_id":"levelo_inurba_marseille","lat":43.28073,"lon":5.40459,"is_reserved":false,"is_disabled":false,"rental_uris":{"android":"levelo://app?vid=8782c85b-4cd2-4d16-816f-ea9c0e380452","ios":"levelo://app?vid=8782c85b-4cd2-4d16-816f-ea9c0e380452"},"vehicle_type_id":"4","last_reported":1768570226,"current_range_meters":6400,"station_id":"","pricing_plan_id":"cebpf4jnsgd1na2vs0mg"},{"bike_id":"6abf8a46-f540-4848-8617-65edd2aabe92","system_id":"levelo_inurba_marseille","lat":43.31671,"lon":5.39719,"is_reserved":false,"is_disabled":false,"rental_uris":{"android":"levelo://app?vid=6abf8a46-f540-4848-8617-65edd2aabe92","ios":"levelo://app?vid=6abf8a46-f540-4848-8617-65edd2aabe92"},"vehicle_type_id":"4","last_reported":1768570226,"current_range_meters":6400,"station_id":"","pricing_plan_id":"cebpf4jnsgd1na2vs0mg"},{"bike_id":"77a3c954-78f1-4cdb-b146-c35757caf736","system_id":"levelo_inurba_marseille","lat":43.24188,"lon":5.39721,"is_reserved":false,"is_disabled":false,"rental_uris":{"android":"levelo://app?vid=77a3c954-78f1-4cdb-b146-c35757caf736","ios":"levelo://app?vid=77a3c954-78f1-4cdb-b146-c35757caf736"},"vehicle_type_id":"4","last_reported":1768570226,"current_range_meters":6400,"station_id":"ce4bhn12rcd13ifvqgpg","pricing_plan_id":"cebpf4jnsgd1na2vs0mg"},{"bike_id":"2a127f4a-92a1-4c20-a5f2-8feed33d8339","system_id":"levelo_inurba_marseille","lat":43.32463,"lon":5.36537,"is_reserved":false,"is_disabled":false,"rental_uris":{"android":"levelo://app?vid=2a127f4a-92a1-4c20-a5f2-8feed33d8339","ios":"levelo://app?vid=2a127f4a-92a1-4c20-a5f2-8feed33d8339"},"vehicle_type_id":"4","last_reported":1768570226,"current_range_meters":6400,"station_id":"ce4bhs12rcd13ifvqhvg","pricing_plan_id":"cebpf4jnsgd1na2vs0mg"},{"bike_id":"410955ac-137d-462c-a4c6-8f0aa8211054","system_id":"levelo_inurba_marseille","lat":43.24937,"lon":5.40436,"is_reserved":false,"is_disabled":false,"rental_uris":{"android":"levelo://app?vid=410955ac-137d-462c-a4c6-8f0aa8211054","ios":"levelo://app?vid=410955ac-137d-462c-a4c6-8f0aa8211054"},"vehicle_type_id":"4","last_reported":1768570226,"current_range_meters":6400,"station_id":"st_d2ngiaodas8pm72gd1h0","pricing_plan_id":"cebpf4jnsgd1na2vs0mg"},{"bike_id":"7a39f5db-d5dc-48fa-be5c-7e2fd9ee5098","system_id":"levelo_inurba_marseille","lat":43.29599,"lon":5.36745,"is_reserved":false,"is_disabled":false,"rental_uris":{"android":"levelo://app?vid=7a39f5db-d5dc-48fa-be5c-7e2fd9ee5098","ios":"levelo://app?vid=7a39f5db-d5dc-48fa-be5c-7e2fd9ee5098"},"vehicle_type_id":"4","last_reported":1768570226,"current_range_meters":6400,"station_id":"ce4bgph2rcd13ifvqc2g","pricing_plan_id":"cebpf4jnsgd1na2vs0mg"},{"bike_id":"19b540bd-729f-4572-8f40-321f8cccd022","system_id":"levelo_inurba_marseille","lat":43.29534,"lon":5.38545,"is_reserved":false,"is_disabled":false,"rental_uris":{"android":"levelo://app?vid=19b540bd-729f-4572-8f40-321f8cccd022","ios":"levelo://app?vid=19b540bd-729f-4572-8f40-321f8cccd022"},"vehicle_type_id":"4","last_reported":1768570226,"current_range_meters":6400,"station_id":"ce4bgih2rcd13ifvqba0","pricing_plan_id":"cebpf4jnsgd1na2vs0mg"},{"bike_id":"627e5e4e-322b-49e8-be53-e7b0ef4c2eda","system_id":"levelo_inurba_marseille","lat":43.25576,"lon":5.38244,"is_reserved":false,"is_disabled":false,"rental_uris":{"android":"levelo://app?vid=627e5e4e-322b-49e8-be53-e7b0ef4c2eda","ios":"levelo://app?vid=627e5e4e-322b-49e8-be53-e7b0ef4c2eda"},"vehicle_type_id":"4","last_reported":1768570226,"current_range_meters":6800,"station_id":"ce4bhih2rcd13ifvqfs0","pricing_plan_id":"cebpf4jnsgd1na2vs0mg"},{"bike_id":"9dd4cee1-6e9f-4b21-8c2a-6186c33cbfd1","system_id":"levelo_inurba_marseille","lat":43.32748,"lon":5.39242,"is_reserved":false,"is_disabled":false,"rental_uris":{"android":"levelo://app?vid=9dd4cee1-6e9f-4b21-8c2a-6186c33cbfd1","ios":"levelo://app?vid=9dd4cee1-6e9f-4b21-8c2a-6186c33cbfd1"},"vehicle_type_id":"4","last_reported":1768570226,"current_range_meters":6800,"station_id":"","pricing_plan_id":"cebpf4jnsgd1na2vs0mg"},{"bike_id":"ae2916dc-e873-4cff-b38e-2bd67ae52630","system_id":"levelo_inurba_marseille","lat":43.29293,"lon":5.40185,"is_reserved":false,"is_disabled":false,"rental_uris":{"android":"levelo://app?vid=ae2916dc-e873-4cff-b38e-2bd67ae52630","ios":"levelo://app?vid=ae2916dc-e873-4cff-b38e-2bd67ae52630"},"vehicle_type_id":"4","last_reported":1768570226,"current_range_meters":6800,"station_id":"","pricing_plan_id":"cebpf4jnsgd1na2vs0mg"},{"bike_id":"89d9cd06-54be-44ac-b8c9-f576dccb8768","system_id":"levelo_inurba_marseille","lat":43.24946,"lon":5.38929,"is_reserved":false,"is_disabled":false,"rental_uris":{"android":"levelo://app?vid=89d9cd06-54be-44ac-b8c9-f576dccb8768","ios":"levelo://app?vid=89d9cd06-54be-44ac-b8c9-f576dccb8768"},"vehicle_type_id":"4","last_reported":1768570226,"current_range_meters":6800,"station_id":"","pricing_plan_id":"cebpf4jnsgd1na2vs0mg"},{"bike_id":"8196675e-1758-4be8-aa6e-9a780663d26d","system_id":"levelo_inurba_marseille","lat":43.32363,"lon":5.3674,"is_reserved":false,"is_disabled":false,"rental_uris":{"android":"levelo://app?vid=8196675e-1758-4be8-aa6e-9a780663d26d","ios":"levelo://app?vid=8196675e-1758-4be8-aa6e-9a780663d26d"},"vehicle_type_id":"4","last_reported":1768570226,"current_range_meters":6800,"station_id":"ce4bhsh2rcd13ifvqi2g","pricing_plan_id":"cebpf4jnsgd1na2vs0mg"},{"bike_id":"0b91a481-4380-474a-b532-6c391d00b248","system_id":"levelo_inurba_marseille","lat":43.27965,"lon":5.38709,"is_reserved":false,"is_disabled":false,"rental_uris":{"android":"levelo://app?vid=0b91a481-4380-474a-b532-6c391d00b248","ios":"levelo://app?vid=0b91a481-4380-474a-b532-6c391d00b248"},"vehicle_type_id":"4","last_reported":1768570226,"current_range_meters":6800,"station_id":"","pricing_plan_id":"cebpf4jnsgd1na2vs0mg"},{"bike_id":"ba610a57-276c-47e6-946b-7d7160321b17","system_id":"levelo_inurba_marseille","lat":43.27506,"lon":5.38984,"is_reserved":false,"is_disabled":false,"rental_uris":{"android":"levelo://app?vid=ba610a57-276c-47e6-946b-7d7160321b17","ios":"levelo://app?vid=ba610a57-276c-47e6-946b-7d7160321b17"},"vehicle_type_id":"4","last_reported":1768570226,"current_range_meters":6800,"station_id":"","pricing_plan_id":"cebpf4jnsgd1na2vs0mg"},{"bike_id":"20696002-54d7-4af6-a1a3-4992415bf5f7","system_id":"levelo_inurba_marseille","lat":43.296323,"lon":5.376223,"is_reserved":false,"is_disabled":false,"rental_uris":{"android":"levelo://app?vid=20696002-54d7-4af6-a1a3-4992415bf5f7","ios":"levelo://app?vid=20696002-54d7-4af6-a1a3-4992415bf5f7"},"vehicle_type_id":"4","last_reported":1768570226,"current_range_meters":6800,"station_id":"","pricing_plan_id":"cebpf4jnsgd1na2vs0mg"},{"bike_id":"f8be3f31-7ad2-418e-9347-d8ac1717ae50","system_id":"levelo_inurba_marseille","lat":43.2948,"lon":5.40913,"is_reserved":false,"is_disabled":false,"rental_uris":{"android":"levelo://app?vid=f8be3f31-7ad2-418e-9347-d8ac1717ae50","ios":"levelo://app?vid=f8be3f31-7ad2-418e-9347-d8ac1717ae50"},"vehicle_type_id":"4","last_reported":1768570226,"current_range_meters":6800,"station_id":"","pricing_plan_id":"cebpf4jnsgd1na2vs0mg"},{"bike_id":"79dd6f2e-5382-490e-a442-9b5b0342bd3f","system_id":"levelo_inurba_marseille","lat":43.29816,"lon":5.38132,"is_reserved":false,"is_disabled":false,"rental_uris":{"android":"levelo://app?vid=79dd6f2e-5382-490e-a442-9b5b0342bd3f","ios":"levelo://app?vid=79dd6f2e-5382-490e-a442-9b5b0342bd3f"},"vehicle_type_id":"4","last_reported":1768570226,"current_range_meters":6800,"station_id":"ce4bgip2rcd13ifvqbb0","pricing_plan_id":"cebpf4jnsgd1na2vs0mg"},{"bike_id":"8bdc2552-fa7a-451c-b540-fa9fc7bd2552","system_id":"levelo_inurba_marseille","lat":43.2481,"lon":5.37451,"is_reserved":false,"is_disabled":false,"rental_uris":{"android":"levelo://app?vid=8bdc2552-fa7a-451c-b540-fa9fc7bd2552","ios":"levelo://app?vid=8bdc2552-fa7a-451c-b540-fa9fc7bd2552"},"vehicle_type_id":"4","last_reported":1768570226,"current_range_meters":6800,"station_id":"ce4bhgh2rcd13ifvqfb0","pricing_plan_id":"cebpf4jnsgd1na2vs0mg"},{"bike_id":"726854d4-253b-4395-b0b7-0066d3df6931","system_id":"levelo_inurba_marseille","lat":43.26545,"lon":5.40341,"is_reserved":false,"is_disabled":false,"rental_uris":{"android":"levelo://app?vid=726854d4-253b-4395-b0b7-0066d3df6931","ios":"levelo://app?vid=726854d4-253b-4395-b0b7-0066d3df6931"},"vehicle_type_id":"4","last_reported":1768570226,"current_range_meters":6800,"station_id":"ce4bhmp2rcd13ifvqgng","pricing_plan_id":"cebpf4jnsgd1na2vs0mg"},{"bike_id":"e94a4d27-b39b-4af2-9b15-10a20423b67c","system_id":"levelo_inurba_marseille","lat":43.24393,"lon":5.37068,"is_reserved":false,"is_disabled":false,"rental_uris":{"android":"levelo://app?vid=e94a4d27-b39b-4af2-9b15-10a20423b67c","ios":"levelo://app?vid=e94a4d27-b39b-4af2-9b15-10a20423b67c"},"vehicle_type_id":"4","last_reported":1768570226,"current_range_meters":6800,"station_id":"ce4bhhh2rcd13ifvqfk0","pricing_plan_id":"cebpf4jnsgd1na2vs0mg"},{"bike_id":"dbcf6ef4-a784-430e-9991-3e608cc1669e","system_id":"levelo_inurba_marseille","lat":43.22566,"lon":5.41622,"is_reserved":false,"is_disabled":false,"rental_uris":{"android":"levelo://app?vid=dbcf6ef4-a784-430e-9991-3e608cc1669e","ios":"levelo://app?vid=dbcf6ef4-a784-430e-9991-3e608cc1669e"},"vehicle_type_id":"4","last_reported":1768570226,"current_range_meters":6800,"station_id":"st_d2o4gvlbi1j2169b742g","pricing_plan_id":"cebpf4jnsgd1na2vs0mg"},{"bike_id":"88c03ea5-f9ec-4338-8402-ded3f4496e62","system_id":"levelo_inurba_marseille","lat":43.29195,"lon":5.39324,"is_reserved":false,"is_disabled":false,"rental_uris":{"android":"levelo://app?vid=88c03ea5-f9ec-4338-8402-ded3f4496e62","ios":"levelo://app?vid=88c03ea5-f9ec-4338-8402-ded3f4496e62"},"vehicle_type_id":"4","last_reported":1768570226,"current_range_meters":6800,"station_id":"ce4bh192rcd13ifvqdd0","pricing_plan_id":"cebpf4jnsgd1na2vs0mg"},{"bike_id":"beaae619-a4ac-4aa6-b171-20d72d73eed8","system_id":"levelo_inurba_marseille","lat":43.32361,"lon":5.36729,"is_reserved":false,"is_disabled":false,"rental_uris":{"android":"levelo://app?vid=beaae619-a4ac-4aa6-b171-20d72d73eed8","ios":"levelo://app?vid=beaae619-a4ac-4aa6-b171-20d72d73eed8"},"vehicle_type_id":"4","last_reported":1768570226,"current_range_meters":6800,"station_id":"ce4bhsh2rcd13ifvqi2g","pricing_plan_id":"cebpf4jnsgd1na2vs0mg"},{"bike_id":"73ad0c27-0b72-4630-95f7-1c919b5710d4","system_id":"levelo_inurba_marseille","lat":43.28914,"lon":5.38394,"is_reserved":false,"is_disabled":false,"rental_uris":{"android":"levelo://app?vid=73ad0c27-0b72-4630-95f7-1c919b5710d4","ios":"levelo://app?vid=73ad0c27-0b72-4630-95f7-1c919b5710d4"},"vehicle_type_id":"4","last_reported":1768570226,"current_range_meters":6800,"station_id":"ce4bh612rcd13ifvqe6g","pricing_plan_id":"cebpf4jnsgd1na2vs0mg"},{"bike_id":"ee672d40-ee79-42d9-af0c-79cb82e61958","system_id":"levelo_inurba_marseille","lat":43.2851,"lon":5.4413,"is_reserved":false,"is_disabled":false,"rental_uris":{"android":"levelo://app?vid=ee672d40-ee79-42d9-af0c-79cb82e61958","ios":"levelo://app?vid=ee672d40-ee79-42d9-af0c-79cb82e61958"},"vehicle_type_id":"4","last_reported":1768570226,"current_range_meters":6800,"station_id":"st_d3j3df2ikq2c7380ej80","pricing_plan_id":"cebpf4jnsgd1na2vs0mg"},{"bike_id":"5a211566-864b-4db0-9ec6-36ffa429978d","system_id":"levelo_inurba_marseille","lat":43.29681,"lon":5.37282,"is_reserved":false,"is_disabled":false,"rental_uris":{"android":"levelo://app?vid=5a211566-864b-4db0-9ec6-36ffa429978d","ios":"levelo://app?vid=5a211566-864b-4db0-9ec6-36ffa429978d"},"vehicle_type_id":"4","last_reported":1768570226,"current_range_meters":6800,"station_id":"ce4bgk12rcd13ifvqbj0","pricing_plan_id":"cebpf4jnsgd1na2vs0mg"},{"bike_id":"23ec3a98-26a5-4b81-8fe6-bd629f0771f5","system_id":"levelo_inurba_marseille","lat":43.28138,"lon":5.38937,"is_reserved":false,"is_disabled":false,"rental_uris":{"android":"levelo://app?vid=23ec3a98-26a5-4b81-8fe6-bd629f0771f5","ios":"levelo://app?vid=23ec3a98-26a5-4b81-8fe6-bd629f0771f5"},"vehicle_type_id":"4","last_reported":1768570226,"current_range_meters":6800,"station_id":"","pricing_plan_id":"cebpf4jnsgd1na2vs0mg"},{"bike_id":"6392d4ba-52a7-4ff6-bed3-714717b5ab52","system_id":"levelo_inurba_marseille","lat":43.22551,"lon":5.41645,"is_reserved":false,"is_disabled":false,"rental_uris":{"android":"levelo://app?vid=6392d4ba-52a7-4ff6-bed3-714717b5ab52","ios":"levelo://app?vid=6392d4ba-52a7-4ff6-bed3-714717b5ab52"},"vehicle_type_id":"4","last_reported":1768570226,"current_range_meters":6800,"station_id":"st_d2o4gvlbi1j2169b742g","pricing_plan_id":"cebpf4jnsgd1na2vs0mg"},{"bike_id":"6a1818f1-b7ed-43ab-9bd7-eacc15749bac","system_id":"levelo_inurba_marseille","lat":43.24661,"lon":5.38148,"is_reserved":false,"is_disabled":false,"rental_uris":{"android":"levelo://app?vid=6a1818f1-b7ed-43ab-9bd7-eacc15749bac","ios":"levelo://app?vid=6a1818f1-b7ed-43ab-9bd7-eacc15749bac"},"vehicle_type_id":"4","last_reported":1768570226,"current_range_meters":6800,"station_id":"ce4bhih2rcd13ifvqfr0","pricing_plan_id":"cebpf4jnsgd1na2vs0mg"},{"bike_id":"e879534b-f271-44b6-b326-8adb26ed384e","system_id":"levelo_inurba_marseille","lat":43.26032,"lon":5.41759,"is_reserved":false,"is_disabled":false,"rental_uris":{"android":"levelo://app?vid=e879534b-f271-44b6-b326-8adb26ed384e","ios":"levelo://app?vid=e879534b-f271-44b6-b326-8adb26ed384e"},"vehicle_type_id":"4","last_reported":1768570226,"current_range_meters":6800,"station_id":"","pricing_plan_id":"cebpf4jnsgd1na2vs0mg"},{"bike_id":"6c692c2a-4d29-4de9-a7fd-87703f6a37a2","system_id":"levelo_inurba_marseille","lat":43.24472,"lon":5.42541,"is_reserved":false,"is_disabled":false,"rental_uris":{"android":"levelo://app?vid=6c692c2a-4d29-4de9-a7fd-87703f6a37a2","ios":"levelo://app?vid=6c692c2a-4d29-4de9-a7fd-87703f6a37a2"},"vehicle_type_id":"4","last_reported":1768570226,"current_range_meters":7200,"station_id":"st_d4a3vfp97mjs738cd8kg","pricing_plan_id":"cebpf4jnsgd1na2vs0mg"},{"bike_id":"477f9ed9-15f1-4de4-a8f1-235d1677c54e","system_id":"levelo_inurba_marseille","lat":43.29531,"lon":5.38546,"is_reserved":false,"is_disabled":false,"rental_uris":{"android":"levelo://app?vid=477f9ed9-15f1-4de4-a8f1-235d1677c54e","ios":"levelo://app?vid=477f9ed9-15f1-4de4-a8f1-235d1677c54e"},"vehicle_type_id":"4","last_reported":1768570226,"current_range_meters":7200,"station_id":"ce4bgih2rcd13ifvqba0","pricing_plan_id":"cebpf4jnsgd1na2vs0mg"},{"bike_id":"7d22d8e5-d57e-4b04-a7cf-16fd5f512cbc","system_id":"levelo_inurba_marseille","lat":43.270561,"lon":5.383044,"is_reserved":false,"is_disabled":false,"rental_uris":{"android":"levelo://app?vid=7d22d8e5-d57e-4b04-a7cf-16fd5f512cbc","ios":"levelo://app?vid=7d22d8e5-d57e-4b04-a7cf-16fd5f512cbc"},"vehicle_type_id":"4","last_reported":1768570226,"current_range_meters":7200,"station_id":"st_d3n2fo6cfp8s73cte1j0","pricing_plan_id":"cebpf4jnsgd1na2vs0mg"},{"bike_id":"d486f75d-c649-4426-89e7-03eb94cae029","system_id":"levelo_inurba_marseille","lat":43.33605,"lon":5.41031,"is_reserved":false,"is_disabled":false,"rental_uris":{"android":"levelo://app?vid=d486f75d-c649-4426-89e7-03eb94cae029","ios":"levelo://app?vid=d486f75d-c649-4426-89e7-03eb94cae029"},"vehicle_type_id":"4","last_reported":1768570226,"current_range_meters":7200,"station_id":"ce4bhqh2rcd13ifvqhmg","pricing_plan_id":"cebpf4jnsgd1na2vs0mg"},{"bike_id":"7bff1363-c4fa-4ec9-8501-d87b2c3b54d0","system_id":"levelo_inurba_marseille","lat":43.24991,"lon":5.38947,"is_reserved":false,"is_disabled":false,"rental_uris":{"android":"levelo://app?vid=7bff1363-c4fa-4ec9-8501-d87b2c3b54d0","ios":"levelo://app?vid=7bff1363-c4fa-4ec9-8501-d87b2c3b54d0"},"vehicle_type_id":"4","last_reported":1768570226,"current_range_meters":7200,"station_id":"ce4bhgp2rcd13ifvqfd0","pricing_plan_id":"cebpf4jnsgd1na2vs0mg"},{"bike_id":"4bf2e34c-acc2-48d0-a792-a4b8c959e5f1","system_id":"levelo_inurba_marseille","lat":43.25828,"lon":5.39431,"is_reserved":false,"is_disabled":false,"rental_uris":{"android":"levelo://app?vid=4bf2e34c-acc2-48d0-a792-a4b8c959e5f1","ios":"levelo://app?vid=4bf2e34c-acc2-48d0-a792-a4b8c959e5f1"},"vehicle_type_id":"4","last_reported":1768570226,"current_range_meters":7200,"station_id":"ce4bhip2rcd13ifvqft0","pricing_plan_id":"cebpf4jnsgd1na2vs0mg"},{"bike_id":"8f098c6e-484f-40af-9f3e-0074b93cddd4","system_id":"levelo_inurba_marseille","lat":43.30311,"lon":5.36872,"is_reserved":false,"is_disabled":false,"rental_uris":{"android":"levelo://app?vid=8f098c6e-484f-40af-9f3e-0074b93cddd4","ios":"levelo://app?vid=8f098c6e-484f-40af-9f3e-0074b93cddd4"},"vehicle_type_id":"4","last_reported":1768570226,"current_range_meters":7200,"station_id":"ce4bgqh2rcd13ifvqc5g","pricing_plan_id":"cebpf4jnsgd1na2vs0mg"},{"bike_id":"82b87168-267f-432c-a609-70f7b40ac901","system_id":"levelo_inurba_marseille","lat":43.27726,"lon":5.40776,"is_reserved":false,"is_disabled":false,"rental_uris":{"android":"levelo://app?vid=82b87168-267f-432c-a609-70f7b40ac901","ios":"levelo://app?vid=82b87168-267f-432c-a609-70f7b40ac901"},"vehicle_type_id":"4","last_reported":1768570226,"current_range_meters":7200,"station_id":"","pricing_plan_id":"cebpf4jnsgd1na2vs0mg"},{"bike_id":"4891cf42-6fce-49e3-b26b-529641c1ce9c","system_id":"levelo_inurba_marseille","lat":43.29537,"lon":5.42296,"is_reserved":false,"is_disabled":false,"rental_uris":{"android":"levelo://app?vid=4891cf42-6fce-49e3-b26b-529641c1ce9c","ios":"levelo://app?vid=4891cf42-6fce-49e3-b26b-529641c1ce9c"},"vehicle_type_id":"4","last_reported":1768570226,"current_range_meters":7200,"station_id":"ce4bhph2rcd13ifvqhdg","pricing_plan_id":"cebpf4jnsgd1na2vs0mg"},{"bike_id":"2191e9a3-eca0-4cb2-a5d7-c68d426cc58c","system_id":"levelo_inurba_marseille","lat":43.29976,"lon":5.38487,"is_reserved":false,"is_disabled":false,"rental_uris":{"android":"levelo://app?vid=2191e9a3-eca0-4cb2-a5d7-c68d426cc58c","ios":"levelo://app?vid=2191e9a3-eca0-4cb2-a5d7-c68d426cc58c"},"vehicle_type_id":"4","last_reported":1768570226,"current_range_meters":7200,"station_id":"ce4bgj92rcd13ifvqbd0","pricing_plan_id":"cebpf4jnsgd1na2vs0mg"},{"bike_id":"8399168d-b423-4708-a267-23d3a56d7c0e","system_id":"levelo_inurba_marseille","lat":43.30442,"lon":5.367352,"is_reserved":false,"is_disabled":false,"rental_uris":{"android":"levelo://app?vid=8399168d-b423-4708-a267-23d3a56d7c0e","ios":"levelo://app?vid=8399168d-b423-4708-a267-23d3a56d7c0e"},"vehicle_type_id":"4","last_reported":1768570226,"current_range_meters":7200,"station_id":"","pricing_plan_id":"cebpf4jnsgd1na2vs0mg"},{"bike_id":"44a59bae-bfca-49eb-b4b7-393e701ba3dd","system_id":"levelo_inurba_marseille","lat":43.30545,"lon":5.3652,"is_reserved":false,"is_disabled":false,"rental_uris":{"android":"levelo://app?vid=44a59bae-bfca-49eb-b4b7-393e701ba3dd","ios":"levelo://app?vid=44a59bae-bfca-49eb-b4b7-393e701ba3dd"},"vehicle_type_id":"4","last_reported":1768570226,"current_range_meters":7200,"station_id":"ce4bgs12rcd13ifvqcag","pricing_plan_id":"cebpf4jnsgd1na2vs0mg"},{"bike_id":"87b41ccf-9e46-44ee-9e4a-b0913909d881","system_id":"levelo_inurba_marseille","lat":43.29761,"lon":5.42771,"is_reserved":false,"is_disabled":false,"rental_uris":{"android":"levelo://app?vid=87b41ccf-9e46-44ee-9e4a-b0913909d881","ios":"levelo://app?vid=87b41ccf-9e46-44ee-9e4a-b0913909d881"},"vehicle_type_id":"4","last_reported":1768570226,"current_range_meters":7200,"station_id":"st_d3md5207bmas73dh9klg","pricing_plan_id":"cebpf4jnsgd1na2vs0mg"},{"bike_id":"e7378bee-550b-4891-8770-4fa94ca0ade5","system_id":"levelo_inurba_marseille","lat":43.24674,"lon":5.38147,"is_reserved":false,"is_disabled":false,"rental_uris":{"android":"levelo://app?vid=e7378bee-550b-4891-8770-4fa94ca0ade5","ios":"levelo://app?vid=e7378bee-550b-4891-8770-4fa94ca0ade5"},"vehicle_type_id":"4","last_reported":1768570226,"current_range_meters":7200,"station_id":"ce4bhih2rcd13ifvqfr0","pricing_plan_id":"cebpf4jnsgd1na2vs0mg"},{"bike_id":"48b27516-4d23-4ab5-b60d-fbd586b9b37b","system_id":"levelo_inurba_marseille","lat":43.24079,"lon":5.37765,"is_reserved":false,"is_disabled":false,"rental_uris":{"android":"levelo://app?vid=48b27516-4d23-4ab5-b60d-fbd586b9b37b","ios":"levelo://app?vid=48b27516-4d23-4ab5-b60d-fbd586b9b37b"},"vehicle_type_id":"4","last_reported":1768570226,"current_range_meters":7200,"station_id":"ce4bhnp2rcd13ifvqgvg","pricing_plan_id":"cebpf4jnsgd1na2vs0mg"},{"bike_id":"75a01f13-be16-4370-a7fc-dbe0f442faa9","system_id":"levelo_inurba_marseille","lat":43.21751,"lon":5.34609,"is_reserved":false,"is_disabled":false,"rental_uris":{"android":"levelo://app?vid=75a01f13-be16-4370-a7fc-dbe0f442faa9","ios":"levelo://app?vid=75a01f13-be16-4370-a7fc-dbe0f442faa9"},"vehicle_type_id":"4","last_reported":1768570226,"current_range_meters":7200,"station_id":"st_cvj6r9ubvosntc0bgbag","pricing_plan_id":"cebpf4jnsgd1na2vs0mg"},{"bike_id":"e954306d-ceb4-4e07-a4bc-a7f1e7a51e88","system_id":"levelo_inurba_marseille","lat":43.3188,"lon":5.40735,"is_reserved":false,"is_disabled":false,"rental_uris":{"android":"levelo://app?vid=e954306d-ceb4-4e07-a4bc-a7f1e7a51e88","ios":"levelo://app?vid=e954306d-ceb4-4e07-a4bc-a7f1e7a51e88"},"vehicle_type_id":"4","last_reported":1768570226,"current_range_meters":7200,"station_id":"ce4bhq12rcd13ifvqhig","pricing_plan_id":"cebpf4jnsgd1na2vs0mg"},{"bike_id":"cd552d3c-b0fe-4e05-9483-1412f42d1f25","system_id":"levelo_inurba_marseille","lat":43.28466,"lon":5.48418,"is_reserved":false,"is_disabled":false,"rental_uris":{"android":"levelo://app?vid=cd552d3c-b0fe-4e05-9483-1412f42d1f25","ios":"levelo://app?vid=cd552d3c-b0fe-4e05-9483-1412f42d1f25"},"vehicle_type_id":"4","last_reported":1768570226,"current_range_meters":7200,"station_id":"st_d3svhcjqgbts73a3dn0g","pricing_plan_id":"cebpf4jnsgd1na2vs0mg"},{"bike_id":"a1ce7ca3-56c7-402e-a0a5-8c554fdda857","system_id":"levelo_inurba_marseille","lat":43.29839,"lon":5.37585,"is_reserved":false,"is_disabled":false,"rental_uris":{"android":"levelo://app?vid=a1ce7ca3-56c7-402e-a0a5-8c554fdda857","ios":"levelo://app?vid=a1ce7ca3-56c7-402e-a0a5-8c554fdda857"},"vehicle_type_id":"4","last_reported":1768570226,"current_range_meters":7200,"station_id":"","pricing_plan_id":"cebpf4jnsgd1na2vs0mg"},{"bike_id":"4c330636-b4ee-4a81-8afe-c3deb704dc18","system_id":"levelo_inurba_marseille","lat":43.23966,"lon":5.36624,"is_reserved":false,"is_disabled":false,"rental_uris":{"android":"levelo://app?vid=4c330636-b4ee-4a81-8afe-c3deb704dc18","ios":"levelo://app?vid=4c330636-b4ee-4a81-8afe-c3deb704dc18"},"vehicle_type_id":"4","last_reported":1768570226,"current_range_meters":7200,"station_id":"ce4bhi12rcd13ifvqfp0","pricing_plan_id":"cebpf4jnsgd1na2vs0mg"},{"bike_id":"3460c6ed-9f49-46d9-aef0-f6f7afa505e7","system_id":"levelo_inurba_marseille","lat":43.26781,"lon":5.39412,"is_reserved":false,"is_disabled":false,"rental_uris":{"android":"levelo://app?vid=3460c6ed-9f49-46d9-aef0-f6f7afa505e7","ios":"levelo://app?vid=3460c6ed-9f49-46d9-aef0-f6f7afa505e7"},"vehicle_type_id":"4","last_reported":1768570226,"current_range_meters":7200,"station_id":"ce4bhh12rcd13ifvqfg0","pricing_plan_id":"cebpf4jnsgd1na2vs0mg"},{"bike_id":"beeda613-7b77-479c-90f5-b635b4700e74","system_id":"levelo_inurba_marseille","lat":43.24168,"lon":5.36396,"is_reserved":false,"is_disabled":false,"rental_uris":{"android":"levelo://app?vid=beeda613-7b77-479c-90f5-b635b4700e74","ios":"levelo://app?vid=beeda613-7b77-479c-90f5-b635b4700e74"},"vehicle_type_id":"4","last_reported":1768570226,"current_range_meters":7200,"station_id":"cpo36qri1sfpv3e86is0","pricing_plan_id":"cebpf4jnsgd1na2vs0mg"},{"bike_id":"3594407b-c129-4b04-b6e0-1b1a83ac79f8","system_id":"levelo_inurba_marseille","lat":43.2973,"lon":5.36583,"is_reserved":false,"is_disabled":false,"rental_uris":{"android":"levelo://app?vid=3594407b-c129-4b04-b6e0-1b1a83ac79f8","ios":"levelo://app?vid=3594407b-c129-4b04-b6e0-1b1a83ac79f8"},"vehicle_type_id":"4","last_reported":1768570226,"current_range_meters":8000,"station_id":"ce4bgn12rcd13ifvqbt0","pricing_plan_id":"cebpf4jnsgd1na2vs0mg"},{"bike_id":"97fd8e38-7aa2-488e-96cc-ec8f894eb496","system_id":"levelo_inurba_marseille","lat":43.28538,"lon":5.44096,"is_reserved":false,"is_disabled":false,"rental_uris":{"android":"levelo://app?vid=97fd8e38-7aa2-488e-96cc-ec8f894eb496","ios":"levelo://app?vid=97fd8e38-7aa2-488e-96cc-ec8f894eb496"},"vehicle_type_id":"4","last_reported":1768570226,"current_range_meters":8000,"station_id":"st_d3j3df2ikq2c7380ej80","pricing_plan_id":"cebpf4jnsgd1na2vs0mg"},{"bike_id":"25ed961a-5384-43ae-9ae0-92012b19cc36","system_id":"levelo_inurba_marseille","lat":43.28066,"lon":5.38207,"is_reserved":false,"is_disabled":false,"rental_uris":{"android":"levelo://app?vid=25ed961a-5384-43ae-9ae0-92012b19cc36","ios":"levelo://app?vid=25ed961a-5384-43ae-9ae0-92012b19cc36"},"vehicle_type_id":"4","last_reported":1768570226,"current_range_meters":8000,"station_id":"","pricing_plan_id":"cebpf4jnsgd1na2vs0mg"},{"bike_id":"0b93f035-fc48-45c0-8823-477628239af2","system_id":"levelo_inurba_marseille","lat":43.27994,"lon":5.4001,"is_reserved":false,"is_disabled":false,"rental_uris":{"android":"levelo://app?vid=0b93f035-fc48-45c0-8823-477628239af2","ios":"levelo://app?vid=0b93f035-fc48-45c0-8823-477628239af2"},"vehicle_type_id":"4","last_reported":1768570226,"current_range_meters":8000,"station_id":"ce4bho92rcd13ifvqh4g","pricing_plan_id":"cebpf4jnsgd1na2vs0mg"},{"bike_id":"2a49273c-b35f-40af-9991-87544c417eaf","system_id":"levelo_inurba_marseille","lat":43.31685,"lon":5.36405,"is_reserved":false,"is_disabled":false,"rental_uris":{"android":"levelo://app?vid=2a49273c-b35f-40af-9991-87544c417eaf","ios":"levelo://app?vid=2a49273c-b35f-40af-9991-87544c417eaf"},"vehicle_type_id":"4","last_reported":1768570226,"current_range_meters":8000,"station_id":"","pricing_plan_id":"cebpf4jnsgd1na2vs0mg"},{"bike_id":"fc489fcf-c251-4a4f-870b-c76aecd2ad14","system_id":"levelo_inurba_marseille","lat":43.27103,"lon":5.42265,"is_reserved":false,"is_disabled":false,"rental_uris":{"android":"levelo://app?vid=fc489fcf-c251-4a4f-870b-c76aecd2ad14","ios":"levelo://app?vid=fc489fcf-c251-4a4f-870b-c76aecd2ad14"},"vehicle_type_id":"4","last_reported":1768570226,"current_range_meters":8000,"station_id":"ce4bhk92rcd13ifvqgb0","pricing_plan_id":"cebpf4jnsgd1na2vs0mg"},{"bike_id":"4a853f13-a439-4b83-82ba-e0f8b85572a1","system_id":"levelo_inurba_marseille","lat":43.28934,"lon":5.36399,"is_reserved":false,"is_disabled":false,"rental_uris":{"android":"levelo://app?vid=4a853f13-a439-4b83-82ba-e0f8b85572a1","ios":"levelo://app?vid=4a853f13-a439-4b83-82ba-e0f8b85572a1"},"vehicle_type_id":"4","last_reported":1768570226,"current_range_meters":8000,"station_id":"ce4bhc92rcd13ifvqetg","pricing_plan_id":"cebpf4jnsgd1na2vs0mg"},{"bike_id":"d0e6b737-5c1f-4528-8c27-3177b85cc7cc","system_id":"levelo_inurba_marseille","lat":43.31315,"lon":5.36712,"is_reserved":false,"is_disabled":false,"rental_uris":{"android":"levelo://app?vid=d0e6b737-5c1f-4528-8c27-3177b85cc7cc","ios":"levelo://app?vid=d0e6b737-5c1f-4528-8c27-3177b85cc7cc"},"vehicle_type_id":"4","last_reported":1768570226,"current_range_meters":8000,"station_id":"ce4bgr92rcd13ifvqc6g","pricing_plan_id":"cebpf4jnsgd1na2vs0mg"},{"bike_id":"3b5c4f84-7f90-4474-adba-916a9c8db3a2","system_id":"levelo_inurba_marseille","lat":43.320408,"lon":5.415758,"is_reserved":false,"is_disabled":false,"rental_uris":{"android":"levelo://app?vid=3b5c4f84-7f90-4474-adba-916a9c8db3a2","ios":"levelo://app?vid=3b5c4f84-7f90-4474-adba-916a9c8db3a2"},"vehicle_type_id":"4","last_reported":1768570226,"current_range_meters":8000,"station_id":"ce4bhq92rcd13ifvqhkg","pricing_plan_id":"cebpf4jnsgd1na2vs0mg"},{"bike_id":"5daf83fb-10b8-4a20-b0b3-6891407d73ff","system_id":"levelo_inurba_marseille","lat":43.26951,"lon":5.38629,"is_reserved":false,"is_disabled":false,"rental_uris":{"android":"levelo://app?vid=5daf83fb-10b8-4a20-b0b3-6891407d73ff","ios":"levelo://app?vid=5daf83fb-10b8-4a20-b0b3-6891407d73ff"},"vehicle_type_id":"4","last_reported":1768570226,"current_range_meters":8000,"station_id":"ce4bhh92rcd13ifvqfh0","pricing_plan_id":"cebpf4jnsgd1na2vs0mg"},{"bike_id":"78a9b9a2-5d06-4258-a0c0-0962138f338f","system_id":"levelo_inurba_marseille","lat":43.28473,"lon":5.484,"is_reserved":false,"is_disabled":false,"rental_uris":{"android":"levelo://app?vid=78a9b9a2-5d06-4258-a0c0-0962138f338f","ios":"levelo://app?vid=78a9b9a2-5d06-4258-a0c0-0962138f338f"},"vehicle_type_id":"4","last_reported":1768570226,"current_range_meters":8000,"station_id":"st_d3svhcjqgbts73a3dn0g","pricing_plan_id":"cebpf4jnsgd1na2vs0mg"},{"bike_id":"765676f3-435d-4421-ad59-209fb07d987b","system_id":"levelo_inurba_marseille","lat":43.28926,"lon":5.36372,"is_reserved":false,"is_disabled":false,"rental_uris":{"android":"levelo://app?vid=765676f3-435d-4421-ad59-209fb07d987b","ios":"levelo://app?vid=765676f3-435d-4421-ad59-209fb07d987b"},"vehicle_type_id":"4","last_reported":1768570226,"current_range_meters":8000,"station_id":"ce4bhc92rcd13ifvqetg","pricing_plan_id":"cebpf4jnsgd1na2vs0mg"},{"bike_id":"4b1923c2-4ab1-4eb4-9c85-bc8e4a77cb39","system_id":"levelo_inurba_marseille","lat":43.30879,"lon":5.36857,"is_reserved":false,"is_disabled":false,"rental_uris":{"android":"levelo://app?vid=4b1923c2-4ab1-4eb4-9c85-bc8e4a77cb39","ios":"levelo://app?vid=4b1923c2-4ab1-4eb4-9c85-bc8e4a77cb39"},"vehicle_type_id":"4","last_reported":1768570226,"current_range_meters":8000,"station_id":"ce4bgn92rcd13ifvqbvg","pricing_plan_id":"cebpf4jnsgd1na2vs0mg"},{"bike_id":"611737f5-0f65-4007-a4ce-c26d4cf73149","system_id":"levelo_inurba_marseille","lat":43.250171,"lon":5.389457,"is_reserved":false,"is_disabled":false,"rental_uris":{"android":"levelo://app?vid=611737f5-0f65-4007-a4ce-c26d4cf73149","ios":"levelo://app?vid=611737f5-0f65-4007-a4ce-c26d4cf73149"},"vehicle_type_id":"4","last_reported":1768570226,"current_range_meters":8000,"station_id":"ce4bhgp2rcd13ifvqfd0","pricing_plan_id":"cebpf4jnsgd1na2vs0mg"},{"bike_id":"b223653d-a046-4120-8776-e3c49ae637a8","system_id":"levelo_inurba_marseille","lat":43.21771,"lon":5.34609,"is_reserved":false,"is_disabled":false,"rental_uris":{"android":"levelo://app?vid=b223653d-a046-4120-8776-e3c49ae637a8","ios":"levelo://app?vid=b223653d-a046-4120-8776-e3c49ae637a8"},"vehicle_type_id":"4","last_reported":1768570226,"current_range_meters":8000,"station_id":"st_cvj6r9ubvosntc0bgbag","pricing_plan_id":"cebpf4jnsgd1na2vs0mg"},{"bike_id":"5edf1e67-d525-4fd4-b762-761763c4222f","system_id":"levelo_inurba_marseille","lat":43.305338,"lon":5.367028,"is_reserved":false,"is_disabled":false,"rental_uris":{"android":"levelo://app?vid=5edf1e67-d525-4fd4-b762-761763c4222f","ios":"levelo://app?vid=5edf1e67-d525-4fd4-b762-761763c4222f"},"vehicle_type_id":"4","last_reported":1768570226,"current_range_meters":8400,"station_id":"ce4bgrp2rcd13ifvqc9g","pricing_plan_id":"cebpf4jnsgd1na2vs0mg"},{"bike_id":"e6872936-d756-4b20-b25b-25e2aeef4bd8","system_id":"levelo_inurba_marseille","lat":43.23202,"lon":5.35557,"is_reserved":false,"is_disabled":false,"rental_uris":{"android":"levelo://app?vid=e6872936-d756-4b20-b25b-25e2aeef4bd8","ios":"levelo://app?vid=e6872936-d756-4b20-b25b-25e2aeef4bd8"},"vehicle_type_id":"4","last_reported":1768570226,"current_range_meters":8400,"station_id":"ce4bhu92rcd13ifvqi70","pricing_plan_id":"cebpf4jnsgd1na2vs0mg"},{"bike_id":"99e80f0e-3b89-4923-b205-83ea960bcff2","system_id":"levelo_inurba_marseille","lat":43.29731,"lon":5.37697,"is_reserved":false,"is_disabled":false,"rental_uris":{"android":"levelo://app?vid=99e80f0e-3b89-4923-b205-83ea960bcff2","ios":"levelo://app?vid=99e80f0e-3b89-4923-b205-83ea960bcff2"},"vehicle_type_id":"4","last_reported":1768570226,"current_range_meters":8400,"station_id":"ce4bgkh2rcd13ifvqbl0","pricing_plan_id":"cebpf4jnsgd1na2vs0mg"},{"bike_id":"6619af55-1d02-42e7-9cbe-ee5f52c02ae0","system_id":"levelo_inurba_marseille","lat":43.30297,"lon":5.36898,"is_reserved":false,"is_disabled":false,"rental_uris":{"android":"levelo://app?vid=6619af55-1d02-42e7-9cbe-ee5f52c02ae0","ios":"levelo://app?vid=6619af55-1d02-42e7-9cbe-ee5f52c02ae0"},"vehicle_type_id":"4","last_reported":1768570226,"current_range_meters":8400,"station_id":"ce4bgqh2rcd13ifvqc5g","pricing_plan_id":"cebpf4jnsgd1na2vs0mg"},{"bike_id":"e67306f2-91be-4bbd-b4f1-9cc45e01c0f5","system_id":"levelo_inurba_marseille","lat":43.32351,"lon":5.36759,"is_reserved":false,"is_disabled":false,"rental_uris":{"android":"levelo://app?vid=e67306f2-91be-4bbd-b4f1-9cc45e01c0f5","ios":"levelo://app?vid=e67306f2-91be-4bbd-b4f1-9cc45e01c0f5"},"vehicle_type_id":"4","last_reported":1768570226,"current_range_meters":8400,"station_id":"ce4bhsh2rcd13ifvqi2g","pricing_plan_id":"cebpf4jnsgd1na2vs0mg"},{"bike_id":"0c5b5caa-227a-4586-aecd-a0bf3a4472ea","system_id":"levelo_inurba_marseille","lat":43.25931,"lon":5.40906,"is_reserved":false,"is_disabled":false,"rental_uris":{"android":"levelo://app?vid=0c5b5caa-227a-4586-aecd-a0bf3a4472ea","ios":"levelo://app?vid=0c5b5caa-227a-4586-aecd-a0bf3a4472ea"},"vehicle_type_id":"4","last_reported":1768570226,"current_range_meters":8400,"station_id":"ce4bhm92rcd13ifvqglg","pricing_plan_id":"cebpf4jnsgd1na2vs0mg"},{"bike_id":"88f1ba3c-c641-43fb-8e57-877d909049e4","system_id":"levelo_inurba_marseille","lat":43.30934,"lon":5.4014,"is_reserved":false,"is_disabled":false,"rental_uris":{"android":"levelo://app?vid=88f1ba3c-c641-43fb-8e57-877d909049e4","ios":"levelo://app?vid=88f1ba3c-c641-43fb-8e57-877d909049e4"},"vehicle_type_id":"4","last_reported":1768570226,"current_range_meters":8400,"station_id":"ce4bgvp2rcd13ifvqct0","pricing_plan_id":"cebpf4jnsgd1na2vs0mg"},{"bike_id":"a7beea2a-f29c-4d6a-986d-8178e9386a24","system_id":"levelo_inurba_marseille","lat":43.29584,"lon":5.37453,"is_reserved":false,"is_disabled":false,"rental_uris":{"android":"levelo://app?vid=a7beea2a-f29c-4d6a-986d-8178e9386a24","ios":"levelo://app?vid=a7beea2a-f29c-4d6a-986d-8178e9386a24"},"vehicle_type_id":"4","last_reported":1768570226,"current_range_meters":8400,"station_id":"","pricing_plan_id":"cebpf4jnsgd1na2vs0mg"},{"bike_id":"fa772604-5343-4874-a9f9-6fae0b9aaa0e","system_id":"levelo_inurba_marseille","lat":43.24562,"lon":5.39943,"is_reserved":false,"is_disabled":false,"rental_uris":{"android":"levelo://app?vid=fa772604-5343-4874-a9f9-6fae0b9aaa0e","ios":"levelo://app?vid=fa772604-5343-4874-a9f9-6fae0b9aaa0e"},"vehicle_type_id":"4","last_reported":1768570226,"current_range_meters":8400,"station_id":"","pricing_plan_id":"cebpf4jnsgd1na2vs0mg"},{"bike_id":"3692d7b6-3a21-47fe-84aa-895b6937f5d8","system_id":"levelo_inurba_marseille","lat":43.26557,"lon":5.37274,"is_reserved":false,"is_disabled":false,"rental_uris":{"android":"levelo://app?vid=3692d7b6-3a21-47fe-84aa-895b6937f5d8","ios":"levelo://app?vid=3692d7b6-3a21-47fe-84aa-895b6937f5d8"},"vehicle_type_id":"4","last_reported":1768570226,"current_range_meters":8400,"station_id":"ce4bhg12rcd13ifvqf70","pricing_plan_id":"cebpf4jnsgd1na2vs0mg"},{"bike_id":"b13d35dd-ebb4-41fb-b6db-2fd0555583ba","system_id":"levelo_inurba_marseille","lat":43.27581,"lon":5.3841,"is_reserved":false,"is_disabled":false,"rental_uris":{"android":"levelo://app?vid=b13d35dd-ebb4-41fb-b6db-2fd0555583ba","ios":"levelo://app?vid=b13d35dd-ebb4-41fb-b6db-2fd0555583ba"},"vehicle_type_id":"4","last_reported":1768570226,"current_range_meters":8400,"station_id":"ce4bhh92rcd13ifvqfi0","pricing_plan_id":"cebpf4jnsgd1na2vs0mg"},{"bike_id":"979a2bab-d2ce-477f-8081-f993e79cb9a5","system_id":"levelo_inurba_marseille","lat":43.24636,"lon":5.43145,"is_reserved":false,"is_disabled":false,"rental_uris":{"android":"levelo://app?vid=979a2bab-d2ce-477f-8081-f993e79cb9a5","ios":"levelo://app?vid=979a2bab-d2ce-477f-8081-f993e79cb9a5"},"vehicle_type_id":"4","last_reported":1768570226,"current_range_meters":8400,"station_id":"st_d2m6c4gdas8pm72e190g","pricing_plan_id":"cebpf4jnsgd1na2vs0mg"},{"bike_id":"0b4166d6-aebd-4924-bca2-02a8e626f86f","system_id":"levelo_inurba_marseille","lat":43.30752,"lon":5.42423,"is_reserved":false,"is_disabled":false,"rental_uris":{"android":"levelo://app?vid=0b4166d6-aebd-4924-bca2-02a8e626f86f","ios":"levelo://app?vid=0b4166d6-aebd-4924-bca2-02a8e626f86f"},"vehicle_type_id":"4","last_reported":1768570226,"current_range_meters":8800,"station_id":"st_cvj6ca6bvosntc0bfgr0","pricing_plan_id":"cebpf4jnsgd1na2vs0mg"},{"bike_id":"50308098-7f96-4841-9f28-1e10c2b49358","system_id":"levelo_inurba_marseille","lat":43.24073,"lon":5.37753,"is_reserved":false,"is_disabled":false,"rental_uris":{"android":"levelo://app?vid=50308098-7f96-4841-9f28-1e10c2b49358","ios":"levelo://app?vid=50308098-7f96-4841-9f28-1e10c2b49358"},"vehicle_type_id":"4","last_reported":1768570226,"current_range_meters":8800,"station_id":"ce4bhnp2rcd13ifvqgvg","pricing_plan_id":"cebpf4jnsgd1na2vs0mg"},{"bike_id":"76424220-9c46-42b8-90fc-cea9524a6ca0","system_id":"levelo_inurba_marseille","lat":43.29257,"lon":5.40907,"is_reserved":false,"is_disabled":false,"rental_uris":{"android":"levelo://app?vid=76424220-9c46-42b8-90fc-cea9524a6ca0","ios":"levelo://app?vid=76424220-9c46-42b8-90fc-cea9524a6ca0"},"vehicle_type_id":"4","last_reported":1768570226,"current_range_meters":8800,"station_id":"ce4bh192rcd13ifvqdc0","pricing_plan_id":"cebpf4jnsgd1na2vs0mg"},{"bike_id":"205e067b-4784-4a9d-8eb5-b6861b4cfcd1","system_id":"levelo_inurba_marseille","lat":43.28529,"lon":5.44105,"is_reserved":false,"is_disabled":false,"rental_uris":{"android":"levelo://app?vid=205e067b-4784-4a9d-8eb5-b6861b4cfcd1","ios":"levelo://app?vid=205e067b-4784-4a9d-8eb5-b6861b4cfcd1"},"vehicle_type_id":"4","last_reported":1768570226,"current_range_meters":8800,"station_id":"st_d3j3df2ikq2c7380ej80","pricing_plan_id":"cebpf4jnsgd1na2vs0mg"},{"bike_id":"6b614937-a502-44f5-934f-81d015634ef2","system_id":"levelo_inurba_marseille","lat":43.320618,"lon":5.367701,"is_reserved":false,"is_disabled":false,"rental_uris":{"android":"levelo://app?vid=6b614937-a502-44f5-934f-81d015634ef2","ios":"levelo://app?vid=6b614937-a502-44f5-934f-81d015634ef2"},"vehicle_type_id":"4","last_reported":1768570226,"current_range_meters":8800,"station_id":"ce4bhrh2rcd13ifvqhug","pricing_plan_id":"cebpf4jnsgd1na2vs0mg"},{"bike_id":"8d06b1dd-b39f-481f-9fd0-15b08a4bd888","system_id":"levelo_inurba_marseille","lat":43.25341,"lon":5.42176,"is_reserved":false,"is_disabled":false,"rental_uris":{"android":"levelo://app?vid=8d06b1dd-b39f-481f-9fd0-15b08a4bd888","ios":"levelo://app?vid=8d06b1dd-b39f-481f-9fd0-15b08a4bd888"},"vehicle_type_id":"4","last_reported":1768570226,"current_range_meters":8800,"station_id":"","pricing_plan_id":"cebpf4jnsgd1na2vs0mg"},{"bike_id":"744e766d-6cf3-40d3-9efc-3dc33d883636","system_id":"levelo_inurba_marseille","lat":43.25574,"lon":5.38246,"is_reserved":false,"is_disabled":false,"rental_uris":{"android":"levelo://app?vid=744e766d-6cf3-40d3-9efc-3dc33d883636","ios":"levelo://app?vid=744e766d-6cf3-40d3-9efc-3dc33d883636"},"vehicle_type_id":"4","last_reported":1768570226,"current_range_meters":8800,"station_id":"ce4bhih2rcd13ifvqfs0","pricing_plan_id":"cebpf4jnsgd1na2vs0mg"},{"bike_id":"0c8e6400-5132-4fc8-bc0c-deb5c809d02f","system_id":"levelo_inurba_marseille","lat":43.22559,"lon":5.41638,"is_reserved":false,"is_disabled":false,"rental_uris":{"android":"levelo://app?vid=0c8e6400-5132-4fc8-bc0c-deb5c809d02f","ios":"levelo://app?vid=0c8e6400-5132-4fc8-bc0c-deb5c809d02f"},"vehicle_type_id":"4","last_reported":1768570226,"current_range_meters":8800,"station_id":"st_d2o4gvlbi1j2169b742g","pricing_plan_id":"cebpf4jnsgd1na2vs0mg"},{"bike_id":"883e634f-3a04-4514-aae5-6e096d30b06f","system_id":"levelo_inurba_marseille","lat":43.27803,"lon":5.40701,"is_reserved":false,"is_disabled":false,"rental_uris":{"android":"levelo://app?vid=883e634f-3a04-4514-aae5-6e096d30b06f","ios":"levelo://app?vid=883e634f-3a04-4514-aae5-6e096d30b06f"},"vehicle_type_id":"4","last_reported":1768570226,"current_range_meters":8800,"station_id":"ce4bhnh2rcd13ifvqgtg","pricing_plan_id":"cebpf4jnsgd1na2vs0mg"},{"bike_id":"eee64d10-a5fc-4ab5-a45c-4f4a7ca5f4d0","system_id":"levelo_inurba_marseille","lat":43.27971,"lon":5.41657,"is_reserved":false,"is_disabled":false,"rental_uris":{"android":"levelo://app?vid=eee64d10-a5fc-4ab5-a45c-4f4a7ca5f4d0","ios":"levelo://app?vid=eee64d10-a5fc-4ab5-a45c-4f4a7ca5f4d0"},"vehicle_type_id":"4","last_reported":1768570226,"current_range_meters":8800,"station_id":"ce4bho12rcd13ifvqh1g","pricing_plan_id":"cebpf4jnsgd1na2vs0mg"},{"bike_id":"7256baa1-b22a-42a4-b191-32184fea855d","system_id":"levelo_inurba_marseille","lat":43.26071,"lon":5.393953,"is_reserved":false,"is_disabled":false,"rental_uris":{"android":"levelo://app?vid=7256baa1-b22a-42a4-b191-32184fea855d","ios":"levelo://app?vid=7256baa1-b22a-42a4-b191-32184fea855d"},"vehicle_type_id":"4","last_reported":1768570226,"current_range_meters":8800,"station_id":"ce4bhh92rcd13ifvqfj0","pricing_plan_id":"cebpf4jnsgd1na2vs0mg"},{"bike_id":"53224e6a-09c6-492d-bcd1-1c7fdb24a472","system_id":"levelo_inurba_marseille","lat":43.27208,"lon":5.39183,"is_reserved":false,"is_disabled":false,"rental_uris":{"android":"levelo://app?vid=53224e6a-09c6-492d-bcd1-1c7fdb24a472","ios":"levelo://app?vid=53224e6a-09c6-492d-bcd1-1c7fdb24a472"},"vehicle_type_id":"4","last_reported":1768570226,"current_range_meters":8800,"station_id":"ce4bhhp2rcd13ifvqfm0","pricing_plan_id":"cebpf4jnsgd1na2vs0mg"},{"bike_id":"493806f3-80ff-49cc-9cad-c52c9b625e86","system_id":"levelo_inurba_marseille","lat":43.24069,"lon":5.37767,"is_reserved":false,"is_disabled":false,"rental_uris":{"android":"levelo://app?vid=493806f3-80ff-49cc-9cad-c52c9b625e86","ios":"levelo://app?vid=493806f3-80ff-49cc-9cad-c52c9b625e86"},"vehicle_type_id":"4","last_reported":1768570226,"current_range_meters":8800,"station_id":"ce4bhnp2rcd13ifvqgvg","pricing_plan_id":"cebpf4jnsgd1na2vs0mg"},{"bike_id":"091eaf3a-5c3c-4907-947d-c7d82aea8059","system_id":"levelo_inurba_marseille","lat":43.33142,"lon":5.3771,"is_reserved":false,"is_disabled":false,"rental_uris":{"android":"levelo://app?vid=091eaf3a-5c3c-4907-947d-c7d82aea8059","ios":"levelo://app?vid=091eaf3a-5c3c-4907-947d-c7d82aea8059"},"vehicle_type_id":"4","last_reported":1768570226,"current_range_meters":8800,"station_id":"st_d46cu089ee8s73dldbu0","pricing_plan_id":"cebpf4jnsgd1na2vs0mg"},{"bike_id":"ff02082a-b532-42ed-8c57-0f831c53d6c9","system_id":"levelo_inurba_marseille","lat":43.24806,"lon":5.37456,"is_reserved":false,"is_disabled":false,"rental_uris":{"android":"levelo://app?vid=ff02082a-b532-42ed-8c57-0f831c53d6c9","ios":"levelo://app?vid=ff02082a-b532-42ed-8c57-0f831c53d6c9"},"vehicle_type_id":"4","last_reported":1768570226,"current_range_meters":9200,"station_id":"ce4bhgh2rcd13ifvqfb0","pricing_plan_id":"cebpf4jnsgd1na2vs0mg"},{"bike_id":"3d2b4238-e616-4a6b-8278-4d58a574e379","system_id":"levelo_inurba_marseille","lat":43.30938,"lon":5.36895,"is_reserved":false,"is_disabled":false,"rental_uris":{"android":"levelo://app?vid=3d2b4238-e616-4a6b-8278-4d58a574e379","ios":"levelo://app?vid=3d2b4238-e616-4a6b-8278-4d58a574e379"},"vehicle_type_id":"4","last_reported":1768570226,"current_range_meters":9200,"station_id":"","pricing_plan_id":"cebpf4jnsgd1na2vs0mg"},{"bike_id":"f4d6da92-2f00-47d7-8e6e-72a61e961c0b","system_id":"levelo_inurba_marseille","lat":43.29611,"lon":5.37738,"is_reserved":false,"is_disabled":false,"rental_uris":{"android":"levelo://app?vid=f4d6da92-2f00-47d7-8e6e-72a61e961c0b","ios":"levelo://app?vid=f4d6da92-2f00-47d7-8e6e-72a61e961c0b"},"vehicle_type_id":"4","last_reported":1768570226,"current_range_meters":9200,"station_id":"","pricing_plan_id":"cebpf4jnsgd1na2vs0mg"},{"bike_id":"adc78bb6-0e86-4767-a6e9-15cc346c6977","system_id":"levelo_inurba_marseille","lat":43.26942,"lon":5.38909,"is_reserved":false,"is_disabled":false,"rental_uris":{"android":"levelo://app?vid=adc78bb6-0e86-4767-a6e9-15cc346c6977","ios":"levelo://app?vid=adc78bb6-0e86-4767-a6e9-15cc346c6977"},"vehicle_type_id":"4","last_reported":1768570226,"current_range_meters":9200,"station_id":"ce4bhhh2rcd13ifvqfl0","pricing_plan_id":"cebpf4jnsgd1na2vs0mg"},{"bike_id":"28f7fd47-67c0-4345-bc0e-d967d1ec4b01","system_id":"levelo_inurba_marseille","lat":43.25087,"lon":5.39525,"is_reserved":false,"is_disabled":false,"rental_uris":{"android":"levelo://app?vid=28f7fd47-67c0-4345-bc0e-d967d1ec4b01","ios":"levelo://app?vid=28f7fd47-67c0-4345-bc0e-d967d1ec4b01"},"vehicle_type_id":"4","last_reported":1768570226,"current_range_meters":9200,"station_id":"ce4bhm12rcd13ifvqgkg","pricing_plan_id":"cebpf4jnsgd1na2vs0mg"},{"bike_id":"0bc61347-9b23-444b-8417-57af3b905e16","system_id":"levelo_inurba_marseille","lat":43.26947,"lon":5.38636,"is_reserved":false,"is_disabled":false,"rental_uris":{"android":"levelo://app?vid=0bc61347-9b23-444b-8417-57af3b905e16","ios":"levelo://app?vid=0bc61347-9b23-444b-8417-57af3b905e16"},"vehicle_type_id":"4","last_reported":1768570226,"current_range_meters":9200,"station_id":"ce4bhh92rcd13ifvqfh0","pricing_plan_id":"cebpf4jnsgd1na2vs0mg"},{"bike_id":"f9b52cb1-0613-4cd6-9d3d-81a06babe3c6","system_id":"levelo_inurba_marseille","lat":43.33135,"lon":5.37786,"is_reserved":false,"is_disabled":false,"rental_uris":{"android":"levelo://app?vid=f9b52cb1-0613-4cd6-9d3d-81a06babe3c6","ios":"levelo://app?vid=f9b52cb1-0613-4cd6-9d3d-81a06babe3c6"},"vehicle_type_id":"4","last_reported":1768570226,"current_range_meters":9200,"station_id":"st_d46cu089ee8s73dldbu0","pricing_plan_id":"cebpf4jnsgd1na2vs0mg"},{"bike_id":"0d6897ee-18f3-48e3-8995-dbd357dcf6f6","system_id":"levelo_inurba_marseille","lat":43.278131,"lon":5.407151,"is_reserved":false,"is_disabled":false,"rental_uris":{"android":"levelo://app?vid=0d6897ee-18f3-48e3-8995-dbd357dcf6f6","ios":"levelo://app?vid=0d6897ee-18f3-48e3-8995-dbd357dcf6f6"},"vehicle_type_id":"4","last_reported":1768570226,"current_range_meters":9200,"station_id":"ce4bhnh2rcd13ifvqgtg","pricing_plan_id":"cebpf4jnsgd1na2vs0mg"},{"bike_id":"3b3b81ef-94e2-42e9-99e5-1204cf977676","system_id":"levelo_inurba_marseille","lat":43.24458,"lon":5.42517,"is_reserved":false,"is_disabled":false,"rental_uris":{"android":"levelo://app?vid=3b3b81ef-94e2-42e9-99e5-1204cf977676","ios":"levelo://app?vid=3b3b81ef-94e2-42e9-99e5-1204cf977676"},"vehicle_type_id":"4","last_reported":1768570226,"current_range_meters":9200,"station_id":"st_d4a3vfp97mjs738cd8kg","pricing_plan_id":"cebpf4jnsgd1na2vs0mg"},{"bike_id":"ac863133-1003-4992-8ead-e17fcb8c6569","system_id":"levelo_inurba_marseille","lat":43.30319,"lon":5.36907,"is_reserved":false,"is_disabled":false,"rental_uris":{"android":"levelo://app?vid=ac863133-1003-4992-8ead-e17fcb8c6569","ios":"levelo://app?vid=ac863133-1003-4992-8ead-e17fcb8c6569"},"vehicle_type_id":"4","last_reported":1768570226,"current_range_meters":9200,"station_id":"ce4bgqh2rcd13ifvqc5g","pricing_plan_id":"cebpf4jnsgd1na2vs0mg"},{"bike_id":"71e66342-44a2-46c9-aa23-3e42eef1ed52","system_id":"levelo_inurba_marseille","lat":43.29609,"lon":5.37727,"is_reserved":false,"is_disabled":false,"rental_uris":{"android":"levelo://app?vid=71e66342-44a2-46c9-aa23-3e42eef1ed52","ios":"levelo://app?vid=71e66342-44a2-46c9-aa23-3e42eef1ed52"},"vehicle_type_id":"4","last_reported":1768570226,"current_range_meters":9200,"station_id":"ce4bgi92rcd13ifvqb90","pricing_plan_id":"cebpf4jnsgd1na2vs0mg"},{"bike_id":"421cacd8-e947-4afd-a144-abf07645a343","system_id":"levelo_inurba_marseille","lat":43.337444,"lon":5.374475,"is_reserved":false,"is_disabled":false,"rental_uris":{"android":"levelo://app?vid=421cacd8-e947-4afd-a144-abf07645a343","ios":"levelo://app?vid=421cacd8-e947-4afd-a144-abf07645a343"},