{"last_updated":1745953677,"ttl":60,"version":"2.2","data":{"bikes":[{"bike_id":"eacf72d9-dfba-4a20-8c51-7789449e4d82","system_id":"levelo_inurba_marseille","lat":43.29203,"lon":5.39317,"is_reserved":false,"is_disabled":true,"rental_uris":{"android":"levelo://app?vid=eacf72d9-dfba-4a20-8c51-7789449e4d82","ios":"levelo://app?vid=eacf72d9-dfba-4a20-8c51-7789449e4d82"},"vehicle_type_id":"4","last_reported":1745953677,"current_range_meters":2800,"station_id":"ce4bh192rcd13ifvqdd0","pricing_plan_id":"cebpf4jnsgd1na2vs0mg"},{"bike_id":"cb084e0a-5a45-4fb7-aa02-c6b407b6f096","system_id":"levelo_inurba_marseille","lat":43.29697,"lon":5.37682,"is_reserved":false,"is_disabled":false,"rental_uris":{"android":"levelo://app?vid=cb084e0a-5a45-4fb7-aa02-c6b407b6f096","ios":"levelo://app?vid=cb084e0a-5a45-4fb7-aa02-c6b407b6f096"},"vehicle_type_id":"4","last_reported":1745953677,"current_range_meters":2800,"station_id":"ce4bgkh2rcd13ifvqbl0","pricing_plan_id":"cebpf4jnsgd1na2vs0mg"},{"bike_id":"163d6255-b2bc-4bd8-81cb-ffed7b826436","system_id":"levelo_inurba_marseille","lat":43.31268,"lon":5.40168,"is_reserved":false,"is_disabled":false,"rental_uris":{"android":"levelo://app?vid=163d6255-b2bc-4bd8-81cb-ffed7b826436","ios":"levelo://app?vid=163d6255-b2bc-4bd8-81cb-ffed7b826436"},"vehicle_type_id":"4","last_reported":1745953677,"current_range_meters":2800,"station_id":"ce4bh092rcd13ifvqd30","pricing_plan_id":"cebpf4jnsgd1na2vs0mg"},{"bike_id":"09f0cc69-1360-459c-890b-690a6a43f310","system_id":"levelo_inurba_marseille","lat":43.28443,"lon":5.39214,"is_reserved":false,"is_disabled":false,"rental_uris":{"android":"levelo://app?vid=09f0cc69-1360-459c-890b-690a6a43f310","ios":"levelo://app?vid=09f0cc69-1360-459c-890b-690a6a43f310"},"vehicle_type_id":"4","last_reported":1745953677,"current_range_meters":2800,"station_id":"ce4bhoh2rcd13ifvqh5g","pricing_plan_id":"cebpf4jnsgd1na2vs0mg"},{"bike_id":"42c44af1-9056-4567-b601-03ebf5171a00","system_id":"levelo_inurba_marseille","lat":43.29608,"lon":5.3771,"is_reserved":false,"is_disabled":false,"rental_uris":{"android":"levelo://app?vid=42c44af1-9056-4567-b601-03ebf5171a00","ios":"levelo://app?vid=42c44af1-9056-4567-b601-03ebf5171a00"},"vehicle_type_id":"4","last_reported":1745953677,"current_range_meters":2800,"station_id":"ce4bgi92rcd13ifvqb90","pricing_plan_id":"cebpf4jnsgd1na2vs0mg"},{"bike_id":"e288c1b9-de3d-40c0-ac27-e03c9556d880","system_id":"levelo_inurba_marseille","lat":43.29271,"lon":5.40912,"is_reserved":false,"is_disabled":true,"rental_uris":{"android":"levelo://app?vid=e288c1b9-de3d-40c0-ac27-e03c9556d880","ios":"levelo://app?vid=e288c1b9-de3d-40c0-ac27-e03c9556d880"},"vehicle_type_id":"4","last_reported":1745953677,"current_range_meters":3200,"station_id":"ce4bh192rcd13ifvqdc0","pricing_plan_id":"cebpf4jnsgd1na2vs0mg"},{"bike_id":"3975392c-4b3c-491d-8f40-00f73bb2a8a5","system_id":"levelo_inurba_marseille","lat":43.29737,"lon":5.37671,"is_reserved":false,"is_disabled":true,"rental_uris":{"android":"levelo://app?vid=3975392c-4b3c-491d-8f40-00f73bb2a8a5","ios":"levelo://app?vid=3975392c-4b3c-491d-8f40-00f73bb2a8a5"},"vehicle_type_id":"4","last_reported":1745953677,"current_range_meters":3600,"station_id":"ce4bgkh2rcd13ifvqbl0","pricing_plan_id":"cebpf4jnsgd1na2vs0mg"},{"bike_id":"3ec8002a-8f32-471f-8a95-6e168b4cc697","system_id":"levelo_inurba_marseille","lat":43.29886,"lon":5.38896,"is_reserved":false,"is_disabled":false,"rental_uris":{"android":"levelo://app?vid=3ec8002a-8f32-471f-8a95-6e168b4cc697","ios":"levelo://app?vid=3ec8002a-8f32-471f-8a95-6e168b4cc697"},"vehicle_type_id":"4","last_reported":1745953677,"current_range_meters":3600,"station_id":"ce4bh392rcd13ifvqdl0","pricing_plan_id":"cebpf4jnsgd1na2vs0mg"},{"bike_id":"b1040775-cdbd-4461-a120-155006f740eb","system_id":"levelo_inurba_marseille","lat":43.2119,"lon":5.3507,"is_reserved":false,"is_disabled":false,"rental_uris":{"android":"levelo://app?vid=b1040775-cdbd-4461-a120-155006f740eb","ios":"levelo://app?vid=b1040775-cdbd-4461-a120-155006f740eb"},"vehicle_type_id":"4","last_reported":1745953677,"current_range_meters":3600,"station_id":"st_cvj6sg6p6f1abm77japg","pricing_plan_id":"cebpf4jnsgd1na2vs0mg"},{"bike_id":"a7d18e16-49bf-4595-8de6-b23f1fc76922","system_id":"levelo_inurba_marseille","lat":43.275673,"lon":5.384284,"is_reserved":false,"is_disabled":true,"rental_uris":{"android":"levelo://app?vid=a7d18e16-49bf-4595-8de6-b23f1fc76922","ios":"levelo://app?vid=a7d18e16-49bf-4595-8de6-b23f1fc76922"},"vehicle_type_id":"4","last_reported":1745953677,"current_range_meters":3600,"station_id":"ce4bhh92rcd13ifvqfi0","pricing_plan_id":"cebpf4jnsgd1na2vs0mg"},{"bike_id":"26deac1f-c435-40bc-9469-9ae0b266bb77","system_id":"levelo_inurba_marseille","lat":43.3022,"lon":5.38435,"is_reserved":false,"is_disabled":false,"rental_uris":{"android":"levelo://app?vid=26deac1f-c435-40bc-9469-9ae0b266bb77","ios":"levelo://app?vid=26deac1f-c435-40bc-9469-9ae0b266bb77"},"vehicle_type_id":"4","last_reported":1745953677,"current_range_meters":3600,"station_id":"","pricing_plan_id":"cebpf4jnsgd1na2vs0mg"},{"bike_id":"6d3b3883-816b-4afe-b2a9-13be7838183a","system_id":"levelo_inurba_marseille","lat":43.30326,"lon":5.40437,"is_reserved":false,"is_disabled":false,"rental_uris":{"android":"levelo://app?vid=6d3b3883-816b-4afe-b2a9-13be7838183a","ios":"levelo://app?vid=6d3b3883-816b-4afe-b2a9-13be7838183a"},"vehicle_type_id":"4","last_reported":1745953677,"current_range_meters":3600,"station_id":"ce4bh012rcd13ifvqd10","pricing_plan_id":"cebpf4jnsgd1na2vs0mg"},{"bike_id":"f1bedfb3-f0a3-4f46-bb30-3437413fbf4f","system_id":"levelo_inurba_marseille","lat":43.31524,"lon":5.38038,"is_reserved":false,"is_disabled":false,"rental_uris":{"android":"levelo://app?vid=f1bedfb3-f0a3-4f46-bb30-3437413fbf4f","ios":"levelo://app?vid=f1bedfb3-f0a3-4f46-bb30-3437413fbf4f"},"vehicle_type_id":"4","last_reported":1745953677,"current_range_meters":4000,"station_id":"","pricing_plan_id":"cebpf4jnsgd1na2vs0mg"},{"bike_id":"2f30abe4-121e-4b65-a631-ce3d0d117f05","system_id":"levelo_inurba_marseille","lat":43.295258,"lon":5.385424,"is_reserved":false,"is_disabled":false,"rental_uris":{"android":"levelo://app?vid=2f30abe4-121e-4b65-a631-ce3d0d117f05","ios":"levelo://app?vid=2f30abe4-121e-4b65-a631-ce3d0d117f05"},"vehicle_type_id":"4","last_reported":1745953677,"current_range_meters":4000,"station_id":"ce4bgih2rcd13ifvqba0","pricing_plan_id":"cebpf4jnsgd1na2vs0mg"},{"bike_id":"8292b46e-ee39-4a48-8b3e-60670fa092fd","system_id":"levelo_inurba_marseille","lat":43.33024,"lon":5.39044,"is_reserved":false,"is_disabled":false,"rental_uris":{"android":"levelo://app?vid=8292b46e-ee39-4a48-8b3e-60670fa092fd","ios":"levelo://app?vid=8292b46e-ee39-4a48-8b3e-60670fa092fd"},"vehicle_type_id":"4","last_reported":1745953677,"current_range_meters":4000,"station_id":"ce4bhr92rcd13ifvqhrg","pricing_plan_id":"cebpf4jnsgd1na2vs0mg"},{"bike_id":"412d630c-25c9-4fe6-8c48-fda2c85ad64a","system_id":"levelo_inurba_marseille","lat":43.29618,"lon":5.37693,"is_reserved":false,"is_disabled":true,"rental_uris":{"android":"levelo://app?vid=412d630c-25c9-4fe6-8c48-fda2c85ad64a","ios":"levelo://app?vid=412d630c-25c9-4fe6-8c48-fda2c85ad64a"},"vehicle_type_id":"4","last_reported":1745953677,"current_range_meters":4400,"station_id":"ce4bgi92rcd13ifvqb90","pricing_plan_id":"cebpf4jnsgd1na2vs0mg"},{"bike_id":"d2e0acb7-3756-4aa5-830e-2a8cb914029b","system_id":"levelo_inurba_marseille","lat":43.293389,"lon":5.376164,"is_reserved":false,"is_disabled":false,"rental_uris":{"android":"levelo://app?vid=d2e0acb7-3756-4aa5-830e-2a8cb914029b","ios":"levelo://app?vid=d2e0acb7-3756-4aa5-830e-2a8cb914029b"},"vehicle_type_id":"4","last_reported":1745953677,"current_range_meters":4400,"station_id":"ce4bgi12rcd13ifvqb80","pricing_plan_id":"cebpf4jnsgd1na2vs0mg"},{"bike_id":"cf380c1e-39c1-42f7-a34f-573b7b5f66ed","system_id":"levelo_inurba_marseille","lat":43.317173,"lon":5.423946,"is_reserved":false,"is_disabled":false,"rental_uris":{"android":"levelo://app?vid=cf380c1e-39c1-42f7-a34f-573b7b5f66ed","ios":"levelo://app?vid=cf380c1e-39c1-42f7-a34f-573b7b5f66ed"},"vehicle_type_id":"4","last_reported":1745953677,"current_range_meters":4400,"station_id":"ce4bhp92rcd13ifvqhbg","pricing_plan_id":"cebpf4jnsgd1na2vs0mg"},{"bike_id":"a927ad15-b129-4085-9072-8cc54f2c8cf2","system_id":"levelo_inurba_marseille","lat":43.321055,"lon":5.367817,"is_reserved":false,"is_disabled":false,"rental_uris":{"android":"levelo://app?vid=a927ad15-b129-4085-9072-8cc54f2c8cf2","ios":"levelo://app?vid=a927ad15-b129-4085-9072-8cc54f2c8cf2"},"vehicle_type_id":"4","last_reported":1745953677,"current_range_meters":4400,"station_id":"","pricing_plan_id":"cebpf4jnsgd1na2vs0mg"},{"bike_id":"af4f0c69-e62d-4155-b1d1-a67b45271ae1","system_id":"levelo_inurba_marseille","lat":43.24735,"lon":5.4118,"is_reserved":false,"is_disabled":false,"rental_uris":{"android":"levelo://app?vid=af4f0c69-e62d-4155-b1d1-a67b45271ae1","ios":"levelo://app?vid=af4f0c69-e62d-4155-b1d1-a67b45271ae1"},"vehicle_type_id":"4","last_reported":1745953677,"current_range_meters":4800,"station_id":"","pricing_plan_id":"cebpf4jnsgd1na2vs0mg"},{"bike_id":"677c3d11-108f-4b8b-8733-8eca7bc89702","system_id":"levelo_inurba_marseille","lat":43.33723,"lon":5.39171,"is_reserved":false,"is_disabled":false,"rental_uris":{"android":"levelo://app?vid=677c3d11-108f-4b8b-8733-8eca7bc89702","ios":"levelo://app?vid=677c3d11-108f-4b8b-8733-8eca7bc89702"},"vehicle_type_id":"4","last_reported":1745953677,"current_range_meters":4800,"station_id":"ce4bhr92rcd13ifvqhsg","pricing_plan_id":"cebpf4jnsgd1na2vs0mg"},{"bike_id":"110d42e0-e455-49c3-ba2f-a13b1f51573a","system_id":"levelo_inurba_marseille","lat":43.29648,"lon":5.41171,"is_reserved":false,"is_disabled":false,"rental_uris":{"android":"levelo://app?vid=110d42e0-e455-49c3-ba2f-a13b1f51573a","ios":"levelo://app?vid=110d42e0-e455-49c3-ba2f-a13b1f51573a"},"vehicle_type_id":"4","last_reported":1745953677,"current_range_meters":4800,"station_id":"","pricing_plan_id":"cebpf4jnsgd1na2vs0mg"},{"bike_id":"183e169a-4ea3-4df3-bd75-40a627ebe0ff","system_id":"levelo_inurba_marseille","lat":43.31996,"lon":5.38163,"is_reserved":false,"is_disabled":false,"rental_uris":{"android":"levelo://app?vid=183e169a-4ea3-4df3-bd75-40a627ebe0ff","ios":"levelo://app?vid=183e169a-4ea3-4df3-bd75-40a627ebe0ff"},"vehicle_type_id":"4","last_reported":1745953677,"current_range_meters":4800,"station_id":"ce4bhr12rcd13ifvqhpg","pricing_plan_id":"cebpf4jnsgd1na2vs0mg"},{"bike_id":"f7df6a93-381a-4066-a9f4-86ba131c44d6","system_id":"levelo_inurba_marseille","lat":43.28932,"lon":5.38398,"is_reserved":false,"is_disabled":false,"rental_uris":{"android":"levelo://app?vid=f7df6a93-381a-4066-a9f4-86ba131c44d6","ios":"levelo://app?vid=f7df6a93-381a-4066-a9f4-86ba131c44d6"},"vehicle_type_id":"4","last_reported":1745953677,"current_range_meters":4800,"station_id":"ce4bh612rcd13ifvqe6g","pricing_plan_id":"cebpf4jnsgd1na2vs0mg"},{"bike_id":"519f916a-01fc-4f20-a47d-218bbabb20cb","system_id":"levelo_inurba_marseille","lat":43.28921,"lon":5.38394,"is_reserved":false,"is_disabled":false,"rental_uris":{"android":"levelo://app?vid=519f916a-01fc-4f20-a47d-218bbabb20cb","ios":"levelo://app?vid=519f916a-01fc-4f20-a47d-218bbabb20cb"},"vehicle_type_id":"4","last_reported":1745953677,"current_range_meters":5600,"station_id":"ce4bh612rcd13ifvqe6g","pricing_plan_id":"cebpf4jnsgd1na2vs0mg"},{"bike_id":"0de8eb6b-99f3-4ce9-b12b-07a14831acfe","system_id":"levelo_inurba_marseille","lat":43.30151,"lon":5.38087,"is_reserved":false,"is_disabled":false,"rental_uris":{"android":"levelo://app?vid=0de8eb6b-99f3-4ce9-b12b-07a14831acfe","ios":"levelo://app?vid=0de8eb6b-99f3-4ce9-b12b-07a14831acfe"},"vehicle_type_id":"4","last_reported":1745953677,"current_range_meters":5600,"station_id":"ce4bgjp2rcd13ifvqbh0","pricing_plan_id":"cebpf4jnsgd1na2vs0mg"},{"bike_id":"1567da05-6c15-4b2d-9feb-d39fad4caca9","system_id":"levelo_inurba_marseille","lat":43.25119,"lon":5.40323,"is_reserved":false,"is_disabled":false,"rental_uris":{"android":"levelo://app?vid=1567da05-6c15-4b2d-9feb-d39fad4caca9","ios":"levelo://app?vid=1567da05-6c15-4b2d-9feb-d39fad4caca9"},"vehicle_type_id":"4","last_reported":1745953677,"current_range_meters":5600,"station_id":"ce4bhlh2rcd13ifvqgig","pricing_plan_id":"cebpf4jnsgd1na2vs0mg"},{"bike_id":"30a392d9-00c9-4089-aeb4-2fbe200ba13d","system_id":"levelo_inurba_marseille","lat":43.29255,"lon":5.38439,"is_reserved":false,"is_disabled":false,"rental_uris":{"android":"levelo://app?vid=30a392d9-00c9-4089-aeb4-2fbe200ba13d","ios":"levelo://app?vid=30a392d9-00c9-4089-aeb4-2fbe200ba13d"},"vehicle_type_id":"4","last_reported":1745953677,"current_range_meters":4800,"station_id":"ce4bh692rcd13ifvqea0","pricing_plan_id":"cebpf4jnsgd1na2vs0mg"},{"bike_id":"9d473e27-da75-4aa7-8b05-0466939f4308","system_id":"levelo_inurba_marseille","lat":43.28148,"lon":5.42635,"is_reserved":false,"is_disabled":false,"rental_uris":{"android":"levelo://app?vid=9d473e27-da75-4aa7-8b05-0466939f4308","ios":"levelo://app?vid=9d473e27-da75-4aa7-8b05-0466939f4308"},"vehicle_type_id":"4","last_reported":1745953677,"current_range_meters":5600,"station_id":"ce4bhnh2rcd13ifvqgug","pricing_plan_id":"cebpf4jnsgd1na2vs0mg"},{"bike_id":"1f739055-8148-4574-abff-98a1f2db48ac","system_id":"levelo_inurba_marseille","lat":43.291889,"lon":5.357919,"is_reserved":false,"is_disabled":true,"rental_uris":{"android":"levelo://app?vid=1f739055-8148-4574-abff-98a1f2db48ac","ios":"levelo://app?vid=1f739055-8148-4574-abff-98a1f2db48ac"},"vehicle_type_id":"4","last_reported":1745953677,"current_range_meters":5600,"station_id":"ce4bhb12rcd13ifvqel0","pricing_plan_id":"cebpf4jnsgd1na2vs0mg"},{"bike_id":"7bd2a101-37fe-4fe3-b41a-caebca1a3196","system_id":"levelo_inurba_marseille","lat":43.29304,"lon":5.37461,"is_reserved":false,"is_disabled":false,"rental_uris":{"android":"levelo://app?vid=7bd2a101-37fe-4fe3-b41a-caebca1a3196","ios":"levelo://app?vid=7bd2a101-37fe-4fe3-b41a-caebca1a3196"},"vehicle_type_id":"4","last_reported":1745953677,"current_range_meters":5600,"station_id":"ce4bgi12rcd13ifvqb70","pricing_plan_id":"cebpf4jnsgd1na2vs0mg"},{"bike_id":"3b7400a5-11ec-446d-bb60-0f84ca95eb32","system_id":"levelo_inurba_marseille","lat":43.2781,"lon":5.40724,"is_reserved":false,"is_disabled":false,"rental_uris":{"android":"levelo://app?vid=3b7400a5-11ec-446d-bb60-0f84ca95eb32","ios":"levelo://app?vid=3b7400a5-11ec-446d-bb60-0f84ca95eb32"},"vehicle_type_id":"4","last_reported":1745953677,"current_range_meters":5600,"station_id":"ce4bhnh2rcd13ifvqgtg","pricing_plan_id":"cebpf4jnsgd1na2vs0mg"},{"bike_id":"f036fec6-300f-41ed-8444-a498cd37fcac","system_id":"levelo_inurba_marseille","lat":43.31345,"lon":5.39673,"is_reserved":false,"is_disabled":false,"rental_uris":{"android":"levelo://app?vid=f036fec6-300f-41ed-8444-a498cd37fcac","ios":"levelo://app?vid=f036fec6-300f-41ed-8444-a498cd37fcac"},"vehicle_type_id":"4","last_reported":1745953677,"current_range_meters":5600,"station_id":"ce4bgvp2rcd13ifvqcu0","pricing_plan_id":"cebpf4jnsgd1na2vs0mg"},{"bike_id":"f11ff0b6-31ff-4c6c-99bf-0f58b296b252","system_id":"levelo_inurba_marseille","lat":43.2586,"lon":5.39902,"is_reserved":false,"is_disabled":false,"rental_uris":{"android":"levelo://app?vid=f11ff0b6-31ff-4c6c-99bf-0f58b296b252","ios":"levelo://app?vid=f11ff0b6-31ff-4c6c-99bf-0f58b296b252"},"vehicle_type_id":"4","last_reported":1745953677,"current_range_meters":6000,"station_id":"ce4bhl92rcd13ifvqghg","pricing_plan_id":"cebpf4jnsgd1na2vs0mg"},{"bike_id":"ff0d8457-7b96-4256-8c1f-0cf7afbc0408","system_id":"levelo_inurba_marseille","lat":43.294276,"lon":5.374279,"is_reserved":false,"is_disabled":false,"rental_uris":{"android":"levelo://app?vid=ff0d8457-7b96-4256-8c1f-0cf7afbc0408","ios":"levelo://app?vid=ff0d8457-7b96-4256-8c1f-0cf7afbc0408"},"vehicle_type_id":"4","last_reported":1745953677,"current_range_meters":6000,"station_id":"ce4bh112rcd13ifvqda0","pricing_plan_id":"cebpf4jnsgd1na2vs0mg"},{"bike_id":"2dd55316-3b47-4ad7-930a-9ff3cf6c1df8","system_id":"levelo_inurba_marseille","lat":43.24166,"lon":5.39726,"is_reserved":false,"is_disabled":false,"rental_uris":{"android":"levelo://app?vid=2dd55316-3b47-4ad7-930a-9ff3cf6c1df8","ios":"levelo://app?vid=2dd55316-3b47-4ad7-930a-9ff3cf6c1df8"},"vehicle_type_id":"4","last_reported":1745953677,"current_range_meters":6000,"station_id":"ce4bhn12rcd13ifvqgpg","pricing_plan_id":"cebpf4jnsgd1na2vs0mg"},{"bike_id":"0b236336-3271-494a-adf2-b5c8a77dcc83","system_id":"levelo_inurba_marseille","lat":43.3123,"lon":5.36861,"is_reserved":false,"is_disabled":false,"rental_uris":{"android":"levelo://app?vid=0b236336-3271-494a-adf2-b5c8a77dcc83","ios":"levelo://app?vid=0b236336-3271-494a-adf2-b5c8a77dcc83"},"vehicle_type_id":"4","last_reported":1745953677,"current_range_meters":6000,"station_id":"ce4bgl92rcd13ifvqbq0","pricing_plan_id":"cebpf4jnsgd1na2vs0mg"},{"bike_id":"39843059-c2d6-40c4-aa84-d5f9b15b58aa","system_id":"levelo_inurba_marseille","lat":43.296712,"lon":5.381401,"is_reserved":false,"is_disabled":false,"rental_uris":{"android":"levelo://app?vid=39843059-c2d6-40c4-aa84-d5f9b15b58aa","ios":"levelo://app?vid=39843059-c2d6-40c4-aa84-d5f9b15b58aa"},"vehicle_type_id":"4","last_reported":1745953677,"current_range_meters":6000,"station_id":"ce4bh2p2rcd13ifvqdi0","pricing_plan_id":"cebpf4jnsgd1na2vs0mg"},{"bike_id":"fb7419c7-8f2b-43ef-944f-b2724cb3a67f","system_id":"levelo_inurba_marseille","lat":43.24168,"lon":5.364,"is_reserved":false,"is_disabled":false,"rental_uris":{"android":"levelo://app?vid=fb7419c7-8f2b-43ef-944f-b2724cb3a67f","ios":"levelo://app?vid=fb7419c7-8f2b-43ef-944f-b2724cb3a67f"},"vehicle_type_id":"4","last_reported":1745953677,"current_range_meters":6000,"station_id":"cpo36qri1sfpv3e86is0","pricing_plan_id":"cebpf4jnsgd1na2vs0mg"},{"bike_id":"5b74231f-ab09-451b-b9b0-15fed988d8bc","system_id":"levelo_inurba_marseille","lat":43.28853,"lon":5.3585,"is_reserved":false,"is_disabled":false,"rental_uris":{"android":"levelo://app?vid=5b74231f-ab09-451b-b9b0-15fed988d8bc","ios":"levelo://app?vid=5b74231f-ab09-451b-b9b0-15fed988d8bc"},"vehicle_type_id":"4","last_reported":1745953677,"current_range_meters":1600,"station_id":"ce4bhb12rcd13ifvqem0","pricing_plan_id":"cebpf4jnsgd1na2vs0mg"},{"bike_id":"775481df-05c4-4f0e-8a67-b66aedbeddcf","system_id":"levelo_inurba_marseille","lat":43.24192,"lon":5.39723,"is_reserved":false,"is_disabled":false,"rental_uris":{"android":"levelo://app?vid=775481df-05c4-4f0e-8a67-b66aedbeddcf","ios":"levelo://app?vid=775481df-05c4-4f0e-8a67-b66aedbeddcf"},"vehicle_type_id":"4","last_reported":1745953677,"current_range_meters":6400,"station_id":"ce4bhn12rcd13ifvqgpg","pricing_plan_id":"cebpf4jnsgd1na2vs0mg"},{"bike_id":"83825a2b-3736-49ed-aeea-be993f789935","system_id":"levelo_inurba_marseille","lat":43.27495,"lon":5.42453,"is_reserved":false,"is_disabled":false,"rental_uris":{"android":"levelo://app?vid=83825a2b-3736-49ed-aeea-be993f789935","ios":"levelo://app?vid=83825a2b-3736-49ed-aeea-be993f789935"},"vehicle_type_id":"4","last_reported":1745953677,"current_range_meters":6400,"station_id":"ce4bhn92rcd13ifvqgrg","pricing_plan_id":"cebpf4jnsgd1na2vs0mg"},{"bike_id":"7d4aa218-4c52-4263-8fe3-8b422af54fa2","system_id":"levelo_inurba_marseille","lat":43.29966,"lon":5.38494,"is_reserved":false,"is_disabled":false,"rental_uris":{"android":"levelo://app?vid=7d4aa218-4c52-4263-8fe3-8b422af54fa2","ios":"levelo://app?vid=7d4aa218-4c52-4263-8fe3-8b422af54fa2"},"vehicle_type_id":"4","last_reported":1745953677,"current_range_meters":6400,"station_id":"ce4bgj92rcd13ifvqbd0","pricing_plan_id":"cebpf4jnsgd1na2vs0mg"},{"bike_id":"23ee87b9-f6c0-4dc4-afcb-68b5ea6f4da2","system_id":"levelo_inurba_marseille","lat":43.28564,"lon":5.39499,"is_reserved":false,"is_disabled":false,"rental_uris":{"android":"levelo://app?vid=23ee87b9-f6c0-4dc4-afcb-68b5ea6f4da2","ios":"levelo://app?vid=23ee87b9-f6c0-4dc4-afcb-68b5ea6f4da2"},"vehicle_type_id":"4","last_reported":1745953677,"current_range_meters":6400,"station_id":"ce4bh292rcd13ifvqdg0","pricing_plan_id":"cebpf4jnsgd1na2vs0mg"},{"bike_id":"c8432441-2250-4cda-a79a-55215d89e419","system_id":"levelo_inurba_marseille","lat":43.29202,"lon":5.36908,"is_reserved":false,"is_disabled":false,"rental_uris":{"android":"levelo://app?vid=c8432441-2250-4cda-a79a-55215d89e419","ios":"levelo://app?vid=c8432441-2250-4cda-a79a-55215d89e419"},"vehicle_type_id":"4","last_reported":1745953677,"current_range_meters":6400,"station_id":"","pricing_plan_id":"cebpf4jnsgd1na2vs0mg"},{"bike_id":"c847c66a-5d4b-43a0-b8ce-3c816716271e","system_id":"levelo_inurba_marseille","lat":43.28997,"lon":5.35619,"is_reserved":false,"is_disabled":true,"rental_uris":{"android":"levelo://app?vid=c847c66a-5d4b-43a0-b8ce-3c816716271e","ios":"levelo://app?vid=c847c66a-5d4b-43a0-b8ce-3c816716271e"},"vehicle_type_id":"4","last_reported":1745953677,"current_range_meters":6400,"station_id":"ce4bhb92rcd13ifvqen0","pricing_plan_id":"cebpf4jnsgd1na2vs0mg"},{"bike_id":"484ee67a-ce03-48a6-9651-f56cd32fed42","system_id":"levelo_inurba_marseille","lat":43.24076,"lon":5.37756,"is_reserved":false,"is_disabled":false,"rental_uris":{"android":"levelo://app?vid=484ee67a-ce03-48a6-9651-f56cd32fed42","ios":"levelo://app?vid=484ee67a-ce03-48a6-9651-f56cd32fed42"},"vehicle_type_id":"4","last_reported":1745953677,"current_range_meters":6400,"station_id":"","pricing_plan_id":"cebpf4jnsgd1na2vs0mg"},{"bike_id":"bafa5097-1425-46ef-8ac7-401959d21fa8","system_id":"levelo_inurba_marseille","lat":43.28731,"lon":5.37952,"is_reserved":false,"is_disabled":true,"rental_uris":{"android":"levelo://app?vid=bafa5097-1425-46ef-8ac7-401959d21fa8","ios":"levelo://app?vid=bafa5097-1425-46ef-8ac7-401959d21fa8"},"vehicle_type_id":"4","last_reported":1745953677,"current_range_meters":6400,"station_id":"ce4bh9p2rcd13ifvqec0","pricing_plan_id":"cebpf4jnsgd1na2vs0mg"},{"bike_id":"75f1fad3-ed73-4bfe-afe1-0d2b3ec22728","system_id":"levelo_inurba_marseille","lat":43.29812,"lon":5.38088,"is_reserved":false,"is_disabled":false,"rental_uris":{"android":"levelo://app?vid=75f1fad3-ed73-4bfe-afe1-0d2b3ec22728","ios":"levelo://app?vid=75f1fad3-ed73-4bfe-afe1-0d2b3ec22728"},"vehicle_type_id":"4","last_reported":1745953677,"current_range_meters":6400,"station_id":"ce4bgip2rcd13ifvqbb0","pricing_plan_id":"cebpf4jnsgd1na2vs0mg"},{"bike_id":"a940c590-0f49-4829-80a9-c1a0d19a5e82","system_id":"levelo_inurba_marseille","lat":43.29425,"lon":5.374305,"is_reserved":false,"is_disabled":false,"rental_uris":{"android":"levelo://app?vid=a940c590-0f49-4829-80a9-c1a0d19a5e82","ios":"levelo://app?vid=a940c590-0f49-4829-80a9-c1a0d19a5e82"},"vehicle_type_id":"4","last_reported":1745953677,"current_range_meters":6400,"station_id":"ce4bgi12rcd13ifvqb70","pricing_plan_id":"cebpf4jnsgd1na2vs0mg"},{"bike_id":"b039c152-f87b-436a-9b54-3e5c0bb27b9c","system_id":"levelo_inurba_marseille","lat":43.28946,"lon":5.39617,"is_reserved":false,"is_disabled":false,"rental_uris":{"android":"levelo://app?vid=b039c152-f87b-436a-9b54-3e5c0bb27b9c","ios":"levelo://app?vid=b039c152-f87b-436a-9b54-3e5c0bb27b9c"},"vehicle_type_id":"4","last_reported":1745953677,"current_range_meters":6400,"station_id":"ce4bh3h2rcd13ifvqdn0","pricing_plan_id":"cebpf4jnsgd1na2vs0mg"},{"bike_id":"6394525f-1ddc-4db6-b867-f748ae55cea6","system_id":"levelo_inurba_marseille","lat":43.29098,"lon":5.38131,"is_reserved":false,"is_disabled":false,"rental_uris":{"android":"levelo://app?vid=6394525f-1ddc-4db6-b867-f748ae55cea6","ios":"levelo://app?vid=6394525f-1ddc-4db6-b867-f748ae55cea6"},"vehicle_type_id":"4","last_reported":1745953677,"current_range_meters":6800,"station_id":"ce4bh512rcd13ifvqe2g","pricing_plan_id":"cebpf4jnsgd1na2vs0mg"},{"bike_id":"caaf02ee-1c4a-4be4-9ba6-4d30062fa743","system_id":"levelo_inurba_marseille","lat":43.29248,"lon":5.38443,"is_reserved":false,"is_disabled":false,"rental_uris":{"android":"levelo://app?vid=caaf02ee-1c4a-4be4-9ba6-4d30062fa743","ios":"levelo://app?vid=caaf02ee-1c4a-4be4-9ba6-4d30062fa743"},"vehicle_type_id":"4","last_reported":1745953677,"current_range_meters":6800,"station_id":"ce4bh692rcd13ifvqea0","pricing_plan_id":"cebpf4jnsgd1na2vs0mg"},{"bike_id":"ed0b7ae2-7a39-41d2-a6f0-3db515a324a1","system_id":"levelo_inurba_marseille","lat":43.29879,"lon":5.39727,"is_reserved":false,"is_disabled":false,"rental_uris":{"android":"levelo://app?vid=ed0b7ae2-7a39-41d2-a6f0-3db515a324a1","ios":"levelo://app?vid=ed0b7ae2-7a39-41d2-a6f0-3db515a324a1"},"vehicle_type_id":"4","last_reported":1745953677,"current_range_meters":6800,"station_id":"ce4bh0h2rcd13ifvqd50","pricing_plan_id":"cebpf4jnsgd1na2vs0mg"},{"bike_id":"81e7842d-85c4-498c-9887-af2fd385b50e","system_id":"levelo_inurba_marseille","lat":43.295241,"lon":5.394057,"is_reserved":false,"is_disabled":false,"rental_uris":{"android":"levelo://app?vid=81e7842d-85c4-498c-9887-af2fd385b50e","ios":"levelo://app?vid=81e7842d-85c4-498c-9887-af2fd385b50e"},"vehicle_type_id":"4","last_reported":1745953677,"current_range_meters":6800,"station_id":"ce4bh292rcd13ifvqdf0","pricing_plan_id":"cebpf4jnsgd1na2vs0mg"},{"bike_id":"c94e61ba-b25e-484d-9c93-3cfce3bc9aa9","system_id":"levelo_inurba_marseille","lat":43.29977,"lon":5.38498,"is_reserved":false,"is_disabled":false,"rental_uris":{"android":"levelo://app?vid=c94e61ba-b25e-484d-9c93-3cfce3bc9aa9","ios":"levelo://app?vid=c94e61ba-b25e-484d-9c93-3cfce3bc9aa9"},"vehicle_type_id":"4","last_reported":1745953677,"current_range_meters":6800,"station_id":"ce4bgj92rcd13ifvqbd0","pricing_plan_id":"cebpf4jnsgd1na2vs0mg"},{"bike_id":"5e7eeaa9-97e4-4090-bfbf-e61ac25f83b7","system_id":"levelo_inurba_marseille","lat":43.28455,"lon":5.35863,"is_reserved":false,"is_disabled":false,"rental_uris":{"android":"levelo://app?vid=5e7eeaa9-97e4-4090-bfbf-e61ac25f83b7","ios":"levelo://app?vid=5e7eeaa9-97e4-4090-bfbf-e61ac25f83b7"},"vehicle_type_id":"4","last_reported":1745953677,"current_range_meters":6800,"station_id":"ce4bhah2rcd13ifvqei0","pricing_plan_id":"cebpf4jnsgd1na2vs0mg"},{"bike_id":"67e82f8c-6214-47be-9d54-e362c1c6e69d","system_id":"levelo_inurba_marseille","lat":43.26783,"lon":5.39414,"is_reserved":false,"is_disabled":false,"rental_uris":{"android":"levelo://app?vid=67e82f8c-6214-47be-9d54-e362c1c6e69d","ios":"levelo://app?vid=67e82f8c-6214-47be-9d54-e362c1c6e69d"},"vehicle_type_id":"4","last_reported":1745953677,"current_range_meters":6800,"station_id":"ce4bhh12rcd13ifvqfg0","pricing_plan_id":"cebpf4jnsgd1na2vs0mg"},{"bike_id":"0b29a6c4-c1ef-437e-9910-5bc6b7fc31ce","system_id":"levelo_inurba_marseille","lat":43.2936,"lon":5.37834,"is_reserved":false,"is_disabled":false,"rental_uris":{"android":"levelo://app?vid=0b29a6c4-c1ef-437e-9910-5bc6b7fc31ce","ios":"levelo://app?vid=0b29a6c4-c1ef-437e-9910-5bc6b7fc31ce"},"vehicle_type_id":"4","last_reported":1745953677,"current_range_meters":7200,"station_id":"ce4bgjh2rcd13ifvqbf0","pricing_plan_id":"cebpf4jnsgd1na2vs0mg"},{"bike_id":"6903ebf4-5a26-4234-921b-0dd2bce27473","system_id":"levelo_inurba_marseille","lat":43.24068,"lon":5.37767,"is_reserved":false,"is_disabled":false,"rental_uris":{"android":"levelo://app?vid=6903ebf4-5a26-4234-921b-0dd2bce27473","ios":"levelo://app?vid=6903ebf4-5a26-4234-921b-0dd2bce27473"},"vehicle_type_id":"4","last_reported":1745953677,"current_range_meters":7200,"station_id":"ce4bhnp2rcd13ifvqgvg","pricing_plan_id":"cebpf4jnsgd1na2vs0mg"},{"bike_id":"95bda508-99e4-4a32-929c-3d94033d86e1","system_id":"levelo_inurba_marseille","lat":43.279801,"lon":5.387436,"is_reserved":false,"is_disabled":false,"rental_uris":{"android":"levelo://app?vid=95bda508-99e4-4a32-929c-3d94033d86e1","ios":"levelo://app?vid=95bda508-99e4-4a32-929c-3d94033d86e1"},"vehicle_type_id":"4","last_reported":1745953677,"current_range_meters":8400,"station_id":"ce4bhg12rcd13ifvqf80","pricing_plan_id":"cebpf4jnsgd1na2vs0mg"},{"bike_id":"6bf51b95-2808-4ad4-8843-e20c0a850dca","system_id":"levelo_inurba_marseille","lat":43.29603,"lon":5.38094,"is_reserved":false,"is_disabled":false,"rental_uris":{"android":"levelo://app?vid=6bf51b95-2808-4ad4-8843-e20c0a850dca","ios":"levelo://app?vid=6bf51b95-2808-4ad4-8843-e20c0a850dca"},"vehicle_type_id":"4","last_reported":1745953677,"current_range_meters":8000,"station_id":"ce4bgl12rcd13ifvqbo0","pricing_plan_id":"cebpf4jnsgd1na2vs0mg"},{"bike_id":"83acd443-6f06-458b-a9e4-d55370ac4e3d","system_id":"levelo_inurba_marseille","lat":43.26799,"lon":5.40266,"is_reserved":false,"is_disabled":false,"rental_uris":{"android":"levelo://app?vid=83acd443-6f06-458b-a9e4-d55370ac4e3d","ios":"levelo://app?vid=83acd443-6f06-458b-a9e4-d55370ac4e3d"},"vehicle_type_id":"4","last_reported":1745953677,"current_range_meters":8000,"station_id":"ce501612rcd8frsf0b60","pricing_plan_id":"cebpf4jnsgd1na2vs0mg"},{"bike_id":"e5b4b90d-e268-4de2-98f4-f6d0513f8801","system_id":"levelo_inurba_marseille","lat":43.26525,"lon":5.42215,"is_reserved":false,"is_disabled":false,"rental_uris":{"android":"levelo://app?vid=e5b4b90d-e268-4de2-98f4-f6d0513f8801","ios":"levelo://app?vid=e5b4b90d-e268-4de2-98f4-f6d0513f8801"},"vehicle_type_id":"4","last_reported":1745953677,"current_range_meters":8000,"station_id":"","pricing_plan_id":"cebpf4jnsgd1na2vs0mg"},{"bike_id":"736f6171-a67f-46e8-8d30-72fe2b02967b","system_id":"levelo_inurba_marseille","lat":43.24169,"lon":5.36398,"is_reserved":false,"is_disabled":false,"rental_uris":{"android":"levelo://app?vid=736f6171-a67f-46e8-8d30-72fe2b02967b","ios":"levelo://app?vid=736f6171-a67f-46e8-8d30-72fe2b02967b"},"vehicle_type_id":"4","last_reported":1745953677,"current_range_meters":8000,"station_id":"cpo36qri1sfpv3e86is0","pricing_plan_id":"cebpf4jnsgd1na2vs0mg"},{"bike_id":"c481a4ad-a355-46cc-a716-d84c9f00bd5e","system_id":"levelo_inurba_marseille","lat":43.26806,"lon":5.40252,"is_reserved":false,"is_disabled":false,"rental_uris":{"android":"levelo://app?vid=c481a4ad-a355-46cc-a716-d84c9f00bd5e","ios":"levelo://app?vid=c481a4ad-a355-46cc-a716-d84c9f00bd5e"},"vehicle_type_id":"4","last_reported":1745953677,"current_range_meters":8400,"station_id":"ce501612rcd8frsf0b60","pricing_plan_id":"cebpf4jnsgd1na2vs0mg"},{"bike_id":"b91f9a69-4cb5-41b7-b305-31a14f27626b","system_id":"levelo_inurba_marseille","lat":43.2843,"lon":5.34996,"is_reserved":false,"is_disabled":true,"rental_uris":{"android":"levelo://app?vid=b91f9a69-4cb5-41b7-b305-31a14f27626b","ios":"levelo://app?vid=b91f9a69-4cb5-41b7-b305-31a14f27626b"},"vehicle_type_id":"4","last_reported":1745953677,"current_range_meters":8400,"station_id":"ce4bhbh2rcd13ifvqepg","pricing_plan_id":"cebpf4jnsgd1na2vs0mg"},{"bike_id":"58d96813-51d9-4691-82e4-fd7df8625fb2","system_id":"levelo_inurba_marseille","lat":43.30376,"lon":5.42488,"is_reserved":false,"is_disabled":false,"rental_uris":{"android":"levelo://app?vid=58d96813-51d9-4691-82e4-fd7df8625fb2","ios":"levelo://app?vid=58d96813-51d9-4691-82e4-fd7df8625fb2"},"vehicle_type_id":"4","last_reported":1745953677,"current_range_meters":8400,"station_id":"ce4bhoh2rcd13ifvqh6g","pricing_plan_id":"cebpf4jnsgd1na2vs0mg"},{"bike_id":"fb43ac24-695a-47b7-b6e9-ff0a4a19f71d","system_id":"levelo_inurba_marseille","lat":43.29619,"lon":5.37165,"is_reserved":false,"is_disabled":false,"rental_uris":{"android":"levelo://app?vid=fb43ac24-695a-47b7-b6e9-ff0a4a19f71d","ios":"levelo://app?vid=fb43ac24-695a-47b7-b6e9-ff0a4a19f71d"},"vehicle_type_id":"4","last_reported":1745953677,"current_range_meters":8400,"station_id":"ce4bgnh2rcd13ifvqc0g","pricing_plan_id":"cebpf4jnsgd1na2vs0mg"},{"bike_id":"56a5532c-d849-4104-bf8a-238c2333437e","system_id":"levelo_inurba_marseille","lat":43.29195,"lon":5.39312,"is_reserved":false,"is_disabled":false,"rental_uris":{"android":"levelo://app?vid=56a5532c-d849-4104-bf8a-238c2333437e","ios":"levelo://app?vid=56a5532c-d849-4104-bf8a-238c2333437e"},"vehicle_type_id":"4","last_reported":1745953677,"current_range_meters":8400,"station_id":"ce4bh192rcd13ifvqdd0","pricing_plan_id":"cebpf4jnsgd1na2vs0mg"},{"bike_id":"15e9ae14-564a-4bfa-9d8b-854a677c56f5","system_id":"levelo_inurba_marseille","lat":43.240778,"lon":5.377233,"is_reserved":false,"is_disabled":false,"rental_uris":{"android":"levelo://app?vid=15e9ae14-564a-4bfa-9d8b-854a677c56f5","ios":"levelo://app?vid=15e9ae14-564a-4bfa-9d8b-854a677c56f5"},"vehicle_type_id":"4","last_reported":1745953677,"current_range_meters":8800,"station_id":"ce4bhnp2rcd13ifvqgvg","pricing_plan_id":"cebpf4jnsgd1na2vs0mg"},{"bike_id":"027e9674-0e35-405b-83ba-26c4fa5922ae","system_id":"levelo_inurba_marseille","lat":43.29626,"lon":5.40611,"is_reserved":false,"is_disabled":false,"rental_uris":{"android":"levelo://app?vid=027e9674-0e35-405b-83ba-26c4fa5922ae","ios":"levelo://app?vid=027e9674-0e35-405b-83ba-26c4fa5922ae"},"vehicle_type_id":"4","last_reported":1745953677,"current_range_meters":8800,"station_id":"ce4bh0h2rcd13ifvqd60","pricing_plan_id":"cebpf4jnsgd1na2vs0mg"},{"bike_id":"6be31a70-4ead-4909-a3ae-237e4984fc96","system_id":"levelo_inurba_marseille","lat":43.27991,"lon":5.41658,"is_reserved":false,"is_disabled":false,"rental_uris":{"android":"levelo://app?vid=6be31a70-4ead-4909-a3ae-237e4984fc96","ios":"levelo://app?vid=6be31a70-4ead-4909-a3ae-237e4984fc96"},"vehicle_type_id":"4","last_reported":1745953677,"current_range_meters":8800,"station_id":"ce4bho12rcd13ifvqh1g","pricing_plan_id":"cebpf4jnsgd1na2vs0mg"},{"bike_id":"0946df0c-8b25-4d89-8f93-affc2e1828f1","system_id":"levelo_inurba_marseille","lat":43.30151,"lon":5.39853,"is_reserved":false,"is_disabled":false,"rental_uris":{"android":"levelo://app?vid=0946df0c-8b25-4d89-8f93-affc2e1828f1","ios":"levelo://app?vid=0946df0c-8b25-4d89-8f93-affc2e1828f1"},"vehicle_type_id":"4","last_reported":1745953677,"current_range_meters":8800,"station_id":"ce4bh0h2rcd13ifvqd40","pricing_plan_id":"cebpf4jnsgd1na2vs0mg"},{"bike_id":"675f622c-7d55-4692-8fa9-36cb9fe77410","system_id":"levelo_inurba_marseille","lat":43.30332,"lon":5.40423,"is_reserved":false,"is_disabled":false,"rental_uris":{"android":"levelo://app?vid=675f622c-7d55-4692-8fa9-36cb9fe77410","ios":"levelo://app?vid=675f622c-7d55-4692-8fa9-36cb9fe77410"},"vehicle_type_id":"4","last_reported":1745953677,"current_range_meters":8800,"station_id":"ce4bh012rcd13ifvqd10","pricing_plan_id":"cebpf4jnsgd1na2vs0mg"},{"bike_id":"45d78627-7099-4620-b48f-551d2549f244","system_id":"levelo_inurba_marseille","lat":43.28858,"lon":5.39322,"is_reserved":false,"is_disabled":false,"rental_uris":{"android":"levelo://app?vid=45d78627-7099-4620-b48f-551d2549f244","ios":"levelo://app?vid=45d78627-7099-4620-b48f-551d2549f244"},"vehicle_type_id":"4","last_reported":1745953677,"current_range_meters":8800,"station_id":"ce4bh2p2rcd13ifvqdi0","pricing_plan_id":"cebpf4jnsgd1na2vs0mg"},{"bike_id":"e40cc893-9f07-486d-a1fe-7586df50779c","system_id":"levelo_inurba_marseille","lat":43.30208,"lon":5.39471,"is_reserved":false,"is_disabled":false,"rental_uris":{"android":"levelo://app?vid=e40cc893-9f07-486d-a1fe-7586df50779c","ios":"levelo://app?vid=e40cc893-9f07-486d-a1fe-7586df50779c"},"vehicle_type_id":"4","last_reported":1745953677,"current_range_meters":8800,"station_id":"ce4bh0p2rcd13ifvqd70","pricing_plan_id":"cebpf4jnsgd1na2vs0mg"},{"bike_id":"6fa1d599-c1fa-466f-9e73-adc447dd7d01","system_id":"levelo_inurba_marseille","lat":43.29523,"lon":5.38555,"is_reserved":false,"is_disabled":false,"rental_uris":{"android":"levelo://app?vid=6fa1d599-c1fa-466f-9e73-adc447dd7d01","ios":"levelo://app?vid=6fa1d599-c1fa-466f-9e73-adc447dd7d01"},"vehicle_type_id":"4","last_reported":1745953677,"current_range_meters":8800,"station_id":"ce4bgih2rcd13ifvqba0","pricing_plan_id":"cebpf4jnsgd1na2vs0mg"},{"bike_id":"eae2247b-e467-470f-9a66-c93fe735192b","system_id":"levelo_inurba_marseille","lat":43.29195,"lon":5.39321,"is_reserved":false,"is_disabled":false,"rental_uris":{"android":"levelo://app?vid=eae2247b-e467-470f-9a66-c93fe735192b","ios":"levelo://app?vid=eae2247b-e467-470f-9a66-c93fe735192b"},"vehicle_type_id":"4","last_reported":1745953677,"current_range_meters":8800,"station_id":"ce4bh192rcd13ifvqdd0","pricing_plan_id":"cebpf4jnsgd1na2vs0mg"},{"bike_id":"7497e739-0c50-4aa1-9f39-dfb008e37b83","system_id":"levelo_inurba_marseille","lat":43.30969,"lon":5.37145,"is_reserved":false,"is_disabled":false,"rental_uris":{"android":"levelo://app?vid=7497e739-0c50-4aa1-9f39-dfb008e37b83","ios":"levelo://app?vid=7497e739-0c50-4aa1-9f39-dfb008e37b83"},"vehicle_type_id":"4","last_reported":1745953677,"current_range_meters":8800,"station_id":"","pricing_plan_id":"cebpf4jnsgd1na2vs0mg"},{"bike_id":"16ec47dc-cb8e-4d0e-8451-0a6b8d8fdf3b","system_id":"levelo_inurba_marseille","lat":43.30641,"lon":5.40103,"is_reserved":false,"is_disabled":false,"rental_uris":{"android":"levelo://app?vid=16ec47dc-cb8e-4d0e-8451-0a6b8d8fdf3b","ios":"levelo://app?vid=16ec47dc-cb8e-4d0e-8451-0a6b8d8fdf3b"},"vehicle_type_id":"4","last_reported":1745953677,"current_range_meters":9200,"station_id":"ce4bh112rcd13ifvqda0","pricing_plan_id":"cebpf4jnsgd1na2vs0mg"},{"bike_id":"96a39cbb-3167-4e9e-afec-96f38d9b61b9","system_id":"levelo_inurba_marseille","lat":43.30314,"lon":5.36891,"is_reserved":false,"is_disabled":false,"rental_uris":{"android":"levelo://app?vid=96a39cbb-3167-4e9e-afec-96f38d9b61b9","ios":"levelo://app?vid=96a39cbb-3167-4e9e-afec-96f38d9b61b9"},"vehicle_type_id":"4","last_reported":1745953677,"current_range_meters":9200,"station_id":"ce4bgqh2rcd13ifvqc5g","pricing_plan_id":"cebpf4jnsgd1na2vs0mg"},{"bike_id":"94471481-8fb9-4d54-879f-efb68a84479e","system_id":"levelo_inurba_marseille","lat":43.27957,"lon":5.38715,"is_reserved":false,"is_disabled":false,"rental_uris":{"android":"levelo://app?vid=94471481-8fb9-4d54-879f-efb68a84479e","ios":"levelo://app?vid=94471481-8fb9-4d54-879f-efb68a84479e"},"vehicle_type_id":"4","last_reported":1745953677,"current_range_meters":9200,"station_id":"ce4bhg12rcd13ifvqf80","pricing_plan_id":"cebpf4jnsgd1na2vs0mg"},{"bike_id":"9182fea0-bf09-458c-866a-0809f44c16aa","system_id":"levelo_inurba_marseille","lat":43.27908,"lon":5.39571,"is_reserved":false,"is_disabled":false,"rental_uris":{"android":"levelo://app?vid=9182fea0-bf09-458c-866a-0809f44c16aa","ios":"levelo://app?vid=9182fea0-bf09-458c-866a-0809f44c16aa"},"vehicle_type_id":"4","last_reported":1745953677,"current_range_meters":9200,"station_id":"ce4bhf92rcd13ifvqf40","pricing_plan_id":"cebpf4jnsgd1na2vs0mg"},{"bike_id":"2349ddc5-ddb3-46ef-88aa-6a6a82001813","system_id":"levelo_inurba_marseille","lat":43.30898,"lon":5.37193,"is_reserved":false,"is_disabled":false,"rental_uris":{"android":"levelo://app?vid=2349ddc5-ddb3-46ef-88aa-6a6a82001813","ios":"levelo://app?vid=2349ddc5-ddb3-46ef-88aa-6a6a82001813"},"vehicle_type_id":"4","last_reported":1745953677,"current_range_meters":9200,"station_id":"ce4bguh2rcd13ifvqckg","pricing_plan_id":"cebpf4jnsgd1na2vs0mg"},{"bike_id":"5836a6ba-325a-41e2-92c0-3359d340dd3d","system_id":"levelo_inurba_marseille","lat":43.29186,"lon":5.35788,"is_reserved":false,"is_disabled":true,"rental_uris":{"android":"levelo://app?vid=5836a6ba-325a-41e2-92c0-3359d340dd3d","ios":"levelo://app?vid=5836a6ba-325a-41e2-92c0-3359d340dd3d"},"vehicle_type_id":"4","last_reported":1745953677,"current_range_meters":9200,"station_id":"ce4bhb12rcd13ifvqel0","pricing_plan_id":"cebpf4jnsgd1na2vs0mg"},{"bike_id":"469402cc-b728-47f2-a92e-e7fa5ad3fc46","system_id":"levelo_inurba_marseille","lat":43.29259,"lon":5.38432,"is_reserved":false,"is_disabled":false,"rental_uris":{"android":"levelo://app?vid=469402cc-b728-47f2-a92e-e7fa5ad3fc46","ios":"levelo://app?vid=469402cc-b728-47f2-a92e-e7fa5ad3fc46"},"vehicle_type_id":"4","last_reported":1745953677,"current_range_meters":9200,"station_id":"ce4bh692rcd13ifvqea0","pricing_plan_id":"cebpf4jnsgd1na2vs0mg"},{"bike_id":"fd56dd89-7261-45e8-936e-2d7edc970d89","system_id":"levelo_inurba_marseille","lat":43.3414,"lon":5.40903,"is_reserved":false,"is_disabled":false,"rental_uris":{"android":"levelo://app?vid=fd56dd89-7261-45e8-936e-2d7edc970d89","ios":"levelo://app?vid=fd56dd89-7261-45e8-936e-2d7edc970d89"},"vehicle_type_id":"4","last_reported":1745953677,"current_range_meters":9200,"station_id":"ce4bhqh2rcd13ifvqhlg","pricing_plan_id":"cebpf4jnsgd1na2vs0mg"},{"bike_id":"b96f21bb-69d8-4cbf-b464-f36a8f53d6e0","system_id":"levelo_inurba_marseille","lat":43.26021,"lon":5.41739,"is_reserved":false,"is_disabled":false,"rental_uris":{"android":"levelo://app?vid=b96f21bb-69d8-4cbf-b464-f36a8f53d6e0","ios":"levelo://app?vid=b96f21bb-69d8-4cbf-b464-f36a8f53d6e0"},"vehicle_type_id":"4","last_reported":1745953677,"current_range_meters":9200,"station_id":"","pricing_plan_id":"cebpf4jnsgd1na2vs0mg"},{"bike_id":"8ba1f815-0b12-4c83-992f-33465d274df2","system_id":"levelo_inurba_marseille","lat":43.2549,"lon":5.37648,"is_reserved":false,"is_disabled":false,"rental_uris":{"android":"levelo://app?vid=8ba1f815-0b12-4c83-992f-33465d274df2","ios":"levelo://app?vid=8ba1f815-0b12-4c83-992f-33465d274df2"},"vehicle_type_id":"4","last_reported":1745953677,"current_range_meters":9200,"station_id":"ce4bhh12rcd13ifvqff0","pricing_plan_id":"cebpf4jnsgd1na2vs0mg"},{"bike_id":"dfbe8267-ef64-4154-84cf-5ced1a9b2ac5","system_id":"levelo_inurba_marseille","lat":43.25529,"lon":5.37644,"is_reserved":false,"is_disabled":false,"rental_uris":{"android":"levelo://app?vid=dfbe8267-ef64-4154-84cf-5ced1a9b2ac5","ios":"levelo://app?vid=dfbe8267-ef64-4154-84cf-5ced1a9b2ac5"},"vehicle_type_id":"4","last_reported":1745953677,"current_range_meters":9200,"station_id":"ce4bhh12rcd13ifvqff0","pricing_plan_id":"cebpf4jnsgd1na2vs0mg"},{"bike_id":"66fe90a1-94be-4b3d-8037-9102fda58f5e","system_id":"levelo_inurba_marseille","lat":43.2863,"lon":5.35102,"is_reserved":false,"is_disabled":false,"rental_uris":{"android":"levelo://app?vid=66fe90a1-94be-4b3d-8037-9102fda58f5e","ios":"levelo://app?vid=66fe90a1-94be-4b3d-8037-9102fda58f5e"},"vehicle_type_id":"4","last_reported":1745953677,"current_range_meters":9200,"station_id":"ce4bhch2rcd13ifvqeug","pricing_plan_id":"cebpf4jnsgd1na2vs0mg"},{"bike_id":"6ae4cfe0-fb93-4d5d-8896-050800b478cf","system_id":"levelo_inurba_marseille","lat":43.27913,"lon":5.39581,"is_reserved":false,"is_disabled":false,"rental_uris":{"android":"levelo://app?vid=6ae4cfe0-fb93-4d5d-8896-050800b478cf","ios":"levelo://app?vid=6ae4cfe0-fb93-4d5d-8896-050800b478cf"},"vehicle_type_id":"4","last_reported":1745953677,"current_range_meters":9200,"station_id":"ce4bhf92rcd13ifvqf40","pricing_plan_id":"cebpf4jnsgd1na2vs0mg"},{"bike_id":"561b2f84-08e7-4121-bad8-f7a2a19f1511","system_id":"levelo_inurba_marseille","lat":43.2807,"lon":5.39628,"is_reserved":false,"is_disabled":false,"rental_uris":{"android":"levelo://app?vid=561b2f84-08e7-4121-bad8-f7a2a19f1511","ios":"levelo://app?vid=561b2f84-08e7-4121-bad8-f7a2a19f1511"},"vehicle_type_id":"4","last_reported":1745953677,"current_range_meters":9600,"station_id":"ce4bho12rcd13ifvqh2g","pricing_plan_id":"cebpf4jnsgd1na2vs0mg"},{"bike_id":"c7d4ca92-020f-4c6f-815a-ddc6fdf77b1f","system_id":"levelo_inurba_marseille","lat":43.23463,"lon":5.38049,"is_reserved":false,"is_disabled":false,"rental_uris":{"android":"levelo://app?vid=c7d4ca92-020f-4c6f-815a-ddc6fdf77b1f","ios":"levelo://app?vid=c7d4ca92-020f-4c6f-815a-ddc6fdf77b1f"},"vehicle_type_id":"4","last_reported":1745953677,"current_range_meters":9600,"station_id":"","pricing_plan_id":"cebpf4jnsgd1na2vs0mg"},{"bike_id":"5b991949-2d2a-4020-b20a-fdc736cf8301","system_id":"levelo_inurba_marseille","lat":43.29414,"lon":5.38617,"is_reserved":false,"is_disabled":false,"rental_uris":{"android":"levelo://app?vid=5b991949-2d2a-4020-b20a-fdc736cf8301","ios":"levelo://app?vid=5b991949-2d2a-4020-b20a-fdc736cf8301"},"vehicle_type_id":"4","last_reported":1745953677,"current_range_meters":9600,"station_id":"ce4bh2h2rcd13ifvqdh0","pricing_plan_id":"cebpf4jnsgd1na2vs0mg"},{"bike_id":"c86667b3-767c-4c4c-839b-b2401a55be3c","system_id":"levelo_inurba_marseille","lat":43.29136,"lon":5.37148,"is_reserved":false,"is_disabled":false,"rental_uris":{"android":"levelo://app?vid=c86667b3-767c-4c4c-839b-b2401a55be3c","ios":"levelo://app?vid=c86667b3-767c-4c4c-839b-b2401a55be3c"},"vehicle_type_id":"4","last_reported":1745953677,"current_range_meters":9600,"station_id":"ce4bha92rcd13ifvqeh0","pricing_plan_id":"cebpf4jnsgd1na2vs0mg"},{"bike_id":"30c72144-e351-4b54-9c87-946bf36285fc","system_id":"levelo_inurba_marseille","lat":43.31486,"lon":5.37298,"is_reserved":false,"is_disabled":false,"rental_uris":{"android":"levelo://app?vid=30c72144-e351-4b54-9c87-946bf36285fc","ios":"levelo://app?vid=30c72144-e351-4b54-9c87-946bf36285fc"},"vehicle_type_id":"4","last_reported":1745953677,"current_range_meters":9600,"station_id":"ce4bgt12rcd13ifvqcd0","pricing_plan_id":"cebpf4jnsgd1na2vs0mg"},{"bike_id":"0d9d1194-6968-4ee2-b7a3-fc7f1f23ffce","system_id":"levelo_inurba_marseille","lat":43.27384,"lon":5.36245,"is_reserved":false,"is_disabled":false,"rental_uris":{"android":"levelo://app?vid=0d9d1194-6968-4ee2-b7a3-fc7f1f23ffce","ios":"levelo://app?vid=0d9d1194-6968-4ee2-b7a3-fc7f1f23ffce"},"vehicle_type_id":"4","last_reported":1745953677,"current_range_meters":10000,"station_id":"ce4bhbh2rcd13ifvqeo0","pricing_plan_id":"cebpf4jnsgd1na2vs0mg"},{"bike_id":"a45bfba5-3ee4-4051-9d0a-c35e0923b4ed","system_id":"levelo_inurba_marseille","lat":43.33014,"lon":5.39032,"is_reserved":false,"is_disabled":false,"rental_uris":{"android":"levelo://app?vid=a45bfba5-3ee4-4051-9d0a-c35e0923b4ed","ios":"levelo://app?vid=a45bfba5-3ee4-4051-9d0a-c35e0923b4ed"},"vehicle_type_id":"4","last_reported":1745953677,"current_range_meters":10000,"station_id":"ce4bhr92rcd13ifvqhrg","pricing_plan_id":"cebpf4jnsgd1na2vs0mg"},{"bike_id":"9f6f4c70-a2f8-4126-b811-521224f7a579","system_id":"levelo_inurba_marseille","lat":43.28674,"lon":5.38655,"is_reserved":false,"is_disabled":false,"rental_uris":{"android":"levelo://app?vid=9f6f4c70-a2f8-4126-b811-521224f7a579","ios":"levelo://app?vid=9f6f4c70-a2f8-4126-b811-521224f7a579"},"vehicle_type_id":"4","last_reported":1745953677,"current_range_meters":10000,"station_id":"ce4bh492rcd13ifvqdug","pricing_plan_id":"cebpf4jnsgd1na2vs0mg"},{"bike_id":"99cbdf36-9d78-40ea-a7d3-d4ae0415704c","system_id":"levelo_inurba_marseille","lat":43.31083,"lon":5.42432,"is_reserved":false,"is_disabled":false,"rental_uris":{"android":"levelo://app?vid=99cbdf36-9d78-40ea-a7d3-d4ae0415704c","ios":"levelo://app?vid=99cbdf36-9d78-40ea-a7d3-d4ae0415704c"},"vehicle_type_id":"4","last_reported":1745953677,"current_range_meters":10000,"station_id":"ce4bhp92rcd13ifvqhag","pricing_plan_id":"cebpf4jnsgd1na2vs0mg"},{"bike_id":"5eebf6c3-f2c9-441b-89f1-1a46e8e47179","system_id":"levelo_inurba_marseille","lat":43.23764,"lon":5.36175,"is_reserved":false,"is_disabled":false,"rental_uris":{"android":"levelo://app?vid=5eebf6c3-f2c9-441b-89f1-1a46e8e47179","ios":"levelo://app?vid=5eebf6c3-f2c9-441b-89f1-1a46e8e47179"},"vehicle_type_id":"4","last_reported":1745953677,"current_range_meters":10000,"station_id":"","pricing_plan_id":"cebpf4jnsgd1na2vs0mg"},{"bike_id":"9fef158f-32d9-4324-99f3-536a7be998bc","system_id":"levelo_inurba_marseille","lat":43.29266,"lon":5.37631,"is_reserved":false,"is_disabled":false,"rental_uris":{"android":"levelo://app?vid=9fef158f-32d9-4324-99f3-536a7be998bc","ios":"levelo://app?vid=9fef158f-32d9-4324-99f3-536a7be998bc"},"vehicle_type_id":"4","last_reported":1745953677,"current_range_meters":10000,"station_id":"ce4bgi12rcd13ifvqb80","pricing_plan_id":"cebpf4jnsgd1na2vs0mg"},{"bike_id":"a491bdd7-c56b-4ad9-9f1e-ed090c26045e","system_id":"levelo_inurba_marseille","lat":43.30865,"lon":5.3792,"is_reserved":false,"is_disabled":false,"rental_uris":{"android":"levelo://app?vid=a491bdd7-c56b-4ad9-9f1e-ed090c26045e","ios":"levelo://app?vid=a491bdd7-c56b-4ad9-9f1e-ed090c26045e"},"vehicle_type_id":"4","last_reported":1745953677,"current_range_meters":10000,"station_id":"","pricing_plan_id":"cebpf4jnsgd1na2vs0mg"},{"bike_id":"644fe8ba-4ed9-4035-b2e2-e54e9eacc4b3","system_id":"levelo_inurba_marseille","lat":43.29264,"lon":5.3844,"is_reserved":false,"is_disabled":false,"rental_uris":{"android":"levelo://app?vid=644fe8ba-4ed9-4035-b2e2-e54e9eacc4b3","ios":"levelo://app?vid=644fe8ba-4ed9-4035-b2e2-e54e9eacc4b3"},"vehicle_type_id":"4","last_reported":1745953677,"current_range_meters":10000,"station_id":"ce4bh692rcd13ifvqea0","pricing_plan_id":"cebpf4jnsgd1na2vs0mg"},{"bike_id":"a015aa72-4883-446b-a9a9-e16d84a5a524","system_id":"levelo_inurba_marseille","lat":43.30875,"lon":5.39631,"is_reserved":false,"is_disabled":false,"rental_uris":{"android":"levelo://app?vid=a015aa72-4883-446b-a9a9-e16d84a5a524","ios":"levelo://app?vid=a015aa72-4883-446b-a9a9-e16d84a5a524"},"vehicle_type_id":"4","last_reported":1745953677,"current_range_meters":10000,"station_id":"ce4bh012rcd13ifvqcv0","pricing_plan_id":"cebpf4jnsgd1na2vs0mg"},{"bike_id":"0fbda7cd-f00d-4938-8e1e-60366b309981","system_id":"levelo_inurba_marseille","lat":43.28036,"lon":5.36943,"is_reserved":false,"is_disabled":false,"rental_uris":{"android":"levelo://app?vid=0fbda7cd-f00d-4938-8e1e-60366b309981","ios":"levelo://app?vid=0fbda7cd-f00d-4938-8e1e-60366b309981"},"vehicle_type_id":"4","last_reported":1745953677,"current_range_meters":10000,"station_id":"ce4bha12rcd13ifvqef0","pricing_plan_id":"cebpf4jnsgd1na2vs0mg"},{"bike_id":"bf7d41a8-7a0f-45bf-8b94-8bcf9a1624fa","system_id":"levelo_inurba_marseille","lat":43.28974,"lon":5.3783,"is_reserved":false,"is_disabled":false,"rental_uris":{"android":"levelo://app?vid=bf7d41a8-7a0f-45bf-8b94-8bcf9a1624fa","ios":"levelo://app?vid=bf7d41a8-7a0f-45bf-8b94-8bcf9a1624fa"},"vehicle_type_id":"4","last_reported":1745953677,"current_range_meters":10000,"station_id":"ce4bh9p2rcd13ifvqed0","pricing_plan_id":"cebpf4jnsgd1na2vs0mg"},{"bike_id":"48bcb4b6-49ec-4d7c-aa3c-ae4af343bebc","system_id":"levelo_inurba_marseille","lat":43.27908,"lon":5.38015,"is_reserved":false,"is_disabled":false,"rental_uris":{"android":"levelo://app?vid=48bcb4b6-49ec-4d7c-aa3c-ae4af343bebc","ios":"levelo://app?vid=48bcb4b6-49ec-4d7c-aa3c-ae4af343bebc"},"vehicle_type_id":"4","last_reported":1745953677,"current_range_meters":10800,"station_id":"ce4bhf92rcd13ifvqf50","pricing_plan_id":"cebpf4jnsgd1na2vs0mg"},{"bike_id":"1be6b8de-5ed4-4d8a-9cd6-aeff3b5c0661","system_id":"levelo_inurba_marseille","lat":43.2898,"lon":5.37833,"is_reserved":false,"is_disabled":true,"rental_uris":{"android":"levelo://app?vid=1be6b8de-5ed4-4d8a-9cd6-aeff3b5c0661","ios":"levelo://app?vid=1be6b8de-5ed4-4d8a-9cd6-aeff3b5c0661"},"vehicle_type_id":"4","last_reported":1745953677,"current_range_meters":10800,"station_id":"ce4bh9p2rcd13ifvqed0","pricing_plan_id":"cebpf4jnsgd1na2vs0mg"},{"bike_id":"8ef91150-50c1-4ca1-8571-fb710f926ad6","system_id":"levelo_inurba_marseille","lat":43.29716,"lon":5.3661,"is_reserved":false,"is_disabled":false,"rental_uris":{"android":"levelo://app?vid=8ef91150-50c1-4ca1-8571-fb710f926ad6","ios":"levelo://app?vid=8ef91150-50c1-4ca1-8571-fb710f926ad6"},"vehicle_type_id":"4","last_reported":1745953677,"current_range_meters":14000,"station_id":"ce4bgn12rcd13ifvqbt0","pricing_plan_id":"cebpf4jnsgd1na2vs0mg"},{"bike_id":"8551d6b0-912d-42ce-bdbd-a1df737f5479","system_id":"levelo_inurba_marseille","lat":43.28726,"lon":5.37941,"is_reserved":false,"is_disabled":false,"rental_uris":{"android":"levelo://app?vid=8551d6b0-912d-42ce-bdbd-a1df737f5479","ios":"levelo://app?vid=8551d6b0-912d-42ce-bdbd-a1df737f5479"},"vehicle_type_id":"4","last_reported":1745953677,"current_range_meters":10800,"station_id":"ce4bh9p2rcd13ifvqec0","pricing_plan_id":"cebpf4jnsgd1na2vs0mg"},{"bike_id":"bcbdece9-18a4-4ced-8494-9c131639e5f6","system_id":"levelo_inurba_marseille","lat":43.26096,"lon":5.4147,"is_reserved":false,"is_disabled":false,"rental_uris":{"android":"levelo://app?vid=bcbdece9-18a4-4ced-8494-9c131639e5f6","ios":"levelo://app?vid=bcbdece9-18a4-4ced-8494-9c131639e5f6"},"vehicle_type_id":"4","last_reported":1745953677,"current_range_meters":10800,"station_id":"","pricing_plan_id":"cebpf4jnsgd1na2vs0mg"},{"bike_id":"a4b8af2d-715b-4370-980d-2b8b4094f702","system_id":"levelo_inurba_marseille","lat":43.31333,"lon":5.3671,"is_reserved":false,"is_disabled":false,"rental_uris":{"android":"levelo://app?vid=a4b8af2d-715b-4370-980d-2b8b4094f702","ios":"levelo://app?vid=a4b8af2d-715b-4370-980d-2b8b4094f702"},"vehicle_type_id":"4","last_reported":1745953677,"current_range_meters":10800,"station_id":"ce4bgr92rcd13ifvqc6g","pricing_plan_id":"cebpf4jnsgd1na2vs0mg"},{"bike_id":"27e2acdd-2add-407a-a835-796f76c27c03","system_id":"levelo_inurba_marseille","lat":43.32107,"lon":5.36761,"is_reserved":false,"is_disabled":false,"rental_uris":{"android":"levelo://app?vid=27e2acdd-2add-407a-a835-796f76c27c03","ios":"levelo://app?vid=27e2acdd-2add-407a-a835-796f76c27c03"},"vehicle_type_id":"4","last_reported":1745953677,"current_range_meters":11200,"station_id":"ce4bhrh2rcd13ifvqhug","pricing_plan_id":"cebpf4jnsgd1na2vs0mg"},{"bike_id":"ec37cf1d-4859-4df6-bf3b-77b8a87d9b06","system_id":"levelo_inurba_marseille","lat":43.28871,"lon":5.35846,"is_reserved":false,"is_disabled":false,"rental_uris":{"android":"levelo://app?vid=ec37cf1d-4859-4df6-bf3b-77b8a87d9b06","ios":"levelo://app?vid=ec37cf1d-4859-4df6-bf3b-77b8a87d9b06"},"vehicle_type_id":"4","last_reported":1745953677,"current_range_meters":11600,"station_id":"ce4bhb12rcd13ifvqem0","pricing_plan_id":"cebpf4jnsgd1na2vs0mg"},{"bike_id":"24874d25-6733-4544-ad71-9df2fa772748","system_id":"levelo_inurba_marseille","lat":43.286094,"lon":5.351072,"is_reserved":false,"is_disabled":false,"rental_uris":{"android":"levelo://app?vid=24874d25-6733-4544-ad71-9df2fa772748","ios":"levelo://app?vid=24874d25-6733-4544-ad71-9df2fa772748"},"vehicle_type_id":"4","last_reported":1745953677,"current_range_meters":11600,"station_id":"ce4bhch2rcd13ifvqeug","pricing_plan_id":"cebpf4jnsgd1na2vs0mg"},{"bike_id":"2255b970-d07e-40bd-88e5-5a0f1f22a219","system_id":"levelo_inurba_marseille","lat":43.28444,"lon":5.39194,"is_reserved":false,"is_disabled":false,"rental_uris":{"android":"levelo://app?vid=2255b970-d07e-40bd-88e5-5a0f1f22a219","ios":"levelo://app?vid=2255b970-d07e-40bd-88e5-5a0f1f22a219"},"vehicle_type_id":"4","last_reported":1745953677,"current_range_meters":11200,"station_id":"ce4bhoh2rcd13ifvqh5g","pricing_plan_id":"cebpf4jnsgd1na2vs0mg"},{"bike_id":"f6afadf8-e6ff-4c7a-8692-5caf68fd0b71","system_id":"levelo_inurba_marseille","lat":43.22937,"lon":5.35376,"is_reserved":false,"is_disabled":true,"rental_uris":{"android":"levelo://app?vid=f6afadf8-e6ff-4c7a-8692-5caf68fd0b71","ios":"levelo://app?vid=f6afadf8-e6ff-4c7a-8692-5caf68fd0b71"},"vehicle_type_id":"4","last_reported":1745953677,"current_range_meters":11600,"station_id":"cpo3532slgdg3j2ikp40","pricing_plan_id":"cebpf4jnsgd1na2vs0mg"},{"bike_id":"1c6e2801-d406-4688-a913-a775da6b0f13","system_id":"levelo_inurba_marseille","lat":43.2293,"lon":5.35369,"is_reserved":false,"is_disabled":false,"rental_uris":{"android":"levelo://app?vid=1c6e2801-d406-4688-a913-a775da6b0f13","ios":"levelo://app?vid=1c6e2801-d406-4688-a913-a775da6b0f13"},"vehicle_type_id":"4","last_reported":1745953677,"current_range_meters":11600,"station_id":"cpo3532slgdg3j2ikp40","pricing_plan_id":"cebpf4jnsgd1na2vs0mg"},{"bike_id":"4dfe5798-a3df-4a92-9009-4915afff3aeb","system_id":"levelo_inurba_marseille","lat":43.3149,"lon":5.37309,"is_reserved":false,"is_disabled":false,"rental_uris":{"android":"levelo://app?vid=4dfe5798-a3df-4a92-9009-4915afff3aeb","ios":"levelo://app?vid=4dfe5798-a3df-4a92-9009-4915afff3aeb"},"vehicle_type_id":"4","last_reported":1745953677,"current_range_meters":12000,"station_id":"ce4bgt12rcd13ifvqcd0","pricing_plan_id":"cebpf4jnsgd1na2vs0mg"},{"bike_id":"140f7be3-726c-41cd-aa20-2bedd4ddf2bb","system_id":"levelo_inurba_marseille","lat":43.29497,"lon":5.38365,"is_reserved":false,"is_disabled":false,"rental_uris":{"android":"levelo://app?vid=140f7be3-726c-41cd-aa20-2bedd4ddf2bb","ios":"levelo://app?vid=140f7be3-726c-41cd-aa20-2bedd4ddf2bb"},"vehicle_type_id":"4","last_reported":1745953677,"current_range_meters":12000,"station_id":"ce4bgih2rcd13ifvqba0","pricing_plan_id":"cebpf4jnsgd1na2vs0mg"},{"bike_id":"06b23fcf-d155-46c0-acd2-5b59645454ea","system_id":"levelo_inurba_marseille","lat":43.28473,"lon":5.3845,"is_reserved":false,"is_disabled":true,"rental_uris":{"android":"levelo://app?vid=06b23fcf-d155-46c0-acd2-5b59645454ea","ios":"levelo://app?vid=06b23fcf-d155-46c0-acd2-5b59645454ea"},"vehicle_type_id":"4","last_reported":1745953677,"current_range_meters":12000,"station_id":"ce4bh512rcd13ifvqe3g","pricing_plan_id":"cebpf4jnsgd1na2vs0mg"},{"bike_id":"60d582f4-b4ab-4432-a931-dede7b68c659","system_id":"levelo_inurba_marseille","lat":43.32292,"lon":5.38272,"is_reserved":false,"is_disabled":false,"rental_uris":{"android":"levelo://app?vid=60d582f4-b4ab-4432-a931-dede7b68c659","ios":"levelo://app?vid=60d582f4-b4ab-4432-a931-dede7b68c659"},"vehicle_type_id":"4","last_reported":1745953677,"current_range_meters":12000,"station_id":"ce4bhr12rcd13ifvqhqg","pricing_plan_id":"cebpf4jnsgd1na2vs0mg"},{"bike_id":"77c59250-8359-4942-8c07-a9c82964e824","system_id":"levelo_inurba_marseille","lat":43.28454,"lon":5.35916,"is_reserved":false,"is_disabled":true,"rental_uris":{"android":"levelo://app?vid=77c59250-8359-4942-8c07-a9c82964e824","ios":"levelo://app?vid=77c59250-8359-4942-8c07-a9c82964e824"},"vehicle_type_id":"4","last_reported":1745953677,"current_range_meters":12000,"station_id":"ce4bhah2rcd13ifvqei0","pricing_plan_id":"cebpf4jnsgd1na2vs0mg"},{"bike_id":"6ff32f17-7b9c-463f-a13f-79ee01c6a7e8","system_id":"levelo_inurba_marseille","lat":43.30265,"lon":5.40032,"is_reserved":false,"is_disabled":false,"rental_uris":{"android":"levelo://app?vid=6ff32f17-7b9c-463f-a13f-79ee01c6a7e8","ios":"levelo://app?vid=6ff32f17-7b9c-463f-a13f-79ee01c6a7e8"},"vehicle_type_id":"4","last_reported":1745953677,"current_range_meters":12000,"station_id":"ce4bgvh2rcd13ifvqcs0","pricing_plan_id":"cebpf4jnsgd1na2vs0mg"},{"bike_id":"07d1be92-ba24-4925-8051-e4f0bf4e6b44","system_id":"levelo_inurba_marseille","lat":43.24805,"lon":5.37456,"is_reserved":false,"is_disabled":false,"rental_uris":{"android":"levelo://app?vid=07d1be92-ba24-4925-8051-e4f0bf4e6b44","ios":"levelo://app?vid=07d1be92-ba24-4925-8051-e4f0bf4e6b44"},"vehicle_type_id":"4","last_reported":1745953677,"current_range_meters":12000,"station_id":"ce4bhgh2rcd13ifvqfb0","pricing_plan_id":"cebpf4jnsgd1na2vs0mg"},{"bike_id":"489415b8-9254-45c1-b00c-e7554d56755c","system_id":"levelo_inurba_marseille","lat":43.245231,"lon":5.412159,"is_reserved":false,"is_disabled":false,"rental_uris":{"android":"levelo://app?vid=489415b8-9254-45c1-b00c-e7554d56755c","ios":"levelo://app?vid=489415b8-9254-45c1-b00c-e7554d56755c"},"vehicle_type_id":"4","last_reported":1745953677,"current_range_meters":12400,"station_id":"","pricing_plan_id":"cebpf4jnsgd1na2vs0mg"},{"bike_id":"183d5056-b6b4-41f3-8801-7358f88c9d0a","system_id":"levelo_inurba_marseille","lat":43.28454,"lon":5.35885,"is_reserved":false,"is_disabled":false,"rental_uris":{"android":"levelo://app?vid=183d5056-b6b4-41f3-8801-7358f88c9d0a","ios":"levelo://app?vid=183d5056-b6b4-41f3-8801-7358f88c9d0a"},"vehicle_type_id":"4","last_reported":1745953677,"current_range_meters":12400,"station_id":"ce4bhah2rcd13ifvqei0","pricing_plan_id":"cebpf4jnsgd1na2vs0mg"},{"bike_id":"358165f5-584c-4c30-9537-ca0b7d4446bc","system_id":"levelo_inurba_marseille","lat":43.229288,"lon":5.353768,"is_reserved":false,"is_disabled":false,"rental_uris":{"android":"levelo://app?vid=358165f5-584c-4c30-9537-ca0b7d4446bc","ios":"levelo://app?vid=358165f5-584c-4c30-9537-ca0b7d4446bc"},"vehicle_type_id":"4","last_reported":1745953677,"current_range_meters":12800,"station_id":"cpo3532slgdg3j2ikp40","pricing_plan_id":"cebpf4jnsgd1na2vs0mg"},{"bike_id":"1faa2c24-d7c0-41ad-acec-9d66c87abbb1","system_id":"levelo_inurba_marseille","lat":43.289246,"lon":5.383867,"is_reserved":false,"is_disabled":false,"rental_uris":{"android":"levelo://app?vid=1faa2c24-d7c0-41ad-acec-9d66c87abbb1","ios":"levelo://app?vid=1faa2c24-d7c0-41ad-acec-9d66c87abbb1"},"vehicle_type_id":"4","last_reported":1745953677,"current_range_meters":12400,"station_id":"ce4bh612rcd13ifvqe6g","pricing_plan_id":"cebpf4jnsgd1na2vs0mg"},{"bike_id":"312629db-7553-4f57-8655-a25196d01b88","system_id":"levelo_inurba_marseille","lat":43.30378,"lon":5.42486,"is_reserved":false,"is_disabled":false,"rental_uris":{"android":"levelo://app?vid=312629db-7553-4f57-8655-a25196d01b88","ios":"levelo://app?vid=312629db-7553-4f57-8655-a25196d01b88"},"vehicle_type_id":"4","last_reported":1745953677,"current_range_meters":12400,"station_id":"ce4bhoh2rcd13ifvqh6g","pricing_plan_id":"cebpf4jnsgd1na2vs0mg"},{"bike_id":"8cbdb337-9935-44a1-9a4a-419f780a3378","system_id":"levelo_inurba_marseille","lat":43.289368,"lon":5.366471,"is_reserved":false,"is_disabled":false,"rental_uris":{"android":"levelo://app?vid=8cbdb337-9935-44a1-9a4a-419f780a3378","ios":"levelo://app?vid=8cbdb337-9935-44a1-9a4a-419f780a3378"},"vehicle_type_id":"4","last_reported":1745953677,"current_range_meters":12000,"station_id":"ce4bhap2rcd13ifvqek0","pricing_plan_id":"cebpf4jnsgd1na2vs0mg"},{"bike_id":"e27c9434-7cad-426a-accf-7de8131c5123","system_id":"levelo_inurba_marseille","lat":43.28617,"lon":5.35099,"is_reserved":false,"is_disabled":false,"rental_uris":{"android":"levelo://app?vid=e27c9434-7cad-426a-accf-7de8131c5123","ios":"levelo://app?vid=e27c9434-7cad-426a-accf-7de8131c5123"},"vehicle_type_id":"4","last_reported":1745953677,"current_range_meters":12400,"station_id":"ce4bhch2rcd13ifvqeug","pricing_plan_id":"cebpf4jnsgd1na2vs0mg"},{"bike_id":"071a671b-fb53-468b-ba8f-96ef79b57233","system_id":"levelo_inurba_marseille","lat":43.32343,"lon":5.36781,"is_reserved":false,"is_disabled":false,"rental_uris":{"android":"levelo://app?vid=071a671b-fb53-468b-ba8f-96ef79b57233","ios":"levelo://app?vid=071a671b-fb53-468b-ba8f-96ef79b57233"},"vehicle_type_id":"4","last_reported":1745953677,"current_range_meters":12400,"station_id":"ce4bhsh2rcd13ifvqi2g","pricing_plan_id":"cebpf4jnsgd1na2vs0mg"},{"bike_id":"4d4778ed-b855-40e3-aed9-6ce2157d0719","system_id":"levelo_inurba_marseille","lat":43.31327,"lon":5.39689,"is_reserved":false,"is_disabled":false,"rental_uris":{"android":"levelo://app?vid=4d4778ed-b855-40e3-aed9-6ce2157d0719","ios":"levelo://app?vid=4d4778ed-b855-40e3-aed9-6ce2157d0719"},"vehicle_type_id":"4","last_reported":1745953677,"current_range_meters":12400,"station_id":"ce4bgvp2rcd13ifvqcu0","pricing_plan_id":"cebpf4jnsgd1na2vs0mg"},{"bike_id":"cadc816b-87ab-425a-8b49-6145674f5c1f","system_id":"levelo_inurba_marseille","lat":43.30879,"lon":5.39634,"is_reserved":false,"is_disabled":false,"rental_uris":{"android":"levelo://app?vid=cadc816b-87ab-425a-8b49-6145674f5c1f","ios":"levelo://app?vid=cadc816b-87ab-425a-8b49-6145674f5c1f"},"vehicle_type_id":"4","last_reported":1745953677,"current_range_meters":12400,"station_id":"ce4bh012rcd13ifvqcv0","pricing_plan_id":"cebpf4jnsgd1na2vs0mg"},{"bike_id":"3ae641eb-772b-47f4-9c6f-a55115e8b3d3","system_id":"levelo_inurba_marseille","lat":43.29205,"lon":5.35781,"is_reserved":false,"is_disabled":true,"rental_uris":{"android":"levelo://app?vid=3ae641eb-772b-47f4-9c6f-a55115e8b3d3","ios":"levelo://app?vid=3ae641eb-772b-47f4-9c6f-a55115e8b3d3"},"vehicle_type_id":"4","last_reported":1745953677,"current_range_meters":12800,"station_id":"ce4bhb12rcd13ifvqel0","pricing_plan_id":"cebpf4jnsgd1na2vs0mg"},{"bike_id":"07edfd45-c3fa-4b57-b865-cf1bf9963264","system_id":"levelo_inurba_marseille","lat":43.2339,"lon":5.36414,"is_reserved":false,"is_disabled":false,"rental_uris":{"android":"levelo://app?vid=07edfd45-c3fa-4b57-b865-cf1bf9963264","ios":"levelo://app?vid=07edfd45-c3fa-4b57-b865-cf1bf9963264"},"vehicle_type_id":"4","last_reported":1745953677,"current_range_meters":12800,"station_id":"","pricing_plan_id":"cebpf4jnsgd1na2vs0mg"},{"bike_id":"c94ae869-e2cf-49a7-a842-715220df1e7b","system_id":"levelo_inurba_marseille","lat":43.30632,"lon":5.40075,"is_reserved":false,"is_disabled":false,"rental_uris":{"android":"levelo://app?vid=c94ae869-e2cf-49a7-a842-715220df1e7b","ios":"levelo://app?vid=c94ae869-e2cf-49a7-a842-715220df1e7b"},"vehicle_type_id":"4","last_reported":1745953677,"current_range_meters":12800,"station_id":"ce4bh112rcd13ifvqda0","pricing_plan_id":"cebpf4jnsgd1na2vs0mg"},{"bike_id":"ddf42e2f-5ba3-456f-b6b9-71a4fb220f7c","system_id":"levelo_inurba_marseille","lat":43.217656,"lon":5.346164,"is_reserved":false,"is_disabled":false,"rental_uris":{"android":"levelo://app?vid=ddf42e2f-5ba3-456f-b6b9-71a4fb220f7c","ios":"levelo://app?vid=ddf42e2f-5ba3-456f-b6b9-71a4fb220f7c"},"vehicle_type_id":"4","last_reported":1745953677,"current_range_meters":13600,"station_id":"st_cvj6r9ubvosntc0bgbag","pricing_plan_id":"cebpf4jnsgd1na2vs0mg"},{"bike_id":"f2269291-6338-4059-aac1-139812d84735","system_id":"levelo_inurba_marseille","lat":43.28716,"lon":5.37945,"is_reserved":false,"is_disabled":false,"rental_uris":{"android":"levelo://app?vid=f2269291-6338-4059-aac1-139812d84735","ios":"levelo://app?vid=f2269291-6338-4059-aac1-139812d84735"},"vehicle_type_id":"4","last_reported":1745953677,"current_range_meters":13600,"station_id":"ce4bh9p2rcd13ifvqec0","pricing_plan_id":"cebpf4jnsgd1na2vs0mg"},{"bike_id":"561a6021-d676-41d6-beca-778ae018bc9f","system_id":"levelo_inurba_marseille","lat":43.29465,"lon":5.39623,"is_reserved":false,"is_disabled":false,"rental_uris":{"android":"levelo://app?vid=561a6021-d676-41d6-beca-778ae018bc9f","ios":"levelo://app?vid=561a6021-d676-41d6-beca-778ae018bc9f"},"vehicle_type_id":"4","last_reported":1745953677,"current_range_meters":13600,"station_id":"ce4bh292rcd13ifvqdf0","pricing_plan_id":"cebpf4jnsgd1na2vs0mg"},{"bike_id":"f8c79263-41c5-46aa-b8f3-85ccc06668ba","system_id":"levelo_inurba_marseille","lat":43.28616,"lon":5.35103,"is_reserved":false,"is_disabled":false,"rental_uris":{"android":"levelo://app?vid=f8c79263-41c5-46aa-b8f3-85ccc06668ba","ios":"levelo://app?vid=f8c79263-41c5-46aa-b8f3-85ccc06668ba"},"vehicle_type_id":"4","last_reported":1745953677,"current_range_meters":13600,"station_id":"ce4bhch2rcd13ifvqeug","pricing_plan_id":"cebpf4jnsgd1na2vs0mg"},{"bike_id":"3da4f807-a9a7-4e80-80cc-47afecae7882","system_id":"levelo_inurba_marseille","lat":43.28,"lon":5.39998,"is_reserved":false,"is_disabled":false,"rental_uris":{"android":"levelo://app?vid=3da4f807-a9a7-4e80-80cc-47afecae7882","ios":"levelo://app?vid=3da4f807-a9a7-4e80-80cc-47afecae7882"},"vehicle_type_id":"4","last_reported":1745953677,"current_range_meters":13600,"station_id":"ce4bho92rcd13ifvqh4g","pricing_plan_id":"cebpf4jnsgd1na2vs0mg"},{"bike_id":"4829c74c-98e1-4576-a951-de9ce0371b44","system_id":"levelo_inurba_marseille","lat":43.29803,"lon":5.3934,"is_reserved":false,"is_disabled":false,"rental_uris":{"android":"levelo://app?vid=4829c74c-98e1-4576-a951-de9ce0371b44","ios":"levelo://app?vid=4829c74c-98e1-4576-a951-de9ce0371b44"},"vehicle_type_id":"4","last_reported":1745953677,"current_range_meters":13600,"station_id":"chh1huq6cuj3fo74tm60","pricing_plan_id":"cebpf4jnsgd1na2vs0mg"},{"bike_id":"c589b7f4-f0b2-4d57-88e0-e5114c57c7a8","system_id":"levelo_inurba_marseille","lat":43.23197,"lon":5.35552,"is_reserved":false,"is_disabled":false,"rental_uris":{"android":"levelo://app?vid=c589b7f4-f0b2-4d57-88e0-e5114c57c7a8","ios":"levelo://app?vid=c589b7f4-f0b2-4d57-88e0-e5114c57c7a8"},"vehicle_type_id":"4","last_reported":1745953677,"current_range_meters":16000,"station_id":"ce4bhu92rcd13ifvqi70","pricing_plan_id":"cebpf4jnsgd1na2vs0mg"},{"bike_id":"3a9bd96a-1d84-454e-b55b-a4ef583e3749","system_id":"levelo_inurba_marseille","lat":43.2668,"lon":5.3826,"is_reserved":false,"is_disabled":true,"rental_uris":{"android":"levelo://app?vid=3a9bd96a-1d84-454e-b55b-a4ef583e3749","ios":"levelo://app?vid=3a9bd96a-1d84-454e-b55b-a4ef583e3749"},"vehicle_type_id":"4","last_reported":1745953677,"current_range_meters":13600,"station_id":"ce4bhg92rcd13ifvqf90","pricing_plan_id":"cebpf4jnsgd1na2vs0mg"},{"bike_id":"2b01d62e-170d-4ab4-9b5e-f578190efb7b","system_id":"levelo_inurba_marseille","lat":43.29,"lon":5.35617,"is_reserved":false,"is_disabled":false,"rental_uris":{"android":"levelo://app?vid=2b01d62e-170d-4ab4-9b5e-f578190efb7b","ios":"levelo://app?vid=2b01d62e-170d-4ab4-9b5e-f578190efb7b"},"vehicle_type_id":"4","last_reported":1745953677,"current_range_meters":13600,"station_id":"ce4bhb92rcd13ifvqen0","pricing_plan_id":"cebpf4jnsgd1na2vs0mg"},{"bike_id":"6f4c32fc-318d-45af-96b5-4270b7fa7131","system_id":"levelo_inurba_marseille","lat":43.299796,"lon":5.371864,"is_reserved":false,"is_disabled":false,"rental_uris":{"android":"levelo://app?vid=6f4c32fc-318d-45af-96b5-4270b7fa7131","ios":"levelo://app?vid=6f4c32fc-318d-45af-96b5-4270b7fa7131"},"vehicle_type_id":"4","last_reported":1745953677,"current_range_meters":11600,"station_id":"ce4bgr92rcd13ifvqc7g","pricing_plan_id":"cebpf4jnsgd1na2vs0mg"},{"bike_id":"28a604ef-98c1-4aff-ab31-a10d3a8eae96","system_id":"levelo_inurba_marseille","lat":43.29567,"lon":5.37493,"is_reserved":false,"is_disabled":true,"rental_uris":{"android":"levelo://app?vid=28a604ef-98c1-4aff-ab31-a10d3a8eae96","ios":"levelo://app?vid=28a604ef-98c1-4aff-ab31-a10d3a8eae96"},"vehicle_type_id":"4","last_reported":1745953677,"current_range_meters":13600,"station_id":"ce4bgh92rcd13ifvqb50","pricing_plan_id":"cebpf4jnsgd1na2vs0mg"},{"bike_id":"40cd9c09-5d6c-4b2c-a5ec-3d25d8f86287","system_id":"levelo_inurba_marseille","lat":43.2508,"lon":5.39535,"is_reserved":false,"is_disabled":false,"rental_uris":{"android":"levelo://app?vid=40cd9c09-5d6c-4b2c-a5ec-3d25d8f86287","ios":"levelo://app?vid=40cd9c09-5d6c-4b2c-a5ec-3d25d8f86287"},"vehicle_type_id":"4","last_reported":1745953677,"current_range_meters":14000,"station_id":"ce4bhm12rcd13ifvqgkg","pricing_plan_id":"cebpf4jnsgd1na2vs0mg"},{"bike_id":"e9c5e7cf-c064-4eb7-8b40-cb4bfdb68efb","system_id":"levelo_inurba_marseille","lat":43.28612,"lon":5.35101,"is_reserved":false,"is_disabled":false,"rental_uris":{"android":"levelo://app?vid=e9c5e7cf-c064-4eb7-8b40-cb4bfdb68efb","ios":"levelo://app?vid=e9c5e7cf-c064-4eb7-8b40-cb4bfdb68efb"},"vehicle_type_id":"4","last_reported":1745953677,"current_range_meters":14000,"station_id":"ce4bhch2rcd13ifvqeug","pricing_plan_id":"cebpf4jnsgd1na2vs0mg"},{"bike_id":"11d5d43a-e812-47f7-b832-2e1a60e860f7","system_id":"levelo_inurba_marseille","lat":43.27385,"lon":5.36261,"is_reserved":false,"is_disabled":false,"rental_uris":{"android":"levelo://app?vid=11d5d43a-e812-47f7-b832-2e1a60e860f7","ios":"levelo://app?vid=11d5d43a-e812-47f7-b832-2e1a60e860f7"},"vehicle_type_id":"4","last_reported":1745953677,"current_range_meters":14000,"station_id":"ce4bhbh2rcd13ifvqeo0","pricing_plan_id":"cebpf4jnsgd1na2vs0mg"},{"bike_id":"fe0c4d1a-9874-47df-b868-a5e70081d8ce","system_id":"levelo_inurba_marseille","lat":43.229324,"lon":5.353804,"is_reserved":false,"is_disabled":false,"rental_uris":{"android":"levelo://app?vid=fe0c4d1a-9874-47df-b868-a5e70081d8ce","ios":"levelo://app?vid=fe0c4d1a-9874-47df-b868-a5e70081d8ce"},"vehicle_type_id":"4","last_reported":1745953677,"current_range_meters":14000,"station_id":"cpo3532slgdg3j2ikp40","pricing_plan_id":"cebpf4jnsgd1na2vs0mg"},{"bike_id":"1fd17739-2105-4f9c-a9f1-0512323b8792","system_id":"levelo_inurba_marseille","lat":43.30889,"lon":5.396425,"is_reserved":false,"is_disabled":false,"rental_uris":{"android":"levelo://app?vid=1fd17739-2105-4f9c-a9f1-0512323b8792","ios":"levelo://app?vid=1fd17739-2105-4f9c-a9f1-0512323b8792"},"vehicle_type_id":"4","last_reported":1745953677,"current_range_meters":14000,"station_id":"ce4bh012rcd13ifvqcv0","pricing_plan_id":"cebpf4jnsgd1na2vs0mg"},{"bike_id":"7bf312d6-e7c2-4762-82e8-99be49a3819a","system_id":"levelo_inurba_marseille","lat":43.28936,"lon":5.39621,"is_reserved":false,"is_disabled":false,"rental_uris":{"android":"levelo://app?vid=7bf312d6-e7c2-4762-82e8-99be49a3819a","ios":"levelo://app?vid=7bf312d6-e7c2-4762-82e8-99be49a3819a"},"vehicle_type_id":"4","last_reported":1745953677,"current_range_meters":14000,"station_id":"ce4bh3h2rcd13ifvqdn0","pricing_plan_id":"cebpf4jnsgd1na2vs0mg"},{"bike_id":"6d1c5eaf-041b-4e46-be6f-e55c97ecb5cb","system_id":"levelo_inurba_marseille","lat":43.32004,"lon":5.38168,"is_reserved":false,"is_disabled":false,"rental_uris":{"android":"levelo://app?vid=6d1c5eaf-041b-4e46-be6f-e55c97ecb5cb","ios":"levelo://app?vid=6d1c5eaf-041b-4e46-be6f-e55c97ecb5cb"},"vehicle_type_id":"4","last_reported":1745953677,"current_range_meters":14400,"station_id":"ce4bhr12rcd13ifvqhpg","pricing_plan_id":"cebpf4jnsgd1na2vs0mg"},{"bike_id":"5a28cbea-f32a-4ef9-a403-af6589e6aa98","system_id":"levelo_inurba_marseille","lat":43.29366,"lon":5.3784,"is_reserved":false,"is_disabled":false,"rental_uris":{"android":"levelo://app?vid=5a28cbea-f32a-4ef9-a403-af6589e6aa98","ios":"levelo://app?vid=5a28cbea-f32a-4ef9-a403-af6589e6aa98"},"vehicle_type_id":"4","last_reported":1745953677,"current_range_meters":14400,"station_id":"ce4bgjh2rcd13ifvqbf0","pricing_plan_id":"cebpf4jnsgd1na2vs0mg"},{"bike_id":"732fbe27-3522-4e81-8f80-8544dfe3bf9e","system_id":"levelo_inurba_marseille","lat":43.32089,"lon":5.41527,"is_reserved":false,"is_disabled":false,"rental_uris":{"android":"levelo://app?vid=732fbe27-3522-4e81-8f80-8544dfe3bf9e","ios":"levelo://app?vid=732fbe27-3522-4e81-8f80-8544dfe3bf9e"},"vehicle_type_id":"4","last_reported":1745953677,"current_range_meters":14800,"station_id":"ce4bhq92rcd13ifvqhkg","pricing_plan_id":"cebpf4jnsgd1na2vs0mg"},{"bike_id":"99db8247-0612-45ac-8fed-439363318569","system_id":"levelo_inurba_marseille","lat":43.29073,"lon":5.3716,"is_reserved":false,"is_disabled":false,"rental_uris":{"android":"levelo://app?vid=99db8247-0612-45ac-8fed-439363318569","ios":"levelo://app?vid=99db8247-0612-45ac-8fed-439363318569"},"vehicle_type_id":"4","last_reported":1745953677,"current_range_meters":14800,"station_id":"ce4bh5p2rcd13ifvqe4g","pricing_plan_id":"cebpf4jnsgd1na2vs0mg"},{"bike_id":"3a4f068d-d197-425a-a7f3-367cd5c1dfae","system_id":"levelo_inurba_marseille","lat":43.28004,"lon":5.40008,"is_reserved":false,"is_disabled":false,"rental_uris":{"android":"levelo://app?vid=3a4f068d-d197-425a-a7f3-367cd5c1dfae","ios":"levelo://app?vid=3a4f068d-d197-425a-a7f3-367cd5c1dfae"},"vehicle_type_id":"4","last_reported":1745953677,"current_range_meters":14800,"station_id":"ce4bho92rcd13ifvqh4g","pricing_plan_id":"cebpf4jnsgd1na2vs0mg"},{"bike_id":"bf7b0307-3091-4f40-b711-352a92e374e4","system_id":"levelo_inurba_marseille","lat":43.28456,"lon":5.35881,"is_reserved":false,"is_disabled":false,"rental_uris":{"android":"levelo://app?vid=bf7b0307-3091-4f40-b711-352a92e374e4","ios":"levelo://app?vid=bf7b0307-3091-4f40-b711-352a92e374e4"},"vehicle_type_id":"4","last_reported":1745953677,"current_range_meters":14800,"station_id":"ce4bhah2rcd13ifvqei0","pricing_plan_id":"cebpf4jnsgd1na2vs0mg"},{"bike_id":"d50cb595-81a6-406b-90c1-e39a8ffa9f99","system_id":"levelo_inurba_marseille","lat":43.24178,"lon":5.39724,"is_reserved":false,"is_disabled":false,"rental_uris":{"android":"levelo://app?vid=d50cb595-81a6-406b-90c1-e39a8ffa9f99","ios":"levelo://app?vid=d50cb595-81a6-406b-90c1-e39a8ffa9f99"},"vehicle_type_id":"4","last_reported":1745953677,"current_range_meters":14800,"station_id":"ce4bhn12rcd13ifvqgpg","pricing_plan_id":"cebpf4jnsgd1na2vs0mg"},{"bike_id":"b5763512-6468-4f7e-b235-06a8eb0673ae","system_id":"levelo_inurba_marseille","lat":43.27212,"lon":5.391935,"is_reserved":false,"is_disabled":false,"rental_uris":{"android":"levelo://app?vid=b5763512-6468-4f7e-b235-06a8eb0673ae","ios":"levelo://app?vid=b5763512-6468-4f7e-b235-06a8eb0673ae"},"vehicle_type_id":"4","last_reported":1745953677,"current_range_meters":17200,"station_id":"ce4bhhp2rcd13ifvqfm0","pricing_plan_id":"cebpf4jnsgd1na2vs0mg"},{"bike_id":"823b0181-a3c0-4786-9510-757638f13519","system_id":"levelo_inurba_marseille","lat":43.29959,"lon":5.41317,"is_reserved":false,"is_disabled":false,"rental_uris":{"android":"levelo://app?vid=823b0181-a3c0-4786-9510-757638f13519","ios":"levelo://app?vid=823b0181-a3c0-4786-9510-757638f13519"},"vehicle_type_id":"4","last_reported":1745953677,"current_range_meters":15200,"station_id":"ce4bhp12rcd13ifvqh9g","pricing_plan_id":"cebpf4jnsgd1na2vs0mg"},{"bike_id":"67946696-e1b4-48e1-9aea-70b477d4f50c","system_id":"levelo_inurba_marseille","lat":43.30662,"lon":5.40073,"is_reserved":false,"is_disabled":false,"rental_uris":{"android":"levelo://app?vid=67946696-e1b4-48e1-9aea-70b477d4f50c","ios":"levelo://app?vid=67946696-e1b4-48e1-9aea-70b477d4f50c"},"vehicle_type_id":"4","last_reported":1745953677,"current_range_meters":15200,"station_id":"ce4bh112rcd13ifvqda0","pricing_plan_id":"cebpf4jnsgd1na2vs0mg"},{"bike_id":"44175f16-03a3-47a4-b4c7-7acac3c01ff2","system_id":"levelo_inurba_marseille","lat":43.29294,"lon":5.37454,"is_reserved":false,"is_disabled":false,"rental_uris":{"android":"levelo://app?vid=44175f16-03a3-47a4-b4c7-7acac3c01ff2","ios":"levelo://app?vid=44175f16-03a3-47a4-b4c7-7acac3c01ff2"},"vehicle_type_id":"4","last_reported":1745953677,"current_range_meters":14800,"station_id":"ce4bgi12rcd13ifvqb70","pricing_plan_id":"cebpf4jnsgd1na2vs0mg"},{"bike_id":"dcb0b990-89f9-495c-a9c1-10b17ae39667","system_id":"levelo_inurba_marseille","lat":43.23451,"lon":5.38053,"is_reserved":false,"is_disabled":false,"rental_uris":{"android":"levelo://app?vid=dcb0b990-89f9-495c-a9c1-10b17ae39667","ios":"levelo://app?vid=dcb0b990-89f9-495c-a9c1-10b17ae39667"},"vehicle_type_id":"4","last_reported":1745953677,"current_range_meters":15200,"station_id":"","pricing_plan_id":"cebpf4jnsgd1na2vs0mg"},{"bike_id":"8f75bcd4-4468-40c6-80d4-76cbff0157cb","system_id":"levelo_inurba_marseille","lat":43.29778,"lon":5.37106,"is_reserved":false,"is_disabled":false,"rental_uris":{"android":"levelo://app?vid=8f75bcd4-4468-40c6-80d4-76cbff0157cb","ios":"levelo://app?vid=8f75bcd4-4468-40c6-80d4-76cbff0157cb"},"vehicle_type_id":"4","last_reported":1745953677,"current_range_meters":14800,"station_id":"ce4bgop2rcd13ifvqc1g","pricing_plan_id":"cebpf4jnsgd1na2vs0mg"},{"bike_id":"19bc52c3-74db-454f-9839-b056878a7608","system_id":"levelo_inurba_marseille","lat":43.266929,"lon":5.382737,"is_reserved":false,"is_disabled":true,"rental_uris":{"android":"levelo://app?vid=19bc52c3-74db-454f-9839-b056878a7608","ios":"levelo://app?vid=19bc52c3-74db-454f-9839-b056878a7608"},"vehicle_type_id":"4","last_reported":1745953677,"current_range_meters":16000,"station_id":"ce4bhg92rcd13ifvqf90","pricing_plan_id":"cebpf4jnsgd1na2vs0mg"},{"bike_id":"44bad974-0dd9-45f2-9c88-13e0ef90b385","system_id":"levelo_inurba_marseille","lat":43.28079,"lon":5.39669,"is_reserved":false,"is_disabled":false,"rental_uris":{"android":"levelo://app?vid=44bad974-0dd9-45f2-9c88-13e0ef90b385","ios":"levelo://app?vid=44bad974-0dd9-45f2-9c88-13e0ef90b385"},"vehicle_type_id":"4","last_reported":1745953677,"current_range_meters":16000,"station_id":"ce4bho12rcd13ifvqh2g","pricing_plan_id":"cebpf4jnsgd1na2vs0mg"},{"bike_id":"a56f0186-6742-4321-af55-54f04b4d7b71","system_id":"levelo_inurba_marseille","lat":43.30887,"lon":5.39651,"is_reserved":false,"is_disabled":false,"rental_uris":{"android":"levelo://app?vid=a56f0186-6742-4321-af55-54f04b4d7b71","ios":"levelo://app?vid=a56f0186-6742-4321-af55-54f04b4d7b71"},"vehicle_type_id":"4","last_reported":1745953677,"current_range_meters":16000,"station_id":"ce4bh012rcd13ifvqcv0","pricing_plan_id":"cebpf4jnsgd1na2vs0mg"},{"bike_id":"ebe708f7-3332-4fd2-8253-6e69180d970b","system_id":"levelo_inurba_marseille","lat":43.28459,"lon":5.35881,"is_reserved":false,"is_disabled":false,"rental_uris":{"android":"levelo://app?vid=ebe708f7-3332-4fd2-8253-6e69180d970b","ios":"levelo://app?vid=ebe708f7-3332-4fd2-8253-6e69180d970b"},"vehicle_type_id":"4","last_reported":1745953677,"current_range_meters":16000,"station_id":"ce4bhah2rcd13ifvqei0","pricing_plan_id":"cebpf4jnsgd1na2vs0mg"},{"bike_id":"38cc701d-ba1d-4fb1-9f5d-fca447ad3879","system_id":"levelo_inurba_marseille","lat":43.29525,"lon":5.39032,"is_reserved":false,"is_disabled":false,"rental_uris":{"android":"levelo://app?vid=38cc701d-ba1d-4fb1-9f5d-fca447ad3879","ios":"levelo://app?vid=38cc701d-ba1d-4fb1-9f5d-fca447ad3879"},"vehicle_type_id":"4","last_reported":1745953677,"current_range_meters":16400,"station_id":"ce4bh3p2rcd13ifvqdp0","pricing_plan_id":"cebpf4jnsgd1na2vs0mg"},{"bike_id":"481b5089-f3ce-4e37-a45f-8c33c570f29b","system_id":"levelo_inurba_marseille","lat":43.29173,"lon":5.37158,"is_reserved":false,"is_disabled":false,"rental_uris":{"android":"levelo://app?vid=481b5089-f3ce-4e37-a45f-8c33c570f29b","ios":"levelo://app?vid=481b5089-f3ce-4e37-a45f-8c33c570f29b"},"vehicle_type_id":"4","last_reported":1745953677,"current_range_meters":16400,"station_id":"ce4bha92rcd13ifvqeh0","pricing_plan_id":"cebpf4jnsgd1na2vs0mg"},{"bike_id":"2f2ee64f-49ef-489b-ae79-fba23835c12d","system_id":"levelo_inurba_marseille","lat":43.28616,"lon":5.35101,"is_reserved":false,"is_disabled":false,"rental_uris":{"android":"levelo://app?vid=2f2ee64f-49ef-489b-ae79-fba23835c12d","ios":"levelo://app?vid=2f2ee64f-49ef-489b-ae79-fba23835c12d"},"vehicle_type_id":"4","last_reported":1745953677,"current_range_meters":16400,"station_id":"ce4bhch2rcd13ifvqeug","pricing_plan_id":"cebpf4jnsgd1na2vs0mg"},{"bike_id":"8c2764fc-bc1c-48fc-a755-ccde3ff80a42","system_id":"levelo_inurba_marseille","lat":43.30317,"lon":5.40446,"is_reserved":false,"is_disabled":false,"rental_uris":{"android":"levelo://app?vid=8c2764fc-bc1c-48fc-a755-ccde3ff80a42","ios":"levelo://app?vid=8c2764fc-bc1c-48fc-a755-ccde3ff80a42"},"vehicle_type_id":"4","last_reported":1745953677,"current_range_meters":16400,"station_id":"ce4bh012rcd13ifvqd10","pricing_plan_id":"cebpf4jnsgd1na2vs0mg"},{"bike_id":"7674b3ae-0dec-411d-86a1-2cb1d2b90672","system_id":"levelo_inurba_marseille","lat":43.29863,"lon":5.39744,"is_reserved":false,"is_disabled":false,"rental_uris":{"android":"levelo://app?vid=7674b3ae-0dec-411d-86a1-2cb1d2b90672","ios":"levelo://app?vid=7674b3ae-0dec-411d-86a1-2cb1d2b90672"},"vehicle_type_id":"4","last_reported":1745953677,"current_range_meters":16400,"station_id":"ce4bh0h2rcd13ifvqd50","pricing_plan_id":"cebpf4jnsgd1na2vs0mg"},{"bike_id":"97fbc9fa-56dc-4f9a-8936-0b6fb524b27a","system_id":"levelo_inurba_marseille","lat":43.33722,"lon":5.39193,"is_reserved":false,"is_disabled":false,"rental_uris":{"android":"levelo://app?vid=97fbc9fa-56dc-4f9a-8936-0b6fb524b27a","ios":"levelo://app?vid=97fbc9fa-56dc-4f9a-8936-0b6fb524b27a"},"vehicle_type_id":"4","last_reported":1745953677,"current_range_meters":16400,"station_id":"ce4bhr92rcd13ifvqhsg","pricing_plan_id":"cebpf4jnsgd1na2vs0mg"},{"bike_id":"1ceff077-9113-41db-a597-97c945a1abcb","system_id":"levelo_inurba_marseille","lat":43.30133,"lon":5.39857,"is_reserved":false,"is_disabled":false,"rental_uris":{"android":"levelo://app?vid=1ceff077-9113-41db-a597-97c945a1abcb","ios":"levelo://app?vid=1ceff077-9113-41db-a597-97c945a1abcb"},"vehicle_type_id":"4","last_reported":1745953677,"current_range_meters":16800,"station_id":"ce4bh0h2rcd13ifvqd40","pricing_plan_id":"cebpf4jnsgd1na2vs0mg"},{"bike_id":"4fda502e-8180-4eb2-97e5-6521d9824005","system_id":"levelo_inurba_marseille","lat":43.30407,"lon":5.38126,"is_reserved":false,"is_disabled":false,"rental_uris":{"android":"levelo://app?vid=4fda502e-8180-4eb2-97e5-6521d9824005","ios":"levelo://app?vid=4fda502e-8180-4eb2-97e5-6521d9824005"},"vehicle_type_id":"4","last_reported":1745953677,"current_range_meters":16800,"station_id":"","pricing_plan_id":"cebpf4jnsgd1na2vs0mg"},{"bike_id":"8663b10c-1e24-428c-bec4-66fabeba84de","system_id":"levelo_inurba_marseille","lat":43.29609,"lon":5.37691,"is_reserved":false,"is_disabled":false,"rental_uris":{"android":"levelo://app?vid=8663b10c-1e24-428c-bec4-66fabeba84de","ios":"levelo://app?vid=8663b10c-1e24-428c-bec4-66fabeba84de"},"vehicle_type_id":"4","last_reported":1745953677,"current_range_meters":16800,"station_id":"","pricing_plan_id":"cebpf4jnsgd1na2vs0mg"},{"bike_id":"fb0daf1a-cefa-40b9-a6f4-b2612f0cf23f","system_id":"levelo_inurba_marseille","lat":43.26245,"lon":5.40435,"is_reserved":false,"is_disabled":false,"rental_uris":{"android":"levelo://app?vid=fb0daf1a-cefa-40b9-a6f4-b2612f0cf23f","ios":"levelo://app?vid=fb0daf1a-cefa-40b9-a6f4-b2612f0cf23f"},"vehicle_type_id":"4","last_reported":1745953677,"current_range_meters":16800,"station_id":"ce4bhmh2rcd13ifvqgmg","pricing_plan_id":"cebpf4jnsgd1na2vs0mg"},{"bike_id":"142b21fe-e15a-4a65-b770-44381c311d71","system_id":"levelo_inurba_marseille","lat":43.31344,"lon":5.39683,"is_reserved":false,"is_disabled":false,"rental_uris":{"android":"levelo://app?vid=142b21fe-e15a-4a65-b770-44381c311d71","ios":"levelo://app?vid=142b21fe-e15a-4a65-b770-44381c311d71"},"vehicle_type_id":"4","last_reported":1745953677,"current_range_meters":16800,"station_id":"ce4bgvp2rcd13ifvqcu0","pricing_plan_id":"cebpf4jnsgd1na2vs0mg"},{"bike_id":"2cc0d9c4-afeb-49db-b224-b488ed95eed1","system_id":"levelo_inurba_marseille","lat":43.30883,"lon":5.39656,"is_reserved":false,"is_disabled":false,"rental_uris":{"android":"levelo://app?vid=2cc0d9c4-afeb-49db-b224-b488ed95eed1","ios":"levelo://app?vid=2cc0d9c4-afeb-49db-b224-b488ed95eed1"},"vehicle_type_id":"4","last_reported":1745953677,"current_range_meters":16800,"station_id":"ce4bh012rcd13ifvqcv0","pricing_plan_id":"cebpf4jnsgd1na2vs0mg"},{"bike_id":"2ea88097-f637-48c0-834a-65258344bb71","system_id":"levelo_inurba_marseille","lat":43.289403,"lon":5.366286,"is_reserved":false,"is_disabled":false,"rental_uris":{"android":"levelo://app?vid=2ea88097-f637-48c0-834a-65258344bb71","ios":"levelo://app?vid=2ea88097-f637-48c0-834a-65258344bb71"},"vehicle_type_id":"4","last_reported":1745953677,"current_range_meters":16800,"station_id":"ce4bhap2rcd13ifvqek0","pricing_plan_id":"cebpf4jnsgd1na2vs0mg"},{"bike_id":"e5e92a64-e709-4b1a-a9b1-cbffe85789ca","system_id":"levelo_inurba_marseille","lat":43.25516,"lon":5.38197,"is_reserved":false,"is_disabled":false,"rental_uris":{"android":"levelo://app?vid=e5e92a64-e709-4b1a-a9b1-cbffe85789ca","ios":"levelo://app?vid=e5e92a64-e709-4b1a-a9b1-cbffe85789ca"},"vehicle_type_id":"4","last_reported":1745953677,"current_range_meters":16800,"station_id":"","pricing_plan_id":"cebpf4jnsgd1na2vs0mg"},{"bike_id":"b01cbeff-8157-416f-a4f0-9990745aa5ff","system_id":"levelo_inurba_marseille","lat":43.28038,"lon":5.36897,"is_reserved":false,"is_disabled":false,"rental_uris":{"android":"levelo://app?vid=b01cbeff-8157-416f-a4f0-9990745aa5ff","ios":"levelo://app?vid=b01cbeff-8157-416f-a4f0-9990745aa5ff"},"vehicle_type_id":"4","last_reported":1745953677,"current_range_meters":17200,"station_id":"ce4bha12rcd13ifvqef0","pricing_plan_id":"cebpf4jnsgd1na2vs0mg"},{"bike_id":"8b883e1e-1354-44e8-82e3-245331ec502e","system_id":"levelo_inurba_marseille","lat":43.308054,"lon":5.4352,"is_reserved":false,"is_disabled":false,"rental_uris":{"android":"levelo://app?vid=8b883e1e-1354-44e8-82e3-245331ec502e","ios":"levelo://app?vid=8b883e1e-1354-44e8-82e3-245331ec502e"},"vehicle_type_id":"4","last_reported":1745953677,"current_range_meters":17200,"station_id":"ce4bhph2rcd13ifvqheg","pricing_plan_id":"cebpf4jnsgd1na2vs0mg"},{"bike_id":"e0b6db80-472c-4759-a681-5b4eadbc7e57","system_id":"levelo_inurba_marseille","lat":43.295288,"lon":5.385319,"is_reserved":false,"is_disabled":false,"rental_uris":{"android":"levelo://app?vid=e0b6db80-472c-4759-a681-5b4eadbc7e57","ios":"levelo://app?vid=e0b6db80-472c-4759-a681-5b4eadbc7e57"},"vehicle_type_id":"4","last_reported":1745953677,"current_range_meters":17200,"station_id":"ce4bgih2rcd13ifvqba0","pricing_plan_id":"cebpf4jnsgd1na2vs0mg"},{"bike_id":"2ba9544c-69bb-47bf-adc8-0d212e79dfb4","system_id":"levelo_inurba_marseille","lat":43.28409,"lon":5.37515,"is_reserved":false,"is_disabled":false,"rental_uris":{"android":"levelo://app?vid=2ba9544c-69bb-47bf-adc8-0d212e79dfb4","ios":"levelo://app?vid=2ba9544c-69bb-47bf-adc8-0d212e79dfb4"},"vehicle_type_id":"4","last_reported":1745953677,"current_range_meters":17200,"station_id":"ce4bh412rcd13ifvqds0","pricing_plan_id":"cebpf4jnsgd1na2vs0mg"},{"bike_id":"7861d36c-9390-416e-9c9d-7af848fcad66","system_id":"levelo_inurba_marseille","lat":43.29523,"lon":5.38543,"is_reserved":false,"is_disabled":false,"rental_uris":{"android":"levelo://app?vid=7861d36c-9390-416e-9c9d-7af848fcad66","ios":"levelo://app?vid=7861d36c-9390-416e-9c9d-7af848fcad66"},"vehicle_type_id":"4","last_reported":1745953677,"current_range_meters":17200,"station_id":"ce4bgih2rcd13ifvqba0","pricing_plan_id":"cebpf4jnsgd1na2vs0mg"},{"bike_id":"501d46ce-09c9-40d7-92b5-8ea772a9cc4a","system_id":"levelo_inurba_marseille","lat":43.29529,"lon":5.38549,"is_reserved":false,"is_disabled":false,"rental_uris":{"android":"levelo://app?vid=501d46ce-09c9-40d7-92b5-8ea772a9cc4a","ios":"levelo://app?vid=501d46ce-09c9-40d7-92b5-8ea772a9cc4a"},"vehicle_type_id":"4","last_reported":1745953677,"current_range_meters":17200,"station_id":"ce4bgih2rcd13ifvqba0","pricing_plan_id":"cebpf4jnsgd1na2vs0mg"},{"bike_id":"a3985f59-fd97-4afa-8291-7cd6045ca270","system_id":"levelo_inurba_marseille","lat":43.324806,"lon":5.36558,"is_reserved":false,"is_disabled":false,"rental_uris":{"android":"levelo://app?vid=a3985f59-fd97-4afa-8291-7cd6045ca270","ios":"levelo://app?vid=a3985f59-fd97-4afa-8291-7cd6045ca270"},"vehicle_type_id":"4","last_reported":1745953677,"current_range_meters":17200,"station_id":"ce4bhs12rcd13ifvqhvg","pricing_plan_id":"cebpf4jnsgd1na2vs0mg"},{"bike_id":"06ebe979-cc86-4f5b-b0ed-11d6ca1db42a","system_id":"levelo_inurba_marseille","lat":43.274923,"lon":5.424523,"is_reserved":false,"is_disabled":false,"rental_uris":{"android":"levelo://app?vid=06ebe979-cc86-4f5b-b0ed-11d6ca1db42a","ios":"levelo://app?vid=06ebe979-cc86-4f5b-b0ed-11d6ca1db42a"},"vehicle_type_id":"4","last_reported":1745953677,"current_range_meters":17600,"station_id":"ce4bhn92rcd13ifvqgrg","pricing_plan_id":"cebpf4jnsgd1na2vs0mg"},{"bike_id":"9273763a-93dd-4544-bb84-a422c1731c82","system_id":"levelo_inurba_marseille","lat":43.29779,"lon":5.39337,"is_reserved":false,"is_disabled":false,"rental_uris":{"android":"levelo://app?vid=9273763a-93dd-4544-bb84-a422c1731c82","ios":"levelo://app?vid=9273763a-93dd-4544-bb84-a422c1731c82"},"vehicle_type_id":"4","last_reported":1745953677,"current_range_meters":17600,"station_id":"chh1huq6cuj3fo74tm60","pricing_plan_id":"cebpf4jnsgd1na2vs0mg"},{"bike_id":"95775316-578e-4489-8b01-2cfae0f9d7ab","system_id":"levelo_inurba_marseille","lat":43.23771,"lon":5.36159,"is_reserved":false,"is_disabled":false,"rental_uris":{"android":"levelo://app?vid=95775316-578e-4489-8b01-2cfae0f9d7ab","ios":"levelo://app?vid=95775316-578e-4489-8b01-2cfae0f9d7ab"},"vehicle_type_id":"4","last_reported":1745953677,"current_range_meters":17600,"station_id":"","pricing_plan_id":"cebpf4jnsgd1na2vs0mg"},{"bike_id":"5bebf0eb-ac68-4cb7-ad25-6b3fbf83a1b0","system_id":"levelo_inurba_marseille","lat":43.29195,"lon":5.39316,"is_reserved":false,"is_disabled":false,"rental_uris":{"android":"levelo://app?vid=5bebf0eb-ac68-4cb7-ad25-6b3fbf83a1b0","ios":"levelo://app?vid=5bebf0eb-ac68-4cb7-ad25-6b3fbf83a1b0"},"vehicle_type_id":"4","last_reported":1745953677,"current_range_meters":17600,"station_id":"ce4bh192rcd13ifvqdd0","pricing_plan_id":"cebpf4jnsgd1na2vs0mg"},{"bike_id":"e5c9e410-09a2-4a8b-8618-7674c87d16f0","system_id":"levelo_inurba_marseille","lat":43.293037,"lon":5.374457,"is_reserved":false,"is_disabled":true,"rental_uris":{"android":"levelo://app?vid=e5c9e410-09a2-4a8b-8618-7674c87d16f0","ios":"levelo://app?vid=e5c9e410-09a2-4a8b-8618-7674c87d16f0"},"vehicle_type_id":"4","last_reported":1745953677,"current_range_meters":17600,"station_id":"ce4bgi12rcd13ifvqb70","pricing_plan_id":"cebpf4jnsgd1na2vs0mg"},{"bike_id":"043d9a52-cf92-4481-a357-08030b51462c","system_id":"levelo_inurba_marseille","lat":43.28615,"lon":5.35095,"is_reserved":false,"is_disabled":false,"rental_uris":{"android":"levelo://app?vid=043d9a52-cf92-4481-a357-08030b51462c","ios":"levelo://app?vid=043d9a52-cf92-4481-a357-08030b51462c"},"vehicle_type_id":"4","last_reported":1745953677,"current_range_meters":17600,"station_id":"ce4bhch2rcd13ifvqeug","pricing_plan_id":"cebpf4jnsgd1na2vs0mg"},{"bike_id":"fce2c520-92d3-4d18-810b-8d643fc15a1a","system_id":"levelo_inurba_marseille","lat":43.23084,"lon":5.3549,"is_reserved":false,"is_disabled":false,"rental_uris":{"android":"levelo://app?vid=fce2c520-92d3-4d18-810b-8d643fc15a1a","ios":"levelo://app?vid=fce2c520-92d3-4d18-810b-8d643fc15a1a"},"vehicle_type_id":"4","last_reported":1745953677,"current_range_meters":17600,"station_id":"cpo3342slgdg3j2ifvpg","pricing_plan_id":"cebpf4jnsgd1na2vs0mg"},{"bike_id":"c2a5b975-8b23-468b-a841-b81f24edfe7a","system_id":"levelo_inurba_marseille","lat":43.24381,"lon":5.37054,"is_reserved":false,"is_disabled":true,"rental_uris":{"android":"levelo://app?vid=c2a5b975-8b23-468b-a841-b81f24edfe7a","ios":"levelo://app?vid=c2a5b975-8b23-468b-a841-b81f24edfe7a"},"vehicle_type_id":"4","last_reported":1745953677,"current_range_meters":17600,"station_id":"ce4bhhh2rcd13ifvqfk0","pricing_plan_id":"cebpf4jnsgd1na2vs0mg"},{"bike_id":"d790bba5-0573-4c47-8999-23421e069bf8","system_id":"levelo_inurba_marseille","lat":43.23967,"lon":5.36634,"is_reserved":false,"is_disabled":false,"rental_uris":{"android":"levelo://app?vid=d790bba5-0573-4c47-8999-23421e069bf8","ios":"levelo://app?vid=d790bba5-0573-4c47-8999-23421e069bf8"},"vehicle_type_id":"4","last_reported":1745953677,"current_range_meters":18000,"station_id":"ce4bhi12rcd13ifvqfp0","pricing_plan_id":"cebpf4jnsgd1na2vs0mg"},{"bike_id":"f134e95e-764f-464f-921c-19e2b5969706","system_id":"levelo_inurba_marseille","lat":43.29165,"lon":5.37152,"is_reserved":false,"is_disabled":false,"rental_uris":{"android":"levelo://app?vid=f134e95e-764f-464f-921c-19e2b5969706","ios":"levelo://app?vid=f134e95e-764f-464f-921c-19e2b5969706"},"vehicle_type_id":"4","last_reported":1745953677,"current_range_meters":18000,"station_id":"ce4bha92rcd13ifvqeh0","pricing_plan_id":"cebpf4jnsgd1na2vs0mg"},{"bike_id":"b9a06d99-7b0a-4db5-a1c3-c79d98838432","system_id":"levelo_inurba_marseille","lat":43.295085,"lon":5.394018,"is_reserved":false,"is_disabled":false,"rental_uris":{"android":"levelo://app?vid=b9a06d99-7b0a-4db5-a1c3-c79d98838432","ios":"levelo://app?vid=b9a06d99-7b0a-4db5-a1c3-c79d98838432"},"vehicle_type_id":"4","last_reported":1745953677,"current_range_meters":18000,"station_id":"ce4bh292rcd13ifvqdf0","pricing_plan_id":"cebpf4jnsgd1na2vs0mg"},{"bike_id":"40df608a-423e-43c6-9ce2-180be460a84a","system_id":"levelo_inurba_marseille","lat":43.31117,"lon":5.37768,"is_reserved":false,"is_disabled":false,"rental_uris":{"android":"levelo://app?vid=40df608a-423e-43c6-9ce2-180be460a84a","ios":"levelo://app?vid=40df608a-423e-43c6-9ce2-180be460a84a"},"vehicle_type_id":"4","last_reported":1745953677,"current_range_meters":18000,"station_id":"ce4bgt92rcd13ifvqcg0","pricing_plan_id":"cebpf4jnsgd1na2vs0mg"},{"bike_id":"bbd7b879-2685-4d90-92b0-925585a9b14b","system_id":"levelo_inurba_marseille","lat":43.25501,"lon":5.37669,"is_reserved":false,"is_disabled":false,"rental_uris":{"android":"levelo://app?vid=bbd7b879-2685-4d90-92b0-925585a9b14b","ios":"levelo://app?vid=bbd7b879-2685-4d90-92b0-925585a9b14b"},"vehicle_type_id":"4","last_reported":1745953677,"current_range_meters":18000,"station_id":"ce4bhh12rcd13ifvqff0","pricing_plan_id":"cebpf4jnsgd1na2vs0mg"},{"bike_id":"637f17b1-a980-4bc5-993d-9a9de04fb5bf","system_id":"levelo_inurba_marseille","lat":43.31656,"lon":5.37001,"is_reserved":false,"is_disabled":false,"rental_uris":{"android":"levelo://app?vid=637f17b1-a980-4bc5-993d-9a9de04fb5bf","ios":"levelo://app?vid=637f17b1-a980-4bc5-993d-9a9de04fb5bf"},"vehicle_type_id":"4","last_reported":1745953677,"current_range_meters":19200,"station_id":"","pricing_plan_id":"cebpf4jnsgd1na2vs0mg"},{"bike_id":"9dc2a631-0625-47d0-9cc0-905e6560f8a9","system_id":"levelo_inurba_marseille","lat":43.28118,"lon":5.37831,"is_reserved":false,"is_disabled":false,"rental_uris":{"android":"levelo://app?vid=9dc2a631-0625-47d0-9cc0-905e6560f8a9","ios":"levelo://app?vid=9dc2a631-0625-47d0-9cc0-905e6560f8a9"},"vehicle_type_id":"4","last_reported":1745953677,"current_range_meters":18800,"station_id":"ce4bha12rcd13ifvqee0","pricing_plan_id":"cebpf4jnsgd1na2vs0mg"},{"bike_id":"86c2979e-8cf6-48ed-bdb1-835ff11e3adc","system_id":"levelo_inurba_marseille","lat":43.253929,"lon":5.41846,"is_reserved":false,"is_disabled":false,"rental_uris":{"android":"levelo://app?vid=86c2979e-8cf6-48ed-bdb1-835ff11e3adc","ios":"levelo://app?vid=86c2979e-8cf6-48ed-bdb1-835ff11e3adc"},"vehicle_type_id":"4","last_reported":1745953677,"current_range_meters":18800,"station_id":"","pricing_plan_id":"cebpf4jnsgd1na2vs0mg"},{"bike_id":"89014f6b-871e-4225-bd6b-7ff93f224601","system_id":"levelo_inurba_marseille","lat":43.27991,"lon":5.41662,"is_reserved":false,"is_disabled":false,"rental_uris":{"android":"levelo://app?vid=89014f6b-871e-4225-bd6b-7ff93f224601","ios":"levelo://app?vid=89014f6b-871e-4225-bd6b-7ff93f224601"},"vehicle_type_id":"4","last_reported":1745953677,"current_range_meters":18800,"station_id":"ce4bho12rcd13ifvqh1g","pricing_plan_id":"cebpf4jnsgd1na2vs0mg"},{"bike_id":"f1a46dd9-ec48-42da-9eb7-1cca11c6e74a","system_id":"levelo_inurba_marseille","lat":43.33729,"lon":5.39185,"is_reserved":false,"is_disabled":false,"rental_uris":{"android":"levelo://app?vid=f1a46dd9-ec48-42da-9eb7-1cca11c6e74a","ios":"levelo://app?vid=f1a46dd9-ec48-42da-9eb7-1cca11c6e74a"},"vehicle_type_id":"4","last_reported":1745953677,"current_range_meters":18800,"station_id":"ce4bhr92rcd13ifvqhsg","pricing_plan_id":"cebpf4jnsgd1na2vs0mg"},{"bike_id":"200a84df-3760-4448-ba2c-329f188c6681","system_id":"levelo_inurba_marseille","lat":43.29525,"lon":5.390377,"is_reserved":false,"is_disabled":false,"rental_uris":{"android":"levelo://app?vid=200a84df-3760-4448-ba2c-329f188c6681","ios":"levelo://app?vid=200a84df-3760-4448-ba2c-329f188c6681"},"vehicle_type_id":"4","last_reported":1745953677,"current_range_meters":19200,"station_id":"ce4bh3p2rcd13ifvqdp0","pricing_plan_id":"cebpf4jnsgd1na2vs0mg"},{"bike_id":"25286433-d529-45ad-8c3a-533b2544026f","system_id":"levelo_inurba_marseille","lat":43.239723,"lon":5.366247,"is_reserved":false,"is_disabled":false,"rental_uris":{"android":"levelo://app?vid=25286433-d529-45ad-8c3a-533b2544026f","ios":"levelo://app?vid=25286433-d529-45ad-8c3a-533b2544026f"},"vehicle_type_id":"4","last_reported":1745953677,"current_range_meters":18800,"station_id":"ce4bhi12rcd13ifvqfp0","pricing_plan_id":"cebpf4jnsgd1na2vs0mg"},{"bike_id":"1dae67a4-982f-4082-9872-cdfd63c93ec8","system_id":"levelo_inurba_marseille","lat":43.30901,"lon":5.39633,"is_reserved":false,"is_disabled":false,"rental_uris":{"android":"levelo://app?vid=1dae67a4-982f-4082-9872-cdfd63c93ec8","ios":"levelo://app?vid=1dae67a4-982f-4082-9872-cdfd63c93ec8"},"vehicle_type_id":"4","last_reported":1745953677,"current_range_meters":19200,"station_id":"ce4bh012rcd13ifvqcv0","pricing_plan_id":"cebpf4jnsgd1na2vs0mg"},{"bike_id":"e406431f-7e53-4370-8947-5464b4833a98","system_id":"levelo_inurba_marseille","lat":43.29305,"lon":5.37465,"is_reserved":false,"is_disabled":false,"rental_uris":{"android":"levelo://app?vid=e406431f-7e53-4370-8947-5464b4833a98","ios":"levelo://app?vid=e406431f-7e53-4370-8947-5464b4833a98"},"vehicle_type_id":"4","last_reported":1745953677,"current_range_meters":19200,"station_id":"ce4bgi12rcd13ifvqb70","pricing_plan_id":"cebpf4jnsgd1na2vs0mg"},{"bike_id":"4db389e6-5061-4f68-bf44-4aea0e0289e1","system_id":"levelo_inurba_marseille","lat":43.28699,"lon":5.38692,"is_reserved":false,"is_disabled":false,"rental_uris":{"android":"levelo://app?vid=4db389e6-5061-4f68-bf44-4aea0e0289e1","ios":"levelo://app?vid=4db389e6-5061-4f68-bf44-4aea0e0289e1"},"vehicle_type_id":"4","last_reported":1745953677,"current_range_meters":19200,"station_id":"ce4bh492rcd13ifvqdug","pricing_plan_id":"cebpf4jnsgd1na2vs0mg"},{"bike_id":"4f09461d-c671-4986-a07f-ebc4b42a43cb","system_id":"levelo_inurba_marseille","lat":43.24553,"lon":5.39529,"is_reserved":false,"is_disabled":false,"rental_uris":{"android":"levelo://app?vid=4f09461d-c671-4986-a07f-ebc4b42a43cb","ios":"levelo://app?vid=4f09461d-c671-4986-a07f-ebc4b42a43cb"},