{"last_updated":1747426266,"ttl":60,"version":"2.2","data":{"bikes":[{"bike_id":"c0b9fd4f-e181-46ce-b0bf-f5119973334f","system_id":"levelo_inurba_marseille","lat":43.33771,"lon":5.37424,"is_reserved":false,"is_disabled":false,"rental_uris":{"android":"levelo://app?vid=c0b9fd4f-e181-46ce-b0bf-f5119973334f","ios":"levelo://app?vid=c0b9fd4f-e181-46ce-b0bf-f5119973334f"},"vehicle_type_id":"4","last_reported":1747426266,"current_range_meters":8800,"station_id":"","pricing_plan_id":"cebpf4jnsgd1na2vs0mg"},{"bike_id":"bbcd6e8b-f610-452f-9b22-da46414cb8aa","system_id":"levelo_inurba_marseille","lat":43.30392,"lon":5.43002,"is_reserved":false,"is_disabled":true,"rental_uris":{"android":"levelo://app?vid=bbcd6e8b-f610-452f-9b22-da46414cb8aa","ios":"levelo://app?vid=bbcd6e8b-f610-452f-9b22-da46414cb8aa"},"vehicle_type_id":"4","last_reported":1747426266,"current_range_meters":0,"station_id":"","pricing_plan_id":"cebpf4jnsgd1na2vs0mg"},{"bike_id":"fc2577e7-1497-425b-9d4f-ab8d7dc843c6","system_id":"levelo_inurba_marseille","lat":43.33771,"lon":5.37485,"is_reserved":false,"is_disabled":true,"rental_uris":{"android":"levelo://app?vid=fc2577e7-1497-425b-9d4f-ab8d7dc843c6","ios":"levelo://app?vid=fc2577e7-1497-425b-9d4f-ab8d7dc843c6"},"vehicle_type_id":"4","last_reported":1747426266,"current_range_meters":0,"station_id":"","pricing_plan_id":"cebpf4jnsgd1na2vs0mg"},{"bike_id":"ce4325af-2448-4172-bdec-81d552ee0b62","system_id":"levelo_inurba_marseille","lat":43.26162,"lon":5.42016,"is_reserved":false,"is_disabled":true,"rental_uris":{"android":"levelo://app?vid=ce4325af-2448-4172-bdec-81d552ee0b62","ios":"levelo://app?vid=ce4325af-2448-4172-bdec-81d552ee0b62"},"vehicle_type_id":"4","last_reported":1747426266,"current_range_meters":0,"station_id":"","pricing_plan_id":"cebpf4jnsgd1na2vs0mg"},{"bike_id":"8114f75d-3428-4f78-a08d-562d8a1664ba","system_id":"levelo_inurba_marseille","lat":43.25106,"lon":5.4032,"is_reserved":false,"is_disabled":true,"rental_uris":{"android":"levelo://app?vid=8114f75d-3428-4f78-a08d-562d8a1664ba","ios":"levelo://app?vid=8114f75d-3428-4f78-a08d-562d8a1664ba"},"vehicle_type_id":"4","last_reported":1747426266,"current_range_meters":0,"station_id":"","pricing_plan_id":"cebpf4jnsgd1na2vs0mg"},{"bike_id":"2b8fbf5f-4106-421b-bd48-29543ccb14db","system_id":"levelo_inurba_marseille","lat":43.23702,"lon":5.36297,"is_reserved":false,"is_disabled":true,"rental_uris":{"android":"levelo://app?vid=2b8fbf5f-4106-421b-bd48-29543ccb14db","ios":"levelo://app?vid=2b8fbf5f-4106-421b-bd48-29543ccb14db"},"vehicle_type_id":"4","last_reported":1747426266,"current_range_meters":0,"station_id":"","pricing_plan_id":"cebpf4jnsgd1na2vs0mg"},{"bike_id":"5de4311e-acc0-4747-9be3-06bcfa4d137e","system_id":"levelo_inurba_marseille","lat":43.31992,"lon":5.38734,"is_reserved":false,"is_disabled":true,"rental_uris":{"android":"levelo://app?vid=5de4311e-acc0-4747-9be3-06bcfa4d137e","ios":"levelo://app?vid=5de4311e-acc0-4747-9be3-06bcfa4d137e"},"vehicle_type_id":"4","last_reported":1747426266,"current_range_meters":0,"station_id":"","pricing_plan_id":"cebpf4jnsgd1na2vs0mg"},{"bike_id":"792567c6-0442-4011-aff0-9c05e25deb48","system_id":"levelo_inurba_marseille","lat":43.337444,"lon":5.374475,"is_reserved":false,"is_disabled":true,"rental_uris":{"android":"levelo://app?vid=792567c6-0442-4011-aff0-9c05e25deb48","ios":"levelo://app?vid=792567c6-0442-4011-aff0-9c05e25deb48"},"vehicle_type_id":"4","last_reported":1747426266,"current_range_meters":0,"station_id":"","pricing_plan_id":"cebpf4jnsgd1na2vs0mg"},{"bike_id":"5d5f5755-5b3b-4308-8b78-c8614cdd189d","system_id":"levelo_inurba_marseille","lat":43.29307,"lon":5.37171,"is_reserved":false,"is_disabled":true,"rental_uris":{"android":"levelo://app?vid=5d5f5755-5b3b-4308-8b78-c8614cdd189d","ios":"levelo://app?vid=5d5f5755-5b3b-4308-8b78-c8614cdd189d"},"vehicle_type_id":"4","last_reported":1747426266,"current_range_meters":0,"station_id":"ce4bgh92rcd13ifvqb40","pricing_plan_id":"cebpf4jnsgd1na2vs0mg"},{"bike_id":"c76627a0-ca3e-4fc2-bf07-b1fcfe42393b","system_id":"levelo_inurba_marseille","lat":43.29818,"lon":5.38104,"is_reserved":false,"is_disabled":true,"rental_uris":{"android":"levelo://app?vid=c76627a0-ca3e-4fc2-bf07-b1fcfe42393b","ios":"levelo://app?vid=c76627a0-ca3e-4fc2-bf07-b1fcfe42393b"},"vehicle_type_id":"4","last_reported":1747426266,"current_range_meters":0,"station_id":"ce4bgip2rcd13ifvqbb0","pricing_plan_id":"cebpf4jnsgd1na2vs0mg"},{"bike_id":"e9823a95-cef2-41ae-b813-eda449f88b6e","system_id":"levelo_inurba_marseille","lat":43.29603,"lon":5.38113,"is_reserved":false,"is_disabled":true,"rental_uris":{"android":"levelo://app?vid=e9823a95-cef2-41ae-b813-eda449f88b6e","ios":"levelo://app?vid=e9823a95-cef2-41ae-b813-eda449f88b6e"},"vehicle_type_id":"4","last_reported":1747426266,"current_range_meters":0,"station_id":"ce4bgl12rcd13ifvqbo0","pricing_plan_id":"cebpf4jnsgd1na2vs0mg"},{"bike_id":"3b0b2349-4c99-456a-b9d4-a7093c24eafd","system_id":"levelo_inurba_marseille","lat":43.30539,"lon":5.3656,"is_reserved":false,"is_disabled":true,"rental_uris":{"android":"levelo://app?vid=3b0b2349-4c99-456a-b9d4-a7093c24eafd","ios":"levelo://app?vid=3b0b2349-4c99-456a-b9d4-a7093c24eafd"},"vehicle_type_id":"4","last_reported":1747426266,"current_range_meters":0,"station_id":"ce4bgs12rcd13ifvqcag","pricing_plan_id":"cebpf4jnsgd1na2vs0mg"},{"bike_id":"25262ff5-2d66-4c22-8ef1-fb01417dd7c9","system_id":"levelo_inurba_marseille","lat":43.30597,"lon":5.39358,"is_reserved":false,"is_disabled":true,"rental_uris":{"android":"levelo://app?vid=25262ff5-2d66-4c22-8ef1-fb01417dd7c9","ios":"levelo://app?vid=25262ff5-2d66-4c22-8ef1-fb01417dd7c9"},"vehicle_type_id":"4","last_reported":1747426266,"current_range_meters":0,"station_id":"ce4bh0p2rcd13ifvqd80","pricing_plan_id":"cebpf4jnsgd1na2vs0mg"},{"bike_id":"dc881b47-c605-47dd-90f6-31f60927de06","system_id":"levelo_inurba_marseille","lat":43.284159,"lon":5.375072,"is_reserved":false,"is_disabled":true,"rental_uris":{"android":"levelo://app?vid=dc881b47-c605-47dd-90f6-31f60927de06","ios":"levelo://app?vid=dc881b47-c605-47dd-90f6-31f60927de06"},"vehicle_type_id":"4","last_reported":1747426266,"current_range_meters":0,"station_id":"ce4bh412rcd13ifvqds0","pricing_plan_id":"cebpf4jnsgd1na2vs0mg"},{"bike_id":"1ef95b40-438e-48e5-ae73-ca827068fbb9","system_id":"levelo_inurba_marseille","lat":43.28098,"lon":5.37837,"is_reserved":false,"is_disabled":true,"rental_uris":{"android":"levelo://app?vid=1ef95b40-438e-48e5-ae73-ca827068fbb9","ios":"levelo://app?vid=1ef95b40-438e-48e5-ae73-ca827068fbb9"},"vehicle_type_id":"4","last_reported":1747426266,"current_range_meters":0,"station_id":"ce4bha12rcd13ifvqee0","pricing_plan_id":"cebpf4jnsgd1na2vs0mg"},{"bike_id":"845967ab-f415-426e-af4c-b33289beb670","system_id":"levelo_inurba_marseille","lat":43.24387,"lon":5.37065,"is_reserved":false,"is_disabled":true,"rental_uris":{"android":"levelo://app?vid=845967ab-f415-426e-af4c-b33289beb670","ios":"levelo://app?vid=845967ab-f415-426e-af4c-b33289beb670"},"vehicle_type_id":"4","last_reported":1747426266,"current_range_meters":0,"station_id":"ce4bhhh2rcd13ifvqfk0","pricing_plan_id":"cebpf4jnsgd1na2vs0mg"},{"bike_id":"bcc06487-1ae6-444a-8572-63a9a5244cab","system_id":"levelo_inurba_marseille","lat":43.29554,"lon":5.42291,"is_reserved":false,"is_disabled":true,"rental_uris":{"android":"levelo://app?vid=bcc06487-1ae6-444a-8572-63a9a5244cab","ios":"levelo://app?vid=bcc06487-1ae6-444a-8572-63a9a5244cab"},"vehicle_type_id":"4","last_reported":1747426266,"current_range_meters":800,"station_id":"","pricing_plan_id":"cebpf4jnsgd1na2vs0mg"},{"bike_id":"0322f8c0-478a-4036-9bba-8fce70858e9a","system_id":"levelo_inurba_marseille","lat":43.28204,"lon":5.34915,"is_reserved":false,"is_disabled":true,"rental_uris":{"android":"levelo://app?vid=0322f8c0-478a-4036-9bba-8fce70858e9a","ios":"levelo://app?vid=0322f8c0-478a-4036-9bba-8fce70858e9a"},"vehicle_type_id":"4","last_reported":1747426266,"current_range_meters":800,"station_id":"","pricing_plan_id":"cebpf4jnsgd1na2vs0mg"},{"bike_id":"8ccc5b6d-df77-43f3-b329-205260c12043","system_id":"levelo_inurba_marseille","lat":43.30144,"lon":5.3807,"is_reserved":false,"is_disabled":true,"rental_uris":{"android":"levelo://app?vid=8ccc5b6d-df77-43f3-b329-205260c12043","ios":"levelo://app?vid=8ccc5b6d-df77-43f3-b329-205260c12043"},"vehicle_type_id":"4","last_reported":1747426266,"current_range_meters":800,"station_id":"ce4bgjp2rcd13ifvqbh0","pricing_plan_id":"cebpf4jnsgd1na2vs0mg"},{"bike_id":"866488fd-4813-47fb-8539-349475bb60fb","system_id":"levelo_inurba_marseille","lat":43.29802,"lon":5.4039,"is_reserved":false,"is_disabled":true,"rental_uris":{"android":"levelo://app?vid=866488fd-4813-47fb-8539-349475bb60fb","ios":"levelo://app?vid=866488fd-4813-47fb-8539-349475bb60fb"},"vehicle_type_id":"4","last_reported":1747426266,"current_range_meters":800,"station_id":"ce4bh112rcd13ifvqd90","pricing_plan_id":"cebpf4jnsgd1na2vs0mg"},{"bike_id":"72d8b40a-00c7-46e5-b69d-7634d78f945b","system_id":"levelo_inurba_marseille","lat":43.29281,"lon":5.40111,"is_reserved":false,"is_disabled":true,"rental_uris":{"android":"levelo://app?vid=72d8b40a-00c7-46e5-b69d-7634d78f945b","ios":"levelo://app?vid=72d8b40a-00c7-46e5-b69d-7634d78f945b"},"vehicle_type_id":"4","last_reported":1747426266,"current_range_meters":800,"station_id":"ce4bh312rcd13ifvqdk0","pricing_plan_id":"cebpf4jnsgd1na2vs0mg"},{"bike_id":"c086f16f-64bd-4753-832f-ad92611b3536","system_id":"levelo_inurba_marseille","lat":43.28154,"lon":5.42642,"is_reserved":false,"is_disabled":true,"rental_uris":{"android":"levelo://app?vid=c086f16f-64bd-4753-832f-ad92611b3536","ios":"levelo://app?vid=c086f16f-64bd-4753-832f-ad92611b3536"},"vehicle_type_id":"4","last_reported":1747426266,"current_range_meters":800,"station_id":"ce4bhnh2rcd13ifvqgug","pricing_plan_id":"cebpf4jnsgd1na2vs0mg"},{"bike_id":"329b59ed-7053-47c3-a7dc-1355921aad51","system_id":"levelo_inurba_marseille","lat":43.30377,"lon":5.42485,"is_reserved":false,"is_disabled":true,"rental_uris":{"android":"levelo://app?vid=329b59ed-7053-47c3-a7dc-1355921aad51","ios":"levelo://app?vid=329b59ed-7053-47c3-a7dc-1355921aad51"},"vehicle_type_id":"4","last_reported":1747426266,"current_range_meters":800,"station_id":"ce4bhoh2rcd13ifvqh6g","pricing_plan_id":"cebpf4jnsgd1na2vs0mg"},{"bike_id":"610a7ca5-7649-44e5-913e-926d4d7778bb","system_id":"levelo_inurba_marseille","lat":43.28485,"lon":5.39885,"is_reserved":false,"is_disabled":true,"rental_uris":{"android":"levelo://app?vid=610a7ca5-7649-44e5-913e-926d4d7778bb","ios":"levelo://app?vid=610a7ca5-7649-44e5-913e-926d4d7778bb"},"vehicle_type_id":"4","last_reported":1747426266,"current_range_meters":1600,"station_id":"","pricing_plan_id":"cebpf4jnsgd1na2vs0mg"},{"bike_id":"c20a6864-c3ae-4a53-8cb9-cf3f11299baf","system_id":"levelo_inurba_marseille","lat":43.30328,"lon":5.40426,"is_reserved":false,"is_disabled":true,"rental_uris":{"android":"levelo://app?vid=c20a6864-c3ae-4a53-8cb9-cf3f11299baf","ios":"levelo://app?vid=c20a6864-c3ae-4a53-8cb9-cf3f11299baf"},"vehicle_type_id":"4","last_reported":1747426266,"current_range_meters":1600,"station_id":"ce4bh012rcd13ifvqd10","pricing_plan_id":"cebpf4jnsgd1na2vs0mg"},{"bike_id":"86316fd7-ee10-47b3-b96f-06be3316612a","system_id":"levelo_inurba_marseille","lat":43.27972,"lon":5.38741,"is_reserved":false,"is_disabled":true,"rental_uris":{"android":"levelo://app?vid=86316fd7-ee10-47b3-b96f-06be3316612a","ios":"levelo://app?vid=86316fd7-ee10-47b3-b96f-06be3316612a"},"vehicle_type_id":"4","last_reported":1747426266,"current_range_meters":1600,"station_id":"ce4bhg12rcd13ifvqf80","pricing_plan_id":"cebpf4jnsgd1na2vs0mg"},{"bike_id":"954599f7-32d9-4161-b053-62eedb5e03ff","system_id":"levelo_inurba_marseille","lat":43.25497,"lon":5.37649,"is_reserved":false,"is_disabled":true,"rental_uris":{"android":"levelo://app?vid=954599f7-32d9-4161-b053-62eedb5e03ff","ios":"levelo://app?vid=954599f7-32d9-4161-b053-62eedb5e03ff"},"vehicle_type_id":"4","last_reported":1747426266,"current_range_meters":1600,"station_id":"ce4bhh12rcd13ifvqff0","pricing_plan_id":"cebpf4jnsgd1na2vs0mg"},{"bike_id":"00957a55-e4f2-4854-8028-cfe2babf9a73","system_id":"levelo_inurba_marseille","lat":43.30372,"lon":5.42486,"is_reserved":false,"is_disabled":true,"rental_uris":{"android":"levelo://app?vid=00957a55-e4f2-4854-8028-cfe2babf9a73","ios":"levelo://app?vid=00957a55-e4f2-4854-8028-cfe2babf9a73"},"vehicle_type_id":"4","last_reported":1747426266,"current_range_meters":1600,"station_id":"ce4bhoh2rcd13ifvqh6g","pricing_plan_id":"cebpf4jnsgd1na2vs0mg"},{"bike_id":"c8107b40-4e78-47e4-a23d-10a935f8e353","system_id":"levelo_inurba_marseille","lat":43.26866,"lon":5.37039,"is_reserved":false,"is_disabled":true,"rental_uris":{"android":"levelo://app?vid=c8107b40-4e78-47e4-a23d-10a935f8e353","ios":"levelo://app?vid=c8107b40-4e78-47e4-a23d-10a935f8e353"},"vehicle_type_id":"4","last_reported":1747426266,"current_range_meters":2000,"station_id":"","pricing_plan_id":"cebpf4jnsgd1na2vs0mg"},{"bike_id":"8eb1f58f-aa4f-4974-816f-c27c18b7dfee","system_id":"levelo_inurba_marseille","lat":43.2464,"lon":5.38892,"is_reserved":false,"is_disabled":true,"rental_uris":{"android":"levelo://app?vid=8eb1f58f-aa4f-4974-816f-c27c18b7dfee","ios":"levelo://app?vid=8eb1f58f-aa4f-4974-816f-c27c18b7dfee"},"vehicle_type_id":"4","last_reported":1747426266,"current_range_meters":2000,"station_id":"ce4bhg12rcd13ifvqf60","pricing_plan_id":"cebpf4jnsgd1na2vs0mg"},{"bike_id":"770e5e16-de24-4200-8062-b84849f44714","system_id":"levelo_inurba_marseille","lat":43.27068,"lon":5.42277,"is_reserved":false,"is_disabled":true,"rental_uris":{"android":"levelo://app?vid=770e5e16-de24-4200-8062-b84849f44714","ios":"levelo://app?vid=770e5e16-de24-4200-8062-b84849f44714"},"vehicle_type_id":"4","last_reported":1747426266,"current_range_meters":2000,"station_id":"ce4bhk92rcd13ifvqgb0","pricing_plan_id":"cebpf4jnsgd1na2vs0mg"},{"bike_id":"7eb7be2d-3eec-4648-b495-0d532492ed4d","system_id":"levelo_inurba_marseille","lat":43.231956,"lon":5.355465,"is_reserved":false,"is_disabled":false,"rental_uris":{"android":"levelo://app?vid=7eb7be2d-3eec-4648-b495-0d532492ed4d","ios":"levelo://app?vid=7eb7be2d-3eec-4648-b495-0d532492ed4d"},"vehicle_type_id":"4","last_reported":1747426266,"current_range_meters":2800,"station_id":"","pricing_plan_id":"cebpf4jnsgd1na2vs0mg"},{"bike_id":"9e42f3c4-fa11-46ca-9d81-5e5b048233de","system_id":"levelo_inurba_marseille","lat":43.30953,"lon":5.39031,"is_reserved":false,"is_disabled":false,"rental_uris":{"android":"levelo://app?vid=9e42f3c4-fa11-46ca-9d81-5e5b048233de","ios":"levelo://app?vid=9e42f3c4-fa11-46ca-9d81-5e5b048233de"},"vehicle_type_id":"4","last_reported":1747426266,"current_range_meters":2800,"station_id":"ce4bgup2rcd13ifvqco0","pricing_plan_id":"cebpf4jnsgd1na2vs0mg"},{"bike_id":"78f00c5b-03d1-45c4-96c4-b3642049cf04","system_id":"levelo_inurba_marseille","lat":43.29308,"lon":5.37167,"is_reserved":false,"is_disabled":false,"rental_uris":{"android":"levelo://app?vid=78f00c5b-03d1-45c4-96c4-b3642049cf04","ios":"levelo://app?vid=78f00c5b-03d1-45c4-96c4-b3642049cf04"},"vehicle_type_id":"4","last_reported":1747426266,"current_range_meters":3200,"station_id":"ce4bgh92rcd13ifvqb40","pricing_plan_id":"cebpf4jnsgd1na2vs0mg"},{"bike_id":"367dc4bd-eae7-43c4-ba07-2b00ade41917","system_id":"levelo_inurba_marseille","lat":43.31213,"lon":5.36839,"is_reserved":false,"is_disabled":false,"rental_uris":{"android":"levelo://app?vid=367dc4bd-eae7-43c4-ba07-2b00ade41917","ios":"levelo://app?vid=367dc4bd-eae7-43c4-ba07-2b00ade41917"},"vehicle_type_id":"4","last_reported":1747426266,"current_range_meters":3200,"station_id":"ce4bgl92rcd13ifvqbq0","pricing_plan_id":"cebpf4jnsgd1na2vs0mg"},{"bike_id":"b551a6c2-6f14-4eff-a66f-a08e2ba9af39","system_id":"levelo_inurba_marseille","lat":43.26568,"lon":5.39005,"is_reserved":false,"is_disabled":false,"rental_uris":{"android":"levelo://app?vid=b551a6c2-6f14-4eff-a66f-a08e2ba9af39","ios":"levelo://app?vid=b551a6c2-6f14-4eff-a66f-a08e2ba9af39"},"vehicle_type_id":"4","last_reported":1747426266,"current_range_meters":3200,"station_id":"ce4bhe12rcd13ifvqf30","pricing_plan_id":"cebpf4jnsgd1na2vs0mg"},{"bike_id":"5dcf12ed-9195-4264-af6f-3cd210d2a9ac","system_id":"levelo_inurba_marseille","lat":43.284475,"lon":5.392081,"is_reserved":false,"is_disabled":false,"rental_uris":{"android":"levelo://app?vid=5dcf12ed-9195-4264-af6f-3cd210d2a9ac","ios":"levelo://app?vid=5dcf12ed-9195-4264-af6f-3cd210d2a9ac"},"vehicle_type_id":"4","last_reported":1747426266,"current_range_meters":4000,"station_id":"ce4bhoh2rcd13ifvqh5g","pricing_plan_id":"cebpf4jnsgd1na2vs0mg"},{"bike_id":"5aba5c66-0abf-4580-bd51-e2431d77043d","system_id":"levelo_inurba_marseille","lat":43.30789,"lon":5.38162,"is_reserved":false,"is_disabled":false,"rental_uris":{"android":"levelo://app?vid=5aba5c66-0abf-4580-bd51-e2431d77043d","ios":"levelo://app?vid=5aba5c66-0abf-4580-bd51-e2431d77043d"},"vehicle_type_id":"4","last_reported":1747426266,"current_range_meters":4400,"station_id":"ce4bgt12rcd13ifvqce0","pricing_plan_id":"cebpf4jnsgd1na2vs0mg"},{"bike_id":"bac2ae93-5843-4ea5-a381-a5f918acd166","system_id":"levelo_inurba_marseille","lat":43.28849,"lon":5.35867,"is_reserved":false,"is_disabled":false,"rental_uris":{"android":"levelo://app?vid=bac2ae93-5843-4ea5-a381-a5f918acd166","ios":"levelo://app?vid=bac2ae93-5843-4ea5-a381-a5f918acd166"},"vehicle_type_id":"4","last_reported":1747426266,"current_range_meters":4400,"station_id":"ce4bhb12rcd13ifvqem0","pricing_plan_id":"cebpf4jnsgd1na2vs0mg"},{"bike_id":"d934e071-d270-4f28-95a5-3c952d1d912f","system_id":"levelo_inurba_marseille","lat":43.24998,"lon":5.38926,"is_reserved":false,"is_disabled":false,"rental_uris":{"android":"levelo://app?vid=d934e071-d270-4f28-95a5-3c952d1d912f","ios":"levelo://app?vid=d934e071-d270-4f28-95a5-3c952d1d912f"},"vehicle_type_id":"4","last_reported":1747426266,"current_range_meters":4400,"station_id":"ce4bhgp2rcd13ifvqfd0","pricing_plan_id":"cebpf4jnsgd1na2vs0mg"},{"bike_id":"14c27556-5ed1-4a53-bcd6-ce310e890378","system_id":"levelo_inurba_marseille","lat":43.25497,"lon":5.37648,"is_reserved":false,"is_disabled":false,"rental_uris":{"android":"levelo://app?vid=14c27556-5ed1-4a53-bcd6-ce310e890378","ios":"levelo://app?vid=14c27556-5ed1-4a53-bcd6-ce310e890378"},"vehicle_type_id":"4","last_reported":1747426266,"current_range_meters":4400,"station_id":"ce4bhh12rcd13ifvqff0","pricing_plan_id":"cebpf4jnsgd1na2vs0mg"},{"bike_id":"c1a281db-7514-49a1-adbb-d7297645a5e2","system_id":"levelo_inurba_marseille","lat":43.25583,"lon":5.38229,"is_reserved":false,"is_disabled":false,"rental_uris":{"android":"levelo://app?vid=c1a281db-7514-49a1-adbb-d7297645a5e2","ios":"levelo://app?vid=c1a281db-7514-49a1-adbb-d7297645a5e2"},"vehicle_type_id":"4","last_reported":1747426266,"current_range_meters":4400,"station_id":"ce4bhih2rcd13ifvqfs0","pricing_plan_id":"cebpf4jnsgd1na2vs0mg"},{"bike_id":"1db1738c-40cd-42e3-9fa6-44794401c0ae","system_id":"levelo_inurba_marseille","lat":43.25861,"lon":5.39902,"is_reserved":false,"is_disabled":false,"rental_uris":{"android":"levelo://app?vid=1db1738c-40cd-42e3-9fa6-44794401c0ae","ios":"levelo://app?vid=1db1738c-40cd-42e3-9fa6-44794401c0ae"},"vehicle_type_id":"4","last_reported":1747426266,"current_range_meters":4400,"station_id":"ce4bhl92rcd13ifvqghg","pricing_plan_id":"cebpf4jnsgd1na2vs0mg"},{"bike_id":"738913b9-b6e5-47fe-9e14-55fba01163ef","system_id":"levelo_inurba_marseille","lat":43.28153,"lon":5.42644,"is_reserved":false,"is_disabled":false,"rental_uris":{"android":"levelo://app?vid=738913b9-b6e5-47fe-9e14-55fba01163ef","ios":"levelo://app?vid=738913b9-b6e5-47fe-9e14-55fba01163ef"},"vehicle_type_id":"4","last_reported":1747426266,"current_range_meters":4400,"station_id":"ce4bhnh2rcd13ifvqgug","pricing_plan_id":"cebpf4jnsgd1na2vs0mg"},{"bike_id":"767ed713-dbc8-4cdd-8a42-d73e2810bc01","system_id":"levelo_inurba_marseille","lat":43.24168,"lon":5.36389,"is_reserved":false,"is_disabled":false,"rental_uris":{"android":"levelo://app?vid=767ed713-dbc8-4cdd-8a42-d73e2810bc01","ios":"levelo://app?vid=767ed713-dbc8-4cdd-8a42-d73e2810bc01"},"vehicle_type_id":"4","last_reported":1747426266,"current_range_meters":4400,"station_id":"cpo36qri1sfpv3e86is0","pricing_plan_id":"cebpf4jnsgd1na2vs0mg"},{"bike_id":"80d0d83f-909d-4568-b4e7-8a3ef4eed2de","system_id":"levelo_inurba_marseille","lat":43.25369,"lon":5.41894,"is_reserved":false,"is_disabled":false,"rental_uris":{"android":"levelo://app?vid=80d0d83f-909d-4568-b4e7-8a3ef4eed2de","ios":"levelo://app?vid=80d0d83f-909d-4568-b4e7-8a3ef4eed2de"},"vehicle_type_id":"4","last_reported":1747426266,"current_range_meters":4800,"station_id":"","pricing_plan_id":"cebpf4jnsgd1na2vs0mg"},{"bike_id":"721965bd-97ef-48f2-b33f-fc05b1f2a50a","system_id":"levelo_inurba_marseille","lat":43.261987,"lon":5.379217,"is_reserved":false,"is_disabled":false,"rental_uris":{"android":"levelo://app?vid=721965bd-97ef-48f2-b33f-fc05b1f2a50a","ios":"levelo://app?vid=721965bd-97ef-48f2-b33f-fc05b1f2a50a"},"vehicle_type_id":"4","last_reported":1747426266,"current_range_meters":4800,"station_id":"ce4bhjp2rcd13ifvqg90","pricing_plan_id":"cebpf4jnsgd1na2vs0mg"},{"bike_id":"497ef34d-f9d2-43be-8888-1c3e29812a6e","system_id":"levelo_inurba_marseille","lat":43.28705,"lon":5.39991,"is_reserved":false,"is_disabled":false,"rental_uris":{"android":"levelo://app?vid=497ef34d-f9d2-43be-8888-1c3e29812a6e","ios":"levelo://app?vid=497ef34d-f9d2-43be-8888-1c3e29812a6e"},"vehicle_type_id":"4","last_reported":1747426266,"current_range_meters":4800,"station_id":"ce4bho92rcd13ifvqh3g","pricing_plan_id":"cebpf4jnsgd1na2vs0mg"},{"bike_id":"31d308d2-132e-49c6-86ca-fe3d428e711f","system_id":"levelo_inurba_marseille","lat":43.29077,"lon":5.37161,"is_reserved":false,"is_disabled":false,"rental_uris":{"android":"levelo://app?vid=31d308d2-132e-49c6-86ca-fe3d428e711f","ios":"levelo://app?vid=31d308d2-132e-49c6-86ca-fe3d428e711f"},"vehicle_type_id":"4","last_reported":1747426266,"current_range_meters":5600,"station_id":"ce4bh5p2rcd13ifvqe4g","pricing_plan_id":"cebpf4jnsgd1na2vs0mg"},{"bike_id":"e570e3df-aafd-4cd1-9b94-1d72ef6fe975","system_id":"levelo_inurba_marseille","lat":43.25882,"lon":5.39898,"is_reserved":false,"is_disabled":false,"rental_uris":{"android":"levelo://app?vid=e570e3df-aafd-4cd1-9b94-1d72ef6fe975","ios":"levelo://app?vid=e570e3df-aafd-4cd1-9b94-1d72ef6fe975"},"vehicle_type_id":"4","last_reported":1747426266,"current_range_meters":5600,"station_id":"ce4bhl92rcd13ifvqghg","pricing_plan_id":"cebpf4jnsgd1na2vs0mg"},{"bike_id":"aec5af64-5758-4d49-b2f9-eff089336aac","system_id":"levelo_inurba_marseille","lat":43.28082,"lon":5.39654,"is_reserved":false,"is_disabled":false,"rental_uris":{"android":"levelo://app?vid=aec5af64-5758-4d49-b2f9-eff089336aac","ios":"levelo://app?vid=aec5af64-5758-4d49-b2f9-eff089336aac"},"vehicle_type_id":"4","last_reported":1747426266,"current_range_meters":5600,"station_id":"ce4bho12rcd13ifvqh2g","pricing_plan_id":"cebpf4jnsgd1na2vs0mg"},{"bike_id":"2bab17d0-bbf0-486c-a7e3-cd980966d6ad","system_id":"levelo_inurba_marseille","lat":43.30548,"lon":5.36545,"is_reserved":false,"is_disabled":false,"rental_uris":{"android":"levelo://app?vid=2bab17d0-bbf0-486c-a7e3-cd980966d6ad","ios":"levelo://app?vid=2bab17d0-bbf0-486c-a7e3-cd980966d6ad"},"vehicle_type_id":"4","last_reported":1747426266,"current_range_meters":6000,"station_id":"ce4bgs12rcd13ifvqcag","pricing_plan_id":"cebpf4jnsgd1na2vs0mg"},{"bike_id":"82032e32-599c-4c0d-88cd-f7610cb592e9","system_id":"levelo_inurba_marseille","lat":43.305433,"lon":5.365417,"is_reserved":false,"is_disabled":false,"rental_uris":{"android":"levelo://app?vid=82032e32-599c-4c0d-88cd-f7610cb592e9","ios":"levelo://app?vid=82032e32-599c-4c0d-88cd-f7610cb592e9"},"vehicle_type_id":"4","last_reported":1747426266,"current_range_meters":6000,"station_id":"ce4bgs12rcd13ifvqcag","pricing_plan_id":"cebpf4jnsgd1na2vs0mg"},{"bike_id":"44b99538-fb26-4f4c-9469-128b12406ff3","system_id":"levelo_inurba_marseille","lat":43.28664,"lon":5.36344,"is_reserved":false,"is_disabled":false,"rental_uris":{"android":"levelo://app?vid=44b99538-fb26-4f4c-9469-128b12406ff3","ios":"levelo://app?vid=44b99538-fb26-4f4c-9469-128b12406ff3"},"vehicle_type_id":"4","last_reported":1747426266,"current_range_meters":6000,"station_id":"ce4bhah2rcd13ifvqej0","pricing_plan_id":"cebpf4jnsgd1na2vs0mg"},{"bike_id":"68df7bc4-c2ef-4bde-8d58-93d8951ebb4d","system_id":"levelo_inurba_marseille","lat":43.29223,"lon":5.40007,"is_reserved":false,"is_disabled":false,"rental_uris":{"android":"levelo://app?vid=68df7bc4-c2ef-4bde-8d58-93d8951ebb4d","ios":"levelo://app?vid=68df7bc4-c2ef-4bde-8d58-93d8951ebb4d"},"vehicle_type_id":"4","last_reported":1747426266,"current_range_meters":6400,"station_id":"","pricing_plan_id":"cebpf4jnsgd1na2vs0mg"},{"bike_id":"435018a6-be7f-422b-8207-12f74bd632df","system_id":"levelo_inurba_marseille","lat":43.298999,"lon":5.436724,"is_reserved":false,"is_disabled":false,"rental_uris":{"android":"levelo://app?vid=435018a6-be7f-422b-8207-12f74bd632df","ios":"levelo://app?vid=435018a6-be7f-422b-8207-12f74bd632df"},"vehicle_type_id":"4","last_reported":1747426266,"current_range_meters":6400,"station_id":"ce4bhpp2rcd13ifvqhfg","pricing_plan_id":"cebpf4jnsgd1na2vs0mg"},{"bike_id":"9db35697-a078-4e16-bf27-84cab7a76a6f","system_id":"levelo_inurba_marseille","lat":43.301482,"lon":5.380789,"is_reserved":false,"is_disabled":false,"rental_uris":{"android":"levelo://app?vid=9db35697-a078-4e16-bf27-84cab7a76a6f","ios":"levelo://app?vid=9db35697-a078-4e16-bf27-84cab7a76a6f"},"vehicle_type_id":"4","last_reported":1747426266,"current_range_meters":6800,"station_id":"ce4bgjp2rcd13ifvqbh0","pricing_plan_id":"cebpf4jnsgd1na2vs0mg"},{"bike_id":"3b06134a-11bb-40f2-8f65-0d310e9c4b44","system_id":"levelo_inurba_marseille","lat":43.30208,"lon":5.39469,"is_reserved":false,"is_disabled":false,"rental_uris":{"android":"levelo://app?vid=3b06134a-11bb-40f2-8f65-0d310e9c4b44","ios":"levelo://app?vid=3b06134a-11bb-40f2-8f65-0d310e9c4b44"},"vehicle_type_id":"4","last_reported":1747426266,"current_range_meters":6800,"station_id":"ce4bh0p2rcd13ifvqd70","pricing_plan_id":"cebpf4jnsgd1na2vs0mg"},{"bike_id":"5ff43c8f-6e3a-49a1-a714-46bafe896c6f","system_id":"levelo_inurba_marseille","lat":43.2607,"lon":5.39395,"is_reserved":false,"is_disabled":false,"rental_uris":{"android":"levelo://app?vid=5ff43c8f-6e3a-49a1-a714-46bafe896c6f","ios":"levelo://app?vid=5ff43c8f-6e3a-49a1-a714-46bafe896c6f"},"vehicle_type_id":"4","last_reported":1747426266,"current_range_meters":6800,"station_id":"ce4bhh92rcd13ifvqfj0","pricing_plan_id":"cebpf4jnsgd1na2vs0mg"},{"bike_id":"6fa9e772-3d07-48cc-af00-0a04d4ffa1a2","system_id":"levelo_inurba_marseille","lat":43.25108,"lon":5.40327,"is_reserved":false,"is_disabled":false,"rental_uris":{"android":"levelo://app?vid=6fa9e772-3d07-48cc-af00-0a04d4ffa1a2","ios":"levelo://app?vid=6fa9e772-3d07-48cc-af00-0a04d4ffa1a2"},"vehicle_type_id":"4","last_reported":1747426266,"current_range_meters":6800,"station_id":"ce4bhlh2rcd13ifvqgig","pricing_plan_id":"cebpf4jnsgd1na2vs0mg"},{"bike_id":"ec2cf44a-d2ce-40ed-aaeb-ddb24e07b8b0","system_id":"levelo_inurba_marseille","lat":43.23196,"lon":5.39977,"is_reserved":false,"is_disabled":false,"rental_uris":{"android":"levelo://app?vid=ec2cf44a-d2ce-40ed-aaeb-ddb24e07b8b0","ios":"levelo://app?vid=ec2cf44a-d2ce-40ed-aaeb-ddb24e07b8b0"},"vehicle_type_id":"4","last_reported":1747426266,"current_range_meters":6800,"station_id":"ce4bhn12rcd13ifvqgqg","pricing_plan_id":"cebpf4jnsgd1na2vs0mg"},{"bike_id":"922472ec-a397-4116-b44c-650bc256207a","system_id":"levelo_inurba_marseille","lat":43.241715,"lon":5.363984,"is_reserved":false,"is_disabled":false,"rental_uris":{"android":"levelo://app?vid=922472ec-a397-4116-b44c-650bc256207a","ios":"levelo://app?vid=922472ec-a397-4116-b44c-650bc256207a"},"vehicle_type_id":"4","last_reported":1747426266,"current_range_meters":6800,"station_id":"cpo36qri1sfpv3e86is0","pricing_plan_id":"cebpf4jnsgd1na2vs0mg"},{"bike_id":"d93d0c6d-be90-4a1f-bc81-4d02d1453c4b","system_id":"levelo_inurba_marseille","lat":43.22505,"lon":5.34788,"is_reserved":false,"is_disabled":false,"rental_uris":{"android":"levelo://app?vid=d93d0c6d-be90-4a1f-bc81-4d02d1453c4b","ios":"levelo://app?vid=d93d0c6d-be90-4a1f-bc81-4d02d1453c4b"},"vehicle_type_id":"4","last_reported":1747426266,"current_range_meters":6800,"station_id":"st_cvj5dfep6f1abm77gieg","pricing_plan_id":"cebpf4jnsgd1na2vs0mg"},{"bike_id":"f768f02c-a770-46ed-b9fb-ed1e435a3c0f","system_id":"levelo_inurba_marseille","lat":43.329401,"lon":5.390082,"is_reserved":false,"is_disabled":false,"rental_uris":{"android":"levelo://app?vid=f768f02c-a770-46ed-b9fb-ed1e435a3c0f","ios":"levelo://app?vid=f768f02c-a770-46ed-b9fb-ed1e435a3c0f"},"vehicle_type_id":"4","last_reported":1747426266,"current_range_meters":7200,"station_id":"","pricing_plan_id":"cebpf4jnsgd1na2vs0mg"},{"bike_id":"e2928bec-34a3-4b1b-ba3b-926bb36f7601","system_id":"levelo_inurba_marseille","lat":43.29981,"lon":5.385,"is_reserved":false,"is_disabled":false,"rental_uris":{"android":"levelo://app?vid=e2928bec-34a3-4b1b-ba3b-926bb36f7601","ios":"levelo://app?vid=e2928bec-34a3-4b1b-ba3b-926bb36f7601"},"vehicle_type_id":"4","last_reported":1747426266,"current_range_meters":7200,"station_id":"ce4bgj92rcd13ifvqbd0","pricing_plan_id":"cebpf4jnsgd1na2vs0mg"},{"bike_id":"d873d8cf-defd-41d8-9e44-608cf312dda2","system_id":"levelo_inurba_marseille","lat":43.31062,"lon":5.38347,"is_reserved":false,"is_disabled":false,"rental_uris":{"android":"levelo://app?vid=d873d8cf-defd-41d8-9e44-608cf312dda2","ios":"levelo://app?vid=d873d8cf-defd-41d8-9e44-608cf312dda2"},"vehicle_type_id":"4","last_reported":1747426266,"current_range_meters":7200,"station_id":"ce4bgv92rcd13ifvqcr0","pricing_plan_id":"cebpf4jnsgd1na2vs0mg"},{"bike_id":"39f3ba5b-f7f3-4a95-baf6-8204cdc41651","system_id":"levelo_inurba_marseille","lat":43.33022,"lon":5.39043,"is_reserved":false,"is_disabled":false,"rental_uris":{"android":"levelo://app?vid=39f3ba5b-f7f3-4a95-baf6-8204cdc41651","ios":"levelo://app?vid=39f3ba5b-f7f3-4a95-baf6-8204cdc41651"},"vehicle_type_id":"4","last_reported":1747426266,"current_range_meters":7200,"station_id":"ce4bhr92rcd13ifvqhrg","pricing_plan_id":"cebpf4jnsgd1na2vs0mg"},{"bike_id":"952adc22-dc6b-4168-ab87-c9391992235f","system_id":"levelo_inurba_marseille","lat":43.3075,"lon":5.42443,"is_reserved":false,"is_disabled":false,"rental_uris":{"android":"levelo://app?vid=952adc22-dc6b-4168-ab87-c9391992235f","ios":"levelo://app?vid=952adc22-dc6b-4168-ab87-c9391992235f"},"vehicle_type_id":"4","last_reported":1747426266,"current_range_meters":7200,"station_id":"st_cvj6ca6bvosntc0bfgr0","pricing_plan_id":"cebpf4jnsgd1na2vs0mg"},{"bike_id":"5cb903cc-77e6-42f7-896b-d1070725b89e","system_id":"levelo_inurba_marseille","lat":43.29299,"lon":5.37448,"is_reserved":false,"is_disabled":false,"rental_uris":{"android":"levelo://app?vid=5cb903cc-77e6-42f7-896b-d1070725b89e","ios":"levelo://app?vid=5cb903cc-77e6-42f7-896b-d1070725b89e"},"vehicle_type_id":"4","last_reported":1747426266,"current_range_meters":8000,"station_id":"ce4bgi12rcd13ifvqb70","pricing_plan_id":"cebpf4jnsgd1na2vs0mg"},{"bike_id":"8e1eb183-c00d-4646-a924-2a4f9123def5","system_id":"levelo_inurba_marseille","lat":43.32107,"lon":5.36767,"is_reserved":false,"is_disabled":false,"rental_uris":{"android":"levelo://app?vid=8e1eb183-c00d-4646-a924-2a4f9123def5","ios":"levelo://app?vid=8e1eb183-c00d-4646-a924-2a4f9123def5"},"vehicle_type_id":"4","last_reported":1747426266,"current_range_meters":8000,"station_id":"ce4bhrh2rcd13ifvqhug","pricing_plan_id":"cebpf4jnsgd1na2vs0mg"},{"bike_id":"3fad94b0-0694-4e44-bd21-5fd7ae7c43cd","system_id":"levelo_inurba_marseille","lat":43.29007,"lon":5.37259,"is_reserved":false,"is_disabled":false,"rental_uris":{"android":"levelo://app?vid=3fad94b0-0694-4e44-bd21-5fd7ae7c43cd","ios":"levelo://app?vid=3fad94b0-0694-4e44-bd21-5fd7ae7c43cd"},"vehicle_type_id":"4","last_reported":1747426266,"current_range_meters":8400,"station_id":"","pricing_plan_id":"cebpf4jnsgd1na2vs0mg"},{"bike_id":"e64e4484-2db6-41f4-beb8-e0c0ae1263cd","system_id":"levelo_inurba_marseille","lat":43.285185,"lon":5.43028,"is_reserved":false,"is_disabled":false,"rental_uris":{"android":"levelo://app?vid=e64e4484-2db6-41f4-beb8-e0c0ae1263cd","ios":"levelo://app?vid=e64e4484-2db6-41f4-beb8-e0c0ae1263cd"},"vehicle_type_id":"4","last_reported":1747426266,"current_range_meters":8400,"station_id":"","pricing_plan_id":"cebpf4jnsgd1na2vs0mg"},{"bike_id":"b89a24e6-5078-471a-88fa-2c70cdf078ca","system_id":"levelo_inurba_marseille","lat":43.310134,"lon":5.375491,"is_reserved":false,"is_disabled":false,"rental_uris":{"android":"levelo://app?vid=b89a24e6-5078-471a-88fa-2c70cdf078ca","ios":"levelo://app?vid=b89a24e6-5078-471a-88fa-2c70cdf078ca"},"vehicle_type_id":"4","last_reported":1747426266,"current_range_meters":8400,"station_id":"","pricing_plan_id":"cebpf4jnsgd1na2vs0mg"},{"bike_id":"f8e4732a-2ecf-431c-8f66-abc7aabb8aa1","system_id":"levelo_inurba_marseille","lat":43.32921,"lon":5.38991,"is_reserved":false,"is_disabled":false,"rental_uris":{"android":"levelo://app?vid=f8e4732a-2ecf-431c-8f66-abc7aabb8aa1","ios":"levelo://app?vid=f8e4732a-2ecf-431c-8f66-abc7aabb8aa1"},"vehicle_type_id":"4","last_reported":1747426266,"current_range_meters":8400,"station_id":"","pricing_plan_id":"cebpf4jnsgd1na2vs0mg"},{"bike_id":"6dd57cf4-65e0-489e-905f-ab0dc1fdf6dd","system_id":"levelo_inurba_marseille","lat":43.32981,"lon":5.39379,"is_reserved":false,"is_disabled":false,"rental_uris":{"android":"levelo://app?vid=6dd57cf4-65e0-489e-905f-ab0dc1fdf6dd","ios":"levelo://app?vid=6dd57cf4-65e0-489e-905f-ab0dc1fdf6dd"},"vehicle_type_id":"4","last_reported":1747426266,"current_range_meters":8400,"station_id":"","pricing_plan_id":"cebpf4jnsgd1na2vs0mg"},{"bike_id":"5f14d8d4-b38d-423a-bb8c-0b0c0d3e9505","system_id":"levelo_inurba_marseille","lat":43.304473,"lon":5.397576,"is_reserved":false,"is_disabled":false,"rental_uris":{"android":"levelo://app?vid=5f14d8d4-b38d-423a-bb8c-0b0c0d3e9505","ios":"levelo://app?vid=5f14d8d4-b38d-423a-bb8c-0b0c0d3e9505"},"vehicle_type_id":"4","last_reported":1747426266,"current_range_meters":8400,"station_id":"ce4bh092rcd13ifvqd20","pricing_plan_id":"cebpf4jnsgd1na2vs0mg"},{"bike_id":"7578b9dc-c83f-4988-8f0e-050ba18bf172","system_id":"levelo_inurba_marseille","lat":43.27381,"lon":5.36272,"is_reserved":false,"is_disabled":false,"rental_uris":{"android":"levelo://app?vid=7578b9dc-c83f-4988-8f0e-050ba18bf172","ios":"levelo://app?vid=7578b9dc-c83f-4988-8f0e-050ba18bf172"},"vehicle_type_id":"4","last_reported":1747426266,"current_range_meters":8400,"station_id":"ce4bhbh2rcd13ifvqeo0","pricing_plan_id":"cebpf4jnsgd1na2vs0mg"},{"bike_id":"cb7e25b1-4730-428d-8d94-9a7734af6730","system_id":"levelo_inurba_marseille","lat":43.25496,"lon":5.37646,"is_reserved":false,"is_disabled":false,"rental_uris":{"android":"levelo://app?vid=cb7e25b1-4730-428d-8d94-9a7734af6730","ios":"levelo://app?vid=cb7e25b1-4730-428d-8d94-9a7734af6730"},"vehicle_type_id":"4","last_reported":1747426266,"current_range_meters":8400,"station_id":"ce4bhh12rcd13ifvqff0","pricing_plan_id":"cebpf4jnsgd1na2vs0mg"},{"bike_id":"6ca3b82b-fdc7-43e4-97cf-78489b006e12","system_id":"levelo_inurba_marseille","lat":43.27187,"lon":5.40968,"is_reserved":false,"is_disabled":false,"rental_uris":{"android":"levelo://app?vid=6ca3b82b-fdc7-43e4-97cf-78489b006e12","ios":"levelo://app?vid=6ca3b82b-fdc7-43e4-97cf-78489b006e12"},"vehicle_type_id":"4","last_reported":1747426266,"current_range_meters":8400,"station_id":"ce4bhl12rcd13ifvqgf0","pricing_plan_id":"cebpf4jnsgd1na2vs0mg"},{"bike_id":"0111017b-773c-465a-9392-7daabcbea790","system_id":"levelo_inurba_marseille","lat":43.24546,"lon":5.39521,"is_reserved":false,"is_disabled":false,"rental_uris":{"android":"levelo://app?vid=0111017b-773c-465a-9392-7daabcbea790","ios":"levelo://app?vid=0111017b-773c-465a-9392-7daabcbea790"},"vehicle_type_id":"4","last_reported":1747426266,"current_range_meters":8400,"station_id":"ce4bhlp2rcd13ifvqgjg","pricing_plan_id":"cebpf4jnsgd1na2vs0mg"},{"bike_id":"17f4f955-c65c-4212-8cdd-ea247389f6d5","system_id":"levelo_inurba_marseille","lat":43.279934,"lon":5.416667,"is_reserved":false,"is_disabled":false,"rental_uris":{"android":"levelo://app?vid=17f4f955-c65c-4212-8cdd-ea247389f6d5","ios":"levelo://app?vid=17f4f955-c65c-4212-8cdd-ea247389f6d5"},"vehicle_type_id":"4","last_reported":1747426266,"current_range_meters":8400,"station_id":"ce4bho12rcd13ifvqh1g","pricing_plan_id":"cebpf4jnsgd1na2vs0mg"},{"bike_id":"6d485413-0a5b-4296-862c-2c19c83ee78f","system_id":"levelo_inurba_marseille","lat":43.32342,"lon":5.40624,"is_reserved":false,"is_disabled":false,"rental_uris":{"android":"levelo://app?vid=6d485413-0a5b-4296-862c-2c19c83ee78f","ios":"levelo://app?vid=6d485413-0a5b-4296-862c-2c19c83ee78f"},"vehicle_type_id":"4","last_reported":1747426266,"current_range_meters":8400,"station_id":"ce4bhq92rcd13ifvqhjg","pricing_plan_id":"cebpf4jnsgd1na2vs0mg"},{"bike_id":"3d890ea7-2d09-4fdb-8838-96237363e0da","system_id":"levelo_inurba_marseille","lat":43.29741,"lon":5.37681,"is_reserved":false,"is_disabled":false,"rental_uris":{"android":"levelo://app?vid=3d890ea7-2d09-4fdb-8838-96237363e0da","ios":"levelo://app?vid=3d890ea7-2d09-4fdb-8838-96237363e0da"},"vehicle_type_id":"4","last_reported":1747426266,"current_range_meters":8800,"station_id":"ce4bgkh2rcd13ifvqbl0","pricing_plan_id":"cebpf4jnsgd1na2vs0mg"},{"bike_id":"71abf16d-0037-4503-8336-9084f9a4a4ec","system_id":"levelo_inurba_marseille","lat":43.30926,"lon":5.40149,"is_reserved":false,"is_disabled":false,"rental_uris":{"android":"levelo://app?vid=71abf16d-0037-4503-8336-9084f9a4a4ec","ios":"levelo://app?vid=71abf16d-0037-4503-8336-9084f9a4a4ec"},"vehicle_type_id":"4","last_reported":1747426266,"current_range_meters":8800,"station_id":"ce4bgvp2rcd13ifvqct0","pricing_plan_id":"cebpf4jnsgd1na2vs0mg"},{"bike_id":"28390b14-2741-44c3-8f96-bfb7fcacb5d1","system_id":"levelo_inurba_marseille","lat":43.2903,"lon":5.38127,"is_reserved":false,"is_disabled":false,"rental_uris":{"android":"levelo://app?vid=28390b14-2741-44c3-8f96-bfb7fcacb5d1","ios":"levelo://app?vid=28390b14-2741-44c3-8f96-bfb7fcacb5d1"},"vehicle_type_id":"4","last_reported":1747426266,"current_range_meters":8800,"station_id":"ce4bh4p2rcd13ifvqe1g","pricing_plan_id":"cebpf4jnsgd1na2vs0mg"},{"bike_id":"ac7e4de9-3be5-4737-bcef-658caef20f45","system_id":"levelo_inurba_marseille","lat":43.27956,"lon":5.38713,"is_reserved":false,"is_disabled":false,"rental_uris":{"android":"levelo://app?vid=ac7e4de9-3be5-4737-bcef-658caef20f45","ios":"levelo://app?vid=ac7e4de9-3be5-4737-bcef-658caef20f45"},"vehicle_type_id":"4","last_reported":1747426266,"current_range_meters":8800,"station_id":"ce4bhg12rcd13ifvqf80","pricing_plan_id":"cebpf4jnsgd1na2vs0mg"},{"bike_id":"4bb33cf8-ba2b-4943-9e07-00506ea3cdca","system_id":"levelo_inurba_marseille","lat":43.24809,"lon":5.37457,"is_reserved":false,"is_disabled":false,"rental_uris":{"android":"levelo://app?vid=4bb33cf8-ba2b-4943-9e07-00506ea3cdca","ios":"levelo://app?vid=4bb33cf8-ba2b-4943-9e07-00506ea3cdca"},"vehicle_type_id":"4","last_reported":1747426266,"current_range_meters":8800,"station_id":"ce4bhgh2rcd13ifvqfb0","pricing_plan_id":"cebpf4jnsgd1na2vs0mg"},{"bike_id":"2781ef4e-3651-4ce5-9a2e-f1d46595d329","system_id":"levelo_inurba_marseille","lat":43.32105,"lon":5.367769,"is_reserved":false,"is_disabled":false,"rental_uris":{"android":"levelo://app?vid=2781ef4e-3651-4ce5-9a2e-f1d46595d329","ios":"levelo://app?vid=2781ef4e-3651-4ce5-9a2e-f1d46595d329"},"vehicle_type_id":"4","last_reported":1747426266,"current_range_meters":8800,"station_id":"ce4bhrh2rcd13ifvqhug","pricing_plan_id":"cebpf4jnsgd1na2vs0mg"},{"bike_id":"fd3e156a-6016-40b0-bf2b-6c1d8952dfd1","system_id":"levelo_inurba_marseille","lat":43.22937,"lon":5.353813,"is_reserved":false,"is_disabled":false,"rental_uris":{"android":"levelo://app?vid=fd3e156a-6016-40b0-bf2b-6c1d8952dfd1","ios":"levelo://app?vid=fd3e156a-6016-40b0-bf2b-6c1d8952dfd1"},"vehicle_type_id":"4","last_reported":1747426266,"current_range_meters":8800,"station_id":"cpo3532slgdg3j2ikp40","pricing_plan_id":"cebpf4jnsgd1na2vs0mg"},{"bike_id":"6d36ce03-b344-4b5e-9465-9800cf819cb5","system_id":"levelo_inurba_marseille","lat":43.21197,"lon":5.35069,"is_reserved":false,"is_disabled":false,"rental_uris":{"android":"levelo://app?vid=6d36ce03-b344-4b5e-9465-9800cf819cb5","ios":"levelo://app?vid=6d36ce03-b344-4b5e-9465-9800cf819cb5"},"vehicle_type_id":"4","last_reported":1747426266,"current_range_meters":8800,"station_id":"st_cvj6sg6p6f1abm77japg","pricing_plan_id":"cebpf4jnsgd1na2vs0mg"},{"bike_id":"02288632-79f4-483c-92bd-91cd61a950da","system_id":"levelo_inurba_marseille","lat":43.296417,"lon":5.36215,"is_reserved":false,"is_disabled":false,"rental_uris":{"android":"levelo://app?vid=02288632-79f4-483c-92bd-91cd61a950da","ios":"levelo://app?vid=02288632-79f4-483c-92bd-91cd61a950da"},"vehicle_type_id":"4","last_reported":1747426266,"current_range_meters":9200,"station_id":"","pricing_plan_id":"cebpf4jnsgd1na2vs0mg"},{"bike_id":"d65be1e0-eb3c-4026-9992-99249b1238e1","system_id":"levelo_inurba_marseille","lat":43.295292,"lon":5.385465,"is_reserved":false,"is_disabled":false,"rental_uris":{"android":"levelo://app?vid=d65be1e0-eb3c-4026-9992-99249b1238e1","ios":"levelo://app?vid=d65be1e0-eb3c-4026-9992-99249b1238e1"},"vehicle_type_id":"4","last_reported":1747426266,"current_range_meters":9200,"station_id":"ce4bgih2rcd13ifvqba0","pricing_plan_id":"cebpf4jnsgd1na2vs0mg"},{"bike_id":"a56addf5-7544-4848-b9a8-9b6e07aefd39","system_id":"levelo_inurba_marseille","lat":43.301498,"lon":5.381035,"is_reserved":false,"is_disabled":false,"rental_uris":{"android":"levelo://app?vid=a56addf5-7544-4848-b9a8-9b6e07aefd39","ios":"levelo://app?vid=a56addf5-7544-4848-b9a8-9b6e07aefd39"},"vehicle_type_id":"4","last_reported":1747426266,"current_range_meters":9200,"station_id":"ce4bgjp2rcd13ifvqbh0","pricing_plan_id":"cebpf4jnsgd1na2vs0mg"},{"bike_id":"c690320c-04c1-4a80-9ca9-3a118dda0e9a","system_id":"levelo_inurba_marseille","lat":43.289966,"lon":5.386718,"is_reserved":false,"is_disabled":false,"rental_uris":{"android":"levelo://app?vid=c690320c-04c1-4a80-9ca9-3a118dda0e9a","ios":"levelo://app?vid=c690320c-04c1-4a80-9ca9-3a118dda0e9a"},"vehicle_type_id":"4","last_reported":1747426266,"current_range_meters":9200,"station_id":"ce4bh4p2rcd13ifvqe0g","pricing_plan_id":"cebpf4jnsgd1na2vs0mg"},{"bike_id":"e1ad0c6f-df6f-44f6-a3fe-f985f21f2ee7","system_id":"levelo_inurba_marseille","lat":43.261917,"lon":5.37449,"is_reserved":false,"is_disabled":false,"rental_uris":{"android":"levelo://app?vid=e1ad0c6f-df6f-44f6-a3fe-f985f21f2ee7","ios":"levelo://app?vid=e1ad0c6f-df6f-44f6-a3fe-f985f21f2ee7"},"vehicle_type_id":"4","last_reported":1747426266,"current_range_meters":9200,"station_id":"ce4bhgp2rcd13ifvqfc0","pricing_plan_id":"cebpf4jnsgd1na2vs0mg"},{"bike_id":"7298e536-cd5c-4e48-95a2-e8cc4a4ae081","system_id":"levelo_inurba_marseille","lat":43.27558,"lon":5.38425,"is_reserved":false,"is_disabled":false,"rental_uris":{"android":"levelo://app?vid=7298e536-cd5c-4e48-95a2-e8cc4a4ae081","ios":"levelo://app?vid=7298e536-cd5c-4e48-95a2-e8cc4a4ae081"},"vehicle_type_id":"4","last_reported":1747426266,"current_range_meters":9200,"station_id":"ce4bhh92rcd13ifvqfi0","pricing_plan_id":"cebpf4jnsgd1na2vs0mg"},{"bike_id":"4a07484a-afe5-412c-b3c0-444a3bb6c3c7","system_id":"levelo_inurba_marseille","lat":43.32658,"lon":5.40988,"is_reserved":false,"is_disabled":false,"rental_uris":{"android":"levelo://app?vid=4a07484a-afe5-412c-b3c0-444a3bb6c3c7","ios":"levelo://app?vid=4a07484a-afe5-412c-b3c0-444a3bb6c3c7"},"vehicle_type_id":"4","last_reported":1747426266,"current_range_meters":9200,"station_id":"ce4bhpp2rcd13ifvqhgg","pricing_plan_id":"cebpf4jnsgd1na2vs0mg"},{"bike_id":"a35ef56b-63be-4a96-9de7-814693a5818a","system_id":"levelo_inurba_marseille","lat":43.31778,"lon":5.37333,"is_reserved":false,"is_disabled":false,"rental_uris":{"android":"levelo://app?vid=a35ef56b-63be-4a96-9de7-814693a5818a","ios":"levelo://app?vid=a35ef56b-63be-4a96-9de7-814693a5818a"},"vehicle_type_id":"4","last_reported":1747426266,"current_range_meters":9600,"station_id":"","pricing_plan_id":"cebpf4jnsgd1na2vs0mg"},{"bike_id":"a488853e-8708-42f9-a9f1-40f4dc62e03d","system_id":"levelo_inurba_marseille","lat":43.30564,"lon":5.37311,"is_reserved":false,"is_disabled":false,"rental_uris":{"android":"levelo://app?vid=a488853e-8708-42f9-a9f1-40f4dc62e03d","ios":"levelo://app?vid=a488853e-8708-42f9-a9f1-40f4dc62e03d"},"vehicle_type_id":"4","last_reported":1747426266,"current_range_meters":9600,"station_id":"","pricing_plan_id":"cebpf4jnsgd1na2vs0mg"},{"bike_id":"1bc7ccdd-5811-4027-8da2-9f41ea88ae10","system_id":"levelo_inurba_marseille","lat":43.29262,"lon":5.38436,"is_reserved":false,"is_disabled":false,"rental_uris":{"android":"levelo://app?vid=1bc7ccdd-5811-4027-8da2-9f41ea88ae10","ios":"levelo://app?vid=1bc7ccdd-5811-4027-8da2-9f41ea88ae10"},"vehicle_type_id":"4","last_reported":1747426266,"current_range_meters":9600,"station_id":"ce4bh692rcd13ifvqea0","pricing_plan_id":"cebpf4jnsgd1na2vs0mg"},{"bike_id":"aea4f05b-eece-4148-aff0-c8cb3ad1067b","system_id":"levelo_inurba_marseille","lat":43.25498,"lon":5.37649,"is_reserved":false,"is_disabled":false,"rental_uris":{"android":"levelo://app?vid=aea4f05b-eece-4148-aff0-c8cb3ad1067b","ios":"levelo://app?vid=aea4f05b-eece-4148-aff0-c8cb3ad1067b"},"vehicle_type_id":"4","last_reported":1747426266,"current_range_meters":9600,"station_id":"ce4bhh12rcd13ifvqff0","pricing_plan_id":"cebpf4jnsgd1na2vs0mg"},{"bike_id":"e49a83bf-3303-4d2b-84b7-a9a8e6f520ad","system_id":"levelo_inurba_marseille","lat":43.27218,"lon":5.39183,"is_reserved":false,"is_disabled":false,"rental_uris":{"android":"levelo://app?vid=e49a83bf-3303-4d2b-84b7-a9a8e6f520ad","ios":"levelo://app?vid=e49a83bf-3303-4d2b-84b7-a9a8e6f520ad"},"vehicle_type_id":"4","last_reported":1747426266,"current_range_meters":9600,"station_id":"ce4bhhp2rcd13ifvqfm0","pricing_plan_id":"cebpf4jnsgd1na2vs0mg"},{"bike_id":"5deb8060-b584-45ba-8ee7-be227a41b5a4","system_id":"levelo_inurba_marseille","lat":43.24671,"lon":5.38144,"is_reserved":false,"is_disabled":false,"rental_uris":{"android":"levelo://app?vid=5deb8060-b584-45ba-8ee7-be227a41b5a4","ios":"levelo://app?vid=5deb8060-b584-45ba-8ee7-be227a41b5a4"},"vehicle_type_id":"4","last_reported":1747426266,"current_range_meters":9600,"station_id":"ce4bhih2rcd13ifvqfr0","pricing_plan_id":"cebpf4jnsgd1na2vs0mg"},{"bike_id":"5bd7c68d-bffc-45e6-bca1-d02bf7a1c1bb","system_id":"levelo_inurba_marseille","lat":43.25876,"lon":5.39898,"is_reserved":false,"is_disabled":false,"rental_uris":{"android":"levelo://app?vid=5bd7c68d-bffc-45e6-bca1-d02bf7a1c1bb","ios":"levelo://app?vid=5bd7c68d-bffc-45e6-bca1-d02bf7a1c1bb"},"vehicle_type_id":"4","last_reported":1747426266,"current_range_meters":9600,"station_id":"ce4bhl92rcd13ifvqghg","pricing_plan_id":"cebpf4jnsgd1na2vs0mg"},{"bike_id":"cc997091-761a-4004-b43e-d05e1c15efff","system_id":"levelo_inurba_marseille","lat":43.23171,"lon":5.39999,"is_reserved":false,"is_disabled":false,"rental_uris":{"android":"levelo://app?vid=cc997091-761a-4004-b43e-d05e1c15efff","ios":"levelo://app?vid=cc997091-761a-4004-b43e-d05e1c15efff"},"vehicle_type_id":"4","last_reported":1747426266,"current_range_meters":9600,"station_id":"ce4bhn12rcd13ifvqgqg","pricing_plan_id":"cebpf4jnsgd1na2vs0mg"},{"bike_id":"f0f7ca87-7ffb-46bd-ab65-ff44d1578193","system_id":"levelo_inurba_marseille","lat":43.32348,"lon":5.40598,"is_reserved":false,"is_disabled":false,"rental_uris":{"android":"levelo://app?vid=f0f7ca87-7ffb-46bd-ab65-ff44d1578193","ios":"levelo://app?vid=f0f7ca87-7ffb-46bd-ab65-ff44d1578193"},"vehicle_type_id":"4","last_reported":1747426266,"current_range_meters":9600,"station_id":"ce4bhq92rcd13ifvqhjg","pricing_plan_id":"cebpf4jnsgd1na2vs0mg"},{"bike_id":"3d6b5b36-a314-45fa-8bc0-68e5f98a5dde","system_id":"levelo_inurba_marseille","lat":43.22928,"lon":5.35391,"is_reserved":false,"is_disabled":false,"rental_uris":{"android":"levelo://app?vid=3d6b5b36-a314-45fa-8bc0-68e5f98a5dde","ios":"levelo://app?vid=3d6b5b36-a314-45fa-8bc0-68e5f98a5dde"},"vehicle_type_id":"4","last_reported":1747426266,"current_range_meters":9600,"station_id":"cpo3532slgdg3j2ikp40","pricing_plan_id":"cebpf4jnsgd1na2vs0mg"},{"bike_id":"f9a0d2e5-9d0f-4918-81a4-22e483428085","system_id":"levelo_inurba_marseille","lat":43.28153,"lon":5.42637,"is_reserved":false,"is_disabled":false,"rental_uris":{"android":"levelo://app?vid=f9a0d2e5-9d0f-4918-81a4-22e483428085","ios":"levelo://app?vid=f9a0d2e5-9d0f-4918-81a4-22e483428085"},"vehicle_type_id":"4","last_reported":1747426266,"current_range_meters":10000,"station_id":"ce4bhnh2rcd13ifvqgug","pricing_plan_id":"cebpf4jnsgd1na2vs0mg"},{"bike_id":"82a77a55-8c23-4689-b53e-9787401817e7","system_id":"levelo_inurba_marseille","lat":43.32659,"lon":5.40993,"is_reserved":false,"is_disabled":false,"rental_uris":{"android":"levelo://app?vid=82a77a55-8c23-4689-b53e-9787401817e7","ios":"levelo://app?vid=82a77a55-8c23-4689-b53e-9787401817e7"},"vehicle_type_id":"4","last_reported":1747426266,"current_range_meters":10000,"station_id":"ce4bhpp2rcd13ifvqhgg","pricing_plan_id":"cebpf4jnsgd1na2vs0mg"},{"bike_id":"35fd3701-261f-4ff8-a27a-0ebd912d0d57","system_id":"levelo_inurba_marseille","lat":43.32092,"lon":5.36778,"is_reserved":false,"is_disabled":false,"rental_uris":{"android":"levelo://app?vid=35fd3701-261f-4ff8-a27a-0ebd912d0d57","ios":"levelo://app?vid=35fd3701-261f-4ff8-a27a-0ebd912d0d57"},"vehicle_type_id":"4","last_reported":1747426266,"current_range_meters":10000,"station_id":"ce4bhrh2rcd13ifvqhug","pricing_plan_id":"cebpf4jnsgd1na2vs0mg"},{"bike_id":"ab5558bc-5761-4dc5-a483-7a91cfb4a4b1","system_id":"levelo_inurba_marseille","lat":43.30539,"lon":5.36547,"is_reserved":false,"is_disabled":false,"rental_uris":{"android":"levelo://app?vid=ab5558bc-5761-4dc5-a483-7a91cfb4a4b1","ios":"levelo://app?vid=ab5558bc-5761-4dc5-a483-7a91cfb4a4b1"},"vehicle_type_id":"4","last_reported":1747426266,"current_range_meters":10800,"station_id":"ce4bgs12rcd13ifvqcag","pricing_plan_id":"cebpf4jnsgd1na2vs0mg"},{"bike_id":"21cfc7ab-ce45-4f67-8c48-f2293c0f5067","system_id":"levelo_inurba_marseille","lat":43.3021,"lon":5.39466,"is_reserved":false,"is_disabled":false,"rental_uris":{"android":"levelo://app?vid=21cfc7ab-ce45-4f67-8c48-f2293c0f5067","ios":"levelo://app?vid=21cfc7ab-ce45-4f67-8c48-f2293c0f5067"},"vehicle_type_id":"4","last_reported":1747426266,"current_range_meters":10800,"station_id":"ce4bh0p2rcd13ifvqd70","pricing_plan_id":"cebpf4jnsgd1na2vs0mg"},{"bike_id":"62856c45-a396-410b-a10c-5800a7a531fb","system_id":"levelo_inurba_marseille","lat":43.29424,"lon":5.38624,"is_reserved":false,"is_disabled":false,"rental_uris":{"android":"levelo://app?vid=62856c45-a396-410b-a10c-5800a7a531fb","ios":"levelo://app?vid=62856c45-a396-410b-a10c-5800a7a531fb"},"vehicle_type_id":"4","last_reported":1747426266,"current_range_meters":10800,"station_id":"ce4bh2h2rcd13ifvqdh0","pricing_plan_id":"cebpf4jnsgd1na2vs0mg"},{"bike_id":"4b012fe8-b2b1-44a0-b643-b0d408d09d86","system_id":"levelo_inurba_marseille","lat":43.27176,"lon":5.40996,"is_reserved":false,"is_disabled":false,"rental_uris":{"android":"levelo://app?vid=4b012fe8-b2b1-44a0-b643-b0d408d09d86","ios":"levelo://app?vid=4b012fe8-b2b1-44a0-b643-b0d408d09d86"},"vehicle_type_id":"4","last_reported":1747426266,"current_range_meters":10800,"station_id":"ce4bhl12rcd13ifvqgf0","pricing_plan_id":"cebpf4jnsgd1na2vs0mg"},{"bike_id":"5cf74a5b-3237-4306-8708-835ce896cf40","system_id":"levelo_inurba_marseille","lat":43.31996,"lon":5.38148,"is_reserved":false,"is_disabled":false,"rental_uris":{"android":"levelo://app?vid=5cf74a5b-3237-4306-8708-835ce896cf40","ios":"levelo://app?vid=5cf74a5b-3237-4306-8708-835ce896cf40"},"vehicle_type_id":"4","last_reported":1747426266,"current_range_meters":10800,"station_id":"ce4bhr12rcd13ifvqhpg","pricing_plan_id":"cebpf4jnsgd1na2vs0mg"},{"bike_id":"8f93c6d6-dd2a-44f7-946f-cfe664daa44f","system_id":"levelo_inurba_marseille","lat":43.29312,"lon":5.37443,"is_reserved":false,"is_disabled":false,"rental_uris":{"android":"levelo://app?vid=8f93c6d6-dd2a-44f7-946f-cfe664daa44f","ios":"levelo://app?vid=8f93c6d6-dd2a-44f7-946f-cfe664daa44f"},"vehicle_type_id":"4","last_reported":1747426266,"current_range_meters":11200,"station_id":"ce4bgi12rcd13ifvqb70","pricing_plan_id":"cebpf4jnsgd1na2vs0mg"},{"bike_id":"d0ce8271-bce2-423a-97f3-78d8c714841e","system_id":"levelo_inurba_marseille","lat":43.29371,"lon":5.37841,"is_reserved":false,"is_disabled":false,"rental_uris":{"android":"levelo://app?vid=d0ce8271-bce2-423a-97f3-78d8c714841e","ios":"levelo://app?vid=d0ce8271-bce2-423a-97f3-78d8c714841e"},"vehicle_type_id":"4","last_reported":1747426266,"current_range_meters":11200,"station_id":"ce4bgjh2rcd13ifvqbf0","pricing_plan_id":"cebpf4jnsgd1na2vs0mg"},{"bike_id":"b5680d9f-1462-4010-849d-a308df35b68e","system_id":"levelo_inurba_marseille","lat":43.28846,"lon":5.39301,"is_reserved":false,"is_disabled":false,"rental_uris":{"android":"levelo://app?vid=b5680d9f-1462-4010-849d-a308df35b68e","ios":"levelo://app?vid=b5680d9f-1462-4010-849d-a308df35b68e"},"vehicle_type_id":"4","last_reported":1747426266,"current_range_meters":11200,"station_id":"ce4bh2p2rcd13ifvqdi0","pricing_plan_id":"cebpf4jnsgd1na2vs0mg"},{"bike_id":"e1127a56-a23c-45f7-a14f-9378086a4ac4","system_id":"levelo_inurba_marseille","lat":43.28938,"lon":5.36635,"is_reserved":false,"is_disabled":false,"rental_uris":{"android":"levelo://app?vid=e1127a56-a23c-45f7-a14f-9378086a4ac4","ios":"levelo://app?vid=e1127a56-a23c-45f7-a14f-9378086a4ac4"},"vehicle_type_id":"4","last_reported":1747426266,"current_range_meters":11200,"station_id":"ce4bhap2rcd13ifvqek0","pricing_plan_id":"cebpf4jnsgd1na2vs0mg"},{"bike_id":"5aab96d0-db93-41bb-8405-985cd9d396a8","system_id":"levelo_inurba_marseille","lat":43.24167,"lon":5.36405,"is_reserved":false,"is_disabled":false,"rental_uris":{"android":"levelo://app?vid=5aab96d0-db93-41bb-8405-985cd9d396a8","ios":"levelo://app?vid=5aab96d0-db93-41bb-8405-985cd9d396a8"},"vehicle_type_id":"4","last_reported":1747426266,"current_range_meters":11200,"station_id":"cpo36qri1sfpv3e86is0","pricing_plan_id":"cebpf4jnsgd1na2vs0mg"},{"bike_id":"8a61a1bc-5a2c-4409-b911-e09287002183","system_id":"levelo_inurba_marseille","lat":43.31001,"lon":5.37908,"is_reserved":false,"is_disabled":false,"rental_uris":{"android":"levelo://app?vid=8a61a1bc-5a2c-4409-b911-e09287002183","ios":"levelo://app?vid=8a61a1bc-5a2c-4409-b911-e09287002183"},"vehicle_type_id":"4","last_reported":1747426266,"current_range_meters":11600,"station_id":"","pricing_plan_id":"cebpf4jnsgd1na2vs0mg"},{"bike_id":"bba388f4-6265-4129-936c-3a3c6e188b6d","system_id":"levelo_inurba_marseille","lat":43.29198,"lon":5.39331,"is_reserved":false,"is_disabled":false,"rental_uris":{"android":"levelo://app?vid=bba388f4-6265-4129-936c-3a3c6e188b6d","ios":"levelo://app?vid=bba388f4-6265-4129-936c-3a3c6e188b6d"},"vehicle_type_id":"4","last_reported":1747426266,"current_range_meters":11600,"station_id":"ce4bh192rcd13ifvqdd0","pricing_plan_id":"cebpf4jnsgd1na2vs0mg"},{"bike_id":"82b7f3c8-dea6-48c1-b56d-44ccfd095576","system_id":"levelo_inurba_marseille","lat":43.27682,"lon":5.38882,"is_reserved":false,"is_disabled":false,"rental_uris":{"android":"levelo://app?vid=82b7f3c8-dea6-48c1-b56d-44ccfd095576","ios":"levelo://app?vid=82b7f3c8-dea6-48c1-b56d-44ccfd095576"},"vehicle_type_id":"4","last_reported":1747426266,"current_range_meters":11600,"station_id":"ce4bhi12rcd13ifvqfo0","pricing_plan_id":"cebpf4jnsgd1na2vs0mg"},{"bike_id":"3f1f80f2-74b8-4b50-8e33-883290c5e268","system_id":"levelo_inurba_marseille","lat":43.2318,"lon":5.39986,"is_reserved":false,"is_disabled":false,"rental_uris":{"android":"levelo://app?vid=3f1f80f2-74b8-4b50-8e33-883290c5e268","ios":"levelo://app?vid=3f1f80f2-74b8-4b50-8e33-883290c5e268"},"vehicle_type_id":"4","last_reported":1747426266,"current_range_meters":12000,"station_id":"ce4bhn12rcd13ifvqgqg","pricing_plan_id":"cebpf4jnsgd1na2vs0mg"},{"bike_id":"490b3892-573e-44d4-9bd9-a7b0f61dc8a6","system_id":"levelo_inurba_marseille","lat":43.24171,"lon":5.36383,"is_reserved":false,"is_disabled":false,"rental_uris":{"android":"levelo://app?vid=490b3892-573e-44d4-9bd9-a7b0f61dc8a6","ios":"levelo://app?vid=490b3892-573e-44d4-9bd9-a7b0f61dc8a6"},"vehicle_type_id":"4","last_reported":1747426266,"current_range_meters":12000,"station_id":"cpo36qri1sfpv3e86is0","pricing_plan_id":"cebpf4jnsgd1na2vs0mg"},{"bike_id":"70e3e678-2328-410a-99d4-982d92183f50","system_id":"levelo_inurba_marseille","lat":43.30911,"lon":5.36844,"is_reserved":false,"is_disabled":false,"rental_uris":{"android":"levelo://app?vid=70e3e678-2328-410a-99d4-982d92183f50","ios":"levelo://app?vid=70e3e678-2328-410a-99d4-982d92183f50"},"vehicle_type_id":"4","last_reported":1747426266,"current_range_meters":12400,"station_id":"ce4bgn92rcd13ifvqbvg","pricing_plan_id":"cebpf4jnsgd1na2vs0mg"},{"bike_id":"72010d47-bff7-4d70-b908-f3ff89aee9d9","system_id":"levelo_inurba_marseille","lat":43.303073,"lon":5.369037,"is_reserved":false,"is_disabled":false,"rental_uris":{"android":"levelo://app?vid=72010d47-bff7-4d70-b908-f3ff89aee9d9","ios":"levelo://app?vid=72010d47-bff7-4d70-b908-f3ff89aee9d9"},"vehicle_type_id":"4","last_reported":1747426266,"current_range_meters":12400,"station_id":"ce4bgqh2rcd13ifvqc5g","pricing_plan_id":"cebpf4jnsgd1na2vs0mg"},{"bike_id":"cee1ef62-f6b3-4114-8035-5c5ebc4b815b","system_id":"levelo_inurba_marseille","lat":43.26504,"lon":5.39536,"is_reserved":false,"is_disabled":false,"rental_uris":{"android":"levelo://app?vid=cee1ef62-f6b3-4114-8035-5c5ebc4b815b","ios":"levelo://app?vid=cee1ef62-f6b3-4114-8035-5c5ebc4b815b"},"vehicle_type_id":"4","last_reported":1747426266,"current_range_meters":12400,"station_id":"ce4bhi12rcd13ifvqfq0","pricing_plan_id":"cebpf4jnsgd1na2vs0mg"},{"bike_id":"3b375b1a-9b37-4cc4-9e61-3a949373c459","system_id":"levelo_inurba_marseille","lat":43.29304,"lon":5.37173,"is_reserved":false,"is_disabled":false,"rental_uris":{"android":"levelo://app?vid=3b375b1a-9b37-4cc4-9e61-3a949373c459","ios":"levelo://app?vid=3b375b1a-9b37-4cc4-9e61-3a949373c459"},"vehicle_type_id":"4","last_reported":1747426266,"current_range_meters":12800,"station_id":"ce4bgh92rcd13ifvqb40","pricing_plan_id":"cebpf4jnsgd1na2vs0mg"},{"bike_id":"faade6d4-aad6-4c89-9e17-c020d1e9856e","system_id":"levelo_inurba_marseille","lat":43.29611,"lon":5.38103,"is_reserved":false,"is_disabled":false,"rental_uris":{"android":"levelo://app?vid=faade6d4-aad6-4c89-9e17-c020d1e9856e","ios":"levelo://app?vid=faade6d4-aad6-4c89-9e17-c020d1e9856e"},"vehicle_type_id":"4","last_reported":1747426266,"current_range_meters":12800,"station_id":"ce4bgl12rcd13ifvqbo0","pricing_plan_id":"cebpf4jnsgd1na2vs0mg"},{"bike_id":"0aa9c3d5-973c-4e20-8e78-cf73b4be2a5c","system_id":"levelo_inurba_marseille","lat":43.30236,"lon":5.4004,"is_reserved":false,"is_disabled":false,"rental_uris":{"android":"levelo://app?vid=0aa9c3d5-973c-4e20-8e78-cf73b4be2a5c","ios":"levelo://app?vid=0aa9c3d5-973c-4e20-8e78-cf73b4be2a5c"},"vehicle_type_id":"4","last_reported":1747426266,"current_range_meters":12800,"station_id":"ce4bgvh2rcd13ifvqcs0","pricing_plan_id":"cebpf4jnsgd1na2vs0mg"},{"bike_id":"e5a2b069-efb7-48e5-8628-944f65ddff23","system_id":"levelo_inurba_marseille","lat":43.28402,"lon":5.37522,"is_reserved":false,"is_disabled":false,"rental_uris":{"android":"levelo://app?vid=e5a2b069-efb7-48e5-8628-944f65ddff23","ios":"levelo://app?vid=e5a2b069-efb7-48e5-8628-944f65ddff23"},"vehicle_type_id":"4","last_reported":1747426266,"current_range_meters":12800,"station_id":"ce4bh412rcd13ifvqds0","pricing_plan_id":"cebpf4jnsgd1na2vs0mg"},{"bike_id":"74220e9c-8275-4052-aa7b-c441c2679162","system_id":"levelo_inurba_marseille","lat":43.29259,"lon":5.38445,"is_reserved":false,"is_disabled":false,"rental_uris":{"android":"levelo://app?vid=74220e9c-8275-4052-aa7b-c441c2679162","ios":"levelo://app?vid=74220e9c-8275-4052-aa7b-c441c2679162"},"vehicle_type_id":"4","last_reported":1747426266,"current_range_meters":12800,"station_id":"ce4bh692rcd13ifvqea0","pricing_plan_id":"cebpf4jnsgd1na2vs0mg"},{"bike_id":"59d48428-c117-4c05-89b4-9d52c9bc434b","system_id":"levelo_inurba_marseille","lat":43.28942,"lon":5.36638,"is_reserved":false,"is_disabled":false,"rental_uris":{"android":"levelo://app?vid=59d48428-c117-4c05-89b4-9d52c9bc434b","ios":"levelo://app?vid=59d48428-c117-4c05-89b4-9d52c9bc434b"},"vehicle_type_id":"4","last_reported":1747426266,"current_range_meters":12800,"station_id":"ce4bhap2rcd13ifvqek0","pricing_plan_id":"cebpf4jnsgd1na2vs0mg"},{"bike_id":"4d1de253-7bdb-48b2-9be7-393051681487","system_id":"levelo_inurba_marseille","lat":43.29916,"lon":5.37483,"is_reserved":false,"is_disabled":false,"rental_uris":{"android":"levelo://app?vid=4d1de253-7bdb-48b2-9be7-393051681487","ios":"levelo://app?vid=4d1de253-7bdb-48b2-9be7-393051681487"},"vehicle_type_id":"4","last_reported":1747426266,"current_range_meters":13600,"station_id":"ce4bgjh2rcd13ifvqbg0","pricing_plan_id":"cebpf4jnsgd1na2vs0mg"},{"bike_id":"28990888-3fb7-4a8b-abd4-52ed2e984617","system_id":"levelo_inurba_marseille","lat":43.29251,"lon":5.38403,"is_reserved":false,"is_disabled":false,"rental_uris":{"android":"levelo://app?vid=28990888-3fb7-4a8b-abd4-52ed2e984617","ios":"levelo://app?vid=28990888-3fb7-4a8b-abd4-52ed2e984617"},"vehicle_type_id":"4","last_reported":1747426266,"current_range_meters":13600,"station_id":"ce4bh692rcd13ifvqea0","pricing_plan_id":"cebpf4jnsgd1na2vs0mg"},{"bike_id":"1f53092d-6d12-4175-bef6-8a297ca43d2e","system_id":"levelo_inurba_marseille","lat":43.26569,"lon":5.39003,"is_reserved":false,"is_disabled":false,"rental_uris":{"android":"levelo://app?vid=1f53092d-6d12-4175-bef6-8a297ca43d2e","ios":"levelo://app?vid=1f53092d-6d12-4175-bef6-8a297ca43d2e"},"vehicle_type_id":"4","last_reported":1747426266,"current_range_meters":13600,"station_id":"ce4bhe12rcd13ifvqf30","pricing_plan_id":"cebpf4jnsgd1na2vs0mg"},{"bike_id":"a941293d-0cbc-4ae3-8cef-d89a2cdcb237","system_id":"levelo_inurba_marseille","lat":43.29551,"lon":5.42282,"is_reserved":false,"is_disabled":false,"rental_uris":{"android":"levelo://app?vid=a941293d-0cbc-4ae3-8cef-d89a2cdcb237","ios":"levelo://app?vid=a941293d-0cbc-4ae3-8cef-d89a2cdcb237"},"vehicle_type_id":"4","last_reported":1747426266,"current_range_meters":13600,"station_id":"ce4bhph2rcd13ifvqhdg","pricing_plan_id":"cebpf4jnsgd1na2vs0mg"},{"bike_id":"9f5458d3-7677-4a18-8467-7e177eb26100","system_id":"levelo_inurba_marseille","lat":43.25495,"lon":5.37649,"is_reserved":false,"is_disabled":false,"rental_uris":{"android":"levelo://app?vid=9f5458d3-7677-4a18-8467-7e177eb26100","ios":"levelo://app?vid=9f5458d3-7677-4a18-8467-7e177eb26100"},"vehicle_type_id":"4","last_reported":1747426266,"current_range_meters":14000,"station_id":"ce4bhh12rcd13ifvqff0","pricing_plan_id":"cebpf4jnsgd1na2vs0mg"},{"bike_id":"ea0f1347-e44f-441b-92ab-c6214413c0cc","system_id":"levelo_inurba_marseille","lat":43.32108,"lon":5.36779,"is_reserved":false,"is_disabled":false,"rental_uris":{"android":"levelo://app?vid=ea0f1347-e44f-441b-92ab-c6214413c0cc","ios":"levelo://app?vid=ea0f1347-e44f-441b-92ab-c6214413c0cc"},"vehicle_type_id":"4","last_reported":1747426266,"current_range_meters":14000,"station_id":"ce4bhrh2rcd13ifvqhug","pricing_plan_id":"cebpf4jnsgd1na2vs0mg"},{"bike_id":"216065da-7cc3-48bf-9a02-bfaafa3c8439","system_id":"levelo_inurba_marseille","lat":43.22932,"lon":5.3538,"is_reserved":false,"is_disabled":false,"rental_uris":{"android":"levelo://app?vid=216065da-7cc3-48bf-9a02-bfaafa3c8439","ios":"levelo://app?vid=216065da-7cc3-48bf-9a02-bfaafa3c8439"},"vehicle_type_id":"4","last_reported":1747426266,"current_range_meters":14000,"station_id":"cpo3532slgdg3j2ikp40","pricing_plan_id":"cebpf4jnsgd1na2vs0mg"},{"bike_id":"09c8aec1-310a-4ec4-94bb-6d60636e014d","system_id":"levelo_inurba_marseille","lat":43.30637,"lon":5.40085,"is_reserved":false,"is_disabled":false,"rental_uris":{"android":"levelo://app?vid=09c8aec1-310a-4ec4-94bb-6d60636e014d","ios":"levelo://app?vid=09c8aec1-310a-4ec4-94bb-6d60636e014d"},"vehicle_type_id":"4","last_reported":1747426266,"current_range_meters":14400,"station_id":"ce4bh112rcd13ifvqda0","pricing_plan_id":"cebpf4jnsgd1na2vs0mg"},{"bike_id":"087d3dd9-4a37-4795-8318-b60df98cbfa8","system_id":"levelo_inurba_marseille","lat":43.26569,"lon":5.39013,"is_reserved":false,"is_disabled":false,"rental_uris":{"android":"levelo://app?vid=087d3dd9-4a37-4795-8318-b60df98cbfa8","ios":"levelo://app?vid=087d3dd9-4a37-4795-8318-b60df98cbfa8"},"vehicle_type_id":"4","last_reported":1747426266,"current_range_meters":14400,"station_id":"ce4bhe12rcd13ifvqf30","pricing_plan_id":"cebpf4jnsgd1na2vs0mg"},{"bike_id":"5b4c4f7d-5cda-4fd3-8973-e7213204d600","system_id":"levelo_inurba_marseille","lat":43.2407,"lon":5.37768,"is_reserved":false,"is_disabled":false,"rental_uris":{"android":"levelo://app?vid=5b4c4f7d-5cda-4fd3-8973-e7213204d600","ios":"levelo://app?vid=5b4c4f7d-5cda-4fd3-8973-e7213204d600"},"vehicle_type_id":"4","last_reported":1747426266,"current_range_meters":14400,"station_id":"ce4bhnp2rcd13ifvqgvg","pricing_plan_id":"cebpf4jnsgd1na2vs0mg"},{"bike_id":"6da655b8-0421-4e8a-ae32-6637af746f6a","system_id":"levelo_inurba_marseille","lat":43.26833,"lon":5.41121,"is_reserved":false,"is_disabled":false,"rental_uris":{"android":"levelo://app?vid=6da655b8-0421-4e8a-ae32-6637af746f6a","ios":"levelo://app?vid=6da655b8-0421-4e8a-ae32-6637af746f6a"},"vehicle_type_id":"4","last_reported":1747426266,"current_range_meters":14800,"station_id":"","pricing_plan_id":"cebpf4jnsgd1na2vs0mg"},{"bike_id":"46fda64f-8979-41b6-b48c-b26f1265e223","system_id":"levelo_inurba_marseille","lat":43.27622,"lon":5.36109,"is_reserved":false,"is_disabled":false,"rental_uris":{"android":"levelo://app?vid=46fda64f-8979-41b6-b48c-b26f1265e223","ios":"levelo://app?vid=46fda64f-8979-41b6-b48c-b26f1265e223"},"vehicle_type_id":"4","last_reported":1747426266,"current_range_meters":14800,"station_id":"ce4bgj92rcd13ifvqbe0","pricing_plan_id":"cebpf4jnsgd1na2vs0mg"},{"bike_id":"190eacf0-5176-49b2-9fb7-f0e34c3e430b","system_id":"levelo_inurba_marseille","lat":43.29932,"lon":5.36536,"is_reserved":false,"is_disabled":false,"rental_uris":{"android":"levelo://app?vid=190eacf0-5176-49b2-9fb7-f0e34c3e430b","ios":"levelo://app?vid=190eacf0-5176-49b2-9fb7-f0e34c3e430b"},"vehicle_type_id":"4","last_reported":1747426266,"current_range_meters":14800,"station_id":"ce4bgm92rcd13ifvqbr0","pricing_plan_id":"cebpf4jnsgd1na2vs0mg"},{"bike_id":"00334336-f29f-4fc4-b4a5-349c0c106607","system_id":"levelo_inurba_marseille","lat":43.30952,"lon":5.39025,"is_reserved":false,"is_disabled":false,"rental_uris":{"android":"levelo://app?vid=00334336-f29f-4fc4-b4a5-349c0c106607","ios":"levelo://app?vid=00334336-f29f-4fc4-b4a5-349c0c106607"},"vehicle_type_id":"4","last_reported":1747426266,"current_range_meters":14800,"station_id":"ce4bgup2rcd13ifvqco0","pricing_plan_id":"cebpf4jnsgd1na2vs0mg"},{"bike_id":"b6d32829-6f79-4c41-ba60-fa47813066b3","system_id":"levelo_inurba_marseille","lat":43.29869,"lon":5.39725,"is_reserved":false,"is_disabled":false,"rental_uris":{"android":"levelo://app?vid=b6d32829-6f79-4c41-ba60-fa47813066b3","ios":"levelo://app?vid=b6d32829-6f79-4c41-ba60-fa47813066b3"},"vehicle_type_id":"4","last_reported":1747426266,"current_range_meters":14800,"station_id":"ce4bh0h2rcd13ifvqd50","pricing_plan_id":"cebpf4jnsgd1na2vs0mg"},{"bike_id":"7a69b1f2-d140-44fe-815b-2a2c906491bf","system_id":"levelo_inurba_marseille","lat":43.30644,"lon":5.40088,"is_reserved":false,"is_disabled":false,"rental_uris":{"android":"levelo://app?vid=7a69b1f2-d140-44fe-815b-2a2c906491bf","ios":"levelo://app?vid=7a69b1f2-d140-44fe-815b-2a2c906491bf"},"vehicle_type_id":"4","last_reported":1747426266,"current_range_meters":14800,"station_id":"ce4bh112rcd13ifvqda0","pricing_plan_id":"cebpf4jnsgd1na2vs0mg"},{"bike_id":"ef175b83-3dc6-44f2-913d-c23ff993c188","system_id":"levelo_inurba_marseille","lat":43.25579,"lon":5.38231,"is_reserved":false,"is_disabled":false,"rental_uris":{"android":"levelo://app?vid=ef175b83-3dc6-44f2-913d-c23ff993c188","ios":"levelo://app?vid=ef175b83-3dc6-44f2-913d-c23ff993c188"},"vehicle_type_id":"4","last_reported":1747426266,"current_range_meters":14800,"station_id":"ce4bhih2rcd13ifvqfs0","pricing_plan_id":"cebpf4jnsgd1na2vs0mg"},{"bike_id":"cab14028-560b-43a8-95f2-6e5dfabcc846","system_id":"levelo_inurba_marseille","lat":43.27814,"lon":5.40706,"is_reserved":false,"is_disabled":false,"rental_uris":{"android":"levelo://app?vid=cab14028-560b-43a8-95f2-6e5dfabcc846","ios":"levelo://app?vid=cab14028-560b-43a8-95f2-6e5dfabcc846"},"vehicle_type_id":"4","last_reported":1747426266,"current_range_meters":14800,"station_id":"ce4bhnh2rcd13ifvqgtg","pricing_plan_id":"cebpf4jnsgd1na2vs0mg"},{"bike_id":"c6f87cb9-e14d-4aa1-a9e9-9a2b89dece97","system_id":"levelo_inurba_marseille","lat":43.318795,"lon":5.407332,"is_reserved":false,"is_disabled":false,"rental_uris":{"android":"levelo://app?vid=c6f87cb9-e14d-4aa1-a9e9-9a2b89dece97","ios":"levelo://app?vid=c6f87cb9-e14d-4aa1-a9e9-9a2b89dece97"},"vehicle_type_id":"4","last_reported":1747426266,"current_range_meters":14800,"station_id":"ce4bhq12rcd13ifvqhig","pricing_plan_id":"cebpf4jnsgd1na2vs0mg"},{"bike_id":"7f0f0eb1-eb6a-48f0-b4c4-ba8877209c3a","system_id":"levelo_inurba_marseille","lat":43.272028,"lon":5.365098,"is_reserved":false,"is_disabled":false,"rental_uris":{"android":"levelo://app?vid=7f0f0eb1-eb6a-48f0-b4c4-ba8877209c3a","ios":"levelo://app?vid=7f0f0eb1-eb6a-48f0-b4c4-ba8877209c3a"},"vehicle_type_id":"4","last_reported":1747426266,"current_range_meters":15200,"station_id":"","pricing_plan_id":"cebpf4jnsgd1na2vs0mg"},{"bike_id":"1afd1262-0cef-4ee1-8669-4d6e88a91c3d","system_id":"levelo_inurba_marseille","lat":43.28566,"lon":5.3951,"is_reserved":false,"is_disabled":false,"rental_uris":{"android":"levelo://app?vid=1afd1262-0cef-4ee1-8669-4d6e88a91c3d","ios":"levelo://app?vid=1afd1262-0cef-4ee1-8669-4d6e88a91c3d"},"vehicle_type_id":"4","last_reported":1747426266,"current_range_meters":15200,"station_id":"ce4bh292rcd13ifvqdg0","pricing_plan_id":"cebpf4jnsgd1na2vs0mg"},{"bike_id":"dbfb3ced-036d-4d00-a210-e42a5d010b30","system_id":"levelo_inurba_marseille","lat":43.26566,"lon":5.39005,"is_reserved":false,"is_disabled":false,"rental_uris":{"android":"levelo://app?vid=dbfb3ced-036d-4d00-a210-e42a5d010b30","ios":"levelo://app?vid=dbfb3ced-036d-4d00-a210-e42a5d010b30"},"vehicle_type_id":"4","last_reported":1747426266,"current_range_meters":15200,"station_id":"ce4bhe12rcd13ifvqf30","pricing_plan_id":"cebpf4jnsgd1na2vs0mg"},{"bike_id":"852ea9ac-6507-488a-87c5-b27d54b34b2e","system_id":"levelo_inurba_marseille","lat":43.28164,"lon":5.42645,"is_reserved":false,"is_disabled":false,"rental_uris":{"android":"levelo://app?vid=852ea9ac-6507-488a-87c5-b27d54b34b2e","ios":"levelo://app?vid=852ea9ac-6507-488a-87c5-b27d54b34b2e"},"vehicle_type_id":"4","last_reported":1747426266,"current_range_meters":15200,"station_id":"ce4bhnh2rcd13ifvqgug","pricing_plan_id":"cebpf4jnsgd1na2vs0mg"},{"bike_id":"1bc757af-ca1a-4a10-96ef-231be6654a9a","system_id":"levelo_inurba_marseille","lat":43.24066,"lon":5.37758,"is_reserved":false,"is_disabled":false,"rental_uris":{"android":"levelo://app?vid=1bc757af-ca1a-4a10-96ef-231be6654a9a","ios":"levelo://app?vid=1bc757af-ca1a-4a10-96ef-231be6654a9a"},"vehicle_type_id":"4","last_reported":1747426266,"current_range_meters":15200,"station_id":"ce4bhnp2rcd13ifvqgvg","pricing_plan_id":"cebpf4jnsgd1na2vs0mg"},{"bike_id":"2a9d0bc3-deae-4a39-b85c-52d709abed2e","system_id":"levelo_inurba_marseille","lat":43.309265,"lon":5.378215,"is_reserved":false,"is_disabled":false,"rental_uris":{"android":"levelo://app?vid=2a9d0bc3-deae-4a39-b85c-52d709abed2e","ios":"levelo://app?vid=2a9d0bc3-deae-4a39-b85c-52d709abed2e"},"vehicle_type_id":"4","last_reported":1747426266,"current_range_meters":16000,"station_id":"","pricing_plan_id":"cebpf4jnsgd1na2vs0mg"},{"bike_id":"d65b6484-d39a-43bf-9c4f-2dda3844e812","system_id":"levelo_inurba_marseille","lat":43.29526,"lon":5.38546,"is_reserved":false,"is_disabled":false,"rental_uris":{"android":"levelo://app?vid=d65b6484-d39a-43bf-9c4f-2dda3844e812","ios":"levelo://app?vid=d65b6484-d39a-43bf-9c4f-2dda3844e812"},"vehicle_type_id":"4","last_reported":1747426266,"current_range_meters":16000,"station_id":"ce4bgih2rcd13ifvqba0","pricing_plan_id":"cebpf4jnsgd1na2vs0mg"},{"bike_id":"eebf0417-4098-4672-a6ae-d82fc3dc3062","system_id":"levelo_inurba_marseille","lat":43.29723,"lon":5.37649,"is_reserved":false,"is_disabled":false,"rental_uris":{"android":"levelo://app?vid=eebf0417-4098-4672-a6ae-d82fc3dc3062","ios":"levelo://app?vid=eebf0417-4098-4672-a6ae-d82fc3dc3062"},"vehicle_type_id":"4","last_reported":1747426266,"current_range_meters":16000,"station_id":"ce4bgkh2rcd13ifvqbl0","pricing_plan_id":"cebpf4jnsgd1na2vs0mg"},{"bike_id":"18d601e0-dc7b-4743-b318-1868f49e3561","system_id":"levelo_inurba_marseille","lat":43.30809,"lon":5.38166,"is_reserved":false,"is_disabled":false,"rental_uris":{"android":"levelo://app?vid=18d601e0-dc7b-4743-b318-1868f49e3561","ios":"levelo://app?vid=18d601e0-dc7b-4743-b318-1868f49e3561"},"vehicle_type_id":"4","last_reported":1747426266,"current_range_meters":16000,"station_id":"ce4bgt12rcd13ifvqce0","pricing_plan_id":"cebpf4jnsgd1na2vs0mg"},{"bike_id":"2d3ae33e-4fa1-422d-874c-5fe22438c5ea","system_id":"levelo_inurba_marseille","lat":43.29423,"lon":5.38614,"is_reserved":false,"is_disabled":false,"rental_uris":{"android":"levelo://app?vid=2d3ae33e-4fa1-422d-874c-5fe22438c5ea","ios":"levelo://app?vid=2d3ae33e-4fa1-422d-874c-5fe22438c5ea"},"vehicle_type_id":"4","last_reported":1747426266,"current_range_meters":16000,"station_id":"ce4bh2h2rcd13ifvqdh0","pricing_plan_id":"cebpf4jnsgd1na2vs0mg"},{"bike_id":"7da22055-f3b0-49d0-bb0a-242a18c15fa8","system_id":"levelo_inurba_marseille","lat":43.28969,"lon":5.37832,"is_reserved":false,"is_disabled":false,"rental_uris":{"android":"levelo://app?vid=7da22055-f3b0-49d0-bb0a-242a18c15fa8","ios":"levelo://app?vid=7da22055-f3b0-49d0-bb0a-242a18c15fa8"},"vehicle_type_id":"4","last_reported":1747426266,"current_range_meters":16000,"station_id":"ce4bh9p2rcd13ifvqed0","pricing_plan_id":"cebpf4jnsgd1na2vs0mg"},{"bike_id":"45b43396-6ec7-4949-919d-8349409d2af8","system_id":"levelo_inurba_marseille","lat":43.24798,"lon":5.37443,"is_reserved":false,"is_disabled":false,"rental_uris":{"android":"levelo://app?vid=45b43396-6ec7-4949-919d-8349409d2af8","ios":"levelo://app?vid=45b43396-6ec7-4949-919d-8349409d2af8"},"vehicle_type_id":"4","last_reported":1747426266,"current_range_meters":16000,"station_id":"ce4bhgh2rcd13ifvqfb0","pricing_plan_id":"cebpf4jnsgd1na2vs0mg"},{"bike_id":"54bb5cff-3a0c-47d7-84fb-50c6b62fd77d","system_id":"levelo_inurba_marseille","lat":43.28077,"lon":5.39664,"is_reserved":false,"is_disabled":false,"rental_uris":{"android":"levelo://app?vid=54bb5cff-3a0c-47d7-84fb-50c6b62fd77d","ios":"levelo://app?vid=54bb5cff-3a0c-47d7-84fb-50c6b62fd77d"},"vehicle_type_id":"4","last_reported":1747426266,"current_range_meters":16000,"station_id":"ce4bho12rcd13ifvqh2g","pricing_plan_id":"cebpf4jnsgd1na2vs0mg"},{"bike_id":"fed0c1c7-f43a-459d-87ed-3ca2ca025ee3","system_id":"levelo_inurba_marseille","lat":43.29784,"lon":5.39333,"is_reserved":false,"is_disabled":false,"rental_uris":{"android":"levelo://app?vid=fed0c1c7-f43a-459d-87ed-3ca2ca025ee3","ios":"levelo://app?vid=fed0c1c7-f43a-459d-87ed-3ca2ca025ee3"},"vehicle_type_id":"4","last_reported":1747426266,"current_range_meters":16000,"station_id":"chh1huq6cuj3fo74tm60","pricing_plan_id":"cebpf4jnsgd1na2vs0mg"},{"bike_id":"b15acf99-a4c0-4a0e-8ffe-93213d16b527","system_id":"levelo_inurba_marseille","lat":43.30889,"lon":5.3742,"is_reserved":false,"is_disabled":false,"rental_uris":{"android":"levelo://app?vid=b15acf99-a4c0-4a0e-8ffe-93213d16b527","ios":"levelo://app?vid=b15acf99-a4c0-4a0e-8ffe-93213d16b527"},"vehicle_type_id":"4","last_reported":1747426266,"current_range_meters":16400,"station_id":"","pricing_plan_id":"cebpf4jnsgd1na2vs0mg"},{"bike_id":"9daceea2-badd-476d-aa5e-bad175bbe520","system_id":"levelo_inurba_marseille","lat":43.29527,"lon":5.39402,"is_reserved":false,"is_disabled":false,"rental_uris":{"android":"levelo://app?vid=9daceea2-badd-476d-aa5e-bad175bbe520","ios":"levelo://app?vid=9daceea2-badd-476d-aa5e-bad175bbe520"},"vehicle_type_id":"4","last_reported":1747426266,"current_range_meters":16400,"station_id":"ce4bh292rcd13ifvqdf0","pricing_plan_id":"cebpf4jnsgd1na2vs0mg"},{"bike_id":"a7293cba-51be-46b4-8b6b-3ff7908bce5c","system_id":"levelo_inurba_marseille","lat":43.28933,"lon":5.38401,"is_reserved":false,"is_disabled":false,"rental_uris":{"android":"levelo://app?vid=a7293cba-51be-46b4-8b6b-3ff7908bce5c","ios":"levelo://app?vid=a7293cba-51be-46b4-8b6b-3ff7908bce5c"},"vehicle_type_id":"4","last_reported":1747426266,"current_range_meters":16400,"station_id":"ce4bh612rcd13ifvqe6g","pricing_plan_id":"cebpf4jnsgd1na2vs0mg"},{"bike_id":"d2c445e1-c445-4dca-99d4-f7360eefaeb9","system_id":"levelo_inurba_marseille","lat":43.29259,"lon":5.38442,"is_reserved":false,"is_disabled":false,"rental_uris":{"android":"levelo://app?vid=d2c445e1-c445-4dca-99d4-f7360eefaeb9","ios":"levelo://app?vid=d2c445e1-c445-4dca-99d4-f7360eefaeb9"},"vehicle_type_id":"4","last_reported":1747426266,"current_range_meters":16400,"station_id":"ce4bh692rcd13ifvqea0","pricing_plan_id":"cebpf4jnsgd1na2vs0mg"},{"bike_id":"c721b5a3-2e8c-48be-86db-c2b48bfbe8c0","system_id":"levelo_inurba_marseille","lat":43.23178,"lon":5.39998,"is_reserved":false,"is_disabled":false,"rental_uris":{"android":"levelo://app?vid=c721b5a3-2e8c-48be-86db-c2b48bfbe8c0","ios":"levelo://app?vid=c721b5a3-2e8c-48be-86db-c2b48bfbe8c0"},"vehicle_type_id":"4","last_reported":1747426266,"current_range_meters":16400,"station_id":"ce4bhn12rcd13ifvqgqg","pricing_plan_id":"cebpf4jnsgd1na2vs0mg"},{"bike_id":"c3b5d01f-fec2-4203-b7f9-c93cc5f8eeea","system_id":"levelo_inurba_marseille","lat":43.31162,"lon":5.38721,"is_reserved":false,"is_disabled":false,"rental_uris":{"android":"levelo://app?vid=c3b5d01f-fec2-4203-b7f9-c93cc5f8eeea","ios":"levelo://app?vid=c3b5d01f-fec2-4203-b7f9-c93cc5f8eeea"},"vehicle_type_id":"4","last_reported":1747426266,"current_range_meters":16800,"station_id":"ce4bgv12rcd13ifvqcp0","pricing_plan_id":"cebpf4jnsgd1na2vs0mg"},{"bike_id":"bd23fc44-b2d7-43b3-bcfd-480fc3bdfa99","system_id":"levelo_inurba_marseille","lat":43.2963,"lon":5.40595,"is_reserved":false,"is_disabled":false,"rental_uris":{"android":"levelo://app?vid=bd23fc44-b2d7-43b3-bcfd-480fc3bdfa99","ios":"levelo://app?vid=bd23fc44-b2d7-43b3-bcfd-480fc3bdfa99"},"vehicle_type_id":"4","last_reported":1747426266,"current_range_meters":16800,"station_id":"ce4bh0h2rcd13ifvqd60","pricing_plan_id":"cebpf4jnsgd1na2vs0mg"},{"bike_id":"99ce3c70-3c6e-4676-bc8f-b051813aee58","system_id":"levelo_inurba_marseille","lat":43.3064,"lon":5.40098,"is_reserved":false,"is_disabled":false,"rental_uris":{"android":"levelo://app?vid=99ce3c70-3c6e-4676-bc8f-b051813aee58","ios":"levelo://app?vid=99ce3c70-3c6e-4676-bc8f-b051813aee58"},"vehicle_type_id":"4","last_reported":1747426266,"current_range_meters":16800,"station_id":"ce4bh112rcd13ifvqda0","pricing_plan_id":"cebpf4jnsgd1na2vs0mg"},{"bike_id":"80eaa82f-8c9d-458a-9a75-5662bdee1dee","system_id":"levelo_inurba_marseille","lat":43.28929,"lon":5.384,"is_reserved":false,"is_disabled":false,"rental_uris":{"android":"levelo://app?vid=80eaa82f-8c9d-458a-9a75-5662bdee1dee","ios":"levelo://app?vid=80eaa82f-8c9d-458a-9a75-5662bdee1dee"},"vehicle_type_id":"4","last_reported":1747426266,"current_range_meters":16800,"station_id":"ce4bh612rcd13ifvqe6g","pricing_plan_id":"cebpf4jnsgd1na2vs0mg"},{"bike_id":"e52dd83b-6749-4ba5-bee0-59b7ec50cb59","system_id":"levelo_inurba_marseille","lat":43.28727,"lon":5.37934,"is_reserved":false,"is_disabled":false,"rental_uris":{"android":"levelo://app?vid=e52dd83b-6749-4ba5-bee0-59b7ec50cb59","ios":"levelo://app?vid=e52dd83b-6749-4ba5-bee0-59b7ec50cb59"},"vehicle_type_id":"4","last_reported":1747426266,"current_range_meters":16800,"station_id":"ce4bh9p2rcd13ifvqec0","pricing_plan_id":"cebpf4jnsgd1na2vs0mg"},{"bike_id":"2339941f-c08d-4bf7-993d-500e8ad48b80","system_id":"levelo_inurba_marseille","lat":43.27073,"lon":5.42286,"is_reserved":false,"is_disabled":false,"rental_uris":{"android":"levelo://app?vid=2339941f-c08d-4bf7-993d-500e8ad48b80","ios":"levelo://app?vid=2339941f-c08d-4bf7-993d-500e8ad48b80"},"vehicle_type_id":"4","last_reported":1747426266,"current_range_meters":16800,"station_id":"ce4bhk92rcd13ifvqgb0","pricing_plan_id":"cebpf4jnsgd1na2vs0mg"},{"bike_id":"6fe716ec-3e66-40a0-90cd-a86ee2fdef59","system_id":"levelo_inurba_marseille","lat":43.321109,"lon":5.367656,"is_reserved":false,"is_disabled":false,"rental_uris":{"android":"levelo://app?vid=6fe716ec-3e66-40a0-90cd-a86ee2fdef59","ios":"levelo://app?vid=6fe716ec-3e66-40a0-90cd-a86ee2fdef59"},"vehicle_type_id":"4","last_reported":1747426266,"current_range_meters":16800,"station_id":"ce4bhrh2rcd13ifvqhug","pricing_plan_id":"cebpf4jnsgd1na2vs0mg"},{"bike_id":"d9b504ee-8007-4760-a4a1-f54f52b040ce","system_id":"levelo_inurba_marseille","lat":43.302741,"lon":5.372837,"is_reserved":false,"is_disabled":false,"rental_uris":{"android":"levelo://app?vid=d9b504ee-8007-4760-a4a1-f54f52b040ce","ios":"levelo://app?vid=d9b504ee-8007-4760-a4a1-f54f52b040ce"},"vehicle_type_id":"4","last_reported":1747426266,"current_range_meters":17200,"station_id":"","pricing_plan_id":"cebpf4jnsgd1na2vs0mg"},{"bike_id":"66c9ba81-65aa-4493-9aa6-6bf447dc9c10","system_id":"levelo_inurba_marseille","lat":43.29562,"lon":5.37492,"is_reserved":false,"is_disabled":false,"rental_uris":{"android":"levelo://app?vid=66c9ba81-65aa-4493-9aa6-6bf447dc9c10","ios":"levelo://app?vid=66c9ba81-65aa-4493-9aa6-6bf447dc9c10"},"vehicle_type_id":"4","last_reported":1747426266,"current_range_meters":17200,"station_id":"ce4bgh92rcd13ifvqb50","pricing_plan_id":"cebpf4jnsgd1na2vs0mg"},{"bike_id":"db7d8d78-e9ee-438a-9d96-7b8a24cd5b5d","system_id":"levelo_inurba_marseille","lat":43.2942,"lon":5.38626,"is_reserved":false,"is_disabled":false,"rental_uris":{"android":"levelo://app?vid=db7d8d78-e9ee-438a-9d96-7b8a24cd5b5d","ios":"levelo://app?vid=db7d8d78-e9ee-438a-9d96-7b8a24cd5b5d"},"vehicle_type_id":"4","last_reported":1747426266,"current_range_meters":17200,"station_id":"ce4bh2h2rcd13ifvqdh0","pricing_plan_id":"cebpf4jnsgd1na2vs0mg"},{"bike_id":"f50c7cf3-0392-472a-8ba3-5760425852ec","system_id":"levelo_inurba_marseille","lat":43.29255,"lon":5.38439,"is_reserved":false,"is_disabled":false,"rental_uris":{"android":"levelo://app?vid=f50c7cf3-0392-472a-8ba3-5760425852ec","ios":"levelo://app?vid=f50c7cf3-0392-472a-8ba3-5760425852ec"},"vehicle_type_id":"4","last_reported":1747426266,"current_range_meters":17200,"station_id":"ce4bh692rcd13ifvqea0","pricing_plan_id":"cebpf4jnsgd1na2vs0mg"},{"bike_id":"d834471b-eb2f-406b-a6ff-4479b5f33dde","system_id":"levelo_inurba_marseille","lat":43.28946,"lon":5.36636,"is_reserved":false,"is_disabled":false,"rental_uris":{"android":"levelo://app?vid=d834471b-eb2f-406b-a6ff-4479b5f33dde","ios":"levelo://app?vid=d834471b-eb2f-406b-a6ff-4479b5f33dde"},"vehicle_type_id":"4","last_reported":1747426266,"current_range_meters":17200,"station_id":"ce4bhap2rcd13ifvqek0","pricing_plan_id":"cebpf4jnsgd1na2vs0mg"},{"bike_id":"98394d0a-2f95-42fb-90a4-03607814f16d","system_id":"levelo_inurba_marseille","lat":43.25582,"lon":5.38228,"is_reserved":false,"is_disabled":false,"rental_uris":{"android":"levelo://app?vid=98394d0a-2f95-42fb-90a4-03607814f16d","ios":"levelo://app?vid=98394d0a-2f95-42fb-90a4-03607814f16d"},"vehicle_type_id":"4","last_reported":1747426266,"current_range_meters":17200,"station_id":"ce4bhih2rcd13ifvqfs0","pricing_plan_id":"cebpf4jnsgd1na2vs0mg"},{"bike_id":"67aa5c5a-17b0-4ee7-8cea-573c9ae16075","system_id":"levelo_inurba_marseille","lat":43.25824,"lon":5.394296,"is_reserved":false,"is_disabled":false,"rental_uris":{"android":"levelo://app?vid=67aa5c5a-17b0-4ee7-8cea-573c9ae16075","ios":"levelo://app?vid=67aa5c5a-17b0-4ee7-8cea-573c9ae16075"},"vehicle_type_id":"4","last_reported":1747426266,"current_range_meters":17200,"station_id":"ce4bhip2rcd13ifvqft0","pricing_plan_id":"cebpf4jnsgd1na2vs0mg"},{"bike_id":"386c7031-2256-424f-8cc5-7a04f4b822a9","system_id":"levelo_inurba_marseille","lat":43.27811,"lon":5.4072,"is_reserved":false,"is_disabled":false,"rental_uris":{"android":"levelo://app?vid=386c7031-2256-424f-8cc5-7a04f4b822a9","ios":"levelo://app?vid=386c7031-2256-424f-8cc5-7a04f4b822a9"},"vehicle_type_id":"4","last_reported":1747426266,"current_range_meters":17200,"station_id":"ce4bhnh2rcd13ifvqgtg","pricing_plan_id":"cebpf4jnsgd1na2vs0mg"},{"bike_id":"194f17c8-93f0-4ff7-9d7b-60238225a3ec","system_id":"levelo_inurba_marseille","lat":43.261594,"lon":5.420704,"is_reserved":false,"is_disabled":false,"rental_uris":{"android":"levelo://app?vid=194f17c8-93f0-4ff7-9d7b-60238225a3ec","ios":"levelo://app?vid=194f17c8-93f0-4ff7-9d7b-60238225a3ec"},"vehicle_type_id":"4","last_reported":1747426266,"current_range_meters":17600,"station_id":"","pricing_plan_id":"cebpf4jnsgd1na2vs0mg"},{"bike_id":"b9239cd0-a904-4f40-aaea-5ef4f504a041","system_id":"levelo_inurba_marseille","lat":43.29019,"lon":5.38122,"is_reserved":false,"is_disabled":false,"rental_uris":{"android":"levelo://app?vid=b9239cd0-a904-4f40-aaea-5ef4f504a041","ios":"levelo://app?vid=b9239cd0-a904-4f40-aaea-5ef4f504a041"},"vehicle_type_id":"4","last_reported":1747426266,"current_range_meters":17600,"station_id":"ce4bh4p2rcd13ifvqe1g","pricing_plan_id":"cebpf4jnsgd1na2vs0mg"},{"bike_id":"09faf491-5bc6-43bb-a867-ba376f64d781","system_id":"levelo_inurba_marseille","lat":43.29267,"lon":5.38446,"is_reserved":false,"is_disabled":false,"rental_uris":{"android":"levelo://app?vid=09faf491-5bc6-43bb-a867-ba376f64d781","ios":"levelo://app?vid=09faf491-5bc6-43bb-a867-ba376f64d781"},"vehicle_type_id":"4","last_reported":1747426266,"current_range_meters":17600,"station_id":"ce4bh692rcd13ifvqea0","pricing_plan_id":"cebpf4jnsgd1na2vs0mg"},{"bike_id":"75adaec3-de8d-4e50-b246-3cd272ef3ef4","system_id":"levelo_inurba_marseille","lat":43.29257,"lon":5.38444,"is_reserved":false,"is_disabled":false,"rental_uris":{"android":"levelo://app?vid=75adaec3-de8d-4e50-b246-3cd272ef3ef4","ios":"levelo://app?vid=75adaec3-de8d-4e50-b246-3cd272ef3ef4"},"vehicle_type_id":"4","last_reported":1747426266,"current_range_meters":17600,"station_id":"ce4bh692rcd13ifvqea0","pricing_plan_id":"cebpf4jnsgd1na2vs0mg"},{"bike_id":"8f600fbf-ec68-4624-9822-6cce2bd50be5","system_id":"levelo_inurba_marseille","lat":43.32528,"lon":5.4283,"is_reserved":false,"is_disabled":false,"rental_uris":{"android":"levelo://app?vid=8f600fbf-ec68-4624-9822-6cce2bd50be5","ios":"levelo://app?vid=8f600fbf-ec68-4624-9822-6cce2bd50be5"},"vehicle_type_id":"4","last_reported":1747426266,"current_range_meters":18000,"station_id":"","pricing_plan_id":"cebpf4jnsgd1na2vs0mg"},{"bike_id":"512db903-9559-40c7-8902-6a98e3c8c53c","system_id":"levelo_inurba_marseille","lat":43.329454,"lon":5.38988,"is_reserved":false,"is_disabled":false,"rental_uris":{"android":"levelo://app?vid=512db903-9559-40c7-8902-6a98e3c8c53c","ios":"levelo://app?vid=512db903-9559-40c7-8902-6a98e3c8c53c"},"vehicle_type_id":"4","last_reported":1747426266,"current_range_meters":18000,"station_id":"","pricing_plan_id":"cebpf4jnsgd1na2vs0mg"},{"bike_id":"9d6e4826-c9ad-492b-8ecb-11b8b04d61d6","system_id":"levelo_inurba_marseille","lat":43.29534,"lon":5.38549,"is_reserved":false,"is_disabled":false,"rental_uris":{"android":"levelo://app?vid=9d6e4826-c9ad-492b-8ecb-11b8b04d61d6","ios":"levelo://app?vid=9d6e4826-c9ad-492b-8ecb-11b8b04d61d6"},"vehicle_type_id":"4","last_reported":1747426266,"current_range_meters":18000,"station_id":"ce4bgih2rcd13ifvqba0","pricing_plan_id":"cebpf4jnsgd1na2vs0mg"},{"bike_id":"4be4c2f7-0554-4497-b428-7a8dbeae7d74","system_id":"levelo_inurba_marseille","lat":43.29727,"lon":5.37685,"is_reserved":false,"is_disabled":false,"rental_uris":{"android":"levelo://app?vid=4be4c2f7-0554-4497-b428-7a8dbeae7d74","ios":"levelo://app?vid=4be4c2f7-0554-4497-b428-7a8dbeae7d74"},"vehicle_type_id":"4","last_reported":1747426266,"current_range_meters":18000,"station_id":"ce4bgkh2rcd13ifvqbl0","pricing_plan_id":"cebpf4jnsgd1na2vs0mg"},{"bike_id":"3a17d5f6-bc61-4e58-9fa6-03603da4bbdd","system_id":"levelo_inurba_marseille","lat":43.301763,"lon":5.366251,"is_reserved":false,"is_disabled":false,"rental_uris":{"android":"levelo://app?vid=3a17d5f6-bc61-4e58-9fa6-03603da4bbdd","ios":"levelo://app?vid=3a17d5f6-bc61-4e58-9fa6-03603da4bbdd"},"vehicle_type_id":"4","last_reported":1747426266,"current_range_meters":18000,"station_id":"ce4bgrh2rcd13ifvqc8g","pricing_plan_id":"cebpf4jnsgd1na2vs0mg"},{"bike_id":"4b405524-c33f-40da-a4a3-4997b261ca59","system_id":"levelo_inurba_marseille","lat":43.3081,"lon":5.38164,"is_reserved":false,"is_disabled":false,"rental_uris":{"android":"levelo://app?vid=4b405524-c33f-40da-a4a3-4997b261ca59","ios":"levelo://app?vid=4b405524-c33f-40da-a4a3-4997b261ca59"},"vehicle_type_id":"4","last_reported":1747426266,"current_range_meters":18000,"station_id":"ce4bgt12rcd13ifvqce0","pricing_plan_id":"cebpf4jnsgd1na2vs0mg"},{"bike_id":"92daedc9-997e-4e51-a6a7-8556d4714f07","system_id":"levelo_inurba_marseille","lat":43.30126,"lon":5.39841,"is_reserved":false,"is_disabled":false,"rental_uris":{"android":"levelo://app?vid=92daedc9-997e-4e51-a6a7-8556d4714f07","ios":"levelo://app?vid=92daedc9-997e-4e51-a6a7-8556d4714f07"},"vehicle_type_id":"4","last_reported":1747426266,"current_range_meters":18000,"station_id":"ce4bh0h2rcd13ifvqd40","pricing_plan_id":"cebpf4jnsgd1na2vs0mg"},{"bike_id":"b446054a-cc24-4af8-99bb-a2e1b1c3ad12","system_id":"levelo_inurba_marseille","lat":43.29418,"lon":5.38619,"is_reserved":false,"is_disabled":false,"rental_uris":{"android":"levelo://app?vid=b446054a-cc24-4af8-99bb-a2e1b1c3ad12","ios":"levelo://app?vid=b446054a-cc24-4af8-99bb-a2e1b1c3ad12"},"vehicle_type_id":"4","last_reported":1747426266,"current_range_meters":18000,"station_id":"ce4bh2h2rcd13ifvqdh0","pricing_plan_id":"cebpf4jnsgd1na2vs0mg"},{"bike_id":"e4ac6e3e-fba5-4367-a755-53f04941a18e","system_id":"levelo_inurba_marseille","lat":43.28679,"lon":5.38671,"is_reserved":false,"is_disabled":false,"rental_uris":{"android":"levelo://app?vid=e4ac6e3e-fba5-4367-a755-53f04941a18e","ios":"levelo://app?vid=e4ac6e3e-fba5-4367-a755-53f04941a18e"},"vehicle_type_id":"4","last_reported":1747426266,"current_range_meters":18000,"station_id":"ce4bh492rcd13ifvqdug","pricing_plan_id":"cebpf4jnsgd1na2vs0mg"},{"bike_id":"004b2e49-6cfc-432f-bda7-aa644900cbc8","system_id":"levelo_inurba_marseille","lat":43.290801,"lon":5.371606,"is_reserved":false,"is_disabled":false,"rental_uris":{"android":"levelo://app?vid=004b2e49-6cfc-432f-bda7-aa644900cbc8","ios":"levelo://app?vid=004b2e49-6cfc-432f-bda7-aa644900cbc8"},"vehicle_type_id":"4","last_reported":1747426266,"current_range_meters":18000,"station_id":"ce4bh5p2rcd13ifvqe4g","pricing_plan_id":"cebpf4jnsgd1na2vs0mg"},{"bike_id":"285604ce-f103-462f-bd9d-5d3fdab5e744","system_id":"levelo_inurba_marseille","lat":43.2892,"lon":5.38398,"is_reserved":false,"is_disabled":false,"rental_uris":{"android":"levelo://app?vid=285604ce-f103-462f-bd9d-5d3fdab5e744","ios":"levelo://app?vid=285604ce-f103-462f-bd9d-5d3fdab5e744"},"vehicle_type_id":"4","last_reported":1747426266,"current_range_meters":18000,"station_id":"ce4bh612rcd13ifvqe6g","pricing_plan_id":"cebpf4jnsgd1na2vs0mg"},{"bike_id":"e242502b-7ca2-4ab0-ae7f-7fe9cd9f77f1","system_id":"levelo_inurba_marseille","lat":43.29251,"lon":5.38442,"is_reserved":false,"is_disabled":false,"rental_uris":{"android":"levelo://app?vid=e242502b-7ca2-4ab0-ae7f-7fe9cd9f77f1","ios":"levelo://app?vid=e242502b-7ca2-4ab0-ae7f-7fe9cd9f77f1"},"vehicle_type_id":"4","last_reported":1747426266,"current_range_meters":18000,"station_id":"ce4bh692rcd13ifvqea0","pricing_plan_id":"cebpf4jnsgd1na2vs0mg"},{"bike_id":"4eafee09-44c7-4798-951b-631df3d89494","system_id":"levelo_inurba_marseille","lat":43.28735,"lon":5.3793,"is_reserved":false,"is_disabled":false,"rental_uris":{"android":"levelo://app?vid=4eafee09-44c7-4798-951b-631df3d89494","ios":"levelo://app?vid=4eafee09-44c7-4798-951b-631df3d89494"},"vehicle_type_id":"4","last_reported":1747426266,"current_range_meters":18000,"station_id":"ce4bh9p2rcd13ifvqec0","pricing_plan_id":"cebpf4jnsgd1na2vs0mg"},{"bike_id":"1ec83e00-48b0-4161-9b16-cdba694a247f","system_id":"levelo_inurba_marseille","lat":43.30411,"lon":5.41285,"is_reserved":false,"is_disabled":false,"rental_uris":{"android":"levelo://app?vid=1ec83e00-48b0-4161-9b16-cdba694a247f","ios":"levelo://app?vid=1ec83e00-48b0-4161-9b16-cdba694a247f"},"vehicle_type_id":"4","last_reported":1747426266,"current_range_meters":18000,"station_id":"ce4bhop2rcd13ifvqh8g","pricing_plan_id":"cebpf4jnsgd1na2vs0mg"},{"bike_id":"6959522a-bd59-4233-a378-b798da685450","system_id":"levelo_inurba_marseille","lat":43.24157,"lon":5.36391,"is_reserved":false,"is_disabled":false,"rental_uris":{"android":"levelo://app?vid=6959522a-bd59-4233-a378-b798da685450","ios":"levelo://app?vid=6959522a-bd59-4233-a378-b798da685450"},"vehicle_type_id":"4","last_reported":1747426266,"current_range_meters":18000,"station_id":"cpo36qri1sfpv3e86is0","pricing_plan_id":"cebpf4jnsgd1na2vs0mg"},{"bike_id":"bc45efe0-071f-4aaa-aef4-e77d7627576f","system_id":"levelo_inurba_marseille","lat":43.29225,"lon":5.36271,"is_reserved":false,"is_disabled":false,"rental_uris":{"android":"levelo://app?vid=bc45efe0-071f-4aaa-aef4-e77d7627576f","ios":"levelo://app?vid=bc45efe0-071f-4aaa-aef4-e77d7627576f"},"vehicle_type_id":"4","last_reported":1747426266,"current_range_meters":18800,"station_id":"","pricing_plan_id":"cebpf4jnsgd1na2vs0mg"},{"bike_id":"8e056ffe-bcc3-4cfa-bd3f-ab0666143657","system_id":"levelo_inurba_marseille","lat":43.28658,"lon":5.36355,"is_reserved":false,"is_disabled":false,"rental_uris":{"android":"levelo://app?vid=8e056ffe-bcc3-4cfa-bd3f-ab0666143657","ios":"levelo://app?vid=8e056ffe-bcc3-4cfa-bd3f-ab0666143657"},"vehicle_type_id":"4","last_reported":1747426266,"current_range_meters":18800,"station_id":"ce4bhah2rcd13ifvqej0","pricing_plan_id":"cebpf4jnsgd1na2vs0mg"},{"bike_id":"cc290fa0-e559-49a0-a732-2b27bc8dc272","system_id":"levelo_inurba_marseille","lat":43.25007,"lon":5.38947,"is_reserved":false,"is_disabled":false,"rental_uris":{"android":"levelo://app?vid=cc290fa0-e559-49a0-a732-2b27bc8dc272","ios":"levelo://app?vid=cc290fa0-e559-49a0-a732-2b27bc8dc272"},"vehicle_type_id":"4","last_reported":1747426266,"current_range_meters":18800,"station_id":"ce4bhgp2rcd13ifvqfd0","pricing_plan_id":"cebpf4jnsgd1na2vs0mg"},{"bike_id":"e6c9b43c-5012-4197-aff7-2b3816a7f0ed","system_id":"levelo_inurba_marseille","lat":43.27581,"lon":5.38421,"is_reserved":false,"is_disabled":false,"rental_uris":{"android":"levelo://app?vid=e6c9b43c-5012-4197-aff7-2b3816a7f0ed","ios":"levelo://app?vid=e6c9b43c-5012-4197-aff7-2b3816a7f0ed"},"vehicle_type_id":"4","last_reported":1747426266,"current_range_meters":18800,"station_id":"ce4bhh92rcd13ifvqfi0","pricing_plan_id":"cebpf4jnsgd1na2vs0mg"},{"bike_id":"5b22c96d-1b61-436e-a53c-3fef0e6c3965","system_id":"levelo_inurba_marseille","lat":43.30919,"lon":5.4014,"is_reserved":false,"is_disabled":false,"rental_uris":{"android":"levelo://app?vid=5b22c96d-1b61-436e-a53c-3fef0e6c3965","ios":"levelo://app?vid=5b22c96d-1b61-436e-a53c-3fef0e6c3965"},"vehicle_type_id":"4","last_reported":1747426266,"current_range_meters":19200,"station_id":"ce4bgvp2rcd13ifvqct0","pricing_plan_id":"cebpf4jnsgd1na2vs0mg"},{"bike_id":"5be532b7-33df-4806-96e9-0484f0dc30b3","system_id":"levelo_inurba_marseille","lat":43.292626,"lon":5.38432,"is_reserved":false,"is_disabled":false,"rental_uris":{"android":"levelo://app?vid=5be532b7-33df-4806-96e9-0484f0dc30b3","ios":"levelo://app?vid=5be532b7-33df-4806-96e9-0484f0dc30b3"},"vehicle_type_id":"4","last_reported":1747426266,"current_range_meters":19200,"station_id":"ce4bh692rcd13ifvqea0","pricing_plan_id":"cebpf4jnsgd1na2vs0mg"},{"bike_id":"c1a05539-6884-489e-8062-6de5aa0001a4","system_id":"levelo_inurba_marseille","lat":43.29228,"lon":5.36052,"is_reserved":false,"is_disabled":false,"rental_uris":{"android":"levelo://app?vid=c1a05539-6884-489e-8062-6de5aa0001a4","ios":"levelo://app?vid=c1a05539-6884-489e-8062-6de5aa0001a4"},"vehicle_type_id":"4","last_reported":1747426266,"current_range_meters":19200,"station_id":"ce4bhbh2rcd13ifvqeqg","pricing_plan_id":"cebpf4jnsgd1na2vs0mg"},{"bike_id":"b26a0dd7-cbdc-4ab7-8def-31c4b88b224a","system_id":"levelo_inurba_marseille","lat":43.31232,"lon":5.39259,"is_reserved":false,"is_disabled":false,"rental_uris":{"android":"levelo://app?vid=b26a0dd7-cbdc-4ab7-8def-31c4b88b224a","ios":"levelo://app?vid=b26a0dd7-cbdc-4ab7-8def-31c4b88b224a"},"vehicle_type_id":"4","last_reported":1747426266,"current_range_meters":19600,"station_id":"","pricing_plan_id":"cebpf4jnsgd1na2vs0mg"},{"bike_id":"0d6bc055-e586-453f-a05d-a4de3855f34e","system_id":"levelo_inurba_marseille","lat":43.32624,"lon":5.41364,"is_reserved":false,"is_disabled":false,"rental_uris":{"android":"levelo://app?vid=0d6bc055-e586-453f-a05d-a4de3855f34e","ios":"levelo://app?vid=0d6bc055-e586-453f-a05d-a4de3855f34e"},"vehicle_type_id":"4","last_reported":1747426266,"current_range_meters":19600,"station_id":"","pricing_plan_id":"cebpf4jnsgd1na2vs0mg"},{"bike_id":"bae4991d-a011-411d-a56a-2adf8a63311f","system_id":"levelo_inurba_marseille","lat":43.29294,"lon":5.37457,"is_reserved":false,"is_disabled":false,"rental_uris":{"android":"levelo://app?vid=bae4991d-a011-411d-a56a-2adf8a63311f","ios":"levelo://app?vid=bae4991d-a011-411d-a56a-2adf8a63311f"},"vehicle_type_id":"4","last_reported":1747426266,"current_range_meters":19600,"station_id":"ce4bgi12rcd13ifvqb70","pricing_plan_id":"cebpf4jnsgd1na2vs0mg"},{"bike_id":"297737f5-8311-46a5-a7b0-1a363a7253ea","system_id":"levelo_inurba_marseille","lat":43.27627,"lon":5.36105,"is_reserved":false,"is_disabled":false,"rental_uris":{"android":"levelo://app?vid=297737f5-8311-46a5-a7b0-1a363a7253ea","ios":"levelo://app?vid=297737f5-8311-46a5-a7b0-1a363a7253ea"},"vehicle_type_id":"4","last_reported":1747426266,"current_range_meters":19600,"station_id":"ce4bgj92rcd13ifvqbe0","pricing_plan_id":"cebpf4jnsgd1na2vs0mg"},{"bike_id":"29dad2c9-fd2d-47d8-aab8-efa95ed2c5ea","system_id":"levelo_inurba_marseille","lat":43.2942,"lon":5.38615,"is_reserved":false,"is_disabled":false,"rental_uris":{"android":"levelo://app?vid=29dad2c9-fd2d-47d8-aab8-efa95ed2c5ea","ios":"levelo://app?vid=29dad2c9-fd2d-47d8-aab8-efa95ed2c5ea"},"vehicle_type_id":"4","last_reported":1747426266,"current_range_meters":19600,"station_id":"ce4bh2h2rcd13ifvqdh0","pricing_plan_id":"cebpf4jnsgd1na2vs0mg"},{"bike_id":"89052c1b-e95c-422c-8ad1-9f017da0c226","system_id":"levelo_inurba_marseille","lat":43.28659,"lon":5.36356,"is_reserved":false,"is_disabled":false,"rental_uris":{"android":"levelo://app?vid=89052c1b-e95c-422c-8ad1-9f017da0c226","ios":"levelo://app?vid=89052c1b-e95c-422c-8ad1-9f017da0c226"},"vehicle_type_id":"4","last_reported":1747426266,"current_range_meters":19600,"station_id":"ce4bhah2rcd13ifvqej0","pricing_plan_id":"cebpf4jnsgd1na2vs0mg"},{"bike_id":"56457156-ebc9-4bd5-8eae-ce0db2891a93","system_id":"levelo_inurba_marseille","lat":43.24658,"lon":5.38165,"is_reserved":false,"is_disabled":false,"rental_uris":{"android":"levelo://app?vid=56457156-ebc9-4bd5-8eae-ce0db2891a93","ios":"levelo://app?vid=56457156-ebc9-4bd5-8eae-ce0db2891a93"},"vehicle_type_id":"4","last_reported":1747426266,"current_range_meters":19600,"station_id":"ce4bhih2rcd13ifvqfr0","pricing_plan_id":"cebpf4jnsgd1na2vs0mg"},