{"last_updated":1744488571,"ttl":60,"version":"2.2","data":{"bikes":[{"bike_id":"27b844b5-e67f-4d74-a30e-f7d3cf122785","system_id":"levelo_inurba_marseille","lat":43.284622,"lon":5.359033,"is_reserved":false,"is_disabled":false,"rental_uris":{"android":"levelo://app?vid=27b844b5-e67f-4d74-a30e-f7d3cf122785","ios":"levelo://app?vid=27b844b5-e67f-4d74-a30e-f7d3cf122785"},"vehicle_type_id":"4","last_reported":1744488571,"current_range_meters":2800,"station_id":"ce4bhah2rcd13ifvqei0","pricing_plan_id":"cebpf4jnsgd1na2vs0mg"},{"bike_id":"57bcfad0-f9e5-4d53-8cf3-f3dc91249cb9","system_id":"levelo_inurba_marseille","lat":43.28388,"lon":5.37543,"is_reserved":false,"is_disabled":false,"rental_uris":{"android":"levelo://app?vid=57bcfad0-f9e5-4d53-8cf3-f3dc91249cb9","ios":"levelo://app?vid=57bcfad0-f9e5-4d53-8cf3-f3dc91249cb9"},"vehicle_type_id":"4","last_reported":1744488571,"current_range_meters":2800,"station_id":"ce4bh412rcd13ifvqds0","pricing_plan_id":"cebpf4jnsgd1na2vs0mg"},{"bike_id":"cdbd18e8-3b85-49bd-9a63-1835fe8792d9","system_id":"levelo_inurba_marseille","lat":43.25863,"lon":5.39914,"is_reserved":false,"is_disabled":false,"rental_uris":{"android":"levelo://app?vid=cdbd18e8-3b85-49bd-9a63-1835fe8792d9","ios":"levelo://app?vid=cdbd18e8-3b85-49bd-9a63-1835fe8792d9"},"vehicle_type_id":"4","last_reported":1744488571,"current_range_meters":2800,"station_id":"ce4bhl92rcd13ifvqghg","pricing_plan_id":"cebpf4jnsgd1na2vs0mg"},{"bike_id":"d5d1f4fb-d6c6-4681-b051-532b57c28feb","system_id":"levelo_inurba_marseille","lat":43.30881,"lon":5.39658,"is_reserved":false,"is_disabled":false,"rental_uris":{"android":"levelo://app?vid=d5d1f4fb-d6c6-4681-b051-532b57c28feb","ios":"levelo://app?vid=d5d1f4fb-d6c6-4681-b051-532b57c28feb"},"vehicle_type_id":"4","last_reported":1744488571,"current_range_meters":3200,"station_id":"ce4bh012rcd13ifvqcv0","pricing_plan_id":"cebpf4jnsgd1na2vs0mg"},{"bike_id":"c6846a9b-01f1-4239-888b-b2eedd6542a3","system_id":"levelo_inurba_marseille","lat":43.255,"lon":5.37665,"is_reserved":false,"is_disabled":false,"rental_uris":{"android":"levelo://app?vid=c6846a9b-01f1-4239-888b-b2eedd6542a3","ios":"levelo://app?vid=c6846a9b-01f1-4239-888b-b2eedd6542a3"},"vehicle_type_id":"4","last_reported":1744488571,"current_range_meters":3200,"station_id":"ce4bhh12rcd13ifvqff0","pricing_plan_id":"cebpf4jnsgd1na2vs0mg"},{"bike_id":"d7f9e116-c5b6-4b81-b124-ce6019a2d1cb","system_id":"levelo_inurba_marseille","lat":43.217457,"lon":5.346061,"is_reserved":false,"is_disabled":true,"rental_uris":{"android":"levelo://app?vid=d7f9e116-c5b6-4b81-b124-ce6019a2d1cb","ios":"levelo://app?vid=d7f9e116-c5b6-4b81-b124-ce6019a2d1cb"},"vehicle_type_id":"4","last_reported":1744488571,"current_range_meters":3200,"station_id":"st_cvj6r9ubvosntc0bgbag","pricing_plan_id":"cebpf4jnsgd1na2vs0mg"},{"bike_id":"450d137a-9a1b-419f-ae3b-f58a9c4a8b44","system_id":"levelo_inurba_marseille","lat":43.28087,"lon":5.39617,"is_reserved":false,"is_disabled":false,"rental_uris":{"android":"levelo://app?vid=450d137a-9a1b-419f-ae3b-f58a9c4a8b44","ios":"levelo://app?vid=450d137a-9a1b-419f-ae3b-f58a9c4a8b44"},"vehicle_type_id":"4","last_reported":1744488571,"current_range_meters":3200,"station_id":"ce4bho12rcd13ifvqh2g","pricing_plan_id":"cebpf4jnsgd1na2vs0mg"},{"bike_id":"ca252a36-7f6f-43f4-a94d-dc2db8df21b1","system_id":"levelo_inurba_marseille","lat":43.269388,"lon":5.402668,"is_reserved":false,"is_disabled":false,"rental_uris":{"android":"levelo://app?vid=ca252a36-7f6f-43f4-a94d-dc2db8df21b1","ios":"levelo://app?vid=ca252a36-7f6f-43f4-a94d-dc2db8df21b1"},"vehicle_type_id":"4","last_reported":1744488571,"current_range_meters":3600,"station_id":"cjm6bp8fraef2m0cb0m0","pricing_plan_id":"cebpf4jnsgd1na2vs0mg"},{"bike_id":"62fe2b5c-8176-4756-8120-e49928b1153f","system_id":"levelo_inurba_marseille","lat":43.28145,"lon":5.42639,"is_reserved":false,"is_disabled":false,"rental_uris":{"android":"levelo://app?vid=62fe2b5c-8176-4756-8120-e49928b1153f","ios":"levelo://app?vid=62fe2b5c-8176-4756-8120-e49928b1153f"},"vehicle_type_id":"4","last_reported":1744488571,"current_range_meters":3600,"station_id":"ce4bhnh2rcd13ifvqgug","pricing_plan_id":"cebpf4jnsgd1na2vs0mg"},{"bike_id":"a65890df-f0fe-477d-9999-bba7c920f3d2","system_id":"levelo_inurba_marseille","lat":43.31104,"lon":5.3779,"is_reserved":false,"is_disabled":false,"rental_uris":{"android":"levelo://app?vid=a65890df-f0fe-477d-9999-bba7c920f3d2","ios":"levelo://app?vid=a65890df-f0fe-477d-9999-bba7c920f3d2"},"vehicle_type_id":"4","last_reported":1744488571,"current_range_meters":3600,"station_id":"ce4bgt92rcd13ifvqcg0","pricing_plan_id":"cebpf4jnsgd1na2vs0mg"},{"bike_id":"8abbbf05-432f-45b7-9d06-e569528c8d18","system_id":"levelo_inurba_marseille","lat":43.250974,"lon":5.395203,"is_reserved":false,"is_disabled":false,"rental_uris":{"android":"levelo://app?vid=8abbbf05-432f-45b7-9d06-e569528c8d18","ios":"levelo://app?vid=8abbbf05-432f-45b7-9d06-e569528c8d18"},"vehicle_type_id":"4","last_reported":1744488571,"current_range_meters":4000,"station_id":"ce4bhm12rcd13ifvqgkg","pricing_plan_id":"cebpf4jnsgd1na2vs0mg"},{"bike_id":"c02bd61f-4926-431a-960e-a8533124da11","system_id":"levelo_inurba_marseille","lat":43.29268,"lon":5.38437,"is_reserved":false,"is_disabled":false,"rental_uris":{"android":"levelo://app?vid=c02bd61f-4926-431a-960e-a8533124da11","ios":"levelo://app?vid=c02bd61f-4926-431a-960e-a8533124da11"},"vehicle_type_id":"4","last_reported":1744488571,"current_range_meters":4000,"station_id":"ce4bh692rcd13ifvqea0","pricing_plan_id":"cebpf4jnsgd1na2vs0mg"},{"bike_id":"6afa9c72-bd5c-45dc-aada-46afec66c041","system_id":"levelo_inurba_marseille","lat":43.24806,"lon":5.37452,"is_reserved":false,"is_disabled":false,"rental_uris":{"android":"levelo://app?vid=6afa9c72-bd5c-45dc-aada-46afec66c041","ios":"levelo://app?vid=6afa9c72-bd5c-45dc-aada-46afec66c041"},"vehicle_type_id":"4","last_reported":1744488571,"current_range_meters":4000,"station_id":"ce4bhgh2rcd13ifvqfb0","pricing_plan_id":"cebpf4jnsgd1na2vs0mg"},{"bike_id":"021ea162-ee7a-4e88-9da9-b81698cd31b0","system_id":"levelo_inurba_marseille","lat":43.23974,"lon":5.3663,"is_reserved":false,"is_disabled":false,"rental_uris":{"android":"levelo://app?vid=021ea162-ee7a-4e88-9da9-b81698cd31b0","ios":"levelo://app?vid=021ea162-ee7a-4e88-9da9-b81698cd31b0"},"vehicle_type_id":"4","last_reported":1744488571,"current_range_meters":4000,"station_id":"ce4bhi12rcd13ifvqfp0","pricing_plan_id":"cebpf4jnsgd1na2vs0mg"},{"bike_id":"40268676-5676-4960-82f5-27f271ee13bb","system_id":"levelo_inurba_marseille","lat":43.28712,"lon":5.37946,"is_reserved":false,"is_disabled":false,"rental_uris":{"android":"levelo://app?vid=40268676-5676-4960-82f5-27f271ee13bb","ios":"levelo://app?vid=40268676-5676-4960-82f5-27f271ee13bb"},"vehicle_type_id":"4","last_reported":1744488571,"current_range_meters":4000,"station_id":"ce4bh9p2rcd13ifvqec0","pricing_plan_id":"cebpf4jnsgd1na2vs0mg"},{"bike_id":"54c7e8dc-31d4-42f0-ae1d-62627c800073","system_id":"levelo_inurba_marseille","lat":43.28667,"lon":5.38665,"is_reserved":false,"is_disabled":false,"rental_uris":{"android":"levelo://app?vid=54c7e8dc-31d4-42f0-ae1d-62627c800073","ios":"levelo://app?vid=54c7e8dc-31d4-42f0-ae1d-62627c800073"},"vehicle_type_id":"4","last_reported":1744488571,"current_range_meters":4000,"station_id":"ce4bh492rcd13ifvqdug","pricing_plan_id":"cebpf4jnsgd1na2vs0mg"},{"bike_id":"9f85e534-b3e8-4ea2-a8d7-c45e2a34513a","system_id":"levelo_inurba_marseille","lat":43.31304,"lon":5.39687,"is_reserved":false,"is_disabled":false,"rental_uris":{"android":"levelo://app?vid=9f85e534-b3e8-4ea2-a8d7-c45e2a34513a","ios":"levelo://app?vid=9f85e534-b3e8-4ea2-a8d7-c45e2a34513a"},"vehicle_type_id":"4","last_reported":1744488571,"current_range_meters":4400,"station_id":"ce4bgvp2rcd13ifvqcu0","pricing_plan_id":"cebpf4jnsgd1na2vs0mg"},{"bike_id":"73039691-3bf5-41de-b513-f306b0a6b692","system_id":"levelo_inurba_marseille","lat":43.24165,"lon":5.3973,"is_reserved":false,"is_disabled":false,"rental_uris":{"android":"levelo://app?vid=73039691-3bf5-41de-b513-f306b0a6b692","ios":"levelo://app?vid=73039691-3bf5-41de-b513-f306b0a6b692"},"vehicle_type_id":"4","last_reported":1744488571,"current_range_meters":4400,"station_id":"ce4bhn12rcd13ifvqgpg","pricing_plan_id":"cebpf4jnsgd1na2vs0mg"},{"bike_id":"1620f5c4-a1ee-41ed-8dd0-def69688a41d","system_id":"levelo_inurba_marseille","lat":43.2677,"lon":5.39424,"is_reserved":false,"is_disabled":true,"rental_uris":{"android":"levelo://app?vid=1620f5c4-a1ee-41ed-8dd0-def69688a41d","ios":"levelo://app?vid=1620f5c4-a1ee-41ed-8dd0-def69688a41d"},"vehicle_type_id":"4","last_reported":1744488571,"current_range_meters":4400,"station_id":"ce4bhh12rcd13ifvqfg0","pricing_plan_id":"cebpf4jnsgd1na2vs0mg"},{"bike_id":"5ab71430-c085-4f73-806e-345509e02b5e","system_id":"levelo_inurba_marseille","lat":43.28656,"lon":5.363474,"is_reserved":false,"is_disabled":false,"rental_uris":{"android":"levelo://app?vid=5ab71430-c085-4f73-806e-345509e02b5e","ios":"levelo://app?vid=5ab71430-c085-4f73-806e-345509e02b5e"},"vehicle_type_id":"4","last_reported":1744488571,"current_range_meters":4400,"station_id":"ce4bh512rcd13ifvqe2g","pricing_plan_id":"cebpf4jnsgd1na2vs0mg"},{"bike_id":"d3efe70f-6df8-4bb2-9dad-b08ce619d811","system_id":"levelo_inurba_marseille","lat":43.24805,"lon":5.37455,"is_reserved":false,"is_disabled":false,"rental_uris":{"android":"levelo://app?vid=d3efe70f-6df8-4bb2-9dad-b08ce619d811","ios":"levelo://app?vid=d3efe70f-6df8-4bb2-9dad-b08ce619d811"},"vehicle_type_id":"4","last_reported":1744488571,"current_range_meters":4800,"station_id":"ce4bhgh2rcd13ifvqfb0","pricing_plan_id":"cebpf4jnsgd1na2vs0mg"},{"bike_id":"e039e1de-c459-49ee-a43d-aee499dfaaea","system_id":"levelo_inurba_marseille","lat":43.30946,"lon":5.3904,"is_reserved":false,"is_disabled":false,"rental_uris":{"android":"levelo://app?vid=e039e1de-c459-49ee-a43d-aee499dfaaea","ios":"levelo://app?vid=e039e1de-c459-49ee-a43d-aee499dfaaea"},"vehicle_type_id":"4","last_reported":1744488571,"current_range_meters":4800,"station_id":"ce4bgup2rcd13ifvqco0","pricing_plan_id":"cebpf4jnsgd1na2vs0mg"},{"bike_id":"b9cbaf2f-53c6-43bb-a6b1-78b713010139","system_id":"levelo_inurba_marseille","lat":43.26926,"lon":5.40251,"is_reserved":false,"is_disabled":false,"rental_uris":{"android":"levelo://app?vid=b9cbaf2f-53c6-43bb-a6b1-78b713010139","ios":"levelo://app?vid=b9cbaf2f-53c6-43bb-a6b1-78b713010139"},"vehicle_type_id":"4","last_reported":1744488571,"current_range_meters":4800,"station_id":"cjm6bp8fraef2m0cb0m0","pricing_plan_id":"cebpf4jnsgd1na2vs0mg"},{"bike_id":"1a98f9f4-f92a-46a1-a677-6510e6345589","system_id":"levelo_inurba_marseille","lat":43.30953,"lon":5.39025,"is_reserved":false,"is_disabled":false,"rental_uris":{"android":"levelo://app?vid=1a98f9f4-f92a-46a1-a677-6510e6345589","ios":"levelo://app?vid=1a98f9f4-f92a-46a1-a677-6510e6345589"},"vehicle_type_id":"4","last_reported":1744488571,"current_range_meters":4800,"station_id":"ce4bgup2rcd13ifvqco0","pricing_plan_id":"cebpf4jnsgd1na2vs0mg"},{"bike_id":"3ac73e63-1619-4c1b-a7d0-7311424e94ef","system_id":"levelo_inurba_marseille","lat":43.28985,"lon":5.37623,"is_reserved":false,"is_disabled":false,"rental_uris":{"android":"levelo://app?vid=3ac73e63-1619-4c1b-a7d0-7311424e94ef","ios":"levelo://app?vid=3ac73e63-1619-4c1b-a7d0-7311424e94ef"},"vehicle_type_id":"4","last_reported":1744488571,"current_range_meters":5600,"station_id":"","pricing_plan_id":"cebpf4jnsgd1na2vs0mg"},{"bike_id":"30269add-f384-4494-870c-3f508fd5ac8f","system_id":"levelo_inurba_marseille","lat":43.29255,"lon":5.38442,"is_reserved":false,"is_disabled":false,"rental_uris":{"android":"levelo://app?vid=30269add-f384-4494-870c-3f508fd5ac8f","ios":"levelo://app?vid=30269add-f384-4494-870c-3f508fd5ac8f"},"vehicle_type_id":"4","last_reported":1744488571,"current_range_meters":5600,"station_id":"ce4bh692rcd13ifvqea0","pricing_plan_id":"cebpf4jnsgd1na2vs0mg"},{"bike_id":"3aa928ad-098a-43e4-984d-674008986fa8","system_id":"levelo_inurba_marseille","lat":43.25493,"lon":5.37647,"is_reserved":false,"is_disabled":false,"rental_uris":{"android":"levelo://app?vid=3aa928ad-098a-43e4-984d-674008986fa8","ios":"levelo://app?vid=3aa928ad-098a-43e4-984d-674008986fa8"},"vehicle_type_id":"4","last_reported":1744488571,"current_range_meters":5600,"station_id":"ce4bhh12rcd13ifvqff0","pricing_plan_id":"cebpf4jnsgd1na2vs0mg"},{"bike_id":"f96c0c65-7fce-4b6c-8bb2-232128e93959","system_id":"levelo_inurba_marseille","lat":43.30475,"lon":5.39316,"is_reserved":false,"is_disabled":false,"rental_uris":{"android":"levelo://app?vid=f96c0c65-7fce-4b6c-8bb2-232128e93959","ios":"levelo://app?vid=f96c0c65-7fce-4b6c-8bb2-232128e93959"},"vehicle_type_id":"4","last_reported":1744488571,"current_range_meters":6000,"station_id":"","pricing_plan_id":"cebpf4jnsgd1na2vs0mg"},{"bike_id":"39677117-0804-4e3f-8ba6-4ae2c33035b6","system_id":"levelo_inurba_marseille","lat":43.25862,"lon":5.39898,"is_reserved":false,"is_disabled":false,"rental_uris":{"android":"levelo://app?vid=39677117-0804-4e3f-8ba6-4ae2c33035b6","ios":"levelo://app?vid=39677117-0804-4e3f-8ba6-4ae2c33035b6"},"vehicle_type_id":"4","last_reported":1744488571,"current_range_meters":6000,"station_id":"ce4bhl92rcd13ifvqghg","pricing_plan_id":"cebpf4jnsgd1na2vs0mg"},{"bike_id":"ec97acfb-6f18-48e4-bb21-b87cf9310ea1","system_id":"levelo_inurba_marseille","lat":43.284583,"lon":5.358823,"is_reserved":false,"is_disabled":false,"rental_uris":{"android":"levelo://app?vid=ec97acfb-6f18-48e4-bb21-b87cf9310ea1","ios":"levelo://app?vid=ec97acfb-6f18-48e4-bb21-b87cf9310ea1"},"vehicle_type_id":"4","last_reported":1744488571,"current_range_meters":6000,"station_id":"ce4bhah2rcd13ifvqei0","pricing_plan_id":"cebpf4jnsgd1na2vs0mg"},{"bike_id":"c37b2b3b-731d-4973-b93c-a5887718f062","system_id":"levelo_inurba_marseille","lat":43.24807,"lon":5.37458,"is_reserved":false,"is_disabled":false,"rental_uris":{"android":"levelo://app?vid=c37b2b3b-731d-4973-b93c-a5887718f062","ios":"levelo://app?vid=c37b2b3b-731d-4973-b93c-a5887718f062"},"vehicle_type_id":"4","last_reported":1744488571,"current_range_meters":6000,"station_id":"ce4bhgh2rcd13ifvqfb0","pricing_plan_id":"cebpf4jnsgd1na2vs0mg"},{"bike_id":"94455896-0f19-4fae-bd72-9879f01fcd6e","system_id":"levelo_inurba_marseille","lat":43.29555,"lon":5.42278,"is_reserved":false,"is_disabled":true,"rental_uris":{"android":"levelo://app?vid=94455896-0f19-4fae-bd72-9879f01fcd6e","ios":"levelo://app?vid=94455896-0f19-4fae-bd72-9879f01fcd6e"},"vehicle_type_id":"4","last_reported":1744488571,"current_range_meters":6000,"station_id":"ce4bhph2rcd13ifvqhdg","pricing_plan_id":"cebpf4jnsgd1na2vs0mg"},{"bike_id":"5dad896c-5ad6-4c43-9e1b-b5420be71488","system_id":"levelo_inurba_marseille","lat":43.292703,"lon":5.384255,"is_reserved":false,"is_disabled":false,"rental_uris":{"android":"levelo://app?vid=5dad896c-5ad6-4c43-9e1b-b5420be71488","ios":"levelo://app?vid=5dad896c-5ad6-4c43-9e1b-b5420be71488"},"vehicle_type_id":"4","last_reported":1744488571,"current_range_meters":6000,"station_id":"","pricing_plan_id":"cebpf4jnsgd1na2vs0mg"},{"bike_id":"e254310b-9099-47f5-b6af-5069e3dde3bb","system_id":"levelo_inurba_marseille","lat":43.24393,"lon":5.37041,"is_reserved":false,"is_disabled":false,"rental_uris":{"android":"levelo://app?vid=e254310b-9099-47f5-b6af-5069e3dde3bb","ios":"levelo://app?vid=e254310b-9099-47f5-b6af-5069e3dde3bb"},"vehicle_type_id":"4","last_reported":1744488571,"current_range_meters":6400,"station_id":"ce4bhhh2rcd13ifvqfk0","pricing_plan_id":"cebpf4jnsgd1na2vs0mg"},{"bike_id":"bc85ebee-8a26-49f4-a12e-62e08bdf4307","system_id":"levelo_inurba_marseille","lat":43.29545,"lon":5.38557,"is_reserved":false,"is_disabled":false,"rental_uris":{"android":"levelo://app?vid=bc85ebee-8a26-49f4-a12e-62e08bdf4307","ios":"levelo://app?vid=bc85ebee-8a26-49f4-a12e-62e08bdf4307"},"vehicle_type_id":"4","last_reported":1744488571,"current_range_meters":4000,"station_id":"ce4bgih2rcd13ifvqba0","pricing_plan_id":"cebpf4jnsgd1na2vs0mg"},{"bike_id":"d4487f77-8f44-4d46-a392-8eed6fbe060b","system_id":"levelo_inurba_marseille","lat":43.25119,"lon":5.40318,"is_reserved":false,"is_disabled":false,"rental_uris":{"android":"levelo://app?vid=d4487f77-8f44-4d46-a392-8eed6fbe060b","ios":"levelo://app?vid=d4487f77-8f44-4d46-a392-8eed6fbe060b"},"vehicle_type_id":"4","last_reported":1744488571,"current_range_meters":6400,"station_id":"ce4bhlh2rcd13ifvqgig","pricing_plan_id":"cebpf4jnsgd1na2vs0mg"},{"bike_id":"27f3d2b9-13a1-43e3-bc55-c473920b7a92","system_id":"levelo_inurba_marseille","lat":43.28446,"lon":5.35886,"is_reserved":false,"is_disabled":false,"rental_uris":{"android":"levelo://app?vid=27f3d2b9-13a1-43e3-bc55-c473920b7a92","ios":"levelo://app?vid=27f3d2b9-13a1-43e3-bc55-c473920b7a92"},"vehicle_type_id":"4","last_reported":1744488571,"current_range_meters":6400,"station_id":"ce4bhah2rcd13ifvqei0","pricing_plan_id":"cebpf4jnsgd1na2vs0mg"},{"bike_id":"f4971719-6a5f-4d22-bc35-d105abe40252","system_id":"levelo_inurba_marseille","lat":43.29264,"lon":5.38436,"is_reserved":false,"is_disabled":false,"rental_uris":{"android":"levelo://app?vid=f4971719-6a5f-4d22-bc35-d105abe40252","ios":"levelo://app?vid=f4971719-6a5f-4d22-bc35-d105abe40252"},"vehicle_type_id":"4","last_reported":1744488571,"current_range_meters":6400,"station_id":"ce4bh692rcd13ifvqea0","pricing_plan_id":"cebpf4jnsgd1na2vs0mg"},{"bike_id":"d900cbee-347a-40a5-8842-54666ce0b791","system_id":"levelo_inurba_marseille","lat":43.317547,"lon":5.390181,"is_reserved":false,"is_disabled":false,"rental_uris":{"android":"levelo://app?vid=d900cbee-347a-40a5-8842-54666ce0b791","ios":"levelo://app?vid=d900cbee-347a-40a5-8842-54666ce0b791"},"vehicle_type_id":"4","last_reported":1744488571,"current_range_meters":6400,"station_id":"ce4bgi12rcd13ifvqb70","pricing_plan_id":"cebpf4jnsgd1na2vs0mg"},{"bike_id":"73f0689a-707a-4bc5-9eb8-ccdd74239bf3","system_id":"levelo_inurba_marseille","lat":43.29262,"lon":5.38441,"is_reserved":false,"is_disabled":false,"rental_uris":{"android":"levelo://app?vid=73f0689a-707a-4bc5-9eb8-ccdd74239bf3","ios":"levelo://app?vid=73f0689a-707a-4bc5-9eb8-ccdd74239bf3"},"vehicle_type_id":"4","last_reported":1744488571,"current_range_meters":6400,"station_id":"ce4bh692rcd13ifvqea0","pricing_plan_id":"cebpf4jnsgd1na2vs0mg"},{"bike_id":"7dc6f05c-f257-4d62-b71b-a2b97753d797","system_id":"levelo_inurba_marseille","lat":43.30542,"lon":5.38431,"is_reserved":false,"is_disabled":true,"rental_uris":{"android":"levelo://app?vid=7dc6f05c-f257-4d62-b71b-a2b97753d797","ios":"levelo://app?vid=7dc6f05c-f257-4d62-b71b-a2b97753d797"},"vehicle_type_id":"4","last_reported":1744488571,"current_range_meters":6400,"station_id":"ce4bgg92rcd13ifvqb30","pricing_plan_id":"cebpf4jnsgd1na2vs0mg"},{"bike_id":"3f08cc69-711e-4264-b923-68891203ffa4","system_id":"levelo_inurba_marseille","lat":43.32285,"lon":5.38243,"is_reserved":false,"is_disabled":false,"rental_uris":{"android":"levelo://app?vid=3f08cc69-711e-4264-b923-68891203ffa4","ios":"levelo://app?vid=3f08cc69-711e-4264-b923-68891203ffa4"},"vehicle_type_id":"4","last_reported":1744488571,"current_range_meters":6400,"station_id":"ce4bhr12rcd13ifvqhqg","pricing_plan_id":"cebpf4jnsgd1na2vs0mg"},{"bike_id":"e5f16e14-a60e-4fee-bc7e-c4cf9835dec0","system_id":"levelo_inurba_marseille","lat":43.28921,"lon":5.38402,"is_reserved":false,"is_disabled":false,"rental_uris":{"android":"levelo://app?vid=e5f16e14-a60e-4fee-bc7e-c4cf9835dec0","ios":"levelo://app?vid=e5f16e14-a60e-4fee-bc7e-c4cf9835dec0"},"vehicle_type_id":"4","last_reported":1744488571,"current_range_meters":6400,"station_id":"ce4bh612rcd13ifvqe6g","pricing_plan_id":"cebpf4jnsgd1na2vs0mg"},{"bike_id":"94a2d289-6a01-4914-95dd-c0bbac3ace54","system_id":"levelo_inurba_marseille","lat":43.29559,"lon":5.4228,"is_reserved":false,"is_disabled":false,"rental_uris":{"android":"levelo://app?vid=94a2d289-6a01-4914-95dd-c0bbac3ace54","ios":"levelo://app?vid=94a2d289-6a01-4914-95dd-c0bbac3ace54"},"vehicle_type_id":"4","last_reported":1744488571,"current_range_meters":6800,"station_id":"ce4bhph2rcd13ifvqhdg","pricing_plan_id":"cebpf4jnsgd1na2vs0mg"},{"bike_id":"cc83a7aa-57a1-4769-9137-8531613b4691","system_id":"levelo_inurba_marseille","lat":43.31262,"lon":5.37278,"is_reserved":false,"is_disabled":false,"rental_uris":{"android":"levelo://app?vid=cc83a7aa-57a1-4769-9137-8531613b4691","ios":"levelo://app?vid=cc83a7aa-57a1-4769-9137-8531613b4691"},"vehicle_type_id":"4","last_reported":1744488571,"current_range_meters":6800,"station_id":"","pricing_plan_id":"cebpf4jnsgd1na2vs0mg"},{"bike_id":"3bcd9397-b0bb-474d-83cf-df794a786442","system_id":"levelo_inurba_marseille","lat":43.294184,"lon":5.386252,"is_reserved":false,"is_disabled":false,"rental_uris":{"android":"levelo://app?vid=3bcd9397-b0bb-474d-83cf-df794a786442","ios":"levelo://app?vid=3bcd9397-b0bb-474d-83cf-df794a786442"},"vehicle_type_id":"4","last_reported":1744488571,"current_range_meters":6800,"station_id":"ce4bh2h2rcd13ifvqdh0","pricing_plan_id":"cebpf4jnsgd1na2vs0mg"},{"bike_id":"61087c9c-58a2-45af-89fa-c020f9313355","system_id":"levelo_inurba_marseille","lat":43.21793,"lon":5.34585,"is_reserved":false,"is_disabled":true,"rental_uris":{"android":"levelo://app?vid=61087c9c-58a2-45af-89fa-c020f9313355","ios":"levelo://app?vid=61087c9c-58a2-45af-89fa-c020f9313355"},"vehicle_type_id":"4","last_reported":1744488571,"current_range_meters":6800,"station_id":"","pricing_plan_id":"cebpf4jnsgd1na2vs0mg"},{"bike_id":"664aecd5-dcec-4126-999a-cb630b0b5889","system_id":"levelo_inurba_marseille","lat":43.3101,"lon":5.38868,"is_reserved":false,"is_disabled":false,"rental_uris":{"android":"levelo://app?vid=664aecd5-dcec-4126-999a-cb630b0b5889","ios":"levelo://app?vid=664aecd5-dcec-4126-999a-cb630b0b5889"},"vehicle_type_id":"4","last_reported":1744488571,"current_range_meters":6800,"station_id":"","pricing_plan_id":"cebpf4jnsgd1na2vs0mg"},{"bike_id":"223f68c2-64f7-4355-80ab-5a821a5f886a","system_id":"levelo_inurba_marseille","lat":43.30589,"lon":5.39342,"is_reserved":false,"is_disabled":false,"rental_uris":{"android":"levelo://app?vid=223f68c2-64f7-4355-80ab-5a821a5f886a","ios":"levelo://app?vid=223f68c2-64f7-4355-80ab-5a821a5f886a"},"vehicle_type_id":"4","last_reported":1744488571,"current_range_meters":6800,"station_id":"ce4bh0p2rcd13ifvqd80","pricing_plan_id":"cebpf4jnsgd1na2vs0mg"},{"bike_id":"6edfbd3a-e908-4669-83f3-038a59440e01","system_id":"levelo_inurba_marseille","lat":43.29532,"lon":5.38563,"is_reserved":false,"is_disabled":false,"rental_uris":{"android":"levelo://app?vid=6edfbd3a-e908-4669-83f3-038a59440e01","ios":"levelo://app?vid=6edfbd3a-e908-4669-83f3-038a59440e01"},"vehicle_type_id":"4","last_reported":1744488571,"current_range_meters":6800,"station_id":"ce4bgih2rcd13ifvqba0","pricing_plan_id":"cebpf4jnsgd1na2vs0mg"},{"bike_id":"9dc5a035-0084-4ffe-bfff-5d2ea6c1dccb","system_id":"levelo_inurba_marseille","lat":43.29568,"lon":5.37516,"is_reserved":false,"is_disabled":true,"rental_uris":{"android":"levelo://app?vid=9dc5a035-0084-4ffe-bfff-5d2ea6c1dccb","ios":"levelo://app?vid=9dc5a035-0084-4ffe-bfff-5d2ea6c1dccb"},"vehicle_type_id":"4","last_reported":1744488571,"current_range_meters":6800,"station_id":"ce4bgh92rcd13ifvqb50","pricing_plan_id":"cebpf4jnsgd1na2vs0mg"},{"bike_id":"656b7503-1ecc-4585-a5f1-7d90bd92090b","system_id":"levelo_inurba_marseille","lat":43.272188,"lon":5.391812,"is_reserved":false,"is_disabled":false,"rental_uris":{"android":"levelo://app?vid=656b7503-1ecc-4585-a5f1-7d90bd92090b","ios":"levelo://app?vid=656b7503-1ecc-4585-a5f1-7d90bd92090b"},"vehicle_type_id":"4","last_reported":1744488571,"current_range_meters":8000,"station_id":"ce4bhhp2rcd13ifvqfm0","pricing_plan_id":"cebpf4jnsgd1na2vs0mg"},{"bike_id":"cdd522b6-86b1-4594-af6e-035b955d1e3b","system_id":"levelo_inurba_marseille","lat":43.30701,"lon":5.37377,"is_reserved":false,"is_disabled":false,"rental_uris":{"android":"levelo://app?vid=cdd522b6-86b1-4594-af6e-035b955d1e3b","ios":"levelo://app?vid=cdd522b6-86b1-4594-af6e-035b955d1e3b"},"vehicle_type_id":"4","last_reported":1744488571,"current_range_meters":7200,"station_id":"","pricing_plan_id":"cebpf4jnsgd1na2vs0mg"},{"bike_id":"e4380e13-6ea1-432c-b547-badeba89c1b3","system_id":"levelo_inurba_marseille","lat":43.28831,"lon":5.39336,"is_reserved":false,"is_disabled":true,"rental_uris":{"android":"levelo://app?vid=e4380e13-6ea1-432c-b547-badeba89c1b3","ios":"levelo://app?vid=e4380e13-6ea1-432c-b547-badeba89c1b3"},"vehicle_type_id":"4","last_reported":1744488571,"current_range_meters":7200,"station_id":"ce4bh2p2rcd13ifvqdi0","pricing_plan_id":"cebpf4jnsgd1na2vs0mg"},{"bike_id":"f1e00540-c2d1-4f3b-ba05-711232888e6e","system_id":"levelo_inurba_marseille","lat":43.217465,"lon":5.3461,"is_reserved":false,"is_disabled":true,"rental_uris":{"android":"levelo://app?vid=f1e00540-c2d1-4f3b-ba05-711232888e6e","ios":"levelo://app?vid=f1e00540-c2d1-4f3b-ba05-711232888e6e"},"vehicle_type_id":"4","last_reported":1744488571,"current_range_meters":7200,"station_id":"st_cvj6r9ubvosntc0bgbag","pricing_plan_id":"cebpf4jnsgd1na2vs0mg"},{"bike_id":"4c56221a-0f46-4530-955a-7184a07c8a88","system_id":"levelo_inurba_marseille","lat":43.232,"lon":5.35563,"is_reserved":false,"is_disabled":true,"rental_uris":{"android":"levelo://app?vid=4c56221a-0f46-4530-955a-7184a07c8a88","ios":"levelo://app?vid=4c56221a-0f46-4530-955a-7184a07c8a88"},"vehicle_type_id":"4","last_reported":1744488571,"current_range_meters":7200,"station_id":"ce4bhu92rcd13ifvqi70","pricing_plan_id":"cebpf4jnsgd1na2vs0mg"},{"bike_id":"8460fdeb-4b9a-450d-95ac-ca0e49e5d077","system_id":"levelo_inurba_marseille","lat":43.30958,"lon":5.39038,"is_reserved":false,"is_disabled":false,"rental_uris":{"android":"levelo://app?vid=8460fdeb-4b9a-450d-95ac-ca0e49e5d077","ios":"levelo://app?vid=8460fdeb-4b9a-450d-95ac-ca0e49e5d077"},"vehicle_type_id":"4","last_reported":1744488571,"current_range_meters":7200,"station_id":"ce4bgup2rcd13ifvqco0","pricing_plan_id":"cebpf4jnsgd1na2vs0mg"},{"bike_id":"375e7718-6689-42ef-bac0-a1d04430396f","system_id":"levelo_inurba_marseille","lat":43.29272,"lon":5.38427,"is_reserved":false,"is_disabled":false,"rental_uris":{"android":"levelo://app?vid=375e7718-6689-42ef-bac0-a1d04430396f","ios":"levelo://app?vid=375e7718-6689-42ef-bac0-a1d04430396f"},"vehicle_type_id":"4","last_reported":1744488571,"current_range_meters":7200,"station_id":"ce4bh692rcd13ifvqea0","pricing_plan_id":"cebpf4jnsgd1na2vs0mg"},{"bike_id":"e524e199-d573-4d65-acc8-4e08ac3eebbe","system_id":"levelo_inurba_marseille","lat":43.27919,"lon":5.39593,"is_reserved":false,"is_disabled":false,"rental_uris":{"android":"levelo://app?vid=e524e199-d573-4d65-acc8-4e08ac3eebbe","ios":"levelo://app?vid=e524e199-d573-4d65-acc8-4e08ac3eebbe"},"vehicle_type_id":"4","last_reported":1744488571,"current_range_meters":8000,"station_id":"ce4bhf92rcd13ifvqf40","pricing_plan_id":"cebpf4jnsgd1na2vs0mg"},{"bike_id":"dd081b68-0a47-41b3-9975-782e5d7a940e","system_id":"levelo_inurba_marseille","lat":43.274942,"lon":5.424446,"is_reserved":false,"is_disabled":false,"rental_uris":{"android":"levelo://app?vid=dd081b68-0a47-41b3-9975-782e5d7a940e","ios":"levelo://app?vid=dd081b68-0a47-41b3-9975-782e5d7a940e"},"vehicle_type_id":"4","last_reported":1744488571,"current_range_meters":8000,"station_id":"ce4bhn92rcd13ifvqgrg","pricing_plan_id":"cebpf4jnsgd1na2vs0mg"},{"bike_id":"97a75254-6d4a-480a-aa2c-8afa9d282795","system_id":"levelo_inurba_marseille","lat":43.28661,"lon":5.38663,"is_reserved":false,"is_disabled":false,"rental_uris":{"android":"levelo://app?vid=97a75254-6d4a-480a-aa2c-8afa9d282795","ios":"levelo://app?vid=97a75254-6d4a-480a-aa2c-8afa9d282795"},"vehicle_type_id":"4","last_reported":1744488571,"current_range_meters":8000,"station_id":"ce4bh492rcd13ifvqdug","pricing_plan_id":"cebpf4jnsgd1na2vs0mg"},{"bike_id":"3890aa41-58cc-476c-8eac-9df5c375edb9","system_id":"levelo_inurba_marseille","lat":43.28358,"lon":5.38119,"is_reserved":false,"is_disabled":false,"rental_uris":{"android":"levelo://app?vid=3890aa41-58cc-476c-8eac-9df5c375edb9","ios":"levelo://app?vid=3890aa41-58cc-476c-8eac-9df5c375edb9"},"vehicle_type_id":"4","last_reported":1744488571,"current_range_meters":8000,"station_id":"ce4bh412rcd13ifvqdr0","pricing_plan_id":"cebpf4jnsgd1na2vs0mg"},{"bike_id":"185fdb97-ce32-4ed4-bba2-d43af448a972","system_id":"levelo_inurba_marseille","lat":43.29259,"lon":5.38428,"is_reserved":false,"is_disabled":false,"rental_uris":{"android":"levelo://app?vid=185fdb97-ce32-4ed4-bba2-d43af448a972","ios":"levelo://app?vid=185fdb97-ce32-4ed4-bba2-d43af448a972"},"vehicle_type_id":"4","last_reported":1744488571,"current_range_meters":8000,"station_id":"ce4bh692rcd13ifvqea0","pricing_plan_id":"cebpf4jnsgd1na2vs0mg"},{"bike_id":"a1d8af9e-c6e2-48bb-8624-a8644f2f167e","system_id":"levelo_inurba_marseille","lat":43.29564,"lon":5.39967,"is_reserved":false,"is_disabled":false,"rental_uris":{"android":"levelo://app?vid=a1d8af9e-c6e2-48bb-8624-a8644f2f167e","ios":"levelo://app?vid=a1d8af9e-c6e2-48bb-8624-a8644f2f167e"},"vehicle_type_id":"4","last_reported":1744488571,"current_range_meters":8000,"station_id":"ce4bh312rcd13ifvqdj0","pricing_plan_id":"cebpf4jnsgd1na2vs0mg"},{"bike_id":"72adaa87-94dc-4774-aca0-5147bc57bd16","system_id":"levelo_inurba_marseille","lat":43.26023,"lon":5.41737,"is_reserved":false,"is_disabled":false,"rental_uris":{"android":"levelo://app?vid=72adaa87-94dc-4774-aca0-5147bc57bd16","ios":"levelo://app?vid=72adaa87-94dc-4774-aca0-5147bc57bd16"},"vehicle_type_id":"4","last_reported":1744488571,"current_range_meters":8000,"station_id":"","pricing_plan_id":"cebpf4jnsgd1na2vs0mg"},{"bike_id":"483c9a5c-9543-4a62-886b-ade367682a87","system_id":"levelo_inurba_marseille","lat":43.25501,"lon":5.37647,"is_reserved":false,"is_disabled":false,"rental_uris":{"android":"levelo://app?vid=483c9a5c-9543-4a62-886b-ade367682a87","ios":"levelo://app?vid=483c9a5c-9543-4a62-886b-ade367682a87"},"vehicle_type_id":"4","last_reported":1744488571,"current_range_meters":8000,"station_id":"ce4bhh12rcd13ifvqff0","pricing_plan_id":"cebpf4jnsgd1na2vs0mg"},{"bike_id":"927fb255-53ed-4ef3-9225-7d05be1c42e6","system_id":"levelo_inurba_marseille","lat":43.2582,"lon":5.39435,"is_reserved":false,"is_disabled":false,"rental_uris":{"android":"levelo://app?vid=927fb255-53ed-4ef3-9225-7d05be1c42e6","ios":"levelo://app?vid=927fb255-53ed-4ef3-9225-7d05be1c42e6"},"vehicle_type_id":"4","last_reported":1744488571,"current_range_meters":7200,"station_id":"ce4bhip2rcd13ifvqft0","pricing_plan_id":"cebpf4jnsgd1na2vs0mg"},{"bike_id":"5bb246b0-dbac-4ade-906f-19840f71d7aa","system_id":"levelo_inurba_marseille","lat":43.29106,"lon":5.38129,"is_reserved":false,"is_disabled":false,"rental_uris":{"android":"levelo://app?vid=5bb246b0-dbac-4ade-906f-19840f71d7aa","ios":"levelo://app?vid=5bb246b0-dbac-4ade-906f-19840f71d7aa"},"vehicle_type_id":"4","last_reported":1744488571,"current_range_meters":8400,"station_id":"ce4bh512rcd13ifvqe2g","pricing_plan_id":"cebpf4jnsgd1na2vs0mg"},{"bike_id":"a9cee540-3d40-4a19-b4f9-7958d8b94b4d","system_id":"levelo_inurba_marseille","lat":43.29576,"lon":5.38562,"is_reserved":false,"is_disabled":false,"rental_uris":{"android":"levelo://app?vid=a9cee540-3d40-4a19-b4f9-7958d8b94b4d","ios":"levelo://app?vid=a9cee540-3d40-4a19-b4f9-7958d8b94b4d"},"vehicle_type_id":"4","last_reported":1744488571,"current_range_meters":8400,"station_id":"ce4bgih2rcd13ifvqba0","pricing_plan_id":"cebpf4jnsgd1na2vs0mg"},{"bike_id":"727de91c-b986-4662-ac64-86d181a4ef61","system_id":"levelo_inurba_marseille","lat":43.29255,"lon":5.3843,"is_reserved":false,"is_disabled":false,"rental_uris":{"android":"levelo://app?vid=727de91c-b986-4662-ac64-86d181a4ef61","ios":"levelo://app?vid=727de91c-b986-4662-ac64-86d181a4ef61"},"vehicle_type_id":"4","last_reported":1744488571,"current_range_meters":8400,"station_id":"ce4bh692rcd13ifvqea0","pricing_plan_id":"cebpf4jnsgd1na2vs0mg"},{"bike_id":"5d0cd77c-6d57-4f9e-b22a-9a3f2e30a799","system_id":"levelo_inurba_marseille","lat":43.29724,"lon":5.37781,"is_reserved":false,"is_disabled":false,"rental_uris":{"android":"levelo://app?vid=5d0cd77c-6d57-4f9e-b22a-9a3f2e30a799","ios":"levelo://app?vid=5d0cd77c-6d57-4f9e-b22a-9a3f2e30a799"},"vehicle_type_id":"4","last_reported":1744488571,"current_range_meters":8400,"station_id":"","pricing_plan_id":"cebpf4jnsgd1na2vs0mg"},{"bike_id":"4343a9c8-4d85-44b9-a998-a6c3c26a4a28","system_id":"levelo_inurba_marseille","lat":43.309475,"lon":5.390402,"is_reserved":false,"is_disabled":false,"rental_uris":{"android":"levelo://app?vid=4343a9c8-4d85-44b9-a998-a6c3c26a4a28","ios":"levelo://app?vid=4343a9c8-4d85-44b9-a998-a6c3c26a4a28"},"vehicle_type_id":"4","last_reported":1744488571,"current_range_meters":8400,"station_id":"ce4bh492rcd13ifvqdug","pricing_plan_id":"cebpf4jnsgd1na2vs0mg"},{"bike_id":"63b88f62-6604-4e78-b4a8-b86eee8303d8","system_id":"levelo_inurba_marseille","lat":43.3136,"lon":5.38485,"is_reserved":false,"is_disabled":false,"rental_uris":{"android":"levelo://app?vid=63b88f62-6604-4e78-b4a8-b86eee8303d8","ios":"levelo://app?vid=63b88f62-6604-4e78-b4a8-b86eee8303d8"},"vehicle_type_id":"4","last_reported":1744488571,"current_range_meters":8400,"station_id":"ce4bgt92rcd13ifvqcf0","pricing_plan_id":"cebpf4jnsgd1na2vs0mg"},{"bike_id":"1d036a1f-65d0-456e-9c9a-a1dac2d8fb35","system_id":"levelo_inurba_marseille","lat":43.30787,"lon":5.3765,"is_reserved":false,"is_disabled":false,"rental_uris":{"android":"levelo://app?vid=1d036a1f-65d0-456e-9c9a-a1dac2d8fb35","ios":"levelo://app?vid=1d036a1f-65d0-456e-9c9a-a1dac2d8fb35"},"vehicle_type_id":"4","last_reported":1744488571,"current_range_meters":8400,"station_id":"ce4bgv92rcd13ifvqcq0","pricing_plan_id":"cebpf4jnsgd1na2vs0mg"},{"bike_id":"4873b923-3644-4ac3-9d38-fee6306a11a5","system_id":"levelo_inurba_marseille","lat":43.29283,"lon":5.40159,"is_reserved":false,"is_disabled":true,"rental_uris":{"android":"levelo://app?vid=4873b923-3644-4ac3-9d38-fee6306a11a5","ios":"levelo://app?vid=4873b923-3644-4ac3-9d38-fee6306a11a5"},"vehicle_type_id":"4","last_reported":1744488571,"current_range_meters":8400,"station_id":"ce4bh312rcd13ifvqdk0","pricing_plan_id":"cebpf4jnsgd1na2vs0mg"},{"bike_id":"ea6c2726-d2c1-4855-a19d-2f7ae620759f","system_id":"levelo_inurba_marseille","lat":43.30949,"lon":5.39042,"is_reserved":false,"is_disabled":false,"rental_uris":{"android":"levelo://app?vid=ea6c2726-d2c1-4855-a19d-2f7ae620759f","ios":"levelo://app?vid=ea6c2726-d2c1-4855-a19d-2f7ae620759f"},"vehicle_type_id":"4","last_reported":1744488571,"current_range_meters":8400,"station_id":"ce4bgup2rcd13ifvqco0","pricing_plan_id":"cebpf4jnsgd1na2vs0mg"},{"bike_id":"b6ef1046-ae6e-481e-b3a5-731015bfc037","system_id":"levelo_inurba_marseille","lat":43.29371,"lon":5.37843,"is_reserved":false,"is_disabled":false,"rental_uris":{"android":"levelo://app?vid=b6ef1046-ae6e-481e-b3a5-731015bfc037","ios":"levelo://app?vid=b6ef1046-ae6e-481e-b3a5-731015bfc037"},"vehicle_type_id":"4","last_reported":1744488571,"current_range_meters":8400,"station_id":"ce4bgjh2rcd13ifvqbf0","pricing_plan_id":"cebpf4jnsgd1na2vs0mg"},{"bike_id":"dcd83ead-420c-4f08-8ded-1b3b9ac109d9","system_id":"levelo_inurba_marseille","lat":43.3237,"lon":5.38886,"is_reserved":false,"is_disabled":false,"rental_uris":{"android":"levelo://app?vid=dcd83ead-420c-4f08-8ded-1b3b9ac109d9","ios":"levelo://app?vid=dcd83ead-420c-4f08-8ded-1b3b9ac109d9"},"vehicle_type_id":"4","last_reported":1744488571,"current_range_meters":8400,"station_id":"ce4bhqp2rcd13ifvqhog","pricing_plan_id":"cebpf4jnsgd1na2vs0mg"},{"bike_id":"119e273e-7e4c-4ee1-a4d4-a659c42fce21","system_id":"levelo_inurba_marseille","lat":43.29972,"lon":5.38507,"is_reserved":false,"is_disabled":false,"rental_uris":{"android":"levelo://app?vid=119e273e-7e4c-4ee1-a4d4-a659c42fce21","ios":"levelo://app?vid=119e273e-7e4c-4ee1-a4d4-a659c42fce21"},"vehicle_type_id":"4","last_reported":1744488571,"current_range_meters":8400,"station_id":"ce4bgj92rcd13ifvqbd0","pricing_plan_id":"cebpf4jnsgd1na2vs0mg"},{"bike_id":"a77bedda-3017-491e-86d2-dfd8dc201c2d","system_id":"levelo_inurba_marseille","lat":43.31327,"lon":5.39696,"is_reserved":false,"is_disabled":false,"rental_uris":{"android":"levelo://app?vid=a77bedda-3017-491e-86d2-dfd8dc201c2d","ios":"levelo://app?vid=a77bedda-3017-491e-86d2-dfd8dc201c2d"},"vehicle_type_id":"4","last_reported":1744488571,"current_range_meters":8400,"station_id":"ce4bgvp2rcd13ifvqcu0","pricing_plan_id":"cebpf4jnsgd1na2vs0mg"},{"bike_id":"8c58f2fa-99e1-41f8-bf90-9c1648b679b1","system_id":"levelo_inurba_marseille","lat":43.27261,"lon":5.4149,"is_reserved":false,"is_disabled":false,"rental_uris":{"android":"levelo://app?vid=8c58f2fa-99e1-41f8-bf90-9c1648b679b1","ios":"levelo://app?vid=8c58f2fa-99e1-41f8-bf90-9c1648b679b1"},"vehicle_type_id":"4","last_reported":1744488571,"current_range_meters":8400,"station_id":"","pricing_plan_id":"cebpf4jnsgd1na2vs0mg"},{"bike_id":"37864421-51e4-4d5e-801c-7ac32e01e722","system_id":"levelo_inurba_marseille","lat":43.31297,"lon":5.37813,"is_reserved":false,"is_disabled":false,"rental_uris":{"android":"levelo://app?vid=37864421-51e4-4d5e-801c-7ac32e01e722","ios":"levelo://app?vid=37864421-51e4-4d5e-801c-7ac32e01e722"},"vehicle_type_id":"4","last_reported":1744488571,"current_range_meters":8400,"station_id":"","pricing_plan_id":"cebpf4jnsgd1na2vs0mg"},{"bike_id":"48e17ae2-f4cd-49d3-8611-9c422e2c84e8","system_id":"levelo_inurba_marseille","lat":43.29522,"lon":5.39385,"is_reserved":false,"is_disabled":false,"rental_uris":{"android":"levelo://app?vid=48e17ae2-f4cd-49d3-8611-9c422e2c84e8","ios":"levelo://app?vid=48e17ae2-f4cd-49d3-8611-9c422e2c84e8"},"vehicle_type_id":"4","last_reported":1744488571,"current_range_meters":8400,"station_id":"ce4bh292rcd13ifvqdf0","pricing_plan_id":"cebpf4jnsgd1na2vs0mg"},{"bike_id":"0c200122-8b54-4649-b672-75a5329450b4","system_id":"levelo_inurba_marseille","lat":43.29518,"lon":5.38545,"is_reserved":false,"is_disabled":false,"rental_uris":{"android":"levelo://app?vid=0c200122-8b54-4649-b672-75a5329450b4","ios":"levelo://app?vid=0c200122-8b54-4649-b672-75a5329450b4"},"vehicle_type_id":"4","last_reported":1744488571,"current_range_meters":8800,"station_id":"ce4bgih2rcd13ifvqba0","pricing_plan_id":"cebpf4jnsgd1na2vs0mg"},{"bike_id":"1130922e-9ccc-463b-9207-aadecd794edb","system_id":"levelo_inurba_marseille","lat":43.31992,"lon":5.38136,"is_reserved":false,"is_disabled":true,"rental_uris":{"android":"levelo://app?vid=1130922e-9ccc-463b-9207-aadecd794edb","ios":"levelo://app?vid=1130922e-9ccc-463b-9207-aadecd794edb"},"vehicle_type_id":"4","last_reported":1744488571,"current_range_meters":8800,"station_id":"ce4bhr12rcd13ifvqhpg","pricing_plan_id":"cebpf4jnsgd1na2vs0mg"},{"bike_id":"5233f65f-739d-45ba-b4ec-0028623b32aa","system_id":"levelo_inurba_marseille","lat":43.29015,"lon":5.38642,"is_reserved":false,"is_disabled":false,"rental_uris":{"android":"levelo://app?vid=5233f65f-739d-45ba-b4ec-0028623b32aa","ios":"levelo://app?vid=5233f65f-739d-45ba-b4ec-0028623b32aa"},"vehicle_type_id":"4","last_reported":1744488571,"current_range_meters":8800,"station_id":"ce4bh4p2rcd13ifvqe0g","pricing_plan_id":"cebpf4jnsgd1na2vs0mg"},{"bike_id":"4cedd733-2587-4eb1-87b3-3ab69e1574bc","system_id":"levelo_inurba_marseille","lat":43.28972,"lon":5.36629,"is_reserved":false,"is_disabled":false,"rental_uris":{"android":"levelo://app?vid=4cedd733-2587-4eb1-87b3-3ab69e1574bc","ios":"levelo://app?vid=4cedd733-2587-4eb1-87b3-3ab69e1574bc"},"vehicle_type_id":"4","last_reported":1744488571,"current_range_meters":8800,"station_id":"","pricing_plan_id":"cebpf4jnsgd1na2vs0mg"},{"bike_id":"39b4fb4d-1af0-4e2b-866c-cd1681822cc3","system_id":"levelo_inurba_marseille","lat":43.29252,"lon":5.38434,"is_reserved":false,"is_disabled":false,"rental_uris":{"android":"levelo://app?vid=39b4fb4d-1af0-4e2b-866c-cd1681822cc3","ios":"levelo://app?vid=39b4fb4d-1af0-4e2b-866c-cd1681822cc3"},"vehicle_type_id":"4","last_reported":1744488571,"current_range_meters":8800,"station_id":"ce4bh692rcd13ifvqea0","pricing_plan_id":"cebpf4jnsgd1na2vs0mg"},{"bike_id":"4c893399-b4ed-40ed-a49f-713da320f269","system_id":"levelo_inurba_marseille","lat":43.29861,"lon":5.37841,"is_reserved":false,"is_disabled":false,"rental_uris":{"android":"levelo://app?vid=4c893399-b4ed-40ed-a49f-713da320f269","ios":"levelo://app?vid=4c893399-b4ed-40ed-a49f-713da320f269"},"vehicle_type_id":"4","last_reported":1744488571,"current_range_meters":8800,"station_id":"","pricing_plan_id":"cebpf4jnsgd1na2vs0mg"},{"bike_id":"e55968ed-3750-4ab7-b161-0699e23f9e3d","system_id":"levelo_inurba_marseille","lat":43.31125,"lon":5.3776,"is_reserved":false,"is_disabled":false,"rental_uris":{"android":"levelo://app?vid=e55968ed-3750-4ab7-b161-0699e23f9e3d","ios":"levelo://app?vid=e55968ed-3750-4ab7-b161-0699e23f9e3d"},"vehicle_type_id":"4","last_reported":1744488571,"current_range_meters":8800,"station_id":"ce4bgt92rcd13ifvqcg0","pricing_plan_id":"cebpf4jnsgd1na2vs0mg"},{"bike_id":"f6822e7a-80b8-42ed-bacf-3b1f927ee756","system_id":"levelo_inurba_marseille","lat":43.284104,"lon":5.375,"is_reserved":false,"is_disabled":false,"rental_uris":{"android":"levelo://app?vid=f6822e7a-80b8-42ed-bacf-3b1f927ee756","ios":"levelo://app?vid=f6822e7a-80b8-42ed-bacf-3b1f927ee756"},"vehicle_type_id":"4","last_reported":1744488571,"current_range_meters":8800,"station_id":"ce4bh412rcd13ifvqds0","pricing_plan_id":"cebpf4jnsgd1na2vs0mg"},{"bike_id":"ebf534fa-819c-4598-91be-9f495d23d5de","system_id":"levelo_inurba_marseille","lat":43.29555,"lon":5.38561,"is_reserved":false,"is_disabled":false,"rental_uris":{"android":"levelo://app?vid=ebf534fa-819c-4598-91be-9f495d23d5de","ios":"levelo://app?vid=ebf534fa-819c-4598-91be-9f495d23d5de"},"vehicle_type_id":"4","last_reported":1744488571,"current_range_meters":9200,"station_id":"ce4bgih2rcd13ifvqba0","pricing_plan_id":"cebpf4jnsgd1na2vs0mg"},{"bike_id":"129e85f8-27ed-42da-9b02-5245b1e235c9","system_id":"levelo_inurba_marseille","lat":43.281505,"lon":5.426453,"is_reserved":false,"is_disabled":false,"rental_uris":{"android":"levelo://app?vid=129e85f8-27ed-42da-9b02-5245b1e235c9","ios":"levelo://app?vid=129e85f8-27ed-42da-9b02-5245b1e235c9"},"vehicle_type_id":"4","last_reported":1744488571,"current_range_meters":8800,"station_id":"ce4bhnh2rcd13ifvqgug","pricing_plan_id":"cebpf4jnsgd1na2vs0mg"},{"bike_id":"239bbb47-3811-4b0e-b278-5cadd42c7740","system_id":"levelo_inurba_marseille","lat":43.29253,"lon":5.38437,"is_reserved":false,"is_disabled":false,"rental_uris":{"android":"levelo://app?vid=239bbb47-3811-4b0e-b278-5cadd42c7740","ios":"levelo://app?vid=239bbb47-3811-4b0e-b278-5cadd42c7740"},"vehicle_type_id":"4","last_reported":1744488571,"current_range_meters":9200,"station_id":"ce4bh692rcd13ifvqea0","pricing_plan_id":"cebpf4jnsgd1na2vs0mg"},{"bike_id":"4a0973b0-92a0-41e8-9b0d-a99e944bafe0","system_id":"levelo_inurba_marseille","lat":43.34503,"lon":5.41293,"is_reserved":false,"is_disabled":false,"rental_uris":{"android":"levelo://app?vid=4a0973b0-92a0-41e8-9b0d-a99e944bafe0","ios":"levelo://app?vid=4a0973b0-92a0-41e8-9b0d-a99e944bafe0"},"vehicle_type_id":"4","last_reported":1744488571,"current_range_meters":9200,"station_id":"","pricing_plan_id":"cebpf4jnsgd1na2vs0mg"},{"bike_id":"eb229502-80bd-42a4-8eda-daa62396ea07","system_id":"levelo_inurba_marseille","lat":43.27081,"lon":5.40245,"is_reserved":false,"is_disabled":false,"rental_uris":{"android":"levelo://app?vid=eb229502-80bd-42a4-8eda-daa62396ea07","ios":"levelo://app?vid=eb229502-80bd-42a4-8eda-daa62396ea07"},"vehicle_type_id":"4","last_reported":1744488571,"current_range_meters":9200,"station_id":"ce4bhk92rcd13ifvqgc0","pricing_plan_id":"cebpf4jnsgd1na2vs0mg"},{"bike_id":"4eb242c8-1f16-48c7-9095-4fe0b3ea1f5c","system_id":"levelo_inurba_marseille","lat":43.28155,"lon":5.426459,"is_reserved":false,"is_disabled":false,"rental_uris":{"android":"levelo://app?vid=4eb242c8-1f16-48c7-9095-4fe0b3ea1f5c","ios":"levelo://app?vid=4eb242c8-1f16-48c7-9095-4fe0b3ea1f5c"},"vehicle_type_id":"4","last_reported":1744488571,"current_range_meters":9200,"station_id":"ce4bgt92rcd13ifvqcf0","pricing_plan_id":"cebpf4jnsgd1na2vs0mg"},{"bike_id":"a5ff0256-3d3c-45c4-af2e-43f2cce4cb11","system_id":"levelo_inurba_marseille","lat":43.29967,"lon":5.3849,"is_reserved":false,"is_disabled":false,"rental_uris":{"android":"levelo://app?vid=a5ff0256-3d3c-45c4-af2e-43f2cce4cb11","ios":"levelo://app?vid=a5ff0256-3d3c-45c4-af2e-43f2cce4cb11"},"vehicle_type_id":"4","last_reported":1744488571,"current_range_meters":9200,"station_id":"ce4bgj92rcd13ifvqbd0","pricing_plan_id":"cebpf4jnsgd1na2vs0mg"},{"bike_id":"88802da1-90f2-4aff-90a1-c3598e933096","system_id":"levelo_inurba_marseille","lat":43.30338,"lon":5.39257,"is_reserved":false,"is_disabled":false,"rental_uris":{"android":"levelo://app?vid=88802da1-90f2-4aff-90a1-c3598e933096","ios":"levelo://app?vid=88802da1-90f2-4aff-90a1-c3598e933096"},"vehicle_type_id":"4","last_reported":1744488571,"current_range_meters":9200,"station_id":"","pricing_plan_id":"cebpf4jnsgd1na2vs0mg"},{"bike_id":"d299dc27-b39a-442c-9028-e4f2888cfbb8","system_id":"levelo_inurba_marseille","lat":43.29234,"lon":5.38446,"is_reserved":false,"is_disabled":false,"rental_uris":{"android":"levelo://app?vid=d299dc27-b39a-442c-9028-e4f2888cfbb8","ios":"levelo://app?vid=d299dc27-b39a-442c-9028-e4f2888cfbb8"},"vehicle_type_id":"4","last_reported":1744488571,"current_range_meters":9600,"station_id":"ce4bh692rcd13ifvqea0","pricing_plan_id":"cebpf4jnsgd1na2vs0mg"},{"bike_id":"76450c2c-888f-4d08-a5c0-d825237615aa","system_id":"levelo_inurba_marseille","lat":43.27067,"lon":5.42281,"is_reserved":false,"is_disabled":false,"rental_uris":{"android":"levelo://app?vid=76450c2c-888f-4d08-a5c0-d825237615aa","ios":"levelo://app?vid=76450c2c-888f-4d08-a5c0-d825237615aa"},"vehicle_type_id":"4","last_reported":1744488571,"current_range_meters":9600,"station_id":"ce4bhk92rcd13ifvqgb0","pricing_plan_id":"cebpf4jnsgd1na2vs0mg"},{"bike_id":"d53356ed-34e7-4ce0-8d94-e073954cdd85","system_id":"levelo_inurba_marseille","lat":43.27091,"lon":5.40243,"is_reserved":false,"is_disabled":true,"rental_uris":{"android":"levelo://app?vid=d53356ed-34e7-4ce0-8d94-e073954cdd85","ios":"levelo://app?vid=d53356ed-34e7-4ce0-8d94-e073954cdd85"},"vehicle_type_id":"4","last_reported":1744488571,"current_range_meters":9600,"station_id":"ce4bhk92rcd13ifvqgc0","pricing_plan_id":"cebpf4jnsgd1na2vs0mg"},{"bike_id":"8207ea29-fd0c-4c7e-a5fa-88a3cf6888d1","system_id":"levelo_inurba_marseille","lat":43.241793,"lon":5.397373,"is_reserved":false,"is_disabled":false,"rental_uris":{"android":"levelo://app?vid=8207ea29-fd0c-4c7e-a5fa-88a3cf6888d1","ios":"levelo://app?vid=8207ea29-fd0c-4c7e-a5fa-88a3cf6888d1"},"vehicle_type_id":"4","last_reported":1744488571,"current_range_meters":9600,"station_id":"ce4bhn12rcd13ifvqgpg","pricing_plan_id":"cebpf4jnsgd1na2vs0mg"},{"bike_id":"c013d600-5e08-48f0-830e-8c965978436b","system_id":"levelo_inurba_marseille","lat":43.30429,"lon":5.38902,"is_reserved":false,"is_disabled":true,"rental_uris":{"android":"levelo://app?vid=c013d600-5e08-48f0-830e-8c965978436b","ios":"levelo://app?vid=c013d600-5e08-48f0-830e-8c965978436b"},"vehicle_type_id":"4","last_reported":1744488571,"current_range_meters":9600,"station_id":"ce4bgk12rcd13ifvqbi0","pricing_plan_id":"cebpf4jnsgd1na2vs0mg"},{"bike_id":"eb578252-5439-4851-a5f9-751638bdaef7","system_id":"levelo_inurba_marseille","lat":43.29029,"lon":5.37549,"is_reserved":false,"is_disabled":true,"rental_uris":{"android":"levelo://app?vid=eb578252-5439-4851-a5f9-751638bdaef7","ios":"levelo://app?vid=eb578252-5439-4851-a5f9-751638bdaef7"},"vehicle_type_id":"4","last_reported":1744488571,"current_range_meters":10000,"station_id":"ce4bh692rcd13ifvqe90","pricing_plan_id":"cebpf4jnsgd1na2vs0mg"},{"bike_id":"ef291804-1477-432e-b153-82ea15725418","system_id":"levelo_inurba_marseille","lat":43.33742,"lon":5.37454,"is_reserved":false,"is_disabled":false,"rental_uris":{"android":"levelo://app?vid=ef291804-1477-432e-b153-82ea15725418","ios":"levelo://app?vid=ef291804-1477-432e-b153-82ea15725418"},"vehicle_type_id":"4","last_reported":1744488571,"current_range_meters":9600,"station_id":"","pricing_plan_id":"cebpf4jnsgd1na2vs0mg"},{"bike_id":"a6ddee11-e1be-4252-9994-d84950956289","system_id":"levelo_inurba_marseille","lat":43.26966,"lon":5.40275,"is_reserved":false,"is_disabled":false,"rental_uris":{"android":"levelo://app?vid=a6ddee11-e1be-4252-9994-d84950956289","ios":"levelo://app?vid=a6ddee11-e1be-4252-9994-d84950956289"},"vehicle_type_id":"4","last_reported":1744488571,"current_range_meters":9600,"station_id":"cjm6bp8fraef2m0cb0m0","pricing_plan_id":"cebpf4jnsgd1na2vs0mg"},{"bike_id":"211990ef-4669-4091-86ec-137c884b610d","system_id":"levelo_inurba_marseille","lat":43.292562,"lon":5.384238,"is_reserved":false,"is_disabled":true,"rental_uris":{"android":"levelo://app?vid=211990ef-4669-4091-86ec-137c884b610d","ios":"levelo://app?vid=211990ef-4669-4091-86ec-137c884b610d"},"vehicle_type_id":"4","last_reported":1744488571,"current_range_meters":9600,"station_id":"ce4bh692rcd13ifvqea0","pricing_plan_id":"cebpf4jnsgd1na2vs0mg"},{"bike_id":"fba14dc4-f065-46f4-a67b-b47ee9a5123b","system_id":"levelo_inurba_marseille","lat":43.293168,"lon":5.371866,"is_reserved":false,"is_disabled":true,"rental_uris":{"android":"levelo://app?vid=fba14dc4-f065-46f4-a67b-b47ee9a5123b","ios":"levelo://app?vid=fba14dc4-f065-46f4-a67b-b47ee9a5123b"},"vehicle_type_id":"4","last_reported":1744488571,"current_range_meters":10000,"station_id":"ce4bgh92rcd13ifvqb40","pricing_plan_id":"cebpf4jnsgd1na2vs0mg"},{"bike_id":"a7bd35d8-431e-403a-8602-fbbeb8d04c19","system_id":"levelo_inurba_marseille","lat":43.29308,"lon":5.37185,"is_reserved":false,"is_disabled":false,"rental_uris":{"android":"levelo://app?vid=a7bd35d8-431e-403a-8602-fbbeb8d04c19","ios":"levelo://app?vid=a7bd35d8-431e-403a-8602-fbbeb8d04c19"},"vehicle_type_id":"4","last_reported":1744488571,"current_range_meters":10000,"station_id":"ce4bgh92rcd13ifvqb40","pricing_plan_id":"cebpf4jnsgd1na2vs0mg"},{"bike_id":"ff4bf555-621a-4bc6-84ba-5ba2f272c7aa","system_id":"levelo_inurba_marseille","lat":43.24812,"lon":5.37449,"is_reserved":false,"is_disabled":false,"rental_uris":{"android":"levelo://app?vid=ff4bf555-621a-4bc6-84ba-5ba2f272c7aa","ios":"levelo://app?vid=ff4bf555-621a-4bc6-84ba-5ba2f272c7aa"},"vehicle_type_id":"4","last_reported":1744488571,"current_range_meters":10000,"station_id":"ce4bhgh2rcd13ifvqfb0","pricing_plan_id":"cebpf4jnsgd1na2vs0mg"},{"bike_id":"ade12a29-67b8-420d-98e9-c97678efb121","system_id":"levelo_inurba_marseille","lat":43.29023,"lon":5.38651,"is_reserved":false,"is_disabled":false,"rental_uris":{"android":"levelo://app?vid=ade12a29-67b8-420d-98e9-c97678efb121","ios":"levelo://app?vid=ade12a29-67b8-420d-98e9-c97678efb121"},"vehicle_type_id":"4","last_reported":1744488571,"current_range_meters":10000,"station_id":"ce4bh4p2rcd13ifvqe0g","pricing_plan_id":"cebpf4jnsgd1na2vs0mg"},{"bike_id":"1ace4284-a150-45ce-a05d-4d34468531ee","system_id":"levelo_inurba_marseille","lat":43.28397,"lon":5.37523,"is_reserved":false,"is_disabled":false,"rental_uris":{"android":"levelo://app?vid=1ace4284-a150-45ce-a05d-4d34468531ee","ios":"levelo://app?vid=1ace4284-a150-45ce-a05d-4d34468531ee"},"vehicle_type_id":"4","last_reported":1744488571,"current_range_meters":10000,"station_id":"ce4bh412rcd13ifvqds0","pricing_plan_id":"cebpf4jnsgd1na2vs0mg"},{"bike_id":"86e3fd62-ce53-4f21-93c1-2fb7456de3cf","system_id":"levelo_inurba_marseille","lat":43.23071,"lon":5.35486,"is_reserved":false,"is_disabled":false,"rental_uris":{"android":"levelo://app?vid=86e3fd62-ce53-4f21-93c1-2fb7456de3cf","ios":"levelo://app?vid=86e3fd62-ce53-4f21-93c1-2fb7456de3cf"},"vehicle_type_id":"4","last_reported":1744488571,"current_range_meters":10000,"station_id":"cpo3342slgdg3j2ifvpg","pricing_plan_id":"cebpf4jnsgd1na2vs0mg"},{"bike_id":"c0843e33-fd57-499a-a034-6934bb03d072","system_id":"levelo_inurba_marseille","lat":43.292632,"lon":5.384418,"is_reserved":false,"is_disabled":false,"rental_uris":{"android":"levelo://app?vid=c0843e33-fd57-499a-a034-6934bb03d072","ios":"levelo://app?vid=c0843e33-fd57-499a-a034-6934bb03d072"},"vehicle_type_id":"4","last_reported":1744488571,"current_range_meters":10000,"station_id":"ce4bh192rcd13ifvqdb0","pricing_plan_id":"cebpf4jnsgd1na2vs0mg"},{"bike_id":"4a4f9a09-23e4-4fa8-ba79-2ce1ece4ae54","system_id":"levelo_inurba_marseille","lat":43.26921,"lon":5.40258,"is_reserved":false,"is_disabled":false,"rental_uris":{"android":"levelo://app?vid=4a4f9a09-23e4-4fa8-ba79-2ce1ece4ae54","ios":"levelo://app?vid=4a4f9a09-23e4-4fa8-ba79-2ce1ece4ae54"},"vehicle_type_id":"4","last_reported":1744488571,"current_range_meters":10000,"station_id":"cjm6bp8fraef2m0cb0m0","pricing_plan_id":"cebpf4jnsgd1na2vs0mg"},{"bike_id":"a2a6fafc-9ee1-4ac9-b16d-fa1f378e78d0","system_id":"levelo_inurba_marseille","lat":43.29562,"lon":5.37487,"is_reserved":false,"is_disabled":true,"rental_uris":{"android":"levelo://app?vid=a2a6fafc-9ee1-4ac9-b16d-fa1f378e78d0","ios":"levelo://app?vid=a2a6fafc-9ee1-4ac9-b16d-fa1f378e78d0"},"vehicle_type_id":"4","last_reported":1744488571,"current_range_meters":10000,"station_id":"ce4bgh92rcd13ifvqb50","pricing_plan_id":"cebpf4jnsgd1na2vs0mg"},{"bike_id":"a6a623c2-7306-4f46-a108-03e8812e161b","system_id":"levelo_inurba_marseille","lat":43.29574,"lon":5.37496,"is_reserved":false,"is_disabled":false,"rental_uris":{"android":"levelo://app?vid=a6a623c2-7306-4f46-a108-03e8812e161b","ios":"levelo://app?vid=a6a623c2-7306-4f46-a108-03e8812e161b"},"vehicle_type_id":"4","last_reported":1744488571,"current_range_meters":10000,"station_id":"ce4bgh92rcd13ifvqb50","pricing_plan_id":"cebpf4jnsgd1na2vs0mg"},{"bike_id":"f7d1eee0-1715-419d-beac-1b98ec9e62ed","system_id":"levelo_inurba_marseille","lat":43.309557,"lon":5.390369,"is_reserved":false,"is_disabled":true,"rental_uris":{"android":"levelo://app?vid=f7d1eee0-1715-419d-beac-1b98ec9e62ed","ios":"levelo://app?vid=f7d1eee0-1715-419d-beac-1b98ec9e62ed"},"vehicle_type_id":"4","last_reported":1744488571,"current_range_meters":10800,"station_id":"ce4bgup2rcd13ifvqco0","pricing_plan_id":"cebpf4jnsgd1na2vs0mg"},{"bike_id":"ec3c3af2-9a8e-49e5-ae9e-591a35674ee7","system_id":"levelo_inurba_marseille","lat":43.29816,"lon":5.3812,"is_reserved":false,"is_disabled":false,"rental_uris":{"android":"levelo://app?vid=ec3c3af2-9a8e-49e5-ae9e-591a35674ee7","ios":"levelo://app?vid=ec3c3af2-9a8e-49e5-ae9e-591a35674ee7"},"vehicle_type_id":"4","last_reported":1744488571,"current_range_meters":10800,"station_id":"ce4bgip2rcd13ifvqbb0","pricing_plan_id":"cebpf4jnsgd1na2vs0mg"},{"bike_id":"bb600c7c-e294-4051-9883-19e61796ee48","system_id":"levelo_inurba_marseille","lat":43.279526,"lon":5.410518,"is_reserved":false,"is_disabled":false,"rental_uris":{"android":"levelo://app?vid=bb600c7c-e294-4051-9883-19e61796ee48","ios":"levelo://app?vid=bb600c7c-e294-4051-9883-19e61796ee48"},"vehicle_type_id":"4","last_reported":1744488571,"current_range_meters":10800,"station_id":"ce4bhnp2rcd13ifvqh0g","pricing_plan_id":"cebpf4jnsgd1na2vs0mg"},{"bike_id":"80760483-d5ba-45da-8988-3c347137210f","system_id":"levelo_inurba_marseille","lat":43.29013,"lon":5.38147,"is_reserved":false,"is_disabled":false,"rental_uris":{"android":"levelo://app?vid=80760483-d5ba-45da-8988-3c347137210f","ios":"levelo://app?vid=80760483-d5ba-45da-8988-3c347137210f"},"vehicle_type_id":"4","last_reported":1744488571,"current_range_meters":10800,"station_id":"ce4bh4p2rcd13ifvqe1g","pricing_plan_id":"cebpf4jnsgd1na2vs0mg"},{"bike_id":"1e7e7744-9a8a-48c9-af7c-8dab35e112b0","system_id":"levelo_inurba_marseille","lat":43.30581,"lon":5.39351,"is_reserved":false,"is_disabled":false,"rental_uris":{"android":"levelo://app?vid=1e7e7744-9a8a-48c9-af7c-8dab35e112b0","ios":"levelo://app?vid=1e7e7744-9a8a-48c9-af7c-8dab35e112b0"},"vehicle_type_id":"4","last_reported":1744488571,"current_range_meters":10800,"station_id":"ce4bh0p2rcd13ifvqd80","pricing_plan_id":"cebpf4jnsgd1na2vs0mg"},{"bike_id":"0e7bf4ae-5aed-4055-a1f8-96debbb9847e","system_id":"levelo_inurba_marseille","lat":43.2417,"lon":5.36397,"is_reserved":false,"is_disabled":false,"rental_uris":{"android":"levelo://app?vid=0e7bf4ae-5aed-4055-a1f8-96debbb9847e","ios":"levelo://app?vid=0e7bf4ae-5aed-4055-a1f8-96debbb9847e"},"vehicle_type_id":"4","last_reported":1744488571,"current_range_meters":10800,"station_id":"cpo36qri1sfpv3e86is0","pricing_plan_id":"cebpf4jnsgd1na2vs0mg"},{"bike_id":"8609ec5b-db31-4682-89f6-95794d251c5e","system_id":"levelo_inurba_marseille","lat":43.231573,"lon":5.43713,"is_reserved":false,"is_disabled":false,"rental_uris":{"android":"levelo://app?vid=8609ec5b-db31-4682-89f6-95794d251c5e","ios":"levelo://app?vid=8609ec5b-db31-4682-89f6-95794d251c5e"},"vehicle_type_id":"4","last_reported":1744488571,"current_range_meters":10800,"station_id":"ce4bhmp2rcd13ifvqgog","pricing_plan_id":"cebpf4jnsgd1na2vs0mg"},{"bike_id":"7cade039-546c-457f-a0b2-54fa6f057851","system_id":"levelo_inurba_marseille","lat":43.3043,"lon":5.38886,"is_reserved":false,"is_disabled":false,"rental_uris":{"android":"levelo://app?vid=7cade039-546c-457f-a0b2-54fa6f057851","ios":"levelo://app?vid=7cade039-546c-457f-a0b2-54fa6f057851"},"vehicle_type_id":"4","last_reported":1744488571,"current_range_meters":11200,"station_id":"ce4bgk12rcd13ifvqbi0","pricing_plan_id":"cebpf4jnsgd1na2vs0mg"},{"bike_id":"8133ab5b-17f3-4fca-9ac2-7769488eb2ea","system_id":"levelo_inurba_marseille","lat":43.25499,"lon":5.37665,"is_reserved":false,"is_disabled":false,"rental_uris":{"android":"levelo://app?vid=8133ab5b-17f3-4fca-9ac2-7769488eb2ea","ios":"levelo://app?vid=8133ab5b-17f3-4fca-9ac2-7769488eb2ea"},"vehicle_type_id":"4","last_reported":1744488571,"current_range_meters":11200,"station_id":"ce4bhh12rcd13ifvqff0","pricing_plan_id":"cebpf4jnsgd1na2vs0mg"},{"bike_id":"d8f603cd-3b83-4148-bab8-3a185ad2a59f","system_id":"levelo_inurba_marseille","lat":43.32416,"lon":5.3913,"is_reserved":false,"is_disabled":false,"rental_uris":{"android":"levelo://app?vid=d8f603cd-3b83-4148-bab8-3a185ad2a59f","ios":"levelo://app?vid=d8f603cd-3b83-4148-bab8-3a185ad2a59f"},"vehicle_type_id":"4","last_reported":1744488571,"current_range_meters":11200,"station_id":"","pricing_plan_id":"cebpf4jnsgd1na2vs0mg"},{"bike_id":"8d7af1b9-8e4e-438e-a4d9-249701554749","system_id":"levelo_inurba_marseille","lat":43.31327,"lon":5.39688,"is_reserved":false,"is_disabled":false,"rental_uris":{"android":"levelo://app?vid=8d7af1b9-8e4e-438e-a4d9-249701554749","ios":"levelo://app?vid=8d7af1b9-8e4e-438e-a4d9-249701554749"},"vehicle_type_id":"4","last_reported":1744488571,"current_range_meters":11200,"station_id":"ce4bgvp2rcd13ifvqcu0","pricing_plan_id":"cebpf4jnsgd1na2vs0mg"},{"bike_id":"4ac15233-0b55-49d0-af61-4cab496dd69a","system_id":"levelo_inurba_marseille","lat":43.28159,"lon":5.42625,"is_reserved":false,"is_disabled":false,"rental_uris":{"android":"levelo://app?vid=4ac15233-0b55-49d0-af61-4cab496dd69a","ios":"levelo://app?vid=4ac15233-0b55-49d0-af61-4cab496dd69a"},"vehicle_type_id":"4","last_reported":1744488571,"current_range_meters":11200,"station_id":"ce4bhnh2rcd13ifvqgug","pricing_plan_id":"cebpf4jnsgd1na2vs0mg"},{"bike_id":"30fc6d35-50a6-40c1-8966-72ad7d12d599","system_id":"levelo_inurba_marseille","lat":43.30602,"lon":5.39365,"is_reserved":false,"is_disabled":false,"rental_uris":{"android":"levelo://app?vid=30fc6d35-50a6-40c1-8966-72ad7d12d599","ios":"levelo://app?vid=30fc6d35-50a6-40c1-8966-72ad7d12d599"},"vehicle_type_id":"4","last_reported":1744488571,"current_range_meters":11200,"station_id":"ce4bh0p2rcd13ifvqd80","pricing_plan_id":"cebpf4jnsgd1na2vs0mg"},{"bike_id":"39b23a38-05aa-48d2-b2a6-172d7ebfaf8d","system_id":"levelo_inurba_marseille","lat":43.311401,"lon":5.38753,"is_reserved":false,"is_disabled":false,"rental_uris":{"android":"levelo://app?vid=39b23a38-05aa-48d2-b2a6-172d7ebfaf8d","ios":"levelo://app?vid=39b23a38-05aa-48d2-b2a6-172d7ebfaf8d"},"vehicle_type_id":"4","last_reported":1744488571,"current_range_meters":11200,"station_id":"ce4bgv12rcd13ifvqcp0","pricing_plan_id":"cebpf4jnsgd1na2vs0mg"},{"bike_id":"5b77a833-8185-45c2-9fe3-07eb40df54ca","system_id":"levelo_inurba_marseille","lat":43.33995,"lon":5.38057,"is_reserved":false,"is_disabled":false,"rental_uris":{"android":"levelo://app?vid=5b77a833-8185-45c2-9fe3-07eb40df54ca","ios":"levelo://app?vid=5b77a833-8185-45c2-9fe3-07eb40df54ca"},"vehicle_type_id":"4","last_reported":1744488571,"current_range_meters":11200,"station_id":"","pricing_plan_id":"cebpf4jnsgd1na2vs0mg"},{"bike_id":"cd5700b5-9afd-4b05-b2b1-0eefcd47e1b2","system_id":"levelo_inurba_marseille","lat":43.296246,"lon":5.371389,"is_reserved":false,"is_disabled":false,"rental_uris":{"android":"levelo://app?vid=cd5700b5-9afd-4b05-b2b1-0eefcd47e1b2","ios":"levelo://app?vid=cd5700b5-9afd-4b05-b2b1-0eefcd47e1b2"},"vehicle_type_id":"4","last_reported":1744488571,"current_range_meters":11600,"station_id":"ce4bgnh2rcd13ifvqc0g","pricing_plan_id":"cebpf4jnsgd1na2vs0mg"},{"bike_id":"4a761ce1-9afb-405b-8165-d81f5bff5eaa","system_id":"levelo_inurba_marseille","lat":43.26952,"lon":5.38623,"is_reserved":false,"is_disabled":false,"rental_uris":{"android":"levelo://app?vid=4a761ce1-9afb-405b-8165-d81f5bff5eaa","ios":"levelo://app?vid=4a761ce1-9afb-405b-8165-d81f5bff5eaa"},"vehicle_type_id":"4","last_reported":1744488571,"current_range_meters":11600,"station_id":"ce4bhh92rcd13ifvqfh0","pricing_plan_id":"cebpf4jnsgd1na2vs0mg"},{"bike_id":"493cde9e-7859-4c26-a2e6-f744ee5d8553","system_id":"levelo_inurba_marseille","lat":43.31858,"lon":5.36217,"is_reserved":false,"is_disabled":false,"rental_uris":{"android":"levelo://app?vid=493cde9e-7859-4c26-a2e6-f744ee5d8553","ios":"levelo://app?vid=493cde9e-7859-4c26-a2e6-f744ee5d8553"},"vehicle_type_id":"4","last_reported":1744488571,"current_range_meters":11600,"station_id":"","pricing_plan_id":"cebpf4jnsgd1na2vs0mg"},{"bike_id":"080977c9-48ed-4403-b550-48f4c799b90b","system_id":"levelo_inurba_marseille","lat":43.30527,"lon":5.38431,"is_reserved":false,"is_disabled":false,"rental_uris":{"android":"levelo://app?vid=080977c9-48ed-4403-b550-48f4c799b90b","ios":"levelo://app?vid=080977c9-48ed-4403-b550-48f4c799b90b"},"vehicle_type_id":"4","last_reported":1744488571,"current_range_meters":11600,"station_id":"ce4bgg92rcd13ifvqb30","pricing_plan_id":"cebpf4jnsgd1na2vs0mg"},{"bike_id":"8504cadd-dfe4-4186-94fe-fef9547528ee","system_id":"levelo_inurba_marseille","lat":43.29247,"lon":5.38442,"is_reserved":false,"is_disabled":false,"rental_uris":{"android":"levelo://app?vid=8504cadd-dfe4-4186-94fe-fef9547528ee","ios":"levelo://app?vid=8504cadd-dfe4-4186-94fe-fef9547528ee"},"vehicle_type_id":"4","last_reported":1744488571,"current_range_meters":11600,"station_id":"ce4bh692rcd13ifvqea0","pricing_plan_id":"cebpf4jnsgd1na2vs0mg"},{"bike_id":"792f5c09-871b-40de-9173-4b456fb80eb8","system_id":"levelo_inurba_marseille","lat":43.29093,"lon":5.38123,"is_reserved":false,"is_disabled":false,"rental_uris":{"android":"levelo://app?vid=792f5c09-871b-40de-9173-4b456fb80eb8","ios":"levelo://app?vid=792f5c09-871b-40de-9173-4b456fb80eb8"},"vehicle_type_id":"4","last_reported":1744488571,"current_range_meters":12000,"station_id":"ce4bh512rcd13ifvqe2g","pricing_plan_id":"cebpf4jnsgd1na2vs0mg"},{"bike_id":"050cbc4d-b77d-4d82-98ac-e2f0678b58db","system_id":"levelo_inurba_marseille","lat":43.30227,"lon":5.39461,"is_reserved":false,"is_disabled":false,"rental_uris":{"android":"levelo://app?vid=050cbc4d-b77d-4d82-98ac-e2f0678b58db","ios":"levelo://app?vid=050cbc4d-b77d-4d82-98ac-e2f0678b58db"},"vehicle_type_id":"4","last_reported":1744488571,"current_range_meters":12000,"station_id":"ce4bh0p2rcd13ifvqd70","pricing_plan_id":"cebpf4jnsgd1na2vs0mg"},{"bike_id":"2f5bc015-0a98-4a0d-a50f-f7181e1d6abe","system_id":"levelo_inurba_marseille","lat":43.23428,"lon":5.41249,"is_reserved":false,"is_disabled":false,"rental_uris":{"android":"levelo://app?vid=2f5bc015-0a98-4a0d-a50f-f7181e1d6abe","ios":"levelo://app?vid=2f5bc015-0a98-4a0d-a50f-f7181e1d6abe"},"vehicle_type_id":"4","last_reported":1744488571,"current_range_meters":12000,"station_id":"","pricing_plan_id":"cebpf4jnsgd1na2vs0mg"},{"bike_id":"5db56fee-6c62-4758-9bd0-98e6b8b6a5c8","system_id":"levelo_inurba_marseille","lat":43.28937,"lon":5.36636,"is_reserved":false,"is_disabled":false,"rental_uris":{"android":"levelo://app?vid=5db56fee-6c62-4758-9bd0-98e6b8b6a5c8","ios":"levelo://app?vid=5db56fee-6c62-4758-9bd0-98e6b8b6a5c8"},"vehicle_type_id":"4","last_reported":1744488571,"current_range_meters":12000,"station_id":"ce4bhap2rcd13ifvqek0","pricing_plan_id":"cebpf4jnsgd1na2vs0mg"},{"bike_id":"8cfdd8e4-f709-448e-9292-870783538e35","system_id":"levelo_inurba_marseille","lat":43.337444,"lon":5.374475,"is_reserved":false,"is_disabled":false,"rental_uris":{"android":"levelo://app?vid=8cfdd8e4-f709-448e-9292-870783538e35","ios":"levelo://app?vid=8cfdd8e4-f709-448e-9292-870783538e35"},"vehicle_type_id":"4","last_reported":1744488571,"current_range_meters":12000,"station_id":"","pricing_plan_id":"cebpf4jnsgd1na2vs0mg"},{"bike_id":"cd02e34d-255b-40b8-99fb-f44f17955dfd","system_id":"levelo_inurba_marseille","lat":43.247978,"lon":5.374632,"is_reserved":false,"is_disabled":false,"rental_uris":{"android":"levelo://app?vid=cd02e34d-255b-40b8-99fb-f44f17955dfd","ios":"levelo://app?vid=cd02e34d-255b-40b8-99fb-f44f17955dfd"},"vehicle_type_id":"4","last_reported":1744488571,"current_range_meters":12000,"station_id":"ce4bhgh2rcd13ifvqfb0","pricing_plan_id":"cebpf4jnsgd1na2vs0mg"},{"bike_id":"61bc6256-8380-4638-bd27-1e2c56ecc87d","system_id":"levelo_inurba_marseille","lat":43.29668,"lon":5.377087,"is_reserved":false,"is_disabled":false,"rental_uris":{"android":"levelo://app?vid=61bc6256-8380-4638-bd27-1e2c56ecc87d","ios":"levelo://app?vid=61bc6256-8380-4638-bd27-1e2c56ecc87d"},"vehicle_type_id":"4","last_reported":1744488571,"current_range_meters":12000,"station_id":"ce4bgi92rcd13ifvqb90","pricing_plan_id":"cebpf4jnsgd1na2vs0mg"},{"bike_id":"759709d6-13d6-456c-9aa1-32612eb5ba01","system_id":"levelo_inurba_marseille","lat":43.30892,"lon":5.39635,"is_reserved":false,"is_disabled":false,"rental_uris":{"android":"levelo://app?vid=759709d6-13d6-456c-9aa1-32612eb5ba01","ios":"levelo://app?vid=759709d6-13d6-456c-9aa1-32612eb5ba01"},"vehicle_type_id":"4","last_reported":1744488571,"current_range_meters":12400,"station_id":"ce4bh012rcd13ifvqcv0","pricing_plan_id":"cebpf4jnsgd1na2vs0mg"},{"bike_id":"f7843f46-58aa-4cf6-a1d0-1b94b16f71c2","system_id":"levelo_inurba_marseille","lat":43.298555,"lon":5.396714,"is_reserved":false,"is_disabled":false,"rental_uris":{"android":"levelo://app?vid=f7843f46-58aa-4cf6-a1d0-1b94b16f71c2","ios":"levelo://app?vid=f7843f46-58aa-4cf6-a1d0-1b94b16f71c2"},"vehicle_type_id":"4","last_reported":1744488571,"current_range_meters":12400,"station_id":"ce4bh0h2rcd13ifvqd50","pricing_plan_id":"cebpf4jnsgd1na2vs0mg"},{"bike_id":"aa139661-ffcc-40c2-a396-528ee167d510","system_id":"levelo_inurba_marseille","lat":43.23953,"lon":5.36631,"is_reserved":false,"is_disabled":false,"rental_uris":{"android":"levelo://app?vid=aa139661-ffcc-40c2-a396-528ee167d510","ios":"levelo://app?vid=aa139661-ffcc-40c2-a396-528ee167d510"},"vehicle_type_id":"4","last_reported":1744488571,"current_range_meters":12400,"station_id":"ce4bhi12rcd13ifvqfp0","pricing_plan_id":"cebpf4jnsgd1na2vs0mg"},{"bike_id":"d41de423-b8af-48a3-b4b5-ae3f2ba9f3e0","system_id":"levelo_inurba_marseille","lat":43.2981,"lon":5.38106,"is_reserved":false,"is_disabled":false,"rental_uris":{"android":"levelo://app?vid=d41de423-b8af-48a3-b4b5-ae3f2ba9f3e0","ios":"levelo://app?vid=d41de423-b8af-48a3-b4b5-ae3f2ba9f3e0"},"vehicle_type_id":"4","last_reported":1744488571,"current_range_meters":12400,"station_id":"ce4bgip2rcd13ifvqbb0","pricing_plan_id":"cebpf4jnsgd1na2vs0mg"},{"bike_id":"aa716dbd-c98a-44de-9079-9e2715358546","system_id":"levelo_inurba_marseille","lat":43.30074,"lon":5.39747,"is_reserved":false,"is_disabled":false,"rental_uris":{"android":"levelo://app?vid=aa716dbd-c98a-44de-9079-9e2715358546","ios":"levelo://app?vid=aa716dbd-c98a-44de-9079-9e2715358546"},"vehicle_type_id":"4","last_reported":1744488571,"current_range_meters":12800,"station_id":"","pricing_plan_id":"cebpf4jnsgd1na2vs0mg"},{"bike_id":"712ec431-b67f-4a42-a3c2-08056becba94","system_id":"levelo_inurba_marseille","lat":43.29418,"lon":5.38625,"is_reserved":false,"is_disabled":false,"rental_uris":{"android":"levelo://app?vid=712ec431-b67f-4a42-a3c2-08056becba94","ios":"levelo://app?vid=712ec431-b67f-4a42-a3c2-08056becba94"},"vehicle_type_id":"4","last_reported":1744488571,"current_range_meters":12400,"station_id":"ce4bh2h2rcd13ifvqdh0","pricing_plan_id":"cebpf4jnsgd1na2vs0mg"},{"bike_id":"35a02256-186d-45f4-9af8-a5761f9fd811","system_id":"levelo_inurba_marseille","lat":43.283608,"lon":5.386305,"is_reserved":false,"is_disabled":false,"rental_uris":{"android":"levelo://app?vid=35a02256-186d-45f4-9af8-a5761f9fd811","ios":"levelo://app?vid=35a02256-186d-45f4-9af8-a5761f9fd811"},"vehicle_type_id":"4","last_reported":1744488571,"current_range_meters":12800,"station_id":"ce4bh492rcd13ifvqdvg","pricing_plan_id":"cebpf4jnsgd1na2vs0mg"},{"bike_id":"4078d024-bceb-4734-88e7-58b322f0945d","system_id":"levelo_inurba_marseille","lat":43.29274,"lon":5.40897,"is_reserved":false,"is_disabled":false,"rental_uris":{"android":"levelo://app?vid=4078d024-bceb-4734-88e7-58b322f0945d","ios":"levelo://app?vid=4078d024-bceb-4734-88e7-58b322f0945d"},"vehicle_type_id":"4","last_reported":1744488571,"current_range_meters":12800,"station_id":"ce4bh192rcd13ifvqdc0","pricing_plan_id":"cebpf4jnsgd1na2vs0mg"},{"bike_id":"6e2ac28e-dfb7-46b8-8016-b7ae92b2a4f0","system_id":"levelo_inurba_marseille","lat":43.27995,"lon":5.40009,"is_reserved":false,"is_disabled":false,"rental_uris":{"android":"levelo://app?vid=6e2ac28e-dfb7-46b8-8016-b7ae92b2a4f0","ios":"levelo://app?vid=6e2ac28e-dfb7-46b8-8016-b7ae92b2a4f0"},"vehicle_type_id":"4","last_reported":1744488571,"current_range_meters":12800,"station_id":"ce4bho92rcd13ifvqh4g","pricing_plan_id":"cebpf4jnsgd1na2vs0mg"},{"bike_id":"b959a73b-dad7-42bf-9b04-e4d8f2c7221a","system_id":"levelo_inurba_marseille","lat":43.28064,"lon":5.39659,"is_reserved":false,"is_disabled":false,"rental_uris":{"android":"levelo://app?vid=b959a73b-dad7-42bf-9b04-e4d8f2c7221a","ios":"levelo://app?vid=b959a73b-dad7-42bf-9b04-e4d8f2c7221a"},"vehicle_type_id":"4","last_reported":1744488571,"current_range_meters":12800,"station_id":"ce4bho12rcd13ifvqh2g","pricing_plan_id":"cebpf4jnsgd1na2vs0mg"},{"bike_id":"b6bb9015-7cae-4db5-acca-ba95968afcfd","system_id":"levelo_inurba_marseille","lat":43.28932,"lon":5.36641,"is_reserved":false,"is_disabled":false,"rental_uris":{"android":"levelo://app?vid=b6bb9015-7cae-4db5-acca-ba95968afcfd","ios":"levelo://app?vid=b6bb9015-7cae-4db5-acca-ba95968afcfd"},"vehicle_type_id":"4","last_reported":1744488571,"current_range_meters":12800,"station_id":"ce4bhap2rcd13ifvqek0","pricing_plan_id":"cebpf4jnsgd1na2vs0mg"},{"bike_id":"72c6aab6-3a44-430e-a84d-843d2a93e616","system_id":"levelo_inurba_marseille","lat":43.21186,"lon":5.35081,"is_reserved":false,"is_disabled":true,"rental_uris":{"android":"levelo://app?vid=72c6aab6-3a44-430e-a84d-843d2a93e616","ios":"levelo://app?vid=72c6aab6-3a44-430e-a84d-843d2a93e616"},"vehicle_type_id":"4","last_reported":1744488571,"current_range_meters":13600,"station_id":"st_cvj6sg6p6f1abm77japg","pricing_plan_id":"cebpf4jnsgd1na2vs0mg"},{"bike_id":"0e28dec3-f76d-48a9-b282-944b4e9f06dd","system_id":"levelo_inurba_marseille","lat":43.24811,"lon":5.37452,"is_reserved":false,"is_disabled":false,"rental_uris":{"android":"levelo://app?vid=0e28dec3-f76d-48a9-b282-944b4e9f06dd","ios":"levelo://app?vid=0e28dec3-f76d-48a9-b282-944b4e9f06dd"},"vehicle_type_id":"4","last_reported":1744488571,"current_range_meters":13600,"station_id":"ce4bhgh2rcd13ifvqfb0","pricing_plan_id":"cebpf4jnsgd1na2vs0mg"},{"bike_id":"8346bc12-b4ca-4815-be88-50101655ee42","system_id":"levelo_inurba_marseille","lat":43.30949,"lon":5.39023,"is_reserved":false,"is_disabled":false,"rental_uris":{"android":"levelo://app?vid=8346bc12-b4ca-4815-be88-50101655ee42","ios":"levelo://app?vid=8346bc12-b4ca-4815-be88-50101655ee42"},"vehicle_type_id":"4","last_reported":1744488571,"current_range_meters":13600,"station_id":"ce4bgup2rcd13ifvqco0","pricing_plan_id":"cebpf4jnsgd1na2vs0mg"},{"bike_id":"ebf81216-bb75-4451-8761-db4e68dfdde8","system_id":"levelo_inurba_marseille","lat":43.30954,"lon":5.39037,"is_reserved":false,"is_disabled":false,"rental_uris":{"android":"levelo://app?vid=ebf81216-bb75-4451-8761-db4e68dfdde8","ios":"levelo://app?vid=ebf81216-bb75-4451-8761-db4e68dfdde8"},"vehicle_type_id":"4","last_reported":1744488571,"current_range_meters":13600,"station_id":"ce4bgup2rcd13ifvqco0","pricing_plan_id":"cebpf4jnsgd1na2vs0mg"},{"bike_id":"e0e59bfb-5088-41a2-835c-398ab715e8d6","system_id":"levelo_inurba_marseille","lat":43.2418,"lon":5.39722,"is_reserved":false,"is_disabled":false,"rental_uris":{"android":"levelo://app?vid=e0e59bfb-5088-41a2-835c-398ab715e8d6","ios":"levelo://app?vid=e0e59bfb-5088-41a2-835c-398ab715e8d6"},"vehicle_type_id":"4","last_reported":1744488571,"current_range_meters":13600,"station_id":"ce4bhn12rcd13ifvqgpg","pricing_plan_id":"cebpf4jnsgd1na2vs0mg"},{"bike_id":"58ac1e55-4bbe-453d-a4ad-5f2509aafb35","system_id":"levelo_inurba_marseille","lat":43.24805,"lon":5.37458,"is_reserved":false,"is_disabled":false,"rental_uris":{"android":"levelo://app?vid=58ac1e55-4bbe-453d-a4ad-5f2509aafb35","ios":"levelo://app?vid=58ac1e55-4bbe-453d-a4ad-5f2509aafb35"},"vehicle_type_id":"4","last_reported":1744488571,"current_range_meters":13600,"station_id":"ce4bhgh2rcd13ifvqfb0","pricing_plan_id":"cebpf4jnsgd1na2vs0mg"},{"bike_id":"8043ed93-c0e0-4b20-a22a-1ce703744524","system_id":"levelo_inurba_marseille","lat":43.2895,"lon":5.36616,"is_reserved":false,"is_disabled":true,"rental_uris":{"android":"levelo://app?vid=8043ed93-c0e0-4b20-a22a-1ce703744524","ios":"levelo://app?vid=8043ed93-c0e0-4b20-a22a-1ce703744524"},"vehicle_type_id":"4","last_reported":1744488571,"current_range_meters":13600,"station_id":"ce4bhap2rcd13ifvqek0","pricing_plan_id":"cebpf4jnsgd1na2vs0mg"},{"bike_id":"74185919-dfff-4338-9189-655cfb62b8d2","system_id":"levelo_inurba_marseille","lat":43.30452,"lon":5.379,"is_reserved":false,"is_disabled":false,"rental_uris":{"android":"levelo://app?vid=74185919-dfff-4338-9189-655cfb62b8d2","ios":"levelo://app?vid=74185919-dfff-4338-9189-655cfb62b8d2"},"vehicle_type_id":"4","last_reported":1744488571,"current_range_meters":14000,"station_id":"ce4bgup2rcd13ifvqcn0","pricing_plan_id":"cebpf4jnsgd1na2vs0mg"},{"bike_id":"c5de9f04-a68c-4314-9995-789e3d717983","system_id":"levelo_inurba_marseille","lat":43.24399,"lon":5.37046,"is_reserved":false,"is_disabled":true,"rental_uris":{"android":"levelo://app?vid=c5de9f04-a68c-4314-9995-789e3d717983","ios":"levelo://app?vid=c5de9f04-a68c-4314-9995-789e3d717983"},"vehicle_type_id":"4","last_reported":1744488571,"current_range_meters":14000,"station_id":"ce4bhhh2rcd13ifvqfk0","pricing_plan_id":"cebpf4jnsgd1na2vs0mg"},{"bike_id":"91fffdcd-2fa7-4f34-b242-95e7e93ac05b","system_id":"levelo_inurba_marseille","lat":43.26314,"lon":5.39756,"is_reserved":false,"is_disabled":false,"rental_uris":{"android":"levelo://app?vid=91fffdcd-2fa7-4f34-b242-95e7e93ac05b","ios":"levelo://app?vid=91fffdcd-2fa7-4f34-b242-95e7e93ac05b"},"vehicle_type_id":"4","last_reported":1744488571,"current_range_meters":14000,"station_id":"","pricing_plan_id":"cebpf4jnsgd1na2vs0mg"},{"bike_id":"ef01a080-90aa-4c09-bccc-1c0a11ea24f7","system_id":"levelo_inurba_marseille","lat":43.28765,"lon":5.38703,"is_reserved":false,"is_disabled":false,"rental_uris":{"android":"levelo://app?vid=ef01a080-90aa-4c09-bccc-1c0a11ea24f7","ios":"levelo://app?vid=ef01a080-90aa-4c09-bccc-1c0a11ea24f7"},"vehicle_type_id":"4","last_reported":1744488571,"current_range_meters":14000,"station_id":"","pricing_plan_id":"cebpf4jnsgd1na2vs0mg"},{"bike_id":"c4132d40-8de2-457c-b70c-ee58331be674","system_id":"levelo_inurba_marseille","lat":43.29415,"lon":5.38625,"is_reserved":false,"is_disabled":false,"rental_uris":{"android":"levelo://app?vid=c4132d40-8de2-457c-b70c-ee58331be674","ios":"levelo://app?vid=c4132d40-8de2-457c-b70c-ee58331be674"},"vehicle_type_id":"4","last_reported":1744488571,"current_range_meters":14000,"station_id":"ce4bh2h2rcd13ifvqdh0","pricing_plan_id":"cebpf4jnsgd1na2vs0mg"},{"bike_id":"e44c373c-44cf-4377-8e42-21596ce17313","system_id":"levelo_inurba_marseille","lat":43.27426,"lon":5.39404,"is_reserved":false,"is_disabled":false,"rental_uris":{"android":"levelo://app?vid=e44c373c-44cf-4377-8e42-21596ce17313","ios":"levelo://app?vid=e44c373c-44cf-4377-8e42-21596ce17313"},"vehicle_type_id":"4","last_reported":1744488571,"current_range_meters":14000,"station_id":"ce4bhdp2rcd13ifvqf20","pricing_plan_id":"cebpf4jnsgd1na2vs0mg"},{"bike_id":"be64a3e6-13b0-48cf-b863-c100c9e43905","system_id":"levelo_inurba_marseille","lat":43.27203,"lon":5.39183,"is_reserved":false,"is_disabled":false,"rental_uris":{"android":"levelo://app?vid=be64a3e6-13b0-48cf-b863-c100c9e43905","ios":"levelo://app?vid=be64a3e6-13b0-48cf-b863-c100c9e43905"},"vehicle_type_id":"4","last_reported":1744488571,"current_range_meters":14000,"station_id":"ce4bhhp2rcd13ifvqfm0","pricing_plan_id":"cebpf4jnsgd1na2vs0mg"},{"bike_id":"e4d7e4ac-aaaf-4455-9eef-dc332ce81ced","system_id":"levelo_inurba_marseille","lat":43.25111,"lon":5.40319,"is_reserved":false,"is_disabled":false,"rental_uris":{"android":"levelo://app?vid=e4d7e4ac-aaaf-4455-9eef-dc332ce81ced","ios":"levelo://app?vid=e4d7e4ac-aaaf-4455-9eef-dc332ce81ced"},"vehicle_type_id":"4","last_reported":1744488571,"current_range_meters":14400,"station_id":"ce4bhlh2rcd13ifvqgig","pricing_plan_id":"cebpf4jnsgd1na2vs0mg"},{"bike_id":"7a29f394-fc48-4c93-a612-371c0644dd4a","system_id":"levelo_inurba_marseille","lat":43.30949,"lon":5.39018,"is_reserved":false,"is_disabled":false,"rental_uris":{"android":"levelo://app?vid=7a29f394-fc48-4c93-a612-371c0644dd4a","ios":"levelo://app?vid=7a29f394-fc48-4c93-a612-371c0644dd4a"},"vehicle_type_id":"4","last_reported":1744488571,"current_range_meters":14400,"station_id":"ce4bgup2rcd13ifvqco0","pricing_plan_id":"cebpf4jnsgd1na2vs0mg"},{"bike_id":"a4da7072-f681-4010-8772-b49f707169ee","system_id":"levelo_inurba_marseille","lat":43.2904,"lon":5.39931,"is_reserved":false,"is_disabled":false,"rental_uris":{"android":"levelo://app?vid=a4da7072-f681-4010-8772-b49f707169ee","ios":"levelo://app?vid=a4da7072-f681-4010-8772-b49f707169ee"},"vehicle_type_id":"4","last_reported":1744488571,"current_range_meters":14400,"station_id":"ce4bh392rcd13ifvqdm0","pricing_plan_id":"cebpf4jnsgd1na2vs0mg"},{"bike_id":"82d38bd3-c046-4f55-aec8-4eb686f05e29","system_id":"levelo_inurba_marseille","lat":43.22925,"lon":5.35379,"is_reserved":false,"is_disabled":true,"rental_uris":{"android":"levelo://app?vid=82d38bd3-c046-4f55-aec8-4eb686f05e29","ios":"levelo://app?vid=82d38bd3-c046-4f55-aec8-4eb686f05e29"},"vehicle_type_id":"4","last_reported":1744488571,"current_range_meters":14400,"station_id":"cpo3532slgdg3j2ikp40","pricing_plan_id":"cebpf4jnsgd1na2vs0mg"},{"bike_id":"efd328ca-f8bf-4550-bd94-c2fd75978f3c","system_id":"levelo_inurba_marseille","lat":43.33069,"lon":5.38091,"is_reserved":false,"is_disabled":false,"rental_uris":{"android":"levelo://app?vid=efd328ca-f8bf-4550-bd94-c2fd75978f3c","ios":"levelo://app?vid=efd328ca-f8bf-4550-bd94-c2fd75978f3c"},"vehicle_type_id":"4","last_reported":1744488571,"current_range_meters":14400,"station_id":"","pricing_plan_id":"cebpf4jnsgd1na2vs0mg"},{"bike_id":"90a14195-a53e-4d1f-a5a5-307cc368f11f","system_id":"levelo_inurba_marseille","lat":43.2737,"lon":5.39408,"is_reserved":false,"is_disabled":false,"rental_uris":{"android":"levelo://app?vid=90a14195-a53e-4d1f-a5a5-307cc368f11f","ios":"levelo://app?vid=90a14195-a53e-4d1f-a5a5-307cc368f11f"},"vehicle_type_id":"4","last_reported":1744488571,"current_range_meters":14400,"station_id":"ce4bhdp2rcd13ifvqf20","pricing_plan_id":"cebpf4jnsgd1na2vs0mg"},{"bike_id":"12aec038-db5e-4d5d-a5cf-e01dc2e28ea3","system_id":"levelo_inurba_marseille","lat":43.30134,"lon":5.4049,"is_reserved":false,"is_disabled":true,"rental_uris":{"android":"levelo://app?vid=12aec038-db5e-4d5d-a5cf-e01dc2e28ea3","ios":"levelo://app?vid=12aec038-db5e-4d5d-a5cf-e01dc2e28ea3"},"vehicle_type_id":"4","last_reported":1744488571,"current_range_meters":14800,"station_id":"","pricing_plan_id":"cebpf4jnsgd1na2vs0mg"},{"bike_id":"4bc96fdf-973c-478b-ac18-983aad95dc76","system_id":"levelo_inurba_marseille","lat":43.2694,"lon":5.40251,"is_reserved":false,"is_disabled":false,"rental_uris":{"android":"levelo://app?vid=4bc96fdf-973c-478b-ac18-983aad95dc76","ios":"levelo://app?vid=4bc96fdf-973c-478b-ac18-983aad95dc76"},"vehicle_type_id":"4","last_reported":1744488571,"current_range_meters":14800,"station_id":"cjm6bp8fraef2m0cb0m0","pricing_plan_id":"cebpf4jnsgd1na2vs0mg"},{"bike_id":"6280a3da-ba67-4e1b-b297-b63c2874c7c6","system_id":"levelo_inurba_marseille","lat":43.29423,"lon":5.38632,"is_reserved":false,"is_disabled":false,"rental_uris":{"android":"levelo://app?vid=6280a3da-ba67-4e1b-b297-b63c2874c7c6","ios":"levelo://app?vid=6280a3da-ba67-4e1b-b297-b63c2874c7c6"},"vehicle_type_id":"4","last_reported":1744488571,"current_range_meters":14800,"station_id":"ce4bh2h2rcd13ifvqdh0","pricing_plan_id":"cebpf4jnsgd1na2vs0mg"},{"bike_id":"dacaeccc-81d9-430e-933e-a9a1b1fea41d","system_id":"levelo_inurba_marseille","lat":43.27501,"lon":5.42454,"is_reserved":false,"is_disabled":false,"rental_uris":{"android":"levelo://app?vid=dacaeccc-81d9-430e-933e-a9a1b1fea41d","ios":"levelo://app?vid=dacaeccc-81d9-430e-933e-a9a1b1fea41d"},"vehicle_type_id":"4","last_reported":1744488571,"current_range_meters":14800,"station_id":"ce4bhn92rcd13ifvqgrg","pricing_plan_id":"cebpf4jnsgd1na2vs0mg"},{"bike_id":"020e9999-d552-48d0-ae5f-b725af0dbea2","system_id":"levelo_inurba_marseille","lat":43.29941,"lon":5.43714,"is_reserved":false,"is_disabled":false,"rental_uris":{"android":"levelo://app?vid=020e9999-d552-48d0-ae5f-b725af0dbea2","ios":"levelo://app?vid=020e9999-d552-48d0-ae5f-b725af0dbea2"},"vehicle_type_id":"4","last_reported":1744488571,"current_range_meters":15200,"station_id":"","pricing_plan_id":"cebpf4jnsgd1na2vs0mg"},{"bike_id":"a3bf51d9-08b7-458c-9b6d-ef5680cc95d6","system_id":"levelo_inurba_marseille","lat":43.21761,"lon":5.3461,"is_reserved":false,"is_disabled":true,"rental_uris":{"android":"levelo://app?vid=a3bf51d9-08b7-458c-9b6d-ef5680cc95d6","ios":"levelo://app?vid=a3bf51d9-08b7-458c-9b6d-ef5680cc95d6"},"vehicle_type_id":"4","last_reported":1744488571,"current_range_meters":14800,"station_id":"cpo36qri1sfpv3e86is0","pricing_plan_id":"cebpf4jnsgd1na2vs0mg"},{"bike_id":"d77107ec-c217-4ed3-bee2-49d6acc1f05d","system_id":"levelo_inurba_marseille","lat":43.28607,"lon":5.37064,"is_reserved":false,"is_disabled":false,"rental_uris":{"android":"levelo://app?vid=d77107ec-c217-4ed3-bee2-49d6acc1f05d","ios":"levelo://app?vid=d77107ec-c217-4ed3-bee2-49d6acc1f05d"},"vehicle_type_id":"4","last_reported":1744488571,"current_range_meters":14800,"station_id":"ce4bht12rcd13ifvqi60","pricing_plan_id":"cebpf4jnsgd1na2vs0mg"},{"bike_id":"4bbe6e48-9bfa-4dec-aab0-5597477f7da1","system_id":"levelo_inurba_marseille","lat":43.32412,"lon":5.39141,"is_reserved":false,"is_disabled":false,"rental_uris":{"android":"levelo://app?vid=4bbe6e48-9bfa-4dec-aab0-5597477f7da1","ios":"levelo://app?vid=4bbe6e48-9bfa-4dec-aab0-5597477f7da1"},"vehicle_type_id":"4","last_reported":1744488571,"current_range_meters":14800,"station_id":"","pricing_plan_id":"cebpf4jnsgd1na2vs0mg"},{"bike_id":"700d71b5-4c85-431a-b92e-2942edd64ce4","system_id":"levelo_inurba_marseille","lat":43.24804,"lon":5.37448,"is_reserved":false,"is_disabled":false,"rental_uris":{"android":"levelo://app?vid=700d71b5-4c85-431a-b92e-2942edd64ce4","ios":"levelo://app?vid=700d71b5-4c85-431a-b92e-2942edd64ce4"},"vehicle_type_id":"4","last_reported":1744488571,"current_range_meters":15200,"station_id":"ce4bhgh2rcd13ifvqfb0","pricing_plan_id":"cebpf4jnsgd1na2vs0mg"},{"bike_id":"75fb65a0-9a1a-46ec-a967-d392a433b716","system_id":"levelo_inurba_marseille","lat":43.2803,"lon":5.36946,"is_reserved":false,"is_disabled":false,"rental_uris":{"android":"levelo://app?vid=75fb65a0-9a1a-46ec-a967-d392a433b716","ios":"levelo://app?vid=75fb65a0-9a1a-46ec-a967-d392a433b716"},"vehicle_type_id":"4","last_reported":1744488571,"current_range_meters":15200,"station_id":"ce4bha12rcd13ifvqef0","pricing_plan_id":"cebpf4jnsgd1na2vs0mg"},{"bike_id":"bb992f94-162e-4668-92e9-ac060115e5fd","system_id":"levelo_inurba_marseille","lat":43.23966,"lon":5.36627,"is_reserved":false,"is_disabled":false,"rental_uris":{"android":"levelo://app?vid=bb992f94-162e-4668-92e9-ac060115e5fd","ios":"levelo://app?vid=bb992f94-162e-4668-92e9-ac060115e5fd"},"vehicle_type_id":"4","last_reported":1744488571,"current_range_meters":15200,"station_id":"ce4bhi12rcd13ifvqfp0","pricing_plan_id":"cebpf4jnsgd1na2vs0mg"},{"bike_id":"db9cdcec-b5ee-409b-adf3-2fb9b83088c4","system_id":"levelo_inurba_marseille","lat":43.30991,"lon":5.37342,"is_reserved":false,"is_disabled":false,"rental_uris":{"android":"levelo://app?vid=db9cdcec-b5ee-409b-adf3-2fb9b83088c4","ios":"levelo://app?vid=db9cdcec-b5ee-409b-adf3-2fb9b83088c4"},"vehicle_type_id":"4","last_reported":1744488571,"current_range_meters":15200,"station_id":"","pricing_plan_id":"cebpf4jnsgd1na2vs0mg"},{"bike_id":"01893ec6-aeeb-481a-b69f-5d9bc7dc6178","system_id":"levelo_inurba_marseille","lat":43.29425,"lon":5.38617,"is_reserved":false,"is_disabled":false,"rental_uris":{"android":"levelo://app?vid=01893ec6-aeeb-481a-b69f-5d9bc7dc6178","ios":"levelo://app?vid=01893ec6-aeeb-481a-b69f-5d9bc7dc6178"},"vehicle_type_id":"4","last_reported":1744488571,"current_range_meters":15200,"station_id":"ce4bh2h2rcd13ifvqdh0","pricing_plan_id":"cebpf4jnsgd1na2vs0mg"},{"bike_id":"73bbc97d-2b39-4276-bc22-fd7aa78f429c","system_id":"levelo_inurba_marseille","lat":43.29892,"lon":5.43655,"is_reserved":false,"is_disabled":false,"rental_uris":{"android":"levelo://app?vid=73bbc97d-2b39-4276-bc22-fd7aa78f429c","ios":"levelo://app?vid=73bbc97d-2b39-4276-bc22-fd7aa78f429c"},"vehicle_type_id":"4","last_reported":1744488571,"current_range_meters":15200,"station_id":"ce4bhpp2rcd13ifvqhfg","pricing_plan_id":"cebpf4jnsgd1na2vs0mg"},{"bike_id":"f49fe3e3-18a9-4fd4-aca8-4913cb33508e","system_id":"levelo_inurba_marseille","lat":43.31329,"lon":5.39697,"is_reserved":false,"is_disabled":false,"rental_uris":{"android":"levelo://app?vid=f49fe3e3-18a9-4fd4-aca8-4913cb33508e","ios":"levelo://app?vid=f49fe3e3-18a9-4fd4-aca8-4913cb33508e"},"vehicle_type_id":"4","last_reported":1744488571,"current_range_meters":15200,"station_id":"ce4bgvp2rcd13ifvqcu0","pricing_plan_id":"cebpf4jnsgd1na2vs0mg"},{"bike_id":"4910f9f1-e8d7-494e-bfcb-7b60c4289a88","system_id":"levelo_inurba_marseille","lat":43.27831,"lon":5.39209,"is_reserved":false,"is_disabled":false,"rental_uris":{"android":"levelo://app?vid=4910f9f1-e8d7-494e-bfcb-7b60c4289a88","ios":"levelo://app?vid=4910f9f1-e8d7-494e-bfcb-7b60c4289a88"},"vehicle_type_id":"4","last_reported":1744488571,"current_range_meters":15200,"station_id":"ce4bhjp2rcd13ifvqga0","pricing_plan_id":"cebpf4jnsgd1na2vs0mg"},{"bike_id":"b55dd5e7-54b2-4035-b945-7b626dd7afc7","system_id":"levelo_inurba_marseille","lat":43.27546,"lon":5.40948,"is_reserved":false,"is_disabled":false,"rental_uris":{"android":"levelo://app?vid=b55dd5e7-54b2-4035-b945-7b626dd7afc7","ios":"levelo://app?vid=b55dd5e7-54b2-4035-b945-7b626dd7afc7"},"vehicle_type_id":"4","last_reported":1744488571,"current_range_meters":16000,"station_id":"","pricing_plan_id":"cebpf4jnsgd1na2vs0mg"},{"bike_id":"982bb1bc-457f-43d7-ae21-85035c856353","system_id":"levelo_inurba_marseille","lat":43.22492,"lon":5.34785,"is_reserved":false,"is_disabled":false,"rental_uris":{"android":"levelo://app?vid=982bb1bc-457f-43d7-ae21-85035c856353","ios":"levelo://app?vid=982bb1bc-457f-43d7-ae21-85035c856353"},"vehicle_type_id":"4","last_reported":1744488571,"current_range_meters":16000,"station_id":"st_cvj5dfep6f1abm77gieg","pricing_plan_id":"cebpf4jnsgd1na2vs0mg"},{"bike_id":"00e383ee-9d71-4b98-bd8d-06638a485a90","system_id":"levelo_inurba_marseille","lat":43.24654,"lon":5.38895,"is_reserved":false,"is_disabled":false,"rental_uris":{"android":"levelo://app?vid=00e383ee-9d71-4b98-bd8d-06638a485a90","ios":"levelo://app?vid=00e383ee-9d71-4b98-bd8d-06638a485a90"},"vehicle_type_id":"4","last_reported":1744488571,"current_range_meters":15200,"station_id":"ce4bhg12rcd13ifvqf60","pricing_plan_id":"cebpf4jnsgd1na2vs0mg"},{"bike_id":"7fcde371-d25e-4ece-a5ce-7303f09f0152","system_id":"levelo_inurba_marseille","lat":43.24805,"lon":5.37437,"is_reserved":false,"is_disabled":false,"rental_uris":{"android":"levelo://app?vid=7fcde371-d25e-4ece-a5ce-7303f09f0152","ios":"levelo://app?vid=7fcde371-d25e-4ece-a5ce-7303f09f0152"},"vehicle_type_id":"4","last_reported":1744488571,"current_range_meters":16000,"station_id":"ce4bhgh2rcd13ifvqfb0","pricing_plan_id":"cebpf4jnsgd1na2vs0mg"},{"bike_id":"2ae5c809-c5d6-480f-b9b1-6456636a5c12","system_id":"levelo_inurba_marseille","lat":43.29437,"lon":5.38599,"is_reserved":false,"is_disabled":false,"rental_uris":{"android":"levelo://app?vid=2ae5c809-c5d6-480f-b9b1-6456636a5c12","ios":"levelo://app?vid=2ae5c809-c5d6-480f-b9b1-6456636a5c12"},"vehicle_type_id":"4","last_reported":1744488571,"current_range_meters":16000,"station_id":"ce4bh2h2rcd13ifvqdh0","pricing_plan_id":"cebpf4jnsgd1na2vs0mg"},{"bike_id":"d8b9884b-4022-4710-9f87-50e0dbfd421d","system_id":"levelo_inurba_marseille","lat":43.24179,"lon":5.36401,"is_reserved":false,"is_disabled":false,"rental_uris":{"android":"levelo://app?vid=d8b9884b-4022-4710-9f87-50e0dbfd421d","ios":"levelo://app?vid=d8b9884b-4022-4710-9f87-50e0dbfd421d"},"vehicle_type_id":"4","last_reported":1744488571,"current_range_meters":16400,"station_id":"cpo36qri1sfpv3e86is0","pricing_plan_id":"cebpf4jnsgd1na2vs0mg"},{"bike_id":"4628ebfd-cc59-410a-a968-14cc0f33e006","system_id":"levelo_inurba_marseille","lat":43.29594,"lon":5.381,"is_reserved":false,"is_disabled":false,"rental_uris":{"android":"levelo://app?vid=4628ebfd-cc59-410a-a968-14cc0f33e006","ios":"levelo://app?vid=4628ebfd-cc59-410a-a968-14cc0f33e006"},"vehicle_type_id":"4","last_reported":1744488571,"current_range_meters":16000,"station_id":"ce4bgl12rcd13ifvqbo0","pricing_plan_id":"cebpf4jnsgd1na2vs0mg"},{"bike_id":"639bc19a-e302-421d-aaf2-658de6b21fe2","system_id":"levelo_inurba_marseille","lat":43.29309,"lon":5.37186,"is_reserved":false,"is_disabled":false,"rental_uris":{"android":"levelo://app?vid=639bc19a-e302-421d-aaf2-658de6b21fe2","ios":"levelo://app?vid=639bc19a-e302-421d-aaf2-658de6b21fe2"},"vehicle_type_id":"4","last_reported":1744488571,"current_range_meters":16000,"station_id":"ce4bgh92rcd13ifvqb40","pricing_plan_id":"cebpf4jnsgd1na2vs0mg"},{"bike_id":"47e5fbe6-3f56-4975-8df9-508e523bd5ca","system_id":"levelo_inurba_marseille","lat":43.28076,"lon":5.39659,"is_reserved":false,"is_disabled":false,"rental_uris":{"android":"levelo://app?vid=47e5fbe6-3f56-4975-8df9-508e523bd5ca","ios":"levelo://app?vid=47e5fbe6-3f56-4975-8df9-508e523bd5ca"},"vehicle_type_id":"4","last_reported":1744488571,"current_range_meters":16400,"station_id":"ce4bho12rcd13ifvqh2g","pricing_plan_id":"cebpf4jnsgd1na2vs0mg"},{"bike_id":"ef914213-710f-49eb-872a-57f7b7138146","system_id":"levelo_inurba_marseille","lat":43.28021,"lon":5.39985,"is_reserved":false,"is_disabled":false,"rental_uris":{"android":"levelo://app?vid=ef914213-710f-49eb-872a-57f7b7138146","ios":"levelo://app?vid=ef914213-710f-49eb-872a-57f7b7138146"},"vehicle_type_id":"4","last_reported":1744488571,"current_range_meters":16000,"station_id":"ce4bho92rcd13ifvqh4g","pricing_plan_id":"cebpf4jnsgd1na2vs0mg"},{"bike_id":"f44be64b-6eee-4b45-a654-c0b4597bf03b","system_id":"levelo_inurba_marseille","lat":43.293076,"lon":5.371766,"is_reserved":false,"is_disabled":false,"rental_uris":{"android":"levelo://app?vid=f44be64b-6eee-4b45-a654-c0b4597bf03b","ios":"levelo://app?vid=f44be64b-6eee-4b45-a654-c0b4597bf03b"},"vehicle_type_id":"4","last_reported":1744488571,"current_range_meters":16400,"station_id":"ce4bgh92rcd13ifvqb40","pricing_plan_id":"cebpf4jnsgd1na2vs0mg"},{"bike_id":"f217903b-ab33-4ff9-8b78-ffb80588c0a1","system_id":"levelo_inurba_marseille","lat":43.28092,"lon":5.39611,"is_reserved":false,"is_disabled":false,"rental_uris":{"android":"levelo://app?vid=f217903b-ab33-4ff9-8b78-ffb80588c0a1","ios":"levelo://app?vid=f217903b-ab33-4ff9-8b78-ffb80588c0a1"},"vehicle_type_id":"4","last_reported":1744488571,"current_range_meters":16400,"station_id":"ce4bho12rcd13ifvqh2g","pricing_plan_id":"cebpf4jnsgd1na2vs0mg"},{"bike_id":"430abd17-c3a8-4db3-ba8b-e29995b1da2b","system_id":"levelo_inurba_marseille","lat":43.29879,"lon":5.389067,"is_reserved":false,"is_disabled":false,"rental_uris":{"android":"levelo://app?vid=430abd17-c3a8-4db3-ba8b-e29995b1da2b","ios":"levelo://app?vid=430abd17-c3a8-4db3-ba8b-e29995b1da2b"},"vehicle_type_id":"4","last_reported":1744488571,"current_range_meters":16400,"station_id":"ce4bh392rcd13ifvqdl0","pricing_plan_id":"cebpf4jnsgd1na2vs0mg"},{"bike_id":"2fc88268-9338-4674-a8f4-36dfb8363ca0","system_id":"levelo_inurba_marseille","lat":43.2119,"lon":5.35063,"is_reserved":false,"is_disabled":true,"rental_uris":{"android":"levelo://app?vid=2fc88268-9338-4674-a8f4-36dfb8363ca0","ios":"levelo://app?vid=2fc88268-9338-4674-a8f4-36dfb8363ca0"},"vehicle_type_id":"4","last_reported":1744488571,"current_range_meters":16400,"station_id":"st_cvj6sg6p6f1abm77japg","pricing_plan_id":"cebpf4jnsgd1na2vs0mg"},{"bike_id":"21127257-eff7-474d-8ad8-e3337a0a4ddf","system_id":"levelo_inurba_marseille","lat":43.2981,"lon":5.36155,"is_reserved":false,"is_disabled":false,"rental_uris":{"android":"levelo://app?vid=21127257-eff7-474d-8ad8-e3337a0a4ddf","ios":"levelo://app?vid=21127257-eff7-474d-8ad8-e3337a0a4ddf"},"vehicle_type_id":"4","last_reported":1744488571,"current_range_meters":16400,"station_id":"","pricing_plan_id":"cebpf4jnsgd1na2vs0mg"},{"bike_id":"d49ed5f3-63dd-41d8-a7c3-7b7860b035b1","system_id":"levelo_inurba_marseille","lat":43.24819,"lon":5.37447,"is_reserved":false,"is_disabled":true,"rental_uris":{"android":"levelo://app?vid=d49ed5f3-63dd-41d8-a7c3-7b7860b035b1","ios":"levelo://app?vid=d49ed5f3-63dd-41d8-a7c3-7b7860b035b1"},"vehicle_type_id":"4","last_reported":1744488571,"current_range_meters":16400,"station_id":"ce4bhgh2rcd13ifvqfb0","pricing_plan_id":"cebpf4jnsgd1na2vs0mg"},{"bike_id":"5591936e-ca63-41c7-89f3-9c9493c86f89","system_id":"levelo_inurba_marseille","lat":43.24203,"lon":5.36358,"is_reserved":false,"is_disabled":false,"rental_uris":{"android":"levelo://app?vid=5591936e-ca63-41c7-89f3-9c9493c86f89","ios":"levelo://app?vid=5591936e-ca63-41c7-89f3-9c9493c86f89"},"vehicle_type_id":"4","last_reported":1744488571,"current_range_meters":16400,"station_id":"cpo36qri1sfpv3e86is0","pricing_plan_id":"cebpf4jnsgd1na2vs0mg"},{"bike_id":"69081502-a9b5-4ffe-bf33-23c3d68e1506","system_id":"levelo_inurba_marseille","lat":43.28403,"lon":5.37528,"is_reserved":false,"is_disabled":false,"rental_uris":{"android":"levelo://app?vid=69081502-a9b5-4ffe-bf33-23c3d68e1506","ios":"levelo://app?vid=69081502-a9b5-4ffe-bf33-23c3d68e1506"},"vehicle_type_id":"4","last_reported":1744488571,"current_range_meters":16400,"station_id":"ce4bh412rcd13ifvqds0","pricing_plan_id":"cebpf4jnsgd1na2vs0mg"},{"bike_id":"4cfcc645-85cd-4976-86c8-480a0b8c9d53","system_id":"levelo_inurba_marseille","lat":43.28932,"lon":5.38407,"is_reserved":false,"is_disabled":false,"rental_uris":{"android":"levelo://app?vid=4cfcc645-85cd-4976-86c8-480a0b8c9d53","ios":"levelo://app?vid=4cfcc645-85cd-4976-86c8-480a0b8c9d53"},"vehicle_type_id":"4","last_reported":1744488571,"current_range_meters":16400,"station_id":"ce4bh612rcd13ifvqe6g","pricing_plan_id":"cebpf4jnsgd1na2vs0mg"},{"bike_id":"935a7e55-4cea-4394-8ed2-15f7e1ee706c","system_id":"levelo_inurba_marseille","lat":43.27239,"lon":5.43143,"is_reserved":false,"is_disabled":false,"rental_uris":{"android":"levelo://app?vid=935a7e55-4cea-4394-8ed2-15f7e1ee706c","ios":"levelo://app?vid=935a7e55-4cea-4394-8ed2-15f7e1ee706c"},"vehicle_type_id":"4","last_reported":1744488571,"current_range_meters":16800,"station_id":"","pricing_plan_id":"cebpf4jnsgd1na2vs0mg"},{"bike_id":"30a63ad3-971c-4d9f-89d9-0f52a36182b1","system_id":"levelo_inurba_marseille","lat":43.30949,"lon":5.39044,"is_reserved":false,"is_disabled":false,"rental_uris":{"android":"levelo://app?vid=30a63ad3-971c-4d9f-89d9-0f52a36182b1","ios":"levelo://app?vid=30a63ad3-971c-4d9f-89d9-0f52a36182b1"},"vehicle_type_id":"4","last_reported":1744488571,"current_range_meters":16800,"station_id":"ce4bgup2rcd13ifvqco0","pricing_plan_id":"cebpf4jnsgd1na2vs0mg"},{"bike_id":"d55419a0-afe2-4266-850a-91f4e353b1ca","system_id":"levelo_inurba_marseille","lat":43.25488,"lon":5.37651,"is_reserved":false,"is_disabled":false,"rental_uris":{"android":"levelo://app?vid=d55419a0-afe2-4266-850a-91f4e353b1ca","ios":"levelo://app?vid=d55419a0-afe2-4266-850a-91f4e353b1ca"},"vehicle_type_id":"4","last_reported":1744488571,"current_range_meters":16800,"station_id":"ce4bhh12rcd13ifvqff0","pricing_plan_id":"cebpf4jnsgd1na2vs0mg"},{"bike_id":"7ce73a41-cd8e-4163-b038-5649a369693b","system_id":"levelo_inurba_marseille","lat":43.26943,"lon":5.40246,"is_reserved":false,"is_disabled":false,"rental_uris":{"android":"levelo://app?vid=7ce73a41-cd8e-4163-b038-5649a369693b","ios":"levelo://app?vid=7ce73a41-cd8e-4163-b038-5649a369693b"},"vehicle_type_id":"4","last_reported":1744488571,"current_range_meters":16800,"station_id":"cjm6bp8fraef2m0cb0m0","pricing_plan_id":"cebpf4jnsgd1na2vs0mg"},{"bike_id":"2980ffa7-7783-4a57-b9dc-66b0f5b0cadd","system_id":"levelo_inurba_marseille","lat":43.25533,"lon":5.37639,"is_reserved":false,"is_disabled":false,"rental_uris":{"android":"levelo://app?vid=2980ffa7-7783-4a57-b9dc-66b0f5b0cadd","ios":"levelo://app?vid=2980ffa7-7783-4a57-b9dc-66b0f5b0cadd"},"vehicle_type_id":"4","last_reported":1744488571,"current_range_meters":16800,"station_id":"ce4bhh12rcd13ifvqff0","pricing_plan_id":"cebpf4jnsgd1na2vs0mg"},{"bike_id":"78ddab66-1fdf-463b-942c-3308f2102794","system_id":"levelo_inurba_marseille","lat":43.32656,"lon":5.40993,"is_reserved":false,"is_disabled":false,"rental_uris":{"android":"levelo://app?vid=78ddab66-1fdf-463b-942c-3308f2102794","ios":"levelo://app?vid=78ddab66-1fdf-463b-942c-3308f2102794"},"vehicle_type_id":"4","last_reported":1744488571,"current_range_meters":16800,"station_id":"ce4bhpp2rcd13ifvqhgg","pricing_plan_id":"cebpf4jnsgd1na2vs0mg"},{"bike_id":"4d874086-2615-45ee-92bb-518b7ad00a4d","system_id":"levelo_inurba_marseille","lat":43.3095,"lon":5.39032,"is_reserved":false,"is_disabled":true,"rental_uris":{"android":"levelo://app?vid=4d874086-2615-45ee-92bb-518b7ad00a4d","ios":"levelo://app?vid=4d874086-2615-45ee-92bb-518b7ad00a4d"},"vehicle_type_id":"4","last_reported":1744488571,"current_range_meters":16800,"station_id":"ce4bgup2rcd13ifvqco0","pricing_plan_id":"cebpf4jnsgd1na2vs0mg"},{"bike_id":"0924e518-b402-4bf5-b8b9-00bfe6d21692","system_id":"levelo_inurba_marseille","lat":43.28702,"lon":5.3998,"is_reserved":false,"is_disabled":false,"rental_uris":{"android":"levelo://app?vid=0924e518-b402-4bf5-b8b9-00bfe6d21692","ios":"levelo://app?vid=0924e518-b402-4bf5-b8b9-00bfe6d21692"},"vehicle_type_id":"4","last_reported":1744488571,"current_range_meters":16400,"station_id":"ce4bho92rcd13ifvqh3g","pricing_plan_id":"cebpf4jnsgd1na2vs0mg"},{"bike_id":"f2c9af42-a832-4609-be6a-7a6fa0049083","system_id":"levelo_inurba_marseille","lat":43.29637,"lon":5.37183,"is_reserved":false,"is_disabled":false,"rental_uris":{"android":"levelo://app?vid=f2c9af42-a832-4609-be6a-7a6fa0049083","ios":"levelo://app?vid=f2c9af42-a832-4609-be6a-7a6fa0049083"},"vehicle_type_id":"4","last_reported":1744488571,"current_range_meters":16800,"station_id":"ce4bgnh2rcd13ifvqc0g","pricing_plan_id":"cebpf4jnsgd1na2vs0mg"},