{"last_updated":1730545608,"ttl":60,"version":"2.2","data":{"bikes":[{"bike_id":"1100e5a9-b924-4d01-8a4c-246bee3d586b","system_id":"levelo_inurba_marseille","lat":43.24701,"lon":5.41489,"is_reserved":false,"is_disabled":false,"rental_uris":{"android":"levelo://app?vid=1100e5a9-b924-4d01-8a4c-246bee3d586b","ios":"levelo://app?vid=1100e5a9-b924-4d01-8a4c-246bee3d586b"},"vehicle_type_id":"4","last_reported":1730545608,"current_range_meters":4000,"station_id":"","pricing_plan_id":"cebpf4jnsgd1na2vs0mg"},{"bike_id":"1154d05d-8ee3-4b7a-8846-a6d93b97bf41","system_id":"levelo_inurba_marseille","lat":43.30538,"lon":5.36702,"is_reserved":false,"is_disabled":false,"rental_uris":{"android":"levelo://app?vid=1154d05d-8ee3-4b7a-8846-a6d93b97bf41","ios":"levelo://app?vid=1154d05d-8ee3-4b7a-8846-a6d93b97bf41"},"vehicle_type_id":"4","last_reported":1730545608,"current_range_meters":38800,"station_id":"ce4bgrp2rcd13ifvqc9g","pricing_plan_id":"cebpf4jnsgd1na2vs0mg"},{"bike_id":"8edb629f-9edb-4e6d-8453-3a06eb0fc1e0","system_id":"levelo_inurba_marseille","lat":43.24671,"lon":5.38165,"is_reserved":false,"is_disabled":false,"rental_uris":{"android":"levelo://app?vid=8edb629f-9edb-4e6d-8453-3a06eb0fc1e0","ios":"levelo://app?vid=8edb629f-9edb-4e6d-8453-3a06eb0fc1e0"},"vehicle_type_id":"4","last_reported":1730545608,"current_range_meters":28800,"station_id":"ce4bhih2rcd13ifvqfr0","pricing_plan_id":"cebpf4jnsgd1na2vs0mg"},{"bike_id":"53361ed5-44e3-4331-b1db-d839ce43605d","system_id":"levelo_inurba_marseille","lat":43.32656,"lon":5.40986,"is_reserved":false,"is_disabled":false,"rental_uris":{"android":"levelo://app?vid=53361ed5-44e3-4331-b1db-d839ce43605d","ios":"levelo://app?vid=53361ed5-44e3-4331-b1db-d839ce43605d"},"vehicle_type_id":"4","last_reported":1730545608,"current_range_meters":8400,"station_id":"ce4bhpp2rcd13ifvqhgg","pricing_plan_id":"cebpf4jnsgd1na2vs0mg"},{"bike_id":"8682c02d-b75e-4986-bf40-c0b0cf6578e7","system_id":"levelo_inurba_marseille","lat":43.32104,"lon":5.36765,"is_reserved":false,"is_disabled":false,"rental_uris":{"android":"levelo://app?vid=8682c02d-b75e-4986-bf40-c0b0cf6578e7","ios":"levelo://app?vid=8682c02d-b75e-4986-bf40-c0b0cf6578e7"},"vehicle_type_id":"4","last_reported":1730545608,"current_range_meters":38000,"station_id":"ce4bhrh2rcd13ifvqhug","pricing_plan_id":"cebpf4jnsgd1na2vs0mg"},{"bike_id":"dbd026cc-4570-4761-bfa1-68dae00b3a97","system_id":"levelo_inurba_marseille","lat":43.30531,"lon":5.36536,"is_reserved":false,"is_disabled":false,"rental_uris":{"android":"levelo://app?vid=dbd026cc-4570-4761-bfa1-68dae00b3a97","ios":"levelo://app?vid=dbd026cc-4570-4761-bfa1-68dae00b3a97"},"vehicle_type_id":"4","last_reported":1730545608,"current_range_meters":39200,"station_id":"ce4bgs12rcd13ifvqcag","pricing_plan_id":"cebpf4jnsgd1na2vs0mg"},{"bike_id":"b5c93c4c-9dbf-41f1-b4bb-03544020c1c6","system_id":"levelo_inurba_marseille","lat":43.292633,"lon":5.384346,"is_reserved":false,"is_disabled":false,"rental_uris":{"android":"levelo://app?vid=b5c93c4c-9dbf-41f1-b4bb-03544020c1c6","ios":"levelo://app?vid=b5c93c4c-9dbf-41f1-b4bb-03544020c1c6"},"vehicle_type_id":"4","last_reported":1730545608,"current_range_meters":16400,"station_id":"ce4bh692rcd13ifvqea0","pricing_plan_id":"cebpf4jnsgd1na2vs0mg"},{"bike_id":"ae2ccb33-795f-44d2-a6c0-9c58090a88ce","system_id":"levelo_inurba_marseille","lat":43.24381,"lon":5.37047,"is_reserved":false,"is_disabled":false,"rental_uris":{"android":"levelo://app?vid=ae2ccb33-795f-44d2-a6c0-9c58090a88ce","ios":"levelo://app?vid=ae2ccb33-795f-44d2-a6c0-9c58090a88ce"},"vehicle_type_id":"4","last_reported":1730545608,"current_range_meters":32400,"station_id":"ce4bhhh2rcd13ifvqfk0","pricing_plan_id":"cebpf4jnsgd1na2vs0mg"},{"bike_id":"b22f05c5-1153-45e1-9ad1-d4917cc54764","system_id":"levelo_inurba_marseille","lat":43.28265,"lon":5.35064,"is_reserved":false,"is_disabled":false,"rental_uris":{"android":"levelo://app?vid=b22f05c5-1153-45e1-9ad1-d4917cc54764","ios":"levelo://app?vid=b22f05c5-1153-45e1-9ad1-d4917cc54764"},"vehicle_type_id":"4","last_reported":1730545608,"current_range_meters":25600,"station_id":"ce4bhbp2rcd13ifvqerg","pricing_plan_id":"cebpf4jnsgd1na2vs0mg"},{"bike_id":"fb7f8183-7447-4baa-b80d-313056d35dd4","system_id":"levelo_inurba_marseille","lat":43.25726,"lon":5.41096,"is_reserved":false,"is_disabled":false,"rental_uris":{"android":"levelo://app?vid=fb7f8183-7447-4baa-b80d-313056d35dd4","ios":"levelo://app?vid=fb7f8183-7447-4baa-b80d-313056d35dd4"},"vehicle_type_id":"4","last_reported":1730545608,"current_range_meters":39200,"station_id":"ce4bhkp2rcd13ifvqgd0","pricing_plan_id":"cebpf4jnsgd1na2vs0mg"},{"bike_id":"23154cb2-9e6a-436c-8082-6fac7e21a2cd","system_id":"levelo_inurba_marseille","lat":43.262671,"lon":5.404736,"is_reserved":false,"is_disabled":false,"rental_uris":{"android":"levelo://app?vid=23154cb2-9e6a-436c-8082-6fac7e21a2cd","ios":"levelo://app?vid=23154cb2-9e6a-436c-8082-6fac7e21a2cd"},"vehicle_type_id":"4","last_reported":1730545608,"current_range_meters":35200,"station_id":"cjm6bp8fraef2m0cb0m0","pricing_plan_id":"cebpf4jnsgd1na2vs0mg"},{"bike_id":"a4627486-a087-47d1-bdea-e9476cd49986","system_id":"levelo_inurba_marseille","lat":43.23196,"lon":5.3555,"is_reserved":false,"is_disabled":false,"rental_uris":{"android":"levelo://app?vid=a4627486-a087-47d1-bdea-e9476cd49986","ios":"levelo://app?vid=a4627486-a087-47d1-bdea-e9476cd49986"},"vehicle_type_id":"4","last_reported":1730545608,"current_range_meters":27600,"station_id":"ce4bhu92rcd13ifvqi70","pricing_plan_id":"cebpf4jnsgd1na2vs0mg"},{"bike_id":"509a9bdc-ca48-4855-8040-748bb9b3087b","system_id":"levelo_inurba_marseille","lat":43.25934,"lon":5.409,"is_reserved":false,"is_disabled":false,"rental_uris":{"android":"levelo://app?vid=509a9bdc-ca48-4855-8040-748bb9b3087b","ios":"levelo://app?vid=509a9bdc-ca48-4855-8040-748bb9b3087b"},"vehicle_type_id":"4","last_reported":1730545608,"current_range_meters":20800,"station_id":"ce4bhm92rcd13ifvqglg","pricing_plan_id":"cebpf4jnsgd1na2vs0mg"},{"bike_id":"f81c11d9-e8f1-4c21-873f-c34aed75ed5d","system_id":"levelo_inurba_marseille","lat":43.28486,"lon":5.38557,"is_reserved":false,"is_disabled":false,"rental_uris":{"android":"levelo://app?vid=f81c11d9-e8f1-4c21-873f-c34aed75ed5d","ios":"levelo://app?vid=f81c11d9-e8f1-4c21-873f-c34aed75ed5d"},"vehicle_type_id":"4","last_reported":1730545608,"current_range_meters":10800,"station_id":"ce4bh8p2rcd13ifvqeb0","pricing_plan_id":"cebpf4jnsgd1na2vs0mg"},{"bike_id":"5786df96-c0c3-4631-99bb-68039925daa1","system_id":"levelo_inurba_marseille","lat":43.27172,"lon":5.40991,"is_reserved":false,"is_disabled":false,"rental_uris":{"android":"levelo://app?vid=5786df96-c0c3-4631-99bb-68039925daa1","ios":"levelo://app?vid=5786df96-c0c3-4631-99bb-68039925daa1"},"vehicle_type_id":"4","last_reported":1730545608,"current_range_meters":26800,"station_id":"ce4bhl12rcd13ifvqgf0","pricing_plan_id":"cebpf4jnsgd1na2vs0mg"},{"bike_id":"7dc391c0-f0bd-4287-893a-a2801eabad74","system_id":"levelo_inurba_marseille","lat":43.2738,"lon":5.36248,"is_reserved":false,"is_disabled":false,"rental_uris":{"android":"levelo://app?vid=7dc391c0-f0bd-4287-893a-a2801eabad74","ios":"levelo://app?vid=7dc391c0-f0bd-4287-893a-a2801eabad74"},"vehicle_type_id":"4","last_reported":1730545608,"current_range_meters":38800,"station_id":"ce4bhbh2rcd13ifvqeo0","pricing_plan_id":"cebpf4jnsgd1na2vs0mg"},{"bike_id":"efbe383f-83c6-4df5-ac1f-ffa8f2e0197b","system_id":"levelo_inurba_marseille","lat":43.3133,"lon":5.39692,"is_reserved":false,"is_disabled":false,"rental_uris":{"android":"levelo://app?vid=efbe383f-83c6-4df5-ac1f-ffa8f2e0197b","ios":"levelo://app?vid=efbe383f-83c6-4df5-ac1f-ffa8f2e0197b"},"vehicle_type_id":"4","last_reported":1730545608,"current_range_meters":4400,"station_id":"ce4bgvp2rcd13ifvqcu0","pricing_plan_id":"cebpf4jnsgd1na2vs0mg"},{"bike_id":"6aee0ce1-c7a0-45e8-a515-069ca31b3763","system_id":"levelo_inurba_marseille","lat":43.25724,"lon":5.41105,"is_reserved":false,"is_disabled":false,"rental_uris":{"android":"levelo://app?vid=6aee0ce1-c7a0-45e8-a515-069ca31b3763","ios":"levelo://app?vid=6aee0ce1-c7a0-45e8-a515-069ca31b3763"},"vehicle_type_id":"4","last_reported":1730545608,"current_range_meters":38000,"station_id":"ce4bhkp2rcd13ifvqgd0","pricing_plan_id":"cebpf4jnsgd1na2vs0mg"},{"bike_id":"a5900736-c13d-4efc-aa0c-4c77272b2670","system_id":"levelo_inurba_marseille","lat":43.30357,"lon":5.41886,"is_reserved":false,"is_disabled":false,"rental_uris":{"android":"levelo://app?vid=a5900736-c13d-4efc-aa0c-4c77272b2670","ios":"levelo://app?vid=a5900736-c13d-4efc-aa0c-4c77272b2670"},"vehicle_type_id":"4","last_reported":1730545608,"current_range_meters":37600,"station_id":"ce4bhop2rcd13ifvqh7g","pricing_plan_id":"cebpf4jnsgd1na2vs0mg"},{"bike_id":"f4d4339d-d1bb-4ff8-9d32-9eaf0f8ec19c","system_id":"levelo_inurba_marseille","lat":43.30555,"lon":5.3655,"is_reserved":false,"is_disabled":false,"rental_uris":{"android":"levelo://app?vid=f4d4339d-d1bb-4ff8-9d32-9eaf0f8ec19c","ios":"levelo://app?vid=f4d4339d-d1bb-4ff8-9d32-9eaf0f8ec19c"},"vehicle_type_id":"4","last_reported":1730545608,"current_range_meters":32000,"station_id":"ce4bgs12rcd13ifvqcag","pricing_plan_id":"cebpf4jnsgd1na2vs0mg"},{"bike_id":"5ab17023-8660-410b-88a5-127d565b058c","system_id":"levelo_inurba_marseille","lat":43.24164,"lon":5.36395,"is_reserved":false,"is_disabled":false,"rental_uris":{"android":"levelo://app?vid=5ab17023-8660-410b-88a5-127d565b058c","ios":"levelo://app?vid=5ab17023-8660-410b-88a5-127d565b058c"},"vehicle_type_id":"4","last_reported":1730545608,"current_range_meters":20400,"station_id":"cpo36qri1sfpv3e86is0","pricing_plan_id":"cebpf4jnsgd1na2vs0mg"},{"bike_id":"7d467372-7059-4321-81bc-a3b8c1dcaf52","system_id":"levelo_inurba_marseille","lat":43.29841,"lon":5.36257,"is_reserved":false,"is_disabled":false,"rental_uris":{"android":"levelo://app?vid=7d467372-7059-4321-81bc-a3b8c1dcaf52","ios":"levelo://app?vid=7d467372-7059-4321-81bc-a3b8c1dcaf52"},"vehicle_type_id":"4","last_reported":1730545608,"current_range_meters":36400,"station_id":"ce4bgpp2rcd13ifvqc3g","pricing_plan_id":"cebpf4jnsgd1na2vs0mg"},{"bike_id":"67a0dc70-e687-4995-90ee-9714e1a42bdb","system_id":"levelo_inurba_marseille","lat":43.26957,"lon":5.38628,"is_reserved":false,"is_disabled":false,"rental_uris":{"android":"levelo://app?vid=67a0dc70-e687-4995-90ee-9714e1a42bdb","ios":"levelo://app?vid=67a0dc70-e687-4995-90ee-9714e1a42bdb"},"vehicle_type_id":"4","last_reported":1730545608,"current_range_meters":36000,"station_id":"ce4bhh92rcd13ifvqfh0","pricing_plan_id":"cebpf4jnsgd1na2vs0mg"},{"bike_id":"9b50e853-0c2f-402a-9edc-493d94c176f6","system_id":"levelo_inurba_marseille","lat":43.29579,"lon":5.37499,"is_reserved":false,"is_disabled":false,"rental_uris":{"android":"levelo://app?vid=9b50e853-0c2f-402a-9edc-493d94c176f6","ios":"levelo://app?vid=9b50e853-0c2f-402a-9edc-493d94c176f6"},"vehicle_type_id":"4","last_reported":1730545608,"current_range_meters":34800,"station_id":"ce4bgh92rcd13ifvqb50","pricing_plan_id":"cebpf4jnsgd1na2vs0mg"},{"bike_id":"1c6c4ea4-1422-4f95-9fb3-989475604eaf","system_id":"levelo_inurba_marseille","lat":43.28271,"lon":5.3507,"is_reserved":false,"is_disabled":false,"rental_uris":{"android":"levelo://app?vid=1c6c4ea4-1422-4f95-9fb3-989475604eaf","ios":"levelo://app?vid=1c6c4ea4-1422-4f95-9fb3-989475604eaf"},"vehicle_type_id":"4","last_reported":1730545608,"current_range_meters":38400,"station_id":"ce4bhbp2rcd13ifvqerg","pricing_plan_id":"cebpf4jnsgd1na2vs0mg"},{"bike_id":"4f0de445-15e8-4d4f-b6cb-dd85cf93ce95","system_id":"levelo_inurba_marseille","lat":43.298402,"lon":5.362708,"is_reserved":false,"is_disabled":false,"rental_uris":{"android":"levelo://app?vid=4f0de445-15e8-4d4f-b6cb-dd85cf93ce95","ios":"levelo://app?vid=4f0de445-15e8-4d4f-b6cb-dd85cf93ce95"},"vehicle_type_id":"4","last_reported":1730545608,"current_range_meters":38800,"station_id":"ce4bgpp2rcd13ifvqc3g","pricing_plan_id":"cebpf4jnsgd1na2vs0mg"},{"bike_id":"bc0d4495-c413-42cd-baa9-25beeabc23b4","system_id":"levelo_inurba_marseille","lat":43.29089,"lon":5.38142,"is_reserved":false,"is_disabled":false,"rental_uris":{"android":"levelo://app?vid=bc0d4495-c413-42cd-baa9-25beeabc23b4","ios":"levelo://app?vid=bc0d4495-c413-42cd-baa9-25beeabc23b4"},"vehicle_type_id":"4","last_reported":1730545608,"current_range_meters":38800,"station_id":"ce4bh512rcd13ifvqe2g","pricing_plan_id":"cebpf4jnsgd1na2vs0mg"},{"bike_id":"6a3339db-c53d-45a1-98c0-a0f5852c6361","system_id":"levelo_inurba_marseille","lat":43.30549,"lon":5.36527,"is_reserved":false,"is_disabled":false,"rental_uris":{"android":"levelo://app?vid=6a3339db-c53d-45a1-98c0-a0f5852c6361","ios":"levelo://app?vid=6a3339db-c53d-45a1-98c0-a0f5852c6361"},"vehicle_type_id":"4","last_reported":1730545608,"current_range_meters":26000,"station_id":"ce4bgs12rcd13ifvqcag","pricing_plan_id":"cebpf4jnsgd1na2vs0mg"},{"bike_id":"9db30f62-ee12-4d89-b5f5-8607682ee123","system_id":"levelo_inurba_marseille","lat":43.25105,"lon":5.40323,"is_reserved":false,"is_disabled":false,"rental_uris":{"android":"levelo://app?vid=9db30f62-ee12-4d89-b5f5-8607682ee123","ios":"levelo://app?vid=9db30f62-ee12-4d89-b5f5-8607682ee123"},"vehicle_type_id":"4","last_reported":1730545608,"current_range_meters":17600,"station_id":"ce4bhlh2rcd13ifvqgig","pricing_plan_id":"cebpf4jnsgd1na2vs0mg"},{"bike_id":"5350284b-2aa2-4156-85d1-8dd4e15039f6","system_id":"levelo_inurba_marseille","lat":43.29906,"lon":5.38135,"is_reserved":false,"is_disabled":false,"rental_uris":{"android":"levelo://app?vid=5350284b-2aa2-4156-85d1-8dd4e15039f6","ios":"levelo://app?vid=5350284b-2aa2-4156-85d1-8dd4e15039f6"},"vehicle_type_id":"4","last_reported":1730545608,"current_range_meters":39200,"station_id":"ce4bgj12rcd13ifvqbc0","pricing_plan_id":"cebpf4jnsgd1na2vs0mg"},{"bike_id":"8ac4f741-2911-42d6-a00a-51cf057a7d47","system_id":"levelo_inurba_marseille","lat":43.274964,"lon":5.424542,"is_reserved":false,"is_disabled":false,"rental_uris":{"android":"levelo://app?vid=8ac4f741-2911-42d6-a00a-51cf057a7d47","ios":"levelo://app?vid=8ac4f741-2911-42d6-a00a-51cf057a7d47"},"vehicle_type_id":"4","last_reported":1730545608,"current_range_meters":37600,"station_id":"ce4bhn92rcd13ifvqgrg","pricing_plan_id":"cebpf4jnsgd1na2vs0mg"},{"bike_id":"f3e2bcca-43d2-4990-9070-46c2a95df7a2","system_id":"levelo_inurba_marseille","lat":43.29265,"lon":5.38447,"is_reserved":false,"is_disabled":false,"rental_uris":{"android":"levelo://app?vid=f3e2bcca-43d2-4990-9070-46c2a95df7a2","ios":"levelo://app?vid=f3e2bcca-43d2-4990-9070-46c2a95df7a2"},"vehicle_type_id":"4","last_reported":1730545608,"current_range_meters":30400,"station_id":"ce4bh692rcd13ifvqea0","pricing_plan_id":"cebpf4jnsgd1na2vs0mg"},{"bike_id":"3e3d6b34-3003-4583-8ce8-0aa2cc21ec4d","system_id":"levelo_inurba_marseille","lat":43.24184,"lon":5.39718,"is_reserved":false,"is_disabled":false,"rental_uris":{"android":"levelo://app?vid=3e3d6b34-3003-4583-8ce8-0aa2cc21ec4d","ios":"levelo://app?vid=3e3d6b34-3003-4583-8ce8-0aa2cc21ec4d"},"vehicle_type_id":"4","last_reported":1730545608,"current_range_meters":28000,"station_id":"ce4bhn12rcd13ifvqgpg","pricing_plan_id":"cebpf4jnsgd1na2vs0mg"},{"bike_id":"d451d28d-010b-4a6d-8180-76be35e28442","system_id":"levelo_inurba_marseille","lat":43.29309,"lon":5.37147,"is_reserved":false,"is_disabled":false,"rental_uris":{"android":"levelo://app?vid=d451d28d-010b-4a6d-8180-76be35e28442","ios":"levelo://app?vid=d451d28d-010b-4a6d-8180-76be35e28442"},"vehicle_type_id":"4","last_reported":1730545608,"current_range_meters":18800,"station_id":"ce4bgh92rcd13ifvqb40","pricing_plan_id":"cebpf4jnsgd1na2vs0mg"},{"bike_id":"8e7c58b1-af14-4212-bdaf-6fd273199e4b","system_id":"levelo_inurba_marseille","lat":43.29937,"lon":5.36548,"is_reserved":false,"is_disabled":false,"rental_uris":{"android":"levelo://app?vid=8e7c58b1-af14-4212-bdaf-6fd273199e4b","ios":"levelo://app?vid=8e7c58b1-af14-4212-bdaf-6fd273199e4b"},"vehicle_type_id":"4","last_reported":1730545608,"current_range_meters":36400,"station_id":"ce4bgm92rcd13ifvqbr0","pricing_plan_id":"cebpf4jnsgd1na2vs0mg"},{"bike_id":"548993d7-a70b-4824-ab4a-60c6155d3335","system_id":"levelo_inurba_marseille","lat":43.29003,"lon":5.35616,"is_reserved":false,"is_disabled":false,"rental_uris":{"android":"levelo://app?vid=548993d7-a70b-4824-ab4a-60c6155d3335","ios":"levelo://app?vid=548993d7-a70b-4824-ab4a-60c6155d3335"},"vehicle_type_id":"4","last_reported":1730545608,"current_range_meters":38800,"station_id":"ce4bhb92rcd13ifvqen0","pricing_plan_id":"cebpf4jnsgd1na2vs0mg"},{"bike_id":"dccc613c-7c9d-44fc-9625-47ccbc365073","system_id":"levelo_inurba_marseille","lat":43.27487,"lon":5.4246,"is_reserved":false,"is_disabled":false,"rental_uris":{"android":"levelo://app?vid=dccc613c-7c9d-44fc-9625-47ccbc365073","ios":"levelo://app?vid=dccc613c-7c9d-44fc-9625-47ccbc365073"},"vehicle_type_id":"4","last_reported":1730545608,"current_range_meters":36400,"station_id":"ce4bhn92rcd13ifvqgrg","pricing_plan_id":"cebpf4jnsgd1na2vs0mg"},{"bike_id":"ccd1338c-efb3-4089-b4d9-e3275f404fd1","system_id":"levelo_inurba_marseille","lat":43.30425,"lon":5.41267,"is_reserved":false,"is_disabled":false,"rental_uris":{"android":"levelo://app?vid=ccd1338c-efb3-4089-b4d9-e3275f404fd1","ios":"levelo://app?vid=ccd1338c-efb3-4089-b4d9-e3275f404fd1"},"vehicle_type_id":"4","last_reported":1730545608,"current_range_meters":16400,"station_id":"ce4bhop2rcd13ifvqh8g","pricing_plan_id":"cebpf4jnsgd1na2vs0mg"},{"bike_id":"d283960a-0091-47db-9fba-3b2c2e043919","system_id":"levelo_inurba_marseille","lat":43.29303,"lon":5.37458,"is_reserved":false,"is_disabled":false,"rental_uris":{"android":"levelo://app?vid=d283960a-0091-47db-9fba-3b2c2e043919","ios":"levelo://app?vid=d283960a-0091-47db-9fba-3b2c2e043919"},"vehicle_type_id":"4","last_reported":1730545608,"current_range_meters":38400,"station_id":"ce4bgi12rcd13ifvqb70","pricing_plan_id":"cebpf4jnsgd1na2vs0mg"},{"bike_id":"ae7a57fc-8277-4b99-82c3-36763aeb5947","system_id":"levelo_inurba_marseille","lat":43.31694,"lon":5.40459,"is_reserved":false,"is_disabled":false,"rental_uris":{"android":"levelo://app?vid=ae7a57fc-8277-4b99-82c3-36763aeb5947","ios":"levelo://app?vid=ae7a57fc-8277-4b99-82c3-36763aeb5947"},"vehicle_type_id":"4","last_reported":1730545608,"current_range_meters":38800,"station_id":"ce4bh012rcd13ifvqd00","pricing_plan_id":"cebpf4jnsgd1na2vs0mg"},{"bike_id":"05a1d1ae-03ae-4d3e-a673-10df45f5a05a","system_id":"levelo_inurba_marseille","lat":43.29965,"lon":5.37169,"is_reserved":false,"is_disabled":false,"rental_uris":{"android":"levelo://app?vid=05a1d1ae-03ae-4d3e-a673-10df45f5a05a","ios":"levelo://app?vid=05a1d1ae-03ae-4d3e-a673-10df45f5a05a"},"vehicle_type_id":"4","last_reported":1730545608,"current_range_meters":38800,"station_id":"ce4bgr92rcd13ifvqc7g","pricing_plan_id":"cebpf4jnsgd1na2vs0mg"},{"bike_id":"bc2399a9-df37-4161-a858-44c51cbb7f48","system_id":"levelo_inurba_marseille","lat":43.29882,"lon":5.39716,"is_reserved":false,"is_disabled":false,"rental_uris":{"android":"levelo://app?vid=bc2399a9-df37-4161-a858-44c51cbb7f48","ios":"levelo://app?vid=bc2399a9-df37-4161-a858-44c51cbb7f48"},"vehicle_type_id":"4","last_reported":1730545608,"current_range_meters":38400,"station_id":"ce4bh0h2rcd13ifvqd50","pricing_plan_id":"cebpf4jnsgd1na2vs0mg"},{"bike_id":"37772b15-1e88-441b-9b60-9d97ff044801","system_id":"levelo_inurba_marseille","lat":43.29281,"lon":5.36847,"is_reserved":false,"is_disabled":false,"rental_uris":{"android":"levelo://app?vid=37772b15-1e88-441b-9b60-9d97ff044801","ios":"levelo://app?vid=37772b15-1e88-441b-9b60-9d97ff044801"},"vehicle_type_id":"4","last_reported":1730545608,"current_range_meters":17200,"station_id":"ce4bhbp2rcd13ifvqesg","pricing_plan_id":"cebpf4jnsgd1na2vs0mg"},{"bike_id":"c9c5d1b8-e098-419c-8872-b35296cf4983","system_id":"levelo_inurba_marseille","lat":43.26676,"lon":5.38255,"is_reserved":false,"is_disabled":false,"rental_uris":{"android":"levelo://app?vid=c9c5d1b8-e098-419c-8872-b35296cf4983","ios":"levelo://app?vid=c9c5d1b8-e098-419c-8872-b35296cf4983"},"vehicle_type_id":"4","last_reported":1730545608,"current_range_meters":17600,"station_id":"ce4bhg92rcd13ifvqf90","pricing_plan_id":"cebpf4jnsgd1na2vs0mg"},{"bike_id":"71d9af27-275a-4548-8c36-bd724cf5d1f9","system_id":"levelo_inurba_marseille","lat":43.29381,"lon":5.37837,"is_reserved":false,"is_disabled":false,"rental_uris":{"android":"levelo://app?vid=71d9af27-275a-4548-8c36-bd724cf5d1f9","ios":"levelo://app?vid=71d9af27-275a-4548-8c36-bd724cf5d1f9"},"vehicle_type_id":"4","last_reported":1730545608,"current_range_meters":30800,"station_id":"ce4bgjh2rcd13ifvqbf0","pricing_plan_id":"cebpf4jnsgd1na2vs0mg"},{"bike_id":"54f828de-bde7-4c99-bb2b-f8a5f8c5167e","system_id":"levelo_inurba_marseille","lat":43.292633,"lon":5.375974,"is_reserved":false,"is_disabled":false,"rental_uris":{"android":"levelo://app?vid=54f828de-bde7-4c99-bb2b-f8a5f8c5167e","ios":"levelo://app?vid=54f828de-bde7-4c99-bb2b-f8a5f8c5167e"},"vehicle_type_id":"4","last_reported":1730545608,"current_range_meters":28400,"station_id":"ce4bhnh2rcd13ifvqgug","pricing_plan_id":"cebpf4jnsgd1na2vs0mg"},{"bike_id":"4dd74b80-423d-4a82-8b5a-fef5ebd97f46","system_id":"levelo_inurba_marseille","lat":43.24384,"lon":5.37049,"is_reserved":false,"is_disabled":false,"rental_uris":{"android":"levelo://app?vid=4dd74b80-423d-4a82-8b5a-fef5ebd97f46","ios":"levelo://app?vid=4dd74b80-423d-4a82-8b5a-fef5ebd97f46"},"vehicle_type_id":"4","last_reported":1730545608,"current_range_meters":22800,"station_id":"ce4bhhh2rcd13ifvqfk0","pricing_plan_id":"cebpf4jnsgd1na2vs0mg"},{"bike_id":"cab29da6-111a-41ba-8a16-4859ebd855ed","system_id":"levelo_inurba_marseille","lat":43.29199,"lon":5.35795,"is_reserved":false,"is_disabled":false,"rental_uris":{"android":"levelo://app?vid=cab29da6-111a-41ba-8a16-4859ebd855ed","ios":"levelo://app?vid=cab29da6-111a-41ba-8a16-4859ebd855ed"},"vehicle_type_id":"4","last_reported":1730545608,"current_range_meters":38800,"station_id":"ce4bhb12rcd13ifvqel0","pricing_plan_id":"cebpf4jnsgd1na2vs0mg"},{"bike_id":"9938ebcd-9900-4f33-ae62-087d07b91466","system_id":"levelo_inurba_marseille","lat":43.25725,"lon":5.41101,"is_reserved":false,"is_disabled":false,"rental_uris":{"android":"levelo://app?vid=9938ebcd-9900-4f33-ae62-087d07b91466","ios":"levelo://app?vid=9938ebcd-9900-4f33-ae62-087d07b91466"},"vehicle_type_id":"4","last_reported":1730545608,"current_range_meters":38800,"station_id":"ce4bhkp2rcd13ifvqgd0","pricing_plan_id":"cebpf4jnsgd1na2vs0mg"},{"bike_id":"933e391f-f073-4e3c-9548-019153f6c861","system_id":"levelo_inurba_marseille","lat":43.26941,"lon":5.40246,"is_reserved":false,"is_disabled":false,"rental_uris":{"android":"levelo://app?vid=933e391f-f073-4e3c-9548-019153f6c861","ios":"levelo://app?vid=933e391f-f073-4e3c-9548-019153f6c861"},"vehicle_type_id":"4","last_reported":1730545608,"current_range_meters":24400,"station_id":"cjm6bp8fraef2m0cb0m0","pricing_plan_id":"cebpf4jnsgd1na2vs0mg"},{"bike_id":"518ab90b-40e6-4618-a7e0-1c74051342c2","system_id":"levelo_inurba_marseille","lat":43.29363,"lon":5.37845,"is_reserved":false,"is_disabled":false,"rental_uris":{"android":"levelo://app?vid=518ab90b-40e6-4618-a7e0-1c74051342c2","ios":"levelo://app?vid=518ab90b-40e6-4618-a7e0-1c74051342c2"},"vehicle_type_id":"4","last_reported":1730545608,"current_range_meters":8400,"station_id":"ce4bgjh2rcd13ifvqbf0","pricing_plan_id":"cebpf4jnsgd1na2vs0mg"},{"bike_id":"b31be84b-9d75-4eba-a356-8a8b21edba3e","system_id":"levelo_inurba_marseille","lat":43.30218,"lon":5.39473,"is_reserved":false,"is_disabled":false,"rental_uris":{"android":"levelo://app?vid=b31be84b-9d75-4eba-a356-8a8b21edba3e","ios":"levelo://app?vid=b31be84b-9d75-4eba-a356-8a8b21edba3e"},"vehicle_type_id":"4","last_reported":1730545608,"current_range_meters":19200,"station_id":"ce4bh0p2rcd13ifvqd70","pricing_plan_id":"cebpf4jnsgd1na2vs0mg"},{"bike_id":"5e3a44bd-1851-41e5-b005-ef6a0ea7229d","system_id":"levelo_inurba_marseille","lat":43.28667,"lon":5.36339,"is_reserved":false,"is_disabled":false,"rental_uris":{"android":"levelo://app?vid=5e3a44bd-1851-41e5-b005-ef6a0ea7229d","ios":"levelo://app?vid=5e3a44bd-1851-41e5-b005-ef6a0ea7229d"},"vehicle_type_id":"4","last_reported":1730545608,"current_range_meters":11600,"station_id":"ce4bhah2rcd13ifvqej0","pricing_plan_id":"cebpf4jnsgd1na2vs0mg"},{"bike_id":"02f087f6-53e4-44c6-bd6c-b6648fa1b6dc","system_id":"levelo_inurba_marseille","lat":43.27422,"lon":5.39405,"is_reserved":false,"is_disabled":false,"rental_uris":{"android":"levelo://app?vid=02f087f6-53e4-44c6-bd6c-b6648fa1b6dc","ios":"levelo://app?vid=02f087f6-53e4-44c6-bd6c-b6648fa1b6dc"},"vehicle_type_id":"4","last_reported":1730545608,"current_range_meters":38000,"station_id":"ce4bhdp2rcd13ifvqf20","pricing_plan_id":"cebpf4jnsgd1na2vs0mg"},{"bike_id":"4f207157-0a3f-446e-a706-7d73dc0c6f39","system_id":"levelo_inurba_marseille","lat":43.31185,"lon":5.38708,"is_reserved":false,"is_disabled":false,"rental_uris":{"android":"levelo://app?vid=4f207157-0a3f-446e-a706-7d73dc0c6f39","ios":"levelo://app?vid=4f207157-0a3f-446e-a706-7d73dc0c6f39"},"vehicle_type_id":"4","last_reported":1730545608,"current_range_meters":37600,"station_id":"ce4bgv12rcd13ifvqcp0","pricing_plan_id":"cebpf4jnsgd1na2vs0mg"},{"bike_id":"635b10eb-8fa8-43b7-918b-28ed852ccb85","system_id":"levelo_inurba_marseille","lat":43.29366,"lon":5.37849,"is_reserved":false,"is_disabled":false,"rental_uris":{"android":"levelo://app?vid=635b10eb-8fa8-43b7-918b-28ed852ccb85","ios":"levelo://app?vid=635b10eb-8fa8-43b7-918b-28ed852ccb85"},"vehicle_type_id":"4","last_reported":1730545608,"current_range_meters":10000,"station_id":"ce4bgjh2rcd13ifvqbf0","pricing_plan_id":"cebpf4jnsgd1na2vs0mg"},{"bike_id":"e93dba9c-9e9f-4889-a53a-9c6bb90b3cc5","system_id":"levelo_inurba_marseille","lat":43.27376,"lon":5.36252,"is_reserved":false,"is_disabled":false,"rental_uris":{"android":"levelo://app?vid=e93dba9c-9e9f-4889-a53a-9c6bb90b3cc5","ios":"levelo://app?vid=e93dba9c-9e9f-4889-a53a-9c6bb90b3cc5"},"vehicle_type_id":"4","last_reported":1730545608,"current_range_meters":27600,"station_id":"ce4bhbh2rcd13ifvqeo0","pricing_plan_id":"cebpf4jnsgd1na2vs0mg"},{"bike_id":"cd9c51c3-66f1-4423-a637-2a576f24f89d","system_id":"levelo_inurba_marseille","lat":43.27068,"lon":5.42274,"is_reserved":false,"is_disabled":false,"rental_uris":{"android":"levelo://app?vid=cd9c51c3-66f1-4423-a637-2a576f24f89d","ios":"levelo://app?vid=cd9c51c3-66f1-4423-a637-2a576f24f89d"},"vehicle_type_id":"4","last_reported":1730545608,"current_range_meters":11200,"station_id":"ce4bhk92rcd13ifvqgb0","pricing_plan_id":"cebpf4jnsgd1na2vs0mg"},{"bike_id":"7ae89f74-df1b-4053-8ff0-ae2dd7c2848a","system_id":"levelo_inurba_marseille","lat":43.30291,"lon":5.37689,"is_reserved":false,"is_disabled":false,"rental_uris":{"android":"levelo://app?vid=7ae89f74-df1b-4053-8ff0-ae2dd7c2848a","ios":"levelo://app?vid=7ae89f74-df1b-4053-8ff0-ae2dd7c2848a"},"vehicle_type_id":"4","last_reported":1730545608,"current_range_meters":22400,"station_id":"ce4bguh2rcd13ifvqcj0","pricing_plan_id":"cebpf4jnsgd1na2vs0mg"},{"bike_id":"13d656ff-330e-4557-ba20-b3fec056d8c4","system_id":"levelo_inurba_marseille","lat":43.24807,"lon":5.37458,"is_reserved":false,"is_disabled":false,"rental_uris":{"android":"levelo://app?vid=13d656ff-330e-4557-ba20-b3fec056d8c4","ios":"levelo://app?vid=13d656ff-330e-4557-ba20-b3fec056d8c4"},"vehicle_type_id":"4","last_reported":1730545608,"current_range_meters":35600,"station_id":"ce4bhgh2rcd13ifvqfb0","pricing_plan_id":"cebpf4jnsgd1na2vs0mg"},{"bike_id":"d69eef29-33f1-400b-9dbd-e583b4f600d8","system_id":"levelo_inurba_marseille","lat":43.24655,"lon":5.38893,"is_reserved":false,"is_disabled":false,"rental_uris":{"android":"levelo://app?vid=d69eef29-33f1-400b-9dbd-e583b4f600d8","ios":"levelo://app?vid=d69eef29-33f1-400b-9dbd-e583b4f600d8"},"vehicle_type_id":"4","last_reported":1730545608,"current_range_meters":38800,"station_id":"ce4bhg12rcd13ifvqf60","pricing_plan_id":"cebpf4jnsgd1na2vs0mg"},{"bike_id":"34627d95-bd55-42e9-a60d-32e3940023c9","system_id":"levelo_inurba_marseille","lat":43.30213,"lon":5.39465,"is_reserved":false,"is_disabled":false,"rental_uris":{"android":"levelo://app?vid=34627d95-bd55-42e9-a60d-32e3940023c9","ios":"levelo://app?vid=34627d95-bd55-42e9-a60d-32e3940023c9"},"vehicle_type_id":"4","last_reported":1730545608,"current_range_meters":25600,"station_id":"ce4bh0p2rcd13ifvqd70","pricing_plan_id":"cebpf4jnsgd1na2vs0mg"},{"bike_id":"e515cc14-ec45-4493-a6ef-e8658b9cbc95","system_id":"levelo_inurba_marseille","lat":43.26207,"lon":5.37921,"is_reserved":false,"is_disabled":false,"rental_uris":{"android":"levelo://app?vid=e515cc14-ec45-4493-a6ef-e8658b9cbc95","ios":"levelo://app?vid=e515cc14-ec45-4493-a6ef-e8658b9cbc95"},"vehicle_type_id":"4","last_reported":1730545608,"current_range_meters":38800,"station_id":"ce4bhjp2rcd13ifvqg90","pricing_plan_id":"cebpf4jnsgd1na2vs0mg"},{"bike_id":"99b34e1f-9e1b-4352-a35e-54e99460fdd9","system_id":"levelo_inurba_marseille","lat":43.28267,"lon":5.35052,"is_reserved":false,"is_disabled":false,"rental_uris":{"android":"levelo://app?vid=99b34e1f-9e1b-4352-a35e-54e99460fdd9","ios":"levelo://app?vid=99b34e1f-9e1b-4352-a35e-54e99460fdd9"},"vehicle_type_id":"4","last_reported":1730545608,"current_range_meters":29600,"station_id":"ce4bhbp2rcd13ifvqerg","pricing_plan_id":"cebpf4jnsgd1na2vs0mg"},{"bike_id":"a868aaf8-5212-49a5-8810-86a5a4dff6c1","system_id":"levelo_inurba_marseille","lat":43.27054,"lon":5.40259,"is_reserved":false,"is_disabled":false,"rental_uris":{"android":"levelo://app?vid=a868aaf8-5212-49a5-8810-86a5a4dff6c1","ios":"levelo://app?vid=a868aaf8-5212-49a5-8810-86a5a4dff6c1"},"vehicle_type_id":"4","last_reported":1730545608,"current_range_meters":14800,"station_id":"ce4bhk92rcd13ifvqgc0","pricing_plan_id":"cebpf4jnsgd1na2vs0mg"},{"bike_id":"578d5fd5-cd39-4542-9d11-eaa881c8b052","system_id":"levelo_inurba_marseille","lat":43.29625,"lon":5.40595,"is_reserved":false,"is_disabled":false,"rental_uris":{"android":"levelo://app?vid=578d5fd5-cd39-4542-9d11-eaa881c8b052","ios":"levelo://app?vid=578d5fd5-cd39-4542-9d11-eaa881c8b052"},"vehicle_type_id":"4","last_reported":1730545608,"current_range_meters":38800,"station_id":"ce4bh0h2rcd13ifvqd60","pricing_plan_id":"cebpf4jnsgd1na2vs0mg"},{"bike_id":"b88ac2e8-a35e-41df-8a65-f57c52d76a14","system_id":"levelo_inurba_marseille","lat":43.32049,"lon":5.41532,"is_reserved":false,"is_disabled":false,"rental_uris":{"android":"levelo://app?vid=b88ac2e8-a35e-41df-8a65-f57c52d76a14","ios":"levelo://app?vid=b88ac2e8-a35e-41df-8a65-f57c52d76a14"},"vehicle_type_id":"4","last_reported":1730545608,"current_range_meters":18000,"station_id":"ce4bhq92rcd13ifvqhkg","pricing_plan_id":"cebpf4jnsgd1na2vs0mg"},{"bike_id":"658dacf4-7ef3-4634-8126-9bbd88e5a6eb","system_id":"levelo_inurba_marseille","lat":43.23196,"lon":5.35545,"is_reserved":false,"is_disabled":false,"rental_uris":{"android":"levelo://app?vid=658dacf4-7ef3-4634-8126-9bbd88e5a6eb","ios":"levelo://app?vid=658dacf4-7ef3-4634-8126-9bbd88e5a6eb"},"vehicle_type_id":"4","last_reported":1730545608,"current_range_meters":19600,"station_id":"ce4bhu92rcd13ifvqi70","pricing_plan_id":"cebpf4jnsgd1na2vs0mg"},{"bike_id":"60e43d56-bbd7-49d9-b00f-8f0987dc2224","system_id":"levelo_inurba_marseille","lat":43.28839,"lon":5.39317,"is_reserved":false,"is_disabled":false,"rental_uris":{"android":"levelo://app?vid=60e43d56-bbd7-49d9-b00f-8f0987dc2224","ios":"levelo://app?vid=60e43d56-bbd7-49d9-b00f-8f0987dc2224"},"vehicle_type_id":"4","last_reported":1730545608,"current_range_meters":33600,"station_id":"ce4bh2p2rcd13ifvqdi0","pricing_plan_id":"cebpf4jnsgd1na2vs0mg"},{"bike_id":"e62e38a9-284c-4b15-bfe8-8b214b98f04b","system_id":"levelo_inurba_marseille","lat":43.23061,"lon":5.35488,"is_reserved":false,"is_disabled":false,"rental_uris":{"android":"levelo://app?vid=e62e38a9-284c-4b15-bfe8-8b214b98f04b","ios":"levelo://app?vid=e62e38a9-284c-4b15-bfe8-8b214b98f04b"},"vehicle_type_id":"4","last_reported":1730545608,"current_range_meters":22400,"station_id":"cpo3342slgdg3j2ifvpg","pricing_plan_id":"cebpf4jnsgd1na2vs0mg"},{"bike_id":"39ef6112-0178-4921-a65e-d47db3564463","system_id":"levelo_inurba_marseille","lat":43.32295,"lon":5.38268,"is_reserved":false,"is_disabled":false,"rental_uris":{"android":"levelo://app?vid=39ef6112-0178-4921-a65e-d47db3564463","ios":"levelo://app?vid=39ef6112-0178-4921-a65e-d47db3564463"},"vehicle_type_id":"4","last_reported":1730545608,"current_range_meters":31200,"station_id":"ce4bhr12rcd13ifvqhqg","pricing_plan_id":"cebpf4jnsgd1na2vs0mg"},{"bike_id":"4eb7a39b-7732-4901-8b76-36d37cfbe821","system_id":"levelo_inurba_marseille","lat":43.30156,"lon":5.38078,"is_reserved":false,"is_disabled":false,"rental_uris":{"android":"levelo://app?vid=4eb7a39b-7732-4901-8b76-36d37cfbe821","ios":"levelo://app?vid=4eb7a39b-7732-4901-8b76-36d37cfbe821"},"vehicle_type_id":"4","last_reported":1730545608,"current_range_meters":18000,"station_id":"ce4bgjp2rcd13ifvqbh0","pricing_plan_id":"cebpf4jnsgd1na2vs0mg"},{"bike_id":"fa1232ca-5715-42c4-984f-624a8552d886","system_id":"levelo_inurba_marseille","lat":43.32287,"lon":5.38284,"is_reserved":false,"is_disabled":false,"rental_uris":{"android":"levelo://app?vid=fa1232ca-5715-42c4-984f-624a8552d886","ios":"levelo://app?vid=fa1232ca-5715-42c4-984f-624a8552d886"},"vehicle_type_id":"4","last_reported":1730545608,"current_range_meters":38800,"station_id":"ce4bhr12rcd13ifvqhqg","pricing_plan_id":"cebpf4jnsgd1na2vs0mg"},{"bike_id":"d53c1efc-1780-42b2-bd05-17084930abb0","system_id":"levelo_inurba_marseille","lat":43.312158,"lon":5.36853,"is_reserved":false,"is_disabled":false,"rental_uris":{"android":"levelo://app?vid=d53c1efc-1780-42b2-bd05-17084930abb0","ios":"levelo://app?vid=d53c1efc-1780-42b2-bd05-17084930abb0"},"vehicle_type_id":"4","last_reported":1730545608,"current_range_meters":39200,"station_id":"ce4bgl92rcd13ifvqbq0","pricing_plan_id":"cebpf4jnsgd1na2vs0mg"},{"bike_id":"f493fcf3-d01a-4471-8350-8f1edd0382a9","system_id":"levelo_inurba_marseille","lat":43.23155,"lon":5.43713,"is_reserved":false,"is_disabled":false,"rental_uris":{"android":"levelo://app?vid=f493fcf3-d01a-4471-8350-8f1edd0382a9","ios":"levelo://app?vid=f493fcf3-d01a-4471-8350-8f1edd0382a9"},"vehicle_type_id":"4","last_reported":1730545608,"current_range_meters":40000,"station_id":"ce4bhmp2rcd13ifvqgog","pricing_plan_id":"cebpf4jnsgd1na2vs0mg"},{"bike_id":"284faaa3-21e1-4483-8e3c-8ce4eb4e219e","system_id":"levelo_inurba_marseille","lat":43.31759,"lon":5.39015,"is_reserved":false,"is_disabled":false,"rental_uris":{"android":"levelo://app?vid=284faaa3-21e1-4483-8e3c-8ce4eb4e219e","ios":"levelo://app?vid=284faaa3-21e1-4483-8e3c-8ce4eb4e219e"},"vehicle_type_id":"4","last_reported":1730545608,"current_range_meters":18000,"station_id":"ce4bhqp2rcd13ifvqhng","pricing_plan_id":"cebpf4jnsgd1na2vs0mg"},{"bike_id":"a79b3df7-4053-41ab-917d-fe2f09e9503c","system_id":"levelo_inurba_marseille","lat":43.30147,"lon":5.38081,"is_reserved":false,"is_disabled":false,"rental_uris":{"android":"levelo://app?vid=a79b3df7-4053-41ab-917d-fe2f09e9503c","ios":"levelo://app?vid=a79b3df7-4053-41ab-917d-fe2f09e9503c"},"vehicle_type_id":"4","last_reported":1730545608,"current_range_meters":38800,"station_id":"ce4bgjp2rcd13ifvqbh0","pricing_plan_id":"cebpf4jnsgd1na2vs0mg"},{"bike_id":"ac0528e3-d3c4-4068-9be1-0c4d9bc50ab3","system_id":"levelo_inurba_marseille","lat":43.24802,"lon":5.37456,"is_reserved":false,"is_disabled":false,"rental_uris":{"android":"levelo://app?vid=ac0528e3-d3c4-4068-9be1-0c4d9bc50ab3","ios":"levelo://app?vid=ac0528e3-d3c4-4068-9be1-0c4d9bc50ab3"},"vehicle_type_id":"4","last_reported":1730545608,"current_range_meters":19200,"station_id":"ce4bhgh2rcd13ifvqfb0","pricing_plan_id":"cebpf4jnsgd1na2vs0mg"},{"bike_id":"887d3f15-9262-4464-a567-0c0c5d22959d","system_id":"levelo_inurba_marseille","lat":43.30316,"lon":5.36894,"is_reserved":false,"is_disabled":false,"rental_uris":{"android":"levelo://app?vid=887d3f15-9262-4464-a567-0c0c5d22959d","ios":"levelo://app?vid=887d3f15-9262-4464-a567-0c0c5d22959d"},"vehicle_type_id":"4","last_reported":1730545608,"current_range_meters":29600,"station_id":"ce4bgqh2rcd13ifvqc5g","pricing_plan_id":"cebpf4jnsgd1na2vs0mg"},{"bike_id":"13204629-6f37-4fdc-ae71-efb691ec9cf2","system_id":"levelo_inurba_marseille","lat":43.27177,"lon":5.4099,"is_reserved":false,"is_disabled":false,"rental_uris":{"android":"levelo://app?vid=13204629-6f37-4fdc-ae71-efb691ec9cf2","ios":"levelo://app?vid=13204629-6f37-4fdc-ae71-efb691ec9cf2"},"vehicle_type_id":"4","last_reported":1730545608,"current_range_meters":38000,"station_id":"ce4bhl12rcd13ifvqgf0","pricing_plan_id":"cebpf4jnsgd1na2vs0mg"},{"bike_id":"6a5cb283-33f1-4bd1-86d1-7432bbe10b16","system_id":"levelo_inurba_marseille","lat":43.3015,"lon":5.38079,"is_reserved":false,"is_disabled":false,"rental_uris":{"android":"levelo://app?vid=6a5cb283-33f1-4bd1-86d1-7432bbe10b16","ios":"levelo://app?vid=6a5cb283-33f1-4bd1-86d1-7432bbe10b16"},"vehicle_type_id":"4","last_reported":1730545608,"current_range_meters":35200,"station_id":"ce4bgjp2rcd13ifvqbh0","pricing_plan_id":"cebpf4jnsgd1na2vs0mg"},{"bike_id":"3198ab63-557b-4f5b-8a29-510057e603ea","system_id":"levelo_inurba_marseille","lat":43.29031,"lon":5.38127,"is_reserved":false,"is_disabled":false,"rental_uris":{"android":"levelo://app?vid=3198ab63-557b-4f5b-8a29-510057e603ea","ios":"levelo://app?vid=3198ab63-557b-4f5b-8a29-510057e603ea"},"vehicle_type_id":"4","last_reported":1730545608,"current_range_meters":36800,"station_id":"ce4bh4p2rcd13ifvqe1g","pricing_plan_id":"cebpf4jnsgd1na2vs0mg"},{"bike_id":"603b1338-c881-4f23-8dd5-1fdd52358055","system_id":"levelo_inurba_marseille","lat":43.29925,"lon":5.37465,"is_reserved":false,"is_disabled":false,"rental_uris":{"android":"levelo://app?vid=603b1338-c881-4f23-8dd5-1fdd52358055","ios":"levelo://app?vid=603b1338-c881-4f23-8dd5-1fdd52358055"},"vehicle_type_id":"4","last_reported":1730545608,"current_range_meters":10800,"station_id":"ce4bgjh2rcd13ifvqbg0","pricing_plan_id":"cebpf4jnsgd1na2vs0mg"},{"bike_id":"a5ddc947-d21c-49a7-bb2f-b3f5184de1d0","system_id":"levelo_inurba_marseille","lat":43.26027,"lon":5.37547,"is_reserved":false,"is_disabled":false,"rental_uris":{"android":"levelo://app?vid=a5ddc947-d21c-49a7-bb2f-b3f5184de1d0","ios":"levelo://app?vid=a5ddc947-d21c-49a7-bb2f-b3f5184de1d0"},"vehicle_type_id":"4","last_reported":1730545608,"current_range_meters":33600,"station_id":"ce4bhgh2rcd13ifvqfa0","pricing_plan_id":"cebpf4jnsgd1na2vs0mg"},{"bike_id":"bfab254b-dda0-49c5-ae2e-902568de5a52","system_id":"levelo_inurba_marseille","lat":43.25105,"lon":5.40321,"is_reserved":false,"is_disabled":false,"rental_uris":{"android":"levelo://app?vid=bfab254b-dda0-49c5-ae2e-902568de5a52","ios":"levelo://app?vid=bfab254b-dda0-49c5-ae2e-902568de5a52"},"vehicle_type_id":"4","last_reported":1730545608,"current_range_meters":7200,"station_id":"ce4bhlh2rcd13ifvqgig","pricing_plan_id":"cebpf4jnsgd1na2vs0mg"},{"bike_id":"9dc4bbff-21ca-407b-985c-c70214b6bc8c","system_id":"levelo_inurba_marseille","lat":43.32494,"lon":5.36557,"is_reserved":false,"is_disabled":false,"rental_uris":{"android":"levelo://app?vid=9dc4bbff-21ca-407b-985c-c70214b6bc8c","ios":"levelo://app?vid=9dc4bbff-21ca-407b-985c-c70214b6bc8c"},"vehicle_type_id":"4","last_reported":1730545608,"current_range_meters":39200,"station_id":"ce4bhs12rcd13ifvqhvg","pricing_plan_id":"cebpf4jnsgd1na2vs0mg"},{"bike_id":"5c32197b-e37a-429a-a43c-6b509821c386","system_id":"levelo_inurba_marseille","lat":43.27659,"lon":5.38921,"is_reserved":false,"is_disabled":false,"rental_uris":{"android":"levelo://app?vid=5c32197b-e37a-429a-a43c-6b509821c386","ios":"levelo://app?vid=5c32197b-e37a-429a-a43c-6b509821c386"},"vehicle_type_id":"4","last_reported":1730545608,"current_range_meters":38000,"station_id":"ce4bhi12rcd13ifvqfo0","pricing_plan_id":"cebpf4jnsgd1na2vs0mg"},{"bike_id":"e7f59d36-b4d3-482d-b5fb-9da08c3ef485","system_id":"levelo_inurba_marseille","lat":43.23153,"lon":5.43719,"is_reserved":false,"is_disabled":false,"rental_uris":{"android":"levelo://app?vid=e7f59d36-b4d3-482d-b5fb-9da08c3ef485","ios":"levelo://app?vid=e7f59d36-b4d3-482d-b5fb-9da08c3ef485"},"vehicle_type_id":"4","last_reported":1730545608,"current_range_meters":27200,"station_id":"ce4bhmp2rcd13ifvqgog","pricing_plan_id":"cebpf4jnsgd1na2vs0mg"},{"bike_id":"fa3653f2-49ab-46d2-8df2-25c8e20358c6","system_id":"levelo_inurba_marseille","lat":43.28924,"lon":5.38386,"is_reserved":false,"is_disabled":false,"rental_uris":{"android":"levelo://app?vid=fa3653f2-49ab-46d2-8df2-25c8e20358c6","ios":"levelo://app?vid=fa3653f2-49ab-46d2-8df2-25c8e20358c6"},"vehicle_type_id":"4","last_reported":1730545608,"current_range_meters":37600,"station_id":"ce4bh612rcd13ifvqe6g","pricing_plan_id":"cebpf4jnsgd1na2vs0mg"},{"bike_id":"e897136e-8c37-4f90-8788-9b6a3c81507d","system_id":"levelo_inurba_marseille","lat":43.23059,"lon":5.35493,"is_reserved":false,"is_disabled":false,"rental_uris":{"android":"levelo://app?vid=e897136e-8c37-4f90-8788-9b6a3c81507d","ios":"levelo://app?vid=e897136e-8c37-4f90-8788-9b6a3c81507d"},"vehicle_type_id":"4","last_reported":1730545608,"current_range_meters":30000,"station_id":"cpo3342slgdg3j2ifvpg","pricing_plan_id":"cebpf4jnsgd1na2vs0mg"},{"bike_id":"a27c3778-a7e0-4c33-9f07-adbd77f2f598","system_id":"levelo_inurba_marseille","lat":43.29376,"lon":5.37847,"is_reserved":false,"is_disabled":false,"rental_uris":{"android":"levelo://app?vid=a27c3778-a7e0-4c33-9f07-adbd77f2f598","ios":"levelo://app?vid=a27c3778-a7e0-4c33-9f07-adbd77f2f598"},"vehicle_type_id":"4","last_reported":1730545608,"current_range_meters":14400,"station_id":"ce4bgjh2rcd13ifvqbf0","pricing_plan_id":"cebpf4jnsgd1na2vs0mg"},{"bike_id":"e3d37f48-4e41-487d-be71-a511398efa83","system_id":"levelo_inurba_marseille","lat":43.30427,"lon":5.39747,"is_reserved":false,"is_disabled":false,"rental_uris":{"android":"levelo://app?vid=e3d37f48-4e41-487d-be71-a511398efa83","ios":"levelo://app?vid=e3d37f48-4e41-487d-be71-a511398efa83"},"vehicle_type_id":"4","last_reported":1730545608,"current_range_meters":34000,"station_id":"ce4bgi92rcd13ifvqb90","pricing_plan_id":"cebpf4jnsgd1na2vs0mg"},{"bike_id":"2670d31c-21a8-42d7-b34e-5f9a0a78dc6c","system_id":"levelo_inurba_marseille","lat":43.29294,"lon":5.37138,"is_reserved":false,"is_disabled":false,"rental_uris":{"android":"levelo://app?vid=2670d31c-21a8-42d7-b34e-5f9a0a78dc6c","ios":"levelo://app?vid=2670d31c-21a8-42d7-b34e-5f9a0a78dc6c"},"vehicle_type_id":"4","last_reported":1730545608,"current_range_meters":38800,"station_id":"ce4bgh92rcd13ifvqb40","pricing_plan_id":"cebpf4jnsgd1na2vs0mg"},{"bike_id":"02230dac-ebce-4aa4-9174-db473244d1bc","system_id":"levelo_inurba_marseille","lat":43.3302,"lon":5.39046,"is_reserved":false,"is_disabled":false,"rental_uris":{"android":"levelo://app?vid=02230dac-ebce-4aa4-9174-db473244d1bc","ios":"levelo://app?vid=02230dac-ebce-4aa4-9174-db473244d1bc"},"vehicle_type_id":"4","last_reported":1730545608,"current_range_meters":38400,"station_id":"ce4bhr92rcd13ifvqhrg","pricing_plan_id":"cebpf4jnsgd1na2vs0mg"},{"bike_id":"7e568bfa-c77c-4398-aba7-352d47e1ac1d","system_id":"levelo_inurba_marseille","lat":43.29585,"lon":5.3674,"is_reserved":false,"is_disabled":false,"rental_uris":{"android":"levelo://app?vid=7e568bfa-c77c-4398-aba7-352d47e1ac1d","ios":"levelo://app?vid=7e568bfa-c77c-4398-aba7-352d47e1ac1d"},"vehicle_type_id":"4","last_reported":1730545608,"current_range_meters":12800,"station_id":"ce4bgph2rcd13ifvqc2g","pricing_plan_id":"cebpf4jnsgd1na2vs0mg"},{"bike_id":"90c7f303-38c0-46ca-9142-1041105c61c3","system_id":"levelo_inurba_marseille","lat":43.31709,"lon":5.37757,"is_reserved":false,"is_disabled":false,"rental_uris":{"android":"levelo://app?vid=90c7f303-38c0-46ca-9142-1041105c61c3","ios":"levelo://app?vid=90c7f303-38c0-46ca-9142-1041105c61c3"},"vehicle_type_id":"4","last_reported":1730545608,"current_range_meters":34000,"station_id":"ce4bgth2rcd13ifvqch0","pricing_plan_id":"cebpf4jnsgd1na2vs0mg"},{"bike_id":"f0365e39-da4f-4fcd-a178-7855790154f7","system_id":"levelo_inurba_marseille","lat":43.30138,"lon":5.37406,"is_reserved":false,"is_disabled":false,"rental_uris":{"android":"levelo://app?vid=f0365e39-da4f-4fcd-a178-7855790154f7","ios":"levelo://app?vid=f0365e39-da4f-4fcd-a178-7855790154f7"},"vehicle_type_id":"4","last_reported":1730545608,"current_range_meters":39200,"station_id":"ce4bgs92rcd13ifvqcc0","pricing_plan_id":"cebpf4jnsgd1na2vs0mg"},{"bike_id":"859a5ad2-f7fb-4565-96ce-0c7b56746fd7","system_id":"levelo_inurba_marseille","lat":43.309255,"lon":5.401745,"is_reserved":false,"is_disabled":false,"rental_uris":{"android":"levelo://app?vid=859a5ad2-f7fb-4565-96ce-0c7b56746fd7","ios":"levelo://app?vid=859a5ad2-f7fb-4565-96ce-0c7b56746fd7"},"vehicle_type_id":"4","last_reported":1730545608,"current_range_meters":33600,"station_id":"ce4bgvp2rcd13ifvqct0","pricing_plan_id":"cebpf4jnsgd1na2vs0mg"},{"bike_id":"5d49116d-9ac2-4fe3-b140-1c8daccc859c","system_id":"levelo_inurba_marseille","lat":43.30282,"lon":5.37699,"is_reserved":false,"is_disabled":false,"rental_uris":{"android":"levelo://app?vid=5d49116d-9ac2-4fe3-b140-1c8daccc859c","ios":"levelo://app?vid=5d49116d-9ac2-4fe3-b140-1c8daccc859c"},"vehicle_type_id":"4","last_reported":1730545608,"current_range_meters":40000,"station_id":"ce4bguh2rcd13ifvqcj0","pricing_plan_id":"cebpf4jnsgd1na2vs0mg"},{"bike_id":"5af492bb-fff4-4d08-a2fc-d142570fbab8","system_id":"levelo_inurba_marseille","lat":43.29389,"lon":5.3785,"is_reserved":false,"is_disabled":false,"rental_uris":{"android":"levelo://app?vid=5af492bb-fff4-4d08-a2fc-d142570fbab8","ios":"levelo://app?vid=5af492bb-fff4-4d08-a2fc-d142570fbab8"},"vehicle_type_id":"4","last_reported":1730545608,"current_range_meters":30800,"station_id":"ce4bgjh2rcd13ifvqbf0","pricing_plan_id":"cebpf4jnsgd1na2vs0mg"},{"bike_id":"d822185c-2202-418e-bc63-3ae04947287a","system_id":"levelo_inurba_marseille","lat":43.29582,"lon":5.37507,"is_reserved":false,"is_disabled":false,"rental_uris":{"android":"levelo://app?vid=d822185c-2202-418e-bc63-3ae04947287a","ios":"levelo://app?vid=d822185c-2202-418e-bc63-3ae04947287a"},"vehicle_type_id":"4","last_reported":1730545608,"current_range_meters":26000,"station_id":"ce4bgh92rcd13ifvqb50","pricing_plan_id":"cebpf4jnsgd1na2vs0mg"},{"bike_id":"9ca12022-716a-4ed5-ac9c-2033946b0c38","system_id":"levelo_inurba_marseille","lat":43.29843,"lon":5.36266,"is_reserved":false,"is_disabled":false,"rental_uris":{"android":"levelo://app?vid=9ca12022-716a-4ed5-ac9c-2033946b0c38","ios":"levelo://app?vid=9ca12022-716a-4ed5-ac9c-2033946b0c38"},"vehicle_type_id":"4","last_reported":1730545608,"current_range_meters":38800,"station_id":"ce4bgpp2rcd13ifvqc3g","pricing_plan_id":"cebpf4jnsgd1na2vs0mg"},{"bike_id":"f7fc6701-fd62-4b48-bbdb-a453dbb89c2a","system_id":"levelo_inurba_marseille","lat":43.29056,"lon":5.35913,"is_reserved":false,"is_disabled":false,"rental_uris":{"android":"levelo://app?vid=f7fc6701-fd62-4b48-bbdb-a453dbb89c2a","ios":"levelo://app?vid=f7fc6701-fd62-4b48-bbdb-a453dbb89c2a"},"vehicle_type_id":"4","last_reported":1730545608,"current_range_meters":16800,"station_id":"ce4bha92rcd13ifvqeg0","pricing_plan_id":"cebpf4jnsgd1na2vs0mg"},{"bike_id":"25efdd14-e5a3-4f02-a8ea-e62e3c219fa3","system_id":"levelo_inurba_marseille","lat":43.28163,"lon":5.42641,"is_reserved":false,"is_disabled":false,"rental_uris":{"android":"levelo://app?vid=25efdd14-e5a3-4f02-a8ea-e62e3c219fa3","ios":"levelo://app?vid=25efdd14-e5a3-4f02-a8ea-e62e3c219fa3"},"vehicle_type_id":"4","last_reported":1730545608,"current_range_meters":40000,"station_id":"ce4bhnh2rcd13ifvqgug","pricing_plan_id":"cebpf4jnsgd1na2vs0mg"},{"bike_id":"a7539dfc-e8ec-47cd-8dbc-d48543cf053d","system_id":"levelo_inurba_marseille","lat":43.30527,"lon":5.36541,"is_reserved":false,"is_disabled":false,"rental_uris":{"android":"levelo://app?vid=a7539dfc-e8ec-47cd-8dbc-d48543cf053d","ios":"levelo://app?vid=a7539dfc-e8ec-47cd-8dbc-d48543cf053d"},"vehicle_type_id":"4","last_reported":1730545608,"current_range_meters":39200,"station_id":"ce4bgs12rcd13ifvqcag","pricing_plan_id":"cebpf4jnsgd1na2vs0mg"},{"bike_id":"7d9323c7-40e9-4bbb-88bd-2757a24436d1","system_id":"levelo_inurba_marseille","lat":43.28913,"lon":5.384,"is_reserved":false,"is_disabled":false,"rental_uris":{"android":"levelo://app?vid=7d9323c7-40e9-4bbb-88bd-2757a24436d1","ios":"levelo://app?vid=7d9323c7-40e9-4bbb-88bd-2757a24436d1"},"vehicle_type_id":"4","last_reported":1730545608,"current_range_meters":30800,"station_id":"ce4bh612rcd13ifvqe6g","pricing_plan_id":"cebpf4jnsgd1na2vs0mg"},{"bike_id":"18402065-9e87-476b-95ad-30853de181a0","system_id":"levelo_inurba_marseille","lat":43.32457,"lon":5.4555,"is_reserved":false,"is_disabled":false,"rental_uris":{"android":"levelo://app?vid=18402065-9e87-476b-95ad-30853de181a0","ios":"levelo://app?vid=18402065-9e87-476b-95ad-30853de181a0"},"vehicle_type_id":"4","last_reported":1730545608,"current_range_meters":8000,"station_id":"","pricing_plan_id":"cebpf4jnsgd1na2vs0mg"},{"bike_id":"711fc037-1485-48d1-a756-6d4246ae9cd4","system_id":"levelo_inurba_marseille","lat":43.24658,"lon":5.38899,"is_reserved":false,"is_disabled":false,"rental_uris":{"android":"levelo://app?vid=711fc037-1485-48d1-a756-6d4246ae9cd4","ios":"levelo://app?vid=711fc037-1485-48d1-a756-6d4246ae9cd4"},"vehicle_type_id":"4","last_reported":1730545608,"current_range_meters":3200,"station_id":"ce4bhg12rcd13ifvqf60","pricing_plan_id":"cebpf4jnsgd1na2vs0mg"},{"bike_id":"60b8b428-7d06-4d0f-bb00-509079fa7535","system_id":"levelo_inurba_marseille","lat":43.30163,"lon":5.38082,"is_reserved":false,"is_disabled":false,"rental_uris":{"android":"levelo://app?vid=60b8b428-7d06-4d0f-bb00-509079fa7535","ios":"levelo://app?vid=60b8b428-7d06-4d0f-bb00-509079fa7535"},"vehicle_type_id":"4","last_reported":1730545608,"current_range_meters":25600,"station_id":"ce4bgjp2rcd13ifvqbh0","pricing_plan_id":"cebpf4jnsgd1na2vs0mg"},{"bike_id":"e7d2d590-173c-47e5-a164-68db5b6e9fe4","system_id":"levelo_inurba_marseille","lat":43.30532,"lon":5.36696,"is_reserved":false,"is_disabled":false,"rental_uris":{"android":"levelo://app?vid=e7d2d590-173c-47e5-a164-68db5b6e9fe4","ios":"levelo://app?vid=e7d2d590-173c-47e5-a164-68db5b6e9fe4"},"vehicle_type_id":"4","last_reported":1730545608,"current_range_meters":37600,"station_id":"ce4bgrp2rcd13ifvqc9g","pricing_plan_id":"cebpf4jnsgd1na2vs0mg"},{"bike_id":"c3ee3eaa-7280-49bc-b2eb-e51676e84429","system_id":"levelo_inurba_marseille","lat":43.337444,"lon":5.374475,"is_reserved":false,"is_disabled":false,"rental_uris":{"android":"levelo://app?vid=c3ee3eaa-7280-49bc-b2eb-e51676e84429","ios":"levelo://app?vid=c3ee3eaa-7280-49bc-b2eb-e51676e84429"},"vehicle_type_id":"4","last_reported":1730545608,"current_range_meters":17600,"station_id":"ce4bgvp2rcd13ifvqct0","pricing_plan_id":"cebpf4jnsgd1na2vs0mg"},{"bike_id":"460f8dbf-5c74-4538-b47c-2be4684064c4","system_id":"levelo_inurba_marseille","lat":43.24385,"lon":5.37049,"is_reserved":false,"is_disabled":false,"rental_uris":{"android":"levelo://app?vid=460f8dbf-5c74-4538-b47c-2be4684064c4","ios":"levelo://app?vid=460f8dbf-5c74-4538-b47c-2be4684064c4"},"vehicle_type_id":"4","last_reported":1730545608,"current_range_meters":38800,"station_id":"ce4bhhh2rcd13ifvqfk0","pricing_plan_id":"cebpf4jnsgd1na2vs0mg"},{"bike_id":"480d0212-2556-4d88-b21b-06b19a040e1a","system_id":"levelo_inurba_marseille","lat":43.2738,"lon":5.36249,"is_reserved":false,"is_disabled":false,"rental_uris":{"android":"levelo://app?vid=480d0212-2556-4d88-b21b-06b19a040e1a","ios":"levelo://app?vid=480d0212-2556-4d88-b21b-06b19a040e1a"},"vehicle_type_id":"4","last_reported":1730545608,"current_range_meters":28800,"station_id":"ce4bhbh2rcd13ifvqeo0","pricing_plan_id":"cebpf4jnsgd1na2vs0mg"},{"bike_id":"ef30c907-9b95-4f0a-99f1-0cbd098879ad","system_id":"levelo_inurba_marseille","lat":43.285704,"lon":5.395052,"is_reserved":false,"is_disabled":false,"rental_uris":{"android":"levelo://app?vid=ef30c907-9b95-4f0a-99f1-0cbd098879ad","ios":"levelo://app?vid=ef30c907-9b95-4f0a-99f1-0cbd098879ad"},"vehicle_type_id":"4","last_reported":1730545608,"current_range_meters":36800,"station_id":"ce4bh292rcd13ifvqdg0","pricing_plan_id":"cebpf4jnsgd1na2vs0mg"},{"bike_id":"36b7683f-a5b1-4d0e-88bd-230c484ff507","system_id":"levelo_inurba_marseille","lat":43.2842,"lon":5.39204,"is_reserved":false,"is_disabled":false,"rental_uris":{"android":"levelo://app?vid=36b7683f-a5b1-4d0e-88bd-230c484ff507","ios":"levelo://app?vid=36b7683f-a5b1-4d0e-88bd-230c484ff507"},"vehicle_type_id":"4","last_reported":1730545608,"current_range_meters":38800,"station_id":"ce4bhoh2rcd13ifvqh5g","pricing_plan_id":"cebpf4jnsgd1na2vs0mg"},{"bike_id":"be9e047c-0762-412b-b7e4-d4063f0a402a","system_id":"levelo_inurba_marseille","lat":43.28995,"lon":5.35607,"is_reserved":false,"is_disabled":false,"rental_uris":{"android":"levelo://app?vid=be9e047c-0762-412b-b7e4-d4063f0a402a","ios":"levelo://app?vid=be9e047c-0762-412b-b7e4-d4063f0a402a"},"vehicle_type_id":"4","last_reported":1730545608,"current_range_meters":38800,"station_id":"ce4bhb92rcd13ifvqen0","pricing_plan_id":"cebpf4jnsgd1na2vs0mg"},{"bike_id":"9042bf92-aa7c-4eab-b2af-741821ae4d59","system_id":"levelo_inurba_marseille","lat":43.29318,"lon":5.37177,"is_reserved":false,"is_disabled":false,"rental_uris":{"android":"levelo://app?vid=9042bf92-aa7c-4eab-b2af-741821ae4d59","ios":"levelo://app?vid=9042bf92-aa7c-4eab-b2af-741821ae4d59"},"vehicle_type_id":"4","last_reported":1730545608,"current_range_meters":28400,"station_id":"ce4bgh92rcd13ifvqb40","pricing_plan_id":"cebpf4jnsgd1na2vs0mg"},{"bike_id":"bc6255b1-9621-45ae-bceb-b5fd4bc4f459","system_id":"levelo_inurba_marseille","lat":43.29295,"lon":5.37466,"is_reserved":false,"is_disabled":false,"rental_uris":{"android":"levelo://app?vid=bc6255b1-9621-45ae-bceb-b5fd4bc4f459","ios":"levelo://app?vid=bc6255b1-9621-45ae-bceb-b5fd4bc4f459"},"vehicle_type_id":"4","last_reported":1730545608,"current_range_meters":38000,"station_id":"ce4bgi12rcd13ifvqb70","pricing_plan_id":"cebpf4jnsgd1na2vs0mg"},{"bike_id":"c464d67e-1a73-40bd-b8bb-ad08b05c10b4","system_id":"levelo_inurba_marseille","lat":43.31276,"lon":5.40168,"is_reserved":false,"is_disabled":false,"rental_uris":{"android":"levelo://app?vid=c464d67e-1a73-40bd-b8bb-ad08b05c10b4","ios":"levelo://app?vid=c464d67e-1a73-40bd-b8bb-ad08b05c10b4"},"vehicle_type_id":"4","last_reported":1730545608,"current_range_meters":8000,"station_id":"ce4bh092rcd13ifvqd30","pricing_plan_id":"cebpf4jnsgd1na2vs0mg"},{"bike_id":"6fd2c52a-0819-4fcb-82e0-ff54f57aed15","system_id":"levelo_inurba_marseille","lat":43.29975,"lon":5.38491,"is_reserved":false,"is_disabled":false,"rental_uris":{"android":"levelo://app?vid=6fd2c52a-0819-4fcb-82e0-ff54f57aed15","ios":"levelo://app?vid=6fd2c52a-0819-4fcb-82e0-ff54f57aed15"},"vehicle_type_id":"4","last_reported":1730545608,"current_range_meters":6800,"station_id":"ce4bgj92rcd13ifvqbd0","pricing_plan_id":"cebpf4jnsgd1na2vs0mg"},{"bike_id":"039a64d6-5e87-4141-81e3-2e1ffc1e11a5","system_id":"levelo_inurba_marseille","lat":43.27995,"lon":5.40009,"is_reserved":false,"is_disabled":false,"rental_uris":{"android":"levelo://app?vid=039a64d6-5e87-4141-81e3-2e1ffc1e11a5","ios":"levelo://app?vid=039a64d6-5e87-4141-81e3-2e1ffc1e11a5"},"vehicle_type_id":"4","last_reported":1730545608,"current_range_meters":39200,"station_id":"ce4bho92rcd13ifvqh4g","pricing_plan_id":"cebpf4jnsgd1na2vs0mg"},{"bike_id":"4be17eee-2bee-4bce-abc6-693cda9fbd8f","system_id":"levelo_inurba_marseille","lat":43.25,"lon":5.38908,"is_reserved":false,"is_disabled":false,"rental_uris":{"android":"levelo://app?vid=4be17eee-2bee-4bce-abc6-693cda9fbd8f","ios":"levelo://app?vid=4be17eee-2bee-4bce-abc6-693cda9fbd8f"},"vehicle_type_id":"4","last_reported":1730545608,"current_range_meters":36400,"station_id":"ce4bhgp2rcd13ifvqfd0","pricing_plan_id":"cebpf4jnsgd1na2vs0mg"},{"bike_id":"21ff1bff-f285-482f-b9d5-5da60c9f151d","system_id":"levelo_inurba_marseille","lat":43.32485,"lon":5.36559,"is_reserved":false,"is_disabled":false,"rental_uris":{"android":"levelo://app?vid=21ff1bff-f285-482f-b9d5-5da60c9f151d","ios":"levelo://app?vid=21ff1bff-f285-482f-b9d5-5da60c9f151d"},"vehicle_type_id":"4","last_reported":1730545608,"current_range_meters":33600,"station_id":"ce4bhs12rcd13ifvqhvg","pricing_plan_id":"cebpf4jnsgd1na2vs0mg"},{"bike_id":"a9a6908f-e016-4463-a289-1b8cb17b4191","system_id":"levelo_inurba_marseille","lat":43.29269,"lon":5.36841,"is_reserved":false,"is_disabled":false,"rental_uris":{"android":"levelo://app?vid=a9a6908f-e016-4463-a289-1b8cb17b4191","ios":"levelo://app?vid=a9a6908f-e016-4463-a289-1b8cb17b4191"},"vehicle_type_id":"4","last_reported":1730545608,"current_range_meters":38800,"station_id":"ce4bhbp2rcd13ifvqesg","pricing_plan_id":"cebpf4jnsgd1na2vs0mg"},{"bike_id":"f5b877da-4b16-4a6e-b7a7-93916121cb3b","system_id":"levelo_inurba_marseille","lat":43.30777,"lon":5.37654,"is_reserved":false,"is_disabled":false,"rental_uris":{"android":"levelo://app?vid=f5b877da-4b16-4a6e-b7a7-93916121cb3b","ios":"levelo://app?vid=f5b877da-4b16-4a6e-b7a7-93916121cb3b"},"vehicle_type_id":"4","last_reported":1730545608,"current_range_meters":19200,"station_id":"ce4bgv92rcd13ifvqcq0","pricing_plan_id":"cebpf4jnsgd1na2vs0mg"},{"bike_id":"e8374984-39d9-4a4a-98e4-d76a7cf3cdfb","system_id":"levelo_inurba_marseille","lat":43.296853,"lon":5.393691,"is_reserved":false,"is_disabled":false,"rental_uris":{"android":"levelo://app?vid=e8374984-39d9-4a4a-98e4-d76a7cf3cdfb","ios":"levelo://app?vid=e8374984-39d9-4a4a-98e4-d76a7cf3cdfb"},"vehicle_type_id":"4","last_reported":1730545608,"current_range_meters":28800,"station_id":"chh1huq6cuj3fo74tm60","pricing_plan_id":"cebpf4jnsgd1na2vs0mg"},{"bike_id":"d61fa55a-d805-4f16-aadf-773cc1d5bef1","system_id":"levelo_inurba_marseille","lat":43.27319,"lon":5.39067,"is_reserved":false,"is_disabled":false,"rental_uris":{"android":"levelo://app?vid=d61fa55a-d805-4f16-aadf-773cc1d5bef1","ios":"levelo://app?vid=d61fa55a-d805-4f16-aadf-773cc1d5bef1"},"vehicle_type_id":"4","last_reported":1730545608,"current_range_meters":38800,"station_id":"ce4bhgp2rcd13ifvqfe0","pricing_plan_id":"cebpf4jnsgd1na2vs0mg"},{"bike_id":"8096177b-5481-43c4-9ad0-8378e8bbb67c","system_id":"levelo_inurba_marseille","lat":43.26552,"lon":5.37284,"is_reserved":false,"is_disabled":false,"rental_uris":{"android":"levelo://app?vid=8096177b-5481-43c4-9ad0-8378e8bbb67c","ios":"levelo://app?vid=8096177b-5481-43c4-9ad0-8378e8bbb67c"},"vehicle_type_id":"4","last_reported":1730545608,"current_range_meters":38400,"station_id":"ce4bhg12rcd13ifvqf70","pricing_plan_id":"cebpf4jnsgd1na2vs0mg"},{"bike_id":"3e774943-d4aa-471b-a041-87e0abbf5d55","system_id":"levelo_inurba_marseille","lat":43.27171,"lon":5.40982,"is_reserved":false,"is_disabled":false,"rental_uris":{"android":"levelo://app?vid=3e774943-d4aa-471b-a041-87e0abbf5d55","ios":"levelo://app?vid=3e774943-d4aa-471b-a041-87e0abbf5d55"},"vehicle_type_id":"4","last_reported":1730545608,"current_range_meters":9200,"station_id":"ce4bhl12rcd13ifvqgf0","pricing_plan_id":"cebpf4jnsgd1na2vs0mg"},{"bike_id":"3b0b7df5-4eda-48ad-b921-28132dcf7037","system_id":"levelo_inurba_marseille","lat":43.27376,"lon":5.3625,"is_reserved":false,"is_disabled":false,"rental_uris":{"android":"levelo://app?vid=3b0b7df5-4eda-48ad-b921-28132dcf7037","ios":"levelo://app?vid=3b0b7df5-4eda-48ad-b921-28132dcf7037"},"vehicle_type_id":"4","last_reported":1730545608,"current_range_meters":38800,"station_id":"ce4bhbh2rcd13ifvqeo0","pricing_plan_id":"cebpf4jnsgd1na2vs0mg"},{"bike_id":"ad3e9952-3f50-44d8-a74e-6763bc2ff022","system_id":"levelo_inurba_marseille","lat":43.26213,"lon":5.37441,"is_reserved":false,"is_disabled":false,"rental_uris":{"android":"levelo://app?vid=ad3e9952-3f50-44d8-a74e-6763bc2ff022","ios":"levelo://app?vid=ad3e9952-3f50-44d8-a74e-6763bc2ff022"},"vehicle_type_id":"4","last_reported":1730545608,"current_range_meters":32400,"station_id":"ce4bhgp2rcd13ifvqfc0","pricing_plan_id":"cebpf4jnsgd1na2vs0mg"},{"bike_id":"a5abd82e-33ff-4452-9538-a6a3d5a1d185","system_id":"levelo_inurba_marseille","lat":43.29931,"lon":5.36524,"is_reserved":false,"is_disabled":false,"rental_uris":{"android":"levelo://app?vid=a5abd82e-33ff-4452-9538-a6a3d5a1d185","ios":"levelo://app?vid=a5abd82e-33ff-4452-9538-a6a3d5a1d185"},"vehicle_type_id":"4","last_reported":1730545608,"current_range_meters":38800,"station_id":"ce4bgm92rcd13ifvqbr0","pricing_plan_id":"cebpf4jnsgd1na2vs0mg"},{"bike_id":"9c510165-3fd2-45d1-85c8-68b221c6f474","system_id":"levelo_inurba_marseille","lat":43.23967,"lon":5.36632,"is_reserved":false,"is_disabled":false,"rental_uris":{"android":"levelo://app?vid=9c510165-3fd2-45d1-85c8-68b221c6f474","ios":"levelo://app?vid=9c510165-3fd2-45d1-85c8-68b221c6f474"},"vehicle_type_id":"4","last_reported":1730545608,"current_range_meters":38800,"station_id":"ce4bhi12rcd13ifvqfp0","pricing_plan_id":"cebpf4jnsgd1na2vs0mg"},{"bike_id":"1f02438c-5d22-4334-9c88-5ddf05045bbc","system_id":"levelo_inurba_marseille","lat":43.29566,"lon":5.37514,"is_reserved":false,"is_disabled":false,"rental_uris":{"android":"levelo://app?vid=1f02438c-5d22-4334-9c88-5ddf05045bbc","ios":"levelo://app?vid=1f02438c-5d22-4334-9c88-5ddf05045bbc"},"vehicle_type_id":"4","last_reported":1730545608,"current_range_meters":36800,"station_id":"ce4bgh92rcd13ifvqb50","pricing_plan_id":"cebpf4jnsgd1na2vs0mg"},{"bike_id":"21d32b2e-dd1a-4589-95a2-cc788968aedd","system_id":"levelo_inurba_marseille","lat":43.29873,"lon":5.39731,"is_reserved":false,"is_disabled":false,"rental_uris":{"android":"levelo://app?vid=21d32b2e-dd1a-4589-95a2-cc788968aedd","ios":"levelo://app?vid=21d32b2e-dd1a-4589-95a2-cc788968aedd"},"vehicle_type_id":"4","last_reported":1730545608,"current_range_meters":38800,"station_id":"ce4bh0h2rcd13ifvqd50","pricing_plan_id":"cebpf4jnsgd1na2vs0mg"},{"bike_id":"c502d6dc-6da0-4200-87dc-ab42cc4a7f18","system_id":"levelo_inurba_marseille","lat":43.27179,"lon":5.40979,"is_reserved":false,"is_disabled":false,"rental_uris":{"android":"levelo://app?vid=c502d6dc-6da0-4200-87dc-ab42cc4a7f18","ios":"levelo://app?vid=c502d6dc-6da0-4200-87dc-ab42cc4a7f18"},"vehicle_type_id":"4","last_reported":1730545608,"current_range_meters":24800,"station_id":"ce4bhl12rcd13ifvqgf0","pricing_plan_id":"cebpf4jnsgd1na2vs0mg"},{"bike_id":"8c67d340-801d-46e5-b910-2f8aff3ff078","system_id":"levelo_inurba_marseille","lat":43.33339,"lon":5.37054,"is_reserved":false,"is_disabled":false,"rental_uris":{"android":"levelo://app?vid=8c67d340-801d-46e5-b910-2f8aff3ff078","ios":"levelo://app?vid=8c67d340-801d-46e5-b910-2f8aff3ff078"},"vehicle_type_id":"4","last_reported":1730545608,"current_range_meters":10800,"station_id":"","pricing_plan_id":"cebpf4jnsgd1na2vs0mg"},{"bike_id":"83356032-baeb-401a-bdff-8adddb83ed12","system_id":"levelo_inurba_marseille","lat":43.23193,"lon":5.35548,"is_reserved":false,"is_disabled":false,"rental_uris":{"android":"levelo://app?vid=83356032-baeb-401a-bdff-8adddb83ed12","ios":"levelo://app?vid=83356032-baeb-401a-bdff-8adddb83ed12"},"vehicle_type_id":"4","last_reported":1730545608,"current_range_meters":36800,"station_id":"ce4bhu92rcd13ifvqi70","pricing_plan_id":"cebpf4jnsgd1na2vs0mg"},{"bike_id":"7d80098b-4968-470b-ade0-873b95eb7362","system_id":"levelo_inurba_marseille","lat":43.261902,"lon":5.374463,"is_reserved":false,"is_disabled":false,"rental_uris":{"android":"levelo://app?vid=7d80098b-4968-470b-ade0-873b95eb7362","ios":"levelo://app?vid=7d80098b-4968-470b-ade0-873b95eb7362"},"vehicle_type_id":"4","last_reported":1730545608,"current_range_meters":9600,"station_id":"ce4bhgp2rcd13ifvqfc0","pricing_plan_id":"cebpf4jnsgd1na2vs0mg"},{"bike_id":"ac4813d0-b4bd-42a6-b275-67b5c68c2ae3","system_id":"levelo_inurba_marseille","lat":43.29788,"lon":5.38103,"is_reserved":false,"is_disabled":false,"rental_uris":{"android":"levelo://app?vid=ac4813d0-b4bd-42a6-b275-67b5c68c2ae3","ios":"levelo://app?vid=ac4813d0-b4bd-42a6-b275-67b5c68c2ae3"},"vehicle_type_id":"4","last_reported":1730545608,"current_range_meters":38800,"station_id":"ce4bgip2rcd13ifvqbb0","pricing_plan_id":"cebpf4jnsgd1na2vs0mg"},{"bike_id":"f9c65873-3bf4-4a1c-be6c-b96903d9d389","system_id":"levelo_inurba_marseille","lat":43.29295,"lon":5.37459,"is_reserved":false,"is_disabled":false,"rental_uris":{"android":"levelo://app?vid=f9c65873-3bf4-4a1c-be6c-b96903d9d389","ios":"levelo://app?vid=f9c65873-3bf4-4a1c-be6c-b96903d9d389"},"vehicle_type_id":"4","last_reported":1730545608,"current_range_meters":18800,"station_id":"ce4bgi12rcd13ifvqb70","pricing_plan_id":"cebpf4jnsgd1na2vs0mg"},{"bike_id":"df63b9c4-e15c-4263-a5c8-6ddf8c81a210","system_id":"levelo_inurba_marseille","lat":43.26059,"lon":5.39393,"is_reserved":false,"is_disabled":false,"rental_uris":{"android":"levelo://app?vid=df63b9c4-e15c-4263-a5c8-6ddf8c81a210","ios":"levelo://app?vid=df63b9c4-e15c-4263-a5c8-6ddf8c81a210"},"vehicle_type_id":"4","last_reported":1730545608,"current_range_meters":38800,"station_id":"ce4bhh92rcd13ifvqfj0","pricing_plan_id":"cebpf4jnsgd1na2vs0mg"},{"bike_id":"07d0df56-f8bc-46e6-871c-8e071fb175e5","system_id":"levelo_inurba_marseille","lat":43.23196,"lon":5.35552,"is_reserved":false,"is_disabled":false,"rental_uris":{"android":"levelo://app?vid=07d0df56-f8bc-46e6-871c-8e071fb175e5","ios":"levelo://app?vid=07d0df56-f8bc-46e6-871c-8e071fb175e5"},"vehicle_type_id":"4","last_reported":1730545608,"current_range_meters":37600,"station_id":"ce4bhu92rcd13ifvqi70","pricing_plan_id":"cebpf4jnsgd1na2vs0mg"},{"bike_id":"69b3c38e-cc8d-4ba8-a1f6-805ee6d3a26b","system_id":"levelo_inurba_marseille","lat":43.26191,"lon":5.37449,"is_reserved":false,"is_disabled":false,"rental_uris":{"android":"levelo://app?vid=69b3c38e-cc8d-4ba8-a1f6-805ee6d3a26b","ios":"levelo://app?vid=69b3c38e-cc8d-4ba8-a1f6-805ee6d3a26b"},"vehicle_type_id":"4","last_reported":1730545608,"current_range_meters":32400,"station_id":"ce4bhgp2rcd13ifvqfc0","pricing_plan_id":"cebpf4jnsgd1na2vs0mg"},{"bike_id":"19e6008c-0743-45ac-b4bf-fc683ef0e14c","system_id":"levelo_inurba_marseille","lat":43.25721,"lon":5.41112,"is_reserved":false,"is_disabled":false,"rental_uris":{"android":"levelo://app?vid=19e6008c-0743-45ac-b4bf-fc683ef0e14c","ios":"levelo://app?vid=19e6008c-0743-45ac-b4bf-fc683ef0e14c"},"vehicle_type_id":"4","last_reported":1730545608,"current_range_meters":26000,"station_id":"ce4bhkp2rcd13ifvqgd0","pricing_plan_id":"cebpf4jnsgd1na2vs0mg"},{"bike_id":"58fb40f0-c454-4d3a-98cd-87a342b72aad","system_id":"levelo_inurba_marseille","lat":43.26561,"lon":5.39,"is_reserved":false,"is_disabled":false,"rental_uris":{"android":"levelo://app?vid=58fb40f0-c454-4d3a-98cd-87a342b72aad","ios":"levelo://app?vid=58fb40f0-c454-4d3a-98cd-87a342b72aad"},"vehicle_type_id":"4","last_reported":1730545608,"current_range_meters":19200,"station_id":"ce4bhe12rcd13ifvqf30","pricing_plan_id":"cebpf4jnsgd1na2vs0mg"},{"bike_id":"b0886b34-76fe-4382-a8e3-fd02e36f7e5e","system_id":"levelo_inurba_marseille","lat":43.27682,"lon":5.38871,"is_reserved":false,"is_disabled":false,"rental_uris":{"android":"levelo://app?vid=b0886b34-76fe-4382-a8e3-fd02e36f7e5e","ios":"levelo://app?vid=b0886b34-76fe-4382-a8e3-fd02e36f7e5e"},"vehicle_type_id":"4","last_reported":1730545608,"current_range_meters":34800,"station_id":"ce4bhi12rcd13ifvqfo0","pricing_plan_id":"cebpf4jnsgd1na2vs0mg"},{"bike_id":"99aed4fe-676c-418c-94cf-6644e1927a4c","system_id":"levelo_inurba_marseille","lat":43.29202,"lon":5.35789,"is_reserved":false,"is_disabled":false,"rental_uris":{"android":"levelo://app?vid=99aed4fe-676c-418c-94cf-6644e1927a4c","ios":"levelo://app?vid=99aed4fe-676c-418c-94cf-6644e1927a4c"},"vehicle_type_id":"4","last_reported":1730545608,"current_range_meters":21600,"station_id":"ce4bhb12rcd13ifvqel0","pricing_plan_id":"cebpf4jnsgd1na2vs0mg"},{"bike_id":"a551db3a-0029-46a8-bdd7-a8bccdff9239","system_id":"levelo_inurba_marseille","lat":43.30607,"lon":5.39359,"is_reserved":false,"is_disabled":false,"rental_uris":{"android":"levelo://app?vid=a551db3a-0029-46a8-bdd7-a8bccdff9239","ios":"levelo://app?vid=a551db3a-0029-46a8-bdd7-a8bccdff9239"},"vehicle_type_id":"4","last_reported":1730545608,"current_range_meters":28000,"station_id":"ce4bh0p2rcd13ifvqd80","pricing_plan_id":"cebpf4jnsgd1na2vs0mg"},{"bike_id":"11c750a2-d7b5-480d-8e51-6aba667e5991","system_id":"levelo_inurba_marseille","lat":43.31733,"lon":5.42397,"is_reserved":false,"is_disabled":false,"rental_uris":{"android":"levelo://app?vid=11c750a2-d7b5-480d-8e51-6aba667e5991","ios":"levelo://app?vid=11c750a2-d7b5-480d-8e51-6aba667e5991"},"vehicle_type_id":"4","last_reported":1730545608,"current_range_meters":38800,"station_id":"ce4bhp92rcd13ifvqhbg","pricing_plan_id":"cebpf4jnsgd1na2vs0mg"},{"bike_id":"a90ae38d-f8a3-4b0e-b2c8-200af223018c","system_id":"levelo_inurba_marseille","lat":43.304413,"lon":5.378559,"is_reserved":false,"is_disabled":false,"rental_uris":{"android":"levelo://app?vid=a90ae38d-f8a3-4b0e-b2c8-200af223018c","ios":"levelo://app?vid=a90ae38d-f8a3-4b0e-b2c8-200af223018c"},"vehicle_type_id":"4","last_reported":1730545608,"current_range_meters":24400,"station_id":"ce4bgup2rcd13ifvqcn0","pricing_plan_id":"cebpf4jnsgd1na2vs0mg"},{"bike_id":"8a220314-b56c-493a-9759-7ee1c724fc09","system_id":"levelo_inurba_marseille","lat":43.29596,"lon":5.3674,"is_reserved":false,"is_disabled":false,"rental_uris":{"android":"levelo://app?vid=8a220314-b56c-493a-9759-7ee1c724fc09","ios":"levelo://app?vid=8a220314-b56c-493a-9759-7ee1c724fc09"},"vehicle_type_id":"4","last_reported":1730545608,"current_range_meters":38400,"station_id":"ce4bgph2rcd13ifvqc2g","pricing_plan_id":"cebpf4jnsgd1na2vs0mg"},{"bike_id":"b431b26a-59dc-458c-8870-6f6314701d11","system_id":"levelo_inurba_marseille","lat":43.284158,"lon":5.349765,"is_reserved":false,"is_disabled":false,"rental_uris":{"android":"levelo://app?vid=b431b26a-59dc-458c-8870-6f6314701d11","ios":"levelo://app?vid=b431b26a-59dc-458c-8870-6f6314701d11"},"vehicle_type_id":"4","last_reported":1730545608,"current_range_meters":28800,"station_id":"ce4bhbh2rcd13ifvqepg","pricing_plan_id":"cebpf4jnsgd1na2vs0mg"},{"bike_id":"e316822c-24ef-41b5-8cad-fd80a2dd02f9","system_id":"levelo_inurba_marseille","lat":43.31084,"lon":5.38365,"is_reserved":false,"is_disabled":false,"rental_uris":{"android":"levelo://app?vid=e316822c-24ef-41b5-8cad-fd80a2dd02f9","ios":"levelo://app?vid=e316822c-24ef-41b5-8cad-fd80a2dd02f9"},"vehicle_type_id":"4","last_reported":1730545608,"current_range_meters":22800,"station_id":"ce4bgv92rcd13ifvqcr0","pricing_plan_id":"cebpf4jnsgd1na2vs0mg"},{"bike_id":"10ff0e75-6443-4419-b59b-5c0fc7db1fb9","system_id":"levelo_inurba_marseille","lat":43.30532,"lon":5.36695,"is_reserved":false,"is_disabled":false,"rental_uris":{"android":"levelo://app?vid=10ff0e75-6443-4419-b59b-5c0fc7db1fb9","ios":"levelo://app?vid=10ff0e75-6443-4419-b59b-5c0fc7db1fb9"},"vehicle_type_id":"4","last_reported":1730545608,"current_range_meters":38800,"station_id":"ce4bgrp2rcd13ifvqc9g","pricing_plan_id":"cebpf4jnsgd1na2vs0mg"},{"bike_id":"536b3b96-b168-48a9-900f-a9bfebbd46ad","system_id":"levelo_inurba_marseille","lat":43.29199,"lon":5.35798,"is_reserved":false,"is_disabled":false,"rental_uris":{"android":"levelo://app?vid=536b3b96-b168-48a9-900f-a9bfebbd46ad","ios":"levelo://app?vid=536b3b96-b168-48a9-900f-a9bfebbd46ad"},"vehicle_type_id":"4","last_reported":1730545608,"current_range_meters":38800,"station_id":"ce4bhb12rcd13ifvqel0","pricing_plan_id":"cebpf4jnsgd1na2vs0mg"},{"bike_id":"367151e3-d9d1-496e-afc3-1d3ad14f98c6","system_id":"levelo_inurba_marseille","lat":43.32369,"lon":5.38873,"is_reserved":false,"is_disabled":false,"rental_uris":{"android":"levelo://app?vid=367151e3-d9d1-496e-afc3-1d3ad14f98c6","ios":"levelo://app?vid=367151e3-d9d1-496e-afc3-1d3ad14f98c6"},"vehicle_type_id":"4","last_reported":1730545608,"current_range_meters":32800,"station_id":"ce4bhqp2rcd13ifvqhog","pricing_plan_id":"cebpf4jnsgd1na2vs0mg"},{"bike_id":"ffa47a9c-9d30-4413-b7a7-fb369d45a50e","system_id":"levelo_inurba_marseille","lat":43.29313,"lon":5.37152,"is_reserved":false,"is_disabled":false,"rental_uris":{"android":"levelo://app?vid=ffa47a9c-9d30-4413-b7a7-fb369d45a50e","ios":"levelo://app?vid=ffa47a9c-9d30-4413-b7a7-fb369d45a50e"},"vehicle_type_id":"4","last_reported":1730545608,"current_range_meters":38000,"station_id":"ce4bgh92rcd13ifvqb40","pricing_plan_id":"cebpf4jnsgd1na2vs0mg"},{"bike_id":"be1d46f5-1de1-4141-a3a0-2c6fdc86f9c8","system_id":"levelo_inurba_marseille","lat":43.29839,"lon":5.36266,"is_reserved":false,"is_disabled":false,"rental_uris":{"android":"levelo://app?vid=be1d46f5-1de1-4141-a3a0-2c6fdc86f9c8","ios":"levelo://app?vid=be1d46f5-1de1-4141-a3a0-2c6fdc86f9c8"},"vehicle_type_id":"4","last_reported":1730545608,"current_range_meters":16000,"station_id":"ce4bgpp2rcd13ifvqc3g","pricing_plan_id":"cebpf4jnsgd1na2vs0mg"},{"bike_id":"b262bc4a-2540-4a9e-9c5f-70d9e7dd9a2f","system_id":"levelo_inurba_marseille","lat":43.2656,"lon":5.37278,"is_reserved":false,"is_disabled":false,"rental_uris":{"android":"levelo://app?vid=b262bc4a-2540-4a9e-9c5f-70d9e7dd9a2f","ios":"levelo://app?vid=b262bc4a-2540-4a9e-9c5f-70d9e7dd9a2f"},"vehicle_type_id":"4","last_reported":1730545608,"current_range_meters":17600,"station_id":"ce4bhg12rcd13ifvqf70","pricing_plan_id":"cebpf4jnsgd1na2vs0mg"},{"bike_id":"c4f4d329-9282-444c-a2eb-fe8ffd6454a3","system_id":"levelo_inurba_marseille","lat":43.30253,"lon":5.40064,"is_reserved":false,"is_disabled":false,"rental_uris":{"android":"levelo://app?vid=c4f4d329-9282-444c-a2eb-fe8ffd6454a3","ios":"levelo://app?vid=c4f4d329-9282-444c-a2eb-fe8ffd6454a3"},"vehicle_type_id":"4","last_reported":1730545608,"current_range_meters":21600,"station_id":"ce4bgvh2rcd13ifvqcs0","pricing_plan_id":"cebpf4jnsgd1na2vs0mg"},{"bike_id":"184be8ec-fbf1-42f9-9d0b-336d167638cd","system_id":"levelo_inurba_marseille","lat":43.27816,"lon":5.40706,"is_reserved":false,"is_disabled":false,"rental_uris":{"android":"levelo://app?vid=184be8ec-fbf1-42f9-9d0b-336d167638cd","ios":"levelo://app?vid=184be8ec-fbf1-42f9-9d0b-336d167638cd"},"vehicle_type_id":"4","last_reported":1730545608,"current_range_meters":36400,"station_id":"ce4bhnh2rcd13ifvqgtg","pricing_plan_id":"cebpf4jnsgd1na2vs0mg"},{"bike_id":"31438b49-3f30-4c70-b7cc-3940fa88b5ae","system_id":"levelo_inurba_marseille","lat":43.30149,"lon":5.38074,"is_reserved":false,"is_disabled":false,"rental_uris":{"android":"levelo://app?vid=31438b49-3f30-4c70-b7cc-3940fa88b5ae","ios":"levelo://app?vid=31438b49-3f30-4c70-b7cc-3940fa88b5ae"},"vehicle_type_id":"4","last_reported":1730545608,"current_range_meters":10800,"station_id":"ce4bgjp2rcd13ifvqbh0","pricing_plan_id":"cebpf4jnsgd1na2vs0mg"},{"bike_id":"186b089e-de2f-425b-bdc9-1838d145e5b0","system_id":"levelo_inurba_marseille","lat":43.29362,"lon":5.37853,"is_reserved":false,"is_disabled":false,"rental_uris":{"android":"levelo://app?vid=186b089e-de2f-425b-bdc9-1838d145e5b0","ios":"levelo://app?vid=186b089e-de2f-425b-bdc9-1838d145e5b0"},"vehicle_type_id":"4","last_reported":1730545608,"current_range_meters":30800,"station_id":"ce4bgjh2rcd13ifvqbf0","pricing_plan_id":"cebpf4jnsgd1na2vs0mg"},{"bike_id":"24ed88ef-7e13-4630-9c40-090c0b464b2b","system_id":"levelo_inurba_marseille","lat":43.25109,"lon":5.4032,"is_reserved":false,"is_disabled":false,"rental_uris":{"android":"levelo://app?vid=24ed88ef-7e13-4630-9c40-090c0b464b2b","ios":"levelo://app?vid=24ed88ef-7e13-4630-9c40-090c0b464b2b"},"vehicle_type_id":"4","last_reported":1730545608,"current_range_meters":35200,"station_id":"ce4bhlh2rcd13ifvqgig","pricing_plan_id":"cebpf4jnsgd1na2vs0mg"},{"bike_id":"0412f79c-bb4d-40a8-a713-8fe372e34a6d","system_id":"levelo_inurba_marseille","lat":43.2668,"lon":5.38257,"is_reserved":false,"is_disabled":false,"rental_uris":{"android":"levelo://app?vid=0412f79c-bb4d-40a8-a713-8fe372e34a6d","ios":"levelo://app?vid=0412f79c-bb4d-40a8-a713-8fe372e34a6d"},"vehicle_type_id":"4","last_reported":1730545608,"current_range_meters":18000,"station_id":"ce4bhg92rcd13ifvqf90","pricing_plan_id":"cebpf4jnsgd1na2vs0mg"},{"bike_id":"2875d132-b86c-4530-91db-97c0e35f7115","system_id":"levelo_inurba_marseille","lat":43.23187,"lon":5.3998,"is_reserved":false,"is_disabled":false,"rental_uris":{"android":"levelo://app?vid=2875d132-b86c-4530-91db-97c0e35f7115","ios":"levelo://app?vid=2875d132-b86c-4530-91db-97c0e35f7115"},"vehicle_type_id":"4","last_reported":1730545608,"current_range_meters":38800,"station_id":"ce4bhn12rcd13ifvqgqg","pricing_plan_id":"cebpf4jnsgd1na2vs0mg"},{"bike_id":"ace6ce99-29be-40d4-9b62-ff3331bf021c","system_id":"levelo_inurba_marseille","lat":43.22926,"lon":5.35383,"is_reserved":false,"is_disabled":false,"rental_uris":{"android":"levelo://app?vid=ace6ce99-29be-40d4-9b62-ff3331bf021c","ios":"levelo://app?vid=ace6ce99-29be-40d4-9b62-ff3331bf021c"},"vehicle_type_id":"4","last_reported":1730545608,"current_range_meters":4800,"station_id":"cpo3532slgdg3j2ikp40","pricing_plan_id":"cebpf4jnsgd1na2vs0mg"},{"bike_id":"bd9da8da-0e62-42e0-b8e3-48974947ce73","system_id":"levelo_inurba_marseille","lat":43.27816,"lon":5.40712,"is_reserved":false,"is_disabled":false,"rental_uris":{"android":"levelo://app?vid=bd9da8da-0e62-42e0-b8e3-48974947ce73","ios":"levelo://app?vid=bd9da8da-0e62-42e0-b8e3-48974947ce73"},"vehicle_type_id":"4","last_reported":1730545608,"current_range_meters":36800,"station_id":"ce4bhnh2rcd13ifvqgtg","pricing_plan_id":"cebpf4jnsgd1na2vs0mg"},{"bike_id":"3150236c-26b4-46fa-8e44-ff7ad143ef3a","system_id":"levelo_inurba_marseille","lat":43.26574,"lon":5.38995,"is_reserved":false,"is_disabled":false,"rental_uris":{"android":"levelo://app?vid=3150236c-26b4-46fa-8e44-ff7ad143ef3a","ios":"levelo://app?vid=3150236c-26b4-46fa-8e44-ff7ad143ef3a"},"vehicle_type_id":"4","last_reported":1730545608,"current_range_meters":36400,"station_id":"ce4bhe12rcd13ifvqf30","pricing_plan_id":"cebpf4jnsgd1na2vs0mg"},{"bike_id":"b27b6b18-d801-4b0b-a4e3-bc55bc4a9aed","system_id":"levelo_inurba_marseille","lat":43.25722,"lon":5.41103,"is_reserved":false,"is_disabled":false,"rental_uris":{"android":"levelo://app?vid=b27b6b18-d801-4b0b-a4e3-bc55bc4a9aed","ios":"levelo://app?vid=b27b6b18-d801-4b0b-a4e3-bc55bc4a9aed"},"vehicle_type_id":"4","last_reported":1730545608,"current_range_meters":38400,"station_id":"ce4bhkp2rcd13ifvqgd0","pricing_plan_id":"cebpf4jnsgd1na2vs0mg"},{"bike_id":"2c1110ff-4a7c-477c-add4-6c6389962855","system_id":"levelo_inurba_marseille","lat":43.26562,"lon":5.39009,"is_reserved":false,"is_disabled":false,"rental_uris":{"android":"levelo://app?vid=2c1110ff-4a7c-477c-add4-6c6389962855","ios":"levelo://app?vid=2c1110ff-4a7c-477c-add4-6c6389962855"},"vehicle_type_id":"4","last_reported":1730545608,"current_range_meters":4400,"station_id":"ce4bhe12rcd13ifvqf30","pricing_plan_id":"cebpf4jnsgd1na2vs0mg"},{"bike_id":"008673ba-05c1-45bd-8773-a238894f45b8","system_id":"levelo_inurba_marseille","lat":43.28937,"lon":5.36635,"is_reserved":false,"is_disabled":false,"rental_uris":{"android":"levelo://app?vid=008673ba-05c1-45bd-8773-a238894f45b8","ios":"levelo://app?vid=008673ba-05c1-45bd-8773-a238894f45b8"},"vehicle_type_id":"4","last_reported":1730545608,"current_range_meters":38800,"station_id":"ce4bhap2rcd13ifvqek0","pricing_plan_id":"cebpf4jnsgd1na2vs0mg"},{"bike_id":"94279a57-03c0-47b7-abe3-7226e86fd3b0","system_id":"levelo_inurba_marseille","lat":43.27611,"lon":5.361,"is_reserved":false,"is_disabled":false,"rental_uris":{"android":"levelo://app?vid=94279a57-03c0-47b7-abe3-7226e86fd3b0","ios":"levelo://app?vid=94279a57-03c0-47b7-abe3-7226e86fd3b0"},"vehicle_type_id":"4","last_reported":1730545608,"current_range_meters":20000,"station_id":"ce4bgj92rcd13ifvqbe0","pricing_plan_id":"cebpf4jnsgd1na2vs0mg"},{"bike_id":"6d8119dc-6932-4a70-8f66-f9b7d1f36abc","system_id":"levelo_inurba_marseille","lat":43.24663,"lon":5.38159,"is_reserved":false,"is_disabled":false,"rental_uris":{"android":"levelo://app?vid=6d8119dc-6932-4a70-8f66-f9b7d1f36abc","ios":"levelo://app?vid=6d8119dc-6932-4a70-8f66-f9b7d1f36abc"},"vehicle_type_id":"4","last_reported":1730545608,"current_range_meters":10800,"station_id":"ce4bhih2rcd13ifvqfr0","pricing_plan_id":"cebpf4jnsgd1na2vs0mg"},{"bike_id":"5ba8e5a8-09bf-412b-b182-000192a6d1f7","system_id":"levelo_inurba_marseille","lat":43.33023,"lon":5.39033,"is_reserved":false,"is_disabled":false,"rental_uris":{"android":"levelo://app?vid=5ba8e5a8-09bf-412b-b182-000192a6d1f7","ios":"levelo://app?vid=5ba8e5a8-09bf-412b-b182-000192a6d1f7"},"vehicle_type_id":"4","last_reported":1730545608,"current_range_meters":22400,"station_id":"ce4bhr92rcd13ifvqhrg","pricing_plan_id":"cebpf4jnsgd1na2vs0mg"},{"bike_id":"56e38add-0f78-4341-b643-7b0849d3280d","system_id":"levelo_inurba_marseille","lat":43.22928,"lon":5.35376,"is_reserved":false,"is_disabled":false,"rental_uris":{"android":"levelo://app?vid=56e38add-0f78-4341-b643-7b0849d3280d","ios":"levelo://app?vid=56e38add-0f78-4341-b643-7b0849d3280d"},"vehicle_type_id":"4","last_reported":1730545608,"current_range_meters":28400,"station_id":"cpo3532slgdg3j2ikp40","pricing_plan_id":"cebpf4jnsgd1na2vs0mg"},{"bike_id":"0ec1abc8-6688-41f2-93d6-ac7d991f5e07","system_id":"levelo_inurba_marseille","lat":43.30944,"lon":5.40134,"is_reserved":false,"is_disabled":false,"rental_uris":{"android":"levelo://app?vid=0ec1abc8-6688-41f2-93d6-ac7d991f5e07","ios":"levelo://app?vid=0ec1abc8-6688-41f2-93d6-ac7d991f5e07"},"vehicle_type_id":"4","last_reported":1730545608,"current_range_meters":30000,"station_id":"ce4bgvp2rcd13ifvqct0","pricing_plan_id":"cebpf4jnsgd1na2vs0mg"},{"bike_id":"b7e5fcd4-fccc-4a36-ac73-b4f28d59aa73","system_id":"levelo_inurba_marseille","lat":43.2842,"lon":5.34985,"is_reserved":false,"is_disabled":false,"rental_uris":{"android":"levelo://app?vid=b7e5fcd4-fccc-4a36-ac73-b4f28d59aa73","ios":"levelo://app?vid=b7e5fcd4-fccc-4a36-ac73-b4f28d59aa73"},"vehicle_type_id":"4","last_reported":1730545608,"current_range_meters":29600,"station_id":"ce4bhbh2rcd13ifvqepg","pricing_plan_id":"cebpf4jnsgd1na2vs0mg"},{"bike_id":"54cdf4b7-f177-47bd-8a3e-f2bf9d78456d","system_id":"levelo_inurba_marseille","lat":43.29571,"lon":5.37493,"is_reserved":false,"is_disabled":false,"rental_uris":{"android":"levelo://app?vid=54cdf4b7-f177-47bd-8a3e-f2bf9d78456d","ios":"levelo://app?vid=54cdf4b7-f177-47bd-8a3e-f2bf9d78456d"},"vehicle_type_id":"4","last_reported":1730545608,"current_range_meters":38800,"station_id":"ce4bgh92rcd13ifvqb50","pricing_plan_id":"cebpf4jnsgd1na2vs0mg"},{"bike_id":"a17289ad-b197-4e77-b642-2cb8d3a03a57","system_id":"levelo_inurba_marseille","lat":43.28469,"lon":5.38409,"is_reserved":false,"is_disabled":false,"rental_uris":{"android":"levelo://app?vid=a17289ad-b197-4e77-b642-2cb8d3a03a57","ios":"levelo://app?vid=a17289ad-b197-4e77-b642-2cb8d3a03a57"},"vehicle_type_id":"4","last_reported":1730545608,"current_range_meters":38800,"station_id":"ce4bh512rcd13ifvqe3g","pricing_plan_id":"cebpf4jnsgd1na2vs0mg"},{"bike_id":"02a63295-ff46-4f01-8b75-4c9bd934d262","system_id":"levelo_inurba_marseille","lat":43.29731,"lon":5.37683,"is_reserved":false,"is_disabled":false,"rental_uris":{"android":"levelo://app?vid=02a63295-ff46-4f01-8b75-4c9bd934d262","ios":"levelo://app?vid=02a63295-ff46-4f01-8b75-4c9bd934d262"},"vehicle_type_id":"4","last_reported":1730545608,"current_range_meters":36000,"station_id":"ce4bgkh2rcd13ifvqbl0","pricing_plan_id":"cebpf4jnsgd1na2vs0mg"},{"bike_id":"a62fcc65-d936-484c-b2b0-aa376df4e6d4","system_id":"levelo_inurba_marseille","lat":43.29725,"lon":5.37686,"is_reserved":false,"is_disabled":false,"rental_uris":{"android":"levelo://app?vid=a62fcc65-d936-484c-b2b0-aa376df4e6d4","ios":"levelo://app?vid=a62fcc65-d936-484c-b2b0-aa376df4e6d4"},"vehicle_type_id":"4","last_reported":1730545608,"current_range_meters":36800,"station_id":"ce4bgkh2rcd13ifvqbl0","pricing_plan_id":"cebpf4jnsgd1na2vs0mg"},{"bike_id":"7860a8eb-8bd7-4aa0-83fa-7000922a7285","system_id":"levelo_inurba_marseille","lat":43.32279,"lon":5.38287,"is_reserved":false,"is_disabled":false,"rental_uris":{"android":"levelo://app?vid=7860a8eb-8bd7-4aa0-83fa-7000922a7285","ios":"levelo://app?vid=7860a8eb-8bd7-4aa0-83fa-7000922a7285"},"vehicle_type_id":"4","last_reported":1730545608,"current_range_meters":37600,"station_id":"ce4bhr12rcd13ifvqhqg","pricing_plan_id":"cebpf4jnsgd1na2vs0mg"},{"bike_id":"9a857893-421b-4998-906a-28cf4d238d46","system_id":"levelo_inurba_marseille","lat":43.30291,"lon":5.3769,"is_reserved":false,"is_disabled":false,"rental_uris":{"android":"levelo://app?vid=9a857893-421b-4998-906a-28cf4d238d46","ios":"levelo://app?vid=9a857893-421b-4998-906a-28cf4d238d46"},"vehicle_type_id":"4","last_reported":1730545608,"current_range_meters":25600,"station_id":"ce4bguh2rcd13ifvqcj0","pricing_plan_id":"cebpf4jnsgd1na2vs0mg"},{"bike_id":"84eff928-eb31-4529-a9cd-6308c845218b","system_id":"levelo_inurba_marseille","lat":43.26195,"lon":5.37448,"is_reserved":false,"is_disabled":false,"rental_uris":{"android":"levelo://app?vid=84eff928-eb31-4529-a9cd-6308c845218b","ios":"levelo://app?vid=84eff928-eb31-4529-a9cd-6308c845218b"},"vehicle_type_id":"4","last_reported":1730545608,"current_range_meters":32000,"station_id":"ce4bhgp2rcd13ifvqfc0","pricing_plan_id":"cebpf4jnsgd1na2vs0mg"},{"bike_id":"22db5472-4abc-46aa-864d-d087dbec50c2","system_id":"levelo_inurba_marseille","lat":43.29534,"lon":5.38545,"is_reserved":false,"is_disabled":false,"rental_uris":{"android":"levelo://app?vid=22db5472-4abc-46aa-864d-d087dbec50c2","ios":"levelo://app?vid=22db5472-4abc-46aa-864d-d087dbec50c2"},"vehicle_type_id":"4","last_reported":1730545608,"current_range_meters":32800,"station_id":"ce4bgih2rcd13ifvqba0","pricing_plan_id":"cebpf4jnsgd1na2vs0mg"},{"bike_id":"f7b44c6b-0778-4717-9519-a73fc8c76db4","system_id":"levelo_inurba_marseille","lat":43.30882,"lon":5.37179,"is_reserved":false,"is_disabled":false,"rental_uris":{"android":"levelo://app?vid=f7b44c6b-0778-4717-9519-a73fc8c76db4","ios":"levelo://app?vid=f7b44c6b-0778-4717-9519-a73fc8c76db4"},"vehicle_type_id":"4","last_reported":1730545608,"current_range_meters":37600,"station_id":"ce4bguh2rcd13ifvqckg","pricing_plan_id":"cebpf4jnsgd1na2vs0mg"},{"bike_id":"c4a1cbd8-2906-419b-b48d-0b3ae167f8d2","system_id":"levelo_inurba_marseille","lat":43.31231,"lon":5.36835,"is_reserved":false,"is_disabled":false,"rental_uris":{"android":"levelo://app?vid=c4a1cbd8-2906-419b-b48d-0b3ae167f8d2","ios":"levelo://app?vid=c4a1cbd8-2906-419b-b48d-0b3ae167f8d2"},"vehicle_type_id":"4","last_reported":1730545608,"current_range_meters":21600,"station_id":"ce4bgl92rcd13ifvqbq0","pricing_plan_id":"cebpf4jnsgd1na2vs0mg"},{"bike_id":"791f2056-b5d5-4852-bf8c-7f9208baa2cb","system_id":"levelo_inurba_marseille","lat":43.3203,"lon":5.41564,"is_reserved":false,"is_disabled":false,"rental_uris":{"android":"levelo://app?vid=791f2056-b5d5-4852-bf8c-7f9208baa2cb","ios":"levelo://app?vid=791f2056-b5d5-4852-bf8c-7f9208baa2cb"},"vehicle_type_id":"4","last_reported":1730545608,"current_range_meters":37600,"station_id":"ce4bhq92rcd13ifvqhkg","pricing_plan_id":"cebpf4jnsgd1na2vs0mg"},{"bike_id":"00e70a20-c568-4fa0-a424-a40454a7bfa5","system_id":"levelo_inurba_marseille","lat":43.32366,"lon":5.38879,"is_reserved":false,"is_disabled":false,"rental_uris":{"android":"levelo://app?vid=00e70a20-c568-4fa0-a424-a40454a7bfa5","ios":"levelo://app?vid=00e70a20-c568-4fa0-a424-a40454a7bfa5"},"vehicle_type_id":"4","last_reported":1730545608,"current_range_meters":8400,"station_id":"ce4bhqp2rcd13ifvqhog","pricing_plan_id":"cebpf4jnsgd1na2vs0mg"},{"bike_id":"e76ba8c9-63a7-4a46-8996-d51a0fa3b05a","system_id":"levelo_inurba_marseille","lat":43.28462,"lon":5.35883,"is_reserved":false,"is_disabled":false,"rental_uris":{"android":"levelo://app?vid=e76ba8c9-63a7-4a46-8996-d51a0fa3b05a","ios":"levelo://app?vid=e76ba8c9-63a7-4a46-8996-d51a0fa3b05a"},"vehicle_type_id":"4","last_reported":1730545608,"current_range_meters":35200,"station_id":"ce4bhah2rcd13ifvqei0","pricing_plan_id":"cebpf4jnsgd1na2vs0mg"},{"bike_id":"e2c57d61-a2c7-477d-8a68-3f7aff0d253d","system_id":"levelo_inurba_marseille","lat":43.32041,"lon":5.41545,"is_reserved":false,"is_disabled":false,"rental_uris":{"android":"levelo://app?vid=e2c57d61-a2c7-477d-8a68-3f7aff0d253d","ios":"levelo://app?vid=e2c57d61-a2c7-477d-8a68-3f7aff0d253d"},"vehicle_type_id":"4","last_reported":1730545608,"current_range_meters":36400,"station_id":"ce4bhq92rcd13ifvqhkg","pricing_plan_id":"cebpf4jnsgd1na2vs0mg"},{"bike_id":"b66ece50-bc4f-4a5d-b2a3-ef5f9aba4661","system_id":"levelo_inurba_marseille","lat":43.29278,"lon":5.36839,"is_reserved":false,"is_disabled":false,"rental_uris":{"android":"levelo://app?vid=b66ece50-bc4f-4a5d-b2a3-ef5f9aba4661","ios":"levelo://app?vid=b66ece50-bc4f-4a5d-b2a3-ef5f9aba4661"},"vehicle_type_id":"4","last_reported":1730545608,"current_range_meters":38800,"station_id":"ce4bhbp2rcd13ifvqesg","pricing_plan_id":"cebpf4jnsgd1na2vs0mg"},{"bike_id":"2bbac17b-d972-47a5-858e-2124fad7527a","system_id":"levelo_inurba_marseille","lat":43.23206,"lon":5.35552,"is_reserved":false,"is_disabled":false,"rental_uris":{"android":"levelo://app?vid=2bbac17b-d972-47a5-858e-2124fad7527a","ios":"levelo://app?vid=2bbac17b-d972-47a5-858e-2124fad7527a"},"vehicle_type_id":"4","last_reported":1730545608,"current_range_meters":28400,"station_id":"ce4bhu92rcd13ifvqi70","pricing_plan_id":"cebpf4jnsgd1na2vs0mg"},{"bike_id":"dd85fdee-7b4e-41ea-9ba5-3da808cd5ca6","system_id":"levelo_inurba_marseille","lat":43.272888,"lon":5.391767,"is_reserved":false,"is_disabled":false,"rental_uris":{"android":"levelo://app?vid=dd85fdee-7b4e-41ea-9ba5-3da808cd5ca6","ios":"levelo://app?vid=dd85fdee-7b4e-41ea-9ba5-3da808cd5ca6"},"vehicle_type_id":"4","last_reported":1730545608,"current_range_meters":26000,"station_id":"cpo3532slgdg3j2ikp40","pricing_plan_id":"cebpf4jnsgd1na2vs0mg"},{"bike_id":"513d14f4-5afd-4b94-9007-d500e8f033d7","system_id":"levelo_inurba_marseille","lat":43.24386,"lon":5.37047,"is_reserved":false,"is_disabled":false,"rental_uris":{"android":"levelo://app?vid=513d14f4-5afd-4b94-9007-d500e8f033d7","ios":"levelo://app?vid=513d14f4-5afd-4b94-9007-d500e8f033d7"},"vehicle_type_id":"4","last_reported":1730545608,"current_range_meters":26000,"station_id":"ce4bhhh2rcd13ifvqfk0","pricing_plan_id":"cebpf4jnsgd1na2vs0mg"},{"bike_id":"9bc5a1dc-3218-47a7-8335-cfe11f3ae79c","system_id":"levelo_inurba_marseille","lat":43.295325,"lon":5.375025,"is_reserved":false,"is_disabled":false,"rental_uris":{"android":"levelo://app?vid=9bc5a1dc-3218-47a7-8335-cfe11f3ae79c","ios":"levelo://app?vid=9bc5a1dc-3218-47a7-8335-cfe11f3ae79c"},"vehicle_type_id":"4","last_reported":1730545608,"current_range_meters":38800,"station_id":"ce4bgkp2rcd13ifvqbmg","pricing_plan_id":"cebpf4jnsgd1na2vs0mg"},{"bike_id":"8057a42a-f8ce-4fdc-978e-e7b8a2aaa700","system_id":"levelo_inurba_marseille","lat":43.23194,"lon":5.35549,"is_reserved":false,"is_disabled":false,"rental_uris":{"android":"levelo://app?vid=8057a42a-f8ce-4fdc-978e-e7b8a2aaa700","ios":"levelo://app?vid=8057a42a-f8ce-4fdc-978e-e7b8a2aaa700"},"vehicle_type_id":"4","last_reported":1730545608,"current_range_meters":25200,"station_id":"ce4bhu92rcd13ifvqi70","pricing_plan_id":"cebpf4jnsgd1na2vs0mg"},{"bike_id":"67c105b9-496e-4638-9b26-5787e92b93b9","system_id":"levelo_inurba_marseille","lat":43.31712,"lon":5.37765,"is_reserved":false,"is_disabled":false,"rental_uris":{"android":"levelo://app?vid=67c105b9-496e-4638-9b26-5787e92b93b9","ios":"levelo://app?vid=67c105b9-496e-4638-9b26-5787e92b93b9"},"vehicle_type_id":"4","last_reported":1730545608,"current_range_meters":28000,"station_id":"ce4bgth2rcd13ifvqch0","pricing_plan_id":"cebpf4jnsgd1na2vs0mg"},{"bike_id":"db44274e-a75c-424d-9e8b-e69718db29be","system_id":"levelo_inurba_marseille","lat":43.2559,"lon":5.382258,"is_reserved":false,"is_disabled":false,"rental_uris":{"android":"levelo://app?vid=db44274e-a75c-424d-9e8b-e69718db29be","ios":"levelo://app?vid=db44274e-a75c-424d-9e8b-e69718db29be"},"vehicle_type_id":"4","last_reported":1730545608,"current_range_meters":38400,"station_id":"ce4bhih2rcd13ifvqfs0","pricing_plan_id":"cebpf4jnsgd1na2vs0mg"},{"bike_id":"1e607ab3-7aa4-4539-b5b7-bc1b57c0a640","system_id":"levelo_inurba_marseille","lat":43.29004,"lon":5.35609,"is_reserved":false,"is_disabled":false,"rental_uris":{"android":"levelo://app?vid=1e607ab3-7aa4-4539-b5b7-bc1b57c0a640","ios":"levelo://app?vid=1e607ab3-7aa4-4539-b5b7-bc1b57c0a640"},"vehicle_type_id":"4","last_reported":1730545608,"current_range_meters":39200,"station_id":"ce4bhb92rcd13ifvqen0","pricing_plan_id":"cebpf4jnsgd1na2vs0mg"},{"bike_id":"f6d1eaf1-10f9-4cec-be54-3848e3e5a665","system_id":"levelo_inurba_marseille","lat":43.23155,"lon":5.43703,"is_reserved":false,"is_disabled":false,"rental_uris":{"android":"levelo://app?vid=f6d1eaf1-10f9-4cec-be54-3848e3e5a665","ios":"levelo://app?vid=f6d1eaf1-10f9-4cec-be54-3848e3e5a665"},"vehicle_type_id":"4","last_reported":1730545608,"current_range_meters":9600,"station_id":"ce4bhmp2rcd13ifvqgog","pricing_plan_id":"cebpf4jnsgd1na2vs0mg"},{"bike_id":"41d47d69-979b-4480-8fb6-135de4b1e8ff","system_id":"levelo_inurba_marseille","lat":43.25718,"lon":5.41113,"is_reserved":false,"is_disabled":false,"rental_uris":{"android":"levelo://app?vid=41d47d69-979b-4480-8fb6-135de4b1e8ff","ios":"levelo://app?vid=41d47d69-979b-4480-8fb6-135de4b1e8ff"},"vehicle_type_id":"4","last_reported":1730545608,"current_range_meters":38800,"station_id":"ce4bhkp2rcd13ifvqgd0","pricing_plan_id":"cebpf4jnsgd1na2vs0mg"},{"bike_id":"4a9fb076-52cf-4f3a-a4dc-4536b05804cd","system_id":"levelo_inurba_marseille","lat":43.28274,"lon":5.35069,"is_reserved":false,"is_disabled":false,"rental_uris":{"android":"levelo://app?vid=4a9fb076-52cf-4f3a-a4dc-4536b05804cd","ios":"levelo://app?vid=4a9fb076-52cf-4f3a-a4dc-4536b05804cd"},"vehicle_type_id":"4","last_reported":1730545608,"current_range_meters":38000,"station_id":"ce4bhbp2rcd13ifvqerg","pricing_plan_id":"cebpf4jnsgd1na2vs0mg"},{"bike_id":"7ab7a2b8-6120-48d3-9e78-2dc7c0c16bf5","system_id":"levelo_inurba_marseille","lat":43.27946,"lon":5.41042,"is_reserved":false,"is_disabled":false,"rental_uris":{"android":"levelo://app?vid=7ab7a2b8-6120-48d3-9e78-2dc7c0c16bf5","ios":"levelo://app?vid=7ab7a2b8-6120-48d3-9e78-2dc7c0c16bf5"},"vehicle_type_id":"4","last_reported":1730545608,"current_range_meters":21600,"station_id":"ce4bhnp2rcd13ifvqh0g","pricing_plan_id":"cebpf4jnsgd1na2vs0mg"},{"bike_id":"e3e33b23-4ac1-44a9-ae19-9b3297840940","system_id":"levelo_inurba_marseille","lat":43.273156,"lon":5.390726,"is_reserved":false,"is_disabled":false,"rental_uris":{"android":"levelo://app?vid=e3e33b23-4ac1-44a9-ae19-9b3297840940","ios":"levelo://app?vid=e3e33b23-4ac1-44a9-ae19-9b3297840940"},"vehicle_type_id":"4","last_reported":1730545608,"current_range_meters":32400,"station_id":"ce4bhgp2rcd13ifvqfe0","pricing_plan_id":"cebpf4jnsgd1na2vs0mg"},{"bike_id":"36028f32-9a92-4268-84c7-c569b0748e63","system_id":"levelo_inurba_marseille","lat":43.24649,"lon":5.38889,"is_reserved":false,"is_disabled":false,"rental_uris":{"android":"levelo://app?vid=36028f32-9a92-4268-84c7-c569b0748e63","ios":"levelo://app?vid=36028f32-9a92-4268-84c7-c569b0748e63"},"vehicle_type_id":"4","last_reported":1730545608,"current_range_meters":16400,"station_id":"ce4bhg12rcd13ifvqf60","pricing_plan_id":"cebpf4jnsgd1na2vs0mg"},{"bike_id":"f77d9209-e729-48a2-a01d-50d7740b8d6f","system_id":"levelo_inurba_marseille","lat":43.29033,"lon":5.39962,"is_reserved":false,"is_disabled":false,"rental_uris":{"android":"levelo://app?vid=f77d9209-e729-48a2-a01d-50d7740b8d6f","ios":"levelo://app?vid=f77d9209-e729-48a2-a01d-50d7740b8d6f"},"vehicle_type_id":"4","last_reported":1730545608,"current_range_meters":26800,"station_id":"ce4bh392rcd13ifvqdm0","pricing_plan_id":"cebpf4jnsgd1na2vs0mg"},{"bike_id":"b8c4b104-f130-4889-80a7-2d5b5f02035d","system_id":"levelo_inurba_marseille","lat":43.28421,"lon":5.34982,"is_reserved":false,"is_disabled":false,"rental_uris":{"android":"levelo://app?vid=b8c4b104-f130-4889-80a7-2d5b5f02035d","ios":"levelo://app?vid=b8c4b104-f130-4889-80a7-2d5b5f02035d"},"vehicle_type_id":"4","last_reported":1730545608,"current_range_meters":24400,"station_id":"ce4bhbh2rcd13ifvqepg","pricing_plan_id":"cebpf4jnsgd1na2vs0mg"},{"bike_id":"748161ab-3ca4-46a1-aede-cdb3622e5ec2","system_id":"levelo_inurba_marseille","lat":43.23965,"lon":5.36623,"is_reserved":false,"is_disabled":false,"rental_uris":{"android":"levelo://app?vid=748161ab-3ca4-46a1-aede-cdb3622e5ec2","ios":"levelo://app?vid=748161ab-3ca4-46a1-aede-cdb3622e5ec2"},"vehicle_type_id":"4","last_reported":1730545608,"current_range_meters":12400,"station_id":"ce4bhi12rcd13ifvqfp0","pricing_plan_id":"cebpf4jnsgd1na2vs0mg"},{"bike_id":"333c06a3-3cdc-487c-9a66-b6579cee1b20","system_id":"levelo_inurba_marseille","lat":43.2957,"lon":5.37506,"is_reserved":false,"is_disabled":false,"rental_uris":{"android":"levelo://app?vid=333c06a3-3cdc-487c-9a66-b6579cee1b20","ios":"levelo://app?vid=333c06a3-3cdc-487c-9a66-b6579cee1b20"},"vehicle_type_id":"4","last_reported":1730545608,"current_range_meters":29600,"station_id":"ce4bgh92rcd13ifvqb50","pricing_plan_id":"cebpf4jnsgd1na2vs0mg"},{"bike_id":"7277536f-fdff-4c4d-bd3f-063962ce583f","system_id":"levelo_inurba_marseille","lat":43.29898,"lon":5.4366,"is_reserved":false,"is_disabled":false,"rental_uris":{"android":"levelo://app?vid=7277536f-fdff-4c4d-bd3f-063962ce583f","ios":"levelo://app?vid=7277536f-fdff-4c4d-bd3f-063962ce583f"},"vehicle_type_id":"4","last_reported":1730545608,"current_range_meters":28400,"station_id":"ce4bhpp2rcd13ifvqhfg","pricing_plan_id":"cebpf4jnsgd1na2vs0mg"},{"bike_id":"7e718cb7-1ba0-4b72-87fd-0b1b71595eff","system_id":"levelo_inurba_marseille","lat":43.286652,"lon":5.36351,"is_reserved":false,"is_disabled":false,"rental_uris":{"android":"levelo://app?vid=7e718cb7-1ba0-4b72-87fd-0b1b71595eff","ios":"levelo://app?vid=7e718cb7-1ba0-4b72-87fd-0b1b71595eff"},"vehicle_type_id":"4","last_reported":1730545608,"current_range_meters":38000,"station_id":"ce4bhah2rcd13ifvqei0","pricing_plan_id":"cebpf4jnsgd1na2vs0mg"},{"bike_id":"87249b01-2a80-4e10-85f9-d6e916ecaafa","system_id":"levelo_inurba_marseille","lat":43.33753,"lon":5.3744,"is_reserved":false,"is_disabled":false,"rental_uris":{"android":"levelo://app?vid=87249b01-2a80-4e10-85f9-d6e916ecaafa","ios":"levelo://app?vid=87249b01-2a80-4e10-85f9-d6e916ecaafa"},"vehicle_type_id":"4","last_reported":1730545608,"current_range_meters":38400,"station_id":"","pricing_plan_id":"cebpf4jnsgd1na2vs0mg"},{"bike_id":"d729eea6-f222-4819-90fa-d2b817d33242","system_id":"levelo_inurba_marseille","lat":43.29007,"lon":5.35605,"is_reserved":false,"is_disabled":false,"rental_uris":{"android":"levelo://app?vid=d729eea6-f222-4819-90fa-d2b817d33242","ios":"levelo://app?vid=d729eea6-f222-4819-90fa-d2b817d33242"},"vehicle_type_id":"4","last_reported":1730545608,"current_range_meters":30000,"station_id":"ce4bhb92rcd13ifvqen0","pricing_plan_id":"cebpf4jnsgd1na2vs0mg"},{"bike_id":"54c7ae09-f119-4883-bd11-378c5bbef541","system_id":"levelo_inurba_marseille","lat":43.26958,"lon":5.38626,"is_reserved":false,"is_disabled":false,"rental_uris":{"android":"levelo://app?vid=54c7ae09-f119-4883-bd11-378c5bbef541","ios":"levelo://app?vid=54c7ae09-f119-4883-bd11-378c5bbef541"},"vehicle_type_id":"4","last_reported":1730545608,"current_range_meters":26000,"station_id":"ce4bhh92rcd13ifvqfh0","pricing_plan_id":"cebpf4jnsgd1na2vs0mg"},{"bike_id":"9d10a712-0855-45ec-bfdf-3b21270f95bb","system_id":"levelo_inurba_marseille","lat":43.25579,"lon":5.38239,"is_reserved":false,"is_disabled":false,"rental_uris":{"android":"levelo://app?vid=9d10a712-0855-45ec-bfdf-3b21270f95bb","ios":"levelo://app?vid=9d10a712-0855-45ec-bfdf-3b21270f95bb"},"vehicle_type_id":"4","last_reported":1730545608,"current_range_meters":11600,"station_id":"ce4bhih2rcd13ifvqfs0","pricing_plan_id":"cebpf4jnsgd1na2vs0mg"},{"bike_id":"e5c409bb-51e1-43a5-8f87-581c7a95abe9","system_id":"levelo_inurba_marseille","lat":43.29941,"lon":5.36551,"is_reserved":false,"is_disabled":false,"rental_uris":{"android":"levelo://app?vid=e5c409bb-51e1-43a5-8f87-581c7a95abe9","ios":"levelo://app?vid=e5c409bb-51e1-43a5-8f87-581c7a95abe9"},