{"last_updated":1699797933,"ttl":30,"version":"2.2","data":{"bikes":[{"bike_id":"4a7385ee-298c-49ec-823b-f86930d9389a","system_id":"levelo_inurba_marseille","lat":43.309039,"lon":5.371797,"is_reserved":false,"is_disabled":false,"rental_uris":{"android":"levelo://app?vid=4a7385ee-298c-49ec-823b-f86930d9389a","ios":"levelo://app?vid=4a7385ee-298c-49ec-823b-f86930d9389a"},"vehicle_type_id":"4","last_reported":1699797933,"current_range_meters":12000,"station_id":"ce4bguh2rcd13ifvqckg","pricing_plan_id":"free"},{"bike_id":"8184491a-817f-4945-8e2c-fb69cb7c8718","system_id":"levelo_inurba_marseille","lat":43.309039,"lon":5.371797,"is_reserved":false,"is_disabled":false,"rental_uris":{"android":"levelo://app?vid=8184491a-817f-4945-8e2c-fb69cb7c8718","ios":"levelo://app?vid=8184491a-817f-4945-8e2c-fb69cb7c8718"},"vehicle_type_id":"4","last_reported":1699797933,"current_range_meters":3200,"station_id":"ce4bguh2rcd13ifvqckg","pricing_plan_id":"free"},{"bike_id":"df03e1d5-eb49-4e2e-9ec4-c7a355b755e6","system_id":"levelo_inurba_marseille","lat":43.31794,"lon":5.37231,"is_reserved":false,"is_disabled":false,"rental_uris":{"android":"levelo://app?vid=df03e1d5-eb49-4e2e-9ec4-c7a355b755e6","ios":"levelo://app?vid=df03e1d5-eb49-4e2e-9ec4-c7a355b755e6"},"vehicle_type_id":"4","last_reported":1699797933,"current_range_meters":22000,"station_id":"","pricing_plan_id":"free"},{"bike_id":"ab3c5306-4778-44fb-b3a7-3217c351ff3f","system_id":"levelo_inurba_marseille","lat":43.30541,"lon":5.36553,"is_reserved":false,"is_disabled":false,"rental_uris":{"android":"levelo://app?vid=ab3c5306-4778-44fb-b3a7-3217c351ff3f","ios":"levelo://app?vid=ab3c5306-4778-44fb-b3a7-3217c351ff3f"},"vehicle_type_id":"4","last_reported":1699797933,"current_range_meters":2800,"station_id":"ce4bgs12rcd13ifvqcag","pricing_plan_id":"free"},{"bike_id":"433d8c23-3a06-49e9-8cd7-b1f4430db50d","system_id":"levelo_inurba_marseille","lat":43.305415,"lon":5.365469,"is_reserved":false,"is_disabled":false,"rental_uris":{"android":"levelo://app?vid=433d8c23-3a06-49e9-8cd7-b1f4430db50d","ios":"levelo://app?vid=433d8c23-3a06-49e9-8cd7-b1f4430db50d"},"vehicle_type_id":"4","last_reported":1699797933,"current_range_meters":0,"station_id":"ce4bgs12rcd13ifvqcag","pricing_plan_id":"free"},{"bike_id":"76b359af-c20b-45d0-a1df-78f4c9a6553a","system_id":"levelo_inurba_marseille","lat":43.30539,"lon":5.36541,"is_reserved":false,"is_disabled":false,"rental_uris":{"android":"levelo://app?vid=76b359af-c20b-45d0-a1df-78f4c9a6553a","ios":"levelo://app?vid=76b359af-c20b-45d0-a1df-78f4c9a6553a"},"vehicle_type_id":"4","last_reported":1699797933,"current_range_meters":14400,"station_id":"ce4bgs12rcd13ifvqcag","pricing_plan_id":"free"},{"bike_id":"99d3b341-235c-4d0d-8cd4-9313671de0e3","system_id":"levelo_inurba_marseille","lat":43.305706,"lon":5.365654,"is_reserved":false,"is_disabled":false,"rental_uris":{"android":"levelo://app?vid=99d3b341-235c-4d0d-8cd4-9313671de0e3","ios":"levelo://app?vid=99d3b341-235c-4d0d-8cd4-9313671de0e3"},"vehicle_type_id":"4","last_reported":1699797933,"current_range_meters":18000,"station_id":"ce4bgs12rcd13ifvqcag","pricing_plan_id":"free"},{"bike_id":"35fc7461-ae95-4274-8c4a-32e63e7657c0","system_id":"levelo_inurba_marseille","lat":43.307945,"lon":5.376487,"is_reserved":false,"is_disabled":false,"rental_uris":{"android":"levelo://app?vid=35fc7461-ae95-4274-8c4a-32e63e7657c0","ios":"levelo://app?vid=35fc7461-ae95-4274-8c4a-32e63e7657c0"},"vehicle_type_id":"4","last_reported":1699797933,"current_range_meters":8400,"station_id":"ce4bgv92rcd13ifvqcq0","pricing_plan_id":"free"},{"bike_id":"57053367-5328-4d78-8951-737f56b37ed9","system_id":"levelo_inurba_marseille","lat":43.319924,"lon":5.373389,"is_reserved":false,"is_disabled":false,"rental_uris":{"android":"levelo://app?vid=57053367-5328-4d78-8951-737f56b37ed9","ios":"levelo://app?vid=57053367-5328-4d78-8951-737f56b37ed9"},"vehicle_type_id":"4","last_reported":1699797933,"current_range_meters":14800,"station_id":"","pricing_plan_id":"free"},{"bike_id":"6fe9eed1-4eed-40fd-ac21-b9a1a58a78bb","system_id":"levelo_inurba_marseille","lat":43.307945,"lon":5.376487,"is_reserved":false,"is_disabled":false,"rental_uris":{"android":"levelo://app?vid=6fe9eed1-4eed-40fd-ac21-b9a1a58a78bb","ios":"levelo://app?vid=6fe9eed1-4eed-40fd-ac21-b9a1a58a78bb"},"vehicle_type_id":"4","last_reported":1699797933,"current_range_meters":18000,"station_id":"ce4bgv92rcd13ifvqcq0","pricing_plan_id":"free"},{"bike_id":"dfc51688-268a-4f78-87a8-0d2751cb5ae4","system_id":"levelo_inurba_marseille","lat":43.31531,"lon":5.38033,"is_reserved":false,"is_disabled":false,"rental_uris":{"android":"levelo://app?vid=dfc51688-268a-4f78-87a8-0d2751cb5ae4","ios":"levelo://app?vid=dfc51688-268a-4f78-87a8-0d2751cb5ae4"},"vehicle_type_id":"4","last_reported":1699797933,"current_range_meters":22400,"station_id":"ce4bhsp2rcd13ifvqi50","pricing_plan_id":"free"},{"bike_id":"058c0cd6-8df0-4734-a726-2289e719353e","system_id":"levelo_inurba_marseille","lat":43.301939,"lon":5.366286,"is_reserved":false,"is_disabled":false,"rental_uris":{"android":"levelo://app?vid=058c0cd6-8df0-4734-a726-2289e719353e","ios":"levelo://app?vid=058c0cd6-8df0-4734-a726-2289e719353e"},"vehicle_type_id":"4","last_reported":1699797933,"current_range_meters":24400,"station_id":"ce4bgrh2rcd13ifvqc8g","pricing_plan_id":"free"},{"bike_id":"2ef16844-e6c9-402d-be7e-dd2bdb1972e8","system_id":"levelo_inurba_marseille","lat":43.301861,"lon":5.366052,"is_reserved":false,"is_disabled":false,"rental_uris":{"android":"levelo://app?vid=2ef16844-e6c9-402d-be7e-dd2bdb1972e8","ios":"levelo://app?vid=2ef16844-e6c9-402d-be7e-dd2bdb1972e8"},"vehicle_type_id":"4","last_reported":1699797933,"current_range_meters":12400,"station_id":"ce4bgrh2rcd13ifvqc8g","pricing_plan_id":"free"},{"bike_id":"a26a672c-8f86-40f5-9e8e-9856cf399a24","system_id":"levelo_inurba_marseille","lat":43.308012,"lon":5.381511,"is_reserved":false,"is_disabled":false,"rental_uris":{"android":"levelo://app?vid=a26a672c-8f86-40f5-9e8e-9856cf399a24","ios":"levelo://app?vid=a26a672c-8f86-40f5-9e8e-9856cf399a24"},"vehicle_type_id":"4","last_reported":1699797933,"current_range_meters":22400,"station_id":"ce4bgt12rcd13ifvqce0","pricing_plan_id":"free"},{"bike_id":"3fb4984a-6013-4ebb-8773-c308071699ec","system_id":"levelo_inurba_marseille","lat":43.32473,"lon":5.36554,"is_reserved":false,"is_disabled":false,"rental_uris":{"android":"levelo://app?vid=3fb4984a-6013-4ebb-8773-c308071699ec","ios":"levelo://app?vid=3fb4984a-6013-4ebb-8773-c308071699ec"},"vehicle_type_id":"4","last_reported":1699797933,"current_range_meters":21200,"station_id":"ce4bhs12rcd13ifvqhvg","pricing_plan_id":"free"},{"bike_id":"b2ab043f-95a6-496b-8eaf-ea623d546488","system_id":"levelo_inurba_marseille","lat":43.32479,"lon":5.36562,"is_reserved":false,"is_disabled":false,"rental_uris":{"android":"levelo://app?vid=b2ab043f-95a6-496b-8eaf-ea623d546488","ios":"levelo://app?vid=b2ab043f-95a6-496b-8eaf-ea623d546488"},"vehicle_type_id":"4","last_reported":1699797933,"current_range_meters":13600,"station_id":"ce4bhs12rcd13ifvqhvg","pricing_plan_id":"free"},{"bike_id":"79cd4922-2de3-4522-a340-ad5f4e57eafa","system_id":"levelo_inurba_marseille","lat":43.32484,"lon":5.36556,"is_reserved":false,"is_disabled":false,"rental_uris":{"android":"levelo://app?vid=79cd4922-2de3-4522-a340-ad5f4e57eafa","ios":"levelo://app?vid=79cd4922-2de3-4522-a340-ad5f4e57eafa"},"vehicle_type_id":"4","last_reported":1699797933,"current_range_meters":18400,"station_id":"ce4bhs12rcd13ifvqhvg","pricing_plan_id":"free"},{"bike_id":"08355974-5c95-4ac4-a0bc-29c27a0d77c1","system_id":"levelo_inurba_marseille","lat":43.30143,"lon":5.37413,"is_reserved":false,"is_disabled":false,"rental_uris":{"android":"levelo://app?vid=08355974-5c95-4ac4-a0bc-29c27a0d77c1","ios":"levelo://app?vid=08355974-5c95-4ac4-a0bc-29c27a0d77c1"},"vehicle_type_id":"4","last_reported":1699797933,"current_range_meters":400,"station_id":"ce4bgs92rcd13ifvqcc0","pricing_plan_id":"free"},{"bike_id":"9d3f9cba-f68f-44ad-8d90-09054ac5376a","system_id":"levelo_inurba_marseille","lat":43.302784,"lon":5.377158,"is_reserved":false,"is_disabled":false,"rental_uris":{"android":"levelo://app?vid=9d3f9cba-f68f-44ad-8d90-09054ac5376a","ios":"levelo://app?vid=9d3f9cba-f68f-44ad-8d90-09054ac5376a"},"vehicle_type_id":"4","last_reported":1699797933,"current_range_meters":30000,"station_id":"ce4bguh2rcd13ifvqcj0","pricing_plan_id":"free"},{"bike_id":"aedbe975-6ae0-4ffb-9ea6-2cc6294e29d4","system_id":"levelo_inurba_marseille","lat":43.302784,"lon":5.377158,"is_reserved":false,"is_disabled":false,"rental_uris":{"android":"levelo://app?vid=aedbe975-6ae0-4ffb-9ea6-2cc6294e29d4","ios":"levelo://app?vid=aedbe975-6ae0-4ffb-9ea6-2cc6294e29d4"},"vehicle_type_id":"4","last_reported":1699797933,"current_range_meters":28800,"station_id":"ce4bguh2rcd13ifvqcj0","pricing_plan_id":"free"},{"bike_id":"3819deec-fe3d-41c7-8346-2b107cb07054","system_id":"levelo_inurba_marseille","lat":43.315237,"lon":5.383797,"is_reserved":false,"is_disabled":false,"rental_uris":{"android":"levelo://app?vid=3819deec-fe3d-41c7-8346-2b107cb07054","ios":"levelo://app?vid=3819deec-fe3d-41c7-8346-2b107cb07054"},"vehicle_type_id":"4","last_reported":1699797933,"current_range_meters":0,"station_id":"","pricing_plan_id":"free"},{"bike_id":"69166d53-ec8e-4a0a-864c-7a29f7650dd8","system_id":"levelo_inurba_marseille","lat":43.321165,"lon":5.38002,"is_reserved":false,"is_disabled":false,"rental_uris":{"android":"levelo://app?vid=69166d53-ec8e-4a0a-864c-7a29f7650dd8","ios":"levelo://app?vid=69166d53-ec8e-4a0a-864c-7a29f7650dd8"},"vehicle_type_id":"4","last_reported":1699797933,"current_range_meters":14400,"station_id":"","pricing_plan_id":"free"},{"bike_id":"13d78257-2559-4a10-97b8-aaa7032179bc","system_id":"levelo_inurba_marseille","lat":43.319975,"lon":5.381519,"is_reserved":false,"is_disabled":false,"rental_uris":{"android":"levelo://app?vid=13d78257-2559-4a10-97b8-aaa7032179bc","ios":"levelo://app?vid=13d78257-2559-4a10-97b8-aaa7032179bc"},"vehicle_type_id":"4","last_reported":1699797933,"current_range_meters":400,"station_id":"","pricing_plan_id":"free"},{"bike_id":"a1739e48-580b-4871-af86-0c12dadbbe9d","system_id":"levelo_inurba_marseille","lat":43.29981,"lon":5.3717,"is_reserved":false,"is_disabled":false,"rental_uris":{"android":"levelo://app?vid=a1739e48-580b-4871-af86-0c12dadbbe9d","ios":"levelo://app?vid=a1739e48-580b-4871-af86-0c12dadbbe9d"},"vehicle_type_id":"4","last_reported":1699797933,"current_range_meters":0,"station_id":"ce4bgr92rcd13ifvqc7g","pricing_plan_id":"free"},{"bike_id":"58030eb9-2d7e-4a71-b4e5-501808b2a9c2","system_id":"levelo_inurba_marseille","lat":43.29932,"lon":5.36544,"is_reserved":false,"is_disabled":false,"rental_uris":{"android":"levelo://app?vid=58030eb9-2d7e-4a71-b4e5-501808b2a9c2","ios":"levelo://app?vid=58030eb9-2d7e-4a71-b4e5-501808b2a9c2"},"vehicle_type_id":"4","last_reported":1699797933,"current_range_meters":30000,"station_id":"ce4bgm92rcd13ifvqbr0","pricing_plan_id":"free"},{"bike_id":"1113ef61-55f4-4dd4-af77-6ef1306514ab","system_id":"levelo_inurba_marseille","lat":43.299222,"lon":5.365554,"is_reserved":false,"is_disabled":false,"rental_uris":{"android":"levelo://app?vid=1113ef61-55f4-4dd4-af77-6ef1306514ab","ios":"levelo://app?vid=1113ef61-55f4-4dd4-af77-6ef1306514ab"},"vehicle_type_id":"4","last_reported":1699797933,"current_range_meters":0,"station_id":"ce4bgm92rcd13ifvqbr0","pricing_plan_id":"free"},{"bike_id":"363489c4-e53d-4c75-ac5e-a74140858b12","system_id":"levelo_inurba_marseille","lat":43.29931,"lon":5.36531,"is_reserved":false,"is_disabled":false,"rental_uris":{"android":"levelo://app?vid=363489c4-e53d-4c75-ac5e-a74140858b12","ios":"levelo://app?vid=363489c4-e53d-4c75-ac5e-a74140858b12"},"vehicle_type_id":"4","last_reported":1699797933,"current_range_meters":14400,"station_id":"ce4bgm92rcd13ifvqbr0","pricing_plan_id":"free"},{"bike_id":"fd11f487-e4cc-48c3-b97e-0c4b666dd3d8","system_id":"levelo_inurba_marseille","lat":43.299222,"lon":5.365554,"is_reserved":false,"is_disabled":false,"rental_uris":{"android":"levelo://app?vid=fd11f487-e4cc-48c3-b97e-0c4b666dd3d8","ios":"levelo://app?vid=fd11f487-e4cc-48c3-b97e-0c4b666dd3d8"},"vehicle_type_id":"4","last_reported":1699797933,"current_range_meters":25200,"station_id":"ce4bgm92rcd13ifvqbr0","pricing_plan_id":"free"},{"bike_id":"5b2a9e6c-76de-464c-8841-9ae1dd795e1d","system_id":"levelo_inurba_marseille","lat":43.305364,"lon":5.384119,"is_reserved":false,"is_disabled":false,"rental_uris":{"android":"levelo://app?vid=5b2a9e6c-76de-464c-8841-9ae1dd795e1d","ios":"levelo://app?vid=5b2a9e6c-76de-464c-8841-9ae1dd795e1d"},"vehicle_type_id":"4","last_reported":1699797933,"current_range_meters":7600,"station_id":"ce4bgg92rcd13ifvqb30","pricing_plan_id":"free"},{"bike_id":"1177bb52-cf5e-4449-af81-5174f8d897e1","system_id":"levelo_inurba_marseille","lat":43.29849,"lon":5.3629,"is_reserved":false,"is_disabled":false,"rental_uris":{"android":"levelo://app?vid=1177bb52-cf5e-4449-af81-5174f8d897e1","ios":"levelo://app?vid=1177bb52-cf5e-4449-af81-5174f8d897e1"},"vehicle_type_id":"4","last_reported":1699797933,"current_range_meters":16400,"station_id":"ce4bgpp2rcd13ifvqc3g","pricing_plan_id":"free"},{"bike_id":"7e40acbe-0e81-4ccf-861d-398596b7b5b4","system_id":"levelo_inurba_marseille","lat":43.298433,"lon":5.362774,"is_reserved":false,"is_disabled":false,"rental_uris":{"android":"levelo://app?vid=7e40acbe-0e81-4ccf-861d-398596b7b5b4","ios":"levelo://app?vid=7e40acbe-0e81-4ccf-861d-398596b7b5b4"},"vehicle_type_id":"4","last_reported":1699797933,"current_range_meters":26800,"station_id":"ce4bgpp2rcd13ifvqc3g","pricing_plan_id":"free"},{"bike_id":"7d23f709-af03-4cf8-a7b5-7fce70d762d3","system_id":"levelo_inurba_marseille","lat":43.298433,"lon":5.362774,"is_reserved":false,"is_disabled":false,"rental_uris":{"android":"levelo://app?vid=7d23f709-af03-4cf8-a7b5-7fce70d762d3","ios":"levelo://app?vid=7d23f709-af03-4cf8-a7b5-7fce70d762d3"},"vehicle_type_id":"4","last_reported":1699797933,"current_range_meters":29200,"station_id":"ce4bgpp2rcd13ifvqc3g","pricing_plan_id":"free"},{"bike_id":"8434b954-5e15-43ac-bc81-83f281205d14","system_id":"levelo_inurba_marseille","lat":43.298433,"lon":5.362774,"is_reserved":false,"is_disabled":false,"rental_uris":{"android":"levelo://app?vid=8434b954-5e15-43ac-bc81-83f281205d14","ios":"levelo://app?vid=8434b954-5e15-43ac-bc81-83f281205d14"},"vehicle_type_id":"4","last_reported":1699797933,"current_range_meters":30800,"station_id":"ce4bgpp2rcd13ifvqc3g","pricing_plan_id":"free"},{"bike_id":"1081bdec-33ab-4625-8332-bad41e28e543","system_id":"levelo_inurba_marseille","lat":43.298433,"lon":5.362774,"is_reserved":false,"is_disabled":false,"rental_uris":{"android":"levelo://app?vid=1081bdec-33ab-4625-8332-bad41e28e543","ios":"levelo://app?vid=1081bdec-33ab-4625-8332-bad41e28e543"},"vehicle_type_id":"4","last_reported":1699797933,"current_range_meters":16400,"station_id":"ce4bgpp2rcd13ifvqc3g","pricing_plan_id":"free"},{"bike_id":"a78d58df-2b22-402b-b076-e24049f42739","system_id":"levelo_inurba_marseille","lat":43.298433,"lon":5.362774,"is_reserved":false,"is_disabled":false,"rental_uris":{"android":"levelo://app?vid=a78d58df-2b22-402b-b076-e24049f42739","ios":"levelo://app?vid=a78d58df-2b22-402b-b076-e24049f42739"},"vehicle_type_id":"4","last_reported":1699797933,"current_range_meters":26000,"station_id":"ce4bgpp2rcd13ifvqc3g","pricing_plan_id":"free"},{"bike_id":"fda3736b-c68a-4f1c-bb83-923779a8b07a","system_id":"levelo_inurba_marseille","lat":43.298433,"lon":5.362774,"is_reserved":false,"is_disabled":false,"rental_uris":{"android":"levelo://app?vid=fda3736b-c68a-4f1c-bb83-923779a8b07a","ios":"levelo://app?vid=fda3736b-c68a-4f1c-bb83-923779a8b07a"},"vehicle_type_id":"4","last_reported":1699797933,"current_range_meters":26000,"station_id":"ce4bgpp2rcd13ifvqc3g","pricing_plan_id":"free"},{"bike_id":"5904e8f7-0437-4fb1-ba83-8e15d2e834bf","system_id":"levelo_inurba_marseille","lat":43.299243,"lon":5.37481,"is_reserved":false,"is_disabled":false,"rental_uris":{"android":"levelo://app?vid=5904e8f7-0437-4fb1-ba83-8e15d2e834bf","ios":"levelo://app?vid=5904e8f7-0437-4fb1-ba83-8e15d2e834bf"},"vehicle_type_id":"4","last_reported":1699797933,"current_range_meters":8000,"station_id":"ce4bgjh2rcd13ifvqbg0","pricing_plan_id":"free"},{"bike_id":"8950f55a-e75d-4fac-9a7c-f529bc0580a5","system_id":"levelo_inurba_marseille","lat":43.320464,"lon":5.384144,"is_reserved":false,"is_disabled":false,"rental_uris":{"android":"levelo://app?vid=8950f55a-e75d-4fac-9a7c-f529bc0580a5","ios":"levelo://app?vid=8950f55a-e75d-4fac-9a7c-f529bc0580a5"},"vehicle_type_id":"4","last_reported":1699797933,"current_range_meters":9200,"station_id":"","pricing_plan_id":"free"},{"bike_id":"ebca31c6-6c73-44bd-bfa1-0fd76e01a4c8","system_id":"levelo_inurba_marseille","lat":43.29794,"lon":5.371,"is_reserved":false,"is_disabled":false,"rental_uris":{"android":"levelo://app?vid=ebca31c6-6c73-44bd-bfa1-0fd76e01a4c8","ios":"levelo://app?vid=ebca31c6-6c73-44bd-bfa1-0fd76e01a4c8"},"vehicle_type_id":"4","last_reported":1699797933,"current_range_meters":8000,"station_id":"ce4bgop2rcd13ifvqc1g","pricing_plan_id":"free"},{"bike_id":"f11e5f8f-1e95-452d-bf1d-fb6a3e7945bd","system_id":"levelo_inurba_marseille","lat":43.322872,"lon":5.382756,"is_reserved":false,"is_disabled":false,"rental_uris":{"android":"levelo://app?vid=f11e5f8f-1e95-452d-bf1d-fb6a3e7945bd","ios":"levelo://app?vid=f11e5f8f-1e95-452d-bf1d-fb6a3e7945bd"},"vehicle_type_id":"4","last_reported":1699797933,"current_range_meters":22800,"station_id":"ce4bhr12rcd13ifvqhqg","pricing_plan_id":"free"},{"bike_id":"bbe45556-d934-4c3e-b882-01180f5e36c1","system_id":"levelo_inurba_marseille","lat":43.29689,"lon":5.37284,"is_reserved":false,"is_disabled":false,"rental_uris":{"android":"levelo://app?vid=bbe45556-d934-4c3e-b882-01180f5e36c1","ios":"levelo://app?vid=bbe45556-d934-4c3e-b882-01180f5e36c1"},"vehicle_type_id":"4","last_reported":1699797933,"current_range_meters":7600,"station_id":"ce4bgk12rcd13ifvqbj0","pricing_plan_id":"free"},{"bike_id":"f0812d0f-256a-478f-9681-2e0e9d074993","system_id":"levelo_inurba_marseille","lat":43.29602,"lon":5.36805,"is_reserved":false,"is_disabled":false,"rental_uris":{"android":"levelo://app?vid=f0812d0f-256a-478f-9681-2e0e9d074993","ios":"levelo://app?vid=f0812d0f-256a-478f-9681-2e0e9d074993"},"vehicle_type_id":"4","last_reported":1699797933,"current_range_meters":27600,"station_id":"","pricing_plan_id":"free"},{"bike_id":"d447991a-59b4-4778-a190-7d2b0920a414","system_id":"levelo_inurba_marseille","lat":43.32215,"lon":5.38613,"is_reserved":false,"is_disabled":false,"rental_uris":{"android":"levelo://app?vid=d447991a-59b4-4778-a190-7d2b0920a414","ios":"levelo://app?vid=d447991a-59b4-4778-a190-7d2b0920a414"},"vehicle_type_id":"4","last_reported":1699797933,"current_range_meters":16800,"station_id":"","pricing_plan_id":"free"},{"bike_id":"408e1bba-ac1b-479c-ad30-32026784c873","system_id":"levelo_inurba_marseille","lat":43.2966,"lon":5.37463,"is_reserved":false,"is_disabled":false,"rental_uris":{"android":"levelo://app?vid=408e1bba-ac1b-479c-ad30-32026784c873","ios":"levelo://app?vid=408e1bba-ac1b-479c-ad30-32026784c873"},"vehicle_type_id":"4","last_reported":1699797933,"current_range_meters":11600,"station_id":"","pricing_plan_id":"free"},{"bike_id":"53b998d2-a09a-478a-a918-f35ea2cc8b35","system_id":"levelo_inurba_marseille","lat":43.309589,"lon":5.390258,"is_reserved":false,"is_disabled":false,"rental_uris":{"android":"levelo://app?vid=53b998d2-a09a-478a-a918-f35ea2cc8b35","ios":"levelo://app?vid=53b998d2-a09a-478a-a918-f35ea2cc8b35"},"vehicle_type_id":"4","last_reported":1699797933,"current_range_meters":16400,"station_id":"ce4bgup2rcd13ifvqco0","pricing_plan_id":"free"},{"bike_id":"ada5e5dd-dfc9-40e6-bba3-ee5831d357ed","system_id":"levelo_inurba_marseille","lat":43.298683,"lon":5.380797,"is_reserved":false,"is_disabled":false,"rental_uris":{"android":"levelo://app?vid=ada5e5dd-dfc9-40e6-bba3-ee5831d357ed","ios":"levelo://app?vid=ada5e5dd-dfc9-40e6-bba3-ee5831d357ed"},"vehicle_type_id":"4","last_reported":1699797933,"current_range_meters":23600,"station_id":"","pricing_plan_id":"free"},{"bike_id":"feff7d8e-9456-4b4b-b917-4f91bb23e023","system_id":"levelo_inurba_marseille","lat":43.3175,"lon":5.39022,"is_reserved":false,"is_disabled":false,"rental_uris":{"android":"levelo://app?vid=feff7d8e-9456-4b4b-b917-4f91bb23e023","ios":"levelo://app?vid=feff7d8e-9456-4b4b-b917-4f91bb23e023"},"vehicle_type_id":"4","last_reported":1699797933,"current_range_meters":14800,"station_id":"","pricing_plan_id":"free"},{"bike_id":"0d7d5c5a-1936-45e5-90dc-01c25dfba17c","system_id":"levelo_inurba_marseille","lat":43.298055,"lon":5.381015,"is_reserved":false,"is_disabled":false,"rental_uris":{"android":"levelo://app?vid=0d7d5c5a-1936-45e5-90dc-01c25dfba17c","ios":"levelo://app?vid=0d7d5c5a-1936-45e5-90dc-01c25dfba17c"},"vehicle_type_id":"4","last_reported":1699797933,"current_range_meters":25600,"station_id":"ce4bgip2rcd13ifvqbb0","pricing_plan_id":"free"},{"bike_id":"f6ef0d55-60c8-412b-ba96-618db3ce48ab","system_id":"levelo_inurba_marseille","lat":43.295748,"lon":5.37522,"is_reserved":false,"is_disabled":false,"rental_uris":{"android":"levelo://app?vid=f6ef0d55-60c8-412b-ba96-618db3ce48ab","ios":"levelo://app?vid=f6ef0d55-60c8-412b-ba96-618db3ce48ab"},"vehicle_type_id":"4","last_reported":1699797933,"current_range_meters":25600,"station_id":"ce4bgh92rcd13ifvqb50","pricing_plan_id":"free"},{"bike_id":"2346aa0d-c3ac-4a8a-95e3-2d1ab46b6837","system_id":"levelo_inurba_marseille","lat":43.29528,"lon":5.37501,"is_reserved":false,"is_disabled":false,"rental_uris":{"android":"levelo://app?vid=2346aa0d-c3ac-4a8a-95e3-2d1ab46b6837","ios":"levelo://app?vid=2346aa0d-c3ac-4a8a-95e3-2d1ab46b6837"},"vehicle_type_id":"4","last_reported":1699797933,"current_range_meters":26800,"station_id":"ce4bgkp2rcd13ifvqbmg","pricing_plan_id":"free"},{"bike_id":"f22a71bf-7007-444c-979e-2d794b1210bf","system_id":"levelo_inurba_marseille","lat":43.29523,"lon":5.37494,"is_reserved":false,"is_disabled":false,"rental_uris":{"android":"levelo://app?vid=f22a71bf-7007-444c-979e-2d794b1210bf","ios":"levelo://app?vid=f22a71bf-7007-444c-979e-2d794b1210bf"},"vehicle_type_id":"4","last_reported":1699797933,"current_range_meters":15600,"station_id":"ce4bgkp2rcd13ifvqbmg","pricing_plan_id":"free"},{"bike_id":"c936b250-0f0e-40b8-8932-5de6efe44c05","system_id":"levelo_inurba_marseille","lat":43.29601,"lon":5.381084,"is_reserved":false,"is_disabled":false,"rental_uris":{"android":"levelo://app?vid=c936b250-0f0e-40b8-8932-5de6efe44c05","ios":"levelo://app?vid=c936b250-0f0e-40b8-8932-5de6efe44c05"},"vehicle_type_id":"4","last_reported":1699797933,"current_range_meters":29200,"station_id":"ce4bgl12rcd13ifvqbo0","pricing_plan_id":"free"},{"bike_id":"49e8067e-912f-4962-ac26-e1bca92a8d4c","system_id":"levelo_inurba_marseille","lat":43.292749,"lon":5.368402,"is_reserved":false,"is_disabled":false,"rental_uris":{"android":"levelo://app?vid=49e8067e-912f-4962-ac26-e1bca92a8d4c","ios":"levelo://app?vid=49e8067e-912f-4962-ac26-e1bca92a8d4c"},"vehicle_type_id":"4","last_reported":1699797933,"current_range_meters":13200,"station_id":"ce4bhbp2rcd13ifvqesg","pricing_plan_id":"free"},{"bike_id":"1f2edeec-835f-4188-b75a-b19c37bb1dac","system_id":"levelo_inurba_marseille","lat":43.30109,"lon":5.3894,"is_reserved":false,"is_disabled":false,"rental_uris":{"android":"levelo://app?vid=1f2edeec-835f-4188-b75a-b19c37bb1dac","ios":"levelo://app?vid=1f2edeec-835f-4188-b75a-b19c37bb1dac"},"vehicle_type_id":"4","last_reported":1699797933,"current_range_meters":1200,"station_id":"","pricing_plan_id":"free"},{"bike_id":"6c96b111-b283-43a6-8915-87bdee540c34","system_id":"levelo_inurba_marseille","lat":43.305994,"lon":5.393687,"is_reserved":false,"is_disabled":false,"rental_uris":{"android":"levelo://app?vid=6c96b111-b283-43a6-8915-87bdee540c34","ios":"levelo://app?vid=6c96b111-b283-43a6-8915-87bdee540c34"},"vehicle_type_id":"4","last_reported":1699797933,"current_range_meters":22400,"station_id":"ce4bh0p2rcd13ifvqd80","pricing_plan_id":"free"},{"bike_id":"b092e8ef-912e-4cdd-bb89-3b598bab9b41","system_id":"levelo_inurba_marseille","lat":43.298764,"lon":5.388973,"is_reserved":false,"is_disabled":false,"rental_uris":{"android":"levelo://app?vid=b092e8ef-912e-4cdd-bb89-3b598bab9b41","ios":"levelo://app?vid=b092e8ef-912e-4cdd-bb89-3b598bab9b41"},"vehicle_type_id":"4","last_reported":1699797933,"current_range_meters":11200,"station_id":"ce4bh392rcd13ifvqdl0","pricing_plan_id":"free"},{"bike_id":"8f14101b-9b35-4bb5-ba23-729fed1c7948","system_id":"levelo_inurba_marseille","lat":43.291675,"lon":5.371583,"is_reserved":false,"is_disabled":false,"rental_uris":{"android":"levelo://app?vid=8f14101b-9b35-4bb5-ba23-729fed1c7948","ios":"levelo://app?vid=8f14101b-9b35-4bb5-ba23-729fed1c7948"},"vehicle_type_id":"4","last_reported":1699797933,"current_range_meters":19200,"station_id":"ce4bha92rcd13ifvqeh0","pricing_plan_id":"free"},{"bike_id":"439ed794-dc79-4666-a9b8-1796a393bb71","system_id":"levelo_inurba_marseille","lat":43.33363,"lon":5.37452,"is_reserved":false,"is_disabled":false,"rental_uris":{"android":"levelo://app?vid=439ed794-dc79-4666-a9b8-1796a393bb71","ios":"levelo://app?vid=439ed794-dc79-4666-a9b8-1796a393bb71"},"vehicle_type_id":"4","last_reported":1699797933,"current_range_meters":28000,"station_id":"","pricing_plan_id":"free"},{"bike_id":"46c6d671-9e8c-46cd-8a2f-da3c543e7b52","system_id":"levelo_inurba_marseille","lat":43.29147,"lon":5.35903,"is_reserved":false,"is_disabled":false,"rental_uris":{"android":"levelo://app?vid=46c6d671-9e8c-46cd-8a2f-da3c543e7b52","ios":"levelo://app?vid=46c6d671-9e8c-46cd-8a2f-da3c543e7b52"},"vehicle_type_id":"4","last_reported":1699797933,"current_range_meters":10000,"station_id":"ce4bh512rcd13ifvqe2g","pricing_plan_id":"free"},{"bike_id":"394f13b3-5ada-4e87-9607-0e6be6dc3afe","system_id":"levelo_inurba_marseille","lat":43.28937,"lon":5.36388,"is_reserved":false,"is_disabled":false,"rental_uris":{"android":"levelo://app?vid=394f13b3-5ada-4e87-9607-0e6be6dc3afe","ios":"levelo://app?vid=394f13b3-5ada-4e87-9607-0e6be6dc3afe"},"vehicle_type_id":"4","last_reported":1699797933,"current_range_meters":9200,"station_id":"ce4bhc92rcd13ifvqetg","pricing_plan_id":"free"},{"bike_id":"2557fcb5-1e3c-4753-88b1-187d909472b1","system_id":"levelo_inurba_marseille","lat":43.28931,"lon":5.36391,"is_reserved":false,"is_disabled":false,"rental_uris":{"android":"levelo://app?vid=2557fcb5-1e3c-4753-88b1-187d909472b1","ios":"levelo://app?vid=2557fcb5-1e3c-4753-88b1-187d909472b1"},"vehicle_type_id":"4","last_reported":1699797933,"current_range_meters":22000,"station_id":"ce4bhc92rcd13ifvqetg","pricing_plan_id":"free"},{"bike_id":"e3b84968-ec56-40ab-8ff3-cd544a0149fb","system_id":"levelo_inurba_marseille","lat":43.29254,"lon":5.384425,"is_reserved":false,"is_disabled":false,"rental_uris":{"android":"levelo://app?vid=e3b84968-ec56-40ab-8ff3-cd544a0149fb","ios":"levelo://app?vid=e3b84968-ec56-40ab-8ff3-cd544a0149fb"},"vehicle_type_id":"4","last_reported":1699797933,"current_range_meters":14800,"station_id":"ce4bh692rcd13ifvqea0","pricing_plan_id":"free"},{"bike_id":"7a1356b5-2437-4bfa-bb34-cf55b7f00bb1","system_id":"levelo_inurba_marseille","lat":43.330442,"lon":5.389148,"is_reserved":false,"is_disabled":false,"rental_uris":{"android":"levelo://app?vid=7a1356b5-2437-4bfa-bb34-cf55b7f00bb1","ios":"levelo://app?vid=7a1356b5-2437-4bfa-bb34-cf55b7f00bb1"},"vehicle_type_id":"4","last_reported":1699797933,"current_range_meters":10400,"station_id":"ce4bhr92rcd13ifvqhrg","pricing_plan_id":"free"},{"bike_id":"20fba2ea-cd75-4506-b28d-4c83182826bd","system_id":"levelo_inurba_marseille","lat":43.290104,"lon":5.356111,"is_reserved":false,"is_disabled":false,"rental_uris":{"android":"levelo://app?vid=20fba2ea-cd75-4506-b28d-4c83182826bd","ios":"levelo://app?vid=20fba2ea-cd75-4506-b28d-4c83182826bd"},"vehicle_type_id":"4","last_reported":1699797933,"current_range_meters":0,"station_id":"ce4bhb92rcd13ifvqen0","pricing_plan_id":"free"},{"bike_id":"299d6d9d-60c6-41ad-a869-07dcf27daddd","system_id":"levelo_inurba_marseille","lat":43.290103,"lon":5.356114,"is_reserved":false,"is_disabled":false,"rental_uris":{"android":"levelo://app?vid=299d6d9d-60c6-41ad-a869-07dcf27daddd","ios":"levelo://app?vid=299d6d9d-60c6-41ad-a869-07dcf27daddd"},"vehicle_type_id":"4","last_reported":1699797933,"current_range_meters":26000,"station_id":"ce4bhb92rcd13ifvqen0","pricing_plan_id":"free"},{"bike_id":"438396fb-5ae8-47c0-b271-a83f56201897","system_id":"levelo_inurba_marseille","lat":43.290995,"lon":5.381361,"is_reserved":false,"is_disabled":false,"rental_uris":{"android":"levelo://app?vid=438396fb-5ae8-47c0-b271-a83f56201897","ios":"levelo://app?vid=438396fb-5ae8-47c0-b271-a83f56201897"},"vehicle_type_id":"4","last_reported":1699797933,"current_range_meters":26000,"station_id":"ce4bh512rcd13ifvqe2g","pricing_plan_id":"free"},{"bike_id":"149382a0-f64d-4a78-8cfc-fe727aed529f","system_id":"levelo_inurba_marseille","lat":43.290995,"lon":5.381361,"is_reserved":false,"is_disabled":false,"rental_uris":{"android":"levelo://app?vid=149382a0-f64d-4a78-8cfc-fe727aed529f","ios":"levelo://app?vid=149382a0-f64d-4a78-8cfc-fe727aed529f"},"vehicle_type_id":"4","last_reported":1699797933,"current_range_meters":2400,"station_id":"ce4bh512rcd13ifvqe2g","pricing_plan_id":"free"},{"bike_id":"08e7264d-bb57-46bc-9d65-0e12d3127f57","system_id":"levelo_inurba_marseille","lat":43.2902,"lon":5.37927,"is_reserved":false,"is_disabled":false,"rental_uris":{"android":"levelo://app?vid=08e7264d-bb57-46bc-9d65-0e12d3127f57","ios":"levelo://app?vid=08e7264d-bb57-46bc-9d65-0e12d3127f57"},"vehicle_type_id":"4","last_reported":1699797933,"current_range_meters":1200,"station_id":"","pricing_plan_id":"free"},{"bike_id":"a14f52ba-a83e-4db2-b2f8-46455d96d83e","system_id":"levelo_inurba_marseille","lat":43.29029,"lon":5.38134,"is_reserved":false,"is_disabled":false,"rental_uris":{"android":"levelo://app?vid=a14f52ba-a83e-4db2-b2f8-46455d96d83e","ios":"levelo://app?vid=a14f52ba-a83e-4db2-b2f8-46455d96d83e"},"vehicle_type_id":"4","last_reported":1699797933,"current_range_meters":400,"station_id":"ce4bh4p2rcd13ifvqe1g","pricing_plan_id":"free"},{"bike_id":"9aaa0562-cd61-4815-a446-a05acc917295","system_id":"levelo_inurba_marseille","lat":43.290094,"lon":5.381264,"is_reserved":false,"is_disabled":false,"rental_uris":{"android":"levelo://app?vid=9aaa0562-cd61-4815-a446-a05acc917295","ios":"levelo://app?vid=9aaa0562-cd61-4815-a446-a05acc917295"},"vehicle_type_id":"4","last_reported":1699797933,"current_range_meters":0,"station_id":"ce4bh4p2rcd13ifvqe1g","pricing_plan_id":"free"},{"bike_id":"f593d439-39bd-4ae5-ada4-204deb8ea62a","system_id":"levelo_inurba_marseille","lat":43.312609,"lon":5.401662,"is_reserved":false,"is_disabled":false,"rental_uris":{"android":"levelo://app?vid=f593d439-39bd-4ae5-ada4-204deb8ea62a","ios":"levelo://app?vid=f593d439-39bd-4ae5-ada4-204deb8ea62a"},"vehicle_type_id":"4","last_reported":1699797933,"current_range_meters":7600,"station_id":"ce4bh092rcd13ifvqd30","pricing_plan_id":"free"},{"bike_id":"924b7e2e-8172-4af0-be30-9476b336c367","system_id":"levelo_inurba_marseille","lat":43.33764,"lon":5.3744,"is_reserved":false,"is_disabled":false,"rental_uris":{"android":"levelo://app?vid=924b7e2e-8172-4af0-be30-9476b336c367","ios":"levelo://app?vid=924b7e2e-8172-4af0-be30-9476b336c367"},"vehicle_type_id":"4","last_reported":1699797933,"current_range_meters":30000,"station_id":"","pricing_plan_id":"free"},{"bike_id":"de86e3d1-a596-40c7-ba28-8077c5a08266","system_id":"levelo_inurba_marseille","lat":43.337647,"lon":5.374743,"is_reserved":false,"is_disabled":false,"rental_uris":{"android":"levelo://app?vid=de86e3d1-a596-40c7-ba28-8077c5a08266","ios":"levelo://app?vid=de86e3d1-a596-40c7-ba28-8077c5a08266"},"vehicle_type_id":"4","last_reported":1699797933,"current_range_meters":28800,"station_id":"","pricing_plan_id":"free"},{"bike_id":"743f3bc5-43c9-45a3-8965-b67b169c6c30","system_id":"levelo_inurba_marseille","lat":43.30513,"lon":5.40077,"is_reserved":false,"is_disabled":false,"rental_uris":{"android":"levelo://app?vid=743f3bc5-43c9-45a3-8965-b67b169c6c30","ios":"levelo://app?vid=743f3bc5-43c9-45a3-8965-b67b169c6c30"},"vehicle_type_id":"4","last_reported":1699797933,"current_range_meters":7200,"station_id":"","pricing_plan_id":"free"},{"bike_id":"1d426186-77aa-48d4-80cb-5956fea08707","system_id":"levelo_inurba_marseille","lat":43.28727,"lon":5.36078,"is_reserved":false,"is_disabled":false,"rental_uris":{"android":"levelo://app?vid=1d426186-77aa-48d4-80cb-5956fea08707","ios":"levelo://app?vid=1d426186-77aa-48d4-80cb-5956fea08707"},"vehicle_type_id":"4","last_reported":1699797933,"current_range_meters":29600,"station_id":"cki0cbj6b192h4jlfktg","pricing_plan_id":"free"},{"bike_id":"0328d7ab-84ae-47a3-9941-4924ebcbbb01","system_id":"levelo_inurba_marseille","lat":43.28727,"lon":5.36078,"is_reserved":false,"is_disabled":false,"rental_uris":{"android":"levelo://app?vid=0328d7ab-84ae-47a3-9941-4924ebcbbb01","ios":"levelo://app?vid=0328d7ab-84ae-47a3-9941-4924ebcbbb01"},"vehicle_type_id":"4","last_reported":1699797933,"current_range_meters":28000,"station_id":"cki0cbj6b192h4jlfktg","pricing_plan_id":"free"},{"bike_id":"59c27e19-9438-4ed2-ac4d-6ec85c3b38bd","system_id":"levelo_inurba_marseille","lat":43.286961,"lon":5.373785,"is_reserved":false,"is_disabled":false,"rental_uris":{"android":"levelo://app?vid=59c27e19-9438-4ed2-ac4d-6ec85c3b38bd","ios":"levelo://app?vid=59c27e19-9438-4ed2-ac4d-6ec85c3b38bd"},"vehicle_type_id":"4","last_reported":1699797933,"current_range_meters":6400,"station_id":"ce4bh3p2rcd13ifvqdq0","pricing_plan_id":"free"},{"bike_id":"ceac0512-741b-47a8-a5e8-d55f98f5c9c7","system_id":"levelo_inurba_marseille","lat":43.286039,"lon":5.370679,"is_reserved":false,"is_disabled":false,"rental_uris":{"android":"levelo://app?vid=ceac0512-741b-47a8-a5e8-d55f98f5c9c7","ios":"levelo://app?vid=ceac0512-741b-47a8-a5e8-d55f98f5c9c7"},"vehicle_type_id":"4","last_reported":1699797933,"current_range_meters":29200,"station_id":"ce4bht12rcd13ifvqi60","pricing_plan_id":"free"},{"bike_id":"c65df07e-440c-475c-9698-cea47bd854af","system_id":"levelo_inurba_marseille","lat":43.29255,"lon":5.39168,"is_reserved":false,"is_disabled":false,"rental_uris":{"android":"levelo://app?vid=c65df07e-440c-475c-9698-cea47bd854af","ios":"levelo://app?vid=c65df07e-440c-475c-9698-cea47bd854af"},"vehicle_type_id":"4","last_reported":1699797933,"current_range_meters":22400,"station_id":"","pricing_plan_id":"free"},{"bike_id":"e57449c2-d088-47cf-8bf2-271593713c89","system_id":"levelo_inurba_marseille","lat":43.328576,"lon":5.398841,"is_reserved":false,"is_disabled":false,"rental_uris":{"android":"levelo://app?vid=e57449c2-d088-47cf-8bf2-271593713c89","ios":"levelo://app?vid=e57449c2-d088-47cf-8bf2-271593713c89"},"vehicle_type_id":"4","last_reported":1699797933,"current_range_meters":4400,"station_id":"","pricing_plan_id":"free"},{"bike_id":"95b1b141-52b9-4740-9560-eafb1b0bceab","system_id":"levelo_inurba_marseille","lat":43.284534,"lon":5.358662,"is_reserved":false,"is_disabled":false,"rental_uris":{"android":"levelo://app?vid=95b1b141-52b9-4740-9560-eafb1b0bceab","ios":"levelo://app?vid=95b1b141-52b9-4740-9560-eafb1b0bceab"},"vehicle_type_id":"4","last_reported":1699797933,"current_range_meters":30800,"station_id":"ce4bhah2rcd13ifvqei0","pricing_plan_id":"free"},{"bike_id":"d0f096f6-3463-4f93-a9fa-43f205014d00","system_id":"levelo_inurba_marseille","lat":43.284534,"lon":5.358662,"is_reserved":false,"is_disabled":false,"rental_uris":{"android":"levelo://app?vid=d0f096f6-3463-4f93-a9fa-43f205014d00","ios":"levelo://app?vid=d0f096f6-3463-4f93-a9fa-43f205014d00"},"vehicle_type_id":"4","last_reported":1699797933,"current_range_meters":400,"station_id":"ce4bhah2rcd13ifvqei0","pricing_plan_id":"free"},{"bike_id":"f9f0640d-7a6f-4830-a514-d7c1685a8fb2","system_id":"levelo_inurba_marseille","lat":43.284534,"lon":5.358662,"is_reserved":false,"is_disabled":false,"rental_uris":{"android":"levelo://app?vid=f9f0640d-7a6f-4830-a514-d7c1685a8fb2","ios":"levelo://app?vid=f9f0640d-7a6f-4830-a514-d7c1685a8fb2"},"vehicle_type_id":"4","last_reported":1699797933,"current_range_meters":12400,"station_id":"ce4bhah2rcd13ifvqei0","pricing_plan_id":"free"},{"bike_id":"81f4bfe8-8ec9-4853-bc41-943008f9edf8","system_id":"levelo_inurba_marseille","lat":43.295713,"lon":5.399639,"is_reserved":false,"is_disabled":false,"rental_uris":{"android":"levelo://app?vid=81f4bfe8-8ec9-4853-bc41-943008f9edf8","ios":"levelo://app?vid=81f4bfe8-8ec9-4853-bc41-943008f9edf8"},"vehicle_type_id":"4","last_reported":1699797933,"current_range_meters":6000,"station_id":"ce4bh312rcd13ifvqdj0","pricing_plan_id":"free"},{"bike_id":"01cc1768-d562-4507-a1d3-616ede01fa21","system_id":"levelo_inurba_marseille","lat":43.295713,"lon":5.399639,"is_reserved":false,"is_disabled":false,"rental_uris":{"android":"levelo://app?vid=01cc1768-d562-4507-a1d3-616ede01fa21","ios":"levelo://app?vid=01cc1768-d562-4507-a1d3-616ede01fa21"},"vehicle_type_id":"4","last_reported":1699797933,"current_range_meters":25200,"station_id":"ce4bh312rcd13ifvqdj0","pricing_plan_id":"free"},{"bike_id":"030625bd-f8ba-4389-9944-df2973894a22","system_id":"levelo_inurba_marseille","lat":43.325731,"lon":5.404186,"is_reserved":false,"is_disabled":false,"rental_uris":{"android":"levelo://app?vid=030625bd-f8ba-4389-9944-df2973894a22","ios":"levelo://app?vid=030625bd-f8ba-4389-9944-df2973894a22"},"vehicle_type_id":"4","last_reported":1699797933,"current_range_meters":0,"station_id":"","pricing_plan_id":"free"},{"bike_id":"63708a39-f505-4dc4-8082-b44430814c70","system_id":"levelo_inurba_marseille","lat":43.297946,"lon":5.404063,"is_reserved":false,"is_disabled":false,"rental_uris":{"android":"levelo://app?vid=63708a39-f505-4dc4-8082-b44430814c70","ios":"levelo://app?vid=63708a39-f505-4dc4-8082-b44430814c70"},"vehicle_type_id":"4","last_reported":1699797933,"current_range_meters":27200,"station_id":"ce4bh112rcd13ifvqd90","pricing_plan_id":"free"},{"bike_id":"9a8f5265-76a4-4ace-a409-29bba235b457","system_id":"levelo_inurba_marseille","lat":43.297946,"lon":5.404063,"is_reserved":false,"is_disabled":false,"rental_uris":{"android":"levelo://app?vid=9a8f5265-76a4-4ace-a409-29bba235b457","ios":"levelo://app?vid=9a8f5265-76a4-4ace-a409-29bba235b457"},"vehicle_type_id":"4","last_reported":1699797933,"current_range_meters":2800,"station_id":"ce4bh112rcd13ifvqd90","pricing_plan_id":"free"},{"bike_id":"032984a4-4a65-41d2-b36a-7665a113deb4","system_id":"levelo_inurba_marseille","lat":43.288501,"lon":5.393087,"is_reserved":false,"is_disabled":false,"rental_uris":{"android":"levelo://app?vid=032984a4-4a65-41d2-b36a-7665a113deb4","ios":"levelo://app?vid=032984a4-4a65-41d2-b36a-7665a113deb4"},"vehicle_type_id":"4","last_reported":1699797933,"current_range_meters":28000,"station_id":"ce4bh2p2rcd13ifvqdi0","pricing_plan_id":"free"},{"bike_id":"c185ceb1-9446-48c6-858a-4a76f611e319","system_id":"levelo_inurba_marseille","lat":43.284219,"lon":5.3497,"is_reserved":false,"is_disabled":false,"rental_uris":{"android":"levelo://app?vid=c185ceb1-9446-48c6-858a-4a76f611e319","ios":"levelo://app?vid=c185ceb1-9446-48c6-858a-4a76f611e319"},"vehicle_type_id":"4","last_reported":1699797933,"current_range_meters":12400,"station_id":"ce4bhbh2rcd13ifvqepg","pricing_plan_id":"free"},{"bike_id":"694cc18d-6823-481a-9d09-67d990c2d197","system_id":"levelo_inurba_marseille","lat":43.324289,"lon":5.407562,"is_reserved":false,"is_disabled":false,"rental_uris":{"android":"levelo://app?vid=694cc18d-6823-481a-9d09-67d990c2d197","ios":"levelo://app?vid=694cc18d-6823-481a-9d09-67d990c2d197"},"vehicle_type_id":"4","last_reported":1699797933,"current_range_meters":0,"station_id":"","pricing_plan_id":"free"},{"bike_id":"c28a02dc-cd86-4bf2-8514-ca5d04b568aa","system_id":"levelo_inurba_marseille","lat":43.282744,"lon":5.350533,"is_reserved":false,"is_disabled":false,"rental_uris":{"android":"levelo://app?vid=c28a02dc-cd86-4bf2-8514-ca5d04b568aa","ios":"levelo://app?vid=c28a02dc-cd86-4bf2-8514-ca5d04b568aa"},"vehicle_type_id":"4","last_reported":1699797933,"current_range_meters":2400,"station_id":"ce4bhbp2rcd13ifvqerg","pricing_plan_id":"free"},{"bike_id":"7dc67aa7-7cc0-4428-b8a7-af6e5d062c38","system_id":"levelo_inurba_marseille","lat":43.282754,"lon":5.350519,"is_reserved":false,"is_disabled":false,"rental_uris":{"android":"levelo://app?vid=7dc67aa7-7cc0-4428-b8a7-af6e5d062c38","ios":"levelo://app?vid=7dc67aa7-7cc0-4428-b8a7-af6e5d062c38"},"vehicle_type_id":"4","last_reported":1699797933,"current_range_meters":21600,"station_id":"ce4bhbp2rcd13ifvqerg","pricing_plan_id":"free"},{"bike_id":"8bcfec80-8248-4ae2-895f-42bd8e40d25b","system_id":"levelo_inurba_marseille","lat":43.282744,"lon":5.350533,"is_reserved":false,"is_disabled":false,"rental_uris":{"android":"levelo://app?vid=8bcfec80-8248-4ae2-895f-42bd8e40d25b","ios":"levelo://app?vid=8bcfec80-8248-4ae2-895f-42bd8e40d25b"},"vehicle_type_id":"4","last_reported":1699797933,"current_range_meters":13600,"station_id":"ce4bhbp2rcd13ifvqerg","pricing_plan_id":"free"},{"bike_id":"14673a70-e403-49c4-a43a-a6775e5ad678","system_id":"levelo_inurba_marseille","lat":43.282744,"lon":5.350533,"is_reserved":false,"is_disabled":false,"rental_uris":{"android":"levelo://app?vid=14673a70-e403-49c4-a43a-a6775e5ad678","ios":"levelo://app?vid=14673a70-e403-49c4-a43a-a6775e5ad678"},"vehicle_type_id":"4","last_reported":1699797933,"current_range_meters":400,"station_id":"ce4bhbp2rcd13ifvqerg","pricing_plan_id":"free"},{"bike_id":"b286937a-de93-4fde-86be-61573402362f","system_id":"levelo_inurba_marseille","lat":43.282744,"lon":5.350533,"is_reserved":false,"is_disabled":false,"rental_uris":{"android":"levelo://app?vid=b286937a-de93-4fde-86be-61573402362f","ios":"levelo://app?vid=b286937a-de93-4fde-86be-61573402362f"},"vehicle_type_id":"4","last_reported":1699797933,"current_range_meters":14800,"station_id":"ce4bhbp2rcd13ifvqerg","pricing_plan_id":"free"},{"bike_id":"a6a1a2aa-b0aa-4ce6-b86c-633691fdc5a1","system_id":"levelo_inurba_marseille","lat":43.28047,"lon":5.36944,"is_reserved":false,"is_disabled":false,"rental_uris":{"android":"levelo://app?vid=a6a1a2aa-b0aa-4ce6-b86c-633691fdc5a1","ios":"levelo://app?vid=a6a1a2aa-b0aa-4ce6-b86c-633691fdc5a1"},"vehicle_type_id":"4","last_reported":1699797933,"current_range_meters":16800,"station_id":"ce4bha12rcd13ifvqef0","pricing_plan_id":"free"},{"bike_id":"0de9d14a-8792-453f-b9aa-c8dfdbf446cc","system_id":"levelo_inurba_marseille","lat":43.282754,"lon":5.350519,"is_reserved":false,"is_disabled":false,"rental_uris":{"android":"levelo://app?vid=0de9d14a-8792-453f-b9aa-c8dfdbf446cc","ios":"levelo://app?vid=0de9d14a-8792-453f-b9aa-c8dfdbf446cc"},"vehicle_type_id":"4","last_reported":1699797933,"current_range_meters":9600,"station_id":"ce4bhbp2rcd13ifvqerg","pricing_plan_id":"free"},{"bike_id":"87b80e64-6533-474f-819e-491dc69bc819","system_id":"levelo_inurba_marseille","lat":43.283502,"lon":5.386471,"is_reserved":false,"is_disabled":false,"rental_uris":{"android":"levelo://app?vid=87b80e64-6533-474f-819e-491dc69bc819","ios":"levelo://app?vid=87b80e64-6533-474f-819e-491dc69bc819"},"vehicle_type_id":"4","last_reported":1699797933,"current_range_meters":26000,"station_id":"ce4bh492rcd13ifvqdvg","pricing_plan_id":"free"},{"bike_id":"3e7a424f-7a9c-4abb-9809-b22b7112b800","system_id":"levelo_inurba_marseille","lat":43.28039,"lon":5.369297,"is_reserved":false,"is_disabled":false,"rental_uris":{"android":"levelo://app?vid=3e7a424f-7a9c-4abb-9809-b22b7112b800","ios":"levelo://app?vid=3e7a424f-7a9c-4abb-9809-b22b7112b800"},"vehicle_type_id":"4","last_reported":1699797933,"current_range_meters":16400,"station_id":"ce4bha12rcd13ifvqef0","pricing_plan_id":"free"},{"bike_id":"8d48f862-b137-4546-8163-2699a2a4caab","system_id":"levelo_inurba_marseille","lat":43.28039,"lon":5.369297,"is_reserved":false,"is_disabled":false,"rental_uris":{"android":"levelo://app?vid=8d48f862-b137-4546-8163-2699a2a4caab","ios":"levelo://app?vid=8d48f862-b137-4546-8163-2699a2a4caab"},"vehicle_type_id":"4","last_reported":1699797933,"current_range_meters":12000,"station_id":"ce4bha12rcd13ifvqef0","pricing_plan_id":"free"},{"bike_id":"c5269fde-c094-4163-a2ac-a6350e774e3c","system_id":"levelo_inurba_marseille","lat":43.323447,"lon":5.41003,"is_reserved":false,"is_disabled":false,"rental_uris":{"android":"levelo://app?vid=c5269fde-c094-4163-a2ac-a6350e774e3c","ios":"levelo://app?vid=c5269fde-c094-4163-a2ac-a6350e774e3c"},"vehicle_type_id":"4","last_reported":1699797933,"current_range_meters":1600,"station_id":"","pricing_plan_id":"free"},{"bike_id":"83097e10-09df-4d10-9a3d-50fe14c48ffc","system_id":"levelo_inurba_marseille","lat":43.28575,"lon":5.39498,"is_reserved":false,"is_disabled":false,"rental_uris":{"android":"levelo://app?vid=83097e10-09df-4d10-9a3d-50fe14c48ffc","ios":"levelo://app?vid=83097e10-09df-4d10-9a3d-50fe14c48ffc"},"vehicle_type_id":"4","last_reported":1699797933,"current_range_meters":24000,"station_id":"ce4bh292rcd13ifvqdg0","pricing_plan_id":"free"},{"bike_id":"18a74fa6-b244-4f73-90a0-9b3f88861472","system_id":"levelo_inurba_marseille","lat":43.279087,"lon":5.380114,"is_reserved":false,"is_disabled":false,"rental_uris":{"android":"levelo://app?vid=18a74fa6-b244-4f73-90a0-9b3f88861472","ios":"levelo://app?vid=18a74fa6-b244-4f73-90a0-9b3f88861472"},"vehicle_type_id":"4","last_reported":1699797933,"current_range_meters":24400,"station_id":"ce4bhf92rcd13ifvqf50","pricing_plan_id":"free"},{"bike_id":"14422b72-74c1-405d-8cf8-a78ddf532be2","system_id":"levelo_inurba_marseille","lat":43.27898,"lon":5.38017,"is_reserved":false,"is_disabled":false,"rental_uris":{"android":"levelo://app?vid=14422b72-74c1-405d-8cf8-a78ddf532be2","ios":"levelo://app?vid=14422b72-74c1-405d-8cf8-a78ddf532be2"},"vehicle_type_id":"4","last_reported":1699797933,"current_range_meters":24800,"station_id":"ce4bhf92rcd13ifvqf50","pricing_plan_id":"free"},{"bike_id":"3e1ca546-7ad0-4c7b-8893-ee9928c6f92c","system_id":"levelo_inurba_marseille","lat":43.278951,"lon":5.380043,"is_reserved":false,"is_disabled":false,"rental_uris":{"android":"levelo://app?vid=3e1ca546-7ad0-4c7b-8893-ee9928c6f92c","ios":"levelo://app?vid=3e1ca546-7ad0-4c7b-8893-ee9928c6f92c"},"vehicle_type_id":"4","last_reported":1699797933,"current_range_meters":14800,"station_id":"ce4bhf92rcd13ifvqf50","pricing_plan_id":"free"},{"bike_id":"feca28d2-7019-4e39-96be-d7938cc29597","system_id":"levelo_inurba_marseille","lat":43.32435,"lon":5.4137,"is_reserved":false,"is_disabled":false,"rental_uris":{"android":"levelo://app?vid=feca28d2-7019-4e39-96be-d7938cc29597","ios":"levelo://app?vid=feca28d2-7019-4e39-96be-d7938cc29597"},"vehicle_type_id":"4","last_reported":1699797933,"current_range_meters":17600,"station_id":"","pricing_plan_id":"free"},{"bike_id":"b9a076e3-4c60-48e2-8be7-38b70de165d2","system_id":"levelo_inurba_marseille","lat":43.320045,"lon":5.415046,"is_reserved":false,"is_disabled":false,"rental_uris":{"android":"levelo://app?vid=b9a076e3-4c60-48e2-8be7-38b70de165d2","ios":"levelo://app?vid=b9a076e3-4c60-48e2-8be7-38b70de165d2"},"vehicle_type_id":"4","last_reported":1699797933,"current_range_meters":25200,"station_id":"ce4bhq92rcd13ifvqhkg","pricing_plan_id":"free"},{"bike_id":"d3caf2f9-4220-4319-90dd-bba0322eb9c8","system_id":"levelo_inurba_marseille","lat":43.299577,"lon":5.413277,"is_reserved":false,"is_disabled":false,"rental_uris":{"android":"levelo://app?vid=d3caf2f9-4220-4319-90dd-bba0322eb9c8","ios":"levelo://app?vid=d3caf2f9-4220-4319-90dd-bba0322eb9c8"},"vehicle_type_id":"4","last_reported":1699797933,"current_range_meters":30800,"station_id":"ce4bhp12rcd13ifvqh9g","pricing_plan_id":"free"},{"bike_id":"fed9c799-7f53-43fb-947e-d7b392ceca56","system_id":"levelo_inurba_marseille","lat":43.3203,"lon":5.41572,"is_reserved":false,"is_disabled":false,"rental_uris":{"android":"levelo://app?vid=fed9c799-7f53-43fb-947e-d7b392ceca56","ios":"levelo://app?vid=fed9c799-7f53-43fb-947e-d7b392ceca56"},"vehicle_type_id":"4","last_reported":1699797933,"current_range_meters":0,"station_id":"ce4bhq92rcd13ifvqhkg","pricing_plan_id":"free"},{"bike_id":"96f6c943-07fa-4656-ad22-acc764b66c34","system_id":"levelo_inurba_marseille","lat":43.27618,"lon":5.361009,"is_reserved":false,"is_disabled":false,"rental_uris":{"android":"levelo://app?vid=96f6c943-07fa-4656-ad22-acc764b66c34","ios":"levelo://app?vid=96f6c943-07fa-4656-ad22-acc764b66c34"},"vehicle_type_id":"4","last_reported":1699797933,"current_range_meters":18800,"station_id":"ce4bgj92rcd13ifvqbe0","pricing_plan_id":"free"},{"bike_id":"8f1bd423-dffb-404c-9a8e-3816d7532f5c","system_id":"levelo_inurba_marseille","lat":43.280784,"lon":5.396622,"is_reserved":false,"is_disabled":false,"rental_uris":{"android":"levelo://app?vid=8f1bd423-dffb-404c-9a8e-3816d7532f5c","ios":"levelo://app?vid=8f1bd423-dffb-404c-9a8e-3816d7532f5c"},"vehicle_type_id":"4","last_reported":1699797933,"current_range_meters":13200,"station_id":"ce4bho12rcd13ifvqh2g","pricing_plan_id":"free"},{"bike_id":"89c200cf-551b-45ae-827e-648cf19eec71","system_id":"levelo_inurba_marseille","lat":43.273613,"lon":5.362705,"is_reserved":false,"is_disabled":false,"rental_uris":{"android":"levelo://app?vid=89c200cf-551b-45ae-827e-648cf19eec71","ios":"levelo://app?vid=89c200cf-551b-45ae-827e-648cf19eec71"},"vehicle_type_id":"4","last_reported":1699797933,"current_range_meters":31200,"station_id":"ce4bhbh2rcd13ifvqeo0","pricing_plan_id":"free"},{"bike_id":"b42d3608-9eec-4884-93f8-ce64160cad97","system_id":"levelo_inurba_marseille","lat":43.273613,"lon":5.362705,"is_reserved":false,"is_disabled":false,"rental_uris":{"android":"levelo://app?vid=b42d3608-9eec-4884-93f8-ce64160cad97","ios":"levelo://app?vid=b42d3608-9eec-4884-93f8-ce64160cad97"},"vehicle_type_id":"4","last_reported":1699797933,"current_range_meters":19600,"station_id":"ce4bhbh2rcd13ifvqeo0","pricing_plan_id":"free"},{"bike_id":"10c9d104-564a-49ab-a432-2030f4bfcced","system_id":"levelo_inurba_marseille","lat":43.273609,"lon":5.362708,"is_reserved":false,"is_disabled":false,"rental_uris":{"android":"levelo://app?vid=10c9d104-564a-49ab-a432-2030f4bfcced","ios":"levelo://app?vid=10c9d104-564a-49ab-a432-2030f4bfcced"},"vehicle_type_id":"4","last_reported":1699797933,"current_range_meters":27200,"station_id":"ce4bhbh2rcd13ifvqeo0","pricing_plan_id":"free"},{"bike_id":"eb84e454-42b8-4534-b80e-6ba2cfea2c99","system_id":"levelo_inurba_marseille","lat":43.273613,"lon":5.362705,"is_reserved":false,"is_disabled":false,"rental_uris":{"android":"levelo://app?vid=eb84e454-42b8-4534-b80e-6ba2cfea2c99","ios":"levelo://app?vid=eb84e454-42b8-4534-b80e-6ba2cfea2c99"},"vehicle_type_id":"4","last_reported":1699797933,"current_range_meters":31600,"station_id":"ce4bhbh2rcd13ifvqeo0","pricing_plan_id":"free"},{"bike_id":"2647f6cb-00dc-4268-b0e1-791855460efa","system_id":"levelo_inurba_marseille","lat":43.273707,"lon":5.362524,"is_reserved":false,"is_disabled":false,"rental_uris":{"android":"levelo://app?vid=2647f6cb-00dc-4268-b0e1-791855460efa","ios":"levelo://app?vid=2647f6cb-00dc-4268-b0e1-791855460efa"},"vehicle_type_id":"4","last_reported":1699797933,"current_range_meters":27600,"station_id":"ce4bhbh2rcd13ifvqeo0","pricing_plan_id":"free"},{"bike_id":"9caec048-a3aa-428b-9d1e-66ad6c2d8e58","system_id":"levelo_inurba_marseille","lat":43.341403,"lon":5.405569,"is_reserved":false,"is_disabled":false,"rental_uris":{"android":"levelo://app?vid=9caec048-a3aa-428b-9d1e-66ad6c2d8e58","ios":"levelo://app?vid=9caec048-a3aa-428b-9d1e-66ad6c2d8e58"},"vehicle_type_id":"4","last_reported":1699797933,"current_range_meters":20800,"station_id":"","pricing_plan_id":"free"},{"bike_id":"3c1d2216-dc25-4ca9-9467-a8aa53c1dc34","system_id":"levelo_inurba_marseille","lat":43.34122,"lon":5.40636,"is_reserved":false,"is_disabled":false,"rental_uris":{"android":"levelo://app?vid=3c1d2216-dc25-4ca9-9467-a8aa53c1dc34","ios":"levelo://app?vid=3c1d2216-dc25-4ca9-9467-a8aa53c1dc34"},"vehicle_type_id":"4","last_reported":1699797933,"current_range_meters":29600,"station_id":"","pricing_plan_id":"free"},{"bike_id":"33e66c4f-8ff9-4dae-ac14-558252b9cf28","system_id":"levelo_inurba_marseille","lat":43.279952,"lon":5.400085,"is_reserved":false,"is_disabled":false,"rental_uris":{"android":"levelo://app?vid=33e66c4f-8ff9-4dae-ac14-558252b9cf28","ios":"levelo://app?vid=33e66c4f-8ff9-4dae-ac14-558252b9cf28"},"vehicle_type_id":"4","last_reported":1699797933,"current_range_meters":12400,"station_id":"ce4bho92rcd13ifvqh4g","pricing_plan_id":"free"},{"bike_id":"8a86e441-18c6-4faf-a3a9-ee37cfa66e37","system_id":"levelo_inurba_marseille","lat":43.28002,"lon":5.40005,"is_reserved":false,"is_disabled":false,"rental_uris":{"android":"levelo://app?vid=8a86e441-18c6-4faf-a3a9-ee37cfa66e37","ios":"levelo://app?vid=8a86e441-18c6-4faf-a3a9-ee37cfa66e37"},"vehicle_type_id":"4","last_reported":1699797933,"current_range_meters":2400,"station_id":"ce4bho92rcd13ifvqh4g","pricing_plan_id":"free"},{"bike_id":"3a740c5c-b5c6-48b8-8736-3c09a24decaa","system_id":"levelo_inurba_marseille","lat":43.279952,"lon":5.400085,"is_reserved":false,"is_disabled":false,"rental_uris":{"android":"levelo://app?vid=3a740c5c-b5c6-48b8-8736-3c09a24decaa","ios":"levelo://app?vid=3a740c5c-b5c6-48b8-8736-3c09a24decaa"},"vehicle_type_id":"4","last_reported":1699797933,"current_range_meters":31200,"station_id":"ce4bho92rcd13ifvqh4g","pricing_plan_id":"free"},{"bike_id":"6a67f168-92cd-4ba4-bbe7-e0d5add12544","system_id":"levelo_inurba_marseille","lat":43.279952,"lon":5.400085,"is_reserved":false,"is_disabled":false,"rental_uris":{"android":"levelo://app?vid=6a67f168-92cd-4ba4-bbe7-e0d5add12544","ios":"levelo://app?vid=6a67f168-92cd-4ba4-bbe7-e0d5add12544"},"vehicle_type_id":"4","last_reported":1699797933,"current_range_meters":31200,"station_id":"ce4bho92rcd13ifvqh4g","pricing_plan_id":"free"},{"bike_id":"b940e7a5-5c6e-491c-bba1-36f4b6a0f4a9","system_id":"levelo_inurba_marseille","lat":43.317121,"lon":5.423936,"is_reserved":false,"is_disabled":false,"rental_uris":{"android":"levelo://app?vid=b940e7a5-5c6e-491c-bba1-36f4b6a0f4a9","ios":"levelo://app?vid=b940e7a5-5c6e-491c-bba1-36f4b6a0f4a9"},"vehicle_type_id":"4","last_reported":1699797933,"current_range_meters":28000,"station_id":"ce4bhp92rcd13ifvqhbg","pricing_plan_id":"free"},{"bike_id":"22c7bcef-48b7-456d-a61c-4d4094fcf25c","system_id":"levelo_inurba_marseille","lat":43.317121,"lon":5.423936,"is_reserved":false,"is_disabled":false,"rental_uris":{"android":"levelo://app?vid=22c7bcef-48b7-456d-a61c-4d4094fcf25c","ios":"levelo://app?vid=22c7bcef-48b7-456d-a61c-4d4094fcf25c"},"vehicle_type_id":"4","last_reported":1699797933,"current_range_meters":31200,"station_id":"ce4bhp92rcd13ifvqhbg","pricing_plan_id":"free"},{"bike_id":"298ed835-ec2a-45ed-9079-aa820de06426","system_id":"levelo_inurba_marseille","lat":43.310785,"lon":5.424305,"is_reserved":false,"is_disabled":false,"rental_uris":{"android":"levelo://app?vid=298ed835-ec2a-45ed-9079-aa820de06426","ios":"levelo://app?vid=298ed835-ec2a-45ed-9079-aa820de06426"},"vehicle_type_id":"4","last_reported":1699797933,"current_range_meters":20800,"station_id":"ce4bhp92rcd13ifvqhag","pricing_plan_id":"free"},{"bike_id":"c2fc3bad-d6f3-44af-aa68-4b442aac0a94","system_id":"levelo_inurba_marseille","lat":43.317121,"lon":5.423936,"is_reserved":false,"is_disabled":false,"rental_uris":{"android":"levelo://app?vid=c2fc3bad-d6f3-44af-aa68-4b442aac0a94","ios":"levelo://app?vid=c2fc3bad-d6f3-44af-aa68-4b442aac0a94"},"vehicle_type_id":"4","last_reported":1699797933,"current_range_meters":27200,"station_id":"ce4bhp92rcd13ifvqhbg","pricing_plan_id":"free"},{"bike_id":"6bd8e125-a6f6-4605-aaf5-a24d0b55fc8a","system_id":"levelo_inurba_marseille","lat":43.29556,"lon":5.42284,"is_reserved":false,"is_disabled":false,"rental_uris":{"android":"levelo://app?vid=6bd8e125-a6f6-4605-aaf5-a24d0b55fc8a","ios":"levelo://app?vid=6bd8e125-a6f6-4605-aaf5-a24d0b55fc8a"},"vehicle_type_id":"4","last_reported":1699797933,"current_range_meters":31200,"station_id":"ce4bhph2rcd13ifvqhdg","pricing_plan_id":"free"},{"bike_id":"e91c0c42-1183-43ba-8db8-24f980329979","system_id":"levelo_inurba_marseille","lat":43.295511,"lon":5.422926,"is_reserved":false,"is_disabled":false,"rental_uris":{"android":"levelo://app?vid=e91c0c42-1183-43ba-8db8-24f980329979","ios":"levelo://app?vid=e91c0c42-1183-43ba-8db8-24f980329979"},"vehicle_type_id":"4","last_reported":1699797933,"current_range_meters":28400,"station_id":"ce4bhph2rcd13ifvqhdg","pricing_plan_id":"free"},{"bike_id":"0edde1ce-79d9-4511-978d-0ed7ece46d07","system_id":"levelo_inurba_marseille","lat":43.295511,"lon":5.422926,"is_reserved":false,"is_disabled":false,"rental_uris":{"android":"levelo://app?vid=0edde1ce-79d9-4511-978d-0ed7ece46d07","ios":"levelo://app?vid=0edde1ce-79d9-4511-978d-0ed7ece46d07"},"vehicle_type_id":"4","last_reported":1699797933,"current_range_meters":28400,"station_id":"ce4bhph2rcd13ifvqhdg","pricing_plan_id":"free"},{"bike_id":"fe75077d-42bf-43ae-8fa2-44109df3d40a","system_id":"levelo_inurba_marseille","lat":43.27203,"lon":5.39295,"is_reserved":false,"is_disabled":false,"rental_uris":{"android":"levelo://app?vid=fe75077d-42bf-43ae-8fa2-44109df3d40a","ios":"levelo://app?vid=fe75077d-42bf-43ae-8fa2-44109df3d40a"},"vehicle_type_id":"4","last_reported":1699797933,"current_range_meters":15200,"station_id":"","pricing_plan_id":"free"},{"bike_id":"cc002ea3-13bf-42a8-9b40-d3f138fe0e09","system_id":"levelo_inurba_marseille","lat":43.27814,"lon":5.4071,"is_reserved":false,"is_disabled":false,"rental_uris":{"android":"levelo://app?vid=cc002ea3-13bf-42a8-9b40-d3f138fe0e09","ios":"levelo://app?vid=cc002ea3-13bf-42a8-9b40-d3f138fe0e09"},"vehicle_type_id":"4","last_reported":1699797933,"current_range_meters":16400,"station_id":"ce4bhnh2rcd13ifvqgtg","pricing_plan_id":"free"},{"bike_id":"58429e31-0546-4eba-8c2f-f1ea9b354284","system_id":"levelo_inurba_marseille","lat":43.278128,"lon":5.407195,"is_reserved":false,"is_disabled":false,"rental_uris":{"android":"levelo://app?vid=58429e31-0546-4eba-8c2f-f1ea9b354284","ios":"levelo://app?vid=58429e31-0546-4eba-8c2f-f1ea9b354284"},"vehicle_type_id":"4","last_reported":1699797933,"current_range_meters":27200,"station_id":"ce4bhnh2rcd13ifvqgtg","pricing_plan_id":"free"},{"bike_id":"c15a5c02-e77f-44ba-9c08-64fe98fdcd65","system_id":"levelo_inurba_marseille","lat":43.279465,"lon":5.410561,"is_reserved":false,"is_disabled":false,"rental_uris":{"android":"levelo://app?vid=c15a5c02-e77f-44ba-9c08-64fe98fdcd65","ios":"levelo://app?vid=c15a5c02-e77f-44ba-9c08-64fe98fdcd65"},"vehicle_type_id":"4","last_reported":1699797933,"current_range_meters":24000,"station_id":"ce4bhnp2rcd13ifvqh0g","pricing_plan_id":"free"},{"bike_id":"d37325b4-ebd0-445d-af9c-ff299fb2a5c0","system_id":"levelo_inurba_marseille","lat":43.269319,"lon":5.389397,"is_reserved":false,"is_disabled":false,"rental_uris":{"android":"levelo://app?vid=d37325b4-ebd0-445d-af9c-ff299fb2a5c0","ios":"levelo://app?vid=d37325b4-ebd0-445d-af9c-ff299fb2a5c0"},"vehicle_type_id":"4","last_reported":1699797933,"current_range_meters":22400,"station_id":"ce4bhhh2rcd13ifvqfl0","pricing_plan_id":"free"},{"bike_id":"965aef9a-2810-4def-bb63-13b3871b7363","system_id":"levelo_inurba_marseille","lat":43.26555,"lon":5.37283,"is_reserved":false,"is_disabled":false,"rental_uris":{"android":"levelo://app?vid=965aef9a-2810-4def-bb63-13b3871b7363","ios":"levelo://app?vid=965aef9a-2810-4def-bb63-13b3871b7363"},"vehicle_type_id":"4","last_reported":1699797933,"current_range_meters":20000,"station_id":"ce4bhg12rcd13ifvqf70","pricing_plan_id":"free"},{"bike_id":"db31c98b-81e6-49fa-a8c6-6b97fce35ed7","system_id":"levelo_inurba_marseille","lat":43.26555,"lon":5.37285,"is_reserved":false,"is_disabled":false,"rental_uris":{"android":"levelo://app?vid=db31c98b-81e6-49fa-a8c6-6b97fce35ed7","ios":"levelo://app?vid=db31c98b-81e6-49fa-a8c6-6b97fce35ed7"},"vehicle_type_id":"4","last_reported":1699797933,"current_range_meters":30800,"station_id":"ce4bhg12rcd13ifvqf70","pricing_plan_id":"free"},{"bike_id":"973902a2-71a2-40c3-910c-b27eb973d535","system_id":"levelo_inurba_marseille","lat":43.26554,"lon":5.37283,"is_reserved":false,"is_disabled":false,"rental_uris":{"android":"levelo://app?vid=973902a2-71a2-40c3-910c-b27eb973d535","ios":"levelo://app?vid=973902a2-71a2-40c3-910c-b27eb973d535"},"vehicle_type_id":"4","last_reported":1699797933,"current_range_meters":24800,"station_id":"ce4bhg12rcd13ifvqf70","pricing_plan_id":"free"},{"bike_id":"3b111d8e-5143-4ffe-bb6f-c26ad07f679c","system_id":"levelo_inurba_marseille","lat":43.27996,"lon":5.416624,"is_reserved":false,"is_disabled":false,"rental_uris":{"android":"levelo://app?vid=3b111d8e-5143-4ffe-bb6f-c26ad07f679c","ios":"levelo://app?vid=3b111d8e-5143-4ffe-bb6f-c26ad07f679c"},"vehicle_type_id":"4","last_reported":1699797933,"current_range_meters":0,"station_id":"ce4bho12rcd13ifvqh1g","pricing_plan_id":"free"},{"bike_id":"a904936c-4d64-4073-a3f3-ec2f8c8edf43","system_id":"levelo_inurba_marseille","lat":43.27996,"lon":5.416624,"is_reserved":false,"is_disabled":false,"rental_uris":{"android":"levelo://app?vid=a904936c-4d64-4073-a3f3-ec2f8c8edf43","ios":"levelo://app?vid=a904936c-4d64-4073-a3f3-ec2f8c8edf43"},"vehicle_type_id":"4","last_reported":1699797933,"current_range_meters":28800,"station_id":"ce4bho12rcd13ifvqh1g","pricing_plan_id":"free"},{"bike_id":"033771a6-1055-48d2-9826-6454c9f5b3f7","system_id":"levelo_inurba_marseille","lat":43.308147,"lon":5.43516,"is_reserved":false,"is_disabled":false,"rental_uris":{"android":"levelo://app?vid=033771a6-1055-48d2-9826-6454c9f5b3f7","ios":"levelo://app?vid=033771a6-1055-48d2-9826-6454c9f5b3f7"},"vehicle_type_id":"4","last_reported":1699797933,"current_range_meters":1200,"station_id":"ce4bhph2rcd13ifvqheg","pricing_plan_id":"free"},{"bike_id":"f39776f8-e338-4e5d-8296-2a44b065e822","system_id":"levelo_inurba_marseille","lat":43.30794,"lon":5.43516,"is_reserved":false,"is_disabled":false,"rental_uris":{"android":"levelo://app?vid=f39776f8-e338-4e5d-8296-2a44b065e822","ios":"levelo://app?vid=f39776f8-e338-4e5d-8296-2a44b065e822"},"vehicle_type_id":"4","last_reported":1699797933,"current_range_meters":31200,"station_id":"ce4bhph2rcd13ifvqheg","pricing_plan_id":"free"},{"bike_id":"aa0d65d6-fe29-40de-bda4-b6707bcd53ef","system_id":"levelo_inurba_marseille","lat":43.30797,"lon":5.43521,"is_reserved":false,"is_disabled":false,"rental_uris":{"android":"levelo://app?vid=aa0d65d6-fe29-40de-bda4-b6707bcd53ef","ios":"levelo://app?vid=aa0d65d6-fe29-40de-bda4-b6707bcd53ef"},"vehicle_type_id":"4","last_reported":1699797933,"current_range_meters":29600,"station_id":"ce4bhph2rcd13ifvqheg","pricing_plan_id":"free"},{"bike_id":"9c86b824-2168-4f46-b290-9c226cef33eb","system_id":"levelo_inurba_marseille","lat":43.26771,"lon":5.39654,"is_reserved":false,"is_disabled":false,"rental_uris":{"android":"levelo://app?vid=9c86b824-2168-4f46-b290-9c226cef33eb","ios":"levelo://app?vid=9c86b824-2168-4f46-b290-9c226cef33eb"},"vehicle_type_id":"4","last_reported":1699797933,"current_range_meters":28000,"station_id":"","pricing_plan_id":"free"},{"bike_id":"575ca992-e936-4074-b7c6-852b3c666dc2","system_id":"levelo_inurba_marseille","lat":43.308051,"lon":5.43527,"is_reserved":false,"is_disabled":false,"rental_uris":{"android":"levelo://app?vid=575ca992-e936-4074-b7c6-852b3c666dc2","ios":"levelo://app?vid=575ca992-e936-4074-b7c6-852b3c666dc2"},"vehicle_type_id":"4","last_reported":1699797933,"current_range_meters":31200,"station_id":"ce4bhph2rcd13ifvqheg","pricing_plan_id":"free"},{"bike_id":"4f955f48-a170-4081-94e3-454cc8e42144","system_id":"levelo_inurba_marseille","lat":43.269431,"lon":5.402421,"is_reserved":false,"is_disabled":false,"rental_uris":{"android":"levelo://app?vid=4f955f48-a170-4081-94e3-454cc8e42144","ios":"levelo://app?vid=4f955f48-a170-4081-94e3-454cc8e42144"},"vehicle_type_id":"4","last_reported":1699797933,"current_range_meters":0,"station_id":"cjm6bp8fraef2m0cb0m0","pricing_plan_id":"free"},{"bike_id":"433771b8-7309-448e-b7e4-04d740934f77","system_id":"levelo_inurba_marseille","lat":43.26949,"lon":5.40261,"is_reserved":false,"is_disabled":false,"rental_uris":{"android":"levelo://app?vid=433771b8-7309-448e-b7e4-04d740934f77","ios":"levelo://app?vid=433771b8-7309-448e-b7e4-04d740934f77"},"vehicle_type_id":"4","last_reported":1699797933,"current_range_meters":16400,"station_id":"cjm6bp8fraef2m0cb0m0","pricing_plan_id":"free"},{"bike_id":"9e60a5df-9625-4f89-ae38-5a8f0d788362","system_id":"levelo_inurba_marseille","lat":43.26939,"lon":5.40249,"is_reserved":false,"is_disabled":false,"rental_uris":{"android":"levelo://app?vid=9e60a5df-9625-4f89-ae38-5a8f0d788362","ios":"levelo://app?vid=9e60a5df-9625-4f89-ae38-5a8f0d788362"},"vehicle_type_id":"4","last_reported":1699797933,"current_range_meters":22800,"station_id":"cjm6bp8fraef2m0cb0m0","pricing_plan_id":"free"},{"bike_id":"2aa6c4b1-a67d-43b7-9eb1-fe5b5bec91bf","system_id":"levelo_inurba_marseille","lat":43.32903,"lon":5.43282,"is_reserved":false,"is_disabled":false,"rental_uris":{"android":"levelo://app?vid=2aa6c4b1-a67d-43b7-9eb1-fe5b5bec91bf","ios":"levelo://app?vid=2aa6c4b1-a67d-43b7-9eb1-fe5b5bec91bf"},"vehicle_type_id":"4","last_reported":1699797933,"current_range_meters":9200,"station_id":"","pricing_plan_id":"free"},{"bike_id":"58a62f2d-fe24-4d88-b565-2b21b3780f0a","system_id":"levelo_inurba_marseille","lat":43.317104,"lon":5.436818,"is_reserved":false,"is_disabled":false,"rental_uris":{"android":"levelo://app?vid=58a62f2d-fe24-4d88-b565-2b21b3780f0a","ios":"levelo://app?vid=58a62f2d-fe24-4d88-b565-2b21b3780f0a"},"vehicle_type_id":"4","last_reported":1699797933,"current_range_meters":28000,"station_id":"ce4bhp92rcd13ifvqhcg","pricing_plan_id":"free"},{"bike_id":"6de2048a-2ff3-414a-9d2b-0846475f7d9c","system_id":"levelo_inurba_marseille","lat":43.317104,"lon":5.436818,"is_reserved":false,"is_disabled":false,"rental_uris":{"android":"levelo://app?vid=6de2048a-2ff3-414a-9d2b-0846475f7d9c","ios":"levelo://app?vid=6de2048a-2ff3-414a-9d2b-0846475f7d9c"},"vehicle_type_id":"4","last_reported":1699797933,"current_range_meters":18400,"station_id":"ce4bhp92rcd13ifvqhcg","pricing_plan_id":"free"},{"bike_id":"22492093-95e0-4f36-b720-4f8575177dac","system_id":"levelo_inurba_marseille","lat":43.26207,"lon":5.37927,"is_reserved":false,"is_disabled":false,"rental_uris":{"android":"levelo://app?vid=22492093-95e0-4f36-b720-4f8575177dac","ios":"levelo://app?vid=22492093-95e0-4f36-b720-4f8575177dac"},"vehicle_type_id":"4","last_reported":1699797933,"current_range_meters":13600,"station_id":"ce4bhjp2rcd13ifvqg90","pricing_plan_id":"free"},{"bike_id":"4126fbfd-3521-45ff-a9f1-c2605238decc","system_id":"levelo_inurba_marseille","lat":43.26202,"lon":5.379299,"is_reserved":false,"is_disabled":false,"rental_uris":{"android":"levelo://app?vid=4126fbfd-3521-45ff-a9f1-c2605238decc","ios":"levelo://app?vid=4126fbfd-3521-45ff-a9f1-c2605238decc"},"vehicle_type_id":"4","last_reported":1699797933,"current_range_meters":28800,"station_id":"ce4bhjp2rcd13ifvqg90","pricing_plan_id":"free"},{"bike_id":"85583682-7dc6-48bc-b036-b295167ef8e9","system_id":"levelo_inurba_marseille","lat":43.271388,"lon":5.409269,"is_reserved":false,"is_disabled":false,"rental_uris":{"android":"levelo://app?vid=85583682-7dc6-48bc-b036-b295167ef8e9","ios":"levelo://app?vid=85583682-7dc6-48bc-b036-b295167ef8e9"},"vehicle_type_id":"4","last_reported":1699797933,"current_range_meters":25600,"station_id":"ce4bhl12rcd13ifvqgf0","pricing_plan_id":"free"},{"bike_id":"696f2727-7cd8-4e63-ad5f-028dfb6454d6","system_id":"levelo_inurba_marseille","lat":43.26202,"lon":5.379299,"is_reserved":false,"is_disabled":false,"rental_uris":{"android":"levelo://app?vid=696f2727-7cd8-4e63-ad5f-028dfb6454d6","ios":"levelo://app?vid=696f2727-7cd8-4e63-ad5f-028dfb6454d6"},"vehicle_type_id":"4","last_reported":1699797933,"current_range_meters":25200,"station_id":"ce4bhjp2rcd13ifvqg90","pricing_plan_id":"free"},{"bike_id":"f6f6a639-1af0-4edb-b3f5-82dc3b531ce5","system_id":"levelo_inurba_marseille","lat":43.26202,"lon":5.379299,"is_reserved":false,"is_disabled":false,"rental_uris":{"android":"levelo://app?vid=f6f6a639-1af0-4edb-b3f5-82dc3b531ce5","ios":"levelo://app?vid=f6f6a639-1af0-4edb-b3f5-82dc3b531ce5"},"vehicle_type_id":"4","last_reported":1699797933,"current_range_meters":20000,"station_id":"ce4bhjp2rcd13ifvqg90","pricing_plan_id":"free"},{"bike_id":"d5416445-e25e-48ab-bddf-416f241e9145","system_id":"levelo_inurba_marseille","lat":43.267959,"lon":5.402687,"is_reserved":false,"is_disabled":false,"rental_uris":{"android":"levelo://app?vid=d5416445-e25e-48ab-bddf-416f241e9145","ios":"levelo://app?vid=d5416445-e25e-48ab-bddf-416f241e9145"},"vehicle_type_id":"4","last_reported":1699797933,"current_range_meters":26000,"station_id":"ce501612rcd8frsf0b60","pricing_plan_id":"free"},{"bike_id":"d062335d-35a1-41d8-a8a5-ad94e3065838","system_id":"levelo_inurba_marseille","lat":43.298768,"lon":5.43643,"is_reserved":false,"is_disabled":false,"rental_uris":{"android":"levelo://app?vid=d062335d-35a1-41d8-a8a5-ad94e3065838","ios":"levelo://app?vid=d062335d-35a1-41d8-a8a5-ad94e3065838"},"vehicle_type_id":"4","last_reported":1699797933,"current_range_meters":28400,"station_id":"ce4bhpp2rcd13ifvqhfg","pricing_plan_id":"free"},{"bike_id":"015f3fd7-ae03-4eb3-88df-e171217ea5b7","system_id":"levelo_inurba_marseille","lat":43.298768,"lon":5.43643,"is_reserved":false,"is_disabled":false,"rental_uris":{"android":"levelo://app?vid=015f3fd7-ae03-4eb3-88df-e171217ea5b7","ios":"levelo://app?vid=015f3fd7-ae03-4eb3-88df-e171217ea5b7"},"vehicle_type_id":"4","last_reported":1699797933,"current_range_meters":5600,"station_id":"ce4bhpp2rcd13ifvqhfg","pricing_plan_id":"free"},{"bike_id":"657cc6c7-3653-4d62-98b8-5b5446de2340","system_id":"levelo_inurba_marseille","lat":43.298768,"lon":5.43643,"is_reserved":false,"is_disabled":false,"rental_uris":{"android":"levelo://app?vid=657cc6c7-3653-4d62-98b8-5b5446de2340","ios":"levelo://app?vid=657cc6c7-3653-4d62-98b8-5b5446de2340"},"vehicle_type_id":"4","last_reported":1699797933,"current_range_meters":31200,"station_id":"ce4bhpp2rcd13ifvqhfg","pricing_plan_id":"free"},{"bike_id":"78f8d19b-d8c0-4b3f-be41-0d781e66c78d","system_id":"levelo_inurba_marseille","lat":43.298768,"lon":5.43643,"is_reserved":false,"is_disabled":false,"rental_uris":{"android":"levelo://app?vid=78f8d19b-d8c0-4b3f-be41-0d781e66c78d","ios":"levelo://app?vid=78f8d19b-d8c0-4b3f-be41-0d781e66c78d"},"vehicle_type_id":"4","last_reported":1699797933,"current_range_meters":29600,"station_id":"ce4bhpp2rcd13ifvqhfg","pricing_plan_id":"free"},{"bike_id":"4f6880f4-3164-4fc2-9cf7-3c1358040f10","system_id":"levelo_inurba_marseille","lat":43.290501,"lon":5.433305,"is_reserved":false,"is_disabled":false,"rental_uris":{"android":"levelo://app?vid=4f6880f4-3164-4fc2-9cf7-3c1358040f10","ios":"levelo://app?vid=4f6880f4-3164-4fc2-9cf7-3c1358040f10"},"vehicle_type_id":"4","last_reported":1699797933,"current_range_meters":15600,"station_id":"","pricing_plan_id":"free"},{"bike_id":"7929fe62-478b-45ed-a32f-4cee63794674","system_id":"levelo_inurba_marseille","lat":43.275005,"lon":5.424511,"is_reserved":false,"is_disabled":false,"rental_uris":{"android":"levelo://app?vid=7929fe62-478b-45ed-a32f-4cee63794674","ios":"levelo://app?vid=7929fe62-478b-45ed-a32f-4cee63794674"},"vehicle_type_id":"4","last_reported":1699797933,"current_range_meters":13600,"station_id":"","pricing_plan_id":"free"},{"bike_id":"508233ae-4c6f-4cfb-9cc0-a63e76c09e5d","system_id":"levelo_inurba_marseille","lat":43.275028,"lon":5.424534,"is_reserved":false,"is_disabled":false,"rental_uris":{"android":"levelo://app?vid=508233ae-4c6f-4cfb-9cc0-a63e76c09e5d","ios":"levelo://app?vid=508233ae-4c6f-4cfb-9cc0-a63e76c09e5d"},"vehicle_type_id":"4","last_reported":1699797933,"current_range_meters":14800,"station_id":"ce4bhn92rcd13ifvqgrg","pricing_plan_id":"free"},{"bike_id":"dc5f642d-c87c-4dd5-b324-f06c20f5a4dc","system_id":"levelo_inurba_marseille","lat":43.275028,"lon":5.424534,"is_reserved":false,"is_disabled":false,"rental_uris":{"android":"levelo://app?vid=dc5f642d-c87c-4dd5-b324-f06c20f5a4dc","ios":"levelo://app?vid=dc5f642d-c87c-4dd5-b324-f06c20f5a4dc"},"vehicle_type_id":"4","last_reported":1699797933,"current_range_meters":20000,"station_id":"ce4bhn92rcd13ifvqgrg","pricing_plan_id":"free"},{"bike_id":"f2307a4c-7611-4db6-b58a-5736d1e13606","system_id":"levelo_inurba_marseille","lat":43.2583,"lon":5.39434,"is_reserved":false,"is_disabled":false,"rental_uris":{"android":"levelo://app?vid=f2307a4c-7611-4db6-b58a-5736d1e13606","ios":"levelo://app?vid=f2307a4c-7611-4db6-b58a-5736d1e13606"},"vehicle_type_id":"4","last_reported":1699797933,"current_range_meters":21600,"station_id":"ce4bhip2rcd13ifvqft0","pricing_plan_id":"free"},{"bike_id":"7501aa6d-2012-4039-8887-0fa50e088b7e","system_id":"levelo_inurba_marseille","lat":43.254947,"lon":5.376454,"is_reserved":false,"is_disabled":false,"rental_uris":{"android":"levelo://app?vid=7501aa6d-2012-4039-8887-0fa50e088b7e","ios":"levelo://app?vid=7501aa6d-2012-4039-8887-0fa50e088b7e"},"vehicle_type_id":"4","last_reported":1699797933,"current_range_meters":23600,"station_id":"ce4bhh12rcd13ifvqff0","pricing_plan_id":"free"},{"bike_id":"d1be4948-3db8-46c6-a0e9-4eb9877553a6","system_id":"levelo_inurba_marseille","lat":43.25498,"lon":5.37651,"is_reserved":false,"is_disabled":false,"rental_uris":{"android":"levelo://app?vid=d1be4948-3db8-46c6-a0e9-4eb9877553a6","ios":"levelo://app?vid=d1be4948-3db8-46c6-a0e9-4eb9877553a6"},"vehicle_type_id":"4","last_reported":1699797933,"current_range_meters":19600,"station_id":"ce4bhh12rcd13ifvqff0","pricing_plan_id":"free"},{"bike_id":"6624e9ae-0b06-4b3a-a95e-2de0d90c4b87","system_id":"levelo_inurba_marseille","lat":43.254947,"lon":5.376454,"is_reserved":false,"is_disabled":false,"rental_uris":{"android":"levelo://app?vid=6624e9ae-0b06-4b3a-a95e-2de0d90c4b87","ios":"levelo://app?vid=6624e9ae-0b06-4b3a-a95e-2de0d90c4b87"},"vehicle_type_id":"4","last_reported":1699797933,"current_range_meters":4400,"station_id":"ce4bhh12rcd13ifvqff0","pricing_plan_id":"free"},{"bike_id":"463ab059-2b76-480e-b44b-d83a85223abe","system_id":"levelo_inurba_marseille","lat":43.254957,"lon":5.376495,"is_reserved":false,"is_disabled":false,"rental_uris":{"android":"levelo://app?vid=463ab059-2b76-480e-b44b-d83a85223abe","ios":"levelo://app?vid=463ab059-2b76-480e-b44b-d83a85223abe"},"vehicle_type_id":"4","last_reported":1699797933,"current_range_meters":29600,"station_id":"ce4bhh12rcd13ifvqff0","pricing_plan_id":"free"},{"bike_id":"3e9c7dae-3dcf-4dea-9ce0-479bb12ea036","system_id":"levelo_inurba_marseille","lat":43.254947,"lon":5.376454,"is_reserved":false,"is_disabled":false,"rental_uris":{"android":"levelo://app?vid=3e9c7dae-3dcf-4dea-9ce0-479bb12ea036","ios":"levelo://app?vid=3e9c7dae-3dcf-4dea-9ce0-479bb12ea036"},"vehicle_type_id":"4","last_reported":1699797933,"current_range_meters":20800,"station_id":"ce4bhh12rcd13ifvqff0","pricing_plan_id":"free"},{"bike_id":"f2f05f60-b576-440f-b9b4-7a9fa9006b8b","system_id":"levelo_inurba_marseille","lat":43.25488,"lon":5.37658,"is_reserved":false,"is_disabled":false,"rental_uris":{"android":"levelo://app?vid=f2f05f60-b576-440f-b9b4-7a9fa9006b8b","ios":"levelo://app?vid=f2f05f60-b576-440f-b9b4-7a9fa9006b8b"},"vehicle_type_id":"4","last_reported":1699797933,"current_range_meters":4400,"station_id":"ce4bhh12rcd13ifvqff0","pricing_plan_id":"free"},{"bike_id":"2f699389-f9fc-438c-adac-ea11f900b8d4","system_id":"levelo_inurba_marseille","lat":43.27064,"lon":5.422693,"is_reserved":false,"is_disabled":false,"rental_uris":{"android":"levelo://app?vid=2f699389-f9fc-438c-adac-ea11f900b8d4","ios":"levelo://app?vid=2f699389-f9fc-438c-adac-ea11f900b8d4"},"vehicle_type_id":"4","last_reported":1699797933,"current_range_meters":12000,"station_id":"ce4bhk92rcd13ifvqgb0","pricing_plan_id":"free"},{"bike_id":"b7985cd6-c819-47a0-be7b-d36abbf1388f","system_id":"levelo_inurba_marseille","lat":43.270721,"lon":5.422764,"is_reserved":false,"is_disabled":false,"rental_uris":{"android":"levelo://app?vid=b7985cd6-c819-47a0-be7b-d36abbf1388f","ios":"levelo://app?vid=b7985cd6-c819-47a0-be7b-d36abbf1388f"},"vehicle_type_id":"4","last_reported":1699797933,"current_range_meters":26800,"station_id":"ce4bhk92rcd13ifvqgb0","pricing_plan_id":"free"},{"bike_id":"c69c2fdd-9bfb-4c43-a80e-ada72f58e145","system_id":"levelo_inurba_marseille","lat":43.258658,"lon":5.398935,"is_reserved":false,"is_disabled":false,"rental_uris":{"android":"levelo://app?vid=c69c2fdd-9bfb-4c43-a80e-ada72f58e145","ios":"levelo://app?vid=c69c2fdd-9bfb-4c43-a80e-ada72f58e145"},"vehicle_type_id":"4","last_reported":1699797933,"current_range_meters":30800,"station_id":"ce4bhl92rcd13ifvqghg","pricing_plan_id":"free"},{"bike_id":"e5238e36-ca98-4800-8ebc-58089b72c1ef","system_id":"levelo_inurba_marseille","lat":43.25932,"lon":5.40907,"is_reserved":false,"is_disabled":false,"rental_uris":{"android":"levelo://app?vid=e5238e36-ca98-4800-8ebc-58089b72c1ef","ios":"levelo://app?vid=e5238e36-ca98-4800-8ebc-58089b72c1ef"},"vehicle_type_id":"4","last_reported":1699797933,"current_range_meters":0,"station_id":"ce4bhm92rcd13ifvqglg","pricing_plan_id":"free"},{"bike_id":"57250aa3-cb48-4dd3-a36a-7cac9deab14b","system_id":"levelo_inurba_marseille","lat":43.25931,"lon":5.40909,"is_reserved":false,"is_disabled":false,"rental_uris":{"android":"levelo://app?vid=57250aa3-cb48-4dd3-a36a-7cac9deab14b","ios":"levelo://app?vid=57250aa3-cb48-4dd3-a36a-7cac9deab14b"},"vehicle_type_id":"4","last_reported":1699797933,"current_range_meters":24800,"station_id":"ce4bhm92rcd13ifvqglg","pricing_plan_id":"free"},{"bike_id":"ea43ccb7-b181-48d8-8dfe-7c354c75f184","system_id":"levelo_inurba_marseille","lat":43.257079,"lon":5.411051,"is_reserved":false,"is_disabled":false,"rental_uris":{"android":"levelo://app?vid=ea43ccb7-b181-48d8-8dfe-7c354c75f184","ios":"levelo://app?vid=ea43ccb7-b181-48d8-8dfe-7c354c75f184"},"vehicle_type_id":"4","last_reported":1699797933,"current_range_meters":23200,"station_id":"ce4bhkp2rcd13ifvqgd0","pricing_plan_id":"free"},{"bike_id":"206561c9-8058-4415-980a-54bc057f418a","system_id":"levelo_inurba_marseille","lat":43.250009,"lon":5.389195,"is_reserved":false,"is_disabled":false,"rental_uris":{"android":"levelo://app?vid=206561c9-8058-4415-980a-54bc057f418a","ios":"levelo://app?vid=206561c9-8058-4415-980a-54bc057f418a"},"vehicle_type_id":"4","last_reported":1699797933,"current_range_meters":26400,"station_id":"ce4bhgp2rcd13ifvqfd0","pricing_plan_id":"free"},{"bike_id":"aa60279b-75bb-4263-a01f-df95dabf9a99","system_id":"levelo_inurba_marseille","lat":43.250009,"lon":5.389195,"is_reserved":false,"is_disabled":false,"rental_uris":{"android":"levelo://app?vid=aa60279b-75bb-4263-a01f-df95dabf9a99","ios":"levelo://app?vid=aa60279b-75bb-4263-a01f-df95dabf9a99"},"vehicle_type_id":"4","last_reported":1699797933,"current_range_meters":31200,"station_id":"ce4bhgp2rcd13ifvqfd0","pricing_plan_id":"free"},{"bike_id":"31001c2c-2adb-49e0-83bf-e7396d42ae5b","system_id":"levelo_inurba_marseille","lat":43.24813,"lon":5.37459,"is_reserved":false,"is_disabled":false,"rental_uris":{"android":"levelo://app?vid=31001c2c-2adb-49e0-83bf-e7396d42ae5b","ios":"levelo://app?vid=31001c2c-2adb-49e0-83bf-e7396d42ae5b"},"vehicle_type_id":"4","last_reported":1699797933,"current_range_meters":30000,"station_id":"ce4bhgh2rcd13ifvqfb0","pricing_plan_id":"free"},{"bike_id":"f74e32ef-f787-4e62-abb3-f209d9a83ea0","system_id":"levelo_inurba_marseille","lat":43.2479,"lon":5.374457,"is_reserved":false,"is_disabled":false,"rental_uris":{"android":"levelo://app?vid=f74e32ef-f787-4e62-abb3-f209d9a83ea0","ios":"levelo://app?vid=f74e32ef-f787-4e62-abb3-f209d9a83ea0"},"vehicle_type_id":"4","last_reported":1699797933,"current_range_meters":30800,"station_id":"ce4bhgh2rcd13ifvqfb0","pricing_plan_id":"free"},{"bike_id":"ba850f93-6e9f-474f-b71b-693ee699f835","system_id":"levelo_inurba_marseille","lat":43.24811,"lon":5.37459,"is_reserved":false,"is_disabled":false,"rental_uris":{"android":"levelo://app?vid=ba850f93-6e9f-474f-b71b-693ee699f835","ios":"levelo://app?vid=ba850f93-6e9f-474f-b71b-693ee699f835"},"vehicle_type_id":"4","last_reported":1699797933,"current_range_meters":31600,"station_id":"ce4bhgh2rcd13ifvqfb0","pricing_plan_id":"free"},{"bike_id":"bd430713-1830-4807-bd86-6a3e7363efc7","system_id":"levelo_inurba_marseille","lat":43.2479,"lon":5.374457,"is_reserved":false,"is_disabled":false,"rental_uris":{"android":"levelo://app?vid=bd430713-1830-4807-bd86-6a3e7363efc7","ios":"levelo://app?vid=bd430713-1830-4807-bd86-6a3e7363efc7"},"vehicle_type_id":"4","last_reported":1699797933,"current_range_meters":31600,"station_id":"ce4bhgh2rcd13ifvqfb0","pricing_plan_id":"free"},{"bike_id":"bb636d8c-6752-4ef7-8b89-2069d93e2b6d","system_id":"levelo_inurba_marseille","lat":43.2479,"lon":5.374457,"is_reserved":false,"is_disabled":false,"rental_uris":{"android":"levelo://app?vid=bb636d8c-6752-4ef7-8b89-2069d93e2b6d","ios":"levelo://app?vid=bb636d8c-6752-4ef7-8b89-2069d93e2b6d"},"vehicle_type_id":"4","last_reported":1699797933,"current_range_meters":18800,"station_id":"ce4bhgh2rcd13ifvqfb0","pricing_plan_id":"free"},{"bike_id":"d7d040ee-2358-43e2-a30c-8eb4cd752522","system_id":"levelo_inurba_marseille","lat":43.2479,"lon":5.374457,"is_reserved":false,"is_disabled":false,"rental_uris":{"android":"levelo://app?vid=d7d040ee-2358-43e2-a30c-8eb4cd752522","ios":"levelo://app?vid=d7d040ee-2358-43e2-a30c-8eb4cd752522"},"vehicle_type_id":"4","last_reported":1699797933,"current_range_meters":26000,"station_id":"ce4bhgh2rcd13ifvqfb0","pricing_plan_id":"free"},{"bike_id":"ba1c24ad-dd60-4123-a9fe-047dc26571fa","system_id":"levelo_inurba_marseille","lat":43.2479,"lon":5.374457,"is_reserved":false,"is_disabled":false,"rental_uris":{"android":"levelo://app?vid=ba1c24ad-dd60-4123-a9fe-047dc26571fa","ios":"levelo://app?vid=ba1c24ad-dd60-4123-a9fe-047dc26571fa"},"vehicle_type_id":"4","last_reported":1699797933,"current_range_meters":16000,"station_id":"ce4bhgh2rcd13ifvqfb0","pricing_plan_id":"free"},{"bike_id":"477fb6d7-6c79-494b-b66d-78db3e95ba64","system_id":"levelo_inurba_marseille","lat":43.2479,"lon":5.374457,"is_reserved":false,"is_disabled":false,"rental_uris":{"android":"levelo://app?vid=477fb6d7-6c79-494b-b66d-78db3e95ba64","ios":"levelo://app?vid=477fb6d7-6c79-494b-b66d-78db3e95ba64"},"vehicle_type_id":"4","last_reported":1699797933,"current_range_meters":31200,"station_id":"ce4bhgh2rcd13ifvqfb0","pricing_plan_id":"free"},{"bike_id":"acabc972-2849-4945-864b-a50d4ad4b9c4","system_id":"levelo_inurba_marseille","lat":43.2479,"lon":5.374457,"is_reserved":false,"is_disabled":false,"rental_uris":{"android":"levelo://app?vid=acabc972-2849-4945-864b-a50d4ad4b9c4","ios":"levelo://app?vid=acabc972-2849-4945-864b-a50d4ad4b9c4"},"vehicle_type_id":"4","last_reported":1699797933,"current_range_meters":30000,"station_id":"ce4bhgh2rcd13ifvqfb0","pricing_plan_id":"free"},{"bike_id":"568744b1-6a24-4f88-828b-8ed5fc24856a","system_id":"levelo_inurba_marseille","lat":43.250985,"lon":5.395229,"is_reserved":false,"is_disabled":false,"rental_uris":{"android":"levelo://app?vid=568744b1-6a24-4f88-828b-8ed5fc24856a","ios":"levelo://app?vid=568744b1-6a24-4f88-828b-8ed5fc24856a"},"vehicle_type_id":"4","last_reported":1699797933,"current_range_meters":20800,"station_id":"ce4bhm12rcd13ifvqgkg","pricing_plan_id":"free"},{"bike_id":"327a6305-dcf7-4f20-a60d-1541d4597ec4","system_id":"levelo_inurba_marseille","lat":43.250966,"lon":5.395186,"is_reserved":false,"is_disabled":false,"rental_uris":{"android":"levelo://app?vid=327a6305-dcf7-4f20-a60d-1541d4597ec4","ios":"levelo://app?vid=327a6305-dcf7-4f20-a60d-1541d4597ec4"},"vehicle_type_id":"4","last_reported":1699797933,"current_range_meters":27600,"station_id":"ce4bhm12rcd13ifvqgkg","pricing_plan_id":"free"},{"bike_id":"2cb8691d-29b6-45f0-b352-194706d726c8","system_id":"levelo_inurba_marseille","lat":43.25085,"lon":5.3952,"is_reserved":false,"is_disabled":false,"rental_uris":{"android":"levelo://app?vid=2cb8691d-29b6-45f0-b352-194706d726c8","ios":"levelo://app?vid=2cb8691d-29b6-45f0-b352-194706d726c8"},"vehicle_type_id":"4","last_reported":1699797933,"current_range_meters":13200,"station_id":"ce4bhm12rcd13ifvqgkg","pricing_plan_id":"free"},{"bike_id":"50372e5b-d26e-4016-b8f3-8010c5a64528","system_id":"levelo_inurba_marseille","lat":43.24693,"lon":5.382096,"is_reserved":false,"is_disabled":false,"rental_uris":{"android":"levelo://app?vid=50372e5b-d26e-4016-b8f3-8010c5a64528","ios":"levelo://app?vid=50372e5b-d26e-4016-b8f3-8010c5a64528"},"vehicle_type_id":"4","last_reported":1699797933,"current_range_meters":15200,"station_id":"ce4bhih2rcd13ifvqfr0","pricing_plan_id":"free"},{"bike_id":"ad1ef8dd-6615-440e-9c94-916550978183","system_id":"levelo_inurba_marseille","lat":43.246467,"lon":5.388984,"is_reserved":false,"is_disabled":false,"rental_uris":{"android":"levelo://app?vid=ad1ef8dd-6615-440e-9c94-916550978183","ios":"levelo://app?vid=ad1ef8dd-6615-440e-9c94-916550978183"},"vehicle_type_id":"4","last_reported":1699797933,"current_range_meters":12000,"station_id":"ce4bhg12rcd13ifvqf60","pricing_plan_id":"free"},{"bike_id":"3f73cc1f-cd95-440a-a2aa-f4c510f4ffbf","system_id":"levelo_inurba_marseille","lat":43.243884,"lon":5.370737,"is_reserved":false,"is_disabled":false,"rental_uris":{"android":"levelo://app?vid=3f73cc1f-cd95-440a-a2aa-f4c510f4ffbf","ios":"levelo://app?vid=3f73cc1f-cd95-440a-a2aa-f4c510f4ffbf"},"vehicle_type_id":"4","last_reported":1699797933,"current_range_meters":26000,"station_id":"ce4bhhh2rcd13ifvqfk0","pricing_plan_id":"free"},{"bike_id":"179d288e-a4b8-4599-a24b-dbe03ab108f6","system_id":"levelo_inurba_marseille","lat":43.24572,"lon":5.39427,"is_reserved":false,"is_disabled":false,"rental_uris":{"android":"levelo://app?vid=179d288e-a4b8-4599-a24b-dbe03ab108f6","ios":"levelo://app?vid=179d288e-a4b8-4599-a24b-dbe03ab108f6"},"vehicle_type_id":"4","last_reported":1699797933,"current_range_meters":26800,"station_id":"","pricing_plan_id":"free"},{"bike_id":"9216d228-a1fd-460f-a320-087c362d337c","system_id":"levelo_inurba_marseille","lat":43.24072,"lon":5.37762,"is_reserved":false,"is_disabled":false,"rental_uris":{"android":"levelo://app?vid=9216d228-a1fd-460f-a320-087c362d337c","ios":"levelo://app?vid=9216d228-a1fd-460f-a320-087c362d337c"},"vehicle_type_id":"4","last_reported":1699797933,"current_range_meters":22400,"station_id":"ce4bhnp2rcd13ifvqgvg","pricing_plan_id":"free"},{"bike_id":"6d52a275-0a31-4ca6-93c1-3e69fc6cf9b0","system_id":"levelo_inurba_marseille","lat":43.240702,"lon":5.377556,"is_reserved":false,"is_disabled":false,"rental_uris":{"android":"levelo://app?vid=6d52a275-0a31-4ca6-93c1-3e69fc6cf9b0","ios":"levelo://app?vid=6d52a275-0a31-4ca6-93c1-3e69fc6cf9b0"},"vehicle_type_id":"4","last_reported":1699797933,"current_range_meters":26800,"station_id":"ce4bhnp2rcd13ifvqgvg","pricing_plan_id":"free"},{"bike_id":"ab8037d7-14bb-4b9e-ae36-5fe6c59ade59","system_id":"levelo_inurba_marseille","lat":43.24069,"lon":5.37749,"is_reserved":false,"is_disabled":false,"rental_uris":{"android":"levelo://app?vid=ab8037d7-14bb-4b9e-ae36-5fe6c59ade59","ios":"levelo://app?vid=ab8037d7-14bb-4b9e-ae36-5fe6c59ade59"},"vehicle_type_id":"4","last_reported":1699797933,"current_range_meters":16400,"station_id":"ce4bhnp2rcd13ifvqgvg","pricing_plan_id":"free"},{"bike_id":"547ef3e9-996c-42aa-9de1-2371927320c7","system_id":"levelo_inurba_marseille","lat":43.240623,"lon":5.377642,"is_reserved":false,"is_disabled":false,"rental_uris":{"android":"levelo://app?vid=547ef3e9-996c-42aa-9de1-2371927320c7","ios":"levelo://app?vid=547ef3e9-996c-42aa-9de1-2371927320c7"},"vehicle_type_id":"4","last_reported":1699797933,"current_range_meters":30400,"station_id":"ce4bhnp2rcd13ifvqgvg","pricing_plan_id":"free"},{"bike_id":"30680b8d-2527-4eba-83ec-30b1363e3c2c","system_id":"levelo_inurba_marseille","lat":43.24065,"lon":5.37758,"is_reserved":false,"is_disabled":false,"rental_uris":{"android":"levelo://app?vid=30680b8d-2527-4eba-83ec-30b1363e3c2c","ios":"levelo://app?vid=30680b8d-2527-4eba-83ec-30b1363e3c2c"},"vehicle_type_id":"4","last_reported":1699797933,"current_range_meters":26000,"station_id":"ce4bhnp2rcd13ifvqgvg","pricing_plan_id":"free"},{"bike_id":"84ffd0b6-b063-43ba-9cd3-1fb7a189c480","system_id":"levelo_inurba_marseille","lat":43.239588,"lon":5.366238,"is_reserved":false,"is_disabled":false,"rental_uris":{"android":"levelo://app?vid=84ffd0b6-b063-43ba-9cd3-1fb7a189c480","ios":"levelo://app?vid=84ffd0b6-b063-43ba-9cd3-1fb7a189c480"},"vehicle_type_id":"4","last_reported":1699797933,"current_range_meters":24400,"station_id":"ce4bhi12rcd13ifvqfp0","pricing_plan_id":"free"},{"bike_id":"4caf85a4-f06c-4943-941b-b317c7b056cd","system_id":"levelo_inurba_marseille","lat":43.239588,"lon":5.366238,"is_reserved":false,"is_disabled":false,"rental_uris":{"android":"levelo://app?vid=4caf85a4-f06c-4943-941b-b317c7b056cd","ios":"levelo://app?vid=4caf85a4-f06c-4943-941b-b317c7b056cd"},"vehicle_type_id":"4","last_reported":1699797933,"current_range_meters":31200,"station_id":"ce4bhi12rcd13ifvqfp0","pricing_plan_id":"free"},{"bike_id":"1ff1c8d1-1aff-46e9-b773-2777a3e42ee0","system_id":"levelo_inurba_marseille","lat":43.239588,"lon":5.366238,"is_reserved":false,"is_disabled":false,"rental_uris":{"android":"levelo://app?vid=1ff1c8d1-1aff-46e9-b773-2777a3e42ee0","ios":"levelo://app?vid=1ff1c8d1-1aff-46e9-b773-2777a3e42ee0"},"vehicle_type_id":"4","last_reported":1699797933,"current_range_meters":30800,"station_id":"ce4bhi12rcd13ifvqfp0","pricing_plan_id":"free"},{"bike_id":"872e937b-c65a-406c-b3bb-7171c4be9be7","system_id":"levelo_inurba_marseille","lat":43.239588,"lon":5.366238,"is_reserved":false,"is_disabled":false,"rental_uris":{"android":"levelo://app?vid=872e937b-c65a-406c-b3bb-7171c4be9be7","ios":"levelo://app?vid=872e937b-c65a-406c-b3bb-7171c4be9be7"},"vehicle_type_id":"4","last_reported":1699797933,"current_range_meters":20400,"station_id":"ce4bhi12rcd13ifvqfp0","pricing_plan_id":"free"},{"bike_id":"c590eee6-a2ea-4eaf-ac75-3ec9861cb915","system_id":"levelo_inurba_marseille","lat":43.239588,"lon":5.366238,"is_reserved":false,"is_disabled":false,"rental_uris":{"android":"levelo://app?vid=c590eee6-a2ea-4eaf-ac75-3ec9861cb915","ios":"levelo://app?vid=c590eee6-a2ea-4eaf-ac75-3ec9861cb915"},"vehicle_type_id":"4","last_reported":1699797933,"current_range_meters":12800,"station_id":"ce4bhi12rcd13ifvqfp0","pricing_plan_id":"free"},{"bike_id":"ac202195-48ef-4b0c-b26e-da03e6dd7437","system_id":"levelo_inurba_marseille","lat":43.239644,"lon":5.366281,"is_reserved":false,"is_disabled":false,"rental_uris":{"android":"levelo://app?vid=ac202195-48ef-4b0c-b26e-da03e6dd7437","ios":"levelo://app?vid=ac202195-48ef-4b0c-b26e-da03e6dd7437"},"vehicle_type_id":"4","last_reported":1699797933,"current_range_meters":31200,"station_id":"ce4bhi12rcd13ifvqfp0","pricing_plan_id":"free"},{"bike_id":"26656af5-79ed-46ca-966e-0d4d6e4e8cae","system_id":"levelo_inurba_marseille","lat":43.239588,"lon":5.366238,"is_reserved":false,"is_disabled":false,"rental_uris":{"android":"levelo://app?vid=26656af5-79ed-46ca-966e-0d4d6e4e8cae","ios":"levelo://app?vid=26656af5-79ed-46ca-966e-0d4d6e4e8cae"},"vehicle_type_id":"4","last_reported":1699797933,"current_range_meters":26800,"station_id":"ce4bhi12rcd13ifvqfp0","pricing_plan_id":"free"},{"bike_id":"f290ea9f-0d9e-4f63-89b6-beaf5e72459a","system_id":"levelo_inurba_marseille","lat":43.23964,"lon":5.36627,"is_reserved":false,"is_disabled":false,"rental_uris":{"android":"levelo://app?vid=f290ea9f-0d9e-4f63-89b6-beaf5e72459a","ios":"levelo://app?vid=f290ea9f-0d9e-4f63-89b6-beaf5e72459a"},"vehicle_type_id":"4","last_reported":1699797933,"current_range_meters":19600,"station_id":"ce4bhi12rcd13ifvqfp0","pricing_plan_id":"free"},{"bike_id":"03f41070-6dea-459a-a5f7-cb5c87ac34e0","system_id":"levelo_inurba_marseille","lat":43.239588,"lon":5.366238,"is_reserved":false,"is_disabled":false,"rental_uris":{"android":"levelo://app?vid=03f41070-6dea-459a-a5f7-cb5c87ac34e0","ios":"levelo://app?vid=03f41070-6dea-459a-a5f7-cb5c87ac34e0"},"vehicle_type_id":"4","last_reported":1699797933,"current_range_meters":20000,"station_id":"ce4bhi12rcd13ifvqfp0","pricing_plan_id":"free"},{"bike_id":"e682478d-f51e-437d-8b65-78a7973a418c","system_id":"levelo_inurba_marseille","lat":43.239588,"lon":5.366238,"is_reserved":false,"is_disabled":false,"rental_uris":{"android":"levelo://app?vid=e682478d-f51e-437d-8b65-78a7973a418c","ios":"levelo://app?vid=e682478d-f51e-437d-8b65-78a7973a418c"},"vehicle_type_id":"4","last_reported":1699797933,"current_range_meters":31200,"station_id":"ce4bhi12rcd13ifvqfp0","pricing_plan_id":"free"},{"bike_id":"e14a7dde-5388-4c5e-b1dd-7f3c4540cdae","system_id":"levelo_inurba_marseille","lat":43.23963,"lon":5.36631,"is_reserved":false,"is_disabled":false,"rental_uris":{"android":"levelo://app?vid=e14a7dde-5388-4c5e-b1dd-7f3c4540cdae","ios":"levelo://app?vid=e14a7dde-5388-4c5e-b1dd-7f3c4540cdae"},"vehicle_type_id":"4","last_reported":1699797933,"current_range_meters":12000,"station_id":"ce4bhi12rcd13ifvqfp0","pricing_plan_id":"free"},{"bike_id":"4dd0a552-906d-4205-94e4-e02ec2d677ab","system_id":"levelo_inurba_marseille","lat":43.23961,"lon":5.36628,"is_reserved":false,"is_disabled":false,"rental_uris":{"android":"levelo://app?vid=4dd0a552-906d-4205-94e4-e02ec2d677ab","ios":"levelo://app?vid=4dd0a552-906d-4205-94e4-e02ec2d677ab"},"vehicle_type_id":"4","last_reported":1699797933,"current_range_meters":14000,"station_id":"ce4bhi12rcd13ifvqfp0","pricing_plan_id":"free"},{"bike_id":"1534fff6-73d8-435e-842a-9405d5b903bf","system_id":"levelo_inurba_marseille","lat":43.23961,"lon":5.36626,"is_reserved":false,"is_disabled":false,"rental_uris":{"android":"levelo://app?vid=1534fff6-73d8-435e-842a-9405d5b903bf","ios":"levelo://app?vid=1534fff6-73d8-435e-842a-9405d5b903bf"},"vehicle_type_id":"4","last_reported":1699797933,"current_range_meters":1200,"station_id":"ce4bhi12rcd13ifvqfp0","pricing_plan_id":"free"},{"bike_id":"ebdff912-aa81-48d2-b92e-8efd1da7d36b","system_id":"levelo_inurba_marseille","lat":43.239588,"lon":5.366238,"is_reserved":false,"is_disabled":false,"rental_uris":{"android":"levelo://app?vid=ebdff912-aa81-48d2-b92e-8efd1da7d36b","ios":"levelo://app?vid=ebdff912-aa81-48d2-b92e-8efd1da7d36b"},"vehicle_type_id":"4","last_reported":1699797933,"current_range_meters":30000,"station_id":"ce4bhi12rcd13ifvqfp0","pricing_plan_id":"free"},{"bike_id":"d609f4b4-26f9-47a4-a13f-e271c34312a7","system_id":"levelo_inurba_marseille","lat":43.239588,"lon":5.366238,"is_reserved":false,"is_disabled":false,"rental_uris":{"android":"levelo://app?vid=d609f4b4-26f9-47a4-a13f-e271c34312a7","ios":"levelo://app?vid=d609f4b4-26f9-47a4-a13f-e271c34312a7"},"vehicle_type_id":"4","last_reported":1699797933,"current_range_meters":12800,"station_id":"ce4bhi12rcd13ifvqfp0","pricing_plan_id":"free"},{"bike_id":"b0dff893-6a80-4e02-a059-f463f3f0da38","system_id":"levelo_inurba_marseille","lat":43.23957,"lon":5.36633,"is_reserved":false,"is_disabled":false,"rental_uris":{"android":"levelo://app?vid=b0dff893-6a80-4e02-a059-f463f3f0da38","ios":"levelo://app?vid=b0dff893-6a80-4e02-a059-f463f3f0da38"},"vehicle_type_id":"4","last_reported":1699797933,"current_range_meters":18400,"station_id":"ce4bhi12rcd13ifvqfp0","pricing_plan_id":"free"},{"bike_id":"1398e931-fb3c-4c94-bea0-5c253fd48e45","system_id":"levelo_inurba_marseille","lat":43.23514,"lon":5.36034,"is_reserved":false,"is_disabled":false,"rental_uris":{"android":"levelo://app?vid=1398e931-fb3c-4c94-bea0-5c253fd48e45","ios":"levelo://app?vid=1398e931-fb3c-4c94-bea0-5c253fd48e45"},"vehicle_type_id":"4","last_reported":1699797933,"current_range_meters":1200,"station_id":"","pricing_plan_id":"free"},{"bike_id":"72e6d634-443d-4c41-8159-a5fd9a7a7266","system_id":"levelo_inurba_marseille","lat":43.231919,"lon":5.355532,"is_reserved":false,"is_disabled":false,"rental_uris":{"android":"levelo://app?vid=72e6d634-443d-4c41-8159-a5fd9a7a7266","ios":"levelo://app?vid=72e6d634-443d-4c41-8159-a5fd9a7a7266"},"vehicle_type_id":"4","last_reported":1699797933,"current_range_meters":9600,"station_id":"ce4bhu92rcd13ifvqi70","pricing_plan_id":"free"},{"bike_id":"00fdd5e4-304b-4169-abde-577b252372d5","system_id":"levelo_inurba_marseille","lat":43.231923,"lon":5.355545,"is_reserved":false,"is_disabled":false,"rental_uris":{"android":"levelo://app?vid=00fdd5e4-304b-4169-abde-577b252372d5","ios":"levelo://app?vid=00fdd5e4-304b-4169-abde-577b252372d5"},"vehicle_type_id":"4","last_reported":1699797933,"current_range_meters":5200,"station_id":"ce4bhu92rcd13ifvqi70","pricing_plan_id":"free"},{"bike_id":"0859de7a-4e96-4994-915d-d196bedc1906","system_id":"levelo_inurba_marseille","lat":43.231919,"lon":5.355532,"is_reserved":false,"is_disabled":false,"rental_uris":{"android":"levelo://app?vid=0859de7a-4e96-4994-915d-d196bedc1906","ios":"levelo://app?vid=0859de7a-4e96-4994-915d-d196bedc1906"},"vehicle_type_id":"4","last_reported":1699797933,"current_range_meters":11600,"station_id":"ce4bhu92rcd13ifvqi70","pricing_plan_id":"free"},{"bike_id":"4e116bed-fac4-4a4f-9500-0a5b0e267303","system_id":"levelo_inurba_marseille","lat":43.231919,"lon":5.355532,"is_reserved":false,"is_disabled":false,"rental_uris":{"android":"levelo://app?vid=4e116bed-fac4-4a4f-9500-0a5b0e267303","ios":"levelo://app?vid=4e116bed-fac4-4a4f-9500-0a5b0e267303"},"vehicle_type_id":"4","last_reported":1699797933,"current_range_meters":31200,"station_id":"ce4bhu92rcd13ifvqi70","pricing_plan_id":"free"},{"bike_id":"8ee6b765-c082-44e7-9a02-b905a7e23f8d","system_id":"levelo_inurba_marseille","lat":43.231919,"lon":5.355532,"is_reserved":false,"is_disabled":false,"rental_uris":{"android":"levelo://app?vid=8ee6b765-c082-44e7-9a02-b905a7e23f8d","ios":"levelo://app?vid=8ee6b765-c082-44e7-9a02-b905a7e23f8d"},"vehicle_type_id":"4","last_reported":1699797933,"current_range_meters":28000,"station_id":"ce4bhu92rcd13ifvqi70","pricing_plan_id":"free"},{"bike_id":"992eea3e-1902-444c-9749-c1110e5711c7","system_id":"levelo_inurba_marseille","lat":43.231923,"lon":5.355545,"is_reserved":false,"is_disabled":false,"rental_uris":{"android":"levelo://app?vid=992eea3e-1902-444c-9749-c1110e5711c7","ios":"levelo://app?vid=992eea3e-1902-444c-9749-c1110e5711c7"},"vehicle_type_id":"4","last_reported":1699797933,"current_range_meters":20000,"station_id":"ce4bhu92rcd13ifvqi70","pricing_plan_id":"free"},{"bike_id":"84fd8072-7a0c-4102-8931-8813b907f9d6","system_id":"levelo_inurba_marseille","lat":43.231919,"lon":5.355532,"is_reserved":false,"is_disabled":false,"rental_uris":{"android":"levelo://app?vid=84fd8072-7a0c-4102-8931-8813b907f9d6","ios":"levelo://app?vid=84fd8072-7a0c-4102-8931-8813b907f9d6"},"vehicle_type_id":"4","last_reported":1699797933,"current_range_meters":27600,"station_id":"ce4bhu92rcd13ifvqi70","pricing_plan_id":"free"},{"bike_id":"9daf1409-5d52-407b-bc13-d7a387cdcdd6","system_id":"levelo_inurba_marseille","lat":43.231923,"lon":5.355545,"is_reserved":false,"is_disabled":false,"rental_uris":{"android":"levelo://app?vid=9daf1409-5d52-407b-bc13-d7a387cdcdd6","ios":"levelo://app?vid=9daf1409-5d52-407b-bc13-d7a387cdcdd6"},"vehicle_type_id":"4","last_reported":1699797933,"current_range_meters":14000,"station_id":"ce4bhu92rcd13ifvqi70","pricing_plan_id":"free"},{"bike_id":"3be6cbb5-6547-488d-a201-edead5165b04","system_id":"levelo_inurba_marseille","lat":43.231923,"lon":5.355545,"is_reserved":false,"is_disabled":false,"rental_uris":{"android":"levelo://app?vid=3be6cbb5-6547-488d-a201-edead5165b04","ios":"levelo://app?vid=3be6cbb5-6547-488d-a201-edead5165b04"},"vehicle_type_id":"4","last_reported":1699797933,"current_range_meters":31200,"station_id":"ce4bhu92rcd13ifvqi70","pricing_plan_id":"free"},