{"last_updated":1717859263,"ttl":30,"version":"2.2","data":{"bikes":[{"bike_id":"2bbb128f-0a8b-4448-961c-7f9825d7bbb1","system_id":"levelo_inurba_marseille","lat":43.309076,"lon":5.368465,"is_reserved":false,"is_disabled":false,"rental_uris":{"android":"levelo://app?vid=2bbb128f-0a8b-4448-961c-7f9825d7bbb1","ios":"levelo://app?vid=2bbb128f-0a8b-4448-961c-7f9825d7bbb1"},"vehicle_type_id":"4","last_reported":1717859264,"current_range_meters":27200,"station_id":"ce4bgn92rcd13ifvqbvg","pricing_plan_id":"cebpf4jnsgd1na2vs0mg"},{"bike_id":"c10dcb6b-ad72-42ae-bc0d-2b36ec48f302","system_id":"levelo_inurba_marseille","lat":43.309076,"lon":5.368465,"is_reserved":false,"is_disabled":false,"rental_uris":{"android":"levelo://app?vid=c10dcb6b-ad72-42ae-bc0d-2b36ec48f302","ios":"levelo://app?vid=c10dcb6b-ad72-42ae-bc0d-2b36ec48f302"},"vehicle_type_id":"4","last_reported":1717859264,"current_range_meters":11200,"station_id":"ce4bgn92rcd13ifvqbvg","pricing_plan_id":"cebpf4jnsgd1na2vs0mg"},{"bike_id":"717192eb-b8ad-4b32-8740-638892475e98","system_id":"levelo_inurba_marseille","lat":43.314811,"lon":5.373103,"is_reserved":false,"is_disabled":false,"rental_uris":{"android":"levelo://app?vid=717192eb-b8ad-4b32-8740-638892475e98","ios":"levelo://app?vid=717192eb-b8ad-4b32-8740-638892475e98"},"vehicle_type_id":"4","last_reported":1717859264,"current_range_meters":4000,"station_id":"ce4bgt12rcd13ifvqcd0","pricing_plan_id":"cebpf4jnsgd1na2vs0mg"},{"bike_id":"dc27acb9-1971-400b-8765-445cfa0232ea","system_id":"levelo_inurba_marseille","lat":43.314811,"lon":5.373103,"is_reserved":false,"is_disabled":false,"rental_uris":{"android":"levelo://app?vid=dc27acb9-1971-400b-8765-445cfa0232ea","ios":"levelo://app?vid=dc27acb9-1971-400b-8765-445cfa0232ea"},"vehicle_type_id":"4","last_reported":1717859264,"current_range_meters":9200,"station_id":"ce4bgt12rcd13ifvqcd0","pricing_plan_id":"cebpf4jnsgd1na2vs0mg"},{"bike_id":"65966451-44ec-49a7-b81b-1c5a863853a9","system_id":"levelo_inurba_marseille","lat":43.314811,"lon":5.373103,"is_reserved":false,"is_disabled":false,"rental_uris":{"android":"levelo://app?vid=65966451-44ec-49a7-b81b-1c5a863853a9","ios":"levelo://app?vid=65966451-44ec-49a7-b81b-1c5a863853a9"},"vehicle_type_id":"4","last_reported":1717859264,"current_range_meters":23600,"station_id":"ce4bgt12rcd13ifvqcd0","pricing_plan_id":"cebpf4jnsgd1na2vs0mg"},{"bike_id":"d357df84-08f7-4f66-a03d-d152bcea5d05","system_id":"levelo_inurba_marseille","lat":43.309034,"lon":5.371783,"is_reserved":false,"is_disabled":false,"rental_uris":{"android":"levelo://app?vid=d357df84-08f7-4f66-a03d-d152bcea5d05","ios":"levelo://app?vid=d357df84-08f7-4f66-a03d-d152bcea5d05"},"vehicle_type_id":"4","last_reported":1717859264,"current_range_meters":14000,"station_id":"ce4bguh2rcd13ifvqckg","pricing_plan_id":"cebpf4jnsgd1na2vs0mg"},{"bike_id":"98c6391c-cca9-448a-a73c-b76c7d17a9cf","system_id":"levelo_inurba_marseille","lat":43.309039,"lon":5.371797,"is_reserved":false,"is_disabled":false,"rental_uris":{"android":"levelo://app?vid=98c6391c-cca9-448a-a73c-b76c7d17a9cf","ios":"levelo://app?vid=98c6391c-cca9-448a-a73c-b76c7d17a9cf"},"vehicle_type_id":"4","last_reported":1717859264,"current_range_meters":16800,"station_id":"ce4bguh2rcd13ifvqckg","pricing_plan_id":"cebpf4jnsgd1na2vs0mg"},{"bike_id":"dba46227-9bca-49fe-ac18-bb468f150f05","system_id":"levelo_inurba_marseille","lat":43.309034,"lon":5.371783,"is_reserved":false,"is_disabled":false,"rental_uris":{"android":"levelo://app?vid=dba46227-9bca-49fe-ac18-bb468f150f05","ios":"levelo://app?vid=dba46227-9bca-49fe-ac18-bb468f150f05"},"vehicle_type_id":"4","last_reported":1717859264,"current_range_meters":8800,"station_id":"ce4bguh2rcd13ifvqckg","pricing_plan_id":"cebpf4jnsgd1na2vs0mg"},{"bike_id":"698fdd24-2313-4adb-8c3e-8b182893c389","system_id":"levelo_inurba_marseille","lat":43.30548,"lon":5.36706,"is_reserved":false,"is_disabled":false,"rental_uris":{"android":"levelo://app?vid=698fdd24-2313-4adb-8c3e-8b182893c389","ios":"levelo://app?vid=698fdd24-2313-4adb-8c3e-8b182893c389"},"vehicle_type_id":"4","last_reported":1717859264,"current_range_meters":2800,"station_id":"ce4bgrp2rcd13ifvqc9g","pricing_plan_id":"cebpf4jnsgd1na2vs0mg"},{"bike_id":"2663abd3-8f90-46c5-883f-d026116529d7","system_id":"levelo_inurba_marseille","lat":43.305706,"lon":5.365654,"is_reserved":false,"is_disabled":false,"rental_uris":{"android":"levelo://app?vid=2663abd3-8f90-46c5-883f-d026116529d7","ios":"levelo://app?vid=2663abd3-8f90-46c5-883f-d026116529d7"},"vehicle_type_id":"4","last_reported":1717859264,"current_range_meters":21600,"station_id":"ce4bgs12rcd13ifvqcag","pricing_plan_id":"cebpf4jnsgd1na2vs0mg"},{"bike_id":"6f4e644a-0730-4774-9531-e71c25dcad53","system_id":"levelo_inurba_marseille","lat":43.305712,"lon":5.365641,"is_reserved":false,"is_disabled":false,"rental_uris":{"android":"levelo://app?vid=6f4e644a-0730-4774-9531-e71c25dcad53","ios":"levelo://app?vid=6f4e644a-0730-4774-9531-e71c25dcad53"},"vehicle_type_id":"4","last_reported":1717859264,"current_range_meters":0,"station_id":"ce4bgs12rcd13ifvqcag","pricing_plan_id":"cebpf4jnsgd1na2vs0mg"},{"bike_id":"96082732-060e-4b95-aa6f-95512fe00e5c","system_id":"levelo_inurba_marseille","lat":43.305714,"lon":5.365633,"is_reserved":false,"is_disabled":false,"rental_uris":{"android":"levelo://app?vid=96082732-060e-4b95-aa6f-95512fe00e5c","ios":"levelo://app?vid=96082732-060e-4b95-aa6f-95512fe00e5c"},"vehicle_type_id":"4","last_reported":1717859264,"current_range_meters":0,"station_id":"ce4bgs12rcd13ifvqcag","pricing_plan_id":"cebpf4jnsgd1na2vs0mg"},{"bike_id":"94fbc719-7b29-4ad5-ad28-6e967e18d250","system_id":"levelo_inurba_marseille","lat":43.305714,"lon":5.365633,"is_reserved":false,"is_disabled":false,"rental_uris":{"android":"levelo://app?vid=94fbc719-7b29-4ad5-ad28-6e967e18d250","ios":"levelo://app?vid=94fbc719-7b29-4ad5-ad28-6e967e18d250"},"vehicle_type_id":"4","last_reported":1717859264,"current_range_meters":0,"station_id":"ce4bgs12rcd13ifvqcag","pricing_plan_id":"cebpf4jnsgd1na2vs0mg"},{"bike_id":"a1d847c5-96b7-453a-b9d3-9e5dc4aec4d6","system_id":"levelo_inurba_marseille","lat":43.305706,"lon":5.365654,"is_reserved":false,"is_disabled":false,"rental_uris":{"android":"levelo://app?vid=a1d847c5-96b7-453a-b9d3-9e5dc4aec4d6","ios":"levelo://app?vid=a1d847c5-96b7-453a-b9d3-9e5dc4aec4d6"},"vehicle_type_id":"4","last_reported":1717859264,"current_range_meters":400,"station_id":"ce4bgs12rcd13ifvqcag","pricing_plan_id":"cebpf4jnsgd1na2vs0mg"},{"bike_id":"6711a720-4be1-4766-9812-54d9f67bc267","system_id":"levelo_inurba_marseille","lat":43.31844,"lon":5.37356,"is_reserved":false,"is_disabled":false,"rental_uris":{"android":"levelo://app?vid=6711a720-4be1-4766-9812-54d9f67bc267","ios":"levelo://app?vid=6711a720-4be1-4766-9812-54d9f67bc267"},"vehicle_type_id":"4","last_reported":1717859264,"current_range_meters":11200,"station_id":"","pricing_plan_id":"cebpf4jnsgd1na2vs0mg"},{"bike_id":"f1aba7c8-98b4-4861-844d-edb1882d9d19","system_id":"levelo_inurba_marseille","lat":43.305706,"lon":5.365654,"is_reserved":false,"is_disabled":false,"rental_uris":{"android":"levelo://app?vid=f1aba7c8-98b4-4861-844d-edb1882d9d19","ios":"levelo://app?vid=f1aba7c8-98b4-4861-844d-edb1882d9d19"},"vehicle_type_id":"4","last_reported":1717859264,"current_range_meters":11200,"station_id":"ce4bgs12rcd13ifvqcag","pricing_plan_id":"cebpf4jnsgd1na2vs0mg"},{"bike_id":"6346f381-fec9-4271-aa61-8d45a76bfe42","system_id":"levelo_inurba_marseille","lat":43.309912,"lon":5.376584,"is_reserved":false,"is_disabled":false,"rental_uris":{"android":"levelo://app?vid=6346f381-fec9-4271-aa61-8d45a76bfe42","ios":"levelo://app?vid=6346f381-fec9-4271-aa61-8d45a76bfe42"},"vehicle_type_id":"4","last_reported":1717859264,"current_range_meters":24400,"station_id":"","pricing_plan_id":"cebpf4jnsgd1na2vs0mg"},{"bike_id":"00e4ffc5-8703-4b56-b49a-2f4d116aa123","system_id":"levelo_inurba_marseille","lat":43.305989,"lon":5.37225,"is_reserved":false,"is_disabled":false,"rental_uris":{"android":"levelo://app?vid=00e4ffc5-8703-4b56-b49a-2f4d116aa123","ios":"levelo://app?vid=00e4ffc5-8703-4b56-b49a-2f4d116aa123"},"vehicle_type_id":"4","last_reported":1717859264,"current_range_meters":30800,"station_id":"ce4bgqh2rcd13ifvqc4g","pricing_plan_id":"cebpf4jnsgd1na2vs0mg"},{"bike_id":"a674ac1d-09a9-4a69-ad7c-2b3b59e30e6a","system_id":"levelo_inurba_marseille","lat":43.305989,"lon":5.37225,"is_reserved":false,"is_disabled":false,"rental_uris":{"android":"levelo://app?vid=a674ac1d-09a9-4a69-ad7c-2b3b59e30e6a","ios":"levelo://app?vid=a674ac1d-09a9-4a69-ad7c-2b3b59e30e6a"},"vehicle_type_id":"4","last_reported":1717859264,"current_range_meters":6800,"station_id":"ce4bgqh2rcd13ifvqc4g","pricing_plan_id":"cebpf4jnsgd1na2vs0mg"},{"bike_id":"6cfe9099-152c-4ea1-8fd5-fd661426d86a","system_id":"levelo_inurba_marseille","lat":43.311131,"lon":5.377651,"is_reserved":false,"is_disabled":false,"rental_uris":{"android":"levelo://app?vid=6cfe9099-152c-4ea1-8fd5-fd661426d86a","ios":"levelo://app?vid=6cfe9099-152c-4ea1-8fd5-fd661426d86a"},"vehicle_type_id":"4","last_reported":1717859264,"current_range_meters":15600,"station_id":"ce4bgt92rcd13ifvqcg0","pricing_plan_id":"cebpf4jnsgd1na2vs0mg"},{"bike_id":"96d8610a-1efe-445e-9517-836d3e0a29f5","system_id":"levelo_inurba_marseille","lat":43.311125,"lon":5.377624,"is_reserved":false,"is_disabled":false,"rental_uris":{"android":"levelo://app?vid=96d8610a-1efe-445e-9517-836d3e0a29f5","ios":"levelo://app?vid=96d8610a-1efe-445e-9517-836d3e0a29f5"},"vehicle_type_id":"4","last_reported":1717859264,"current_range_meters":28400,"station_id":"ce4bgt92rcd13ifvqcg0","pricing_plan_id":"cebpf4jnsgd1na2vs0mg"},{"bike_id":"0b288518-44e1-4ef5-b70f-a13fbc605393","system_id":"levelo_inurba_marseille","lat":43.307945,"lon":5.376487,"is_reserved":false,"is_disabled":false,"rental_uris":{"android":"levelo://app?vid=0b288518-44e1-4ef5-b70f-a13fbc605393","ios":"levelo://app?vid=0b288518-44e1-4ef5-b70f-a13fbc605393"},"vehicle_type_id":"4","last_reported":1717859264,"current_range_meters":18400,"station_id":"ce4bgv92rcd13ifvqcq0","pricing_plan_id":"cebpf4jnsgd1na2vs0mg"},{"bike_id":"3f82ad97-1945-477d-98a2-dbe14c25fe60","system_id":"levelo_inurba_marseille","lat":43.307945,"lon":5.376487,"is_reserved":false,"is_disabled":false,"rental_uris":{"android":"levelo://app?vid=3f82ad97-1945-477d-98a2-dbe14c25fe60","ios":"levelo://app?vid=3f82ad97-1945-477d-98a2-dbe14c25fe60"},"vehicle_type_id":"4","last_reported":1717859264,"current_range_meters":6400,"station_id":"ce4bgv92rcd13ifvqcq0","pricing_plan_id":"cebpf4jnsgd1na2vs0mg"},{"bike_id":"292e0f3b-333e-4f0b-a5c4-0fd421455f2f","system_id":"levelo_inurba_marseille","lat":43.307945,"lon":5.376487,"is_reserved":false,"is_disabled":false,"rental_uris":{"android":"levelo://app?vid=292e0f3b-333e-4f0b-a5c4-0fd421455f2f","ios":"levelo://app?vid=292e0f3b-333e-4f0b-a5c4-0fd421455f2f"},"vehicle_type_id":"4","last_reported":1717859264,"current_range_meters":5200,"station_id":"ce4bgv92rcd13ifvqcq0","pricing_plan_id":"cebpf4jnsgd1na2vs0mg"},{"bike_id":"7a47f840-aac7-4e62-a63f-08d6726051c6","system_id":"levelo_inurba_marseille","lat":43.317075,"lon":5.377367,"is_reserved":false,"is_disabled":false,"rental_uris":{"android":"levelo://app?vid=7a47f840-aac7-4e62-a63f-08d6726051c6","ios":"levelo://app?vid=7a47f840-aac7-4e62-a63f-08d6726051c6"},"vehicle_type_id":"4","last_reported":1717859264,"current_range_meters":0,"station_id":"ce4bgth2rcd13ifvqch0","pricing_plan_id":"cebpf4jnsgd1na2vs0mg"},{"bike_id":"adfbeb41-dd7e-45de-94ce-4dddb83403b9","system_id":"levelo_inurba_marseille","lat":43.317095,"lon":5.377495,"is_reserved":false,"is_disabled":false,"rental_uris":{"android":"levelo://app?vid=adfbeb41-dd7e-45de-94ce-4dddb83403b9","ios":"levelo://app?vid=adfbeb41-dd7e-45de-94ce-4dddb83403b9"},"vehicle_type_id":"4","last_reported":1717859264,"current_range_meters":16400,"station_id":"ce4bgth2rcd13ifvqch0","pricing_plan_id":"cebpf4jnsgd1na2vs0mg"},{"bike_id":"33da4861-0224-4221-90cd-1e0444d94940","system_id":"levelo_inurba_marseille","lat":43.303046,"lon":5.368981,"is_reserved":false,"is_disabled":false,"rental_uris":{"android":"levelo://app?vid=33da4861-0224-4221-90cd-1e0444d94940","ios":"levelo://app?vid=33da4861-0224-4221-90cd-1e0444d94940"},"vehicle_type_id":"4","last_reported":1717859264,"current_range_meters":27200,"station_id":"ce4bgqh2rcd13ifvqc5g","pricing_plan_id":"cebpf4jnsgd1na2vs0mg"},{"bike_id":"7bc19c88-ef00-40fe-a5fd-b9dcb3bf0943","system_id":"levelo_inurba_marseille","lat":43.305989,"lon":5.37225,"is_reserved":false,"is_disabled":false,"rental_uris":{"android":"levelo://app?vid=7bc19c88-ef00-40fe-a5fd-b9dcb3bf0943","ios":"levelo://app?vid=7bc19c88-ef00-40fe-a5fd-b9dcb3bf0943"},"vehicle_type_id":"4","last_reported":1717859264,"current_range_meters":10400,"station_id":"ce4bgqh2rcd13ifvqc4g","pricing_plan_id":"cebpf4jnsgd1na2vs0mg"},{"bike_id":"f42bceef-7437-4dec-beeb-dab311c675cd","system_id":"levelo_inurba_marseille","lat":43.315289,"lon":5.380349,"is_reserved":false,"is_disabled":false,"rental_uris":{"android":"levelo://app?vid=f42bceef-7437-4dec-beeb-dab311c675cd","ios":"levelo://app?vid=f42bceef-7437-4dec-beeb-dab311c675cd"},"vehicle_type_id":"4","last_reported":1717859264,"current_range_meters":22400,"station_id":"ce4bhsp2rcd13ifvqi50","pricing_plan_id":"cebpf4jnsgd1na2vs0mg"},{"bike_id":"ac96678a-6ef9-4509-a965-742931f2abc5","system_id":"levelo_inurba_marseille","lat":43.315289,"lon":5.380349,"is_reserved":false,"is_disabled":false,"rental_uris":{"android":"levelo://app?vid=ac96678a-6ef9-4509-a965-742931f2abc5","ios":"levelo://app?vid=ac96678a-6ef9-4509-a965-742931f2abc5"},"vehicle_type_id":"4","last_reported":1717859264,"current_range_meters":3600,"station_id":"ce4bhsp2rcd13ifvqi50","pricing_plan_id":"cebpf4jnsgd1na2vs0mg"},{"bike_id":"53295028-3f58-42d0-84d8-686ed73f20d0","system_id":"levelo_inurba_marseille","lat":43.31865,"lon":5.3783,"is_reserved":false,"is_disabled":false,"rental_uris":{"android":"levelo://app?vid=53295028-3f58-42d0-84d8-686ed73f20d0","ios":"levelo://app?vid=53295028-3f58-42d0-84d8-686ed73f20d0"},"vehicle_type_id":"4","last_reported":1717859264,"current_range_meters":7200,"station_id":"","pricing_plan_id":"cebpf4jnsgd1na2vs0mg"},{"bike_id":"ff77d62f-6851-439c-9c03-c24e8f8ae4e3","system_id":"levelo_inurba_marseille","lat":43.31534,"lon":5.38044,"is_reserved":false,"is_disabled":false,"rental_uris":{"android":"levelo://app?vid=ff77d62f-6851-439c-9c03-c24e8f8ae4e3","ios":"levelo://app?vid=ff77d62f-6851-439c-9c03-c24e8f8ae4e3"},"vehicle_type_id":"4","last_reported":1717859264,"current_range_meters":0,"station_id":"ce4bhsp2rcd13ifvqi50","pricing_plan_id":"cebpf4jnsgd1na2vs0mg"},{"bike_id":"96483652-fe3e-401f-acee-583a85dd25d1","system_id":"levelo_inurba_marseille","lat":43.324771,"lon":5.36557,"is_reserved":false,"is_disabled":false,"rental_uris":{"android":"levelo://app?vid=96483652-fe3e-401f-acee-583a85dd25d1","ios":"levelo://app?vid=96483652-fe3e-401f-acee-583a85dd25d1"},"vehicle_type_id":"4","last_reported":1717859264,"current_range_meters":800,"station_id":"ce4bhs12rcd13ifvqhvg","pricing_plan_id":"cebpf4jnsgd1na2vs0mg"},{"bike_id":"fada84f9-a656-4086-90bf-aa6171f2a0c9","system_id":"levelo_inurba_marseille","lat":43.324771,"lon":5.36557,"is_reserved":false,"is_disabled":false,"rental_uris":{"android":"levelo://app?vid=fada84f9-a656-4086-90bf-aa6171f2a0c9","ios":"levelo://app?vid=fada84f9-a656-4086-90bf-aa6171f2a0c9"},"vehicle_type_id":"4","last_reported":1717859264,"current_range_meters":8800,"station_id":"ce4bhs12rcd13ifvqhvg","pricing_plan_id":"cebpf4jnsgd1na2vs0mg"},{"bike_id":"a454c26a-82d2-43c5-9256-71987a94a541","system_id":"levelo_inurba_marseille","lat":43.324771,"lon":5.36557,"is_reserved":false,"is_disabled":false,"rental_uris":{"android":"levelo://app?vid=a454c26a-82d2-43c5-9256-71987a94a541","ios":"levelo://app?vid=a454c26a-82d2-43c5-9256-71987a94a541"},"vehicle_type_id":"4","last_reported":1717859264,"current_range_meters":0,"station_id":"ce4bhs12rcd13ifvqhvg","pricing_plan_id":"cebpf4jnsgd1na2vs0mg"},{"bike_id":"e43511aa-cdca-423f-885f-86a2c2a3ac0b","system_id":"levelo_inurba_marseille","lat":43.324771,"lon":5.36557,"is_reserved":false,"is_disabled":false,"rental_uris":{"android":"levelo://app?vid=e43511aa-cdca-423f-885f-86a2c2a3ac0b","ios":"levelo://app?vid=e43511aa-cdca-423f-885f-86a2c2a3ac0b"},"vehicle_type_id":"4","last_reported":1717859264,"current_range_meters":21600,"station_id":"ce4bhs12rcd13ifvqhvg","pricing_plan_id":"cebpf4jnsgd1na2vs0mg"},{"bike_id":"a3965347-6333-4afd-82c3-e015e11b01b0","system_id":"levelo_inurba_marseille","lat":43.310804,"lon":5.38359,"is_reserved":false,"is_disabled":false,"rental_uris":{"android":"levelo://app?vid=a3965347-6333-4afd-82c3-e015e11b01b0","ios":"levelo://app?vid=a3965347-6333-4afd-82c3-e015e11b01b0"},"vehicle_type_id":"4","last_reported":1717859264,"current_range_meters":17200,"station_id":"ce4bgv92rcd13ifvqcr0","pricing_plan_id":"cebpf4jnsgd1na2vs0mg"},{"bike_id":"a2e95b13-029a-4b52-b539-7ff5ef2f1b0d","system_id":"levelo_inurba_marseille","lat":43.310804,"lon":5.38359,"is_reserved":false,"is_disabled":false,"rental_uris":{"android":"levelo://app?vid=a2e95b13-029a-4b52-b539-7ff5ef2f1b0d","ios":"levelo://app?vid=a2e95b13-029a-4b52-b539-7ff5ef2f1b0d"},"vehicle_type_id":"4","last_reported":1717859264,"current_range_meters":16400,"station_id":"ce4bgv92rcd13ifvqcr0","pricing_plan_id":"cebpf4jnsgd1na2vs0mg"},{"bike_id":"a0229175-9c2c-4942-8ff8-ddda024577f9","system_id":"levelo_inurba_marseille","lat":43.310804,"lon":5.38359,"is_reserved":false,"is_disabled":false,"rental_uris":{"android":"levelo://app?vid=a0229175-9c2c-4942-8ff8-ddda024577f9","ios":"levelo://app?vid=a0229175-9c2c-4942-8ff8-ddda024577f9"},"vehicle_type_id":"4","last_reported":1717859264,"current_range_meters":1600,"station_id":"ce4bgv92rcd13ifvqcr0","pricing_plan_id":"cebpf4jnsgd1na2vs0mg"},{"bike_id":"6f484980-c18f-49ab-a75e-d7f5a6b56354","system_id":"levelo_inurba_marseille","lat":43.30143,"lon":5.37413,"is_reserved":false,"is_disabled":false,"rental_uris":{"android":"levelo://app?vid=6f484980-c18f-49ab-a75e-d7f5a6b56354","ios":"levelo://app?vid=6f484980-c18f-49ab-a75e-d7f5a6b56354"},"vehicle_type_id":"4","last_reported":1717859264,"current_range_meters":19600,"station_id":"ce4bgs92rcd13ifvqcc0","pricing_plan_id":"cebpf4jnsgd1na2vs0mg"},{"bike_id":"31b9426c-0649-4626-a8a8-4c6ad974ef81","system_id":"levelo_inurba_marseille","lat":43.301429,"lon":5.37413,"is_reserved":false,"is_disabled":false,"rental_uris":{"android":"levelo://app?vid=31b9426c-0649-4626-a8a8-4c6ad974ef81","ios":"levelo://app?vid=31b9426c-0649-4626-a8a8-4c6ad974ef81"},"vehicle_type_id":"4","last_reported":1717859264,"current_range_meters":31200,"station_id":"ce4bgs92rcd13ifvqcc0","pricing_plan_id":"cebpf4jnsgd1na2vs0mg"},{"bike_id":"87aa194f-7d9d-4546-8468-f7c5b98e0d35","system_id":"levelo_inurba_marseille","lat":43.302784,"lon":5.377158,"is_reserved":false,"is_disabled":false,"rental_uris":{"android":"levelo://app?vid=87aa194f-7d9d-4546-8468-f7c5b98e0d35","ios":"levelo://app?vid=87aa194f-7d9d-4546-8468-f7c5b98e0d35"},"vehicle_type_id":"4","last_reported":1717859264,"current_range_meters":10800,"station_id":"ce4bguh2rcd13ifvqcj0","pricing_plan_id":"cebpf4jnsgd1na2vs0mg"},{"bike_id":"2d89a6c1-9f21-463c-bd76-e000bb4a8d39","system_id":"levelo_inurba_marseille","lat":43.301498,"lon":5.374328,"is_reserved":false,"is_disabled":false,"rental_uris":{"android":"levelo://app?vid=2d89a6c1-9f21-463c-bd76-e000bb4a8d39","ios":"levelo://app?vid=2d89a6c1-9f21-463c-bd76-e000bb4a8d39"},"vehicle_type_id":"4","last_reported":1717859264,"current_range_meters":23200,"station_id":"","pricing_plan_id":"cebpf4jnsgd1na2vs0mg"},{"bike_id":"1f5548cc-33a8-4692-8324-72705e574447","system_id":"levelo_inurba_marseille","lat":43.319935,"lon":5.381699,"is_reserved":false,"is_disabled":false,"rental_uris":{"android":"levelo://app?vid=1f5548cc-33a8-4692-8324-72705e574447","ios":"levelo://app?vid=1f5548cc-33a8-4692-8324-72705e574447"},"vehicle_type_id":"4","last_reported":1717859264,"current_range_meters":4800,"station_id":"ce4bhr12rcd13ifvqhpg","pricing_plan_id":"cebpf4jnsgd1na2vs0mg"},{"bike_id":"699c1570-326e-425c-bcac-af01ccfc73c6","system_id":"levelo_inurba_marseille","lat":43.32,"lon":5.38149,"is_reserved":false,"is_disabled":false,"rental_uris":{"android":"levelo://app?vid=699c1570-326e-425c-bcac-af01ccfc73c6","ios":"levelo://app?vid=699c1570-326e-425c-bcac-af01ccfc73c6"},"vehicle_type_id":"4","last_reported":1717859264,"current_range_meters":4800,"station_id":"ce4bhr12rcd13ifvqhpg","pricing_plan_id":"cebpf4jnsgd1na2vs0mg"},{"bike_id":"3c72346b-018b-466a-9da7-3e4c3254b0e4","system_id":"levelo_inurba_marseille","lat":43.302784,"lon":5.377158,"is_reserved":false,"is_disabled":false,"rental_uris":{"android":"levelo://app?vid=3c72346b-018b-466a-9da7-3e4c3254b0e4","ios":"levelo://app?vid=3c72346b-018b-466a-9da7-3e4c3254b0e4"},"vehicle_type_id":"4","last_reported":1717859264,"current_range_meters":13200,"station_id":"ce4bguh2rcd13ifvqcj0","pricing_plan_id":"cebpf4jnsgd1na2vs0mg"},{"bike_id":"7dfdb917-d721-4ab0-b825-050c09694fce","system_id":"levelo_inurba_marseille","lat":43.30266,"lon":5.3779,"is_reserved":false,"is_disabled":false,"rental_uris":{"android":"levelo://app?vid=7dfdb917-d721-4ab0-b825-050c09694fce","ios":"levelo://app?vid=7dfdb917-d721-4ab0-b825-050c09694fce"},"vehicle_type_id":"4","last_reported":1717859264,"current_range_meters":16800,"station_id":"","pricing_plan_id":"cebpf4jnsgd1na2vs0mg"},{"bike_id":"d79021bd-d869-481a-a4a4-4796aa96860c","system_id":"levelo_inurba_marseille","lat":43.319935,"lon":5.381699,"is_reserved":false,"is_disabled":false,"rental_uris":{"android":"levelo://app?vid=d79021bd-d869-481a-a4a4-4796aa96860c","ios":"levelo://app?vid=d79021bd-d869-481a-a4a4-4796aa96860c"},"vehicle_type_id":"4","last_reported":1717859264,"current_range_meters":30800,"station_id":"ce4bhr12rcd13ifvqhpg","pricing_plan_id":"cebpf4jnsgd1na2vs0mg"},{"bike_id":"a9df4d73-f767-4c75-b46c-4d2ed4ee7865","system_id":"levelo_inurba_marseille","lat":43.319935,"lon":5.381699,"is_reserved":false,"is_disabled":false,"rental_uris":{"android":"levelo://app?vid=a9df4d73-f767-4c75-b46c-4d2ed4ee7865","ios":"levelo://app?vid=a9df4d73-f767-4c75-b46c-4d2ed4ee7865"},"vehicle_type_id":"4","last_reported":1717859264,"current_range_meters":26000,"station_id":"ce4bhr12rcd13ifvqhpg","pricing_plan_id":"cebpf4jnsgd1na2vs0mg"},{"bike_id":"ef90f540-6c23-413c-838c-260d8d8196cf","system_id":"levelo_inurba_marseille","lat":43.313571,"lon":5.384829,"is_reserved":false,"is_disabled":false,"rental_uris":{"android":"levelo://app?vid=ef90f540-6c23-413c-838c-260d8d8196cf","ios":"levelo://app?vid=ef90f540-6c23-413c-838c-260d8d8196cf"},"vehicle_type_id":"4","last_reported":1717859264,"current_range_meters":3600,"station_id":"ce4bgt92rcd13ifvqcf0","pricing_plan_id":"cebpf4jnsgd1na2vs0mg"},{"bike_id":"f669908d-093c-4c73-b266-149fda6ac4a4","system_id":"levelo_inurba_marseille","lat":43.313571,"lon":5.384829,"is_reserved":false,"is_disabled":false,"rental_uris":{"android":"levelo://app?vid=f669908d-093c-4c73-b266-149fda6ac4a4","ios":"levelo://app?vid=f669908d-093c-4c73-b266-149fda6ac4a4"},"vehicle_type_id":"4","last_reported":1717859264,"current_range_meters":31600,"station_id":"ce4bgt92rcd13ifvqcf0","pricing_plan_id":"cebpf4jnsgd1na2vs0mg"},{"bike_id":"bc65e9ae-47b2-425b-9aed-2be159a91f53","system_id":"levelo_inurba_marseille","lat":43.299724,"lon":5.371829,"is_reserved":false,"is_disabled":false,"rental_uris":{"android":"levelo://app?vid=bc65e9ae-47b2-425b-9aed-2be159a91f53","ios":"levelo://app?vid=bc65e9ae-47b2-425b-9aed-2be159a91f53"},"vehicle_type_id":"4","last_reported":1717859264,"current_range_meters":32000,"station_id":"ce4bgr92rcd13ifvqc7g","pricing_plan_id":"cebpf4jnsgd1na2vs0mg"},{"bike_id":"7ef44e4c-f56d-4bfb-8e0c-8666412ca320","system_id":"levelo_inurba_marseille","lat":43.299724,"lon":5.371829,"is_reserved":false,"is_disabled":false,"rental_uris":{"android":"levelo://app?vid=7ef44e4c-f56d-4bfb-8e0c-8666412ca320","ios":"levelo://app?vid=7ef44e4c-f56d-4bfb-8e0c-8666412ca320"},"vehicle_type_id":"4","last_reported":1717859264,"current_range_meters":28800,"station_id":"ce4bgr92rcd13ifvqc7g","pricing_plan_id":"cebpf4jnsgd1na2vs0mg"},{"bike_id":"2747c04d-212f-4376-87b6-8ccc7ed22bfe","system_id":"levelo_inurba_marseille","lat":43.299222,"lon":5.365554,"is_reserved":false,"is_disabled":false,"rental_uris":{"android":"levelo://app?vid=2747c04d-212f-4376-87b6-8ccc7ed22bfe","ios":"levelo://app?vid=2747c04d-212f-4376-87b6-8ccc7ed22bfe"},"vehicle_type_id":"4","last_reported":1717859264,"current_range_meters":0,"station_id":"ce4bgm92rcd13ifvqbr0","pricing_plan_id":"cebpf4jnsgd1na2vs0mg"},{"bike_id":"57294de9-7d6c-42a4-a5c2-780aeed89c15","system_id":"levelo_inurba_marseille","lat":43.299724,"lon":5.371829,"is_reserved":false,"is_disabled":false,"rental_uris":{"android":"levelo://app?vid=57294de9-7d6c-42a4-a5c2-780aeed89c15","ios":"levelo://app?vid=57294de9-7d6c-42a4-a5c2-780aeed89c15"},"vehicle_type_id":"4","last_reported":1717859264,"current_range_meters":0,"station_id":"ce4bgr92rcd13ifvqc7g","pricing_plan_id":"cebpf4jnsgd1na2vs0mg"},{"bike_id":"9d5c8ed5-64b1-45d2-b238-ba1102368e6d","system_id":"levelo_inurba_marseille","lat":43.299724,"lon":5.371829,"is_reserved":false,"is_disabled":false,"rental_uris":{"android":"levelo://app?vid=9d5c8ed5-64b1-45d2-b238-ba1102368e6d","ios":"levelo://app?vid=9d5c8ed5-64b1-45d2-b238-ba1102368e6d"},"vehicle_type_id":"4","last_reported":1717859264,"current_range_meters":4000,"station_id":"ce4bgr92rcd13ifvqc7g","pricing_plan_id":"cebpf4jnsgd1na2vs0mg"},{"bike_id":"65644656-5cbf-4714-b24f-f749fb957c26","system_id":"levelo_inurba_marseille","lat":43.299222,"lon":5.365554,"is_reserved":false,"is_disabled":false,"rental_uris":{"android":"levelo://app?vid=65644656-5cbf-4714-b24f-f749fb957c26","ios":"levelo://app?vid=65644656-5cbf-4714-b24f-f749fb957c26"},"vehicle_type_id":"4","last_reported":1717859264,"current_range_meters":6000,"station_id":"ce4bgm92rcd13ifvqbr0","pricing_plan_id":"cebpf4jnsgd1na2vs0mg"},{"bike_id":"c71db845-bb2c-45f8-8ec9-fdff3a093472","system_id":"levelo_inurba_marseille","lat":43.310804,"lon":5.38359,"is_reserved":false,"is_disabled":false,"rental_uris":{"android":"levelo://app?vid=c71db845-bb2c-45f8-8ec9-fdff3a093472","ios":"levelo://app?vid=c71db845-bb2c-45f8-8ec9-fdff3a093472"},"vehicle_type_id":"4","last_reported":1717859264,"current_range_meters":8400,"station_id":"ce4bgv92rcd13ifvqcr0","pricing_plan_id":"cebpf4jnsgd1na2vs0mg"},{"bike_id":"3c9fe599-11ef-4904-ac9f-222bc966a693","system_id":"levelo_inurba_marseille","lat":43.305179,"lon":5.382934,"is_reserved":false,"is_disabled":false,"rental_uris":{"android":"levelo://app?vid=3c9fe599-11ef-4904-ac9f-222bc966a693","ios":"levelo://app?vid=3c9fe599-11ef-4904-ac9f-222bc966a693"},"vehicle_type_id":"4","last_reported":1717859264,"current_range_meters":4000,"station_id":"","pricing_plan_id":"cebpf4jnsgd1na2vs0mg"},{"bike_id":"cc8a33dd-c295-48e1-b881-c792e56df925","system_id":"levelo_inurba_marseille","lat":43.29853,"lon":5.36284,"is_reserved":false,"is_disabled":false,"rental_uris":{"android":"levelo://app?vid=cc8a33dd-c295-48e1-b881-c792e56df925","ios":"levelo://app?vid=cc8a33dd-c295-48e1-b881-c792e56df925"},"vehicle_type_id":"4","last_reported":1717859264,"current_range_meters":0,"station_id":"ce4bgpp2rcd13ifvqc3g","pricing_plan_id":"cebpf4jnsgd1na2vs0mg"},{"bike_id":"c71b20cd-b9dd-4f67-9c68-f0db5ed03636","system_id":"levelo_inurba_marseille","lat":43.30085,"lon":5.37853,"is_reserved":false,"is_disabled":false,"rental_uris":{"android":"levelo://app?vid=c71b20cd-b9dd-4f67-9c68-f0db5ed03636","ios":"levelo://app?vid=c71b20cd-b9dd-4f67-9c68-f0db5ed03636"},"vehicle_type_id":"4","last_reported":1717859264,"current_range_meters":21200,"station_id":"","pricing_plan_id":"cebpf4jnsgd1na2vs0mg"},{"bike_id":"c6f7493c-ff84-4d19-ae28-44948bf6afc6","system_id":"levelo_inurba_marseille","lat":43.310804,"lon":5.38359,"is_reserved":false,"is_disabled":false,"rental_uris":{"android":"levelo://app?vid=c6f7493c-ff84-4d19-ae28-44948bf6afc6","ios":"levelo://app?vid=c6f7493c-ff84-4d19-ae28-44948bf6afc6"},"vehicle_type_id":"4","last_reported":1717859264,"current_range_meters":15200,"station_id":"ce4bgv92rcd13ifvqcr0","pricing_plan_id":"cebpf4jnsgd1na2vs0mg"},{"bike_id":"8310cd58-fe37-46f2-b754-95a44588fa6f","system_id":"levelo_inurba_marseille","lat":43.311722,"lon":5.387247,"is_reserved":false,"is_disabled":false,"rental_uris":{"android":"levelo://app?vid=8310cd58-fe37-46f2-b754-95a44588fa6f","ios":"levelo://app?vid=8310cd58-fe37-46f2-b754-95a44588fa6f"},"vehicle_type_id":"4","last_reported":1717859264,"current_range_meters":17200,"station_id":"ce4bgv12rcd13ifvqcp0","pricing_plan_id":"cebpf4jnsgd1na2vs0mg"},{"bike_id":"1686af6e-1d2e-43de-a602-539e461fc3a4","system_id":"levelo_inurba_marseille","lat":43.311722,"lon":5.387247,"is_reserved":false,"is_disabled":false,"rental_uris":{"android":"levelo://app?vid=1686af6e-1d2e-43de-a602-539e461fc3a4","ios":"levelo://app?vid=1686af6e-1d2e-43de-a602-539e461fc3a4"},"vehicle_type_id":"4","last_reported":1717859264,"current_range_meters":31200,"station_id":"ce4bgv12rcd13ifvqcp0","pricing_plan_id":"cebpf4jnsgd1na2vs0mg"},{"bike_id":"3f96b5b4-f71b-4d4a-83ea-5e1f02649ce7","system_id":"levelo_inurba_marseille","lat":43.311722,"lon":5.387247,"is_reserved":false,"is_disabled":false,"rental_uris":{"android":"levelo://app?vid=3f96b5b4-f71b-4d4a-83ea-5e1f02649ce7","ios":"levelo://app?vid=3f96b5b4-f71b-4d4a-83ea-5e1f02649ce7"},"vehicle_type_id":"4","last_reported":1717859264,"current_range_meters":25600,"station_id":"ce4bgv12rcd13ifvqcp0","pricing_plan_id":"cebpf4jnsgd1na2vs0mg"},{"bike_id":"94f6a33e-5ea3-4a19-915a-63fc38967f43","system_id":"levelo_inurba_marseille","lat":43.311722,"lon":5.387247,"is_reserved":false,"is_disabled":false,"rental_uris":{"android":"levelo://app?vid=94f6a33e-5ea3-4a19-915a-63fc38967f43","ios":"levelo://app?vid=94f6a33e-5ea3-4a19-915a-63fc38967f43"},"vehicle_type_id":"4","last_reported":1717859264,"current_range_meters":7600,"station_id":"ce4bgv12rcd13ifvqcp0","pricing_plan_id":"cebpf4jnsgd1na2vs0mg"},{"bike_id":"a6c41a8e-9568-47a9-bac0-6bb0eed146a9","system_id":"levelo_inurba_marseille","lat":43.299243,"lon":5.37481,"is_reserved":false,"is_disabled":false,"rental_uris":{"android":"levelo://app?vid=a6c41a8e-9568-47a9-bac0-6bb0eed146a9","ios":"levelo://app?vid=a6c41a8e-9568-47a9-bac0-6bb0eed146a9"},"vehicle_type_id":"4","last_reported":1717859264,"current_range_meters":24400,"station_id":"ce4bgjh2rcd13ifvqbg0","pricing_plan_id":"cebpf4jnsgd1na2vs0mg"},{"bike_id":"4026e43c-95a0-4a6c-af5e-6e122e9da6e5","system_id":"levelo_inurba_marseille","lat":43.299243,"lon":5.374807,"is_reserved":false,"is_disabled":false,"rental_uris":{"android":"levelo://app?vid=4026e43c-95a0-4a6c-af5e-6e122e9da6e5","ios":"levelo://app?vid=4026e43c-95a0-4a6c-af5e-6e122e9da6e5"},"vehicle_type_id":"4","last_reported":1717859264,"current_range_meters":31200,"station_id":"ce4bgjh2rcd13ifvqbg0","pricing_plan_id":"cebpf4jnsgd1na2vs0mg"},{"bike_id":"20cdc830-06a7-460f-8aa0-079f7b5c4972","system_id":"levelo_inurba_marseille","lat":43.311722,"lon":5.387247,"is_reserved":false,"is_disabled":false,"rental_uris":{"android":"levelo://app?vid=20cdc830-06a7-460f-8aa0-079f7b5c4972","ios":"levelo://app?vid=20cdc830-06a7-460f-8aa0-079f7b5c4972"},"vehicle_type_id":"4","last_reported":1717859264,"current_range_meters":22000,"station_id":"ce4bgv12rcd13ifvqcp0","pricing_plan_id":"cebpf4jnsgd1na2vs0mg"},{"bike_id":"31316cdd-25e7-49ed-b917-35bde9ec38c7","system_id":"levelo_inurba_marseille","lat":43.311722,"lon":5.387247,"is_reserved":false,"is_disabled":false,"rental_uris":{"android":"levelo://app?vid=31316cdd-25e7-49ed-b917-35bde9ec38c7","ios":"levelo://app?vid=31316cdd-25e7-49ed-b917-35bde9ec38c7"},"vehicle_type_id":"4","last_reported":1717859264,"current_range_meters":400,"station_id":"ce4bgv12rcd13ifvqcp0","pricing_plan_id":"cebpf4jnsgd1na2vs0mg"},{"bike_id":"b3999aff-636e-42d3-a03d-757c34b18a12","system_id":"levelo_inurba_marseille","lat":43.322872,"lon":5.382756,"is_reserved":false,"is_disabled":false,"rental_uris":{"android":"levelo://app?vid=b3999aff-636e-42d3-a03d-757c34b18a12","ios":"levelo://app?vid=b3999aff-636e-42d3-a03d-757c34b18a12"},"vehicle_type_id":"4","last_reported":1717859264,"current_range_meters":13600,"station_id":"ce4bhr12rcd13ifvqhqg","pricing_plan_id":"cebpf4jnsgd1na2vs0mg"},{"bike_id":"8573b21c-73b0-41cf-95bc-5857367daa49","system_id":"levelo_inurba_marseille","lat":43.322872,"lon":5.382756,"is_reserved":false,"is_disabled":false,"rental_uris":{"android":"levelo://app?vid=8573b21c-73b0-41cf-95bc-5857367daa49","ios":"levelo://app?vid=8573b21c-73b0-41cf-95bc-5857367daa49"},"vehicle_type_id":"4","last_reported":1717859264,"current_range_meters":23600,"station_id":"ce4bhr12rcd13ifvqhqg","pricing_plan_id":"cebpf4jnsgd1na2vs0mg"},{"bike_id":"abda3e9e-7dd9-4907-a4c6-4fb098ec6517","system_id":"levelo_inurba_marseille","lat":43.2968,"lon":5.37291,"is_reserved":false,"is_disabled":false,"rental_uris":{"android":"levelo://app?vid=abda3e9e-7dd9-4907-a4c6-4fb098ec6517","ios":"levelo://app?vid=abda3e9e-7dd9-4907-a4c6-4fb098ec6517"},"vehicle_type_id":"4","last_reported":1717859264,"current_range_meters":24800,"station_id":"ce4bgk12rcd13ifvqbj0","pricing_plan_id":"cebpf4jnsgd1na2vs0mg"},{"bike_id":"555565ff-e2d0-4a6a-a9a3-1ac28399606d","system_id":"levelo_inurba_marseille","lat":43.29628,"lon":5.37161,"is_reserved":false,"is_disabled":false,"rental_uris":{"android":"levelo://app?vid=555565ff-e2d0-4a6a-a9a3-1ac28399606d","ios":"levelo://app?vid=555565ff-e2d0-4a6a-a9a3-1ac28399606d"},"vehicle_type_id":"4","last_reported":1717859264,"current_range_meters":0,"station_id":"ce4bgnh2rcd13ifvqc0g","pricing_plan_id":"cebpf4jnsgd1na2vs0mg"},{"bike_id":"ca9d19bd-a184-4c31-8969-0d115bacc864","system_id":"levelo_inurba_marseille","lat":43.296131,"lon":5.370791,"is_reserved":false,"is_disabled":false,"rental_uris":{"android":"levelo://app?vid=ca9d19bd-a184-4c31-8969-0d115bacc864","ios":"levelo://app?vid=ca9d19bd-a184-4c31-8969-0d115bacc864"},"vehicle_type_id":"4","last_reported":1717859264,"current_range_meters":1200,"station_id":"ce4bgnh2rcd13ifvqc0g","pricing_plan_id":"cebpf4jnsgd1na2vs0mg"},{"bike_id":"99d8957d-0362-4108-9439-40ef3d56f2c1","system_id":"levelo_inurba_marseille","lat":43.29573,"lon":5.367355,"is_reserved":false,"is_disabled":false,"rental_uris":{"android":"levelo://app?vid=99d8957d-0362-4108-9439-40ef3d56f2c1","ios":"levelo://app?vid=99d8957d-0362-4108-9439-40ef3d56f2c1"},"vehicle_type_id":"4","last_reported":1717859264,"current_range_meters":6400,"station_id":"ce4bgph2rcd13ifvqc2g","pricing_plan_id":"cebpf4jnsgd1na2vs0mg"},{"bike_id":"0630808b-b6d9-4138-8f3d-e0a6375eb3c1","system_id":"levelo_inurba_marseille","lat":43.32147,"lon":5.38685,"is_reserved":false,"is_disabled":false,"rental_uris":{"android":"levelo://app?vid=0630808b-b6d9-4138-8f3d-e0a6375eb3c1","ios":"levelo://app?vid=0630808b-b6d9-4138-8f3d-e0a6375eb3c1"},"vehicle_type_id":"4","last_reported":1717859264,"current_range_meters":1600,"station_id":"","pricing_plan_id":"cebpf4jnsgd1na2vs0mg"},{"bike_id":"3f9fa05a-6d93-4ce0-b10d-6f6312ac4a07","system_id":"levelo_inurba_marseille","lat":43.297328,"lon":5.376743,"is_reserved":false,"is_disabled":false,"rental_uris":{"android":"levelo://app?vid=3f9fa05a-6d93-4ce0-b10d-6f6312ac4a07","ios":"levelo://app?vid=3f9fa05a-6d93-4ce0-b10d-6f6312ac4a07"},"vehicle_type_id":"4","last_reported":1717859264,"current_range_meters":26000,"station_id":"ce4bgkh2rcd13ifvqbl0","pricing_plan_id":"cebpf4jnsgd1na2vs0mg"},{"bike_id":"e6056fcc-83fe-41a3-bd83-28fa3b78680f","system_id":"levelo_inurba_marseille","lat":43.299146,"lon":5.381286,"is_reserved":false,"is_disabled":false,"rental_uris":{"android":"levelo://app?vid=e6056fcc-83fe-41a3-bd83-28fa3b78680f","ios":"levelo://app?vid=e6056fcc-83fe-41a3-bd83-28fa3b78680f"},"vehicle_type_id":"4","last_reported":1717859264,"current_range_meters":0,"station_id":"ce4bgj12rcd13ifvqbc0","pricing_plan_id":"cebpf4jnsgd1na2vs0mg"},{"bike_id":"aa401ce3-cca4-474d-adca-b8cfa0e4f167","system_id":"levelo_inurba_marseille","lat":43.29909,"lon":5.38138,"is_reserved":false,"is_disabled":false,"rental_uris":{"android":"levelo://app?vid=aa401ce3-cca4-474d-adca-b8cfa0e4f167","ios":"levelo://app?vid=aa401ce3-cca4-474d-adca-b8cfa0e4f167"},"vehicle_type_id":"4","last_reported":1717859264,"current_range_meters":0,"station_id":"ce4bgj12rcd13ifvqbc0","pricing_plan_id":"cebpf4jnsgd1na2vs0mg"},{"bike_id":"c61cfda6-45a1-4424-84d6-6abf8ceba8af","system_id":"levelo_inurba_marseille","lat":43.299028,"lon":5.381509,"is_reserved":false,"is_disabled":false,"rental_uris":{"android":"levelo://app?vid=c61cfda6-45a1-4424-84d6-6abf8ceba8af","ios":"levelo://app?vid=c61cfda6-45a1-4424-84d6-6abf8ceba8af"},"vehicle_type_id":"4","last_reported":1717859264,"current_range_meters":0,"station_id":"ce4bgj12rcd13ifvqbc0","pricing_plan_id":"cebpf4jnsgd1na2vs0mg"},{"bike_id":"f7d3e7f6-fdd8-435d-a90a-1308011ec59c","system_id":"levelo_inurba_marseille","lat":43.309589,"lon":5.390258,"is_reserved":false,"is_disabled":false,"rental_uris":{"android":"levelo://app?vid=f7d3e7f6-fdd8-435d-a90a-1308011ec59c","ios":"levelo://app?vid=f7d3e7f6-fdd8-435d-a90a-1308011ec59c"},"vehicle_type_id":"4","last_reported":1717859264,"current_range_meters":5600,"station_id":"ce4bgup2rcd13ifvqco0","pricing_plan_id":"cebpf4jnsgd1na2vs0mg"},{"bike_id":"5dec94a7-a345-45b7-bfd1-f6d0c6bf94f5","system_id":"levelo_inurba_marseille","lat":43.299028,"lon":5.381509,"is_reserved":false,"is_disabled":false,"rental_uris":{"android":"levelo://app?vid=5dec94a7-a345-45b7-bfd1-f6d0c6bf94f5","ios":"levelo://app?vid=5dec94a7-a345-45b7-bfd1-f6d0c6bf94f5"},"vehicle_type_id":"4","last_reported":1717859264,"current_range_meters":5600,"station_id":"ce4bgj12rcd13ifvqbc0","pricing_plan_id":"cebpf4jnsgd1na2vs0mg"},{"bike_id":"0632fefd-448d-4532-b008-9772a8abbbf0","system_id":"levelo_inurba_marseille","lat":43.309589,"lon":5.390258,"is_reserved":false,"is_disabled":false,"rental_uris":{"android":"levelo://app?vid=0632fefd-448d-4532-b008-9772a8abbbf0","ios":"levelo://app?vid=0632fefd-448d-4532-b008-9772a8abbbf0"},"vehicle_type_id":"4","last_reported":1717859264,"current_range_meters":26400,"station_id":"ce4bgup2rcd13ifvqco0","pricing_plan_id":"cebpf4jnsgd1na2vs0mg"},{"bike_id":"7b5d00c5-69d7-4149-8d1b-4cfe5ae9e41a","system_id":"levelo_inurba_marseille","lat":43.317557,"lon":5.390173,"is_reserved":false,"is_disabled":false,"rental_uris":{"android":"levelo://app?vid=7b5d00c5-69d7-4149-8d1b-4cfe5ae9e41a","ios":"levelo://app?vid=7b5d00c5-69d7-4149-8d1b-4cfe5ae9e41a"},"vehicle_type_id":"4","last_reported":1717859264,"current_range_meters":28000,"station_id":"ce4bhqp2rcd13ifvqhng","pricing_plan_id":"cebpf4jnsgd1na2vs0mg"},{"bike_id":"81db17fd-c5b3-4ab9-afdc-afc3b7fe1649","system_id":"levelo_inurba_marseille","lat":43.296263,"lon":5.377094,"is_reserved":false,"is_disabled":false,"rental_uris":{"android":"levelo://app?vid=81db17fd-c5b3-4ab9-afdc-afc3b7fe1649","ios":"levelo://app?vid=81db17fd-c5b3-4ab9-afdc-afc3b7fe1649"},"vehicle_type_id":"4","last_reported":1717859264,"current_range_meters":4000,"station_id":"ce4bgi92rcd13ifvqb90","pricing_plan_id":"cebpf4jnsgd1na2vs0mg"},{"bike_id":"5c949cc4-1817-432a-b98a-42e61f0a30ca","system_id":"levelo_inurba_marseille","lat":43.296263,"lon":5.377094,"is_reserved":false,"is_disabled":false,"rental_uris":{"android":"levelo://app?vid=5c949cc4-1817-432a-b98a-42e61f0a30ca","ios":"levelo://app?vid=5c949cc4-1817-432a-b98a-42e61f0a30ca"},"vehicle_type_id":"4","last_reported":1717859264,"current_range_meters":13600,"station_id":"ce4bgi92rcd13ifvqb90","pricing_plan_id":"cebpf4jnsgd1na2vs0mg"},{"bike_id":"95a0ff3a-30c9-4a0d-8281-342cba59a5e1","system_id":"levelo_inurba_marseille","lat":43.29981,"lon":5.3849,"is_reserved":false,"is_disabled":false,"rental_uris":{"android":"levelo://app?vid=95a0ff3a-30c9-4a0d-8281-342cba59a5e1","ios":"levelo://app?vid=95a0ff3a-30c9-4a0d-8281-342cba59a5e1"},"vehicle_type_id":"4","last_reported":1717859264,"current_range_meters":0,"station_id":"ce4bgj92rcd13ifvqbd0","pricing_plan_id":"cebpf4jnsgd1na2vs0mg"},{"bike_id":"0627e4fc-49cf-4e66-9cb9-853b774ba310","system_id":"levelo_inurba_marseille","lat":43.299707,"lon":5.384859,"is_reserved":false,"is_disabled":false,"rental_uris":{"android":"levelo://app?vid=0627e4fc-49cf-4e66-9cb9-853b774ba310","ios":"levelo://app?vid=0627e4fc-49cf-4e66-9cb9-853b774ba310"},"vehicle_type_id":"4","last_reported":1717859264,"current_range_meters":8000,"station_id":"ce4bgj92rcd13ifvqbd0","pricing_plan_id":"cebpf4jnsgd1na2vs0mg"},{"bike_id":"8977ea53-dc22-48df-8eb7-76a79b4d6f9d","system_id":"levelo_inurba_marseille","lat":43.299717,"lon":5.384845,"is_reserved":false,"is_disabled":false,"rental_uris":{"android":"levelo://app?vid=8977ea53-dc22-48df-8eb7-76a79b4d6f9d","ios":"levelo://app?vid=8977ea53-dc22-48df-8eb7-76a79b4d6f9d"},"vehicle_type_id":"4","last_reported":1717859264,"current_range_meters":7200,"station_id":"ce4bgj92rcd13ifvqbd0","pricing_plan_id":"cebpf4jnsgd1na2vs0mg"},{"bike_id":"3416899b-089b-491b-8a53-4fd5dc0db07e","system_id":"levelo_inurba_marseille","lat":43.295982,"lon":5.38102,"is_reserved":false,"is_disabled":false,"rental_uris":{"android":"levelo://app?vid=3416899b-089b-491b-8a53-4fd5dc0db07e","ios":"levelo://app?vid=3416899b-089b-491b-8a53-4fd5dc0db07e"},"vehicle_type_id":"4","last_reported":1717859264,"current_range_meters":0,"station_id":"ce4bgl12rcd13ifvqbo0","pricing_plan_id":"cebpf4jnsgd1na2vs0mg"},{"bike_id":"741ede4b-524f-4804-b507-2f3f52f8eff1","system_id":"levelo_inurba_marseille","lat":43.29602,"lon":5.381084,"is_reserved":false,"is_disabled":false,"rental_uris":{"android":"levelo://app?vid=741ede4b-524f-4804-b507-2f3f52f8eff1","ios":"levelo://app?vid=741ede4b-524f-4804-b507-2f3f52f8eff1"},"vehicle_type_id":"4","last_reported":1717859264,"current_range_meters":0,"station_id":"ce4bgl12rcd13ifvqbo0","pricing_plan_id":"cebpf4jnsgd1na2vs0mg"},{"bike_id":"e2f26556-b8f7-447a-bbec-7bab38862178","system_id":"levelo_inurba_marseille","lat":43.293259,"lon":5.371586,"is_reserved":false,"is_disabled":false,"rental_uris":{"android":"levelo://app?vid=e2f26556-b8f7-447a-bbec-7bab38862178","ios":"levelo://app?vid=e2f26556-b8f7-447a-bbec-7bab38862178"},"vehicle_type_id":"4","last_reported":1717859264,"current_range_meters":26800,"station_id":"ce4bgh92rcd13ifvqb40","pricing_plan_id":"cebpf4jnsgd1na2vs0mg"},{"bike_id":"40c8a431-d7b9-42a4-81a9-0f69a8f29221","system_id":"levelo_inurba_marseille","lat":43.293259,"lon":5.371586,"is_reserved":false,"is_disabled":false,"rental_uris":{"android":"levelo://app?vid=40c8a431-d7b9-42a4-81a9-0f69a8f29221","ios":"levelo://app?vid=40c8a431-d7b9-42a4-81a9-0f69a8f29221"},"vehicle_type_id":"4","last_reported":1717859264,"current_range_meters":6000,"station_id":"ce4bgh92rcd13ifvqb40","pricing_plan_id":"cebpf4jnsgd1na2vs0mg"},{"bike_id":"b3281370-27d4-400e-a70f-6267b4320116","system_id":"levelo_inurba_marseille","lat":43.290104,"lon":5.356111,"is_reserved":false,"is_disabled":false,"rental_uris":{"android":"levelo://app?vid=b3281370-27d4-400e-a70f-6267b4320116","ios":"levelo://app?vid=b3281370-27d4-400e-a70f-6267b4320116"},"vehicle_type_id":"4","last_reported":1717859264,"current_range_meters":0,"station_id":"ce4bhb92rcd13ifvqen0","pricing_plan_id":"cebpf4jnsgd1na2vs0mg"},{"bike_id":"94969fbc-0487-4adc-a0c3-9414d4c51dd5","system_id":"levelo_inurba_marseille","lat":43.305994,"lon":5.393687,"is_reserved":false,"is_disabled":false,"rental_uris":{"android":"levelo://app?vid=94969fbc-0487-4adc-a0c3-9414d4c51dd5","ios":"levelo://app?vid=94969fbc-0487-4adc-a0c3-9414d4c51dd5"},"vehicle_type_id":"4","last_reported":1717859264,"current_range_meters":12800,"station_id":"ce4bh0p2rcd13ifvqd80","pricing_plan_id":"cebpf4jnsgd1na2vs0mg"},{"bike_id":"00fa5c16-eaf7-4109-9066-daffb902a9e4","system_id":"levelo_inurba_marseille","lat":43.303002,"lon":5.392142,"is_reserved":false,"is_disabled":false,"rental_uris":{"android":"levelo://app?vid=00fa5c16-eaf7-4109-9066-daffb902a9e4","ios":"levelo://app?vid=00fa5c16-eaf7-4109-9066-daffb902a9e4"},"vehicle_type_id":"4","last_reported":1717859264,"current_range_meters":8400,"station_id":"ce4bgkh2rcd13ifvqbk0","pricing_plan_id":"cebpf4jnsgd1na2vs0mg"},{"bike_id":"43314691-999b-4637-8718-a09289c71c5a","system_id":"levelo_inurba_marseille","lat":43.2936,"lon":5.37835,"is_reserved":false,"is_disabled":false,"rental_uris":{"android":"levelo://app?vid=43314691-999b-4637-8718-a09289c71c5a","ios":"levelo://app?vid=43314691-999b-4637-8718-a09289c71c5a"},"vehicle_type_id":"4","last_reported":1717859264,"current_range_meters":23200,"station_id":"ce4bgjh2rcd13ifvqbf0","pricing_plan_id":"cebpf4jnsgd1na2vs0mg"},{"bike_id":"58ba1dfd-8839-491f-8b74-fc518b276a93","system_id":"levelo_inurba_marseille","lat":43.292311,"lon":5.360731,"is_reserved":false,"is_disabled":false,"rental_uris":{"android":"levelo://app?vid=58ba1dfd-8839-491f-8b74-fc518b276a93","ios":"levelo://app?vid=58ba1dfd-8839-491f-8b74-fc518b276a93"},"vehicle_type_id":"4","last_reported":1717859264,"current_range_meters":27200,"station_id":"ce4bhbh2rcd13ifvqeqg","pricing_plan_id":"cebpf4jnsgd1na2vs0mg"},{"bike_id":"1e6b7bca-4fc2-45bf-a1fa-1597e812d58b","system_id":"levelo_inurba_marseille","lat":43.296277,"lon":5.377108,"is_reserved":false,"is_disabled":false,"rental_uris":{"android":"levelo://app?vid=1e6b7bca-4fc2-45bf-a1fa-1597e812d58b","ios":"levelo://app?vid=1e6b7bca-4fc2-45bf-a1fa-1597e812d58b"},"vehicle_type_id":"4","last_reported":1717859264,"current_range_meters":24000,"station_id":"ce4bgi92rcd13ifvqb90","pricing_plan_id":"cebpf4jnsgd1na2vs0mg"},{"bike_id":"ee073b6f-e0e8-4229-b66e-72de3e92c5ed","system_id":"levelo_inurba_marseille","lat":43.29538,"lon":5.3855,"is_reserved":false,"is_disabled":false,"rental_uris":{"android":"levelo://app?vid=ee073b6f-e0e8-4229-b66e-72de3e92c5ed","ios":"levelo://app?vid=ee073b6f-e0e8-4229-b66e-72de3e92c5ed"},"vehicle_type_id":"4","last_reported":1717859264,"current_range_meters":0,"station_id":"ce4bgih2rcd13ifvqba0","pricing_plan_id":"cebpf4jnsgd1na2vs0mg"},{"bike_id":"b2d32572-1513-44e7-903e-097fe35d5cd6","system_id":"levelo_inurba_marseille","lat":43.29529,"lon":5.385581,"is_reserved":false,"is_disabled":false,"rental_uris":{"android":"levelo://app?vid=b2d32572-1513-44e7-903e-097fe35d5cd6","ios":"levelo://app?vid=b2d32572-1513-44e7-903e-097fe35d5cd6"},"vehicle_type_id":"4","last_reported":1717859264,"current_range_meters":24000,"station_id":"ce4bgih2rcd13ifvqba0","pricing_plan_id":"cebpf4jnsgd1na2vs0mg"},{"bike_id":"b2ea1411-ee69-4c1b-8fcd-767e3722ecc0","system_id":"levelo_inurba_marseille","lat":43.290779,"lon":5.371482,"is_reserved":false,"is_disabled":false,"rental_uris":{"android":"levelo://app?vid=b2ea1411-ee69-4c1b-8fcd-767e3722ecc0","ios":"levelo://app?vid=b2ea1411-ee69-4c1b-8fcd-767e3722ecc0"},"vehicle_type_id":"4","last_reported":1717859264,"current_range_meters":29600,"station_id":"ce4bh5p2rcd13ifvqe4g","pricing_plan_id":"cebpf4jnsgd1na2vs0mg"},{"bike_id":"13b8f616-48f3-4d7d-b1c8-fabba40bfe00","system_id":"levelo_inurba_marseille","lat":43.290779,"lon":5.371482,"is_reserved":false,"is_disabled":false,"rental_uris":{"android":"levelo://app?vid=13b8f616-48f3-4d7d-b1c8-fabba40bfe00","ios":"levelo://app?vid=13b8f616-48f3-4d7d-b1c8-fabba40bfe00"},"vehicle_type_id":"4","last_reported":1717859264,"current_range_meters":26400,"station_id":"ce4bh5p2rcd13ifvqe4g","pricing_plan_id":"cebpf4jnsgd1na2vs0mg"},{"bike_id":"18ee4dd0-7102-4e88-8c2b-ac314ed5ddbc","system_id":"levelo_inurba_marseille","lat":43.302008,"lon":5.394694,"is_reserved":false,"is_disabled":false,"rental_uris":{"android":"levelo://app?vid=18ee4dd0-7102-4e88-8c2b-ac314ed5ddbc","ios":"levelo://app?vid=18ee4dd0-7102-4e88-8c2b-ac314ed5ddbc"},"vehicle_type_id":"4","last_reported":1717859264,"current_range_meters":2400,"station_id":"ce4bh0p2rcd13ifvqd70","pricing_plan_id":"cebpf4jnsgd1na2vs0mg"},{"bike_id":"f00eaada-097f-4667-93a3-4f8dea7ad347","system_id":"levelo_inurba_marseille","lat":43.289468,"lon":5.363719,"is_reserved":false,"is_disabled":false,"rental_uris":{"android":"levelo://app?vid=f00eaada-097f-4667-93a3-4f8dea7ad347","ios":"levelo://app?vid=f00eaada-097f-4667-93a3-4f8dea7ad347"},"vehicle_type_id":"4","last_reported":1717859264,"current_range_meters":26000,"station_id":"ce4bhc92rcd13ifvqetg","pricing_plan_id":"cebpf4jnsgd1na2vs0mg"},{"bike_id":"73f8fc8d-4bfc-4edc-81a3-d20d9a93bda8","system_id":"levelo_inurba_marseille","lat":43.289184,"lon":5.366408,"is_reserved":false,"is_disabled":false,"rental_uris":{"android":"levelo://app?vid=73f8fc8d-4bfc-4edc-81a3-d20d9a93bda8","ios":"levelo://app?vid=73f8fc8d-4bfc-4edc-81a3-d20d9a93bda8"},"vehicle_type_id":"4","last_reported":1717859264,"current_range_meters":18000,"station_id":"ce4bhap2rcd13ifvqek0","pricing_plan_id":"cebpf4jnsgd1na2vs0mg"},{"bike_id":"0cf7e03a-66ad-4575-9a60-60c7651ccc03","system_id":"levelo_inurba_marseille","lat":43.289468,"lon":5.363719,"is_reserved":false,"is_disabled":false,"rental_uris":{"android":"levelo://app?vid=0cf7e03a-66ad-4575-9a60-60c7651ccc03","ios":"levelo://app?vid=0cf7e03a-66ad-4575-9a60-60c7651ccc03"},"vehicle_type_id":"4","last_reported":1717859264,"current_range_meters":5200,"station_id":"ce4bhc92rcd13ifvqetg","pricing_plan_id":"cebpf4jnsgd1na2vs0mg"},{"bike_id":"b53535fd-8b4c-4812-bfe0-29441a847482","system_id":"levelo_inurba_marseille","lat":43.289184,"lon":5.366408,"is_reserved":false,"is_disabled":false,"rental_uris":{"android":"levelo://app?vid=b53535fd-8b4c-4812-bfe0-29441a847482","ios":"levelo://app?vid=b53535fd-8b4c-4812-bfe0-29441a847482"},"vehicle_type_id":"4","last_reported":1717859264,"current_range_meters":0,"station_id":"ce4bhap2rcd13ifvqek0","pricing_plan_id":"cebpf4jnsgd1na2vs0mg"},{"bike_id":"03cc817a-5709-4916-a772-6e70ffc26ed2","system_id":"levelo_inurba_marseille","lat":43.289468,"lon":5.363719,"is_reserved":false,"is_disabled":false,"rental_uris":{"android":"levelo://app?vid=03cc817a-5709-4916-a772-6e70ffc26ed2","ios":"levelo://app?vid=03cc817a-5709-4916-a772-6e70ffc26ed2"},"vehicle_type_id":"4","last_reported":1717859264,"current_range_meters":16800,"station_id":"ce4bhc92rcd13ifvqetg","pricing_plan_id":"cebpf4jnsgd1na2vs0mg"},{"bike_id":"09b14e84-4138-453b-8d6c-5cf577f7616c","system_id":"levelo_inurba_marseille","lat":43.289184,"lon":5.366408,"is_reserved":false,"is_disabled":false,"rental_uris":{"android":"levelo://app?vid=09b14e84-4138-453b-8d6c-5cf577f7616c","ios":"levelo://app?vid=09b14e84-4138-453b-8d6c-5cf577f7616c"},"vehicle_type_id":"4","last_reported":1717859264,"current_range_meters":0,"station_id":"ce4bhap2rcd13ifvqek0","pricing_plan_id":"cebpf4jnsgd1na2vs0mg"},{"bike_id":"78416272-b7d8-481b-9c0f-6d74d593ef0f","system_id":"levelo_inurba_marseille","lat":43.30426,"lon":5.39736,"is_reserved":false,"is_disabled":false,"rental_uris":{"android":"levelo://app?vid=78416272-b7d8-481b-9c0f-6d74d593ef0f","ios":"levelo://app?vid=78416272-b7d8-481b-9c0f-6d74d593ef0f"},"vehicle_type_id":"4","last_reported":1717859264,"current_range_meters":18000,"station_id":"ce4bh092rcd13ifvqd20","pricing_plan_id":"cebpf4jnsgd1na2vs0mg"},{"bike_id":"a8a7283c-dd03-4073-bc15-591b2563643b","system_id":"levelo_inurba_marseille","lat":43.292644,"lon":5.384257,"is_reserved":false,"is_disabled":false,"rental_uris":{"android":"levelo://app?vid=a8a7283c-dd03-4073-bc15-591b2563643b","ios":"levelo://app?vid=a8a7283c-dd03-4073-bc15-591b2563643b"},"vehicle_type_id":"4","last_reported":1717859264,"current_range_meters":0,"station_id":"ce4bh692rcd13ifvqea0","pricing_plan_id":"cebpf4jnsgd1na2vs0mg"},{"bike_id":"e2147445-80d7-482e-bbe6-22001511e30f","system_id":"levelo_inurba_marseille","lat":43.29573,"lon":5.367355,"is_reserved":false,"is_disabled":false,"rental_uris":{"android":"levelo://app?vid=e2147445-80d7-482e-bbe6-22001511e30f","ios":"levelo://app?vid=e2147445-80d7-482e-bbe6-22001511e30f"},"vehicle_type_id":"4","last_reported":1717859264,"current_range_meters":0,"station_id":"ce4bgph2rcd13ifvqc2g","pricing_plan_id":"cebpf4jnsgd1na2vs0mg"},{"bike_id":"15d67a23-b95b-478e-88fa-6d3c0bb8d3de","system_id":"levelo_inurba_marseille","lat":43.30428,"lon":5.39753,"is_reserved":false,"is_disabled":false,"rental_uris":{"android":"levelo://app?vid=15d67a23-b95b-478e-88fa-6d3c0bb8d3de","ios":"levelo://app?vid=15d67a23-b95b-478e-88fa-6d3c0bb8d3de"},"vehicle_type_id":"4","last_reported":1717859264,"current_range_meters":0,"station_id":"ce4bh092rcd13ifvqd20","pricing_plan_id":"cebpf4jnsgd1na2vs0mg"},{"bike_id":"9f10996b-c8bc-4797-9460-e8c26b67ad89","system_id":"levelo_inurba_marseille","lat":43.290995,"lon":5.381361,"is_reserved":false,"is_disabled":false,"rental_uris":{"android":"levelo://app?vid=9f10996b-c8bc-4797-9460-e8c26b67ad89","ios":"levelo://app?vid=9f10996b-c8bc-4797-9460-e8c26b67ad89"},"vehicle_type_id":"4","last_reported":1717859264,"current_range_meters":0,"station_id":"ce4bh512rcd13ifvqe2g","pricing_plan_id":"cebpf4jnsgd1na2vs0mg"},{"bike_id":"31b0f780-a1d1-4fa3-82d9-498e62a23590","system_id":"levelo_inurba_marseille","lat":43.290995,"lon":5.381361,"is_reserved":false,"is_disabled":false,"rental_uris":{"android":"levelo://app?vid=31b0f780-a1d1-4fa3-82d9-498e62a23590","ios":"levelo://app?vid=31b0f780-a1d1-4fa3-82d9-498e62a23590"},"vehicle_type_id":"4","last_reported":1717859264,"current_range_meters":1200,"station_id":"ce4bh512rcd13ifvqe2g","pricing_plan_id":"cebpf4jnsgd1na2vs0mg"},{"bike_id":"dc5d2c9b-191b-4319-8d30-c2361ae69914","system_id":"levelo_inurba_marseille","lat":43.295169,"lon":5.390426,"is_reserved":false,"is_disabled":false,"rental_uris":{"android":"levelo://app?vid=dc5d2c9b-191b-4319-8d30-c2361ae69914","ios":"levelo://app?vid=dc5d2c9b-191b-4319-8d30-c2361ae69914"},"vehicle_type_id":"4","last_reported":1717859264,"current_range_meters":22800,"station_id":"ce4bh3p2rcd13ifvqdp0","pricing_plan_id":"cebpf4jnsgd1na2vs0mg"},{"bike_id":"0d4dec46-ce99-4e1c-a64a-72a7f19b2c75","system_id":"levelo_inurba_marseille","lat":43.330442,"lon":5.389148,"is_reserved":false,"is_disabled":false,"rental_uris":{"android":"levelo://app?vid=0d4dec46-ce99-4e1c-a64a-72a7f19b2c75","ios":"levelo://app?vid=0d4dec46-ce99-4e1c-a64a-72a7f19b2c75"},"vehicle_type_id":"4","last_reported":1717859264,"current_range_meters":4800,"station_id":"ce4bhr92rcd13ifvqhrg","pricing_plan_id":"cebpf4jnsgd1na2vs0mg"},{"bike_id":"55188b08-34e8-4898-ad3f-4639510ef909","system_id":"levelo_inurba_marseille","lat":43.330442,"lon":5.389148,"is_reserved":false,"is_disabled":false,"rental_uris":{"android":"levelo://app?vid=55188b08-34e8-4898-ad3f-4639510ef909","ios":"levelo://app?vid=55188b08-34e8-4898-ad3f-4639510ef909"},"vehicle_type_id":"4","last_reported":1717859264,"current_range_meters":6400,"station_id":"ce4bhr92rcd13ifvqhrg","pricing_plan_id":"cebpf4jnsgd1na2vs0mg"},{"bike_id":"3a728147-8209-4957-a7ea-9593f811cfa0","system_id":"levelo_inurba_marseille","lat":43.284219,"lon":5.3497,"is_reserved":false,"is_disabled":false,"rental_uris":{"android":"levelo://app?vid=3a728147-8209-4957-a7ea-9593f811cfa0","ios":"levelo://app?vid=3a728147-8209-4957-a7ea-9593f811cfa0"},"vehicle_type_id":"4","last_reported":1717859264,"current_range_meters":6400,"station_id":"ce4bhbh2rcd13ifvqepg","pricing_plan_id":"cebpf4jnsgd1na2vs0mg"},{"bike_id":"10f052da-41c3-43e5-b96c-96043e84b34e","system_id":"levelo_inurba_marseille","lat":43.310624,"lon":5.400902,"is_reserved":false,"is_disabled":false,"rental_uris":{"android":"levelo://app?vid=10f052da-41c3-43e5-b96c-96043e84b34e","ios":"levelo://app?vid=10f052da-41c3-43e5-b96c-96043e84b34e"},"vehicle_type_id":"4","last_reported":1717859264,"current_range_meters":17200,"station_id":"","pricing_plan_id":"cebpf4jnsgd1na2vs0mg"},{"bike_id":"610e5120-1931-4588-ba20-9cd6657ab499","system_id":"levelo_inurba_marseille","lat":43.309371,"lon":5.401449,"is_reserved":false,"is_disabled":false,"rental_uris":{"android":"levelo://app?vid=610e5120-1931-4588-ba20-9cd6657ab499","ios":"levelo://app?vid=610e5120-1931-4588-ba20-9cd6657ab499"},"vehicle_type_id":"4","last_reported":1717859264,"current_range_meters":20000,"station_id":"ce4bgvp2rcd13ifvqct0","pricing_plan_id":"cebpf4jnsgd1na2vs0mg"},{"bike_id":"f5d81ff7-7e0d-44d8-86e3-2548419d17b8","system_id":"levelo_inurba_marseille","lat":43.3373,"lon":5.37466,"is_reserved":false,"is_disabled":false,"rental_uris":{"android":"levelo://app?vid=f5d81ff7-7e0d-44d8-86e3-2548419d17b8","ios":"levelo://app?vid=f5d81ff7-7e0d-44d8-86e3-2548419d17b8"},"vehicle_type_id":"4","last_reported":1717859264,"current_range_meters":4400,"station_id":"","pricing_plan_id":"cebpf4jnsgd1na2vs0mg"},{"bike_id":"080fc6cd-978b-490a-99b2-518edf96ff06","system_id":"levelo_inurba_marseille","lat":43.312609,"lon":5.401662,"is_reserved":false,"is_disabled":false,"rental_uris":{"android":"levelo://app?vid=080fc6cd-978b-490a-99b2-518edf96ff06","ios":"levelo://app?vid=080fc6cd-978b-490a-99b2-518edf96ff06"},"vehicle_type_id":"4","last_reported":1717859264,"current_range_meters":12800,"station_id":"ce4bh092rcd13ifvqd30","pricing_plan_id":"cebpf4jnsgd1na2vs0mg"},{"bike_id":"fe7c50b8-2ecc-4d22-858e-9247f17007e1","system_id":"levelo_inurba_marseille","lat":43.312609,"lon":5.401662,"is_reserved":false,"is_disabled":false,"rental_uris":{"android":"levelo://app?vid=fe7c50b8-2ecc-4d22-858e-9247f17007e1","ios":"levelo://app?vid=fe7c50b8-2ecc-4d22-858e-9247f17007e1"},"vehicle_type_id":"4","last_reported":1717859264,"current_range_meters":28800,"station_id":"ce4bh092rcd13ifvqd30","pricing_plan_id":"cebpf4jnsgd1na2vs0mg"},{"bike_id":"cdcc840e-365a-452c-a8f7-d053fbfbdf68","system_id":"levelo_inurba_marseille","lat":43.309371,"lon":5.401449,"is_reserved":false,"is_disabled":false,"rental_uris":{"android":"levelo://app?vid=cdcc840e-365a-452c-a8f7-d053fbfbdf68","ios":"levelo://app?vid=cdcc840e-365a-452c-a8f7-d053fbfbdf68"},"vehicle_type_id":"4","last_reported":1717859264,"current_range_meters":18000,"station_id":"ce4bgvp2rcd13ifvqct0","pricing_plan_id":"cebpf4jnsgd1na2vs0mg"},{"bike_id":"056f03f9-3b35-486c-8e83-1970c304aa04","system_id":"levelo_inurba_marseille","lat":43.287403,"lon":5.365277,"is_reserved":false,"is_disabled":false,"rental_uris":{"android":"levelo://app?vid=056f03f9-3b35-486c-8e83-1970c304aa04","ios":"levelo://app?vid=056f03f9-3b35-486c-8e83-1970c304aa04"},"vehicle_type_id":"4","last_reported":1717859264,"current_range_meters":18000,"station_id":"","pricing_plan_id":"cebpf4jnsgd1na2vs0mg"},{"bike_id":"527c8278-6351-4925-bce7-002d3ad83d8e","system_id":"levelo_inurba_marseille","lat":43.33753,"lon":5.37447,"is_reserved":false,"is_disabled":false,"rental_uris":{"android":"levelo://app?vid=527c8278-6351-4925-bce7-002d3ad83d8e","ios":"levelo://app?vid=527c8278-6351-4925-bce7-002d3ad83d8e"},"vehicle_type_id":"4","last_reported":1717859264,"current_range_meters":29600,"station_id":"","pricing_plan_id":"cebpf4jnsgd1na2vs0mg"},{"bike_id":"c4f698ec-64e9-4887-b0e3-1335dc62c252","system_id":"levelo_inurba_marseille","lat":43.337564,"lon":5.374545,"is_reserved":false,"is_disabled":false,"rental_uris":{"android":"levelo://app?vid=c4f698ec-64e9-4887-b0e3-1335dc62c252","ios":"levelo://app?vid=c4f698ec-64e9-4887-b0e3-1335dc62c252"},"vehicle_type_id":"4","last_reported":1717859264,"current_range_meters":14800,"station_id":"","pricing_plan_id":"cebpf4jnsgd1na2vs0mg"},{"bike_id":"10c53891-9146-44ae-9185-bf8cc571acaa","system_id":"levelo_inurba_marseille","lat":43.33762,"lon":5.3745,"is_reserved":false,"is_disabled":false,"rental_uris":{"android":"levelo://app?vid=10c53891-9146-44ae-9185-bf8cc571acaa","ios":"levelo://app?vid=10c53891-9146-44ae-9185-bf8cc571acaa"},"vehicle_type_id":"4","last_reported":1717859264,"current_range_meters":8000,"station_id":"","pricing_plan_id":"cebpf4jnsgd1na2vs0mg"},{"bike_id":"bd2c1248-fa3f-4543-b9fe-9c1d2712ada7","system_id":"levelo_inurba_marseille","lat":43.324771,"lon":5.36557,"is_reserved":false,"is_disabled":false,"rental_uris":{"android":"levelo://app?vid=bd2c1248-fa3f-4543-b9fe-9c1d2712ada7","ios":"levelo://app?vid=bd2c1248-fa3f-4543-b9fe-9c1d2712ada7"},"vehicle_type_id":"4","last_reported":1717859264,"current_range_meters":10400,"station_id":"ce4bhs12rcd13ifvqhvg","pricing_plan_id":"cebpf4jnsgd1na2vs0mg"},{"bike_id":"6ffb793c-39a0-47f7-b324-b59a9e32e112","system_id":"levelo_inurba_marseille","lat":43.30642,"lon":5.401031,"is_reserved":false,"is_disabled":false,"rental_uris":{"android":"levelo://app?vid=6ffb793c-39a0-47f7-b324-b59a9e32e112","ios":"levelo://app?vid=6ffb793c-39a0-47f7-b324-b59a9e32e112"},"vehicle_type_id":"4","last_reported":1717859264,"current_range_meters":3200,"station_id":"ce4bh112rcd13ifvqda0","pricing_plan_id":"cebpf4jnsgd1na2vs0mg"},{"bike_id":"d82662e0-5b04-4f49-a049-a77932557752","system_id":"levelo_inurba_marseille","lat":43.301117,"lon":5.398795,"is_reserved":false,"is_disabled":false,"rental_uris":{"android":"levelo://app?vid=d82662e0-5b04-4f49-a049-a77932557752","ios":"levelo://app?vid=d82662e0-5b04-4f49-a049-a77932557752"},"vehicle_type_id":"4","last_reported":1717859264,"current_range_meters":5200,"station_id":"ce4bh0h2rcd13ifvqd40","pricing_plan_id":"cebpf4jnsgd1na2vs0mg"},{"bike_id":"0527baa1-0e7f-4c5c-9401-c83c58337fa7","system_id":"levelo_inurba_marseille","lat":43.301117,"lon":5.398795,"is_reserved":false,"is_disabled":false,"rental_uris":{"android":"levelo://app?vid=0527baa1-0e7f-4c5c-9401-c83c58337fa7","ios":"levelo://app?vid=0527baa1-0e7f-4c5c-9401-c83c58337fa7"},"vehicle_type_id":"4","last_reported":1717859264,"current_range_meters":22400,"station_id":"ce4bh0h2rcd13ifvqd40","pricing_plan_id":"cebpf4jnsgd1na2vs0mg"},{"bike_id":"d8eebb89-6c6f-4f0c-82a1-87cf255ed4e4","system_id":"levelo_inurba_marseille","lat":43.301117,"lon":5.398795,"is_reserved":false,"is_disabled":false,"rental_uris":{"android":"levelo://app?vid=d8eebb89-6c6f-4f0c-82a1-87cf255ed4e4","ios":"levelo://app?vid=d8eebb89-6c6f-4f0c-82a1-87cf255ed4e4"},"vehicle_type_id":"4","last_reported":1717859264,"current_range_meters":3600,"station_id":"ce4bh0h2rcd13ifvqd40","pricing_plan_id":"cebpf4jnsgd1na2vs0mg"},{"bike_id":"7435cd82-31bf-4ccb-8b65-8ce676a222f6","system_id":"levelo_inurba_marseille","lat":43.33797,"lon":5.37433,"is_reserved":false,"is_disabled":false,"rental_uris":{"android":"levelo://app?vid=7435cd82-31bf-4ccb-8b65-8ce676a222f6","ios":"levelo://app?vid=7435cd82-31bf-4ccb-8b65-8ce676a222f6"},"vehicle_type_id":"4","last_reported":1717859264,"current_range_meters":30400,"station_id":"","pricing_plan_id":"cebpf4jnsgd1na2vs0mg"},{"bike_id":"94b9a7ba-47b6-479a-828d-5501427a2385","system_id":"levelo_inurba_marseille","lat":43.286961,"lon":5.373785,"is_reserved":false,"is_disabled":false,"rental_uris":{"android":"levelo://app?vid=94b9a7ba-47b6-479a-828d-5501427a2385","ios":"levelo://app?vid=94b9a7ba-47b6-479a-828d-5501427a2385"},"vehicle_type_id":"4","last_reported":1717859264,"current_range_meters":29600,"station_id":"ce4bh3p2rcd13ifvqdq0","pricing_plan_id":"cebpf4jnsgd1na2vs0mg"},{"bike_id":"d0f1c58d-c936-403b-a947-66eccfe8ce96","system_id":"levelo_inurba_marseille","lat":43.287053,"lon":5.373977,"is_reserved":false,"is_disabled":false,"rental_uris":{"android":"levelo://app?vid=d0f1c58d-c936-403b-a947-66eccfe8ce96","ios":"levelo://app?vid=d0f1c58d-c936-403b-a947-66eccfe8ce96"},"vehicle_type_id":"4","last_reported":1717859264,"current_range_meters":0,"station_id":"ce4bh3p2rcd13ifvqdq0","pricing_plan_id":"cebpf4jnsgd1na2vs0mg"},{"bike_id":"f1f6f8bf-5832-489e-9306-ab29c714f3c3","system_id":"levelo_inurba_marseille","lat":43.298681,"lon":5.397225,"is_reserved":false,"is_disabled":false,"rental_uris":{"android":"levelo://app?vid=f1f6f8bf-5832-489e-9306-ab29c714f3c3","ios":"levelo://app?vid=f1f6f8bf-5832-489e-9306-ab29c714f3c3"},"vehicle_type_id":"4","last_reported":1717859264,"current_range_meters":0,"station_id":"ce4bh0h2rcd13ifvqd50","pricing_plan_id":"cebpf4jnsgd1na2vs0mg"},{"bike_id":"20dfe619-c171-40c9-b18e-0c9860da8845","system_id":"levelo_inurba_marseille","lat":43.298681,"lon":5.397225,"is_reserved":false,"is_disabled":false,"rental_uris":{"android":"levelo://app?vid=20dfe619-c171-40c9-b18e-0c9860da8845","ios":"levelo://app?vid=20dfe619-c171-40c9-b18e-0c9860da8845"},"vehicle_type_id":"4","last_reported":1717859264,"current_range_meters":6400,"station_id":"ce4bh0h2rcd13ifvqd50","pricing_plan_id":"cebpf4jnsgd1na2vs0mg"},{"bike_id":"be5f2ef5-bfe6-481d-a1f0-d5ec41212ac5","system_id":"levelo_inurba_marseille","lat":43.289307,"lon":5.38406,"is_reserved":false,"is_disabled":false,"rental_uris":{"android":"levelo://app?vid=be5f2ef5-bfe6-481d-a1f0-d5ec41212ac5","ios":"levelo://app?vid=be5f2ef5-bfe6-481d-a1f0-d5ec41212ac5"},"vehicle_type_id":"4","last_reported":1717859264,"current_range_meters":800,"station_id":"ce4bh612rcd13ifvqe6g","pricing_plan_id":"cebpf4jnsgd1na2vs0mg"},{"bike_id":"3a5de81c-66d3-4ee4-b894-838defcf8a7c","system_id":"levelo_inurba_marseille","lat":43.290336,"lon":5.386425,"is_reserved":false,"is_disabled":false,"rental_uris":{"android":"levelo://app?vid=3a5de81c-66d3-4ee4-b894-838defcf8a7c","ios":"levelo://app?vid=3a5de81c-66d3-4ee4-b894-838defcf8a7c"},"vehicle_type_id":"4","last_reported":1717859264,"current_range_meters":0,"station_id":"ce4bh4p2rcd13ifvqe0g","pricing_plan_id":"cebpf4jnsgd1na2vs0mg"},{"bike_id":"b4ac8b9f-ef2c-4964-9b21-9a02726ee78a","system_id":"levelo_inurba_marseille","lat":43.302759,"lon":5.400793,"is_reserved":false,"is_disabled":false,"rental_uris":{"android":"levelo://app?vid=b4ac8b9f-ef2c-4964-9b21-9a02726ee78a","ios":"levelo://app?vid=b4ac8b9f-ef2c-4964-9b21-9a02726ee78a"},"vehicle_type_id":"4","last_reported":1717859264,"current_range_meters":6800,"station_id":"ce4bgvh2rcd13ifvqcs0","pricing_plan_id":"cebpf4jnsgd1na2vs0mg"},{"bike_id":"71cb95fe-d7dc-4f97-b2aa-4fb5c59716d4","system_id":"levelo_inurba_marseille","lat":43.286039,"lon":5.370681,"is_reserved":false,"is_disabled":false,"rental_uris":{"android":"levelo://app?vid=71cb95fe-d7dc-4f97-b2aa-4fb5c59716d4","ios":"levelo://app?vid=71cb95fe-d7dc-4f97-b2aa-4fb5c59716d4"},"vehicle_type_id":"4","last_reported":1717859264,"current_range_meters":3600,"station_id":"ce4bht12rcd13ifvqi60","pricing_plan_id":"cebpf4jnsgd1na2vs0mg"},{"bike_id":"3f9a7760-214a-4273-8d31-ac1bccaa1056","system_id":"levelo_inurba_marseille","lat":43.287185,"lon":5.379373,"is_reserved":false,"is_disabled":false,"rental_uris":{"android":"levelo://app?vid=3f9a7760-214a-4273-8d31-ac1bccaa1056","ios":"levelo://app?vid=3f9a7760-214a-4273-8d31-ac1bccaa1056"},"vehicle_type_id":"4","last_reported":1717859264,"current_range_meters":0,"station_id":"ce4bh9p2rcd13ifvqec0","pricing_plan_id":"cebpf4jnsgd1na2vs0mg"},{"bike_id":"44e96b8f-cff3-44a1-a424-4b5cf15e9ab8","system_id":"levelo_inurba_marseille","lat":43.316828,"lon":5.404723,"is_reserved":false,"is_disabled":false,"rental_uris":{"android":"levelo://app?vid=44e96b8f-cff3-44a1-a424-4b5cf15e9ab8","ios":"levelo://app?vid=44e96b8f-cff3-44a1-a424-4b5cf15e9ab8"},"vehicle_type_id":"4","last_reported":1717859264,"current_range_meters":18000,"station_id":"ce4bh012rcd13ifvqd00","pricing_plan_id":"cebpf4jnsgd1na2vs0mg"},{"bike_id":"6712a3a1-1d6c-4840-b9c3-a55cff10397c","system_id":"levelo_inurba_marseille","lat":43.316828,"lon":5.404723,"is_reserved":false,"is_disabled":false,"rental_uris":{"android":"levelo://app?vid=6712a3a1-1d6c-4840-b9c3-a55cff10397c","ios":"levelo://app?vid=6712a3a1-1d6c-4840-b9c3-a55cff10397c"},"vehicle_type_id":"4","last_reported":1717859264,"current_range_meters":0,"station_id":"ce4bh012rcd13ifvqd00","pricing_plan_id":"cebpf4jnsgd1na2vs0mg"},{"bike_id":"a70c49ae-d380-4727-849b-00d083a240e5","system_id":"levelo_inurba_marseille","lat":43.316828,"lon":5.404723,"is_reserved":false,"is_disabled":false,"rental_uris":{"android":"levelo://app?vid=a70c49ae-d380-4727-849b-00d083a240e5","ios":"levelo://app?vid=a70c49ae-d380-4727-849b-00d083a240e5"},"vehicle_type_id":"4","last_reported":1717859264,"current_range_meters":6800,"station_id":"ce4bh012rcd13ifvqd00","pricing_plan_id":"cebpf4jnsgd1na2vs0mg"},{"bike_id":"802637a2-85b5-4695-a67f-80f074b6da0d","system_id":"levelo_inurba_marseille","lat":43.316821,"lon":5.404737,"is_reserved":false,"is_disabled":false,"rental_uris":{"android":"levelo://app?vid=802637a2-85b5-4695-a67f-80f074b6da0d","ios":"levelo://app?vid=802637a2-85b5-4695-a67f-80f074b6da0d"},"vehicle_type_id":"4","last_reported":1717859264,"current_range_meters":3600,"station_id":"ce4bh012rcd13ifvqd00","pricing_plan_id":"cebpf4jnsgd1na2vs0mg"},{"bike_id":"02619fc0-9b25-405e-8d71-b664b247b68d","system_id":"levelo_inurba_marseille","lat":43.2901,"lon":5.381269,"is_reserved":false,"is_disabled":false,"rental_uris":{"android":"levelo://app?vid=02619fc0-9b25-405e-8d71-b664b247b68d","ios":"levelo://app?vid=02619fc0-9b25-405e-8d71-b664b247b68d"},"vehicle_type_id":"4","last_reported":1717859264,"current_range_meters":2000,"station_id":"ce4bh4p2rcd13ifvqe1g","pricing_plan_id":"cebpf4jnsgd1na2vs0mg"},{"bike_id":"aff0d303-e136-4ebd-bd98-de09dd87b504","system_id":"levelo_inurba_marseille","lat":43.284538,"lon":5.358657,"is_reserved":false,"is_disabled":false,"rental_uris":{"android":"levelo://app?vid=aff0d303-e136-4ebd-bd98-de09dd87b504","ios":"levelo://app?vid=aff0d303-e136-4ebd-bd98-de09dd87b504"},"vehicle_type_id":"4","last_reported":1717859264,"current_range_meters":0,"station_id":"ce4bhah2rcd13ifvqei0","pricing_plan_id":"cebpf4jnsgd1na2vs0mg"},{"bike_id":"af4654e2-730f-4ad3-950f-89d1758ab4ae","system_id":"levelo_inurba_marseille","lat":43.284538,"lon":5.358657,"is_reserved":false,"is_disabled":false,"rental_uris":{"android":"levelo://app?vid=af4654e2-730f-4ad3-950f-89d1758ab4ae","ios":"levelo://app?vid=af4654e2-730f-4ad3-950f-89d1758ab4ae"},"vehicle_type_id":"4","last_reported":1717859264,"current_range_meters":8800,"station_id":"ce4bhah2rcd13ifvqei0","pricing_plan_id":"cebpf4jnsgd1na2vs0mg"},{"bike_id":"1b81a18b-7563-4fa2-9226-54f551eef1ed","system_id":"levelo_inurba_marseille","lat":43.284538,"lon":5.358657,"is_reserved":false,"is_disabled":false,"rental_uris":{"android":"levelo://app?vid=1b81a18b-7563-4fa2-9226-54f551eef1ed","ios":"levelo://app?vid=1b81a18b-7563-4fa2-9226-54f551eef1ed"},"vehicle_type_id":"4","last_reported":1717859264,"current_range_meters":28400,"station_id":"ce4bhah2rcd13ifvqei0","pricing_plan_id":"cebpf4jnsgd1na2vs0mg"},{"bike_id":"67c7e880-8cf6-48e8-8d75-8de9f03b9b3c","system_id":"levelo_inurba_marseille","lat":43.284538,"lon":5.358657,"is_reserved":false,"is_disabled":false,"rental_uris":{"android":"levelo://app?vid=67c7e880-8cf6-48e8-8d75-8de9f03b9b3c","ios":"levelo://app?vid=67c7e880-8cf6-48e8-8d75-8de9f03b9b3c"},"vehicle_type_id":"4","last_reported":1717859264,"current_range_meters":3600,"station_id":"ce4bhah2rcd13ifvqei0","pricing_plan_id":"cebpf4jnsgd1na2vs0mg"},{"bike_id":"1ef41a7c-618f-4604-8a55-9067a8ccb03a","system_id":"levelo_inurba_marseille","lat":43.285856,"lon":5.350771,"is_reserved":false,"is_disabled":false,"rental_uris":{"android":"levelo://app?vid=1ef41a7c-618f-4604-8a55-9067a8ccb03a","ios":"levelo://app?vid=1ef41a7c-618f-4604-8a55-9067a8ccb03a"},"vehicle_type_id":"4","last_reported":1717859264,"current_range_meters":28400,"station_id":"ce4bhch2rcd13ifvqeug","pricing_plan_id":"cebpf4jnsgd1na2vs0mg"},{"bike_id":"21a8a738-3ec4-4826-98bd-3db6b4caeef2","system_id":"levelo_inurba_marseille","lat":43.285848,"lon":5.350787,"is_reserved":false,"is_disabled":false,"rental_uris":{"android":"levelo://app?vid=21a8a738-3ec4-4826-98bd-3db6b4caeef2","ios":"levelo://app?vid=21a8a738-3ec4-4826-98bd-3db6b4caeef2"},"vehicle_type_id":"4","last_reported":1717859264,"current_range_meters":0,"station_id":"ce4bhch2rcd13ifvqeug","pricing_plan_id":"cebpf4jnsgd1na2vs0mg"},{"bike_id":"bfba68ca-1468-4744-9246-82af7a39469a","system_id":"levelo_inurba_marseille","lat":43.285856,"lon":5.350771,"is_reserved":false,"is_disabled":false,"rental_uris":{"android":"levelo://app?vid=bfba68ca-1468-4744-9246-82af7a39469a","ios":"levelo://app?vid=bfba68ca-1468-4744-9246-82af7a39469a"},"vehicle_type_id":"4","last_reported":1717859264,"current_range_meters":31200,"station_id":"ce4bhch2rcd13ifvqeug","pricing_plan_id":"cebpf4jnsgd1na2vs0mg"},{"bike_id":"65ff425d-eb62-45fb-ab76-c202230cc3ec","system_id":"levelo_inurba_marseille","lat":43.285856,"lon":5.350771,"is_reserved":false,"is_disabled":false,"rental_uris":{"android":"levelo://app?vid=65ff425d-eb62-45fb-ab76-c202230cc3ec","ios":"levelo://app?vid=65ff425d-eb62-45fb-ab76-c202230cc3ec"},"vehicle_type_id":"4","last_reported":1717859264,"current_range_meters":28800,"station_id":"ce4bhch2rcd13ifvqeug","pricing_plan_id":"cebpf4jnsgd1na2vs0mg"},{"bike_id":"5e394c47-00cb-4db1-8fc3-be0a3f87b5d0","system_id":"levelo_inurba_marseille","lat":43.285848,"lon":5.350787,"is_reserved":false,"is_disabled":false,"rental_uris":{"android":"levelo://app?vid=5e394c47-00cb-4db1-8fc3-be0a3f87b5d0","ios":"levelo://app?vid=5e394c47-00cb-4db1-8fc3-be0a3f87b5d0"},"vehicle_type_id":"4","last_reported":1717859264,"current_range_meters":10400,"station_id":"ce4bhch2rcd13ifvqeug","pricing_plan_id":"cebpf4jnsgd1na2vs0mg"},{"bike_id":"b078dd72-570a-4102-890d-3d78d112bba9","system_id":"levelo_inurba_marseille","lat":43.285848,"lon":5.350787,"is_reserved":false,"is_disabled":false,"rental_uris":{"android":"levelo://app?vid=b078dd72-570a-4102-890d-3d78d112bba9","ios":"levelo://app?vid=b078dd72-570a-4102-890d-3d78d112bba9"},"vehicle_type_id":"4","last_reported":1717859264,"current_range_meters":0,"station_id":"ce4bhch2rcd13ifvqeug","pricing_plan_id":"cebpf4jnsgd1na2vs0mg"},{"bike_id":"963dd94f-bb0b-4c5d-9872-5a877d5e0a5d","system_id":"levelo_inurba_marseille","lat":43.285856,"lon":5.350771,"is_reserved":false,"is_disabled":false,"rental_uris":{"android":"levelo://app?vid=963dd94f-bb0b-4c5d-9872-5a877d5e0a5d","ios":"levelo://app?vid=963dd94f-bb0b-4c5d-9872-5a877d5e0a5d"},"vehicle_type_id":"4","last_reported":1717859264,"current_range_meters":2000,"station_id":"ce4bhch2rcd13ifvqeug","pricing_plan_id":"cebpf4jnsgd1na2vs0mg"},{"bike_id":"7df1e295-07b2-44c4-bb7c-76aca002fb56","system_id":"levelo_inurba_marseille","lat":43.285848,"lon":5.350787,"is_reserved":false,"is_disabled":false,"rental_uris":{"android":"levelo://app?vid=7df1e295-07b2-44c4-bb7c-76aca002fb56","ios":"levelo://app?vid=7df1e295-07b2-44c4-bb7c-76aca002fb56"},"vehicle_type_id":"4","last_reported":1717859264,"current_range_meters":25200,"station_id":"ce4bhch2rcd13ifvqeug","pricing_plan_id":"cebpf4jnsgd1na2vs0mg"},{"bike_id":"8501ffc0-edb0-4a2e-abca-2f06d352d841","system_id":"levelo_inurba_marseille","lat":43.285856,"lon":5.350771,"is_reserved":false,"is_disabled":false,"rental_uris":{"android":"levelo://app?vid=8501ffc0-edb0-4a2e-abca-2f06d352d841","ios":"levelo://app?vid=8501ffc0-edb0-4a2e-abca-2f06d352d841"},"vehicle_type_id":"4","last_reported":1717859264,"current_range_meters":6400,"station_id":"ce4bhch2rcd13ifvqeug","pricing_plan_id":"cebpf4jnsgd1na2vs0mg"},{"bike_id":"62de82d6-4f79-4855-a7bf-838c62f33ec7","system_id":"levelo_inurba_marseille","lat":43.285856,"lon":5.350771,"is_reserved":false,"is_disabled":false,"rental_uris":{"android":"levelo://app?vid=62de82d6-4f79-4855-a7bf-838c62f33ec7","ios":"levelo://app?vid=62de82d6-4f79-4855-a7bf-838c62f33ec7"},"vehicle_type_id":"4","last_reported":1717859264,"current_range_meters":22400,"station_id":"ce4bhch2rcd13ifvqeug","pricing_plan_id":"cebpf4jnsgd1na2vs0mg"},{"bike_id":"aec5fc25-664c-4e4f-ac65-bfe338273902","system_id":"levelo_inurba_marseille","lat":43.285856,"lon":5.350771,"is_reserved":false,"is_disabled":false,"rental_uris":{"android":"levelo://app?vid=aec5fc25-664c-4e4f-ac65-bfe338273902","ios":"levelo://app?vid=aec5fc25-664c-4e4f-ac65-bfe338273902"},"vehicle_type_id":"4","last_reported":1717859264,"current_range_meters":800,"station_id":"ce4bhch2rcd13ifvqeug","pricing_plan_id":"cebpf4jnsgd1na2vs0mg"},{"bike_id":"8de287d8-6f1d-4b44-9ed8-deda7f98293d","system_id":"levelo_inurba_marseille","lat":43.285856,"lon":5.350771,"is_reserved":false,"is_disabled":false,"rental_uris":{"android":"levelo://app?vid=8de287d8-6f1d-4b44-9ed8-deda7f98293d","ios":"levelo://app?vid=8de287d8-6f1d-4b44-9ed8-deda7f98293d"},"vehicle_type_id":"4","last_reported":1717859264,"current_range_meters":19600,"station_id":"ce4bhch2rcd13ifvqeug","pricing_plan_id":"cebpf4jnsgd1na2vs0mg"},{"bike_id":"8496c540-7c5f-4681-af1b-983eaf9ec92d","system_id":"levelo_inurba_marseille","lat":43.285856,"lon":5.350771,"is_reserved":false,"is_disabled":false,"rental_uris":{"android":"levelo://app?vid=8496c540-7c5f-4681-af1b-983eaf9ec92d","ios":"levelo://app?vid=8496c540-7c5f-4681-af1b-983eaf9ec92d"},"vehicle_type_id":"4","last_reported":1717859264,"current_range_meters":31200,"station_id":"ce4bhch2rcd13ifvqeug","pricing_plan_id":"cebpf4jnsgd1na2vs0mg"},{"bike_id":"29280685-5c90-40ed-839e-6a38d74cb269","system_id":"levelo_inurba_marseille","lat":43.285848,"lon":5.350787,"is_reserved":false,"is_disabled":false,"rental_uris":{"android":"levelo://app?vid=29280685-5c90-40ed-839e-6a38d74cb269","ios":"levelo://app?vid=29280685-5c90-40ed-839e-6a38d74cb269"},"vehicle_type_id":"4","last_reported":1717859264,"current_range_meters":0,"station_id":"ce4bhch2rcd13ifvqeug","pricing_plan_id":"cebpf4jnsgd1na2vs0mg"},{"bike_id":"cf2c14d2-7edf-45f0-a521-011187686794","system_id":"levelo_inurba_marseille","lat":43.285856,"lon":5.350771,"is_reserved":false,"is_disabled":false,"rental_uris":{"android":"levelo://app?vid=cf2c14d2-7edf-45f0-a521-011187686794","ios":"levelo://app?vid=cf2c14d2-7edf-45f0-a521-011187686794"},"vehicle_type_id":"4","last_reported":1717859264,"current_range_meters":3200,"station_id":"ce4bhch2rcd13ifvqeug","pricing_plan_id":"cebpf4jnsgd1na2vs0mg"},{"bike_id":"8362eda4-f219-4465-9f54-2074a8459426","system_id":"levelo_inurba_marseille","lat":43.283998,"lon":5.375062,"is_reserved":false,"is_disabled":false,"rental_uris":{"android":"levelo://app?vid=8362eda4-f219-4465-9f54-2074a8459426","ios":"levelo://app?vid=8362eda4-f219-4465-9f54-2074a8459426"},"vehicle_type_id":"4","last_reported":1717859264,"current_range_meters":10400,"station_id":"ce4bh412rcd13ifvqds0","pricing_plan_id":"cebpf4jnsgd1na2vs0mg"},{"bike_id":"dc01ff81-9e25-4fad-add7-4140e825d287","system_id":"levelo_inurba_marseille","lat":43.295713,"lon":5.399639,"is_reserved":false,"is_disabled":false,"rental_uris":{"android":"levelo://app?vid=dc01ff81-9e25-4fad-add7-4140e825d287","ios":"levelo://app?vid=dc01ff81-9e25-4fad-add7-4140e825d287"},"vehicle_type_id":"4","last_reported":1717859264,"current_range_meters":0,"station_id":"ce4bh312rcd13ifvqdj0","pricing_plan_id":"cebpf4jnsgd1na2vs0mg"},{"bike_id":"9608183b-a0bc-453a-9cda-a6abeb88fe6d","system_id":"levelo_inurba_marseille","lat":43.283998,"lon":5.375062,"is_reserved":false,"is_disabled":false,"rental_uris":{"android":"levelo://app?vid=9608183b-a0bc-453a-9cda-a6abeb88fe6d","ios":"levelo://app?vid=9608183b-a0bc-453a-9cda-a6abeb88fe6d"},"vehicle_type_id":"4","last_reported":1717859264,"current_range_meters":0,"station_id":"ce4bh412rcd13ifvqds0","pricing_plan_id":"cebpf4jnsgd1na2vs0mg"},{"bike_id":"4eee2bd7-882a-4afb-bd50-46e0f68d32c2","system_id":"levelo_inurba_marseille","lat":43.284056,"lon":5.375202,"is_reserved":false,"is_disabled":false,"rental_uris":{"android":"levelo://app?vid=4eee2bd7-882a-4afb-bd50-46e0f68d32c2","ios":"levelo://app?vid=4eee2bd7-882a-4afb-bd50-46e0f68d32c2"},"vehicle_type_id":"4","last_reported":1717859264,"current_range_meters":21200,"station_id":"ce4bh412rcd13ifvqds0","pricing_plan_id":"cebpf4jnsgd1na2vs0mg"},{"bike_id":"87f7ba54-928e-48e0-bdfe-dfacf00fb8c7","system_id":"levelo_inurba_marseille","lat":43.29055,"lon":5.394043,"is_reserved":false,"is_disabled":false,"rental_uris":{"android":"levelo://app?vid=87f7ba54-928e-48e0-bdfe-dfacf00fb8c7","ios":"levelo://app?vid=87f7ba54-928e-48e0-bdfe-dfacf00fb8c7"},"vehicle_type_id":"4","last_reported":1717859264,"current_range_meters":7200,"station_id":"","pricing_plan_id":"cebpf4jnsgd1na2vs0mg"},{"bike_id":"a52abc24-bbe6-4cb1-bfbb-b879d5953cad","system_id":"levelo_inurba_marseille","lat":43.286595,"lon":5.386795,"is_reserved":false,"is_disabled":false,"rental_uris":{"android":"levelo://app?vid=a52abc24-bbe6-4cb1-bfbb-b879d5953cad","ios":"levelo://app?vid=a52abc24-bbe6-4cb1-bfbb-b879d5953cad"},"vehicle_type_id":"4","last_reported":1717859264,"current_range_meters":10000,"station_id":"ce4bh492rcd13ifvqdug","pricing_plan_id":"cebpf4jnsgd1na2vs0mg"},{"bike_id":"66f8a211-6364-41d7-adc8-56fe423277a3","system_id":"levelo_inurba_marseille","lat":43.33717,"lon":5.391857,"is_reserved":false,"is_disabled":false,"rental_uris":{"android":"levelo://app?vid=66f8a211-6364-41d7-adc8-56fe423277a3","ios":"levelo://app?vid=66f8a211-6364-41d7-adc8-56fe423277a3"},"vehicle_type_id":"4","last_reported":1717859264,"current_range_meters":5600,"station_id":"ce4bhr92rcd13ifvqhsg","pricing_plan_id":"cebpf4jnsgd1na2vs0mg"},{"bike_id":"36c947e6-0edd-4ee7-85db-fdd6ec42bec6","system_id":"levelo_inurba_marseille","lat":43.337168,"lon":5.391825,"is_reserved":false,"is_disabled":false,"rental_uris":{"android":"levelo://app?vid=36c947e6-0edd-4ee7-85db-fdd6ec42bec6","ios":"levelo://app?vid=36c947e6-0edd-4ee7-85db-fdd6ec42bec6"},"vehicle_type_id":"4","last_reported":1717859264,"current_range_meters":14800,"station_id":"ce4bhr92rcd13ifvqhsg","pricing_plan_id":"cebpf4jnsgd1na2vs0mg"},{"bike_id":"529c5641-e97d-410b-8d83-f9e5b86a8ccd","system_id":"levelo_inurba_marseille","lat":43.337168,"lon":5.391825,"is_reserved":false,"is_disabled":false,"rental_uris":{"android":"levelo://app?vid=529c5641-e97d-410b-8d83-f9e5b86a8ccd","ios":"levelo://app?vid=529c5641-e97d-410b-8d83-f9e5b86a8ccd"},"vehicle_type_id":"4","last_reported":1717859264,"current_range_meters":31200,"station_id":"ce4bhr92rcd13ifvqhsg","pricing_plan_id":"cebpf4jnsgd1na2vs0mg"},{"bike_id":"e2c09384-ee1e-4f2f-bc32-77a273ada1a9","system_id":"levelo_inurba_marseille","lat":43.323464,"lon":5.406297,"is_reserved":false,"is_disabled":false,"rental_uris":{"android":"levelo://app?vid=e2c09384-ee1e-4f2f-bc32-77a273ada1a9","ios":"levelo://app?vid=e2c09384-ee1e-4f2f-bc32-77a273ada1a9"},"vehicle_type_id":"4","last_reported":1717859264,"current_range_meters":9600,"station_id":"ce4bhq92rcd13ifvqhjg","pricing_plan_id":"cebpf4jnsgd1na2vs0mg"},{"bike_id":"2ed6743e-9286-45cf-9439-12ba6546478d","system_id":"levelo_inurba_marseille","lat":43.28221,"lon":5.37002,"is_reserved":false,"is_disabled":false,"rental_uris":{"android":"levelo://app?vid=2ed6743e-9286-45cf-9439-12ba6546478d","ios":"levelo://app?vid=2ed6743e-9286-45cf-9439-12ba6546478d"},"vehicle_type_id":"4","last_reported":1717859264,"current_range_meters":13200,"station_id":"","pricing_plan_id":"cebpf4jnsgd1na2vs0mg"},{"bike_id":"a87a3d10-b82e-4d32-84e4-f849dff9f402","system_id":"levelo_inurba_marseille","lat":43.283498,"lon":5.380948,"is_reserved":false,"is_disabled":false,"rental_uris":{"android":"levelo://app?vid=a87a3d10-b82e-4d32-84e4-f849dff9f402","ios":"levelo://app?vid=a87a3d10-b82e-4d32-84e4-f849dff9f402"},"vehicle_type_id":"4","last_reported":1717859264,"current_range_meters":24000,"station_id":"ce4bh412rcd13ifvqdr0","pricing_plan_id":"cebpf4jnsgd1na2vs0mg"},{"bike_id":"879b6843-4ab8-4542-83a5-5426cc935036","system_id":"levelo_inurba_marseille","lat":43.283494,"lon":5.380945,"is_reserved":false,"is_disabled":false,"rental_uris":{"android":"levelo://app?vid=879b6843-4ab8-4542-83a5-5426cc935036","ios":"levelo://app?vid=879b6843-4ab8-4542-83a5-5426cc935036"},"vehicle_type_id":"4","last_reported":1717859264,"current_range_meters":28400,"station_id":"ce4bh412rcd13ifvqdr0","pricing_plan_id":"cebpf4jnsgd1na2vs0mg"},{"bike_id":"e80d06fd-a667-47b0-aeb0-c8787abb774b","system_id":"levelo_inurba_marseille","lat":43.284219,"lon":5.3497,"is_reserved":false,"is_disabled":false,"rental_uris":{"android":"levelo://app?vid=e80d06fd-a667-47b0-aeb0-c8787abb774b","ios":"levelo://app?vid=e80d06fd-a667-47b0-aeb0-c8787abb774b"},"vehicle_type_id":"4","last_reported":1717859264,"current_range_meters":8000,"station_id":"ce4bhbh2rcd13ifvqepg","pricing_plan_id":"cebpf4jnsgd1na2vs0mg"},{"bike_id":"69057f6c-9aa5-489b-a0c4-4a7622d5cbda","system_id":"levelo_inurba_marseille","lat":43.284367,"lon":5.349883,"is_reserved":false,"is_disabled":false,"rental_uris":{"android":"levelo://app?vid=69057f6c-9aa5-489b-a0c4-4a7622d5cbda","ios":"levelo://app?vid=69057f6c-9aa5-489b-a0c4-4a7622d5cbda"},"vehicle_type_id":"4","last_reported":1717859264,"current_range_meters":28000,"station_id":"ce4bhbh2rcd13ifvqepg","pricing_plan_id":"cebpf4jnsgd1na2vs0mg"},{"bike_id":"15211dce-7cd1-4016-a425-101ffd864154","system_id":"levelo_inurba_marseille","lat":43.28432,"lon":5.34988,"is_reserved":false,"is_disabled":false,"rental_uris":{"android":"levelo://app?vid=15211dce-7cd1-4016-a425-101ffd864154","ios":"levelo://app?vid=15211dce-7cd1-4016-a425-101ffd864154"},"vehicle_type_id":"4","last_reported":1717859264,"current_range_meters":22000,"station_id":"ce4bhbh2rcd13ifvqepg","pricing_plan_id":"cebpf4jnsgd1na2vs0mg"},{"bike_id":"e07bb4ce-167f-4a0d-9278-e06f840e9407","system_id":"levelo_inurba_marseille","lat":43.284219,"lon":5.3497,"is_reserved":false,"is_disabled":false,"rental_uris":{"android":"levelo://app?vid=e07bb4ce-167f-4a0d-9278-e06f840e9407","ios":"levelo://app?vid=e07bb4ce-167f-4a0d-9278-e06f840e9407"},"vehicle_type_id":"4","last_reported":1717859264,"current_range_meters":28800,"station_id":"ce4bhbh2rcd13ifvqepg","pricing_plan_id":"cebpf4jnsgd1na2vs0mg"},{"bike_id":"267b203e-c6a5-47c2-9949-238370ac361c","system_id":"levelo_inurba_marseille","lat":43.284219,"lon":5.3497,"is_reserved":false,"is_disabled":false,"rental_uris":{"android":"levelo://app?vid=267b203e-c6a5-47c2-9949-238370ac361c","ios":"levelo://app?vid=267b203e-c6a5-47c2-9949-238370ac361c"},"vehicle_type_id":"4","last_reported":1717859264,"current_range_meters":24400,"station_id":"ce4bhbh2rcd13ifvqepg","pricing_plan_id":"cebpf4jnsgd1na2vs0mg"},{"bike_id":"64c594bf-789a-4717-a352-e232f5b36c47","system_id":"levelo_inurba_marseille","lat":43.28428,"lon":5.34984,"is_reserved":false,"is_disabled":false,"rental_uris":{"android":"levelo://app?vid=64c594bf-789a-4717-a352-e232f5b36c47","ios":"levelo://app?vid=64c594bf-789a-4717-a352-e232f5b36c47"},"vehicle_type_id":"4","last_reported":1717859264,"current_range_meters":800,"station_id":"ce4bhbh2rcd13ifvqepg","pricing_plan_id":"cebpf4jnsgd1na2vs0mg"},{"bike_id":"d71bfba3-8636-4381-bd5d-fccbb219b77f","system_id":"levelo_inurba_marseille","lat":43.28422,"lon":5.34999,"is_reserved":false,"is_disabled":false,"rental_uris":{"android":"levelo://app?vid=d71bfba3-8636-4381-bd5d-fccbb219b77f","ios":"levelo://app?vid=d71bfba3-8636-4381-bd5d-fccbb219b77f"},"vehicle_type_id":"4","last_reported":1717859264,"current_range_meters":15200,"station_id":"ce4bhbh2rcd13ifvqepg","pricing_plan_id":"cebpf4jnsgd1na2vs0mg"},{"bike_id":"cbd9c8a0-42fb-42b3-84f2-ac4c081849b9","system_id":"levelo_inurba_marseille","lat":43.28428,"lon":5.3498,"is_reserved":false,"is_disabled":false,"rental_uris":{"android":"levelo://app?vid=cbd9c8a0-42fb-42b3-84f2-ac4c081849b9","ios":"levelo://app?vid=cbd9c8a0-42fb-42b3-84f2-ac4c081849b9"},"vehicle_type_id":"4","last_reported":1717859264,"current_range_meters":3200,"station_id":"ce4bhbh2rcd13ifvqepg","pricing_plan_id":"cebpf4jnsgd1na2vs0mg"},{"bike_id":"18d175c0-6641-43ce-bba9-dc62d6d70811","system_id":"levelo_inurba_marseille","lat":43.28425,"lon":5.349855,"is_reserved":false,"is_disabled":false,"rental_uris":{"android":"levelo://app?vid=18d175c0-6641-43ce-bba9-dc62d6d70811","ios":"levelo://app?vid=18d175c0-6641-43ce-bba9-dc62d6d70811"},"vehicle_type_id":"4","last_reported":1717859264,"current_range_meters":11200,"station_id":"ce4bhbh2rcd13ifvqepg","pricing_plan_id":"cebpf4jnsgd1na2vs0mg"},{"bike_id":"3a9b39d1-d17e-49b1-8e06-7aea81fdc114","system_id":"levelo_inurba_marseille","lat":43.28426,"lon":5.34981,"is_reserved":false,"is_disabled":false,"rental_uris":{"android":"levelo://app?vid=3a9b39d1-d17e-49b1-8e06-7aea81fdc114","ios":"levelo://app?vid=3a9b39d1-d17e-49b1-8e06-7aea81fdc114"},"vehicle_type_id":"4","last_reported":1717859264,"current_range_meters":18400,"station_id":"ce4bhbh2rcd13ifvqepg","pricing_plan_id":"cebpf4jnsgd1na2vs0mg"},{"bike_id":"61a36487-304e-49e3-9baa-c08075bf25d3","system_id":"levelo_inurba_marseille","lat":43.28425,"lon":5.34984,"is_reserved":false,"is_disabled":false,"rental_uris":{"android":"levelo://app?vid=61a36487-304e-49e3-9baa-c08075bf25d3","ios":"levelo://app?vid=61a36487-304e-49e3-9baa-c08075bf25d3"},"vehicle_type_id":"4","last_reported":1717859264,"current_range_meters":21600,"station_id":"ce4bhbh2rcd13ifvqepg","pricing_plan_id":"cebpf4jnsgd1na2vs0mg"},{"bike_id":"245595cb-e634-41e8-a92b-ed27eb2c75b5","system_id":"levelo_inurba_marseille","lat":43.284219,"lon":5.3497,"is_reserved":false,"is_disabled":false,"rental_uris":{"android":"levelo://app?vid=245595cb-e634-41e8-a92b-ed27eb2c75b5","ios":"levelo://app?vid=245595cb-e634-41e8-a92b-ed27eb2c75b5"},"vehicle_type_id":"4","last_reported":1717859264,"current_range_meters":10000,"station_id":"ce4bhbh2rcd13ifvqepg","pricing_plan_id":"cebpf4jnsgd1na2vs0mg"},{"bike_id":"51b204ef-bf30-4852-ba4e-916e970383d0","system_id":"levelo_inurba_marseille","lat":43.28422,"lon":5.34991,"is_reserved":false,"is_disabled":false,"rental_uris":{"android":"levelo://app?vid=51b204ef-bf30-4852-ba4e-916e970383d0","ios":"levelo://app?vid=51b204ef-bf30-4852-ba4e-916e970383d0"},"vehicle_type_id":"4","last_reported":1717859264,"current_range_meters":2800,"station_id":"ce4bhbh2rcd13ifvqepg","pricing_plan_id":"cebpf4jnsgd1na2vs0mg"},{"bike_id":"6c33e2b6-18e3-41ce-bdc6-5c2435ba2d24","system_id":"levelo_inurba_marseille","lat":43.28423,"lon":5.34985,"is_reserved":false,"is_disabled":false,"rental_uris":{"android":"levelo://app?vid=6c33e2b6-18e3-41ce-bdc6-5c2435ba2d24","ios":"levelo://app?vid=6c33e2b6-18e3-41ce-bdc6-5c2435ba2d24"},"vehicle_type_id":"4","last_reported":1717859264,"current_range_meters":14000,"station_id":"ce4bhbh2rcd13ifvqepg","pricing_plan_id":"cebpf4jnsgd1na2vs0mg"},{"bike_id":"339df5e3-c606-43b6-ae43-7e34e24d8189","system_id":"levelo_inurba_marseille","lat":43.28423,"lon":5.34985,"is_reserved":false,"is_disabled":false,"rental_uris":{"android":"levelo://app?vid=339df5e3-c606-43b6-ae43-7e34e24d8189","ios":"levelo://app?vid=339df5e3-c606-43b6-ae43-7e34e24d8189"},"vehicle_type_id":"4","last_reported":1717859264,"current_range_meters":10800,"station_id":"ce4bhbh2rcd13ifvqepg","pricing_plan_id":"cebpf4jnsgd1na2vs0mg"},{"bike_id":"a894f6cd-d5e9-45ac-b2e3-a93705b9662b","system_id":"levelo_inurba_marseille","lat":43.284219,"lon":5.3497,"is_reserved":false,"is_disabled":false,"rental_uris":{"android":"levelo://app?vid=a894f6cd-d5e9-45ac-b2e3-a93705b9662b","ios":"levelo://app?vid=a894f6cd-d5e9-45ac-b2e3-a93705b9662b"},"vehicle_type_id":"4","last_reported":1717859264,"current_range_meters":9600,"station_id":"ce4bhbh2rcd13ifvqepg","pricing_plan_id":"cebpf4jnsgd1na2vs0mg"},{"bike_id":"688da858-7a11-4ccd-be69-9dba965121f7","system_id":"levelo_inurba_marseille","lat":43.284219,"lon":5.3497,"is_reserved":false,"is_disabled":false,"rental_uris":{"android":"levelo://app?vid=688da858-7a11-4ccd-be69-9dba965121f7","ios":"levelo://app?vid=688da858-7a11-4ccd-be69-9dba965121f7"},"vehicle_type_id":"4","last_reported":1717859264,"current_range_meters":22400,"station_id":"ce4bhbh2rcd13ifvqepg","pricing_plan_id":"cebpf4jnsgd1na2vs0mg"},{"bike_id":"3a6a5ad0-44b8-4adb-a44d-a177adc60fae","system_id":"levelo_inurba_marseille","lat":43.284219,"lon":5.3497,"is_reserved":false,"is_disabled":false,"rental_uris":{"android":"levelo://app?vid=3a6a5ad0-44b8-4adb-a44d-a177adc60fae","ios":"levelo://app?vid=3a6a5ad0-44b8-4adb-a44d-a177adc60fae"},"vehicle_type_id":"4","last_reported":1717859264,"current_range_meters":31200,"station_id":"ce4bhbh2rcd13ifvqepg","pricing_plan_id":"cebpf4jnsgd1na2vs0mg"},{"bike_id":"4db054d9-afa4-4d7d-aacc-4d8881d3df73","system_id":"levelo_inurba_marseille","lat":43.284219,"lon":5.3497,"is_reserved":false,"is_disabled":false,"rental_uris":{"android":"levelo://app?vid=4db054d9-afa4-4d7d-aacc-4d8881d3df73","ios":"levelo://app?vid=4db054d9-afa4-4d7d-aacc-4d8881d3df73"},"vehicle_type_id":"4","last_reported":1717859264,"current_range_meters":25600,"station_id":"ce4bhbh2rcd13ifvqepg","pricing_plan_id":"cebpf4jnsgd1na2vs0mg"},{"bike_id":"710347d0-c79c-4c26-9459-ce22e83453a1","system_id":"levelo_inurba_marseille","lat":43.284184,"lon":5.349957,"is_reserved":false,"is_disabled":false,"rental_uris":{"android":"levelo://app?vid=710347d0-c79c-4c26-9459-ce22e83453a1","ios":"levelo://app?vid=710347d0-c79c-4c26-9459-ce22e83453a1"},"vehicle_type_id":"4","last_reported":1717859264,"current_range_meters":15600,"station_id":"ce4bhbh2rcd13ifvqepg","pricing_plan_id":"cebpf4jnsgd1na2vs0mg"},{"bike_id":"77ea21af-bff3-444e-817c-4ecbb47e7171","system_id":"levelo_inurba_marseille","lat":43.28421,"lon":5.34987,"is_reserved":false,"is_disabled":false,"rental_uris":{"android":"levelo://app?vid=77ea21af-bff3-444e-817c-4ecbb47e7171","ios":"levelo://app?vid=77ea21af-bff3-444e-817c-4ecbb47e7171"},"vehicle_type_id":"4","last_reported":1717859264,"current_range_meters":23600,"station_id":"ce4bhbh2rcd13ifvqepg","pricing_plan_id":"cebpf4jnsgd1na2vs0mg"},{"bike_id":"8cf5add9-c4bd-4fe3-b125-e98b56e7881e","system_id":"levelo_inurba_marseille","lat":43.284219,"lon":5.3497,"is_reserved":false,"is_disabled":false,"rental_uris":{"android":"levelo://app?vid=8cf5add9-c4bd-4fe3-b125-e98b56e7881e","ios":"levelo://app?vid=8cf5add9-c4bd-4fe3-b125-e98b56e7881e"},"vehicle_type_id":"4","last_reported":1717859264,"current_range_meters":12000,"station_id":"ce4bhbh2rcd13ifvqepg","pricing_plan_id":"cebpf4jnsgd1na2vs0mg"},{"bike_id":"5b9bb61f-2f5d-493c-89c1-cc9460871de7","system_id":"levelo_inurba_marseille","lat":43.284219,"lon":5.3497,"is_reserved":false,"is_disabled":false,"rental_uris":{"android":"levelo://app?vid=5b9bb61f-2f5d-493c-89c1-cc9460871de7","ios":"levelo://app?vid=5b9bb61f-2f5d-493c-89c1-cc9460871de7"},"vehicle_type_id":"4","last_reported":1717859264,"current_range_meters":29200,"station_id":"ce4bhbh2rcd13ifvqepg","pricing_plan_id":"cebpf4jnsgd1na2vs0mg"},{"bike_id":"6621b3ab-a396-413b-bfe3-f358470567fa","system_id":"levelo_inurba_marseille","lat":43.28421,"lon":5.34984,"is_reserved":false,"is_disabled":false,"rental_uris":{"android":"levelo://app?vid=6621b3ab-a396-413b-bfe3-f358470567fa","ios":"levelo://app?vid=6621b3ab-a396-413b-bfe3-f358470567fa"},"vehicle_type_id":"4","last_reported":1717859264,"current_range_meters":22400,"station_id":"ce4bhbh2rcd13ifvqepg","pricing_plan_id":"cebpf4jnsgd1na2vs0mg"},{"bike_id":"af121f1f-76e0-44ea-8dbf-ca1aa5cbeb9a","system_id":"levelo_inurba_marseille","lat":43.28421,"lon":5.34984,"is_reserved":false,"is_disabled":false,"rental_uris":{"android":"levelo://app?vid=af121f1f-76e0-44ea-8dbf-ca1aa5cbeb9a","ios":"levelo://app?vid=af121f1f-76e0-44ea-8dbf-ca1aa5cbeb9a"},"vehicle_type_id":"4","last_reported":1717859264,"current_range_meters":2000,"station_id":"ce4bhbh2rcd13ifvqepg","pricing_plan_id":"cebpf4jnsgd1na2vs0mg"},{"bike_id":"ef4f476e-beee-4b63-8542-2a0b27717ff3","system_id":"levelo_inurba_marseille","lat":43.284219,"lon":5.3497,"is_reserved":false,"is_disabled":false,"rental_uris":{"android":"levelo://app?vid=ef4f476e-beee-4b63-8542-2a0b27717ff3","ios":"levelo://app?vid=ef4f476e-beee-4b63-8542-2a0b27717ff3"},"vehicle_type_id":"4","last_reported":1717859264,"current_range_meters":20400,"station_id":"ce4bhbh2rcd13ifvqepg","pricing_plan_id":"cebpf4jnsgd1na2vs0mg"},{"bike_id":"e6bc61cc-ff43-4a1d-9502-0b0a1136fc14","system_id":"levelo_inurba_marseille","lat":43.284219,"lon":5.3497,"is_reserved":false,"is_disabled":false,"rental_uris":{"android":"levelo://app?vid=e6bc61cc-ff43-4a1d-9502-0b0a1136fc14","ios":"levelo://app?vid=e6bc61cc-ff43-4a1d-9502-0b0a1136fc14"},"vehicle_type_id":"4","last_reported":1717859264,"current_range_meters":28000,"station_id":"ce4bhbh2rcd13ifvqepg","pricing_plan_id":"cebpf4jnsgd1na2vs0mg"},{"bike_id":"7b293976-b786-4cb2-9251-f5a8d19dda86","system_id":"levelo_inurba_marseille","lat":43.284219,"lon":5.3497,"is_reserved":false,"is_disabled":false,"rental_uris":{"android":"levelo://app?vid=7b293976-b786-4cb2-9251-f5a8d19dda86","ios":"levelo://app?vid=7b293976-b786-4cb2-9251-f5a8d19dda86"},"vehicle_type_id":"4","last_reported":1717859264,"current_range_meters":25200,"station_id":"ce4bhbh2rcd13ifvqepg","pricing_plan_id":"cebpf4jnsgd1na2vs0mg"},{"bike_id":"76bb77ff-2290-47b7-a409-3c525aa7c6bd","system_id":"levelo_inurba_marseille","lat":43.284189,"lon":5.349881,"is_reserved":false,"is_disabled":false,"rental_uris":{"android":"levelo://app?vid=76bb77ff-2290-47b7-a409-3c525aa7c6bd","ios":"levelo://app?vid=76bb77ff-2290-47b7-a409-3c525aa7c6bd"},"vehicle_type_id":"4","last_reported":1717859264,"current_range_meters":30800,"station_id":"ce4bhbh2rcd13ifvqepg","pricing_plan_id":"cebpf4jnsgd1na2vs0mg"},{"bike_id":"3c50aa76-6646-4d96-b7bc-dcea745a1f38","system_id":"levelo_inurba_marseille","lat":43.28419,"lon":5.34985,"is_reserved":false,"is_disabled":false,"rental_uris":{"android":"levelo://app?vid=3c50aa76-6646-4d96-b7bc-dcea745a1f38","ios":"levelo://app?vid=3c50aa76-6646-4d96-b7bc-dcea745a1f38"},"vehicle_type_id":"4","last_reported":1717859264,"current_range_meters":24800,"station_id":"ce4bhbh2rcd13ifvqepg","pricing_plan_id":"cebpf4jnsgd1na2vs0mg"},{"bike_id":"a4084560-c1e8-412a-aa24-86e3e2944c51","system_id":"levelo_inurba_marseille","lat":43.284162,"lon":5.349915,"is_reserved":false,"is_disabled":false,"rental_uris":{"android":"levelo://app?vid=a4084560-c1e8-412a-aa24-86e3e2944c51","ios":"levelo://app?vid=a4084560-c1e8-412a-aa24-86e3e2944c51"},"vehicle_type_id":"4","last_reported":1717859264,"current_range_meters":28000,"station_id":"ce4bhbh2rcd13ifvqepg","pricing_plan_id":"cebpf4jnsgd1na2vs0mg"},{"bike_id":"47026d24-7838-432c-b632-2a7e7431c4e6","system_id":"levelo_inurba_marseille","lat":43.284153,"lon":5.34993,"is_reserved":false,"is_disabled":false,"rental_uris":{"android":"levelo://app?vid=47026d24-7838-432c-b632-2a7e7431c4e6","ios":"levelo://app?vid=47026d24-7838-432c-b632-2a7e7431c4e6"},"vehicle_type_id":"4","last_reported":1717859264,"current_range_meters":6400,"station_id":"ce4bhbh2rcd13ifvqepg","pricing_plan_id":"cebpf4jnsgd1na2vs0mg"},{"bike_id":"957508d8-1730-4113-b8a9-ff0fb5020618","system_id":"levelo_inurba_marseille","lat":43.284217,"lon":5.349697,"is_reserved":false,"is_disabled":false,"rental_uris":{"android":"levelo://app?vid=957508d8-1730-4113-b8a9-ff0fb5020618","ios":"levelo://app?vid=957508d8-1730-4113-b8a9-ff0fb5020618"},"vehicle_type_id":"4","last_reported":1717859264,"current_range_meters":28800,"station_id":"ce4bhbh2rcd13ifvqepg","pricing_plan_id":"cebpf4jnsgd1na2vs0mg"},{"bike_id":"13d81340-68b3-43a0-8855-9cdf2db663d8","system_id":"levelo_inurba_marseille","lat":43.284219,"lon":5.3497,"is_reserved":false,"is_disabled":false,"rental_uris":{"android":"levelo://app?vid=13d81340-68b3-43a0-8855-9cdf2db663d8","ios":"levelo://app?vid=13d81340-68b3-43a0-8855-9cdf2db663d8"},"vehicle_type_id":"4","last_reported":1717859264,"current_range_meters":16800,"station_id":"ce4bhbh2rcd13ifvqepg","pricing_plan_id":"cebpf4jnsgd1na2vs0mg"},{"bike_id":"a3c244f3-ead9-4531-8f9e-6eedf0dc3dcb","system_id":"levelo_inurba_marseille","lat":43.28415,"lon":5.3499,"is_reserved":false,"is_disabled":false,"rental_uris":{"android":"levelo://app?vid=a3c244f3-ead9-4531-8f9e-6eedf0dc3dcb","ios":"levelo://app?vid=a3c244f3-ead9-4531-8f9e-6eedf0dc3dcb"},"vehicle_type_id":"4","last_reported":1717859264,"current_range_meters":5600,"station_id":"ce4bhbh2rcd13ifvqepg","pricing_plan_id":"cebpf4jnsgd1na2vs0mg"},{"bike_id":"dc60a275-d334-4c25-8b23-b77f0715c4e7","system_id":"levelo_inurba_marseille","lat":43.28417,"lon":5.34983,"is_reserved":false,"is_disabled":false,"rental_uris":{"android":"levelo://app?vid=dc60a275-d334-4c25-8b23-b77f0715c4e7","ios":"levelo://app?vid=dc60a275-d334-4c25-8b23-b77f0715c4e7"},"vehicle_type_id":"4","last_reported":1717859264,"current_range_meters":6400,"station_id":"ce4bhbh2rcd13ifvqepg","pricing_plan_id":"cebpf4jnsgd1na2vs0mg"},