{"last_updated":1762700932,"ttl":60,"version":"2.2","data":{"bikes":[{"bike_id":"912bacef-8341-41a8-a872-a80dbda9843a","system_id":"levelo_inurba_marseille","lat":43.30133,"lon":5.39874,"is_reserved":false,"is_disabled":true,"rental_uris":{"android":"levelo://app?vid=912bacef-8341-41a8-a872-a80dbda9843a","ios":"levelo://app?vid=912bacef-8341-41a8-a872-a80dbda9843a"},"vehicle_type_id":"4","last_reported":1762700932,"current_range_meters":2800,"station_id":"ce4bh0h2rcd13ifvqd40","pricing_plan_id":"cebpf4jnsgd1na2vs0mg"},{"bike_id":"ea59e02c-156e-47d0-a04c-b36a1217ba89","system_id":"levelo_inurba_marseille","lat":43.29564,"lon":5.37518,"is_reserved":false,"is_disabled":false,"rental_uris":{"android":"levelo://app?vid=ea59e02c-156e-47d0-a04c-b36a1217ba89","ios":"levelo://app?vid=ea59e02c-156e-47d0-a04c-b36a1217ba89"},"vehicle_type_id":"4","last_reported":1762700932,"current_range_meters":2800,"station_id":"ce4bgh92rcd13ifvqb50","pricing_plan_id":"cebpf4jnsgd1na2vs0mg"},{"bike_id":"81065165-85eb-4998-9b12-e6ab0411125b","system_id":"levelo_inurba_marseille","lat":43.246562,"lon":5.381566,"is_reserved":false,"is_disabled":false,"rental_uris":{"android":"levelo://app?vid=81065165-85eb-4998-9b12-e6ab0411125b","ios":"levelo://app?vid=81065165-85eb-4998-9b12-e6ab0411125b"},"vehicle_type_id":"4","last_reported":1762700932,"current_range_meters":2800,"station_id":"ce4bhih2rcd13ifvqfr0","pricing_plan_id":"cebpf4jnsgd1na2vs0mg"},{"bike_id":"348bf609-07f6-4ffc-add0-6df7615d023f","system_id":"levelo_inurba_marseille","lat":43.337669,"lon":5.37438,"is_reserved":false,"is_disabled":false,"rental_uris":{"android":"levelo://app?vid=348bf609-07f6-4ffc-add0-6df7615d023f","ios":"levelo://app?vid=348bf609-07f6-4ffc-add0-6df7615d023f"},"vehicle_type_id":"4","last_reported":1762700932,"current_range_meters":2800,"station_id":"","pricing_plan_id":"cebpf4jnsgd1na2vs0mg"},{"bike_id":"5bee8f0f-57fe-4257-a72a-04a4967570b5","system_id":"levelo_inurba_marseille","lat":43.30038,"lon":5.37722,"is_reserved":false,"is_disabled":false,"rental_uris":{"android":"levelo://app?vid=5bee8f0f-57fe-4257-a72a-04a4967570b5","ios":"levelo://app?vid=5bee8f0f-57fe-4257-a72a-04a4967570b5"},"vehicle_type_id":"4","last_reported":1762700932,"current_range_meters":2800,"station_id":"","pricing_plan_id":"cebpf4jnsgd1na2vs0mg"},{"bike_id":"aea9b207-f438-4300-b3ff-211d6ec0067c","system_id":"levelo_inurba_marseille","lat":43.2651,"lon":5.39542,"is_reserved":false,"is_disabled":false,"rental_uris":{"android":"levelo://app?vid=aea9b207-f438-4300-b3ff-211d6ec0067c","ios":"levelo://app?vid=aea9b207-f438-4300-b3ff-211d6ec0067c"},"vehicle_type_id":"4","last_reported":1762700932,"current_range_meters":2800,"station_id":"ce4bhi12rcd13ifvqfq0","pricing_plan_id":"cebpf4jnsgd1na2vs0mg"},{"bike_id":"7a5fa1cc-72fe-43e3-b8a4-19efd7eea413","system_id":"levelo_inurba_marseille","lat":43.255032,"lon":5.376532,"is_reserved":false,"is_disabled":false,"rental_uris":{"android":"levelo://app?vid=7a5fa1cc-72fe-43e3-b8a4-19efd7eea413","ios":"levelo://app?vid=7a5fa1cc-72fe-43e3-b8a4-19efd7eea413"},"vehicle_type_id":"4","last_reported":1762700932,"current_range_meters":3200,"station_id":"ce4bhh12rcd13ifvqff0","pricing_plan_id":"cebpf4jnsgd1na2vs0mg"},{"bike_id":"b1377e0a-7438-484b-a9f9-02b8840b4192","system_id":"levelo_inurba_marseille","lat":43.26205,"lon":5.3793,"is_reserved":false,"is_disabled":false,"rental_uris":{"android":"levelo://app?vid=b1377e0a-7438-484b-a9f9-02b8840b4192","ios":"levelo://app?vid=b1377e0a-7438-484b-a9f9-02b8840b4192"},"vehicle_type_id":"4","last_reported":1762700932,"current_range_meters":3200,"station_id":"ce4bhjp2rcd13ifvqg90","pricing_plan_id":"cebpf4jnsgd1na2vs0mg"},{"bike_id":"06b44b59-98a4-4ac3-b194-b5eb282bc5e9","system_id":"levelo_inurba_marseille","lat":43.291901,"lon":5.358106,"is_reserved":false,"is_disabled":false,"rental_uris":{"android":"levelo://app?vid=06b44b59-98a4-4ac3-b194-b5eb282bc5e9","ios":"levelo://app?vid=06b44b59-98a4-4ac3-b194-b5eb282bc5e9"},"vehicle_type_id":"4","last_reported":1762700932,"current_range_meters":3200,"station_id":"","pricing_plan_id":"cebpf4jnsgd1na2vs0mg"},{"bike_id":"4fa93e58-ad51-41bb-b7cd-c71dad4e22b9","system_id":"levelo_inurba_marseille","lat":43.21191,"lon":5.35077,"is_reserved":false,"is_disabled":true,"rental_uris":{"android":"levelo://app?vid=4fa93e58-ad51-41bb-b7cd-c71dad4e22b9","ios":"levelo://app?vid=4fa93e58-ad51-41bb-b7cd-c71dad4e22b9"},"vehicle_type_id":"4","last_reported":1762700932,"current_range_meters":3200,"station_id":"st_cvj6sg6p6f1abm77japg","pricing_plan_id":"cebpf4jnsgd1na2vs0mg"},{"bike_id":"58fcd0d2-63bc-400f-98e8-5f62ae804dfa","system_id":"levelo_inurba_marseille","lat":43.21709,"lon":5.34607,"is_reserved":false,"is_disabled":false,"rental_uris":{"android":"levelo://app?vid=58fcd0d2-63bc-400f-98e8-5f62ae804dfa","ios":"levelo://app?vid=58fcd0d2-63bc-400f-98e8-5f62ae804dfa"},"vehicle_type_id":"4","last_reported":1762700932,"current_range_meters":3200,"station_id":"st_cvj6r9ubvosntc0bgbag","pricing_plan_id":"cebpf4jnsgd1na2vs0mg"},{"bike_id":"aa7bc5b7-ae59-4dd4-8629-230bccdd768c","system_id":"levelo_inurba_marseille","lat":43.28695,"lon":5.39995,"is_reserved":false,"is_disabled":false,"rental_uris":{"android":"levelo://app?vid=aa7bc5b7-ae59-4dd4-8629-230bccdd768c","ios":"levelo://app?vid=aa7bc5b7-ae59-4dd4-8629-230bccdd768c"},"vehicle_type_id":"4","last_reported":1762700932,"current_range_meters":3200,"station_id":"ce4bho92rcd13ifvqh3g","pricing_plan_id":"cebpf4jnsgd1na2vs0mg"},{"bike_id":"a11b8776-7bbc-4734-8a2e-52d628bfb69b","system_id":"levelo_inurba_marseille","lat":43.26031,"lon":5.37553,"is_reserved":false,"is_disabled":false,"rental_uris":{"android":"levelo://app?vid=a11b8776-7bbc-4734-8a2e-52d628bfb69b","ios":"levelo://app?vid=a11b8776-7bbc-4734-8a2e-52d628bfb69b"},"vehicle_type_id":"4","last_reported":1762700932,"current_range_meters":3200,"station_id":"ce4bhgh2rcd13ifvqfa0","pricing_plan_id":"cebpf4jnsgd1na2vs0mg"},{"bike_id":"942f7add-5ebb-48be-a120-9f3bbd494cd8","system_id":"levelo_inurba_marseille","lat":43.30144,"lon":5.38779,"is_reserved":false,"is_disabled":false,"rental_uris":{"android":"levelo://app?vid=942f7add-5ebb-48be-a120-9f3bbd494cd8","ios":"levelo://app?vid=942f7add-5ebb-48be-a120-9f3bbd494cd8"},"vehicle_type_id":"4","last_reported":1762700932,"current_range_meters":3600,"station_id":"ce4bghh2rcd13ifvqb60","pricing_plan_id":"cebpf4jnsgd1na2vs0mg"},{"bike_id":"ca5649c9-59f1-4f52-a555-7400b2143da8","system_id":"levelo_inurba_marseille","lat":43.225325,"lon":5.348343,"is_reserved":false,"is_disabled":false,"rental_uris":{"android":"levelo://app?vid=ca5649c9-59f1-4f52-a555-7400b2143da8","ios":"levelo://app?vid=ca5649c9-59f1-4f52-a555-7400b2143da8"},"vehicle_type_id":"4","last_reported":1762700932,"current_range_meters":3600,"station_id":"","pricing_plan_id":"cebpf4jnsgd1na2vs0mg"},{"bike_id":"aa397257-0468-4814-b050-49f0df04ec2f","system_id":"levelo_inurba_marseille","lat":43.2293,"lon":5.35382,"is_reserved":false,"is_disabled":false,"rental_uris":{"android":"levelo://app?vid=aa397257-0468-4814-b050-49f0df04ec2f","ios":"levelo://app?vid=aa397257-0468-4814-b050-49f0df04ec2f"},"vehicle_type_id":"4","last_reported":1762700932,"current_range_meters":3600,"station_id":"cpo3532slgdg3j2ikp40","pricing_plan_id":"cebpf4jnsgd1na2vs0mg"},{"bike_id":"bab182a0-c03b-4bf3-b853-bf377d7366d6","system_id":"levelo_inurba_marseille","lat":43.30127,"lon":5.387876,"is_reserved":false,"is_disabled":false,"rental_uris":{"android":"levelo://app?vid=bab182a0-c03b-4bf3-b853-bf377d7366d6","ios":"levelo://app?vid=bab182a0-c03b-4bf3-b853-bf377d7366d6"},"vehicle_type_id":"4","last_reported":1762700932,"current_range_meters":3600,"station_id":"","pricing_plan_id":"cebpf4jnsgd1na2vs0mg"},{"bike_id":"2bda9569-8855-4749-9a29-a9c55ba153ed","system_id":"levelo_inurba_marseille","lat":43.22557,"lon":5.41635,"is_reserved":false,"is_disabled":false,"rental_uris":{"android":"levelo://app?vid=2bda9569-8855-4749-9a29-a9c55ba153ed","ios":"levelo://app?vid=2bda9569-8855-4749-9a29-a9c55ba153ed"},"vehicle_type_id":"4","last_reported":1762700932,"current_range_meters":4000,"station_id":"st_d2o4gvlbi1j2169b742g","pricing_plan_id":"cebpf4jnsgd1na2vs0mg"},{"bike_id":"a0ea519d-554f-42a0-93a3-d4c181552c78","system_id":"levelo_inurba_marseille","lat":43.31273,"lon":5.37774,"is_reserved":false,"is_disabled":false,"rental_uris":{"android":"levelo://app?vid=a0ea519d-554f-42a0-93a3-d4c181552c78","ios":"levelo://app?vid=a0ea519d-554f-42a0-93a3-d4c181552c78"},"vehicle_type_id":"4","last_reported":1762700932,"current_range_meters":4000,"station_id":"","pricing_plan_id":"cebpf4jnsgd1na2vs0mg"},{"bike_id":"f95db701-8b8e-4187-b26c-a19042af1779","system_id":"levelo_inurba_marseille","lat":43.26513,"lon":5.39543,"is_reserved":false,"is_disabled":false,"rental_uris":{"android":"levelo://app?vid=f95db701-8b8e-4187-b26c-a19042af1779","ios":"levelo://app?vid=f95db701-8b8e-4187-b26c-a19042af1779"},"vehicle_type_id":"4","last_reported":1762700932,"current_range_meters":4000,"station_id":"ce4bhi12rcd13ifvqfq0","pricing_plan_id":"cebpf4jnsgd1na2vs0mg"},{"bike_id":"33e967e7-45fc-43fa-b17a-601b8ce51230","system_id":"levelo_inurba_marseille","lat":43.30596,"lon":5.39364,"is_reserved":false,"is_disabled":false,"rental_uris":{"android":"levelo://app?vid=33e967e7-45fc-43fa-b17a-601b8ce51230","ios":"levelo://app?vid=33e967e7-45fc-43fa-b17a-601b8ce51230"},"vehicle_type_id":"4","last_reported":1762700932,"current_range_meters":4000,"station_id":"ce4bh0p2rcd13ifvqd80","pricing_plan_id":"cebpf4jnsgd1na2vs0mg"},{"bike_id":"cab4c4e8-6126-4a4e-b72d-4e9990ee31cf","system_id":"levelo_inurba_marseille","lat":43.2762,"lon":5.36125,"is_reserved":false,"is_disabled":false,"rental_uris":{"android":"levelo://app?vid=cab4c4e8-6126-4a4e-b72d-4e9990ee31cf","ios":"levelo://app?vid=cab4c4e8-6126-4a4e-b72d-4e9990ee31cf"},"vehicle_type_id":"4","last_reported":1762700932,"current_range_meters":4400,"station_id":"ce4bgj92rcd13ifvqbe0","pricing_plan_id":"cebpf4jnsgd1na2vs0mg"},{"bike_id":"f9c1f303-1ba4-4435-b931-c43c89071983","system_id":"levelo_inurba_marseille","lat":43.24801,"lon":5.37454,"is_reserved":false,"is_disabled":false,"rental_uris":{"android":"levelo://app?vid=f9c1f303-1ba4-4435-b931-c43c89071983","ios":"levelo://app?vid=f9c1f303-1ba4-4435-b931-c43c89071983"},"vehicle_type_id":"4","last_reported":1762700932,"current_range_meters":4400,"station_id":"ce4bhgh2rcd13ifvqfb0","pricing_plan_id":"cebpf4jnsgd1na2vs0mg"},{"bike_id":"63e615d9-5995-413e-a147-b21642280e58","system_id":"levelo_inurba_marseille","lat":43.21725,"lon":5.3462,"is_reserved":false,"is_disabled":true,"rental_uris":{"android":"levelo://app?vid=63e615d9-5995-413e-a147-b21642280e58","ios":"levelo://app?vid=63e615d9-5995-413e-a147-b21642280e58"},"vehicle_type_id":"4","last_reported":1762700932,"current_range_meters":4400,"station_id":"st_cvj6r9ubvosntc0bgbag","pricing_plan_id":"cebpf4jnsgd1na2vs0mg"},{"bike_id":"29d1c12a-fff0-44b3-8a7c-aa35201ff99c","system_id":"levelo_inurba_marseille","lat":43.255798,"lon":5.382197,"is_reserved":false,"is_disabled":false,"rental_uris":{"android":"levelo://app?vid=29d1c12a-fff0-44b3-8a7c-aa35201ff99c","ios":"levelo://app?vid=29d1c12a-fff0-44b3-8a7c-aa35201ff99c"},"vehicle_type_id":"4","last_reported":1762700932,"current_range_meters":4400,"station_id":"ce4bhih2rcd13ifvqfs0","pricing_plan_id":"cebpf4jnsgd1na2vs0mg"},{"bike_id":"b9311ee7-e7f7-4720-a668-f2ef239d6b6e","system_id":"levelo_inurba_marseille","lat":43.21199,"lon":5.3507,"is_reserved":false,"is_disabled":false,"rental_uris":{"android":"levelo://app?vid=b9311ee7-e7f7-4720-a668-f2ef239d6b6e","ios":"levelo://app?vid=b9311ee7-e7f7-4720-a668-f2ef239d6b6e"},"vehicle_type_id":"4","last_reported":1762700932,"current_range_meters":4400,"station_id":"st_cvj6sg6p6f1abm77japg","pricing_plan_id":"cebpf4jnsgd1na2vs0mg"},{"bike_id":"6bdee23a-9473-40bc-b411-178bcdd1cbb4","system_id":"levelo_inurba_marseille","lat":43.28267,"lon":5.35062,"is_reserved":false,"is_disabled":false,"rental_uris":{"android":"levelo://app?vid=6bdee23a-9473-40bc-b411-178bcdd1cbb4","ios":"levelo://app?vid=6bdee23a-9473-40bc-b411-178bcdd1cbb4"},"vehicle_type_id":"4","last_reported":1762700932,"current_range_meters":4400,"station_id":"ce4bhbp2rcd13ifvqerg","pricing_plan_id":"cebpf4jnsgd1na2vs0mg"},{"bike_id":"1564939d-0549-453d-947f-a3871e8d4b79","system_id":"levelo_inurba_marseille","lat":43.23186,"lon":5.35577,"is_reserved":false,"is_disabled":false,"rental_uris":{"android":"levelo://app?vid=1564939d-0549-453d-947f-a3871e8d4b79","ios":"levelo://app?vid=1564939d-0549-453d-947f-a3871e8d4b79"},"vehicle_type_id":"4","last_reported":1762700932,"current_range_meters":4400,"station_id":"ce4bhu92rcd13ifvqi70","pricing_plan_id":"cebpf4jnsgd1na2vs0mg"},{"bike_id":"df256d26-d161-4771-9fc7-95748a09d35e","system_id":"levelo_inurba_marseille","lat":43.2257,"lon":5.41629,"is_reserved":false,"is_disabled":false,"rental_uris":{"android":"levelo://app?vid=df256d26-d161-4771-9fc7-95748a09d35e","ios":"levelo://app?vid=df256d26-d161-4771-9fc7-95748a09d35e"},"vehicle_type_id":"4","last_reported":1762700932,"current_range_meters":4800,"station_id":"st_d2o4gvlbi1j2169b742g","pricing_plan_id":"cebpf4jnsgd1na2vs0mg"},{"bike_id":"703f34b8-4fbf-4e99-9a2f-fd407cdadacc","system_id":"levelo_inurba_marseille","lat":43.22932,"lon":5.35383,"is_reserved":false,"is_disabled":false,"rental_uris":{"android":"levelo://app?vid=703f34b8-4fbf-4e99-9a2f-fd407cdadacc","ios":"levelo://app?vid=703f34b8-4fbf-4e99-9a2f-fd407cdadacc"},"vehicle_type_id":"4","last_reported":1762700932,"current_range_meters":4800,"station_id":"cpo3532slgdg3j2ikp40","pricing_plan_id":"cebpf4jnsgd1na2vs0mg"},{"bike_id":"8b19ce32-3fd2-4d35-9616-dffbd1943dee","system_id":"levelo_inurba_marseille","lat":43.21197,"lon":5.35076,"is_reserved":false,"is_disabled":false,"rental_uris":{"android":"levelo://app?vid=8b19ce32-3fd2-4d35-9616-dffbd1943dee","ios":"levelo://app?vid=8b19ce32-3fd2-4d35-9616-dffbd1943dee"},"vehicle_type_id":"4","last_reported":1762700932,"current_range_meters":4800,"station_id":"st_cvj6sg6p6f1abm77japg","pricing_plan_id":"cebpf4jnsgd1na2vs0mg"},{"bike_id":"5c17ed12-8897-4f84-bbfc-85419a7f8038","system_id":"levelo_inurba_marseille","lat":43.27098,"lon":5.39426,"is_reserved":false,"is_disabled":false,"rental_uris":{"android":"levelo://app?vid=5c17ed12-8897-4f84-bbfc-85419a7f8038","ios":"levelo://app?vid=5c17ed12-8897-4f84-bbfc-85419a7f8038"},"vehicle_type_id":"4","last_reported":1762700932,"current_range_meters":4800,"station_id":"","pricing_plan_id":"cebpf4jnsgd1na2vs0mg"},{"bike_id":"9b9aeded-a0c0-44a6-96b0-80d5b031da62","system_id":"levelo_inurba_marseille","lat":43.23195,"lon":5.3556,"is_reserved":false,"is_disabled":false,"rental_uris":{"android":"levelo://app?vid=9b9aeded-a0c0-44a6-96b0-80d5b031da62","ios":"levelo://app?vid=9b9aeded-a0c0-44a6-96b0-80d5b031da62"},"vehicle_type_id":"4","last_reported":1762700932,"current_range_meters":5600,"station_id":"ce4bhu92rcd13ifvqi70","pricing_plan_id":"cebpf4jnsgd1na2vs0mg"},{"bike_id":"6ec3dfd5-ab43-4da0-a6be-b7ef952c1bf2","system_id":"levelo_inurba_marseille","lat":43.30754,"lon":5.395841,"is_reserved":false,"is_disabled":false,"rental_uris":{"android":"levelo://app?vid=6ec3dfd5-ab43-4da0-a6be-b7ef952c1bf2","ios":"levelo://app?vid=6ec3dfd5-ab43-4da0-a6be-b7ef952c1bf2"},"vehicle_type_id":"4","last_reported":1762700932,"current_range_meters":5600,"station_id":"ce4bh0p2rcd13ifvqd80","pricing_plan_id":"cebpf4jnsgd1na2vs0mg"},{"bike_id":"6c6f65b3-0314-4d51-ad33-575d2b20e8f4","system_id":"levelo_inurba_marseille","lat":43.21744,"lon":5.34612,"is_reserved":false,"is_disabled":true,"rental_uris":{"android":"levelo://app?vid=6c6f65b3-0314-4d51-ad33-575d2b20e8f4","ios":"levelo://app?vid=6c6f65b3-0314-4d51-ad33-575d2b20e8f4"},"vehicle_type_id":"4","last_reported":1762700932,"current_range_meters":5600,"station_id":"st_cvj6r9ubvosntc0bgbag","pricing_plan_id":"cebpf4jnsgd1na2vs0mg"},{"bike_id":"b05048b6-3636-4628-97b9-678771374061","system_id":"levelo_inurba_marseille","lat":43.30425,"lon":5.36835,"is_reserved":false,"is_disabled":true,"rental_uris":{"android":"levelo://app?vid=b05048b6-3636-4628-97b9-678771374061","ios":"levelo://app?vid=b05048b6-3636-4628-97b9-678771374061"},"vehicle_type_id":"4","last_reported":1762700932,"current_range_meters":5600,"station_id":"","pricing_plan_id":"cebpf4jnsgd1na2vs0mg"},{"bike_id":"63a92d10-2f0d-4b8e-affe-4cfbc4248545","system_id":"levelo_inurba_marseille","lat":43.21186,"lon":5.35084,"is_reserved":false,"is_disabled":false,"rental_uris":{"android":"levelo://app?vid=63a92d10-2f0d-4b8e-affe-4cfbc4248545","ios":"levelo://app?vid=63a92d10-2f0d-4b8e-affe-4cfbc4248545"},"vehicle_type_id":"4","last_reported":1762700932,"current_range_meters":5600,"station_id":"st_cvj6sg6p6f1abm77japg","pricing_plan_id":"cebpf4jnsgd1na2vs0mg"},{"bike_id":"d4e123b8-4c7e-47bf-82d4-fa705ec60d56","system_id":"levelo_inurba_marseille","lat":43.21727,"lon":5.34618,"is_reserved":false,"is_disabled":false,"rental_uris":{"android":"levelo://app?vid=d4e123b8-4c7e-47bf-82d4-fa705ec60d56","ios":"levelo://app?vid=d4e123b8-4c7e-47bf-82d4-fa705ec60d56"},"vehicle_type_id":"4","last_reported":1762700932,"current_range_meters":5600,"station_id":"st_cvj6r9ubvosntc0bgbag","pricing_plan_id":"cebpf4jnsgd1na2vs0mg"},{"bike_id":"571a2527-ae74-4813-8936-b689bc346901","system_id":"levelo_inurba_marseille","lat":43.26032,"lon":5.37556,"is_reserved":false,"is_disabled":false,"rental_uris":{"android":"levelo://app?vid=571a2527-ae74-4813-8936-b689bc346901","ios":"levelo://app?vid=571a2527-ae74-4813-8936-b689bc346901"},"vehicle_type_id":"4","last_reported":1762700932,"current_range_meters":5600,"station_id":"ce4bhgh2rcd13ifvqfa0","pricing_plan_id":"cebpf4jnsgd1na2vs0mg"},{"bike_id":"a0700682-fa1c-4b26-815a-7dc783bf9d0f","system_id":"levelo_inurba_marseille","lat":43.2738,"lon":5.36234,"is_reserved":false,"is_disabled":false,"rental_uris":{"android":"levelo://app?vid=a0700682-fa1c-4b26-815a-7dc783bf9d0f","ios":"levelo://app?vid=a0700682-fa1c-4b26-815a-7dc783bf9d0f"},"vehicle_type_id":"4","last_reported":1762700932,"current_range_meters":6000,"station_id":"ce4bhbh2rcd13ifvqeo0","pricing_plan_id":"cebpf4jnsgd1na2vs0mg"},{"bike_id":"62295c50-6ffd-412a-aeac-f100e9e2ffe9","system_id":"levelo_inurba_marseille","lat":43.2862,"lon":5.35105,"is_reserved":false,"is_disabled":false,"rental_uris":{"android":"levelo://app?vid=62295c50-6ffd-412a-aeac-f100e9e2ffe9","ios":"levelo://app?vid=62295c50-6ffd-412a-aeac-f100e9e2ffe9"},"vehicle_type_id":"4","last_reported":1762700932,"current_range_meters":6000,"station_id":"ce4bhch2rcd13ifvqeug","pricing_plan_id":"cebpf4jnsgd1na2vs0mg"},{"bike_id":"f55facdb-b98e-4988-a3ec-70361493232f","system_id":"levelo_inurba_marseille","lat":43.29978,"lon":5.38497,"is_reserved":false,"is_disabled":false,"rental_uris":{"android":"levelo://app?vid=f55facdb-b98e-4988-a3ec-70361493232f","ios":"levelo://app?vid=f55facdb-b98e-4988-a3ec-70361493232f"},"vehicle_type_id":"4","last_reported":1762700932,"current_range_meters":6000,"station_id":"ce4bgj92rcd13ifvqbd0","pricing_plan_id":"cebpf4jnsgd1na2vs0mg"},{"bike_id":"f457fe3d-75b2-4d60-9b12-cbfdf1597fef","system_id":"levelo_inurba_marseille","lat":43.245521,"lon":5.395228,"is_reserved":false,"is_disabled":false,"rental_uris":{"android":"levelo://app?vid=f457fe3d-75b2-4d60-9b12-cbfdf1597fef","ios":"levelo://app?vid=f457fe3d-75b2-4d60-9b12-cbfdf1597fef"},"vehicle_type_id":"4","last_reported":1762700932,"current_range_meters":6000,"station_id":"ce4bhlp2rcd13ifvqgjg","pricing_plan_id":"cebpf4jnsgd1na2vs0mg"},{"bike_id":"b091ac8e-aa50-4495-920f-41686b470670","system_id":"levelo_inurba_marseille","lat":43.27373,"lon":5.36263,"is_reserved":false,"is_disabled":false,"rental_uris":{"android":"levelo://app?vid=b091ac8e-aa50-4495-920f-41686b470670","ios":"levelo://app?vid=b091ac8e-aa50-4495-920f-41686b470670"},"vehicle_type_id":"4","last_reported":1762700932,"current_range_meters":6000,"station_id":"ce4bhbh2rcd13ifvqeo0","pricing_plan_id":"cebpf4jnsgd1na2vs0mg"},{"bike_id":"91f98906-08ea-4712-8f9c-15a3b57f057b","system_id":"levelo_inurba_marseille","lat":43.23181,"lon":5.39991,"is_reserved":false,"is_disabled":false,"rental_uris":{"android":"levelo://app?vid=91f98906-08ea-4712-8f9c-15a3b57f057b","ios":"levelo://app?vid=91f98906-08ea-4712-8f9c-15a3b57f057b"},"vehicle_type_id":"4","last_reported":1762700932,"current_range_meters":6000,"station_id":"ce4bhn12rcd13ifvqgqg","pricing_plan_id":"cebpf4jnsgd1na2vs0mg"},{"bike_id":"26aad628-bd01-4664-890e-ba85447bad9f","system_id":"levelo_inurba_marseille","lat":43.303332,"lon":5.40429,"is_reserved":false,"is_disabled":true,"rental_uris":{"android":"levelo://app?vid=26aad628-bd01-4664-890e-ba85447bad9f","ios":"levelo://app?vid=26aad628-bd01-4664-890e-ba85447bad9f"},"vehicle_type_id":"4","last_reported":1762700932,"current_range_meters":6000,"station_id":"ce4bh012rcd13ifvqd10","pricing_plan_id":"cebpf4jnsgd1na2vs0mg"},{"bike_id":"faf1a075-ad34-457b-9fe2-0de76d10eead","system_id":"levelo_inurba_marseille","lat":43.21749,"lon":5.346033,"is_reserved":false,"is_disabled":false,"rental_uris":{"android":"levelo://app?vid=faf1a075-ad34-457b-9fe2-0de76d10eead","ios":"levelo://app?vid=faf1a075-ad34-457b-9fe2-0de76d10eead"},"vehicle_type_id":"4","last_reported":1762700932,"current_range_meters":6000,"station_id":"st_cvj6r9ubvosntc0bgbag","pricing_plan_id":"cebpf4jnsgd1na2vs0mg"},{"bike_id":"13656b27-d01d-4263-a7db-78719847f27f","system_id":"levelo_inurba_marseille","lat":43.295199,"lon":5.37506,"is_reserved":false,"is_disabled":false,"rental_uris":{"android":"levelo://app?vid=13656b27-d01d-4263-a7db-78719847f27f","ios":"levelo://app?vid=13656b27-d01d-4263-a7db-78719847f27f"},"vehicle_type_id":"4","last_reported":1762700932,"current_range_meters":6000,"station_id":"ce4bgkp2rcd13ifvqbmg","pricing_plan_id":"cebpf4jnsgd1na2vs0mg"},{"bike_id":"3846a13b-4ebf-4cff-8454-9159276741e2","system_id":"levelo_inurba_marseille","lat":43.21753,"lon":5.34603,"is_reserved":false,"is_disabled":false,"rental_uris":{"android":"levelo://app?vid=3846a13b-4ebf-4cff-8454-9159276741e2","ios":"levelo://app?vid=3846a13b-4ebf-4cff-8454-9159276741e2"},"vehicle_type_id":"4","last_reported":1762700932,"current_range_meters":6000,"station_id":"st_cvj6r9ubvosntc0bgbag","pricing_plan_id":"cebpf4jnsgd1na2vs0mg"},{"bike_id":"bbd3524c-c793-4988-bc78-ee26ef050e91","system_id":"levelo_inurba_marseille","lat":43.28043,"lon":5.36941,"is_reserved":false,"is_disabled":false,"rental_uris":{"android":"levelo://app?vid=bbd3524c-c793-4988-bc78-ee26ef050e91","ios":"levelo://app?vid=bbd3524c-c793-4988-bc78-ee26ef050e91"},"vehicle_type_id":"4","last_reported":1762700932,"current_range_meters":6000,"station_id":"ce4bha12rcd13ifvqef0","pricing_plan_id":"cebpf4jnsgd1na2vs0mg"},{"bike_id":"d13f7aac-3326-47eb-8c83-0485dd333747","system_id":"levelo_inurba_marseille","lat":43.304781,"lon":5.392687,"is_reserved":false,"is_disabled":false,"rental_uris":{"android":"levelo://app?vid=d13f7aac-3326-47eb-8c83-0485dd333747","ios":"levelo://app?vid=d13f7aac-3326-47eb-8c83-0485dd333747"},"vehicle_type_id":"4","last_reported":1762700932,"current_range_meters":6000,"station_id":"","pricing_plan_id":"cebpf4jnsgd1na2vs0mg"},{"bike_id":"f87c2f11-1e07-49d7-9db3-6271484d08ac","system_id":"levelo_inurba_marseille","lat":43.22926,"lon":5.35375,"is_reserved":false,"is_disabled":true,"rental_uris":{"android":"levelo://app?vid=f87c2f11-1e07-49d7-9db3-6271484d08ac","ios":"levelo://app?vid=f87c2f11-1e07-49d7-9db3-6271484d08ac"},"vehicle_type_id":"4","last_reported":1762700932,"current_range_meters":6400,"station_id":"cpo3532slgdg3j2ikp40","pricing_plan_id":"cebpf4jnsgd1na2vs0mg"},{"bike_id":"72a4fab4-b7bf-4f14-b6cb-841bc4aaaaa8","system_id":"levelo_inurba_marseille","lat":43.2118,"lon":5.351,"is_reserved":false,"is_disabled":false,"rental_uris":{"android":"levelo://app?vid=72a4fab4-b7bf-4f14-b6cb-841bc4aaaaa8","ios":"levelo://app?vid=72a4fab4-b7bf-4f14-b6cb-841bc4aaaaa8"},"vehicle_type_id":"4","last_reported":1762700932,"current_range_meters":6400,"station_id":"st_cvj6sg6p6f1abm77japg","pricing_plan_id":"cebpf4jnsgd1na2vs0mg"},{"bike_id":"d9cc9949-3cf9-4ee5-adab-7b821ebbf5ef","system_id":"levelo_inurba_marseille","lat":43.26027,"lon":5.37553,"is_reserved":false,"is_disabled":false,"rental_uris":{"android":"levelo://app?vid=d9cc9949-3cf9-4ee5-adab-7b821ebbf5ef","ios":"levelo://app?vid=d9cc9949-3cf9-4ee5-adab-7b821ebbf5ef"},"vehicle_type_id":"4","last_reported":1762700932,"current_range_meters":6400,"station_id":"ce4bhgh2rcd13ifvqfa0","pricing_plan_id":"cebpf4jnsgd1na2vs0mg"},{"bike_id":"95565d88-4e0c-4b5d-b6d1-9a4c73bcb1f1","system_id":"levelo_inurba_marseille","lat":43.337559,"lon":5.37433,"is_reserved":false,"is_disabled":false,"rental_uris":{"android":"levelo://app?vid=95565d88-4e0c-4b5d-b6d1-9a4c73bcb1f1","ios":"levelo://app?vid=95565d88-4e0c-4b5d-b6d1-9a4c73bcb1f1"},"vehicle_type_id":"4","last_reported":1762700932,"current_range_meters":6400,"station_id":"","pricing_plan_id":"cebpf4jnsgd1na2vs0mg"},{"bike_id":"c8b7c0d8-5927-407a-aecc-265e21cb48f0","system_id":"levelo_inurba_marseille","lat":43.26214,"lon":5.37442,"is_reserved":false,"is_disabled":false,"rental_uris":{"android":"levelo://app?vid=c8b7c0d8-5927-407a-aecc-265e21cb48f0","ios":"levelo://app?vid=c8b7c0d8-5927-407a-aecc-265e21cb48f0"},"vehicle_type_id":"4","last_reported":1762700932,"current_range_meters":6400,"station_id":"ce4bhgp2rcd13ifvqfc0","pricing_plan_id":"cebpf4jnsgd1na2vs0mg"},{"bike_id":"4ed0ec51-0365-48db-b732-f7082da9f5aa","system_id":"levelo_inurba_marseille","lat":43.27172,"lon":5.40998,"is_reserved":false,"is_disabled":false,"rental_uris":{"android":"levelo://app?vid=4ed0ec51-0365-48db-b732-f7082da9f5aa","ios":"levelo://app?vid=4ed0ec51-0365-48db-b732-f7082da9f5aa"},"vehicle_type_id":"4","last_reported":1762700932,"current_range_meters":6400,"station_id":"ce4bhl12rcd13ifvqgf0","pricing_plan_id":"cebpf4jnsgd1na2vs0mg"},{"bike_id":"23468c4e-bd9c-43cd-9c04-19b7e93ce770","system_id":"levelo_inurba_marseille","lat":43.2119,"lon":5.35075,"is_reserved":false,"is_disabled":false,"rental_uris":{"android":"levelo://app?vid=23468c4e-bd9c-43cd-9c04-19b7e93ce770","ios":"levelo://app?vid=23468c4e-bd9c-43cd-9c04-19b7e93ce770"},"vehicle_type_id":"4","last_reported":1762700932,"current_range_meters":6400,"station_id":"st_cvj6sg6p6f1abm77japg","pricing_plan_id":"cebpf4jnsgd1na2vs0mg"},{"bike_id":"773b796c-53cf-45de-8ead-a66a5803e7ef","system_id":"levelo_inurba_marseille","lat":43.30255,"lon":5.4008,"is_reserved":false,"is_disabled":false,"rental_uris":{"android":"levelo://app?vid=773b796c-53cf-45de-8ead-a66a5803e7ef","ios":"levelo://app?vid=773b796c-53cf-45de-8ead-a66a5803e7ef"},"vehicle_type_id":"4","last_reported":1762700932,"current_range_meters":6800,"station_id":"ce4bgvh2rcd13ifvqcs0","pricing_plan_id":"cebpf4jnsgd1na2vs0mg"},{"bike_id":"5e0e05a1-b7e8-4fb7-88c3-33cdeb2367e8","system_id":"levelo_inurba_marseille","lat":43.250034,"lon":5.389183,"is_reserved":false,"is_disabled":false,"rental_uris":{"android":"levelo://app?vid=5e0e05a1-b7e8-4fb7-88c3-33cdeb2367e8","ios":"levelo://app?vid=5e0e05a1-b7e8-4fb7-88c3-33cdeb2367e8"},"vehicle_type_id":"4","last_reported":1762700932,"current_range_meters":6800,"station_id":"ce4bhgp2rcd13ifvqfd0","pricing_plan_id":"cebpf4jnsgd1na2vs0mg"},{"bike_id":"382f597e-181c-4839-b1de-04339df9aa55","system_id":"levelo_inurba_marseille","lat":43.26807,"lon":5.4026,"is_reserved":false,"is_disabled":true,"rental_uris":{"android":"levelo://app?vid=382f597e-181c-4839-b1de-04339df9aa55","ios":"levelo://app?vid=382f597e-181c-4839-b1de-04339df9aa55"},"vehicle_type_id":"4","last_reported":1762700932,"current_range_meters":6800,"station_id":"ce501612rcd8frsf0b60","pricing_plan_id":"cebpf4jnsgd1na2vs0mg"},{"bike_id":"add67f82-2e88-49ab-91f8-b4878f16c307","system_id":"levelo_inurba_marseille","lat":43.29265,"lon":5.38432,"is_reserved":false,"is_disabled":false,"rental_uris":{"android":"levelo://app?vid=add67f82-2e88-49ab-91f8-b4878f16c307","ios":"levelo://app?vid=add67f82-2e88-49ab-91f8-b4878f16c307"},"vehicle_type_id":"4","last_reported":1762700932,"current_range_meters":6800,"station_id":"ce4bh692rcd13ifvqea0","pricing_plan_id":"cebpf4jnsgd1na2vs0mg"},{"bike_id":"9dda5635-a624-436d-9b12-22fb00320230","system_id":"levelo_inurba_marseille","lat":43.29322,"lon":5.37155,"is_reserved":false,"is_disabled":false,"rental_uris":{"android":"levelo://app?vid=9dda5635-a624-436d-9b12-22fb00320230","ios":"levelo://app?vid=9dda5635-a624-436d-9b12-22fb00320230"},"vehicle_type_id":"4","last_reported":1762700932,"current_range_meters":6800,"station_id":"","pricing_plan_id":"cebpf4jnsgd1na2vs0mg"},{"bike_id":"920c9da0-d65d-45f8-9450-0179826af422","system_id":"levelo_inurba_marseille","lat":43.21191,"lon":5.35074,"is_reserved":false,"is_disabled":false,"rental_uris":{"android":"levelo://app?vid=920c9da0-d65d-45f8-9450-0179826af422","ios":"levelo://app?vid=920c9da0-d65d-45f8-9450-0179826af422"},"vehicle_type_id":"4","last_reported":1762700932,"current_range_meters":6800,"station_id":"st_cvj6sg6p6f1abm77japg","pricing_plan_id":"cebpf4jnsgd1na2vs0mg"},{"bike_id":"bbf4d01f-53c7-4861-88cb-f79b104424c4","system_id":"levelo_inurba_marseille","lat":43.32369,"lon":5.38891,"is_reserved":false,"is_disabled":false,"rental_uris":{"android":"levelo://app?vid=bbf4d01f-53c7-4861-88cb-f79b104424c4","ios":"levelo://app?vid=bbf4d01f-53c7-4861-88cb-f79b104424c4"},"vehicle_type_id":"4","last_reported":1762700932,"current_range_meters":6800,"station_id":"ce4bhqp2rcd13ifvqhog","pricing_plan_id":"cebpf4jnsgd1na2vs0mg"},{"bike_id":"0f8373a3-446e-42a0-81ae-550b9c2438cc","system_id":"levelo_inurba_marseille","lat":43.21745,"lon":5.34615,"is_reserved":false,"is_disabled":false,"rental_uris":{"android":"levelo://app?vid=0f8373a3-446e-42a0-81ae-550b9c2438cc","ios":"levelo://app?vid=0f8373a3-446e-42a0-81ae-550b9c2438cc"},"vehicle_type_id":"4","last_reported":1762700932,"current_range_meters":6800,"station_id":"st_cvj6r9ubvosntc0bgbag","pricing_plan_id":"cebpf4jnsgd1na2vs0mg"},{"bike_id":"72f91b8a-f0d1-42a9-80a1-5749aaefd962","system_id":"levelo_inurba_marseille","lat":43.26032,"lon":5.37553,"is_reserved":false,"is_disabled":false,"rental_uris":{"android":"levelo://app?vid=72f91b8a-f0d1-42a9-80a1-5749aaefd962","ios":"levelo://app?vid=72f91b8a-f0d1-42a9-80a1-5749aaefd962"},"vehicle_type_id":"4","last_reported":1762700932,"current_range_meters":6800,"station_id":"ce4bhgh2rcd13ifvqfa0","pricing_plan_id":"cebpf4jnsgd1na2vs0mg"},{"bike_id":"0bd0102c-4e9d-44b6-8055-a70ee51cc8d9","system_id":"levelo_inurba_marseille","lat":43.21199,"lon":5.35079,"is_reserved":false,"is_disabled":false,"rental_uris":{"android":"levelo://app?vid=0bd0102c-4e9d-44b6-8055-a70ee51cc8d9","ios":"levelo://app?vid=0bd0102c-4e9d-44b6-8055-a70ee51cc8d9"},"vehicle_type_id":"4","last_reported":1762700932,"current_range_meters":6800,"station_id":"st_cvj6sg6p6f1abm77japg","pricing_plan_id":"cebpf4jnsgd1na2vs0mg"},{"bike_id":"4ec7dabd-ad1b-49fd-b0fb-19164f905b18","system_id":"levelo_inurba_marseille","lat":43.2604,"lon":5.37551,"is_reserved":false,"is_disabled":false,"rental_uris":{"android":"levelo://app?vid=4ec7dabd-ad1b-49fd-b0fb-19164f905b18","ios":"levelo://app?vid=4ec7dabd-ad1b-49fd-b0fb-19164f905b18"},"vehicle_type_id":"4","last_reported":1762700932,"current_range_meters":6800,"station_id":"ce4bhgh2rcd13ifvqfa0","pricing_plan_id":"cebpf4jnsgd1na2vs0mg"},{"bike_id":"92053643-856e-43d0-9742-b4253c57a6db","system_id":"levelo_inurba_marseille","lat":43.27373,"lon":5.36268,"is_reserved":false,"is_disabled":false,"rental_uris":{"android":"levelo://app?vid=92053643-856e-43d0-9742-b4253c57a6db","ios":"levelo://app?vid=92053643-856e-43d0-9742-b4253c57a6db"},"vehicle_type_id":"4","last_reported":1762700932,"current_range_meters":7200,"station_id":"ce4bhbh2rcd13ifvqeo0","pricing_plan_id":"cebpf4jnsgd1na2vs0mg"},{"bike_id":"d510b29d-06c6-4a67-8cee-2182097a14e2","system_id":"levelo_inurba_marseille","lat":43.29265,"lon":5.37622,"is_reserved":false,"is_disabled":true,"rental_uris":{"android":"levelo://app?vid=d510b29d-06c6-4a67-8cee-2182097a14e2","ios":"levelo://app?vid=d510b29d-06c6-4a67-8cee-2182097a14e2"},"vehicle_type_id":"4","last_reported":1762700932,"current_range_meters":7200,"station_id":"ce4bgi12rcd13ifvqb80","pricing_plan_id":"cebpf4jnsgd1na2vs0mg"},{"bike_id":"9f611ac1-6f6a-4437-9025-ea87f35606a4","system_id":"levelo_inurba_marseille","lat":43.28552,"lon":5.37813,"is_reserved":false,"is_disabled":false,"rental_uris":{"android":"levelo://app?vid=9f611ac1-6f6a-4437-9025-ea87f35606a4","ios":"levelo://app?vid=9f611ac1-6f6a-4437-9025-ea87f35606a4"},"vehicle_type_id":"4","last_reported":1762700932,"current_range_meters":7200,"station_id":"","pricing_plan_id":"cebpf4jnsgd1na2vs0mg"},{"bike_id":"cd36fb7c-4385-47bd-96a8-f8889a6e3476","system_id":"levelo_inurba_marseille","lat":43.298972,"lon":5.436715,"is_reserved":false,"is_disabled":false,"rental_uris":{"android":"levelo://app?vid=cd36fb7c-4385-47bd-96a8-f8889a6e3476","ios":"levelo://app?vid=cd36fb7c-4385-47bd-96a8-f8889a6e3476"},"vehicle_type_id":"4","last_reported":1762700932,"current_range_meters":7200,"station_id":"ce4bhpp2rcd13ifvqhfg","pricing_plan_id":"cebpf4jnsgd1na2vs0mg"},{"bike_id":"9cdad6c8-1892-4ff6-aac6-4135f1e76ea2","system_id":"levelo_inurba_marseille","lat":43.273271,"lon":5.390668,"is_reserved":false,"is_disabled":false,"rental_uris":{"android":"levelo://app?vid=9cdad6c8-1892-4ff6-aac6-4135f1e76ea2","ios":"levelo://app?vid=9cdad6c8-1892-4ff6-aac6-4135f1e76ea2"},"vehicle_type_id":"4","last_reported":1762700932,"current_range_meters":7200,"station_id":"ce4bhgp2rcd13ifvqfe0","pricing_plan_id":"cebpf4jnsgd1na2vs0mg"},{"bike_id":"585ee3e6-5f07-4bc7-85c6-c45529bb7b15","system_id":"levelo_inurba_marseille","lat":43.21195,"lon":5.35075,"is_reserved":false,"is_disabled":false,"rental_uris":{"android":"levelo://app?vid=585ee3e6-5f07-4bc7-85c6-c45529bb7b15","ios":"levelo://app?vid=585ee3e6-5f07-4bc7-85c6-c45529bb7b15"},"vehicle_type_id":"4","last_reported":1762700932,"current_range_meters":7200,"station_id":"st_cvj6sg6p6f1abm77japg","pricing_plan_id":"cebpf4jnsgd1na2vs0mg"},{"bike_id":"59736966-d2af-4cbc-8ac5-e955aeb2f190","system_id":"levelo_inurba_marseille","lat":43.288549,"lon":5.425091,"is_reserved":false,"is_disabled":false,"rental_uris":{"android":"levelo://app?vid=59736966-d2af-4cbc-8ac5-e955aeb2f190","ios":"levelo://app?vid=59736966-d2af-4cbc-8ac5-e955aeb2f190"},"vehicle_type_id":"4","last_reported":1762700932,"current_range_meters":7200,"station_id":"st_d3b462108ojc7389ooeg","pricing_plan_id":"cebpf4jnsgd1na2vs0mg"},{"bike_id":"c0969de0-74b0-4b5a-9248-b43b0ee3e19e","system_id":"levelo_inurba_marseille","lat":43.24899,"lon":5.3766,"is_reserved":false,"is_disabled":false,"rental_uris":{"android":"levelo://app?vid=c0969de0-74b0-4b5a-9248-b43b0ee3e19e","ios":"levelo://app?vid=c0969de0-74b0-4b5a-9248-b43b0ee3e19e"},"vehicle_type_id":"4","last_reported":1762700932,"current_range_meters":7200,"station_id":"","pricing_plan_id":"cebpf4jnsgd1na2vs0mg"},{"bike_id":"33c55ef3-f133-4ad9-8902-78ba36612b34","system_id":"levelo_inurba_marseille","lat":43.28853,"lon":5.358272,"is_reserved":false,"is_disabled":true,"rental_uris":{"android":"levelo://app?vid=33c55ef3-f133-4ad9-8902-78ba36612b34","ios":"levelo://app?vid=33c55ef3-f133-4ad9-8902-78ba36612b34"},"vehicle_type_id":"4","last_reported":1762700932,"current_range_meters":7200,"station_id":"ce4bhb12rcd13ifvqem0","pricing_plan_id":"cebpf4jnsgd1na2vs0mg"},{"bike_id":"3b294fa9-3f9f-4381-a2a8-e3592d375a68","system_id":"levelo_inurba_marseille","lat":43.267003,"lon":5.396855,"is_reserved":false,"is_disabled":false,"rental_uris":{"android":"levelo://app?vid=3b294fa9-3f9f-4381-a2a8-e3592d375a68","ios":"levelo://app?vid=3b294fa9-3f9f-4381-a2a8-e3592d375a68"},"vehicle_type_id":"4","last_reported":1762700932,"current_range_meters":7200,"station_id":"","pricing_plan_id":"cebpf4jnsgd1na2vs0mg"},{"bike_id":"321d43c2-a97c-419e-a110-a172b4ee23e9","system_id":"levelo_inurba_marseille","lat":43.2616,"lon":5.41774,"is_reserved":false,"is_disabled":false,"rental_uris":{"android":"levelo://app?vid=321d43c2-a97c-419e-a110-a172b4ee23e9","ios":"levelo://app?vid=321d43c2-a97c-419e-a110-a172b4ee23e9"},"vehicle_type_id":"4","last_reported":1762700932,"current_range_meters":8000,"station_id":"","pricing_plan_id":"cebpf4jnsgd1na2vs0mg"},{"bike_id":"34844f16-4fb7-4a25-8737-b00ed7e72576","system_id":"levelo_inurba_marseille","lat":43.28303,"lon":5.39015,"is_reserved":false,"is_disabled":false,"rental_uris":{"android":"levelo://app?vid=34844f16-4fb7-4a25-8737-b00ed7e72576","ios":"levelo://app?vid=34844f16-4fb7-4a25-8737-b00ed7e72576"},"vehicle_type_id":"4","last_reported":1762700932,"current_range_meters":8000,"station_id":"","pricing_plan_id":"cebpf4jnsgd1na2vs0mg"},{"bike_id":"a98eb5f7-2b78-4fcd-8cc1-f9604b535f51","system_id":"levelo_inurba_marseille","lat":43.30206,"lon":5.39469,"is_reserved":false,"is_disabled":true,"rental_uris":{"android":"levelo://app?vid=a98eb5f7-2b78-4fcd-8cc1-f9604b535f51","ios":"levelo://app?vid=a98eb5f7-2b78-4fcd-8cc1-f9604b535f51"},"vehicle_type_id":"4","last_reported":1762700932,"current_range_meters":8000,"station_id":"ce4bh0p2rcd13ifvqd70","pricing_plan_id":"cebpf4jnsgd1na2vs0mg"},{"bike_id":"c5a209f2-cc77-4916-aa74-1401f1c6e1ff","system_id":"levelo_inurba_marseille","lat":43.26206,"lon":5.37929,"is_reserved":false,"is_disabled":false,"rental_uris":{"android":"levelo://app?vid=c5a209f2-cc77-4916-aa74-1401f1c6e1ff","ios":"levelo://app?vid=c5a209f2-cc77-4916-aa74-1401f1c6e1ff"},"vehicle_type_id":"4","last_reported":1762700932,"current_range_meters":8000,"station_id":"ce4bhjp2rcd13ifvqg90","pricing_plan_id":"cebpf4jnsgd1na2vs0mg"},{"bike_id":"7449c37e-50f0-460d-a756-58314d0f82eb","system_id":"levelo_inurba_marseille","lat":43.30916,"lon":5.36849,"is_reserved":false,"is_disabled":false,"rental_uris":{"android":"levelo://app?vid=7449c37e-50f0-460d-a756-58314d0f82eb","ios":"levelo://app?vid=7449c37e-50f0-460d-a756-58314d0f82eb"},"vehicle_type_id":"4","last_reported":1762700932,"current_range_meters":8000,"station_id":"ce4bgn92rcd13ifvqbvg","pricing_plan_id":"cebpf4jnsgd1na2vs0mg"},{"bike_id":"d61beb71-8a36-473b-8da6-d3f93af5ca9c","system_id":"levelo_inurba_marseille","lat":43.229204,"lon":5.353617,"is_reserved":false,"is_disabled":false,"rental_uris":{"android":"levelo://app?vid=d61beb71-8a36-473b-8da6-d3f93af5ca9c","ios":"levelo://app?vid=d61beb71-8a36-473b-8da6-d3f93af5ca9c"},"vehicle_type_id":"4","last_reported":1762700932,"current_range_meters":8000,"station_id":"","pricing_plan_id":"cebpf4jnsgd1na2vs0mg"},{"bike_id":"b2042346-ee6d-4777-ba1d-c7f348d0e347","system_id":"levelo_inurba_marseille","lat":43.24387,"lon":5.3708,"is_reserved":false,"is_disabled":false,"rental_uris":{"android":"levelo://app?vid=b2042346-ee6d-4777-ba1d-c7f348d0e347","ios":"levelo://app?vid=b2042346-ee6d-4777-ba1d-c7f348d0e347"},"vehicle_type_id":"4","last_reported":1762700932,"current_range_meters":8000,"station_id":"ce4bhhh2rcd13ifvqfk0","pricing_plan_id":"cebpf4jnsgd1na2vs0mg"},{"bike_id":"1339ef90-7056-4f6c-97e9-32c4fa532151","system_id":"levelo_inurba_marseille","lat":43.240287,"lon":5.377621,"is_reserved":false,"is_disabled":false,"rental_uris":{"android":"levelo://app?vid=1339ef90-7056-4f6c-97e9-32c4fa532151","ios":"levelo://app?vid=1339ef90-7056-4f6c-97e9-32c4fa532151"},"vehicle_type_id":"4","last_reported":1762700932,"current_range_meters":8000,"station_id":"ce4bhnp2rcd13ifvqgvg","pricing_plan_id":"cebpf4jnsgd1na2vs0mg"},{"bike_id":"237ca307-539b-44e6-8119-a10a9a7c6994","system_id":"levelo_inurba_marseille","lat":43.21176,"lon":5.35086,"is_reserved":false,"is_disabled":false,"rental_uris":{"android":"levelo://app?vid=237ca307-539b-44e6-8119-a10a9a7c6994","ios":"levelo://app?vid=237ca307-539b-44e6-8119-a10a9a7c6994"},"vehicle_type_id":"4","last_reported":1762700932,"current_range_meters":8000,"station_id":"st_cvj6sg6p6f1abm77japg","pricing_plan_id":"cebpf4jnsgd1na2vs0mg"},{"bike_id":"5916b080-126b-493e-9d76-68ff8df78665","system_id":"levelo_inurba_marseille","lat":43.25109,"lon":5.4033,"is_reserved":false,"is_disabled":false,"rental_uris":{"android":"levelo://app?vid=5916b080-126b-493e-9d76-68ff8df78665","ios":"levelo://app?vid=5916b080-126b-493e-9d76-68ff8df78665"},"vehicle_type_id":"4","last_reported":1762700932,"current_range_meters":8400,"station_id":"ce4bhlh2rcd13ifvqgig","pricing_plan_id":"cebpf4jnsgd1na2vs0mg"},{"bike_id":"4d779485-5a72-4cb7-ac55-a6fb4721bdda","system_id":"levelo_inurba_marseille","lat":43.28466,"lon":5.35897,"is_reserved":false,"is_disabled":false,"rental_uris":{"android":"levelo://app?vid=4d779485-5a72-4cb7-ac55-a6fb4721bdda","ios":"levelo://app?vid=4d779485-5a72-4cb7-ac55-a6fb4721bdda"},"vehicle_type_id":"4","last_reported":1762700932,"current_range_meters":8400,"station_id":"ce4bhah2rcd13ifvqei0","pricing_plan_id":"cebpf4jnsgd1na2vs0mg"},{"bike_id":"60c530a0-69e7-4ff7-af8a-3ef4e145092d","system_id":"levelo_inurba_marseille","lat":43.21746,"lon":5.34598,"is_reserved":false,"is_disabled":false,"rental_uris":{"android":"levelo://app?vid=60c530a0-69e7-4ff7-af8a-3ef4e145092d","ios":"levelo://app?vid=60c530a0-69e7-4ff7-af8a-3ef4e145092d"},"vehicle_type_id":"4","last_reported":1762700932,"current_range_meters":8400,"station_id":"st_cvj6r9ubvosntc0bgbag","pricing_plan_id":"cebpf4jnsgd1na2vs0mg"},{"bike_id":"62c7ca65-9c32-40ff-803b-971cb0fb41f1","system_id":"levelo_inurba_marseille","lat":43.276146,"lon":5.36124,"is_reserved":false,"is_disabled":false,"rental_uris":{"android":"levelo://app?vid=62c7ca65-9c32-40ff-803b-971cb0fb41f1","ios":"levelo://app?vid=62c7ca65-9c32-40ff-803b-971cb0fb41f1"},"vehicle_type_id":"4","last_reported":1762700932,"current_range_meters":8400,"station_id":"ce4bgj92rcd13ifvqbe0","pricing_plan_id":"cebpf4jnsgd1na2vs0mg"},{"bike_id":"f2d306ea-8bed-444d-96bd-6b3a65a1836c","system_id":"levelo_inurba_marseille","lat":43.295664,"lon":5.385594,"is_reserved":false,"is_disabled":false,"rental_uris":{"android":"levelo://app?vid=f2d306ea-8bed-444d-96bd-6b3a65a1836c","ios":"levelo://app?vid=f2d306ea-8bed-444d-96bd-6b3a65a1836c"},"vehicle_type_id":"4","last_reported":1762700932,"current_range_meters":8400,"station_id":"chh1huq6cuj3fo74tm60","pricing_plan_id":"cebpf4jnsgd1na2vs0mg"},{"bike_id":"76fac608-1184-49da-941d-7da5b297ff5f","system_id":"levelo_inurba_marseille","lat":43.22533,"lon":5.348348,"is_reserved":false,"is_disabled":false,"rental_uris":{"android":"levelo://app?vid=76fac608-1184-49da-941d-7da5b297ff5f","ios":"levelo://app?vid=76fac608-1184-49da-941d-7da5b297ff5f"},"vehicle_type_id":"4","last_reported":1762700932,"current_range_meters":8400,"station_id":"","pricing_plan_id":"cebpf4jnsgd1na2vs0mg"},{"bike_id":"d2991a60-dcfa-4252-8f9d-bfff4b1dc433","system_id":"levelo_inurba_marseille","lat":43.31096,"lon":5.37142,"is_reserved":false,"is_disabled":false,"rental_uris":{"android":"levelo://app?vid=d2991a60-dcfa-4252-8f9d-bfff4b1dc433","ios":"levelo://app?vid=d2991a60-dcfa-4252-8f9d-bfff4b1dc433"},"vehicle_type_id":"4","last_reported":1762700932,"current_range_meters":8400,"station_id":"","pricing_plan_id":"cebpf4jnsgd1na2vs0mg"},{"bike_id":"0f39d500-2c35-412d-88ba-12bd9c7f2604","system_id":"levelo_inurba_marseille","lat":43.23973,"lon":5.36612,"is_reserved":false,"is_disabled":false,"rental_uris":{"android":"levelo://app?vid=0f39d500-2c35-412d-88ba-12bd9c7f2604","ios":"levelo://app?vid=0f39d500-2c35-412d-88ba-12bd9c7f2604"},"vehicle_type_id":"4","last_reported":1762700932,"current_range_meters":8400,"station_id":"ce4bhi12rcd13ifvqfp0","pricing_plan_id":"cebpf4jnsgd1na2vs0mg"},{"bike_id":"883d386a-6ccc-4eea-b2a2-269dc26781b0","system_id":"levelo_inurba_marseille","lat":43.21191,"lon":5.35075,"is_reserved":false,"is_disabled":false,"rental_uris":{"android":"levelo://app?vid=883d386a-6ccc-4eea-b2a2-269dc26781b0","ios":"levelo://app?vid=883d386a-6ccc-4eea-b2a2-269dc26781b0"},"vehicle_type_id":"4","last_reported":1762700932,"current_range_meters":8400,"station_id":"st_cvj6sg6p6f1abm77japg","pricing_plan_id":"cebpf4jnsgd1na2vs0mg"},{"bike_id":"5320d673-8f17-42b0-b637-4e20de7189dd","system_id":"levelo_inurba_marseille","lat":43.299325,"lon":5.365352,"is_reserved":false,"is_disabled":true,"rental_uris":{"android":"levelo://app?vid=5320d673-8f17-42b0-b637-4e20de7189dd","ios":"levelo://app?vid=5320d673-8f17-42b0-b637-4e20de7189dd"},"vehicle_type_id":"4","last_reported":1762700932,"current_range_meters":8800,"station_id":"ce4bgm92rcd13ifvqbr0","pricing_plan_id":"cebpf4jnsgd1na2vs0mg"},{"bike_id":"db5e8244-14f1-4e16-9ab0-dd8d05ed64ac","system_id":"levelo_inurba_marseille","lat":43.282713,"lon":5.350493,"is_reserved":false,"is_disabled":false,"rental_uris":{"android":"levelo://app?vid=db5e8244-14f1-4e16-9ab0-dd8d05ed64ac","ios":"levelo://app?vid=db5e8244-14f1-4e16-9ab0-dd8d05ed64ac"},"vehicle_type_id":"4","last_reported":1762700932,"current_range_meters":8800,"station_id":"ce4bhah2rcd13ifvqej0","pricing_plan_id":"cebpf4jnsgd1na2vs0mg"},{"bike_id":"bba9e633-18bc-46ef-9ade-02fb841ef1d8","system_id":"levelo_inurba_marseille","lat":43.28039,"lon":5.369352,"is_reserved":false,"is_disabled":false,"rental_uris":{"android":"levelo://app?vid=bba9e633-18bc-46ef-9ade-02fb841ef1d8","ios":"levelo://app?vid=bba9e633-18bc-46ef-9ade-02fb841ef1d8"},"vehicle_type_id":"4","last_reported":1762700932,"current_range_meters":8800,"station_id":"ce4bha12rcd13ifvqef0","pricing_plan_id":"cebpf4jnsgd1na2vs0mg"},{"bike_id":"1bf77a8c-b243-48b7-9605-cea41a43f335","system_id":"levelo_inurba_marseille","lat":43.2694,"lon":5.40254,"is_reserved":false,"is_disabled":false,"rental_uris":{"android":"levelo://app?vid=1bf77a8c-b243-48b7-9605-cea41a43f335","ios":"levelo://app?vid=1bf77a8c-b243-48b7-9605-cea41a43f335"},"vehicle_type_id":"4","last_reported":1762700932,"current_range_meters":8800,"station_id":"cjm6bp8fraef2m0cb0m0","pricing_plan_id":"cebpf4jnsgd1na2vs0mg"},{"bike_id":"a97b11cf-36b9-44b5-8938-0ca101022301","system_id":"levelo_inurba_marseille","lat":43.304199,"lon":5.367835,"is_reserved":false,"is_disabled":false,"rental_uris":{"android":"levelo://app?vid=a97b11cf-36b9-44b5-8938-0ca101022301","ios":"levelo://app?vid=a97b11cf-36b9-44b5-8938-0ca101022301"},"vehicle_type_id":"4","last_reported":1762700932,"current_range_meters":8800,"station_id":"ce4bgrp2rcd13ifvqc9g","pricing_plan_id":"cebpf4jnsgd1na2vs0mg"},{"bike_id":"f54299dc-3ad8-4d40-b17e-b898abbc5034","system_id":"levelo_inurba_marseille","lat":43.28263,"lon":5.35096,"is_reserved":false,"is_disabled":true,"rental_uris":{"android":"levelo://app?vid=f54299dc-3ad8-4d40-b17e-b898abbc5034","ios":"levelo://app?vid=f54299dc-3ad8-4d40-b17e-b898abbc5034"},"vehicle_type_id":"4","last_reported":1762700932,"current_range_meters":8800,"station_id":"ce4bhbp2rcd13ifvqerg","pricing_plan_id":"cebpf4jnsgd1na2vs0mg"},{"bike_id":"2eb48f07-abd2-41de-a7da-dd505426e3ed","system_id":"levelo_inurba_marseille","lat":43.25206,"lon":5.38045,"is_reserved":false,"is_disabled":false,"rental_uris":{"android":"levelo://app?vid=2eb48f07-abd2-41de-a7da-dd505426e3ed","ios":"levelo://app?vid=2eb48f07-abd2-41de-a7da-dd505426e3ed"},"vehicle_type_id":"4","last_reported":1762700932,"current_range_meters":8800,"station_id":"","pricing_plan_id":"cebpf4jnsgd1na2vs0mg"},{"bike_id":"c5400d7a-a13a-41cb-bca1-085b77ad4d96","system_id":"levelo_inurba_marseille","lat":43.21192,"lon":5.35074,"is_reserved":false,"is_disabled":false,"rental_uris":{"android":"levelo://app?vid=c5400d7a-a13a-41cb-bca1-085b77ad4d96","ios":"levelo://app?vid=c5400d7a-a13a-41cb-bca1-085b77ad4d96"},"vehicle_type_id":"4","last_reported":1762700932,"current_range_meters":8800,"station_id":"st_cvj6sg6p6f1abm77japg","pricing_plan_id":"cebpf4jnsgd1na2vs0mg"},{"bike_id":"16f3b2b1-13ec-433a-94b3-ce2f98c84edc","system_id":"levelo_inurba_marseille","lat":43.26029,"lon":5.37552,"is_reserved":false,"is_disabled":false,"rental_uris":{"android":"levelo://app?vid=16f3b2b1-13ec-433a-94b3-ce2f98c84edc","ios":"levelo://app?vid=16f3b2b1-13ec-433a-94b3-ce2f98c84edc"},"vehicle_type_id":"4","last_reported":1762700932,"current_range_meters":8800,"station_id":"ce4bhgh2rcd13ifvqfa0","pricing_plan_id":"cebpf4jnsgd1na2vs0mg"},{"bike_id":"870a9ad1-db35-4ab0-bc9a-84476efc6571","system_id":"levelo_inurba_marseille","lat":43.32795,"lon":5.42663,"is_reserved":false,"is_disabled":false,"rental_uris":{"android":"levelo://app?vid=870a9ad1-db35-4ab0-bc9a-84476efc6571","ios":"levelo://app?vid=870a9ad1-db35-4ab0-bc9a-84476efc6571"},"vehicle_type_id":"4","last_reported":1762700932,"current_range_meters":8800,"station_id":"","pricing_plan_id":"cebpf4jnsgd1na2vs0mg"},{"bike_id":"034b45fe-fc8a-40e2-930b-00715a4950c7","system_id":"levelo_inurba_marseille","lat":43.22542,"lon":5.34855,"is_reserved":false,"is_disabled":false,"rental_uris":{"android":"levelo://app?vid=034b45fe-fc8a-40e2-930b-00715a4950c7","ios":"levelo://app?vid=034b45fe-fc8a-40e2-930b-00715a4950c7"},"vehicle_type_id":"4","last_reported":1762700932,"current_range_meters":9200,"station_id":"","pricing_plan_id":"cebpf4jnsgd1na2vs0mg"},{"bike_id":"813cef45-2bbd-4ba0-9a68-cedf0d13ddc6","system_id":"levelo_inurba_marseille","lat":43.307924,"lon":5.381676,"is_reserved":false,"is_disabled":false,"rental_uris":{"android":"levelo://app?vid=813cef45-2bbd-4ba0-9a68-cedf0d13ddc6","ios":"levelo://app?vid=813cef45-2bbd-4ba0-9a68-cedf0d13ddc6"},"vehicle_type_id":"4","last_reported":1762700932,"current_range_meters":9200,"station_id":"ce4bgt12rcd13ifvqce0","pricing_plan_id":"cebpf4jnsgd1na2vs0mg"},{"bike_id":"825a1957-d327-49da-97b3-2485c79c40e7","system_id":"levelo_inurba_marseille","lat":43.21732,"lon":5.34623,"is_reserved":false,"is_disabled":true,"rental_uris":{"android":"levelo://app?vid=825a1957-d327-49da-97b3-2485c79c40e7","ios":"levelo://app?vid=825a1957-d327-49da-97b3-2485c79c40e7"},"vehicle_type_id":"4","last_reported":1762700932,"current_range_meters":9200,"station_id":"","pricing_plan_id":"cebpf4jnsgd1na2vs0mg"},{"bike_id":"963c8b70-8cdc-4161-ab23-8766bcd2ce30","system_id":"levelo_inurba_marseille","lat":43.21188,"lon":5.35073,"is_reserved":false,"is_disabled":false,"rental_uris":{"android":"levelo://app?vid=963c8b70-8cdc-4161-ab23-8766bcd2ce30","ios":"levelo://app?vid=963c8b70-8cdc-4161-ab23-8766bcd2ce30"},"vehicle_type_id":"4","last_reported":1762700932,"current_range_meters":9200,"station_id":"st_cvj6sg6p6f1abm77japg","pricing_plan_id":"cebpf4jnsgd1na2vs0mg"},{"bike_id":"e35bb883-68aa-4f66-bf87-dcfdeb40537b","system_id":"levelo_inurba_marseille","lat":43.225363,"lon":5.348357,"is_reserved":false,"is_disabled":false,"rental_uris":{"android":"levelo://app?vid=e35bb883-68aa-4f66-bf87-dcfdeb40537b","ios":"levelo://app?vid=e35bb883-68aa-4f66-bf87-dcfdeb40537b"},"vehicle_type_id":"4","last_reported":1762700932,"current_range_meters":9200,"station_id":"","pricing_plan_id":"cebpf4jnsgd1na2vs0mg"},{"bike_id":"6e516340-9641-4325-9cd8-46780776c1ed","system_id":"levelo_inurba_marseille","lat":43.305466,"lon":5.367687,"is_reserved":false,"is_disabled":true,"rental_uris":{"android":"levelo://app?vid=6e516340-9641-4325-9cd8-46780776c1ed","ios":"levelo://app?vid=6e516340-9641-4325-9cd8-46780776c1ed"},"vehicle_type_id":"4","last_reported":1762700932,"current_range_meters":9200,"station_id":"ce4bgrp2rcd13ifvqc9g","pricing_plan_id":"cebpf4jnsgd1na2vs0mg"},{"bike_id":"d1e37d55-7b9a-4cb0-9752-e763a4a12359","system_id":"levelo_inurba_marseille","lat":43.217513,"lon":5.346008,"is_reserved":false,"is_disabled":false,"rental_uris":{"android":"levelo://app?vid=d1e37d55-7b9a-4cb0-9752-e763a4a12359","ios":"levelo://app?vid=d1e37d55-7b9a-4cb0-9752-e763a4a12359"},"vehicle_type_id":"4","last_reported":1762700932,"current_range_meters":9200,"station_id":"","pricing_plan_id":"cebpf4jnsgd1na2vs0mg"},{"bike_id":"f3cff34e-bb91-4492-8900-e1a39d191384","system_id":"levelo_inurba_marseille","lat":43.27365,"lon":5.3625,"is_reserved":false,"is_disabled":false,"rental_uris":{"android":"levelo://app?vid=f3cff34e-bb91-4492-8900-e1a39d191384","ios":"levelo://app?vid=f3cff34e-bb91-4492-8900-e1a39d191384"},"vehicle_type_id":"4","last_reported":1762700932,"current_range_meters":9200,"station_id":"ce4bhbh2rcd13ifvqeo0","pricing_plan_id":"cebpf4jnsgd1na2vs0mg"},{"bike_id":"cf673477-a61f-4da4-8a76-fe54343e980e","system_id":"levelo_inurba_marseille","lat":43.308014,"lon":5.435467,"is_reserved":false,"is_disabled":true,"rental_uris":{"android":"levelo://app?vid=cf673477-a61f-4da4-8a76-fe54343e980e","ios":"levelo://app?vid=cf673477-a61f-4da4-8a76-fe54343e980e"},"vehicle_type_id":"4","last_reported":1762700932,"current_range_meters":9200,"station_id":"","pricing_plan_id":"cebpf4jnsgd1na2vs0mg"},{"bike_id":"efce7dba-df5d-4ef6-8bc5-e419cdf35934","system_id":"levelo_inurba_marseille","lat":43.30432,"lon":5.39757,"is_reserved":false,"is_disabled":false,"rental_uris":{"android":"levelo://app?vid=efce7dba-df5d-4ef6-8bc5-e419cdf35934","ios":"levelo://app?vid=efce7dba-df5d-4ef6-8bc5-e419cdf35934"},"vehicle_type_id":"4","last_reported":1762700932,"current_range_meters":9200,"station_id":"ce4bh092rcd13ifvqd20","pricing_plan_id":"cebpf4jnsgd1na2vs0mg"},{"bike_id":"e793e1ed-bce0-4873-a43b-08a40d07b319","system_id":"levelo_inurba_marseille","lat":43.21742,"lon":5.34609,"is_reserved":false,"is_disabled":false,"rental_uris":{"android":"levelo://app?vid=e793e1ed-bce0-4873-a43b-08a40d07b319","ios":"levelo://app?vid=e793e1ed-bce0-4873-a43b-08a40d07b319"},"vehicle_type_id":"4","last_reported":1762700932,"current_range_meters":9600,"station_id":"st_cvj6r9ubvosntc0bgbag","pricing_plan_id":"cebpf4jnsgd1na2vs0mg"},{"bike_id":"fec91c3a-85e6-40ff-973e-d2a33b3b293e","system_id":"levelo_inurba_marseille","lat":43.24964,"lon":5.40497,"is_reserved":false,"is_disabled":false,"rental_uris":{"android":"levelo://app?vid=fec91c3a-85e6-40ff-973e-d2a33b3b293e","ios":"levelo://app?vid=fec91c3a-85e6-40ff-973e-d2a33b3b293e"},"vehicle_type_id":"4","last_reported":1762700932,"current_range_meters":9600,"station_id":"st_d2ngiaodas8pm72gd1h0","pricing_plan_id":"cebpf4jnsgd1na2vs0mg"},{"bike_id":"1ecadc85-795f-4978-98dc-597a05aeb396","system_id":"levelo_inurba_marseille","lat":43.2119,"lon":5.35078,"is_reserved":false,"is_disabled":false,"rental_uris":{"android":"levelo://app?vid=1ecadc85-795f-4978-98dc-597a05aeb396","ios":"levelo://app?vid=1ecadc85-795f-4978-98dc-597a05aeb396"},"vehicle_type_id":"4","last_reported":1762700932,"current_range_meters":9600,"station_id":"st_cvj6sg6p6f1abm77japg","pricing_plan_id":"cebpf4jnsgd1na2vs0mg"},{"bike_id":"21dcb4e2-bef4-415f-aa59-cd0b9e2cb07b","system_id":"levelo_inurba_marseille","lat":43.22819,"lon":5.43493,"is_reserved":false,"is_disabled":false,"rental_uris":{"android":"levelo://app?vid=21dcb4e2-bef4-415f-aa59-cd0b9e2cb07b","ios":"levelo://app?vid=21dcb4e2-bef4-415f-aa59-cd0b9e2cb07b"},"vehicle_type_id":"4","last_reported":1762700932,"current_range_meters":9600,"station_id":"","pricing_plan_id":"cebpf4jnsgd1na2vs0mg"},{"bike_id":"1a85bd73-f6c9-483d-ac28-5d95b6775d78","system_id":"levelo_inurba_marseille","lat":43.287,"lon":5.37938,"is_reserved":false,"is_disabled":true,"rental_uris":{"android":"levelo://app?vid=1a85bd73-f6c9-483d-ac28-5d95b6775d78","ios":"levelo://app?vid=1a85bd73-f6c9-483d-ac28-5d95b6775d78"},"vehicle_type_id":"4","last_reported":1762700932,"current_range_meters":10000,"station_id":"ce4bh9p2rcd13ifvqec0","pricing_plan_id":"cebpf4jnsgd1na2vs0mg"},{"bike_id":"0620c874-f5ea-4184-ac74-bde385d7ca6b","system_id":"levelo_inurba_marseille","lat":43.26196,"lon":5.37453,"is_reserved":false,"is_disabled":false,"rental_uris":{"android":"levelo://app?vid=0620c874-f5ea-4184-ac74-bde385d7ca6b","ios":"levelo://app?vid=0620c874-f5ea-4184-ac74-bde385d7ca6b"},"vehicle_type_id":"4","last_reported":1762700932,"current_range_meters":10000,"station_id":"ce4bhgp2rcd13ifvqfc0","pricing_plan_id":"cebpf4jnsgd1na2vs0mg"},{"bike_id":"6426d010-dc7d-4adf-91dd-d143c35979d8","system_id":"levelo_inurba_marseille","lat":43.27382,"lon":5.36251,"is_reserved":false,"is_disabled":false,"rental_uris":{"android":"levelo://app?vid=6426d010-dc7d-4adf-91dd-d143c35979d8","ios":"levelo://app?vid=6426d010-dc7d-4adf-91dd-d143c35979d8"},"vehicle_type_id":"4","last_reported":1762700932,"current_range_meters":10000,"station_id":"ce4bhbh2rcd13ifvqeo0","pricing_plan_id":"cebpf4jnsgd1na2vs0mg"},{"bike_id":"6fb9aaeb-fd54-4120-8c7f-cb19a69f6629","system_id":"levelo_inurba_marseille","lat":43.235735,"lon":5.374746,"is_reserved":false,"is_disabled":false,"rental_uris":{"android":"levelo://app?vid=6fb9aaeb-fd54-4120-8c7f-cb19a69f6629","ios":"levelo://app?vid=6fb9aaeb-fd54-4120-8c7f-cb19a69f6629"},"vehicle_type_id":"4","last_reported":1762700932,"current_range_meters":10000,"station_id":"","pricing_plan_id":"cebpf4jnsgd1na2vs0mg"},{"bike_id":"d32acf6f-21aa-4fbf-bed6-33d296ca0f9f","system_id":"levelo_inurba_marseille","lat":43.21756,"lon":5.34604,"is_reserved":false,"is_disabled":true,"rental_uris":{"android":"levelo://app?vid=d32acf6f-21aa-4fbf-bed6-33d296ca0f9f","ios":"levelo://app?vid=d32acf6f-21aa-4fbf-bed6-33d296ca0f9f"},"vehicle_type_id":"4","last_reported":1762700932,"current_range_meters":10000,"station_id":"st_cvj6r9ubvosntc0bgbag","pricing_plan_id":"cebpf4jnsgd1na2vs0mg"},{"bike_id":"efac219b-ae74-47a4-9fd9-63fe335d3839","system_id":"levelo_inurba_marseille","lat":43.2318,"lon":5.39997,"is_reserved":false,"is_disabled":false,"rental_uris":{"android":"levelo://app?vid=efac219b-ae74-47a4-9fd9-63fe335d3839","ios":"levelo://app?vid=efac219b-ae74-47a4-9fd9-63fe335d3839"},"vehicle_type_id":"4","last_reported":1762700932,"current_range_meters":10000,"station_id":"ce4bhn12rcd13ifvqgqg","pricing_plan_id":"cebpf4jnsgd1na2vs0mg"},{"bike_id":"47186fed-b7bf-4e4f-9d24-855786277c2a","system_id":"levelo_inurba_marseille","lat":43.292311,"lon":5.364797,"is_reserved":false,"is_disabled":false,"rental_uris":{"android":"levelo://app?vid=47186fed-b7bf-4e4f-9d24-855786277c2a","ios":"levelo://app?vid=47186fed-b7bf-4e4f-9d24-855786277c2a"},"vehicle_type_id":"4","last_reported":1762700932,"current_range_meters":10000,"station_id":"","pricing_plan_id":"cebpf4jnsgd1na2vs0mg"},{"bike_id":"15db09df-59b0-446a-87c5-e354a3319258","system_id":"levelo_inurba_marseille","lat":43.28497,"lon":5.4835,"is_reserved":false,"is_disabled":false,"rental_uris":{"android":"levelo://app?vid=15db09df-59b0-446a-87c5-e354a3319258","ios":"levelo://app?vid=15db09df-59b0-446a-87c5-e354a3319258"},"vehicle_type_id":"4","last_reported":1762700932,"current_range_meters":10000,"station_id":"st_d3svhcjqgbts73a3dn0g","pricing_plan_id":"cebpf4jnsgd1na2vs0mg"},{"bike_id":"e1ea5467-dfc1-42e6-bd1b-9ed79ad0a843","system_id":"levelo_inurba_marseille","lat":43.30122,"lon":5.43114,"is_reserved":false,"is_disabled":false,"rental_uris":{"android":"levelo://app?vid=e1ea5467-dfc1-42e6-bd1b-9ed79ad0a843","ios":"levelo://app?vid=e1ea5467-dfc1-42e6-bd1b-9ed79ad0a843"},"vehicle_type_id":"4","last_reported":1762700932,"current_range_meters":10000,"station_id":"st_d3js3co5814s73ftftug","pricing_plan_id":"cebpf4jnsgd1na2vs0mg"},{"bike_id":"b831306e-766e-4656-9a5d-2af720b19707","system_id":"levelo_inurba_marseille","lat":43.21751,"lon":5.34602,"is_reserved":false,"is_disabled":false,"rental_uris":{"android":"levelo://app?vid=b831306e-766e-4656-9a5d-2af720b19707","ios":"levelo://app?vid=b831306e-766e-4656-9a5d-2af720b19707"},"vehicle_type_id":"4","last_reported":1762700932,"current_range_meters":10000,"station_id":"st_cvj6r9ubvosntc0bgbag","pricing_plan_id":"cebpf4jnsgd1na2vs0mg"},{"bike_id":"48fc4fe5-1548-4450-89af-b4b21a9d3f1e","system_id":"levelo_inurba_marseille","lat":43.21749,"lon":5.34601,"is_reserved":false,"is_disabled":false,"rental_uris":{"android":"levelo://app?vid=48fc4fe5-1548-4450-89af-b4b21a9d3f1e","ios":"levelo://app?vid=48fc4fe5-1548-4450-89af-b4b21a9d3f1e"},"vehicle_type_id":"4","last_reported":1762700932,"current_range_meters":10000,"station_id":"st_cvj6r9ubvosntc0bgbag","pricing_plan_id":"cebpf4jnsgd1na2vs0mg"},{"bike_id":"71521a48-17a1-4f93-b856-7a47c2d10d0a","system_id":"levelo_inurba_marseille","lat":43.30113,"lon":5.43118,"is_reserved":false,"is_disabled":false,"rental_uris":{"android":"levelo://app?vid=71521a48-17a1-4f93-b856-7a47c2d10d0a","ios":"levelo://app?vid=71521a48-17a1-4f93-b856-7a47c2d10d0a"},"vehicle_type_id":"4","last_reported":1762700932,"current_range_meters":10800,"station_id":"st_d3js3co5814s73ftftug","pricing_plan_id":"cebpf4jnsgd1na2vs0mg"},{"bike_id":"a295ba32-0f8c-4040-97e9-6718d320f978","system_id":"levelo_inurba_marseille","lat":43.225311,"lon":5.348363,"is_reserved":false,"is_disabled":false,"rental_uris":{"android":"levelo://app?vid=a295ba32-0f8c-4040-97e9-6718d320f978","ios":"levelo://app?vid=a295ba32-0f8c-4040-97e9-6718d320f978"},"vehicle_type_id":"4","last_reported":1762700932,"current_range_meters":10800,"station_id":"","pricing_plan_id":"cebpf4jnsgd1na2vs0mg"},{"bike_id":"1e11a8ec-54e7-42c4-915c-2e68d20842c6","system_id":"levelo_inurba_marseille","lat":43.21188,"lon":5.350742,"is_reserved":false,"is_disabled":false,"rental_uris":{"android":"levelo://app?vid=1e11a8ec-54e7-42c4-915c-2e68d20842c6","ios":"levelo://app?vid=1e11a8ec-54e7-42c4-915c-2e68d20842c6"},"vehicle_type_id":"4","last_reported":1762700932,"current_range_meters":10800,"station_id":"st_cvj6sg6p6f1abm77japg","pricing_plan_id":"cebpf4jnsgd1na2vs0mg"},{"bike_id":"aa4b8979-4125-4082-a816-0f1650106fea","system_id":"levelo_inurba_marseille","lat":43.292961,"lon":5.401053,"is_reserved":false,"is_disabled":false,"rental_uris":{"android":"levelo://app?vid=aa4b8979-4125-4082-a816-0f1650106fea","ios":"levelo://app?vid=aa4b8979-4125-4082-a816-0f1650106fea"},"vehicle_type_id":"4","last_reported":1762700932,"current_range_meters":10800,"station_id":"ce4bh312rcd13ifvqdk0","pricing_plan_id":"cebpf4jnsgd1na2vs0mg"},{"bike_id":"a9e0e626-5ce1-413a-a62a-c44140c99d96","system_id":"levelo_inurba_marseille","lat":43.26026,"lon":5.37544,"is_reserved":false,"is_disabled":false,"rental_uris":{"android":"levelo://app?vid=a9e0e626-5ce1-413a-a62a-c44140c99d96","ios":"levelo://app?vid=a9e0e626-5ce1-413a-a62a-c44140c99d96"},"vehicle_type_id":"4","last_reported":1762700932,"current_range_meters":10800,"station_id":"ce4bhgh2rcd13ifvqfa0","pricing_plan_id":"cebpf4jnsgd1na2vs0mg"},{"bike_id":"b681f4da-d343-4d3f-9719-5727edd4a059","system_id":"levelo_inurba_marseille","lat":43.2319,"lon":5.39985,"is_reserved":false,"is_disabled":false,"rental_uris":{"android":"levelo://app?vid=b681f4da-d343-4d3f-9719-5727edd4a059","ios":"levelo://app?vid=b681f4da-d343-4d3f-9719-5727edd4a059"},"vehicle_type_id":"4","last_reported":1762700932,"current_range_meters":10800,"station_id":"ce4bhn12rcd13ifvqgqg","pricing_plan_id":"cebpf4jnsgd1na2vs0mg"},{"bike_id":"b6e4535c-5cae-4935-a3fb-2bbd0399a4f7","system_id":"levelo_inurba_marseille","lat":43.21191,"lon":5.35085,"is_reserved":false,"is_disabled":false,"rental_uris":{"android":"levelo://app?vid=b6e4535c-5cae-4935-a3fb-2bbd0399a4f7","ios":"levelo://app?vid=b6e4535c-5cae-4935-a3fb-2bbd0399a4f7"},"vehicle_type_id":"4","last_reported":1762700932,"current_range_meters":10800,"station_id":"st_cvj6sg6p6f1abm77japg","pricing_plan_id":"cebpf4jnsgd1na2vs0mg"},{"bike_id":"c9f7f671-8142-4276-a043-1779121ecc8c","system_id":"levelo_inurba_marseille","lat":43.23191,"lon":5.35556,"is_reserved":false,"is_disabled":false,"rental_uris":{"android":"levelo://app?vid=c9f7f671-8142-4276-a043-1779121ecc8c","ios":"levelo://app?vid=c9f7f671-8142-4276-a043-1779121ecc8c"},"vehicle_type_id":"4","last_reported":1762700932,"current_range_meters":10800,"station_id":"ce4bhu92rcd13ifvqi70","pricing_plan_id":"cebpf4jnsgd1na2vs0mg"},{"bike_id":"3e2b6028-a539-4e64-9081-578276ce4315","system_id":"levelo_inurba_marseille","lat":43.24597,"lon":5.42134,"is_reserved":false,"is_disabled":false,"rental_uris":{"android":"levelo://app?vid=3e2b6028-a539-4e64-9081-578276ce4315","ios":"levelo://app?vid=3e2b6028-a539-4e64-9081-578276ce4315"},"vehicle_type_id":"4","last_reported":1762700932,"current_range_meters":11200,"station_id":"","pricing_plan_id":"cebpf4jnsgd1na2vs0mg"},{"bike_id":"f55c984a-b2ae-4ba5-84c1-fa5f78591358","system_id":"levelo_inurba_marseille","lat":43.256367,"lon":5.39394,"is_reserved":false,"is_disabled":false,"rental_uris":{"android":"levelo://app?vid=f55c984a-b2ae-4ba5-84c1-fa5f78591358","ios":"levelo://app?vid=f55c984a-b2ae-4ba5-84c1-fa5f78591358"},"vehicle_type_id":"4","last_reported":1762700932,"current_range_meters":11200,"station_id":"","pricing_plan_id":"cebpf4jnsgd1na2vs0mg"},{"bike_id":"efff97ef-b67c-45a8-962f-651ecdf62653","system_id":"levelo_inurba_marseille","lat":43.22556,"lon":5.4165,"is_reserved":false,"is_disabled":false,"rental_uris":{"android":"levelo://app?vid=efff97ef-b67c-45a8-962f-651ecdf62653","ios":"levelo://app?vid=efff97ef-b67c-45a8-962f-651ecdf62653"},"vehicle_type_id":"4","last_reported":1762700932,"current_range_meters":11200,"station_id":"st_d2o4gvlbi1j2169b742g","pricing_plan_id":"cebpf4jnsgd1na2vs0mg"},{"bike_id":"6ca580b9-ae87-4e9b-a62c-4e0f6a07370c","system_id":"levelo_inurba_marseille","lat":43.21186,"lon":5.35082,"is_reserved":false,"is_disabled":false,"rental_uris":{"android":"levelo://app?vid=6ca580b9-ae87-4e9b-a62c-4e0f6a07370c","ios":"levelo://app?vid=6ca580b9-ae87-4e9b-a62c-4e0f6a07370c"},"vehicle_type_id":"4","last_reported":1762700932,"current_range_meters":11200,"station_id":"st_cvj6sg6p6f1abm77japg","pricing_plan_id":"cebpf4jnsgd1na2vs0mg"},{"bike_id":"61778127-5273-4d93-83e3-9ddee53f2780","system_id":"levelo_inurba_marseille","lat":43.29785,"lon":5.3934,"is_reserved":false,"is_disabled":false,"rental_uris":{"android":"levelo://app?vid=61778127-5273-4d93-83e3-9ddee53f2780","ios":"levelo://app?vid=61778127-5273-4d93-83e3-9ddee53f2780"},"vehicle_type_id":"4","last_reported":1762700932,"current_range_meters":11200,"station_id":"chh1huq6cuj3fo74tm60","pricing_plan_id":"cebpf4jnsgd1na2vs0mg"},{"bike_id":"c6d5d8d4-4173-4646-a45b-e93034e39692","system_id":"levelo_inurba_marseille","lat":43.23145,"lon":5.43735,"is_reserved":false,"is_disabled":false,"rental_uris":{"android":"levelo://app?vid=c6d5d8d4-4173-4646-a45b-e93034e39692","ios":"levelo://app?vid=c6d5d8d4-4173-4646-a45b-e93034e39692"},"vehicle_type_id":"4","last_reported":1762700932,"current_range_meters":11200,"station_id":"ce4bhmp2rcd13ifvqgog","pricing_plan_id":"cebpf4jnsgd1na2vs0mg"},{"bike_id":"867cf2b1-0e99-42a2-a306-484d445befc0","system_id":"levelo_inurba_marseille","lat":43.29202,"lon":5.35793,"is_reserved":false,"is_disabled":false,"rental_uris":{"android":"levelo://app?vid=867cf2b1-0e99-42a2-a306-484d445befc0","ios":"levelo://app?vid=867cf2b1-0e99-42a2-a306-484d445befc0"},"vehicle_type_id":"4","last_reported":1762700932,"current_range_meters":11200,"station_id":"ce4bhb12rcd13ifvqel0","pricing_plan_id":"cebpf4jnsgd1na2vs0mg"},{"bike_id":"d6ed9011-3ec4-4b71-9ce9-491612fd8036","system_id":"levelo_inurba_marseille","lat":43.217416,"lon":5.346048,"is_reserved":false,"is_disabled":false,"rental_uris":{"android":"levelo://app?vid=d6ed9011-3ec4-4b71-9ce9-491612fd8036","ios":"levelo://app?vid=d6ed9011-3ec4-4b71-9ce9-491612fd8036"},"vehicle_type_id":"4","last_reported":1762700932,"current_range_meters":11200,"station_id":"","pricing_plan_id":"cebpf4jnsgd1na2vs0mg"},{"bike_id":"ac1012d0-7872-4c6e-85e6-fc8eaff39396","system_id":"levelo_inurba_marseille","lat":43.284638,"lon":5.358898,"is_reserved":false,"is_disabled":true,"rental_uris":{"android":"levelo://app?vid=ac1012d0-7872-4c6e-85e6-fc8eaff39396","ios":"levelo://app?vid=ac1012d0-7872-4c6e-85e6-fc8eaff39396"},"vehicle_type_id":"4","last_reported":1762700932,"current_range_meters":11200,"station_id":"ce4bhah2rcd13ifvqei0","pricing_plan_id":"cebpf4jnsgd1na2vs0mg"},{"bike_id":"75c3852d-c6d5-4280-9fd2-b0b3b076bdcc","system_id":"levelo_inurba_marseille","lat":43.2174,"lon":5.34613,"is_reserved":false,"is_disabled":false,"rental_uris":{"android":"levelo://app?vid=75c3852d-c6d5-4280-9fd2-b0b3b076bdcc","ios":"levelo://app?vid=75c3852d-c6d5-4280-9fd2-b0b3b076bdcc"},"vehicle_type_id":"4","last_reported":1762700932,"current_range_meters":11600,"station_id":"st_cvj6r9ubvosntc0bgbag","pricing_plan_id":"cebpf4jnsgd1na2vs0mg"},{"bike_id":"2b2d267e-282e-4e49-a18b-96aacf4e809a","system_id":"levelo_inurba_marseille","lat":43.21734,"lon":5.34611,"is_reserved":false,"is_disabled":false,"rental_uris":{"android":"levelo://app?vid=2b2d267e-282e-4e49-a18b-96aacf4e809a","ios":"levelo://app?vid=2b2d267e-282e-4e49-a18b-96aacf4e809a"},"vehicle_type_id":"4","last_reported":1762700932,"current_range_meters":11600,"station_id":"st_cvj6r9ubvosntc0bgbag","pricing_plan_id":"cebpf4jnsgd1na2vs0mg"},{"bike_id":"797e21b5-cb7f-447f-aae8-c6162732908e","system_id":"levelo_inurba_marseille","lat":43.29043,"lon":5.39965,"is_reserved":false,"is_disabled":false,"rental_uris":{"android":"levelo://app?vid=797e21b5-cb7f-447f-aae8-c6162732908e","ios":"levelo://app?vid=797e21b5-cb7f-447f-aae8-c6162732908e"},"vehicle_type_id":"4","last_reported":1762700932,"current_range_meters":11600,"station_id":"ce4bh392rcd13ifvqdm0","pricing_plan_id":"cebpf4jnsgd1na2vs0mg"},{"bike_id":"ff930215-2f09-4f9c-9eb6-2fad6e642205","system_id":"levelo_inurba_marseille","lat":43.211948,"lon":5.350695,"is_reserved":false,"is_disabled":false,"rental_uris":{"android":"levelo://app?vid=ff930215-2f09-4f9c-9eb6-2fad6e642205","ios":"levelo://app?vid=ff930215-2f09-4f9c-9eb6-2fad6e642205"},"vehicle_type_id":"4","last_reported":1762700932,"current_range_meters":11600,"station_id":"","pricing_plan_id":"cebpf4jnsgd1na2vs0mg"},{"bike_id":"d8965264-4369-4c6a-bd33-d0b86a8d369a","system_id":"levelo_inurba_marseille","lat":43.28713,"lon":5.39978,"is_reserved":false,"is_disabled":false,"rental_uris":{"android":"levelo://app?vid=d8965264-4369-4c6a-bd33-d0b86a8d369a","ios":"levelo://app?vid=d8965264-4369-4c6a-bd33-d0b86a8d369a"},"vehicle_type_id":"4","last_reported":1762700932,"current_range_meters":11600,"station_id":"ce4bho92rcd13ifvqh3g","pricing_plan_id":"cebpf4jnsgd1na2vs0mg"},{"bike_id":"06b572d6-d95a-4f1a-9a9a-b316897ad6d5","system_id":"levelo_inurba_marseille","lat":43.29545,"lon":5.3752,"is_reserved":false,"is_disabled":false,"rental_uris":{"android":"levelo://app?vid=06b572d6-d95a-4f1a-9a9a-b316897ad6d5","ios":"levelo://app?vid=06b572d6-d95a-4f1a-9a9a-b316897ad6d5"},"vehicle_type_id":"4","last_reported":1762700932,"current_range_meters":11600,"station_id":"ce4bgkp2rcd13ifvqbmg","pricing_plan_id":"cebpf4jnsgd1na2vs0mg"},{"bike_id":"bcb7664a-39c2-46f8-930f-41cebd3d0b86","system_id":"levelo_inurba_marseille","lat":43.2119,"lon":5.35074,"is_reserved":false,"is_disabled":true,"rental_uris":{"android":"levelo://app?vid=bcb7664a-39c2-46f8-930f-41cebd3d0b86","ios":"levelo://app?vid=bcb7664a-39c2-46f8-930f-41cebd3d0b86"},"vehicle_type_id":"4","last_reported":1762700932,"current_range_meters":11600,"station_id":"st_cvj6sg6p6f1abm77japg","pricing_plan_id":"cebpf4jnsgd1na2vs0mg"},{"bike_id":"9d3e7657-6f4c-408b-98e0-1a01ff29eba7","system_id":"levelo_inurba_marseille","lat":43.2619,"lon":5.37932,"is_reserved":false,"is_disabled":false,"rental_uris":{"android":"levelo://app?vid=9d3e7657-6f4c-408b-98e0-1a01ff29eba7","ios":"levelo://app?vid=9d3e7657-6f4c-408b-98e0-1a01ff29eba7"},"vehicle_type_id":"4","last_reported":1762700932,"current_range_meters":12000,"station_id":"ce4bhjp2rcd13ifvqg90","pricing_plan_id":"cebpf4jnsgd1na2vs0mg"},{"bike_id":"90e75491-f300-4cd4-95d9-4fcce675996b","system_id":"levelo_inurba_marseille","lat":43.28413,"lon":5.37526,"is_reserved":false,"is_disabled":true,"rental_uris":{"android":"levelo://app?vid=90e75491-f300-4cd4-95d9-4fcce675996b","ios":"levelo://app?vid=90e75491-f300-4cd4-95d9-4fcce675996b"},"vehicle_type_id":"4","last_reported":1762700932,"current_range_meters":12000,"station_id":"ce4bh412rcd13ifvqds0","pricing_plan_id":"cebpf4jnsgd1na2vs0mg"},{"bike_id":"317822ad-eebe-4d49-be47-de3738a7f974","system_id":"levelo_inurba_marseille","lat":43.331626,"lon":5.376906,"is_reserved":false,"is_disabled":false,"rental_uris":{"android":"levelo://app?vid=317822ad-eebe-4d49-be47-de3738a7f974","ios":"levelo://app?vid=317822ad-eebe-4d49-be47-de3738a7f974"},"vehicle_type_id":"4","last_reported":1762700932,"current_range_meters":12000,"station_id":"st_d46cu089ee8s73dldbu0","pricing_plan_id":"cebpf4jnsgd1na2vs0mg"},{"bike_id":"260e08db-ebe0-43dc-841f-0b6cfdac9a2f","system_id":"levelo_inurba_marseille","lat":43.25114,"lon":5.40326,"is_reserved":false,"is_disabled":false,"rental_uris":{"android":"levelo://app?vid=260e08db-ebe0-43dc-841f-0b6cfdac9a2f","ios":"levelo://app?vid=260e08db-ebe0-43dc-841f-0b6cfdac9a2f"},"vehicle_type_id":"4","last_reported":1762700932,"current_range_meters":12000,"station_id":"ce4bhlh2rcd13ifvqgig","pricing_plan_id":"cebpf4jnsgd1na2vs0mg"},{"bike_id":"7820c7e3-5861-403f-9a90-b881802d774a","system_id":"levelo_inurba_marseille","lat":43.24806,"lon":5.37458,"is_reserved":false,"is_disabled":false,"rental_uris":{"android":"levelo://app?vid=7820c7e3-5861-403f-9a90-b881802d774a","ios":"levelo://app?vid=7820c7e3-5861-403f-9a90-b881802d774a"},"vehicle_type_id":"4","last_reported":1762700932,"current_range_meters":12400,"station_id":"ce4bhgh2rcd13ifvqfb0","pricing_plan_id":"cebpf4jnsgd1na2vs0mg"},{"bike_id":"be85130f-d821-41b2-85c6-2f14e5a8ff3d","system_id":"levelo_inurba_marseille","lat":43.27614,"lon":5.36116,"is_reserved":false,"is_disabled":false,"rental_uris":{"android":"levelo://app?vid=be85130f-d821-41b2-85c6-2f14e5a8ff3d","ios":"levelo://app?vid=be85130f-d821-41b2-85c6-2f14e5a8ff3d"},"vehicle_type_id":"4","last_reported":1762700932,"current_range_meters":12400,"station_id":"ce4bgj92rcd13ifvqbe0","pricing_plan_id":"cebpf4jnsgd1na2vs0mg"},{"bike_id":"4d20ae35-d950-4824-adf5-b360c6fdb37e","system_id":"levelo_inurba_marseille","lat":43.27372,"lon":5.36268,"is_reserved":false,"is_disabled":false,"rental_uris":{"android":"levelo://app?vid=4d20ae35-d950-4824-adf5-b360c6fdb37e","ios":"levelo://app?vid=4d20ae35-d950-4824-adf5-b360c6fdb37e"},"vehicle_type_id":"4","last_reported":1762700932,"current_range_meters":12400,"station_id":"ce4bhbh2rcd13ifvqeo0","pricing_plan_id":"cebpf4jnsgd1na2vs0mg"},{"bike_id":"a697c050-65cb-4cad-975c-84488c6104a1","system_id":"levelo_inurba_marseille","lat":43.31946,"lon":5.38275,"is_reserved":false,"is_disabled":false,"rental_uris":{"android":"levelo://app?vid=a697c050-65cb-4cad-975c-84488c6104a1","ios":"levelo://app?vid=a697c050-65cb-4cad-975c-84488c6104a1"},"vehicle_type_id":"4","last_reported":1762700932,"current_range_meters":12400,"station_id":"ce4bhr12rcd13ifvqhpg","pricing_plan_id":"cebpf4jnsgd1na2vs0mg"},{"bike_id":"96653769-d664-41ed-98b8-3d9d06f1758d","system_id":"levelo_inurba_marseille","lat":43.21723,"lon":5.34625,"is_reserved":false,"is_disabled":false,"rental_uris":{"android":"levelo://app?vid=96653769-d664-41ed-98b8-3d9d06f1758d","ios":"levelo://app?vid=96653769-d664-41ed-98b8-3d9d06f1758d"},"vehicle_type_id":"4","last_reported":1762700932,"current_range_meters":12400,"station_id":"st_cvj6r9ubvosntc0bgbag","pricing_plan_id":"cebpf4jnsgd1na2vs0mg"},{"bike_id":"4d36d690-9376-4405-b549-910e0ac54931","system_id":"levelo_inurba_marseille","lat":43.28274,"lon":5.39952,"is_reserved":false,"is_disabled":false,"rental_uris":{"android":"levelo://app?vid=4d36d690-9376-4405-b549-910e0ac54931","ios":"levelo://app?vid=4d36d690-9376-4405-b549-910e0ac54931"},"vehicle_type_id":"4","last_reported":1762700932,"current_range_meters":12400,"station_id":"","pricing_plan_id":"cebpf4jnsgd1na2vs0mg"},{"bike_id":"c387d9b0-1897-4b91-9cbe-eb97392b6e97","system_id":"levelo_inurba_marseille","lat":43.262079,"lon":5.374411,"is_reserved":false,"is_disabled":false,"rental_uris":{"android":"levelo://app?vid=c387d9b0-1897-4b91-9cbe-eb97392b6e97","ios":"levelo://app?vid=c387d9b0-1897-4b91-9cbe-eb97392b6e97"},"vehicle_type_id":"4","last_reported":1762700932,"current_range_meters":12800,"station_id":"ce4bhgp2rcd13ifvqfc0","pricing_plan_id":"cebpf4jnsgd1na2vs0mg"},{"bike_id":"a5a51bf9-9908-420d-8212-6ef8d2db5d39","system_id":"levelo_inurba_marseille","lat":43.27387,"lon":5.36263,"is_reserved":false,"is_disabled":false,"rental_uris":{"android":"levelo://app?vid=a5a51bf9-9908-420d-8212-6ef8d2db5d39","ios":"levelo://app?vid=a5a51bf9-9908-420d-8212-6ef8d2db5d39"},"vehicle_type_id":"4","last_reported":1762700932,"current_range_meters":12800,"station_id":"ce4bhbh2rcd13ifvqeo0","pricing_plan_id":"cebpf4jnsgd1na2vs0mg"},{"bike_id":"68e2a4eb-9515-41fd-aa1c-8497e40ac482","system_id":"levelo_inurba_marseille","lat":43.29905,"lon":5.38137,"is_reserved":false,"is_disabled":true,"rental_uris":{"android":"levelo://app?vid=68e2a4eb-9515-41fd-aa1c-8497e40ac482","ios":"levelo://app?vid=68e2a4eb-9515-41fd-aa1c-8497e40ac482"},"vehicle_type_id":"4","last_reported":1762700932,"current_range_meters":12800,"station_id":"ce4bgj12rcd13ifvqbc0","pricing_plan_id":"cebpf4jnsgd1na2vs0mg"},{"bike_id":"1ea9e71d-dca8-4b36-b970-455a5392e6ee","system_id":"levelo_inurba_marseille","lat":43.2119,"lon":5.3507,"is_reserved":false,"is_disabled":false,"rental_uris":{"android":"levelo://app?vid=1ea9e71d-dca8-4b36-b970-455a5392e6ee","ios":"levelo://app?vid=1ea9e71d-dca8-4b36-b970-455a5392e6ee"},"vehicle_type_id":"4","last_reported":1762700932,"current_range_meters":12800,"station_id":"","pricing_plan_id":"cebpf4jnsgd1na2vs0mg"},{"bike_id":"24aad21e-6d6c-40d9-b5b3-924910c86a37","system_id":"levelo_inurba_marseille","lat":43.26029,"lon":5.37556,"is_reserved":false,"is_disabled":false,"rental_uris":{"android":"levelo://app?vid=24aad21e-6d6c-40d9-b5b3-924910c86a37","ios":"levelo://app?vid=24aad21e-6d6c-40d9-b5b3-924910c86a37"},"vehicle_type_id":"4","last_reported":1762700932,"current_range_meters":12800,"station_id":"ce4bhgh2rcd13ifvqfa0","pricing_plan_id":"cebpf4jnsgd1na2vs0mg"},{"bike_id":"d8a2355e-a776-4b85-8a3e-22368796688d","system_id":"levelo_inurba_marseille","lat":43.30781,"lon":5.36831,"is_reserved":false,"is_disabled":false,"rental_uris":{"android":"levelo://app?vid=d8a2355e-a776-4b85-8a3e-22368796688d","ios":"levelo://app?vid=d8a2355e-a776-4b85-8a3e-22368796688d"},"vehicle_type_id":"4","last_reported":1762700932,"current_range_meters":12800,"station_id":"","pricing_plan_id":"cebpf4jnsgd1na2vs0mg"},{"bike_id":"ad9d627e-10b5-4716-9e3f-2910d588c19c","system_id":"levelo_inurba_marseille","lat":43.28619,"lon":5.35116,"is_reserved":false,"is_disabled":false,"rental_uris":{"android":"levelo://app?vid=ad9d627e-10b5-4716-9e3f-2910d588c19c","ios":"levelo://app?vid=ad9d627e-10b5-4716-9e3f-2910d588c19c"},"vehicle_type_id":"4","last_reported":1762700932,"current_range_meters":13600,"station_id":"ce4bhch2rcd13ifvqeug","pricing_plan_id":"cebpf4jnsgd1na2vs0mg"},{"bike_id":"2af55b66-409a-4c2f-96db-bd25effd6d96","system_id":"levelo_inurba_marseille","lat":43.30537,"lon":5.36733,"is_reserved":false,"is_disabled":false,"rental_uris":{"android":"levelo://app?vid=2af55b66-409a-4c2f-96db-bd25effd6d96","ios":"levelo://app?vid=2af55b66-409a-4c2f-96db-bd25effd6d96"},"vehicle_type_id":"4","last_reported":1762700932,"current_range_meters":13600,"station_id":"ce4bgrp2rcd13ifvqc9g","pricing_plan_id":"cebpf4jnsgd1na2vs0mg"},{"bike_id":"07487456-04db-4d2a-9c08-bc3d6a0a4071","system_id":"levelo_inurba_marseille","lat":43.28139,"lon":5.42664,"is_reserved":false,"is_disabled":false,"rental_uris":{"android":"levelo://app?vid=07487456-04db-4d2a-9c08-bc3d6a0a4071","ios":"levelo://app?vid=07487456-04db-4d2a-9c08-bc3d6a0a4071"},"vehicle_type_id":"4","last_reported":1762700932,"current_range_meters":13600,"station_id":"ce4bhnh2rcd13ifvqgug","pricing_plan_id":"cebpf4jnsgd1na2vs0mg"},{"bike_id":"1bf52e91-7eed-47f6-85f0-23883e35d38b","system_id":"levelo_inurba_marseille","lat":43.211886,"lon":5.350738,"is_reserved":false,"is_disabled":false,"rental_uris":{"android":"levelo://app?vid=1bf52e91-7eed-47f6-85f0-23883e35d38b","ios":"levelo://app?vid=1bf52e91-7eed-47f6-85f0-23883e35d38b"},"vehicle_type_id":"4","last_reported":1762700932,"current_range_meters":13600,"station_id":"st_cvj6sg6p6f1abm77japg","pricing_plan_id":"cebpf4jnsgd1na2vs0mg"},{"bike_id":"98a850cc-53c2-4014-98f7-042c47c8231b","system_id":"levelo_inurba_marseille","lat":43.31216,"lon":5.37414,"is_reserved":false,"is_disabled":false,"rental_uris":{"android":"levelo://app?vid=98a850cc-53c2-4014-98f7-042c47c8231b","ios":"levelo://app?vid=98a850cc-53c2-4014-98f7-042c47c8231b"},"vehicle_type_id":"4","last_reported":1762700932,"current_range_meters":13600,"station_id":"","pricing_plan_id":"cebpf4jnsgd1na2vs0mg"},{"bike_id":"fd2b7a9e-b6df-42d9-8309-de322d3a1ae9","system_id":"levelo_inurba_marseille","lat":43.273647,"lon":5.362471,"is_reserved":false,"is_disabled":false,"rental_uris":{"android":"levelo://app?vid=fd2b7a9e-b6df-42d9-8309-de322d3a1ae9","ios":"levelo://app?vid=fd2b7a9e-b6df-42d9-8309-de322d3a1ae9"},"vehicle_type_id":"4","last_reported":1762700932,"current_range_meters":13600,"station_id":"ce4bhbh2rcd13ifvqeo0","pricing_plan_id":"cebpf4jnsgd1na2vs0mg"},{"bike_id":"4eac3eb9-9ac1-4ff6-ad57-ed359befeed2","system_id":"levelo_inurba_marseille","lat":43.22871,"lon":5.40247,"is_reserved":false,"is_disabled":false,"rental_uris":{"android":"levelo://app?vid=4eac3eb9-9ac1-4ff6-ad57-ed359befeed2","ios":"levelo://app?vid=4eac3eb9-9ac1-4ff6-ad57-ed359befeed2"},"vehicle_type_id":"4","last_reported":1762700932,"current_range_meters":13600,"station_id":"","pricing_plan_id":"cebpf4jnsgd1na2vs0mg"},{"bike_id":"3643e6d3-7c6e-461a-8826-df34dbe4feea","system_id":"levelo_inurba_marseille","lat":43.21191,"lon":5.35081,"is_reserved":false,"is_disabled":false,"rental_uris":{"android":"levelo://app?vid=3643e6d3-7c6e-461a-8826-df34dbe4feea","ios":"levelo://app?vid=3643e6d3-7c6e-461a-8826-df34dbe4feea"},"vehicle_type_id":"4","last_reported":1762700932,"current_range_meters":13600,"station_id":"st_cvj6sg6p6f1abm77japg","pricing_plan_id":"cebpf4jnsgd1na2vs0mg"},{"bike_id":"84397bcb-ee0b-476f-92a3-2addcb255b45","system_id":"levelo_inurba_marseille","lat":43.2541,"lon":5.37636,"is_reserved":false,"is_disabled":false,"rental_uris":{"android":"levelo://app?vid=84397bcb-ee0b-476f-92a3-2addcb255b45","ios":"levelo://app?vid=84397bcb-ee0b-476f-92a3-2addcb255b45"},"vehicle_type_id":"4","last_reported":1762700932,"current_range_meters":13600,"station_id":"ce4bhh12rcd13ifvqff0","pricing_plan_id":"cebpf4jnsgd1na2vs0mg"},{"bike_id":"fee4f445-bba8-4be4-a3da-4decf51271b2","system_id":"levelo_inurba_marseille","lat":43.31843,"lon":5.40719,"is_reserved":false,"is_disabled":false,"rental_uris":{"android":"levelo://app?vid=fee4f445-bba8-4be4-a3da-4decf51271b2","ios":"levelo://app?vid=fee4f445-bba8-4be4-a3da-4decf51271b2"},"vehicle_type_id":"4","last_reported":1762700932,"current_range_meters":14000,"station_id":"","pricing_plan_id":"cebpf4jnsgd1na2vs0mg"},{"bike_id":"d7f127c2-c841-474e-95f5-ca9140c28898","system_id":"levelo_inurba_marseille","lat":43.21186,"lon":5.3508,"is_reserved":false,"is_disabled":false,"rental_uris":{"android":"levelo://app?vid=d7f127c2-c841-474e-95f5-ca9140c28898","ios":"levelo://app?vid=d7f127c2-c841-474e-95f5-ca9140c28898"},"vehicle_type_id":"4","last_reported":1762700932,"current_range_meters":14000,"station_id":"st_cvj6sg6p6f1abm77japg","pricing_plan_id":"cebpf4jnsgd1na2vs0mg"},{"bike_id":"7fbd1ff9-4b4c-41ae-8d84-cca75e8f7f8a","system_id":"levelo_inurba_marseille","lat":43.27308,"lon":5.39109,"is_reserved":false,"is_disabled":false,"rental_uris":{"android":"levelo://app?vid=7fbd1ff9-4b4c-41ae-8d84-cca75e8f7f8a","ios":"levelo://app?vid=7fbd1ff9-4b4c-41ae-8d84-cca75e8f7f8a"},"vehicle_type_id":"4","last_reported":1762700932,"current_range_meters":14000,"station_id":"ce4bhgp2rcd13ifvqfe0","pricing_plan_id":"cebpf4jnsgd1na2vs0mg"},{"bike_id":"07902818-e7e0-4e8d-b6f6-7e2960307e4c","system_id":"levelo_inurba_marseille","lat":43.21736,"lon":5.34627,"is_reserved":false,"is_disabled":false,"rental_uris":{"android":"levelo://app?vid=07902818-e7e0-4e8d-b6f6-7e2960307e4c","ios":"levelo://app?vid=07902818-e7e0-4e8d-b6f6-7e2960307e4c"},"vehicle_type_id":"4","last_reported":1762700932,"current_range_meters":14000,"station_id":"st_cvj6r9ubvosntc0bgbag","pricing_plan_id":"cebpf4jnsgd1na2vs0mg"},{"bike_id":"ec7fe4ac-a4d1-4b71-83a0-799abdce447d","system_id":"levelo_inurba_marseille","lat":43.260569,"lon":5.394031,"is_reserved":false,"is_disabled":false,"rental_uris":{"android":"levelo://app?vid=ec7fe4ac-a4d1-4b71-83a0-799abdce447d","ios":"levelo://app?vid=ec7fe4ac-a4d1-4b71-83a0-799abdce447d"},"vehicle_type_id":"4","last_reported":1762700932,"current_range_meters":14000,"station_id":"ce4bhh92rcd13ifvqfj0","pricing_plan_id":"cebpf4jnsgd1na2vs0mg"},{"bike_id":"c1783fb2-6784-4b7f-92a8-0112651e291c","system_id":"levelo_inurba_marseille","lat":43.297556,"lon":5.427928,"is_reserved":false,"is_disabled":false,"rental_uris":{"android":"levelo://app?vid=c1783fb2-6784-4b7f-92a8-0112651e291c","ios":"levelo://app?vid=c1783fb2-6784-4b7f-92a8-0112651e291c"},"vehicle_type_id":"4","last_reported":1762700932,"current_range_meters":14000,"station_id":"st_d3md5207bmas73dh9klg","pricing_plan_id":"cebpf4jnsgd1na2vs0mg"},{"bike_id":"5f51530e-ad6d-4525-9dbe-df8ccdff7435","system_id":"levelo_inurba_marseille","lat":43.31638,"lon":5.38228,"is_reserved":false,"is_disabled":false,"rental_uris":{"android":"levelo://app?vid=5f51530e-ad6d-4525-9dbe-df8ccdff7435","ios":"levelo://app?vid=5f51530e-ad6d-4525-9dbe-df8ccdff7435"},"vehicle_type_id":"4","last_reported":1762700932,"current_range_meters":14000,"station_id":"","pricing_plan_id":"cebpf4jnsgd1na2vs0mg"},{"bike_id":"5997c6b0-b0f4-4848-a8f1-63ca201df211","system_id":"levelo_inurba_marseille","lat":43.33902,"lon":5.41586,"is_reserved":false,"is_disabled":false,"rental_uris":{"android":"levelo://app?vid=5997c6b0-b0f4-4848-a8f1-63ca201df211","ios":"levelo://app?vid=5997c6b0-b0f4-4848-a8f1-63ca201df211"},"vehicle_type_id":"4","last_reported":1762700932,"current_range_meters":14000,"station_id":"","pricing_plan_id":"cebpf4jnsgd1na2vs0mg"},{"bike_id":"0adb3273-8eeb-4115-b3d2-10ba2f3221d3","system_id":"levelo_inurba_marseille","lat":43.23191,"lon":5.35557,"is_reserved":false,"is_disabled":false,"rental_uris":{"android":"levelo://app?vid=0adb3273-8eeb-4115-b3d2-10ba2f3221d3","ios":"levelo://app?vid=0adb3273-8eeb-4115-b3d2-10ba2f3221d3"},"vehicle_type_id":"4","last_reported":1762700932,"current_range_meters":14400,"station_id":"ce4bhu92rcd13ifvqi70","pricing_plan_id":"cebpf4jnsgd1na2vs0mg"},{"bike_id":"fb1e00eb-f377-4ff8-9470-ce3d403561b6","system_id":"levelo_inurba_marseille","lat":43.271727,"lon":5.409974,"is_reserved":false,"is_disabled":false,"rental_uris":{"android":"levelo://app?vid=fb1e00eb-f377-4ff8-9470-ce3d403561b6","ios":"levelo://app?vid=fb1e00eb-f377-4ff8-9470-ce3d403561b6"},"vehicle_type_id":"4","last_reported":1762700932,"current_range_meters":14400,"station_id":"ce4bhl12rcd13ifvqgf0","pricing_plan_id":"cebpf4jnsgd1na2vs0mg"},{"bike_id":"0efb48ea-7817-4daf-b094-c6d81106e1de","system_id":"levelo_inurba_marseille","lat":43.260348,"lon":5.375493,"is_reserved":false,"is_disabled":false,"rental_uris":{"android":"levelo://app?vid=0efb48ea-7817-4daf-b094-c6d81106e1de","ios":"levelo://app?vid=0efb48ea-7817-4daf-b094-c6d81106e1de"},"vehicle_type_id":"4","last_reported":1762700932,"current_range_meters":14400,"station_id":"ce4bhgh2rcd13ifvqfa0","pricing_plan_id":"cebpf4jnsgd1na2vs0mg"},{"bike_id":"f08621f1-92b2-4985-8a3a-96dd283a7c2b","system_id":"levelo_inurba_marseille","lat":43.31354,"lon":5.37932,"is_reserved":false,"is_disabled":false,"rental_uris":{"android":"levelo://app?vid=f08621f1-92b2-4985-8a3a-96dd283a7c2b","ios":"levelo://app?vid=f08621f1-92b2-4985-8a3a-96dd283a7c2b"},"vehicle_type_id":"4","last_reported":1762700932,"current_range_meters":14400,"station_id":"","pricing_plan_id":"cebpf4jnsgd1na2vs0mg"},{"bike_id":"5e91060d-9c21-4ef1-94a0-ac709d6a8de7","system_id":"levelo_inurba_marseille","lat":43.26548,"lon":5.37287,"is_reserved":false,"is_disabled":false,"rental_uris":{"android":"levelo://app?vid=5e91060d-9c21-4ef1-94a0-ac709d6a8de7","ios":"levelo://app?vid=5e91060d-9c21-4ef1-94a0-ac709d6a8de7"},"vehicle_type_id":"4","last_reported":1762700932,"current_range_meters":14400,"station_id":"ce4bhg12rcd13ifvqf70","pricing_plan_id":"cebpf4jnsgd1na2vs0mg"},{"bike_id":"5f9a5a0f-2733-475e-89d8-03de8455b765","system_id":"levelo_inurba_marseille","lat":43.21741,"lon":5.34595,"is_reserved":false,"is_disabled":false,"rental_uris":{"android":"levelo://app?vid=5f9a5a0f-2733-475e-89d8-03de8455b765","ios":"levelo://app?vid=5f9a5a0f-2733-475e-89d8-03de8455b765"},"vehicle_type_id":"4","last_reported":1762700932,"current_range_meters":14400,"station_id":"st_cvj6r9ubvosntc0bgbag","pricing_plan_id":"cebpf4jnsgd1na2vs0mg"},{"bike_id":"a6883ff0-f607-46ba-a664-f3fb248008fc","system_id":"levelo_inurba_marseille","lat":43.25094,"lon":5.39519,"is_reserved":false,"is_disabled":false,"rental_uris":{"android":"levelo://app?vid=a6883ff0-f607-46ba-a664-f3fb248008fc","ios":"levelo://app?vid=a6883ff0-f607-46ba-a664-f3fb248008fc"},"vehicle_type_id":"4","last_reported":1762700932,"current_range_meters":14800,"station_id":"ce4bhm12rcd13ifvqgkg","pricing_plan_id":"cebpf4jnsgd1na2vs0mg"},{"bike_id":"09f8d497-55c7-41b4-8ecf-6b8ea9024c47","system_id":"levelo_inurba_marseille","lat":43.30936,"lon":5.40144,"is_reserved":false,"is_disabled":false,"rental_uris":{"android":"levelo://app?vid=09f8d497-55c7-41b4-8ecf-6b8ea9024c47","ios":"levelo://app?vid=09f8d497-55c7-41b4-8ecf-6b8ea9024c47"},"vehicle_type_id":"4","last_reported":1762700932,"current_range_meters":14800,"station_id":"ce4bgvp2rcd13ifvqct0","pricing_plan_id":"cebpf4jnsgd1na2vs0mg"},{"bike_id":"c2d882da-1c15-48f4-ac8d-313176502c2d","system_id":"levelo_inurba_marseille","lat":43.21187,"lon":5.35095,"is_reserved":false,"is_disabled":false,"rental_uris":{"android":"levelo://app?vid=c2d882da-1c15-48f4-ac8d-313176502c2d","ios":"levelo://app?vid=c2d882da-1c15-48f4-ac8d-313176502c2d"},"vehicle_type_id":"4","last_reported":1762700932,"current_range_meters":14800,"station_id":"st_cvj6sg6p6f1abm77japg","pricing_plan_id":"cebpf4jnsgd1na2vs0mg"},{"bike_id":"e1758b3c-01d9-4e6e-b93d-af786de489d6","system_id":"levelo_inurba_marseille","lat":43.29282,"lon":5.37286,"is_reserved":false,"is_disabled":false,"rental_uris":{"android":"levelo://app?vid=e1758b3c-01d9-4e6e-b93d-af786de489d6","ios":"levelo://app?vid=e1758b3c-01d9-4e6e-b93d-af786de489d6"},"vehicle_type_id":"4","last_reported":1762700932,"current_range_meters":14800,"station_id":"","pricing_plan_id":"cebpf4jnsgd1na2vs0mg"},{"bike_id":"d00fd3c1-5557-4434-930c-bbb25f370ee9","system_id":"levelo_inurba_marseille","lat":43.217511,"lon":5.345992,"is_reserved":false,"is_disabled":false,"rental_uris":{"android":"levelo://app?vid=d00fd3c1-5557-4434-930c-bbb25f370ee9","ios":"levelo://app?vid=d00fd3c1-5557-4434-930c-bbb25f370ee9"},"vehicle_type_id":"4","last_reported":1762700932,"current_range_meters":14800,"station_id":"st_cvj6r9ubvosntc0bgbag","pricing_plan_id":"cebpf4jnsgd1na2vs0mg"},{"bike_id":"ab4ac132-5519-4aac-ac12-8b8c2929bb7e","system_id":"levelo_inurba_marseille","lat":43.32302,"lon":5.38493,"is_reserved":false,"is_disabled":false,"rental_uris":{"android":"levelo://app?vid=ab4ac132-5519-4aac-ac12-8b8c2929bb7e","ios":"levelo://app?vid=ab4ac132-5519-4aac-ac12-8b8c2929bb7e"},"vehicle_type_id":"4","last_reported":1762700932,"current_range_meters":15200,"station_id":"st_d45171o9ee8s73djdqug","pricing_plan_id":"cebpf4jnsgd1na2vs0mg"},{"bike_id":"82957589-02ce-4320-bf77-be538f2d7d4f","system_id":"levelo_inurba_marseille","lat":43.21188,"lon":5.3508,"is_reserved":false,"is_disabled":false,"rental_uris":{"android":"levelo://app?vid=82957589-02ce-4320-bf77-be538f2d7d4f","ios":"levelo://app?vid=82957589-02ce-4320-bf77-be538f2d7d4f"},"vehicle_type_id":"4","last_reported":1762700932,"current_range_meters":15200,"station_id":"st_cvj6sg6p6f1abm77japg","pricing_plan_id":"cebpf4jnsgd1na2vs0mg"},{"bike_id":"0392c01f-c7f1-41fd-9cd6-aa463c8d4035","system_id":"levelo_inurba_marseille","lat":43.243901,"lon":5.370712,"is_reserved":false,"is_disabled":false,"rental_uris":{"android":"levelo://app?vid=0392c01f-c7f1-41fd-9cd6-aa463c8d4035","ios":"levelo://app?vid=0392c01f-c7f1-41fd-9cd6-aa463c8d4035"},"vehicle_type_id":"4","last_reported":1762700932,"current_range_meters":15200,"station_id":"ce4bhhh2rcd13ifvqfk0","pricing_plan_id":"cebpf4jnsgd1na2vs0mg"},{"bike_id":"7b2d573d-8c32-4af7-abad-0673a9a71fb2","system_id":"levelo_inurba_marseille","lat":43.23962,"lon":5.36627,"is_reserved":false,"is_disabled":false,"rental_uris":{"android":"levelo://app?vid=7b2d573d-8c32-4af7-abad-0673a9a71fb2","ios":"levelo://app?vid=7b2d573d-8c32-4af7-abad-0673a9a71fb2"},"vehicle_type_id":"4","last_reported":1762700932,"current_range_meters":15200,"station_id":"ce4bhi12rcd13ifvqfp0","pricing_plan_id":"cebpf4jnsgd1na2vs0mg"},{"bike_id":"1b608766-d12f-43b3-8b68-b0135e72a218","system_id":"levelo_inurba_marseille","lat":43.302418,"lon":5.400482,"is_reserved":false,"is_disabled":true,"rental_uris":{"android":"levelo://app?vid=1b608766-d12f-43b3-8b68-b0135e72a218","ios":"levelo://app?vid=1b608766-d12f-43b3-8b68-b0135e72a218"},"vehicle_type_id":"4","last_reported":1762700932,"current_range_meters":15200,"station_id":"ce4bgvh2rcd13ifvqcs0","pricing_plan_id":"cebpf4jnsgd1na2vs0mg"},{"bike_id":"a9d08e4c-0813-4aef-85b1-1d50cf456f69","system_id":"levelo_inurba_marseille","lat":43.21752,"lon":5.34612,"is_reserved":false,"is_disabled":true,"rental_uris":{"android":"levelo://app?vid=a9d08e4c-0813-4aef-85b1-1d50cf456f69","ios":"levelo://app?vid=a9d08e4c-0813-4aef-85b1-1d50cf456f69"},"vehicle_type_id":"4","last_reported":1762700932,"current_range_meters":16000,"station_id":"","pricing_plan_id":"cebpf4jnsgd1na2vs0mg"},{"bike_id":"f4cd1f76-686b-443b-bf62-c78f0f11dda9","system_id":"levelo_inurba_marseille","lat":43.28419,"lon":5.37534,"is_reserved":false,"is_disabled":true,"rental_uris":{"android":"levelo://app?vid=f4cd1f76-686b-443b-bf62-c78f0f11dda9","ios":"levelo://app?vid=f4cd1f76-686b-443b-bf62-c78f0f11dda9"},"vehicle_type_id":"4","last_reported":1762700932,"current_range_meters":16000,"station_id":"ce4bh412rcd13ifvqds0","pricing_plan_id":"cebpf4jnsgd1na2vs0mg"},{"bike_id":"b6ba799f-93a0-474d-970a-cd786094f7da","system_id":"levelo_inurba_marseille","lat":43.28472,"lon":5.38453,"is_reserved":false,"is_disabled":true,"rental_uris":{"android":"levelo://app?vid=b6ba799f-93a0-474d-970a-cd786094f7da","ios":"levelo://app?vid=b6ba799f-93a0-474d-970a-cd786094f7da"},"vehicle_type_id":"4","last_reported":1762700932,"current_range_meters":16000,"station_id":"ce4bh512rcd13ifvqe3g","pricing_plan_id":"cebpf4jnsgd1na2vs0mg"},{"bike_id":"dacbe91e-8172-42a5-b1c8-5d33c5c8af78","system_id":"levelo_inurba_marseille","lat":43.21738,"lon":5.34607,"is_reserved":false,"is_disabled":false,"rental_uris":{"android":"levelo://app?vid=dacbe91e-8172-42a5-b1c8-5d33c5c8af78","ios":"levelo://app?vid=dacbe91e-8172-42a5-b1c8-5d33c5c8af78"},"vehicle_type_id":"4","last_reported":1762700932,"current_range_meters":16000,"station_id":"st_cvj6r9ubvosntc0bgbag","pricing_plan_id":"cebpf4jnsgd1na2vs0mg"},{"bike_id":"4836a93c-6042-4c7f-96c8-1761e9bdee8e","system_id":"levelo_inurba_marseille","lat":43.30908,"lon":5.36848,"is_reserved":false,"is_disabled":false,"rental_uris":{"android":"levelo://app?vid=4836a93c-6042-4c7f-96c8-1761e9bdee8e","ios":"levelo://app?vid=4836a93c-6042-4c7f-96c8-1761e9bdee8e"},"vehicle_type_id":"4","last_reported":1762700932,"current_range_meters":16000,"station_id":"ce4bgn92rcd13ifvqbvg","pricing_plan_id":"cebpf4jnsgd1na2vs0mg"},{"bike_id":"b98d536f-1432-4ef2-82b6-c86cc4551f49","system_id":"levelo_inurba_marseille","lat":43.211947,"lon":5.350561,"is_reserved":false,"is_disabled":false,"rental_uris":{"android":"levelo://app?vid=b98d536f-1432-4ef2-82b6-c86cc4551f49","ios":"levelo://app?vid=b98d536f-1432-4ef2-82b6-c86cc4551f49"},"vehicle_type_id":"4","last_reported":1762700932,"current_range_meters":16000,"station_id":"st_cvj6sg6p6f1abm77japg","pricing_plan_id":"cebpf4jnsgd1na2vs0mg"},{"bike_id":"97e419fc-3d4d-4591-a24c-12597a2a499b","system_id":"levelo_inurba_marseille","lat":43.28268,"lon":5.3506,"is_reserved":false,"is_disabled":false,"rental_uris":{"android":"levelo://app?vid=97e419fc-3d4d-4591-a24c-12597a2a499b","ios":"levelo://app?vid=97e419fc-3d4d-4591-a24c-12597a2a499b"},"vehicle_type_id":"4","last_reported":1762700932,"current_range_meters":16400,"station_id":"ce4bhbp2rcd13ifvqerg","pricing_plan_id":"cebpf4jnsgd1na2vs0mg"},{"bike_id":"f6b2fed1-0ca2-423d-8dec-4ae2abcb7d8f","system_id":"levelo_inurba_marseille","lat":43.30733,"lon":5.42457,"is_reserved":false,"is_disabled":true,"rental_uris":{"android":"levelo://app?vid=f6b2fed1-0ca2-423d-8dec-4ae2abcb7d8f","ios":"levelo://app?vid=f6b2fed1-0ca2-423d-8dec-4ae2abcb7d8f"},"vehicle_type_id":"4","last_reported":1762700932,"current_range_meters":16400,"station_id":"st_cvj6ca6bvosntc0bfgr0","pricing_plan_id":"cebpf4jnsgd1na2vs0mg"},{"bike_id":"8142a16a-13a8-4636-80c8-f6fe96871316","system_id":"levelo_inurba_marseille","lat":43.2439,"lon":5.37076,"is_reserved":false,"is_disabled":true,"rental_uris":{"android":"levelo://app?vid=8142a16a-13a8-4636-80c8-f6fe96871316","ios":"levelo://app?vid=8142a16a-13a8-4636-80c8-f6fe96871316"},"vehicle_type_id":"4","last_reported":1762700932,"current_range_meters":16400,"station_id":"ce4bhhh2rcd13ifvqfk0","pricing_plan_id":"cebpf4jnsgd1na2vs0mg"},{"bike_id":"f0f552c9-dd5b-44e5-8d71-e97f687d54ee","system_id":"levelo_inurba_marseille","lat":43.28416,"lon":5.34993,"is_reserved":false,"is_disabled":true,"rental_uris":{"android":"levelo://app?vid=f0f552c9-dd5b-44e5-8d71-e97f687d54ee","ios":"levelo://app?vid=f0f552c9-dd5b-44e5-8d71-e97f687d54ee"},"vehicle_type_id":"4","last_reported":1762700932,"current_range_meters":16400,"station_id":"ce4bhbh2rcd13ifvqepg","pricing_plan_id":"cebpf4jnsgd1na2vs0mg"},{"bike_id":"aaf560bb-adf8-4d7c-b749-b4c5ca2f2663","system_id":"levelo_inurba_marseille","lat":43.2396,"lon":5.36629,"is_reserved":false,"is_disabled":true,"rental_uris":{"android":"levelo://app?vid=aaf560bb-adf8-4d7c-b749-b4c5ca2f2663","ios":"levelo://app?vid=aaf560bb-adf8-4d7c-b749-b4c5ca2f2663"},"vehicle_type_id":"4","last_reported":1762700932,"current_range_meters":16400,"station_id":"ce4bhi12rcd13ifvqfp0","pricing_plan_id":"cebpf4jnsgd1na2vs0mg"},{"bike_id":"4a299e7b-fa77-4d39-93fa-a705e8d40c9f","system_id":"levelo_inurba_marseille","lat":43.3133,"lon":5.37923,"is_reserved":false,"is_disabled":false,"rental_uris":{"android":"levelo://app?vid=4a299e7b-fa77-4d39-93fa-a705e8d40c9f","ios":"levelo://app?vid=4a299e7b-fa77-4d39-93fa-a705e8d40c9f"},"vehicle_type_id":"4","last_reported":1762700932,"current_range_meters":16400,"station_id":"","pricing_plan_id":"cebpf4jnsgd1na2vs0mg"},{"bike_id":"4788194d-57cc-4487-be16-9f4603d5a271","system_id":"levelo_inurba_marseille","lat":43.27996,"lon":5.4166,"is_reserved":false,"is_disabled":false,"rental_uris":{"android":"levelo://app?vid=4788194d-57cc-4487-be16-9f4603d5a271","ios":"levelo://app?vid=4788194d-57cc-4487-be16-9f4603d5a271"},"vehicle_type_id":"4","last_reported":1762700932,"current_range_meters":16400,"station_id":"ce4bho12rcd13ifvqh1g","pricing_plan_id":"cebpf4jnsgd1na2vs0mg"},{"bike_id":"edfefc51-9cc2-46ae-9b26-845929f73e60","system_id":"levelo_inurba_marseille","lat":43.21714,"lon":5.34626,"is_reserved":false,"is_disabled":false,"rental_uris":{"android":"levelo://app?vid=edfefc51-9cc2-46ae-9b26-845929f73e60","ios":"levelo://app?vid=edfefc51-9cc2-46ae-9b26-845929f73e60"},"vehicle_type_id":"4","last_reported":1762700932,"current_range_meters":16400,"station_id":"st_cvj6r9ubvosntc0bgbag","pricing_plan_id":"cebpf4jnsgd1na2vs0mg"},{"bike_id":"306ee308-9f5b-4a17-b508-b35666f6c22d","system_id":"levelo_inurba_marseille","lat":43.21708,"lon":5.34627,"is_reserved":false,"is_disabled":false,"rental_uris":{"android":"levelo://app?vid=306ee308-9f5b-4a17-b508-b35666f6c22d","ios":"levelo://app?vid=306ee308-9f5b-4a17-b508-b35666f6c22d"},"vehicle_type_id":"4","last_reported":1762700932,"current_range_meters":16400,"station_id":"st_cvj6r9ubvosntc0bgbag","pricing_plan_id":"cebpf4jnsgd1na2vs0mg"},