{"last_updated":1742206262,"ttl":60,"version":"2.2","data":{"bikes":[{"bike_id":"82465aa7-55ed-4055-9cc8-5fdee15ebdd8","system_id":"levelo_inurba_marseille","lat":43.27649,"lon":5.41891,"is_reserved":false,"is_disabled":false,"rental_uris":{"android":"levelo://app?vid=82465aa7-55ed-4055-9cc8-5fdee15ebdd8","ios":"levelo://app?vid=82465aa7-55ed-4055-9cc8-5fdee15ebdd8"},"vehicle_type_id":"4","last_reported":1742206262,"current_range_meters":2800,"station_id":"","pricing_plan_id":"cebpf4jnsgd1na2vs0mg"},{"bike_id":"0e168834-6084-48a9-adbd-98db3c6cd7f1","system_id":"levelo_inurba_marseille","lat":43.24073,"lon":5.37702,"is_reserved":false,"is_disabled":false,"rental_uris":{"android":"levelo://app?vid=0e168834-6084-48a9-adbd-98db3c6cd7f1","ios":"levelo://app?vid=0e168834-6084-48a9-adbd-98db3c6cd7f1"},"vehicle_type_id":"4","last_reported":1742206262,"current_range_meters":2800,"station_id":"ce4bhnp2rcd13ifvqgvg","pricing_plan_id":"cebpf4jnsgd1na2vs0mg"},{"bike_id":"efb53dda-871b-483c-8dec-e716116f9234","system_id":"levelo_inurba_marseille","lat":43.3105,"lon":5.36825,"is_reserved":false,"is_disabled":false,"rental_uris":{"android":"levelo://app?vid=efb53dda-871b-483c-8dec-e716116f9234","ios":"levelo://app?vid=efb53dda-871b-483c-8dec-e716116f9234"},"vehicle_type_id":"4","last_reported":1742206262,"current_range_meters":2800,"station_id":"","pricing_plan_id":"cebpf4jnsgd1na2vs0mg"},{"bike_id":"a5d9a2f8-11e2-445b-9946-70463938f681","system_id":"levelo_inurba_marseille","lat":43.311496,"lon":5.381091,"is_reserved":false,"is_disabled":false,"rental_uris":{"android":"levelo://app?vid=a5d9a2f8-11e2-445b-9946-70463938f681","ios":"levelo://app?vid=a5d9a2f8-11e2-445b-9946-70463938f681"},"vehicle_type_id":"4","last_reported":1742206262,"current_range_meters":3200,"station_id":"","pricing_plan_id":"cebpf4jnsgd1na2vs0mg"},{"bike_id":"a122bee3-2b91-46d3-bea6-71020e3c877f","system_id":"levelo_inurba_marseille","lat":43.29795,"lon":5.38095,"is_reserved":false,"is_disabled":false,"rental_uris":{"android":"levelo://app?vid=a122bee3-2b91-46d3-bea6-71020e3c877f","ios":"levelo://app?vid=a122bee3-2b91-46d3-bea6-71020e3c877f"},"vehicle_type_id":"4","last_reported":1742206262,"current_range_meters":2800,"station_id":"ce4bgip2rcd13ifvqbb0","pricing_plan_id":"cebpf4jnsgd1na2vs0mg"},{"bike_id":"1ebee6af-6672-4475-8604-890591e5f769","system_id":"levelo_inurba_marseille","lat":43.31672,"lon":5.37716,"is_reserved":false,"is_disabled":false,"rental_uris":{"android":"levelo://app?vid=1ebee6af-6672-4475-8604-890591e5f769","ios":"levelo://app?vid=1ebee6af-6672-4475-8604-890591e5f769"},"vehicle_type_id":"4","last_reported":1742206262,"current_range_meters":3600,"station_id":"ce4bgth2rcd13ifvqch0","pricing_plan_id":"cebpf4jnsgd1na2vs0mg"},{"bike_id":"195bb056-ad37-413e-9b51-a7a429fb1e6d","system_id":"levelo_inurba_marseille","lat":43.24179,"lon":5.39688,"is_reserved":false,"is_disabled":false,"rental_uris":{"android":"levelo://app?vid=195bb056-ad37-413e-9b51-a7a429fb1e6d","ios":"levelo://app?vid=195bb056-ad37-413e-9b51-a7a429fb1e6d"},"vehicle_type_id":"4","last_reported":1742206262,"current_range_meters":3600,"station_id":"ce4bhn12rcd13ifvqgpg","pricing_plan_id":"cebpf4jnsgd1na2vs0mg"},{"bike_id":"232d47a4-6df8-4444-977d-b94641875086","system_id":"levelo_inurba_marseille","lat":43.29182,"lon":5.35808,"is_reserved":false,"is_disabled":false,"rental_uris":{"android":"levelo://app?vid=232d47a4-6df8-4444-977d-b94641875086","ios":"levelo://app?vid=232d47a4-6df8-4444-977d-b94641875086"},"vehicle_type_id":"4","last_reported":1742206262,"current_range_meters":3600,"station_id":"ce4bhb12rcd13ifvqel0","pricing_plan_id":"cebpf4jnsgd1na2vs0mg"},{"bike_id":"f2b7b04e-8089-4d6c-9db8-5e21bca75c26","system_id":"levelo_inurba_marseille","lat":43.27821,"lon":5.39196,"is_reserved":false,"is_disabled":true,"rental_uris":{"android":"levelo://app?vid=f2b7b04e-8089-4d6c-9db8-5e21bca75c26","ios":"levelo://app?vid=f2b7b04e-8089-4d6c-9db8-5e21bca75c26"},"vehicle_type_id":"4","last_reported":1742206262,"current_range_meters":4000,"station_id":"ce4bhjp2rcd13ifvqga0","pricing_plan_id":"cebpf4jnsgd1na2vs0mg"},{"bike_id":"1f8b1522-0ced-4949-bd31-7e11da4f5a92","system_id":"levelo_inurba_marseille","lat":43.25777,"lon":5.41041,"is_reserved":false,"is_disabled":false,"rental_uris":{"android":"levelo://app?vid=1f8b1522-0ced-4949-bd31-7e11da4f5a92","ios":"levelo://app?vid=1f8b1522-0ced-4949-bd31-7e11da4f5a92"},"vehicle_type_id":"4","last_reported":1742206262,"current_range_meters":4400,"station_id":"","pricing_plan_id":"cebpf4jnsgd1na2vs0mg"},{"bike_id":"af004255-93b1-4617-8c69-428414d7ebe9","system_id":"levelo_inurba_marseille","lat":43.25017,"lon":5.38914,"is_reserved":false,"is_disabled":false,"rental_uris":{"android":"levelo://app?vid=af004255-93b1-4617-8c69-428414d7ebe9","ios":"levelo://app?vid=af004255-93b1-4617-8c69-428414d7ebe9"},"vehicle_type_id":"4","last_reported":1742206262,"current_range_meters":4400,"station_id":"ce4bhgp2rcd13ifvqfd0","pricing_plan_id":"cebpf4jnsgd1na2vs0mg"},{"bike_id":"3850fcc8-9c5d-4890-93d1-1d89c4d11a96","system_id":"levelo_inurba_marseille","lat":43.33611,"lon":5.41023,"is_reserved":false,"is_disabled":false,"rental_uris":{"android":"levelo://app?vid=3850fcc8-9c5d-4890-93d1-1d89c4d11a96","ios":"levelo://app?vid=3850fcc8-9c5d-4890-93d1-1d89c4d11a96"},"vehicle_type_id":"4","last_reported":1742206262,"current_range_meters":4400,"station_id":"ce4bhqh2rcd13ifvqhmg","pricing_plan_id":"cebpf4jnsgd1na2vs0mg"},{"bike_id":"68269851-3f91-47b6-9f4e-87f86cf212e5","system_id":"levelo_inurba_marseille","lat":43.22939,"lon":5.35376,"is_reserved":false,"is_disabled":false,"rental_uris":{"android":"levelo://app?vid=68269851-3f91-47b6-9f4e-87f86cf212e5","ios":"levelo://app?vid=68269851-3f91-47b6-9f4e-87f86cf212e5"},"vehicle_type_id":"4","last_reported":1742206262,"current_range_meters":4400,"station_id":"cpo3532slgdg3j2ikp40","pricing_plan_id":"cebpf4jnsgd1na2vs0mg"},{"bike_id":"8ac36ff0-95fa-4664-8e37-a03afd0a16e1","system_id":"levelo_inurba_marseille","lat":43.29031,"lon":5.37803,"is_reserved":false,"is_disabled":true,"rental_uris":{"android":"levelo://app?vid=8ac36ff0-95fa-4664-8e37-a03afd0a16e1","ios":"levelo://app?vid=8ac36ff0-95fa-4664-8e37-a03afd0a16e1"},"vehicle_type_id":"4","last_reported":1742206262,"current_range_meters":4400,"station_id":"","pricing_plan_id":"cebpf4jnsgd1na2vs0mg"},{"bike_id":"27732475-d2c0-4b64-ba67-0fdd92e004b5","system_id":"levelo_inurba_marseille","lat":43.24171,"lon":5.39734,"is_reserved":false,"is_disabled":false,"rental_uris":{"android":"levelo://app?vid=27732475-d2c0-4b64-ba67-0fdd92e004b5","ios":"levelo://app?vid=27732475-d2c0-4b64-ba67-0fdd92e004b5"},"vehicle_type_id":"4","last_reported":1742206262,"current_range_meters":4400,"station_id":"ce4bhn12rcd13ifvqgpg","pricing_plan_id":"cebpf4jnsgd1na2vs0mg"},{"bike_id":"1e9aea03-6937-4ee0-9e91-73eda13ab755","system_id":"levelo_inurba_marseille","lat":43.33609,"lon":5.40967,"is_reserved":false,"is_disabled":false,"rental_uris":{"android":"levelo://app?vid=1e9aea03-6937-4ee0-9e91-73eda13ab755","ios":"levelo://app?vid=1e9aea03-6937-4ee0-9e91-73eda13ab755"},"vehicle_type_id":"4","last_reported":1742206262,"current_range_meters":4400,"station_id":"ce4bhqh2rcd13ifvqhmg","pricing_plan_id":"cebpf4jnsgd1na2vs0mg"},{"bike_id":"c5ff76ac-c5f0-4e6d-872b-0339d85f51aa","system_id":"levelo_inurba_marseille","lat":43.24087,"lon":5.37741,"is_reserved":false,"is_disabled":false,"rental_uris":{"android":"levelo://app?vid=c5ff76ac-c5f0-4e6d-872b-0339d85f51aa","ios":"levelo://app?vid=c5ff76ac-c5f0-4e6d-872b-0339d85f51aa"},"vehicle_type_id":"4","last_reported":1742206262,"current_range_meters":4400,"station_id":"ce4bhnp2rcd13ifvqgvg","pricing_plan_id":"cebpf4jnsgd1na2vs0mg"},{"bike_id":"ee0d9876-05d3-42c8-84c9-3fbaaf412b50","system_id":"levelo_inurba_marseille","lat":43.26501,"lon":5.39539,"is_reserved":false,"is_disabled":false,"rental_uris":{"android":"levelo://app?vid=ee0d9876-05d3-42c8-84c9-3fbaaf412b50","ios":"levelo://app?vid=ee0d9876-05d3-42c8-84c9-3fbaaf412b50"},"vehicle_type_id":"4","last_reported":1742206262,"current_range_meters":4400,"station_id":"ce4bhi12rcd13ifvqfq0","pricing_plan_id":"cebpf4jnsgd1na2vs0mg"},{"bike_id":"e94ba6e3-9606-42d7-9222-8ae2dc1a1268","system_id":"levelo_inurba_marseille","lat":43.33615,"lon":5.41012,"is_reserved":false,"is_disabled":false,"rental_uris":{"android":"levelo://app?vid=e94ba6e3-9606-42d7-9222-8ae2dc1a1268","ios":"levelo://app?vid=e94ba6e3-9606-42d7-9222-8ae2dc1a1268"},"vehicle_type_id":"4","last_reported":1742206262,"current_range_meters":4800,"station_id":"ce4bhqh2rcd13ifvqhmg","pricing_plan_id":"cebpf4jnsgd1na2vs0mg"},{"bike_id":"1f6f626e-8c9e-466b-a8fe-a9a22baecc04","system_id":"levelo_inurba_marseille","lat":43.23199,"lon":5.35544,"is_reserved":false,"is_disabled":false,"rental_uris":{"android":"levelo://app?vid=1f6f626e-8c9e-466b-a8fe-a9a22baecc04","ios":"levelo://app?vid=1f6f626e-8c9e-466b-a8fe-a9a22baecc04"},"vehicle_type_id":"4","last_reported":1742206262,"current_range_meters":4800,"station_id":"ce4bhu92rcd13ifvqi70","pricing_plan_id":"cebpf4jnsgd1na2vs0mg"},{"bike_id":"d06b2ab3-c3ad-4904-98b9-48eee9badb6d","system_id":"levelo_inurba_marseille","lat":43.2318,"lon":5.3998,"is_reserved":false,"is_disabled":false,"rental_uris":{"android":"levelo://app?vid=d06b2ab3-c3ad-4904-98b9-48eee9badb6d","ios":"levelo://app?vid=d06b2ab3-c3ad-4904-98b9-48eee9badb6d"},"vehicle_type_id":"4","last_reported":1742206262,"current_range_meters":4800,"station_id":"ce4bhn12rcd13ifvqgqg","pricing_plan_id":"cebpf4jnsgd1na2vs0mg"},{"bike_id":"2127c283-3bf3-4081-9791-ba201cf5a542","system_id":"levelo_inurba_marseille","lat":43.30516,"lon":5.37339,"is_reserved":false,"is_disabled":false,"rental_uris":{"android":"levelo://app?vid=2127c283-3bf3-4081-9791-ba201cf5a542","ios":"levelo://app?vid=2127c283-3bf3-4081-9791-ba201cf5a542"},"vehicle_type_id":"4","last_reported":1742206262,"current_range_meters":4800,"station_id":"","pricing_plan_id":"cebpf4jnsgd1na2vs0mg"},{"bike_id":"382cdfe8-d108-4edc-bc9b-6ec3acaf0296","system_id":"levelo_inurba_marseille","lat":43.30978,"lon":5.3904,"is_reserved":false,"is_disabled":false,"rental_uris":{"android":"levelo://app?vid=382cdfe8-d108-4edc-bc9b-6ec3acaf0296","ios":"levelo://app?vid=382cdfe8-d108-4edc-bc9b-6ec3acaf0296"},"vehicle_type_id":"4","last_reported":1742206262,"current_range_meters":4800,"station_id":"ce4bgup2rcd13ifvqco0","pricing_plan_id":"cebpf4jnsgd1na2vs0mg"},{"bike_id":"d3bd0ca2-58e0-4f19-bd33-980724ab7a39","system_id":"levelo_inurba_marseille","lat":43.30894,"lon":5.39639,"is_reserved":false,"is_disabled":true,"rental_uris":{"android":"levelo://app?vid=d3bd0ca2-58e0-4f19-bd33-980724ab7a39","ios":"levelo://app?vid=d3bd0ca2-58e0-4f19-bd33-980724ab7a39"},"vehicle_type_id":"4","last_reported":1742206262,"current_range_meters":4800,"station_id":"ce4bh012rcd13ifvqcv0","pricing_plan_id":"cebpf4jnsgd1na2vs0mg"},{"bike_id":"31710fca-ccfa-43a5-ac6f-5ec923018ebf","system_id":"levelo_inurba_marseille","lat":43.274,"lon":5.42044,"is_reserved":false,"is_disabled":false,"rental_uris":{"android":"levelo://app?vid=31710fca-ccfa-43a5-ac6f-5ec923018ebf","ios":"levelo://app?vid=31710fca-ccfa-43a5-ac6f-5ec923018ebf"},"vehicle_type_id":"4","last_reported":1742206262,"current_range_meters":4800,"station_id":"","pricing_plan_id":"cebpf4jnsgd1na2vs0mg"},{"bike_id":"97ef5f0b-10be-433e-adf5-8988ede4fe7c","system_id":"levelo_inurba_marseille","lat":43.29556,"lon":5.42275,"is_reserved":false,"is_disabled":false,"rental_uris":{"android":"levelo://app?vid=97ef5f0b-10be-433e-adf5-8988ede4fe7c","ios":"levelo://app?vid=97ef5f0b-10be-433e-adf5-8988ede4fe7c"},"vehicle_type_id":"4","last_reported":1742206262,"current_range_meters":5600,"station_id":"ce4bhph2rcd13ifvqhdg","pricing_plan_id":"cebpf4jnsgd1na2vs0mg"},{"bike_id":"1bf7e325-6c57-444f-a23d-2e52225c53a6","system_id":"levelo_inurba_marseille","lat":43.25007,"lon":5.38935,"is_reserved":false,"is_disabled":false,"rental_uris":{"android":"levelo://app?vid=1bf7e325-6c57-444f-a23d-2e52225c53a6","ios":"levelo://app?vid=1bf7e325-6c57-444f-a23d-2e52225c53a6"},"vehicle_type_id":"4","last_reported":1742206262,"current_range_meters":5600,"station_id":"ce4bhgp2rcd13ifvqfd0","pricing_plan_id":"cebpf4jnsgd1na2vs0mg"},{"bike_id":"7f899192-079d-4b8c-bea8-0cf3763d7192","system_id":"levelo_inurba_marseille","lat":43.27072,"lon":5.4228,"is_reserved":false,"is_disabled":false,"rental_uris":{"android":"levelo://app?vid=7f899192-079d-4b8c-bea8-0cf3763d7192","ios":"levelo://app?vid=7f899192-079d-4b8c-bea8-0cf3763d7192"},"vehicle_type_id":"4","last_reported":1742206262,"current_range_meters":5600,"station_id":"ce4bhk92rcd13ifvqgb0","pricing_plan_id":"cebpf4jnsgd1na2vs0mg"},{"bike_id":"4f375bea-7ab8-4aa0-a392-b3aab687311e","system_id":"levelo_inurba_marseille","lat":43.26568,"lon":5.39041,"is_reserved":false,"is_disabled":false,"rental_uris":{"android":"levelo://app?vid=4f375bea-7ab8-4aa0-a392-b3aab687311e","ios":"levelo://app?vid=4f375bea-7ab8-4aa0-a392-b3aab687311e"},"vehicle_type_id":"4","last_reported":1742206262,"current_range_meters":5600,"station_id":"ce4bhe12rcd13ifvqf30","pricing_plan_id":"cebpf4jnsgd1na2vs0mg"},{"bike_id":"3a766561-d5df-4bb1-accb-85c347f27a70","system_id":"levelo_inurba_marseille","lat":43.33729,"lon":5.39191,"is_reserved":false,"is_disabled":false,"rental_uris":{"android":"levelo://app?vid=3a766561-d5df-4bb1-accb-85c347f27a70","ios":"levelo://app?vid=3a766561-d5df-4bb1-accb-85c347f27a70"},"vehicle_type_id":"4","last_reported":1742206262,"current_range_meters":5600,"station_id":"ce4bhr92rcd13ifvqhsg","pricing_plan_id":"cebpf4jnsgd1na2vs0mg"},{"bike_id":"323e408e-4c9e-4667-b43d-4711eb2551ff","system_id":"levelo_inurba_marseille","lat":43.31478,"lon":5.37277,"is_reserved":false,"is_disabled":false,"rental_uris":{"android":"levelo://app?vid=323e408e-4c9e-4667-b43d-4711eb2551ff","ios":"levelo://app?vid=323e408e-4c9e-4667-b43d-4711eb2551ff"},"vehicle_type_id":"4","last_reported":1742206262,"current_range_meters":5600,"station_id":"ce4bgt12rcd13ifvqcd0","pricing_plan_id":"cebpf4jnsgd1na2vs0mg"},{"bike_id":"74c49b86-05de-4f16-9afd-bab2ed599dae","system_id":"levelo_inurba_marseille","lat":43.30947,"lon":5.40146,"is_reserved":false,"is_disabled":false,"rental_uris":{"android":"levelo://app?vid=74c49b86-05de-4f16-9afd-bab2ed599dae","ios":"levelo://app?vid=74c49b86-05de-4f16-9afd-bab2ed599dae"},"vehicle_type_id":"4","last_reported":1742206262,"current_range_meters":6000,"station_id":"ce4bgvp2rcd13ifvqct0","pricing_plan_id":"cebpf4jnsgd1na2vs0mg"},{"bike_id":"e6f0e73f-27c2-4989-954b-3dbfbb86aec4","system_id":"levelo_inurba_marseille","lat":43.268074,"lon":5.393734,"is_reserved":false,"is_disabled":false,"rental_uris":{"android":"levelo://app?vid=e6f0e73f-27c2-4989-954b-3dbfbb86aec4","ios":"levelo://app?vid=e6f0e73f-27c2-4989-954b-3dbfbb86aec4"},"vehicle_type_id":"4","last_reported":1742206262,"current_range_meters":6000,"station_id":"ce4bhmp2rcd13ifvqgog","pricing_plan_id":"cebpf4jnsgd1na2vs0mg"},{"bike_id":"129096b1-181f-4ed8-8864-c98694e37d61","system_id":"levelo_inurba_marseille","lat":43.29278,"lon":5.40891,"is_reserved":false,"is_disabled":false,"rental_uris":{"android":"levelo://app?vid=129096b1-181f-4ed8-8864-c98694e37d61","ios":"levelo://app?vid=129096b1-181f-4ed8-8864-c98694e37d61"},"vehicle_type_id":"4","last_reported":1742206262,"current_range_meters":6000,"station_id":"ce4bh192rcd13ifvqdc0","pricing_plan_id":"cebpf4jnsgd1na2vs0mg"},{"bike_id":"af0e35b3-8dbd-46c7-96d1-8852cbb490f2","system_id":"levelo_inurba_marseille","lat":43.26558,"lon":5.37311,"is_reserved":false,"is_disabled":true,"rental_uris":{"android":"levelo://app?vid=af0e35b3-8dbd-46c7-96d1-8852cbb490f2","ios":"levelo://app?vid=af0e35b3-8dbd-46c7-96d1-8852cbb490f2"},"vehicle_type_id":"4","last_reported":1742206262,"current_range_meters":6000,"station_id":"ce4bhg12rcd13ifvqf70","pricing_plan_id":"cebpf4jnsgd1na2vs0mg"},{"bike_id":"ac6bf2a2-e8ad-4c79-8c37-419990f10784","system_id":"levelo_inurba_marseille","lat":43.31366,"lon":5.36713,"is_reserved":false,"is_disabled":false,"rental_uris":{"android":"levelo://app?vid=ac6bf2a2-e8ad-4c79-8c37-419990f10784","ios":"levelo://app?vid=ac6bf2a2-e8ad-4c79-8c37-419990f10784"},"vehicle_type_id":"4","last_reported":1742206262,"current_range_meters":6000,"station_id":"ce4bgr92rcd13ifvqc6g","pricing_plan_id":"cebpf4jnsgd1na2vs0mg"},{"bike_id":"1a713d0d-ef22-4058-a3f1-de47e38c3dd0","system_id":"levelo_inurba_marseille","lat":43.33609,"lon":5.41027,"is_reserved":false,"is_disabled":false,"rental_uris":{"android":"levelo://app?vid=1a713d0d-ef22-4058-a3f1-de47e38c3dd0","ios":"levelo://app?vid=1a713d0d-ef22-4058-a3f1-de47e38c3dd0"},"vehicle_type_id":"4","last_reported":1742206262,"current_range_meters":6000,"station_id":"ce4bhqh2rcd13ifvqhmg","pricing_plan_id":"cebpf4jnsgd1na2vs0mg"},{"bike_id":"3438af4c-07ed-4279-a86e-c0808dc0dce5","system_id":"levelo_inurba_marseille","lat":43.277,"lon":5.38912,"is_reserved":false,"is_disabled":false,"rental_uris":{"android":"levelo://app?vid=3438af4c-07ed-4279-a86e-c0808dc0dce5","ios":"levelo://app?vid=3438af4c-07ed-4279-a86e-c0808dc0dce5"},"vehicle_type_id":"4","last_reported":1742206262,"current_range_meters":6000,"station_id":"ce4bhi12rcd13ifvqfo0","pricing_plan_id":"cebpf4jnsgd1na2vs0mg"},{"bike_id":"c1ccf9ca-98f0-4eaf-9c83-bb7b5133d125","system_id":"levelo_inurba_marseille","lat":43.32136,"lon":5.36794,"is_reserved":false,"is_disabled":false,"rental_uris":{"android":"levelo://app?vid=c1ccf9ca-98f0-4eaf-9c83-bb7b5133d125","ios":"levelo://app?vid=c1ccf9ca-98f0-4eaf-9c83-bb7b5133d125"},"vehicle_type_id":"4","last_reported":1742206262,"current_range_meters":6000,"station_id":"","pricing_plan_id":"cebpf4jnsgd1na2vs0mg"},{"bike_id":"e79d8ff5-5260-4cd2-877d-0bc7b1752ecb","system_id":"levelo_inurba_marseille","lat":43.31302,"lon":5.36857,"is_reserved":false,"is_disabled":false,"rental_uris":{"android":"levelo://app?vid=e79d8ff5-5260-4cd2-877d-0bc7b1752ecb","ios":"levelo://app?vid=e79d8ff5-5260-4cd2-877d-0bc7b1752ecb"},"vehicle_type_id":"4","last_reported":1742206262,"current_range_meters":6000,"station_id":"","pricing_plan_id":"cebpf4jnsgd1na2vs0mg"},{"bike_id":"73a7a516-ecaf-4ecc-805e-1ae55da95039","system_id":"levelo_inurba_marseille","lat":43.23196,"lon":5.35555,"is_reserved":false,"is_disabled":false,"rental_uris":{"android":"levelo://app?vid=73a7a516-ecaf-4ecc-805e-1ae55da95039","ios":"levelo://app?vid=73a7a516-ecaf-4ecc-805e-1ae55da95039"},"vehicle_type_id":"4","last_reported":1742206262,"current_range_meters":6000,"station_id":"ce4bhu92rcd13ifvqi70","pricing_plan_id":"cebpf4jnsgd1na2vs0mg"},{"bike_id":"23f402d9-dfb0-47f6-9db8-b03d1756c728","system_id":"levelo_inurba_marseille","lat":43.23142,"lon":5.43715,"is_reserved":false,"is_disabled":false,"rental_uris":{"android":"levelo://app?vid=23f402d9-dfb0-47f6-9db8-b03d1756c728","ios":"levelo://app?vid=23f402d9-dfb0-47f6-9db8-b03d1756c728"},"vehicle_type_id":"4","last_reported":1742206262,"current_range_meters":6400,"station_id":"ce4bhmp2rcd13ifvqgog","pricing_plan_id":"cebpf4jnsgd1na2vs0mg"},{"bike_id":"555bf458-d1d6-4a2e-8876-071970d88ebd","system_id":"levelo_inurba_marseille","lat":43.26556,"lon":5.39036,"is_reserved":false,"is_disabled":false,"rental_uris":{"android":"levelo://app?vid=555bf458-d1d6-4a2e-8876-071970d88ebd","ios":"levelo://app?vid=555bf458-d1d6-4a2e-8876-071970d88ebd"},"vehicle_type_id":"4","last_reported":1742206262,"current_range_meters":6400,"station_id":"ce4bhe12rcd13ifvqf30","pricing_plan_id":"cebpf4jnsgd1na2vs0mg"},{"bike_id":"2bd5dc42-922c-401e-81c0-0b508707ff2b","system_id":"levelo_inurba_marseille","lat":43.27213,"lon":5.39184,"is_reserved":false,"is_disabled":false,"rental_uris":{"android":"levelo://app?vid=2bd5dc42-922c-401e-81c0-0b508707ff2b","ios":"levelo://app?vid=2bd5dc42-922c-401e-81c0-0b508707ff2b"},"vehicle_type_id":"4","last_reported":1742206262,"current_range_meters":6400,"station_id":"ce4bhhp2rcd13ifvqfm0","pricing_plan_id":"cebpf4jnsgd1na2vs0mg"},{"bike_id":"71b342b8-694b-40d5-99e8-310baf77a970","system_id":"levelo_inurba_marseille","lat":43.2306,"lon":5.35491,"is_reserved":false,"is_disabled":false,"rental_uris":{"android":"levelo://app?vid=71b342b8-694b-40d5-99e8-310baf77a970","ios":"levelo://app?vid=71b342b8-694b-40d5-99e8-310baf77a970"},"vehicle_type_id":"4","last_reported":1742206262,"current_range_meters":6400,"station_id":"cpo3342slgdg3j2ifvpg","pricing_plan_id":"cebpf4jnsgd1na2vs0mg"},{"bike_id":"6582e7c2-5aa5-4e6a-abc5-fa241e74aeb6","system_id":"levelo_inurba_marseille","lat":43.29903,"lon":5.43652,"is_reserved":false,"is_disabled":false,"rental_uris":{"android":"levelo://app?vid=6582e7c2-5aa5-4e6a-abc5-fa241e74aeb6","ios":"levelo://app?vid=6582e7c2-5aa5-4e6a-abc5-fa241e74aeb6"},"vehicle_type_id":"4","last_reported":1742206262,"current_range_meters":6400,"station_id":"ce4bhpp2rcd13ifvqhfg","pricing_plan_id":"cebpf4jnsgd1na2vs0mg"},{"bike_id":"a68d1dd3-b8ed-4c0f-ae2c-9b6d07ce99e5","system_id":"levelo_inurba_marseille","lat":43.301544,"lon":5.380783,"is_reserved":false,"is_disabled":false,"rental_uris":{"android":"levelo://app?vid=a68d1dd3-b8ed-4c0f-ae2c-9b6d07ce99e5","ios":"levelo://app?vid=a68d1dd3-b8ed-4c0f-ae2c-9b6d07ce99e5"},"vehicle_type_id":"4","last_reported":1742206262,"current_range_meters":6400,"station_id":"ce4bgjp2rcd13ifvqbh0","pricing_plan_id":"cebpf4jnsgd1na2vs0mg"},{"bike_id":"386c50eb-e2de-4698-8009-25ae5c5fc57f","system_id":"levelo_inurba_marseille","lat":43.29196,"lon":5.39313,"is_reserved":false,"is_disabled":true,"rental_uris":{"android":"levelo://app?vid=386c50eb-e2de-4698-8009-25ae5c5fc57f","ios":"levelo://app?vid=386c50eb-e2de-4698-8009-25ae5c5fc57f"},"vehicle_type_id":"4","last_reported":1742206262,"current_range_meters":6400,"station_id":"ce4bh192rcd13ifvqdd0","pricing_plan_id":"cebpf4jnsgd1na2vs0mg"},{"bike_id":"2dedd336-e823-44ad-a240-3391879edfc6","system_id":"levelo_inurba_marseille","lat":43.26784,"lon":5.39413,"is_reserved":false,"is_disabled":false,"rental_uris":{"android":"levelo://app?vid=2dedd336-e823-44ad-a240-3391879edfc6","ios":"levelo://app?vid=2dedd336-e823-44ad-a240-3391879edfc6"},"vehicle_type_id":"4","last_reported":1742206262,"current_range_meters":6400,"station_id":"ce4bhh12rcd13ifvqfg0","pricing_plan_id":"cebpf4jnsgd1na2vs0mg"},{"bike_id":"25bb2ded-fba6-47cc-8f36-5c53dcdeec58","system_id":"levelo_inurba_marseille","lat":43.241759,"lon":5.397271,"is_reserved":false,"is_disabled":false,"rental_uris":{"android":"levelo://app?vid=25bb2ded-fba6-47cc-8f36-5c53dcdeec58","ios":"levelo://app?vid=25bb2ded-fba6-47cc-8f36-5c53dcdeec58"},"vehicle_type_id":"4","last_reported":1742206262,"current_range_meters":6400,"station_id":"ce4bhn12rcd13ifvqgpg","pricing_plan_id":"cebpf4jnsgd1na2vs0mg"},{"bike_id":"d41c908c-4dc6-4aaa-969d-73466d9b3b3d","system_id":"levelo_inurba_marseille","lat":43.27497,"lon":5.4245,"is_reserved":false,"is_disabled":false,"rental_uris":{"android":"levelo://app?vid=d41c908c-4dc6-4aaa-969d-73466d9b3b3d","ios":"levelo://app?vid=d41c908c-4dc6-4aaa-969d-73466d9b3b3d"},"vehicle_type_id":"4","last_reported":1742206262,"current_range_meters":6400,"station_id":"ce4bhn92rcd13ifvqgrg","pricing_plan_id":"cebpf4jnsgd1na2vs0mg"},{"bike_id":"12086418-ea6d-44b5-8baa-6f52d29d55ac","system_id":"levelo_inurba_marseille","lat":43.33605,"lon":5.4099,"is_reserved":false,"is_disabled":false,"rental_uris":{"android":"levelo://app?vid=12086418-ea6d-44b5-8baa-6f52d29d55ac","ios":"levelo://app?vid=12086418-ea6d-44b5-8baa-6f52d29d55ac"},"vehicle_type_id":"4","last_reported":1742206262,"current_range_meters":6400,"station_id":"ce4bhqh2rcd13ifvqhmg","pricing_plan_id":"cebpf4jnsgd1na2vs0mg"},{"bike_id":"2ee968f0-3e3a-42b7-b263-c30500628cfd","system_id":"levelo_inurba_marseille","lat":43.23149,"lon":5.43708,"is_reserved":false,"is_disabled":false,"rental_uris":{"android":"levelo://app?vid=2ee968f0-3e3a-42b7-b263-c30500628cfd","ios":"levelo://app?vid=2ee968f0-3e3a-42b7-b263-c30500628cfd"},"vehicle_type_id":"4","last_reported":1742206262,"current_range_meters":6400,"station_id":"ce4bhmp2rcd13ifvqgog","pricing_plan_id":"cebpf4jnsgd1na2vs0mg"},{"bike_id":"e170ffca-3c08-4995-91d0-1f337bd222bd","system_id":"levelo_inurba_marseille","lat":43.30778,"lon":5.37656,"is_reserved":false,"is_disabled":false,"rental_uris":{"android":"levelo://app?vid=e170ffca-3c08-4995-91d0-1f337bd222bd","ios":"levelo://app?vid=e170ffca-3c08-4995-91d0-1f337bd222bd"},"vehicle_type_id":"4","last_reported":1742206262,"current_range_meters":6800,"station_id":"ce4bgv92rcd13ifvqcq0","pricing_plan_id":"cebpf4jnsgd1na2vs0mg"},{"bike_id":"e01eeb36-e655-41bb-9312-232d9d42dc33","system_id":"levelo_inurba_marseille","lat":43.32128,"lon":5.36767,"is_reserved":false,"is_disabled":false,"rental_uris":{"android":"levelo://app?vid=e01eeb36-e655-41bb-9312-232d9d42dc33","ios":"levelo://app?vid=e01eeb36-e655-41bb-9312-232d9d42dc33"},"vehicle_type_id":"4","last_reported":1742206262,"current_range_meters":6800,"station_id":"ce4bhrh2rcd13ifvqhug","pricing_plan_id":"cebpf4jnsgd1na2vs0mg"},{"bike_id":"fc071de1-2cc0-488a-a43e-f8037a5a9a49","system_id":"levelo_inurba_marseille","lat":43.23091,"lon":5.355,"is_reserved":false,"is_disabled":false,"rental_uris":{"android":"levelo://app?vid=fc071de1-2cc0-488a-a43e-f8037a5a9a49","ios":"levelo://app?vid=fc071de1-2cc0-488a-a43e-f8037a5a9a49"},"vehicle_type_id":"4","last_reported":1742206262,"current_range_meters":6800,"station_id":"cpo3342slgdg3j2ifvpg","pricing_plan_id":"cebpf4jnsgd1na2vs0mg"},{"bike_id":"9696db47-2aac-4b01-b215-476b46fa6a9c","system_id":"levelo_inurba_marseille","lat":43.24176,"lon":5.39716,"is_reserved":false,"is_disabled":false,"rental_uris":{"android":"levelo://app?vid=9696db47-2aac-4b01-b215-476b46fa6a9c","ios":"levelo://app?vid=9696db47-2aac-4b01-b215-476b46fa6a9c"},"vehicle_type_id":"4","last_reported":1742206262,"current_range_meters":6800,"station_id":"ce4bhn12rcd13ifvqgpg","pricing_plan_id":"cebpf4jnsgd1na2vs0mg"},{"bike_id":"dfd18ffd-aca3-4d96-8758-c6db85d838e2","system_id":"levelo_inurba_marseille","lat":43.23045,"lon":5.3553,"is_reserved":false,"is_disabled":false,"rental_uris":{"android":"levelo://app?vid=dfd18ffd-aca3-4d96-8758-c6db85d838e2","ios":"levelo://app?vid=dfd18ffd-aca3-4d96-8758-c6db85d838e2"},"vehicle_type_id":"4","last_reported":1742206262,"current_range_meters":6800,"station_id":"cpo3342slgdg3j2ifvpg","pricing_plan_id":"cebpf4jnsgd1na2vs0mg"},{"bike_id":"3e2e14c7-f5ed-4573-bf2b-84d788bc9968","system_id":"levelo_inurba_marseille","lat":43.33716,"lon":5.42098,"is_reserved":false,"is_disabled":false,"rental_uris":{"android":"levelo://app?vid=3e2e14c7-f5ed-4573-bf2b-84d788bc9968","ios":"levelo://app?vid=3e2e14c7-f5ed-4573-bf2b-84d788bc9968"},"vehicle_type_id":"4","last_reported":1742206262,"current_range_meters":6800,"station_id":"","pricing_plan_id":"cebpf4jnsgd1na2vs0mg"},{"bike_id":"5da2dc92-f18e-44df-80ed-2fede3fdfeec","system_id":"levelo_inurba_marseille","lat":43.28268,"lon":5.35064,"is_reserved":false,"is_disabled":false,"rental_uris":{"android":"levelo://app?vid=5da2dc92-f18e-44df-80ed-2fede3fdfeec","ios":"levelo://app?vid=5da2dc92-f18e-44df-80ed-2fede3fdfeec"},"vehicle_type_id":"4","last_reported":1742206262,"current_range_meters":6800,"station_id":"ce4bhbp2rcd13ifvqerg","pricing_plan_id":"cebpf4jnsgd1na2vs0mg"},{"bike_id":"a41c6a4c-6041-4546-a615-6ec13250b00d","system_id":"levelo_inurba_marseille","lat":43.23159,"lon":5.43702,"is_reserved":false,"is_disabled":false,"rental_uris":{"android":"levelo://app?vid=a41c6a4c-6041-4546-a615-6ec13250b00d","ios":"levelo://app?vid=a41c6a4c-6041-4546-a615-6ec13250b00d"},"vehicle_type_id":"4","last_reported":1742206262,"current_range_meters":6800,"station_id":"ce4bhmp2rcd13ifvqgog","pricing_plan_id":"cebpf4jnsgd1na2vs0mg"},{"bike_id":"9544e52b-7c59-430f-a85b-7c60f50c2f53","system_id":"levelo_inurba_marseille","lat":43.25832,"lon":5.3941,"is_reserved":false,"is_disabled":false,"rental_uris":{"android":"levelo://app?vid=9544e52b-7c59-430f-a85b-7c60f50c2f53","ios":"levelo://app?vid=9544e52b-7c59-430f-a85b-7c60f50c2f53"},"vehicle_type_id":"4","last_reported":1742206262,"current_range_meters":6800,"station_id":"ce4bhip2rcd13ifvqft0","pricing_plan_id":"cebpf4jnsgd1na2vs0mg"},{"bike_id":"ccd49044-f75d-432b-b34b-0f0b9fd35c44","system_id":"levelo_inurba_marseille","lat":43.23153,"lon":5.43715,"is_reserved":false,"is_disabled":false,"rental_uris":{"android":"levelo://app?vid=ccd49044-f75d-432b-b34b-0f0b9fd35c44","ios":"levelo://app?vid=ccd49044-f75d-432b-b34b-0f0b9fd35c44"},"vehicle_type_id":"4","last_reported":1742206262,"current_range_meters":7200,"station_id":"ce4bhmp2rcd13ifvqgog","pricing_plan_id":"cebpf4jnsgd1na2vs0mg"},{"bike_id":"f876773a-fec2-4503-8f9a-c65b00603ae5","system_id":"levelo_inurba_marseille","lat":43.240693,"lon":5.377488,"is_reserved":false,"is_disabled":false,"rental_uris":{"android":"levelo://app?vid=f876773a-fec2-4503-8f9a-c65b00603ae5","ios":"levelo://app?vid=f876773a-fec2-4503-8f9a-c65b00603ae5"},"vehicle_type_id":"4","last_reported":1742206262,"current_range_meters":7200,"station_id":"ce4bhnp2rcd13ifvqgvg","pricing_plan_id":"cebpf4jnsgd1na2vs0mg"},{"bike_id":"55fd6689-458a-461e-887c-77262cb77680","system_id":"levelo_inurba_marseille","lat":43.29891,"lon":5.38144,"is_reserved":false,"is_disabled":false,"rental_uris":{"android":"levelo://app?vid=55fd6689-458a-461e-887c-77262cb77680","ios":"levelo://app?vid=55fd6689-458a-461e-887c-77262cb77680"},"vehicle_type_id":"4","last_reported":1742206262,"current_range_meters":7200,"station_id":"ce4bgj12rcd13ifvqbc0","pricing_plan_id":"cebpf4jnsgd1na2vs0mg"},{"bike_id":"f4806f6b-90cc-4357-8538-1ba6d4b0b5e4","system_id":"levelo_inurba_marseille","lat":43.23207,"lon":5.35552,"is_reserved":false,"is_disabled":false,"rental_uris":{"android":"levelo://app?vid=f4806f6b-90cc-4357-8538-1ba6d4b0b5e4","ios":"levelo://app?vid=f4806f6b-90cc-4357-8538-1ba6d4b0b5e4"},"vehicle_type_id":"4","last_reported":1742206262,"current_range_meters":7200,"station_id":"ce4bhu92rcd13ifvqi70","pricing_plan_id":"cebpf4jnsgd1na2vs0mg"},{"bike_id":"081e4e36-6c05-4d78-9d51-d5f19577f406","system_id":"levelo_inurba_marseille","lat":43.23193,"lon":5.39968,"is_reserved":false,"is_disabled":false,"rental_uris":{"android":"levelo://app?vid=081e4e36-6c05-4d78-9d51-d5f19577f406","ios":"levelo://app?vid=081e4e36-6c05-4d78-9d51-d5f19577f406"},"vehicle_type_id":"4","last_reported":1742206262,"current_range_meters":7200,"station_id":"ce4bhn12rcd13ifvqgqg","pricing_plan_id":"cebpf4jnsgd1na2vs0mg"},{"bike_id":"c46bec50-c693-405c-875f-3f20e5871328","system_id":"levelo_inurba_marseille","lat":43.24188,"lon":5.39715,"is_reserved":false,"is_disabled":false,"rental_uris":{"android":"levelo://app?vid=c46bec50-c693-405c-875f-3f20e5871328","ios":"levelo://app?vid=c46bec50-c693-405c-875f-3f20e5871328"},"vehicle_type_id":"4","last_reported":1742206262,"current_range_meters":7200,"station_id":"ce4bhn12rcd13ifvqgpg","pricing_plan_id":"cebpf4jnsgd1na2vs0mg"},{"bike_id":"ec4c8fc9-399f-4f5a-b345-e19e03d811c3","system_id":"levelo_inurba_marseille","lat":43.27196,"lon":5.40991,"is_reserved":false,"is_disabled":true,"rental_uris":{"android":"levelo://app?vid=ec4c8fc9-399f-4f5a-b345-e19e03d811c3","ios":"levelo://app?vid=ec4c8fc9-399f-4f5a-b345-e19e03d811c3"},"vehicle_type_id":"4","last_reported":1742206262,"current_range_meters":7200,"station_id":"ce4bhl12rcd13ifvqgf0","pricing_plan_id":"cebpf4jnsgd1na2vs0mg"},{"bike_id":"4a48ef4d-481c-433c-a9b8-5cdd425f1f3c","system_id":"levelo_inurba_marseille","lat":43.31211,"lon":5.36897,"is_reserved":false,"is_disabled":false,"rental_uris":{"android":"levelo://app?vid=4a48ef4d-481c-433c-a9b8-5cdd425f1f3c","ios":"levelo://app?vid=4a48ef4d-481c-433c-a9b8-5cdd425f1f3c"},"vehicle_type_id":"4","last_reported":1742206262,"current_range_meters":7200,"station_id":"ce4bgl92rcd13ifvqbq0","pricing_plan_id":"cebpf4jnsgd1na2vs0mg"},{"bike_id":"63ccaa1b-7302-45e3-82a8-d904a69351b6","system_id":"levelo_inurba_marseille","lat":43.23966,"lon":5.36624,"is_reserved":false,"is_disabled":false,"rental_uris":{"android":"levelo://app?vid=63ccaa1b-7302-45e3-82a8-d904a69351b6","ios":"levelo://app?vid=63ccaa1b-7302-45e3-82a8-d904a69351b6"},"vehicle_type_id":"4","last_reported":1742206262,"current_range_meters":7200,"station_id":"ce4bhi12rcd13ifvqfp0","pricing_plan_id":"cebpf4jnsgd1na2vs0mg"},{"bike_id":"7099c38a-2986-4dc9-9398-307b562f7d30","system_id":"levelo_inurba_marseille","lat":43.25967,"lon":5.40879,"is_reserved":false,"is_disabled":false,"rental_uris":{"android":"levelo://app?vid=7099c38a-2986-4dc9-9398-307b562f7d30","ios":"levelo://app?vid=7099c38a-2986-4dc9-9398-307b562f7d30"},"vehicle_type_id":"4","last_reported":1742206262,"current_range_meters":7200,"station_id":"ce4bhm92rcd13ifvqglg","pricing_plan_id":"cebpf4jnsgd1na2vs0mg"},{"bike_id":"585b7b81-7606-4331-9d4e-64bf66e625bb","system_id":"levelo_inurba_marseille","lat":43.29013,"lon":5.37561,"is_reserved":false,"is_disabled":false,"rental_uris":{"android":"levelo://app?vid=585b7b81-7606-4331-9d4e-64bf66e625bb","ios":"levelo://app?vid=585b7b81-7606-4331-9d4e-64bf66e625bb"},"vehicle_type_id":"4","last_reported":1742206262,"current_range_meters":7200,"station_id":"ce4bh692rcd13ifvqe90","pricing_plan_id":"cebpf4jnsgd1na2vs0mg"},{"bike_id":"a8dda710-fc5a-4638-ae23-4122f2a35058","system_id":"levelo_inurba_marseille","lat":43.23072,"lon":5.35497,"is_reserved":false,"is_disabled":false,"rental_uris":{"android":"levelo://app?vid=a8dda710-fc5a-4638-ae23-4122f2a35058","ios":"levelo://app?vid=a8dda710-fc5a-4638-ae23-4122f2a35058"},"vehicle_type_id":"4","last_reported":1742206262,"current_range_meters":7200,"station_id":"cpo3342slgdg3j2ifvpg","pricing_plan_id":"cebpf4jnsgd1na2vs0mg"},{"bike_id":"822b0551-70f3-4890-88a0-9a90d2e720ab","system_id":"levelo_inurba_marseille","lat":43.31272,"lon":5.40163,"is_reserved":false,"is_disabled":true,"rental_uris":{"android":"levelo://app?vid=822b0551-70f3-4890-88a0-9a90d2e720ab","ios":"levelo://app?vid=822b0551-70f3-4890-88a0-9a90d2e720ab"},"vehicle_type_id":"4","last_reported":1742206262,"current_range_meters":7200,"station_id":"ce4bh092rcd13ifvqd30","pricing_plan_id":"cebpf4jnsgd1na2vs0mg"},{"bike_id":"d25158a9-6380-43cc-9b28-ebca587b9840","system_id":"levelo_inurba_marseille","lat":43.29865,"lon":5.3974,"is_reserved":false,"is_disabled":false,"rental_uris":{"android":"levelo://app?vid=d25158a9-6380-43cc-9b28-ebca587b9840","ios":"levelo://app?vid=d25158a9-6380-43cc-9b28-ebca587b9840"},"vehicle_type_id":"4","last_reported":1742206262,"current_range_meters":7200,"station_id":"ce4bh0h2rcd13ifvqd50","pricing_plan_id":"cebpf4jnsgd1na2vs0mg"},{"bike_id":"4a067542-9106-477f-82fc-1ecda7f88427","system_id":"levelo_inurba_marseille","lat":43.25108,"lon":5.40322,"is_reserved":false,"is_disabled":false,"rental_uris":{"android":"levelo://app?vid=4a067542-9106-477f-82fc-1ecda7f88427","ios":"levelo://app?vid=4a067542-9106-477f-82fc-1ecda7f88427"},"vehicle_type_id":"4","last_reported":1742206262,"current_range_meters":7200,"station_id":"ce4bhlh2rcd13ifvqgig","pricing_plan_id":"cebpf4jnsgd1na2vs0mg"},{"bike_id":"259ffcdf-e02f-4aa6-8661-d47427a437c7","system_id":"levelo_inurba_marseille","lat":43.23149,"lon":5.43726,"is_reserved":false,"is_disabled":false,"rental_uris":{"android":"levelo://app?vid=259ffcdf-e02f-4aa6-8661-d47427a437c7","ios":"levelo://app?vid=259ffcdf-e02f-4aa6-8661-d47427a437c7"},"vehicle_type_id":"4","last_reported":1742206262,"current_range_meters":8000,"station_id":"ce4bhmp2rcd13ifvqgog","pricing_plan_id":"cebpf4jnsgd1na2vs0mg"},{"bike_id":"3be3659a-369a-4f98-bfe5-74092994e9ee","system_id":"levelo_inurba_marseille","lat":43.29614,"lon":5.38104,"is_reserved":false,"is_disabled":false,"rental_uris":{"android":"levelo://app?vid=3be3659a-369a-4f98-bfe5-74092994e9ee","ios":"levelo://app?vid=3be3659a-369a-4f98-bfe5-74092994e9ee"},"vehicle_type_id":"4","last_reported":1742206262,"current_range_meters":8000,"station_id":"ce4bgl12rcd13ifvqbo0","pricing_plan_id":"cebpf4jnsgd1na2vs0mg"},{"bike_id":"36058833-eb2f-49b9-a1a1-c396d764f0b4","system_id":"levelo_inurba_marseille","lat":43.23195,"lon":5.35553,"is_reserved":false,"is_disabled":false,"rental_uris":{"android":"levelo://app?vid=36058833-eb2f-49b9-a1a1-c396d764f0b4","ios":"levelo://app?vid=36058833-eb2f-49b9-a1a1-c396d764f0b4"},"vehicle_type_id":"4","last_reported":1742206262,"current_range_meters":8000,"station_id":"ce4bhu92rcd13ifvqi70","pricing_plan_id":"cebpf4jnsgd1na2vs0mg"},{"bike_id":"0a75b9be-4843-49b8-b389-4ce031569179","system_id":"levelo_inurba_marseille","lat":43.27964,"lon":5.4079,"is_reserved":false,"is_disabled":false,"rental_uris":{"android":"levelo://app?vid=0a75b9be-4843-49b8-b389-4ce031569179","ios":"levelo://app?vid=0a75b9be-4843-49b8-b389-4ce031569179"},"vehicle_type_id":"4","last_reported":1742206262,"current_range_meters":8000,"station_id":"","pricing_plan_id":"cebpf4jnsgd1na2vs0mg"},{"bike_id":"17d88914-0177-4c03-bf29-f7792a307990","system_id":"levelo_inurba_marseille","lat":43.28496,"lon":5.38573,"is_reserved":false,"is_disabled":false,"rental_uris":{"android":"levelo://app?vid=17d88914-0177-4c03-bf29-f7792a307990","ios":"levelo://app?vid=17d88914-0177-4c03-bf29-f7792a307990"},"vehicle_type_id":"4","last_reported":1742206262,"current_range_meters":8000,"station_id":"ce4bh8p2rcd13ifvqeb0","pricing_plan_id":"cebpf4jnsgd1na2vs0mg"},{"bike_id":"a31c8df7-fe0f-4a8b-bce2-dd8072b090f5","system_id":"levelo_inurba_marseille","lat":43.290916,"lon":5.381223,"is_reserved":false,"is_disabled":false,"rental_uris":{"android":"levelo://app?vid=a31c8df7-fe0f-4a8b-bce2-dd8072b090f5","ios":"levelo://app?vid=a31c8df7-fe0f-4a8b-bce2-dd8072b090f5"},"vehicle_type_id":"4","last_reported":1742206262,"current_range_meters":8000,"station_id":"ce4bh512rcd13ifvqe2g","pricing_plan_id":"cebpf4jnsgd1na2vs0mg"},{"bike_id":"2f97e577-a7f2-47bf-ab29-204992553693","system_id":"levelo_inurba_marseille","lat":43.24093,"lon":5.37767,"is_reserved":false,"is_disabled":false,"rental_uris":{"android":"levelo://app?vid=2f97e577-a7f2-47bf-ab29-204992553693","ios":"levelo://app?vid=2f97e577-a7f2-47bf-ab29-204992553693"},"vehicle_type_id":"4","last_reported":1742206262,"current_range_meters":8000,"station_id":"ce4bhnp2rcd13ifvqgvg","pricing_plan_id":"cebpf4jnsgd1na2vs0mg"},{"bike_id":"2e93b8fd-3cc5-47fd-be6f-2a7e66fa1616","system_id":"levelo_inurba_marseille","lat":43.26552,"lon":5.39016,"is_reserved":false,"is_disabled":false,"rental_uris":{"android":"levelo://app?vid=2e93b8fd-3cc5-47fd-be6f-2a7e66fa1616","ios":"levelo://app?vid=2e93b8fd-3cc5-47fd-be6f-2a7e66fa1616"},"vehicle_type_id":"4","last_reported":1742206262,"current_range_meters":8000,"station_id":"ce4bhe12rcd13ifvqf30","pricing_plan_id":"cebpf4jnsgd1na2vs0mg"},{"bike_id":"5a88b40b-20fd-47ab-bb97-24b5db4ba5ac","system_id":"levelo_inurba_marseille","lat":43.28976,"lon":5.37831,"is_reserved":false,"is_disabled":false,"rental_uris":{"android":"levelo://app?vid=5a88b40b-20fd-47ab-bb97-24b5db4ba5ac","ios":"levelo://app?vid=5a88b40b-20fd-47ab-bb97-24b5db4ba5ac"},"vehicle_type_id":"4","last_reported":1742206262,"current_range_meters":8000,"station_id":"ce4bh9p2rcd13ifvqed0","pricing_plan_id":"cebpf4jnsgd1na2vs0mg"},{"bike_id":"18f33ae7-3acb-407d-a5a7-4c104a302f2a","system_id":"levelo_inurba_marseille","lat":43.27621,"lon":5.36114,"is_reserved":false,"is_disabled":false,"rental_uris":{"android":"levelo://app?vid=18f33ae7-3acb-407d-a5a7-4c104a302f2a","ios":"levelo://app?vid=18f33ae7-3acb-407d-a5a7-4c104a302f2a"},"vehicle_type_id":"4","last_reported":1742206262,"current_range_meters":8000,"station_id":"ce4bgj92rcd13ifvqbe0","pricing_plan_id":"cebpf4jnsgd1na2vs0mg"},{"bike_id":"41d856e8-014d-42b4-85e9-2a0a980f469f","system_id":"levelo_inurba_marseille","lat":43.23196,"lon":5.35554,"is_reserved":false,"is_disabled":false,"rental_uris":{"android":"levelo://app?vid=41d856e8-014d-42b4-85e9-2a0a980f469f","ios":"levelo://app?vid=41d856e8-014d-42b4-85e9-2a0a980f469f"},"vehicle_type_id":"4","last_reported":1742206262,"current_range_meters":8400,"station_id":"ce4bhu92rcd13ifvqi70","pricing_plan_id":"cebpf4jnsgd1na2vs0mg"},{"bike_id":"6673e1dd-b2a0-4430-a3f2-280134dfa9f0","system_id":"levelo_inurba_marseille","lat":43.24669,"lon":5.38162,"is_reserved":false,"is_disabled":false,"rental_uris":{"android":"levelo://app?vid=6673e1dd-b2a0-4430-a3f2-280134dfa9f0","ios":"levelo://app?vid=6673e1dd-b2a0-4430-a3f2-280134dfa9f0"},"vehicle_type_id":"4","last_reported":1742206262,"current_range_meters":8400,"station_id":"ce4bhih2rcd13ifvqfr0","pricing_plan_id":"cebpf4jnsgd1na2vs0mg"},{"bike_id":"a8c8c1f0-a998-4767-9090-6c6fc8c99a5b","system_id":"levelo_inurba_marseille","lat":43.25002,"lon":5.38935,"is_reserved":false,"is_disabled":false,"rental_uris":{"android":"levelo://app?vid=a8c8c1f0-a998-4767-9090-6c6fc8c99a5b","ios":"levelo://app?vid=a8c8c1f0-a998-4767-9090-6c6fc8c99a5b"},"vehicle_type_id":"4","last_reported":1742206262,"current_range_meters":8400,"station_id":"ce4bhgp2rcd13ifvqfd0","pricing_plan_id":"cebpf4jnsgd1na2vs0mg"},{"bike_id":"1dc56abc-d35a-4122-afd5-5d4b98485b50","system_id":"levelo_inurba_marseille","lat":43.29869,"lon":5.3973,"is_reserved":false,"is_disabled":false,"rental_uris":{"android":"levelo://app?vid=1dc56abc-d35a-4122-afd5-5d4b98485b50","ios":"levelo://app?vid=1dc56abc-d35a-4122-afd5-5d4b98485b50"},"vehicle_type_id":"4","last_reported":1742206262,"current_range_meters":8400,"station_id":"ce4bh0h2rcd13ifvqd50","pricing_plan_id":"cebpf4jnsgd1na2vs0mg"},{"bike_id":"e766d4bd-6b7c-4d07-b5d7-3a787f62c622","system_id":"levelo_inurba_marseille","lat":43.27501,"lon":5.42457,"is_reserved":false,"is_disabled":false,"rental_uris":{"android":"levelo://app?vid=e766d4bd-6b7c-4d07-b5d7-3a787f62c622","ios":"levelo://app?vid=e766d4bd-6b7c-4d07-b5d7-3a787f62c622"},"vehicle_type_id":"4","last_reported":1742206262,"current_range_meters":8400,"station_id":"ce4bhn92rcd13ifvqgrg","pricing_plan_id":"cebpf4jnsgd1na2vs0mg"},{"bike_id":"2e6c3038-6eb8-46ce-bd43-53f0733e5db9","system_id":"levelo_inurba_marseille","lat":43.32128,"lon":5.36764,"is_reserved":false,"is_disabled":false,"rental_uris":{"android":"levelo://app?vid=2e6c3038-6eb8-46ce-bd43-53f0733e5db9","ios":"levelo://app?vid=2e6c3038-6eb8-46ce-bd43-53f0733e5db9"},"vehicle_type_id":"4","last_reported":1742206262,"current_range_meters":8400,"station_id":"ce4bhrh2rcd13ifvqhug","pricing_plan_id":"cebpf4jnsgd1na2vs0mg"},{"bike_id":"9a7b26d5-0d7d-4651-9efe-a9b362edbea6","system_id":"levelo_inurba_marseille","lat":43.24665,"lon":5.38159,"is_reserved":false,"is_disabled":false,"rental_uris":{"android":"levelo://app?vid=9a7b26d5-0d7d-4651-9efe-a9b362edbea6","ios":"levelo://app?vid=9a7b26d5-0d7d-4651-9efe-a9b362edbea6"},"vehicle_type_id":"4","last_reported":1742206262,"current_range_meters":8400,"station_id":"ce4bhih2rcd13ifvqfr0","pricing_plan_id":"cebpf4jnsgd1na2vs0mg"},{"bike_id":"7fdaba83-9e71-4d79-962d-8e9bcb4ba61b","system_id":"levelo_inurba_marseille","lat":43.23199,"lon":5.35559,"is_reserved":false,"is_disabled":false,"rental_uris":{"android":"levelo://app?vid=7fdaba83-9e71-4d79-962d-8e9bcb4ba61b","ios":"levelo://app?vid=7fdaba83-9e71-4d79-962d-8e9bcb4ba61b"},"vehicle_type_id":"4","last_reported":1742206262,"current_range_meters":8400,"station_id":"ce4bhu92rcd13ifvqi70","pricing_plan_id":"cebpf4jnsgd1na2vs0mg"},{"bike_id":"10a5dfbf-3aa3-4cf3-ac17-cd4d12fd6782","system_id":"levelo_inurba_marseille","lat":43.32374,"lon":5.36746,"is_reserved":false,"is_disabled":false,"rental_uris":{"android":"levelo://app?vid=10a5dfbf-3aa3-4cf3-ac17-cd4d12fd6782","ios":"levelo://app?vid=10a5dfbf-3aa3-4cf3-ac17-cd4d12fd6782"},"vehicle_type_id":"4","last_reported":1742206262,"current_range_meters":8400,"station_id":"ce4bhsh2rcd13ifvqi2g","pricing_plan_id":"cebpf4jnsgd1na2vs0mg"},{"bike_id":"b12504a2-a649-4e69-8759-4dc56a1cd8bd","system_id":"levelo_inurba_marseille","lat":43.27881,"lon":5.38253,"is_reserved":false,"is_disabled":false,"rental_uris":{"android":"levelo://app?vid=b12504a2-a649-4e69-8759-4dc56a1cd8bd","ios":"levelo://app?vid=b12504a2-a649-4e69-8759-4dc56a1cd8bd"},"vehicle_type_id":"4","last_reported":1742206262,"current_range_meters":8400,"station_id":"","pricing_plan_id":"cebpf4jnsgd1na2vs0mg"},{"bike_id":"d6f33984-2a1d-45ad-b419-93446d1bd8ae","system_id":"levelo_inurba_marseille","lat":43.24661,"lon":5.38885,"is_reserved":false,"is_disabled":false,"rental_uris":{"android":"levelo://app?vid=d6f33984-2a1d-45ad-b419-93446d1bd8ae","ios":"levelo://app?vid=d6f33984-2a1d-45ad-b419-93446d1bd8ae"},"vehicle_type_id":"4","last_reported":1742206262,"current_range_meters":8400,"station_id":"ce4bhg12rcd13ifvqf60","pricing_plan_id":"cebpf4jnsgd1na2vs0mg"},{"bike_id":"943e2592-e7dc-4744-b124-bd42810ccefb","system_id":"levelo_inurba_marseille","lat":43.27507,"lon":5.42457,"is_reserved":false,"is_disabled":false,"rental_uris":{"android":"levelo://app?vid=943e2592-e7dc-4744-b124-bd42810ccefb","ios":"levelo://app?vid=943e2592-e7dc-4744-b124-bd42810ccefb"},"vehicle_type_id":"4","last_reported":1742206262,"current_range_meters":8400,"station_id":"ce4bhn92rcd13ifvqgrg","pricing_plan_id":"cebpf4jnsgd1na2vs0mg"},{"bike_id":"49fea2c2-9361-4fb5-954f-b44bbf354e43","system_id":"levelo_inurba_marseille","lat":43.32363,"lon":5.36745,"is_reserved":false,"is_disabled":false,"rental_uris":{"android":"levelo://app?vid=49fea2c2-9361-4fb5-954f-b44bbf354e43","ios":"levelo://app?vid=49fea2c2-9361-4fb5-954f-b44bbf354e43"},"vehicle_type_id":"4","last_reported":1742206262,"current_range_meters":8400,"station_id":"ce4bhsh2rcd13ifvqi2g","pricing_plan_id":"cebpf4jnsgd1na2vs0mg"},{"bike_id":"48a9c9b3-bf85-49d0-80aa-f26eb84ba59b","system_id":"levelo_inurba_marseille","lat":43.29142,"lon":5.39989,"is_reserved":false,"is_disabled":true,"rental_uris":{"android":"levelo://app?vid=48a9c9b3-bf85-49d0-80aa-f26eb84ba59b","ios":"levelo://app?vid=48a9c9b3-bf85-49d0-80aa-f26eb84ba59b"},"vehicle_type_id":"4","last_reported":1742206262,"current_range_meters":8800,"station_id":"","pricing_plan_id":"cebpf4jnsgd1na2vs0mg"},{"bike_id":"e292f972-6a18-423d-adc0-1431f7960fd2","system_id":"levelo_inurba_marseille","lat":43.27902,"lon":5.38012,"is_reserved":false,"is_disabled":false,"rental_uris":{"android":"levelo://app?vid=e292f972-6a18-423d-adc0-1431f7960fd2","ios":"levelo://app?vid=e292f972-6a18-423d-adc0-1431f7960fd2"},"vehicle_type_id":"4","last_reported":1742206262,"current_range_meters":8800,"station_id":"ce4bhf92rcd13ifvqf50","pricing_plan_id":"cebpf4jnsgd1na2vs0mg"},{"bike_id":"d6cd0df4-ca0d-407c-ac60-8420479f0dd1","system_id":"levelo_inurba_marseille","lat":43.23064,"lon":5.35489,"is_reserved":false,"is_disabled":false,"rental_uris":{"android":"levelo://app?vid=d6cd0df4-ca0d-407c-ac60-8420479f0dd1","ios":"levelo://app?vid=d6cd0df4-ca0d-407c-ac60-8420479f0dd1"},"vehicle_type_id":"4","last_reported":1742206262,"current_range_meters":8800,"station_id":"cpo3342slgdg3j2ifvpg","pricing_plan_id":"cebpf4jnsgd1na2vs0mg"},{"bike_id":"5a61a616-683f-484d-83ae-d7f61143d634","system_id":"levelo_inurba_marseille","lat":43.29514,"lon":5.42476,"is_reserved":false,"is_disabled":false,"rental_uris":{"android":"levelo://app?vid=5a61a616-683f-484d-83ae-d7f61143d634","ios":"levelo://app?vid=5a61a616-683f-484d-83ae-d7f61143d634"},"vehicle_type_id":"4","last_reported":1742206262,"current_range_meters":8800,"station_id":"","pricing_plan_id":"cebpf4jnsgd1na2vs0mg"},{"bike_id":"ce157c99-2b38-44c1-b6a5-db708ae225d5","system_id":"levelo_inurba_marseille","lat":43.24186,"lon":5.37982,"is_reserved":false,"is_disabled":false,"rental_uris":{"android":"levelo://app?vid=ce157c99-2b38-44c1-b6a5-db708ae225d5","ios":"levelo://app?vid=ce157c99-2b38-44c1-b6a5-db708ae225d5"},"vehicle_type_id":"4","last_reported":1742206262,"current_range_meters":8800,"station_id":"","pricing_plan_id":"cebpf4jnsgd1na2vs0mg"},{"bike_id":"502a3b3e-8957-45c1-a4dd-1cb7cf5ee2e2","system_id":"levelo_inurba_marseille","lat":43.32121,"lon":5.3675,"is_reserved":false,"is_disabled":false,"rental_uris":{"android":"levelo://app?vid=502a3b3e-8957-45c1-a4dd-1cb7cf5ee2e2","ios":"levelo://app?vid=502a3b3e-8957-45c1-a4dd-1cb7cf5ee2e2"},"vehicle_type_id":"4","last_reported":1742206262,"current_range_meters":8800,"station_id":"ce4bhrh2rcd13ifvqhug","pricing_plan_id":"cebpf4jnsgd1na2vs0mg"},{"bike_id":"c7f8452f-9cc0-4827-a61e-fe5e0ea51505","system_id":"levelo_inurba_marseille","lat":43.30144,"lon":5.38071,"is_reserved":false,"is_disabled":false,"rental_uris":{"android":"levelo://app?vid=c7f8452f-9cc0-4827-a61e-fe5e0ea51505","ios":"levelo://app?vid=c7f8452f-9cc0-4827-a61e-fe5e0ea51505"},"vehicle_type_id":"4","last_reported":1742206262,"current_range_meters":8800,"station_id":"ce4bgjp2rcd13ifvqbh0","pricing_plan_id":"cebpf4jnsgd1na2vs0mg"},{"bike_id":"cbb8a982-e432-41b2-ac3e-aabd84caab0b","system_id":"levelo_inurba_marseille","lat":43.24666,"lon":5.38184,"is_reserved":false,"is_disabled":false,"rental_uris":{"android":"levelo://app?vid=cbb8a982-e432-41b2-ac3e-aabd84caab0b","ios":"levelo://app?vid=cbb8a982-e432-41b2-ac3e-aabd84caab0b"},"vehicle_type_id":"4","last_reported":1742206262,"current_range_meters":8800,"station_id":"ce4bhih2rcd13ifvqfr0","pricing_plan_id":"cebpf4jnsgd1na2vs0mg"},{"bike_id":"453da4ad-03fa-49f7-81a4-3afa49980480","system_id":"levelo_inurba_marseille","lat":43.29193,"lon":5.35805,"is_reserved":false,"is_disabled":false,"rental_uris":{"android":"levelo://app?vid=453da4ad-03fa-49f7-81a4-3afa49980480","ios":"levelo://app?vid=453da4ad-03fa-49f7-81a4-3afa49980480"},"vehicle_type_id":"4","last_reported":1742206262,"current_range_meters":8800,"station_id":"ce4bhb12rcd13ifvqel0","pricing_plan_id":"cebpf4jnsgd1na2vs0mg"},{"bike_id":"78e32fc4-d9a1-4f2f-a02b-0b8c25d49e2c","system_id":"levelo_inurba_marseille","lat":43.29029,"lon":5.37552,"is_reserved":false,"is_disabled":false,"rental_uris":{"android":"levelo://app?vid=78e32fc4-d9a1-4f2f-a02b-0b8c25d49e2c","ios":"levelo://app?vid=78e32fc4-d9a1-4f2f-a02b-0b8c25d49e2c"},"vehicle_type_id":"4","last_reported":1742206262,"current_range_meters":9200,"station_id":"ce4bh692rcd13ifvqe90","pricing_plan_id":"cebpf4jnsgd1na2vs0mg"},{"bike_id":"c551f2e0-5f8e-4cc9-9464-06b9d0710638","system_id":"levelo_inurba_marseille","lat":43.23154,"lon":5.43704,"is_reserved":false,"is_disabled":false,"rental_uris":{"android":"levelo://app?vid=c551f2e0-5f8e-4cc9-9464-06b9d0710638","ios":"levelo://app?vid=c551f2e0-5f8e-4cc9-9464-06b9d0710638"},"vehicle_type_id":"4","last_reported":1742206262,"current_range_meters":9200,"station_id":"ce4bhmp2rcd13ifvqgog","pricing_plan_id":"cebpf4jnsgd1na2vs0mg"},{"bike_id":"ad85b417-eae8-4211-9daa-e6a455b825e7","system_id":"levelo_inurba_marseille","lat":43.31272,"lon":5.3681,"is_reserved":false,"is_disabled":false,"rental_uris":{"android":"levelo://app?vid=ad85b417-eae8-4211-9daa-e6a455b825e7","ios":"levelo://app?vid=ad85b417-eae8-4211-9daa-e6a455b825e7"},"vehicle_type_id":"4","last_reported":1742206262,"current_range_meters":9200,"station_id":"ce4bgl92rcd13ifvqbq0","pricing_plan_id":"cebpf4jnsgd1na2vs0mg"},{"bike_id":"a3942ba9-3a03-4b87-bebd-567f1def1e14","system_id":"levelo_inurba_marseille","lat":43.28684,"lon":5.38322,"is_reserved":false,"is_disabled":false,"rental_uris":{"android":"levelo://app?vid=a3942ba9-3a03-4b87-bebd-567f1def1e14","ios":"levelo://app?vid=a3942ba9-3a03-4b87-bebd-567f1def1e14"},"vehicle_type_id":"4","last_reported":1742206262,"current_range_meters":9200,"station_id":"ce4bhbp2rcd13ifvqerg","pricing_plan_id":"cebpf4jnsgd1na2vs0mg"},{"bike_id":"f864fa5e-b9f7-4d5d-951c-d469c9398aee","system_id":"levelo_inurba_marseille","lat":43.246693,"lon":5.381551,"is_reserved":false,"is_disabled":false,"rental_uris":{"android":"levelo://app?vid=f864fa5e-b9f7-4d5d-951c-d469c9398aee","ios":"levelo://app?vid=f864fa5e-b9f7-4d5d-951c-d469c9398aee"},"vehicle_type_id":"4","last_reported":1742206262,"current_range_meters":9200,"station_id":"ce4bhih2rcd13ifvqfr0","pricing_plan_id":"cebpf4jnsgd1na2vs0mg"},{"bike_id":"a0226cb6-2cfc-439f-8908-87824371f5c4","system_id":"levelo_inurba_marseille","lat":43.27082,"lon":5.42263,"is_reserved":false,"is_disabled":false,"rental_uris":{"android":"levelo://app?vid=a0226cb6-2cfc-439f-8908-87824371f5c4","ios":"levelo://app?vid=a0226cb6-2cfc-439f-8908-87824371f5c4"},"vehicle_type_id":"4","last_reported":1742206262,"current_range_meters":9200,"station_id":"ce4bhk92rcd13ifvqgb0","pricing_plan_id":"cebpf4jnsgd1na2vs0mg"},{"bike_id":"ea3faa2e-2727-4cd3-a354-57574da4893b","system_id":"levelo_inurba_marseille","lat":43.24171,"lon":5.36417,"is_reserved":false,"is_disabled":false,"rental_uris":{"android":"levelo://app?vid=ea3faa2e-2727-4cd3-a354-57574da4893b","ios":"levelo://app?vid=ea3faa2e-2727-4cd3-a354-57574da4893b"},"vehicle_type_id":"4","last_reported":1742206262,"current_range_meters":9200,"station_id":"cpo36qri1sfpv3e86is0","pricing_plan_id":"cebpf4jnsgd1na2vs0mg"},{"bike_id":"e39aff96-0142-46d0-807b-703830dfcf78","system_id":"levelo_inurba_marseille","lat":43.286136,"lon":5.35108,"is_reserved":false,"is_disabled":true,"rental_uris":{"android":"levelo://app?vid=e39aff96-0142-46d0-807b-703830dfcf78","ios":"levelo://app?vid=e39aff96-0142-46d0-807b-703830dfcf78"},"vehicle_type_id":"4","last_reported":1742206262,"current_range_meters":9200,"station_id":"","pricing_plan_id":"cebpf4jnsgd1na2vs0mg"},{"bike_id":"4997c421-f8dd-4894-80e9-9b3609736005","system_id":"levelo_inurba_marseille","lat":43.26558,"lon":5.37282,"is_reserved":false,"is_disabled":false,"rental_uris":{"android":"levelo://app?vid=4997c421-f8dd-4894-80e9-9b3609736005","ios":"levelo://app?vid=4997c421-f8dd-4894-80e9-9b3609736005"},"vehicle_type_id":"4","last_reported":1742206262,"current_range_meters":9200,"station_id":"ce4bhg12rcd13ifvqf70","pricing_plan_id":"cebpf4jnsgd1na2vs0mg"},{"bike_id":"db819791-27c1-48de-91ad-79208088cf91","system_id":"levelo_inurba_marseille","lat":43.23192,"lon":5.3997,"is_reserved":false,"is_disabled":false,"rental_uris":{"android":"levelo://app?vid=db819791-27c1-48de-91ad-79208088cf91","ios":"levelo://app?vid=db819791-27c1-48de-91ad-79208088cf91"},"vehicle_type_id":"4","last_reported":1742206262,"current_range_meters":9200,"station_id":"ce4bhn12rcd13ifvqgqg","pricing_plan_id":"cebpf4jnsgd1na2vs0mg"},{"bike_id":"3ebd1dc8-a44d-4161-b4c5-71c3657e5dab","system_id":"levelo_inurba_marseille","lat":43.2623,"lon":5.37452,"is_reserved":false,"is_disabled":false,"rental_uris":{"android":"levelo://app?vid=3ebd1dc8-a44d-4161-b4c5-71c3657e5dab","ios":"levelo://app?vid=3ebd1dc8-a44d-4161-b4c5-71c3657e5dab"},"vehicle_type_id":"4","last_reported":1742206262,"current_range_meters":9600,"station_id":"ce4bhgp2rcd13ifvqfc0","pricing_plan_id":"cebpf4jnsgd1na2vs0mg"},{"bike_id":"e780d8bb-7fae-442e-90ed-61bbb93fc0ee","system_id":"levelo_inurba_marseille","lat":43.2621,"lon":5.37445,"is_reserved":false,"is_disabled":false,"rental_uris":{"android":"levelo://app?vid=e780d8bb-7fae-442e-90ed-61bbb93fc0ee","ios":"levelo://app?vid=e780d8bb-7fae-442e-90ed-61bbb93fc0ee"},"vehicle_type_id":"4","last_reported":1742206262,"current_range_meters":9600,"station_id":"ce4bhgp2rcd13ifvqfc0","pricing_plan_id":"cebpf4jnsgd1na2vs0mg"},{"bike_id":"df9cc512-6172-4e04-b83c-43f2587fcc22","system_id":"levelo_inurba_marseille","lat":43.298,"lon":5.40398,"is_reserved":false,"is_disabled":true,"rental_uris":{"android":"levelo://app?vid=df9cc512-6172-4e04-b83c-43f2587fcc22","ios":"levelo://app?vid=df9cc512-6172-4e04-b83c-43f2587fcc22"},"vehicle_type_id":"4","last_reported":1742206262,"current_range_meters":9200,"station_id":"ce4bh112rcd13ifvqd90","pricing_plan_id":"cebpf4jnsgd1na2vs0mg"},{"bike_id":"13e278b3-c9cb-4550-ad8b-8b4c511558ae","system_id":"levelo_inurba_marseille","lat":43.27468,"lon":5.40884,"is_reserved":false,"is_disabled":false,"rental_uris":{"android":"levelo://app?vid=13e278b3-c9cb-4550-ad8b-8b4c511558ae","ios":"levelo://app?vid=13e278b3-c9cb-4550-ad8b-8b4c511558ae"},"vehicle_type_id":"4","last_reported":1742206262,"current_range_meters":9600,"station_id":"","pricing_plan_id":"cebpf4jnsgd1na2vs0mg"},{"bike_id":"4ba9aef4-c0df-45f8-af35-3e67b1ba2b78","system_id":"levelo_inurba_marseille","lat":43.25947,"lon":5.40882,"is_reserved":false,"is_disabled":false,"rental_uris":{"android":"levelo://app?vid=4ba9aef4-c0df-45f8-af35-3e67b1ba2b78","ios":"levelo://app?vid=4ba9aef4-c0df-45f8-af35-3e67b1ba2b78"},"vehicle_type_id":"4","last_reported":1742206262,"current_range_meters":9600,"station_id":"ce4bhm92rcd13ifvqglg","pricing_plan_id":"cebpf4jnsgd1na2vs0mg"},{"bike_id":"a03e208e-94c1-4a5f-9d61-9150c74ebe8c","system_id":"levelo_inurba_marseille","lat":43.32359,"lon":5.36751,"is_reserved":false,"is_disabled":false,"rental_uris":{"android":"levelo://app?vid=a03e208e-94c1-4a5f-9d61-9150c74ebe8c","ios":"levelo://app?vid=a03e208e-94c1-4a5f-9d61-9150c74ebe8c"},"vehicle_type_id":"4","last_reported":1742206262,"current_range_meters":9600,"station_id":"ce4bhsh2rcd13ifvqi2g","pricing_plan_id":"cebpf4jnsgd1na2vs0mg"},{"bike_id":"2f70f096-b164-491c-b8e4-7278dafe208a","system_id":"levelo_inurba_marseille","lat":43.29793,"lon":5.38102,"is_reserved":false,"is_disabled":false,"rental_uris":{"android":"levelo://app?vid=2f70f096-b164-491c-b8e4-7278dafe208a","ios":"levelo://app?vid=2f70f096-b164-491c-b8e4-7278dafe208a"},"vehicle_type_id":"4","last_reported":1742206262,"current_range_meters":9600,"station_id":"ce4bgip2rcd13ifvqbb0","pricing_plan_id":"cebpf4jnsgd1na2vs0mg"},{"bike_id":"dba0ecfc-0bb7-4670-ab8e-e4c122a8d90e","system_id":"levelo_inurba_marseille","lat":43.27621,"lon":5.42476,"is_reserved":false,"is_disabled":false,"rental_uris":{"android":"levelo://app?vid=dba0ecfc-0bb7-4670-ab8e-e4c122a8d90e","ios":"levelo://app?vid=dba0ecfc-0bb7-4670-ab8e-e4c122a8d90e"},"vehicle_type_id":"4","last_reported":1742206262,"current_range_meters":9600,"station_id":"","pricing_plan_id":"cebpf4jnsgd1na2vs0mg"},{"bike_id":"e4a26db1-a1ed-433f-a600-f7194d3b3405","system_id":"levelo_inurba_marseille","lat":43.31327,"lon":5.39696,"is_reserved":false,"is_disabled":false,"rental_uris":{"android":"levelo://app?vid=e4a26db1-a1ed-433f-a600-f7194d3b3405","ios":"levelo://app?vid=e4a26db1-a1ed-433f-a600-f7194d3b3405"},"vehicle_type_id":"4","last_reported":1742206262,"current_range_meters":9600,"station_id":"ce4bgvp2rcd13ifvqcu0","pricing_plan_id":"cebpf4jnsgd1na2vs0mg"},{"bike_id":"22f91581-7b0f-401a-a74e-9ec8629443f4","system_id":"levelo_inurba_marseille","lat":43.29072,"lon":5.42362,"is_reserved":false,"is_disabled":false,"rental_uris":{"android":"levelo://app?vid=22f91581-7b0f-401a-a74e-9ec8629443f4","ios":"levelo://app?vid=22f91581-7b0f-401a-a74e-9ec8629443f4"},"vehicle_type_id":"4","last_reported":1742206262,"current_range_meters":9600,"station_id":"","pricing_plan_id":"cebpf4jnsgd1na2vs0mg"},{"bike_id":"19452eed-d82c-486d-9e09-02ab2b36db5b","system_id":"levelo_inurba_marseille","lat":43.29245,"lon":5.40916,"is_reserved":false,"is_disabled":false,"rental_uris":{"android":"levelo://app?vid=19452eed-d82c-486d-9e09-02ab2b36db5b","ios":"levelo://app?vid=19452eed-d82c-486d-9e09-02ab2b36db5b"},"vehicle_type_id":"4","last_reported":1742206262,"current_range_meters":10000,"station_id":"ce4bh192rcd13ifvqdc0","pricing_plan_id":"cebpf4jnsgd1na2vs0mg"},{"bike_id":"a80b708e-9960-477b-bb7d-a21f3fdfea6d","system_id":"levelo_inurba_marseille","lat":43.23181,"lon":5.39994,"is_reserved":false,"is_disabled":false,"rental_uris":{"android":"levelo://app?vid=a80b708e-9960-477b-bb7d-a21f3fdfea6d","ios":"levelo://app?vid=a80b708e-9960-477b-bb7d-a21f3fdfea6d"},"vehicle_type_id":"4","last_reported":1742206262,"current_range_meters":10000,"station_id":"ce4bhn12rcd13ifvqgqg","pricing_plan_id":"cebpf4jnsgd1na2vs0mg"},{"bike_id":"daa64a4c-e75c-4c33-be8d-5dbfe196e948","system_id":"levelo_inurba_marseille","lat":43.25953,"lon":5.40897,"is_reserved":false,"is_disabled":false,"rental_uris":{"android":"levelo://app?vid=daa64a4c-e75c-4c33-be8d-5dbfe196e948","ios":"levelo://app?vid=daa64a4c-e75c-4c33-be8d-5dbfe196e948"},"vehicle_type_id":"4","last_reported":1742206262,"current_range_meters":10000,"station_id":"ce4bhm92rcd13ifvqglg","pricing_plan_id":"cebpf4jnsgd1na2vs0mg"},{"bike_id":"607b9e25-1410-4db6-90a4-6ec685303db3","system_id":"levelo_inurba_marseille","lat":43.30547,"lon":5.365233,"is_reserved":false,"is_disabled":false,"rental_uris":{"android":"levelo://app?vid=607b9e25-1410-4db6-90a4-6ec685303db3","ios":"levelo://app?vid=607b9e25-1410-4db6-90a4-6ec685303db3"},"vehicle_type_id":"4","last_reported":1742206262,"current_range_meters":10000,"station_id":"ce4bgs12rcd13ifvqcag","pricing_plan_id":"cebpf4jnsgd1na2vs0mg"},{"bike_id":"0dba11c1-db3c-4349-bd60-4c1ec38c51b3","system_id":"levelo_inurba_marseille","lat":43.23204,"lon":5.35545,"is_reserved":false,"is_disabled":false,"rental_uris":{"android":"levelo://app?vid=0dba11c1-db3c-4349-bd60-4c1ec38c51b3","ios":"levelo://app?vid=0dba11c1-db3c-4349-bd60-4c1ec38c51b3"},"vehicle_type_id":"4","last_reported":1742206262,"current_range_meters":10000,"station_id":"ce4bhu92rcd13ifvqi70","pricing_plan_id":"cebpf4jnsgd1na2vs0mg"},{"bike_id":"024afde3-4c7e-4c72-9b6e-ff99a57526a9","system_id":"levelo_inurba_marseille","lat":43.23048,"lon":5.35494,"is_reserved":false,"is_disabled":false,"rental_uris":{"android":"levelo://app?vid=024afde3-4c7e-4c72-9b6e-ff99a57526a9","ios":"levelo://app?vid=024afde3-4c7e-4c72-9b6e-ff99a57526a9"},"vehicle_type_id":"4","last_reported":1742206262,"current_range_meters":10000,"station_id":"cpo3342slgdg3j2ifvpg","pricing_plan_id":"cebpf4jnsgd1na2vs0mg"},{"bike_id":"840483eb-dec7-490f-b669-ee3773ac063c","system_id":"levelo_inurba_marseille","lat":43.29272,"lon":5.36847,"is_reserved":false,"is_disabled":true,"rental_uris":{"android":"levelo://app?vid=840483eb-dec7-490f-b669-ee3773ac063c","ios":"levelo://app?vid=840483eb-dec7-490f-b669-ee3773ac063c"},"vehicle_type_id":"4","last_reported":1742206262,"current_range_meters":10000,"station_id":"ce4bhbp2rcd13ifvqesg","pricing_plan_id":"cebpf4jnsgd1na2vs0mg"},{"bike_id":"5a4a7d35-0ef8-41e9-9195-6b8c171d9e40","system_id":"levelo_inurba_marseille","lat":43.25952,"lon":5.40897,"is_reserved":false,"is_disabled":false,"rental_uris":{"android":"levelo://app?vid=5a4a7d35-0ef8-41e9-9195-6b8c171d9e40","ios":"levelo://app?vid=5a4a7d35-0ef8-41e9-9195-6b8c171d9e40"},"vehicle_type_id":"4","last_reported":1742206262,"current_range_meters":10000,"station_id":"ce4bhm92rcd13ifvqglg","pricing_plan_id":"cebpf4jnsgd1na2vs0mg"},{"bike_id":"acae015a-47e9-488b-96c7-da5370995513","system_id":"levelo_inurba_marseille","lat":43.23204,"lon":5.35559,"is_reserved":false,"is_disabled":false,"rental_uris":{"android":"levelo://app?vid=acae015a-47e9-488b-96c7-da5370995513","ios":"levelo://app?vid=acae015a-47e9-488b-96c7-da5370995513"},"vehicle_type_id":"4","last_reported":1742206262,"current_range_meters":10000,"station_id":"ce4bhu92rcd13ifvqi70","pricing_plan_id":"cebpf4jnsgd1na2vs0mg"},{"bike_id":"f6ea2adf-076d-4022-9ca9-c0c59511cfd5","system_id":"levelo_inurba_marseille","lat":43.23206,"lon":5.35548,"is_reserved":false,"is_disabled":false,"rental_uris":{"android":"levelo://app?vid=f6ea2adf-076d-4022-9ca9-c0c59511cfd5","ios":"levelo://app?vid=f6ea2adf-076d-4022-9ca9-c0c59511cfd5"},"vehicle_type_id":"4","last_reported":1742206262,"current_range_meters":10000,"station_id":"ce4bhu92rcd13ifvqi70","pricing_plan_id":"cebpf4jnsgd1na2vs0mg"},{"bike_id":"86b01c98-f8c5-4a21-b6ed-052e3afafd7f","system_id":"levelo_inurba_marseille","lat":43.30562,"lon":5.36711,"is_reserved":false,"is_disabled":false,"rental_uris":{"android":"levelo://app?vid=86b01c98-f8c5-4a21-b6ed-052e3afafd7f","ios":"levelo://app?vid=86b01c98-f8c5-4a21-b6ed-052e3afafd7f"},"vehicle_type_id":"4","last_reported":1742206262,"current_range_meters":10000,"station_id":"ce4bgrp2rcd13ifvqc9g","pricing_plan_id":"cebpf4jnsgd1na2vs0mg"},{"bike_id":"d2d24b3a-461c-417a-bd9f-80265e594166","system_id":"levelo_inurba_marseille","lat":43.30153,"lon":5.38083,"is_reserved":false,"is_disabled":false,"rental_uris":{"android":"levelo://app?vid=d2d24b3a-461c-417a-bd9f-80265e594166","ios":"levelo://app?vid=d2d24b3a-461c-417a-bd9f-80265e594166"},"vehicle_type_id":"4","last_reported":1742206262,"current_range_meters":10000,"station_id":"ce4bgjp2rcd13ifvqbh0","pricing_plan_id":"cebpf4jnsgd1na2vs0mg"},{"bike_id":"af655c5a-dace-4140-b2e3-84620c025ca4","system_id":"levelo_inurba_marseille","lat":43.30902,"lon":5.36848,"is_reserved":false,"is_disabled":false,"rental_uris":{"android":"levelo://app?vid=af655c5a-dace-4140-b2e3-84620c025ca4","ios":"levelo://app?vid=af655c5a-dace-4140-b2e3-84620c025ca4"},"vehicle_type_id":"4","last_reported":1742206262,"current_range_meters":10000,"station_id":"ce4bgn92rcd13ifvqbvg","pricing_plan_id":"cebpf4jnsgd1na2vs0mg"},{"bike_id":"8582a594-232f-4ecd-9ce1-980b2fb12fee","system_id":"levelo_inurba_marseille","lat":43.29551,"lon":5.4227,"is_reserved":false,"is_disabled":false,"rental_uris":{"android":"levelo://app?vid=8582a594-232f-4ecd-9ce1-980b2fb12fee","ios":"levelo://app?vid=8582a594-232f-4ecd-9ce1-980b2fb12fee"},"vehicle_type_id":"4","last_reported":1742206262,"current_range_meters":10000,"station_id":"ce4bhph2rcd13ifvqhdg","pricing_plan_id":"cebpf4jnsgd1na2vs0mg"},{"bike_id":"dc96f0a3-e16a-4e5a-aed5-748e82115aa1","system_id":"levelo_inurba_marseille","lat":43.29208,"lon":5.39336,"is_reserved":false,"is_disabled":false,"rental_uris":{"android":"levelo://app?vid=dc96f0a3-e16a-4e5a-aed5-748e82115aa1","ios":"levelo://app?vid=dc96f0a3-e16a-4e5a-aed5-748e82115aa1"},"vehicle_type_id":"4","last_reported":1742206262,"current_range_meters":10000,"station_id":"ce4bh192rcd13ifvqdd0","pricing_plan_id":"cebpf4jnsgd1na2vs0mg"},{"bike_id":"56bf2e5f-7ec5-4839-81d4-dd8b7d9c4908","system_id":"levelo_inurba_marseille","lat":43.2959,"lon":5.42244,"is_reserved":false,"is_disabled":false,"rental_uris":{"android":"levelo://app?vid=56bf2e5f-7ec5-4839-81d4-dd8b7d9c4908","ios":"levelo://app?vid=56bf2e5f-7ec5-4839-81d4-dd8b7d9c4908"},"vehicle_type_id":"4","last_reported":1742206262,"current_range_meters":10000,"station_id":"","pricing_plan_id":"cebpf4jnsgd1na2vs0mg"},{"bike_id":"b4fb35ba-eaae-45a3-86ea-f938cfc35f60","system_id":"levelo_inurba_marseille","lat":43.25937,"lon":5.40897,"is_reserved":false,"is_disabled":false,"rental_uris":{"android":"levelo://app?vid=b4fb35ba-eaae-45a3-86ea-f938cfc35f60","ios":"levelo://app?vid=b4fb35ba-eaae-45a3-86ea-f938cfc35f60"},"vehicle_type_id":"4","last_reported":1742206262,"current_range_meters":10000,"station_id":"ce4bhm92rcd13ifvqglg","pricing_plan_id":"cebpf4jnsgd1na2vs0mg"},{"bike_id":"cfb49231-7154-4ccc-bdce-0ecb428412bd","system_id":"levelo_inurba_marseille","lat":43.29034,"lon":5.386633,"is_reserved":false,"is_disabled":false,"rental_uris":{"android":"levelo://app?vid=cfb49231-7154-4ccc-bdce-0ecb428412bd","ios":"levelo://app?vid=cfb49231-7154-4ccc-bdce-0ecb428412bd"},"vehicle_type_id":"4","last_reported":1742206262,"current_range_meters":10000,"station_id":"ce4bgt92rcd13ifvqcf0","pricing_plan_id":"cebpf4jnsgd1na2vs0mg"},{"bike_id":"a4e011c7-6f19-4681-84ea-4262f143037e","system_id":"levelo_inurba_marseille","lat":43.3237,"lon":5.36756,"is_reserved":false,"is_disabled":false,"rental_uris":{"android":"levelo://app?vid=a4e011c7-6f19-4681-84ea-4262f143037e","ios":"levelo://app?vid=a4e011c7-6f19-4681-84ea-4262f143037e"},"vehicle_type_id":"4","last_reported":1742206262,"current_range_meters":10000,"station_id":"ce4bhsh2rcd13ifvqi2g","pricing_plan_id":"cebpf4jnsgd1na2vs0mg"},{"bike_id":"4967cfe9-962b-41e2-9be1-ecba1f8566a8","system_id":"levelo_inurba_marseille","lat":43.30144,"lon":5.37399,"is_reserved":false,"is_disabled":false,"rental_uris":{"android":"levelo://app?vid=4967cfe9-962b-41e2-9be1-ecba1f8566a8","ios":"levelo://app?vid=4967cfe9-962b-41e2-9be1-ecba1f8566a8"},"vehicle_type_id":"4","last_reported":1742206262,"current_range_meters":10000,"station_id":"ce4bgs92rcd13ifvqcc0","pricing_plan_id":"cebpf4jnsgd1na2vs0mg"},{"bike_id":"48957eaf-698d-4c70-aa42-3f140e90945a","system_id":"levelo_inurba_marseille","lat":43.22906,"lon":5.35378,"is_reserved":false,"is_disabled":false,"rental_uris":{"android":"levelo://app?vid=48957eaf-698d-4c70-aa42-3f140e90945a","ios":"levelo://app?vid=48957eaf-698d-4c70-aa42-3f140e90945a"},"vehicle_type_id":"4","last_reported":1742206262,"current_range_meters":9600,"station_id":"cpo3532slgdg3j2ikp40","pricing_plan_id":"cebpf4jnsgd1na2vs0mg"},{"bike_id":"2f42e19e-22f1-4965-ad6e-662af5324e76","system_id":"levelo_inurba_marseille","lat":43.23199,"lon":5.35563,"is_reserved":false,"is_disabled":false,"rental_uris":{"android":"levelo://app?vid=2f42e19e-22f1-4965-ad6e-662af5324e76","ios":"levelo://app?vid=2f42e19e-22f1-4965-ad6e-662af5324e76"},"vehicle_type_id":"4","last_reported":1742206262,"current_range_meters":10800,"station_id":"ce4bhu92rcd13ifvqi70","pricing_plan_id":"cebpf4jnsgd1na2vs0mg"},{"bike_id":"facf1153-3897-4847-8ce6-44038c0b4b86","system_id":"levelo_inurba_marseille","lat":43.25005,"lon":5.38927,"is_reserved":false,"is_disabled":false,"rental_uris":{"android":"levelo://app?vid=facf1153-3897-4847-8ce6-44038c0b4b86","ios":"levelo://app?vid=facf1153-3897-4847-8ce6-44038c0b4b86"},"vehicle_type_id":"4","last_reported":1742206262,"current_range_meters":10800,"station_id":"ce4bhgp2rcd13ifvqfd0","pricing_plan_id":"cebpf4jnsgd1na2vs0mg"},{"bike_id":"6ffdb073-4e1b-4a9e-89bd-4d7f1e8c5dcf","system_id":"levelo_inurba_marseille","lat":43.31197,"lon":5.38707,"is_reserved":false,"is_disabled":false,"rental_uris":{"android":"levelo://app?vid=6ffdb073-4e1b-4a9e-89bd-4d7f1e8c5dcf","ios":"levelo://app?vid=6ffdb073-4e1b-4a9e-89bd-4d7f1e8c5dcf"},"vehicle_type_id":"4","last_reported":1742206262,"current_range_meters":10800,"station_id":"ce4bgv12rcd13ifvqcp0","pricing_plan_id":"cebpf4jnsgd1na2vs0mg"},{"bike_id":"041a4532-a2c8-4348-9615-ead03c0a371f","system_id":"levelo_inurba_marseille","lat":43.28688,"lon":5.37386,"is_reserved":false,"is_disabled":true,"rental_uris":{"android":"levelo://app?vid=041a4532-a2c8-4348-9615-ead03c0a371f","ios":"levelo://app?vid=041a4532-a2c8-4348-9615-ead03c0a371f"},"vehicle_type_id":"4","last_reported":1742206262,"current_range_meters":10800,"station_id":"ce4bh3p2rcd13ifvqdq0","pricing_plan_id":"cebpf4jnsgd1na2vs0mg"},{"bike_id":"3320f5a3-dcb8-4aad-bb5b-b947b82d676e","system_id":"levelo_inurba_marseille","lat":43.254931,"lon":5.37649,"is_reserved":false,"is_disabled":false,"rental_uris":{"android":"levelo://app?vid=3320f5a3-dcb8-4aad-bb5b-b947b82d676e","ios":"levelo://app?vid=3320f5a3-dcb8-4aad-bb5b-b947b82d676e"},"vehicle_type_id":"4","last_reported":1742206262,"current_range_meters":10000,"station_id":"ce4bhh12rcd13ifvqff0","pricing_plan_id":"cebpf4jnsgd1na2vs0mg"},{"bike_id":"14dcc156-7e34-4a6a-abe7-8f295c8e3609","system_id":"levelo_inurba_marseille","lat":43.24811,"lon":5.37448,"is_reserved":false,"is_disabled":false,"rental_uris":{"android":"levelo://app?vid=14dcc156-7e34-4a6a-abe7-8f295c8e3609","ios":"levelo://app?vid=14dcc156-7e34-4a6a-abe7-8f295c8e3609"},"vehicle_type_id":"4","last_reported":1742206262,"current_range_meters":10800,"station_id":"ce4bhgh2rcd13ifvqfb0","pricing_plan_id":"cebpf4jnsgd1na2vs0mg"},{"bike_id":"dc92cd49-8dd7-4674-bb8c-239caa4558a3","system_id":"levelo_inurba_marseille","lat":43.29725,"lon":5.37684,"is_reserved":false,"is_disabled":false,"rental_uris":{"android":"levelo://app?vid=dc92cd49-8dd7-4674-bb8c-239caa4558a3","ios":"levelo://app?vid=dc92cd49-8dd7-4674-bb8c-239caa4558a3"},"vehicle_type_id":"4","last_reported":1742206262,"current_range_meters":10800,"station_id":"ce4bgkh2rcd13ifvqbl0","pricing_plan_id":"cebpf4jnsgd1na2vs0mg"},{"bike_id":"a1a08c3d-ab62-4628-8617-9b2bb9a99937","system_id":"levelo_inurba_marseille","lat":43.25088,"lon":5.39517,"is_reserved":false,"is_disabled":false,"rental_uris":{"android":"levelo://app?vid=a1a08c3d-ab62-4628-8617-9b2bb9a99937","ios":"levelo://app?vid=a1a08c3d-ab62-4628-8617-9b2bb9a99937"},"vehicle_type_id":"4","last_reported":1742206262,"current_range_meters":11200,"station_id":"ce4bhm12rcd13ifvqgkg","pricing_plan_id":"cebpf4jnsgd1na2vs0mg"},{"bike_id":"c8cbded7-6ffd-4d7f-a814-f3b7094bdaf5","system_id":"levelo_inurba_marseille","lat":43.31899,"lon":5.40728,"is_reserved":false,"is_disabled":true,"rental_uris":{"android":"levelo://app?vid=c8cbded7-6ffd-4d7f-a814-f3b7094bdaf5","ios":"levelo://app?vid=c8cbded7-6ffd-4d7f-a814-f3b7094bdaf5"},"vehicle_type_id":"4","last_reported":1742206262,"current_range_meters":11200,"station_id":"ce4bhq12rcd13ifvqhig","pricing_plan_id":"cebpf4jnsgd1na2vs0mg"},{"bike_id":"0c8237b6-b887-4fb3-8bfc-d84cb8935c7a","system_id":"levelo_inurba_marseille","lat":43.28186,"lon":5.42631,"is_reserved":false,"is_disabled":false,"rental_uris":{"android":"levelo://app?vid=0c8237b6-b887-4fb3-8bfc-d84cb8935c7a","ios":"levelo://app?vid=0c8237b6-b887-4fb3-8bfc-d84cb8935c7a"},"vehicle_type_id":"4","last_reported":1742206262,"current_range_meters":11200,"station_id":"ce4bhnh2rcd13ifvqgug","pricing_plan_id":"cebpf4jnsgd1na2vs0mg"},{"bike_id":"fa9f40c2-336f-47a4-8b70-8b8bd23e80ca","system_id":"levelo_inurba_marseille","lat":43.24201,"lon":5.39736,"is_reserved":false,"is_disabled":false,"rental_uris":{"android":"levelo://app?vid=fa9f40c2-336f-47a4-8b70-8b8bd23e80ca","ios":"levelo://app?vid=fa9f40c2-336f-47a4-8b70-8b8bd23e80ca"},"vehicle_type_id":"4","last_reported":1742206262,"current_range_meters":11200,"station_id":"ce4bhn12rcd13ifvqgpg","pricing_plan_id":"cebpf4jnsgd1na2vs0mg"},{"bike_id":"52fb90d6-1744-408d-9f2a-829d92ec9362","system_id":"levelo_inurba_marseille","lat":43.27218,"lon":5.39177,"is_reserved":false,"is_disabled":false,"rental_uris":{"android":"levelo://app?vid=52fb90d6-1744-408d-9f2a-829d92ec9362","ios":"levelo://app?vid=52fb90d6-1744-408d-9f2a-829d92ec9362"},"vehicle_type_id":"4","last_reported":1742206262,"current_range_meters":11200,"station_id":"ce4bhhp2rcd13ifvqfm0","pricing_plan_id":"cebpf4jnsgd1na2vs0mg"},{"bike_id":"c8ba958c-bebb-41b9-abb3-6b02e2a001c7","system_id":"levelo_inurba_marseille","lat":43.25926,"lon":5.40925,"is_reserved":false,"is_disabled":false,"rental_uris":{"android":"levelo://app?vid=c8ba958c-bebb-41b9-abb3-6b02e2a001c7","ios":"levelo://app?vid=c8ba958c-bebb-41b9-abb3-6b02e2a001c7"},"vehicle_type_id":"4","last_reported":1742206262,"current_range_meters":11200,"station_id":"ce4bhm92rcd13ifvqglg","pricing_plan_id":"cebpf4jnsgd1na2vs0mg"},{"bike_id":"f7ad7a38-c3ae-421d-99e0-1d34db5c0578","system_id":"levelo_inurba_marseille","lat":43.26691,"lon":5.38275,"is_reserved":false,"is_disabled":false,"rental_uris":{"android":"levelo://app?vid=f7ad7a38-c3ae-421d-99e0-1d34db5c0578","ios":"levelo://app?vid=f7ad7a38-c3ae-421d-99e0-1d34db5c0578"},"vehicle_type_id":"4","last_reported":1742206262,"current_range_meters":11200,"station_id":"ce4bhg92rcd13ifvqf90","pricing_plan_id":"cebpf4jnsgd1na2vs0mg"},{"bike_id":"3c232e8b-f73e-401a-acf0-8acb4f5a2eff","system_id":"levelo_inurba_marseille","lat":43.25497,"lon":5.3765,"is_reserved":false,"is_disabled":false,"rental_uris":{"android":"levelo://app?vid=3c232e8b-f73e-401a-acf0-8acb4f5a2eff","ios":"levelo://app?vid=3c232e8b-f73e-401a-acf0-8acb4f5a2eff"},"vehicle_type_id":"4","last_reported":1742206262,"current_range_meters":11200,"station_id":"ce4bhh12rcd13ifvqff0","pricing_plan_id":"cebpf4jnsgd1na2vs0mg"},{"bike_id":"aab95aeb-f5d4-4bef-bcdc-d835ba6c3583","system_id":"levelo_inurba_marseille","lat":43.23032,"lon":5.35387,"is_reserved":false,"is_disabled":false,"rental_uris":{"android":"levelo://app?vid=aab95aeb-f5d4-4bef-bcdc-d835ba6c3583","ios":"levelo://app?vid=aab95aeb-f5d4-4bef-bcdc-d835ba6c3583"},"vehicle_type_id":"4","last_reported":1742206262,"current_range_meters":11600,"station_id":"","pricing_plan_id":"cebpf4jnsgd1na2vs0mg"},{"bike_id":"f8448f78-a39d-491e-a4a8-5b2b39ba3b73","system_id":"levelo_inurba_marseille","lat":43.3104,"lon":5.37118,"is_reserved":false,"is_disabled":false,"rental_uris":{"android":"levelo://app?vid=f8448f78-a39d-491e-a4a8-5b2b39ba3b73","ios":"levelo://app?vid=f8448f78-a39d-491e-a4a8-5b2b39ba3b73"},"vehicle_type_id":"4","last_reported":1742206262,"current_range_meters":11600,"station_id":"","pricing_plan_id":"cebpf4jnsgd1na2vs0mg"},{"bike_id":"882ffc5d-3d7c-4533-805d-8739914a99fb","system_id":"levelo_inurba_marseille","lat":43.33611,"lon":5.41026,"is_reserved":false,"is_disabled":false,"rental_uris":{"android":"levelo://app?vid=882ffc5d-3d7c-4533-805d-8739914a99fb","ios":"levelo://app?vid=882ffc5d-3d7c-4533-805d-8739914a99fb"},"vehicle_type_id":"4","last_reported":1742206262,"current_range_meters":11600,"station_id":"ce4bhqh2rcd13ifvqhmg","pricing_plan_id":"cebpf4jnsgd1na2vs0mg"},{"bike_id":"b763467b-fcb1-47ab-9842-1db9f33d174c","system_id":"levelo_inurba_marseille","lat":43.23214,"lon":5.35553,"is_reserved":false,"is_disabled":false,"rental_uris":{"android":"levelo://app?vid=b763467b-fcb1-47ab-9842-1db9f33d174c","ios":"levelo://app?vid=b763467b-fcb1-47ab-9842-1db9f33d174c"},"vehicle_type_id":"4","last_reported":1742206262,"current_range_meters":11600,"station_id":"ce4bhu92rcd13ifvqi70","pricing_plan_id":"cebpf4jnsgd1na2vs0mg"},{"bike_id":"f6d26e90-c8a6-4832-a1c5-767d58aee5bc","system_id":"levelo_inurba_marseille","lat":43.23148,"lon":5.43711,"is_reserved":false,"is_disabled":false,"rental_uris":{"android":"levelo://app?vid=f6d26e90-c8a6-4832-a1c5-767d58aee5bc","ios":"levelo://app?vid=f6d26e90-c8a6-4832-a1c5-767d58aee5bc"},"vehicle_type_id":"4","last_reported":1742206262,"current_range_meters":11600,"station_id":"ce4bhmp2rcd13ifvqgog","pricing_plan_id":"cebpf4jnsgd1na2vs0mg"},{"bike_id":"79a0ee71-5e27-4d0f-9128-c9d94a9316a9","system_id":"levelo_inurba_marseille","lat":43.2418,"lon":5.36393,"is_reserved":false,"is_disabled":false,"rental_uris":{"android":"levelo://app?vid=79a0ee71-5e27-4d0f-9128-c9d94a9316a9","ios":"levelo://app?vid=79a0ee71-5e27-4d0f-9128-c9d94a9316a9"},"vehicle_type_id":"4","last_reported":1742206262,"current_range_meters":11600,"station_id":"cpo36qri1sfpv3e86is0","pricing_plan_id":"cebpf4jnsgd1na2vs0mg"},{"bike_id":"07749e62-7e26-4d45-8340-d5083ff82629","system_id":"levelo_inurba_marseille","lat":43.26232,"lon":5.40462,"is_reserved":false,"is_disabled":false,"rental_uris":{"android":"levelo://app?vid=07749e62-7e26-4d45-8340-d5083ff82629","ios":"levelo://app?vid=07749e62-7e26-4d45-8340-d5083ff82629"},"vehicle_type_id":"4","last_reported":1742206262,"current_range_meters":11600,"station_id":"ce4bhmh2rcd13ifvqgmg","pricing_plan_id":"cebpf4jnsgd1na2vs0mg"},{"bike_id":"061c3eab-ebbd-4760-8917-2528d6e29cbc","system_id":"levelo_inurba_marseille","lat":43.27114,"lon":5.42304,"is_reserved":false,"is_disabled":true,"rental_uris":{"android":"levelo://app?vid=061c3eab-ebbd-4760-8917-2528d6e29cbc","ios":"levelo://app?vid=061c3eab-ebbd-4760-8917-2528d6e29cbc"},"vehicle_type_id":"4","last_reported":1742206262,"current_range_meters":11600,"station_id":"","pricing_plan_id":"cebpf4jnsgd1na2vs0mg"},{"bike_id":"f93f0d14-91b9-41fc-a4f1-6134ed03420c","system_id":"levelo_inurba_marseille","lat":43.29692,"lon":5.36599,"is_reserved":false,"is_disabled":false,"rental_uris":{"android":"levelo://app?vid=f93f0d14-91b9-41fc-a4f1-6134ed03420c","ios":"levelo://app?vid=f93f0d14-91b9-41fc-a4f1-6134ed03420c"},"vehicle_type_id":"4","last_reported":1742206262,"current_range_meters":11600,"station_id":"ce4bgn12rcd13ifvqbt0","pricing_plan_id":"cebpf4jnsgd1na2vs0mg"},{"bike_id":"a110c3e8-a146-4d68-a9ad-64c5ddcb51fe","system_id":"levelo_inurba_marseille","lat":43.23159,"lon":5.43713,"is_reserved":false,"is_disabled":false,"rental_uris":{"android":"levelo://app?vid=a110c3e8-a146-4d68-a9ad-64c5ddcb51fe","ios":"levelo://app?vid=a110c3e8-a146-4d68-a9ad-64c5ddcb51fe"},"vehicle_type_id":"4","last_reported":1742206262,"current_range_meters":11600,"station_id":"ce4bhmp2rcd13ifvqgog","pricing_plan_id":"cebpf4jnsgd1na2vs0mg"},{"bike_id":"6e46b814-3eb3-4bc5-8438-aff0326ba365","system_id":"levelo_inurba_marseille","lat":43.24083,"lon":5.37753,"is_reserved":false,"is_disabled":false,"rental_uris":{"android":"levelo://app?vid=6e46b814-3eb3-4bc5-8438-aff0326ba365","ios":"levelo://app?vid=6e46b814-3eb3-4bc5-8438-aff0326ba365"},"vehicle_type_id":"4","last_reported":1742206262,"current_range_meters":12000,"station_id":"ce4bhnp2rcd13ifvqgvg","pricing_plan_id":"cebpf4jnsgd1na2vs0mg"},{"bike_id":"ea13bc02-153c-482f-a1d0-acce43406d9b","system_id":"levelo_inurba_marseille","lat":43.27892,"lon":5.38,"is_reserved":false,"is_disabled":false,"rental_uris":{"android":"levelo://app?vid=ea13bc02-153c-482f-a1d0-acce43406d9b","ios":"levelo://app?vid=ea13bc02-153c-482f-a1d0-acce43406d9b"},"vehicle_type_id":"4","last_reported":1742206262,"current_range_meters":12000,"station_id":"ce4bhf92rcd13ifvqf50","pricing_plan_id":"cebpf4jnsgd1na2vs0mg"},{"bike_id":"22ba7be9-14d8-4474-8bc7-8e9a8d5bf0fd","system_id":"levelo_inurba_marseille","lat":43.23168,"lon":5.40004,"is_reserved":false,"is_disabled":true,"rental_uris":{"android":"levelo://app?vid=22ba7be9-14d8-4474-8bc7-8e9a8d5bf0fd","ios":"levelo://app?vid=22ba7be9-14d8-4474-8bc7-8e9a8d5bf0fd"},"vehicle_type_id":"4","last_reported":1742206262,"current_range_meters":12000,"station_id":"ce4bhn12rcd13ifvqgqg","pricing_plan_id":"cebpf4jnsgd1na2vs0mg"},{"bike_id":"04779c95-09a2-425e-927f-fb9e05ab6347","system_id":"levelo_inurba_marseille","lat":43.33761,"lon":5.37489,"is_reserved":false,"is_disabled":false,"rental_uris":{"android":"levelo://app?vid=04779c95-09a2-425e-927f-fb9e05ab6347","ios":"levelo://app?vid=04779c95-09a2-425e-927f-fb9e05ab6347"},"vehicle_type_id":"4","last_reported":1742206262,"current_range_meters":12000,"station_id":"","pricing_plan_id":"cebpf4jnsgd1na2vs0mg"},{"bike_id":"ab390a76-0a57-4543-a76e-6d96e1e77958","system_id":"levelo_inurba_marseille","lat":43.23072,"lon":5.35493,"is_reserved":false,"is_disabled":false,"rental_uris":{"android":"levelo://app?vid=ab390a76-0a57-4543-a76e-6d96e1e77958","ios":"levelo://app?vid=ab390a76-0a57-4543-a76e-6d96e1e77958"},"vehicle_type_id":"4","last_reported":1742206262,"current_range_meters":12000,"station_id":"cpo3342slgdg3j2ifvpg","pricing_plan_id":"cebpf4jnsgd1na2vs0mg"},{"bike_id":"c735a41e-8707-4425-9245-f2bfffe653b8","system_id":"levelo_inurba_marseille","lat":43.25943,"lon":5.40897,"is_reserved":false,"is_disabled":false,"rental_uris":{"android":"levelo://app?vid=c735a41e-8707-4425-9245-f2bfffe653b8","ios":"levelo://app?vid=c735a41e-8707-4425-9245-f2bfffe653b8"},"vehicle_type_id":"4","last_reported":1742206262,"current_range_meters":12000,"station_id":"ce4bhm92rcd13ifvqglg","pricing_plan_id":"cebpf4jnsgd1na2vs0mg"},{"bike_id":"7feea859-b4ac-43c2-a126-ab29c189eef5","system_id":"levelo_inurba_marseille","lat":43.23219,"lon":5.35548,"is_reserved":false,"is_disabled":false,"rental_uris":{"android":"levelo://app?vid=7feea859-b4ac-43c2-a126-ab29c189eef5","ios":"levelo://app?vid=7feea859-b4ac-43c2-a126-ab29c189eef5"},"vehicle_type_id":"4","last_reported":1742206262,"current_range_meters":12000,"station_id":"ce4bhu92rcd13ifvqi70","pricing_plan_id":"cebpf4jnsgd1na2vs0mg"},{"bike_id":"d9caaeae-8878-4959-9bf2-4d33db78b677","system_id":"levelo_inurba_marseille","lat":43.2398,"lon":5.3662,"is_reserved":false,"is_disabled":false,"rental_uris":{"android":"levelo://app?vid=d9caaeae-8878-4959-9bf2-4d33db78b677","ios":"levelo://app?vid=d9caaeae-8878-4959-9bf2-4d33db78b677"},"vehicle_type_id":"4","last_reported":1742206262,"current_range_meters":12400,"station_id":"ce4bhi12rcd13ifvqfp0","pricing_plan_id":"cebpf4jnsgd1na2vs0mg"},{"bike_id":"cb4339f8-c0a3-4ec4-afcd-55ac056708b9","system_id":"levelo_inurba_marseille","lat":43.31491,"lon":5.37302,"is_reserved":false,"is_disabled":false,"rental_uris":{"android":"levelo://app?vid=cb4339f8-c0a3-4ec4-afcd-55ac056708b9","ios":"levelo://app?vid=cb4339f8-c0a3-4ec4-afcd-55ac056708b9"},"vehicle_type_id":"4","last_reported":1742206262,"current_range_meters":12400,"station_id":"ce4bgt12rcd13ifvqcd0","pricing_plan_id":"cebpf4jnsgd1na2vs0mg"},{"bike_id":"8e1a59d7-1252-424d-a73a-bfc3709a283d","system_id":"levelo_inurba_marseille","lat":43.31398,"lon":5.36717,"is_reserved":false,"is_disabled":false,"rental_uris":{"android":"levelo://app?vid=8e1a59d7-1252-424d-a73a-bfc3709a283d","ios":"levelo://app?vid=8e1a59d7-1252-424d-a73a-bfc3709a283d"},"vehicle_type_id":"4","last_reported":1742206262,"current_range_meters":12400,"station_id":"ce4bgr92rcd13ifvqc6g","pricing_plan_id":"cebpf4jnsgd1na2vs0mg"},{"bike_id":"eb68e8b7-38f3-4b46-bcf2-645e79c2103b","system_id":"levelo_inurba_marseille","lat":43.2655,"lon":5.3863,"is_reserved":false,"is_disabled":true,"rental_uris":{"android":"levelo://app?vid=eb68e8b7-38f3-4b46-bcf2-645e79c2103b","ios":"levelo://app?vid=eb68e8b7-38f3-4b46-bcf2-645e79c2103b"},"vehicle_type_id":"4","last_reported":1742206262,"current_range_meters":12400,"station_id":"","pricing_plan_id":"cebpf4jnsgd1na2vs0mg"},{"bike_id":"84cfc446-bf14-431e-a684-b664920352f0","system_id":"levelo_inurba_marseille","lat":43.24171,"lon":5.36391,"is_reserved":false,"is_disabled":false,"rental_uris":{"android":"levelo://app?vid=84cfc446-bf14-431e-a684-b664920352f0","ios":"levelo://app?vid=84cfc446-bf14-431e-a684-b664920352f0"},"vehicle_type_id":"4","last_reported":1742206262,"current_range_meters":12400,"station_id":"cpo36qri1sfpv3e86is0","pricing_plan_id":"cebpf4jnsgd1na2vs0mg"},{"bike_id":"5c7d3af7-81c2-462c-80cb-d705f57b5e51","system_id":"levelo_inurba_marseille","lat":43.2573,"lon":5.41075,"is_reserved":false,"is_disabled":true,"rental_uris":{"android":"levelo://app?vid=5c7d3af7-81c2-462c-80cb-d705f57b5e51","ios":"levelo://app?vid=5c7d3af7-81c2-462c-80cb-d705f57b5e51"},"vehicle_type_id":"4","last_reported":1742206262,"current_range_meters":12400,"station_id":"ce4bhkp2rcd13ifvqgd0","pricing_plan_id":"cebpf4jnsgd1na2vs0mg"},{"bike_id":"6de1fddb-806f-4783-9b27-724429d247bf","system_id":"levelo_inurba_marseille","lat":43.25496,"lon":5.37642,"is_reserved":false,"is_disabled":false,"rental_uris":{"android":"levelo://app?vid=6de1fddb-806f-4783-9b27-724429d247bf","ios":"levelo://app?vid=6de1fddb-806f-4783-9b27-724429d247bf"},"vehicle_type_id":"4","last_reported":1742206262,"current_range_meters":12800,"station_id":"ce4bhh12rcd13ifvqff0","pricing_plan_id":"cebpf4jnsgd1na2vs0mg"},{"bike_id":"66185ade-248f-45ad-bafe-ba5287d9512e","system_id":"levelo_inurba_marseille","lat":43.25926,"lon":5.40911,"is_reserved":false,"is_disabled":false,"rental_uris":{"android":"levelo://app?vid=66185ade-248f-45ad-bafe-ba5287d9512e","ios":"levelo://app?vid=66185ade-248f-45ad-bafe-ba5287d9512e"},"vehicle_type_id":"4","last_reported":1742206262,"current_range_meters":12800,"station_id":"ce4bhm92rcd13ifvqglg","pricing_plan_id":"cebpf4jnsgd1na2vs0mg"},{"bike_id":"82f2740b-aabb-4944-8011-64a453061c5b","system_id":"levelo_inurba_marseille","lat":43.24082,"lon":5.37756,"is_reserved":false,"is_disabled":false,"rental_uris":{"android":"levelo://app?vid=82f2740b-aabb-4944-8011-64a453061c5b","ios":"levelo://app?vid=82f2740b-aabb-4944-8011-64a453061c5b"},"vehicle_type_id":"4","last_reported":1742206262,"current_range_meters":12800,"station_id":"ce4bhnp2rcd13ifvqgvg","pricing_plan_id":"cebpf4jnsgd1na2vs0mg"},{"bike_id":"6129c4dc-aab1-415f-8acd-e7e147951f7c","system_id":"levelo_inurba_marseille","lat":43.30136,"lon":5.37413,"is_reserved":false,"is_disabled":false,"rental_uris":{"android":"levelo://app?vid=6129c4dc-aab1-415f-8acd-e7e147951f7c","ios":"levelo://app?vid=6129c4dc-aab1-415f-8acd-e7e147951f7c"},"vehicle_type_id":"4","last_reported":1742206262,"current_range_meters":12800,"station_id":"ce4bgs92rcd13ifvqcc0","pricing_plan_id":"cebpf4jnsgd1na2vs0mg"},{"bike_id":"fb74e021-9694-47bb-8608-b0285f32befa","system_id":"levelo_inurba_marseille","lat":43.23155,"lon":5.43705,"is_reserved":false,"is_disabled":false,"rental_uris":{"android":"levelo://app?vid=fb74e021-9694-47bb-8608-b0285f32befa","ios":"levelo://app?vid=fb74e021-9694-47bb-8608-b0285f32befa"},"vehicle_type_id":"4","last_reported":1742206262,"current_range_meters":13600,"station_id":"ce4bhmp2rcd13ifvqgog","pricing_plan_id":"cebpf4jnsgd1na2vs0mg"},{"bike_id":"3bfebb39-331a-4e56-af20-d9e4dd13a0a0","system_id":"levelo_inurba_marseille","lat":43.2741,"lon":5.42387,"is_reserved":false,"is_disabled":false,"rental_uris":{"android":"levelo://app?vid=3bfebb39-331a-4e56-af20-d9e4dd13a0a0","ios":"levelo://app?vid=3bfebb39-331a-4e56-af20-d9e4dd13a0a0"},"vehicle_type_id":"4","last_reported":1742206262,"current_range_meters":13600,"station_id":"","pricing_plan_id":"cebpf4jnsgd1na2vs0mg"},{"bike_id":"9d15a776-6b02-4808-a303-18a0e043743b","system_id":"levelo_inurba_marseille","lat":43.29836,"lon":5.36272,"is_reserved":false,"is_disabled":false,"rental_uris":{"android":"levelo://app?vid=9d15a776-6b02-4808-a303-18a0e043743b","ios":"levelo://app?vid=9d15a776-6b02-4808-a303-18a0e043743b"},"vehicle_type_id":"4","last_reported":1742206262,"current_range_meters":13600,"station_id":"ce4bgpp2rcd13ifvqc3g","pricing_plan_id":"cebpf4jnsgd1na2vs0mg"},{"bike_id":"f3b6156c-2087-4f03-a6ba-2a9b58eef4d8","system_id":"levelo_inurba_marseille","lat":43.24076,"lon":5.37755,"is_reserved":false,"is_disabled":false,"rental_uris":{"android":"levelo://app?vid=f3b6156c-2087-4f03-a6ba-2a9b58eef4d8","ios":"levelo://app?vid=f3b6156c-2087-4f03-a6ba-2a9b58eef4d8"},"vehicle_type_id":"4","last_reported":1742206262,"current_range_meters":13600,"station_id":"ce4bhnp2rcd13ifvqgvg","pricing_plan_id":"cebpf4jnsgd1na2vs0mg"},{"bike_id":"e9cc33b4-7a87-4143-9977-0a3fe41dfecf","system_id":"levelo_inurba_marseille","lat":43.30531,"lon":5.3654,"is_reserved":false,"is_disabled":false,"rental_uris":{"android":"levelo://app?vid=e9cc33b4-7a87-4143-9977-0a3fe41dfecf","ios":"levelo://app?vid=e9cc33b4-7a87-4143-9977-0a3fe41dfecf"},"vehicle_type_id":"4","last_reported":1742206262,"current_range_meters":13600,"station_id":"ce4bgs12rcd13ifvqcag","pricing_plan_id":"cebpf4jnsgd1na2vs0mg"},{"bike_id":"421ffe78-25bf-4527-9fb4-a76483712f90","system_id":"levelo_inurba_marseille","lat":43.22932,"lon":5.35373,"is_reserved":false,"is_disabled":false,"rental_uris":{"android":"levelo://app?vid=421ffe78-25bf-4527-9fb4-a76483712f90","ios":"levelo://app?vid=421ffe78-25bf-4527-9fb4-a76483712f90"},"vehicle_type_id":"4","last_reported":1742206262,"current_range_meters":13600,"station_id":"cpo3532slgdg3j2ikp40","pricing_plan_id":"cebpf4jnsgd1na2vs0mg"},{"bike_id":"6684d2a8-fbec-4a14-a722-fad6e84c9a29","system_id":"levelo_inurba_marseille","lat":43.31361,"lon":5.36738,"is_reserved":false,"is_disabled":false,"rental_uris":{"android":"levelo://app?vid=6684d2a8-fbec-4a14-a722-fad6e84c9a29","ios":"levelo://app?vid=6684d2a8-fbec-4a14-a722-fad6e84c9a29"},"vehicle_type_id":"4","last_reported":1742206262,"current_range_meters":13600,"station_id":"ce4bgr92rcd13ifvqc6g","pricing_plan_id":"cebpf4jnsgd1na2vs0mg"},{"bike_id":"31d16d1c-7ce2-438b-abde-c1be202b1750","system_id":"levelo_inurba_marseille","lat":43.27942,"lon":5.41048,"is_reserved":false,"is_disabled":false,"rental_uris":{"android":"levelo://app?vid=31d16d1c-7ce2-438b-abde-c1be202b1750","ios":"levelo://app?vid=31d16d1c-7ce2-438b-abde-c1be202b1750"},"vehicle_type_id":"4","last_reported":1742206262,"current_range_meters":14000,"station_id":"ce4bhnp2rcd13ifvqh0g","pricing_plan_id":"cebpf4jnsgd1na2vs0mg"},{"bike_id":"7c66673a-04c3-4d32-a675-3d59fed633d9","system_id":"levelo_inurba_marseille","lat":43.23216,"lon":5.35546,"is_reserved":false,"is_disabled":false,"rental_uris":{"android":"levelo://app?vid=7c66673a-04c3-4d32-a675-3d59fed633d9","ios":"levelo://app?vid=7c66673a-04c3-4d32-a675-3d59fed633d9"},"vehicle_type_id":"4","last_reported":1742206262,"current_range_meters":14000,"station_id":"ce4bhu92rcd13ifvqi70","pricing_plan_id":"cebpf4jnsgd1na2vs0mg"},{"bike_id":"e7f5fec6-9ee8-4f31-a89f-3e7d90aceeea","system_id":"levelo_inurba_marseille","lat":43.2906,"lon":5.35918,"is_reserved":false,"is_disabled":false,"rental_uris":{"android":"levelo://app?vid=e7f5fec6-9ee8-4f31-a89f-3e7d90aceeea","ios":"levelo://app?vid=e7f5fec6-9ee8-4f31-a89f-3e7d90aceeea"},"vehicle_type_id":"4","last_reported":1742206262,"current_range_meters":14000,"station_id":"ce4bha92rcd13ifvqeg0","pricing_plan_id":"cebpf4jnsgd1na2vs0mg"},{"bike_id":"75e009c4-ea5f-4e47-b8c6-5ec12f7ca4b1","system_id":"levelo_inurba_marseille","lat":43.2319,"lon":5.39982,"is_reserved":false,"is_disabled":false,"rental_uris":{"android":"levelo://app?vid=75e009c4-ea5f-4e47-b8c6-5ec12f7ca4b1","ios":"levelo://app?vid=75e009c4-ea5f-4e47-b8c6-5ec12f7ca4b1"},"vehicle_type_id":"4","last_reported":1742206262,"current_range_meters":14400,"station_id":"ce4bhn12rcd13ifvqgqg","pricing_plan_id":"cebpf4jnsgd1na2vs0mg"},{"bike_id":"d8ab6a1e-a172-4ff6-92c6-9a57d8cfe9a5","system_id":"levelo_inurba_marseille","lat":43.26557,"lon":5.37283,"is_reserved":false,"is_disabled":false,"rental_uris":{"android":"levelo://app?vid=d8ab6a1e-a172-4ff6-92c6-9a57d8cfe9a5","ios":"levelo://app?vid=d8ab6a1e-a172-4ff6-92c6-9a57d8cfe9a5"},"vehicle_type_id":"4","last_reported":1742206262,"current_range_meters":14400,"station_id":"ce4bhg12rcd13ifvqf70","pricing_plan_id":"cebpf4jnsgd1na2vs0mg"},{"bike_id":"a812f6d2-56c2-4ae1-a939-8ba8d0e750f6","system_id":"levelo_inurba_marseille","lat":43.2593,"lon":5.40903,"is_reserved":false,"is_disabled":false,"rental_uris":{"android":"levelo://app?vid=a812f6d2-56c2-4ae1-a939-8ba8d0e750f6","ios":"levelo://app?vid=a812f6d2-56c2-4ae1-a939-8ba8d0e750f6"},"vehicle_type_id":"4","last_reported":1742206262,"current_range_meters":14400,"station_id":"ce4bhm92rcd13ifvqglg","pricing_plan_id":"cebpf4jnsgd1na2vs0mg"},{"bike_id":"675bc8fe-591d-46c7-9eb3-559bc2bab32f","system_id":"levelo_inurba_marseille","lat":43.30152,"lon":5.38078,"is_reserved":false,"is_disabled":false,"rental_uris":{"android":"levelo://app?vid=675bc8fe-591d-46c7-9eb3-559bc2bab32f","ios":"levelo://app?vid=675bc8fe-591d-46c7-9eb3-559bc2bab32f"},"vehicle_type_id":"4","last_reported":1742206262,"current_range_meters":14400,"station_id":"ce4bgjp2rcd13ifvqbh0","pricing_plan_id":"cebpf4jnsgd1na2vs0mg"},{"bike_id":"ca0d5547-1381-4aad-8426-9a8d961532d4","system_id":"levelo_inurba_marseille","lat":43.30914,"lon":5.36851,"is_reserved":false,"is_disabled":false,"rental_uris":{"android":"levelo://app?vid=ca0d5547-1381-4aad-8426-9a8d961532d4","ios":"levelo://app?vid=ca0d5547-1381-4aad-8426-9a8d961532d4"},"vehicle_type_id":"4","last_reported":1742206262,"current_range_meters":14400,"station_id":"ce4bgn92rcd13ifvqbvg","pricing_plan_id":"cebpf4jnsgd1na2vs0mg"},{"bike_id":"f94de7fa-5e4f-4999-99c8-9c98dc8c7305","system_id":"levelo_inurba_marseille","lat":43.24992,"lon":5.38931,"is_reserved":false,"is_disabled":false,"rental_uris":{"android":"levelo://app?vid=f94de7fa-5e4f-4999-99c8-9c98dc8c7305","ios":"levelo://app?vid=f94de7fa-5e4f-4999-99c8-9c98dc8c7305"},"vehicle_type_id":"4","last_reported":1742206262,"current_range_meters":14400,"station_id":"ce4bhgp2rcd13ifvqfd0","pricing_plan_id":"cebpf4jnsgd1na2vs0mg"},{"bike_id":"9bbfa92f-318c-4fb0-97d3-8fcb3b854b10","system_id":"levelo_inurba_marseille","lat":43.2595,"lon":5.40917,"is_reserved":false,"is_disabled":false,"rental_uris":{"android":"levelo://app?vid=9bbfa92f-318c-4fb0-97d3-8fcb3b854b10","ios":"levelo://app?vid=9bbfa92f-318c-4fb0-97d3-8fcb3b854b10"},"vehicle_type_id":"4","last_reported":1742206262,"current_range_meters":14400,"station_id":"ce4bhl92rcd13ifvqghg","pricing_plan_id":"cebpf4jnsgd1na2vs0mg"},{"bike_id":"b8e669af-625a-4180-8c91-9911fbd857c5","system_id":"levelo_inurba_marseille","lat":43.28152,"lon":5.42637,"is_reserved":false,"is_disabled":false,"rental_uris":{"android":"levelo://app?vid=b8e669af-625a-4180-8c91-9911fbd857c5","ios":"levelo://app?vid=b8e669af-625a-4180-8c91-9911fbd857c5"},"vehicle_type_id":"4","last_reported":1742206262,"current_range_meters":14800,"station_id":"ce4bhnh2rcd13ifvqgug","pricing_plan_id":"cebpf4jnsgd1na2vs0mg"},{"bike_id":"41185e3d-5edc-434f-8dc7-6a844863e74d","system_id":"levelo_inurba_marseille","lat":43.28506,"lon":5.38534,"is_reserved":false,"is_disabled":true,"rental_uris":{"android":"levelo://app?vid=41185e3d-5edc-434f-8dc7-6a844863e74d","ios":"levelo://app?vid=41185e3d-5edc-434f-8dc7-6a844863e74d"},"vehicle_type_id":"4","last_reported":1742206262,"current_range_meters":14800,"station_id":"ce4bh8p2rcd13ifvqeb0","pricing_plan_id":"cebpf4jnsgd1na2vs0mg"},{"bike_id":"aed36d03-d83f-4775-b57c-c610d71dd960","system_id":"levelo_inurba_marseille","lat":43.25938,"lon":5.40877,"is_reserved":false,"is_disabled":false,"rental_uris":{"android":"levelo://app?vid=aed36d03-d83f-4775-b57c-c610d71dd960","ios":"levelo://app?vid=aed36d03-d83f-4775-b57c-c610d71dd960"},"vehicle_type_id":"4","last_reported":1742206262,"current_range_meters":14800,"station_id":"ce4bhm92rcd13ifvqglg","pricing_plan_id":"cebpf4jnsgd1na2vs0mg"},{"bike_id":"e94aad93-22fb-479e-a54e-93c2010686ff","system_id":"levelo_inurba_marseille","lat":43.23169,"lon":5.43694,"is_reserved":false,"is_disabled":false,"rental_uris":{"android":"levelo://app?vid=e94aad93-22fb-479e-a54e-93c2010686ff","ios":"levelo://app?vid=e94aad93-22fb-479e-a54e-93c2010686ff"},"vehicle_type_id":"4","last_reported":1742206262,"current_range_meters":14800,"station_id":"ce4bhmp2rcd13ifvqgog","pricing_plan_id":"cebpf4jnsgd1na2vs0mg"},{"bike_id":"a274cbc8-7832-4904-b6ef-ff7429cafe02","system_id":"levelo_inurba_marseille","lat":43.25079,"lon":5.39502,"is_reserved":false,"is_disabled":false,"rental_uris":{"android":"levelo://app?vid=a274cbc8-7832-4904-b6ef-ff7429cafe02","ios":"levelo://app?vid=a274cbc8-7832-4904-b6ef-ff7429cafe02"},"vehicle_type_id":"4","last_reported":1742206262,"current_range_meters":14800,"station_id":"ce4bhlh2rcd13ifvqgig","pricing_plan_id":"cebpf4jnsgd1na2vs0mg"},{"bike_id":"e5c41dff-fa8b-4eb0-a68c-d321bd6dff21","system_id":"levelo_inurba_marseille","lat":43.29298,"lon":5.36833,"is_reserved":false,"is_disabled":true,"rental_uris":{"android":"levelo://app?vid=e5c41dff-fa8b-4eb0-a68c-d321bd6dff21","ios":"levelo://app?vid=e5c41dff-fa8b-4eb0-a68c-d321bd6dff21"},"vehicle_type_id":"4","last_reported":1742206262,"current_range_meters":14800,"station_id":"ce4bhbp2rcd13ifvqesg","pricing_plan_id":"cebpf4jnsgd1na2vs0mg"},{"bike_id":"818e5b60-bb08-4500-a307-1e8acee57dea","system_id":"levelo_inurba_marseille","lat":43.29913,"lon":5.43644,"is_reserved":false,"is_disabled":false,"rental_uris":{"android":"levelo://app?vid=818e5b60-bb08-4500-a307-1e8acee57dea","ios":"levelo://app?vid=818e5b60-bb08-4500-a307-1e8acee57dea"},"vehicle_type_id":"4","last_reported":1742206262,"current_range_meters":15200,"station_id":"ce4bhpp2rcd13ifvqhfg","pricing_plan_id":"cebpf4jnsgd1na2vs0mg"},{"bike_id":"93d8ad6d-733f-49c8-95e3-e57827b96394","system_id":"levelo_inurba_marseille","lat":43.25929,"lon":5.40895,"is_reserved":false,"is_disabled":false,"rental_uris":{"android":"levelo://app?vid=93d8ad6d-733f-49c8-95e3-e57827b96394","ios":"levelo://app?vid=93d8ad6d-733f-49c8-95e3-e57827b96394"},"vehicle_type_id":"4","last_reported":1742206262,"current_range_meters":15200,"station_id":"ce4bhm92rcd13ifvqglg","pricing_plan_id":"cebpf4jnsgd1na2vs0mg"},{"bike_id":"47e406fe-5152-43ff-a2dc-e8fb84e6b7fc","system_id":"levelo_inurba_marseille","lat":43.29809,"lon":5.38067,"is_reserved":false,"is_disabled":false,"rental_uris":{"android":"levelo://app?vid=47e406fe-5152-43ff-a2dc-e8fb84e6b7fc","ios":"levelo://app?vid=47e406fe-5152-43ff-a2dc-e8fb84e6b7fc"},"vehicle_type_id":"4","last_reported":1742206262,"current_range_meters":15200,"station_id":"ce4bgip2rcd13ifvqbb0","pricing_plan_id":"cebpf4jnsgd1na2vs0mg"},{"bike_id":"0bff0917-5a11-405f-9238-48f3b6cf4141","system_id":"levelo_inurba_marseille","lat":43.28926,"lon":5.38385,"is_reserved":false,"is_disabled":false,"rental_uris":{"android":"levelo://app?vid=0bff0917-5a11-405f-9238-48f3b6cf4141","ios":"levelo://app?vid=0bff0917-5a11-405f-9238-48f3b6cf4141"},"vehicle_type_id":"4","last_reported":1742206262,"current_range_meters":14800,"station_id":"ce4bh612rcd13ifvqe6g","pricing_plan_id":"cebpf4jnsgd1na2vs0mg"},{"bike_id":"7a452dc2-9059-401f-98f8-d42f0eea9cbd","system_id":"levelo_inurba_marseille","lat":43.26948,"lon":5.38654,"is_reserved":false,"is_disabled":false,"rental_uris":{"android":"levelo://app?vid=7a452dc2-9059-401f-98f8-d42f0eea9cbd","ios":"levelo://app?vid=7a452dc2-9059-401f-98f8-d42f0eea9cbd"},"vehicle_type_id":"4","last_reported":1742206262,"current_range_meters":15200,"station_id":"ce4bhh92rcd13ifvqfh0","pricing_plan_id":"cebpf4jnsgd1na2vs0mg"},