{"last_updated":1768299240,"ttl":60,"version":"2.2","data":{"bikes":[{"bike_id":"35254f06-efb2-4d00-b949-89c11838f9ec","system_id":"levelo_inurba_marseille","lat":43.23187,"lon":5.35561,"is_reserved":false,"is_disabled":false,"rental_uris":{"android":"levelo://app?vid=35254f06-efb2-4d00-b949-89c11838f9ec","ios":"levelo://app?vid=35254f06-efb2-4d00-b949-89c11838f9ec"},"vehicle_type_id":"4","last_reported":1768299241,"current_range_meters":2800,"station_id":"ce4bhu92rcd13ifvqi70","pricing_plan_id":"cebpf4jnsgd1na2vs0mg"},{"bike_id":"b0efd0f2-bc5c-4dff-bc29-9743c461b4d7","system_id":"levelo_inurba_marseille","lat":43.27586,"lon":5.35896,"is_reserved":false,"is_disabled":false,"rental_uris":{"android":"levelo://app?vid=b0efd0f2-bc5c-4dff-bc29-9743c461b4d7","ios":"levelo://app?vid=b0efd0f2-bc5c-4dff-bc29-9743c461b4d7"},"vehicle_type_id":"4","last_reported":1768299241,"current_range_meters":2800,"station_id":"","pricing_plan_id":"cebpf4jnsgd1na2vs0mg"},{"bike_id":"a48a567d-a263-4294-9142-eb5284b67aa2","system_id":"levelo_inurba_marseille","lat":43.292669,"lon":5.376168,"is_reserved":false,"is_disabled":false,"rental_uris":{"android":"levelo://app?vid=a48a567d-a263-4294-9142-eb5284b67aa2","ios":"levelo://app?vid=a48a567d-a263-4294-9142-eb5284b67aa2"},"vehicle_type_id":"4","last_reported":1768299241,"current_range_meters":2800,"station_id":"ce4bgi12rcd13ifvqb80","pricing_plan_id":"cebpf4jnsgd1na2vs0mg"},{"bike_id":"b0d8414b-9ec4-4d2d-ada4-4b5a508ba76c","system_id":"levelo_inurba_marseille","lat":43.259314,"lon":5.409094,"is_reserved":false,"is_disabled":false,"rental_uris":{"android":"levelo://app?vid=b0d8414b-9ec4-4d2d-ada4-4b5a508ba76c","ios":"levelo://app?vid=b0d8414b-9ec4-4d2d-ada4-4b5a508ba76c"},"vehicle_type_id":"4","last_reported":1768299241,"current_range_meters":2800,"station_id":"ce4bhm92rcd13ifvqglg","pricing_plan_id":"cebpf4jnsgd1na2vs0mg"},{"bike_id":"cddcf2c2-04b5-4843-b385-219618c4a20f","system_id":"levelo_inurba_marseille","lat":43.28624,"lon":5.35086,"is_reserved":false,"is_disabled":false,"rental_uris":{"android":"levelo://app?vid=cddcf2c2-04b5-4843-b385-219618c4a20f","ios":"levelo://app?vid=cddcf2c2-04b5-4843-b385-219618c4a20f"},"vehicle_type_id":"4","last_reported":1768299241,"current_range_meters":2800,"station_id":"ce4bhch2rcd13ifvqeug","pricing_plan_id":"cebpf4jnsgd1na2vs0mg"},{"bike_id":"a6ff0c71-1abe-4d8c-9d24-f968ceacb709","system_id":"levelo_inurba_marseille","lat":43.27061,"lon":5.40274,"is_reserved":false,"is_disabled":false,"rental_uris":{"android":"levelo://app?vid=a6ff0c71-1abe-4d8c-9d24-f968ceacb709","ios":"levelo://app?vid=a6ff0c71-1abe-4d8c-9d24-f968ceacb709"},"vehicle_type_id":"4","last_reported":1768299241,"current_range_meters":2800,"station_id":"ce4bhk92rcd13ifvqgc0","pricing_plan_id":"cebpf4jnsgd1na2vs0mg"},{"bike_id":"c5a9ead6-61b1-45d6-92a4-28f0c1a7623d","system_id":"levelo_inurba_marseille","lat":43.26955,"lon":5.38616,"is_reserved":false,"is_disabled":false,"rental_uris":{"android":"levelo://app?vid=c5a9ead6-61b1-45d6-92a4-28f0c1a7623d","ios":"levelo://app?vid=c5a9ead6-61b1-45d6-92a4-28f0c1a7623d"},"vehicle_type_id":"4","last_reported":1768299241,"current_range_meters":2800,"station_id":"ce4bhh92rcd13ifvqfh0","pricing_plan_id":"cebpf4jnsgd1na2vs0mg"},{"bike_id":"f2f6879c-c6f8-4aad-a64c-976ab5b32f9c","system_id":"levelo_inurba_marseille","lat":43.24062,"lon":5.37733,"is_reserved":false,"is_disabled":false,"rental_uris":{"android":"levelo://app?vid=f2f6879c-c6f8-4aad-a64c-976ab5b32f9c","ios":"levelo://app?vid=f2f6879c-c6f8-4aad-a64c-976ab5b32f9c"},"vehicle_type_id":"4","last_reported":1768299241,"current_range_meters":2800,"station_id":"ce4bhnp2rcd13ifvqgvg","pricing_plan_id":"cebpf4jnsgd1na2vs0mg"},{"bike_id":"bf3c498d-7ed7-4550-8c77-b66d046b2193","system_id":"levelo_inurba_marseille","lat":43.31719,"lon":5.42393,"is_reserved":false,"is_disabled":false,"rental_uris":{"android":"levelo://app?vid=bf3c498d-7ed7-4550-8c77-b66d046b2193","ios":"levelo://app?vid=bf3c498d-7ed7-4550-8c77-b66d046b2193"},"vehicle_type_id":"4","last_reported":1768299241,"current_range_meters":2800,"station_id":"ce4bhp92rcd13ifvqhbg","pricing_plan_id":"cebpf4jnsgd1na2vs0mg"},{"bike_id":"87d2e836-66b2-4b54-8e1b-5859da189744","system_id":"levelo_inurba_marseille","lat":43.26653,"lon":5.38244,"is_reserved":false,"is_disabled":false,"rental_uris":{"android":"levelo://app?vid=87d2e836-66b2-4b54-8e1b-5859da189744","ios":"levelo://app?vid=87d2e836-66b2-4b54-8e1b-5859da189744"},"vehicle_type_id":"4","last_reported":1768299241,"current_range_meters":2800,"station_id":"ce4bhg92rcd13ifvqf90","pricing_plan_id":"cebpf4jnsgd1na2vs0mg"},{"bike_id":"857213d5-7353-4d98-a3cc-a303673faf43","system_id":"levelo_inurba_marseille","lat":43.255809,"lon":5.382161,"is_reserved":false,"is_disabled":false,"rental_uris":{"android":"levelo://app?vid=857213d5-7353-4d98-a3cc-a303673faf43","ios":"levelo://app?vid=857213d5-7353-4d98-a3cc-a303673faf43"},"vehicle_type_id":"4","last_reported":1768299241,"current_range_meters":3200,"station_id":"","pricing_plan_id":"cebpf4jnsgd1na2vs0mg"},{"bike_id":"7b6f12be-65ff-469f-954c-5bc823eb23e6","system_id":"levelo_inurba_marseille","lat":43.32502,"lon":5.36421,"is_reserved":false,"is_disabled":false,"rental_uris":{"android":"levelo://app?vid=7b6f12be-65ff-469f-954c-5bc823eb23e6","ios":"levelo://app?vid=7b6f12be-65ff-469f-954c-5bc823eb23e6"},"vehicle_type_id":"4","last_reported":1768299241,"current_range_meters":3200,"station_id":"","pricing_plan_id":"cebpf4jnsgd1na2vs0mg"},{"bike_id":"21f594df-8489-4ed1-9833-71f4d7d5f3e6","system_id":"levelo_inurba_marseille","lat":43.27607,"lon":5.3612,"is_reserved":false,"is_disabled":false,"rental_uris":{"android":"levelo://app?vid=21f594df-8489-4ed1-9833-71f4d7d5f3e6","ios":"levelo://app?vid=21f594df-8489-4ed1-9833-71f4d7d5f3e6"},"vehicle_type_id":"4","last_reported":1768299241,"current_range_meters":3200,"station_id":"ce4bgj92rcd13ifvqbe0","pricing_plan_id":"cebpf4jnsgd1na2vs0mg"},{"bike_id":"5b74f76c-7655-4a1b-bf0f-ee1d1ac9b692","system_id":"levelo_inurba_marseille","lat":43.3138,"lon":5.36807,"is_reserved":false,"is_disabled":false,"rental_uris":{"android":"levelo://app?vid=5b74f76c-7655-4a1b-bf0f-ee1d1ac9b692","ios":"levelo://app?vid=5b74f76c-7655-4a1b-bf0f-ee1d1ac9b692"},"vehicle_type_id":"4","last_reported":1768299241,"current_range_meters":3200,"station_id":"","pricing_plan_id":"cebpf4jnsgd1na2vs0mg"},{"bike_id":"bd6756f7-511c-452a-8ef8-3b85fe093b5c","system_id":"levelo_inurba_marseille","lat":43.284821,"lon":5.384126,"is_reserved":false,"is_disabled":false,"rental_uris":{"android":"levelo://app?vid=bd6756f7-511c-452a-8ef8-3b85fe093b5c","ios":"levelo://app?vid=bd6756f7-511c-452a-8ef8-3b85fe093b5c"},"vehicle_type_id":"4","last_reported":1768299241,"current_range_meters":3200,"station_id":"","pricing_plan_id":"cebpf4jnsgd1na2vs0mg"},{"bike_id":"8049ab61-e378-4478-bef4-ac0f529d7d1a","system_id":"levelo_inurba_marseille","lat":43.23188,"lon":5.35558,"is_reserved":false,"is_disabled":false,"rental_uris":{"android":"levelo://app?vid=8049ab61-e378-4478-bef4-ac0f529d7d1a","ios":"levelo://app?vid=8049ab61-e378-4478-bef4-ac0f529d7d1a"},"vehicle_type_id":"4","last_reported":1768299241,"current_range_meters":3200,"station_id":"ce4bhu92rcd13ifvqi70","pricing_plan_id":"cebpf4jnsgd1na2vs0mg"},{"bike_id":"824e0100-c6fc-4a0d-bafe-328ab4a682ff","system_id":"levelo_inurba_marseille","lat":43.32351,"lon":5.36768,"is_reserved":false,"is_disabled":false,"rental_uris":{"android":"levelo://app?vid=824e0100-c6fc-4a0d-bafe-328ab4a682ff","ios":"levelo://app?vid=824e0100-c6fc-4a0d-bafe-328ab4a682ff"},"vehicle_type_id":"4","last_reported":1768299241,"current_range_meters":3200,"station_id":"ce4bhsh2rcd13ifvqi2g","pricing_plan_id":"cebpf4jnsgd1na2vs0mg"},{"bike_id":"b81a771e-796c-40e5-98d5-2c3857393d80","system_id":"levelo_inurba_marseille","lat":43.2848,"lon":5.48395,"is_reserved":false,"is_disabled":false,"rental_uris":{"android":"levelo://app?vid=b81a771e-796c-40e5-98d5-2c3857393d80","ios":"levelo://app?vid=b81a771e-796c-40e5-98d5-2c3857393d80"},"vehicle_type_id":"4","last_reported":1768299241,"current_range_meters":3200,"station_id":"st_d3svhcjqgbts73a3dn0g","pricing_plan_id":"cebpf4jnsgd1na2vs0mg"},{"bike_id":"833c6aae-1551-4ad2-9cd6-685f0cd0612c","system_id":"levelo_inurba_marseille","lat":43.26958,"lon":5.38611,"is_reserved":false,"is_disabled":false,"rental_uris":{"android":"levelo://app?vid=833c6aae-1551-4ad2-9cd6-685f0cd0612c","ios":"levelo://app?vid=833c6aae-1551-4ad2-9cd6-685f0cd0612c"},"vehicle_type_id":"4","last_reported":1768299241,"current_range_meters":3200,"station_id":"ce4bhh92rcd13ifvqfh0","pricing_plan_id":"cebpf4jnsgd1na2vs0mg"},{"bike_id":"d4c76a3c-be64-4255-845b-8ccc9f87b7d9","system_id":"levelo_inurba_marseille","lat":43.29989,"lon":5.37371,"is_reserved":false,"is_disabled":false,"rental_uris":{"android":"levelo://app?vid=d4c76a3c-be64-4255-845b-8ccc9f87b7d9","ios":"levelo://app?vid=d4c76a3c-be64-4255-845b-8ccc9f87b7d9"},"vehicle_type_id":"4","last_reported":1768299241,"current_range_meters":3200,"station_id":"","pricing_plan_id":"cebpf4jnsgd1na2vs0mg"},{"bike_id":"c20b3c06-d7b4-4143-b6c5-a74ab7a8945b","system_id":"levelo_inurba_marseille","lat":43.24086,"lon":5.37733,"is_reserved":false,"is_disabled":false,"rental_uris":{"android":"levelo://app?vid=c20b3c06-d7b4-4143-b6c5-a74ab7a8945b","ios":"levelo://app?vid=c20b3c06-d7b4-4143-b6c5-a74ab7a8945b"},"vehicle_type_id":"4","last_reported":1768299241,"current_range_meters":3200,"station_id":"ce4bhnp2rcd13ifvqgvg","pricing_plan_id":"cebpf4jnsgd1na2vs0mg"},{"bike_id":"682a25db-2229-438e-a91a-bd8e0ed43f7f","system_id":"levelo_inurba_marseille","lat":43.30183,"lon":5.37068,"is_reserved":false,"is_disabled":false,"rental_uris":{"android":"levelo://app?vid=682a25db-2229-438e-a91a-bd8e0ed43f7f","ios":"levelo://app?vid=682a25db-2229-438e-a91a-bd8e0ed43f7f"},"vehicle_type_id":"4","last_reported":1768299241,"current_range_meters":3600,"station_id":"","pricing_plan_id":"cebpf4jnsgd1na2vs0mg"},{"bike_id":"3d97781d-2d21-4b0e-816f-1d736977c00d","system_id":"levelo_inurba_marseille","lat":43.31214,"lon":5.36845,"is_reserved":false,"is_disabled":false,"rental_uris":{"android":"levelo://app?vid=3d97781d-2d21-4b0e-816f-1d736977c00d","ios":"levelo://app?vid=3d97781d-2d21-4b0e-816f-1d736977c00d"},"vehicle_type_id":"4","last_reported":1768299241,"current_range_meters":3600,"station_id":"ce4bgl92rcd13ifvqbq0","pricing_plan_id":"cebpf4jnsgd1na2vs0mg"},{"bike_id":"63a8ad53-0407-4bea-a09c-eee796fd0c2b","system_id":"levelo_inurba_marseille","lat":43.27819,"lon":5.40678,"is_reserved":false,"is_disabled":false,"rental_uris":{"android":"levelo://app?vid=63a8ad53-0407-4bea-a09c-eee796fd0c2b","ios":"levelo://app?vid=63a8ad53-0407-4bea-a09c-eee796fd0c2b"},"vehicle_type_id":"4","last_reported":1768299241,"current_range_meters":3600,"station_id":"ce4bhnh2rcd13ifvqgtg","pricing_plan_id":"cebpf4jnsgd1na2vs0mg"},{"bike_id":"a3b66a73-aef3-42a6-bf24-ef2935218f23","system_id":"levelo_inurba_marseille","lat":43.32366,"lon":5.367017,"is_reserved":false,"is_disabled":false,"rental_uris":{"android":"levelo://app?vid=a3b66a73-aef3-42a6-bf24-ef2935218f23","ios":"levelo://app?vid=a3b66a73-aef3-42a6-bf24-ef2935218f23"},"vehicle_type_id":"4","last_reported":1768299241,"current_range_meters":3600,"station_id":"","pricing_plan_id":"cebpf4jnsgd1na2vs0mg"},{"bike_id":"a9e59faf-e98e-482c-a491-0e6d2cc3814e","system_id":"levelo_inurba_marseille","lat":43.29301,"lon":5.374623,"is_reserved":false,"is_disabled":false,"rental_uris":{"android":"levelo://app?vid=a9e59faf-e98e-482c-a491-0e6d2cc3814e","ios":"levelo://app?vid=a9e59faf-e98e-482c-a491-0e6d2cc3814e"},"vehicle_type_id":"4","last_reported":1768299241,"current_range_meters":3600,"station_id":"ce4bgi12rcd13ifvqb70","pricing_plan_id":"cebpf4jnsgd1na2vs0mg"},{"bike_id":"822bf8c4-2107-4985-9caf-c60c9968427e","system_id":"levelo_inurba_marseille","lat":43.28477,"lon":5.48396,"is_reserved":false,"is_disabled":false,"rental_uris":{"android":"levelo://app?vid=822bf8c4-2107-4985-9caf-c60c9968427e","ios":"levelo://app?vid=822bf8c4-2107-4985-9caf-c60c9968427e"},"vehicle_type_id":"4","last_reported":1768299241,"current_range_meters":3600,"station_id":"","pricing_plan_id":"cebpf4jnsgd1na2vs0mg"},{"bike_id":"d47eb976-c7fd-47bc-9bfc-e7edae3d1271","system_id":"levelo_inurba_marseille","lat":43.2849,"lon":5.3858,"is_reserved":false,"is_disabled":false,"rental_uris":{"android":"levelo://app?vid=d47eb976-c7fd-47bc-9bfc-e7edae3d1271","ios":"levelo://app?vid=d47eb976-c7fd-47bc-9bfc-e7edae3d1271"},"vehicle_type_id":"4","last_reported":1768299241,"current_range_meters":3600,"station_id":"ce4bh8p2rcd13ifvqeb0","pricing_plan_id":"cebpf4jnsgd1na2vs0mg"},{"bike_id":"ba8bb19e-b948-4645-92a6-eecd4da53529","system_id":"levelo_inurba_marseille","lat":43.2815,"lon":5.42658,"is_reserved":false,"is_disabled":false,"rental_uris":{"android":"levelo://app?vid=ba8bb19e-b948-4645-92a6-eecd4da53529","ios":"levelo://app?vid=ba8bb19e-b948-4645-92a6-eecd4da53529"},"vehicle_type_id":"4","last_reported":1768299241,"current_range_meters":3600,"station_id":"ce4bhnh2rcd13ifvqgug","pricing_plan_id":"cebpf4jnsgd1na2vs0mg"},{"bike_id":"8f9c5fef-eb25-471f-abc7-43f55327e6a6","system_id":"levelo_inurba_marseille","lat":43.27815,"lon":5.40772,"is_reserved":false,"is_disabled":false,"rental_uris":{"android":"levelo://app?vid=8f9c5fef-eb25-471f-abc7-43f55327e6a6","ios":"levelo://app?vid=8f9c5fef-eb25-471f-abc7-43f55327e6a6"},"vehicle_type_id":"4","last_reported":1768299241,"current_range_meters":4000,"station_id":"ce4bhnh2rcd13ifvqgtg","pricing_plan_id":"cebpf4jnsgd1na2vs0mg"},{"bike_id":"48e0d58e-bd7e-4b90-92d4-898fdf7abd39","system_id":"levelo_inurba_marseille","lat":43.30843,"lon":5.40596,"is_reserved":false,"is_disabled":false,"rental_uris":{"android":"levelo://app?vid=48e0d58e-bd7e-4b90-92d4-898fdf7abd39","ios":"levelo://app?vid=48e0d58e-bd7e-4b90-92d4-898fdf7abd39"},"vehicle_type_id":"4","last_reported":1768299241,"current_range_meters":4000,"station_id":"","pricing_plan_id":"cebpf4jnsgd1na2vs0mg"},{"bike_id":"c5cacf13-0b9c-41b5-94a2-55e05bf702f3","system_id":"levelo_inurba_marseille","lat":43.29722,"lon":5.37853,"is_reserved":false,"is_disabled":false,"rental_uris":{"android":"levelo://app?vid=c5cacf13-0b9c-41b5-94a2-55e05bf702f3","ios":"levelo://app?vid=c5cacf13-0b9c-41b5-94a2-55e05bf702f3"},"vehicle_type_id":"4","last_reported":1768299241,"current_range_meters":4000,"station_id":"","pricing_plan_id":"cebpf4jnsgd1na2vs0mg"},{"bike_id":"a0750e8b-6f08-4dec-ad7b-75931873cace","system_id":"levelo_inurba_marseille","lat":43.3014,"lon":5.37407,"is_reserved":false,"is_disabled":false,"rental_uris":{"android":"levelo://app?vid=a0750e8b-6f08-4dec-ad7b-75931873cace","ios":"levelo://app?vid=a0750e8b-6f08-4dec-ad7b-75931873cace"},"vehicle_type_id":"4","last_reported":1768299241,"current_range_meters":4000,"station_id":"ce4bgs92rcd13ifvqcc0","pricing_plan_id":"cebpf4jnsgd1na2vs0mg"},{"bike_id":"e27fe174-dbc1-4813-b9ea-cf0081e9a39a","system_id":"levelo_inurba_marseille","lat":43.2508,"lon":5.39534,"is_reserved":false,"is_disabled":false,"rental_uris":{"android":"levelo://app?vid=e27fe174-dbc1-4813-b9ea-cf0081e9a39a","ios":"levelo://app?vid=e27fe174-dbc1-4813-b9ea-cf0081e9a39a"},"vehicle_type_id":"4","last_reported":1768299241,"current_range_meters":4000,"station_id":"ce4bhm12rcd13ifvqgkg","pricing_plan_id":"cebpf4jnsgd1na2vs0mg"},{"bike_id":"d09f6bda-7c74-4aeb-aa68-aecbccafb22f","system_id":"levelo_inurba_marseille","lat":43.25945,"lon":5.40871,"is_reserved":false,"is_disabled":false,"rental_uris":{"android":"levelo://app?vid=d09f6bda-7c74-4aeb-aa68-aecbccafb22f","ios":"levelo://app?vid=d09f6bda-7c74-4aeb-aa68-aecbccafb22f"},"vehicle_type_id":"4","last_reported":1768299241,"current_range_meters":4000,"station_id":"ce4bhm92rcd13ifvqglg","pricing_plan_id":"cebpf4jnsgd1na2vs0mg"},{"bike_id":"e8916ff3-30a2-41e0-9fd1-34350ccd8aa3","system_id":"levelo_inurba_marseille","lat":43.28977,"lon":5.37832,"is_reserved":false,"is_disabled":false,"rental_uris":{"android":"levelo://app?vid=e8916ff3-30a2-41e0-9fd1-34350ccd8aa3","ios":"levelo://app?vid=e8916ff3-30a2-41e0-9fd1-34350ccd8aa3"},"vehicle_type_id":"4","last_reported":1768299241,"current_range_meters":4000,"station_id":"ce4bh9p2rcd13ifvqed0","pricing_plan_id":"cebpf4jnsgd1na2vs0mg"},{"bike_id":"8fadb16c-f49e-4001-96df-0a0b58d4f5f4","system_id":"levelo_inurba_marseille","lat":43.33157,"lon":5.37892,"is_reserved":false,"is_disabled":false,"rental_uris":{"android":"levelo://app?vid=8fadb16c-f49e-4001-96df-0a0b58d4f5f4","ios":"levelo://app?vid=8fadb16c-f49e-4001-96df-0a0b58d4f5f4"},"vehicle_type_id":"4","last_reported":1768299241,"current_range_meters":4000,"station_id":"","pricing_plan_id":"cebpf4jnsgd1na2vs0mg"},{"bike_id":"0cb7c07f-7d6d-4094-b8f5-473476bf2226","system_id":"levelo_inurba_marseille","lat":43.25325,"lon":5.42178,"is_reserved":false,"is_disabled":false,"rental_uris":{"android":"levelo://app?vid=0cb7c07f-7d6d-4094-b8f5-473476bf2226","ios":"levelo://app?vid=0cb7c07f-7d6d-4094-b8f5-473476bf2226"},"vehicle_type_id":"4","last_reported":1768299241,"current_range_meters":4000,"station_id":"st_d2m65c5bi1j21697t3ng","pricing_plan_id":"cebpf4jnsgd1na2vs0mg"},{"bike_id":"d4e448ef-1fe0-4a95-8364-c8d8662a9864","system_id":"levelo_inurba_marseille","lat":43.29045,"lon":5.3995,"is_reserved":false,"is_disabled":false,"rental_uris":{"android":"levelo://app?vid=d4e448ef-1fe0-4a95-8364-c8d8662a9864","ios":"levelo://app?vid=d4e448ef-1fe0-4a95-8364-c8d8662a9864"},"vehicle_type_id":"4","last_reported":1768299241,"current_range_meters":4000,"station_id":"ce4bh392rcd13ifvqdm0","pricing_plan_id":"cebpf4jnsgd1na2vs0mg"},{"bike_id":"d1d7ed20-2fc0-4bb0-b335-bddc0f061a5f","system_id":"levelo_inurba_marseille","lat":43.31037,"lon":5.37166,"is_reserved":false,"is_disabled":false,"rental_uris":{"android":"levelo://app?vid=d1d7ed20-2fc0-4bb0-b335-bddc0f061a5f","ios":"levelo://app?vid=d1d7ed20-2fc0-4bb0-b335-bddc0f061a5f"},"vehicle_type_id":"4","last_reported":1768299241,"current_range_meters":4000,"station_id":"st_d4kl2rp97mjs73e7tdfg","pricing_plan_id":"cebpf4jnsgd1na2vs0mg"},{"bike_id":"952412d5-8359-4eb6-9ee8-294a4128a280","system_id":"levelo_inurba_marseille","lat":43.29297,"lon":5.37334,"is_reserved":false,"is_disabled":false,"rental_uris":{"android":"levelo://app?vid=952412d5-8359-4eb6-9ee8-294a4128a280","ios":"levelo://app?vid=952412d5-8359-4eb6-9ee8-294a4128a280"},"vehicle_type_id":"4","last_reported":1768299241,"current_range_meters":4000,"station_id":"","pricing_plan_id":"cebpf4jnsgd1na2vs0mg"},{"bike_id":"cd0221e4-8d5e-4481-a072-4408c503f646","system_id":"levelo_inurba_marseille","lat":43.27995,"lon":5.41669,"is_reserved":false,"is_disabled":false,"rental_uris":{"android":"levelo://app?vid=cd0221e4-8d5e-4481-a072-4408c503f646","ios":"levelo://app?vid=cd0221e4-8d5e-4481-a072-4408c503f646"},"vehicle_type_id":"4","last_reported":1768299241,"current_range_meters":4000,"station_id":"ce4bho12rcd13ifvqh1g","pricing_plan_id":"cebpf4jnsgd1na2vs0mg"},{"bike_id":"bad9d05b-2efd-4707-af1a-d48b0eeaba21","system_id":"levelo_inurba_marseille","lat":43.24466,"lon":5.425493,"is_reserved":false,"is_disabled":false,"rental_uris":{"android":"levelo://app?vid=bad9d05b-2efd-4707-af1a-d48b0eeaba21","ios":"levelo://app?vid=bad9d05b-2efd-4707-af1a-d48b0eeaba21"},"vehicle_type_id":"4","last_reported":1768299241,"current_range_meters":4400,"station_id":"st_d4a3vfp97mjs738cd8kg","pricing_plan_id":"cebpf4jnsgd1na2vs0mg"},{"bike_id":"7fb0d18d-87f0-4490-ac9a-259338a041dc","system_id":"levelo_inurba_marseille","lat":43.23516,"lon":5.35972,"is_reserved":false,"is_disabled":false,"rental_uris":{"android":"levelo://app?vid=7fb0d18d-87f0-4490-ac9a-259338a041dc","ios":"levelo://app?vid=7fb0d18d-87f0-4490-ac9a-259338a041dc"},"vehicle_type_id":"4","last_reported":1768299241,"current_range_meters":4400,"station_id":"","pricing_plan_id":"cebpf4jnsgd1na2vs0mg"},{"bike_id":"f2feb58b-2e1d-410d-a362-6a4d0a6ad00a","system_id":"levelo_inurba_marseille","lat":43.2693,"lon":5.40249,"is_reserved":false,"is_disabled":false,"rental_uris":{"android":"levelo://app?vid=f2feb58b-2e1d-410d-a362-6a4d0a6ad00a","ios":"levelo://app?vid=f2feb58b-2e1d-410d-a362-6a4d0a6ad00a"},"vehicle_type_id":"4","last_reported":1768299241,"current_range_meters":4400,"station_id":"cjm6bp8fraef2m0cb0m0","pricing_plan_id":"cebpf4jnsgd1na2vs0mg"},{"bike_id":"85350876-e62d-4f96-bfae-1d6a5f000069","system_id":"levelo_inurba_marseille","lat":43.26689,"lon":5.38281,"is_reserved":false,"is_disabled":false,"rental_uris":{"android":"levelo://app?vid=85350876-e62d-4f96-bfae-1d6a5f000069","ios":"levelo://app?vid=85350876-e62d-4f96-bfae-1d6a5f000069"},"vehicle_type_id":"4","last_reported":1768299241,"current_range_meters":4400,"station_id":"ce4bhg92rcd13ifvqf90","pricing_plan_id":"cebpf4jnsgd1na2vs0mg"},{"bike_id":"2455333c-abb5-40b2-83d1-6df58226f70a","system_id":"levelo_inurba_marseille","lat":43.32882,"lon":5.38952,"is_reserved":false,"is_disabled":false,"rental_uris":{"android":"levelo://app?vid=2455333c-abb5-40b2-83d1-6df58226f70a","ios":"levelo://app?vid=2455333c-abb5-40b2-83d1-6df58226f70a"},"vehicle_type_id":"4","last_reported":1768299241,"current_range_meters":4400,"station_id":"","pricing_plan_id":"cebpf4jnsgd1na2vs0mg"},{"bike_id":"38d076d2-a3a0-46d0-b800-0eaafad476d4","system_id":"levelo_inurba_marseille","lat":43.2821,"lon":5.40373,"is_reserved":false,"is_disabled":false,"rental_uris":{"android":"levelo://app?vid=38d076d2-a3a0-46d0-b800-0eaafad476d4","ios":"levelo://app?vid=38d076d2-a3a0-46d0-b800-0eaafad476d4"},"vehicle_type_id":"4","last_reported":1768299241,"current_range_meters":4400,"station_id":"","pricing_plan_id":"cebpf4jnsgd1na2vs0mg"},{"bike_id":"4202e215-6f29-4f58-ace8-2e6289f05e81","system_id":"levelo_inurba_marseille","lat":43.23955,"lon":5.3664,"is_reserved":false,"is_disabled":false,"rental_uris":{"android":"levelo://app?vid=4202e215-6f29-4f58-ace8-2e6289f05e81","ios":"levelo://app?vid=4202e215-6f29-4f58-ace8-2e6289f05e81"},"vehicle_type_id":"4","last_reported":1768299241,"current_range_meters":4400,"station_id":"ce4bhi12rcd13ifvqfp0","pricing_plan_id":"cebpf4jnsgd1na2vs0mg"},{"bike_id":"55c6ad73-056a-48ab-8b17-b539ed3ba0f3","system_id":"levelo_inurba_marseille","lat":43.314655,"lon":5.367887,"is_reserved":false,"is_disabled":false,"rental_uris":{"android":"levelo://app?vid=55c6ad73-056a-48ab-8b17-b539ed3ba0f3","ios":"levelo://app?vid=55c6ad73-056a-48ab-8b17-b539ed3ba0f3"},"vehicle_type_id":"4","last_reported":1768299241,"current_range_meters":4400,"station_id":"ce4bgs12rcd13ifvqcag","pricing_plan_id":"cebpf4jnsgd1na2vs0mg"},{"bike_id":"a39af5d8-dd1b-461d-a11b-118d2ac20fe7","system_id":"levelo_inurba_marseille","lat":43.2743,"lon":5.3941,"is_reserved":false,"is_disabled":false,"rental_uris":{"android":"levelo://app?vid=a39af5d8-dd1b-461d-a11b-118d2ac20fe7","ios":"levelo://app?vid=a39af5d8-dd1b-461d-a11b-118d2ac20fe7"},"vehicle_type_id":"4","last_reported":1768299241,"current_range_meters":4400,"station_id":"ce4bhdp2rcd13ifvqf20","pricing_plan_id":"cebpf4jnsgd1na2vs0mg"},{"bike_id":"a38bcbb1-c226-4bc2-8672-2e7d0273da8d","system_id":"levelo_inurba_marseille","lat":43.32345,"lon":5.36745,"is_reserved":false,"is_disabled":false,"rental_uris":{"android":"levelo://app?vid=a38bcbb1-c226-4bc2-8672-2e7d0273da8d","ios":"levelo://app?vid=a38bcbb1-c226-4bc2-8672-2e7d0273da8d"},"vehicle_type_id":"4","last_reported":1768299241,"current_range_meters":4800,"station_id":"ce4bhsh2rcd13ifvqi2g","pricing_plan_id":"cebpf4jnsgd1na2vs0mg"},{"bike_id":"e3615a85-f48a-4303-a1b7-ba1422ee46f8","system_id":"levelo_inurba_marseille","lat":43.29958,"lon":5.41311,"is_reserved":false,"is_disabled":false,"rental_uris":{"android":"levelo://app?vid=e3615a85-f48a-4303-a1b7-ba1422ee46f8","ios":"levelo://app?vid=e3615a85-f48a-4303-a1b7-ba1422ee46f8"},"vehicle_type_id":"4","last_reported":1768299241,"current_range_meters":4800,"station_id":"ce4bhp12rcd13ifvqh9g","pricing_plan_id":"cebpf4jnsgd1na2vs0mg"},{"bike_id":"d195700f-dd48-4a4d-8da2-ab1e15e93935","system_id":"levelo_inurba_marseille","lat":43.295183,"lon":5.375088,"is_reserved":false,"is_disabled":false,"rental_uris":{"android":"levelo://app?vid=d195700f-dd48-4a4d-8da2-ab1e15e93935","ios":"levelo://app?vid=d195700f-dd48-4a4d-8da2-ab1e15e93935"},"vehicle_type_id":"4","last_reported":1768299241,"current_range_meters":4800,"station_id":"ce4bgkp2rcd13ifvqbmg","pricing_plan_id":"cebpf4jnsgd1na2vs0mg"},{"bike_id":"fd5c22af-551e-4b5c-a587-8bd6f93a7d5e","system_id":"levelo_inurba_marseille","lat":43.27945,"lon":5.41031,"is_reserved":false,"is_disabled":false,"rental_uris":{"android":"levelo://app?vid=fd5c22af-551e-4b5c-a587-8bd6f93a7d5e","ios":"levelo://app?vid=fd5c22af-551e-4b5c-a587-8bd6f93a7d5e"},"vehicle_type_id":"4","last_reported":1768299241,"current_range_meters":4800,"station_id":"","pricing_plan_id":"cebpf4jnsgd1na2vs0mg"},{"bike_id":"9bd81498-1c2d-46cc-b134-62e2c3cd9ba1","system_id":"levelo_inurba_marseille","lat":43.2885,"lon":5.42542,"is_reserved":false,"is_disabled":false,"rental_uris":{"android":"levelo://app?vid=9bd81498-1c2d-46cc-b134-62e2c3cd9ba1","ios":"levelo://app?vid=9bd81498-1c2d-46cc-b134-62e2c3cd9ba1"},"vehicle_type_id":"4","last_reported":1768299241,"current_range_meters":4800,"station_id":"st_d3b462108ojc7389ooeg","pricing_plan_id":"cebpf4jnsgd1na2vs0mg"},{"bike_id":"bb872cf3-111a-4da5-8326-64266a28cac2","system_id":"levelo_inurba_marseille","lat":43.260678,"lon":5.393934,"is_reserved":false,"is_disabled":false,"rental_uris":{"android":"levelo://app?vid=bb872cf3-111a-4da5-8326-64266a28cac2","ios":"levelo://app?vid=bb872cf3-111a-4da5-8326-64266a28cac2"},"vehicle_type_id":"4","last_reported":1768299241,"current_range_meters":4800,"station_id":"ce4bhh92rcd13ifvqfj0","pricing_plan_id":"cebpf4jnsgd1na2vs0mg"},{"bike_id":"9f295e7a-65c6-4272-9043-5a3d89670383","system_id":"levelo_inurba_marseille","lat":43.24808,"lon":5.3746,"is_reserved":false,"is_disabled":false,"rental_uris":{"android":"levelo://app?vid=9f295e7a-65c6-4272-9043-5a3d89670383","ios":"levelo://app?vid=9f295e7a-65c6-4272-9043-5a3d89670383"},"vehicle_type_id":"4","last_reported":1768299241,"current_range_meters":4800,"station_id":"ce4bhgh2rcd13ifvqfb0","pricing_plan_id":"cebpf4jnsgd1na2vs0mg"},{"bike_id":"73b96b81-43e6-4f21-b2c5-c69df8be558b","system_id":"levelo_inurba_marseille","lat":43.25934,"lon":5.4091,"is_reserved":false,"is_disabled":false,"rental_uris":{"android":"levelo://app?vid=73b96b81-43e6-4f21-b2c5-c69df8be558b","ios":"levelo://app?vid=73b96b81-43e6-4f21-b2c5-c69df8be558b"},"vehicle_type_id":"4","last_reported":1768299241,"current_range_meters":4800,"station_id":"ce4bhm92rcd13ifvqglg","pricing_plan_id":"cebpf4jnsgd1na2vs0mg"},{"bike_id":"f4d56beb-17a4-43ae-a1b7-ece3f3acf3f9","system_id":"levelo_inurba_marseille","lat":43.279937,"lon":5.416574,"is_reserved":false,"is_disabled":false,"rental_uris":{"android":"levelo://app?vid=f4d56beb-17a4-43ae-a1b7-ece3f3acf3f9","ios":"levelo://app?vid=f4d56beb-17a4-43ae-a1b7-ece3f3acf3f9"},"vehicle_type_id":"4","last_reported":1768299241,"current_range_meters":4800,"station_id":"ce4bho12rcd13ifvqh1g","pricing_plan_id":"cebpf4jnsgd1na2vs0mg"},{"bike_id":"e5576008-bfc7-442b-81af-0e23e3cd7c0c","system_id":"levelo_inurba_marseille","lat":43.290291,"lon":5.399954,"is_reserved":false,"is_disabled":false,"rental_uris":{"android":"levelo://app?vid=e5576008-bfc7-442b-81af-0e23e3cd7c0c","ios":"levelo://app?vid=e5576008-bfc7-442b-81af-0e23e3cd7c0c"},"vehicle_type_id":"4","last_reported":1768299241,"current_range_meters":5600,"station_id":"ce4bh392rcd13ifvqdm0","pricing_plan_id":"cebpf4jnsgd1na2vs0mg"},{"bike_id":"a27f6a61-689d-49de-951e-01c7ddaa0581","system_id":"levelo_inurba_marseille","lat":43.2417,"lon":5.36399,"is_reserved":false,"is_disabled":false,"rental_uris":{"android":"levelo://app?vid=a27f6a61-689d-49de-951e-01c7ddaa0581","ios":"levelo://app?vid=a27f6a61-689d-49de-951e-01c7ddaa0581"},"vehicle_type_id":"4","last_reported":1768299241,"current_range_meters":5600,"station_id":"cpo36qri1sfpv3e86is0","pricing_plan_id":"cebpf4jnsgd1na2vs0mg"},{"bike_id":"d82f2577-1bef-4096-a0af-a4f4f06ae13c","system_id":"levelo_inurba_marseille","lat":43.27812,"lon":5.40722,"is_reserved":false,"is_disabled":false,"rental_uris":{"android":"levelo://app?vid=d82f2577-1bef-4096-a0af-a4f4f06ae13c","ios":"levelo://app?vid=d82f2577-1bef-4096-a0af-a4f4f06ae13c"},"vehicle_type_id":"4","last_reported":1768299241,"current_range_meters":5600,"station_id":"ce4bhnh2rcd13ifvqgtg","pricing_plan_id":"cebpf4jnsgd1na2vs0mg"},{"bike_id":"47fa8c07-02d3-44db-8c89-106a6ddb4f66","system_id":"levelo_inurba_marseille","lat":43.2954,"lon":5.3854,"is_reserved":false,"is_disabled":false,"rental_uris":{"android":"levelo://app?vid=47fa8c07-02d3-44db-8c89-106a6ddb4f66","ios":"levelo://app?vid=47fa8c07-02d3-44db-8c89-106a6ddb4f66"},"vehicle_type_id":"4","last_reported":1768299241,"current_range_meters":5600,"station_id":"ce4bgih2rcd13ifvqba0","pricing_plan_id":"cebpf4jnsgd1na2vs0mg"},{"bike_id":"e17a9c82-8846-45df-b367-7545f106e168","system_id":"levelo_inurba_marseille","lat":43.31329,"lon":5.38424,"is_reserved":false,"is_disabled":false,"rental_uris":{"android":"levelo://app?vid=e17a9c82-8846-45df-b367-7545f106e168","ios":"levelo://app?vid=e17a9c82-8846-45df-b367-7545f106e168"},"vehicle_type_id":"4","last_reported":1768299241,"current_range_meters":5600,"station_id":"","pricing_plan_id":"cebpf4jnsgd1na2vs0mg"},{"bike_id":"d57094ce-7af8-428e-9753-4201f05f4a86","system_id":"levelo_inurba_marseille","lat":43.248105,"lon":5.374591,"is_reserved":false,"is_disabled":false,"rental_uris":{"android":"levelo://app?vid=d57094ce-7af8-428e-9753-4201f05f4a86","ios":"levelo://app?vid=d57094ce-7af8-428e-9753-4201f05f4a86"},"vehicle_type_id":"4","last_reported":1768299241,"current_range_meters":5600,"station_id":"ce4bhgh2rcd13ifvqfb0","pricing_plan_id":"cebpf4jnsgd1na2vs0mg"},{"bike_id":"16945599-a8b0-427a-bfa0-436fe89b6d82","system_id":"levelo_inurba_marseille","lat":43.31021,"lon":5.37203,"is_reserved":false,"is_disabled":false,"rental_uris":{"android":"levelo://app?vid=16945599-a8b0-427a-bfa0-436fe89b6d82","ios":"levelo://app?vid=16945599-a8b0-427a-bfa0-436fe89b6d82"},"vehicle_type_id":"4","last_reported":1768299241,"current_range_meters":5600,"station_id":"st_d4kl2rp97mjs73e7tdfg","pricing_plan_id":"cebpf4jnsgd1na2vs0mg"},{"bike_id":"f3260bf6-b6e1-4b69-a585-0ec627cbc07a","system_id":"levelo_inurba_marseille","lat":43.28964,"lon":5.37847,"is_reserved":false,"is_disabled":false,"rental_uris":{"android":"levelo://app?vid=f3260bf6-b6e1-4b69-a585-0ec627cbc07a","ios":"levelo://app?vid=f3260bf6-b6e1-4b69-a585-0ec627cbc07a"},"vehicle_type_id":"4","last_reported":1768299241,"current_range_meters":5600,"station_id":"ce4bh9p2rcd13ifvqed0","pricing_plan_id":"cebpf4jnsgd1na2vs0mg"},{"bike_id":"95d1a547-8b14-44f2-9976-03f9cf0f6b77","system_id":"levelo_inurba_marseille","lat":43.2605,"lon":5.39396,"is_reserved":false,"is_disabled":false,"rental_uris":{"android":"levelo://app?vid=95d1a547-8b14-44f2-9976-03f9cf0f6b77","ios":"levelo://app?vid=95d1a547-8b14-44f2-9976-03f9cf0f6b77"},"vehicle_type_id":"4","last_reported":1768299241,"current_range_meters":5600,"station_id":"ce4bhh92rcd13ifvqfj0","pricing_plan_id":"cebpf4jnsgd1na2vs0mg"},{"bike_id":"c5b0e4e4-c0dd-441f-992f-a632a50a9951","system_id":"levelo_inurba_marseille","lat":43.27621,"lon":5.36119,"is_reserved":false,"is_disabled":false,"rental_uris":{"android":"levelo://app?vid=c5b0e4e4-c0dd-441f-992f-a632a50a9951","ios":"levelo://app?vid=c5b0e4e4-c0dd-441f-992f-a632a50a9951"},"vehicle_type_id":"4","last_reported":1768299241,"current_range_meters":5600,"station_id":"ce4bgj92rcd13ifvqbe0","pricing_plan_id":"cebpf4jnsgd1na2vs0mg"},{"bike_id":"1bc4dd22-8b42-4ae1-b96e-ede97fc223cf","system_id":"levelo_inurba_marseille","lat":43.29898,"lon":5.37797,"is_reserved":false,"is_disabled":false,"rental_uris":{"android":"levelo://app?vid=1bc4dd22-8b42-4ae1-b96e-ede97fc223cf","ios":"levelo://app?vid=1bc4dd22-8b42-4ae1-b96e-ede97fc223cf"},"vehicle_type_id":"4","last_reported":1768299241,"current_range_meters":5600,"station_id":"","pricing_plan_id":"cebpf4jnsgd1na2vs0mg"},{"bike_id":"62a6a880-8c2f-4973-954e-dca5b666173d","system_id":"levelo_inurba_marseille","lat":43.29933,"lon":5.37358,"is_reserved":false,"is_disabled":false,"rental_uris":{"android":"levelo://app?vid=62a6a880-8c2f-4973-954e-dca5b666173d","ios":"levelo://app?vid=62a6a880-8c2f-4973-954e-dca5b666173d"},"vehicle_type_id":"4","last_reported":1768299241,"current_range_meters":5600,"station_id":"","pricing_plan_id":"cebpf4jnsgd1na2vs0mg"},{"bike_id":"6acfeab5-3193-42db-addf-63a0cc42e629","system_id":"levelo_inurba_marseille","lat":43.301422,"lon":5.380741,"is_reserved":false,"is_disabled":false,"rental_uris":{"android":"levelo://app?vid=6acfeab5-3193-42db-addf-63a0cc42e629","ios":"levelo://app?vid=6acfeab5-3193-42db-addf-63a0cc42e629"},"vehicle_type_id":"4","last_reported":1768299241,"current_range_meters":5600,"station_id":"ce4bgjp2rcd13ifvqbh0","pricing_plan_id":"cebpf4jnsgd1na2vs0mg"},{"bike_id":"f49b5bee-e2f5-416e-ae69-8940360ec155","system_id":"levelo_inurba_marseille","lat":43.30143,"lon":5.38093,"is_reserved":false,"is_disabled":false,"rental_uris":{"android":"levelo://app?vid=f49b5bee-e2f5-416e-ae69-8940360ec155","ios":"levelo://app?vid=f49b5bee-e2f5-416e-ae69-8940360ec155"},"vehicle_type_id":"4","last_reported":1768299241,"current_range_meters":5600,"station_id":"ce4bgjp2rcd13ifvqbh0","pricing_plan_id":"cebpf4jnsgd1na2vs0mg"},{"bike_id":"4b7e622a-4d92-44a0-b6d5-24d6b5445f5c","system_id":"levelo_inurba_marseille","lat":43.32696,"lon":5.39555,"is_reserved":false,"is_disabled":false,"rental_uris":{"android":"levelo://app?vid=4b7e622a-4d92-44a0-b6d5-24d6b5445f5c","ios":"levelo://app?vid=4b7e622a-4d92-44a0-b6d5-24d6b5445f5c"},"vehicle_type_id":"4","last_reported":1768299241,"current_range_meters":5600,"station_id":"","pricing_plan_id":"cebpf4jnsgd1na2vs0mg"},{"bike_id":"db182b38-fee4-46bf-93fb-ced6dd6ca22e","system_id":"levelo_inurba_marseille","lat":43.2694,"lon":5.38902,"is_reserved":false,"is_disabled":false,"rental_uris":{"android":"levelo://app?vid=db182b38-fee4-46bf-93fb-ced6dd6ca22e","ios":"levelo://app?vid=db182b38-fee4-46bf-93fb-ced6dd6ca22e"},"vehicle_type_id":"4","last_reported":1768299241,"current_range_meters":5600,"station_id":"ce4bhhh2rcd13ifvqfl0","pricing_plan_id":"cebpf4jnsgd1na2vs0mg"},{"bike_id":"1fab451c-a69a-44ca-b2c3-fe8939fd9580","system_id":"levelo_inurba_marseille","lat":43.31502,"lon":5.4142,"is_reserved":false,"is_disabled":false,"rental_uris":{"android":"levelo://app?vid=1fab451c-a69a-44ca-b2c3-fe8939fd9580","ios":"levelo://app?vid=1fab451c-a69a-44ca-b2c3-fe8939fd9580"},"vehicle_type_id":"4","last_reported":1768299241,"current_range_meters":5600,"station_id":"","pricing_plan_id":"cebpf4jnsgd1na2vs0mg"},{"bike_id":"3d25f8b5-0355-4f62-9b28-c1b917d3f92e","system_id":"levelo_inurba_marseille","lat":43.336032,"lon":5.410364,"is_reserved":false,"is_disabled":false,"rental_uris":{"android":"levelo://app?vid=3d25f8b5-0355-4f62-9b28-c1b917d3f92e","ios":"levelo://app?vid=3d25f8b5-0355-4f62-9b28-c1b917d3f92e"},"vehicle_type_id":"4","last_reported":1768299241,"current_range_meters":6000,"station_id":"ce4bhqh2rcd13ifvqhmg","pricing_plan_id":"cebpf4jnsgd1na2vs0mg"},{"bike_id":"0d8bdad2-5a48-4130-b1d1-7a2240d16195","system_id":"levelo_inurba_marseille","lat":43.29576,"lon":5.37489,"is_reserved":false,"is_disabled":false,"rental_uris":{"android":"levelo://app?vid=0d8bdad2-5a48-4130-b1d1-7a2240d16195","ios":"levelo://app?vid=0d8bdad2-5a48-4130-b1d1-7a2240d16195"},"vehicle_type_id":"4","last_reported":1768299241,"current_range_meters":6000,"station_id":"ce4bgh92rcd13ifvqb50","pricing_plan_id":"cebpf4jnsgd1na2vs0mg"},{"bike_id":"73995964-5fd9-40f3-be62-12151c415e47","system_id":"levelo_inurba_marseille","lat":43.24991,"lon":5.38956,"is_reserved":false,"is_disabled":false,"rental_uris":{"android":"levelo://app?vid=73995964-5fd9-40f3-be62-12151c415e47","ios":"levelo://app?vid=73995964-5fd9-40f3-be62-12151c415e47"},"vehicle_type_id":"4","last_reported":1768299241,"current_range_meters":6000,"station_id":"ce4bhgp2rcd13ifvqfd0","pricing_plan_id":"cebpf4jnsgd1na2vs0mg"},{"bike_id":"4e3d6d82-906c-4359-bb4c-5b997113e1ff","system_id":"levelo_inurba_marseille","lat":43.30544,"lon":5.36544,"is_reserved":false,"is_disabled":false,"rental_uris":{"android":"levelo://app?vid=4e3d6d82-906c-4359-bb4c-5b997113e1ff","ios":"levelo://app?vid=4e3d6d82-906c-4359-bb4c-5b997113e1ff"},"vehicle_type_id":"4","last_reported":1768299241,"current_range_meters":6000,"station_id":"ce4bgs12rcd13ifvqcag","pricing_plan_id":"cebpf4jnsgd1na2vs0mg"},{"bike_id":"0fafc9bc-eab3-4497-b4de-e36867104d5a","system_id":"levelo_inurba_marseille","lat":43.260673,"lon":5.393917,"is_reserved":false,"is_disabled":false,"rental_uris":{"android":"levelo://app?vid=0fafc9bc-eab3-4497-b4de-e36867104d5a","ios":"levelo://app?vid=0fafc9bc-eab3-4497-b4de-e36867104d5a"},"vehicle_type_id":"4","last_reported":1768299241,"current_range_meters":6000,"station_id":"ce4bhh92rcd13ifvqfj0","pricing_plan_id":"cebpf4jnsgd1na2vs0mg"},{"bike_id":"c9aa61c2-bf79-4eea-867a-5fdf9f19baaf","system_id":"levelo_inurba_marseille","lat":43.25514,"lon":5.37651,"is_reserved":false,"is_disabled":false,"rental_uris":{"android":"levelo://app?vid=c9aa61c2-bf79-4eea-867a-5fdf9f19baaf","ios":"levelo://app?vid=c9aa61c2-bf79-4eea-867a-5fdf9f19baaf"},"vehicle_type_id":"4","last_reported":1768299241,"current_range_meters":6000,"station_id":"ce4bhh12rcd13ifvqff0","pricing_plan_id":"cebpf4jnsgd1na2vs0mg"},{"bike_id":"c4fcc189-751d-4eb2-af69-d5ccf6bfb543","system_id":"levelo_inurba_marseille","lat":43.28477,"lon":5.484,"is_reserved":false,"is_disabled":false,"rental_uris":{"android":"levelo://app?vid=c4fcc189-751d-4eb2-af69-d5ccf6bfb543","ios":"levelo://app?vid=c4fcc189-751d-4eb2-af69-d5ccf6bfb543"},"vehicle_type_id":"4","last_reported":1768299241,"current_range_meters":6000,"station_id":"","pricing_plan_id":"cebpf4jnsgd1na2vs0mg"},{"bike_id":"aa71df00-ac67-458a-bb07-9f22d4867495","system_id":"levelo_inurba_marseille","lat":43.24392,"lon":5.37089,"is_reserved":false,"is_disabled":false,"rental_uris":{"android":"levelo://app?vid=aa71df00-ac67-458a-bb07-9f22d4867495","ios":"levelo://app?vid=aa71df00-ac67-458a-bb07-9f22d4867495"},"vehicle_type_id":"4","last_reported":1768299241,"current_range_meters":6000,"station_id":"ce4bhhh2rcd13ifvqfk0","pricing_plan_id":"cebpf4jnsgd1na2vs0mg"},{"bike_id":"ba9aa4b5-9ae3-4347-ba16-0b79f803aee5","system_id":"levelo_inurba_marseille","lat":43.29853,"lon":5.40933,"is_reserved":false,"is_disabled":false,"rental_uris":{"android":"levelo://app?vid=ba9aa4b5-9ae3-4347-ba16-0b79f803aee5","ios":"levelo://app?vid=ba9aa4b5-9ae3-4347-ba16-0b79f803aee5"},"vehicle_type_id":"4","last_reported":1768299241,"current_range_meters":6000,"station_id":"","pricing_plan_id":"cebpf4jnsgd1na2vs0mg"},{"bike_id":"c4719649-1dbc-4c5a-b782-8fce65146957","system_id":"levelo_inurba_marseille","lat":43.28552,"lon":5.44078,"is_reserved":false,"is_disabled":false,"rental_uris":{"android":"levelo://app?vid=c4719649-1dbc-4c5a-b782-8fce65146957","ios":"levelo://app?vid=c4719649-1dbc-4c5a-b782-8fce65146957"},"vehicle_type_id":"4","last_reported":1768299241,"current_range_meters":6000,"station_id":"st_d3j3df2ikq2c7380ej80","pricing_plan_id":"cebpf4jnsgd1na2vs0mg"},{"bike_id":"fbaef028-ec74-4c9f-8bef-75df8753715b","system_id":"levelo_inurba_marseille","lat":43.29052,"lon":5.37066,"is_reserved":false,"is_disabled":false,"rental_uris":{"android":"levelo://app?vid=fbaef028-ec74-4c9f-8bef-75df8753715b","ios":"levelo://app?vid=fbaef028-ec74-4c9f-8bef-75df8753715b"},"vehicle_type_id":"4","last_reported":1768299241,"current_range_meters":6000,"station_id":"","pricing_plan_id":"cebpf4jnsgd1na2vs0mg"},{"bike_id":"6ab62250-5818-43ed-b656-9cf3ea931848","system_id":"levelo_inurba_marseille","lat":43.282647,"lon":5.350586,"is_reserved":false,"is_disabled":false,"rental_uris":{"android":"levelo://app?vid=6ab62250-5818-43ed-b656-9cf3ea931848","ios":"levelo://app?vid=6ab62250-5818-43ed-b656-9cf3ea931848"},"vehicle_type_id":"4","last_reported":1768299241,"current_range_meters":6000,"station_id":"ce4bhbp2rcd13ifvqerg","pricing_plan_id":"cebpf4jnsgd1na2vs0mg"},{"bike_id":"9c6ac982-85bd-4de8-bac0-c36b3d884f3d","system_id":"levelo_inurba_marseille","lat":43.321062,"lon":5.367704,"is_reserved":false,"is_disabled":false,"rental_uris":{"android":"levelo://app?vid=9c6ac982-85bd-4de8-bac0-c36b3d884f3d","ios":"levelo://app?vid=9c6ac982-85bd-4de8-bac0-c36b3d884f3d"},"vehicle_type_id":"4","last_reported":1768299241,"current_range_meters":6000,"station_id":"ce4bhrh2rcd13ifvqhug","pricing_plan_id":"cebpf4jnsgd1na2vs0mg"},{"bike_id":"67fc3f81-6423-416b-bf03-eef32759bffd","system_id":"levelo_inurba_marseille","lat":43.28173,"lon":5.37426,"is_reserved":false,"is_disabled":false,"rental_uris":{"android":"levelo://app?vid=67fc3f81-6423-416b-bf03-eef32759bffd","ios":"levelo://app?vid=67fc3f81-6423-416b-bf03-eef32759bffd"},"vehicle_type_id":"4","last_reported":1768299241,"current_range_meters":6000,"station_id":"","pricing_plan_id":"cebpf4jnsgd1na2vs0mg"},{"bike_id":"d8d7ad5e-c2fa-478d-b3b0-fd535d1957bb","system_id":"levelo_inurba_marseille","lat":43.2558,"lon":5.38235,"is_reserved":false,"is_disabled":false,"rental_uris":{"android":"levelo://app?vid=d8d7ad5e-c2fa-478d-b3b0-fd535d1957bb","ios":"levelo://app?vid=d8d7ad5e-c2fa-478d-b3b0-fd535d1957bb"},"vehicle_type_id":"4","last_reported":1768299241,"current_range_meters":6000,"station_id":"ce4bhih2rcd13ifvqfs0","pricing_plan_id":"cebpf4jnsgd1na2vs0mg"},{"bike_id":"63b1856a-5e73-4949-8313-642a7aae66aa","system_id":"levelo_inurba_marseille","lat":43.22922,"lon":5.3538,"is_reserved":false,"is_disabled":false,"rental_uris":{"android":"levelo://app?vid=63b1856a-5e73-4949-8313-642a7aae66aa","ios":"levelo://app?vid=63b1856a-5e73-4949-8313-642a7aae66aa"},"vehicle_type_id":"4","last_reported":1768299241,"current_range_meters":6000,"station_id":"cpo3532slgdg3j2ikp40","pricing_plan_id":"cebpf4jnsgd1na2vs0mg"},{"bike_id":"a5fdd8c3-d5e0-4c98-a5d1-c952389257b2","system_id":"levelo_inurba_marseille","lat":43.246196,"lon":5.431545,"is_reserved":false,"is_disabled":false,"rental_uris":{"android":"levelo://app?vid=a5fdd8c3-d5e0-4c98-a5d1-c952389257b2","ios":"levelo://app?vid=a5fdd8c3-d5e0-4c98-a5d1-c952389257b2"},"vehicle_type_id":"4","last_reported":1768299241,"current_range_meters":6000,"station_id":"st_d2m6c4gdas8pm72e190g","pricing_plan_id":"cebpf4jnsgd1na2vs0mg"},{"bike_id":"f51dc72f-678e-4f06-a74d-58fc8553e175","system_id":"levelo_inurba_marseille","lat":43.26374,"lon":5.41055,"is_reserved":false,"is_disabled":false,"rental_uris":{"android":"levelo://app?vid=f51dc72f-678e-4f06-a74d-58fc8553e175","ios":"levelo://app?vid=f51dc72f-678e-4f06-a74d-58fc8553e175"},"vehicle_type_id":"4","last_reported":1768299241,"current_range_meters":6000,"station_id":"st_d4e5ca6na9uc73bfl5fg","pricing_plan_id":"cebpf4jnsgd1na2vs0mg"},{"bike_id":"1b1a670a-fcf4-4828-aa79-e1b72cfec18c","system_id":"levelo_inurba_marseille","lat":43.2319,"lon":5.35533,"is_reserved":false,"is_disabled":false,"rental_uris":{"android":"levelo://app?vid=1b1a670a-fcf4-4828-aa79-e1b72cfec18c","ios":"levelo://app?vid=1b1a670a-fcf4-4828-aa79-e1b72cfec18c"},"vehicle_type_id":"4","last_reported":1768299241,"current_range_meters":6000,"station_id":"ce4bhu92rcd13ifvqi70","pricing_plan_id":"cebpf4jnsgd1na2vs0mg"},{"bike_id":"b659a5a2-a6de-438e-b560-ec4a8dc93085","system_id":"levelo_inurba_marseille","lat":43.262219,"lon":5.404553,"is_reserved":false,"is_disabled":false,"rental_uris":{"android":"levelo://app?vid=b659a5a2-a6de-438e-b560-ec4a8dc93085","ios":"levelo://app?vid=b659a5a2-a6de-438e-b560-ec4a8dc93085"},"vehicle_type_id":"4","last_reported":1768299241,"current_range_meters":6000,"station_id":"ce4bhmh2rcd13ifvqgmg","pricing_plan_id":"cebpf4jnsgd1na2vs0mg"},{"bike_id":"cdb7f885-d79c-4a7f-be8b-87d7e51ae524","system_id":"levelo_inurba_marseille","lat":43.30644,"lon":5.40526,"is_reserved":false,"is_disabled":false,"rental_uris":{"android":"levelo://app?vid=cdb7f885-d79c-4a7f-be8b-87d7e51ae524","ios":"levelo://app?vid=cdb7f885-d79c-4a7f-be8b-87d7e51ae524"},"vehicle_type_id":"4","last_reported":1768299241,"current_range_meters":6000,"station_id":"ce4bh112rcd13ifvqda0","pricing_plan_id":"cebpf4jnsgd1na2vs0mg"},{"bike_id":"af0b862d-1b21-408c-b115-209a492a88a8","system_id":"levelo_inurba_marseille","lat":43.32359,"lon":5.36763,"is_reserved":false,"is_disabled":false,"rental_uris":{"android":"levelo://app?vid=af0b862d-1b21-408c-b115-209a492a88a8","ios":"levelo://app?vid=af0b862d-1b21-408c-b115-209a492a88a8"},"vehicle_type_id":"4","last_reported":1768299241,"current_range_meters":6400,"station_id":"ce4bhsh2rcd13ifvqi2g","pricing_plan_id":"cebpf4jnsgd1na2vs0mg"},{"bike_id":"0e7aa57a-77c1-40b0-a4eb-63a9b6c73c36","system_id":"levelo_inurba_marseille","lat":43.31339,"lon":5.36699,"is_reserved":false,"is_disabled":false,"rental_uris":{"android":"levelo://app?vid=0e7aa57a-77c1-40b0-a4eb-63a9b6c73c36","ios":"levelo://app?vid=0e7aa57a-77c1-40b0-a4eb-63a9b6c73c36"},"vehicle_type_id":"4","last_reported":1768299241,"current_range_meters":6400,"station_id":"ce4bgr92rcd13ifvqc6g","pricing_plan_id":"cebpf4jnsgd1na2vs0mg"},{"bike_id":"15b21ccb-bd0e-47c3-8259-e27d2855772d","system_id":"levelo_inurba_marseille","lat":43.246,"lon":5.38418,"is_reserved":false,"is_disabled":false,"rental_uris":{"android":"levelo://app?vid=15b21ccb-bd0e-47c3-8259-e27d2855772d","ios":"levelo://app?vid=15b21ccb-bd0e-47c3-8259-e27d2855772d"},"vehicle_type_id":"4","last_reported":1768299241,"current_range_meters":6400,"station_id":"","pricing_plan_id":"cebpf4jnsgd1na2vs0mg"},{"bike_id":"b72b93cb-6c8e-4cf4-ac55-2a683c755517","system_id":"levelo_inurba_marseille","lat":43.29272,"lon":5.36854,"is_reserved":false,"is_disabled":false,"rental_uris":{"android":"levelo://app?vid=b72b93cb-6c8e-4cf4-ac55-2a683c755517","ios":"levelo://app?vid=b72b93cb-6c8e-4cf4-ac55-2a683c755517"},"vehicle_type_id":"4","last_reported":1768299241,"current_range_meters":6400,"station_id":"ce4bhbp2rcd13ifvqesg","pricing_plan_id":"cebpf4jnsgd1na2vs0mg"},{"bike_id":"7b7c4d5a-48b0-4253-8d68-ce9bdb9244be","system_id":"levelo_inurba_marseille","lat":43.2652,"lon":5.37346,"is_reserved":false,"is_disabled":false,"rental_uris":{"android":"levelo://app?vid=7b7c4d5a-48b0-4253-8d68-ce9bdb9244be","ios":"levelo://app?vid=7b7c4d5a-48b0-4253-8d68-ce9bdb9244be"},"vehicle_type_id":"4","last_reported":1768299241,"current_range_meters":6400,"station_id":"","pricing_plan_id":"cebpf4jnsgd1na2vs0mg"},{"bike_id":"f177f7bc-1ed5-42e0-a608-82886412a4e4","system_id":"levelo_inurba_marseille","lat":43.23963,"lon":5.36623,"is_reserved":false,"is_disabled":false,"rental_uris":{"android":"levelo://app?vid=f177f7bc-1ed5-42e0-a608-82886412a4e4","ios":"levelo://app?vid=f177f7bc-1ed5-42e0-a608-82886412a4e4"},"vehicle_type_id":"4","last_reported":1768299241,"current_range_meters":6400,"station_id":"ce4bhi12rcd13ifvqfp0","pricing_plan_id":"cebpf4jnsgd1na2vs0mg"},{"bike_id":"e0390093-e93c-4352-a447-1922bd291a25","system_id":"levelo_inurba_marseille","lat":43.241593,"lon":5.364043,"is_reserved":false,"is_disabled":false,"rental_uris":{"android":"levelo://app?vid=e0390093-e93c-4352-a447-1922bd291a25","ios":"levelo://app?vid=e0390093-e93c-4352-a447-1922bd291a25"},"vehicle_type_id":"4","last_reported":1768299241,"current_range_meters":6400,"station_id":"cpo36qri1sfpv3e86is0","pricing_plan_id":"cebpf4jnsgd1na2vs0mg"},{"bike_id":"889365ac-dd9e-4bc8-95c4-120ab5729ad1","system_id":"levelo_inurba_marseille","lat":43.25626,"lon":5.38094,"is_reserved":false,"is_disabled":false,"rental_uris":{"android":"levelo://app?vid=889365ac-dd9e-4bc8-95c4-120ab5729ad1","ios":"levelo://app?vid=889365ac-dd9e-4bc8-95c4-120ab5729ad1"},"vehicle_type_id":"4","last_reported":1768299241,"current_range_meters":6400,"station_id":"ce4bhih2rcd13ifvqfs0","pricing_plan_id":"cebpf4jnsgd1na2vs0mg"},{"bike_id":"b3940cd9-99e9-416d-932b-b96244c66170","system_id":"levelo_inurba_marseille","lat":43.313297,"lon":5.367313,"is_reserved":false,"is_disabled":false,"rental_uris":{"android":"levelo://app?vid=b3940cd9-99e9-416d-932b-b96244c66170","ios":"levelo://app?vid=b3940cd9-99e9-416d-932b-b96244c66170"},"vehicle_type_id":"4","last_reported":1768299241,"current_range_meters":6400,"station_id":"ce4bgr92rcd13ifvqc6g","pricing_plan_id":"cebpf4jnsgd1na2vs0mg"},{"bike_id":"63fc7043-c019-4251-abc3-87e8519908fa","system_id":"levelo_inurba_marseille","lat":43.26691,"lon":5.38277,"is_reserved":false,"is_disabled":true,"rental_uris":{"android":"levelo://app?vid=63fc7043-c019-4251-abc3-87e8519908fa","ios":"levelo://app?vid=63fc7043-c019-4251-abc3-87e8519908fa"},"vehicle_type_id":"4","last_reported":1768299241,"current_range_meters":6400,"station_id":"ce4bhg92rcd13ifvqf90","pricing_plan_id":"cebpf4jnsgd1na2vs0mg"},{"bike_id":"e7f880b9-9ced-4dbf-8dbc-b70fe3a8fb49","system_id":"levelo_inurba_marseille","lat":43.32356,"lon":5.36731,"is_reserved":false,"is_disabled":false,"rental_uris":{"android":"levelo://app?vid=e7f880b9-9ced-4dbf-8dbc-b70fe3a8fb49","ios":"levelo://app?vid=e7f880b9-9ced-4dbf-8dbc-b70fe3a8fb49"},"vehicle_type_id":"4","last_reported":1768299241,"current_range_meters":6400,"station_id":"ce4bhsh2rcd13ifvqi2g","pricing_plan_id":"cebpf4jnsgd1na2vs0mg"},{"bike_id":"312681fa-4d84-401f-8387-2d987d0df7e0","system_id":"levelo_inurba_marseille","lat":43.323555,"lon":5.36741,"is_reserved":false,"is_disabled":false,"rental_uris":{"android":"levelo://app?vid=312681fa-4d84-401f-8387-2d987d0df7e0","ios":"levelo://app?vid=312681fa-4d84-401f-8387-2d987d0df7e0"},"vehicle_type_id":"4","last_reported":1768299241,"current_range_meters":6400,"station_id":"ce4bhsh2rcd13ifvqi2g","pricing_plan_id":"cebpf4jnsgd1na2vs0mg"},{"bike_id":"2cc9db73-43c9-4a56-a963-4c4c6878c41f","system_id":"levelo_inurba_marseille","lat":43.23842,"lon":5.36647,"is_reserved":false,"is_disabled":false,"rental_uris":{"android":"levelo://app?vid=2cc9db73-43c9-4a56-a963-4c4c6878c41f","ios":"levelo://app?vid=2cc9db73-43c9-4a56-a963-4c4c6878c41f"},"vehicle_type_id":"4","last_reported":1768299241,"current_range_meters":6400,"station_id":"","pricing_plan_id":"cebpf4jnsgd1na2vs0mg"},{"bike_id":"8b08bb50-6a89-4b43-8d1d-7b39db0febba","system_id":"levelo_inurba_marseille","lat":43.239665,"lon":5.366309,"is_reserved":false,"is_disabled":false,"rental_uris":{"android":"levelo://app?vid=8b08bb50-6a89-4b43-8d1d-7b39db0febba","ios":"levelo://app?vid=8b08bb50-6a89-4b43-8d1d-7b39db0febba"},"vehicle_type_id":"4","last_reported":1768299241,"current_range_meters":6400,"station_id":"ce4bhi12rcd13ifvqfp0","pricing_plan_id":"cebpf4jnsgd1na2vs0mg"},{"bike_id":"b3770d3d-e9f3-4509-810c-c8a1e08032c0","system_id":"levelo_inurba_marseille","lat":43.3053,"lon":5.3672,"is_reserved":false,"is_disabled":false,"rental_uris":{"android":"levelo://app?vid=b3770d3d-e9f3-4509-810c-c8a1e08032c0","ios":"levelo://app?vid=b3770d3d-e9f3-4509-810c-c8a1e08032c0"},"vehicle_type_id":"4","last_reported":1768299241,"current_range_meters":6400,"station_id":"ce4bgrp2rcd13ifvqc9g","pricing_plan_id":"cebpf4jnsgd1na2vs0mg"},{"bike_id":"211ec44e-3c55-4f6a-ba7f-076ed97e6b91","system_id":"levelo_inurba_marseille","lat":43.27073,"lon":5.4024,"is_reserved":false,"is_disabled":false,"rental_uris":{"android":"levelo://app?vid=211ec44e-3c55-4f6a-ba7f-076ed97e6b91","ios":"levelo://app?vid=211ec44e-3c55-4f6a-ba7f-076ed97e6b91"},"vehicle_type_id":"4","last_reported":1768299241,"current_range_meters":6400,"station_id":"ce4bhk92rcd13ifvqgc0","pricing_plan_id":"cebpf4jnsgd1na2vs0mg"},{"bike_id":"c982d76b-7fd6-451c-9063-ebda7a233a9e","system_id":"levelo_inurba_marseille","lat":43.26928,"lon":5.40262,"is_reserved":false,"is_disabled":false,"rental_uris":{"android":"levelo://app?vid=c982d76b-7fd6-451c-9063-ebda7a233a9e","ios":"levelo://app?vid=c982d76b-7fd6-451c-9063-ebda7a233a9e"},"vehicle_type_id":"4","last_reported":1768299241,"current_range_meters":6400,"station_id":"cjm6bp8fraef2m0cb0m0","pricing_plan_id":"cebpf4jnsgd1na2vs0mg"},{"bike_id":"98381cda-b3a9-4a41-913e-3012641b7216","system_id":"levelo_inurba_marseille","lat":43.29831,"lon":5.37655,"is_reserved":false,"is_disabled":false,"rental_uris":{"android":"levelo://app?vid=98381cda-b3a9-4a41-913e-3012641b7216","ios":"levelo://app?vid=98381cda-b3a9-4a41-913e-3012641b7216"},"vehicle_type_id":"4","last_reported":1768299241,"current_range_meters":6400,"station_id":"","pricing_plan_id":"cebpf4jnsgd1na2vs0mg"},{"bike_id":"b60c8777-50a1-4187-b012-61c8b2392d61","system_id":"levelo_inurba_marseille","lat":43.2416,"lon":5.364,"is_reserved":false,"is_disabled":false,"rental_uris":{"android":"levelo://app?vid=b60c8777-50a1-4187-b012-61c8b2392d61","ios":"levelo://app?vid=b60c8777-50a1-4187-b012-61c8b2392d61"},"vehicle_type_id":"4","last_reported":1768299241,"current_range_meters":6400,"station_id":"cpo36qri1sfpv3e86is0","pricing_plan_id":"cebpf4jnsgd1na2vs0mg"},{"bike_id":"73159171-0e70-4889-87e6-07eac0d40625","system_id":"levelo_inurba_marseille","lat":43.2257,"lon":5.41626,"is_reserved":false,"is_disabled":false,"rental_uris":{"android":"levelo://app?vid=73159171-0e70-4889-87e6-07eac0d40625","ios":"levelo://app?vid=73159171-0e70-4889-87e6-07eac0d40625"},"vehicle_type_id":"4","last_reported":1768299241,"current_range_meters":6400,"station_id":"st_d2o4gvlbi1j2169b742g","pricing_plan_id":"cebpf4jnsgd1na2vs0mg"},{"bike_id":"b563b9ee-f431-483e-9b3a-89ae67e2e8da","system_id":"levelo_inurba_marseille","lat":43.26193,"lon":5.37955,"is_reserved":false,"is_disabled":false,"rental_uris":{"android":"levelo://app?vid=b563b9ee-f431-483e-9b3a-89ae67e2e8da","ios":"levelo://app?vid=b563b9ee-f431-483e-9b3a-89ae67e2e8da"},"vehicle_type_id":"4","last_reported":1768299241,"current_range_meters":6800,"station_id":"ce4bhjp2rcd13ifvqg90","pricing_plan_id":"cebpf4jnsgd1na2vs0mg"},{"bike_id":"48552377-c0da-47bd-9cc5-42866d61d2d9","system_id":"levelo_inurba_marseille","lat":43.23153,"lon":5.43725,"is_reserved":false,"is_disabled":false,"rental_uris":{"android":"levelo://app?vid=48552377-c0da-47bd-9cc5-42866d61d2d9","ios":"levelo://app?vid=48552377-c0da-47bd-9cc5-42866d61d2d9"},"vehicle_type_id":"4","last_reported":1768299241,"current_range_meters":6800,"station_id":"ce4bhmp2rcd13ifvqgog","pricing_plan_id":"cebpf4jnsgd1na2vs0mg"},{"bike_id":"795ddae1-ae1b-4c99-8722-65054d820f53","system_id":"levelo_inurba_marseille","lat":43.2872,"lon":5.3793,"is_reserved":false,"is_disabled":false,"rental_uris":{"android":"levelo://app?vid=795ddae1-ae1b-4c99-8722-65054d820f53","ios":"levelo://app?vid=795ddae1-ae1b-4c99-8722-65054d820f53"},"vehicle_type_id":"4","last_reported":1768299241,"current_range_meters":6800,"station_id":"ce4bh9p2rcd13ifvqec0","pricing_plan_id":"cebpf4jnsgd1na2vs0mg"},{"bike_id":"3131342a-e8d7-4b61-a752-64517a314409","system_id":"levelo_inurba_marseille","lat":43.24078,"lon":5.37764,"is_reserved":false,"is_disabled":false,"rental_uris":{"android":"levelo://app?vid=3131342a-e8d7-4b61-a752-64517a314409","ios":"levelo://app?vid=3131342a-e8d7-4b61-a752-64517a314409"},"vehicle_type_id":"4","last_reported":1768299241,"current_range_meters":6800,"station_id":"ce4bhnp2rcd13ifvqgvg","pricing_plan_id":"cebpf4jnsgd1na2vs0mg"},{"bike_id":"4fcf8939-d9e5-44a3-8f16-b04dcd32071a","system_id":"levelo_inurba_marseille","lat":43.24181,"lon":5.36371,"is_reserved":false,"is_disabled":false,"rental_uris":{"android":"levelo://app?vid=4fcf8939-d9e5-44a3-8f16-b04dcd32071a","ios":"levelo://app?vid=4fcf8939-d9e5-44a3-8f16-b04dcd32071a"},"vehicle_type_id":"4","last_reported":1768299241,"current_range_meters":6800,"station_id":"cpo36qri1sfpv3e86is0","pricing_plan_id":"cebpf4jnsgd1na2vs0mg"},{"bike_id":"ce421665-3c26-4baa-b8ec-61eb8aef5e07","system_id":"levelo_inurba_marseille","lat":43.28069,"lon":5.40733,"is_reserved":false,"is_disabled":false,"rental_uris":{"android":"levelo://app?vid=ce421665-3c26-4baa-b8ec-61eb8aef5e07","ios":"levelo://app?vid=ce421665-3c26-4baa-b8ec-61eb8aef5e07"},"vehicle_type_id":"4","last_reported":1768299241,"current_range_meters":6800,"station_id":"","pricing_plan_id":"cebpf4jnsgd1na2vs0mg"},{"bike_id":"d21624bd-c474-47d2-a770-cf5d5a2cb126","system_id":"levelo_inurba_marseille","lat":43.24467,"lon":5.42539,"is_reserved":false,"is_disabled":false,"rental_uris":{"android":"levelo://app?vid=d21624bd-c474-47d2-a770-cf5d5a2cb126","ios":"levelo://app?vid=d21624bd-c474-47d2-a770-cf5d5a2cb126"},"vehicle_type_id":"4","last_reported":1768299241,"current_range_meters":6800,"station_id":"st_d4a3vfp97mjs738cd8kg","pricing_plan_id":"cebpf4jnsgd1na2vs0mg"},{"bike_id":"1dba3e81-740c-4446-a739-c7a379d3755e","system_id":"levelo_inurba_marseille","lat":43.30531,"lon":5.36552,"is_reserved":false,"is_disabled":false,"rental_uris":{"android":"levelo://app?vid=1dba3e81-740c-4446-a739-c7a379d3755e","ios":"levelo://app?vid=1dba3e81-740c-4446-a739-c7a379d3755e"},"vehicle_type_id":"4","last_reported":1768299241,"current_range_meters":6800,"station_id":"ce4bgs12rcd13ifvqcag","pricing_plan_id":"cebpf4jnsgd1na2vs0mg"},{"bike_id":"e7077856-9009-4ce4-8ea1-5cdd0a9f0d4d","system_id":"levelo_inurba_marseille","lat":43.2761,"lon":5.3612,"is_reserved":false,"is_disabled":false,"rental_uris":{"android":"levelo://app?vid=e7077856-9009-4ce4-8ea1-5cdd0a9f0d4d","ios":"levelo://app?vid=e7077856-9009-4ce4-8ea1-5cdd0a9f0d4d"},"vehicle_type_id":"4","last_reported":1768299241,"current_range_meters":6800,"station_id":"ce4bgj92rcd13ifvqbe0","pricing_plan_id":"cebpf4jnsgd1na2vs0mg"},{"bike_id":"57effd47-00ac-4489-b2f4-1fcd170adb3b","system_id":"levelo_inurba_marseille","lat":43.29547,"lon":5.37538,"is_reserved":false,"is_disabled":false,"rental_uris":{"android":"levelo://app?vid=57effd47-00ac-4489-b2f4-1fcd170adb3b","ios":"levelo://app?vid=57effd47-00ac-4489-b2f4-1fcd170adb3b"},"vehicle_type_id":"4","last_reported":1768299241,"current_range_meters":6800,"station_id":"ce4bgh92rcd13ifvqb50","pricing_plan_id":"cebpf4jnsgd1na2vs0mg"},{"bike_id":"89d8ec93-9f06-4aec-80e0-9ac281b159e5","system_id":"levelo_inurba_marseille","lat":43.29878,"lon":5.38916,"is_reserved":false,"is_disabled":false,"rental_uris":{"android":"levelo://app?vid=89d8ec93-9f06-4aec-80e0-9ac281b159e5","ios":"levelo://app?vid=89d8ec93-9f06-4aec-80e0-9ac281b159e5"},"vehicle_type_id":"4","last_reported":1768299241,"current_range_meters":6800,"station_id":"ce4bh392rcd13ifvqdl0","pricing_plan_id":"cebpf4jnsgd1na2vs0mg"},{"bike_id":"f72a0330-2774-442c-a3bd-2da9f092a731","system_id":"levelo_inurba_marseille","lat":43.32367,"lon":5.36766,"is_reserved":false,"is_disabled":false,"rental_uris":{"android":"levelo://app?vid=f72a0330-2774-442c-a3bd-2da9f092a731","ios":"levelo://app?vid=f72a0330-2774-442c-a3bd-2da9f092a731"},"vehicle_type_id":"4","last_reported":1768299241,"current_range_meters":6800,"station_id":"ce4bhsh2rcd13ifvqi2g","pricing_plan_id":"cebpf4jnsgd1na2vs0mg"},{"bike_id":"9faf0c5a-0d5e-47e0-9f03-4a446e4bcdd5","system_id":"levelo_inurba_marseille","lat":43.26939,"lon":5.40249,"is_reserved":false,"is_disabled":false,"rental_uris":{"android":"levelo://app?vid=9faf0c5a-0d5e-47e0-9f03-4a446e4bcdd5","ios":"levelo://app?vid=9faf0c5a-0d5e-47e0-9f03-4a446e4bcdd5"},"vehicle_type_id":"4","last_reported":1768299241,"current_range_meters":6800,"station_id":"cjm6bp8fraef2m0cb0m0","pricing_plan_id":"cebpf4jnsgd1na2vs0mg"},{"bike_id":"573219be-8449-4b0b-914b-5825e3035243","system_id":"levelo_inurba_marseille","lat":43.23195,"lon":5.3556,"is_reserved":false,"is_disabled":false,"rental_uris":{"android":"levelo://app?vid=573219be-8449-4b0b-914b-5825e3035243","ios":"levelo://app?vid=573219be-8449-4b0b-914b-5825e3035243"},"vehicle_type_id":"4","last_reported":1768299241,"current_range_meters":6800,"station_id":"ce4bhu92rcd13ifvqi70","pricing_plan_id":"cebpf4jnsgd1na2vs0mg"},{"bike_id":"397ab187-fc7e-4b08-94c8-d7a1cbd7c07b","system_id":"levelo_inurba_marseille","lat":43.29291,"lon":5.37451,"is_reserved":false,"is_disabled":false,"rental_uris":{"android":"levelo://app?vid=397ab187-fc7e-4b08-94c8-d7a1cbd7c07b","ios":"levelo://app?vid=397ab187-fc7e-4b08-94c8-d7a1cbd7c07b"},"vehicle_type_id":"4","last_reported":1768299241,"current_range_meters":7200,"station_id":"ce4bgi12rcd13ifvqb70","pricing_plan_id":"cebpf4jnsgd1na2vs0mg"},{"bike_id":"6846db8e-90fb-4e30-93fa-8789900d77b9","system_id":"levelo_inurba_marseille","lat":43.25911,"lon":5.40881,"is_reserved":false,"is_disabled":false,"rental_uris":{"android":"levelo://app?vid=6846db8e-90fb-4e30-93fa-8789900d77b9","ios":"levelo://app?vid=6846db8e-90fb-4e30-93fa-8789900d77b9"},"vehicle_type_id":"4","last_reported":1768299241,"current_range_meters":7200,"station_id":"ce4bhm92rcd13ifvqglg","pricing_plan_id":"cebpf4jnsgd1na2vs0mg"},{"bike_id":"d06fb8ff-b65e-46fe-ba3f-114fbfe14af3","system_id":"levelo_inurba_marseille","lat":43.26694,"lon":5.39943,"is_reserved":false,"is_disabled":false,"rental_uris":{"android":"levelo://app?vid=d06fb8ff-b65e-46fe-ba3f-114fbfe14af3","ios":"levelo://app?vid=d06fb8ff-b65e-46fe-ba3f-114fbfe14af3"},"vehicle_type_id":"4","last_reported":1768299241,"current_range_meters":7200,"station_id":"","pricing_plan_id":"cebpf4jnsgd1na2vs0mg"},{"bike_id":"7d0e7a7d-96db-49d8-a2e7-61cbdc2de6d0","system_id":"levelo_inurba_marseille","lat":43.30545,"lon":5.36556,"is_reserved":false,"is_disabled":false,"rental_uris":{"android":"levelo://app?vid=7d0e7a7d-96db-49d8-a2e7-61cbdc2de6d0","ios":"levelo://app?vid=7d0e7a7d-96db-49d8-a2e7-61cbdc2de6d0"},"vehicle_type_id":"4","last_reported":1768299241,"current_range_meters":7200,"station_id":"ce4bgs12rcd13ifvqcag","pricing_plan_id":"cebpf4jnsgd1na2vs0mg"},{"bike_id":"50df1513-8882-4403-8f50-7facfcd0de34","system_id":"levelo_inurba_marseille","lat":43.24173,"lon":5.36385,"is_reserved":false,"is_disabled":false,"rental_uris":{"android":"levelo://app?vid=50df1513-8882-4403-8f50-7facfcd0de34","ios":"levelo://app?vid=50df1513-8882-4403-8f50-7facfcd0de34"},"vehicle_type_id":"4","last_reported":1768299241,"current_range_meters":7200,"station_id":"cpo36qri1sfpv3e86is0","pricing_plan_id":"cebpf4jnsgd1na2vs0mg"},{"bike_id":"f7d36b9d-bf7c-43f6-b8d1-8e54d4f4e01e","system_id":"levelo_inurba_marseille","lat":43.315151,"lon":5.380328,"is_reserved":false,"is_disabled":false,"rental_uris":{"android":"levelo://app?vid=f7d36b9d-bf7c-43f6-b8d1-8e54d4f4e01e","ios":"levelo://app?vid=f7d36b9d-bf7c-43f6-b8d1-8e54d4f4e01e"},"vehicle_type_id":"4","last_reported":1768299241,"current_range_meters":7200,"station_id":"ce4bghh2rcd13ifvqb60","pricing_plan_id":"cebpf4jnsgd1na2vs0mg"},{"bike_id":"dbca4029-d08e-4725-b682-eaca4b614f30","system_id":"levelo_inurba_marseille","lat":43.32237,"lon":5.36895,"is_reserved":false,"is_disabled":false,"rental_uris":{"android":"levelo://app?vid=dbca4029-d08e-4725-b682-eaca4b614f30","ios":"levelo://app?vid=dbca4029-d08e-4725-b682-eaca4b614f30"},"vehicle_type_id":"4","last_reported":1768299241,"current_range_meters":7200,"station_id":"","pricing_plan_id":"cebpf4jnsgd1na2vs0mg"},{"bike_id":"03482d4a-80ad-4999-94e3-fd3a919a2e5b","system_id":"levelo_inurba_marseille","lat":43.27619,"lon":5.35853,"is_reserved":false,"is_disabled":false,"rental_uris":{"android":"levelo://app?vid=03482d4a-80ad-4999-94e3-fd3a919a2e5b","ios":"levelo://app?vid=03482d4a-80ad-4999-94e3-fd3a919a2e5b"},"vehicle_type_id":"4","last_reported":1768299241,"current_range_meters":7200,"station_id":"","pricing_plan_id":"cebpf4jnsgd1na2vs0mg"},{"bike_id":"dc2113b1-2f8d-4c2f-ab99-e0406a41f773","system_id":"levelo_inurba_marseille","lat":43.24805,"lon":5.3746,"is_reserved":false,"is_disabled":false,"rental_uris":{"android":"levelo://app?vid=dc2113b1-2f8d-4c2f-ab99-e0406a41f773","ios":"levelo://app?vid=dc2113b1-2f8d-4c2f-ab99-e0406a41f773"},"vehicle_type_id":"4","last_reported":1768299241,"current_range_meters":7200,"station_id":"ce4bhgh2rcd13ifvqfb0","pricing_plan_id":"cebpf4jnsgd1na2vs0mg"},{"bike_id":"ebb5087b-3381-4951-aaf2-e4de092cfd5d","system_id":"levelo_inurba_marseille","lat":43.25334,"lon":5.42179,"is_reserved":false,"is_disabled":false,"rental_uris":{"android":"levelo://app?vid=ebb5087b-3381-4951-aaf2-e4de092cfd5d","ios":"levelo://app?vid=ebb5087b-3381-4951-aaf2-e4de092cfd5d"},"vehicle_type_id":"4","last_reported":1768299241,"current_range_meters":7200,"station_id":"st_d2m65c5bi1j21697t3ng","pricing_plan_id":"cebpf4jnsgd1na2vs0mg"},{"bike_id":"73220d44-cfc8-4a61-ad7c-e12bb2c20f84","system_id":"levelo_inurba_marseille","lat":43.32458,"lon":5.36567,"is_reserved":false,"is_disabled":false,"rental_uris":{"android":"levelo://app?vid=73220d44-cfc8-4a61-ad7c-e12bb2c20f84","ios":"levelo://app?vid=73220d44-cfc8-4a61-ad7c-e12bb2c20f84"},"vehicle_type_id":"4","last_reported":1768299241,"current_range_meters":7200,"station_id":"ce4bhs12rcd13ifvqhvg","pricing_plan_id":"cebpf4jnsgd1na2vs0mg"},{"bike_id":"5675f538-c2bf-4c44-b372-b20c87f688c0","system_id":"levelo_inurba_marseille","lat":43.29584,"lon":5.38094,"is_reserved":false,"is_disabled":false,"rental_uris":{"android":"levelo://app?vid=5675f538-c2bf-4c44-b372-b20c87f688c0","ios":"levelo://app?vid=5675f538-c2bf-4c44-b372-b20c87f688c0"},"vehicle_type_id":"4","last_reported":1768299241,"current_range_meters":7200,"station_id":"ce4bgl12rcd13ifvqbo0","pricing_plan_id":"cebpf4jnsgd1na2vs0mg"},{"bike_id":"b088ad58-7f41-4ab8-80da-21ba2cb9e467","system_id":"levelo_inurba_marseille","lat":43.2255,"lon":5.41627,"is_reserved":false,"is_disabled":false,"rental_uris":{"android":"levelo://app?vid=b088ad58-7f41-4ab8-80da-21ba2cb9e467","ios":"levelo://app?vid=b088ad58-7f41-4ab8-80da-21ba2cb9e467"},"vehicle_type_id":"4","last_reported":1768299241,"current_range_meters":7200,"station_id":"st_d2o4gvlbi1j2169b742g","pricing_plan_id":"cebpf4jnsgd1na2vs0mg"},{"bike_id":"cb7933d8-d861-42e2-9166-370355de4b93","system_id":"levelo_inurba_marseille","lat":43.25723,"lon":5.41114,"is_reserved":false,"is_disabled":false,"rental_uris":{"android":"levelo://app?vid=cb7933d8-d861-42e2-9166-370355de4b93","ios":"levelo://app?vid=cb7933d8-d861-42e2-9166-370355de4b93"},"vehicle_type_id":"4","last_reported":1768299241,"current_range_meters":7200,"station_id":"ce4bhkp2rcd13ifvqgd0","pricing_plan_id":"cebpf4jnsgd1na2vs0mg"},{"bike_id":"40a5f518-4ec1-4f9c-ada8-7bc0d6856aa5","system_id":"levelo_inurba_marseille","lat":43.241721,"lon":5.363972,"is_reserved":false,"is_disabled":false,"rental_uris":{"android":"levelo://app?vid=40a5f518-4ec1-4f9c-ada8-7bc0d6856aa5","ios":"levelo://app?vid=40a5f518-4ec1-4f9c-ada8-7bc0d6856aa5"},"vehicle_type_id":"4","last_reported":1768299241,"current_range_meters":7200,"station_id":"cpo36qri1sfpv3e86is0","pricing_plan_id":"cebpf4jnsgd1na2vs0mg"},{"bike_id":"a5e4775c-fe09-4d93-916a-5022170bcc25","system_id":"levelo_inurba_marseille","lat":43.2418,"lon":5.36377,"is_reserved":false,"is_disabled":false,"rental_uris":{"android":"levelo://app?vid=a5e4775c-fe09-4d93-916a-5022170bcc25","ios":"levelo://app?vid=a5e4775c-fe09-4d93-916a-5022170bcc25"},"vehicle_type_id":"4","last_reported":1768299241,"current_range_meters":7200,"station_id":"cpo36qri1sfpv3e86is0","pricing_plan_id":"cebpf4jnsgd1na2vs0mg"},{"bike_id":"9d302b28-772b-421f-bb70-3b8b14ec8dfe","system_id":"levelo_inurba_marseille","lat":43.290441,"lon":5.375677,"is_reserved":false,"is_disabled":false,"rental_uris":{"android":"levelo://app?vid=9d302b28-772b-421f-bb70-3b8b14ec8dfe","ios":"levelo://app?vid=9d302b28-772b-421f-bb70-3b8b14ec8dfe"},"vehicle_type_id":"4","last_reported":1768299241,"current_range_meters":7200,"station_id":"ce4bh692rcd13ifvqe90","pricing_plan_id":"cebpf4jnsgd1na2vs0mg"},{"bike_id":"38b39450-3195-45d5-b465-938994e14bc8","system_id":"levelo_inurba_marseille","lat":43.28933,"lon":5.36645,"is_reserved":false,"is_disabled":false,"rental_uris":{"android":"levelo://app?vid=38b39450-3195-45d5-b465-938994e14bc8","ios":"levelo://app?vid=38b39450-3195-45d5-b465-938994e14bc8"},"vehicle_type_id":"4","last_reported":1768299241,"current_range_meters":7200,"station_id":"ce4bhap2rcd13ifvqek0","pricing_plan_id":"cebpf4jnsgd1na2vs0mg"},{"bike_id":"8ccb4d15-dc5a-41db-bd72-f625abbbf50c","system_id":"levelo_inurba_marseille","lat":43.29183,"lon":5.37144,"is_reserved":false,"is_disabled":false,"rental_uris":{"android":"levelo://app?vid=8ccb4d15-dc5a-41db-bd72-f625abbbf50c","ios":"levelo://app?vid=8ccb4d15-dc5a-41db-bd72-f625abbbf50c"},"vehicle_type_id":"4","last_reported":1768299241,"current_range_meters":7200,"station_id":"ce4bha92rcd13ifvqeh0","pricing_plan_id":"cebpf4jnsgd1na2vs0mg"},{"bike_id":"e5b92296-b086-419a-a871-19aeb3f2fd08","system_id":"levelo_inurba_marseille","lat":43.30139,"lon":5.37489,"is_reserved":false,"is_disabled":false,"rental_uris":{"android":"levelo://app?vid=e5b92296-b086-419a-a871-19aeb3f2fd08","ios":"levelo://app?vid=e5b92296-b086-419a-a871-19aeb3f2fd08"},"vehicle_type_id":"4","last_reported":1768299241,"current_range_meters":7200,"station_id":"","pricing_plan_id":"cebpf4jnsgd1na2vs0mg"},{"bike_id":"6ad2ac5d-0d69-4ff0-8680-3b5339e0db0c","system_id":"levelo_inurba_marseille","lat":43.266874,"lon":5.382724,"is_reserved":false,"is_disabled":true,"rental_uris":{"android":"levelo://app?vid=6ad2ac5d-0d69-4ff0-8680-3b5339e0db0c","ios":"levelo://app?vid=6ad2ac5d-0d69-4ff0-8680-3b5339e0db0c"},"vehicle_type_id":"4","last_reported":1768299241,"current_range_meters":8000,"station_id":"ce4bhg92rcd13ifvqf90","pricing_plan_id":"cebpf4jnsgd1na2vs0mg"},{"bike_id":"31a7c989-94fb-4418-9ae6-bdf3c2fb65dc","system_id":"levelo_inurba_marseille","lat":43.26555,"lon":5.37296,"is_reserved":false,"is_disabled":false,"rental_uris":{"android":"levelo://app?vid=31a7c989-94fb-4418-9ae6-bdf3c2fb65dc","ios":"levelo://app?vid=31a7c989-94fb-4418-9ae6-bdf3c2fb65dc"},"vehicle_type_id":"4","last_reported":1768299241,"current_range_meters":8000,"station_id":"ce4bhg12rcd13ifvqf70","pricing_plan_id":"cebpf4jnsgd1na2vs0mg"},{"bike_id":"0af2e9a9-67f2-424c-9c61-d5f1c2c48c7b","system_id":"levelo_inurba_marseille","lat":43.25935,"lon":5.40909,"is_reserved":false,"is_disabled":false,"rental_uris":{"android":"levelo://app?vid=0af2e9a9-67f2-424c-9c61-d5f1c2c48c7b","ios":"levelo://app?vid=0af2e9a9-67f2-424c-9c61-d5f1c2c48c7b"},"vehicle_type_id":"4","last_reported":1768299241,"current_range_meters":8000,"station_id":"ce4bhm92rcd13ifvqglg","pricing_plan_id":"cebpf4jnsgd1na2vs0mg"},{"bike_id":"51e89195-8b4b-4f5e-a89d-fb7217b1f1c1","system_id":"levelo_inurba_marseille","lat":43.30535,"lon":5.38426,"is_reserved":false,"is_disabled":false,"rental_uris":{"android":"levelo://app?vid=51e89195-8b4b-4f5e-a89d-fb7217b1f1c1","ios":"levelo://app?vid=51e89195-8b4b-4f5e-a89d-fb7217b1f1c1"},"vehicle_type_id":"4","last_reported":1768299241,"current_range_meters":8000,"station_id":"ce4bgg92rcd13ifvqb30","pricing_plan_id":"cebpf4jnsgd1na2vs0mg"},{"bike_id":"9b1adbdc-a09f-4c2c-967f-18b3146ce981","system_id":"levelo_inurba_marseille","lat":43.27616,"lon":5.3611,"is_reserved":false,"is_disabled":false,"rental_uris":{"android":"levelo://app?vid=9b1adbdc-a09f-4c2c-967f-18b3146ce981","ios":"levelo://app?vid=9b1adbdc-a09f-4c2c-967f-18b3146ce981"},"vehicle_type_id":"4","last_reported":1768299241,"current_range_meters":8000,"station_id":"ce4bgj92rcd13ifvqbe0","pricing_plan_id":"cebpf4jnsgd1na2vs0mg"},{"bike_id":"ec3166a5-ef8b-4787-8617-84123a7e0e0d","system_id":"levelo_inurba_marseille","lat":43.23196,"lon":5.39986,"is_reserved":false,"is_disabled":false,"rental_uris":{"android":"levelo://app?vid=ec3166a5-ef8b-4787-8617-84123a7e0e0d","ios":"levelo://app?vid=ec3166a5-ef8b-4787-8617-84123a7e0e0d"},"vehicle_type_id":"4","last_reported":1768299241,"current_range_meters":8000,"station_id":"ce4bhn12rcd13ifvqgqg","pricing_plan_id":"cebpf4jnsgd1na2vs0mg"},{"bike_id":"8125e88c-461b-4905-b86d-3923932af4fb","system_id":"levelo_inurba_marseille","lat":43.28002,"lon":5.40012,"is_reserved":false,"is_disabled":false,"rental_uris":{"android":"levelo://app?vid=8125e88c-461b-4905-b86d-3923932af4fb","ios":"levelo://app?vid=8125e88c-461b-4905-b86d-3923932af4fb"},"vehicle_type_id":"4","last_reported":1768299241,"current_range_meters":8000,"station_id":"ce4bho92rcd13ifvqh4g","pricing_plan_id":"cebpf4jnsgd1na2vs0mg"},{"bike_id":"1a410dc3-ec66-418e-b61d-e6ababbd00ea","system_id":"levelo_inurba_marseille","lat":43.25509,"lon":5.3767,"is_reserved":false,"is_disabled":false,"rental_uris":{"android":"levelo://app?vid=1a410dc3-ec66-418e-b61d-e6ababbd00ea","ios":"levelo://app?vid=1a410dc3-ec66-418e-b61d-e6ababbd00ea"},"vehicle_type_id":"4","last_reported":1768299241,"current_range_meters":8000,"station_id":"ce4bhh12rcd13ifvqff0","pricing_plan_id":"cebpf4jnsgd1na2vs0mg"},{"bike_id":"1f52d0ac-6457-4a7f-99e0-3b28afb15cf9","system_id":"levelo_inurba_marseille","lat":43.26372,"lon":5.41077,"is_reserved":false,"is_disabled":false,"rental_uris":{"android":"levelo://app?vid=1f52d0ac-6457-4a7f-99e0-3b28afb15cf9","ios":"levelo://app?vid=1f52d0ac-6457-4a7f-99e0-3b28afb15cf9"},"vehicle_type_id":"4","last_reported":1768299241,"current_range_meters":8000,"station_id":"st_d4e5ca6na9uc73bfl5fg","pricing_plan_id":"cebpf4jnsgd1na2vs0mg"},{"bike_id":"9737b126-6019-44d5-85ee-febd32b7b3c1","system_id":"levelo_inurba_marseille","lat":43.305402,"lon":5.365476,"is_reserved":false,"is_disabled":false,"rental_uris":{"android":"levelo://app?vid=9737b126-6019-44d5-85ee-febd32b7b3c1","ios":"levelo://app?vid=9737b126-6019-44d5-85ee-febd32b7b3c1"},"vehicle_type_id":"4","last_reported":1768299241,"current_range_meters":8000,"station_id":"ce4bgs12rcd13ifvqcag","pricing_plan_id":"cebpf4jnsgd1na2vs0mg"},{"bike_id":"40c6fab1-fc17-4c7a-8060-24756a12055b","system_id":"levelo_inurba_marseille","lat":43.31358,"lon":5.36731,"is_reserved":false,"is_disabled":false,"rental_uris":{"android":"levelo://app?vid=40c6fab1-fc17-4c7a-8060-24756a12055b","ios":"levelo://app?vid=40c6fab1-fc17-4c7a-8060-24756a12055b"},"vehicle_type_id":"4","last_reported":1768299241,"current_range_meters":8000,"station_id":"ce4bgr92rcd13ifvqc6g","pricing_plan_id":"cebpf4jnsgd1na2vs0mg"},{"bike_id":"88de65bc-f1ab-4009-9187-4c5979b992e7","system_id":"levelo_inurba_marseille","lat":43.289878,"lon":5.390498,"is_reserved":false,"is_disabled":false,"rental_uris":{"android":"levelo://app?vid=88de65bc-f1ab-4009-9187-4c5979b992e7","ios":"levelo://app?vid=88de65bc-f1ab-4009-9187-4c5979b992e7"},"vehicle_type_id":"4","last_reported":1768299241,"current_range_meters":8000,"station_id":"","pricing_plan_id":"cebpf4jnsgd1na2vs0mg"},{"bike_id":"b79a2f92-9535-4ebd-b266-ac5b0e45b3ba","system_id":"levelo_inurba_marseille","lat":43.25114,"lon":5.40316,"is_reserved":false,"is_disabled":false,"rental_uris":{"android":"levelo://app?vid=b79a2f92-9535-4ebd-b266-ac5b0e45b3ba","ios":"levelo://app?vid=b79a2f92-9535-4ebd-b266-ac5b0e45b3ba"},"vehicle_type_id":"4","last_reported":1768299241,"current_range_meters":8000,"station_id":"ce4bhlh2rcd13ifvqgig","pricing_plan_id":"cebpf4jnsgd1na2vs0mg"},{"bike_id":"e171e7e2-3bd5-4df8-ba94-8c663077fc99","system_id":"levelo_inurba_marseille","lat":43.32525,"lon":5.36876,"is_reserved":false,"is_disabled":false,"rental_uris":{"android":"levelo://app?vid=e171e7e2-3bd5-4df8-ba94-8c663077fc99","ios":"levelo://app?vid=e171e7e2-3bd5-4df8-ba94-8c663077fc99"},"vehicle_type_id":"4","last_reported":1768299241,"current_range_meters":8000,"station_id":"","pricing_plan_id":"cebpf4jnsgd1na2vs0mg"},{"bike_id":"9f2a1fd3-ffc5-4586-95af-377ff8c15230","system_id":"levelo_inurba_marseille","lat":43.24896,"lon":5.40609,"is_reserved":false,"is_disabled":false,"rental_uris":{"android":"levelo://app?vid=9f2a1fd3-ffc5-4586-95af-377ff8c15230","ios":"levelo://app?vid=9f2a1fd3-ffc5-4586-95af-377ff8c15230"},"vehicle_type_id":"4","last_reported":1768299241,"current_range_meters":8000,"station_id":"st_d2ngiaodas8pm72gd1h0","pricing_plan_id":"cebpf4jnsgd1na2vs0mg"},{"bike_id":"725558b1-3a15-4f38-8c18-ee0a96f9ef90","system_id":"levelo_inurba_marseille","lat":43.31221,"lon":5.38168,"is_reserved":false,"is_disabled":false,"rental_uris":{"android":"levelo://app?vid=725558b1-3a15-4f38-8c18-ee0a96f9ef90","ios":"levelo://app?vid=725558b1-3a15-4f38-8c18-ee0a96f9ef90"},"vehicle_type_id":"4","last_reported":1768299241,"current_range_meters":8000,"station_id":"","pricing_plan_id":"cebpf4jnsgd1na2vs0mg"},{"bike_id":"b99a9135-a609-4f31-8229-5031d5c53d46","system_id":"levelo_inurba_marseille","lat":43.29765,"lon":5.42783,"is_reserved":false,"is_disabled":false,"rental_uris":{"android":"levelo://app?vid=b99a9135-a609-4f31-8229-5031d5c53d46","ios":"levelo://app?vid=b99a9135-a609-4f31-8229-5031d5c53d46"},"vehicle_type_id":"4","last_reported":1768299241,"current_range_meters":8400,"station_id":"st_d3md5207bmas73dh9klg","pricing_plan_id":"cebpf4jnsgd1na2vs0mg"},{"bike_id":"dda038f7-07c0-4d6c-8466-8d667f6d8821","system_id":"levelo_inurba_marseille","lat":43.24817,"lon":5.37458,"is_reserved":false,"is_disabled":false,"rental_uris":{"android":"levelo://app?vid=dda038f7-07c0-4d6c-8466-8d667f6d8821","ios":"levelo://app?vid=dda038f7-07c0-4d6c-8466-8d667f6d8821"},"vehicle_type_id":"4","last_reported":1768299241,"current_range_meters":8400,"station_id":"ce4bhgh2rcd13ifvqfb0","pricing_plan_id":"cebpf4jnsgd1na2vs0mg"},{"bike_id":"459ceeec-6531-408e-af1d-7d8585dacaef","system_id":"levelo_inurba_marseille","lat":43.2551,"lon":5.37659,"is_reserved":false,"is_disabled":false,"rental_uris":{"android":"levelo://app?vid=459ceeec-6531-408e-af1d-7d8585dacaef","ios":"levelo://app?vid=459ceeec-6531-408e-af1d-7d8585dacaef"},"vehicle_type_id":"4","last_reported":1768299241,"current_range_meters":8400,"station_id":"ce4bhh12rcd13ifvqff0","pricing_plan_id":"cebpf4jnsgd1na2vs0mg"},{"bike_id":"7073d101-d274-4ffc-894b-00045641d67c","system_id":"levelo_inurba_marseille","lat":43.29258,"lon":5.38427,"is_reserved":false,"is_disabled":false,"rental_uris":{"android":"levelo://app?vid=7073d101-d274-4ffc-894b-00045641d67c","ios":"levelo://app?vid=7073d101-d274-4ffc-894b-00045641d67c"},"vehicle_type_id":"4","last_reported":1768299241,"current_range_meters":8400,"station_id":"ce4bh692rcd13ifvqea0","pricing_plan_id":"cebpf4jnsgd1na2vs0mg"},{"bike_id":"64e147a8-1bbb-419c-b69b-662d9db7e72a","system_id":"levelo_inurba_marseille","lat":43.25885,"lon":5.39923,"is_reserved":false,"is_disabled":true,"rental_uris":{"android":"levelo://app?vid=64e147a8-1bbb-419c-b69b-662d9db7e72a","ios":"levelo://app?vid=64e147a8-1bbb-419c-b69b-662d9db7e72a"},"vehicle_type_id":"4","last_reported":1768299241,"current_range_meters":8400,"station_id":"ce4bhl92rcd13ifvqghg","pricing_plan_id":"cebpf4jnsgd1na2vs0mg"},{"bike_id":"dc2e72fe-caf4-4d2f-991e-42441efcbc35","system_id":"levelo_inurba_marseille","lat":43.24471,"lon":5.42536,"is_reserved":false,"is_disabled":false,"rental_uris":{"android":"levelo://app?vid=dc2e72fe-caf4-4d2f-991e-42441efcbc35","ios":"levelo://app?vid=dc2e72fe-caf4-4d2f-991e-42441efcbc35"},"vehicle_type_id":"4","last_reported":1768299241,"current_range_meters":8400,"station_id":"st_d4a3vfp97mjs738cd8kg","pricing_plan_id":"cebpf4jnsgd1na2vs0mg"},{"bike_id":"83433ce8-6f5b-449a-9228-909c78e3fe82","system_id":"levelo_inurba_marseille","lat":43.29522,"lon":5.38543,"is_reserved":false,"is_disabled":false,"rental_uris":{"android":"levelo://app?vid=83433ce8-6f5b-449a-9228-909c78e3fe82","ios":"levelo://app?vid=83433ce8-6f5b-449a-9228-909c78e3fe82"},"vehicle_type_id":"4","last_reported":1768299241,"current_range_meters":8400,"station_id":"ce4bgih2rcd13ifvqba0","pricing_plan_id":"cebpf4jnsgd1na2vs0mg"},{"bike_id":"99475782-9f22-4001-a2ed-de835e3c7087","system_id":"levelo_inurba_marseille","lat":43.2925,"lon":5.40898,"is_reserved":false,"is_disabled":true,"rental_uris":{"android":"levelo://app?vid=99475782-9f22-4001-a2ed-de835e3c7087","ios":"levelo://app?vid=99475782-9f22-4001-a2ed-de835e3c7087"},"vehicle_type_id":"4","last_reported":1768299241,"current_range_meters":8400,"station_id":"ce4bh192rcd13ifvqdc0","pricing_plan_id":"cebpf4jnsgd1na2vs0mg"},{"bike_id":"4774cc6d-0402-43e1-a1ae-ca7279eefad7","system_id":"levelo_inurba_marseille","lat":43.31356,"lon":5.36696,"is_reserved":false,"is_disabled":false,"rental_uris":{"android":"levelo://app?vid=4774cc6d-0402-43e1-a1ae-ca7279eefad7","ios":"levelo://app?vid=4774cc6d-0402-43e1-a1ae-ca7279eefad7"},"vehicle_type_id":"4","last_reported":1768299241,"current_range_meters":8400,"station_id":"ce4bgr92rcd13ifvqc6g","pricing_plan_id":"cebpf4jnsgd1na2vs0mg"},{"bike_id":"35ec3b8e-e652-4929-aab7-9563a05529be","system_id":"levelo_inurba_marseille","lat":43.30159,"lon":5.37428,"is_reserved":false,"is_disabled":false,"rental_uris":{"android":"levelo://app?vid=35ec3b8e-e652-4929-aab7-9563a05529be","ios":"levelo://app?vid=35ec3b8e-e652-4929-aab7-9563a05529be"},"vehicle_type_id":"4","last_reported":1768299241,"current_range_meters":8400,"station_id":"ce4bgs92rcd13ifvqcc0","pricing_plan_id":"cebpf4jnsgd1na2vs0mg"},{"bike_id":"336deb2c-aa64-477f-ad58-041f37dd0c23","system_id":"levelo_inurba_marseille","lat":43.28463,"lon":5.35904,"is_reserved":false,"is_disabled":false,"rental_uris":{"android":"levelo://app?vid=336deb2c-aa64-477f-ad58-041f37dd0c23","ios":"levelo://app?vid=336deb2c-aa64-477f-ad58-041f37dd0c23"},"vehicle_type_id":"4","last_reported":1768299241,"current_range_meters":8400,"station_id":"ce4bhah2rcd13ifvqei0","pricing_plan_id":"cebpf4jnsgd1na2vs0mg"},{"bike_id":"a701274b-baae-4465-83b6-97b2b3f97e3e","system_id":"levelo_inurba_marseille","lat":43.284797,"lon":5.483926,"is_reserved":false,"is_disabled":false,"rental_uris":{"android":"levelo://app?vid=a701274b-baae-4465-83b6-97b2b3f97e3e","ios":"levelo://app?vid=a701274b-baae-4465-83b6-97b2b3f97e3e"},"vehicle_type_id":"4","last_reported":1768299241,"current_range_meters":8400,"station_id":"","pricing_plan_id":"cebpf4jnsgd1na2vs0mg"},{"bike_id":"4decab12-4aea-443b-993f-b32cadac6871","system_id":"levelo_inurba_marseille","lat":43.2398,"lon":5.366,"is_reserved":false,"is_disabled":false,"rental_uris":{"android":"levelo://app?vid=4decab12-4aea-443b-993f-b32cadac6871","ios":"levelo://app?vid=4decab12-4aea-443b-993f-b32cadac6871"},"vehicle_type_id":"4","last_reported":1768299241,"current_range_meters":8400,"station_id":"ce4bhi12rcd13ifvqfp0","pricing_plan_id":"cebpf4jnsgd1na2vs0mg"},{"bike_id":"8dd1de03-db4d-4ee0-a83c-49af5a854fab","system_id":"levelo_inurba_marseille","lat":43.28829,"lon":5.42636,"is_reserved":false,"is_disabled":false,"rental_uris":{"android":"levelo://app?vid=8dd1de03-db4d-4ee0-a83c-49af5a854fab","ios":"levelo://app?vid=8dd1de03-db4d-4ee0-a83c-49af5a854fab"},"vehicle_type_id":"4","last_reported":1768299241,"current_range_meters":8400,"station_id":"","pricing_plan_id":"cebpf4jnsgd1na2vs0mg"},{"bike_id":"8febf7a0-90b2-4b86-ad13-0305cfb60d10","system_id":"levelo_inurba_marseille","lat":43.23644,"lon":5.36188,"is_reserved":false,"is_disabled":false,"rental_uris":{"android":"levelo://app?vid=8febf7a0-90b2-4b86-ad13-0305cfb60d10","ios":"levelo://app?vid=8febf7a0-90b2-4b86-ad13-0305cfb60d10"},"vehicle_type_id":"4","last_reported":1768299241,"current_range_meters":8400,"station_id":"","pricing_plan_id":"cebpf4jnsgd1na2vs0mg"},{"bike_id":"ba17f39c-df27-454e-8db4-02d0cec6280f","system_id":"levelo_inurba_marseille","lat":43.29971,"lon":5.37174,"is_reserved":false,"is_disabled":false,"rental_uris":{"android":"levelo://app?vid=ba17f39c-df27-454e-8db4-02d0cec6280f","ios":"levelo://app?vid=ba17f39c-df27-454e-8db4-02d0cec6280f"},"vehicle_type_id":"4","last_reported":1768299241,"current_range_meters":8400,"station_id":"ce4bgr92rcd13ifvqc7g","pricing_plan_id":"cebpf4jnsgd1na2vs0mg"},{"bike_id":"22e07c03-7cc2-4f12-9e49-6993b190163f","system_id":"levelo_inurba_marseille","lat":43.29887,"lon":5.39661,"is_reserved":false,"is_disabled":false,"rental_uris":{"android":"levelo://app?vid=22e07c03-7cc2-4f12-9e49-6993b190163f","ios":"levelo://app?vid=22e07c03-7cc2-4f12-9e49-6993b190163f"},"vehicle_type_id":"4","last_reported":1768299241,"current_range_meters":8400,"station_id":"","pricing_plan_id":"cebpf4jnsgd1na2vs0mg"},{"bike_id":"d837fa6c-222e-496d-8553-222c58e024bd","system_id":"levelo_inurba_marseille","lat":43.22932,"lon":5.35384,"is_reserved":false,"is_disabled":false,"rental_uris":{"android":"levelo://app?vid=d837fa6c-222e-496d-8553-222c58e024bd","ios":"levelo://app?vid=d837fa6c-222e-496d-8553-222c58e024bd"},"vehicle_type_id":"4","last_reported":1768299241,"current_range_meters":8400,"station_id":"cpo3532slgdg3j2ikp40","pricing_plan_id":"cebpf4jnsgd1na2vs0mg"},{"bike_id":"a17cc6ee-d889-4b4c-b8b9-758246faa400","system_id":"levelo_inurba_marseille","lat":43.28528,"lon":5.44126,"is_reserved":false,"is_disabled":false,"rental_uris":{"android":"levelo://app?vid=a17cc6ee-d889-4b4c-b8b9-758246faa400","ios":"levelo://app?vid=a17cc6ee-d889-4b4c-b8b9-758246faa400"},"vehicle_type_id":"4","last_reported":1768299241,"current_range_meters":8400,"station_id":"st_d3j3df2ikq2c7380ej80","pricing_plan_id":"cebpf4jnsgd1na2vs0mg"},{"bike_id":"0f54686d-84c1-4f5b-987e-452996540277","system_id":"levelo_inurba_marseille","lat":43.26367,"lon":5.41077,"is_reserved":false,"is_disabled":false,"rental_uris":{"android":"levelo://app?vid=0f54686d-84c1-4f5b-987e-452996540277","ios":"levelo://app?vid=0f54686d-84c1-4f5b-987e-452996540277"},"vehicle_type_id":"4","last_reported":1768299241,"current_range_meters":8800,"station_id":"st_d4e5ca6na9uc73bfl5fg","pricing_plan_id":"cebpf4jnsgd1na2vs0mg"},{"bike_id":"bd89181b-eae8-480c-8877-39f41c6230d8","system_id":"levelo_inurba_marseille","lat":43.30143,"lon":5.37423,"is_reserved":false,"is_disabled":false,"rental_uris":{"android":"levelo://app?vid=bd89181b-eae8-480c-8877-39f41c6230d8","ios":"levelo://app?vid=bd89181b-eae8-480c-8877-39f41c6230d8"},"vehicle_type_id":"4","last_reported":1768299241,"current_range_meters":8800,"station_id":"ce4bgs92rcd13ifvqcc0","pricing_plan_id":"cebpf4jnsgd1na2vs0mg"},{"bike_id":"eaa12c7d-9ceb-4fcf-8441-5efb65234d28","system_id":"levelo_inurba_marseille","lat":43.24808,"lon":5.37461,"is_reserved":false,"is_disabled":false,"rental_uris":{"android":"levelo://app?vid=eaa12c7d-9ceb-4fcf-8441-5efb65234d28","ios":"levelo://app?vid=eaa12c7d-9ceb-4fcf-8441-5efb65234d28"},"vehicle_type_id":"4","last_reported":1768299241,"current_range_meters":8800,"station_id":"ce4bhgh2rcd13ifvqfb0","pricing_plan_id":"cebpf4jnsgd1na2vs0mg"},{"bike_id":"5b027b49-ddf4-41e2-96f1-1cc8b60b6d10","system_id":"levelo_inurba_marseille","lat":43.22534,"lon":5.34836,"is_reserved":false,"is_disabled":false,"rental_uris":{"android":"levelo://app?vid=5b027b49-ddf4-41e2-96f1-1cc8b60b6d10","ios":"levelo://app?vid=5b027b49-ddf4-41e2-96f1-1cc8b60b6d10"},"vehicle_type_id":"4","last_reported":1768299241,"current_range_meters":8800,"station_id":"st_cvj5dfep6f1abm77gieg","pricing_plan_id":"cebpf4jnsgd1na2vs0mg"},{"bike_id":"1871e0c7-ef88-44e9-99e1-0df673e67e2d","system_id":"levelo_inurba_marseille","lat":43.2441,"lon":5.37061,"is_reserved":false,"is_disabled":false,"rental_uris":{"android":"levelo://app?vid=1871e0c7-ef88-44e9-99e1-0df673e67e2d","ios":"levelo://app?vid=1871e0c7-ef88-44e9-99e1-0df673e67e2d"},"vehicle_type_id":"4","last_reported":1768299241,"current_range_meters":8800,"station_id":"ce4bhhh2rcd13ifvqfk0","pricing_plan_id":"cebpf4jnsgd1na2vs0mg"},{"bike_id":"b46f8475-f518-4252-b152-eb60a3b84964","system_id":"levelo_inurba_marseille","lat":43.22933,"lon":5.35377,"is_reserved":false,"is_disabled":false,"rental_uris":{"android":"levelo://app?vid=b46f8475-f518-4252-b152-eb60a3b84964","ios":"levelo://app?vid=b46f8475-f518-4252-b152-eb60a3b84964"},"vehicle_type_id":"4","last_reported":1768299241,"current_range_meters":8800,"station_id":"cpo3532slgdg3j2ikp40","pricing_plan_id":"cebpf4jnsgd1na2vs0mg"},{"bike_id":"a2b8e70d-5dfb-4230-ae5a-24f06aba12a3","system_id":"levelo_inurba_marseille","lat":43.28466,"lon":5.48392,"is_reserved":false,"is_disabled":false,"rental_uris":{"android":"levelo://app?vid=a2b8e70d-5dfb-4230-ae5a-24f06aba12a3","ios":"levelo://app?vid=a2b8e70d-5dfb-4230-ae5a-24f06aba12a3"},"vehicle_type_id":"4","last_reported":1768299241,"current_range_meters":8800,"station_id":"","pricing_plan_id":"cebpf4jnsgd1na2vs0mg"},{"bike_id":"0b9fb0e1-958e-4d37-8a77-cfcb3dd5be0a","system_id":"levelo_inurba_marseille","lat":43.23784,"lon":5.36632,"is_reserved":false,"is_disabled":false,"rental_uris":{"android":"levelo://app?vid=0b9fb0e1-958e-4d37-8a77-cfcb3dd5be0a","ios":"levelo://app?vid=0b9fb0e1-958e-4d37-8a77-cfcb3dd5be0a"},"vehicle_type_id":"4","last_reported":1768299241,"current_range_meters":8800,"station_id":"st_d3nk18o9ro0c73en2l3g","pricing_plan_id":"cebpf4jnsgd1na2vs0mg"},{"bike_id":"93e218a6-d8b6-4b0c-9abd-03b0921e8c78","system_id":"levelo_inurba_marseille","lat":43.32282,"lon":5.38618,"is_reserved":false,"is_disabled":false,"rental_uris":{"android":"levelo://app?vid=93e218a6-d8b6-4b0c-9abd-03b0921e8c78","ios":"levelo://app?vid=93e218a6-d8b6-4b0c-9abd-03b0921e8c78"},"vehicle_type_id":"4","last_reported":1768299241,"current_range_meters":8800,"station_id":"st_d45171o9ee8s73djdqug","pricing_plan_id":"cebpf4jnsgd1na2vs0mg"},{"bike_id":"25377a8a-f8c0-42a5-8439-f16217ba2e63","system_id":"levelo_inurba_marseille","lat":43.32893,"lon":5.39177,"is_reserved":false,"is_disabled":false,"rental_uris":{"android":"levelo://app?vid=25377a8a-f8c0-42a5-8439-f16217ba2e63","ios":"levelo://app?vid=25377a8a-f8c0-42a5-8439-f16217ba2e63"},"vehicle_type_id":"4","last_reported":1768299241,"current_range_meters":8800,"station_id":"","pricing_plan_id":"cebpf4jnsgd1na2vs0mg"},{"bike_id":"3881337f-ef7f-4b7c-be0b-974709680e52","system_id":"levelo_inurba_marseille","lat":43.30261,"lon":5.3691,"is_reserved":false,"is_disabled":false,"rental_uris":{"android":"levelo://app?vid=3881337f-ef7f-4b7c-be0b-974709680e52","ios":"levelo://app?vid=3881337f-ef7f-4b7c-be0b-974709680e52"},"vehicle_type_id":"4","last_reported":1768299241,"current_range_meters":9200,"station_id":"ce4bgqh2rcd13ifvqc5g","pricing_plan_id":"cebpf4jnsgd1na2vs0mg"},{"bike_id":"0e5df7ef-4f3f-4918-aa70-7dd918ba921c","system_id":"levelo_inurba_marseille","lat":43.32342,"lon":5.36734,"is_reserved":false,"is_disabled":false,"rental_uris":{"android":"levelo://app?vid=0e5df7ef-4f3f-4918-aa70-7dd918ba921c","ios":"levelo://app?vid=0e5df7ef-4f3f-4918-aa70-7dd918ba921c"},"vehicle_type_id":"4","last_reported":1768299241,"current_range_meters":9200,"station_id":"ce4bhsh2rcd13ifvqi2g","pricing_plan_id":"cebpf4jnsgd1na2vs0mg"},{"bike_id":"a3f7f0a2-84e8-4600-ac6a-a70fb12b7c90","system_id":"levelo_inurba_marseille","lat":43.24385,"lon":5.37054,"is_reserved":false,"is_disabled":false,"rental_uris":{"android":"levelo://app?vid=a3f7f0a2-84e8-4600-ac6a-a70fb12b7c90","ios":"levelo://app?vid=a3f7f0a2-84e8-4600-ac6a-a70fb12b7c90"},"vehicle_type_id":"4","last_reported":1768299241,"current_range_meters":9200,"station_id":"ce4bhhh2rcd13ifvqfk0","pricing_plan_id":"cebpf4jnsgd1na2vs0mg"},{"bike_id":"6305803f-889c-4f69-aef7-c6d0553af0c6","system_id":"levelo_inurba_marseille","lat":43.2973,"lon":5.37678,"is_reserved":false,"is_disabled":false,"rental_uris":{"android":"levelo://app?vid=6305803f-889c-4f69-aef7-c6d0553af0c6","ios":"levelo://app?vid=6305803f-889c-4f69-aef7-c6d0553af0c6"},"vehicle_type_id":"4","last_reported":1768299241,"current_range_meters":9200,"station_id":"ce4bgkh2rcd13ifvqbl0","pricing_plan_id":"cebpf4jnsgd1na2vs0mg"},{"bike_id":"a8391018-3556-4ffb-8d1c-791324d0e007","system_id":"levelo_inurba_marseille","lat":43.28256,"lon":5.35087,"is_reserved":false,"is_disabled":false,"rental_uris":{"android":"levelo://app?vid=a8391018-3556-4ffb-8d1c-791324d0e007","ios":"levelo://app?vid=a8391018-3556-4ffb-8d1c-791324d0e007"},"vehicle_type_id":"4","last_reported":1768299241,"current_range_meters":9200,"station_id":"ce4bhbp2rcd13ifvqerg","pricing_plan_id":"cebpf4jnsgd1na2vs0mg"},{"bike_id":"36e0fb17-913d-4151-9fa4-f54e85e670db","system_id":"levelo_inurba_marseille","lat":43.23187,"lon":5.39982,"is_reserved":false,"is_disabled":false,"rental_uris":{"android":"levelo://app?vid=36e0fb17-913d-4151-9fa4-f54e85e670db","ios":"levelo://app?vid=36e0fb17-913d-4151-9fa4-f54e85e670db"},"vehicle_type_id":"4","last_reported":1768299241,"current_range_meters":9200,"station_id":"ce4bhn12rcd13ifvqgqg","pricing_plan_id":"cebpf4jnsgd1na2vs0mg"},{"bike_id":"1b652514-1232-46b8-8e6c-48cd584369c2","system_id":"levelo_inurba_marseille","lat":43.26916,"lon":5.40277,"is_reserved":false,"is_disabled":false,"rental_uris":{"android":"levelo://app?vid=1b652514-1232-46b8-8e6c-48cd584369c2","ios":"levelo://app?vid=1b652514-1232-46b8-8e6c-48cd584369c2"},"vehicle_type_id":"4","last_reported":1768299241,"current_range_meters":9200,"station_id":"cjm6bp8fraef2m0cb0m0","pricing_plan_id":"cebpf4jnsgd1na2vs0mg"},{"bike_id":"9b5af17d-963d-4337-ba4a-df5a54e9cf3a","system_id":"levelo_inurba_marseille","lat":43.32492,"lon":5.38286,"is_reserved":false,"is_disabled":false,"rental_uris":{"android":"levelo://app?vid=9b5af17d-963d-4337-ba4a-df5a54e9cf3a","ios":"levelo://app?vid=9b5af17d-963d-4337-ba4a-df5a54e9cf3a"},"vehicle_type_id":"4","last_reported":1768299241,"current_range_meters":9200,"station_id":"st_d4asgbiv49dc73anf9m0","pricing_plan_id":"cebpf4jnsgd1na2vs0mg"},{"bike_id":"8fd806c9-6515-4473-9594-1a51d8717d0d","system_id":"levelo_inurba_marseille","lat":43.23963,"lon":5.36636,"is_reserved":false,"is_disabled":false,"rental_uris":{"android":"levelo://app?vid=8fd806c9-6515-4473-9594-1a51d8717d0d","ios":"levelo://app?vid=8fd806c9-6515-4473-9594-1a51d8717d0d"},"vehicle_type_id":"4","last_reported":1768299241,"current_range_meters":9200,"station_id":"ce4bhi12rcd13ifvqfp0","pricing_plan_id":"cebpf4jnsgd1na2vs0mg"},{"bike_id":"f1e7d6e0-da4c-41e1-9e09-b8395a021998","system_id":"levelo_inurba_marseille","lat":43.2927,"lon":5.36856,"is_reserved":false,"is_disabled":false,"rental_uris":{"android":"levelo://app?vid=f1e7d6e0-da4c-41e1-9e09-b8395a021998","ios":"levelo://app?vid=f1e7d6e0-da4c-41e1-9e09-b8395a021998"},"vehicle_type_id":"4","last_reported":1768299241,"current_range_meters":9200,"station_id":"ce4bhbp2rcd13ifvqesg","pricing_plan_id":"cebpf4jnsgd1na2vs0mg"},{"bike_id":"b4a9b861-fb63-44fd-ad85-c7b2758ab1bb","system_id":"levelo_inurba_marseille","lat":43.29761,"lon":5.4278,"is_reserved":false,"is_disabled":false,"rental_uris":{"android":"levelo://app?vid=b4a9b861-fb63-44fd-ad85-c7b2758ab1bb","ios":"levelo://app?vid=b4a9b861-fb63-44fd-ad85-c7b2758ab1bb"},"vehicle_type_id":"4","last_reported":1768299241,"current_range_meters":9200,"station_id":"st_d3md5207bmas73dh9klg","pricing_plan_id":"cebpf4jnsgd1na2vs0mg"},{"bike_id":"9dd907f2-f108-466a-8abb-7ae74aaeafb7","system_id":"levelo_inurba_marseille","lat":43.23794,"lon":5.3663,"is_reserved":false,"is_disabled":false,"rental_uris":{"android":"levelo://app?vid=9dd907f2-f108-466a-8abb-7ae74aaeafb7","ios":"levelo://app?vid=9dd907f2-f108-466a-8abb-7ae74aaeafb7"},"vehicle_type_id":"4","last_reported":1768299241,"current_range_meters":9200,"station_id":"st_d3nk18o9ro0c73en2l3g","pricing_plan_id":"cebpf4jnsgd1na2vs0mg"},{"bike_id":"10e7ab4f-9703-493d-b7c0-21855d1cad26","system_id":"levelo_inurba_marseille","lat":43.23785,"lon":5.3665,"is_reserved":false,"is_disabled":false,"rental_uris":{"android":"levelo://app?vid=10e7ab4f-9703-493d-b7c0-21855d1cad26","ios":"levelo://app?vid=10e7ab4f-9703-493d-b7c0-21855d1cad26"},"vehicle_type_id":"4","last_reported":1768299241,"current_range_meters":9600,"station_id":"st_d3nk18o9ro0c73en2l3g","pricing_plan_id":"cebpf4jnsgd1na2vs0mg"},{"bike_id":"83029d34-3b86-4276-93d0-001e8e0b129e","system_id":"levelo_inurba_marseille","lat":43.29024,"lon":5.375574,"is_reserved":false,"is_disabled":false,"rental_uris":{"android":"levelo://app?vid=83029d34-3b86-4276-93d0-001e8e0b129e","ios":"levelo://app?vid=83029d34-3b86-4276-93d0-001e8e0b129e"},"vehicle_type_id":"4","last_reported":1768299241,"current_range_meters":9600,"station_id":"ce4bh692rcd13ifvqe90","pricing_plan_id":"cebpf4jnsgd1na2vs0mg"},{"bike_id":"87237d20-145e-49ff-83c9-3e0a80130e54","system_id":"levelo_inurba_marseille","lat":43.28522,"lon":5.44118,"is_reserved":false,"is_disabled":false,"rental_uris":{"android":"levelo://app?vid=87237d20-145e-49ff-83c9-3e0a80130e54","ios":"levelo://app?vid=87237d20-145e-49ff-83c9-3e0a80130e54"},"vehicle_type_id":"4","last_reported":1768299241,"current_range_meters":9600,"station_id":"st_d3j3df2ikq2c7380ej80","pricing_plan_id":"cebpf4jnsgd1na2vs0mg"},{"bike_id":"58d01081-65c0-482a-b977-f0dfd8895a04","system_id":"levelo_inurba_marseille","lat":43.28233,"lon":5.4301,"is_reserved":false,"is_disabled":false,"rental_uris":{"android":"levelo://app?vid=58d01081-65c0-482a-b977-f0dfd8895a04","ios":"levelo://app?vid=58d01081-65c0-482a-b977-f0dfd8895a04"},"vehicle_type_id":"4","last_reported":1768299241,"current_range_meters":9600,"station_id":"","pricing_plan_id":"cebpf4jnsgd1na2vs0mg"},{"bike_id":"86c676a3-5916-4f30-9d39-59f2238fd475","system_id":"levelo_inurba_marseille","lat":43.28165,"lon":5.42624,"is_reserved":false,"is_disabled":false,"rental_uris":{"android":"levelo://app?vid=86c676a3-5916-4f30-9d39-59f2238fd475","ios":"levelo://app?vid=86c676a3-5916-4f30-9d39-59f2238fd475"},"vehicle_type_id":"4","last_reported":1768299241,"current_range_meters":9600,"station_id":"ce4bhnh2rcd13ifvqgug","pricing_plan_id":"cebpf4jnsgd1na2vs0mg"},{"bike_id":"b8675476-6291-4f25-a0e7-61960e05be6a","system_id":"levelo_inurba_marseille","lat":43.26355,"lon":5.41084,"is_reserved":false,"is_disabled":false,"rental_uris":{"android":"levelo://app?vid=b8675476-6291-4f25-a0e7-61960e05be6a","ios":"levelo://app?vid=b8675476-6291-4f25-a0e7-61960e05be6a"},"vehicle_type_id":"4","last_reported":1768299241,"current_range_meters":9600,"station_id":"st_d4e5ca6na9uc73bfl5fg","pricing_plan_id":"cebpf4jnsgd1na2vs0mg"},{"bike_id":"34832598-3558-4a16-846e-52b918cfd598","system_id":"levelo_inurba_marseille","lat":43.27815,"lon":5.40714,"is_reserved":false,"is_disabled":false,"rental_uris":{"android":"levelo://app?vid=34832598-3558-4a16-846e-52b918cfd598","ios":"levelo://app?vid=34832598-3558-4a16-846e-52b918cfd598"},"vehicle_type_id":"4","last_reported":1768299241,"current_range_meters":9600,"station_id":"ce4bhnh2rcd13ifvqgtg","pricing_plan_id":"cebpf4jnsgd1na2vs0mg"},{"bike_id":"17d2feef-4e10-45c1-b8f9-6bc8b64939c3","system_id":"levelo_inurba_marseille","lat":43.24163,"lon":5.364,"is_reserved":false,"is_disabled":false,"rental_uris":{"android":"levelo://app?vid=17d2feef-4e10-45c1-b8f9-6bc8b64939c3","ios":"levelo://app?vid=17d2feef-4e10-45c1-b8f9-6bc8b64939c3"},"vehicle_type_id":"4","last_reported":1768299241,"current_range_meters":9600,"station_id":"cpo36qri1sfpv3e86is0","pricing_plan_id":"cebpf4jnsgd1na2vs0mg"},{"bike_id":"43bdee44-9be9-49ba-998a-83e0b771fcf1","system_id":"levelo_inurba_marseille","lat":43.27176,"lon":5.40994,"is_reserved":false,"is_disabled":false,"rental_uris":{"android":"levelo://app?vid=43bdee44-9be9-49ba-998a-83e0b771fcf1","ios":"levelo://app?vid=43bdee44-9be9-49ba-998a-83e0b771fcf1"},"vehicle_type_id":"4","last_reported":1768299241,"current_range_meters":9600,"station_id":"ce4bhl12rcd13ifvqgf0","pricing_plan_id":"cebpf4jnsgd1na2vs0mg"},{"bike_id":"40d47c0c-55a1-48e8-8d5c-9585a4d68622","system_id":"levelo_inurba_marseille","lat":43.24071,"lon":5.37759,"is_reserved":false,"is_disabled":false,"rental_uris":{"android":"levelo://app?vid=40d47c0c-55a1-48e8-8d5c-9585a4d68622","ios":"levelo://app?vid=40d47c0c-55a1-48e8-8d5c-9585a4d68622"},"vehicle_type_id":"4","last_reported":1768299241,"current_range_meters":9600,"station_id":"ce4bhnp2rcd13ifvqgvg","pricing_plan_id":"cebpf4jnsgd1na2vs0mg"},{"bike_id":"204dd096-6acb-4ab7-b99f-39dcae4c2caf","system_id":"levelo_inurba_marseille","lat":43.2594,"lon":5.40906,"is_reserved":false,"is_disabled":false,"rental_uris":{"android":"levelo://app?vid=204dd096-6acb-4ab7-b99f-39dcae4c2caf","ios":"levelo://app?vid=204dd096-6acb-4ab7-b99f-39dcae4c2caf"},"vehicle_type_id":"4","last_reported":1768299241,"current_range_meters":9600,"station_id":"ce4bhm92rcd13ifvqglg","pricing_plan_id":"cebpf4jnsgd1na2vs0mg"},{"bike_id":"e7e28ba2-3e4e-422f-a879-66249a6c54a4","system_id":"levelo_inurba_marseille","lat":43.30288,"lon":5.37254,"is_reserved":false,"is_disabled":false,"rental_uris":{"android":"levelo://app?vid=e7e28ba2-3e4e-422f-a879-66249a6c54a4","ios":"levelo://app?vid=e7e28ba2-3e4e-422f-a879-66249a6c54a4"},"vehicle_type_id":"4","last_reported":1768299241,"current_range_meters":9600,"station_id":"","pricing_plan_id":"cebpf4jnsgd1na2vs0mg"},