{"last_updated":1745132994,"ttl":60,"version":"2.2","data":{"bikes":[{"bike_id":"a4ee9808-c56f-429a-bd9e-2837e81985cb","system_id":"levelo_inurba_marseille","lat":43.27997,"lon":5.41662,"is_reserved":false,"is_disabled":true,"rental_uris":{"android":"levelo://app?vid=a4ee9808-c56f-429a-bd9e-2837e81985cb","ios":"levelo://app?vid=a4ee9808-c56f-429a-bd9e-2837e81985cb"},"vehicle_type_id":"4","last_reported":1745132994,"current_range_meters":2800,"station_id":"ce4bho12rcd13ifvqh1g","pricing_plan_id":"cebpf4jnsgd1na2vs0mg"},{"bike_id":"d17c04c8-466f-4012-85e3-67f110449841","system_id":"levelo_inurba_marseille","lat":43.30365,"lon":5.3893,"is_reserved":false,"is_disabled":false,"rental_uris":{"android":"levelo://app?vid=d17c04c8-466f-4012-85e3-67f110449841","ios":"levelo://app?vid=d17c04c8-466f-4012-85e3-67f110449841"},"vehicle_type_id":"4","last_reported":1745132994,"current_range_meters":2800,"station_id":"","pricing_plan_id":"cebpf4jnsgd1na2vs0mg"},{"bike_id":"8a6702f5-2603-4da1-b2e2-5f0cb260c889","system_id":"levelo_inurba_marseille","lat":43.27382,"lon":5.36252,"is_reserved":false,"is_disabled":false,"rental_uris":{"android":"levelo://app?vid=8a6702f5-2603-4da1-b2e2-5f0cb260c889","ios":"levelo://app?vid=8a6702f5-2603-4da1-b2e2-5f0cb260c889"},"vehicle_type_id":"4","last_reported":1745132994,"current_range_meters":2800,"station_id":"ce4bhbh2rcd13ifvqeo0","pricing_plan_id":"cebpf4jnsgd1na2vs0mg"},{"bike_id":"9f99e8d4-d630-4ea3-963a-25e207ceb056","system_id":"levelo_inurba_marseille","lat":43.32276,"lon":5.38303,"is_reserved":false,"is_disabled":false,"rental_uris":{"android":"levelo://app?vid=9f99e8d4-d630-4ea3-963a-25e207ceb056","ios":"levelo://app?vid=9f99e8d4-d630-4ea3-963a-25e207ceb056"},"vehicle_type_id":"4","last_reported":1745132994,"current_range_meters":2800,"station_id":"ce4bhr12rcd13ifvqhqg","pricing_plan_id":"cebpf4jnsgd1na2vs0mg"},{"bike_id":"77f0bfe2-7716-4086-ba37-b78acf8b03cf","system_id":"levelo_inurba_marseille","lat":43.29278,"lon":5.36848,"is_reserved":false,"is_disabled":false,"rental_uris":{"android":"levelo://app?vid=77f0bfe2-7716-4086-ba37-b78acf8b03cf","ios":"levelo://app?vid=77f0bfe2-7716-4086-ba37-b78acf8b03cf"},"vehicle_type_id":"4","last_reported":1745132994,"current_range_meters":3200,"station_id":"ce4bhbp2rcd13ifvqesg","pricing_plan_id":"cebpf4jnsgd1na2vs0mg"},{"bike_id":"4f2b8920-c07c-42f6-98ef-b3d2b27b863c","system_id":"levelo_inurba_marseille","lat":43.28427,"lon":5.375142,"is_reserved":false,"is_disabled":false,"rental_uris":{"android":"levelo://app?vid=4f2b8920-c07c-42f6-98ef-b3d2b27b863c","ios":"levelo://app?vid=4f2b8920-c07c-42f6-98ef-b3d2b27b863c"},"vehicle_type_id":"4","last_reported":1745132994,"current_range_meters":3200,"station_id":"ce4bh412rcd13ifvqds0","pricing_plan_id":"cebpf4jnsgd1na2vs0mg"},{"bike_id":"4f8584e8-5230-4813-a342-182d62bd3ed6","system_id":"levelo_inurba_marseille","lat":43.28925,"lon":5.38399,"is_reserved":false,"is_disabled":false,"rental_uris":{"android":"levelo://app?vid=4f8584e8-5230-4813-a342-182d62bd3ed6","ios":"levelo://app?vid=4f8584e8-5230-4813-a342-182d62bd3ed6"},"vehicle_type_id":"4","last_reported":1745132994,"current_range_meters":3200,"station_id":"ce4bh612rcd13ifvqe6g","pricing_plan_id":"cebpf4jnsgd1na2vs0mg"},{"bike_id":"38d71541-39fa-44bc-b9fa-dad7cbdc7434","system_id":"levelo_inurba_marseille","lat":43.28742,"lon":5.38662,"is_reserved":false,"is_disabled":false,"rental_uris":{"android":"levelo://app?vid=38d71541-39fa-44bc-b9fa-dad7cbdc7434","ios":"levelo://app?vid=38d71541-39fa-44bc-b9fa-dad7cbdc7434"},"vehicle_type_id":"4","last_reported":1745132994,"current_range_meters":3200,"station_id":"","pricing_plan_id":"cebpf4jnsgd1na2vs0mg"},{"bike_id":"8ff9f10e-8733-4a3a-8b8c-71b67317cfa0","system_id":"levelo_inurba_marseille","lat":43.24156,"lon":5.36402,"is_reserved":false,"is_disabled":false,"rental_uris":{"android":"levelo://app?vid=8ff9f10e-8733-4a3a-8b8c-71b67317cfa0","ios":"levelo://app?vid=8ff9f10e-8733-4a3a-8b8c-71b67317cfa0"},"vehicle_type_id":"4","last_reported":1745132994,"current_range_meters":3600,"station_id":"cpo36qri1sfpv3e86is0","pricing_plan_id":"cebpf4jnsgd1na2vs0mg"},{"bike_id":"69d51b66-0085-4fad-9d31-41f4caa5ef3b","system_id":"levelo_inurba_marseille","lat":43.30154,"lon":5.38077,"is_reserved":false,"is_disabled":false,"rental_uris":{"android":"levelo://app?vid=69d51b66-0085-4fad-9d31-41f4caa5ef3b","ios":"levelo://app?vid=69d51b66-0085-4fad-9d31-41f4caa5ef3b"},"vehicle_type_id":"4","last_reported":1745132994,"current_range_meters":3600,"station_id":"ce4bgjp2rcd13ifvqbh0","pricing_plan_id":"cebpf4jnsgd1na2vs0mg"},{"bike_id":"fa6cc90c-2177-4288-b4a9-b2676db60c32","system_id":"levelo_inurba_marseille","lat":43.30147,"lon":5.38076,"is_reserved":false,"is_disabled":false,"rental_uris":{"android":"levelo://app?vid=fa6cc90c-2177-4288-b4a9-b2676db60c32","ios":"levelo://app?vid=fa6cc90c-2177-4288-b4a9-b2676db60c32"},"vehicle_type_id":"4","last_reported":1745132994,"current_range_meters":4000,"station_id":"ce4bgjp2rcd13ifvqbh0","pricing_plan_id":"cebpf4jnsgd1na2vs0mg"},{"bike_id":"df982341-d3f1-47bb-bcdf-1054fc116c62","system_id":"levelo_inurba_marseille","lat":43.29808,"lon":5.38125,"is_reserved":false,"is_disabled":true,"rental_uris":{"android":"levelo://app?vid=df982341-d3f1-47bb-bcdf-1054fc116c62","ios":"levelo://app?vid=df982341-d3f1-47bb-bcdf-1054fc116c62"},"vehicle_type_id":"4","last_reported":1745132994,"current_range_meters":4000,"station_id":"ce4bgip2rcd13ifvqbb0","pricing_plan_id":"cebpf4jnsgd1na2vs0mg"},{"bike_id":"276d94a9-b91a-47b5-b4e8-19ed1fdcca68","system_id":"levelo_inurba_marseille","lat":43.29553,"lon":5.42291,"is_reserved":false,"is_disabled":true,"rental_uris":{"android":"levelo://app?vid=276d94a9-b91a-47b5-b4e8-19ed1fdcca68","ios":"levelo://app?vid=276d94a9-b91a-47b5-b4e8-19ed1fdcca68"},"vehicle_type_id":"4","last_reported":1745132994,"current_range_meters":4000,"station_id":"ce4bhph2rcd13ifvqhdg","pricing_plan_id":"cebpf4jnsgd1na2vs0mg"},{"bike_id":"661f7958-3a95-4bf6-a057-88e56dfcf24d","system_id":"levelo_inurba_marseille","lat":43.311133,"lon":5.377666,"is_reserved":false,"is_disabled":false,"rental_uris":{"android":"levelo://app?vid=661f7958-3a95-4bf6-a057-88e56dfcf24d","ios":"levelo://app?vid=661f7958-3a95-4bf6-a057-88e56dfcf24d"},"vehicle_type_id":"4","last_reported":1745132994,"current_range_meters":3600,"station_id":"ce4bgvp2rcd13ifvqcu0","pricing_plan_id":"cebpf4jnsgd1na2vs0mg"},{"bike_id":"c42c97dc-851b-476d-ba23-67d0582febc0","system_id":"levelo_inurba_marseille","lat":43.30321,"lon":5.40445,"is_reserved":false,"is_disabled":true,"rental_uris":{"android":"levelo://app?vid=c42c97dc-851b-476d-ba23-67d0582febc0","ios":"levelo://app?vid=c42c97dc-851b-476d-ba23-67d0582febc0"},"vehicle_type_id":"4","last_reported":1745132994,"current_range_meters":4400,"station_id":"ce4bh012rcd13ifvqd10","pricing_plan_id":"cebpf4jnsgd1na2vs0mg"},{"bike_id":"4a86d0f8-ff65-4446-9521-1002867a3da0","system_id":"levelo_inurba_marseille","lat":43.24548,"lon":5.39519,"is_reserved":false,"is_disabled":true,"rental_uris":{"android":"levelo://app?vid=4a86d0f8-ff65-4446-9521-1002867a3da0","ios":"levelo://app?vid=4a86d0f8-ff65-4446-9521-1002867a3da0"},"vehicle_type_id":"4","last_reported":1745132994,"current_range_meters":4400,"station_id":"ce4bhlp2rcd13ifvqgjg","pricing_plan_id":"cebpf4jnsgd1na2vs0mg"},{"bike_id":"11b970d9-27b9-4e6f-86a0-cf6dc98382f2","system_id":"levelo_inurba_marseille","lat":43.31131,"lon":5.37778,"is_reserved":false,"is_disabled":false,"rental_uris":{"android":"levelo://app?vid=11b970d9-27b9-4e6f-86a0-cf6dc98382f2","ios":"levelo://app?vid=11b970d9-27b9-4e6f-86a0-cf6dc98382f2"},"vehicle_type_id":"4","last_reported":1745132994,"current_range_meters":4400,"station_id":"ce4bgt92rcd13ifvqcg0","pricing_plan_id":"cebpf4jnsgd1na2vs0mg"},{"bike_id":"19ada103-4cbd-4062-a809-34f5987a7a6d","system_id":"levelo_inurba_marseille","lat":43.26803,"lon":5.38912,"is_reserved":false,"is_disabled":false,"rental_uris":{"android":"levelo://app?vid=19ada103-4cbd-4062-a809-34f5987a7a6d","ios":"levelo://app?vid=19ada103-4cbd-4062-a809-34f5987a7a6d"},"vehicle_type_id":"4","last_reported":1745132994,"current_range_meters":4800,"station_id":"","pricing_plan_id":"cebpf4jnsgd1na2vs0mg"},{"bike_id":"45be03d9-4e8c-458d-9657-a2ea12718a8e","system_id":"levelo_inurba_marseille","lat":43.22932,"lon":5.35377,"is_reserved":false,"is_disabled":false,"rental_uris":{"android":"levelo://app?vid=45be03d9-4e8c-458d-9657-a2ea12718a8e","ios":"levelo://app?vid=45be03d9-4e8c-458d-9657-a2ea12718a8e"},"vehicle_type_id":"4","last_reported":1745132994,"current_range_meters":4800,"station_id":"cpo3532slgdg3j2ikp40","pricing_plan_id":"cebpf4jnsgd1na2vs0mg"},{"bike_id":"a0ddb0a5-f7f0-4281-aa27-9e82747cc573","system_id":"levelo_inurba_marseille","lat":43.33754,"lon":5.37491,"is_reserved":false,"is_disabled":false,"rental_uris":{"android":"levelo://app?vid=a0ddb0a5-f7f0-4281-aa27-9e82747cc573","ios":"levelo://app?vid=a0ddb0a5-f7f0-4281-aa27-9e82747cc573"},"vehicle_type_id":"4","last_reported":1745132994,"current_range_meters":4800,"station_id":"","pricing_plan_id":"cebpf4jnsgd1na2vs0mg"},{"bike_id":"066f1a3f-2f55-42ac-aa57-b561bb82f13e","system_id":"levelo_inurba_marseille","lat":43.30858,"lon":5.37319,"is_reserved":false,"is_disabled":false,"rental_uris":{"android":"levelo://app?vid=066f1a3f-2f55-42ac-aa57-b561bb82f13e","ios":"levelo://app?vid=066f1a3f-2f55-42ac-aa57-b561bb82f13e"},"vehicle_type_id":"4","last_reported":1745132994,"current_range_meters":5600,"station_id":"","pricing_plan_id":"cebpf4jnsgd1na2vs0mg"},{"bike_id":"98133c5f-1713-4ff0-94e5-8b169d954486","system_id":"levelo_inurba_marseille","lat":43.297813,"lon":5.381122,"is_reserved":false,"is_disabled":true,"rental_uris":{"android":"levelo://app?vid=98133c5f-1713-4ff0-94e5-8b169d954486","ios":"levelo://app?vid=98133c5f-1713-4ff0-94e5-8b169d954486"},"vehicle_type_id":"4","last_reported":1745132994,"current_range_meters":5600,"station_id":"ce4bgip2rcd13ifvqbb0","pricing_plan_id":"cebpf4jnsgd1na2vs0mg"},{"bike_id":"a8bb5851-2286-4f11-a2e8-d189dc708342","system_id":"levelo_inurba_marseille","lat":43.28449,"lon":5.35883,"is_reserved":false,"is_disabled":false,"rental_uris":{"android":"levelo://app?vid=a8bb5851-2286-4f11-a2e8-d189dc708342","ios":"levelo://app?vid=a8bb5851-2286-4f11-a2e8-d189dc708342"},"vehicle_type_id":"4","last_reported":1745132994,"current_range_meters":5600,"station_id":"ce4bhah2rcd13ifvqei0","pricing_plan_id":"cebpf4jnsgd1na2vs0mg"},{"bike_id":"4cdb0a0f-6366-43af-85c7-3c43d75a4386","system_id":"levelo_inurba_marseille","lat":43.3179,"lon":5.36805,"is_reserved":false,"is_disabled":false,"rental_uris":{"android":"levelo://app?vid=4cdb0a0f-6366-43af-85c7-3c43d75a4386","ios":"levelo://app?vid=4cdb0a0f-6366-43af-85c7-3c43d75a4386"},"vehicle_type_id":"4","last_reported":1745132994,"current_range_meters":5600,"station_id":"","pricing_plan_id":"cebpf4jnsgd1na2vs0mg"},{"bike_id":"9fe8c14c-2d24-41b2-9662-956cdf9f075c","system_id":"levelo_inurba_marseille","lat":43.24484,"lon":5.36921,"is_reserved":false,"is_disabled":false,"rental_uris":{"android":"levelo://app?vid=9fe8c14c-2d24-41b2-9662-956cdf9f075c","ios":"levelo://app?vid=9fe8c14c-2d24-41b2-9662-956cdf9f075c"},"vehicle_type_id":"4","last_reported":1745132994,"current_range_meters":6000,"station_id":"","pricing_plan_id":"cebpf4jnsgd1na2vs0mg"},{"bike_id":"36422801-a6f2-484d-afc0-5800bf49fd3c","system_id":"levelo_inurba_marseille","lat":43.25103,"lon":5.40354,"is_reserved":false,"is_disabled":false,"rental_uris":{"android":"levelo://app?vid=36422801-a6f2-484d-afc0-5800bf49fd3c","ios":"levelo://app?vid=36422801-a6f2-484d-afc0-5800bf49fd3c"},"vehicle_type_id":"4","last_reported":1745132994,"current_range_meters":6000,"station_id":"ce4bhlh2rcd13ifvqgig","pricing_plan_id":"cebpf4jnsgd1na2vs0mg"},{"bike_id":"da7b16f6-1b71-4b11-af7e-a83c05c8f53d","system_id":"levelo_inurba_marseille","lat":43.25851,"lon":5.39907,"is_reserved":false,"is_disabled":false,"rental_uris":{"android":"levelo://app?vid=da7b16f6-1b71-4b11-af7e-a83c05c8f53d","ios":"levelo://app?vid=da7b16f6-1b71-4b11-af7e-a83c05c8f53d"},"vehicle_type_id":"4","last_reported":1745132994,"current_range_meters":6000,"station_id":"ce4bhl92rcd13ifvqghg","pricing_plan_id":"cebpf4jnsgd1na2vs0mg"},{"bike_id":"f3db6b84-95ea-47eb-b4cd-d586544348cb","system_id":"levelo_inurba_marseille","lat":43.24162,"lon":5.3642,"is_reserved":false,"is_disabled":false,"rental_uris":{"android":"levelo://app?vid=f3db6b84-95ea-47eb-b4cd-d586544348cb","ios":"levelo://app?vid=f3db6b84-95ea-47eb-b4cd-d586544348cb"},"vehicle_type_id":"4","last_reported":1745132994,"current_range_meters":6000,"station_id":"cpo36qri1sfpv3e86is0","pricing_plan_id":"cebpf4jnsgd1na2vs0mg"},{"bike_id":"338b44fa-b0cd-4fa0-8a1c-4b33d52ab71d","system_id":"levelo_inurba_marseille","lat":43.30875,"lon":5.37171,"is_reserved":false,"is_disabled":false,"rental_uris":{"android":"levelo://app?vid=338b44fa-b0cd-4fa0-8a1c-4b33d52ab71d","ios":"levelo://app?vid=338b44fa-b0cd-4fa0-8a1c-4b33d52ab71d"},"vehicle_type_id":"4","last_reported":1745132994,"current_range_meters":6000,"station_id":"ce4bguh2rcd13ifvqckg","pricing_plan_id":"cebpf4jnsgd1na2vs0mg"},{"bike_id":"c32807f3-5d2b-4a2e-bddd-0b05279898de","system_id":"levelo_inurba_marseille","lat":43.265565,"lon":5.372977,"is_reserved":false,"is_disabled":false,"rental_uris":{"android":"levelo://app?vid=c32807f3-5d2b-4a2e-bddd-0b05279898de","ios":"levelo://app?vid=c32807f3-5d2b-4a2e-bddd-0b05279898de"},"vehicle_type_id":"4","last_reported":1745132994,"current_range_meters":6400,"station_id":"ce4bhg12rcd13ifvqf70","pricing_plan_id":"cebpf4jnsgd1na2vs0mg"},{"bike_id":"f6ba2129-4c99-433a-9ce5-8a3893340f52","system_id":"levelo_inurba_marseille","lat":43.2415,"lon":5.36418,"is_reserved":false,"is_disabled":false,"rental_uris":{"android":"levelo://app?vid=f6ba2129-4c99-433a-9ce5-8a3893340f52","ios":"levelo://app?vid=f6ba2129-4c99-433a-9ce5-8a3893340f52"},"vehicle_type_id":"4","last_reported":1745132994,"current_range_meters":6400,"station_id":"cpo36qri1sfpv3e86is0","pricing_plan_id":"cebpf4jnsgd1na2vs0mg"},{"bike_id":"60c589e9-bda5-4065-bda6-9b95d6b63cbc","system_id":"levelo_inurba_marseille","lat":43.286107,"lon":5.370631,"is_reserved":false,"is_disabled":false,"rental_uris":{"android":"levelo://app?vid=60c589e9-bda5-4065-bda6-9b95d6b63cbc","ios":"levelo://app?vid=60c589e9-bda5-4065-bda6-9b95d6b63cbc"},"vehicle_type_id":"4","last_reported":1745132994,"current_range_meters":6400,"station_id":"ce4bht12rcd13ifvqi60","pricing_plan_id":"cebpf4jnsgd1na2vs0mg"},{"bike_id":"5bf8dc27-228d-4b50-aa63-37a30cdf7883","system_id":"levelo_inurba_marseille","lat":43.32342,"lon":5.4062,"is_reserved":false,"is_disabled":false,"rental_uris":{"android":"levelo://app?vid=5bf8dc27-228d-4b50-aa63-37a30cdf7883","ios":"levelo://app?vid=5bf8dc27-228d-4b50-aa63-37a30cdf7883"},"vehicle_type_id":"4","last_reported":1745132994,"current_range_meters":6400,"station_id":"ce4bhq92rcd13ifvqhjg","pricing_plan_id":"cebpf4jnsgd1na2vs0mg"},{"bike_id":"491ff9a8-6221-467c-ac1c-ffd341013331","system_id":"levelo_inurba_marseille","lat":43.30463,"lon":5.37911,"is_reserved":false,"is_disabled":false,"rental_uris":{"android":"levelo://app?vid=491ff9a8-6221-467c-ac1c-ffd341013331","ios":"levelo://app?vid=491ff9a8-6221-467c-ac1c-ffd341013331"},"vehicle_type_id":"4","last_reported":1745132994,"current_range_meters":6400,"station_id":"ce4bgup2rcd13ifvqcn0","pricing_plan_id":"cebpf4jnsgd1na2vs0mg"},{"bike_id":"35f0a6e1-f9a9-47ee-bab6-2641cdd8ae57","system_id":"levelo_inurba_marseille","lat":43.27328,"lon":5.39076,"is_reserved":false,"is_disabled":true,"rental_uris":{"android":"levelo://app?vid=35f0a6e1-f9a9-47ee-bab6-2641cdd8ae57","ios":"levelo://app?vid=35f0a6e1-f9a9-47ee-bab6-2641cdd8ae57"},"vehicle_type_id":"4","last_reported":1745132994,"current_range_meters":6800,"station_id":"ce4bhgp2rcd13ifvqfe0","pricing_plan_id":"cebpf4jnsgd1na2vs0mg"},{"bike_id":"82cf97f6-2d10-439b-a6f0-f962bacaaf34","system_id":"levelo_inurba_marseille","lat":43.32358,"lon":5.38885,"is_reserved":false,"is_disabled":false,"rental_uris":{"android":"levelo://app?vid=82cf97f6-2d10-439b-a6f0-f962bacaaf34","ios":"levelo://app?vid=82cf97f6-2d10-439b-a6f0-f962bacaaf34"},"vehicle_type_id":"4","last_reported":1745132994,"current_range_meters":6800,"station_id":"ce4bhqp2rcd13ifvqhog","pricing_plan_id":"cebpf4jnsgd1na2vs0mg"},{"bike_id":"b52a1751-28c1-4412-9819-bb1cff38059d","system_id":"levelo_inurba_marseille","lat":43.25554,"lon":5.40643,"is_reserved":false,"is_disabled":false,"rental_uris":{"android":"levelo://app?vid=b52a1751-28c1-4412-9819-bb1cff38059d","ios":"levelo://app?vid=b52a1751-28c1-4412-9819-bb1cff38059d"},"vehicle_type_id":"4","last_reported":1745132994,"current_range_meters":6800,"station_id":"","pricing_plan_id":"cebpf4jnsgd1na2vs0mg"},{"bike_id":"0b40943d-b526-41fb-810d-35e7e3139bd0","system_id":"levelo_inurba_marseille","lat":43.306726,"lon":5.392498,"is_reserved":false,"is_disabled":false,"rental_uris":{"android":"levelo://app?vid=0b40943d-b526-41fb-810d-35e7e3139bd0","ios":"levelo://app?vid=0b40943d-b526-41fb-810d-35e7e3139bd0"},"vehicle_type_id":"4","last_reported":1745132994,"current_range_meters":6800,"station_id":"","pricing_plan_id":"cebpf4jnsgd1na2vs0mg"},{"bike_id":"5cffb306-5473-4177-ab17-566c4ea7f477","system_id":"levelo_inurba_marseille","lat":43.27209,"lon":5.39177,"is_reserved":false,"is_disabled":false,"rental_uris":{"android":"levelo://app?vid=5cffb306-5473-4177-ab17-566c4ea7f477","ios":"levelo://app?vid=5cffb306-5473-4177-ab17-566c4ea7f477"},"vehicle_type_id":"4","last_reported":1745132994,"current_range_meters":6400,"station_id":"ce4bhhp2rcd13ifvqfm0","pricing_plan_id":"cebpf4jnsgd1na2vs0mg"},{"bike_id":"06a4005b-b24a-4a6d-b0ac-dcf0e9ac719f","system_id":"levelo_inurba_marseille","lat":43.26188,"lon":5.37937,"is_reserved":false,"is_disabled":false,"rental_uris":{"android":"levelo://app?vid=06a4005b-b24a-4a6d-b0ac-dcf0e9ac719f","ios":"levelo://app?vid=06a4005b-b24a-4a6d-b0ac-dcf0e9ac719f"},"vehicle_type_id":"4","last_reported":1745132994,"current_range_meters":6800,"station_id":"ce4bhjp2rcd13ifvqg90","pricing_plan_id":"cebpf4jnsgd1na2vs0mg"},{"bike_id":"a2a6f098-8d58-42f2-80ae-d26a0e0f3ac1","system_id":"levelo_inurba_marseille","lat":43.30543,"lon":5.4016,"is_reserved":false,"is_disabled":false,"rental_uris":{"android":"levelo://app?vid=a2a6f098-8d58-42f2-80ae-d26a0e0f3ac1","ios":"levelo://app?vid=a2a6f098-8d58-42f2-80ae-d26a0e0f3ac1"},"vehicle_type_id":"4","last_reported":1745132994,"current_range_meters":6800,"station_id":"","pricing_plan_id":"cebpf4jnsgd1na2vs0mg"},{"bike_id":"238863de-7163-4a21-a2c9-990b68fd6ded","system_id":"levelo_inurba_marseille","lat":43.23962,"lon":5.3665,"is_reserved":false,"is_disabled":false,"rental_uris":{"android":"levelo://app?vid=238863de-7163-4a21-a2c9-990b68fd6ded","ios":"levelo://app?vid=238863de-7163-4a21-a2c9-990b68fd6ded"},"vehicle_type_id":"4","last_reported":1745132994,"current_range_meters":7200,"station_id":"ce4bhi12rcd13ifvqfp0","pricing_plan_id":"cebpf4jnsgd1na2vs0mg"},{"bike_id":"98dc27ee-79b6-49d6-9af6-5935a0dab5f2","system_id":"levelo_inurba_marseille","lat":43.30424,"lon":5.38902,"is_reserved":false,"is_disabled":false,"rental_uris":{"android":"levelo://app?vid=98dc27ee-79b6-49d6-9af6-5935a0dab5f2","ios":"levelo://app?vid=98dc27ee-79b6-49d6-9af6-5935a0dab5f2"},"vehicle_type_id":"4","last_reported":1745132994,"current_range_meters":7200,"station_id":"ce4bgk12rcd13ifvqbi0","pricing_plan_id":"cebpf4jnsgd1na2vs0mg"},{"bike_id":"6246c52b-0de2-4a85-bc22-8792f41632f9","system_id":"levelo_inurba_marseille","lat":43.27498,"lon":5.42447,"is_reserved":false,"is_disabled":false,"rental_uris":{"android":"levelo://app?vid=6246c52b-0de2-4a85-bc22-8792f41632f9","ios":"levelo://app?vid=6246c52b-0de2-4a85-bc22-8792f41632f9"},"vehicle_type_id":"4","last_reported":1745132994,"current_range_meters":7200,"station_id":"ce4bhn92rcd13ifvqgrg","pricing_plan_id":"cebpf4jnsgd1na2vs0mg"},{"bike_id":"506029f3-934b-4b14-bf28-b9c4802540f9","system_id":"levelo_inurba_marseille","lat":43.231963,"lon":5.355563,"is_reserved":false,"is_disabled":false,"rental_uris":{"android":"levelo://app?vid=506029f3-934b-4b14-bf28-b9c4802540f9","ios":"levelo://app?vid=506029f3-934b-4b14-bf28-b9c4802540f9"},"vehicle_type_id":"4","last_reported":1745132994,"current_range_meters":7200,"station_id":"ce4bhu92rcd13ifvqi70","pricing_plan_id":"cebpf4jnsgd1na2vs0mg"},{"bike_id":"2106afa7-e06f-4e8b-a40f-f48ffd306df4","system_id":"levelo_inurba_marseille","lat":43.30653,"lon":5.40083,"is_reserved":false,"is_disabled":false,"rental_uris":{"android":"levelo://app?vid=2106afa7-e06f-4e8b-a40f-f48ffd306df4","ios":"levelo://app?vid=2106afa7-e06f-4e8b-a40f-f48ffd306df4"},"vehicle_type_id":"4","last_reported":1745132994,"current_range_meters":7200,"station_id":"ce4bh112rcd13ifvqda0","pricing_plan_id":"cebpf4jnsgd1na2vs0mg"},{"bike_id":"6c30e091-3528-44fd-8a69-703e2e6ecfc4","system_id":"levelo_inurba_marseille","lat":43.239641,"lon":5.366301,"is_reserved":false,"is_disabled":false,"rental_uris":{"android":"levelo://app?vid=6c30e091-3528-44fd-8a69-703e2e6ecfc4","ios":"levelo://app?vid=6c30e091-3528-44fd-8a69-703e2e6ecfc4"},"vehicle_type_id":"4","last_reported":1745132994,"current_range_meters":8000,"station_id":"ce4bhi12rcd13ifvqfp0","pricing_plan_id":"cebpf4jnsgd1na2vs0mg"},{"bike_id":"613a352f-e21e-411f-bca1-4a1d61d7df7a","system_id":"levelo_inurba_marseille","lat":43.32374,"lon":5.38912,"is_reserved":false,"is_disabled":false,"rental_uris":{"android":"levelo://app?vid=613a352f-e21e-411f-bca1-4a1d61d7df7a","ios":"levelo://app?vid=613a352f-e21e-411f-bca1-4a1d61d7df7a"},"vehicle_type_id":"4","last_reported":1745132994,"current_range_meters":8000,"station_id":"ce4bhqp2rcd13ifvqhog","pricing_plan_id":"cebpf4jnsgd1na2vs0mg"},{"bike_id":"1eaca8f5-0017-418a-9bfc-52185bf67513","system_id":"levelo_inurba_marseille","lat":43.33727,"lon":5.39182,"is_reserved":false,"is_disabled":false,"rental_uris":{"android":"levelo://app?vid=1eaca8f5-0017-418a-9bfc-52185bf67513","ios":"levelo://app?vid=1eaca8f5-0017-418a-9bfc-52185bf67513"},"vehicle_type_id":"4","last_reported":1745132994,"current_range_meters":8000,"station_id":"ce4bhr92rcd13ifvqhsg","pricing_plan_id":"cebpf4jnsgd1na2vs0mg"},{"bike_id":"b95fa0d5-c256-4bb5-a783-4f540af9a3b8","system_id":"levelo_inurba_marseille","lat":43.22932,"lon":5.35381,"is_reserved":false,"is_disabled":false,"rental_uris":{"android":"levelo://app?vid=b95fa0d5-c256-4bb5-a783-4f540af9a3b8","ios":"levelo://app?vid=b95fa0d5-c256-4bb5-a783-4f540af9a3b8"},"vehicle_type_id":"4","last_reported":1745132994,"current_range_meters":8000,"station_id":"cpo3532slgdg3j2ikp40","pricing_plan_id":"cebpf4jnsgd1na2vs0mg"},{"bike_id":"186380b9-3dab-457b-b648-71d123fa0368","system_id":"levelo_inurba_marseille","lat":43.250952,"lon":5.403628,"is_reserved":false,"is_disabled":true,"rental_uris":{"android":"levelo://app?vid=186380b9-3dab-457b-b648-71d123fa0368","ios":"levelo://app?vid=186380b9-3dab-457b-b648-71d123fa0368"},"vehicle_type_id":"4","last_reported":1745132994,"current_range_meters":8000,"station_id":"ce4bhlh2rcd13ifvqgig","pricing_plan_id":"cebpf4jnsgd1na2vs0mg"},{"bike_id":"8a45211d-408b-43cb-ae76-f907d90fcf58","system_id":"levelo_inurba_marseille","lat":43.337257,"lon":5.39187,"is_reserved":false,"is_disabled":false,"rental_uris":{"android":"levelo://app?vid=8a45211d-408b-43cb-ae76-f907d90fcf58","ios":"levelo://app?vid=8a45211d-408b-43cb-ae76-f907d90fcf58"},"vehicle_type_id":"4","last_reported":1745132994,"current_range_meters":8000,"station_id":"ce4bhr92rcd13ifvqhsg","pricing_plan_id":"cebpf4jnsgd1na2vs0mg"},{"bike_id":"d2ba4413-c35f-41b1-8baf-f83e6001a359","system_id":"levelo_inurba_marseille","lat":43.29027,"lon":5.38656,"is_reserved":false,"is_disabled":true,"rental_uris":{"android":"levelo://app?vid=d2ba4413-c35f-41b1-8baf-f83e6001a359","ios":"levelo://app?vid=d2ba4413-c35f-41b1-8baf-f83e6001a359"},"vehicle_type_id":"4","last_reported":1745132994,"current_range_meters":8000,"station_id":"ce4bh4p2rcd13ifvqe0g","pricing_plan_id":"cebpf4jnsgd1na2vs0mg"},{"bike_id":"4f7d7a48-9ed4-49ae-98c3-6d5ae3d0a41a","system_id":"levelo_inurba_marseille","lat":43.22909,"lon":5.35417,"is_reserved":false,"is_disabled":false,"rental_uris":{"android":"levelo://app?vid=4f7d7a48-9ed4-49ae-98c3-6d5ae3d0a41a","ios":"levelo://app?vid=4f7d7a48-9ed4-49ae-98c3-6d5ae3d0a41a"},"vehicle_type_id":"4","last_reported":1745132994,"current_range_meters":8000,"station_id":"cpo3532slgdg3j2ikp40","pricing_plan_id":"cebpf4jnsgd1na2vs0mg"},{"bike_id":"9419856c-2c9f-473d-83b9-91a50cdb8c6a","system_id":"levelo_inurba_marseille","lat":43.27954,"lon":5.41047,"is_reserved":false,"is_disabled":false,"rental_uris":{"android":"levelo://app?vid=9419856c-2c9f-473d-83b9-91a50cdb8c6a","ios":"levelo://app?vid=9419856c-2c9f-473d-83b9-91a50cdb8c6a"},"vehicle_type_id":"4","last_reported":1745132994,"current_range_meters":8400,"station_id":"ce4bhnp2rcd13ifvqh0g","pricing_plan_id":"cebpf4jnsgd1na2vs0mg"},{"bike_id":"0fb20667-dfce-4ada-8493-bff38cc51e0c","system_id":"levelo_inurba_marseille","lat":43.2979,"lon":5.40445,"is_reserved":false,"is_disabled":false,"rental_uris":{"android":"levelo://app?vid=0fb20667-dfce-4ada-8493-bff38cc51e0c","ios":"levelo://app?vid=0fb20667-dfce-4ada-8493-bff38cc51e0c"},"vehicle_type_id":"4","last_reported":1745132994,"current_range_meters":8400,"station_id":"ce4bh112rcd13ifvqd90","pricing_plan_id":"cebpf4jnsgd1na2vs0mg"},{"bike_id":"6b2a2f68-fd74-4a24-a495-23dd8d3467f4","system_id":"levelo_inurba_marseille","lat":43.21189,"lon":5.35092,"is_reserved":false,"is_disabled":false,"rental_uris":{"android":"levelo://app?vid=6b2a2f68-fd74-4a24-a495-23dd8d3467f4","ios":"levelo://app?vid=6b2a2f68-fd74-4a24-a495-23dd8d3467f4"},"vehicle_type_id":"4","last_reported":1745132994,"current_range_meters":8400,"station_id":"st_cvj6sg6p6f1abm77japg","pricing_plan_id":"cebpf4jnsgd1na2vs0mg"},{"bike_id":"06d20799-fe4e-4e2c-aa01-a6a09b9e4c30","system_id":"levelo_inurba_marseille","lat":43.25115,"lon":5.40321,"is_reserved":false,"is_disabled":false,"rental_uris":{"android":"levelo://app?vid=06d20799-fe4e-4e2c-aa01-a6a09b9e4c30","ios":"levelo://app?vid=06d20799-fe4e-4e2c-aa01-a6a09b9e4c30"},"vehicle_type_id":"4","last_reported":1745132994,"current_range_meters":8400,"station_id":"ce4bhlh2rcd13ifvqgig","pricing_plan_id":"cebpf4jnsgd1na2vs0mg"},{"bike_id":"1965f819-3778-4654-96e5-aaaf9c36cc08","system_id":"levelo_inurba_marseille","lat":43.303657,"lon":5.425023,"is_reserved":false,"is_disabled":false,"rental_uris":{"android":"levelo://app?vid=1965f819-3778-4654-96e5-aaaf9c36cc08","ios":"levelo://app?vid=1965f819-3778-4654-96e5-aaaf9c36cc08"},"vehicle_type_id":"4","last_reported":1745132994,"current_range_meters":8400,"station_id":"ce4bhoh2rcd13ifvqh6g","pricing_plan_id":"cebpf4jnsgd1na2vs0mg"},{"bike_id":"6c199f55-ed16-463f-8fcd-82b2cade7ade","system_id":"levelo_inurba_marseille","lat":43.32369,"lon":5.36769,"is_reserved":false,"is_disabled":false,"rental_uris":{"android":"levelo://app?vid=6c199f55-ed16-463f-8fcd-82b2cade7ade","ios":"levelo://app?vid=6c199f55-ed16-463f-8fcd-82b2cade7ade"},"vehicle_type_id":"4","last_reported":1745132994,"current_range_meters":8400,"station_id":"ce4bhsh2rcd13ifvqi2g","pricing_plan_id":"cebpf4jnsgd1na2vs0mg"},{"bike_id":"931800f0-f5ae-42dc-9401-5ef75e1edc12","system_id":"levelo_inurba_marseille","lat":43.27367,"lon":5.41413,"is_reserved":false,"is_disabled":false,"rental_uris":{"android":"levelo://app?vid=931800f0-f5ae-42dc-9401-5ef75e1edc12","ios":"levelo://app?vid=931800f0-f5ae-42dc-9401-5ef75e1edc12"},"vehicle_type_id":"4","last_reported":1745132994,"current_range_meters":8400,"station_id":"","pricing_plan_id":"cebpf4jnsgd1na2vs0mg"},{"bike_id":"bceca376-b320-4023-9d3c-27333a171d6e","system_id":"levelo_inurba_marseille","lat":43.31731,"lon":5.37836,"is_reserved":false,"is_disabled":false,"rental_uris":{"android":"levelo://app?vid=bceca376-b320-4023-9d3c-27333a171d6e","ios":"levelo://app?vid=bceca376-b320-4023-9d3c-27333a171d6e"},"vehicle_type_id":"4","last_reported":1745132994,"current_range_meters":8400,"station_id":"","pricing_plan_id":"cebpf4jnsgd1na2vs0mg"},{"bike_id":"22583896-a653-48d4-8b37-6cfca0e7be93","system_id":"levelo_inurba_marseille","lat":43.2121,"lon":5.35088,"is_reserved":false,"is_disabled":false,"rental_uris":{"android":"levelo://app?vid=22583896-a653-48d4-8b37-6cfca0e7be93","ios":"levelo://app?vid=22583896-a653-48d4-8b37-6cfca0e7be93"},"vehicle_type_id":"4","last_reported":1745132994,"current_range_meters":8400,"station_id":"st_cvj6sg6p6f1abm77japg","pricing_plan_id":"cebpf4jnsgd1na2vs0mg"},{"bike_id":"e970a77c-97b4-4b75-8155-7044bacc8b02","system_id":"levelo_inurba_marseille","lat":43.25143,"lon":5.40331,"is_reserved":false,"is_disabled":false,"rental_uris":{"android":"levelo://app?vid=e970a77c-97b4-4b75-8155-7044bacc8b02","ios":"levelo://app?vid=e970a77c-97b4-4b75-8155-7044bacc8b02"},"vehicle_type_id":"4","last_reported":1745132994,"current_range_meters":8800,"station_id":"ce4bhlh2rcd13ifvqgig","pricing_plan_id":"cebpf4jnsgd1na2vs0mg"},{"bike_id":"106c5265-7c1a-45be-9031-3c55f8880986","system_id":"levelo_inurba_marseille","lat":43.2621,"lon":5.3794,"is_reserved":false,"is_disabled":false,"rental_uris":{"android":"levelo://app?vid=106c5265-7c1a-45be-9031-3c55f8880986","ios":"levelo://app?vid=106c5265-7c1a-45be-9031-3c55f8880986"},"vehicle_type_id":"4","last_reported":1745132994,"current_range_meters":8800,"station_id":"ce4bhjp2rcd13ifvqg90","pricing_plan_id":"cebpf4jnsgd1na2vs0mg"},{"bike_id":"20aab713-b807-4cab-a272-9ffba5cba397","system_id":"levelo_inurba_marseille","lat":43.3029,"lon":5.38962,"is_reserved":false,"is_disabled":false,"rental_uris":{"android":"levelo://app?vid=20aab713-b807-4cab-a272-9ffba5cba397","ios":"levelo://app?vid=20aab713-b807-4cab-a272-9ffba5cba397"},"vehicle_type_id":"4","last_reported":1745132994,"current_range_meters":8800,"station_id":"","pricing_plan_id":"cebpf4jnsgd1na2vs0mg"},{"bike_id":"4fd87317-4923-494a-a05e-56c3cadf7c8e","system_id":"levelo_inurba_marseille","lat":43.225022,"lon":5.347877,"is_reserved":false,"is_disabled":false,"rental_uris":{"android":"levelo://app?vid=4fd87317-4923-494a-a05e-56c3cadf7c8e","ios":"levelo://app?vid=4fd87317-4923-494a-a05e-56c3cadf7c8e"},"vehicle_type_id":"4","last_reported":1745132994,"current_range_meters":8800,"station_id":"","pricing_plan_id":"cebpf4jnsgd1na2vs0mg"},{"bike_id":"97e50bb0-9a70-481b-b370-e509345e710a","system_id":"levelo_inurba_marseille","lat":43.28033,"lon":5.3694,"is_reserved":false,"is_disabled":true,"rental_uris":{"android":"levelo://app?vid=97e50bb0-9a70-481b-b370-e509345e710a","ios":"levelo://app?vid=97e50bb0-9a70-481b-b370-e509345e710a"},"vehicle_type_id":"4","last_reported":1745132994,"current_range_meters":9200,"station_id":"ce4bha12rcd13ifvqef0","pricing_plan_id":"cebpf4jnsgd1na2vs0mg"},{"bike_id":"8ec023e1-30a1-4aab-a98c-7723156a2e6d","system_id":"levelo_inurba_marseille","lat":43.272809,"lon":5.391016,"is_reserved":false,"is_disabled":false,"rental_uris":{"android":"levelo://app?vid=8ec023e1-30a1-4aab-a98c-7723156a2e6d","ios":"levelo://app?vid=8ec023e1-30a1-4aab-a98c-7723156a2e6d"},"vehicle_type_id":"4","last_reported":1745132994,"current_range_meters":9200,"station_id":"ce4bhgp2rcd13ifvqfe0","pricing_plan_id":"cebpf4jnsgd1na2vs0mg"},{"bike_id":"ab9be9a2-b412-4e12-b774-0ac14e1c75f2","system_id":"levelo_inurba_marseille","lat":43.23196,"lon":5.35552,"is_reserved":false,"is_disabled":false,"rental_uris":{"android":"levelo://app?vid=ab9be9a2-b412-4e12-b774-0ac14e1c75f2","ios":"levelo://app?vid=ab9be9a2-b412-4e12-b774-0ac14e1c75f2"},"vehicle_type_id":"4","last_reported":1745132994,"current_range_meters":9200,"station_id":"ce4bhu92rcd13ifvqi70","pricing_plan_id":"cebpf4jnsgd1na2vs0mg"},{"bike_id":"7f545bbc-a0a7-4368-8a07-6a6863048111","system_id":"levelo_inurba_marseille","lat":43.22935,"lon":5.35393,"is_reserved":false,"is_disabled":false,"rental_uris":{"android":"levelo://app?vid=7f545bbc-a0a7-4368-8a07-6a6863048111","ios":"levelo://app?vid=7f545bbc-a0a7-4368-8a07-6a6863048111"},"vehicle_type_id":"4","last_reported":1745132994,"current_range_meters":9200,"station_id":"cpo3532slgdg3j2ikp40","pricing_plan_id":"cebpf4jnsgd1na2vs0mg"},{"bike_id":"7ae6e1fe-57bd-40fd-b69d-2763d10a2319","system_id":"levelo_inurba_marseille","lat":43.31115,"lon":5.3776,"is_reserved":false,"is_disabled":false,"rental_uris":{"android":"levelo://app?vid=7ae6e1fe-57bd-40fd-b69d-2763d10a2319","ios":"levelo://app?vid=7ae6e1fe-57bd-40fd-b69d-2763d10a2319"},"vehicle_type_id":"4","last_reported":1745132994,"current_range_meters":9200,"station_id":"ce4bgt92rcd13ifvqcg0","pricing_plan_id":"cebpf4jnsgd1na2vs0mg"},{"bike_id":"f0b6af0d-1cbf-47a3-af07-dab09fabbbf0","system_id":"levelo_inurba_marseille","lat":43.23197,"lon":5.3556,"is_reserved":false,"is_disabled":false,"rental_uris":{"android":"levelo://app?vid=f0b6af0d-1cbf-47a3-af07-dab09fabbbf0","ios":"levelo://app?vid=f0b6af0d-1cbf-47a3-af07-dab09fabbbf0"},"vehicle_type_id":"4","last_reported":1745132994,"current_range_meters":9200,"station_id":"ce4bhu92rcd13ifvqi70","pricing_plan_id":"cebpf4jnsgd1na2vs0mg"},{"bike_id":"58a86d93-d682-412a-acc9-83b24b69b362","system_id":"levelo_inurba_marseille","lat":43.30962,"lon":5.3827,"is_reserved":false,"is_disabled":false,"rental_uris":{"android":"levelo://app?vid=58a86d93-d682-412a-acc9-83b24b69b362","ios":"levelo://app?vid=58a86d93-d682-412a-acc9-83b24b69b362"},"vehicle_type_id":"4","last_reported":1745132994,"current_range_meters":9200,"station_id":"","pricing_plan_id":"cebpf4jnsgd1na2vs0mg"},{"bike_id":"51e55992-ca7d-4a75-944a-9e8d83703087","system_id":"levelo_inurba_marseille","lat":43.28599,"lon":5.37064,"is_reserved":false,"is_disabled":false,"rental_uris":{"android":"levelo://app?vid=51e55992-ca7d-4a75-944a-9e8d83703087","ios":"levelo://app?vid=51e55992-ca7d-4a75-944a-9e8d83703087"},"vehicle_type_id":"4","last_reported":1745132994,"current_range_meters":9200,"station_id":"ce4bht12rcd13ifvqi60","pricing_plan_id":"cebpf4jnsgd1na2vs0mg"},{"bike_id":"23b5cb82-5763-4950-a99c-24564a94eea9","system_id":"levelo_inurba_marseille","lat":43.30602,"lon":5.39321,"is_reserved":false,"is_disabled":false,"rental_uris":{"android":"levelo://app?vid=23b5cb82-5763-4950-a99c-24564a94eea9","ios":"levelo://app?vid=23b5cb82-5763-4950-a99c-24564a94eea9"},"vehicle_type_id":"4","last_reported":1745132994,"current_range_meters":9200,"station_id":"ce4bh0p2rcd13ifvqd80","pricing_plan_id":"cebpf4jnsgd1na2vs0mg"},{"bike_id":"138d6608-886e-4863-a664-7df6e5cc9a47","system_id":"levelo_inurba_marseille","lat":43.32649,"lon":5.42208,"is_reserved":false,"is_disabled":false,"rental_uris":{"android":"levelo://app?vid=138d6608-886e-4863-a664-7df6e5cc9a47","ios":"levelo://app?vid=138d6608-886e-4863-a664-7df6e5cc9a47"},"vehicle_type_id":"4","last_reported":1745132994,"current_range_meters":9200,"station_id":"","pricing_plan_id":"cebpf4jnsgd1na2vs0mg"},{"bike_id":"4500bcf7-bacd-47ce-8256-01f941bfb534","system_id":"levelo_inurba_marseille","lat":43.295293,"lon":5.375149,"is_reserved":false,"is_disabled":true,"rental_uris":{"android":"levelo://app?vid=4500bcf7-bacd-47ce-8256-01f941bfb534","ios":"levelo://app?vid=4500bcf7-bacd-47ce-8256-01f941bfb534"},"vehicle_type_id":"4","last_reported":1745132994,"current_range_meters":9600,"station_id":"ce4bgkp2rcd13ifvqbmg","pricing_plan_id":"cebpf4jnsgd1na2vs0mg"},{"bike_id":"6565ca44-2e63-4f42-a847-09fa2bdb37f3","system_id":"levelo_inurba_marseille","lat":43.31986,"lon":5.38165,"is_reserved":false,"is_disabled":true,"rental_uris":{"android":"levelo://app?vid=6565ca44-2e63-4f42-a847-09fa2bdb37f3","ios":"levelo://app?vid=6565ca44-2e63-4f42-a847-09fa2bdb37f3"},"vehicle_type_id":"4","last_reported":1745132994,"current_range_meters":9600,"station_id":"ce4bhr12rcd13ifvqhpg","pricing_plan_id":"cebpf4jnsgd1na2vs0mg"},{"bike_id":"a22db09a-240e-40e4-acbb-1c68666bfc1f","system_id":"levelo_inurba_marseille","lat":43.251159,"lon":5.403241,"is_reserved":false,"is_disabled":false,"rental_uris":{"android":"levelo://app?vid=a22db09a-240e-40e4-acbb-1c68666bfc1f","ios":"levelo://app?vid=a22db09a-240e-40e4-acbb-1c68666bfc1f"},"vehicle_type_id":"4","last_reported":1745132994,"current_range_meters":9600,"station_id":"ce4bhlh2rcd13ifvqgig","pricing_plan_id":"cebpf4jnsgd1na2vs0mg"},{"bike_id":"13f3fb34-9413-413f-89a9-b1ef385d22f2","system_id":"levelo_inurba_marseille","lat":43.23963,"lon":5.3664,"is_reserved":false,"is_disabled":false,"rental_uris":{"android":"levelo://app?vid=13f3fb34-9413-413f-89a9-b1ef385d22f2","ios":"levelo://app?vid=13f3fb34-9413-413f-89a9-b1ef385d22f2"},"vehicle_type_id":"4","last_reported":1745132994,"current_range_meters":9600,"station_id":"ce4bhi12rcd13ifvqfp0","pricing_plan_id":"cebpf4jnsgd1na2vs0mg"},{"bike_id":"386c0466-92a0-4b14-84ad-ceae0ada9e40","system_id":"levelo_inurba_marseille","lat":43.308941,"lon":5.368719,"is_reserved":false,"is_disabled":true,"rental_uris":{"android":"levelo://app?vid=386c0466-92a0-4b14-84ad-ceae0ada9e40","ios":"levelo://app?vid=386c0466-92a0-4b14-84ad-ceae0ada9e40"},"vehicle_type_id":"4","last_reported":1745132994,"current_range_meters":10000,"station_id":"ce4bgn92rcd13ifvqbvg","pricing_plan_id":"cebpf4jnsgd1na2vs0mg"},{"bike_id":"24213b37-b766-4d9c-a174-f6bf34920497","system_id":"levelo_inurba_marseille","lat":43.28469,"lon":5.384178,"is_reserved":false,"is_disabled":false,"rental_uris":{"android":"levelo://app?vid=24213b37-b766-4d9c-a174-f6bf34920497","ios":"levelo://app?vid=24213b37-b766-4d9c-a174-f6bf34920497"},"vehicle_type_id":"4","last_reported":1745132994,"current_range_meters":10000,"station_id":"ce4bh512rcd13ifvqe3g","pricing_plan_id":"cebpf4jnsgd1na2vs0mg"},{"bike_id":"ee77508c-6f9d-400c-9442-6494c8451c48","system_id":"levelo_inurba_marseille","lat":43.25106,"lon":5.40358,"is_reserved":false,"is_disabled":false,"rental_uris":{"android":"levelo://app?vid=ee77508c-6f9d-400c-9442-6494c8451c48","ios":"levelo://app?vid=ee77508c-6f9d-400c-9442-6494c8451c48"},"vehicle_type_id":"4","last_reported":1745132994,"current_range_meters":10000,"station_id":"ce4bhlh2rcd13ifvqgig","pricing_plan_id":"cebpf4jnsgd1na2vs0mg"},{"bike_id":"ff5ed840-b8eb-4955-8ae2-2a5b42a56acc","system_id":"levelo_inurba_marseille","lat":43.30413,"lon":5.41254,"is_reserved":false,"is_disabled":false,"rental_uris":{"android":"levelo://app?vid=ff5ed840-b8eb-4955-8ae2-2a5b42a56acc","ios":"levelo://app?vid=ff5ed840-b8eb-4955-8ae2-2a5b42a56acc"},"vehicle_type_id":"4","last_reported":1745132994,"current_range_meters":10000,"station_id":"ce4bhop2rcd13ifvqh8g","pricing_plan_id":"cebpf4jnsgd1na2vs0mg"},{"bike_id":"00879c1d-a962-4133-ba5d-8de0f524e6f5","system_id":"levelo_inurba_marseille","lat":43.27504,"lon":5.4247,"is_reserved":false,"is_disabled":false,"rental_uris":{"android":"levelo://app?vid=00879c1d-a962-4133-ba5d-8de0f524e6f5","ios":"levelo://app?vid=00879c1d-a962-4133-ba5d-8de0f524e6f5"},"vehicle_type_id":"4","last_reported":1745132994,"current_range_meters":10000,"station_id":"ce4bhn92rcd13ifvqgrg","pricing_plan_id":"cebpf4jnsgd1na2vs0mg"},{"bike_id":"d0395819-ea40-46d3-acfe-3a01d6c396c0","system_id":"levelo_inurba_marseille","lat":43.23182,"lon":5.39996,"is_reserved":false,"is_disabled":true,"rental_uris":{"android":"levelo://app?vid=d0395819-ea40-46d3-acfe-3a01d6c396c0","ios":"levelo://app?vid=d0395819-ea40-46d3-acfe-3a01d6c396c0"},"vehicle_type_id":"4","last_reported":1745132994,"current_range_meters":10000,"station_id":"ce4bhn12rcd13ifvqgqg","pricing_plan_id":"cebpf4jnsgd1na2vs0mg"},{"bike_id":"995d8a72-1aa5-4c87-a4d7-1f735ca671c5","system_id":"levelo_inurba_marseille","lat":43.305443,"lon":5.36566,"is_reserved":false,"is_disabled":false,"rental_uris":{"android":"levelo://app?vid=995d8a72-1aa5-4c87-a4d7-1f735ca671c5","ios":"levelo://app?vid=995d8a72-1aa5-4c87-a4d7-1f735ca671c5"},"vehicle_type_id":"4","last_reported":1745132994,"current_range_meters":10800,"station_id":"ce4bgs12rcd13ifvqcag","pricing_plan_id":"cebpf4jnsgd1na2vs0mg"},{"bike_id":"4e6892ef-dbe3-43e4-bc69-b2da5d802c90","system_id":"levelo_inurba_marseille","lat":43.2738,"lon":5.36253,"is_reserved":false,"is_disabled":true,"rental_uris":{"android":"levelo://app?vid=4e6892ef-dbe3-43e4-bc69-b2da5d802c90","ios":"levelo://app?vid=4e6892ef-dbe3-43e4-bc69-b2da5d802c90"},"vehicle_type_id":"4","last_reported":1745132994,"current_range_meters":10800,"station_id":"ce4bhbh2rcd13ifvqeo0","pricing_plan_id":"cebpf4jnsgd1na2vs0mg"},{"bike_id":"c6eb518d-f8e2-4c5c-8098-b5d751548fcd","system_id":"levelo_inurba_marseille","lat":43.25948,"lon":5.40914,"is_reserved":false,"is_disabled":false,"rental_uris":{"android":"levelo://app?vid=c6eb518d-f8e2-4c5c-8098-b5d751548fcd","ios":"levelo://app?vid=c6eb518d-f8e2-4c5c-8098-b5d751548fcd"},"vehicle_type_id":"4","last_reported":1745132994,"current_range_meters":10800,"station_id":"ce4bhm92rcd13ifvqglg","pricing_plan_id":"cebpf4jnsgd1na2vs0mg"},{"bike_id":"527fac75-0783-4b2c-bd4e-07f2f2fee902","system_id":"levelo_inurba_marseille","lat":43.311216,"lon":5.377969,"is_reserved":false,"is_disabled":true,"rental_uris":{"android":"levelo://app?vid=527fac75-0783-4b2c-bd4e-07f2f2fee902","ios":"levelo://app?vid=527fac75-0783-4b2c-bd4e-07f2f2fee902"},"vehicle_type_id":"4","last_reported":1745132994,"current_range_meters":10800,"station_id":"ce4bgt92rcd13ifvqcg0","pricing_plan_id":"cebpf4jnsgd1na2vs0mg"},{"bike_id":"1b64a06c-8c3f-4044-b435-0c5447524fd5","system_id":"levelo_inurba_marseille","lat":43.28699,"lon":5.37409,"is_reserved":false,"is_disabled":true,"rental_uris":{"android":"levelo://app?vid=1b64a06c-8c3f-4044-b435-0c5447524fd5","ios":"levelo://app?vid=1b64a06c-8c3f-4044-b435-0c5447524fd5"},"vehicle_type_id":"4","last_reported":1745132994,"current_range_meters":10800,"station_id":"ce4bh3p2rcd13ifvqdq0","pricing_plan_id":"cebpf4jnsgd1na2vs0mg"},{"bike_id":"396ea9f0-d981-4e1c-a0e6-efd305b04d65","system_id":"levelo_inurba_marseille","lat":43.27888,"lon":5.37997,"is_reserved":false,"is_disabled":false,"rental_uris":{"android":"levelo://app?vid=396ea9f0-d981-4e1c-a0e6-efd305b04d65","ios":"levelo://app?vid=396ea9f0-d981-4e1c-a0e6-efd305b04d65"},"vehicle_type_id":"4","last_reported":1745132994,"current_range_meters":10800,"station_id":"ce4bhf92rcd13ifvqf50","pricing_plan_id":"cebpf4jnsgd1na2vs0mg"},{"bike_id":"8756e62b-ea4c-4305-b782-768af3d82b58","system_id":"levelo_inurba_marseille","lat":43.34146,"lon":5.4091,"is_reserved":false,"is_disabled":false,"rental_uris":{"android":"levelo://app?vid=8756e62b-ea4c-4305-b782-768af3d82b58","ios":"levelo://app?vid=8756e62b-ea4c-4305-b782-768af3d82b58"},"vehicle_type_id":"4","last_reported":1745132994,"current_range_meters":10800,"station_id":"ce4bhqh2rcd13ifvqhlg","pricing_plan_id":"cebpf4jnsgd1na2vs0mg"},{"bike_id":"338d819e-2c01-4ed1-a652-00707b45d220","system_id":"levelo_inurba_marseille","lat":43.3015,"lon":5.39873,"is_reserved":false,"is_disabled":false,"rental_uris":{"android":"levelo://app?vid=338d819e-2c01-4ed1-a652-00707b45d220","ios":"levelo://app?vid=338d819e-2c01-4ed1-a652-00707b45d220"},"vehicle_type_id":"4","last_reported":1745132994,"current_range_meters":10800,"station_id":"ce4bh0h2rcd13ifvqd40","pricing_plan_id":"cebpf4jnsgd1na2vs0mg"},{"bike_id":"0dd4bfb9-ffb6-48dc-a41c-5fa29cf2ff14","system_id":"levelo_inurba_marseille","lat":43.31189,"lon":5.36893,"is_reserved":false,"is_disabled":false,"rental_uris":{"android":"levelo://app?vid=0dd4bfb9-ffb6-48dc-a41c-5fa29cf2ff14","ios":"levelo://app?vid=0dd4bfb9-ffb6-48dc-a41c-5fa29cf2ff14"},"vehicle_type_id":"4","last_reported":1745132994,"current_range_meters":11200,"station_id":"ce4bgl92rcd13ifvqbq0","pricing_plan_id":"cebpf4jnsgd1na2vs0mg"},{"bike_id":"07f1bad0-9ed6-4403-870a-bfe77b589471","system_id":"levelo_inurba_marseille","lat":43.30307,"lon":5.39209,"is_reserved":false,"is_disabled":false,"rental_uris":{"android":"levelo://app?vid=07f1bad0-9ed6-4403-870a-bfe77b589471","ios":"levelo://app?vid=07f1bad0-9ed6-4403-870a-bfe77b589471"},"vehicle_type_id":"4","last_reported":1745132994,"current_range_meters":11200,"station_id":"ce4bgkh2rcd13ifvqbk0","pricing_plan_id":"cebpf4jnsgd1na2vs0mg"},{"bike_id":"3ef7817b-4812-4407-b7b6-5cedb3d61160","system_id":"levelo_inurba_marseille","lat":43.30774,"lon":5.37674,"is_reserved":false,"is_disabled":false,"rental_uris":{"android":"levelo://app?vid=3ef7817b-4812-4407-b7b6-5cedb3d61160","ios":"levelo://app?vid=3ef7817b-4812-4407-b7b6-5cedb3d61160"},"vehicle_type_id":"4","last_reported":1745132994,"current_range_meters":11200,"station_id":"ce4bgv92rcd13ifvqcq0","pricing_plan_id":"cebpf4jnsgd1na2vs0mg"},{"bike_id":"98243b31-1798-483c-a069-507a734f1ae1","system_id":"levelo_inurba_marseille","lat":43.29281,"lon":5.36847,"is_reserved":false,"is_disabled":false,"rental_uris":{"android":"levelo://app?vid=98243b31-1798-483c-a069-507a734f1ae1","ios":"levelo://app?vid=98243b31-1798-483c-a069-507a734f1ae1"},"vehicle_type_id":"4","last_reported":1745132994,"current_range_meters":11600,"station_id":"ce4bhbp2rcd13ifvqesg","pricing_plan_id":"cebpf4jnsgd1na2vs0mg"},{"bike_id":"f33472f1-b6fb-4a5a-8136-416b32a2682f","system_id":"levelo_inurba_marseille","lat":43.22926,"lon":5.35377,"is_reserved":false,"is_disabled":false,"rental_uris":{"android":"levelo://app?vid=f33472f1-b6fb-4a5a-8136-416b32a2682f","ios":"levelo://app?vid=f33472f1-b6fb-4a5a-8136-416b32a2682f"},"vehicle_type_id":"4","last_reported":1745132994,"current_range_meters":10800,"station_id":"cpo3532slgdg3j2ikp40","pricing_plan_id":"cebpf4jnsgd1na2vs0mg"},{"bike_id":"92697f9e-b546-4ff8-919e-4fb6c8d1e904","system_id":"levelo_inurba_marseille","lat":43.30593,"lon":5.39369,"is_reserved":false,"is_disabled":false,"rental_uris":{"android":"levelo://app?vid=92697f9e-b546-4ff8-919e-4fb6c8d1e904","ios":"levelo://app?vid=92697f9e-b546-4ff8-919e-4fb6c8d1e904"},"vehicle_type_id":"4","last_reported":1745132994,"current_range_meters":11600,"station_id":"ce4bh0p2rcd13ifvqd80","pricing_plan_id":"cebpf4jnsgd1na2vs0mg"},{"bike_id":"1886fb80-2895-40f7-844d-7933f5d904dc","system_id":"levelo_inurba_marseille","lat":43.278681,"lon":5.39309,"is_reserved":false,"is_disabled":false,"rental_uris":{"android":"levelo://app?vid=1886fb80-2895-40f7-844d-7933f5d904dc","ios":"levelo://app?vid=1886fb80-2895-40f7-844d-7933f5d904dc"},"vehicle_type_id":"4","last_reported":1745132994,"current_range_meters":11600,"station_id":"","pricing_plan_id":"cebpf4jnsgd1na2vs0mg"},{"bike_id":"760ae422-67d6-4adc-af46-12d2156dd247","system_id":"levelo_inurba_marseille","lat":43.28355,"lon":5.38106,"is_reserved":false,"is_disabled":false,"rental_uris":{"android":"levelo://app?vid=760ae422-67d6-4adc-af46-12d2156dd247","ios":"levelo://app?vid=760ae422-67d6-4adc-af46-12d2156dd247"},"vehicle_type_id":"4","last_reported":1745132994,"current_range_meters":11600,"station_id":"ce4bh412rcd13ifvqdr0","pricing_plan_id":"cebpf4jnsgd1na2vs0mg"},{"bike_id":"d177bdcb-ba4d-4c2e-8899-f6b0f9af395c","system_id":"levelo_inurba_marseille","lat":43.25927,"lon":5.40887,"is_reserved":false,"is_disabled":false,"rental_uris":{"android":"levelo://app?vid=d177bdcb-ba4d-4c2e-8899-f6b0f9af395c","ios":"levelo://app?vid=d177bdcb-ba4d-4c2e-8899-f6b0f9af395c"},"vehicle_type_id":"4","last_reported":1745132994,"current_range_meters":12000,"station_id":"ce4bhm92rcd13ifvqglg","pricing_plan_id":"cebpf4jnsgd1na2vs0mg"},{"bike_id":"33399c5a-7b71-4ae2-a964-55b2f2e618d0","system_id":"levelo_inurba_marseille","lat":43.30225,"lon":5.36574,"is_reserved":false,"is_disabled":true,"rental_uris":{"android":"levelo://app?vid=33399c5a-7b71-4ae2-a964-55b2f2e618d0","ios":"levelo://app?vid=33399c5a-7b71-4ae2-a964-55b2f2e618d0"},"vehicle_type_id":"4","last_reported":1745132994,"current_range_meters":12000,"station_id":"","pricing_plan_id":"cebpf4jnsgd1na2vs0mg"},{"bike_id":"ef504de2-6abd-4cb7-9699-cdd5d158f844","system_id":"levelo_inurba_marseille","lat":43.28039,"lon":5.36935,"is_reserved":false,"is_disabled":false,"rental_uris":{"android":"levelo://app?vid=ef504de2-6abd-4cb7-9699-cdd5d158f844","ios":"levelo://app?vid=ef504de2-6abd-4cb7-9699-cdd5d158f844"},"vehicle_type_id":"4","last_reported":1745132994,"current_range_meters":12000,"station_id":"ce4bha12rcd13ifvqef0","pricing_plan_id":"cebpf4jnsgd1na2vs0mg"},{"bike_id":"42ca51b4-3fde-468a-8b4c-241a924d305d","system_id":"levelo_inurba_marseille","lat":43.30321,"lon":5.40432,"is_reserved":false,"is_disabled":false,"rental_uris":{"android":"levelo://app?vid=42ca51b4-3fde-468a-8b4c-241a924d305d","ios":"levelo://app?vid=42ca51b4-3fde-468a-8b4c-241a924d305d"},"vehicle_type_id":"4","last_reported":1745132994,"current_range_meters":12400,"station_id":"ce4bh012rcd13ifvqd10","pricing_plan_id":"cebpf4jnsgd1na2vs0mg"},{"bike_id":"d2ef6fa0-6922-42cb-92e3-fb499ccb9fa6","system_id":"levelo_inurba_marseille","lat":43.31251,"lon":5.36869,"is_reserved":false,"is_disabled":false,"rental_uris":{"android":"levelo://app?vid=d2ef6fa0-6922-42cb-92e3-fb499ccb9fa6","ios":"levelo://app?vid=d2ef6fa0-6922-42cb-92e3-fb499ccb9fa6"},"vehicle_type_id":"4","last_reported":1745132994,"current_range_meters":12400,"station_id":"ce4bgl92rcd13ifvqbq0","pricing_plan_id":"cebpf4jnsgd1na2vs0mg"},{"bike_id":"017c0c88-93d4-4975-8b3b-17be2fb5fc96","system_id":"levelo_inurba_marseille","lat":43.23189,"lon":5.39998,"is_reserved":false,"is_disabled":false,"rental_uris":{"android":"levelo://app?vid=017c0c88-93d4-4975-8b3b-17be2fb5fc96","ios":"levelo://app?vid=017c0c88-93d4-4975-8b3b-17be2fb5fc96"},"vehicle_type_id":"4","last_reported":1745132994,"current_range_meters":12400,"station_id":"ce4bhn12rcd13ifvqgqg","pricing_plan_id":"cebpf4jnsgd1na2vs0mg"},{"bike_id":"e2e275b0-7733-4521-8a7a-33d0200db17d","system_id":"levelo_inurba_marseille","lat":43.26215,"lon":5.37924,"is_reserved":false,"is_disabled":false,"rental_uris":{"android":"levelo://app?vid=e2e275b0-7733-4521-8a7a-33d0200db17d","ios":"levelo://app?vid=e2e275b0-7733-4521-8a7a-33d0200db17d"},"vehicle_type_id":"4","last_reported":1745132994,"current_range_meters":12400,"station_id":"ce4bhjp2rcd13ifvqg90","pricing_plan_id":"cebpf4jnsgd1na2vs0mg"},{"bike_id":"c9eb2cd4-f079-4f7f-a635-7c5e83278694","system_id":"levelo_inurba_marseille","lat":43.29232,"lon":5.36074,"is_reserved":false,"is_disabled":false,"rental_uris":{"android":"levelo://app?vid=c9eb2cd4-f079-4f7f-a635-7c5e83278694","ios":"levelo://app?vid=c9eb2cd4-f079-4f7f-a635-7c5e83278694"},"vehicle_type_id":"4","last_reported":1745132994,"current_range_meters":12400,"station_id":"ce4bhbh2rcd13ifvqeqg","pricing_plan_id":"cebpf4jnsgd1na2vs0mg"},{"bike_id":"15fbaeb2-5716-4b0b-aaaf-8684549a7827","system_id":"levelo_inurba_marseille","lat":43.30464,"lon":5.37907,"is_reserved":false,"is_disabled":false,"rental_uris":{"android":"levelo://app?vid=15fbaeb2-5716-4b0b-aaaf-8684549a7827","ios":"levelo://app?vid=15fbaeb2-5716-4b0b-aaaf-8684549a7827"},"vehicle_type_id":"4","last_reported":1745132994,"current_range_meters":12400,"station_id":"ce4bgup2rcd13ifvqcn0","pricing_plan_id":"cebpf4jnsgd1na2vs0mg"},{"bike_id":"d68b14e1-56f3-4742-b3b7-bf3b78485fe6","system_id":"levelo_inurba_marseille","lat":43.27612,"lon":5.36111,"is_reserved":false,"is_disabled":false,"rental_uris":{"android":"levelo://app?vid=d68b14e1-56f3-4742-b3b7-bf3b78485fe6","ios":"levelo://app?vid=d68b14e1-56f3-4742-b3b7-bf3b78485fe6"},"vehicle_type_id":"4","last_reported":1745132994,"current_range_meters":12400,"station_id":"ce4bgj92rcd13ifvqbe0","pricing_plan_id":"cebpf4jnsgd1na2vs0mg"},{"bike_id":"dcc78168-aa9b-4738-a163-c4551731c530","system_id":"levelo_inurba_marseille","lat":43.23072,"lon":5.35501,"is_reserved":false,"is_disabled":false,"rental_uris":{"android":"levelo://app?vid=dcc78168-aa9b-4738-a163-c4551731c530","ios":"levelo://app?vid=dcc78168-aa9b-4738-a163-c4551731c530"},"vehicle_type_id":"4","last_reported":1745132994,"current_range_meters":12800,"station_id":"cpo3342slgdg3j2ifvpg","pricing_plan_id":"cebpf4jnsgd1na2vs0mg"},{"bike_id":"5e7e83d6-8284-48e9-9372-797b9c44861d","system_id":"levelo_inurba_marseille","lat":43.262,"lon":5.37932,"is_reserved":false,"is_disabled":false,"rental_uris":{"android":"levelo://app?vid=5e7e83d6-8284-48e9-9372-797b9c44861d","ios":"levelo://app?vid=5e7e83d6-8284-48e9-9372-797b9c44861d"},"vehicle_type_id":"4","last_reported":1745132994,"current_range_meters":12800,"station_id":"ce4bhjp2rcd13ifvqg90","pricing_plan_id":"cebpf4jnsgd1na2vs0mg"},{"bike_id":"ee9c6b20-39f7-4ea9-804e-b08eb5bb4cdc","system_id":"levelo_inurba_marseille","lat":43.28607,"lon":5.35109,"is_reserved":false,"is_disabled":false,"rental_uris":{"android":"levelo://app?vid=ee9c6b20-39f7-4ea9-804e-b08eb5bb4cdc","ios":"levelo://app?vid=ee9c6b20-39f7-4ea9-804e-b08eb5bb4cdc"},"vehicle_type_id":"4","last_reported":1745132994,"current_range_meters":12800,"station_id":"","pricing_plan_id":"cebpf4jnsgd1na2vs0mg"},{"bike_id":"4ff7f8cf-2e9c-4563-bbaa-9d75d0f317dd","system_id":"levelo_inurba_marseille","lat":43.31719,"lon":5.40416,"is_reserved":false,"is_disabled":false,"rental_uris":{"android":"levelo://app?vid=4ff7f8cf-2e9c-4563-bbaa-9d75d0f317dd","ios":"levelo://app?vid=4ff7f8cf-2e9c-4563-bbaa-9d75d0f317dd"},"vehicle_type_id":"4","last_reported":1745132994,"current_range_meters":12800,"station_id":"ce4bh012rcd13ifvqd00","pricing_plan_id":"cebpf4jnsgd1na2vs0mg"},{"bike_id":"d5ef647d-00ca-43ce-8de2-a9826ded3f15","system_id":"levelo_inurba_marseille","lat":43.21212,"lon":5.35084,"is_reserved":false,"is_disabled":false,"rental_uris":{"android":"levelo://app?vid=d5ef647d-00ca-43ce-8de2-a9826ded3f15","ios":"levelo://app?vid=d5ef647d-00ca-43ce-8de2-a9826ded3f15"},"vehicle_type_id":"4","last_reported":1745132994,"current_range_meters":12800,"station_id":"st_cvj6sg6p6f1abm77japg","pricing_plan_id":"cebpf4jnsgd1na2vs0mg"},{"bike_id":"3c68d4af-f244-4d5b-a673-170645748e37","system_id":"levelo_inurba_marseille","lat":43.27675,"lon":5.39815,"is_reserved":false,"is_disabled":false,"rental_uris":{"android":"levelo://app?vid=3c68d4af-f244-4d5b-a673-170645748e37","ios":"levelo://app?vid=3c68d4af-f244-4d5b-a673-170645748e37"},"vehicle_type_id":"4","last_reported":1745132994,"current_range_meters":14000,"station_id":"","pricing_plan_id":"cebpf4jnsgd1na2vs0mg"},{"bike_id":"e34d7a70-e15a-4962-8b18-40d5c8097fce","system_id":"levelo_inurba_marseille","lat":43.28441,"lon":5.35903,"is_reserved":false,"is_disabled":false,"rental_uris":{"android":"levelo://app?vid=e34d7a70-e15a-4962-8b18-40d5c8097fce","ios":"levelo://app?vid=e34d7a70-e15a-4962-8b18-40d5c8097fce"},"vehicle_type_id":"4","last_reported":1745132994,"current_range_meters":14000,"station_id":"ce4bhah2rcd13ifvqei0","pricing_plan_id":"cebpf4jnsgd1na2vs0mg"},{"bike_id":"da407652-db6e-4b13-87dd-99a68f6c9eed","system_id":"levelo_inurba_marseille","lat":43.251079,"lon":5.403508,"is_reserved":false,"is_disabled":false,"rental_uris":{"android":"levelo://app?vid=da407652-db6e-4b13-87dd-99a68f6c9eed","ios":"levelo://app?vid=da407652-db6e-4b13-87dd-99a68f6c9eed"},"vehicle_type_id":"4","last_reported":1745132994,"current_range_meters":12000,"station_id":"ce4bhmp2rcd13ifvqgog","pricing_plan_id":"cebpf4jnsgd1na2vs0mg"},{"bike_id":"8605282b-b417-44ef-b921-2c93f06b4d14","system_id":"levelo_inurba_marseille","lat":43.25106,"lon":5.40324,"is_reserved":false,"is_disabled":false,"rental_uris":{"android":"levelo://app?vid=8605282b-b417-44ef-b921-2c93f06b4d14","ios":"levelo://app?vid=8605282b-b417-44ef-b921-2c93f06b4d14"},"vehicle_type_id":"4","last_reported":1745132994,"current_range_meters":14000,"station_id":"ce4bhlh2rcd13ifvqgig","pricing_plan_id":"cebpf4jnsgd1na2vs0mg"},{"bike_id":"cab64969-2640-47ee-abb9-f11afb1f3a59","system_id":"levelo_inurba_marseille","lat":43.28612,"lon":5.35104,"is_reserved":false,"is_disabled":true,"rental_uris":{"android":"levelo://app?vid=cab64969-2640-47ee-abb9-f11afb1f3a59","ios":"levelo://app?vid=cab64969-2640-47ee-abb9-f11afb1f3a59"},"vehicle_type_id":"4","last_reported":1745132994,"current_range_meters":14800,"station_id":"ce4bhch2rcd13ifvqeug","pricing_plan_id":"cebpf4jnsgd1na2vs0mg"},{"bike_id":"5801a3ca-80c0-4f04-85da-122046aa79e1","system_id":"levelo_inurba_marseille","lat":43.28983,"lon":5.43844,"is_reserved":false,"is_disabled":false,"rental_uris":{"android":"levelo://app?vid=5801a3ca-80c0-4f04-85da-122046aa79e1","ios":"levelo://app?vid=5801a3ca-80c0-4f04-85da-122046aa79e1"},"vehicle_type_id":"4","last_reported":1745132994,"current_range_meters":14800,"station_id":"","pricing_plan_id":"cebpf4jnsgd1na2vs0mg"},{"bike_id":"89dece9e-fbe4-4579-8f17-0d8766c4a6c4","system_id":"levelo_inurba_marseille","lat":43.240649,"lon":5.377692,"is_reserved":false,"is_disabled":false,"rental_uris":{"android":"levelo://app?vid=89dece9e-fbe4-4579-8f17-0d8766c4a6c4","ios":"levelo://app?vid=89dece9e-fbe4-4579-8f17-0d8766c4a6c4"},"vehicle_type_id":"4","last_reported":1745132994,"current_range_meters":14800,"station_id":"ce4bhnp2rcd13ifvqgvg","pricing_plan_id":"cebpf4jnsgd1na2vs0mg"},{"bike_id":"d5bf3e51-83b4-419b-b784-58ab0f4a9ad2","system_id":"levelo_inurba_marseille","lat":43.211891,"lon":5.350799,"is_reserved":false,"is_disabled":false,"rental_uris":{"android":"levelo://app?vid=d5bf3e51-83b4-419b-b784-58ab0f4a9ad2","ios":"levelo://app?vid=d5bf3e51-83b4-419b-b784-58ab0f4a9ad2"},"vehicle_type_id":"4","last_reported":1745132994,"current_range_meters":14800,"station_id":"st_cvj6sg6p6f1abm77japg","pricing_plan_id":"cebpf4jnsgd1na2vs0mg"},{"bike_id":"f6b06603-46d7-458b-9dc9-fbc0bce785af","system_id":"levelo_inurba_marseille","lat":43.25112,"lon":5.40329,"is_reserved":false,"is_disabled":false,"rental_uris":{"android":"levelo://app?vid=f6b06603-46d7-458b-9dc9-fbc0bce785af","ios":"levelo://app?vid=f6b06603-46d7-458b-9dc9-fbc0bce785af"},"vehicle_type_id":"4","last_reported":1745132994,"current_range_meters":14800,"station_id":"ce4bhlh2rcd13ifvqgig","pricing_plan_id":"cebpf4jnsgd1na2vs0mg"},{"bike_id":"6019390b-7088-4c04-b80b-2acf1cb29041","system_id":"levelo_inurba_marseille","lat":43.29408,"lon":5.41243,"is_reserved":false,"is_disabled":false,"rental_uris":{"android":"levelo://app?vid=6019390b-7088-4c04-b80b-2acf1cb29041","ios":"levelo://app?vid=6019390b-7088-4c04-b80b-2acf1cb29041"},"vehicle_type_id":"4","last_reported":1745132994,"current_range_meters":15200,"station_id":"","pricing_plan_id":"cebpf4jnsgd1na2vs0mg"},{"bike_id":"de9c76e9-5b34-44dc-89d9-de6e318e6be4","system_id":"levelo_inurba_marseille","lat":43.282195,"lon":5.385847,"is_reserved":false,"is_disabled":false,"rental_uris":{"android":"levelo://app?vid=de9c76e9-5b34-44dc-89d9-de6e318e6be4","ios":"levelo://app?vid=de9c76e9-5b34-44dc-89d9-de6e318e6be4"},"vehicle_type_id":"4","last_reported":1745132994,"current_range_meters":15200,"station_id":"","pricing_plan_id":"cebpf4jnsgd1na2vs0mg"},{"bike_id":"54e42c41-74de-4a33-abe7-59adfaab821c","system_id":"levelo_inurba_marseille","lat":43.31706,"lon":5.40473,"is_reserved":false,"is_disabled":false,"rental_uris":{"android":"levelo://app?vid=54e42c41-74de-4a33-abe7-59adfaab821c","ios":"levelo://app?vid=54e42c41-74de-4a33-abe7-59adfaab821c"},"vehicle_type_id":"4","last_reported":1745132994,"current_range_meters":15200,"station_id":"ce4bh012rcd13ifvqd00","pricing_plan_id":"cebpf4jnsgd1na2vs0mg"},{"bike_id":"ce034b4a-bb67-4c72-856c-a0c7ed4c8b8f","system_id":"levelo_inurba_marseille","lat":43.23435,"lon":5.35945,"is_reserved":false,"is_disabled":false,"rental_uris":{"android":"levelo://app?vid=ce034b4a-bb67-4c72-856c-a0c7ed4c8b8f","ios":"levelo://app?vid=ce034b4a-bb67-4c72-856c-a0c7ed4c8b8f"},"vehicle_type_id":"4","last_reported":1745132994,"current_range_meters":15200,"station_id":"","pricing_plan_id":"cebpf4jnsgd1na2vs0mg"},{"bike_id":"3708505e-d311-493d-85d2-8c21dea28764","system_id":"levelo_inurba_marseille","lat":43.30657,"lon":5.40087,"is_reserved":false,"is_disabled":false,"rental_uris":{"android":"levelo://app?vid=3708505e-d311-493d-85d2-8c21dea28764","ios":"levelo://app?vid=3708505e-d311-493d-85d2-8c21dea28764"},"vehicle_type_id":"4","last_reported":1745132994,"current_range_meters":15200,"station_id":"ce4bh112rcd13ifvqda0","pricing_plan_id":"cebpf4jnsgd1na2vs0mg"},{"bike_id":"11fdd5a2-1fee-421d-af4c-d2711885ee87","system_id":"levelo_inurba_marseille","lat":43.241721,"lon":5.364033,"is_reserved":false,"is_disabled":false,"rental_uris":{"android":"levelo://app?vid=11fdd5a2-1fee-421d-af4c-d2711885ee87","ios":"levelo://app?vid=11fdd5a2-1fee-421d-af4c-d2711885ee87"},"vehicle_type_id":"4","last_reported":1745132994,"current_range_meters":15200,"station_id":"cpo36qri1sfpv3e86is0","pricing_plan_id":"cebpf4jnsgd1na2vs0mg"},{"bike_id":"1e1af270-9669-4d2f-8b67-245fc0429270","system_id":"levelo_inurba_marseille","lat":43.3029,"lon":5.39212,"is_reserved":false,"is_disabled":false,"rental_uris":{"android":"levelo://app?vid=1e1af270-9669-4d2f-8b67-245fc0429270","ios":"levelo://app?vid=1e1af270-9669-4d2f-8b67-245fc0429270"},"vehicle_type_id":"4","last_reported":1745132994,"current_range_meters":15200,"station_id":"ce4bgkh2rcd13ifvqbk0","pricing_plan_id":"cebpf4jnsgd1na2vs0mg"},{"bike_id":"d227ea9c-7792-4463-9253-d38241da3c72","system_id":"levelo_inurba_marseille","lat":43.21772,"lon":5.34619,"is_reserved":false,"is_disabled":true,"rental_uris":{"android":"levelo://app?vid=d227ea9c-7792-4463-9253-d38241da3c72","ios":"levelo://app?vid=d227ea9c-7792-4463-9253-d38241da3c72"},"vehicle_type_id":"4","last_reported":1745132994,"current_range_meters":15200,"station_id":"st_cvj6r9ubvosntc0bgbag","pricing_plan_id":"cebpf4jnsgd1na2vs0mg"},{"bike_id":"d53e964c-f934-484c-a259-3e8f23cdd819","system_id":"levelo_inurba_marseille","lat":43.337428,"lon":5.391924,"is_reserved":false,"is_disabled":false,"rental_uris":{"android":"levelo://app?vid=d53e964c-f934-484c-a259-3e8f23cdd819","ios":"levelo://app?vid=d53e964c-f934-484c-a259-3e8f23cdd819"},"vehicle_type_id":"4","last_reported":1745132994,"current_range_meters":16000,"station_id":"ce4bhr92rcd13ifvqhsg","pricing_plan_id":"cebpf4jnsgd1na2vs0mg"},{"bike_id":"f7027e6a-48d2-4cae-b50c-97b01f670552","system_id":"levelo_inurba_marseille","lat":43.23959,"lon":5.36624,"is_reserved":false,"is_disabled":false,"rental_uris":{"android":"levelo://app?vid=f7027e6a-48d2-4cae-b50c-97b01f670552","ios":"levelo://app?vid=f7027e6a-48d2-4cae-b50c-97b01f670552"},"vehicle_type_id":"4","last_reported":1745132994,"current_range_meters":16000,"station_id":"ce4bhi12rcd13ifvqfp0","pricing_plan_id":"cebpf4jnsgd1na2vs0mg"},{"bike_id":"f01fc261-033f-49c7-b09e-b9967362bd76","system_id":"levelo_inurba_marseille","lat":43.28853,"lon":5.3586,"is_reserved":false,"is_disabled":true,"rental_uris":{"android":"levelo://app?vid=f01fc261-033f-49c7-b09e-b9967362bd76","ios":"levelo://app?vid=f01fc261-033f-49c7-b09e-b9967362bd76"},"vehicle_type_id":"4","last_reported":1745132994,"current_range_meters":16000,"station_id":"ce4bhb12rcd13ifvqem0","pricing_plan_id":"cebpf4jnsgd1na2vs0mg"},{"bike_id":"6ce14797-8863-48ea-8bee-e545907050f9","system_id":"levelo_inurba_marseille","lat":43.2623,"lon":5.40475,"is_reserved":false,"is_disabled":false,"rental_uris":{"android":"levelo://app?vid=6ce14797-8863-48ea-8bee-e545907050f9","ios":"levelo://app?vid=6ce14797-8863-48ea-8bee-e545907050f9"},"vehicle_type_id":"4","last_reported":1745132994,"current_range_meters":16400,"station_id":"ce4bhmh2rcd13ifvqgmg","pricing_plan_id":"cebpf4jnsgd1na2vs0mg"},{"bike_id":"aafa30a9-7914-464f-85ce-0d4e0e0174f6","system_id":"levelo_inurba_marseille","lat":43.31541,"lon":5.38013,"is_reserved":false,"is_disabled":false,"rental_uris":{"android":"levelo://app?vid=aafa30a9-7914-464f-85ce-0d4e0e0174f6","ios":"levelo://app?vid=aafa30a9-7914-464f-85ce-0d4e0e0174f6"},"vehicle_type_id":"4","last_reported":1745132994,"current_range_meters":16400,"station_id":"ce4bhsp2rcd13ifvqi50","pricing_plan_id":"cebpf4jnsgd1na2vs0mg"},{"bike_id":"ca98692d-888f-49bc-b77a-1ab58ba8e795","system_id":"levelo_inurba_marseille","lat":43.30644,"lon":5.40085,"is_reserved":false,"is_disabled":false,"rental_uris":{"android":"levelo://app?vid=ca98692d-888f-49bc-b77a-1ab58ba8e795","ios":"levelo://app?vid=ca98692d-888f-49bc-b77a-1ab58ba8e795"},"vehicle_type_id":"4","last_reported":1745132994,"current_range_meters":16400,"station_id":"ce4bh112rcd13ifvqda0","pricing_plan_id":"cebpf4jnsgd1na2vs0mg"},{"bike_id":"9c5b2c41-4a73-4d0b-a583-50ed2d2b11ef","system_id":"levelo_inurba_marseille","lat":43.25723,"lon":5.41108,"is_reserved":false,"is_disabled":false,"rental_uris":{"android":"levelo://app?vid=9c5b2c41-4a73-4d0b-a583-50ed2d2b11ef","ios":"levelo://app?vid=9c5b2c41-4a73-4d0b-a583-50ed2d2b11ef"},"vehicle_type_id":"4","last_reported":1745132994,"current_range_meters":16400,"station_id":"ce4bhkp2rcd13ifvqgd0","pricing_plan_id":"cebpf4jnsgd1na2vs0mg"},{"bike_id":"537ae7fb-f31d-4ccb-b828-7224f4df0d90","system_id":"levelo_inurba_marseille","lat":43.302935,"lon":5.392038,"is_reserved":false,"is_disabled":false,"rental_uris":{"android":"levelo://app?vid=537ae7fb-f31d-4ccb-b828-7224f4df0d90","ios":"levelo://app?vid=537ae7fb-f31d-4ccb-b828-7224f4df0d90"},"vehicle_type_id":"4","last_reported":1745132994,"current_range_meters":16400,"station_id":"ce4bgkh2rcd13ifvqbk0","pricing_plan_id":"cebpf4jnsgd1na2vs0mg"},{"bike_id":"56ed799a-1c53-4964-9d56-527b686ed11d","system_id":"levelo_inurba_marseille","lat":43.27208,"lon":5.3919,"is_reserved":false,"is_disabled":false,"rental_uris":{"android":"levelo://app?vid=56ed799a-1c53-4964-9d56-527b686ed11d","ios":"levelo://app?vid=56ed799a-1c53-4964-9d56-527b686ed11d"},"vehicle_type_id":"4","last_reported":1745132994,"current_range_meters":16400,"station_id":"ce4bhhp2rcd13ifvqfm0","pricing_plan_id":"cebpf4jnsgd1na2vs0mg"},{"bike_id":"cbb8c20f-0422-4610-a50f-a600497f00b5","system_id":"levelo_inurba_marseille","lat":43.29814,"lon":5.3776,"is_reserved":false,"is_disabled":false,"rental_uris":{"android":"levelo://app?vid=cbb8c20f-0422-4610-a50f-a600497f00b5","ios":"levelo://app?vid=cbb8c20f-0422-4610-a50f-a600497f00b5"},"vehicle_type_id":"4","last_reported":1745132994,"current_range_meters":16400,"station_id":"","pricing_plan_id":"cebpf4jnsgd1na2vs0mg"},{"bike_id":"9a8c26d0-0f81-45c6-ae02-f08f0f083809","system_id":"levelo_inurba_marseille","lat":43.229305,"lon":5.35375,"is_reserved":false,"is_disabled":false,"rental_uris":{"android":"levelo://app?vid=9a8c26d0-0f81-45c6-ae02-f08f0f083809","ios":"levelo://app?vid=9a8c26d0-0f81-45c6-ae02-f08f0f083809"},"vehicle_type_id":"4","last_reported":1745132994,"current_range_meters":16800,"station_id":"ce4bgjp2rcd13ifvqbh0","pricing_plan_id":"cebpf4jnsgd1na2vs0mg"},{"bike_id":"32d2ab72-9b50-484c-9e12-2985432e8314","system_id":"levelo_inurba_marseille","lat":43.32334,"lon":5.40618,"is_reserved":false,"is_disabled":false,"rental_uris":{"android":"levelo://app?vid=32d2ab72-9b50-484c-9e12-2985432e8314","ios":"levelo://app?vid=32d2ab72-9b50-484c-9e12-2985432e8314"},"vehicle_type_id":"4","last_reported":1745132994,"current_range_meters":16800,"station_id":"ce4bhq92rcd13ifvqhjg","pricing_plan_id":"cebpf4jnsgd1na2vs0mg"},{"bike_id":"7d29063e-cc47-43de-9fe3-33b900004d65","system_id":"levelo_inurba_marseille","lat":43.21184,"lon":5.35081,"is_reserved":false,"is_disabled":false,"rental_uris":{"android":"levelo://app?vid=7d29063e-cc47-43de-9fe3-33b900004d65","ios":"levelo://app?vid=7d29063e-cc47-43de-9fe3-33b900004d65"},"vehicle_type_id":"4","last_reported":1745132994,"current_range_meters":16800,"station_id":"st_cvj6sg6p6f1abm77japg","pricing_plan_id":"cebpf4jnsgd1na2vs0mg"},{"bike_id":"84454b61-5278-4e50-923b-adbef1570c7e","system_id":"levelo_inurba_marseille","lat":43.29447,"lon":5.39756,"is_reserved":false,"is_disabled":false,"rental_uris":{"android":"levelo://app?vid=84454b61-5278-4e50-923b-adbef1570c7e","ios":"levelo://app?vid=84454b61-5278-4e50-923b-adbef1570c7e"},"vehicle_type_id":"4","last_reported":1745132994,"current_range_meters":16800,"station_id":"ce4bh3h2rcd13ifvqdo0","pricing_plan_id":"cebpf4jnsgd1na2vs0mg"},{"bike_id":"d66f2fbf-84c1-4006-a003-d92ef3aa9479","system_id":"levelo_inurba_marseille","lat":43.23223,"lon":5.35566,"is_reserved":false,"is_disabled":false,"rental_uris":{"android":"levelo://app?vid=d66f2fbf-84c1-4006-a003-d92ef3aa9479","ios":"levelo://app?vid=d66f2fbf-84c1-4006-a003-d92ef3aa9479"},"vehicle_type_id":"4","last_reported":1745132994,"current_range_meters":16800,"station_id":"ce4bhu92rcd13ifvqi70","pricing_plan_id":"cebpf4jnsgd1na2vs0mg"},{"bike_id":"410ded57-8860-4f34-b557-cd066f5c7d99","system_id":"levelo_inurba_marseille","lat":43.310719,"lon":5.383611,"is_reserved":false,"is_disabled":false,"rental_uris":{"android":"levelo://app?vid=410ded57-8860-4f34-b557-cd066f5c7d99","ios":"levelo://app?vid=410ded57-8860-4f34-b557-cd066f5c7d99"},"vehicle_type_id":"4","last_reported":1745132994,"current_range_meters":16800,"station_id":"ce4bgv92rcd13ifvqcr0","pricing_plan_id":"cebpf4jnsgd1na2vs0mg"},{"bike_id":"4e0feb4b-9af5-4c5c-a215-eabded87c4f9","system_id":"levelo_inurba_marseille","lat":43.23171,"lon":5.35567,"is_reserved":false,"is_disabled":false,"rental_uris":{"android":"levelo://app?vid=4e0feb4b-9af5-4c5c-a215-eabded87c4f9","ios":"levelo://app?vid=4e0feb4b-9af5-4c5c-a215-eabded87c4f9"},"vehicle_type_id":"4","last_reported":1745132994,"current_range_meters":16800,"station_id":"ce4bhu92rcd13ifvqi70","pricing_plan_id":"cebpf4jnsgd1na2vs0mg"},{"bike_id":"e653e066-2807-4514-8a61-d3a7d53ac289","system_id":"levelo_inurba_marseille","lat":43.22517,"lon":5.34812,"is_reserved":false,"is_disabled":false,"rental_uris":{"android":"levelo://app?vid=e653e066-2807-4514-8a61-d3a7d53ac289","ios":"levelo://app?vid=e653e066-2807-4514-8a61-d3a7d53ac289"},"vehicle_type_id":"4","last_reported":1745132994,"current_range_meters":16800,"station_id":"st_cvj5dfep6f1abm77gieg","pricing_plan_id":"cebpf4jnsgd1na2vs0mg"},{"bike_id":"b0b75860-28b7-4b37-bf26-715295a858ab","system_id":"levelo_inurba_marseille","lat":43.2791,"lon":5.39597,"is_reserved":false,"is_disabled":false,"rental_uris":{"android":"levelo://app?vid=b0b75860-28b7-4b37-bf26-715295a858ab","ios":"levelo://app?vid=b0b75860-28b7-4b37-bf26-715295a858ab"},"vehicle_type_id":"4","last_reported":1745132994,"current_range_meters":16800,"station_id":"ce4bhf92rcd13ifvqf40","pricing_plan_id":"cebpf4jnsgd1na2vs0mg"},{"bike_id":"7e31745a-283a-4ca7-9493-220dcbe8c309","system_id":"levelo_inurba_marseille","lat":43.290018,"lon":5.356184,"is_reserved":false,"is_disabled":false,"rental_uris":{"android":"levelo://app?vid=7e31745a-283a-4ca7-9493-220dcbe8c309","ios":"levelo://app?vid=7e31745a-283a-4ca7-9493-220dcbe8c309"},"vehicle_type_id":"4","last_reported":1745132994,"current_range_meters":17200,"station_id":"ce4bhb92rcd13ifvqen0","pricing_plan_id":"cebpf4jnsgd1na2vs0mg"},{"bike_id":"1b2623e0-90bf-4d27-a569-ebc27b9384c2","system_id":"levelo_inurba_marseille","lat":43.24174,"lon":5.36419,"is_reserved":false,"is_disabled":false,"rental_uris":{"android":"levelo://app?vid=1b2623e0-90bf-4d27-a569-ebc27b9384c2","ios":"levelo://app?vid=1b2623e0-90bf-4d27-a569-ebc27b9384c2"},"vehicle_type_id":"4","last_reported":1745132994,"current_range_meters":17200,"station_id":"cpo36qri1sfpv3e86is0","pricing_plan_id":"cebpf4jnsgd1na2vs0mg"},{"bike_id":"eb98ee74-87a7-4634-a15c-a841219ab285","system_id":"levelo_inurba_marseille","lat":43.25581,"lon":5.38235,"is_reserved":false,"is_disabled":false,"rental_uris":{"android":"levelo://app?vid=eb98ee74-87a7-4634-a15c-a841219ab285","ios":"levelo://app?vid=eb98ee74-87a7-4634-a15c-a841219ab285"},"vehicle_type_id":"4","last_reported":1745132994,"current_range_meters":16800,"station_id":"ce4bhih2rcd13ifvqfs0","pricing_plan_id":"cebpf4jnsgd1na2vs0mg"},{"bike_id":"389a1060-659c-44b9-8c55-a54e904e1545","system_id":"levelo_inurba_marseille","lat":43.23152,"lon":5.43701,"is_reserved":false,"is_disabled":false,"rental_uris":{"android":"levelo://app?vid=389a1060-659c-44b9-8c55-a54e904e1545","ios":"levelo://app?vid=389a1060-659c-44b9-8c55-a54e904e1545"},"vehicle_type_id":"4","last_reported":1745132994,"current_range_meters":17200,"station_id":"ce4bhmp2rcd13ifvqgog","pricing_plan_id":"cebpf4jnsgd1na2vs0mg"},{"bike_id":"cb04d036-524e-497d-b1e8-d53251979b05","system_id":"levelo_inurba_marseille","lat":43.2987,"lon":5.39736,"is_reserved":false,"is_disabled":true,"rental_uris":{"android":"levelo://app?vid=cb04d036-524e-497d-b1e8-d53251979b05","ios":"levelo://app?vid=cb04d036-524e-497d-b1e8-d53251979b05"},"vehicle_type_id":"4","last_reported":1745132994,"current_range_meters":17200,"station_id":"ce4bh0h2rcd13ifvqd50","pricing_plan_id":"cebpf4jnsgd1na2vs0mg"},{"bike_id":"9cd66f20-0974-44a3-a00c-3af08e74ebf2","system_id":"levelo_inurba_marseille","lat":43.26023,"lon":5.41748,"is_reserved":false,"is_disabled":false,"rental_uris":{"android":"levelo://app?vid=9cd66f20-0974-44a3-a00c-3af08e74ebf2","ios":"levelo://app?vid=9cd66f20-0974-44a3-a00c-3af08e74ebf2"},"vehicle_type_id":"4","last_reported":1745132994,"current_range_meters":17200,"station_id":"","pricing_plan_id":"cebpf4jnsgd1na2vs0mg"},{"bike_id":"77de3612-d83e-4639-ab5d-e9205f74132f","system_id":"levelo_inurba_marseille","lat":43.30298,"lon":5.39205,"is_reserved":false,"is_disabled":false,"rental_uris":{"android":"levelo://app?vid=77de3612-d83e-4639-ab5d-e9205f74132f","ios":"levelo://app?vid=77de3612-d83e-4639-ab5d-e9205f74132f"},"vehicle_type_id":"4","last_reported":1745132994,"current_range_meters":17600,"station_id":"ce4bgkh2rcd13ifvqbk0","pricing_plan_id":"cebpf4jnsgd1na2vs0mg"},{"bike_id":"721f595d-f057-44ac-ac8d-4aec1bc01567","system_id":"levelo_inurba_marseille","lat":43.25115,"lon":5.40338,"is_reserved":false,"is_disabled":false,"rental_uris":{"android":"levelo://app?vid=721f595d-f057-44ac-ac8d-4aec1bc01567","ios":"levelo://app?vid=721f595d-f057-44ac-ac8d-4aec1bc01567"},"vehicle_type_id":"4","last_reported":1745132994,"current_range_meters":17600,"station_id":"ce4bhlh2rcd13ifvqgig","pricing_plan_id":"cebpf4jnsgd1na2vs0mg"},{"bike_id":"1a5f2cec-6354-428d-a667-d2081b30c7f2","system_id":"levelo_inurba_marseille","lat":43.27684,"lon":5.39794,"is_reserved":false,"is_disabled":false,"rental_uris":{"android":"levelo://app?vid=1a5f2cec-6354-428d-a667-d2081b30c7f2","ios":"levelo://app?vid=1a5f2cec-6354-428d-a667-d2081b30c7f2"},"vehicle_type_id":"4","last_reported":1745132994,"current_range_meters":17600,"station_id":"","pricing_plan_id":"cebpf4jnsgd1na2vs0mg"},{"bike_id":"1ed601e7-b71b-4de4-8bda-46cc17906aa0","system_id":"levelo_inurba_marseille","lat":43.28476,"lon":5.3589,"is_reserved":false,"is_disabled":false,"rental_uris":{"android":"levelo://app?vid=1ed601e7-b71b-4de4-8bda-46cc17906aa0","ios":"levelo://app?vid=1ed601e7-b71b-4de4-8bda-46cc17906aa0"},"vehicle_type_id":"4","last_reported":1745132994,"current_range_meters":17600,"station_id":"ce4bhah2rcd13ifvqei0","pricing_plan_id":"cebpf4jnsgd1na2vs0mg"},{"bike_id":"e740e9dc-48ef-4352-b7e1-63294a5a7826","system_id":"levelo_inurba_marseille","lat":43.301543,"lon":5.380793,"is_reserved":false,"is_disabled":false,"rental_uris":{"android":"levelo://app?vid=e740e9dc-48ef-4352-b7e1-63294a5a7826","ios":"levelo://app?vid=e740e9dc-48ef-4352-b7e1-63294a5a7826"},"vehicle_type_id":"4","last_reported":1745132994,"current_range_meters":17600,"station_id":"ce4bgjp2rcd13ifvqbh0","pricing_plan_id":"cebpf4jnsgd1na2vs0mg"},{"bike_id":"cbcf2b63-1e60-4b5d-b61b-8baaf7f6ab2f","system_id":"levelo_inurba_marseille","lat":43.2621,"lon":5.37461,"is_reserved":false,"is_disabled":false,"rental_uris":{"android":"levelo://app?vid=cbcf2b63-1e60-4b5d-b61b-8baaf7f6ab2f","ios":"levelo://app?vid=cbcf2b63-1e60-4b5d-b61b-8baaf7f6ab2f"},"vehicle_type_id":"4","last_reported":1745132994,"current_range_meters":18000,"station_id":"ce4bhgp2rcd13ifvqfc0","pricing_plan_id":"cebpf4jnsgd1na2vs0mg"},{"bike_id":"2a2d4e04-1a56-4531-a89a-fb0481590528","system_id":"levelo_inurba_marseille","lat":43.322626,"lon":5.382968,"is_reserved":false,"is_disabled":false,"rental_uris":{"android":"levelo://app?vid=2a2d4e04-1a56-4531-a89a-fb0481590528","ios":"levelo://app?vid=2a2d4e04-1a56-4531-a89a-fb0481590528"},"vehicle_type_id":"4","last_reported":1745132994,"current_range_meters":18000,"station_id":"ce4bhr12rcd13ifvqhqg","pricing_plan_id":"cebpf4jnsgd1na2vs0mg"},{"bike_id":"97701dc9-fc24-4b55-8677-e88d959a1ae1","system_id":"levelo_inurba_marseille","lat":43.25077,"lon":5.39508,"is_reserved":false,"is_disabled":false,"rental_uris":{"android":"levelo://app?vid=97701dc9-fc24-4b55-8677-e88d959a1ae1","ios":"levelo://app?vid=97701dc9-fc24-4b55-8677-e88d959a1ae1"},"vehicle_type_id":"4","last_reported":1745132994,"current_range_meters":18000,"station_id":"ce4bhm12rcd13ifvqgkg","pricing_plan_id":"cebpf4jnsgd1na2vs0mg"},{"bike_id":"5ad8dd6b-ee8a-4f3f-924e-6d10a631b0b3","system_id":"levelo_inurba_marseille","lat":43.26202,"lon":5.37926,"is_reserved":false,"is_disabled":true,"rental_uris":{"android":"levelo://app?vid=5ad8dd6b-ee8a-4f3f-924e-6d10a631b0b3","ios":"levelo://app?vid=5ad8dd6b-ee8a-4f3f-924e-6d10a631b0b3"},"vehicle_type_id":"4","last_reported":1745132994,"current_range_meters":18000,"station_id":"ce4bhjp2rcd13ifvqg90","pricing_plan_id":"cebpf4jnsgd1na2vs0mg"},{"bike_id":"a7b58756-0181-4de0-9f01-6403edc76051","system_id":"levelo_inurba_marseille","lat":43.29878,"lon":5.39742,"is_reserved":false,"is_disabled":false,"rental_uris":{"android":"levelo://app?vid=a7b58756-0181-4de0-9f01-6403edc76051","ios":"levelo://app?vid=a7b58756-0181-4de0-9f01-6403edc76051"},"vehicle_type_id":"4","last_reported":1745132994,"current_range_meters":17600,"station_id":"ce4bh0h2rcd13ifvqd50","pricing_plan_id":"cebpf4jnsgd1na2vs0mg"},{"bike_id":"93d25588-571f-4f1b-a711-e1dff1c05576","system_id":"levelo_inurba_marseille","lat":43.31086,"lon":5.38344,"is_reserved":false,"is_disabled":false,"rental_uris":{"android":"levelo://app?vid=93d25588-571f-4f1b-a711-e1dff1c05576","ios":"levelo://app?vid=93d25588-571f-4f1b-a711-e1dff1c05576"},"vehicle_type_id":"4","last_reported":1745132994,"current_range_meters":18800,"station_id":"ce4bgv92rcd13ifvqcr0","pricing_plan_id":"cebpf4jnsgd1na2vs0mg"},{"bike_id":"88f9484d-7764-4125-8ae2-cb3b1ae8fa4d","system_id":"levelo_inurba_marseille","lat":43.28148,"lon":5.4265,"is_reserved":false,"is_disabled":false,"rental_uris":{"android":"levelo://app?vid=88f9484d-7764-4125-8ae2-cb3b1ae8fa4d","ios":"levelo://app?vid=88f9484d-7764-4125-8ae2-cb3b1ae8fa4d"},"vehicle_type_id":"4","last_reported":1745132994,"current_range_meters":18800,"station_id":"ce4bhnh2rcd13ifvqgug","pricing_plan_id":"cebpf4jnsgd1na2vs0mg"},{"bike_id":"3f12d784-9454-43fa-8c7b-bef719e2d46a","system_id":"levelo_inurba_marseille","lat":43.31528,"lon":5.38036,"is_reserved":false,"is_disabled":false,"rental_uris":{"android":"levelo://app?vid=3f12d784-9454-43fa-8c7b-bef719e2d46a","ios":"levelo://app?vid=3f12d784-9454-43fa-8c7b-bef719e2d46a"},"vehicle_type_id":"4","last_reported":1745132994,"current_range_meters":18800,"station_id":"ce4bhsp2rcd13ifvqi50","pricing_plan_id":"cebpf4jnsgd1na2vs0mg"},{"bike_id":"b63b7a5e-a38c-41b2-b8ca-03dcb2ce1a70","system_id":"levelo_inurba_marseille","lat":43.25088,"lon":5.39521,"is_reserved":false,"is_disabled":true,"rental_uris":{"android":"levelo://app?vid=b63b7a5e-a38c-41b2-b8ca-03dcb2ce1a70","ios":"levelo://app?vid=b63b7a5e-a38c-41b2-b8ca-03dcb2ce1a70"},"vehicle_type_id":"4","last_reported":1745132994,"current_range_meters":18800,"station_id":"ce4bhm12rcd13ifvqgkg","pricing_plan_id":"cebpf4jnsgd1na2vs0mg"},{"bike_id":"fe1f5bd4-97a1-4cdf-93ee-e90272c8f15b","system_id":"levelo_inurba_marseille","lat":43.28671,"lon":5.38665,"is_reserved":false,"is_disabled":false,"rental_uris":{"android":"levelo://app?vid=fe1f5bd4-97a1-4cdf-93ee-e90272c8f15b","ios":"levelo://app?vid=fe1f5bd4-97a1-4cdf-93ee-e90272c8f15b"},"vehicle_type_id":"4","last_reported":1745132994,"current_range_meters":19200,"station_id":"ce4bh492rcd13ifvqdug","pricing_plan_id":"cebpf4jnsgd1na2vs0mg"},{"bike_id":"cf431e88-e4d3-4093-af4e-4e00f5c336c8","system_id":"levelo_inurba_marseille","lat":43.3232,"lon":5.4064,"is_reserved":false,"is_disabled":false,"rental_uris":{"android":"levelo://app?vid=cf431e88-e4d3-4093-af4e-4e00f5c336c8","ios":"levelo://app?vid=cf431e88-e4d3-4093-af4e-4e00f5c336c8"},"vehicle_type_id":"4","last_reported":1745132994,"current_range_meters":19200,"station_id":"ce4bhq92rcd13ifvqhjg","pricing_plan_id":"cebpf4jnsgd1na2vs0mg"},{"bike_id":"6d789666-9b6c-42c1-a765-b95cbb817417","system_id":"levelo_inurba_marseille","lat":43.23158,"lon":5.43712,"is_reserved":false,"is_disabled":false,"rental_uris":{"android":"levelo://app?vid=6d789666-9b6c-42c1-a765-b95cbb817417","ios":"levelo://app?vid=6d789666-9b6c-42c1-a765-b95cbb817417"},"vehicle_type_id":"4","last_reported":1745132994,"current_range_meters":19200,"station_id":"ce4bhmp2rcd13ifvqgog","pricing_plan_id":"cebpf4jnsgd1na2vs0mg"},{"bike_id":"9a08cd47-401e-4721-ac51-2c7c5eb208eb","system_id":"levelo_inurba_marseille","lat":43.24166,"lon":5.364,"is_reserved":false,"is_disabled":false,"rental_uris":{"android":"levelo://app?vid=9a08cd47-401e-4721-ac51-2c7c5eb208eb","ios":"levelo://app?vid=9a08cd47-401e-4721-ac51-2c7c5eb208eb"},"vehicle_type_id":"4","last_reported":1745132994,"current_range_meters":19200,"station_id":"cpo36qri1sfpv3e86is0","pricing_plan_id":"cebpf4jnsgd1na2vs0mg"},{"bike_id":"fc7807cb-5baf-4f18-a0b8-7d0eacd9d80d","system_id":"levelo_inurba_marseille","lat":43.24752,"lon":5.41223,"is_reserved":false,"is_disabled":false,"rental_uris":{"android":"levelo://app?vid=fc7807cb-5baf-4f18-a0b8-7d0eacd9d80d","ios":"levelo://app?vid=fc7807cb-5baf-4f18-a0b8-7d0eacd9d80d"},"vehicle_type_id":"4","last_reported":1745132994,"current_range_meters":19200,"station_id":"","pricing_plan_id":"cebpf4jnsgd1na2vs0mg"},{"bike_id":"c4fc050b-7c58-4380-8033-ffe242748317","system_id":"levelo_inurba_marseille","lat":43.29559,"lon":5.39959,"is_reserved":false,"is_disabled":true,"rental_uris":{"android":"levelo://app?vid=c4fc050b-7c58-4380-8033-ffe242748317","ios":"levelo://app?vid=c4fc050b-7c58-4380-8033-ffe242748317"},"vehicle_type_id":"4","last_reported":1745132994,"current_range_meters":19600,"station_id":"ce4bh312rcd13ifvqdj0","pricing_plan_id":"cebpf4jnsgd1na2vs0mg"},{"bike_id":"5f7dd3af-5b60-4502-9047-c4f82095f2bc","system_id":"levelo_inurba_marseille","lat":43.21192,"lon":5.35071,"is_reserved":false,"is_disabled":false,"rental_uris":{"android":"levelo://app?vid=5f7dd3af-5b60-4502-9047-c4f82095f2bc","ios":"levelo://app?vid=5f7dd3af-5b60-4502-9047-c4f82095f2bc"},"vehicle_type_id":"4","last_reported":1745132994,"current_range_meters":20000,"station_id":"st_cvj6sg6p6f1abm77japg","pricing_plan_id":"cebpf4jnsgd1na2vs0mg"},{"bike_id":"a7f91fb8-2846-493f-a68f-69867197cfa1","system_id":"levelo_inurba_marseille","lat":43.33651,"lon":5.39778,"is_reserved":false,"is_disabled":false,"rental_uris":{"android":"levelo://app?vid=a7f91fb8-2846-493f-a68f-69867197cfa1","ios":"levelo://app?vid=a7f91fb8-2846-493f-a68f-69867197cfa1"},"vehicle_type_id":"4","last_reported":1745132994,"current_range_meters":20000,"station_id":"","pricing_plan_id":"cebpf4jnsgd1na2vs0mg"},{"bike_id":"a50d757e-2c94-4cff-a759-69879d6cd6fe","system_id":"levelo_inurba_marseille","lat":43.272,"lon":5.39169,"is_reserved":false,"is_disabled":false,"rental_uris":{"android":"levelo://app?vid=a50d757e-2c94-4cff-a759-69879d6cd6fe","ios":"levelo://app?vid=a50d757e-2c94-4cff-a759-69879d6cd6fe"},"vehicle_type_id":"4","last_reported":1745132994,"current_range_meters":20000,"station_id":"ce4bhhp2rcd13ifvqfm0","pricing_plan_id":"cebpf4jnsgd1na2vs0mg"},{"bike_id":"7f85cb0c-933e-490b-a0c3-bfacab605268","system_id":"levelo_inurba_marseille","lat":43.288714,"lon":5.359788,"is_reserved":false,"is_disabled":true,"rental_uris":{"android":"levelo://app?vid=7f85cb0c-933e-490b-a0c3-bfacab605268","ios":"levelo://app?vid=7f85cb0c-933e-490b-a0c3-bfacab605268"},"vehicle_type_id":"4","last_reported":1745132994,"current_range_meters":20000,"station_id":"","pricing_plan_id":"cebpf4jnsgd1na2vs0mg"},{"bike_id":"d68e0641-7042-4bcc-8509-4b9af339d005","system_id":"levelo_inurba_marseille","lat":43.2704,"lon":5.40282,"is_reserved":false,"is_disabled":false,"rental_uris":{"android":"levelo://app?vid=d68e0641-7042-4bcc-8509-4b9af339d005","ios":"levelo://app?vid=d68e0641-7042-4bcc-8509-4b9af339d005"},"vehicle_type_id":"4","last_reported":1745132994,"current_range_meters":20000,"station_id":"ce4bhk92rcd13ifvqgc0","pricing_plan_id":"cebpf4jnsgd1na2vs0mg"},{"bike_id":"f5082407-ad9f-416d-b3f3-a40cd04bfde3","system_id":"levelo_inurba_marseille","lat":43.23002,"lon":5.35469,"is_reserved":false,"is_disabled":false,"rental_uris":{"android":"levelo://app?vid=f5082407-ad9f-416d-b3f3-a40cd04bfde3","ios":"levelo://app?vid=f5082407-ad9f-416d-b3f3-a40cd04bfde3"},"vehicle_type_id":"4","last_reported":1745132994,"current_range_meters":20000,"station_id":"","pricing_plan_id":"cebpf4jnsgd1na2vs0mg"},{"bike_id":"f9179a33-6528-43ac-b9e7-37bf13c563dd","system_id":"levelo_inurba_marseille","lat":43.25123,"lon":5.4033,"is_reserved":false,"is_disabled":false,"rental_uris":{"android":"levelo://app?vid=f9179a33-6528-43ac-b9e7-37bf13c563dd","ios":"levelo://app?vid=f9179a33-6528-43ac-b9e7-37bf13c563dd"},"vehicle_type_id":"4","last_reported":1745132994,"current_range_meters":20000,"station_id":"ce4bhlh2rcd13ifvqgig","pricing_plan_id":"cebpf4jnsgd1na2vs0mg"},{"bike_id":"b27a9d1c-abb4-43c8-8463-09cd46049d42","system_id":"levelo_inurba_marseille","lat":43.261874,"lon":5.374607,"is_reserved":false,"is_disabled":true,"rental_uris":{"android":"levelo://app?vid=b27a9d1c-abb4-43c8-8463-09cd46049d42","ios":"levelo://app?vid=b27a9d1c-abb4-43c8-8463-09cd46049d42"},"vehicle_type_id":"4","last_reported":1745132994,"current_range_meters":20000,"station_id":"ce4bhgp2rcd13ifvqfc0","pricing_plan_id":"cebpf4jnsgd1na2vs0mg"},{"bike_id":"b8cd5422-1e24-48d1-bc5d-5f973732c00b","system_id":"levelo_inurba_marseille","lat":43.231592,"lon":5.355494,"is_reserved":false,"is_disabled":false,"rental_uris":{"android":"levelo://app?vid=b8cd5422-1e24-48d1-bc5d-5f973732c00b","ios":"levelo://app?vid=b8cd5422-1e24-48d1-bc5d-5f973732c00b"},"vehicle_type_id":"4","last_reported":1745132994,"current_range_meters":20000,"station_id":"ce4bhu92rcd13ifvqi70","pricing_plan_id":"cebpf4jnsgd1na2vs0mg"},{"bike_id":"2b9dc3a3-9ca1-4379-9bb7-4b8dbd4e17cf","system_id":"levelo_inurba_marseille","lat":43.239576,"lon":5.36642,"is_reserved":false,"is_disabled":true,"rental_uris":{"android":"levelo://app?vid=2b9dc3a3-9ca1-4379-9bb7-4b8dbd4e17cf","ios":"levelo://app?vid=2b9dc3a3-9ca1-4379-9bb7-4b8dbd4e17cf"},"vehicle_type_id":"4","last_reported":1745132994,"current_range_meters":20400,"station_id":"ce4bhi12rcd13ifvqfp0","pricing_plan_id":"cebpf4jnsgd1na2vs0mg"},{"bike_id":"af5ba08c-0730-4dda-a43c-3e08ff505b3c","system_id":"levelo_inurba_marseille","lat":43.23189,"lon":5.35553,"is_reserved":false,"is_disabled":false,"rental_uris":{"android":"levelo://app?vid=af5ba08c-0730-4dda-a43c-3e08ff505b3c","ios":"levelo://app?vid=af5ba08c-0730-4dda-a43c-3e08ff505b3c"},"vehicle_type_id":"4","last_reported":1745132994,"current_range_meters":20400,"station_id":"ce4bhu92rcd13ifvqi70","pricing_plan_id":"cebpf4jnsgd1na2vs0mg"},{"bike_id":"8bf1579e-183f-4363-8634-a0a7a433417e","system_id":"levelo_inurba_marseille","lat":43.302476,"lon":5.400739,"is_reserved":false,"is_disabled":false,"rental_uris":{"android":"levelo://app?vid=8bf1579e-183f-4363-8634-a0a7a433417e","ios":"levelo://app?vid=8bf1579e-183f-4363-8634-a0a7a433417e"},"vehicle_type_id":"4","last_reported":1745132994,"current_range_meters":20400,"station_id":"ce4bgvh2rcd13ifvqcs0","pricing_plan_id":"cebpf4jnsgd1na2vs0mg"},{"bike_id":"bda3ce6f-31c7-4549-bc44-aba5ea95d90a","system_id":"levelo_inurba_marseille","lat":43.288696,"lon":5.392864,"is_reserved":false,"is_disabled":false,"rental_uris":{"android":"levelo://app?vid=bda3ce6f-31c7-4549-bc44-aba5ea95d90a","ios":"levelo://app?vid=bda3ce6f-31c7-4549-bc44-aba5ea95d90a"},"vehicle_type_id":"4","last_reported":1745132994,"current_range_meters":20400,"station_id":"ce4bh2p2rcd13ifvqdi0","pricing_plan_id":"cebpf4jnsgd1na2vs0mg"},{"bike_id":"f5520ca3-9ac1-4749-bd7b-1b21ae2731a1","system_id":"levelo_inurba_marseille","lat":43.29303,"lon":5.37461,"is_reserved":false,"is_disabled":false,"rental_uris":{"android":"levelo://app?vid=f5520ca3-9ac1-4749-bd7b-1b21ae2731a1","ios":"levelo://app?vid=f5520ca3-9ac1-4749-bd7b-1b21ae2731a1"},"vehicle_type_id":"4","last_reported":1745132994,"current_range_meters":20400,"station_id":"ce4bgi12rcd13ifvqb70","pricing_plan_id":"cebpf4jnsgd1na2vs0mg"},{"bike_id":"cf470fb3-0581-43bf-ac68-380c74cb0ba5","system_id":"levelo_inurba_marseille","lat":43.31683,"lon":5.40453,"is_reserved":false,"is_disabled":false,"rental_uris":{"android":"levelo://app?vid=cf470fb3-0581-43bf-ac68-380c74cb0ba5","ios":"levelo://app?vid=cf470fb3-0581-43bf-ac68-380c74cb0ba5"},"vehicle_type_id":"4","last_reported":1745132994,"current_range_meters":20400,"station_id":"ce4bh012rcd13ifvqd00","pricing_plan_id":"cebpf4jnsgd1na2vs0mg"},{"bike_id":"c0425dc1-2ca5-47ae-9f9d-3c5c3eafac79","system_id":"levelo_inurba_marseille","lat":43.286155,"lon":5.370613,"is_reserved":false,"is_disabled":false,"rental_uris":{"android":"levelo://app?vid=c0425dc1-2ca5-47ae-9f9d-3c5c3eafac79","ios":"levelo://app?vid=c0425dc1-2ca5-47ae-9f9d-3c5c3eafac79"},"vehicle_type_id":"4","last_reported":1745132994,"current_range_meters":20400,"station_id":"ce4bht12rcd13ifvqi60","pricing_plan_id":"cebpf4jnsgd1na2vs0mg"},{"bike_id":"f69d589e-2f9c-4176-a14c-9191ab7b9999","system_id":"levelo_inurba_marseille","lat":43.30932,"lon":5.40144,"is_reserved":false,"is_disabled":false,"rental_uris":{"android":"levelo://app?vid=f69d589e-2f9c-4176-a14c-9191ab7b9999","ios":"levelo://app?vid=f69d589e-2f9c-4176-a14c-9191ab7b9999"},"vehicle_type_id":"4","last_reported":1745132994,"current_range_meters":20400,"station_id":"ce4bgvp2rcd13ifvqct0","pricing_plan_id":"cebpf4jnsgd1na2vs0mg"},{"bike_id":"f40df43b-e0bd-44df-ae4d-b205d7c31487","system_id":"levelo_inurba_marseille","lat":43.31072,"lon":5.38333,"is_reserved":false,"is_disabled":false,"rental_uris":{"android":"levelo://app?vid=f40df43b-e0bd-44df-ae4d-b205d7c31487","ios":"levelo://app?vid=f40df43b-e0bd-44df-ae4d-b205d7c31487"},"vehicle_type_id":"4","last_reported":1745132994,"current_range_meters":20800,"station_id":"ce4bgv92rcd13ifvqcr0","pricing_plan_id":"cebpf4jnsgd1na2vs0mg"},{"bike_id":"68501225-8cea-4f95-ae47-484785f78e68","system_id":"levelo_inurba_marseille","lat":43.32368,"lon":5.38985,"is_reserved":false,"is_disabled":true,"rental_uris":{"android":"levelo://app?vid=68501225-8cea-4f95-ae47-484785f78e68","ios":"levelo://app?vid=68501225-8cea-4f95-ae47-484785f78e68"},"vehicle_type_id":"4","last_reported":1745132994,"current_range_meters":20800,"station_id":"ce4bhqp2rcd13ifvqhog","pricing_plan_id":"cebpf4jnsgd1na2vs0mg"},{"bike_id":"e3eb10e6-7dae-4eb7-9549-ecfbd43cc17c","system_id":"levelo_inurba_marseille","lat":43.211913,"lon":5.350819,"is_reserved":false,"is_disabled":false,"rental_uris":{"android":"levelo://app?vid=e3eb10e6-7dae-4eb7-9549-ecfbd43cc17c","ios":"levelo://app?vid=e3eb10e6-7dae-4eb7-9549-ecfbd43cc17c"},"vehicle_type_id":"4","last_reported":1745132994,"current_range_meters":20800,"station_id":"st_cvj6sg6p6f1abm77japg","pricing_plan_id":"cebpf4jnsgd1na2vs0mg"},{"bike_id":"0df66e0a-9fc8-4b65-8ac4-cdbc9cef329a","system_id":"levelo_inurba_marseille","lat":43.31054,"lon":5.38354,"is_reserved":false,"is_disabled":true,"rental_uris":{"android":"levelo://app?vid=0df66e0a-9fc8-4b65-8ac4-cdbc9cef329a","ios":"levelo://app?vid=0df66e0a-9fc8-4b65-8ac4-cdbc9cef329a"},"vehicle_type_id":"4","last_reported":1745132994,"current_range_meters":20800,"station_id":"ce4bgv92rcd13ifvqcr0","pricing_plan_id":"cebpf4jnsgd1na2vs0mg"},{"bike_id":"9ebb9e31-b181-4120-a985-5579f166c1c4","system_id":"levelo_inurba_marseille","lat":43.27982,"lon":5.40022,"is_reserved":false,"is_disabled":true,"rental_uris":{"android":"levelo://app?vid=9ebb9e31-b181-4120-a985-5579f166c1c4","ios":"levelo://app?vid=9ebb9e31-b181-4120-a985-5579f166c1c4"},"vehicle_type_id":"4","last_reported":1745132994,"current_range_meters":21600,"station_id":"ce4bho92rcd13ifvqh4g","pricing_plan_id":"cebpf4jnsgd1na2vs0mg"},{"bike_id":"5171e384-1812-45e8-a9d5-01c112dd8b34","system_id":"levelo_inurba_marseille","lat":43.25106,"lon":5.40376,"is_reserved":false,"is_disabled":false,"rental_uris":{"android":"levelo://app?vid=5171e384-1812-45e8-a9d5-01c112dd8b34","ios":"levelo://app?vid=5171e384-1812-45e8-a9d5-01c112dd8b34"},"vehicle_type_id":"4","last_reported":1745132994,"current_range_meters":21600,"station_id":"ce4bhlh2rcd13ifvqgig","pricing_plan_id":"cebpf4jnsgd1na2vs0mg"},{"bike_id":"4f9239e1-8a7a-4356-be0d-8a523121bc15","system_id":"levelo_inurba_marseille","lat":43.260307,"lon":5.375614,"is_reserved":false,"is_disabled":true,"rental_uris":{"android":"levelo://app?vid=4f9239e1-8a7a-4356-be0d-8a523121bc15","ios":"levelo://app?vid=4f9239e1-8a7a-4356-be0d-8a523121bc15"},"vehicle_type_id":"4","last_reported":1745132994,"current_range_meters":21600,"station_id":"ce4bhgh2rcd13ifvqfa0","pricing_plan_id":"cebpf4jnsgd1na2vs0mg"},{"bike_id":"708a791d-3040-4b21-8706-33329d812143","system_id":"levelo_inurba_marseille","lat":43.30667,"lon":5.39278,"is_reserved":false,"is_disabled":true,"rental_uris":{"android":"levelo://app?vid=708a791d-3040-4b21-8706-33329d812143","ios":"levelo://app?vid=708a791d-3040-4b21-8706-33329d812143"},"vehicle_type_id":"4","last_reported":1745132994,"current_range_meters":21600,"station_id":"","pricing_plan_id":"cebpf4jnsgd1na2vs0mg"},{"bike_id":"c3a3e06c-3bd3-472f-9cae-a0c530d3afac","system_id":"levelo_inurba_marseille","lat":43.307291,"lon":5.424483,"is_reserved":false,"is_disabled":false,"rental_uris":{"android":"levelo://app?vid=c3a3e06c-3bd3-472f-9cae-a0c530d3afac","ios":"levelo://app?vid=c3a3e06c-3bd3-472f-9cae-a0c530d3afac"},"vehicle_type_id":"4","last_reported":1745132994,"current_range_meters":21600,"station_id":"st_cvj6ca6bvosntc0bfgr0","pricing_plan_id":"cebpf4jnsgd1na2vs0mg"},{"bike_id":"f59e84fb-0ea6-48a2-9f5b-7281aa7ed707","system_id":"levelo_inurba_marseille","lat":43.24655,"lon":5.38897,"is_reserved":false,"is_disabled":false,"rental_uris":{"android":"levelo://app?vid=f59e84fb-0ea6-48a2-9f5b-7281aa7ed707","ios":"levelo://app?vid=f59e84fb-0ea6-48a2-9f5b-7281aa7ed707"},"vehicle_type_id":"4","last_reported":1745132994,"current_range_meters":21600,"station_id":"ce4bhg12rcd13ifvqf60","pricing_plan_id":"cebpf4jnsgd1na2vs0mg"},{"bike_id":"ad279094-f854-48d5-9af2-1875cea0ddbc","system_id":"levelo_inurba_marseille","lat":43.225075,"lon":5.347853,"is_reserved":false,"is_disabled":true,"rental_uris":{"android":"levelo://app?vid=ad279094-f854-48d5-9af2-1875cea0ddbc","ios":"levelo://app?vid=ad279094-f854-48d5-9af2-1875cea0ddbc"},"vehicle_type_id":"4","last_reported":1745132994,"current_range_meters":22000,"station_id":"st_cvj5dfep6f1abm77gieg","pricing_plan_id":"cebpf4jnsgd1na2vs0mg"},{"bike_id":"5f89c481-40b1-4398-aec5-3104ef3e5599","system_id":"levelo_inurba_marseille","lat":43.30136,"lon":5.381,"is_reserved":false,"is_disabled":false,"rental_uris":{"android":"levelo://app?vid=5f89c481-40b1-4398-aec5-3104ef3e5599","ios":"levelo://app?vid=5f89c481-40b1-4398-aec5-3104ef3e5599"},"vehicle_type_id":"4","last_reported":1745132994,"current_range_meters":22000,"station_id":"ce4bgjp2rcd13ifvqbh0","pricing_plan_id":"cebpf4jnsgd1na2vs0mg"},{"bike_id":"b4f0112c-f22c-487d-9027-44b050d981e8","system_id":"levelo_inurba_marseille","lat":43.23154,"lon":5.43709,"is_reserved":false,"is_disabled":false,"rental_uris":{"android":"levelo://app?vid=b4f0112c-f22c-487d-9027-44b050d981e8","ios":"levelo://app?vid=b4f0112c-f22c-487d-9027-44b050d981e8"},"vehicle_type_id":"4","last_reported":1745132994,"current_range_meters":22000,"station_id":"ce4bhmp2rcd13ifvqgog","pricing_plan_id":"cebpf4jnsgd1na2vs0mg"},{"bike_id":"90ce21df-5f7c-4551-a99a-0900c11e065d","system_id":"levelo_inurba_marseille","lat":43.283751,"lon":5.418637,"is_reserved":false,"is_disabled":false,"rental_uris":{"android":"levelo://app?vid=90ce21df-5f7c-4551-a99a-0900c11e065d","ios":"levelo://app?vid=90ce21df-5f7c-4551-a99a-0900c11e065d"},"vehicle_type_id":"4","last_reported":1745132994,"current_range_meters":22400,"station_id":"","pricing_plan_id":"cebpf4jnsgd1na2vs0mg"},{"bike_id":"ff6951ea-f65d-4004-b847-cc3af4607ae3","system_id":"levelo_inurba_marseille","lat":43.29803,"lon":5.38089,"is_reserved":false,"is_disabled":false,"rental_uris":{"android":"levelo://app?vid=ff6951ea-f65d-4004-b847-cc3af4607ae3","ios":"levelo://app?vid=ff6951ea-f65d-4004-b847-cc3af4607ae3"},"vehicle_type_id":"4","last_reported":1745132994,"current_range_meters":22400,"station_id":"ce4bgip2rcd13ifvqbb0","pricing_plan_id":"cebpf4jnsgd1na2vs0mg"},{"bike_id":"8a629565-4fac-47dc-a4d0-83608875c528","system_id":"levelo_inurba_marseille","lat":43.23158,"lon":5.43699,"is_reserved":false,"is_disabled":false,"rental_uris":{"android":"levelo://app?vid=8a629565-4fac-47dc-a4d0-83608875c528","ios":"levelo://app?vid=8a629565-4fac-47dc-a4d0-83608875c528"},"vehicle_type_id":"4","last_reported":1745132994,"current_range_meters":22000,"station_id":"ce4bhmp2rcd13ifvqgog","pricing_plan_id":"cebpf4jnsgd1na2vs0mg"},{"bike_id":"176681f0-4183-4e95-8b5b-0cbe779bf2ec","system_id":"levelo_inurba_marseille","lat":43.28948,"lon":5.39598,"is_reserved":false,"is_disabled":false,"rental_uris":{"android":"levelo://app?vid=176681f0-4183-4e95-8b5b-0cbe779bf2ec","ios":"levelo://app?vid=176681f0-4183-4e95-8b5b-0cbe779bf2ec"},"vehicle_type_id":"4","last_reported":1745132994,"current_range_meters":22800,"station_id":"ce4bh3h2rcd13ifvqdn0","pricing_plan_id":"cebpf4jnsgd1na2vs0mg"},{"bike_id":"01967199-0e0d-4163-b2ea-82179fd072b9","system_id":"levelo_inurba_marseille","lat":43.28159,"lon":5.42643,"is_reserved":false,"is_disabled":false,"rental_uris":{"android":"levelo://app?vid=01967199-0e0d-4163-b2ea-82179fd072b9","ios":"levelo://app?vid=01967199-0e0d-4163-b2ea-82179fd072b9"},"vehicle_type_id":"4","last_reported":1745132994,"current_range_meters":22800,"station_id":"ce4bhnh2rcd13ifvqgug","pricing_plan_id":"cebpf4jnsgd1na2vs0mg"},{"bike_id":"92e61b68-e963-4319-9628-0c0d2de0686e","system_id":"levelo_inurba_marseille","lat":43.3111,"lon":5.37775,"is_reserved":false,"is_disabled":false,"rental_uris":{"android":"levelo://app?vid=92e61b68-e963-4319-9628-0c0d2de0686e","ios":"levelo://app?vid=92e61b68-e963-4319-9628-0c0d2de0686e"},"vehicle_type_id":"4","last_reported":1745132994,"current_range_meters":22800,"station_id":"ce4bgt92rcd13ifvqcg0","pricing_plan_id":"cebpf4jnsgd1na2vs0mg"},{"bike_id":"579bd0a9-c8ed-45ba-9f6a-b14591b67f00","system_id":"levelo_inurba_marseille","lat":43.287018,"lon":5.3998,"is_reserved":false,"is_disabled":false,"rental_uris":{"android":"levelo://app?vid=579bd0a9-c8ed-45ba-9f6a-b14591b67f00","ios":"levelo://app?vid=579bd0a9-c8ed-45ba-9f6a-b14591b67f00"},"vehicle_type_id":"4","last_reported":1745132994,"current_range_meters":22800,"station_id":"ce4bho92rcd13ifvqh3g","pricing_plan_id":"cebpf4jnsgd1na2vs0mg"},{"bike_id":"4878b8d5-76d0-411c-9963-2c45b5fe8d84","system_id":"levelo_inurba_marseille","lat":43.26576,"lon":5.39041,"is_reserved":false,"is_disabled":false,"rental_uris":{"android":"levelo://app?vid=4878b8d5-76d0-411c-9963-2c45b5fe8d84","ios":"levelo://app?vid=4878b8d5-76d0-411c-9963-2c45b5fe8d84"},"vehicle_type_id":"4","last_reported":1745132994,"current_range_meters":22800,"station_id":"ce4bhe12rcd13ifvqf30","pricing_plan_id":"cebpf4jnsgd1na2vs0mg"},{"bike_id":"a0c18d1f-d629-4753-a18c-069366929c4a","system_id":"levelo_inurba_marseille","lat":43.26197,"lon":5.37925,"is_reserved":false,"is_disabled":false,"rental_uris":{"android":"levelo://app?vid=a0c18d1f-d629-4753-a18c-069366929c4a","ios":"levelo://app?vid=a0c18d1f-d629-4753-a18c-069366929c4a"},"vehicle_type_id":"4","last_reported":1745132994,"current_range_meters":22800,"station_id":"ce4bhjp2rcd13ifvqg90","pricing_plan_id":"cebpf4jnsgd1na2vs0mg"},{"bike_id":"8b0a83c0-7203-4165-952c-99ac066ed990","system_id":"levelo_inurba_marseille","lat":43.30763,"lon":5.37656,"is_reserved":false,"is_disabled":false,"rental_uris":{"android":"levelo://app?vid=8b0a83c0-7203-4165-952c-99ac066ed990","ios":"levelo://app?vid=8b0a83c0-7203-4165-952c-99ac066ed990"},"vehicle_type_id":"4","last_reported":1745132994,"current_range_meters":22800,"station_id":"ce4bgv92rcd13ifvqcq0","pricing_plan_id":"cebpf4jnsgd1na2vs0mg"},