{"last_updated":1745572243,"ttl":60,"version":"2.2","data":{"bikes":[{"bike_id":"5b67f8a3-0119-4193-83d5-92ab9ed0318b","system_id":"levelo_inurba_marseille","lat":43.29868,"lon":5.39728,"is_reserved":false,"is_disabled":false,"rental_uris":{"android":"levelo://app?vid=5b67f8a3-0119-4193-83d5-92ab9ed0318b","ios":"levelo://app?vid=5b67f8a3-0119-4193-83d5-92ab9ed0318b"},"vehicle_type_id":"4","last_reported":1745572243,"current_range_meters":2800,"station_id":"ce4bh0h2rcd13ifvqd50","pricing_plan_id":"cebpf4jnsgd1na2vs0mg"},{"bike_id":"d373d43c-1ec8-4c15-97b7-3808631cf0d5","system_id":"levelo_inurba_marseille","lat":43.30619,"lon":5.37976,"is_reserved":false,"is_disabled":false,"rental_uris":{"android":"levelo://app?vid=d373d43c-1ec8-4c15-97b7-3808631cf0d5","ios":"levelo://app?vid=d373d43c-1ec8-4c15-97b7-3808631cf0d5"},"vehicle_type_id":"4","last_reported":1745572243,"current_range_meters":2800,"station_id":"","pricing_plan_id":"cebpf4jnsgd1na2vs0mg"},{"bike_id":"cec0f2af-4c73-4ae7-aa51-50be6762c3bc","system_id":"levelo_inurba_marseille","lat":43.231922,"lon":5.355529,"is_reserved":false,"is_disabled":false,"rental_uris":{"android":"levelo://app?vid=cec0f2af-4c73-4ae7-aa51-50be6762c3bc","ios":"levelo://app?vid=cec0f2af-4c73-4ae7-aa51-50be6762c3bc"},"vehicle_type_id":"4","last_reported":1745572243,"current_range_meters":2800,"station_id":"ce4bhbp2rcd13ifvqerg","pricing_plan_id":"cebpf4jnsgd1na2vs0mg"},{"bike_id":"fed3087f-a5cb-449e-a43e-200233532ee8","system_id":"levelo_inurba_marseille","lat":43.2802,"lon":5.36944,"is_reserved":false,"is_disabled":true,"rental_uris":{"android":"levelo://app?vid=fed3087f-a5cb-449e-a43e-200233532ee8","ios":"levelo://app?vid=fed3087f-a5cb-449e-a43e-200233532ee8"},"vehicle_type_id":"4","last_reported":1745572243,"current_range_meters":2800,"station_id":"ce4bha12rcd13ifvqef0","pricing_plan_id":"cebpf4jnsgd1na2vs0mg"},{"bike_id":"92c3b340-d069-4f1c-b55b-44c52f19597b","system_id":"levelo_inurba_marseille","lat":43.28248,"lon":5.37768,"is_reserved":false,"is_disabled":false,"rental_uris":{"android":"levelo://app?vid=92c3b340-d069-4f1c-b55b-44c52f19597b","ios":"levelo://app?vid=92c3b340-d069-4f1c-b55b-44c52f19597b"},"vehicle_type_id":"4","last_reported":1745572243,"current_range_meters":3600,"station_id":"","pricing_plan_id":"cebpf4jnsgd1na2vs0mg"},{"bike_id":"b62b4423-70d4-47c4-9984-d053060d3203","system_id":"levelo_inurba_marseille","lat":43.28847,"lon":5.39319,"is_reserved":false,"is_disabled":false,"rental_uris":{"android":"levelo://app?vid=b62b4423-70d4-47c4-9984-d053060d3203","ios":"levelo://app?vid=b62b4423-70d4-47c4-9984-d053060d3203"},"vehicle_type_id":"4","last_reported":1745572243,"current_range_meters":3600,"station_id":"ce4bh2p2rcd13ifvqdi0","pricing_plan_id":"cebpf4jnsgd1na2vs0mg"},{"bike_id":"9479fef9-dab4-4446-a016-191da7516522","system_id":"levelo_inurba_marseille","lat":43.28257,"lon":5.350635,"is_reserved":false,"is_disabled":false,"rental_uris":{"android":"levelo://app?vid=9479fef9-dab4-4446-a016-191da7516522","ios":"levelo://app?vid=9479fef9-dab4-4446-a016-191da7516522"},"vehicle_type_id":"4","last_reported":1745572243,"current_range_meters":4000,"station_id":"ce4bhbp2rcd13ifvqerg","pricing_plan_id":"cebpf4jnsgd1na2vs0mg"},{"bike_id":"5b16eb17-ed57-4a23-aac2-2c155ee976fc","system_id":"levelo_inurba_marseille","lat":43.22936,"lon":5.35389,"is_reserved":false,"is_disabled":false,"rental_uris":{"android":"levelo://app?vid=5b16eb17-ed57-4a23-aac2-2c155ee976fc","ios":"levelo://app?vid=5b16eb17-ed57-4a23-aac2-2c155ee976fc"},"vehicle_type_id":"4","last_reported":1745572243,"current_range_meters":4000,"station_id":"cpo3532slgdg3j2ikp40","pricing_plan_id":"cebpf4jnsgd1na2vs0mg"},{"bike_id":"e52b8da7-98f9-4e55-a025-10dea4c1f453","system_id":"levelo_inurba_marseille","lat":43.25938,"lon":5.40911,"is_reserved":false,"is_disabled":false,"rental_uris":{"android":"levelo://app?vid=e52b8da7-98f9-4e55-a025-10dea4c1f453","ios":"levelo://app?vid=e52b8da7-98f9-4e55-a025-10dea4c1f453"},"vehicle_type_id":"4","last_reported":1745572243,"current_range_meters":4000,"station_id":"ce4bhm92rcd13ifvqglg","pricing_plan_id":"cebpf4jnsgd1na2vs0mg"},{"bike_id":"31b41d28-62b8-4185-9368-551fedda8c8c","system_id":"levelo_inurba_marseille","lat":43.29844,"lon":5.36271,"is_reserved":false,"is_disabled":false,"rental_uris":{"android":"levelo://app?vid=31b41d28-62b8-4185-9368-551fedda8c8c","ios":"levelo://app?vid=31b41d28-62b8-4185-9368-551fedda8c8c"},"vehicle_type_id":"4","last_reported":1745572243,"current_range_meters":4400,"station_id":"ce4bgpp2rcd13ifvqc3g","pricing_plan_id":"cebpf4jnsgd1na2vs0mg"},{"bike_id":"60ee52f6-3432-4a14-b3b4-c3acf981d864","system_id":"levelo_inurba_marseille","lat":43.21788,"lon":5.34586,"is_reserved":false,"is_disabled":false,"rental_uris":{"android":"levelo://app?vid=60ee52f6-3432-4a14-b3b4-c3acf981d864","ios":"levelo://app?vid=60ee52f6-3432-4a14-b3b4-c3acf981d864"},"vehicle_type_id":"4","last_reported":1745572243,"current_range_meters":4800,"station_id":"","pricing_plan_id":"cebpf4jnsgd1na2vs0mg"},{"bike_id":"657cca6d-76aa-4d3c-82cc-b9d9dcf29f49","system_id":"levelo_inurba_marseille","lat":43.30181,"lon":5.36596,"is_reserved":false,"is_disabled":false,"rental_uris":{"android":"levelo://app?vid=657cca6d-76aa-4d3c-82cc-b9d9dcf29f49","ios":"levelo://app?vid=657cca6d-76aa-4d3c-82cc-b9d9dcf29f49"},"vehicle_type_id":"4","last_reported":1745572243,"current_range_meters":4800,"station_id":"ce4bgrh2rcd13ifvqc8g","pricing_plan_id":"cebpf4jnsgd1na2vs0mg"},{"bike_id":"04de76c4-a1ad-45bf-9e28-7c78bfcbb5c0","system_id":"levelo_inurba_marseille","lat":43.25193,"lon":5.37436,"is_reserved":false,"is_disabled":false,"rental_uris":{"android":"levelo://app?vid=04de76c4-a1ad-45bf-9e28-7c78bfcbb5c0","ios":"levelo://app?vid=04de76c4-a1ad-45bf-9e28-7c78bfcbb5c0"},"vehicle_type_id":"4","last_reported":1745572243,"current_range_meters":4800,"station_id":"","pricing_plan_id":"cebpf4jnsgd1na2vs0mg"},{"bike_id":"ec3e56b9-52fd-451d-aa37-552f2f1c1aff","system_id":"levelo_inurba_marseille","lat":43.2793,"lon":5.38693,"is_reserved":false,"is_disabled":false,"rental_uris":{"android":"levelo://app?vid=ec3e56b9-52fd-451d-aa37-552f2f1c1aff","ios":"levelo://app?vid=ec3e56b9-52fd-451d-aa37-552f2f1c1aff"},"vehicle_type_id":"4","last_reported":1745572243,"current_range_meters":4800,"station_id":"ce4bhg12rcd13ifvqf80","pricing_plan_id":"cebpf4jnsgd1na2vs0mg"},{"bike_id":"85e57ba5-6f5b-4fd7-a5d4-a4ac7e63e789","system_id":"levelo_inurba_marseille","lat":43.29534,"lon":5.38535,"is_reserved":false,"is_disabled":true,"rental_uris":{"android":"levelo://app?vid=85e57ba5-6f5b-4fd7-a5d4-a4ac7e63e789","ios":"levelo://app?vid=85e57ba5-6f5b-4fd7-a5d4-a4ac7e63e789"},"vehicle_type_id":"4","last_reported":1745572243,"current_range_meters":5600,"station_id":"ce4bgih2rcd13ifvqba0","pricing_plan_id":"cebpf4jnsgd1na2vs0mg"},{"bike_id":"dd6fbee8-b24a-4545-af4e-27b2d6af49c4","system_id":"levelo_inurba_marseille","lat":43.3095,"lon":5.39027,"is_reserved":false,"is_disabled":false,"rental_uris":{"android":"levelo://app?vid=dd6fbee8-b24a-4545-af4e-27b2d6af49c4","ios":"levelo://app?vid=dd6fbee8-b24a-4545-af4e-27b2d6af49c4"},"vehicle_type_id":"4","last_reported":1745572243,"current_range_meters":5600,"station_id":"ce4bgup2rcd13ifvqco0","pricing_plan_id":"cebpf4jnsgd1na2vs0mg"},{"bike_id":"d54bdd39-7bf2-4208-93b4-b129a9d12f8c","system_id":"levelo_inurba_marseille","lat":43.290401,"lon":5.375589,"is_reserved":false,"is_disabled":false,"rental_uris":{"android":"levelo://app?vid=d54bdd39-7bf2-4208-93b4-b129a9d12f8c","ios":"levelo://app?vid=d54bdd39-7bf2-4208-93b4-b129a9d12f8c"},"vehicle_type_id":"4","last_reported":1745572243,"current_range_meters":5600,"station_id":"ce4bh692rcd13ifvqe90","pricing_plan_id":"cebpf4jnsgd1na2vs0mg"},{"bike_id":"9026b3cb-1ad2-4901-b2fb-8dabaff23e24","system_id":"levelo_inurba_marseille","lat":43.26781,"lon":5.3941,"is_reserved":false,"is_disabled":false,"rental_uris":{"android":"levelo://app?vid=9026b3cb-1ad2-4901-b2fb-8dabaff23e24","ios":"levelo://app?vid=9026b3cb-1ad2-4901-b2fb-8dabaff23e24"},"vehicle_type_id":"4","last_reported":1745572243,"current_range_meters":6000,"station_id":"ce4bhh12rcd13ifvqfg0","pricing_plan_id":"cebpf4jnsgd1na2vs0mg"},{"bike_id":"b3094e88-ac74-4f57-b096-b0357aadc63b","system_id":"levelo_inurba_marseille","lat":43.2315,"lon":5.43713,"is_reserved":false,"is_disabled":false,"rental_uris":{"android":"levelo://app?vid=b3094e88-ac74-4f57-b096-b0357aadc63b","ios":"levelo://app?vid=b3094e88-ac74-4f57-b096-b0357aadc63b"},"vehicle_type_id":"4","last_reported":1745572243,"current_range_meters":6000,"station_id":"ce4bhmp2rcd13ifvqgog","pricing_plan_id":"cebpf4jnsgd1na2vs0mg"},{"bike_id":"1b434e75-1869-42d2-bec4-0b9eeb715454","system_id":"levelo_inurba_marseille","lat":43.28415,"lon":5.34997,"is_reserved":false,"is_disabled":false,"rental_uris":{"android":"levelo://app?vid=1b434e75-1869-42d2-bec4-0b9eeb715454","ios":"levelo://app?vid=1b434e75-1869-42d2-bec4-0b9eeb715454"},"vehicle_type_id":"4","last_reported":1745572243,"current_range_meters":6400,"station_id":"ce4bhbh2rcd13ifvqepg","pricing_plan_id":"cebpf4jnsgd1na2vs0mg"},{"bike_id":"5ab51bf2-4f0b-4997-9ebf-a35b6bfd4bc5","system_id":"levelo_inurba_marseille","lat":43.27327,"lon":5.39091,"is_reserved":false,"is_disabled":false,"rental_uris":{"android":"levelo://app?vid=5ab51bf2-4f0b-4997-9ebf-a35b6bfd4bc5","ios":"levelo://app?vid=5ab51bf2-4f0b-4997-9ebf-a35b6bfd4bc5"},"vehicle_type_id":"4","last_reported":1745572243,"current_range_meters":6400,"station_id":"ce4bhgp2rcd13ifvqfe0","pricing_plan_id":"cebpf4jnsgd1na2vs0mg"},{"bike_id":"9f9b6b01-2abf-400e-b80c-9b8337b89ff5","system_id":"levelo_inurba_marseille","lat":43.27962,"lon":5.38748,"is_reserved":false,"is_disabled":false,"rental_uris":{"android":"levelo://app?vid=9f9b6b01-2abf-400e-b80c-9b8337b89ff5","ios":"levelo://app?vid=9f9b6b01-2abf-400e-b80c-9b8337b89ff5"},"vehicle_type_id":"4","last_reported":1745572243,"current_range_meters":6400,"station_id":"ce4bhg12rcd13ifvqf80","pricing_plan_id":"cebpf4jnsgd1na2vs0mg"},{"bike_id":"c53d6757-69a8-4e71-b1fc-4064e0b8defa","system_id":"levelo_inurba_marseille","lat":43.25943,"lon":5.40885,"is_reserved":false,"is_disabled":false,"rental_uris":{"android":"levelo://app?vid=c53d6757-69a8-4e71-b1fc-4064e0b8defa","ios":"levelo://app?vid=c53d6757-69a8-4e71-b1fc-4064e0b8defa"},"vehicle_type_id":"4","last_reported":1745572243,"current_range_meters":6400,"station_id":"ce4bhm92rcd13ifvqglg","pricing_plan_id":"cebpf4jnsgd1na2vs0mg"},{"bike_id":"35ba198c-d030-4b10-b4ce-0e920c083b8c","system_id":"levelo_inurba_marseille","lat":43.25951,"lon":5.40865,"is_reserved":false,"is_disabled":false,"rental_uris":{"android":"levelo://app?vid=35ba198c-d030-4b10-b4ce-0e920c083b8c","ios":"levelo://app?vid=35ba198c-d030-4b10-b4ce-0e920c083b8c"},"vehicle_type_id":"4","last_reported":1745572243,"current_range_meters":6400,"station_id":"ce4bhm92rcd13ifvqglg","pricing_plan_id":"cebpf4jnsgd1na2vs0mg"},{"bike_id":"e5e6387e-799d-49f8-9caa-4061ff31ee68","system_id":"levelo_inurba_marseille","lat":43.22518,"lon":5.34785,"is_reserved":false,"is_disabled":false,"rental_uris":{"android":"levelo://app?vid=e5e6387e-799d-49f8-9caa-4061ff31ee68","ios":"levelo://app?vid=e5e6387e-799d-49f8-9caa-4061ff31ee68"},"vehicle_type_id":"4","last_reported":1745572243,"current_range_meters":6800,"station_id":"st_cvj5dfep6f1abm77gieg","pricing_plan_id":"cebpf4jnsgd1na2vs0mg"},{"bike_id":"afa10ca1-b787-4891-8a18-f9d395e25601","system_id":"levelo_inurba_marseille","lat":43.25923,"lon":5.40896,"is_reserved":false,"is_disabled":false,"rental_uris":{"android":"levelo://app?vid=afa10ca1-b787-4891-8a18-f9d395e25601","ios":"levelo://app?vid=afa10ca1-b787-4891-8a18-f9d395e25601"},"vehicle_type_id":"4","last_reported":1745572243,"current_range_meters":6800,"station_id":"ce4bhm92rcd13ifvqglg","pricing_plan_id":"cebpf4jnsgd1na2vs0mg"},{"bike_id":"141535cf-fb3b-46b7-aef5-8d6d20a2c722","system_id":"levelo_inurba_marseille","lat":43.28112,"lon":5.37822,"is_reserved":false,"is_disabled":false,"rental_uris":{"android":"levelo://app?vid=141535cf-fb3b-46b7-aef5-8d6d20a2c722","ios":"levelo://app?vid=141535cf-fb3b-46b7-aef5-8d6d20a2c722"},"vehicle_type_id":"4","last_reported":1745572243,"current_range_meters":6800,"station_id":"ce4bha12rcd13ifvqee0","pricing_plan_id":"cebpf4jnsgd1na2vs0mg"},{"bike_id":"99862305-32a2-444d-8334-228f5792e221","system_id":"levelo_inurba_marseille","lat":43.29279,"lon":5.36841,"is_reserved":false,"is_disabled":true,"rental_uris":{"android":"levelo://app?vid=99862305-32a2-444d-8334-228f5792e221","ios":"levelo://app?vid=99862305-32a2-444d-8334-228f5792e221"},"vehicle_type_id":"4","last_reported":1745572243,"current_range_meters":6800,"station_id":"ce4bhbp2rcd13ifvqesg","pricing_plan_id":"cebpf4jnsgd1na2vs0mg"},{"bike_id":"8d2c8270-2549-4de0-a974-74c006abd437","system_id":"levelo_inurba_marseille","lat":43.24386,"lon":5.37056,"is_reserved":false,"is_disabled":false,"rental_uris":{"android":"levelo://app?vid=8d2c8270-2549-4de0-a974-74c006abd437","ios":"levelo://app?vid=8d2c8270-2549-4de0-a974-74c006abd437"},"vehicle_type_id":"4","last_reported":1745572243,"current_range_meters":6800,"station_id":"ce4bhhh2rcd13ifvqfk0","pricing_plan_id":"cebpf4jnsgd1na2vs0mg"},{"bike_id":"b7a1760d-1f57-464a-b595-36a69be63767","system_id":"levelo_inurba_marseille","lat":43.297826,"lon":5.393292,"is_reserved":false,"is_disabled":false,"rental_uris":{"android":"levelo://app?vid=b7a1760d-1f57-464a-b595-36a69be63767","ios":"levelo://app?vid=b7a1760d-1f57-464a-b595-36a69be63767"},"vehicle_type_id":"4","last_reported":1745572243,"current_range_meters":6800,"station_id":"chh1huq6cuj3fo74tm60","pricing_plan_id":"cebpf4jnsgd1na2vs0mg"},{"bike_id":"ef02a290-30a7-4a7a-a8ef-661a797860e6","system_id":"levelo_inurba_marseille","lat":43.25579,"lon":5.38234,"is_reserved":false,"is_disabled":false,"rental_uris":{"android":"levelo://app?vid=ef02a290-30a7-4a7a-a8ef-661a797860e6","ios":"levelo://app?vid=ef02a290-30a7-4a7a-a8ef-661a797860e6"},"vehicle_type_id":"4","last_reported":1745572243,"current_range_meters":7200,"station_id":"ce4bhih2rcd13ifvqfs0","pricing_plan_id":"cebpf4jnsgd1na2vs0mg"},{"bike_id":"4ab6bc02-32cf-4c5b-8e00-93978cd7dbda","system_id":"levelo_inurba_marseille","lat":43.34154,"lon":5.40921,"is_reserved":false,"is_disabled":false,"rental_uris":{"android":"levelo://app?vid=4ab6bc02-32cf-4c5b-8e00-93978cd7dbda","ios":"levelo://app?vid=4ab6bc02-32cf-4c5b-8e00-93978cd7dbda"},"vehicle_type_id":"4","last_reported":1745572243,"current_range_meters":7200,"station_id":"ce4bhqh2rcd13ifvqhlg","pricing_plan_id":"cebpf4jnsgd1na2vs0mg"},{"bike_id":"9d16ad86-9ee6-430b-bde1-d7870d768403","system_id":"levelo_inurba_marseille","lat":43.2594,"lon":5.40899,"is_reserved":false,"is_disabled":false,"rental_uris":{"android":"levelo://app?vid=9d16ad86-9ee6-430b-bde1-d7870d768403","ios":"levelo://app?vid=9d16ad86-9ee6-430b-bde1-d7870d768403"},"vehicle_type_id":"4","last_reported":1745572243,"current_range_meters":7200,"station_id":"ce4bhm92rcd13ifvqglg","pricing_plan_id":"cebpf4jnsgd1na2vs0mg"},{"bike_id":"b57b1659-085c-4328-8019-71240ed889b7","system_id":"levelo_inurba_marseille","lat":43.23178,"lon":5.39988,"is_reserved":false,"is_disabled":false,"rental_uris":{"android":"levelo://app?vid=b57b1659-085c-4328-8019-71240ed889b7","ios":"levelo://app?vid=b57b1659-085c-4328-8019-71240ed889b7"},"vehicle_type_id":"4","last_reported":1745572243,"current_range_meters":7200,"station_id":"ce4bhn12rcd13ifvqgqg","pricing_plan_id":"cebpf4jnsgd1na2vs0mg"},{"bike_id":"46374c49-3adc-4c5a-8966-e00f056c0d57","system_id":"levelo_inurba_marseille","lat":43.27846,"lon":5.35442,"is_reserved":false,"is_disabled":false,"rental_uris":{"android":"levelo://app?vid=46374c49-3adc-4c5a-8966-e00f056c0d57","ios":"levelo://app?vid=46374c49-3adc-4c5a-8966-e00f056c0d57"},"vehicle_type_id":"4","last_reported":1745572243,"current_range_meters":8000,"station_id":"","pricing_plan_id":"cebpf4jnsgd1na2vs0mg"},{"bike_id":"db5db989-763a-41e9-b1a8-88e933ad9a66","system_id":"levelo_inurba_marseille","lat":43.32486,"lon":5.36558,"is_reserved":false,"is_disabled":false,"rental_uris":{"android":"levelo://app?vid=db5db989-763a-41e9-b1a8-88e933ad9a66","ios":"levelo://app?vid=db5db989-763a-41e9-b1a8-88e933ad9a66"},"vehicle_type_id":"4","last_reported":1745572243,"current_range_meters":8000,"station_id":"ce4bhs12rcd13ifvqhvg","pricing_plan_id":"cebpf4jnsgd1na2vs0mg"},{"bike_id":"e0816a70-182e-4f6c-853e-8b3af5c7f6d1","system_id":"levelo_inurba_marseille","lat":43.24996,"lon":5.38925,"is_reserved":false,"is_disabled":false,"rental_uris":{"android":"levelo://app?vid=e0816a70-182e-4f6c-853e-8b3af5c7f6d1","ios":"levelo://app?vid=e0816a70-182e-4f6c-853e-8b3af5c7f6d1"},"vehicle_type_id":"4","last_reported":1745572243,"current_range_meters":8000,"station_id":"ce4bhgp2rcd13ifvqfd0","pricing_plan_id":"cebpf4jnsgd1na2vs0mg"},{"bike_id":"f587b1ad-8767-42fd-bb98-bdf1bb330f9a","system_id":"levelo_inurba_marseille","lat":43.32361,"lon":5.4209,"is_reserved":false,"is_disabled":false,"rental_uris":{"android":"levelo://app?vid=f587b1ad-8767-42fd-bb98-bdf1bb330f9a","ios":"levelo://app?vid=f587b1ad-8767-42fd-bb98-bdf1bb330f9a"},"vehicle_type_id":"4","last_reported":1745572243,"current_range_meters":8000,"station_id":"","pricing_plan_id":"cebpf4jnsgd1na2vs0mg"},{"bike_id":"44c0201e-c9f3-4ec8-9f19-45cfbbe2ef08","system_id":"levelo_inurba_marseille","lat":43.25474,"lon":5.37665,"is_reserved":false,"is_disabled":false,"rental_uris":{"android":"levelo://app?vid=44c0201e-c9f3-4ec8-9f19-45cfbbe2ef08","ios":"levelo://app?vid=44c0201e-c9f3-4ec8-9f19-45cfbbe2ef08"},"vehicle_type_id":"4","last_reported":1745572243,"current_range_meters":8000,"station_id":"ce4bhh12rcd13ifvqff0","pricing_plan_id":"cebpf4jnsgd1na2vs0mg"},{"bike_id":"2686948c-9820-4401-8134-ee2a9d1934f7","system_id":"levelo_inurba_marseille","lat":43.24646,"lon":5.38595,"is_reserved":false,"is_disabled":false,"rental_uris":{"android":"levelo://app?vid=2686948c-9820-4401-8134-ee2a9d1934f7","ios":"levelo://app?vid=2686948c-9820-4401-8134-ee2a9d1934f7"},"vehicle_type_id":"4","last_reported":1745572243,"current_range_meters":8000,"station_id":"","pricing_plan_id":"cebpf4jnsgd1na2vs0mg"},{"bike_id":"ac5dfd32-888a-43f7-a4b3-5e066ea8f528","system_id":"levelo_inurba_marseille","lat":43.3056,"lon":5.36543,"is_reserved":false,"is_disabled":false,"rental_uris":{"android":"levelo://app?vid=ac5dfd32-888a-43f7-a4b3-5e066ea8f528","ios":"levelo://app?vid=ac5dfd32-888a-43f7-a4b3-5e066ea8f528"},"vehicle_type_id":"4","last_reported":1745572243,"current_range_meters":8000,"station_id":"ce4bgs12rcd13ifvqcag","pricing_plan_id":"cebpf4jnsgd1na2vs0mg"},{"bike_id":"8a394953-fc59-42a2-ae5c-ade04897b562","system_id":"levelo_inurba_marseille","lat":43.2417,"lon":5.36391,"is_reserved":false,"is_disabled":false,"rental_uris":{"android":"levelo://app?vid=8a394953-fc59-42a2-ae5c-ade04897b562","ios":"levelo://app?vid=8a394953-fc59-42a2-ae5c-ade04897b562"},"vehicle_type_id":"4","last_reported":1745572243,"current_range_meters":8400,"station_id":"cpo36qri1sfpv3e86is0","pricing_plan_id":"cebpf4jnsgd1na2vs0mg"},{"bike_id":"ac7e9454-ac51-4cb1-ac14-dc38f2ed9c5d","system_id":"levelo_inurba_marseille","lat":43.26794,"lon":5.39385,"is_reserved":false,"is_disabled":false,"rental_uris":{"android":"levelo://app?vid=ac7e9454-ac51-4cb1-ac14-dc38f2ed9c5d","ios":"levelo://app?vid=ac7e9454-ac51-4cb1-ac14-dc38f2ed9c5d"},"vehicle_type_id":"4","last_reported":1745572243,"current_range_meters":8000,"station_id":"ce4bhh12rcd13ifvqfg0","pricing_plan_id":"cebpf4jnsgd1na2vs0mg"},{"bike_id":"73f3754a-5006-44ec-acb0-ff150592d68c","system_id":"levelo_inurba_marseille","lat":43.25123,"lon":5.40317,"is_reserved":false,"is_disabled":false,"rental_uris":{"android":"levelo://app?vid=73f3754a-5006-44ec-acb0-ff150592d68c","ios":"levelo://app?vid=73f3754a-5006-44ec-acb0-ff150592d68c"},"vehicle_type_id":"4","last_reported":1745572243,"current_range_meters":8400,"station_id":"ce4bhlh2rcd13ifvqgig","pricing_plan_id":"cebpf4jnsgd1na2vs0mg"},{"bike_id":"d7ffe491-12c9-4441-a251-cbfb52402148","system_id":"levelo_inurba_marseille","lat":43.25002,"lon":5.38921,"is_reserved":false,"is_disabled":false,"rental_uris":{"android":"levelo://app?vid=d7ffe491-12c9-4441-a251-cbfb52402148","ios":"levelo://app?vid=d7ffe491-12c9-4441-a251-cbfb52402148"},"vehicle_type_id":"4","last_reported":1745572243,"current_range_meters":8400,"station_id":"ce4bhgp2rcd13ifvqfd0","pricing_plan_id":"cebpf4jnsgd1na2vs0mg"},{"bike_id":"59e1a400-a4e1-4a8f-b8e8-1eca39c7f697","system_id":"levelo_inurba_marseille","lat":43.29297,"lon":5.37452,"is_reserved":false,"is_disabled":false,"rental_uris":{"android":"levelo://app?vid=59e1a400-a4e1-4a8f-b8e8-1eca39c7f697","ios":"levelo://app?vid=59e1a400-a4e1-4a8f-b8e8-1eca39c7f697"},"vehicle_type_id":"4","last_reported":1745572243,"current_range_meters":8800,"station_id":"ce4bgi12rcd13ifvqb70","pricing_plan_id":"cebpf4jnsgd1na2vs0mg"},{"bike_id":"f61f9b03-e055-47b7-9cda-da22b923ec7e","system_id":"levelo_inurba_marseille","lat":43.2591,"lon":5.40857,"is_reserved":false,"is_disabled":false,"rental_uris":{"android":"levelo://app?vid=f61f9b03-e055-47b7-9cda-da22b923ec7e","ios":"levelo://app?vid=f61f9b03-e055-47b7-9cda-da22b923ec7e"},"vehicle_type_id":"4","last_reported":1745572243,"current_range_meters":8800,"station_id":"ce4bhm92rcd13ifvqglg","pricing_plan_id":"cebpf4jnsgd1na2vs0mg"},{"bike_id":"466274b7-bf82-4010-9214-220ecb1658fd","system_id":"levelo_inurba_marseille","lat":43.21742,"lon":5.34614,"is_reserved":false,"is_disabled":false,"rental_uris":{"android":"levelo://app?vid=466274b7-bf82-4010-9214-220ecb1658fd","ios":"levelo://app?vid=466274b7-bf82-4010-9214-220ecb1658fd"},"vehicle_type_id":"4","last_reported":1745572243,"current_range_meters":8800,"station_id":"st_cvj6r9ubvosntc0bgbag","pricing_plan_id":"cebpf4jnsgd1na2vs0mg"},{"bike_id":"5db3c80d-6d2a-44ba-8090-ab498186ef2b","system_id":"levelo_inurba_marseille","lat":43.27201,"lon":5.39126,"is_reserved":false,"is_disabled":false,"rental_uris":{"android":"levelo://app?vid=5db3c80d-6d2a-44ba-8090-ab498186ef2b","ios":"levelo://app?vid=5db3c80d-6d2a-44ba-8090-ab498186ef2b"},"vehicle_type_id":"4","last_reported":1745572243,"current_range_meters":8800,"station_id":"ce4bhhp2rcd13ifvqfm0","pricing_plan_id":"cebpf4jnsgd1na2vs0mg"},{"bike_id":"5ae42cad-c053-44eb-9fc9-a70afa911cbb","system_id":"levelo_inurba_marseille","lat":43.30933,"lon":5.40138,"is_reserved":false,"is_disabled":false,"rental_uris":{"android":"levelo://app?vid=5ae42cad-c053-44eb-9fc9-a70afa911cbb","ios":"levelo://app?vid=5ae42cad-c053-44eb-9fc9-a70afa911cbb"},"vehicle_type_id":"4","last_reported":1745572243,"current_range_meters":8800,"station_id":"ce4bgvp2rcd13ifvqct0","pricing_plan_id":"cebpf4jnsgd1na2vs0mg"},{"bike_id":"908f42eb-8230-402e-921d-2ddb58bc5421","system_id":"levelo_inurba_marseille","lat":43.25111,"lon":5.40316,"is_reserved":false,"is_disabled":false,"rental_uris":{"android":"levelo://app?vid=908f42eb-8230-402e-921d-2ddb58bc5421","ios":"levelo://app?vid=908f42eb-8230-402e-921d-2ddb58bc5421"},"vehicle_type_id":"4","last_reported":1745572243,"current_range_meters":8800,"station_id":"ce4bhlh2rcd13ifvqgig","pricing_plan_id":"cebpf4jnsgd1na2vs0mg"},{"bike_id":"3f4fffef-9d06-4513-a8be-a4167b14ccb8","system_id":"levelo_inurba_marseille","lat":43.31,"lon":5.3715,"is_reserved":false,"is_disabled":false,"rental_uris":{"android":"levelo://app?vid=3f4fffef-9d06-4513-a8be-a4167b14ccb8","ios":"levelo://app?vid=3f4fffef-9d06-4513-a8be-a4167b14ccb8"},"vehicle_type_id":"4","last_reported":1745572243,"current_range_meters":9200,"station_id":"","pricing_plan_id":"cebpf4jnsgd1na2vs0mg"},{"bike_id":"60ac0950-9e78-423b-aad7-b10dfa847ae1","system_id":"levelo_inurba_marseille","lat":43.30184,"lon":5.36618,"is_reserved":false,"is_disabled":false,"rental_uris":{"android":"levelo://app?vid=60ac0950-9e78-423b-aad7-b10dfa847ae1","ios":"levelo://app?vid=60ac0950-9e78-423b-aad7-b10dfa847ae1"},"vehicle_type_id":"4","last_reported":1745572243,"current_range_meters":9200,"station_id":"ce4bgrh2rcd13ifvqc8g","pricing_plan_id":"cebpf4jnsgd1na2vs0mg"},{"bike_id":"0bc760ef-90f9-4ba4-b749-00a7cb267a0a","system_id":"levelo_inurba_marseille","lat":43.273173,"lon":5.390617,"is_reserved":false,"is_disabled":false,"rental_uris":{"android":"levelo://app?vid=0bc760ef-90f9-4ba4-b749-00a7cb267a0a","ios":"levelo://app?vid=0bc760ef-90f9-4ba4-b749-00a7cb267a0a"},"vehicle_type_id":"4","last_reported":1745572243,"current_range_meters":9200,"station_id":"ce4bhgp2rcd13ifvqfe0","pricing_plan_id":"cebpf4jnsgd1na2vs0mg"},{"bike_id":"2d57cfc0-ec9e-4e31-96d7-992332debd6e","system_id":"levelo_inurba_marseille","lat":43.23149,"lon":5.43714,"is_reserved":false,"is_disabled":false,"rental_uris":{"android":"levelo://app?vid=2d57cfc0-ec9e-4e31-96d7-992332debd6e","ios":"levelo://app?vid=2d57cfc0-ec9e-4e31-96d7-992332debd6e"},"vehicle_type_id":"4","last_reported":1745572243,"current_range_meters":9200,"station_id":"ce4bhmp2rcd13ifvqgog","pricing_plan_id":"cebpf4jnsgd1na2vs0mg"},{"bike_id":"3a41a14b-b60d-411c-aa4a-3b7d3df773ad","system_id":"levelo_inurba_marseille","lat":43.30201,"lon":5.36608,"is_reserved":false,"is_disabled":false,"rental_uris":{"android":"levelo://app?vid=3a41a14b-b60d-411c-aa4a-3b7d3df773ad","ios":"levelo://app?vid=3a41a14b-b60d-411c-aa4a-3b7d3df773ad"},"vehicle_type_id":"4","last_reported":1745572243,"current_range_meters":9200,"station_id":"ce4bgrh2rcd13ifvqc8g","pricing_plan_id":"cebpf4jnsgd1na2vs0mg"},{"bike_id":"d4a8fafa-88a7-48bf-b5a7-839e5bc03db8","system_id":"levelo_inurba_marseille","lat":43.25033,"lon":5.38884,"is_reserved":false,"is_disabled":false,"rental_uris":{"android":"levelo://app?vid=d4a8fafa-88a7-48bf-b5a7-839e5bc03db8","ios":"levelo://app?vid=d4a8fafa-88a7-48bf-b5a7-839e5bc03db8"},"vehicle_type_id":"4","last_reported":1745572243,"current_range_meters":9200,"station_id":"ce4bhgp2rcd13ifvqfd0","pricing_plan_id":"cebpf4jnsgd1na2vs0mg"},{"bike_id":"36bd3adf-7ce9-4a52-be8a-6cfe613de8f0","system_id":"levelo_inurba_marseille","lat":43.29846,"lon":5.36282,"is_reserved":false,"is_disabled":false,"rental_uris":{"android":"levelo://app?vid=36bd3adf-7ce9-4a52-be8a-6cfe613de8f0","ios":"levelo://app?vid=36bd3adf-7ce9-4a52-be8a-6cfe613de8f0"},"vehicle_type_id":"4","last_reported":1745572243,"current_range_meters":9200,"station_id":"ce4bgpp2rcd13ifvqc3g","pricing_plan_id":"cebpf4jnsgd1na2vs0mg"},{"bike_id":"0eeeaf0c-777b-4b30-a88e-5bdd3451b176","system_id":"levelo_inurba_marseille","lat":43.27569,"lon":5.38416,"is_reserved":false,"is_disabled":false,"rental_uris":{"android":"levelo://app?vid=0eeeaf0c-777b-4b30-a88e-5bdd3451b176","ios":"levelo://app?vid=0eeeaf0c-777b-4b30-a88e-5bdd3451b176"},"vehicle_type_id":"4","last_reported":1745572243,"current_range_meters":9200,"station_id":"ce4bhh92rcd13ifvqfi0","pricing_plan_id":"cebpf4jnsgd1na2vs0mg"},{"bike_id":"ac5c5de7-7ad6-478d-a966-7f4240d265db","system_id":"levelo_inurba_marseille","lat":43.31255,"lon":5.37167,"is_reserved":false,"is_disabled":false,"rental_uris":{"android":"levelo://app?vid=ac5c5de7-7ad6-478d-a966-7f4240d265db","ios":"levelo://app?vid=ac5c5de7-7ad6-478d-a966-7f4240d265db"},"vehicle_type_id":"4","last_reported":1745572243,"current_range_meters":9600,"station_id":"","pricing_plan_id":"cebpf4jnsgd1na2vs0mg"},{"bike_id":"4a1c18ff-759f-4a59-8ede-378a8968613d","system_id":"levelo_inurba_marseille","lat":43.29785,"lon":5.37103,"is_reserved":false,"is_disabled":false,"rental_uris":{"android":"levelo://app?vid=4a1c18ff-759f-4a59-8ede-378a8968613d","ios":"levelo://app?vid=4a1c18ff-759f-4a59-8ede-378a8968613d"},"vehicle_type_id":"4","last_reported":1745572243,"current_range_meters":9600,"station_id":"ce4bgop2rcd13ifvqc1g","pricing_plan_id":"cebpf4jnsgd1na2vs0mg"},{"bike_id":"6b0d1ec6-0d77-4bd1-9dce-9054c2481ed1","system_id":"levelo_inurba_marseille","lat":43.24385,"lon":5.37061,"is_reserved":false,"is_disabled":false,"rental_uris":{"android":"levelo://app?vid=6b0d1ec6-0d77-4bd1-9dce-9054c2481ed1","ios":"levelo://app?vid=6b0d1ec6-0d77-4bd1-9dce-9054c2481ed1"},"vehicle_type_id":"4","last_reported":1745572243,"current_range_meters":9600,"station_id":"ce4bhhh2rcd13ifvqfk0","pricing_plan_id":"cebpf4jnsgd1na2vs0mg"},{"bike_id":"70a7ed10-8950-40cc-aae6-c0cab6f96f24","system_id":"levelo_inurba_marseille","lat":43.29504,"lon":5.37487,"is_reserved":false,"is_disabled":false,"rental_uris":{"android":"levelo://app?vid=70a7ed10-8950-40cc-aae6-c0cab6f96f24","ios":"levelo://app?vid=70a7ed10-8950-40cc-aae6-c0cab6f96f24"},"vehicle_type_id":"4","last_reported":1745572243,"current_range_meters":9600,"station_id":"ce4bgkp2rcd13ifvqbmg","pricing_plan_id":"cebpf4jnsgd1na2vs0mg"},{"bike_id":"df4bf57e-1775-40b2-994e-c9e7063ca69e","system_id":"levelo_inurba_marseille","lat":43.26802,"lon":5.40266,"is_reserved":false,"is_disabled":false,"rental_uris":{"android":"levelo://app?vid=df4bf57e-1775-40b2-994e-c9e7063ca69e","ios":"levelo://app?vid=df4bf57e-1775-40b2-994e-c9e7063ca69e"},"vehicle_type_id":"4","last_reported":1745572243,"current_range_meters":10000,"station_id":"ce501612rcd8frsf0b60","pricing_plan_id":"cebpf4jnsgd1na2vs0mg"},{"bike_id":"6fd96f49-3dbe-4c12-90e8-556e788b93d1","system_id":"levelo_inurba_marseille","lat":43.29775,"lon":5.37104,"is_reserved":false,"is_disabled":false,"rental_uris":{"android":"levelo://app?vid=6fd96f49-3dbe-4c12-90e8-556e788b93d1","ios":"levelo://app?vid=6fd96f49-3dbe-4c12-90e8-556e788b93d1"},"vehicle_type_id":"4","last_reported":1745572243,"current_range_meters":10000,"station_id":"ce4bgop2rcd13ifvqc1g","pricing_plan_id":"cebpf4jnsgd1na2vs0mg"},{"bike_id":"b1288da2-6a65-44a2-b3cb-535de8427b1c","system_id":"levelo_inurba_marseille","lat":43.3134,"lon":5.36723,"is_reserved":false,"is_disabled":true,"rental_uris":{"android":"levelo://app?vid=b1288da2-6a65-44a2-b3cb-535de8427b1c","ios":"levelo://app?vid=b1288da2-6a65-44a2-b3cb-535de8427b1c"},"vehicle_type_id":"4","last_reported":1745572243,"current_range_meters":10000,"station_id":"ce4bgr92rcd13ifvqc6g","pricing_plan_id":"cebpf4jnsgd1na2vs0mg"},{"bike_id":"53d0a9a9-20a9-487e-893c-b675a9c66550","system_id":"levelo_inurba_marseille","lat":43.2417,"lon":5.36397,"is_reserved":false,"is_disabled":false,"rental_uris":{"android":"levelo://app?vid=53d0a9a9-20a9-487e-893c-b675a9c66550","ios":"levelo://app?vid=53d0a9a9-20a9-487e-893c-b675a9c66550"},"vehicle_type_id":"4","last_reported":1745572243,"current_range_meters":10000,"station_id":"cpo36qri1sfpv3e86is0","pricing_plan_id":"cebpf4jnsgd1na2vs0mg"},{"bike_id":"9a26c0ff-1f84-43d6-a87e-a9f161e7242c","system_id":"levelo_inurba_marseille","lat":43.25925,"lon":5.4087,"is_reserved":false,"is_disabled":false,"rental_uris":{"android":"levelo://app?vid=9a26c0ff-1f84-43d6-a87e-a9f161e7242c","ios":"levelo://app?vid=9a26c0ff-1f84-43d6-a87e-a9f161e7242c"},"vehicle_type_id":"4","last_reported":1745572243,"current_range_meters":10000,"station_id":"ce4bhm92rcd13ifvqglg","pricing_plan_id":"cebpf4jnsgd1na2vs0mg"},{"bike_id":"96328779-8465-4c3b-9745-8c85a07628fd","system_id":"levelo_inurba_marseille","lat":43.30539,"lon":5.36717,"is_reserved":false,"is_disabled":false,"rental_uris":{"android":"levelo://app?vid=96328779-8465-4c3b-9745-8c85a07628fd","ios":"levelo://app?vid=96328779-8465-4c3b-9745-8c85a07628fd"},"vehicle_type_id":"4","last_reported":1745572243,"current_range_meters":10000,"station_id":"ce4bgrp2rcd13ifvqc9g","pricing_plan_id":"cebpf4jnsgd1na2vs0mg"},{"bike_id":"a0ab43a8-9a02-43de-8ac8-454805e35412","system_id":"levelo_inurba_marseille","lat":43.28621,"lon":5.35101,"is_reserved":false,"is_disabled":false,"rental_uris":{"android":"levelo://app?vid=a0ab43a8-9a02-43de-8ac8-454805e35412","ios":"levelo://app?vid=a0ab43a8-9a02-43de-8ac8-454805e35412"},"vehicle_type_id":"4","last_reported":1745572243,"current_range_meters":10800,"station_id":"ce4bhch2rcd13ifvqeug","pricing_plan_id":"cebpf4jnsgd1na2vs0mg"},{"bike_id":"124c2197-bcaf-482a-85a5-3bed9376d976","system_id":"levelo_inurba_marseille","lat":43.2513,"lon":5.40335,"is_reserved":false,"is_disabled":false,"rental_uris":{"android":"levelo://app?vid=124c2197-bcaf-482a-85a5-3bed9376d976","ios":"levelo://app?vid=124c2197-bcaf-482a-85a5-3bed9376d976"},"vehicle_type_id":"4","last_reported":1745572243,"current_range_meters":10800,"station_id":"ce4bhlh2rcd13ifvqgig","pricing_plan_id":"cebpf4jnsgd1na2vs0mg"},{"bike_id":"a1a1b6df-28f2-48df-9cd0-f90ee39e55ce","system_id":"levelo_inurba_marseille","lat":43.30256,"lon":5.40048,"is_reserved":false,"is_disabled":false,"rental_uris":{"android":"levelo://app?vid=a1a1b6df-28f2-48df-9cd0-f90ee39e55ce","ios":"levelo://app?vid=a1a1b6df-28f2-48df-9cd0-f90ee39e55ce"},"vehicle_type_id":"4","last_reported":1745572243,"current_range_meters":10800,"station_id":"ce4bgvh2rcd13ifvqcs0","pricing_plan_id":"cebpf4jnsgd1na2vs0mg"},{"bike_id":"40bf27de-8979-42db-b299-3a50254f0c30","system_id":"levelo_inurba_marseille","lat":43.29532,"lon":5.37503,"is_reserved":false,"is_disabled":false,"rental_uris":{"android":"levelo://app?vid=40bf27de-8979-42db-b299-3a50254f0c30","ios":"levelo://app?vid=40bf27de-8979-42db-b299-3a50254f0c30"},"vehicle_type_id":"4","last_reported":1745572243,"current_range_meters":10000,"station_id":"ce4bgkp2rcd13ifvqbmg","pricing_plan_id":"cebpf4jnsgd1na2vs0mg"},{"bike_id":"13ff4cf5-f688-417b-b8aa-1fdee8b2cce6","system_id":"levelo_inurba_marseille","lat":43.25577,"lon":5.38226,"is_reserved":false,"is_disabled":false,"rental_uris":{"android":"levelo://app?vid=13ff4cf5-f688-417b-b8aa-1fdee8b2cce6","ios":"levelo://app?vid=13ff4cf5-f688-417b-b8aa-1fdee8b2cce6"},"vehicle_type_id":"4","last_reported":1745572243,"current_range_meters":10800,"station_id":"ce4bhih2rcd13ifvqfs0","pricing_plan_id":"cebpf4jnsgd1na2vs0mg"},{"bike_id":"9ad61fe9-7322-4913-9622-e59ef186890e","system_id":"levelo_inurba_marseille","lat":43.27207,"lon":5.39178,"is_reserved":false,"is_disabled":false,"rental_uris":{"android":"levelo://app?vid=9ad61fe9-7322-4913-9622-e59ef186890e","ios":"levelo://app?vid=9ad61fe9-7322-4913-9622-e59ef186890e"},"vehicle_type_id":"4","last_reported":1745572243,"current_range_meters":10800,"station_id":"ce4bhhp2rcd13ifvqfm0","pricing_plan_id":"cebpf4jnsgd1na2vs0mg"},{"bike_id":"2b4410c3-d317-45b9-b841-a75b34f875bd","system_id":"levelo_inurba_marseille","lat":43.308842,"lon":5.371929,"is_reserved":false,"is_disabled":false,"rental_uris":{"android":"levelo://app?vid=2b4410c3-d317-45b9-b841-a75b34f875bd","ios":"levelo://app?vid=2b4410c3-d317-45b9-b841-a75b34f875bd"},"vehicle_type_id":"4","last_reported":1745572243,"current_range_meters":10800,"station_id":"ce4bguh2rcd13ifvqckg","pricing_plan_id":"cebpf4jnsgd1na2vs0mg"},{"bike_id":"d2aa4f08-82ea-428b-8a43-20481eff7a37","system_id":"levelo_inurba_marseille","lat":43.32289,"lon":5.38267,"is_reserved":false,"is_disabled":false,"rental_uris":{"android":"levelo://app?vid=d2aa4f08-82ea-428b-8a43-20481eff7a37","ios":"levelo://app?vid=d2aa4f08-82ea-428b-8a43-20481eff7a37"},"vehicle_type_id":"4","last_reported":1745572243,"current_range_meters":10800,"station_id":"ce4bhr12rcd13ifvqhqg","pricing_plan_id":"cebpf4jnsgd1na2vs0mg"},{"bike_id":"4da82ac5-83fe-462e-b2ef-028dfdeb2bbc","system_id":"levelo_inurba_marseille","lat":43.21747,"lon":5.34593,"is_reserved":false,"is_disabled":true,"rental_uris":{"android":"levelo://app?vid=4da82ac5-83fe-462e-b2ef-028dfdeb2bbc","ios":"levelo://app?vid=4da82ac5-83fe-462e-b2ef-028dfdeb2bbc"},"vehicle_type_id":"4","last_reported":1745572243,"current_range_meters":10800,"station_id":"st_cvj6r9ubvosntc0bgbag","pricing_plan_id":"cebpf4jnsgd1na2vs0mg"},{"bike_id":"1363e770-344e-44eb-8fc8-a6d68d0a8df0","system_id":"levelo_inurba_marseille","lat":43.28989,"lon":5.37827,"is_reserved":false,"is_disabled":false,"rental_uris":{"android":"levelo://app?vid=1363e770-344e-44eb-8fc8-a6d68d0a8df0","ios":"levelo://app?vid=1363e770-344e-44eb-8fc8-a6d68d0a8df0"},"vehicle_type_id":"4","last_reported":1745572243,"current_range_meters":10800,"station_id":"ce4bh9p2rcd13ifvqed0","pricing_plan_id":"cebpf4jnsgd1na2vs0mg"},{"bike_id":"cdcbf8be-2932-4502-bf39-4fcd0622d6af","system_id":"levelo_inurba_marseille","lat":43.231522,"lon":5.437049,"is_reserved":false,"is_disabled":false,"rental_uris":{"android":"levelo://app?vid=cdcbf8be-2932-4502-bf39-4fcd0622d6af","ios":"levelo://app?vid=cdcbf8be-2932-4502-bf39-4fcd0622d6af"},"vehicle_type_id":"4","last_reported":1745572243,"current_range_meters":10800,"station_id":"ce4bhip2rcd13ifvqft0","pricing_plan_id":"cebpf4jnsgd1na2vs0mg"},{"bike_id":"34876d7c-4c8e-4f8a-a257-4c40dc271a2f","system_id":"levelo_inurba_marseille","lat":43.28278,"lon":5.35075,"is_reserved":false,"is_disabled":false,"rental_uris":{"android":"levelo://app?vid=34876d7c-4c8e-4f8a-a257-4c40dc271a2f","ios":"levelo://app?vid=34876d7c-4c8e-4f8a-a257-4c40dc271a2f"},"vehicle_type_id":"4","last_reported":1745572243,"current_range_meters":11200,"station_id":"ce4bhbp2rcd13ifvqerg","pricing_plan_id":"cebpf4jnsgd1na2vs0mg"},{"bike_id":"61d21c0b-69d2-40de-a9f0-28a981c8a97d","system_id":"levelo_inurba_marseille","lat":43.30915,"lon":5.36853,"is_reserved":false,"is_disabled":false,"rental_uris":{"android":"levelo://app?vid=61d21c0b-69d2-40de-a9f0-28a981c8a97d","ios":"levelo://app?vid=61d21c0b-69d2-40de-a9f0-28a981c8a97d"},"vehicle_type_id":"4","last_reported":1745572243,"current_range_meters":11200,"station_id":"ce4bgn92rcd13ifvqbvg","pricing_plan_id":"cebpf4jnsgd1na2vs0mg"},{"bike_id":"ff775cda-8a6b-46f9-8eef-fc04da40e1bb","system_id":"levelo_inurba_marseille","lat":43.290832,"lon":5.380992,"is_reserved":false,"is_disabled":false,"rental_uris":{"android":"levelo://app?vid=ff775cda-8a6b-46f9-8eef-fc04da40e1bb","ios":"levelo://app?vid=ff775cda-8a6b-46f9-8eef-fc04da40e1bb"},"vehicle_type_id":"4","last_reported":1745572243,"current_range_meters":11200,"station_id":"ce4bh512rcd13ifvqe2g","pricing_plan_id":"cebpf4jnsgd1na2vs0mg"},{"bike_id":"32ebd854-6bac-4169-98b6-4b4662994702","system_id":"levelo_inurba_marseille","lat":43.26688,"lon":5.38268,"is_reserved":false,"is_disabled":false,"rental_uris":{"android":"levelo://app?vid=32ebd854-6bac-4169-98b6-4b4662994702","ios":"levelo://app?vid=32ebd854-6bac-4169-98b6-4b4662994702"},"vehicle_type_id":"4","last_reported":1745572243,"current_range_meters":11600,"station_id":"ce4bhg92rcd13ifvqf90","pricing_plan_id":"cebpf4jnsgd1na2vs0mg"},{"bike_id":"8d51d86c-dd5b-4af1-b7d4-c34a7e6b4101","system_id":"levelo_inurba_marseille","lat":43.27567,"lon":5.38412,"is_reserved":false,"is_disabled":false,"rental_uris":{"android":"levelo://app?vid=8d51d86c-dd5b-4af1-b7d4-c34a7e6b4101","ios":"levelo://app?vid=8d51d86c-dd5b-4af1-b7d4-c34a7e6b4101"},"vehicle_type_id":"4","last_reported":1745572243,"current_range_meters":11600,"station_id":"ce4bhh92rcd13ifvqfi0","pricing_plan_id":"cebpf4jnsgd1na2vs0mg"},{"bike_id":"ec233356-9498-4c66-bedf-01f7e2bd86ee","system_id":"levelo_inurba_marseille","lat":43.24178,"lon":5.3973,"is_reserved":false,"is_disabled":false,"rental_uris":{"android":"levelo://app?vid=ec233356-9498-4c66-bedf-01f7e2bd86ee","ios":"levelo://app?vid=ec233356-9498-4c66-bedf-01f7e2bd86ee"},"vehicle_type_id":"4","last_reported":1745572243,"current_range_meters":11600,"station_id":"ce4bhn12rcd13ifvqgpg","pricing_plan_id":"cebpf4jnsgd1na2vs0mg"},{"bike_id":"fbcbafb3-bd9e-4787-b986-5f3d88a01f9d","system_id":"levelo_inurba_marseille","lat":43.30906,"lon":5.3685,"is_reserved":false,"is_disabled":false,"rental_uris":{"android":"levelo://app?vid=fbcbafb3-bd9e-4787-b986-5f3d88a01f9d","ios":"levelo://app?vid=fbcbafb3-bd9e-4787-b986-5f3d88a01f9d"},"vehicle_type_id":"4","last_reported":1745572243,"current_range_meters":11600,"station_id":"ce4bgn92rcd13ifvqbvg","pricing_plan_id":"cebpf4jnsgd1na2vs0mg"},{"bike_id":"bd95f0bb-c5b1-4d5c-837c-b505e5069d47","system_id":"levelo_inurba_marseille","lat":43.33232,"lon":5.39767,"is_reserved":false,"is_disabled":false,"rental_uris":{"android":"levelo://app?vid=bd95f0bb-c5b1-4d5c-837c-b505e5069d47","ios":"levelo://app?vid=bd95f0bb-c5b1-4d5c-837c-b505e5069d47"},"vehicle_type_id":"4","last_reported":1745572243,"current_range_meters":11600,"station_id":"","pricing_plan_id":"cebpf4jnsgd1na2vs0mg"},{"bike_id":"1a9b9ba2-6e5a-4697-beb7-5c65923a8b43","system_id":"levelo_inurba_marseille","lat":43.26787,"lon":5.39418,"is_reserved":false,"is_disabled":true,"rental_uris":{"android":"levelo://app?vid=1a9b9ba2-6e5a-4697-beb7-5c65923a8b43","ios":"levelo://app?vid=1a9b9ba2-6e5a-4697-beb7-5c65923a8b43"},"vehicle_type_id":"4","last_reported":1745572243,"current_range_meters":12000,"station_id":"ce4bhh12rcd13ifvqfg0","pricing_plan_id":"cebpf4jnsgd1na2vs0mg"},{"bike_id":"05f865ab-dda8-4fbd-affd-df3fa08ecb5c","system_id":"levelo_inurba_marseille","lat":43.28343,"lon":5.38105,"is_reserved":false,"is_disabled":false,"rental_uris":{"android":"levelo://app?vid=05f865ab-dda8-4fbd-affd-df3fa08ecb5c","ios":"levelo://app?vid=05f865ab-dda8-4fbd-affd-df3fa08ecb5c"},"vehicle_type_id":"4","last_reported":1745572243,"current_range_meters":12000,"station_id":"ce4bh412rcd13ifvqdr0","pricing_plan_id":"cebpf4jnsgd1na2vs0mg"},{"bike_id":"2f9bcd40-e058-46a9-a414-1794700964e9","system_id":"levelo_inurba_marseille","lat":43.24068,"lon":5.37762,"is_reserved":false,"is_disabled":false,"rental_uris":{"android":"levelo://app?vid=2f9bcd40-e058-46a9-a414-1794700964e9","ios":"levelo://app?vid=2f9bcd40-e058-46a9-a414-1794700964e9"},"vehicle_type_id":"4","last_reported":1745572243,"current_range_meters":12000,"station_id":"ce4bhnp2rcd13ifvqgvg","pricing_plan_id":"cebpf4jnsgd1na2vs0mg"},{"bike_id":"5c8dde23-03af-4ec7-8c64-b6a7b95cfa5a","system_id":"levelo_inurba_marseille","lat":43.33655,"lon":5.39271,"is_reserved":false,"is_disabled":false,"rental_uris":{"android":"levelo://app?vid=5c8dde23-03af-4ec7-8c64-b6a7b95cfa5a","ios":"levelo://app?vid=5c8dde23-03af-4ec7-8c64-b6a7b95cfa5a"},"vehicle_type_id":"4","last_reported":1745572243,"current_range_meters":12000,"station_id":"","pricing_plan_id":"cebpf4jnsgd1na2vs0mg"},{"bike_id":"eec9858d-c56b-4adb-8dcc-99c8a24d8c28","system_id":"levelo_inurba_marseille","lat":43.269228,"lon":5.388782,"is_reserved":false,"is_disabled":false,"rental_uris":{"android":"levelo://app?vid=eec9858d-c56b-4adb-8dcc-99c8a24d8c28","ios":"levelo://app?vid=eec9858d-c56b-4adb-8dcc-99c8a24d8c28"},"vehicle_type_id":"4","last_reported":1745572243,"current_range_meters":12000,"station_id":"ce4bhhh2rcd13ifvqfl0","pricing_plan_id":"cebpf4jnsgd1na2vs0mg"},{"bike_id":"7f445e45-0df4-4cd0-ac64-186ae2e867bc","system_id":"levelo_inurba_marseille","lat":43.29706,"lon":5.36609,"is_reserved":false,"is_disabled":false,"rental_uris":{"android":"levelo://app?vid=7f445e45-0df4-4cd0-ac64-186ae2e867bc","ios":"levelo://app?vid=7f445e45-0df4-4cd0-ac64-186ae2e867bc"},"vehicle_type_id":"4","last_reported":1745572243,"current_range_meters":12400,"station_id":"ce4bgn12rcd13ifvqbt0","pricing_plan_id":"cebpf4jnsgd1na2vs0mg"},{"bike_id":"b7fa553d-7757-490d-adcb-0bafe1169148","system_id":"levelo_inurba_marseille","lat":43.27492,"lon":5.42457,"is_reserved":false,"is_disabled":false,"rental_uris":{"android":"levelo://app?vid=b7fa553d-7757-490d-adcb-0bafe1169148","ios":"levelo://app?vid=b7fa553d-7757-490d-adcb-0bafe1169148"},"vehicle_type_id":"4","last_reported":1745572243,"current_range_meters":12400,"station_id":"ce4bhn92rcd13ifvqgrg","pricing_plan_id":"cebpf4jnsgd1na2vs0mg"},{"bike_id":"6c18c0f5-85de-4b18-a1a9-5d893ce30a6b","system_id":"levelo_inurba_marseille","lat":43.28261,"lon":5.35071,"is_reserved":false,"is_disabled":false,"rental_uris":{"android":"levelo://app?vid=6c18c0f5-85de-4b18-a1a9-5d893ce30a6b","ios":"levelo://app?vid=6c18c0f5-85de-4b18-a1a9-5d893ce30a6b"},"vehicle_type_id":"4","last_reported":1745572243,"current_range_meters":12800,"station_id":"ce4bhbp2rcd13ifvqerg","pricing_plan_id":"cebpf4jnsgd1na2vs0mg"},{"bike_id":"54343e6a-839e-4b43-875e-35e3dde0e5cd","system_id":"levelo_inurba_marseille","lat":43.29107,"lon":5.38117,"is_reserved":false,"is_disabled":false,"rental_uris":{"android":"levelo://app?vid=54343e6a-839e-4b43-875e-35e3dde0e5cd","ios":"levelo://app?vid=54343e6a-839e-4b43-875e-35e3dde0e5cd"},"vehicle_type_id":"4","last_reported":1745572243,"current_range_meters":12800,"station_id":"ce4bh512rcd13ifvqe2g","pricing_plan_id":"cebpf4jnsgd1na2vs0mg"},{"bike_id":"f95fa7cd-a826-4571-af94-91b1215164fb","system_id":"levelo_inurba_marseille","lat":43.30154,"lon":5.38101,"is_reserved":false,"is_disabled":false,"rental_uris":{"android":"levelo://app?vid=f95fa7cd-a826-4571-af94-91b1215164fb","ios":"levelo://app?vid=f95fa7cd-a826-4571-af94-91b1215164fb"},"vehicle_type_id":"4","last_reported":1745572243,"current_range_meters":13600,"station_id":"ce4bgjp2rcd13ifvqbh0","pricing_plan_id":"cebpf4jnsgd1na2vs0mg"},{"bike_id":"03ec5728-5a8d-475c-be69-d63e54c8d683","system_id":"levelo_inurba_marseille","lat":43.3246,"lon":5.36716,"is_reserved":false,"is_disabled":false,"rental_uris":{"android":"levelo://app?vid=03ec5728-5a8d-475c-be69-d63e54c8d683","ios":"levelo://app?vid=03ec5728-5a8d-475c-be69-d63e54c8d683"},"vehicle_type_id":"4","last_reported":1745572243,"current_range_meters":14000,"station_id":"","pricing_plan_id":"cebpf4jnsgd1na2vs0mg"},{"bike_id":"7fc5ed43-b2c3-4cf7-b081-488a7cbcc12f","system_id":"levelo_inurba_marseille","lat":43.33039,"lon":5.38991,"is_reserved":false,"is_disabled":false,"rental_uris":{"android":"levelo://app?vid=7fc5ed43-b2c3-4cf7-b081-488a7cbcc12f","ios":"levelo://app?vid=7fc5ed43-b2c3-4cf7-b081-488a7cbcc12f"},"vehicle_type_id":"4","last_reported":1745572243,"current_range_meters":14000,"station_id":"ce4bhr92rcd13ifvqhrg","pricing_plan_id":"cebpf4jnsgd1na2vs0mg"},{"bike_id":"f12a9a5e-89bc-4406-8d33-ee6c190982eb","system_id":"levelo_inurba_marseille","lat":43.30313,"lon":5.3691,"is_reserved":false,"is_disabled":false,"rental_uris":{"android":"levelo://app?vid=f12a9a5e-89bc-4406-8d33-ee6c190982eb","ios":"levelo://app?vid=f12a9a5e-89bc-4406-8d33-ee6c190982eb"},"vehicle_type_id":"4","last_reported":1745572243,"current_range_meters":14000,"station_id":"ce4bgqh2rcd13ifvqc5g","pricing_plan_id":"cebpf4jnsgd1na2vs0mg"},{"bike_id":"e2e20bd5-bb02-4ee5-8bdb-c30abd189d68","system_id":"levelo_inurba_marseille","lat":43.25911,"lon":5.40857,"is_reserved":false,"is_disabled":false,"rental_uris":{"android":"levelo://app?vid=e2e20bd5-bb02-4ee5-8bdb-c30abd189d68","ios":"levelo://app?vid=e2e20bd5-bb02-4ee5-8bdb-c30abd189d68"},"vehicle_type_id":"4","last_reported":1745572243,"current_range_meters":14000,"station_id":"ce4bhm92rcd13ifvqglg","pricing_plan_id":"cebpf4jnsgd1na2vs0mg"},{"bike_id":"0149febd-dce5-4902-b59f-a1994a511de8","system_id":"levelo_inurba_marseille","lat":43.23152,"lon":5.4372,"is_reserved":false,"is_disabled":false,"rental_uris":{"android":"levelo://app?vid=0149febd-dce5-4902-b59f-a1994a511de8","ios":"levelo://app?vid=0149febd-dce5-4902-b59f-a1994a511de8"},"vehicle_type_id":"4","last_reported":1745572243,"current_range_meters":14000,"station_id":"ce4bhmp2rcd13ifvqgog","pricing_plan_id":"cebpf4jnsgd1na2vs0mg"},{"bike_id":"7c2c4ee1-c89b-4648-b758-7633dd7cc733","system_id":"levelo_inurba_marseille","lat":43.29847,"lon":5.3627,"is_reserved":false,"is_disabled":false,"rental_uris":{"android":"levelo://app?vid=7c2c4ee1-c89b-4648-b758-7633dd7cc733","ios":"levelo://app?vid=7c2c4ee1-c89b-4648-b758-7633dd7cc733"},"vehicle_type_id":"4","last_reported":1745572243,"current_range_meters":14400,"station_id":"ce4bgpp2rcd13ifvqc3g","pricing_plan_id":"cebpf4jnsgd1na2vs0mg"},{"bike_id":"8367ddb0-0867-4100-9cec-223160e9b29b","system_id":"levelo_inurba_marseille","lat":43.23145,"lon":5.43718,"is_reserved":false,"is_disabled":false,"rental_uris":{"android":"levelo://app?vid=8367ddb0-0867-4100-9cec-223160e9b29b","ios":"levelo://app?vid=8367ddb0-0867-4100-9cec-223160e9b29b"},"vehicle_type_id":"4","last_reported":1745572243,"current_range_meters":14000,"station_id":"ce4bhmp2rcd13ifvqgog","pricing_plan_id":"cebpf4jnsgd1na2vs0mg"},{"bike_id":"00dd4008-b8cd-459b-8f24-a4218f6e8179","system_id":"levelo_inurba_marseille","lat":43.23193,"lon":5.35549,"is_reserved":false,"is_disabled":false,"rental_uris":{"android":"levelo://app?vid=00dd4008-b8cd-459b-8f24-a4218f6e8179","ios":"levelo://app?vid=00dd4008-b8cd-459b-8f24-a4218f6e8179"},"vehicle_type_id":"4","last_reported":1745572243,"current_range_meters":14400,"station_id":"ce4bhu92rcd13ifvqi70","pricing_plan_id":"cebpf4jnsgd1na2vs0mg"},{"bike_id":"35368d5c-bff1-4eea-ba67-cc7d5c3cd7c0","system_id":"levelo_inurba_marseille","lat":43.25495,"lon":5.37646,"is_reserved":false,"is_disabled":false,"rental_uris":{"android":"levelo://app?vid=35368d5c-bff1-4eea-ba67-cc7d5c3cd7c0","ios":"levelo://app?vid=35368d5c-bff1-4eea-ba67-cc7d5c3cd7c0"},"vehicle_type_id":"4","last_reported":1745572243,"current_range_meters":14400,"station_id":"ce4bhh12rcd13ifvqff0","pricing_plan_id":"cebpf4jnsgd1na2vs0mg"},{"bike_id":"e9b40b8c-aa8b-493b-9704-ac204b4fdb74","system_id":"levelo_inurba_marseille","lat":43.22503,"lon":5.34774,"is_reserved":false,"is_disabled":false,"rental_uris":{"android":"levelo://app?vid=e9b40b8c-aa8b-493b-9704-ac204b4fdb74","ios":"levelo://app?vid=e9b40b8c-aa8b-493b-9704-ac204b4fdb74"},"vehicle_type_id":"4","last_reported":1745572243,"current_range_meters":14400,"station_id":"st_cvj5dfep6f1abm77gieg","pricing_plan_id":"cebpf4jnsgd1na2vs0mg"},{"bike_id":"e2dcabcf-64d8-4394-bb9a-ff877bee611a","system_id":"levelo_inurba_marseille","lat":43.32056,"lon":5.4153,"is_reserved":false,"is_disabled":false,"rental_uris":{"android":"levelo://app?vid=e2dcabcf-64d8-4394-bb9a-ff877bee611a","ios":"levelo://app?vid=e2dcabcf-64d8-4394-bb9a-ff877bee611a"},"vehicle_type_id":"4","last_reported":1745572243,"current_range_meters":14400,"station_id":"ce4bhq92rcd13ifvqhkg","pricing_plan_id":"cebpf4jnsgd1na2vs0mg"},{"bike_id":"5d9c4043-4860-4248-b70b-21cea142bfdb","system_id":"levelo_inurba_marseille","lat":43.33613,"lon":5.41011,"is_reserved":false,"is_disabled":false,"rental_uris":{"android":"levelo://app?vid=5d9c4043-4860-4248-b70b-21cea142bfdb","ios":"levelo://app?vid=5d9c4043-4860-4248-b70b-21cea142bfdb"},"vehicle_type_id":"4","last_reported":1745572243,"current_range_meters":14400,"station_id":"ce4bhqh2rcd13ifvqhmg","pricing_plan_id":"cebpf4jnsgd1na2vs0mg"},{"bike_id":"aac1d561-5766-41a5-832b-69513ac81671","system_id":"levelo_inurba_marseille","lat":43.313685,"lon":5.384945,"is_reserved":false,"is_disabled":false,"rental_uris":{"android":"levelo://app?vid=aac1d561-5766-41a5-832b-69513ac81671","ios":"levelo://app?vid=aac1d561-5766-41a5-832b-69513ac81671"},"vehicle_type_id":"4","last_reported":1745572243,"current_range_meters":14000,"station_id":"ce4bgt92rcd13ifvqcf0","pricing_plan_id":"cebpf4jnsgd1na2vs0mg"},{"bike_id":"5aeafcb5-ee49-4831-8346-ce9d5f2cd2b1","system_id":"levelo_inurba_marseille","lat":43.29508,"lon":5.37505,"is_reserved":false,"is_disabled":false,"rental_uris":{"android":"levelo://app?vid=5aeafcb5-ee49-4831-8346-ce9d5f2cd2b1","ios":"levelo://app?vid=5aeafcb5-ee49-4831-8346-ce9d5f2cd2b1"},"vehicle_type_id":"4","last_reported":1745572243,"current_range_meters":14400,"station_id":"ce4bgkp2rcd13ifvqbmg","pricing_plan_id":"cebpf4jnsgd1na2vs0mg"},{"bike_id":"bff532e1-58f7-4601-87b6-d6ae8925747c","system_id":"levelo_inurba_marseille","lat":43.25858,"lon":5.40779,"is_reserved":false,"is_disabled":false,"rental_uris":{"android":"levelo://app?vid=bff532e1-58f7-4601-87b6-d6ae8925747c","ios":"levelo://app?vid=bff532e1-58f7-4601-87b6-d6ae8925747c"},"vehicle_type_id":"4","last_reported":1745572243,"current_range_meters":14800,"station_id":"ce4bhm92rcd13ifvqglg","pricing_plan_id":"cebpf4jnsgd1na2vs0mg"},{"bike_id":"fd5c9bf0-ef99-4b90-9e72-a72ac91bef5d","system_id":"levelo_inurba_marseille","lat":43.272219,"lon":5.391784,"is_reserved":false,"is_disabled":false,"rental_uris":{"android":"levelo://app?vid=fd5c9bf0-ef99-4b90-9e72-a72ac91bef5d","ios":"levelo://app?vid=fd5c9bf0-ef99-4b90-9e72-a72ac91bef5d"},"vehicle_type_id":"4","last_reported":1745572243,"current_range_meters":14800,"station_id":"ce4bhhp2rcd13ifvqfm0","pricing_plan_id":"cebpf4jnsgd1na2vs0mg"},{"bike_id":"539db59b-aaf8-4b5f-a8e8-fa898c4ec0c5","system_id":"levelo_inurba_marseille","lat":43.24153,"lon":5.39747,"is_reserved":false,"is_disabled":false,"rental_uris":{"android":"levelo://app?vid=539db59b-aaf8-4b5f-a8e8-fa898c4ec0c5","ios":"levelo://app?vid=539db59b-aaf8-4b5f-a8e8-fa898c4ec0c5"},"vehicle_type_id":"4","last_reported":1745572243,"current_range_meters":14800,"station_id":"ce4bhn12rcd13ifvqgpg","pricing_plan_id":"cebpf4jnsgd1na2vs0mg"},{"bike_id":"f437bbcd-3bc3-4220-9dfe-08d3eac84ba1","system_id":"levelo_inurba_marseille","lat":43.28625,"lon":5.35083,"is_reserved":false,"is_disabled":true,"rental_uris":{"android":"levelo://app?vid=f437bbcd-3bc3-4220-9dfe-08d3eac84ba1","ios":"levelo://app?vid=f437bbcd-3bc3-4220-9dfe-08d3eac84ba1"},"vehicle_type_id":"4","last_reported":1745572243,"current_range_meters":15200,"station_id":"ce4bhch2rcd13ifvqeug","pricing_plan_id":"cebpf4jnsgd1na2vs0mg"},{"bike_id":"3e5a5bec-d3d4-45ee-9c95-7c9b8e7a4c49","system_id":"levelo_inurba_marseille","lat":43.32381,"lon":5.36759,"is_reserved":false,"is_disabled":false,"rental_uris":{"android":"levelo://app?vid=3e5a5bec-d3d4-45ee-9c95-7c9b8e7a4c49","ios":"levelo://app?vid=3e5a5bec-d3d4-45ee-9c95-7c9b8e7a4c49"},"vehicle_type_id":"4","last_reported":1745572243,"current_range_meters":14800,"station_id":"ce4bhsh2rcd13ifvqi2g","pricing_plan_id":"cebpf4jnsgd1na2vs0mg"},{"bike_id":"6fdbd792-35b9-431c-a95a-ebfdf5513305","system_id":"levelo_inurba_marseille","lat":43.25728,"lon":5.41104,"is_reserved":false,"is_disabled":false,"rental_uris":{"android":"levelo://app?vid=6fdbd792-35b9-431c-a95a-ebfdf5513305","ios":"levelo://app?vid=6fdbd792-35b9-431c-a95a-ebfdf5513305"},"vehicle_type_id":"4","last_reported":1745572243,"current_range_meters":14800,"station_id":"ce4bhkp2rcd13ifvqgd0","pricing_plan_id":"cebpf4jnsgd1na2vs0mg"},{"bike_id":"d7844114-526e-4b53-a030-69252f001196","system_id":"levelo_inurba_marseille","lat":43.305352,"lon":5.365238,"is_reserved":false,"is_disabled":false,"rental_uris":{"android":"levelo://app?vid=d7844114-526e-4b53-a030-69252f001196","ios":"levelo://app?vid=d7844114-526e-4b53-a030-69252f001196"},"vehicle_type_id":"4","last_reported":1745572243,"current_range_meters":14800,"station_id":"ce4bgs12rcd13ifvqcag","pricing_plan_id":"cebpf4jnsgd1na2vs0mg"},{"bike_id":"25b5fd2c-1a70-42ae-868a-a34d8b4c4cfd","system_id":"levelo_inurba_marseille","lat":43.27201,"lon":5.39152,"is_reserved":false,"is_disabled":false,"rental_uris":{"android":"levelo://app?vid=25b5fd2c-1a70-42ae-868a-a34d8b4c4cfd","ios":"levelo://app?vid=25b5fd2c-1a70-42ae-868a-a34d8b4c4cfd"},"vehicle_type_id":"4","last_reported":1745572243,"current_range_meters":14800,"station_id":"ce4bhhp2rcd13ifvqfm0","pricing_plan_id":"cebpf4jnsgd1na2vs0mg"},{"bike_id":"0bfff189-ec6a-4439-b345-e9dd168ab867","system_id":"levelo_inurba_marseille","lat":43.33731,"lon":5.39165,"is_reserved":false,"is_disabled":false,"rental_uris":{"android":"levelo://app?vid=0bfff189-ec6a-4439-b345-e9dd168ab867","ios":"levelo://app?vid=0bfff189-ec6a-4439-b345-e9dd168ab867"},"vehicle_type_id":"4","last_reported":1745572243,"current_range_meters":14800,"station_id":"ce4bhr92rcd13ifvqhsg","pricing_plan_id":"cebpf4jnsgd1na2vs0mg"},{"bike_id":"248a786e-53b4-4bf2-b098-e26010d8932b","system_id":"levelo_inurba_marseille","lat":43.31685,"lon":5.40477,"is_reserved":false,"is_disabled":false,"rental_uris":{"android":"levelo://app?vid=248a786e-53b4-4bf2-b098-e26010d8932b","ios":"levelo://app?vid=248a786e-53b4-4bf2-b098-e26010d8932b"},"vehicle_type_id":"4","last_reported":1745572243,"current_range_meters":15200,"station_id":"ce4bh012rcd13ifvqd00","pricing_plan_id":"cebpf4jnsgd1na2vs0mg"},{"bike_id":"3e4adf00-6f25-4413-96e2-c281335b27f8","system_id":"levelo_inurba_marseille","lat":43.26208,"lon":5.37441,"is_reserved":false,"is_disabled":false,"rental_uris":{"android":"levelo://app?vid=3e4adf00-6f25-4413-96e2-c281335b27f8","ios":"levelo://app?vid=3e4adf00-6f25-4413-96e2-c281335b27f8"},"vehicle_type_id":"4","last_reported":1745572243,"current_range_meters":15200,"station_id":"ce4bhgp2rcd13ifvqfc0","pricing_plan_id":"cebpf4jnsgd1na2vs0mg"},{"bike_id":"9a1c0be7-bd1a-4081-ab84-3ef05258b407","system_id":"levelo_inurba_marseille","lat":43.22937,"lon":5.35367,"is_reserved":false,"is_disabled":false,"rental_uris":{"android":"levelo://app?vid=9a1c0be7-bd1a-4081-ab84-3ef05258b407","ios":"levelo://app?vid=9a1c0be7-bd1a-4081-ab84-3ef05258b407"},"vehicle_type_id":"4","last_reported":1745572243,"current_range_meters":16000,"station_id":"cpo3532slgdg3j2ikp40","pricing_plan_id":"cebpf4jnsgd1na2vs0mg"},{"bike_id":"7f645cc1-2ef1-4dc4-aca4-e4be4fb096c6","system_id":"levelo_inurba_marseille","lat":43.28937,"lon":5.36647,"is_reserved":false,"is_disabled":false,"rental_uris":{"android":"levelo://app?vid=7f645cc1-2ef1-4dc4-aca4-e4be4fb096c6","ios":"levelo://app?vid=7f645cc1-2ef1-4dc4-aca4-e4be4fb096c6"},"vehicle_type_id":"4","last_reported":1745572243,"current_range_meters":16000,"station_id":"ce4bhap2rcd13ifvqek0","pricing_plan_id":"cebpf4jnsgd1na2vs0mg"},{"bike_id":"0f9a79d3-d54e-4a55-8ceb-a94dc64b684c","system_id":"levelo_inurba_marseille","lat":43.29007,"lon":5.35608,"is_reserved":false,"is_disabled":false,"rental_uris":{"android":"levelo://app?vid=0f9a79d3-d54e-4a55-8ceb-a94dc64b684c","ios":"levelo://app?vid=0f9a79d3-d54e-4a55-8ceb-a94dc64b684c"},"vehicle_type_id":"4","last_reported":1745572243,"current_range_meters":16000,"station_id":"ce4bhb92rcd13ifvqen0","pricing_plan_id":"cebpf4jnsgd1na2vs0mg"},{"bike_id":"b69ca577-3942-4321-b56b-68ee80a2ddac","system_id":"levelo_inurba_marseille","lat":43.24179,"lon":5.39728,"is_reserved":false,"is_disabled":false,"rental_uris":{"android":"levelo://app?vid=b69ca577-3942-4321-b56b-68ee80a2ddac","ios":"levelo://app?vid=b69ca577-3942-4321-b56b-68ee80a2ddac"},"vehicle_type_id":"4","last_reported":1745572243,"current_range_meters":16000,"station_id":"ce4bhn12rcd13ifvqgpg","pricing_plan_id":"cebpf4jnsgd1na2vs0mg"},{"bike_id":"3e19aa10-142c-4980-94af-af9bcdb8e2ff","system_id":"levelo_inurba_marseille","lat":43.26777,"lon":5.39411,"is_reserved":false,"is_disabled":false,"rental_uris":{"android":"levelo://app?vid=3e19aa10-142c-4980-94af-af9bcdb8e2ff","ios":"levelo://app?vid=3e19aa10-142c-4980-94af-af9bcdb8e2ff"},"vehicle_type_id":"4","last_reported":1745572243,"current_range_meters":16000,"station_id":"ce4bhh12rcd13ifvqfg0","pricing_plan_id":"cebpf4jnsgd1na2vs0mg"},{"bike_id":"2ec84b55-73b7-4fd5-9e39-b1cef0177055","system_id":"levelo_inurba_marseille","lat":43.3016,"lon":5.38097,"is_reserved":false,"is_disabled":false,"rental_uris":{"android":"levelo://app?vid=2ec84b55-73b7-4fd5-9e39-b1cef0177055","ios":"levelo://app?vid=2ec84b55-73b7-4fd5-9e39-b1cef0177055"},"vehicle_type_id":"4","last_reported":1745572243,"current_range_meters":16000,"station_id":"ce4bgjp2rcd13ifvqbh0","pricing_plan_id":"cebpf4jnsgd1na2vs0mg"},{"bike_id":"0013966c-ef97-46fc-a9b6-b1eb056f8ad3","system_id":"levelo_inurba_marseille","lat":43.24051,"lon":5.37781,"is_reserved":false,"is_disabled":false,"rental_uris":{"android":"levelo://app?vid=0013966c-ef97-46fc-a9b6-b1eb056f8ad3","ios":"levelo://app?vid=0013966c-ef97-46fc-a9b6-b1eb056f8ad3"},"vehicle_type_id":"4","last_reported":1745572243,"current_range_meters":16400,"station_id":"ce4bhnp2rcd13ifvqgvg","pricing_plan_id":"cebpf4jnsgd1na2vs0mg"},{"bike_id":"a9784e4d-72f3-45a0-bc5c-6a48517d28d6","system_id":"levelo_inurba_marseille","lat":43.33047,"lon":5.39076,"is_reserved":false,"is_disabled":false,"rental_uris":{"android":"levelo://app?vid=a9784e4d-72f3-45a0-bc5c-6a48517d28d6","ios":"levelo://app?vid=a9784e4d-72f3-45a0-bc5c-6a48517d28d6"},"vehicle_type_id":"4","last_reported":1745572243,"current_range_meters":16400,"station_id":"ce4bhr92rcd13ifvqhrg","pricing_plan_id":"cebpf4jnsgd1na2vs0mg"},{"bike_id":"1a9dd115-8b54-42f2-af40-d1e2defa62f7","system_id":"levelo_inurba_marseille","lat":43.30909,"lon":5.36849,"is_reserved":false,"is_disabled":false,"rental_uris":{"android":"levelo://app?vid=1a9dd115-8b54-42f2-af40-d1e2defa62f7","ios":"levelo://app?vid=1a9dd115-8b54-42f2-af40-d1e2defa62f7"},"vehicle_type_id":"4","last_reported":1745572243,"current_range_meters":16400,"station_id":"ce4bgn92rcd13ifvqbvg","pricing_plan_id":"cebpf4jnsgd1na2vs0mg"},{"bike_id":"3fb9545b-3a5a-422c-ad5d-be4b40e1b40d","system_id":"levelo_inurba_marseille","lat":43.30902,"lon":5.36865,"is_reserved":false,"is_disabled":false,"rental_uris":{"android":"levelo://app?vid=3fb9545b-3a5a-422c-ad5d-be4b40e1b40d","ios":"levelo://app?vid=3fb9545b-3a5a-422c-ad5d-be4b40e1b40d"},"vehicle_type_id":"4","last_reported":1745572243,"current_range_meters":16800,"station_id":"ce4bgn92rcd13ifvqbvg","pricing_plan_id":"cebpf4jnsgd1na2vs0mg"},{"bike_id":"b04b2867-fbf0-4049-a1be-5593b1ff340a","system_id":"levelo_inurba_marseille","lat":43.241302,"lon":5.376976,"is_reserved":false,"is_disabled":false,"rental_uris":{"android":"levelo://app?vid=b04b2867-fbf0-4049-a1be-5593b1ff340a","ios":"levelo://app?vid=b04b2867-fbf0-4049-a1be-5593b1ff340a"},"vehicle_type_id":"4","last_reported":1745572243,"current_range_meters":16800,"station_id":"ce4bhah2rcd13ifvqei0","pricing_plan_id":"cebpf4jnsgd1na2vs0mg"},{"bike_id":"6a5a83a6-0ee6-4022-a87f-7410967148c6","system_id":"levelo_inurba_marseille","lat":43.299532,"lon":5.365515,"is_reserved":false,"is_disabled":false,"rental_uris":{"android":"levelo://app?vid=6a5a83a6-0ee6-4022-a87f-7410967148c6","ios":"levelo://app?vid=6a5a83a6-0ee6-4022-a87f-7410967148c6"},"vehicle_type_id":"4","last_reported":1745572243,"current_range_meters":16800,"station_id":"ce4bgm92rcd13ifvqbr0","pricing_plan_id":"cebpf4jnsgd1na2vs0mg"},{"bike_id":"c86719ff-d4ea-4182-9a87-3ac37cdee9ef","system_id":"levelo_inurba_marseille","lat":43.26473,"lon":5.39549,"is_reserved":false,"is_disabled":false,"rental_uris":{"android":"levelo://app?vid=c86719ff-d4ea-4182-9a87-3ac37cdee9ef","ios":"levelo://app?vid=c86719ff-d4ea-4182-9a87-3ac37cdee9ef"},"vehicle_type_id":"4","last_reported":1745572243,"current_range_meters":16800,"station_id":"ce4bhi12rcd13ifvqfq0","pricing_plan_id":"cebpf4jnsgd1na2vs0mg"},{"bike_id":"c86493f0-b1d4-49eb-9cd0-75ea9e581a89","system_id":"levelo_inurba_marseille","lat":43.27497,"lon":5.4246,"is_reserved":false,"is_disabled":false,"rental_uris":{"android":"levelo://app?vid=c86493f0-b1d4-49eb-9cd0-75ea9e581a89","ios":"levelo://app?vid=c86493f0-b1d4-49eb-9cd0-75ea9e581a89"},"vehicle_type_id":"4","last_reported":1745572243,"current_range_meters":16800,"station_id":"ce4bhn92rcd13ifvqgrg","pricing_plan_id":"cebpf4jnsgd1na2vs0mg"},{"bike_id":"af6af1ea-83a0-4448-a6b9-d143557f7290","system_id":"levelo_inurba_marseille","lat":43.2694,"lon":5.4028,"is_reserved":false,"is_disabled":true,"rental_uris":{"android":"levelo://app?vid=af6af1ea-83a0-4448-a6b9-d143557f7290","ios":"levelo://app?vid=af6af1ea-83a0-4448-a6b9-d143557f7290"},"vehicle_type_id":"4","last_reported":1745572243,"current_range_meters":16800,"station_id":"cjm6bp8fraef2m0cb0m0","pricing_plan_id":"cebpf4jnsgd1na2vs0mg"},{"bike_id":"b370ec72-25aa-4e18-90be-0a23445d821b","system_id":"levelo_inurba_marseille","lat":43.21749,"lon":5.34607,"is_reserved":false,"is_disabled":false,"rental_uris":{"android":"levelo://app?vid=b370ec72-25aa-4e18-90be-0a23445d821b","ios":"levelo://app?vid=b370ec72-25aa-4e18-90be-0a23445d821b"},"vehicle_type_id":"4","last_reported":1745572243,"current_range_meters":16800,"station_id":"st_cvj6r9ubvosntc0bgbag","pricing_plan_id":"cebpf4jnsgd1na2vs0mg"},{"bike_id":"309fd071-365c-4798-ad6a-3062c6e001ad","system_id":"levelo_inurba_marseille","lat":43.262,"lon":5.37929,"is_reserved":false,"is_disabled":false,"rental_uris":{"android":"levelo://app?vid=309fd071-365c-4798-ad6a-3062c6e001ad","ios":"levelo://app?vid=309fd071-365c-4798-ad6a-3062c6e001ad"},"vehicle_type_id":"4","last_reported":1745572243,"current_range_meters":16800,"station_id":"ce4bhjp2rcd13ifvqg90","pricing_plan_id":"cebpf4jnsgd1na2vs0mg"},{"bike_id":"8f1a38c1-df91-4bdf-9e4e-92ef410aba4f","system_id":"levelo_inurba_marseille","lat":43.21183,"lon":5.35068,"is_reserved":false,"is_disabled":false,"rental_uris":{"android":"levelo://app?vid=8f1a38c1-df91-4bdf-9e4e-92ef410aba4f","ios":"levelo://app?vid=8f1a38c1-df91-4bdf-9e4e-92ef410aba4f"},"vehicle_type_id":"4","last_reported":1745572243,"current_range_meters":17200,"station_id":"st_cvj6sg6p6f1abm77japg","pricing_plan_id":"cebpf4jnsgd1na2vs0mg"},{"bike_id":"b47d1b30-02de-4897-9b04-95a5c0214738","system_id":"levelo_inurba_marseille","lat":43.30241,"lon":5.40041,"is_reserved":false,"is_disabled":false,"rental_uris":{"android":"levelo://app?vid=b47d1b30-02de-4897-9b04-95a5c0214738","ios":"levelo://app?vid=b47d1b30-02de-4897-9b04-95a5c0214738"},"vehicle_type_id":"4","last_reported":1745572243,"current_range_meters":17200,"station_id":"ce4bgvh2rcd13ifvqcs0","pricing_plan_id":"cebpf4jnsgd1na2vs0mg"},{"bike_id":"1f963738-62de-452a-a2b0-17615a33851b","system_id":"levelo_inurba_marseille","lat":43.27315,"lon":5.39109,"is_reserved":false,"is_disabled":false,"rental_uris":{"android":"levelo://app?vid=1f963738-62de-452a-a2b0-17615a33851b","ios":"levelo://app?vid=1f963738-62de-452a-a2b0-17615a33851b"},"vehicle_type_id":"4","last_reported":1745572243,"current_range_meters":17200,"station_id":"ce4bhgp2rcd13ifvqfe0","pricing_plan_id":"cebpf4jnsgd1na2vs0mg"},{"bike_id":"987d7900-bb2a-45cb-bed7-6d69f6fd4fa3","system_id":"levelo_inurba_marseille","lat":43.28503,"lon":5.38444,"is_reserved":false,"is_disabled":false,"rental_uris":{"android":"levelo://app?vid=987d7900-bb2a-45cb-bed7-6d69f6fd4fa3","ios":"levelo://app?vid=987d7900-bb2a-45cb-bed7-6d69f6fd4fa3"},"vehicle_type_id":"4","last_reported":1745572243,"current_range_meters":17200,"station_id":"ce4bh512rcd13ifvqe3g","pricing_plan_id":"cebpf4jnsgd1na2vs0mg"},{"bike_id":"5d90e8c4-88f9-42f1-bfd8-e31a43c95b58","system_id":"levelo_inurba_marseille","lat":43.3248,"lon":5.36591,"is_reserved":false,"is_disabled":false,"rental_uris":{"android":"levelo://app?vid=5d90e8c4-88f9-42f1-bfd8-e31a43c95b58","ios":"levelo://app?vid=5d90e8c4-88f9-42f1-bfd8-e31a43c95b58"},"vehicle_type_id":"4","last_reported":1745572243,"current_range_meters":17200,"station_id":"ce4bhs12rcd13ifvqhvg","pricing_plan_id":"cebpf4jnsgd1na2vs0mg"},{"bike_id":"f5d41aa3-2886-4704-95b8-34f53da8b1e5","system_id":"levelo_inurba_marseille","lat":43.30906,"lon":5.36853,"is_reserved":false,"is_disabled":false,"rental_uris":{"android":"levelo://app?vid=f5d41aa3-2886-4704-95b8-34f53da8b1e5","ios":"levelo://app?vid=f5d41aa3-2886-4704-95b8-34f53da8b1e5"},"vehicle_type_id":"4","last_reported":1745572243,"current_range_meters":17200,"station_id":"ce4bgn92rcd13ifvqbvg","pricing_plan_id":"cebpf4jnsgd1na2vs0mg"},{"bike_id":"834bed20-0bfc-4ad7-a557-cff1b8189b56","system_id":"levelo_inurba_marseille","lat":43.29897,"lon":5.43665,"is_reserved":false,"is_disabled":false,"rental_uris":{"android":"levelo://app?vid=834bed20-0bfc-4ad7-a557-cff1b8189b56","ios":"levelo://app?vid=834bed20-0bfc-4ad7-a557-cff1b8189b56"},"vehicle_type_id":"4","last_reported":1745572243,"current_range_meters":17600,"station_id":"ce4bhpp2rcd13ifvqhfg","pricing_plan_id":"cebpf4jnsgd1na2vs0mg"},{"bike_id":"9199862c-f028-44f5-a0bd-939fcabcf63b","system_id":"levelo_inurba_marseille","lat":43.27939,"lon":5.4105,"is_reserved":false,"is_disabled":false,"rental_uris":{"android":"levelo://app?vid=9199862c-f028-44f5-a0bd-939fcabcf63b","ios":"levelo://app?vid=9199862c-f028-44f5-a0bd-939fcabcf63b"},"vehicle_type_id":"4","last_reported":1745572243,"current_range_meters":17600,"station_id":"ce4bhnp2rcd13ifvqh0g","pricing_plan_id":"cebpf4jnsgd1na2vs0mg"},{"bike_id":"91386536-2abb-4822-bc10-e75811276835","system_id":"levelo_inurba_marseille","lat":43.29227,"lon":5.36055,"is_reserved":false,"is_disabled":false,"rental_uris":{"android":"levelo://app?vid=91386536-2abb-4822-bc10-e75811276835","ios":"levelo://app?vid=91386536-2abb-4822-bc10-e75811276835"},"vehicle_type_id":"4","last_reported":1745572243,"current_range_meters":17600,"station_id":"ce4bhbh2rcd13ifvqeqg","pricing_plan_id":"cebpf4jnsgd1na2vs0mg"},{"bike_id":"5a7d5f58-55b9-43f0-ada2-3de3e119a779","system_id":"levelo_inurba_marseille","lat":43.26206,"lon":5.37442,"is_reserved":false,"is_disabled":false,"rental_uris":{"android":"levelo://app?vid=5a7d5f58-55b9-43f0-ada2-3de3e119a779","ios":"levelo://app?vid=5a7d5f58-55b9-43f0-ada2-3de3e119a779"},"vehicle_type_id":"4","last_reported":1745572243,"current_range_meters":17600,"station_id":"ce4bhgp2rcd13ifvqfc0","pricing_plan_id":"cebpf4jnsgd1na2vs0mg"},{"bike_id":"5e950754-5049-4cef-a98b-b8f9014e9ac6","system_id":"levelo_inurba_marseille","lat":43.29013,"lon":5.35608,"is_reserved":false,"is_disabled":false,"rental_uris":{"android":"levelo://app?vid=5e950754-5049-4cef-a98b-b8f9014e9ac6","ios":"levelo://app?vid=5e950754-5049-4cef-a98b-b8f9014e9ac6"},"vehicle_type_id":"4","last_reported":1745572243,"current_range_meters":17200,"station_id":"ce4bhb92rcd13ifvqen0","pricing_plan_id":"cebpf4jnsgd1na2vs0mg"},{"bike_id":"f37971ee-e053-4ea1-ac61-9195592ac235","system_id":"levelo_inurba_marseille","lat":43.29035,"lon":5.3756,"is_reserved":false,"is_disabled":false,"rental_uris":{"android":"levelo://app?vid=f37971ee-e053-4ea1-ac61-9195592ac235","ios":"levelo://app?vid=f37971ee-e053-4ea1-ac61-9195592ac235"},"vehicle_type_id":"4","last_reported":1745572243,"current_range_meters":17600,"station_id":"ce4bh692rcd13ifvqe90","pricing_plan_id":"cebpf4jnsgd1na2vs0mg"},{"bike_id":"f72d339b-769a-48e1-8ec2-c9421ea2b0b0","system_id":"levelo_inurba_marseille","lat":43.28706,"lon":5.3998,"is_reserved":false,"is_disabled":false,"rental_uris":{"android":"levelo://app?vid=f72d339b-769a-48e1-8ec2-c9421ea2b0b0","ios":"levelo://app?vid=f72d339b-769a-48e1-8ec2-c9421ea2b0b0"},"vehicle_type_id":"4","last_reported":1745572243,"current_range_meters":17200,"station_id":"ce4bho92rcd13ifvqh3g","pricing_plan_id":"cebpf4jnsgd1na2vs0mg"},{"bike_id":"ecbc92b5-a8e1-4ba3-98de-bd8784bc0c64","system_id":"levelo_inurba_marseille","lat":43.26575,"lon":5.39023,"is_reserved":false,"is_disabled":true,"rental_uris":{"android":"levelo://app?vid=ecbc92b5-a8e1-4ba3-98de-bd8784bc0c64","ios":"levelo://app?vid=ecbc92b5-a8e1-4ba3-98de-bd8784bc0c64"},"vehicle_type_id":"4","last_reported":1745572243,"current_range_meters":18000,"station_id":"ce4bhe12rcd13ifvqf30","pricing_plan_id":"cebpf4jnsgd1na2vs0mg"},{"bike_id":"f9fe96be-c9f2-440f-8dd5-b1ac26808c28","system_id":"levelo_inurba_marseille","lat":43.30304,"lon":5.36888,"is_reserved":false,"is_disabled":false,"rental_uris":{"android":"levelo://app?vid=f9fe96be-c9f2-440f-8dd5-b1ac26808c28","ios":"levelo://app?vid=f9fe96be-c9f2-440f-8dd5-b1ac26808c28"},"vehicle_type_id":"4","last_reported":1745572243,"current_range_meters":18000,"station_id":"ce4bgqh2rcd13ifvqc5g","pricing_plan_id":"cebpf4jnsgd1na2vs0mg"},{"bike_id":"78e440e7-8bbc-44b4-9c74-197f80a59205","system_id":"levelo_inurba_marseille","lat":43.24171,"lon":5.36389,"is_reserved":false,"is_disabled":false,"rental_uris":{"android":"levelo://app?vid=78e440e7-8bbc-44b4-9c74-197f80a59205","ios":"levelo://app?vid=78e440e7-8bbc-44b4-9c74-197f80a59205"},"vehicle_type_id":"4","last_reported":1745572243,"current_range_meters":18000,"station_id":"cpo36qri1sfpv3e86is0","pricing_plan_id":"cebpf4jnsgd1na2vs0mg"},{"bike_id":"ba6edeb7-d8a9-4a67-8148-a523e91796d8","system_id":"levelo_inurba_marseille","lat":43.25918,"lon":5.40872,"is_reserved":false,"is_disabled":false,"rental_uris":{"android":"levelo://app?vid=ba6edeb7-d8a9-4a67-8148-a523e91796d8","ios":"levelo://app?vid=ba6edeb7-d8a9-4a67-8148-a523e91796d8"},"vehicle_type_id":"4","last_reported":1745572243,"current_range_meters":18000,"station_id":"ce4bhm92rcd13ifvqglg","pricing_plan_id":"cebpf4jnsgd1na2vs0mg"},{"bike_id":"ccebe90c-a33e-494f-93aa-e8a9ee589591","system_id":"levelo_inurba_marseille","lat":43.27954,"lon":5.38737,"is_reserved":false,"is_disabled":false,"rental_uris":{"android":"levelo://app?vid=ccebe90c-a33e-494f-93aa-e8a9ee589591","ios":"levelo://app?vid=ccebe90c-a33e-494f-93aa-e8a9ee589591"},"vehicle_type_id":"4","last_reported":1745572243,"current_range_meters":18000,"station_id":"ce4bhg12rcd13ifvqf80","pricing_plan_id":"cebpf4jnsgd1na2vs0mg"},{"bike_id":"f8508ab8-79c1-40ba-87fb-00ec869a146d","system_id":"levelo_inurba_marseille","lat":43.27611,"lon":5.36104,"is_reserved":false,"is_disabled":false,"rental_uris":{"android":"levelo://app?vid=f8508ab8-79c1-40ba-87fb-00ec869a146d","ios":"levelo://app?vid=f8508ab8-79c1-40ba-87fb-00ec869a146d"},"vehicle_type_id":"4","last_reported":1745572243,"current_range_meters":18000,"station_id":"ce4bgj92rcd13ifvqbe0","pricing_plan_id":"cebpf4jnsgd1na2vs0mg"},{"bike_id":"5e5e79cb-a505-4466-9551-32a12181b171","system_id":"levelo_inurba_marseille","lat":43.2756,"lon":5.38414,"is_reserved":false,"is_disabled":false,"rental_uris":{"android":"levelo://app?vid=5e5e79cb-a505-4466-9551-32a12181b171","ios":"levelo://app?vid=5e5e79cb-a505-4466-9551-32a12181b171"},"vehicle_type_id":"4","last_reported":1745572243,"current_range_meters":18000,"station_id":"ce4bhh92rcd13ifvqfi0","pricing_plan_id":"cebpf4jnsgd1na2vs0mg"},{"bike_id":"92cd2fc7-d6d3-4740-b33e-69a2f4b2a440","system_id":"levelo_inurba_marseille","lat":43.272025,"lon":5.39176,"is_reserved":false,"is_disabled":false,"rental_uris":{"android":"levelo://app?vid=92cd2fc7-d6d3-4740-b33e-69a2f4b2a440","ios":"levelo://app?vid=92cd2fc7-d6d3-4740-b33e-69a2f4b2a440"},"vehicle_type_id":"4","last_reported":1745572243,"current_range_meters":18000,"station_id":"ce4bhhp2rcd13ifvqfm0","pricing_plan_id":"cebpf4jnsgd1na2vs0mg"},{"bike_id":"2cb915c3-efce-4420-ba97-f7de67fde7a5","system_id":"levelo_inurba_marseille","lat":43.29289,"lon":5.37429,"is_reserved":false,"is_disabled":false,"rental_uris":{"android":"levelo://app?vid=2cb915c3-efce-4420-ba97-f7de67fde7a5","ios":"levelo://app?vid=2cb915c3-efce-4420-ba97-f7de67fde7a5"},"vehicle_type_id":"4","last_reported":1745572243,"current_range_meters":18800,"station_id":"ce4bgi12rcd13ifvqb70","pricing_plan_id":"cebpf4jnsgd1na2vs0mg"},{"bike_id":"723e64b2-ada5-41a4-83ad-d16a7e176bdd","system_id":"levelo_inurba_marseille","lat":43.25583,"lon":5.38223,"is_reserved":false,"is_disabled":false,"rental_uris":{"android":"levelo://app?vid=723e64b2-ada5-41a4-83ad-d16a7e176bdd","ios":"levelo://app?vid=723e64b2-ada5-41a4-83ad-d16a7e176bdd"},"vehicle_type_id":"4","last_reported":1745572243,"current_range_meters":18800,"station_id":"ce4bhih2rcd13ifvqfs0","pricing_plan_id":"cebpf4jnsgd1na2vs0mg"},{"bike_id":"ee08943a-ea78-49bb-a397-b42b8fb7e862","system_id":"levelo_inurba_marseille","lat":43.28592,"lon":5.37077,"is_reserved":false,"is_disabled":false,"rental_uris":{"android":"levelo://app?vid=ee08943a-ea78-49bb-a397-b42b8fb7e862","ios":"levelo://app?vid=ee08943a-ea78-49bb-a397-b42b8fb7e862"},"vehicle_type_id":"4","last_reported":1745572243,"current_range_meters":18800,"station_id":"ce4bht12rcd13ifvqi60","pricing_plan_id":"cebpf4jnsgd1na2vs0mg"},{"bike_id":"66f4a16c-5526-4170-b0c8-0b023a7e2dde","system_id":"levelo_inurba_marseille","lat":43.315,"lon":5.37299,"is_reserved":false,"is_disabled":false,"rental_uris":{"android":"levelo://app?vid=66f4a16c-5526-4170-b0c8-0b023a7e2dde","ios":"levelo://app?vid=66f4a16c-5526-4170-b0c8-0b023a7e2dde"},"vehicle_type_id":"4","last_reported":1745572243,"current_range_meters":19200,"station_id":"ce4bgt12rcd13ifvqcd0","pricing_plan_id":"cebpf4jnsgd1na2vs0mg"},{"bike_id":"b93c41d9-990f-4fda-89e3-f56b9731c2a7","system_id":"levelo_inurba_marseille","lat":43.2951,"lon":5.3751,"is_reserved":false,"is_disabled":false,"rental_uris":{"android":"levelo://app?vid=b93c41d9-990f-4fda-89e3-f56b9731c2a7","ios":"levelo://app?vid=b93c41d9-990f-4fda-89e3-f56b9731c2a7"},"vehicle_type_id":"4","last_reported":1745572243,"current_range_meters":19200,"station_id":"ce4bgkp2rcd13ifvqbmg","pricing_plan_id":"cebpf4jnsgd1na2vs0mg"},{"bike_id":"52c0c85a-f9d7-4356-8afc-192751ee0110","system_id":"levelo_inurba_marseille","lat":43.29901,"lon":5.38137,"is_reserved":false,"is_disabled":false,"rental_uris":{"android":"levelo://app?vid=52c0c85a-f9d7-4356-8afc-192751ee0110","ios":"levelo://app?vid=52c0c85a-f9d7-4356-8afc-192751ee0110"},"vehicle_type_id":"4","last_reported":1745572243,"current_range_meters":19200,"station_id":"ce4bgj12rcd13ifvqbc0","pricing_plan_id":"cebpf4jnsgd1na2vs0mg"},{"bike_id":"b6cce916-00ab-4b48-90ec-261226219ca7","system_id":"levelo_inurba_marseille","lat":43.29909,"lon":5.38141,"is_reserved":false,"is_disabled":true,"rental_uris":{"android":"levelo://app?vid=b6cce916-00ab-4b48-90ec-261226219ca7","ios":"levelo://app?vid=b6cce916-00ab-4b48-90ec-261226219ca7"},"vehicle_type_id":"4","last_reported":1745572243,"current_range_meters":19200,"station_id":"ce4bgj12rcd13ifvqbc0","pricing_plan_id":"cebpf4jnsgd1na2vs0mg"},{"bike_id":"cd087707-fd41-43c5-9b15-a64d709b0196","system_id":"levelo_inurba_marseille","lat":43.30548,"lon":5.365397,"is_reserved":false,"is_disabled":false,"rental_uris":{"android":"levelo://app?vid=cd087707-fd41-43c5-9b15-a64d709b0196","ios":"levelo://app?vid=cd087707-fd41-43c5-9b15-a64d709b0196"},"vehicle_type_id":"4","last_reported":1745572243,"current_range_meters":19200,"station_id":"ce4bgs12rcd13ifvqcag","pricing_plan_id":"cebpf4jnsgd1na2vs0mg"},{"bike_id":"244bbfbf-97ed-4a83-b6ae-33a828dedf46","system_id":"levelo_inurba_marseille","lat":43.229362,"lon":5.353809,"is_reserved":false,"is_disabled":false,"rental_uris":{"android":"levelo://app?vid=244bbfbf-97ed-4a83-b6ae-33a828dedf46","ios":"levelo://app?vid=244bbfbf-97ed-4a83-b6ae-33a828dedf46"},"vehicle_type_id":"4","last_reported":1745572243,"current_range_meters":19200,"station_id":"cpo3532slgdg3j2ikp40","pricing_plan_id":"cebpf4jnsgd1na2vs0mg"},{"bike_id":"b34ea466-8068-42ce-bae7-fd278ae6a186","system_id":"levelo_inurba_marseille","lat":43.26789,"lon":5.39406,"is_reserved":false,"is_disabled":false,"rental_uris":{"android":"levelo://app?vid=b34ea466-8068-42ce-bae7-fd278ae6a186","ios":"levelo://app?vid=b34ea466-8068-42ce-bae7-fd278ae6a186"},"vehicle_type_id":"4","last_reported":1745572243,"current_range_meters":19200,"station_id":"ce4bhh12rcd13ifvqfg0","pricing_plan_id":"cebpf4jnsgd1na2vs0mg"},{"bike_id":"dc434cb7-9b20-4d8c-99a0-2d7b6f42e5b0","system_id":"levelo_inurba_marseille","lat":43.27558,"lon":5.38422,"is_reserved":false,"is_disabled":false,"rental_uris":{"android":"levelo://app?vid=dc434cb7-9b20-4d8c-99a0-2d7b6f42e5b0","ios":"levelo://app?vid=dc434cb7-9b20-4d8c-99a0-2d7b6f42e5b0"},"vehicle_type_id":"4","last_reported":1745572243,"current_range_meters":19200,"station_id":"ce4bhh92rcd13ifvqfi0","pricing_plan_id":"cebpf4jnsgd1na2vs0mg"},{"bike_id":"afd83cb2-b0ad-40bc-b635-0785487982a0","system_id":"levelo_inurba_marseille","lat":43.29846,"lon":5.36274,"is_reserved":false,"is_disabled":false,"rental_uris":{"android":"levelo://app?vid=afd83cb2-b0ad-40bc-b635-0785487982a0","ios":"levelo://app?vid=afd83cb2-b0ad-40bc-b635-0785487982a0"},"vehicle_type_id":"4","last_reported":1745572243,"current_range_meters":19200,"station_id":"ce4bgpp2rcd13ifvqc3g","pricing_plan_id":"cebpf4jnsgd1na2vs0mg"},{"bike_id":"57ae730b-34ea-44aa-b608-f633123a3caf","system_id":"levelo_inurba_marseille","lat":43.29516,"lon":5.37509,"is_reserved":false,"is_disabled":false,"rental_uris":{"android":"levelo://app?vid=57ae730b-34ea-44aa-b608-f633123a3caf","ios":"levelo://app?vid=57ae730b-34ea-44aa-b608-f633123a3caf"},"vehicle_type_id":"4","last_reported":1745572243,"current_range_meters":19600,"station_id":"ce4bgkp2rcd13ifvqbmg","pricing_plan_id":"cebpf4jnsgd1na2vs0mg"},{"bike_id":"f5c69073-50c0-490a-a2e7-837f52ac87fa","system_id":"levelo_inurba_marseille","lat":43.24073,"lon":5.3776,"is_reserved":false,"is_disabled":false,"rental_uris":{"android":"levelo://app?vid=f5c69073-50c0-490a-a2e7-837f52ac87fa","ios":"levelo://app?vid=f5c69073-50c0-490a-a2e7-837f52ac87fa"},"vehicle_type_id":"4","last_reported":1745572243,"current_range_meters":19600,"station_id":"ce4bhnp2rcd13ifvqgvg","pricing_plan_id":"cebpf4jnsgd1na2vs0mg"},{"bike_id":"4046a82f-66e8-4b55-bd0a-356edea772d8","system_id":"levelo_inurba_marseille","lat":43.30823,"lon":5.3734,"is_reserved":false,"is_disabled":false,"rental_uris":{"android":"levelo://app?vid=4046a82f-66e8-4b55-bd0a-356edea772d8","ios":"levelo://app?vid=4046a82f-66e8-4b55-bd0a-356edea772d8"},"vehicle_type_id":"4","last_reported":1745572243,"current_range_meters":19600,"station_id":"","pricing_plan_id":"cebpf4jnsgd1na2vs0mg"},{"bike_id":"87d230e1-3701-4811-bc52-b6bcde5161e4","system_id":"levelo_inurba_marseille","lat":43.25914,"lon":5.40896,"is_reserved":false,"is_disabled":false,"rental_uris":{"android":"levelo://app?vid=87d230e1-3701-4811-bc52-b6bcde5161e4","ios":"levelo://app?vid=87d230e1-3701-4811-bc52-b6bcde5161e4"},"vehicle_type_id":"4","last_reported":1745572243,"current_range_meters":19600,"station_id":"ce4bhm92rcd13ifvqglg","pricing_plan_id":"cebpf4jnsgd1na2vs0mg"},{"bike_id":"9824c791-1dd9-4b05-8a92-ac6ed053cb85","system_id":"levelo_inurba_marseille","lat":43.301396,"lon":5.380734,"is_reserved":false,"is_disabled":false,"rental_uris":{"android":"levelo://app?vid=9824c791-1dd9-4b05-8a92-ac6ed053cb85","ios":"levelo://app?vid=9824c791-1dd9-4b05-8a92-ac6ed053cb85"},"vehicle_type_id":"4","last_reported":1745572243,"current_range_meters":19600,"station_id":"ce4bhbp2rcd13ifvqerg","pricing_plan_id":"cebpf4jnsgd1na2vs0mg"},{"bike_id":"f1ac634c-7a0d-4ce2-b92f-26a2bd593acc","system_id":"levelo_inurba_marseille","lat":43.30902,"lon":5.36836,"is_reserved":false,"is_disabled":true,"rental_uris":{"android":"levelo://app?vid=f1ac634c-7a0d-4ce2-b92f-26a2bd593acc","ios":"levelo://app?vid=f1ac634c-7a0d-4ce2-b92f-26a2bd593acc"},"vehicle_type_id":"4","last_reported":1745572243,"current_range_meters":20000,"station_id":"ce4bgn92rcd13ifvqbvg","pricing_plan_id":"cebpf4jnsgd1na2vs0mg"},{"bike_id":"d9f26a3a-6ecb-49b8-b29e-ece4a2fb518e","system_id":"levelo_inurba_marseille","lat":43.30326,"lon":5.36892,"is_reserved":false,"is_disabled":false,"rental_uris":{"android":"levelo://app?vid=d9f26a3a-6ecb-49b8-b29e-ece4a2fb518e","ios":"levelo://app?vid=d9f26a3a-6ecb-49b8-b29e-ece4a2fb518e"},"vehicle_type_id":"4","last_reported":1745572243,"current_range_meters":20000,"station_id":"ce4bgqh2rcd13ifvqc5g","pricing_plan_id":"cebpf4jnsgd1na2vs0mg"},{"bike_id":"bb9d861d-8274-4ae7-9cab-738ceecfdaed","system_id":"levelo_inurba_marseille","lat":43.24646,"lon":5.38888,"is_reserved":false,"is_disabled":false,"rental_uris":{"android":"levelo://app?vid=bb9d861d-8274-4ae7-9cab-738ceecfdaed","ios":"levelo://app?vid=bb9d861d-8274-4ae7-9cab-738ceecfdaed"},"vehicle_type_id":"4","last_reported":1745572243,"current_range_meters":20000,"station_id":"ce4bhg12rcd13ifvqf60","pricing_plan_id":"cebpf4jnsgd1na2vs0mg"},{"bike_id":"a5747e6e-e90e-4965-b8e7-1750b6f646d7","system_id":"levelo_inurba_marseille","lat":43.31079,"lon":5.38358,"is_reserved":false,"is_disabled":false,"rental_uris":{"android":"levelo://app?vid=a5747e6e-e90e-4965-b8e7-1750b6f646d7","ios":"levelo://app?vid=a5747e6e-e90e-4965-b8e7-1750b6f646d7"},"vehicle_type_id":"4","last_reported":1745572243,"current_range_meters":20000,"station_id":"ce4bgv92rcd13ifvqcr0","pricing_plan_id":"cebpf4jnsgd1na2vs0mg"},{"bike_id":"fb81db3c-12e2-44b7-8142-2689708da6f1","system_id":"levelo_inurba_marseille","lat":43.30889,"lon":5.37177,"is_reserved":false,"is_disabled":false,"rental_uris":{"android":"levelo://app?vid=fb81db3c-12e2-44b7-8142-2689708da6f1","ios":"levelo://app?vid=fb81db3c-12e2-44b7-8142-2689708da6f1"},"vehicle_type_id":"4","last_reported":1745572243,"current_range_meters":20000,"station_id":"ce4bguh2rcd13ifvqckg","pricing_plan_id":"cebpf4jnsgd1na2vs0mg"},{"bike_id":"652c7b44-220c-4b32-8b64-ae95d0ad1640","system_id":"levelo_inurba_marseille","lat":43.23206,"lon":5.35568,"is_reserved":false,"is_disabled":true,"rental_uris":{"android":"levelo://app?vid=652c7b44-220c-4b32-8b64-ae95d0ad1640","ios":"levelo://app?vid=652c7b44-220c-4b32-8b64-ae95d0ad1640"},"vehicle_type_id":"4","last_reported":1745572243,"current_range_meters":20000,"station_id":"ce4bhu92rcd13ifvqi70","pricing_plan_id":"cebpf4jnsgd1na2vs0mg"},{"bike_id":"9c9c110e-8bcb-46ac-980c-f056c1666c27","system_id":"levelo_inurba_marseille","lat":43.26212,"lon":5.379227,"is_reserved":false,"is_disabled":true,"rental_uris":{"android":"levelo://app?vid=9c9c110e-8bcb-46ac-980c-f056c1666c27","ios":"levelo://app?vid=9c9c110e-8bcb-46ac-980c-f056c1666c27"},"vehicle_type_id":"4","last_reported":1745572243,"current_range_meters":20000,"station_id":"ce4bhjp2rcd13ifvqg90","pricing_plan_id":"cebpf4jnsgd1na2vs0mg"},{"bike_id":"fbf3750d-6248-438c-bdc8-e7db0beafbd0","system_id":"levelo_inurba_marseille","lat":43.31339,"lon":5.36731,"is_reserved":false,"is_disabled":false,"rental_uris":{"android":"levelo://app?vid=fbf3750d-6248-438c-bdc8-e7db0beafbd0","ios":"levelo://app?vid=fbf3750d-6248-438c-bdc8-e7db0beafbd0"},"vehicle_type_id":"4","last_reported":1745572243,"current_range_meters":20000,"station_id":"ce4bgr92rcd13ifvqc6g","pricing_plan_id":"cebpf4jnsgd1na2vs0mg"},{"bike_id":"4f8b5203-5043-4c31-bf48-4803da59ec66","system_id":"levelo_inurba_marseille","lat":43.25943,"lon":5.40884,"is_reserved":false,"is_disabled":false,"rental_uris":{"android":"levelo://app?vid=4f8b5203-5043-4c31-bf48-4803da59ec66","ios":"levelo://app?vid=4f8b5203-5043-4c31-bf48-4803da59ec66"},"vehicle_type_id":"4","last_reported":1745572243,"current_range_meters":20000,"station_id":"ce4bhm92rcd13ifvqglg","pricing_plan_id":"cebpf4jnsgd1na2vs0mg"},{"bike_id":"e574ad62-c6f0-4bef-9f23-0e1f67411a7c","system_id":"levelo_inurba_marseille","lat":43.29196,"lon":5.358,"is_reserved":false,"is_disabled":false,"rental_uris":{"android":"levelo://app?vid=e574ad62-c6f0-4bef-9f23-0e1f67411a7c","ios":"levelo://app?vid=e574ad62-c6f0-4bef-9f23-0e1f67411a7c"},"vehicle_type_id":"4","last_reported":1745572243,"current_range_meters":20400,"station_id":"ce4bhb12rcd13ifvqel0","pricing_plan_id":"cebpf4jnsgd1na2vs0mg"},{"bike_id":"24a88669-6c24-43a1-8ec0-05e669734143","system_id":"levelo_inurba_marseille","lat":43.24158,"lon":5.36386,"is_reserved":false,"is_disabled":false,"rental_uris":{"android":"levelo://app?vid=24a88669-6c24-43a1-8ec0-05e669734143","ios":"levelo://app?vid=24a88669-6c24-43a1-8ec0-05e669734143"},"vehicle_type_id":"4","last_reported":1745572243,"current_range_meters":20400,"station_id":"cpo36qri1sfpv3e86is0","pricing_plan_id":"cebpf4jnsgd1na2vs0mg"},{"bike_id":"d75bd4dc-2519-46ae-b7ae-1fde0575fc9e","system_id":"levelo_inurba_marseille","lat":43.30423,"lon":5.400916,"is_reserved":false,"is_disabled":false,"rental_uris":{"android":"levelo://app?vid=d75bd4dc-2519-46ae-b7ae-1fde0575fc9e","ios":"levelo://app?vid=d75bd4dc-2519-46ae-b7ae-1fde0575fc9e"},"vehicle_type_id":"4","last_reported":1745572243,"current_range_meters":20400,"station_id":"ce4bh092rcd13ifvqd30","pricing_plan_id":"cebpf4jnsgd1na2vs0mg"},{"bike_id":"f722863c-6469-4b26-afa1-f8f21ce77e03","system_id":"levelo_inurba_marseille","lat":43.29709,"lon":5.36614,"is_reserved":false,"is_disabled":false,"rental_uris":{"android":"levelo://app?vid=f722863c-6469-4b26-afa1-f8f21ce77e03","ios":"levelo://app?vid=f722863c-6469-4b26-afa1-f8f21ce77e03"},"vehicle_type_id":"4","last_reported":1745572243,"current_range_meters":20400,"station_id":"ce4bgn12rcd13ifvqbt0","pricing_plan_id":"cebpf4jnsgd1na2vs0mg"},{"bike_id":"0390d0f3-6da8-4b4c-b55e-9bb2cefe45c4","system_id":"levelo_inurba_marseille","lat":43.2857,"lon":5.40046,"is_reserved":false,"is_disabled":false,"rental_uris":{"android":"levelo://app?vid=0390d0f3-6da8-4b4c-b55e-9bb2cefe45c4","ios":"levelo://app?vid=0390d0f3-6da8-4b4c-b55e-9bb2cefe45c4"},"vehicle_type_id":"4","last_reported":1745572243,"current_range_meters":20400,"station_id":"","pricing_plan_id":"cebpf4jnsgd1na2vs0mg"},{"bike_id":"e92565b1-0dda-4426-8c0d-cf38ecdda8a2","system_id":"levelo_inurba_marseille","lat":43.21743,"lon":5.34607,"is_reserved":false,"is_disabled":false,"rental_uris":{"android":"levelo://app?vid=e92565b1-0dda-4426-8c0d-cf38ecdda8a2","ios":"levelo://app?vid=e92565b1-0dda-4426-8c0d-cf38ecdda8a2"},"vehicle_type_id":"4","last_reported":1745572243,"current_range_meters":20400,"station_id":"st_cvj6r9ubvosntc0bgbag","pricing_plan_id":"cebpf4jnsgd1na2vs0mg"},{"bike_id":"3a2a12f9-479d-41e5-98ea-f486f70ba9e2","system_id":"levelo_inurba_marseille","lat":43.29541,"lon":5.3905,"is_reserved":false,"is_disabled":false,"rental_uris":{"android":"levelo://app?vid=3a2a12f9-479d-41e5-98ea-f486f70ba9e2","ios":"levelo://app?vid=3a2a12f9-479d-41e5-98ea-f486f70ba9e2"},"vehicle_type_id":"4","last_reported":1745572243,"current_range_meters":20800,"station_id":"ce4bh3p2rcd13ifvqdp0","pricing_plan_id":"cebpf4jnsgd1na2vs0mg"},{"bike_id":"cd2635aa-dde9-4394-9050-1edd809b1abc","system_id":"levelo_inurba_marseille","lat":43.31123,"lon":5.37754,"is_reserved":false,"is_disabled":false,"rental_uris":{"android":"levelo://app?vid=cd2635aa-dde9-4394-9050-1edd809b1abc","ios":"levelo://app?vid=cd2635aa-dde9-4394-9050-1edd809b1abc"},"vehicle_type_id":"4","last_reported":1745572243,"current_range_meters":20800,"station_id":"ce4bgt92rcd13ifvqcg0","pricing_plan_id":"cebpf4jnsgd1na2vs0mg"},{"bike_id":"82fc0d6e-6ff9-4435-939d-4e38481aaeb3","system_id":"levelo_inurba_marseille","lat":43.31343,"lon":5.3673,"is_reserved":false,"is_disabled":false,"rental_uris":{"android":"levelo://app?vid=82fc0d6e-6ff9-4435-939d-4e38481aaeb3","ios":"levelo://app?vid=82fc0d6e-6ff9-4435-939d-4e38481aaeb3"},"vehicle_type_id":"4","last_reported":1745572243,"current_range_meters":20800,"station_id":"ce4bgr92rcd13ifvqc6g","pricing_plan_id":"cebpf4jnsgd1na2vs0mg"},{"bike_id":"4287dc3c-c3cf-4660-88a7-55e308970a04","system_id":"levelo_inurba_marseille","lat":43.28073,"lon":5.39649,"is_reserved":false,"is_disabled":false,"rental_uris":{"android":"levelo://app?vid=4287dc3c-c3cf-4660-88a7-55e308970a04","ios":"levelo://app?vid=4287dc3c-c3cf-4660-88a7-55e308970a04"},"vehicle_type_id":"4","last_reported":1745572243,"current_range_meters":20800,"station_id":"ce4bho12rcd13ifvqh2g","pricing_plan_id":"cebpf4jnsgd1na2vs0mg"},{"bike_id":"ab5a8725-5ec2-495b-aa72-c56ccaa4f772","system_id":"levelo_inurba_marseille","lat":43.23149,"lon":5.43715,"is_reserved":false,"is_disabled":false,"rental_uris":{"android":"levelo://app?vid=ab5a8725-5ec2-495b-aa72-c56ccaa4f772","ios":"levelo://app?vid=ab5a8725-5ec2-495b-aa72-c56ccaa4f772"},"vehicle_type_id":"4","last_reported":1745572243,"current_range_meters":20800,"station_id":"ce4bhmp2rcd13ifvqgog","pricing_plan_id":"cebpf4jnsgd1na2vs0mg"},{"bike_id":"0ba6b97f-7600-4f0a-9781-84cdb028c126","system_id":"levelo_inurba_marseille","lat":43.27504,"lon":5.425,"is_reserved":false,"is_disabled":false,"rental_uris":{"android":"levelo://app?vid=0ba6b97f-7600-4f0a-9781-84cdb028c126","ios":"levelo://app?vid=0ba6b97f-7600-4f0a-9781-84cdb028c126"},"vehicle_type_id":"4","last_reported":1745572243,"current_range_meters":20800,"station_id":"ce4bhn92rcd13ifvqgrg","pricing_plan_id":"cebpf4jnsgd1na2vs0mg"},{"bike_id":"cd69fd9c-6934-40ac-93cb-3d9adb1eea50","system_id":"levelo_inurba_marseille","lat":43.29268,"lon":5.38432,"is_reserved":false,"is_disabled":false,"rental_uris":{"android":"levelo://app?vid=cd69fd9c-6934-40ac-93cb-3d9adb1eea50","ios":"levelo://app?vid=cd69fd9c-6934-40ac-93cb-3d9adb1eea50"},"vehicle_type_id":"4","last_reported":1745572243,"current_range_meters":20800,"station_id":"ce4bh692rcd13ifvqea0","pricing_plan_id":"cebpf4jnsgd1na2vs0mg"},{"bike_id":"043c313f-1613-45a3-91a5-25b8cb6b266e","system_id":"levelo_inurba_marseille","lat":43.24178,"lon":5.39722,"is_reserved":false,"is_disabled":false,"rental_uris":{"android":"levelo://app?vid=043c313f-1613-45a3-91a5-25b8cb6b266e","ios":"levelo://app?vid=043c313f-1613-45a3-91a5-25b8cb6b266e"},"vehicle_type_id":"4","last_reported":1745572243,"current_range_meters":22000,"station_id":"ce4bhn12rcd13ifvqgpg","pricing_plan_id":"cebpf4jnsgd1na2vs0mg"},{"bike_id":"a34cac34-324e-4070-b1d4-0ed2738f7343","system_id":"levelo_inurba_marseille","lat":43.30274,"lon":5.37689,"is_reserved":false,"is_disabled":false,"rental_uris":{"android":"levelo://app?vid=a34cac34-324e-4070-b1d4-0ed2738f7343","ios":"levelo://app?vid=a34cac34-324e-4070-b1d4-0ed2738f7343"},"vehicle_type_id":"4","last_reported":1745572243,"current_range_meters":22000,"station_id":"ce4bguh2rcd13ifvqcj0","pricing_plan_id":"cebpf4jnsgd1na2vs0mg"},{"bike_id":"8d591507-5fba-42c1-afce-edb828d3dd11","system_id":"levelo_inurba_marseille","lat":43.2593,"lon":5.40898,"is_reserved":false,"is_disabled":false,"rental_uris":{"android":"levelo://app?vid=8d591507-5fba-42c1-afce-edb828d3dd11","ios":"levelo://app?vid=8d591507-5fba-42c1-afce-edb828d3dd11"},"vehicle_type_id":"4","last_reported":1745572243,"current_range_meters":22000,"station_id":"ce4bhm92rcd13ifvqglg","pricing_plan_id":"cebpf4jnsgd1na2vs0mg"},{"bike_id":"8d465cdc-5b2d-4345-8c53-8e9229cb7e0e","system_id":"levelo_inurba_marseille","lat":43.27324,"lon":5.39062,"is_reserved":false,"is_disabled":false,"rental_uris":{"android":"levelo://app?vid=8d465cdc-5b2d-4345-8c53-8e9229cb7e0e","ios":"levelo://app?vid=8d465cdc-5b2d-4345-8c53-8e9229cb7e0e"},"vehicle_type_id":"4","last_reported":1745572243,"current_range_meters":22000,"station_id":"ce4bhgp2rcd13ifvqfe0","pricing_plan_id":"cebpf4jnsgd1na2vs0mg"},{"bike_id":"c4a53509-be92-4892-a8fe-317213f579a2","system_id":"levelo_inurba_marseille","lat":43.28618,"lon":5.35094,"is_reserved":false,"is_disabled":true,"rental_uris":{"android":"levelo://app?vid=c4a53509-be92-4892-a8fe-317213f579a2","ios":"levelo://app?vid=c4a53509-be92-4892-a8fe-317213f579a2"},"vehicle_type_id":"4","last_reported":1745572243,"current_range_meters":22000,"station_id":"ce4bhch2rcd13ifvqeug","pricing_plan_id":"cebpf4jnsgd1na2vs0mg"},{"bike_id":"4c98031e-4b2b-490f-92e1-ebb6291e956b","system_id":"levelo_inurba_marseille","lat":43.29252,"lon":5.40897,"is_reserved":false,"is_disabled":false,"rental_uris":{"android":"levelo://app?vid=4c98031e-4b2b-490f-92e1-ebb6291e956b","ios":"levelo://app?vid=4c98031e-4b2b-490f-92e1-ebb6291e956b"},"vehicle_type_id":"4","last_reported":1745572243,"current_range_meters":22000,"station_id":"ce4bh192rcd13ifvqdc0","pricing_plan_id":"cebpf4jnsgd1na2vs0mg"},{"bike_id":"5751d606-a11e-4c20-8d56-3a63e65e1be0","system_id":"levelo_inurba_marseille","lat":43.23154,"lon":5.43721,"is_reserved":false,"is_disabled":false,"rental_uris":{"android":"levelo://app?vid=5751d606-a11e-4c20-8d56-3a63e65e1be0","ios":"levelo://app?vid=5751d606-a11e-4c20-8d56-3a63e65e1be0"},"vehicle_type_id":"4","last_reported":1745572243,"current_range_meters":22000,"station_id":"ce4bhmp2rcd13ifvqgog","pricing_plan_id":"cebpf4jnsgd1na2vs0mg"},{"bike_id":"72c416e0-f89a-4b40-a1c6-7e3ea6bf5db3","system_id":"levelo_inurba_marseille","lat":43.23131,"lon":5.43729,"is_reserved":false,"is_disabled":false,"rental_uris":{"android":"levelo://app?vid=72c416e0-f89a-4b40-a1c6-7e3ea6bf5db3","ios":"levelo://app?vid=72c416e0-f89a-4b40-a1c6-7e3ea6bf5db3"},"vehicle_type_id":"4","last_reported":1745572243,"current_range_meters":22400,"station_id":"ce4bhmp2rcd13ifvqgog","pricing_plan_id":"cebpf4jnsgd1na2vs0mg"},{"bike_id":"d7edd326-1f63-4585-952e-80b37980d45b","system_id":"levelo_inurba_marseille","lat":43.31338,"lon":5.36571,"is_reserved":false,"is_disabled":false,"rental_uris":{"android":"levelo://app?vid=d7edd326-1f63-4585-952e-80b37980d45b","ios":"levelo://app?vid=d7edd326-1f63-4585-952e-80b37980d45b"},"vehicle_type_id":"4","last_reported":1745572243,"current_range_meters":22400,"station_id":"ce4bgr92rcd13ifvqc6g","pricing_plan_id":"cebpf4jnsgd1na2vs0mg"},{"bike_id":"5c998ab7-7a53-44f7-9ab7-a13455807432","system_id":"levelo_inurba_marseille","lat":43.28338,"lon":5.38109,"is_reserved":false,"is_disabled":false,"rental_uris":{"android":"levelo://app?vid=5c998ab7-7a53-44f7-9ab7-a13455807432","ios":"levelo://app?vid=5c998ab7-7a53-44f7-9ab7-a13455807432"},"vehicle_type_id":"4","last_reported":1745572243,"current_range_meters":22400,"station_id":"ce4bh412rcd13ifvqdr0","pricing_plan_id":"cebpf4jnsgd1na2vs0mg"},{"bike_id":"50d5bda6-69e1-4b45-a14a-944f6eb70469","system_id":"levelo_inurba_marseille","lat":43.25923,"lon":5.40881,"is_reserved":false,"is_disabled":false,"rental_uris":{"android":"levelo://app?vid=50d5bda6-69e1-4b45-a14a-944f6eb70469","ios":"levelo://app?vid=50d5bda6-69e1-4b45-a14a-944f6eb70469"},"vehicle_type_id":"4","last_reported":1745572243,"current_range_meters":22400,"station_id":"ce4bhm92rcd13ifvqglg","pricing_plan_id":"cebpf4jnsgd1na2vs0mg"},{"bike_id":"b29e045e-b952-495e-8bef-6cc91af7a9db","system_id":"levelo_inurba_marseille","lat":43.27426,"lon":5.39417,"is_reserved":false,"is_disabled":false,"rental_uris":{"android":"levelo://app?vid=b29e045e-b952-495e-8bef-6cc91af7a9db","ios":"levelo://app?vid=b29e045e-b952-495e-8bef-6cc91af7a9db"},"vehicle_type_id":"4","last_reported":1745572243,"current_range_meters":22400,"station_id":"ce4bhdp2rcd13ifvqf20","pricing_plan_id":"cebpf4jnsgd1na2vs0mg"},{"bike_id":"cb89b545-c0e7-4754-ad87-1a7c830c1ca8","system_id":"levelo_inurba_marseille","lat":43.27954,"lon":5.38736,"is_reserved":false,"is_disabled":false,"rental_uris":{"android":"levelo://app?vid=cb89b545-c0e7-4754-ad87-1a7c830c1ca8","ios":"levelo://app?vid=cb89b545-c0e7-4754-ad87-1a7c830c1ca8"},"vehicle_type_id":"4","last_reported":1745572243,"current_range_meters":22400,"station_id":"ce4bhg12rcd13ifvqf80","pricing_plan_id":"cebpf4jnsgd1na2vs0mg"},{"bike_id":"faa8334f-d698-4b2b-8f65-d27f28dd59cc","system_id":"levelo_inurba_marseille","lat":43.33738,"lon":5.39172,"is_reserved":false,"is_disabled":false,"rental_uris":{"android":"levelo://app?vid=faa8334f-d698-4b2b-8f65-d27f28dd59cc","ios":"levelo://app?vid=faa8334f-d698-4b2b-8f65-d27f28dd59cc"},"vehicle_type_id":"4","last_reported":1745572243,"current_range_meters":22400,"station_id":"ce4bhr92rcd13ifvqhsg","pricing_plan_id":"cebpf4jnsgd1na2vs0mg"},{"bike_id":"af975909-03b4-4792-b5ae-3b14cb93d9eb","system_id":"levelo_inurba_marseille","lat":43.297668,"lon":5.381015,"is_reserved":false,"is_disabled":false,"rental_uris":{"android":"levelo://app?vid=af975909-03b4-4792-b5ae-3b14cb93d9eb","ios":"levelo://app?vid=af975909-03b4-4792-b5ae-3b14cb93d9eb"},"vehicle_type_id":"4","last_reported":1745572243,"current_range_meters":22800,"station_id":"ce4bgjp2rcd13ifvqbh0","pricing_plan_id":"cebpf4jnsgd1na2vs0mg"},{"bike_id":"72370ac8-1fe9-4207-a1ad-497e1e9e30cf","system_id":"levelo_inurba_marseille","lat":43.30532,"lon":5.36687,"is_reserved":false,"is_disabled":false,"rental_uris":{"android":"levelo://app?vid=72370ac8-1fe9-4207-a1ad-497e1e9e30cf","ios":"levelo://app?vid=72370ac8-1fe9-4207-a1ad-497e1e9e30cf"},"vehicle_type_id":"4","last_reported":1745572243,"current_range_meters":22800,"station_id":"ce4bgrp2rcd13ifvqc9g","pricing_plan_id":"cebpf4jnsgd1na2vs0mg"},{"bike_id":"7a2b995e-e2e6-48ab-ae9a-88c0337e6fe9","system_id":"levelo_inurba_marseille","lat":43.29575,"lon":5.3674,"is_reserved":false,"is_disabled":false,"rental_uris":{"android":"levelo://app?vid=7a2b995e-e2e6-48ab-ae9a-88c0337e6fe9","ios":"levelo://app?vid=7a2b995e-e2e6-48ab-ae9a-88c0337e6fe9"},"vehicle_type_id":"4","last_reported":1745572243,"current_range_meters":22800,"station_id":"ce4bgph2rcd13ifvqc2g","pricing_plan_id":"cebpf4jnsgd1na2vs0mg"},{"bike_id":"3ea242bb-dc31-44a9-8d1d-ecdbc103752c","system_id":"levelo_inurba_marseille","lat":43.28422,"lon":5.34979,"is_reserved":false,"is_disabled":false,"rental_uris":{"android":"levelo://app?vid=3ea242bb-dc31-44a9-8d1d-ecdbc103752c","ios":"levelo://app?vid=3ea242bb-dc31-44a9-8d1d-ecdbc103752c"},"vehicle_type_id":"4","last_reported":1745572243,"current_range_meters":22800,"station_id":"ce4bhbh2rcd13ifvqepg","pricing_plan_id":"cebpf4jnsgd1na2vs0mg"},{"bike_id":"60dea69b-0585-4d13-ad17-d085a82f8b81","system_id":"levelo_inurba_marseille","lat":43.240695,"lon":5.377572,"is_reserved":false,"is_disabled":false,"rental_uris":{"android":"levelo://app?vid=60dea69b-0585-4d13-ad17-d085a82f8b81","ios":"levelo://app?vid=60dea69b-0585-4d13-ad17-d085a82f8b81"},"vehicle_type_id":"4","last_reported":1745572243,"current_range_meters":22800,"station_id":"ce4bhnp2rcd13ifvqgvg","pricing_plan_id":"cebpf4jnsgd1na2vs0mg"},