{"last_updated":1717358862,"ttl":30,"version":"2.2","data":{"bikes":[{"bike_id":"c3355814-0e10-4dfa-98f2-9098fbd92c12","system_id":"levelo_inurba_marseille","lat":43.312239,"lon":5.368562,"is_reserved":false,"is_disabled":false,"rental_uris":{"android":"levelo://app?vid=c3355814-0e10-4dfa-98f2-9098fbd92c12","ios":"levelo://app?vid=c3355814-0e10-4dfa-98f2-9098fbd92c12"},"vehicle_type_id":"4","last_reported":1717358862,"current_range_meters":21600,"station_id":"ce4bgl92rcd13ifvqbq0","pricing_plan_id":"cebpf4jnsgd1na2vs0mg"},{"bike_id":"3af77dce-fa13-4183-bc32-bd25ddce9125","system_id":"levelo_inurba_marseille","lat":43.312239,"lon":5.368562,"is_reserved":false,"is_disabled":false,"rental_uris":{"android":"levelo://app?vid=3af77dce-fa13-4183-bc32-bd25ddce9125","ios":"levelo://app?vid=3af77dce-fa13-4183-bc32-bd25ddce9125"},"vehicle_type_id":"4","last_reported":1717358862,"current_range_meters":30000,"station_id":"ce4bgl92rcd13ifvqbq0","pricing_plan_id":"cebpf4jnsgd1na2vs0mg"},{"bike_id":"1c9eb1c6-c854-44a3-ad87-1ffa094938e9","system_id":"levelo_inurba_marseille","lat":43.314811,"lon":5.373103,"is_reserved":false,"is_disabled":false,"rental_uris":{"android":"levelo://app?vid=1c9eb1c6-c854-44a3-ad87-1ffa094938e9","ios":"levelo://app?vid=1c9eb1c6-c854-44a3-ad87-1ffa094938e9"},"vehicle_type_id":"4","last_reported":1717358862,"current_range_meters":16000,"station_id":"ce4bgt12rcd13ifvqcd0","pricing_plan_id":"cebpf4jnsgd1na2vs0mg"},{"bike_id":"00fc2fed-a61a-4421-9f5e-c162d983059c","system_id":"levelo_inurba_marseille","lat":43.314811,"lon":5.373103,"is_reserved":false,"is_disabled":false,"rental_uris":{"android":"levelo://app?vid=00fc2fed-a61a-4421-9f5e-c162d983059c","ios":"levelo://app?vid=00fc2fed-a61a-4421-9f5e-c162d983059c"},"vehicle_type_id":"4","last_reported":1717358862,"current_range_meters":6400,"station_id":"ce4bgt12rcd13ifvqcd0","pricing_plan_id":"cebpf4jnsgd1na2vs0mg"},{"bike_id":"f05b37db-2e2b-4ceb-a3f5-0ab6c2872d96","system_id":"levelo_inurba_marseille","lat":43.314811,"lon":5.373103,"is_reserved":false,"is_disabled":false,"rental_uris":{"android":"levelo://app?vid=f05b37db-2e2b-4ceb-a3f5-0ab6c2872d96","ios":"levelo://app?vid=f05b37db-2e2b-4ceb-a3f5-0ab6c2872d96"},"vehicle_type_id":"4","last_reported":1717358862,"current_range_meters":11200,"station_id":"ce4bgt12rcd13ifvqcd0","pricing_plan_id":"cebpf4jnsgd1na2vs0mg"},{"bike_id":"3a3f65ee-1385-470a-b267-e4d7dadfb109","system_id":"levelo_inurba_marseille","lat":43.309039,"lon":5.371797,"is_reserved":false,"is_disabled":false,"rental_uris":{"android":"levelo://app?vid=3a3f65ee-1385-470a-b267-e4d7dadfb109","ios":"levelo://app?vid=3a3f65ee-1385-470a-b267-e4d7dadfb109"},"vehicle_type_id":"4","last_reported":1717358862,"current_range_meters":30800,"station_id":"ce4bguh2rcd13ifvqckg","pricing_plan_id":"cebpf4jnsgd1na2vs0mg"},{"bike_id":"1add6695-7de9-4341-9bc2-0bc7b7df077e","system_id":"levelo_inurba_marseille","lat":43.309034,"lon":5.371783,"is_reserved":false,"is_disabled":false,"rental_uris":{"android":"levelo://app?vid=1add6695-7de9-4341-9bc2-0bc7b7df077e","ios":"levelo://app?vid=1add6695-7de9-4341-9bc2-0bc7b7df077e"},"vehicle_type_id":"4","last_reported":1717358862,"current_range_meters":18000,"station_id":"ce4bguh2rcd13ifvqckg","pricing_plan_id":"cebpf4jnsgd1na2vs0mg"},{"bike_id":"d0e55f84-a0b7-4855-9f4c-709241fc11f5","system_id":"levelo_inurba_marseille","lat":43.309039,"lon":5.371797,"is_reserved":false,"is_disabled":false,"rental_uris":{"android":"levelo://app?vid=d0e55f84-a0b7-4855-9f4c-709241fc11f5","ios":"levelo://app?vid=d0e55f84-a0b7-4855-9f4c-709241fc11f5"},"vehicle_type_id":"4","last_reported":1717358862,"current_range_meters":26800,"station_id":"ce4bguh2rcd13ifvqckg","pricing_plan_id":"cebpf4jnsgd1na2vs0mg"},{"bike_id":"2035ac7c-77c8-4ea0-bd36-e22b1a48c928","system_id":"levelo_inurba_marseille","lat":43.30537,"lon":5.367345,"is_reserved":false,"is_disabled":false,"rental_uris":{"android":"levelo://app?vid=2035ac7c-77c8-4ea0-bd36-e22b1a48c928","ios":"levelo://app?vid=2035ac7c-77c8-4ea0-bd36-e22b1a48c928"},"vehicle_type_id":"4","last_reported":1717358862,"current_range_meters":2400,"station_id":"ce4bgrp2rcd13ifvqc9g","pricing_plan_id":"cebpf4jnsgd1na2vs0mg"},{"bike_id":"9a25a475-3963-41c2-8aed-bfc6cdd749a1","system_id":"levelo_inurba_marseille","lat":43.305714,"lon":5.365633,"is_reserved":false,"is_disabled":false,"rental_uris":{"android":"levelo://app?vid=9a25a475-3963-41c2-8aed-bfc6cdd749a1","ios":"levelo://app?vid=9a25a475-3963-41c2-8aed-bfc6cdd749a1"},"vehicle_type_id":"4","last_reported":1717358862,"current_range_meters":12000,"station_id":"ce4bgs12rcd13ifvqcag","pricing_plan_id":"cebpf4jnsgd1na2vs0mg"},{"bike_id":"5f05a65e-6387-4d66-bfee-3811f1bf6d13","system_id":"levelo_inurba_marseille","lat":43.305368,"lon":5.367343,"is_reserved":false,"is_disabled":false,"rental_uris":{"android":"levelo://app?vid=5f05a65e-6387-4d66-bfee-3811f1bf6d13","ios":"levelo://app?vid=5f05a65e-6387-4d66-bfee-3811f1bf6d13"},"vehicle_type_id":"4","last_reported":1717358862,"current_range_meters":28000,"station_id":"ce4bgrp2rcd13ifvqc9g","pricing_plan_id":"cebpf4jnsgd1na2vs0mg"},{"bike_id":"04276717-fc86-4f9a-b9b4-2d3e58abb2f9","system_id":"levelo_inurba_marseille","lat":43.305989,"lon":5.37225,"is_reserved":false,"is_disabled":false,"rental_uris":{"android":"levelo://app?vid=04276717-fc86-4f9a-b9b4-2d3e58abb2f9","ios":"levelo://app?vid=04276717-fc86-4f9a-b9b4-2d3e58abb2f9"},"vehicle_type_id":"4","last_reported":1717358862,"current_range_meters":19600,"station_id":"ce4bgqh2rcd13ifvqc4g","pricing_plan_id":"cebpf4jnsgd1na2vs0mg"},{"bike_id":"08affd98-2d9a-48fe-a959-6dfe0991a57d","system_id":"levelo_inurba_marseille","lat":43.305989,"lon":5.37225,"is_reserved":false,"is_disabled":false,"rental_uris":{"android":"levelo://app?vid=08affd98-2d9a-48fe-a959-6dfe0991a57d","ios":"levelo://app?vid=08affd98-2d9a-48fe-a959-6dfe0991a57d"},"vehicle_type_id":"4","last_reported":1717358862,"current_range_meters":1200,"station_id":"ce4bgqh2rcd13ifvqc4g","pricing_plan_id":"cebpf4jnsgd1na2vs0mg"},{"bike_id":"1e3a1224-fe3e-4a8f-86ba-821f03413c97","system_id":"levelo_inurba_marseille","lat":43.311131,"lon":5.377651,"is_reserved":false,"is_disabled":false,"rental_uris":{"android":"levelo://app?vid=1e3a1224-fe3e-4a8f-86ba-821f03413c97","ios":"levelo://app?vid=1e3a1224-fe3e-4a8f-86ba-821f03413c97"},"vehicle_type_id":"4","last_reported":1717358862,"current_range_meters":0,"station_id":"ce4bgt92rcd13ifvqcg0","pricing_plan_id":"cebpf4jnsgd1na2vs0mg"},{"bike_id":"bd5bc816-d071-44b0-bddb-4beb497bac4b","system_id":"levelo_inurba_marseille","lat":43.311125,"lon":5.377624,"is_reserved":false,"is_disabled":false,"rental_uris":{"android":"levelo://app?vid=bd5bc816-d071-44b0-bddb-4beb497bac4b","ios":"levelo://app?vid=bd5bc816-d071-44b0-bddb-4beb497bac4b"},"vehicle_type_id":"4","last_reported":1717358862,"current_range_meters":3200,"station_id":"ce4bgt92rcd13ifvqcg0","pricing_plan_id":"cebpf4jnsgd1na2vs0mg"},{"bike_id":"1d8e22e9-ba34-49d0-ac51-55ae19b26ae8","system_id":"levelo_inurba_marseille","lat":43.311131,"lon":5.377651,"is_reserved":false,"is_disabled":false,"rental_uris":{"android":"levelo://app?vid=1d8e22e9-ba34-49d0-ac51-55ae19b26ae8","ios":"levelo://app?vid=1d8e22e9-ba34-49d0-ac51-55ae19b26ae8"},"vehicle_type_id":"4","last_reported":1717358862,"current_range_meters":19600,"station_id":"ce4bgt92rcd13ifvqcg0","pricing_plan_id":"cebpf4jnsgd1na2vs0mg"},{"bike_id":"e5d37a76-4858-463a-8276-34d97cb6642c","system_id":"levelo_inurba_marseille","lat":43.307945,"lon":5.376487,"is_reserved":false,"is_disabled":false,"rental_uris":{"android":"levelo://app?vid=e5d37a76-4858-463a-8276-34d97cb6642c","ios":"levelo://app?vid=e5d37a76-4858-463a-8276-34d97cb6642c"},"vehicle_type_id":"4","last_reported":1717358862,"current_range_meters":2400,"station_id":"ce4bgv92rcd13ifvqcq0","pricing_plan_id":"cebpf4jnsgd1na2vs0mg"},{"bike_id":"4a4a3d2f-fb04-4085-ae85-89e3fd10c02d","system_id":"levelo_inurba_marseille","lat":43.297794,"lon":5.370888,"is_reserved":false,"is_disabled":false,"rental_uris":{"android":"levelo://app?vid=4a4a3d2f-fb04-4085-ae85-89e3fd10c02d","ios":"levelo://app?vid=4a4a3d2f-fb04-4085-ae85-89e3fd10c02d"},"vehicle_type_id":"4","last_reported":1717358862,"current_range_meters":2400,"station_id":"ce4bgop2rcd13ifvqc1g","pricing_plan_id":"cebpf4jnsgd1na2vs0mg"},{"bike_id":"0b987fbd-07a0-4449-899e-1a7f665cb5f8","system_id":"levelo_inurba_marseille","lat":43.307945,"lon":5.376487,"is_reserved":false,"is_disabled":false,"rental_uris":{"android":"levelo://app?vid=0b987fbd-07a0-4449-899e-1a7f665cb5f8","ios":"levelo://app?vid=0b987fbd-07a0-4449-899e-1a7f665cb5f8"},"vehicle_type_id":"4","last_reported":1717358862,"current_range_meters":8000,"station_id":"ce4bgv92rcd13ifvqcq0","pricing_plan_id":"cebpf4jnsgd1na2vs0mg"},{"bike_id":"b1f84b40-3548-4116-9979-3ce621cde52d","system_id":"levelo_inurba_marseille","lat":43.307945,"lon":5.376487,"is_reserved":false,"is_disabled":false,"rental_uris":{"android":"levelo://app?vid=b1f84b40-3548-4116-9979-3ce621cde52d","ios":"levelo://app?vid=b1f84b40-3548-4116-9979-3ce621cde52d"},"vehicle_type_id":"4","last_reported":1717358862,"current_range_meters":7200,"station_id":"ce4bgv92rcd13ifvqcq0","pricing_plan_id":"cebpf4jnsgd1na2vs0mg"},{"bike_id":"86570f96-c135-4b15-a377-0e3b078729ca","system_id":"levelo_inurba_marseille","lat":43.317075,"lon":5.377367,"is_reserved":false,"is_disabled":false,"rental_uris":{"android":"levelo://app?vid=86570f96-c135-4b15-a377-0e3b078729ca","ios":"levelo://app?vid=86570f96-c135-4b15-a377-0e3b078729ca"},"vehicle_type_id":"4","last_reported":1717358862,"current_range_meters":8400,"station_id":"ce4bgth2rcd13ifvqch0","pricing_plan_id":"cebpf4jnsgd1na2vs0mg"},{"bike_id":"90f32937-f06a-4e94-8f5d-4fa2494f0076","system_id":"levelo_inurba_marseille","lat":43.317075,"lon":5.377367,"is_reserved":false,"is_disabled":false,"rental_uris":{"android":"levelo://app?vid=90f32937-f06a-4e94-8f5d-4fa2494f0076","ios":"levelo://app?vid=90f32937-f06a-4e94-8f5d-4fa2494f0076"},"vehicle_type_id":"4","last_reported":1717358862,"current_range_meters":12800,"station_id":"ce4bgth2rcd13ifvqch0","pricing_plan_id":"cebpf4jnsgd1na2vs0mg"},{"bike_id":"753509df-47d0-44d8-8ac8-0432764b8844","system_id":"levelo_inurba_marseille","lat":43.317075,"lon":5.377367,"is_reserved":false,"is_disabled":false,"rental_uris":{"android":"levelo://app?vid=753509df-47d0-44d8-8ac8-0432764b8844","ios":"levelo://app?vid=753509df-47d0-44d8-8ac8-0432764b8844"},"vehicle_type_id":"4","last_reported":1717358862,"current_range_meters":28000,"station_id":"ce4bgth2rcd13ifvqch0","pricing_plan_id":"cebpf4jnsgd1na2vs0mg"},{"bike_id":"72be7c86-695a-4103-aaeb-b9ee9c5be913","system_id":"levelo_inurba_marseille","lat":43.317075,"lon":5.377367,"is_reserved":false,"is_disabled":false,"rental_uris":{"android":"levelo://app?vid=72be7c86-695a-4103-aaeb-b9ee9c5be913","ios":"levelo://app?vid=72be7c86-695a-4103-aaeb-b9ee9c5be913"},"vehicle_type_id":"4","last_reported":1717358862,"current_range_meters":13600,"station_id":"ce4bgth2rcd13ifvqch0","pricing_plan_id":"cebpf4jnsgd1na2vs0mg"},{"bike_id":"a47a24f8-bcca-4fc4-a4f3-18e1d4d05140","system_id":"levelo_inurba_marseille","lat":43.303046,"lon":5.368981,"is_reserved":false,"is_disabled":false,"rental_uris":{"android":"levelo://app?vid=a47a24f8-bcca-4fc4-a4f3-18e1d4d05140","ios":"levelo://app?vid=a47a24f8-bcca-4fc4-a4f3-18e1d4d05140"},"vehicle_type_id":"4","last_reported":1717358862,"current_range_meters":14800,"station_id":"ce4bgqh2rcd13ifvqc5g","pricing_plan_id":"cebpf4jnsgd1na2vs0mg"},{"bike_id":"688cb8db-659d-4351-bdd5-1f3fb86475ca","system_id":"levelo_inurba_marseille","lat":43.303046,"lon":5.368981,"is_reserved":false,"is_disabled":false,"rental_uris":{"android":"levelo://app?vid=688cb8db-659d-4351-bdd5-1f3fb86475ca","ios":"levelo://app?vid=688cb8db-659d-4351-bdd5-1f3fb86475ca"},"vehicle_type_id":"4","last_reported":1717358862,"current_range_meters":20800,"station_id":"ce4bgqh2rcd13ifvqc5g","pricing_plan_id":"cebpf4jnsgd1na2vs0mg"},{"bike_id":"b5e6f7af-9b66-4aec-b7f1-3811097f1965","system_id":"levelo_inurba_marseille","lat":43.303046,"lon":5.368981,"is_reserved":false,"is_disabled":false,"rental_uris":{"android":"levelo://app?vid=b5e6f7af-9b66-4aec-b7f1-3811097f1965","ios":"levelo://app?vid=b5e6f7af-9b66-4aec-b7f1-3811097f1965"},"vehicle_type_id":"4","last_reported":1717358862,"current_range_meters":24000,"station_id":"ce4bgqh2rcd13ifvqc5g","pricing_plan_id":"cebpf4jnsgd1na2vs0mg"},{"bike_id":"e92bb65c-8cee-44ec-8767-f677b0d2200f","system_id":"levelo_inurba_marseille","lat":43.303046,"lon":5.368981,"is_reserved":false,"is_disabled":false,"rental_uris":{"android":"levelo://app?vid=e92bb65c-8cee-44ec-8767-f677b0d2200f","ios":"levelo://app?vid=e92bb65c-8cee-44ec-8767-f677b0d2200f"},"vehicle_type_id":"4","last_reported":1717358862,"current_range_meters":30000,"station_id":"ce4bgqh2rcd13ifvqc5g","pricing_plan_id":"cebpf4jnsgd1na2vs0mg"},{"bike_id":"61ce56f3-8c27-423d-bbf1-b00ccc6cf763","system_id":"levelo_inurba_marseille","lat":43.315293,"lon":5.380349,"is_reserved":false,"is_disabled":false,"rental_uris":{"android":"levelo://app?vid=61ce56f3-8c27-423d-bbf1-b00ccc6cf763","ios":"levelo://app?vid=61ce56f3-8c27-423d-bbf1-b00ccc6cf763"},"vehicle_type_id":"4","last_reported":1717358862,"current_range_meters":0,"station_id":"ce4bhsp2rcd13ifvqi50","pricing_plan_id":"cebpf4jnsgd1na2vs0mg"},{"bike_id":"064bcebe-568d-4654-8635-ff29532d9dc2","system_id":"levelo_inurba_marseille","lat":43.301939,"lon":5.366286,"is_reserved":false,"is_disabled":false,"rental_uris":{"android":"levelo://app?vid=064bcebe-568d-4654-8635-ff29532d9dc2","ios":"levelo://app?vid=064bcebe-568d-4654-8635-ff29532d9dc2"},"vehicle_type_id":"4","last_reported":1717358862,"current_range_meters":11600,"station_id":"ce4bgrh2rcd13ifvqc8g","pricing_plan_id":"cebpf4jnsgd1na2vs0mg"},{"bike_id":"dac597cb-687f-4cce-8bc3-c1e07d319165","system_id":"levelo_inurba_marseille","lat":43.301939,"lon":5.366286,"is_reserved":false,"is_disabled":false,"rental_uris":{"android":"levelo://app?vid=dac597cb-687f-4cce-8bc3-c1e07d319165","ios":"levelo://app?vid=dac597cb-687f-4cce-8bc3-c1e07d319165"},"vehicle_type_id":"4","last_reported":1717358862,"current_range_meters":24400,"station_id":"ce4bgrh2rcd13ifvqc8g","pricing_plan_id":"cebpf4jnsgd1na2vs0mg"},{"bike_id":"169958bb-6b82-46d7-904f-4c34849a134c","system_id":"levelo_inurba_marseille","lat":43.301939,"lon":5.366286,"is_reserved":false,"is_disabled":false,"rental_uris":{"android":"levelo://app?vid=169958bb-6b82-46d7-904f-4c34849a134c","ios":"levelo://app?vid=169958bb-6b82-46d7-904f-4c34849a134c"},"vehicle_type_id":"4","last_reported":1717358862,"current_range_meters":31200,"station_id":"ce4bgrh2rcd13ifvqc8g","pricing_plan_id":"cebpf4jnsgd1na2vs0mg"},{"bike_id":"fa2fbfc6-f862-4532-8765-aad7fcdaa8f1","system_id":"levelo_inurba_marseille","lat":43.308012,"lon":5.381511,"is_reserved":false,"is_disabled":false,"rental_uris":{"android":"levelo://app?vid=fa2fbfc6-f862-4532-8765-aad7fcdaa8f1","ios":"levelo://app?vid=fa2fbfc6-f862-4532-8765-aad7fcdaa8f1"},"vehicle_type_id":"4","last_reported":1717358862,"current_range_meters":18000,"station_id":"ce4bgt12rcd13ifvqce0","pricing_plan_id":"cebpf4jnsgd1na2vs0mg"},{"bike_id":"c498a2e8-e921-4f9d-b630-7aee5f42c34c","system_id":"levelo_inurba_marseille","lat":43.324771,"lon":5.36557,"is_reserved":false,"is_disabled":false,"rental_uris":{"android":"levelo://app?vid=c498a2e8-e921-4f9d-b630-7aee5f42c34c","ios":"levelo://app?vid=c498a2e8-e921-4f9d-b630-7aee5f42c34c"},"vehicle_type_id":"4","last_reported":1717358862,"current_range_meters":8400,"station_id":"ce4bhs12rcd13ifvqhvg","pricing_plan_id":"cebpf4jnsgd1na2vs0mg"},{"bike_id":"92ec211f-0b53-4f34-b1e9-036fd0d768f7","system_id":"levelo_inurba_marseille","lat":43.324771,"lon":5.36557,"is_reserved":false,"is_disabled":false,"rental_uris":{"android":"levelo://app?vid=92ec211f-0b53-4f34-b1e9-036fd0d768f7","ios":"levelo://app?vid=92ec211f-0b53-4f34-b1e9-036fd0d768f7"},"vehicle_type_id":"4","last_reported":1717358862,"current_range_meters":400,"station_id":"ce4bhs12rcd13ifvqhvg","pricing_plan_id":"cebpf4jnsgd1na2vs0mg"},{"bike_id":"41f71f28-89c0-47d5-84d1-4c186c285185","system_id":"levelo_inurba_marseille","lat":43.31074,"lon":5.38361,"is_reserved":false,"is_disabled":false,"rental_uris":{"android":"levelo://app?vid=41f71f28-89c0-47d5-84d1-4c186c285185","ios":"levelo://app?vid=41f71f28-89c0-47d5-84d1-4c186c285185"},"vehicle_type_id":"4","last_reported":1717358862,"current_range_meters":10400,"station_id":"ce4bgv92rcd13ifvqcr0","pricing_plan_id":"cebpf4jnsgd1na2vs0mg"},{"bike_id":"19400dea-4333-42c3-ac27-5601aa5a2ec6","system_id":"levelo_inurba_marseille","lat":43.31076,"lon":5.38364,"is_reserved":false,"is_disabled":false,"rental_uris":{"android":"levelo://app?vid=19400dea-4333-42c3-ac27-5601aa5a2ec6","ios":"levelo://app?vid=19400dea-4333-42c3-ac27-5601aa5a2ec6"},"vehicle_type_id":"4","last_reported":1717358862,"current_range_meters":20000,"station_id":"ce4bgv92rcd13ifvqcr0","pricing_plan_id":"cebpf4jnsgd1na2vs0mg"},{"bike_id":"3daf5d18-2a46-40bc-9a3c-54e3b05cf37a","system_id":"levelo_inurba_marseille","lat":43.302784,"lon":5.377158,"is_reserved":false,"is_disabled":false,"rental_uris":{"android":"levelo://app?vid=3daf5d18-2a46-40bc-9a3c-54e3b05cf37a","ios":"levelo://app?vid=3daf5d18-2a46-40bc-9a3c-54e3b05cf37a"},"vehicle_type_id":"4","last_reported":1717358862,"current_range_meters":5200,"station_id":"ce4bguh2rcd13ifvqcj0","pricing_plan_id":"cebpf4jnsgd1na2vs0mg"},{"bike_id":"8abefb2e-119b-4ed4-ac63-6c0dfbaeda0f","system_id":"levelo_inurba_marseille","lat":43.30143,"lon":5.37413,"is_reserved":false,"is_disabled":false,"rental_uris":{"android":"levelo://app?vid=8abefb2e-119b-4ed4-ac63-6c0dfbaeda0f","ios":"levelo://app?vid=8abefb2e-119b-4ed4-ac63-6c0dfbaeda0f"},"vehicle_type_id":"4","last_reported":1717358862,"current_range_meters":8000,"station_id":"ce4bgs92rcd13ifvqcc0","pricing_plan_id":"cebpf4jnsgd1na2vs0mg"},{"bike_id":"0e7f4bcc-4806-4add-b595-fd726b6d2e52","system_id":"levelo_inurba_marseille","lat":43.319935,"lon":5.381699,"is_reserved":false,"is_disabled":false,"rental_uris":{"android":"levelo://app?vid=0e7f4bcc-4806-4add-b595-fd726b6d2e52","ios":"levelo://app?vid=0e7f4bcc-4806-4add-b595-fd726b6d2e52"},"vehicle_type_id":"4","last_reported":1717358862,"current_range_meters":11600,"station_id":"ce4bhr12rcd13ifvqhpg","pricing_plan_id":"cebpf4jnsgd1na2vs0mg"},{"bike_id":"9b93a1d8-853a-479d-b3b8-795cae429c8f","system_id":"levelo_inurba_marseille","lat":43.319935,"lon":5.381699,"is_reserved":false,"is_disabled":false,"rental_uris":{"android":"levelo://app?vid=9b93a1d8-853a-479d-b3b8-795cae429c8f","ios":"levelo://app?vid=9b93a1d8-853a-479d-b3b8-795cae429c8f"},"vehicle_type_id":"4","last_reported":1717358862,"current_range_meters":24000,"station_id":"ce4bhr12rcd13ifvqhpg","pricing_plan_id":"cebpf4jnsgd1na2vs0mg"},{"bike_id":"531b3ffb-8130-494e-9b05-7400a01f3ba2","system_id":"levelo_inurba_marseille","lat":43.319935,"lon":5.381699,"is_reserved":false,"is_disabled":false,"rental_uris":{"android":"levelo://app?vid=531b3ffb-8130-494e-9b05-7400a01f3ba2","ios":"levelo://app?vid=531b3ffb-8130-494e-9b05-7400a01f3ba2"},"vehicle_type_id":"4","last_reported":1717358862,"current_range_meters":2400,"station_id":"ce4bhr12rcd13ifvqhpg","pricing_plan_id":"cebpf4jnsgd1na2vs0mg"},{"bike_id":"9957c2af-051a-43eb-b9b6-251c6acdf953","system_id":"levelo_inurba_marseille","lat":43.319935,"lon":5.381699,"is_reserved":false,"is_disabled":false,"rental_uris":{"android":"levelo://app?vid=9957c2af-051a-43eb-b9b6-251c6acdf953","ios":"levelo://app?vid=9957c2af-051a-43eb-b9b6-251c6acdf953"},"vehicle_type_id":"4","last_reported":1717358862,"current_range_meters":5600,"station_id":"ce4bhr12rcd13ifvqhpg","pricing_plan_id":"cebpf4jnsgd1na2vs0mg"},{"bike_id":"ea0cac55-8948-4827-b4a3-783af1457367","system_id":"levelo_inurba_marseille","lat":43.319935,"lon":5.381699,"is_reserved":false,"is_disabled":false,"rental_uris":{"android":"levelo://app?vid=ea0cac55-8948-4827-b4a3-783af1457367","ios":"levelo://app?vid=ea0cac55-8948-4827-b4a3-783af1457367"},"vehicle_type_id":"4","last_reported":1717358862,"current_range_meters":17200,"station_id":"ce4bhr12rcd13ifvqhpg","pricing_plan_id":"cebpf4jnsgd1na2vs0mg"},{"bike_id":"c335231d-c5dc-419a-9b77-10fdd688c3ec","system_id":"levelo_inurba_marseille","lat":43.31373,"lon":5.38493,"is_reserved":false,"is_disabled":false,"rental_uris":{"android":"levelo://app?vid=c335231d-c5dc-419a-9b77-10fdd688c3ec","ios":"levelo://app?vid=c335231d-c5dc-419a-9b77-10fdd688c3ec"},"vehicle_type_id":"4","last_reported":1717358862,"current_range_meters":20000,"station_id":"ce4bgt92rcd13ifvqcf0","pricing_plan_id":"cebpf4jnsgd1na2vs0mg"},{"bike_id":"8966cd8c-9080-40d3-ae02-4ef9c1ef63b8","system_id":"levelo_inurba_marseille","lat":43.313616,"lon":5.385066,"is_reserved":false,"is_disabled":false,"rental_uris":{"android":"levelo://app?vid=8966cd8c-9080-40d3-ae02-4ef9c1ef63b8","ios":"levelo://app?vid=8966cd8c-9080-40d3-ae02-4ef9c1ef63b8"},"vehicle_type_id":"4","last_reported":1717358862,"current_range_meters":0,"station_id":"ce4bgt92rcd13ifvqcf0","pricing_plan_id":"cebpf4jnsgd1na2vs0mg"},{"bike_id":"b39954a8-14d2-4f04-9f13-bf654217275f","system_id":"levelo_inurba_marseille","lat":43.31082,"lon":5.38508,"is_reserved":false,"is_disabled":false,"rental_uris":{"android":"levelo://app?vid=b39954a8-14d2-4f04-9f13-bf654217275f","ios":"levelo://app?vid=b39954a8-14d2-4f04-9f13-bf654217275f"},"vehicle_type_id":"4","last_reported":1717358862,"current_range_meters":5600,"station_id":"","pricing_plan_id":"cebpf4jnsgd1na2vs0mg"},{"bike_id":"d763a472-5e52-4c85-8d5d-8797d3caa828","system_id":"levelo_inurba_marseille","lat":43.29981,"lon":5.37187,"is_reserved":false,"is_disabled":false,"rental_uris":{"android":"levelo://app?vid=d763a472-5e52-4c85-8d5d-8797d3caa828","ios":"levelo://app?vid=d763a472-5e52-4c85-8d5d-8797d3caa828"},"vehicle_type_id":"4","last_reported":1717358862,"current_range_meters":6800,"station_id":"ce4bgr92rcd13ifvqc7g","pricing_plan_id":"cebpf4jnsgd1na2vs0mg"},{"bike_id":"2943fb7b-c2a1-4586-978f-4c3651be46da","system_id":"levelo_inurba_marseille","lat":43.299724,"lon":5.371829,"is_reserved":false,"is_disabled":false,"rental_uris":{"android":"levelo://app?vid=2943fb7b-c2a1-4586-978f-4c3651be46da","ios":"levelo://app?vid=2943fb7b-c2a1-4586-978f-4c3651be46da"},"vehicle_type_id":"4","last_reported":1717358862,"current_range_meters":31200,"station_id":"ce4bgr92rcd13ifvqc7g","pricing_plan_id":"cebpf4jnsgd1na2vs0mg"},{"bike_id":"7c0279c4-785e-41cc-9875-11b1aa5697b0","system_id":"levelo_inurba_marseille","lat":43.298433,"lon":5.362774,"is_reserved":false,"is_disabled":false,"rental_uris":{"android":"levelo://app?vid=7c0279c4-785e-41cc-9875-11b1aa5697b0","ios":"levelo://app?vid=7c0279c4-785e-41cc-9875-11b1aa5697b0"},"vehicle_type_id":"4","last_reported":1717358862,"current_range_meters":29600,"station_id":"ce4bgpp2rcd13ifvqc3g","pricing_plan_id":"cebpf4jnsgd1na2vs0mg"},{"bike_id":"c13c079c-9804-4705-96ce-c6433a1f9512","system_id":"levelo_inurba_marseille","lat":43.30539,"lon":5.38429,"is_reserved":false,"is_disabled":false,"rental_uris":{"android":"levelo://app?vid=c13c079c-9804-4705-96ce-c6433a1f9512","ios":"levelo://app?vid=c13c079c-9804-4705-96ce-c6433a1f9512"},"vehicle_type_id":"4","last_reported":1717358862,"current_range_meters":800,"station_id":"ce4bgg92rcd13ifvqb30","pricing_plan_id":"cebpf4jnsgd1na2vs0mg"},{"bike_id":"867133d5-1e60-4caf-a922-8f72601ec3e8","system_id":"levelo_inurba_marseille","lat":43.299243,"lon":5.374807,"is_reserved":false,"is_disabled":false,"rental_uris":{"android":"levelo://app?vid=867133d5-1e60-4caf-a922-8f72601ec3e8","ios":"levelo://app?vid=867133d5-1e60-4caf-a922-8f72601ec3e8"},"vehicle_type_id":"4","last_reported":1717358862,"current_range_meters":12000,"station_id":"ce4bgjh2rcd13ifvqbg0","pricing_plan_id":"cebpf4jnsgd1na2vs0mg"},{"bike_id":"7d492875-dc2d-430e-b37e-4923fc05c67f","system_id":"levelo_inurba_marseille","lat":43.31186,"lon":5.38709,"is_reserved":false,"is_disabled":false,"rental_uris":{"android":"levelo://app?vid=7d492875-dc2d-430e-b37e-4923fc05c67f","ios":"levelo://app?vid=7d492875-dc2d-430e-b37e-4923fc05c67f"},"vehicle_type_id":"4","last_reported":1717358862,"current_range_meters":5200,"station_id":"ce4bgv12rcd13ifvqcp0","pricing_plan_id":"cebpf4jnsgd1na2vs0mg"},{"bike_id":"a41eceb6-ef05-4e27-97f1-b0021b19588c","system_id":"levelo_inurba_marseille","lat":43.311722,"lon":5.387247,"is_reserved":false,"is_disabled":false,"rental_uris":{"android":"levelo://app?vid=a41eceb6-ef05-4e27-97f1-b0021b19588c","ios":"levelo://app?vid=a41eceb6-ef05-4e27-97f1-b0021b19588c"},"vehicle_type_id":"4","last_reported":1717358862,"current_range_meters":11600,"station_id":"ce4bgv12rcd13ifvqcp0","pricing_plan_id":"cebpf4jnsgd1na2vs0mg"},{"bike_id":"970a78e2-4e4f-42f3-9ed5-ca76ec30f498","system_id":"levelo_inurba_marseille","lat":43.311722,"lon":5.387247,"is_reserved":false,"is_disabled":false,"rental_uris":{"android":"levelo://app?vid=970a78e2-4e4f-42f3-9ed5-ca76ec30f498","ios":"levelo://app?vid=970a78e2-4e4f-42f3-9ed5-ca76ec30f498"},"vehicle_type_id":"4","last_reported":1717358862,"current_range_meters":6000,"station_id":"ce4bgv12rcd13ifvqcp0","pricing_plan_id":"cebpf4jnsgd1na2vs0mg"},{"bike_id":"842f891c-6e7b-45c9-a066-07cd0429c56e","system_id":"levelo_inurba_marseille","lat":43.311722,"lon":5.387247,"is_reserved":false,"is_disabled":false,"rental_uris":{"android":"levelo://app?vid=842f891c-6e7b-45c9-a066-07cd0429c56e","ios":"levelo://app?vid=842f891c-6e7b-45c9-a066-07cd0429c56e"},"vehicle_type_id":"4","last_reported":1717358862,"current_range_meters":2400,"station_id":"ce4bgv12rcd13ifvqcp0","pricing_plan_id":"cebpf4jnsgd1na2vs0mg"},{"bike_id":"e2d26072-bc84-4448-b9c2-391e4cd5e6d1","system_id":"levelo_inurba_marseille","lat":43.311722,"lon":5.387247,"is_reserved":false,"is_disabled":false,"rental_uris":{"android":"levelo://app?vid=e2d26072-bc84-4448-b9c2-391e4cd5e6d1","ios":"levelo://app?vid=e2d26072-bc84-4448-b9c2-391e4cd5e6d1"},"vehicle_type_id":"4","last_reported":1717358862,"current_range_meters":18000,"station_id":"ce4bgv12rcd13ifvqcp0","pricing_plan_id":"cebpf4jnsgd1na2vs0mg"},{"bike_id":"32c6446f-2da2-44fe-a4f1-1f0e8d8d7f70","system_id":"levelo_inurba_marseille","lat":43.311722,"lon":5.387247,"is_reserved":false,"is_disabled":false,"rental_uris":{"android":"levelo://app?vid=32c6446f-2da2-44fe-a4f1-1f0e8d8d7f70","ios":"levelo://app?vid=32c6446f-2da2-44fe-a4f1-1f0e8d8d7f70"},"vehicle_type_id":"4","last_reported":1717358862,"current_range_meters":7600,"station_id":"ce4bgv12rcd13ifvqcp0","pricing_plan_id":"cebpf4jnsgd1na2vs0mg"},{"bike_id":"03d64a5b-632b-49a1-bf1f-46908b6695eb","system_id":"levelo_inurba_marseille","lat":43.311722,"lon":5.387247,"is_reserved":false,"is_disabled":false,"rental_uris":{"android":"levelo://app?vid=03d64a5b-632b-49a1-bf1f-46908b6695eb","ios":"levelo://app?vid=03d64a5b-632b-49a1-bf1f-46908b6695eb"},"vehicle_type_id":"4","last_reported":1717358862,"current_range_meters":4800,"station_id":"ce4bgv12rcd13ifvqcp0","pricing_plan_id":"cebpf4jnsgd1na2vs0mg"},{"bike_id":"4a92ba98-41a2-46fd-a650-6121d3ebc669","system_id":"levelo_inurba_marseille","lat":43.311722,"lon":5.387247,"is_reserved":false,"is_disabled":false,"rental_uris":{"android":"levelo://app?vid=4a92ba98-41a2-46fd-a650-6121d3ebc669","ios":"levelo://app?vid=4a92ba98-41a2-46fd-a650-6121d3ebc669"},"vehicle_type_id":"4","last_reported":1717358862,"current_range_meters":17200,"station_id":"ce4bgv12rcd13ifvqcp0","pricing_plan_id":"cebpf4jnsgd1na2vs0mg"},{"bike_id":"ab062094-0229-48e4-a3b1-96c4bcc6b230","system_id":"levelo_inurba_marseille","lat":43.297794,"lon":5.370888,"is_reserved":false,"is_disabled":false,"rental_uris":{"android":"levelo://app?vid=ab062094-0229-48e4-a3b1-96c4bcc6b230","ios":"levelo://app?vid=ab062094-0229-48e4-a3b1-96c4bcc6b230"},"vehicle_type_id":"4","last_reported":1717358862,"current_range_meters":27600,"station_id":"ce4bgop2rcd13ifvqc1g","pricing_plan_id":"cebpf4jnsgd1na2vs0mg"},{"bike_id":"10fb4334-c940-4455-979b-d3f1ca32e262","system_id":"levelo_inurba_marseille","lat":43.297774,"lon":5.370875,"is_reserved":false,"is_disabled":false,"rental_uris":{"android":"levelo://app?vid=10fb4334-c940-4455-979b-d3f1ca32e262","ios":"levelo://app?vid=10fb4334-c940-4455-979b-d3f1ca32e262"},"vehicle_type_id":"4","last_reported":1717358862,"current_range_meters":29200,"station_id":"ce4bgop2rcd13ifvqc1g","pricing_plan_id":"cebpf4jnsgd1na2vs0mg"},{"bike_id":"110ad066-ae7d-40b8-9a29-00bcf9e5e0d1","system_id":"levelo_inurba_marseille","lat":43.322872,"lon":5.382756,"is_reserved":false,"is_disabled":false,"rental_uris":{"android":"levelo://app?vid=110ad066-ae7d-40b8-9a29-00bcf9e5e0d1","ios":"levelo://app?vid=110ad066-ae7d-40b8-9a29-00bcf9e5e0d1"},"vehicle_type_id":"4","last_reported":1717358862,"current_range_meters":6400,"station_id":"ce4bhr12rcd13ifvqhqg","pricing_plan_id":"cebpf4jnsgd1na2vs0mg"},{"bike_id":"763376b7-4bd1-4d8b-a386-516e62fdec6e","system_id":"levelo_inurba_marseille","lat":43.322872,"lon":5.382756,"is_reserved":false,"is_disabled":false,"rental_uris":{"android":"levelo://app?vid=763376b7-4bd1-4d8b-a386-516e62fdec6e","ios":"levelo://app?vid=763376b7-4bd1-4d8b-a386-516e62fdec6e"},"vehicle_type_id":"4","last_reported":1717358862,"current_range_meters":6800,"station_id":"ce4bhr12rcd13ifvqhqg","pricing_plan_id":"cebpf4jnsgd1na2vs0mg"},{"bike_id":"eefa52d8-0645-4a72-91aa-aea5b4f128c7","system_id":"levelo_inurba_marseille","lat":43.297163,"lon":5.365866,"is_reserved":false,"is_disabled":false,"rental_uris":{"android":"levelo://app?vid=eefa52d8-0645-4a72-91aa-aea5b4f128c7","ios":"levelo://app?vid=eefa52d8-0645-4a72-91aa-aea5b4f128c7"},"vehicle_type_id":"4","last_reported":1717358862,"current_range_meters":18800,"station_id":"ce4bgn12rcd13ifvqbt0","pricing_plan_id":"cebpf4jnsgd1na2vs0mg"},{"bike_id":"741ebd13-b53a-4cd6-90dd-e137c1f83e62","system_id":"levelo_inurba_marseille","lat":43.297163,"lon":5.365866,"is_reserved":false,"is_disabled":false,"rental_uris":{"android":"levelo://app?vid=741ebd13-b53a-4cd6-90dd-e137c1f83e62","ios":"levelo://app?vid=741ebd13-b53a-4cd6-90dd-e137c1f83e62"},"vehicle_type_id":"4","last_reported":1717358862,"current_range_meters":24400,"station_id":"ce4bgn12rcd13ifvqbt0","pricing_plan_id":"cebpf4jnsgd1na2vs0mg"},{"bike_id":"de82c7ce-e19c-4460-879b-0f60ebb04cb6","system_id":"levelo_inurba_marseille","lat":43.297163,"lon":5.365866,"is_reserved":false,"is_disabled":false,"rental_uris":{"android":"levelo://app?vid=de82c7ce-e19c-4460-879b-0f60ebb04cb6","ios":"levelo://app?vid=de82c7ce-e19c-4460-879b-0f60ebb04cb6"},"vehicle_type_id":"4","last_reported":1717358862,"current_range_meters":26800,"station_id":"ce4bgn12rcd13ifvqbt0","pricing_plan_id":"cebpf4jnsgd1na2vs0mg"},{"bike_id":"0085d383-7a46-46e4-a693-cd0100722e09","system_id":"levelo_inurba_marseille","lat":43.311722,"lon":5.387247,"is_reserved":false,"is_disabled":false,"rental_uris":{"android":"levelo://app?vid=0085d383-7a46-46e4-a693-cd0100722e09","ios":"levelo://app?vid=0085d383-7a46-46e4-a693-cd0100722e09"},"vehicle_type_id":"4","last_reported":1717358862,"current_range_meters":0,"station_id":"ce4bgv12rcd13ifvqcp0","pricing_plan_id":"cebpf4jnsgd1na2vs0mg"},{"bike_id":"de020145-24ce-4ec7-a0d7-fa10328be961","system_id":"levelo_inurba_marseille","lat":43.296131,"lon":5.370791,"is_reserved":false,"is_disabled":false,"rental_uris":{"android":"levelo://app?vid=de020145-24ce-4ec7-a0d7-fa10328be961","ios":"levelo://app?vid=de020145-24ce-4ec7-a0d7-fa10328be961"},"vehicle_type_id":"4","last_reported":1717358862,"current_range_meters":14800,"station_id":"ce4bgnh2rcd13ifvqc0g","pricing_plan_id":"cebpf4jnsgd1na2vs0mg"},{"bike_id":"44e9cf4e-7094-444d-8704-84cd3b3447cb","system_id":"levelo_inurba_marseille","lat":43.29573,"lon":5.367355,"is_reserved":false,"is_disabled":false,"rental_uris":{"android":"levelo://app?vid=44e9cf4e-7094-444d-8704-84cd3b3447cb","ios":"levelo://app?vid=44e9cf4e-7094-444d-8704-84cd3b3447cb"},"vehicle_type_id":"4","last_reported":1717358862,"current_range_meters":30800,"station_id":"ce4bgph2rcd13ifvqc2g","pricing_plan_id":"cebpf4jnsgd1na2vs0mg"},{"bike_id":"fd9cdc7b-3e97-4837-b583-d1a0f08d1482","system_id":"levelo_inurba_marseille","lat":43.29573,"lon":5.367355,"is_reserved":false,"is_disabled":false,"rental_uris":{"android":"levelo://app?vid=fd9cdc7b-3e97-4837-b583-d1a0f08d1482","ios":"levelo://app?vid=fd9cdc7b-3e97-4837-b583-d1a0f08d1482"},"vehicle_type_id":"4","last_reported":1717358862,"current_range_meters":28400,"station_id":"ce4bgph2rcd13ifvqc2g","pricing_plan_id":"cebpf4jnsgd1na2vs0mg"},{"bike_id":"ca4d2f96-542f-4426-97e2-464623908e4b","system_id":"levelo_inurba_marseille","lat":43.29573,"lon":5.367355,"is_reserved":false,"is_disabled":false,"rental_uris":{"android":"levelo://app?vid=ca4d2f96-542f-4426-97e2-464623908e4b","ios":"levelo://app?vid=ca4d2f96-542f-4426-97e2-464623908e4b"},"vehicle_type_id":"4","last_reported":1717358862,"current_range_meters":6400,"station_id":"ce4bgph2rcd13ifvqc2g","pricing_plan_id":"cebpf4jnsgd1na2vs0mg"},{"bike_id":"d1733db9-5089-4c7a-962d-d809cdcecd7b","system_id":"levelo_inurba_marseille","lat":43.309589,"lon":5.390258,"is_reserved":false,"is_disabled":false,"rental_uris":{"android":"levelo://app?vid=d1733db9-5089-4c7a-962d-d809cdcecd7b","ios":"levelo://app?vid=d1733db9-5089-4c7a-962d-d809cdcecd7b"},"vehicle_type_id":"4","last_reported":1717358862,"current_range_meters":0,"station_id":"ce4bgup2rcd13ifvqco0","pricing_plan_id":"cebpf4jnsgd1na2vs0mg"},{"bike_id":"e8281357-7019-4230-9e83-8f3815a7d38f","system_id":"levelo_inurba_marseille","lat":43.309589,"lon":5.390258,"is_reserved":false,"is_disabled":false,"rental_uris":{"android":"levelo://app?vid=e8281357-7019-4230-9e83-8f3815a7d38f","ios":"levelo://app?vid=e8281357-7019-4230-9e83-8f3815a7d38f"},"vehicle_type_id":"4","last_reported":1717358862,"current_range_meters":7200,"station_id":"ce4bgup2rcd13ifvqco0","pricing_plan_id":"cebpf4jnsgd1na2vs0mg"},{"bike_id":"264d5031-f029-42ba-8ab9-221c2f94c49b","system_id":"levelo_inurba_marseille","lat":43.317557,"lon":5.390173,"is_reserved":false,"is_disabled":false,"rental_uris":{"android":"levelo://app?vid=264d5031-f029-42ba-8ab9-221c2f94c49b","ios":"levelo://app?vid=264d5031-f029-42ba-8ab9-221c2f94c49b"},"vehicle_type_id":"4","last_reported":1717358862,"current_range_meters":20000,"station_id":"ce4bhqp2rcd13ifvqhng","pricing_plan_id":"cebpf4jnsgd1na2vs0mg"},{"bike_id":"fd7dd085-8c30-4d40-9c88-5849344cbde7","system_id":"levelo_inurba_marseille","lat":43.317557,"lon":5.390173,"is_reserved":false,"is_disabled":false,"rental_uris":{"android":"levelo://app?vid=fd7dd085-8c30-4d40-9c88-5849344cbde7","ios":"levelo://app?vid=fd7dd085-8c30-4d40-9c88-5849344cbde7"},"vehicle_type_id":"4","last_reported":1717358862,"current_range_meters":12400,"station_id":"ce4bhqp2rcd13ifvqhng","pricing_plan_id":"cebpf4jnsgd1na2vs0mg"},{"bike_id":"a3a2aa9b-3bf8-4a82-93b8-4e8c95fa38ba","system_id":"levelo_inurba_marseille","lat":43.317557,"lon":5.390173,"is_reserved":false,"is_disabled":false,"rental_uris":{"android":"levelo://app?vid=a3a2aa9b-3bf8-4a82-93b8-4e8c95fa38ba","ios":"levelo://app?vid=a3a2aa9b-3bf8-4a82-93b8-4e8c95fa38ba"},"vehicle_type_id":"4","last_reported":1717358862,"current_range_meters":26800,"station_id":"ce4bhqp2rcd13ifvqhng","pricing_plan_id":"cebpf4jnsgd1na2vs0mg"},{"bike_id":"7d697c39-e1c9-43f6-8195-ea34825d5ee5","system_id":"levelo_inurba_marseille","lat":43.29798,"lon":5.38094,"is_reserved":false,"is_disabled":false,"rental_uris":{"android":"levelo://app?vid=7d697c39-e1c9-43f6-8195-ea34825d5ee5","ios":"levelo://app?vid=7d697c39-e1c9-43f6-8195-ea34825d5ee5"},"vehicle_type_id":"4","last_reported":1717358862,"current_range_meters":0,"station_id":"ce4bgip2rcd13ifvqbb0","pricing_plan_id":"cebpf4jnsgd1na2vs0mg"},{"bike_id":"552a5dd9-f512-48ba-8d82-b51d727a5b36","system_id":"levelo_inurba_marseille","lat":43.298037,"lon":5.381066,"is_reserved":false,"is_disabled":false,"rental_uris":{"android":"levelo://app?vid=552a5dd9-f512-48ba-8d82-b51d727a5b36","ios":"levelo://app?vid=552a5dd9-f512-48ba-8d82-b51d727a5b36"},"vehicle_type_id":"4","last_reported":1717358862,"current_range_meters":19200,"station_id":"ce4bgip2rcd13ifvqbb0","pricing_plan_id":"cebpf4jnsgd1na2vs0mg"},{"bike_id":"c4fcec11-8120-486f-bbfb-987de0aa8067","system_id":"levelo_inurba_marseille","lat":43.304274,"lon":5.388873,"is_reserved":false,"is_disabled":false,"rental_uris":{"android":"levelo://app?vid=c4fcec11-8120-486f-bbfb-987de0aa8067","ios":"levelo://app?vid=c4fcec11-8120-486f-bbfb-987de0aa8067"},"vehicle_type_id":"4","last_reported":1717358862,"current_range_meters":18800,"station_id":"ce4bgk12rcd13ifvqbi0","pricing_plan_id":"cebpf4jnsgd1na2vs0mg"},{"bike_id":"ca28bdb2-6441-4ca2-a460-c8d366d6fb54","system_id":"levelo_inurba_marseille","lat":43.304278,"lon":5.388868,"is_reserved":false,"is_disabled":false,"rental_uris":{"android":"levelo://app?vid=ca28bdb2-6441-4ca2-a460-c8d366d6fb54","ios":"levelo://app?vid=ca28bdb2-6441-4ca2-a460-c8d366d6fb54"},"vehicle_type_id":"4","last_reported":1717358862,"current_range_meters":11200,"station_id":"ce4bgk12rcd13ifvqbi0","pricing_plan_id":"cebpf4jnsgd1na2vs0mg"},{"bike_id":"239bccc8-5878-4613-ad39-23fadb69a1ad","system_id":"levelo_inurba_marseille","lat":43.304274,"lon":5.388873,"is_reserved":false,"is_disabled":false,"rental_uris":{"android":"levelo://app?vid=239bccc8-5878-4613-ad39-23fadb69a1ad","ios":"levelo://app?vid=239bccc8-5878-4613-ad39-23fadb69a1ad"},"vehicle_type_id":"4","last_reported":1717358862,"current_range_meters":8400,"station_id":"ce4bgk12rcd13ifvqbi0","pricing_plan_id":"cebpf4jnsgd1na2vs0mg"},{"bike_id":"22f7d155-d6c9-4bb4-9e58-ab866fa87ffe","system_id":"levelo_inurba_marseille","lat":43.304278,"lon":5.388868,"is_reserved":false,"is_disabled":false,"rental_uris":{"android":"levelo://app?vid=22f7d155-d6c9-4bb4-9e58-ab866fa87ffe","ios":"levelo://app?vid=22f7d155-d6c9-4bb4-9e58-ab866fa87ffe"},"vehicle_type_id":"4","last_reported":1717358862,"current_range_meters":17600,"station_id":"ce4bgk12rcd13ifvqbi0","pricing_plan_id":"cebpf4jnsgd1na2vs0mg"},{"bike_id":"113542fb-b513-48e6-b247-a7518ee5ce2e","system_id":"levelo_inurba_marseille","lat":43.304274,"lon":5.388873,"is_reserved":false,"is_disabled":false,"rental_uris":{"android":"levelo://app?vid=113542fb-b513-48e6-b247-a7518ee5ce2e","ios":"levelo://app?vid=113542fb-b513-48e6-b247-a7518ee5ce2e"},"vehicle_type_id":"4","last_reported":1717358862,"current_range_meters":21600,"station_id":"ce4bgk12rcd13ifvqbi0","pricing_plan_id":"cebpf4jnsgd1na2vs0mg"},{"bike_id":"d548a18f-c1a3-46f9-83e3-85e90accdb7d","system_id":"levelo_inurba_marseille","lat":43.304278,"lon":5.388868,"is_reserved":false,"is_disabled":false,"rental_uris":{"android":"levelo://app?vid=d548a18f-c1a3-46f9-83e3-85e90accdb7d","ios":"levelo://app?vid=d548a18f-c1a3-46f9-83e3-85e90accdb7d"},"vehicle_type_id":"4","last_reported":1717358862,"current_range_meters":10400,"station_id":"ce4bgk12rcd13ifvqbi0","pricing_plan_id":"cebpf4jnsgd1na2vs0mg"},{"bike_id":"88ed4060-4b1c-406d-a0fd-9d6779ef54f9","system_id":"levelo_inurba_marseille","lat":43.296263,"lon":5.377094,"is_reserved":false,"is_disabled":false,"rental_uris":{"android":"levelo://app?vid=88ed4060-4b1c-406d-a0fd-9d6779ef54f9","ios":"levelo://app?vid=88ed4060-4b1c-406d-a0fd-9d6779ef54f9"},"vehicle_type_id":"4","last_reported":1717358862,"current_range_meters":0,"station_id":"ce4bgi92rcd13ifvqb90","pricing_plan_id":"cebpf4jnsgd1na2vs0mg"},{"bike_id":"e479048d-3364-446c-9bb1-3f75107f7b13","system_id":"levelo_inurba_marseille","lat":43.304278,"lon":5.388868,"is_reserved":false,"is_disabled":false,"rental_uris":{"android":"levelo://app?vid=e479048d-3364-446c-9bb1-3f75107f7b13","ios":"levelo://app?vid=e479048d-3364-446c-9bb1-3f75107f7b13"},"vehicle_type_id":"4","last_reported":1717358862,"current_range_meters":29200,"station_id":"ce4bgk12rcd13ifvqbi0","pricing_plan_id":"cebpf4jnsgd1na2vs0mg"},{"bike_id":"c7a4513b-a250-4974-836e-341796c7a07c","system_id":"levelo_inurba_marseille","lat":43.300593,"lon":5.38557,"is_reserved":false,"is_disabled":false,"rental_uris":{"android":"levelo://app?vid=c7a4513b-a250-4974-836e-341796c7a07c","ios":"levelo://app?vid=c7a4513b-a250-4974-836e-341796c7a07c"},"vehicle_type_id":"4","last_reported":1717358862,"current_range_meters":19200,"station_id":"","pricing_plan_id":"cebpf4jnsgd1na2vs0mg"},{"bike_id":"30eedb85-2ec1-408c-beff-177c5bc9c20b","system_id":"levelo_inurba_marseille","lat":43.29975,"lon":5.384913,"is_reserved":false,"is_disabled":false,"rental_uris":{"android":"levelo://app?vid=30eedb85-2ec1-408c-beff-177c5bc9c20b","ios":"levelo://app?vid=30eedb85-2ec1-408c-beff-177c5bc9c20b"},"vehicle_type_id":"4","last_reported":1717358862,"current_range_meters":7200,"station_id":"ce4bgj92rcd13ifvqbd0","pricing_plan_id":"cebpf4jnsgd1na2vs0mg"},{"bike_id":"1095b6f2-7ab7-4f9b-8e35-b4f2f1c19a1b","system_id":"levelo_inurba_marseille","lat":43.299724,"lon":5.384848,"is_reserved":false,"is_disabled":false,"rental_uris":{"android":"levelo://app?vid=1095b6f2-7ab7-4f9b-8e35-b4f2f1c19a1b","ios":"levelo://app?vid=1095b6f2-7ab7-4f9b-8e35-b4f2f1c19a1b"},"vehicle_type_id":"4","last_reported":1717358862,"current_range_meters":8800,"station_id":"ce4bgj92rcd13ifvqbd0","pricing_plan_id":"cebpf4jnsgd1na2vs0mg"},{"bike_id":"a12357db-5cf3-4205-af76-3ee7199fa44e","system_id":"levelo_inurba_marseille","lat":43.29965,"lon":5.38484,"is_reserved":false,"is_disabled":false,"rental_uris":{"android":"levelo://app?vid=a12357db-5cf3-4205-af76-3ee7199fa44e","ios":"levelo://app?vid=a12357db-5cf3-4205-af76-3ee7199fa44e"},"vehicle_type_id":"4","last_reported":1717358862,"current_range_meters":19600,"station_id":"ce4bgj92rcd13ifvqbd0","pricing_plan_id":"cebpf4jnsgd1na2vs0mg"},{"bike_id":"34c66994-7b20-4058-804f-16be0d6c8c38","system_id":"levelo_inurba_marseille","lat":43.2997,"lon":5.38496,"is_reserved":false,"is_disabled":false,"rental_uris":{"android":"levelo://app?vid=34c66994-7b20-4058-804f-16be0d6c8c38","ios":"levelo://app?vid=34c66994-7b20-4058-804f-16be0d6c8c38"},"vehicle_type_id":"4","last_reported":1717358862,"current_range_meters":5200,"station_id":"ce4bgj92rcd13ifvqbd0","pricing_plan_id":"cebpf4jnsgd1na2vs0mg"},{"bike_id":"33285eea-1da1-4abd-a113-33d991f1a250","system_id":"levelo_inurba_marseille","lat":43.299717,"lon":5.384845,"is_reserved":false,"is_disabled":false,"rental_uris":{"android":"levelo://app?vid=33285eea-1da1-4abd-a113-33d991f1a250","ios":"levelo://app?vid=33285eea-1da1-4abd-a113-33d991f1a250"},"vehicle_type_id":"4","last_reported":1717358862,"current_range_meters":1200,"station_id":"ce4bgj92rcd13ifvqbd0","pricing_plan_id":"cebpf4jnsgd1na2vs0mg"},{"bike_id":"1dae24cb-622e-4d5a-94e5-016f174ac521","system_id":"levelo_inurba_marseille","lat":43.299724,"lon":5.384848,"is_reserved":false,"is_disabled":false,"rental_uris":{"android":"levelo://app?vid=1dae24cb-622e-4d5a-94e5-016f174ac521","ios":"levelo://app?vid=1dae24cb-622e-4d5a-94e5-016f174ac521"},"vehicle_type_id":"4","last_reported":1717358862,"current_range_meters":22000,"station_id":"ce4bgj92rcd13ifvqbd0","pricing_plan_id":"cebpf4jnsgd1na2vs0mg"},{"bike_id":"3be12cd3-3fa9-4741-a563-2a59d8229db7","system_id":"levelo_inurba_marseille","lat":43.295279,"lon":5.375048,"is_reserved":false,"is_disabled":false,"rental_uris":{"android":"levelo://app?vid=3be12cd3-3fa9-4741-a563-2a59d8229db7","ios":"levelo://app?vid=3be12cd3-3fa9-4741-a563-2a59d8229db7"},"vehicle_type_id":"4","last_reported":1717358862,"current_range_meters":31200,"station_id":"ce4bgkp2rcd13ifvqbmg","pricing_plan_id":"cebpf4jnsgd1na2vs0mg"},{"bike_id":"bea36953-d805-4e54-b9f1-54dc6f9b7002","system_id":"levelo_inurba_marseille","lat":43.29965,"lon":5.385,"is_reserved":false,"is_disabled":false,"rental_uris":{"android":"levelo://app?vid=bea36953-d805-4e54-b9f1-54dc6f9b7002","ios":"levelo://app?vid=bea36953-d805-4e54-b9f1-54dc6f9b7002"},"vehicle_type_id":"4","last_reported":1717358862,"current_range_meters":17600,"station_id":"ce4bgj92rcd13ifvqbd0","pricing_plan_id":"cebpf4jnsgd1na2vs0mg"},{"bike_id":"9ca3ffd4-b311-4747-8684-e6f5ef3b9bdf","system_id":"levelo_inurba_marseille","lat":43.29963,"lon":5.38501,"is_reserved":false,"is_disabled":false,"rental_uris":{"android":"levelo://app?vid=9ca3ffd4-b311-4747-8684-e6f5ef3b9bdf","ios":"levelo://app?vid=9ca3ffd4-b311-4747-8684-e6f5ef3b9bdf"},"vehicle_type_id":"4","last_reported":1717358862,"current_range_meters":0,"station_id":"ce4bgj92rcd13ifvqbd0","pricing_plan_id":"cebpf4jnsgd1na2vs0mg"},{"bike_id":"ad6fc73a-7e80-493e-9416-f26864af230d","system_id":"levelo_inurba_marseille","lat":43.32365,"lon":5.38884,"is_reserved":false,"is_disabled":false,"rental_uris":{"android":"levelo://app?vid=ad6fc73a-7e80-493e-9416-f26864af230d","ios":"levelo://app?vid=ad6fc73a-7e80-493e-9416-f26864af230d"},"vehicle_type_id":"4","last_reported":1717358862,"current_range_meters":0,"station_id":"ce4bhqp2rcd13ifvqhog","pricing_plan_id":"cebpf4jnsgd1na2vs0mg"},{"bike_id":"1bd55f5c-b09e-4db2-ac01-513bc2559920","system_id":"levelo_inurba_marseille","lat":43.32368,"lon":5.38884,"is_reserved":false,"is_disabled":false,"rental_uris":{"android":"levelo://app?vid=1bd55f5c-b09e-4db2-ac01-513bc2559920","ios":"levelo://app?vid=1bd55f5c-b09e-4db2-ac01-513bc2559920"},"vehicle_type_id":"4","last_reported":1717358862,"current_range_meters":17600,"station_id":"ce4bhqp2rcd13ifvqhog","pricing_plan_id":"cebpf4jnsgd1na2vs0mg"},{"bike_id":"6b1edf8b-303d-4b12-8e35-76173d2d4dea","system_id":"levelo_inurba_marseille","lat":43.32367,"lon":5.38887,"is_reserved":false,"is_disabled":false,"rental_uris":{"android":"levelo://app?vid=6b1edf8b-303d-4b12-8e35-76173d2d4dea","ios":"levelo://app?vid=6b1edf8b-303d-4b12-8e35-76173d2d4dea"},"vehicle_type_id":"4","last_reported":1717358862,"current_range_meters":0,"station_id":"ce4bhqp2rcd13ifvqhog","pricing_plan_id":"cebpf4jnsgd1na2vs0mg"},{"bike_id":"f666dc80-75bb-4c91-b120-146965e91f91","system_id":"levelo_inurba_marseille","lat":43.29602,"lon":5.381084,"is_reserved":false,"is_disabled":false,"rental_uris":{"android":"levelo://app?vid=f666dc80-75bb-4c91-b120-146965e91f91","ios":"levelo://app?vid=f666dc80-75bb-4c91-b120-146965e91f91"},"vehicle_type_id":"4","last_reported":1717358862,"current_range_meters":24800,"station_id":"ce4bgl12rcd13ifvqbo0","pricing_plan_id":"cebpf4jnsgd1na2vs0mg"},{"bike_id":"1e32eaa2-6228-4397-b7eb-b9ff264c9fea","system_id":"levelo_inurba_marseille","lat":43.29602,"lon":5.381084,"is_reserved":false,"is_disabled":false,"rental_uris":{"android":"levelo://app?vid=1e32eaa2-6228-4397-b7eb-b9ff264c9fea","ios":"levelo://app?vid=1e32eaa2-6228-4397-b7eb-b9ff264c9fea"},"vehicle_type_id":"4","last_reported":1717358862,"current_range_meters":23200,"station_id":"ce4bgl12rcd13ifvqbo0","pricing_plan_id":"cebpf4jnsgd1na2vs0mg"},{"bike_id":"f7f987f9-4286-4542-980b-21dd45c93742","system_id":"levelo_inurba_marseille","lat":43.29602,"lon":5.381084,"is_reserved":false,"is_disabled":false,"rental_uris":{"android":"levelo://app?vid=f7f987f9-4286-4542-980b-21dd45c93742","ios":"levelo://app?vid=f7f987f9-4286-4542-980b-21dd45c93742"},"vehicle_type_id":"4","last_reported":1717358862,"current_range_meters":13600,"station_id":"ce4bgl12rcd13ifvqbo0","pricing_plan_id":"cebpf4jnsgd1na2vs0mg"},{"bike_id":"100e7f52-21c8-4190-9c5f-d28c434004f8","system_id":"levelo_inurba_marseille","lat":43.29602,"lon":5.381084,"is_reserved":false,"is_disabled":false,"rental_uris":{"android":"levelo://app?vid=100e7f52-21c8-4190-9c5f-d28c434004f8","ios":"levelo://app?vid=100e7f52-21c8-4190-9c5f-d28c434004f8"},"vehicle_type_id":"4","last_reported":1717358862,"current_range_meters":18800,"station_id":"ce4bgl12rcd13ifvqbo0","pricing_plan_id":"cebpf4jnsgd1na2vs0mg"},{"bike_id":"db4d735f-51f5-4b4c-b20b-9eb328645722","system_id":"levelo_inurba_marseille","lat":43.301847,"lon":5.38943,"is_reserved":false,"is_disabled":false,"rental_uris":{"android":"levelo://app?vid=db4d735f-51f5-4b4c-b20b-9eb328645722","ios":"levelo://app?vid=db4d735f-51f5-4b4c-b20b-9eb328645722"},"vehicle_type_id":"4","last_reported":1717358862,"current_range_meters":8000,"station_id":"","pricing_plan_id":"cebpf4jnsgd1na2vs0mg"},{"bike_id":"f60ded4e-13b2-4166-b552-529448c51a11","system_id":"levelo_inurba_marseille","lat":43.292749,"lon":5.368398,"is_reserved":false,"is_disabled":false,"rental_uris":{"android":"levelo://app?vid=f60ded4e-13b2-4166-b552-529448c51a11","ios":"levelo://app?vid=f60ded4e-13b2-4166-b552-529448c51a11"},"vehicle_type_id":"4","last_reported":1717358862,"current_range_meters":20400,"station_id":"ce4bhbp2rcd13ifvqesg","pricing_plan_id":"cebpf4jnsgd1na2vs0mg"},{"bike_id":"bdcac60a-7922-4ceb-b1d3-3c8a094615a3","system_id":"levelo_inurba_marseille","lat":43.29276,"lon":5.3684,"is_reserved":false,"is_disabled":false,"rental_uris":{"android":"levelo://app?vid=bdcac60a-7922-4ceb-b1d3-3c8a094615a3","ios":"levelo://app?vid=bdcac60a-7922-4ceb-b1d3-3c8a094615a3"},"vehicle_type_id":"4","last_reported":1717358862,"current_range_meters":0,"station_id":"ce4bhbp2rcd13ifvqesg","pricing_plan_id":"cebpf4jnsgd1na2vs0mg"},{"bike_id":"58559c12-4fb5-4bc0-9c05-b75bebb759c6","system_id":"levelo_inurba_marseille","lat":43.29307,"lon":5.37214,"is_reserved":false,"is_disabled":false,"rental_uris":{"android":"levelo://app?vid=58559c12-4fb5-4bc0-9c05-b75bebb759c6","ios":"levelo://app?vid=58559c12-4fb5-4bc0-9c05-b75bebb759c6"},"vehicle_type_id":"4","last_reported":1717358862,"current_range_meters":15600,"station_id":"","pricing_plan_id":"cebpf4jnsgd1na2vs0mg"},{"bike_id":"d524d83c-e2da-4f9b-9b77-77f8544212dc","system_id":"levelo_inurba_marseille","lat":43.2936,"lon":5.37835,"is_reserved":false,"is_disabled":false,"rental_uris":{"android":"levelo://app?vid=d524d83c-e2da-4f9b-9b77-77f8544212dc","ios":"levelo://app?vid=d524d83c-e2da-4f9b-9b77-77f8544212dc"},"vehicle_type_id":"4","last_reported":1717358862,"current_range_meters":20400,"station_id":"ce4bgjh2rcd13ifvqbf0","pricing_plan_id":"cebpf4jnsgd1na2vs0mg"},{"bike_id":"8900ed63-ac6b-4627-8e37-6ebadd4657f7","system_id":"levelo_inurba_marseille","lat":43.305994,"lon":5.393687,"is_reserved":false,"is_disabled":false,"rental_uris":{"android":"levelo://app?vid=8900ed63-ac6b-4627-8e37-6ebadd4657f7","ios":"levelo://app?vid=8900ed63-ac6b-4627-8e37-6ebadd4657f7"},"vehicle_type_id":"4","last_reported":1717358862,"current_range_meters":22000,"station_id":"ce4bh0p2rcd13ifvqd80","pricing_plan_id":"cebpf4jnsgd1na2vs0mg"},{"bike_id":"8f9a7a18-ef96-4af4-a519-d32ec7199684","system_id":"levelo_inurba_marseille","lat":43.305994,"lon":5.393687,"is_reserved":false,"is_disabled":false,"rental_uris":{"android":"levelo://app?vid=8f9a7a18-ef96-4af4-a519-d32ec7199684","ios":"levelo://app?vid=8f9a7a18-ef96-4af4-a519-d32ec7199684"},"vehicle_type_id":"4","last_reported":1717358862,"current_range_meters":13600,"station_id":"ce4bh0p2rcd13ifvqd80","pricing_plan_id":"cebpf4jnsgd1na2vs0mg"},{"bike_id":"b05d7cba-88b0-4918-ab9e-50b82b924e2c","system_id":"levelo_inurba_marseille","lat":43.305994,"lon":5.393687,"is_reserved":false,"is_disabled":false,"rental_uris":{"android":"levelo://app?vid=b05d7cba-88b0-4918-ab9e-50b82b924e2c","ios":"levelo://app?vid=b05d7cba-88b0-4918-ab9e-50b82b924e2c"},"vehicle_type_id":"4","last_reported":1717358862,"current_range_meters":7200,"station_id":"ce4bh0p2rcd13ifvqd80","pricing_plan_id":"cebpf4jnsgd1na2vs0mg"},{"bike_id":"01c20bc5-b9de-4ae0-8bde-57c67f5b4ec5","system_id":"levelo_inurba_marseille","lat":43.305994,"lon":5.393687,"is_reserved":false,"is_disabled":false,"rental_uris":{"android":"levelo://app?vid=01c20bc5-b9de-4ae0-8bde-57c67f5b4ec5","ios":"levelo://app?vid=01c20bc5-b9de-4ae0-8bde-57c67f5b4ec5"},"vehicle_type_id":"4","last_reported":1717358862,"current_range_meters":16400,"station_id":"ce4bh0p2rcd13ifvqd80","pricing_plan_id":"cebpf4jnsgd1na2vs0mg"},{"bike_id":"b056dea4-7849-47d3-b537-9ce89089ef91","system_id":"levelo_inurba_marseille","lat":43.303002,"lon":5.392142,"is_reserved":false,"is_disabled":false,"rental_uris":{"android":"levelo://app?vid=b056dea4-7849-47d3-b537-9ce89089ef91","ios":"levelo://app?vid=b056dea4-7849-47d3-b537-9ce89089ef91"},"vehicle_type_id":"4","last_reported":1717358862,"current_range_meters":12800,"station_id":"ce4bgkh2rcd13ifvqbk0","pricing_plan_id":"cebpf4jnsgd1na2vs0mg"},{"bike_id":"ed79fff4-9fc2-439a-90ff-6210cfc9f4e9","system_id":"levelo_inurba_marseille","lat":43.303002,"lon":5.392142,"is_reserved":false,"is_disabled":false,"rental_uris":{"android":"levelo://app?vid=ed79fff4-9fc2-439a-90ff-6210cfc9f4e9","ios":"levelo://app?vid=ed79fff4-9fc2-439a-90ff-6210cfc9f4e9"},"vehicle_type_id":"4","last_reported":1717358862,"current_range_meters":8000,"station_id":"ce4bgkh2rcd13ifvqbk0","pricing_plan_id":"cebpf4jnsgd1na2vs0mg"},{"bike_id":"8cdeeaf7-cd24-435c-bb60-6f5b09d58c79","system_id":"levelo_inurba_marseille","lat":43.302992,"lon":5.392136,"is_reserved":false,"is_disabled":false,"rental_uris":{"android":"levelo://app?vid=8cdeeaf7-cd24-435c-bb60-6f5b09d58c79","ios":"levelo://app?vid=8cdeeaf7-cd24-435c-bb60-6f5b09d58c79"},"vehicle_type_id":"4","last_reported":1717358862,"current_range_meters":7600,"station_id":"ce4bgkh2rcd13ifvqbk0","pricing_plan_id":"cebpf4jnsgd1na2vs0mg"},{"bike_id":"d2ba75b1-0e1b-4ee8-a3fe-954a6d8d4900","system_id":"levelo_inurba_marseille","lat":43.2936,"lon":5.37835,"is_reserved":false,"is_disabled":false,"rental_uris":{"android":"levelo://app?vid=d2ba75b1-0e1b-4ee8-a3fe-954a6d8d4900","ios":"levelo://app?vid=d2ba75b1-0e1b-4ee8-a3fe-954a6d8d4900"},"vehicle_type_id":"4","last_reported":1717358862,"current_range_meters":21200,"station_id":"ce4bgjh2rcd13ifvqbf0","pricing_plan_id":"cebpf4jnsgd1na2vs0mg"},{"bike_id":"e53b31de-2a7c-45e8-8bdf-969b1ce506b5","system_id":"levelo_inurba_marseille","lat":43.293009,"lon":5.374584,"is_reserved":false,"is_disabled":false,"rental_uris":{"android":"levelo://app?vid=e53b31de-2a7c-45e8-8bdf-969b1ce506b5","ios":"levelo://app?vid=e53b31de-2a7c-45e8-8bdf-969b1ce506b5"},"vehicle_type_id":"4","last_reported":1717358862,"current_range_meters":18800,"station_id":"ce4bgi12rcd13ifvqb70","pricing_plan_id":"cebpf4jnsgd1na2vs0mg"},{"bike_id":"48a17765-4f6c-4bd5-a0d9-ffa49212e6c7","system_id":"levelo_inurba_marseille","lat":43.298764,"lon":5.388973,"is_reserved":false,"is_disabled":false,"rental_uris":{"android":"levelo://app?vid=48a17765-4f6c-4bd5-a0d9-ffa49212e6c7","ios":"levelo://app?vid=48a17765-4f6c-4bd5-a0d9-ffa49212e6c7"},"vehicle_type_id":"4","last_reported":1717358862,"current_range_meters":13200,"station_id":"ce4bh392rcd13ifvqdl0","pricing_plan_id":"cebpf4jnsgd1na2vs0mg"},{"bike_id":"3c9e92f9-6a6b-4f71-a662-2b5d7be056a8","system_id":"levelo_inurba_marseille","lat":43.298764,"lon":5.388973,"is_reserved":false,"is_disabled":false,"rental_uris":{"android":"levelo://app?vid=3c9e92f9-6a6b-4f71-a662-2b5d7be056a8","ios":"levelo://app?vid=3c9e92f9-6a6b-4f71-a662-2b5d7be056a8"},"vehicle_type_id":"4","last_reported":1717358862,"current_range_meters":2000,"station_id":"ce4bh392rcd13ifvqdl0","pricing_plan_id":"cebpf4jnsgd1na2vs0mg"},{"bike_id":"2911e6eb-374f-47cc-a07d-d76959f37a43","system_id":"levelo_inurba_marseille","lat":43.298764,"lon":5.388973,"is_reserved":false,"is_disabled":false,"rental_uris":{"android":"levelo://app?vid=2911e6eb-374f-47cc-a07d-d76959f37a43","ios":"levelo://app?vid=2911e6eb-374f-47cc-a07d-d76959f37a43"},"vehicle_type_id":"4","last_reported":1717358862,"current_range_meters":13200,"station_id":"ce4bh392rcd13ifvqdl0","pricing_plan_id":"cebpf4jnsgd1na2vs0mg"},{"bike_id":"ad203f73-7d4b-4643-8010-a70f935d7279","system_id":"levelo_inurba_marseille","lat":43.298764,"lon":5.388973,"is_reserved":false,"is_disabled":false,"rental_uris":{"android":"levelo://app?vid=ad203f73-7d4b-4643-8010-a70f935d7279","ios":"levelo://app?vid=ad203f73-7d4b-4643-8010-a70f935d7279"},"vehicle_type_id":"4","last_reported":1717358862,"current_range_meters":27600,"station_id":"ce4bh392rcd13ifvqdl0","pricing_plan_id":"cebpf4jnsgd1na2vs0mg"},{"bike_id":"c0eabf4a-36ed-4a1a-a0e0-92d13e8277f0","system_id":"levelo_inurba_marseille","lat":43.298764,"lon":5.388973,"is_reserved":false,"is_disabled":false,"rental_uris":{"android":"levelo://app?vid=c0eabf4a-36ed-4a1a-a0e0-92d13e8277f0","ios":"levelo://app?vid=c0eabf4a-36ed-4a1a-a0e0-92d13e8277f0"},"vehicle_type_id":"4","last_reported":1717358862,"current_range_meters":11200,"station_id":"ce4bh392rcd13ifvqdl0","pricing_plan_id":"cebpf4jnsgd1na2vs0mg"},{"bike_id":"b575f340-cfb5-4499-8e53-e191d906449d","system_id":"levelo_inurba_marseille","lat":43.298764,"lon":5.388973,"is_reserved":false,"is_disabled":false,"rental_uris":{"android":"levelo://app?vid=b575f340-cfb5-4499-8e53-e191d906449d","ios":"levelo://app?vid=b575f340-cfb5-4499-8e53-e191d906449d"},"vehicle_type_id":"4","last_reported":1717358862,"current_range_meters":14000,"station_id":"ce4bh392rcd13ifvqdl0","pricing_plan_id":"cebpf4jnsgd1na2vs0mg"},{"bike_id":"d5b2d090-85ed-44b6-ab8f-c6a454d91c17","system_id":"levelo_inurba_marseille","lat":43.298764,"lon":5.388973,"is_reserved":false,"is_disabled":false,"rental_uris":{"android":"levelo://app?vid=d5b2d090-85ed-44b6-ab8f-c6a454d91c17","ios":"levelo://app?vid=d5b2d090-85ed-44b6-ab8f-c6a454d91c17"},"vehicle_type_id":"4","last_reported":1717358862,"current_range_meters":4400,"station_id":"ce4bh392rcd13ifvqdl0","pricing_plan_id":"cebpf4jnsgd1na2vs0mg"},{"bike_id":"8d45830c-737a-4456-81f1-cd3c6e3ecb7a","system_id":"levelo_inurba_marseille","lat":43.30887,"lon":5.39625,"is_reserved":false,"is_disabled":false,"rental_uris":{"android":"levelo://app?vid=8d45830c-737a-4456-81f1-cd3c6e3ecb7a","ios":"levelo://app?vid=8d45830c-737a-4456-81f1-cd3c6e3ecb7a"},"vehicle_type_id":"4","last_reported":1717358862,"current_range_meters":12400,"station_id":"ce4bh012rcd13ifvqcv0","pricing_plan_id":"cebpf4jnsgd1na2vs0mg"},{"bike_id":"88d85188-9462-4941-8600-f60d2bfd0bdf","system_id":"levelo_inurba_marseille","lat":43.3132,"lon":5.39688,"is_reserved":false,"is_disabled":false,"rental_uris":{"android":"levelo://app?vid=88d85188-9462-4941-8600-f60d2bfd0bdf","ios":"levelo://app?vid=88d85188-9462-4941-8600-f60d2bfd0bdf"},"vehicle_type_id":"4","last_reported":1717358862,"current_range_meters":17600,"station_id":"","pricing_plan_id":"cebpf4jnsgd1na2vs0mg"},{"bike_id":"400f14ea-567f-463c-8b21-fa44534d0941","system_id":"levelo_inurba_marseille","lat":43.308877,"lon":5.396457,"is_reserved":false,"is_disabled":false,"rental_uris":{"android":"levelo://app?vid=400f14ea-567f-463c-8b21-fa44534d0941","ios":"levelo://app?vid=400f14ea-567f-463c-8b21-fa44534d0941"},"vehicle_type_id":"4","last_reported":1717358862,"current_range_meters":3600,"station_id":"ce4bh012rcd13ifvqcv0","pricing_plan_id":"cebpf4jnsgd1na2vs0mg"},{"bike_id":"777683a4-b54c-475d-a027-fb92b631c3de","system_id":"levelo_inurba_marseille","lat":43.31328,"lon":5.39693,"is_reserved":false,"is_disabled":false,"rental_uris":{"android":"levelo://app?vid=777683a4-b54c-475d-a027-fb92b631c3de","ios":"levelo://app?vid=777683a4-b54c-475d-a027-fb92b631c3de"},"vehicle_type_id":"4","last_reported":1717358862,"current_range_meters":14000,"station_id":"ce4bgvp2rcd13ifvqcu0","pricing_plan_id":"cebpf4jnsgd1na2vs0mg"},{"bike_id":"b3edb4f0-963b-46ba-a79f-776b8f50b991","system_id":"levelo_inurba_marseille","lat":43.313291,"lon":5.396838,"is_reserved":false,"is_disabled":false,"rental_uris":{"android":"levelo://app?vid=b3edb4f0-963b-46ba-a79f-776b8f50b991","ios":"levelo://app?vid=b3edb4f0-963b-46ba-a79f-776b8f50b991"},"vehicle_type_id":"4","last_reported":1717358862,"current_range_meters":23600,"station_id":"ce4bgvp2rcd13ifvqcu0","pricing_plan_id":"cebpf4jnsgd1na2vs0mg"},{"bike_id":"5c49fed4-5274-4457-b368-4a3792eec1c6","system_id":"levelo_inurba_marseille","lat":43.309038,"lon":5.396546,"is_reserved":false,"is_disabled":false,"rental_uris":{"android":"levelo://app?vid=5c49fed4-5274-4457-b368-4a3792eec1c6","ios":"levelo://app?vid=5c49fed4-5274-4457-b368-4a3792eec1c6"},"vehicle_type_id":"4","last_reported":1717358862,"current_range_meters":11600,"station_id":"ce4bh012rcd13ifvqcv0","pricing_plan_id":"cebpf4jnsgd1na2vs0mg"},{"bike_id":"4d3c82a3-c6c6-4d5c-a61a-301f82f9bcdc","system_id":"levelo_inurba_marseille","lat":43.31328,"lon":5.39702,"is_reserved":false,"is_disabled":false,"rental_uris":{"android":"levelo://app?vid=4d3c82a3-c6c6-4d5c-a61a-301f82f9bcdc","ios":"levelo://app?vid=4d3c82a3-c6c6-4d5c-a61a-301f82f9bcdc"},"vehicle_type_id":"4","last_reported":1717358862,"current_range_meters":26800,"station_id":"ce4bgvp2rcd13ifvqcu0","pricing_plan_id":"cebpf4jnsgd1na2vs0mg"},{"bike_id":"7d0e3ed1-ddbc-4142-9a46-50a916f00d86","system_id":"levelo_inurba_marseille","lat":43.31335,"lon":5.39703,"is_reserved":false,"is_disabled":false,"rental_uris":{"android":"levelo://app?vid=7d0e3ed1-ddbc-4142-9a46-50a916f00d86","ios":"levelo://app?vid=7d0e3ed1-ddbc-4142-9a46-50a916f00d86"},"vehicle_type_id":"4","last_reported":1717358862,"current_range_meters":6800,"station_id":"ce4bgvp2rcd13ifvqcu0","pricing_plan_id":"cebpf4jnsgd1na2vs0mg"},{"bike_id":"ad7958aa-4007-48b1-a1c8-a44759453cfd","system_id":"levelo_inurba_marseille","lat":43.313291,"lon":5.396838,"is_reserved":false,"is_disabled":false,"rental_uris":{"android":"levelo://app?vid=ad7958aa-4007-48b1-a1c8-a44759453cfd","ios":"levelo://app?vid=ad7958aa-4007-48b1-a1c8-a44759453cfd"},"vehicle_type_id":"4","last_reported":1717358862,"current_range_meters":10000,"station_id":"ce4bgvp2rcd13ifvqcu0","pricing_plan_id":"cebpf4jnsgd1na2vs0mg"},{"bike_id":"7ee7159b-e1e8-4e09-b2f3-0373d6764993","system_id":"levelo_inurba_marseille","lat":43.31321,"lon":5.39705,"is_reserved":false,"is_disabled":false,"rental_uris":{"android":"levelo://app?vid=7ee7159b-e1e8-4e09-b2f3-0373d6764993","ios":"levelo://app?vid=7ee7159b-e1e8-4e09-b2f3-0373d6764993"},"vehicle_type_id":"4","last_reported":1717358862,"current_range_meters":6000,"station_id":"ce4bgvp2rcd13ifvqcu0","pricing_plan_id":"cebpf4jnsgd1na2vs0mg"},{"bike_id":"ad529d20-5fe3-4ea6-81a5-0174e5336665","system_id":"levelo_inurba_marseille","lat":43.29529,"lon":5.385581,"is_reserved":false,"is_disabled":false,"rental_uris":{"android":"levelo://app?vid=ad529d20-5fe3-4ea6-81a5-0174e5336665","ios":"levelo://app?vid=ad529d20-5fe3-4ea6-81a5-0174e5336665"},"vehicle_type_id":"4","last_reported":1717358862,"current_range_meters":30000,"station_id":"ce4bgih2rcd13ifvqba0","pricing_plan_id":"cebpf4jnsgd1na2vs0mg"},{"bike_id":"fa05695c-be87-48cc-8a7a-fdc70cf56f08","system_id":"levelo_inurba_marseille","lat":43.29529,"lon":5.385581,"is_reserved":false,"is_disabled":false,"rental_uris":{"android":"levelo://app?vid=fa05695c-be87-48cc-8a7a-fdc70cf56f08","ios":"levelo://app?vid=fa05695c-be87-48cc-8a7a-fdc70cf56f08"},"vehicle_type_id":"4","last_reported":1717358862,"current_range_meters":16400,"station_id":"ce4bgih2rcd13ifvqba0","pricing_plan_id":"cebpf4jnsgd1na2vs0mg"},{"bike_id":"e6b851dc-68b6-47b8-9f3a-3ec80018f39b","system_id":"levelo_inurba_marseille","lat":43.29529,"lon":5.385581,"is_reserved":false,"is_disabled":false,"rental_uris":{"android":"levelo://app?vid=e6b851dc-68b6-47b8-9f3a-3ec80018f39b","ios":"levelo://app?vid=e6b851dc-68b6-47b8-9f3a-3ec80018f39b"},"vehicle_type_id":"4","last_reported":1717358862,"current_range_meters":25600,"station_id":"ce4bgih2rcd13ifvqba0","pricing_plan_id":"cebpf4jnsgd1na2vs0mg"},{"bike_id":"f7dd29ce-0697-48af-937c-5e45072dbf9a","system_id":"levelo_inurba_marseille","lat":43.29529,"lon":5.385581,"is_reserved":false,"is_disabled":false,"rental_uris":{"android":"levelo://app?vid=f7dd29ce-0697-48af-937c-5e45072dbf9a","ios":"levelo://app?vid=f7dd29ce-0697-48af-937c-5e45072dbf9a"},"vehicle_type_id":"4","last_reported":1717358862,"current_range_meters":16000,"station_id":"ce4bgih2rcd13ifvqba0","pricing_plan_id":"cebpf4jnsgd1na2vs0mg"},{"bike_id":"93df4ab7-311c-4047-82d0-266fedec7cb7","system_id":"levelo_inurba_marseille","lat":43.29529,"lon":5.385581,"is_reserved":false,"is_disabled":false,"rental_uris":{"android":"levelo://app?vid=93df4ab7-311c-4047-82d0-266fedec7cb7","ios":"levelo://app?vid=93df4ab7-311c-4047-82d0-266fedec7cb7"},"vehicle_type_id":"4","last_reported":1717358862,"current_range_meters":14000,"station_id":"ce4bgih2rcd13ifvqba0","pricing_plan_id":"cebpf4jnsgd1na2vs0mg"},{"bike_id":"39c35dd2-1dc4-4109-b7d6-fef4c6fe7c18","system_id":"levelo_inurba_marseille","lat":43.29529,"lon":5.385581,"is_reserved":false,"is_disabled":false,"rental_uris":{"android":"levelo://app?vid=39c35dd2-1dc4-4109-b7d6-fef4c6fe7c18","ios":"levelo://app?vid=39c35dd2-1dc4-4109-b7d6-fef4c6fe7c18"},"vehicle_type_id":"4","last_reported":1717358862,"current_range_meters":23200,"station_id":"ce4bgih2rcd13ifvqba0","pricing_plan_id":"cebpf4jnsgd1na2vs0mg"},{"bike_id":"aaf78f2e-a08a-4b88-835c-40e437ab0af1","system_id":"levelo_inurba_marseille","lat":43.29529,"lon":5.385581,"is_reserved":false,"is_disabled":false,"rental_uris":{"android":"levelo://app?vid=aaf78f2e-a08a-4b88-835c-40e437ab0af1","ios":"levelo://app?vid=aaf78f2e-a08a-4b88-835c-40e437ab0af1"},"vehicle_type_id":"4","last_reported":1717358862,"current_range_meters":18800,"station_id":"ce4bgih2rcd13ifvqba0","pricing_plan_id":"cebpf4jnsgd1na2vs0mg"},{"bike_id":"24cc9146-60b6-469c-9a25-2731c449dc77","system_id":"levelo_inurba_marseille","lat":43.29529,"lon":5.385581,"is_reserved":false,"is_disabled":false,"rental_uris":{"android":"levelo://app?vid=24cc9146-60b6-469c-9a25-2731c449dc77","ios":"levelo://app?vid=24cc9146-60b6-469c-9a25-2731c449dc77"},"vehicle_type_id":"4","last_reported":1717358862,"current_range_meters":22800,"station_id":"ce4bgih2rcd13ifvqba0","pricing_plan_id":"cebpf4jnsgd1na2vs0mg"},{"bike_id":"6bbf01ec-bcb7-44c1-b212-41045e01b03f","system_id":"levelo_inurba_marseille","lat":43.295355,"lon":5.385485,"is_reserved":false,"is_disabled":false,"rental_uris":{"android":"levelo://app?vid=6bbf01ec-bcb7-44c1-b212-41045e01b03f","ios":"levelo://app?vid=6bbf01ec-bcb7-44c1-b212-41045e01b03f"},"vehicle_type_id":"4","last_reported":1717358862,"current_range_meters":21600,"station_id":"ce4bgih2rcd13ifvqba0","pricing_plan_id":"cebpf4jnsgd1na2vs0mg"},{"bike_id":"b8ad1603-ca57-4f86-9ae8-48dc712515a0","system_id":"levelo_inurba_marseille","lat":43.29529,"lon":5.385581,"is_reserved":false,"is_disabled":false,"rental_uris":{"android":"levelo://app?vid=b8ad1603-ca57-4f86-9ae8-48dc712515a0","ios":"levelo://app?vid=b8ad1603-ca57-4f86-9ae8-48dc712515a0"},"vehicle_type_id":"4","last_reported":1717358862,"current_range_meters":22000,"station_id":"ce4bgih2rcd13ifvqba0","pricing_plan_id":"cebpf4jnsgd1na2vs0mg"},{"bike_id":"9cf0532b-98a1-42da-b52d-971459a8efc2","system_id":"levelo_inurba_marseille","lat":43.29529,"lon":5.385581,"is_reserved":false,"is_disabled":false,"rental_uris":{"android":"levelo://app?vid=9cf0532b-98a1-42da-b52d-971459a8efc2","ios":"levelo://app?vid=9cf0532b-98a1-42da-b52d-971459a8efc2"},"vehicle_type_id":"4","last_reported":1717358862,"current_range_meters":26000,"station_id":"ce4bgih2rcd13ifvqba0","pricing_plan_id":"cebpf4jnsgd1na2vs0mg"},{"bike_id":"8338810a-db6e-4fa9-9862-8c5236bb59a6","system_id":"levelo_inurba_marseille","lat":43.29529,"lon":5.385581,"is_reserved":false,"is_disabled":false,"rental_uris":{"android":"levelo://app?vid=8338810a-db6e-4fa9-9862-8c5236bb59a6","ios":"levelo://app?vid=8338810a-db6e-4fa9-9862-8c5236bb59a6"},"vehicle_type_id":"4","last_reported":1717358862,"current_range_meters":8000,"station_id":"ce4bgih2rcd13ifvqba0","pricing_plan_id":"cebpf4jnsgd1na2vs0mg"},{"bike_id":"a7a25b32-3c08-4b39-90ad-5c1ed9b4ed93","system_id":"levelo_inurba_marseille","lat":43.29529,"lon":5.385581,"is_reserved":false,"is_disabled":false,"rental_uris":{"android":"levelo://app?vid=a7a25b32-3c08-4b39-90ad-5c1ed9b4ed93","ios":"levelo://app?vid=a7a25b32-3c08-4b39-90ad-5c1ed9b4ed93"},"vehicle_type_id":"4","last_reported":1717358862,"current_range_meters":13600,"station_id":"ce4bgih2rcd13ifvqba0","pricing_plan_id":"cebpf4jnsgd1na2vs0mg"},{"bike_id":"7c1f33bd-31bb-43d3-9065-d7c8d171ebdd","system_id":"levelo_inurba_marseille","lat":43.29529,"lon":5.385581,"is_reserved":false,"is_disabled":false,"rental_uris":{"android":"levelo://app?vid=7c1f33bd-31bb-43d3-9065-d7c8d171ebdd","ios":"levelo://app?vid=7c1f33bd-31bb-43d3-9065-d7c8d171ebdd"},"vehicle_type_id":"4","last_reported":1717358862,"current_range_meters":22000,"station_id":"ce4bgih2rcd13ifvqba0","pricing_plan_id":"cebpf4jnsgd1na2vs0mg"},{"bike_id":"0fd67d17-44a4-4af1-9550-02cc66bbf4db","system_id":"levelo_inurba_marseille","lat":43.295305,"lon":5.38543,"is_reserved":false,"is_disabled":false,"rental_uris":{"android":"levelo://app?vid=0fd67d17-44a4-4af1-9550-02cc66bbf4db","ios":"levelo://app?vid=0fd67d17-44a4-4af1-9550-02cc66bbf4db"},"vehicle_type_id":"4","last_reported":1717358862,"current_range_meters":4000,"station_id":"ce4bgih2rcd13ifvqba0","pricing_plan_id":"cebpf4jnsgd1na2vs0mg"},{"bike_id":"7044abe3-3eee-46b5-b922-47c86091d15a","system_id":"levelo_inurba_marseille","lat":43.29529,"lon":5.385581,"is_reserved":false,"is_disabled":false,"rental_uris":{"android":"levelo://app?vid=7044abe3-3eee-46b5-b922-47c86091d15a","ios":"levelo://app?vid=7044abe3-3eee-46b5-b922-47c86091d15a"},"vehicle_type_id":"4","last_reported":1717358862,"current_range_meters":15600,"station_id":"ce4bgih2rcd13ifvqba0","pricing_plan_id":"cebpf4jnsgd1na2vs0mg"},{"bike_id":"a0ffdf8b-b486-4fd1-bdd2-950d318d02cb","system_id":"levelo_inurba_marseille","lat":43.295194,"lon":5.39397,"is_reserved":false,"is_disabled":false,"rental_uris":{"android":"levelo://app?vid=a0ffdf8b-b486-4fd1-bdd2-950d318d02cb","ios":"levelo://app?vid=a0ffdf8b-b486-4fd1-bdd2-950d318d02cb"},"vehicle_type_id":"4","last_reported":1717358862,"current_range_meters":26000,"station_id":"ce4bh292rcd13ifvqdf0","pricing_plan_id":"cebpf4jnsgd1na2vs0mg"},{"bike_id":"1d4cedbd-ad31-46f7-9bf4-3efd18b8834d","system_id":"levelo_inurba_marseille","lat":43.29529,"lon":5.385581,"is_reserved":false,"is_disabled":false,"rental_uris":{"android":"levelo://app?vid=1d4cedbd-ad31-46f7-9bf4-3efd18b8834d","ios":"levelo://app?vid=1d4cedbd-ad31-46f7-9bf4-3efd18b8834d"},"vehicle_type_id":"4","last_reported":1717358862,"current_range_meters":14800,"station_id":"ce4bgih2rcd13ifvqba0","pricing_plan_id":"cebpf4jnsgd1na2vs0mg"},{"bike_id":"417f76a2-f404-4d3c-95c0-c05996d23091","system_id":"levelo_inurba_marseille","lat":43.29532,"lon":5.38547,"is_reserved":false,"is_disabled":false,"rental_uris":{"android":"levelo://app?vid=417f76a2-f404-4d3c-95c0-c05996d23091","ios":"levelo://app?vid=417f76a2-f404-4d3c-95c0-c05996d23091"},"vehicle_type_id":"4","last_reported":1717358862,"current_range_meters":24400,"station_id":"ce4bgih2rcd13ifvqba0","pricing_plan_id":"cebpf4jnsgd1na2vs0mg"},{"bike_id":"703548a2-d174-443d-8b0b-415df1c5b723","system_id":"levelo_inurba_marseille","lat":43.29529,"lon":5.385581,"is_reserved":false,"is_disabled":false,"rental_uris":{"android":"levelo://app?vid=703548a2-d174-443d-8b0b-415df1c5b723","ios":"levelo://app?vid=703548a2-d174-443d-8b0b-415df1c5b723"},"vehicle_type_id":"4","last_reported":1717358862,"current_range_meters":28000,"station_id":"ce4bgih2rcd13ifvqba0","pricing_plan_id":"cebpf4jnsgd1na2vs0mg"},{"bike_id":"e30efe1c-ad20-40cf-bd89-f726863dd1bd","system_id":"levelo_inurba_marseille","lat":43.29529,"lon":5.385581,"is_reserved":false,"is_disabled":false,"rental_uris":{"android":"levelo://app?vid=e30efe1c-ad20-40cf-bd89-f726863dd1bd","ios":"levelo://app?vid=e30efe1c-ad20-40cf-bd89-f726863dd1bd"},"vehicle_type_id":"4","last_reported":1717358862,"current_range_meters":22800,"station_id":"ce4bgih2rcd13ifvqba0","pricing_plan_id":"cebpf4jnsgd1na2vs0mg"},{"bike_id":"386d8fec-b7ff-4ab6-bfb6-a7ea6b953e77","system_id":"levelo_inurba_marseille","lat":43.29529,"lon":5.38544,"is_reserved":false,"is_disabled":false,"rental_uris":{"android":"levelo://app?vid=386d8fec-b7ff-4ab6-bfb6-a7ea6b953e77","ios":"levelo://app?vid=386d8fec-b7ff-4ab6-bfb6-a7ea6b953e77"},"vehicle_type_id":"4","last_reported":1717358862,"current_range_meters":1600,"station_id":"ce4bgih2rcd13ifvqba0","pricing_plan_id":"cebpf4jnsgd1na2vs0mg"},{"bike_id":"d82649a0-8ec3-4a48-8c91-2dd18de73ba3","system_id":"levelo_inurba_marseille","lat":43.29529,"lon":5.385581,"is_reserved":false,"is_disabled":false,"rental_uris":{"android":"levelo://app?vid=d82649a0-8ec3-4a48-8c91-2dd18de73ba3","ios":"levelo://app?vid=d82649a0-8ec3-4a48-8c91-2dd18de73ba3"},"vehicle_type_id":"4","last_reported":1717358862,"current_range_meters":30000,"station_id":"ce4bgih2rcd13ifvqba0","pricing_plan_id":"cebpf4jnsgd1na2vs0mg"},{"bike_id":"00ef30e1-b018-4f55-81f0-39a51ca56591","system_id":"levelo_inurba_marseille","lat":43.29529,"lon":5.385581,"is_reserved":false,"is_disabled":false,"rental_uris":{"android":"levelo://app?vid=00ef30e1-b018-4f55-81f0-39a51ca56591","ios":"levelo://app?vid=00ef30e1-b018-4f55-81f0-39a51ca56591"},"vehicle_type_id":"4","last_reported":1717358862,"current_range_meters":20400,"station_id":"ce4bgih2rcd13ifvqba0","pricing_plan_id":"cebpf4jnsgd1na2vs0mg"},{"bike_id":"eaede0d2-fe77-467c-9959-6b215cb05a73","system_id":"levelo_inurba_marseille","lat":43.29529,"lon":5.385581,"is_reserved":false,"is_disabled":false,"rental_uris":{"android":"levelo://app?vid=eaede0d2-fe77-467c-9959-6b215cb05a73","ios":"levelo://app?vid=eaede0d2-fe77-467c-9959-6b215cb05a73"},"vehicle_type_id":"4","last_reported":1717358862,"current_range_meters":16000,"station_id":"ce4bgih2rcd13ifvqba0","pricing_plan_id":"cebpf4jnsgd1na2vs0mg"},{"bike_id":"b3c36866-b16e-4da3-abdc-185e679db54d","system_id":"levelo_inurba_marseille","lat":43.29528,"lon":5.38548,"is_reserved":false,"is_disabled":false,"rental_uris":{"android":"levelo://app?vid=b3c36866-b16e-4da3-abdc-185e679db54d","ios":"levelo://app?vid=b3c36866-b16e-4da3-abdc-185e679db54d"},"vehicle_type_id":"4","last_reported":1717358862,"current_range_meters":9200,"station_id":"ce4bgih2rcd13ifvqba0","pricing_plan_id":"cebpf4jnsgd1na2vs0mg"},{"bike_id":"42877914-f5d2-417e-bbbe-423f355de14a","system_id":"levelo_inurba_marseille","lat":43.29529,"lon":5.385581,"is_reserved":false,"is_disabled":false,"rental_uris":{"android":"levelo://app?vid=42877914-f5d2-417e-bbbe-423f355de14a","ios":"levelo://app?vid=42877914-f5d2-417e-bbbe-423f355de14a"},"vehicle_type_id":"4","last_reported":1717358862,"current_range_meters":22800,"station_id":"ce4bgih2rcd13ifvqba0","pricing_plan_id":"cebpf4jnsgd1na2vs0mg"},{"bike_id":"d0df3d28-3331-4e0a-a7f8-26e1c54c67a5","system_id":"levelo_inurba_marseille","lat":43.29529,"lon":5.385581,"is_reserved":false,"is_disabled":false,"rental_uris":{"android":"levelo://app?vid=d0df3d28-3331-4e0a-a7f8-26e1c54c67a5","ios":"levelo://app?vid=d0df3d28-3331-4e0a-a7f8-26e1c54c67a5"},"vehicle_type_id":"4","last_reported":1717358862,"current_range_meters":20400,"station_id":"ce4bgih2rcd13ifvqba0","pricing_plan_id":"cebpf4jnsgd1na2vs0mg"},{"bike_id":"bd8cb891-d04b-46b3-9473-feaefc97d3dc","system_id":"levelo_inurba_marseille","lat":43.29527,"lon":5.3855,"is_reserved":false,"is_disabled":false,"rental_uris":{"android":"levelo://app?vid=bd8cb891-d04b-46b3-9473-feaefc97d3dc","ios":"levelo://app?vid=bd8cb891-d04b-46b3-9473-feaefc97d3dc"},"vehicle_type_id":"4","last_reported":1717358862,"current_range_meters":23600,"station_id":"ce4bgih2rcd13ifvqba0","pricing_plan_id":"cebpf4jnsgd1na2vs0mg"},{"bike_id":"81435bc3-ca24-47b4-86f2-5ca789041674","system_id":"levelo_inurba_marseille","lat":43.290779,"lon":5.371482,"is_reserved":false,"is_disabled":false,"rental_uris":{"android":"levelo://app?vid=81435bc3-ca24-47b4-86f2-5ca789041674","ios":"levelo://app?vid=81435bc3-ca24-47b4-86f2-5ca789041674"},"vehicle_type_id":"4","last_reported":1717358862,"current_range_meters":22800,"station_id":"ce4bh5p2rcd13ifvqe4g","pricing_plan_id":"cebpf4jnsgd1na2vs0mg"},{"bike_id":"a3c6c20b-5b8a-45cb-86bb-d821f20de043","system_id":"levelo_inurba_marseille","lat":43.29423,"lon":5.38616,"is_reserved":false,"is_disabled":false,"rental_uris":{"android":"levelo://app?vid=a3c6c20b-5b8a-45cb-86bb-d821f20de043","ios":"levelo://app?vid=a3c6c20b-5b8a-45cb-86bb-d821f20de043"},"vehicle_type_id":"4","last_reported":1717358862,"current_range_meters":6000,"station_id":"ce4bh2h2rcd13ifvqdh0","pricing_plan_id":"cebpf4jnsgd1na2vs0mg"},{"bike_id":"a9d64d60-3108-4589-b6ad-fa25097cf8ac","system_id":"levelo_inurba_marseille","lat":43.29422,"lon":5.38617,"is_reserved":false,"is_disabled":false,"rental_uris":{"android":"levelo://app?vid=a9d64d60-3108-4589-b6ad-fa25097cf8ac","ios":"levelo://app?vid=a9d64d60-3108-4589-b6ad-fa25097cf8ac"},"vehicle_type_id":"4","last_reported":1717358862,"current_range_meters":12800,"station_id":"ce4bh2h2rcd13ifvqdh0","pricing_plan_id":"cebpf4jnsgd1na2vs0mg"},{"bike_id":"1ae474c3-fba3-4572-be7f-542a9dbd10e2","system_id":"levelo_inurba_marseille","lat":43.29422,"lon":5.38617,"is_reserved":false,"is_disabled":false,"rental_uris":{"android":"levelo://app?vid=1ae474c3-fba3-4572-be7f-542a9dbd10e2","ios":"levelo://app?vid=1ae474c3-fba3-4572-be7f-542a9dbd10e2"},"vehicle_type_id":"4","last_reported":1717358862,"current_range_meters":31200,"station_id":"ce4bh2h2rcd13ifvqdh0","pricing_plan_id":"cebpf4jnsgd1na2vs0mg"},{"bike_id":"bd83b6cd-d578-495b-a2c2-f8cf4065df6c","system_id":"levelo_inurba_marseille","lat":43.29423,"lon":5.38619,"is_reserved":false,"is_disabled":false,"rental_uris":{"android":"levelo://app?vid=bd83b6cd-d578-495b-a2c2-f8cf4065df6c","ios":"levelo://app?vid=bd83b6cd-d578-495b-a2c2-f8cf4065df6c"},"vehicle_type_id":"4","last_reported":1717358862,"current_range_meters":0,"station_id":"ce4bh2h2rcd13ifvqdh0","pricing_plan_id":"cebpf4jnsgd1na2vs0mg"},{"bike_id":"3a08ce44-836c-41d6-9b35-7cf6b9ee33e1","system_id":"levelo_inurba_marseille","lat":43.29423,"lon":5.3862,"is_reserved":false,"is_disabled":false,"rental_uris":{"android":"levelo://app?vid=3a08ce44-836c-41d6-9b35-7cf6b9ee33e1","ios":"levelo://app?vid=3a08ce44-836c-41d6-9b35-7cf6b9ee33e1"},"vehicle_type_id":"4","last_reported":1717358862,"current_range_meters":10800,"station_id":"ce4bh2h2rcd13ifvqdh0","pricing_plan_id":"cebpf4jnsgd1na2vs0mg"},{"bike_id":"6dc5eff6-996c-47b8-bf64-7304cac26d7e","system_id":"levelo_inurba_marseille","lat":43.290319,"lon":5.375732,"is_reserved":false,"is_disabled":false,"rental_uris":{"android":"levelo://app?vid=6dc5eff6-996c-47b8-bf64-7304cac26d7e","ios":"levelo://app?vid=6dc5eff6-996c-47b8-bf64-7304cac26d7e"},"vehicle_type_id":"4","last_reported":1717358862,"current_range_meters":11600,"station_id":"ce4bh692rcd13ifvqe90","pricing_plan_id":"cebpf4jnsgd1na2vs0mg"},{"bike_id":"ef310f24-0d3e-4f19-b314-4a69ff2a03f8","system_id":"levelo_inurba_marseille","lat":43.294162,"lon":5.386292,"is_reserved":false,"is_disabled":false,"rental_uris":{"android":"levelo://app?vid=ef310f24-0d3e-4f19-b314-4a69ff2a03f8","ios":"levelo://app?vid=ef310f24-0d3e-4f19-b314-4a69ff2a03f8"},"vehicle_type_id":"4","last_reported":1717358862,"current_range_meters":16400,"station_id":"ce4bh2h2rcd13ifvqdh0","pricing_plan_id":"cebpf4jnsgd1na2vs0mg"},{"bike_id":"35857bb1-5ce9-447b-8bc6-5b103310042a","system_id":"levelo_inurba_marseille","lat":43.29418,"lon":5.38617,"is_reserved":false,"is_disabled":false,"rental_uris":{"android":"levelo://app?vid=35857bb1-5ce9-447b-8bc6-5b103310042a","ios":"levelo://app?vid=35857bb1-5ce9-447b-8bc6-5b103310042a"},"vehicle_type_id":"4","last_reported":1717358862,"current_range_meters":0,"station_id":"ce4bh2h2rcd13ifvqdh0","pricing_plan_id":"cebpf4jnsgd1na2vs0mg"},{"bike_id":"7d4fc633-93db-496d-9b04-09f51efc9fa9","system_id":"levelo_inurba_marseille","lat":43.29419,"lon":5.3862,"is_reserved":false,"is_disabled":false,"rental_uris":{"android":"levelo://app?vid=7d4fc633-93db-496d-9b04-09f51efc9fa9","ios":"levelo://app?vid=7d4fc633-93db-496d-9b04-09f51efc9fa9"},"vehicle_type_id":"4","last_reported":1717358862,"current_range_meters":14400,"station_id":"ce4bh2h2rcd13ifvqdh0","pricing_plan_id":"cebpf4jnsgd1na2vs0mg"},{"bike_id":"03b66644-eccf-409a-970a-661e62c086c2","system_id":"levelo_inurba_marseille","lat":43.294162,"lon":5.386292,"is_reserved":false,"is_disabled":false,"rental_uris":{"android":"levelo://app?vid=03b66644-eccf-409a-970a-661e62c086c2","ios":"levelo://app?vid=03b66644-eccf-409a-970a-661e62c086c2"},"vehicle_type_id":"4","last_reported":1717358862,"current_range_meters":4000,"station_id":"ce4bh2h2rcd13ifvqdh0","pricing_plan_id":"cebpf4jnsgd1na2vs0mg"},{"bike_id":"318a81a7-de6f-40ea-b2d3-e8a6d4c75b0d","system_id":"levelo_inurba_marseille","lat":43.294162,"lon":5.386292,"is_reserved":false,"is_disabled":false,"rental_uris":{"android":"levelo://app?vid=318a81a7-de6f-40ea-b2d3-e8a6d4c75b0d","ios":"levelo://app?vid=318a81a7-de6f-40ea-b2d3-e8a6d4c75b0d"},"vehicle_type_id":"4","last_reported":1717358862,"current_range_meters":21600,"station_id":"ce4bh2h2rcd13ifvqdh0","pricing_plan_id":"cebpf4jnsgd1na2vs0mg"},{"bike_id":"f4838980-e678-4653-a84f-89c8bae2d231","system_id":"levelo_inurba_marseille","lat":43.29418,"lon":5.38621,"is_reserved":false,"is_disabled":false,"rental_uris":{"android":"levelo://app?vid=f4838980-e678-4653-a84f-89c8bae2d231","ios":"levelo://app?vid=f4838980-e678-4653-a84f-89c8bae2d231"},"vehicle_type_id":"4","last_reported":1717358862,"current_range_meters":16800,"station_id":"ce4bh2h2rcd13ifvqdh0","pricing_plan_id":"cebpf4jnsgd1na2vs0mg"},{"bike_id":"1b722d8e-3956-49cc-a3d1-6bd62feab0ce","system_id":"levelo_inurba_marseille","lat":43.29417,"lon":5.3862,"is_reserved":false,"is_disabled":false,"rental_uris":{"android":"levelo://app?vid=1b722d8e-3956-49cc-a3d1-6bd62feab0ce","ios":"levelo://app?vid=1b722d8e-3956-49cc-a3d1-6bd62feab0ce"},"vehicle_type_id":"4","last_reported":1717358862,"current_range_meters":6000,"station_id":"ce4bh2h2rcd13ifvqdh0","pricing_plan_id":"cebpf4jnsgd1na2vs0mg"},{"bike_id":"ef886ae6-3738-4633-9a73-632c1f8a1bbe","system_id":"levelo_inurba_marseille","lat":43.294162,"lon":5.386292,"is_reserved":false,"is_disabled":false,"rental_uris":{"android":"levelo://app?vid=ef886ae6-3738-4633-9a73-632c1f8a1bbe","ios":"levelo://app?vid=ef886ae6-3738-4633-9a73-632c1f8a1bbe"},"vehicle_type_id":"4","last_reported":1717358862,"current_range_meters":400,"station_id":"ce4bh2h2rcd13ifvqdh0","pricing_plan_id":"cebpf4jnsgd1na2vs0mg"},{"bike_id":"910c4fef-5224-498f-98f5-26dd6d7e987a","system_id":"levelo_inurba_marseille","lat":43.294162,"lon":5.386292,"is_reserved":false,"is_disabled":false,"rental_uris":{"android":"levelo://app?vid=910c4fef-5224-498f-98f5-26dd6d7e987a","ios":"levelo://app?vid=910c4fef-5224-498f-98f5-26dd6d7e987a"},"vehicle_type_id":"4","last_reported":1717358862,"current_range_meters":11600,"station_id":"ce4bh2h2rcd13ifvqdh0","pricing_plan_id":"cebpf4jnsgd1na2vs0mg"},{"bike_id":"7094beeb-db06-40bc-b4d9-696e93ea4431","system_id":"levelo_inurba_marseille","lat":43.29418,"lon":5.38624,"is_reserved":false,"is_disabled":false,"rental_uris":{"android":"levelo://app?vid=7094beeb-db06-40bc-b4d9-696e93ea4431","ios":"levelo://app?vid=7094beeb-db06-40bc-b4d9-696e93ea4431"},"vehicle_type_id":"4","last_reported":1717358862,"current_range_meters":11200,"station_id":"ce4bh2h2rcd13ifvqdh0","pricing_plan_id":"cebpf4jnsgd1na2vs0mg"},{"bike_id":"1f559de1-384a-4ba6-acc8-c3b80a0aa8f7","system_id":"levelo_inurba_marseille","lat":43.29418,"lon":5.38624,"is_reserved":false,"is_disabled":false,"rental_uris":{"android":"levelo://app?vid=1f559de1-384a-4ba6-acc8-c3b80a0aa8f7","ios":"levelo://app?vid=1f559de1-384a-4ba6-acc8-c3b80a0aa8f7"},"vehicle_type_id":"4","last_reported":1717358862,"current_range_meters":4400,"station_id":"ce4bh2h2rcd13ifvqdh0","pricing_plan_id":"cebpf4jnsgd1na2vs0mg"},{"bike_id":"50429305-a8b4-4a70-ad84-8ed472a98a3d","system_id":"levelo_inurba_marseille","lat":43.29419,"lon":5.38626,"is_reserved":false,"is_disabled":false,"rental_uris":{"android":"levelo://app?vid=50429305-a8b4-4a70-ad84-8ed472a98a3d","ios":"levelo://app?vid=50429305-a8b4-4a70-ad84-8ed472a98a3d"},"vehicle_type_id":"4","last_reported":1717358862,"current_range_meters":800,"station_id":"ce4bh2h2rcd13ifvqdh0","pricing_plan_id":"cebpf4jnsgd1na2vs0mg"},{"bike_id":"e6c0422f-49fe-4fc9-a83d-0b2f4029bf62","system_id":"levelo_inurba_marseille","lat":43.29418,"lon":5.38625,"is_reserved":false,"is_disabled":false,"rental_uris":{"android":"levelo://app?vid=e6c0422f-49fe-4fc9-a83d-0b2f4029bf62","ios":"levelo://app?vid=e6c0422f-49fe-4fc9-a83d-0b2f4029bf62"},"vehicle_type_id":"4","last_reported":1717358862,"current_range_meters":8000,"station_id":"ce4bh2h2rcd13ifvqdh0","pricing_plan_id":"cebpf4jnsgd1na2vs0mg"},{"bike_id":"674ac3a0-dbff-4c70-9695-1886f9141007","system_id":"levelo_inurba_marseille","lat":43.29417,"lon":5.38624,"is_reserved":false,"is_disabled":false,"rental_uris":{"android":"levelo://app?vid=674ac3a0-dbff-4c70-9695-1886f9141007","ios":"levelo://app?vid=674ac3a0-dbff-4c70-9695-1886f9141007"},"vehicle_type_id":"4","last_reported":1717358862,"current_range_meters":17600,"station_id":"ce4bh2h2rcd13ifvqdh0","pricing_plan_id":"cebpf4jnsgd1na2vs0mg"},{"bike_id":"f778864d-7d8c-4e07-9aa5-e2f1f7881756","system_id":"levelo_inurba_marseille","lat":43.2942,"lon":5.3863,"is_reserved":false,"is_disabled":false,"rental_uris":{"android":"levelo://app?vid=f778864d-7d8c-4e07-9aa5-e2f1f7881756","ios":"levelo://app?vid=f778864d-7d8c-4e07-9aa5-e2f1f7881756"},"vehicle_type_id":"4","last_reported":1717358862,"current_range_meters":0,"station_id":"ce4bh2h2rcd13ifvqdh0","pricing_plan_id":"cebpf4jnsgd1na2vs0mg"},{"bike_id":"ba86959e-8981-426c-be8a-44b761c34add","system_id":"levelo_inurba_marseille","lat":43.29417,"lon":5.38625,"is_reserved":false,"is_disabled":false,"rental_uris":{"android":"levelo://app?vid=ba86959e-8981-426c-be8a-44b761c34add","ios":"levelo://app?vid=ba86959e-8981-426c-be8a-44b761c34add"},"vehicle_type_id":"4","last_reported":1717358862,"current_range_meters":19200,"station_id":"ce4bh2h2rcd13ifvqdh0","pricing_plan_id":"cebpf4jnsgd1na2vs0mg"},{"bike_id":"6ea4c548-8a6e-4c25-bfbe-151e744026f5","system_id":"levelo_inurba_marseille","lat":43.294162,"lon":5.386292,"is_reserved":false,"is_disabled":false,"rental_uris":{"android":"levelo://app?vid=6ea4c548-8a6e-4c25-bfbe-151e744026f5","ios":"levelo://app?vid=6ea4c548-8a6e-4c25-bfbe-151e744026f5"},"vehicle_type_id":"4","last_reported":1717358862,"current_range_meters":22000,"station_id":"ce4bh2h2rcd13ifvqdh0","pricing_plan_id":"cebpf4jnsgd1na2vs0mg"},{"bike_id":"a40ae6c1-7cbf-4b8b-b640-4b19020c359a","system_id":"levelo_inurba_marseille","lat":43.29417,"lon":5.386275,"is_reserved":false,"is_disabled":false,"rental_uris":{"android":"levelo://app?vid=a40ae6c1-7cbf-4b8b-b640-4b19020c359a","ios":"levelo://app?vid=a40ae6c1-7cbf-4b8b-b640-4b19020c359a"},"vehicle_type_id":"4","last_reported":1717358862,"current_range_meters":1200,"station_id":"ce4bh2h2rcd13ifvqdh0","pricing_plan_id":"cebpf4jnsgd1na2vs0mg"},{"bike_id":"7200062d-e27a-46c5-84a3-81f111d0c304","system_id":"levelo_inurba_marseille","lat":43.294162,"lon":5.386292,"is_reserved":false,"is_disabled":false,"rental_uris":{"android":"levelo://app?vid=7200062d-e27a-46c5-84a3-81f111d0c304","ios":"levelo://app?vid=7200062d-e27a-46c5-84a3-81f111d0c304"},"vehicle_type_id":"4","last_reported":1717358862,"current_range_meters":4400,"station_id":"ce4bh2h2rcd13ifvqdh0","pricing_plan_id":"cebpf4jnsgd1na2vs0mg"},{"bike_id":"c1957a42-6127-4bbc-9deb-9b484ce998af","system_id":"levelo_inurba_marseille","lat":43.289184,"lon":5.366408,"is_reserved":false,"is_disabled":false,"rental_uris":{"android":"levelo://app?vid=c1957a42-6127-4bbc-9deb-9b484ce998af","ios":"levelo://app?vid=c1957a42-6127-4bbc-9deb-9b484ce998af"},"vehicle_type_id":"4","last_reported":1717358862,"current_range_meters":8400,"station_id":"ce4bhap2rcd13ifvqek0","pricing_plan_id":"cebpf4jnsgd1na2vs0mg"},{"bike_id":"847292f1-6e84-4a64-a5f6-71f26086a2d2","system_id":"levelo_inurba_marseille","lat":43.294162,"lon":5.386292,"is_reserved":false,"is_disabled":false,"rental_uris":{"android":"levelo://app?vid=847292f1-6e84-4a64-a5f6-71f26086a2d2","ios":"levelo://app?vid=847292f1-6e84-4a64-a5f6-71f26086a2d2"},"vehicle_type_id":"4","last_reported":1717358862,"current_range_meters":2800,"station_id":"ce4bh2h2rcd13ifvqdh0","pricing_plan_id":"cebpf4jnsgd1na2vs0mg"},{"bike_id":"b90a3235-fba4-4c56-a508-e81d02db0cdf","system_id":"levelo_inurba_marseille","lat":43.294151,"lon":5.38631,"is_reserved":false,"is_disabled":false,"rental_uris":{"android":"levelo://app?vid=b90a3235-fba4-4c56-a508-e81d02db0cdf","ios":"levelo://app?vid=b90a3235-fba4-4c56-a508-e81d02db0cdf"},"vehicle_type_id":"4","last_reported":1717358862,"current_range_meters":7600,"station_id":"ce4bh2h2rcd13ifvqdh0","pricing_plan_id":"cebpf4jnsgd1na2vs0mg"},{"bike_id":"580131cd-1088-4958-aefc-a7594e72a11e","system_id":"levelo_inurba_marseille","lat":43.29415,"lon":5.38633,"is_reserved":false,"is_disabled":false,"rental_uris":{"android":"levelo://app?vid=580131cd-1088-4958-aefc-a7594e72a11e","ios":"levelo://app?vid=580131cd-1088-4958-aefc-a7594e72a11e"},"vehicle_type_id":"4","last_reported":1717358862,"current_range_meters":2000,"station_id":"ce4bh2h2rcd13ifvqdh0","pricing_plan_id":"cebpf4jnsgd1na2vs0mg"},{"bike_id":"aee4b6a1-71fd-4d9b-aa18-92a4a72069b1","system_id":"levelo_inurba_marseille","lat":43.29415,"lon":5.38633,"is_reserved":false,"is_disabled":false,"rental_uris":{"android":"levelo://app?vid=aee4b6a1-71fd-4d9b-aa18-92a4a72069b1","ios":"levelo://app?vid=aee4b6a1-71fd-4d9b-aa18-92a4a72069b1"},"vehicle_type_id":"4","last_reported":1717358862,"current_range_meters":21200,"station_id":"ce4bh2h2rcd13ifvqdh0","pricing_plan_id":"cebpf4jnsgd1na2vs0mg"},{"bike_id":"21d68d82-689c-453d-8247-73c603975f64","system_id":"levelo_inurba_marseille","lat":43.289408,"lon":5.36395,"is_reserved":false,"is_disabled":false,"rental_uris":{"android":"levelo://app?vid=21d68d82-689c-453d-8247-73c603975f64","ios":"levelo://app?vid=21d68d82-689c-453d-8247-73c603975f64"},"vehicle_type_id":"4","last_reported":1717358862,"current_range_meters":0,"station_id":"ce4bhc92rcd13ifvqetg","pricing_plan_id":"cebpf4jnsgd1na2vs0mg"},{"bike_id":"c44097f0-4fc5-4862-b8c7-3727a31e4a87","system_id":"levelo_inurba_marseille","lat":43.29213,"lon":5.38295,"is_reserved":false,"is_disabled":false,"rental_uris":{"android":"levelo://app?vid=c44097f0-4fc5-4862-b8c7-3727a31e4a87","ios":"levelo://app?vid=c44097f0-4fc5-4862-b8c7-3727a31e4a87"},"vehicle_type_id":"4","last_reported":1717358862,"current_range_meters":20800,"station_id":"","pricing_plan_id":"cebpf4jnsgd1na2vs0mg"},{"bike_id":"bfecc6e8-6989-44bf-9e66-cd8fc242c70c","system_id":"levelo_inurba_marseille","lat":43.292642,"lon":5.384254,"is_reserved":false,"is_disabled":false,"rental_uris":{"android":"levelo://app?vid=bfecc6e8-6989-44bf-9e66-cd8fc242c70c","ios":"levelo://app?vid=bfecc6e8-6989-44bf-9e66-cd8fc242c70c"},"vehicle_type_id":"4","last_reported":1717358862,"current_range_meters":26400,"station_id":"ce4bh692rcd13ifvqea0","pricing_plan_id":"cebpf4jnsgd1na2vs0mg"},{"bike_id":"7cc06fcd-40d5-49ff-9e42-292ab9f9a075","system_id":"levelo_inurba_marseille","lat":43.292642,"lon":5.384254,"is_reserved":false,"is_disabled":false,"rental_uris":{"android":"levelo://app?vid=7cc06fcd-40d5-49ff-9e42-292ab9f9a075","ios":"levelo://app?vid=7cc06fcd-40d5-49ff-9e42-292ab9f9a075"},"vehicle_type_id":"4","last_reported":1717358862,"current_range_meters":4000,"station_id":"ce4bh692rcd13ifvqea0","pricing_plan_id":"cebpf4jnsgd1na2vs0mg"},{"bike_id":"99901629-a8bf-4062-8d1b-3361a9385396","system_id":"levelo_inurba_marseille","lat":43.292644,"lon":5.384257,"is_reserved":false,"is_disabled":false,"rental_uris":{"android":"levelo://app?vid=99901629-a8bf-4062-8d1b-3361a9385396","ios":"levelo://app?vid=99901629-a8bf-4062-8d1b-3361a9385396"},"vehicle_type_id":"4","last_reported":1717358862,"current_range_meters":26800,"station_id":"ce4bh692rcd13ifvqea0","pricing_plan_id":"cebpf4jnsgd1na2vs0mg"},{"bike_id":"f4099601-98f4-4e49-b39e-3c713535b0f3","system_id":"levelo_inurba_marseille","lat":43.292644,"lon":5.384257,"is_reserved":false,"is_disabled":false,"rental_uris":{"android":"levelo://app?vid=f4099601-98f4-4e49-b39e-3c713535b0f3","ios":"levelo://app?vid=f4099601-98f4-4e49-b39e-3c713535b0f3"},"vehicle_type_id":"4","last_reported":1717358862,"current_range_meters":20000,"station_id":"ce4bh692rcd13ifvqea0","pricing_plan_id":"cebpf4jnsgd1na2vs0mg"},{"bike_id":"eda1e853-73f0-48c8-b51e-161a2e3952a9","system_id":"levelo_inurba_marseille","lat":43.292624,"lon":5.384316,"is_reserved":false,"is_disabled":false,"rental_uris":{"android":"levelo://app?vid=eda1e853-73f0-48c8-b51e-161a2e3952a9","ios":"levelo://app?vid=eda1e853-73f0-48c8-b51e-161a2e3952a9"},"vehicle_type_id":"4","last_reported":1717358862,"current_range_meters":13200,"station_id":"ce4bh692rcd13ifvqea0","pricing_plan_id":"cebpf4jnsgd1na2vs0mg"},{"bike_id":"86afc5d6-d93f-48b8-a220-18c23d1817f2","system_id":"levelo_inurba_marseille","lat":43.292642,"lon":5.384254,"is_reserved":false,"is_disabled":false,"rental_uris":{"android":"levelo://app?vid=86afc5d6-d93f-48b8-a220-18c23d1817f2","ios":"levelo://app?vid=86afc5d6-d93f-48b8-a220-18c23d1817f2"},"vehicle_type_id":"4","last_reported":1717358862,"current_range_meters":0,"station_id":"ce4bh692rcd13ifvqea0","pricing_plan_id":"cebpf4jnsgd1na2vs0mg"},{"bike_id":"b8be38b3-1539-400f-9152-db2ba964d557","system_id":"levelo_inurba_marseille","lat":43.29265,"lon":5.3844,"is_reserved":false,"is_disabled":false,"rental_uris":{"android":"levelo://app?vid=b8be38b3-1539-400f-9152-db2ba964d557","ios":"levelo://app?vid=b8be38b3-1539-400f-9152-db2ba964d557"},"vehicle_type_id":"4","last_reported":1717358862,"current_range_meters":15600,"station_id":"ce4bh692rcd13ifvqea0","pricing_plan_id":"cebpf4jnsgd1na2vs0mg"},{"bike_id":"93d2c50e-c1c7-4cd0-992e-4674d94f76e9","system_id":"levelo_inurba_marseille","lat":43.29264,"lon":5.38438,"is_reserved":false,"is_disabled":false,"rental_uris":{"android":"levelo://app?vid=93d2c50e-c1c7-4cd0-992e-4674d94f76e9","ios":"levelo://app?vid=93d2c50e-c1c7-4cd0-992e-4674d94f76e9"},"vehicle_type_id":"4","last_reported":1717358862,"current_range_meters":23600,"station_id":"ce4bh692rcd13ifvqea0","pricing_plan_id":"cebpf4jnsgd1na2vs0mg"},{"bike_id":"4dd2fbb4-e0df-40c6-9490-4c3e321ce3f1","system_id":"levelo_inurba_marseille","lat":43.29265,"lon":5.38442,"is_reserved":false,"is_disabled":false,"rental_uris":{"android":"levelo://app?vid=4dd2fbb4-e0df-40c6-9490-4c3e321ce3f1","ios":"levelo://app?vid=4dd2fbb4-e0df-40c6-9490-4c3e321ce3f1"},"vehicle_type_id":"4","last_reported":1717358862,"current_range_meters":21200,"station_id":"ce4bh692rcd13ifvqea0","pricing_plan_id":"cebpf4jnsgd1na2vs0mg"},{"bike_id":"22a5aeec-0430-4a57-ad25-fa67dcbf564a","system_id":"levelo_inurba_marseille","lat":43.29263,"lon":5.3844,"is_reserved":false,"is_disabled":false,"rental_uris":{"android":"levelo://app?vid=22a5aeec-0430-4a57-ad25-fa67dcbf564a","ios":"levelo://app?vid=22a5aeec-0430-4a57-ad25-fa67dcbf564a"},"vehicle_type_id":"4","last_reported":1717358862,"current_range_meters":17600,"station_id":"ce4bh692rcd13ifvqea0","pricing_plan_id":"cebpf4jnsgd1na2vs0mg"},{"bike_id":"0170cd19-8fe5-4dfe-9513-8ad1bcd115f9","system_id":"levelo_inurba_marseille","lat":43.29265,"lon":5.38445,"is_reserved":false,"is_disabled":false,"rental_uris":{"android":"levelo://app?vid=0170cd19-8fe5-4dfe-9513-8ad1bcd115f9","ios":"levelo://app?vid=0170cd19-8fe5-4dfe-9513-8ad1bcd115f9"},"vehicle_type_id":"4","last_reported":1717358862,"current_range_meters":12400,"station_id":"ce4bh692rcd13ifvqea0","pricing_plan_id":"cebpf4jnsgd1na2vs0mg"},{"bike_id":"c7339a13-d1e6-4c09-85a7-2c580bdad0d8","system_id":"levelo_inurba_marseille","lat":43.292644,"lon":5.384257,"is_reserved":false,"is_disabled":false,"rental_uris":{"android":"levelo://app?vid=c7339a13-d1e6-4c09-85a7-2c580bdad0d8","ios":"levelo://app?vid=c7339a13-d1e6-4c09-85a7-2c580bdad0d8"},"vehicle_type_id":"4","last_reported":1717358862,"current_range_meters":31600,"station_id":"ce4bh692rcd13ifvqea0","pricing_plan_id":"cebpf4jnsgd1na2vs0mg"},{"bike_id":"f9c45c5d-5b8a-4b5c-9ab9-d5c983690928","system_id":"levelo_inurba_marseille","lat":43.292644,"lon":5.384257,"is_reserved":false,"is_disabled":false,"rental_uris":{"android":"levelo://app?vid=f9c45c5d-5b8a-4b5c-9ab9-d5c983690928","ios":"levelo://app?vid=f9c45c5d-5b8a-4b5c-9ab9-d5c983690928"},"vehicle_type_id":"4","last_reported":1717358862,"current_range_meters":14000,"station_id":"ce4bh692rcd13ifvqea0","pricing_plan_id":"cebpf4jnsgd1na2vs0mg"},{"bike_id":"e79ad575-3595-48da-bcab-012aa410bf2e","system_id":"levelo_inurba_marseille","lat":43.292644,"lon":5.384257,"is_reserved":false,"is_disabled":false,"rental_uris":{"android":"levelo://app?vid=e79ad575-3595-48da-bcab-012aa410bf2e","ios":"levelo://app?vid=e79ad575-3595-48da-bcab-012aa410bf2e"},"vehicle_type_id":"4","last_reported":1717358862,"current_range_meters":400,"station_id":"ce4bh692rcd13ifvqea0","pricing_plan_id":"cebpf4jnsgd1na2vs0mg"},{"bike_id":"ea88f1c0-eb22-434e-8e8e-bd606d2bf982","system_id":"levelo_inurba_marseille","lat":43.29262,"lon":5.38446,"is_reserved":false,"is_disabled":false,"rental_uris":{"android":"levelo://app?vid=ea88f1c0-eb22-434e-8e8e-bd606d2bf982","ios":"levelo://app?vid=ea88f1c0-eb22-434e-8e8e-bd606d2bf982"},"vehicle_type_id":"4","last_reported":1717358862,"current_range_meters":8000,"station_id":"ce4bh692rcd13ifvqea0","pricing_plan_id":"cebpf4jnsgd1na2vs0mg"},{"bike_id":"7676ced9-1422-4643-b44b-78747f0a403a","system_id":"levelo_inurba_marseille","lat":43.2926,"lon":5.38445,"is_reserved":false,"is_disabled":false,"rental_uris":{"android":"levelo://app?vid=7676ced9-1422-4643-b44b-78747f0a403a","ios":"levelo://app?vid=7676ced9-1422-4643-b44b-78747f0a403a"},"vehicle_type_id":"4","last_reported":1717358862,"current_range_meters":19200,"station_id":"ce4bh692rcd13ifvqea0","pricing_plan_id":"cebpf4jnsgd1na2vs0mg"},{"bike_id":"30d18ddc-6999-4ca3-a394-15b86dff87a0","system_id":"levelo_inurba_marseille","lat":43.29258,"lon":5.38441,"is_reserved":false,"is_disabled":false,"rental_uris":{"android":"levelo://app?vid=30d18ddc-6999-4ca3-a394-15b86dff87a0","ios":"levelo://app?vid=30d18ddc-6999-4ca3-a394-15b86dff87a0"},"vehicle_type_id":"4","last_reported":1717358862,"current_range_meters":1600,"station_id":"ce4bh692rcd13ifvqea0","pricing_plan_id":"cebpf4jnsgd1na2vs0mg"},{"bike_id":"9db0a60c-e86b-42ec-93a4-0bc1a565fece","system_id":"levelo_inurba_marseille","lat":43.292644,"lon":5.384257,"is_reserved":false,"is_disabled":false,"rental_uris":{"android":"levelo://app?vid=9db0a60c-e86b-42ec-93a4-0bc1a565fece","ios":"levelo://app?vid=9db0a60c-e86b-42ec-93a4-0bc1a565fece"},"vehicle_type_id":"4","last_reported":1717358862,"current_range_meters":29200,"station_id":"ce4bh692rcd13ifvqea0","pricing_plan_id":"cebpf4jnsgd1na2vs0mg"},{"bike_id":"f1b6c4d6-3335-4146-a524-05c0d3cd3564","system_id":"levelo_inurba_marseille","lat":43.290995,"lon":5.381361,"is_reserved":false,"is_disabled":false,"rental_uris":{"android":"levelo://app?vid=f1b6c4d6-3335-4146-a524-05c0d3cd3564","ios":"levelo://app?vid=f1b6c4d6-3335-4146-a524-05c0d3cd3564"},"vehicle_type_id":"4","last_reported":1717358862,"current_range_meters":25600,"station_id":"ce4bh512rcd13ifvqe2g","pricing_plan_id":"cebpf4jnsgd1na2vs0mg"},{"bike_id":"ba8911ba-f31e-40c0-9725-6f28e0f3a900","system_id":"levelo_inurba_marseille","lat":43.290995,"lon":5.381361,"is_reserved":false,"is_disabled":false,"rental_uris":{"android":"levelo://app?vid=ba8911ba-f31e-40c0-9725-6f28e0f3a900","ios":"levelo://app?vid=ba8911ba-f31e-40c0-9725-6f28e0f3a900"},"vehicle_type_id":"4","last_reported":1717358862,"current_range_meters":13600,"station_id":"ce4bh512rcd13ifvqe2g","pricing_plan_id":"cebpf4jnsgd1na2vs0mg"},{"bike_id":"5c96e430-1c77-43f2-b6ad-7de584f51558","system_id":"levelo_inurba_marseille","lat":43.290995,"lon":5.381361,"is_reserved":false,"is_disabled":false,"rental_uris":{"android":"levelo://app?vid=5c96e430-1c77-43f2-b6ad-7de584f51558","ios":"levelo://app?vid=5c96e430-1c77-43f2-b6ad-7de584f51558"},"vehicle_type_id":"4","last_reported":1717358862,"current_range_meters":26000,"station_id":"ce4bh512rcd13ifvqe2g","pricing_plan_id":"cebpf4jnsgd1na2vs0mg"},