{"last_updated":1706436360,"ttl":30,"version":"2.2","data":{"bikes":[{"bike_id":"ad1818bc-4f0c-4c28-8330-d985aa26cb32","system_id":"levelo_inurba_marseille","lat":43.312239,"lon":5.368562,"is_reserved":false,"is_disabled":false,"rental_uris":{"android":"levelo://app?vid=ad1818bc-4f0c-4c28-8330-d985aa26cb32","ios":"levelo://app?vid=ad1818bc-4f0c-4c28-8330-d985aa26cb32"},"vehicle_type_id":"4","last_reported":1706436360,"current_range_meters":18800,"station_id":"ce4bgl92rcd13ifvqbq0","pricing_plan_id":"free"},{"bike_id":"11bbb38f-2a8a-435c-a72b-1587cac4755b","system_id":"levelo_inurba_marseille","lat":43.312239,"lon":5.368562,"is_reserved":false,"is_disabled":false,"rental_uris":{"android":"levelo://app?vid=11bbb38f-2a8a-435c-a72b-1587cac4755b","ios":"levelo://app?vid=11bbb38f-2a8a-435c-a72b-1587cac4755b"},"vehicle_type_id":"4","last_reported":1706436360,"current_range_meters":28800,"station_id":"ce4bgl92rcd13ifvqbq0","pricing_plan_id":"free"},{"bike_id":"be0a28db-dfa5-4db2-9442-7b4ef8682a46","system_id":"levelo_inurba_marseille","lat":43.30908,"lon":5.36853,"is_reserved":false,"is_disabled":false,"rental_uris":{"android":"levelo://app?vid=be0a28db-dfa5-4db2-9442-7b4ef8682a46","ios":"levelo://app?vid=be0a28db-dfa5-4db2-9442-7b4ef8682a46"},"vehicle_type_id":"4","last_reported":1706436360,"current_range_meters":28800,"station_id":"ce4bgn92rcd13ifvqbvg","pricing_plan_id":"free"},{"bike_id":"5fc57ca2-f1a6-4bb9-89c8-156190f0c212","system_id":"levelo_inurba_marseille","lat":43.309074,"lon":5.368508,"is_reserved":false,"is_disabled":false,"rental_uris":{"android":"levelo://app?vid=5fc57ca2-f1a6-4bb9-89c8-156190f0c212","ios":"levelo://app?vid=5fc57ca2-f1a6-4bb9-89c8-156190f0c212"},"vehicle_type_id":"4","last_reported":1706436360,"current_range_meters":25200,"station_id":"ce4bgn92rcd13ifvqbvg","pricing_plan_id":"free"},{"bike_id":"912f9e70-5841-422d-a830-629990968328","system_id":"levelo_inurba_marseille","lat":43.30906,"lon":5.36851,"is_reserved":false,"is_disabled":false,"rental_uris":{"android":"levelo://app?vid=912f9e70-5841-422d-a830-629990968328","ios":"levelo://app?vid=912f9e70-5841-422d-a830-629990968328"},"vehicle_type_id":"4","last_reported":1706436360,"current_range_meters":12000,"station_id":"","pricing_plan_id":"free"},{"bike_id":"a8ab23e8-1be9-448a-90f7-58b9fadc1511","system_id":"levelo_inurba_marseille","lat":43.314811,"lon":5.373103,"is_reserved":false,"is_disabled":false,"rental_uris":{"android":"levelo://app?vid=a8ab23e8-1be9-448a-90f7-58b9fadc1511","ios":"levelo://app?vid=a8ab23e8-1be9-448a-90f7-58b9fadc1511"},"vehicle_type_id":"4","last_reported":1706436360,"current_range_meters":29200,"station_id":"ce4bgt12rcd13ifvqcd0","pricing_plan_id":"free"},{"bike_id":"9fbd1394-f62b-4f2a-b775-769726bec851","system_id":"levelo_inurba_marseille","lat":43.314811,"lon":5.373103,"is_reserved":false,"is_disabled":false,"rental_uris":{"android":"levelo://app?vid=9fbd1394-f62b-4f2a-b775-769726bec851","ios":"levelo://app?vid=9fbd1394-f62b-4f2a-b775-769726bec851"},"vehicle_type_id":"4","last_reported":1706436360,"current_range_meters":31200,"station_id":"ce4bgt12rcd13ifvqcd0","pricing_plan_id":"free"},{"bike_id":"0c879c7c-b478-4341-b557-d8fa9e7ce411","system_id":"levelo_inurba_marseille","lat":43.314811,"lon":5.373104,"is_reserved":false,"is_disabled":false,"rental_uris":{"android":"levelo://app?vid=0c879c7c-b478-4341-b557-d8fa9e7ce411","ios":"levelo://app?vid=0c879c7c-b478-4341-b557-d8fa9e7ce411"},"vehicle_type_id":"4","last_reported":1706436360,"current_range_meters":30800,"station_id":"ce4bgt12rcd13ifvqcd0","pricing_plan_id":"free"},{"bike_id":"eca7a80f-655d-4c33-8615-296c2e0d6569","system_id":"levelo_inurba_marseille","lat":43.31485,"lon":5.37308,"is_reserved":false,"is_disabled":false,"rental_uris":{"android":"levelo://app?vid=eca7a80f-655d-4c33-8615-296c2e0d6569","ios":"levelo://app?vid=eca7a80f-655d-4c33-8615-296c2e0d6569"},"vehicle_type_id":"4","last_reported":1706436360,"current_range_meters":29600,"station_id":"ce4bgt12rcd13ifvqcd0","pricing_plan_id":"free"},{"bike_id":"467a5d80-0cc4-4cdf-baf9-16273abd4e96","system_id":"levelo_inurba_marseille","lat":43.314811,"lon":5.373104,"is_reserved":false,"is_disabled":false,"rental_uris":{"android":"levelo://app?vid=467a5d80-0cc4-4cdf-baf9-16273abd4e96","ios":"levelo://app?vid=467a5d80-0cc4-4cdf-baf9-16273abd4e96"},"vehicle_type_id":"4","last_reported":1706436360,"current_range_meters":20400,"station_id":"ce4bgt12rcd13ifvqcd0","pricing_plan_id":"free"},{"bike_id":"8ced2901-be8f-47eb-92cd-d368d32b4755","system_id":"levelo_inurba_marseille","lat":43.314811,"lon":5.373103,"is_reserved":false,"is_disabled":false,"rental_uris":{"android":"levelo://app?vid=8ced2901-be8f-47eb-92cd-d368d32b4755","ios":"levelo://app?vid=8ced2901-be8f-47eb-92cd-d368d32b4755"},"vehicle_type_id":"4","last_reported":1706436360,"current_range_meters":31200,"station_id":"ce4bgt12rcd13ifvqcd0","pricing_plan_id":"free"},{"bike_id":"c26d9d98-cd68-4a8a-a849-f715a3d4b2a6","system_id":"levelo_inurba_marseille","lat":43.314811,"lon":5.373104,"is_reserved":false,"is_disabled":false,"rental_uris":{"android":"levelo://app?vid=c26d9d98-cd68-4a8a-a849-f715a3d4b2a6","ios":"levelo://app?vid=c26d9d98-cd68-4a8a-a849-f715a3d4b2a6"},"vehicle_type_id":"4","last_reported":1706436360,"current_range_meters":0,"station_id":"ce4bgt12rcd13ifvqcd0","pricing_plan_id":"free"},{"bike_id":"0bff1dd7-d588-44f6-9d74-e9040ba27bb7","system_id":"levelo_inurba_marseille","lat":43.314811,"lon":5.373103,"is_reserved":false,"is_disabled":false,"rental_uris":{"android":"levelo://app?vid=0bff1dd7-d588-44f6-9d74-e9040ba27bb7","ios":"levelo://app?vid=0bff1dd7-d588-44f6-9d74-e9040ba27bb7"},"vehicle_type_id":"4","last_reported":1706436360,"current_range_meters":28000,"station_id":"ce4bgt12rcd13ifvqcd0","pricing_plan_id":"free"},{"bike_id":"1a3d829b-da0a-440e-bd77-4996fdba56bf","system_id":"levelo_inurba_marseille","lat":43.314811,"lon":5.373104,"is_reserved":false,"is_disabled":false,"rental_uris":{"android":"levelo://app?vid=1a3d829b-da0a-440e-bd77-4996fdba56bf","ios":"levelo://app?vid=1a3d829b-da0a-440e-bd77-4996fdba56bf"},"vehicle_type_id":"4","last_reported":1706436360,"current_range_meters":27600,"station_id":"ce4bgt12rcd13ifvqcd0","pricing_plan_id":"free"},{"bike_id":"63dfe0b9-d164-4098-8b95-9c87e14291eb","system_id":"levelo_inurba_marseille","lat":43.314811,"lon":5.373104,"is_reserved":false,"is_disabled":false,"rental_uris":{"android":"levelo://app?vid=63dfe0b9-d164-4098-8b95-9c87e14291eb","ios":"levelo://app?vid=63dfe0b9-d164-4098-8b95-9c87e14291eb"},"vehicle_type_id":"4","last_reported":1706436360,"current_range_meters":25200,"station_id":"ce4bgt12rcd13ifvqcd0","pricing_plan_id":"free"},{"bike_id":"902e4842-a3da-4259-9236-60f9110ec0f6","system_id":"levelo_inurba_marseille","lat":43.309034,"lon":5.371783,"is_reserved":false,"is_disabled":false,"rental_uris":{"android":"levelo://app?vid=902e4842-a3da-4259-9236-60f9110ec0f6","ios":"levelo://app?vid=902e4842-a3da-4259-9236-60f9110ec0f6"},"vehicle_type_id":"4","last_reported":1706436360,"current_range_meters":13200,"station_id":"ce4bguh2rcd13ifvqckg","pricing_plan_id":"free"},{"bike_id":"ff6c1c25-8287-4f32-9d54-133fa7cb156b","system_id":"levelo_inurba_marseille","lat":43.309039,"lon":5.371797,"is_reserved":false,"is_disabled":false,"rental_uris":{"android":"levelo://app?vid=ff6c1c25-8287-4f32-9d54-133fa7cb156b","ios":"levelo://app?vid=ff6c1c25-8287-4f32-9d54-133fa7cb156b"},"vehicle_type_id":"4","last_reported":1706436360,"current_range_meters":28000,"station_id":"ce4bguh2rcd13ifvqckg","pricing_plan_id":"free"},{"bike_id":"210c7657-c99e-4bcb-83da-afdb8db58bf1","system_id":"levelo_inurba_marseille","lat":43.309034,"lon":5.371783,"is_reserved":false,"is_disabled":false,"rental_uris":{"android":"levelo://app?vid=210c7657-c99e-4bcb-83da-afdb8db58bf1","ios":"levelo://app?vid=210c7657-c99e-4bcb-83da-afdb8db58bf1"},"vehicle_type_id":"4","last_reported":1706436360,"current_range_meters":30400,"station_id":"ce4bguh2rcd13ifvqckg","pricing_plan_id":"free"},{"bike_id":"6869a885-283d-4ad3-a964-3f0f60ceba45","system_id":"levelo_inurba_marseille","lat":43.305368,"lon":5.367343,"is_reserved":false,"is_disabled":false,"rental_uris":{"android":"levelo://app?vid=6869a885-283d-4ad3-a964-3f0f60ceba45","ios":"levelo://app?vid=6869a885-283d-4ad3-a964-3f0f60ceba45"},"vehicle_type_id":"4","last_reported":1706436360,"current_range_meters":31200,"station_id":"ce4bgrp2rcd13ifvqc9g","pricing_plan_id":"free"},{"bike_id":"24f1bc24-f0bc-4e8c-966d-01a22bd24d55","system_id":"levelo_inurba_marseille","lat":43.30538,"lon":5.36723,"is_reserved":false,"is_disabled":false,"rental_uris":{"android":"levelo://app?vid=24f1bc24-f0bc-4e8c-966d-01a22bd24d55","ios":"levelo://app?vid=24f1bc24-f0bc-4e8c-966d-01a22bd24d55"},"vehicle_type_id":"4","last_reported":1706436360,"current_range_meters":14800,"station_id":"ce4bgrp2rcd13ifvqc9g","pricing_plan_id":"free"},{"bike_id":"c0324f93-cb3e-4b97-ba51-1dbd2bd534f4","system_id":"levelo_inurba_marseille","lat":43.305714,"lon":5.365633,"is_reserved":false,"is_disabled":false,"rental_uris":{"android":"levelo://app?vid=c0324f93-cb3e-4b97-ba51-1dbd2bd534f4","ios":"levelo://app?vid=c0324f93-cb3e-4b97-ba51-1dbd2bd534f4"},"vehicle_type_id":"4","last_reported":1706436360,"current_range_meters":19200,"station_id":"ce4bgs12rcd13ifvqcag","pricing_plan_id":"free"},{"bike_id":"613f1d46-9701-47e5-a4da-841a2df26b5d","system_id":"levelo_inurba_marseille","lat":43.305368,"lon":5.367343,"is_reserved":false,"is_disabled":false,"rental_uris":{"android":"levelo://app?vid=613f1d46-9701-47e5-a4da-841a2df26b5d","ios":"levelo://app?vid=613f1d46-9701-47e5-a4da-841a2df26b5d"},"vehicle_type_id":"4","last_reported":1706436360,"current_range_meters":18800,"station_id":"ce4bgrp2rcd13ifvqc9g","pricing_plan_id":"free"},{"bike_id":"76b31801-6321-4a79-9860-9d80f9ab0c3c","system_id":"levelo_inurba_marseille","lat":43.305368,"lon":5.367343,"is_reserved":false,"is_disabled":false,"rental_uris":{"android":"levelo://app?vid=76b31801-6321-4a79-9860-9d80f9ab0c3c","ios":"levelo://app?vid=76b31801-6321-4a79-9860-9d80f9ab0c3c"},"vehicle_type_id":"4","last_reported":1706436360,"current_range_meters":0,"station_id":"ce4bgrp2rcd13ifvqc9g","pricing_plan_id":"free"},{"bike_id":"8f20fb2e-2f48-457b-af1d-e7ee49b4ead1","system_id":"levelo_inurba_marseille","lat":43.305714,"lon":5.365633,"is_reserved":false,"is_disabled":false,"rental_uris":{"android":"levelo://app?vid=8f20fb2e-2f48-457b-af1d-e7ee49b4ead1","ios":"levelo://app?vid=8f20fb2e-2f48-457b-af1d-e7ee49b4ead1"},"vehicle_type_id":"4","last_reported":1706436360,"current_range_meters":27200,"station_id":"ce4bgs12rcd13ifvqcag","pricing_plan_id":"free"},{"bike_id":"4abfa67d-bc6f-4d21-bde3-e401b502e6a1","system_id":"levelo_inurba_marseille","lat":43.305706,"lon":5.365654,"is_reserved":false,"is_disabled":false,"rental_uris":{"android":"levelo://app?vid=4abfa67d-bc6f-4d21-bde3-e401b502e6a1","ios":"levelo://app?vid=4abfa67d-bc6f-4d21-bde3-e401b502e6a1"},"vehicle_type_id":"4","last_reported":1706436360,"current_range_meters":27200,"station_id":"ce4bgs12rcd13ifvqcag","pricing_plan_id":"free"},{"bike_id":"1156a35f-966f-41dd-8597-e6db96465f34","system_id":"levelo_inurba_marseille","lat":43.305714,"lon":5.365633,"is_reserved":false,"is_disabled":false,"rental_uris":{"android":"levelo://app?vid=1156a35f-966f-41dd-8597-e6db96465f34","ios":"levelo://app?vid=1156a35f-966f-41dd-8597-e6db96465f34"},"vehicle_type_id":"4","last_reported":1706436360,"current_range_meters":25600,"station_id":"ce4bgs12rcd13ifvqcag","pricing_plan_id":"free"},{"bike_id":"66e3cb21-cab6-4829-9f57-c8880ac6b31d","system_id":"levelo_inurba_marseille","lat":43.305368,"lon":5.367343,"is_reserved":false,"is_disabled":false,"rental_uris":{"android":"levelo://app?vid=66e3cb21-cab6-4829-9f57-c8880ac6b31d","ios":"levelo://app?vid=66e3cb21-cab6-4829-9f57-c8880ac6b31d"},"vehicle_type_id":"4","last_reported":1706436360,"current_range_meters":15200,"station_id":"ce4bgrp2rcd13ifvqc9g","pricing_plan_id":"free"},{"bike_id":"2e38f19a-1c41-4c18-80ab-b9f2500afd5a","system_id":"levelo_inurba_marseille","lat":43.305368,"lon":5.367343,"is_reserved":false,"is_disabled":false,"rental_uris":{"android":"levelo://app?vid=2e38f19a-1c41-4c18-80ab-b9f2500afd5a","ios":"levelo://app?vid=2e38f19a-1c41-4c18-80ab-b9f2500afd5a"},"vehicle_type_id":"4","last_reported":1706436360,"current_range_meters":18400,"station_id":"ce4bgrp2rcd13ifvqc9g","pricing_plan_id":"free"},{"bike_id":"1b2455f2-4d0c-498a-a6bb-9b578a5f77f6","system_id":"levelo_inurba_marseille","lat":43.305706,"lon":5.365654,"is_reserved":false,"is_disabled":false,"rental_uris":{"android":"levelo://app?vid=1b2455f2-4d0c-498a-a6bb-9b578a5f77f6","ios":"levelo://app?vid=1b2455f2-4d0c-498a-a6bb-9b578a5f77f6"},"vehicle_type_id":"4","last_reported":1706436360,"current_range_meters":18800,"station_id":"ce4bgs12rcd13ifvqcag","pricing_plan_id":"free"},{"bike_id":"fc6c7c9d-e8bf-4d3a-ba5c-8de9e9947928","system_id":"levelo_inurba_marseille","lat":43.305989,"lon":5.37225,"is_reserved":false,"is_disabled":false,"rental_uris":{"android":"levelo://app?vid=fc6c7c9d-e8bf-4d3a-ba5c-8de9e9947928","ios":"levelo://app?vid=fc6c7c9d-e8bf-4d3a-ba5c-8de9e9947928"},"vehicle_type_id":"4","last_reported":1706436360,"current_range_meters":30000,"station_id":"ce4bgqh2rcd13ifvqc4g","pricing_plan_id":"free"},{"bike_id":"da184317-2c21-476e-b578-c9a40d3883c2","system_id":"levelo_inurba_marseille","lat":43.311203,"lon":5.377626,"is_reserved":false,"is_disabled":false,"rental_uris":{"android":"levelo://app?vid=da184317-2c21-476e-b578-c9a40d3883c2","ios":"levelo://app?vid=da184317-2c21-476e-b578-c9a40d3883c2"},"vehicle_type_id":"4","last_reported":1706436360,"current_range_meters":0,"station_id":"ce4bgt92rcd13ifvqcg0","pricing_plan_id":"free"},{"bike_id":"08ad015a-a5f0-4ba6-b089-296f159851e8","system_id":"levelo_inurba_marseille","lat":43.31108,"lon":5.37776,"is_reserved":false,"is_disabled":false,"rental_uris":{"android":"levelo://app?vid=08ad015a-a5f0-4ba6-b089-296f159851e8","ios":"levelo://app?vid=08ad015a-a5f0-4ba6-b089-296f159851e8"},"vehicle_type_id":"4","last_reported":1706436360,"current_range_meters":16400,"station_id":"ce4bgt92rcd13ifvqcg0","pricing_plan_id":"free"},{"bike_id":"7ca15d04-7dce-46d7-a0b6-4a6bd98da6ed","system_id":"levelo_inurba_marseille","lat":43.31108,"lon":5.37776,"is_reserved":false,"is_disabled":false,"rental_uris":{"android":"levelo://app?vid=7ca15d04-7dce-46d7-a0b6-4a6bd98da6ed","ios":"levelo://app?vid=7ca15d04-7dce-46d7-a0b6-4a6bd98da6ed"},"vehicle_type_id":"4","last_reported":1706436360,"current_range_meters":1600,"station_id":"ce4bgt92rcd13ifvqcg0","pricing_plan_id":"free"},{"bike_id":"386f9084-6bdf-4086-9339-59c7928794bf","system_id":"levelo_inurba_marseille","lat":43.307945,"lon":5.376487,"is_reserved":false,"is_disabled":false,"rental_uris":{"android":"levelo://app?vid=386f9084-6bdf-4086-9339-59c7928794bf","ios":"levelo://app?vid=386f9084-6bdf-4086-9339-59c7928794bf"},"vehicle_type_id":"4","last_reported":1706436360,"current_range_meters":14400,"station_id":"ce4bgv92rcd13ifvqcq0","pricing_plan_id":"free"},{"bike_id":"f9a95911-3d3c-4470-a975-7971158cc078","system_id":"levelo_inurba_marseille","lat":43.30785,"lon":5.37657,"is_reserved":false,"is_disabled":false,"rental_uris":{"android":"levelo://app?vid=f9a95911-3d3c-4470-a975-7971158cc078","ios":"levelo://app?vid=f9a95911-3d3c-4470-a975-7971158cc078"},"vehicle_type_id":"4","last_reported":1706436360,"current_range_meters":20000,"station_id":"ce4bgv92rcd13ifvqcq0","pricing_plan_id":"free"},{"bike_id":"d3314d46-374b-47d7-a330-fbb85ff3b132","system_id":"levelo_inurba_marseille","lat":43.307945,"lon":5.376487,"is_reserved":false,"is_disabled":false,"rental_uris":{"android":"levelo://app?vid=d3314d46-374b-47d7-a330-fbb85ff3b132","ios":"levelo://app?vid=d3314d46-374b-47d7-a330-fbb85ff3b132"},"vehicle_type_id":"4","last_reported":1706436360,"current_range_meters":31600,"station_id":"ce4bgv92rcd13ifvqcq0","pricing_plan_id":"free"},{"bike_id":"73645f36-08d9-44f6-8b3c-dd0fe7df04dc","system_id":"levelo_inurba_marseille","lat":43.307945,"lon":5.376487,"is_reserved":false,"is_disabled":false,"rental_uris":{"android":"levelo://app?vid=73645f36-08d9-44f6-8b3c-dd0fe7df04dc","ios":"levelo://app?vid=73645f36-08d9-44f6-8b3c-dd0fe7df04dc"},"vehicle_type_id":"4","last_reported":1706436360,"current_range_meters":30000,"station_id":"ce4bgv92rcd13ifvqcq0","pricing_plan_id":"free"},{"bike_id":"bf70306f-e475-47ca-8724-a7e42b25d923","system_id":"levelo_inurba_marseille","lat":43.317075,"lon":5.377367,"is_reserved":false,"is_disabled":false,"rental_uris":{"android":"levelo://app?vid=bf70306f-e475-47ca-8724-a7e42b25d923","ios":"levelo://app?vid=bf70306f-e475-47ca-8724-a7e42b25d923"},"vehicle_type_id":"4","last_reported":1706436360,"current_range_meters":30800,"station_id":"ce4bgth2rcd13ifvqch0","pricing_plan_id":"free"},{"bike_id":"e6c874a7-4c53-46c7-b3b9-101410bd4b5b","system_id":"levelo_inurba_marseille","lat":43.317075,"lon":5.377367,"is_reserved":false,"is_disabled":false,"rental_uris":{"android":"levelo://app?vid=e6c874a7-4c53-46c7-b3b9-101410bd4b5b","ios":"levelo://app?vid=e6c874a7-4c53-46c7-b3b9-101410bd4b5b"},"vehicle_type_id":"4","last_reported":1706436360,"current_range_meters":26800,"station_id":"ce4bgth2rcd13ifvqch0","pricing_plan_id":"free"},{"bike_id":"f0c31732-301a-4d0f-9fd3-25ad0ecb4b3c","system_id":"levelo_inurba_marseille","lat":43.317075,"lon":5.377367,"is_reserved":false,"is_disabled":false,"rental_uris":{"android":"levelo://app?vid=f0c31732-301a-4d0f-9fd3-25ad0ecb4b3c","ios":"levelo://app?vid=f0c31732-301a-4d0f-9fd3-25ad0ecb4b3c"},"vehicle_type_id":"4","last_reported":1706436360,"current_range_meters":10000,"station_id":"ce4bgth2rcd13ifvqch0","pricing_plan_id":"free"},{"bike_id":"6fff0b7d-2514-4e0c-a138-b6e9cb85be95","system_id":"levelo_inurba_marseille","lat":43.317075,"lon":5.377367,"is_reserved":false,"is_disabled":false,"rental_uris":{"android":"levelo://app?vid=6fff0b7d-2514-4e0c-a138-b6e9cb85be95","ios":"levelo://app?vid=6fff0b7d-2514-4e0c-a138-b6e9cb85be95"},"vehicle_type_id":"4","last_reported":1706436360,"current_range_meters":31600,"station_id":"ce4bgth2rcd13ifvqch0","pricing_plan_id":"free"},{"bike_id":"9fa12214-be30-4368-b5d8-cc81d07ade01","system_id":"levelo_inurba_marseille","lat":43.303046,"lon":5.368981,"is_reserved":false,"is_disabled":false,"rental_uris":{"android":"levelo://app?vid=9fa12214-be30-4368-b5d8-cc81d07ade01","ios":"levelo://app?vid=9fa12214-be30-4368-b5d8-cc81d07ade01"},"vehicle_type_id":"4","last_reported":1706436360,"current_range_meters":30000,"station_id":"ce4bgqh2rcd13ifvqc5g","pricing_plan_id":"free"},{"bike_id":"b116f684-49d2-4bea-beba-177ab37279cd","system_id":"levelo_inurba_marseille","lat":43.303046,"lon":5.368981,"is_reserved":false,"is_disabled":false,"rental_uris":{"android":"levelo://app?vid=b116f684-49d2-4bea-beba-177ab37279cd","ios":"levelo://app?vid=b116f684-49d2-4bea-beba-177ab37279cd"},"vehicle_type_id":"4","last_reported":1706436360,"current_range_meters":22000,"station_id":"ce4bgqh2rcd13ifvqc5g","pricing_plan_id":"free"},{"bike_id":"2f6c536c-ea48-4d96-adf0-07196235ebed","system_id":"levelo_inurba_marseille","lat":43.303046,"lon":5.368981,"is_reserved":false,"is_disabled":false,"rental_uris":{"android":"levelo://app?vid=2f6c536c-ea48-4d96-adf0-07196235ebed","ios":"levelo://app?vid=2f6c536c-ea48-4d96-adf0-07196235ebed"},"vehicle_type_id":"4","last_reported":1706436360,"current_range_meters":29200,"station_id":"ce4bgqh2rcd13ifvqc5g","pricing_plan_id":"free"},{"bike_id":"b83daeb9-a39c-4884-86e2-16a37c651f7f","system_id":"levelo_inurba_marseille","lat":43.320059,"lon":5.376211,"is_reserved":false,"is_disabled":false,"rental_uris":{"android":"levelo://app?vid=b83daeb9-a39c-4884-86e2-16a37c651f7f","ios":"levelo://app?vid=b83daeb9-a39c-4884-86e2-16a37c651f7f"},"vehicle_type_id":"4","last_reported":1706436360,"current_range_meters":6800,"station_id":"","pricing_plan_id":"free"},{"bike_id":"0a34db28-7a84-48b2-9804-d3db4e1fa022","system_id":"levelo_inurba_marseille","lat":43.308012,"lon":5.381511,"is_reserved":false,"is_disabled":false,"rental_uris":{"android":"levelo://app?vid=0a34db28-7a84-48b2-9804-d3db4e1fa022","ios":"levelo://app?vid=0a34db28-7a84-48b2-9804-d3db4e1fa022"},"vehicle_type_id":"4","last_reported":1706436360,"current_range_meters":27600,"station_id":"ce4bgt12rcd13ifvqce0","pricing_plan_id":"free"},{"bike_id":"690c1200-c19a-4d01-9ab8-8aa8b250b51a","system_id":"levelo_inurba_marseille","lat":43.308012,"lon":5.381511,"is_reserved":false,"is_disabled":false,"rental_uris":{"android":"levelo://app?vid=690c1200-c19a-4d01-9ab8-8aa8b250b51a","ios":"levelo://app?vid=690c1200-c19a-4d01-9ab8-8aa8b250b51a"},"vehicle_type_id":"4","last_reported":1706436360,"current_range_meters":5200,"station_id":"ce4bgt12rcd13ifvqce0","pricing_plan_id":"free"},{"bike_id":"f5e871ed-66ae-4b57-bace-c432be7616bf","system_id":"levelo_inurba_marseille","lat":43.308012,"lon":5.381511,"is_reserved":false,"is_disabled":false,"rental_uris":{"android":"levelo://app?vid=f5e871ed-66ae-4b57-bace-c432be7616bf","ios":"levelo://app?vid=f5e871ed-66ae-4b57-bace-c432be7616bf"},"vehicle_type_id":"4","last_reported":1706436360,"current_range_meters":6800,"station_id":"ce4bgt12rcd13ifvqce0","pricing_plan_id":"free"},{"bike_id":"158c4ba1-51bd-481f-b474-fdf094e78453","system_id":"levelo_inurba_marseille","lat":43.308012,"lon":5.381511,"is_reserved":false,"is_disabled":false,"rental_uris":{"android":"levelo://app?vid=158c4ba1-51bd-481f-b474-fdf094e78453","ios":"levelo://app?vid=158c4ba1-51bd-481f-b474-fdf094e78453"},"vehicle_type_id":"4","last_reported":1706436360,"current_range_meters":2800,"station_id":"ce4bgt12rcd13ifvqce0","pricing_plan_id":"free"},{"bike_id":"569f098b-13a1-43d4-b20a-4155b8981372","system_id":"levelo_inurba_marseille","lat":43.304606,"lon":5.379026,"is_reserved":false,"is_disabled":false,"rental_uris":{"android":"levelo://app?vid=569f098b-13a1-43d4-b20a-4155b8981372","ios":"levelo://app?vid=569f098b-13a1-43d4-b20a-4155b8981372"},"vehicle_type_id":"4","last_reported":1706436360,"current_range_meters":11200,"station_id":"ce4bgup2rcd13ifvqcn0","pricing_plan_id":"free"},{"bike_id":"784d064d-7520-4b0a-9393-8ab24be086a4","system_id":"levelo_inurba_marseille","lat":43.308012,"lon":5.381511,"is_reserved":false,"is_disabled":false,"rental_uris":{"android":"levelo://app?vid=784d064d-7520-4b0a-9393-8ab24be086a4","ios":"levelo://app?vid=784d064d-7520-4b0a-9393-8ab24be086a4"},"vehicle_type_id":"4","last_reported":1706436360,"current_range_meters":20000,"station_id":"ce4bgt12rcd13ifvqce0","pricing_plan_id":"free"},{"bike_id":"65a12cf0-9a9c-4f2a-8a67-95ab0d48f0cb","system_id":"levelo_inurba_marseille","lat":43.30793,"lon":5.38159,"is_reserved":false,"is_disabled":false,"rental_uris":{"android":"levelo://app?vid=65a12cf0-9a9c-4f2a-8a67-95ab0d48f0cb","ios":"levelo://app?vid=65a12cf0-9a9c-4f2a-8a67-95ab0d48f0cb"},"vehicle_type_id":"4","last_reported":1706436360,"current_range_meters":23200,"station_id":"ce4bgt12rcd13ifvqce0","pricing_plan_id":"free"},{"bike_id":"abee046a-7026-4823-9435-9f68a21fba86","system_id":"levelo_inurba_marseille","lat":43.308012,"lon":5.381511,"is_reserved":false,"is_disabled":false,"rental_uris":{"android":"levelo://app?vid=abee046a-7026-4823-9435-9f68a21fba86","ios":"levelo://app?vid=abee046a-7026-4823-9435-9f68a21fba86"},"vehicle_type_id":"4","last_reported":1706436360,"current_range_meters":15600,"station_id":"ce4bgt12rcd13ifvqce0","pricing_plan_id":"free"},{"bike_id":"2df0ae85-ba42-4e8d-ad70-69ecec263195","system_id":"levelo_inurba_marseille","lat":43.30786,"lon":5.38161,"is_reserved":false,"is_disabled":false,"rental_uris":{"android":"levelo://app?vid=2df0ae85-ba42-4e8d-ad70-69ecec263195","ios":"levelo://app?vid=2df0ae85-ba42-4e8d-ad70-69ecec263195"},"vehicle_type_id":"4","last_reported":1706436360,"current_range_meters":25600,"station_id":"","pricing_plan_id":"free"},{"bike_id":"3205b3a8-8a8e-48a9-b08c-c8635c523e24","system_id":"levelo_inurba_marseille","lat":43.304606,"lon":5.379026,"is_reserved":false,"is_disabled":false,"rental_uris":{"android":"levelo://app?vid=3205b3a8-8a8e-48a9-b08c-c8635c523e24","ios":"levelo://app?vid=3205b3a8-8a8e-48a9-b08c-c8635c523e24"},"vehicle_type_id":"4","last_reported":1706436360,"current_range_meters":30000,"station_id":"ce4bgup2rcd13ifvqcn0","pricing_plan_id":"free"},{"bike_id":"aa352b78-54c0-47dc-9f4f-44a863055744","system_id":"levelo_inurba_marseille","lat":43.304606,"lon":5.379026,"is_reserved":false,"is_disabled":false,"rental_uris":{"android":"levelo://app?vid=aa352b78-54c0-47dc-9f4f-44a863055744","ios":"levelo://app?vid=aa352b78-54c0-47dc-9f4f-44a863055744"},"vehicle_type_id":"4","last_reported":1706436360,"current_range_meters":31200,"station_id":"ce4bgup2rcd13ifvqcn0","pricing_plan_id":"free"},{"bike_id":"c369994b-e1bc-4c6e-b09e-ebf96ab78898","system_id":"levelo_inurba_marseille","lat":43.304606,"lon":5.379026,"is_reserved":false,"is_disabled":false,"rental_uris":{"android":"levelo://app?vid=c369994b-e1bc-4c6e-b09e-ebf96ab78898","ios":"levelo://app?vid=c369994b-e1bc-4c6e-b09e-ebf96ab78898"},"vehicle_type_id":"4","last_reported":1706436360,"current_range_meters":24000,"station_id":"ce4bgup2rcd13ifvqcn0","pricing_plan_id":"free"},{"bike_id":"b7a5f1e3-d531-4c89-a5c4-ceab573de39f","system_id":"levelo_inurba_marseille","lat":43.304606,"lon":5.379026,"is_reserved":false,"is_disabled":false,"rental_uris":{"android":"levelo://app?vid=b7a5f1e3-d531-4c89-a5c4-ceab573de39f","ios":"levelo://app?vid=b7a5f1e3-d531-4c89-a5c4-ceab573de39f"},"vehicle_type_id":"4","last_reported":1706436360,"current_range_meters":21600,"station_id":"ce4bgup2rcd13ifvqcn0","pricing_plan_id":"free"},{"bike_id":"9a36931a-84ae-49f2-bfeb-bdb7581f69df","system_id":"levelo_inurba_marseille","lat":43.304606,"lon":5.379026,"is_reserved":false,"is_disabled":false,"rental_uris":{"android":"levelo://app?vid=9a36931a-84ae-49f2-bfeb-bdb7581f69df","ios":"levelo://app?vid=9a36931a-84ae-49f2-bfeb-bdb7581f69df"},"vehicle_type_id":"4","last_reported":1706436360,"current_range_meters":29200,"station_id":"ce4bgup2rcd13ifvqcn0","pricing_plan_id":"free"},{"bike_id":"ea0b3573-e633-4803-a799-953d3695fc77","system_id":"levelo_inurba_marseille","lat":43.304606,"lon":5.379026,"is_reserved":false,"is_disabled":false,"rental_uris":{"android":"levelo://app?vid=ea0b3573-e633-4803-a799-953d3695fc77","ios":"levelo://app?vid=ea0b3573-e633-4803-a799-953d3695fc77"},"vehicle_type_id":"4","last_reported":1706436360,"current_range_meters":16000,"station_id":"ce4bgup2rcd13ifvqcn0","pricing_plan_id":"free"},{"bike_id":"b0a641ac-7cab-4a4d-8b1c-193feb608c4d","system_id":"levelo_inurba_marseille","lat":43.304606,"lon":5.379026,"is_reserved":false,"is_disabled":false,"rental_uris":{"android":"levelo://app?vid=b0a641ac-7cab-4a4d-8b1c-193feb608c4d","ios":"levelo://app?vid=b0a641ac-7cab-4a4d-8b1c-193feb608c4d"},"vehicle_type_id":"4","last_reported":1706436360,"current_range_meters":19200,"station_id":"ce4bgup2rcd13ifvqcn0","pricing_plan_id":"free"},{"bike_id":"2590b3da-ae4e-43f5-b4ed-e7d80b82268e","system_id":"levelo_inurba_marseille","lat":43.304606,"lon":5.379026,"is_reserved":false,"is_disabled":false,"rental_uris":{"android":"levelo://app?vid=2590b3da-ae4e-43f5-b4ed-e7d80b82268e","ios":"levelo://app?vid=2590b3da-ae4e-43f5-b4ed-e7d80b82268e"},"vehicle_type_id":"4","last_reported":1706436360,"current_range_meters":31600,"station_id":"ce4bgup2rcd13ifvqcn0","pricing_plan_id":"free"},{"bike_id":"000b989e-589d-4428-ae9e-c9431c15a250","system_id":"levelo_inurba_marseille","lat":43.304606,"lon":5.379026,"is_reserved":false,"is_disabled":false,"rental_uris":{"android":"levelo://app?vid=000b989e-589d-4428-ae9e-c9431c15a250","ios":"levelo://app?vid=000b989e-589d-4428-ae9e-c9431c15a250"},"vehicle_type_id":"4","last_reported":1706436360,"current_range_meters":21200,"station_id":"ce4bgup2rcd13ifvqcn0","pricing_plan_id":"free"},{"bike_id":"a6f1c874-a3f4-4b90-b910-f94561667388","system_id":"levelo_inurba_marseille","lat":43.304606,"lon":5.379026,"is_reserved":false,"is_disabled":false,"rental_uris":{"android":"levelo://app?vid=a6f1c874-a3f4-4b90-b910-f94561667388","ios":"levelo://app?vid=a6f1c874-a3f4-4b90-b910-f94561667388"},"vehicle_type_id":"4","last_reported":1706436360,"current_range_meters":22800,"station_id":"ce4bgup2rcd13ifvqcn0","pricing_plan_id":"free"},{"bike_id":"41938a1e-17b0-496f-aa0a-4900868c8cd5","system_id":"levelo_inurba_marseille","lat":43.304606,"lon":5.379026,"is_reserved":false,"is_disabled":false,"rental_uris":{"android":"levelo://app?vid=41938a1e-17b0-496f-aa0a-4900868c8cd5","ios":"levelo://app?vid=41938a1e-17b0-496f-aa0a-4900868c8cd5"},"vehicle_type_id":"4","last_reported":1706436360,"current_range_meters":23200,"station_id":"ce4bgup2rcd13ifvqcn0","pricing_plan_id":"free"},{"bike_id":"50a05534-3e17-4371-ab59-16e5e8718f5d","system_id":"levelo_inurba_marseille","lat":43.324771,"lon":5.36557,"is_reserved":false,"is_disabled":false,"rental_uris":{"android":"levelo://app?vid=50a05534-3e17-4371-ab59-16e5e8718f5d","ios":"levelo://app?vid=50a05534-3e17-4371-ab59-16e5e8718f5d"},"vehicle_type_id":"4","last_reported":1706436360,"current_range_meters":29600,"station_id":"ce4bhs12rcd13ifvqhvg","pricing_plan_id":"free"},{"bike_id":"dc00bdf8-dc57-4b02-8d44-8ea4906debe3","system_id":"levelo_inurba_marseille","lat":43.324771,"lon":5.36557,"is_reserved":false,"is_disabled":false,"rental_uris":{"android":"levelo://app?vid=dc00bdf8-dc57-4b02-8d44-8ea4906debe3","ios":"levelo://app?vid=dc00bdf8-dc57-4b02-8d44-8ea4906debe3"},"vehicle_type_id":"4","last_reported":1706436360,"current_range_meters":18400,"station_id":"ce4bhs12rcd13ifvqhvg","pricing_plan_id":"free"},{"bike_id":"c2c2cbc0-8eca-4dea-88e3-e6303f53b394","system_id":"levelo_inurba_marseille","lat":43.324771,"lon":5.36557,"is_reserved":false,"is_disabled":false,"rental_uris":{"android":"levelo://app?vid=c2c2cbc0-8eca-4dea-88e3-e6303f53b394","ios":"levelo://app?vid=c2c2cbc0-8eca-4dea-88e3-e6303f53b394"},"vehicle_type_id":"4","last_reported":1706436360,"current_range_meters":26400,"station_id":"ce4bhs12rcd13ifvqhvg","pricing_plan_id":"free"},{"bike_id":"d1379e4f-9f76-496d-aef7-4d8e0817a0bd","system_id":"levelo_inurba_marseille","lat":43.30282,"lon":5.37685,"is_reserved":false,"is_disabled":false,"rental_uris":{"android":"levelo://app?vid=d1379e4f-9f76-496d-aef7-4d8e0817a0bd","ios":"levelo://app?vid=d1379e4f-9f76-496d-aef7-4d8e0817a0bd"},"vehicle_type_id":"4","last_reported":1706436360,"current_range_meters":21600,"station_id":"ce4bguh2rcd13ifvqcj0","pricing_plan_id":"free"},{"bike_id":"30a02579-630f-400c-86e8-710edbd1d15a","system_id":"levelo_inurba_marseille","lat":43.302845,"lon":5.376903,"is_reserved":false,"is_disabled":false,"rental_uris":{"android":"levelo://app?vid=30a02579-630f-400c-86e8-710edbd1d15a","ios":"levelo://app?vid=30a02579-630f-400c-86e8-710edbd1d15a"},"vehicle_type_id":"4","last_reported":1706436360,"current_range_meters":19600,"station_id":"ce4bguh2rcd13ifvqcj0","pricing_plan_id":"free"},{"bike_id":"b0f8ebc1-9e0b-45b4-bac3-f82562e31a7b","system_id":"levelo_inurba_marseille","lat":43.302836,"lon":5.376909,"is_reserved":false,"is_disabled":false,"rental_uris":{"android":"levelo://app?vid=b0f8ebc1-9e0b-45b4-bac3-f82562e31a7b","ios":"levelo://app?vid=b0f8ebc1-9e0b-45b4-bac3-f82562e31a7b"},"vehicle_type_id":"4","last_reported":1706436360,"current_range_meters":29200,"station_id":"ce4bguh2rcd13ifvqcj0","pricing_plan_id":"free"},{"bike_id":"087206d0-416b-43dd-a271-4d1d50efa995","system_id":"levelo_inurba_marseille","lat":43.30284,"lon":5.37699,"is_reserved":false,"is_disabled":false,"rental_uris":{"android":"levelo://app?vid=087206d0-416b-43dd-a271-4d1d50efa995","ios":"levelo://app?vid=087206d0-416b-43dd-a271-4d1d50efa995"},"vehicle_type_id":"4","last_reported":1706436360,"current_range_meters":31200,"station_id":"ce4bguh2rcd13ifvqcj0","pricing_plan_id":"free"},{"bike_id":"58d76f54-546c-45b2-8ea3-9d6f736e7bb6","system_id":"levelo_inurba_marseille","lat":43.302841,"lon":5.376997,"is_reserved":false,"is_disabled":false,"rental_uris":{"android":"levelo://app?vid=58d76f54-546c-45b2-8ea3-9d6f736e7bb6","ios":"levelo://app?vid=58d76f54-546c-45b2-8ea3-9d6f736e7bb6"},"vehicle_type_id":"4","last_reported":1706436360,"current_range_meters":29600,"station_id":"ce4bguh2rcd13ifvqcj0","pricing_plan_id":"free"},{"bike_id":"daf831c0-6184-47be-8b9f-fc6fdbaa980d","system_id":"levelo_inurba_marseille","lat":43.30279,"lon":5.37698,"is_reserved":false,"is_disabled":false,"rental_uris":{"android":"levelo://app?vid=daf831c0-6184-47be-8b9f-fc6fdbaa980d","ios":"levelo://app?vid=daf831c0-6184-47be-8b9f-fc6fdbaa980d"},"vehicle_type_id":"4","last_reported":1706436360,"current_range_meters":23200,"station_id":"ce4bguh2rcd13ifvqcj0","pricing_plan_id":"free"},{"bike_id":"d6848ef5-32bf-4a80-b9ba-ff178961e93c","system_id":"levelo_inurba_marseille","lat":43.30143,"lon":5.37413,"is_reserved":false,"is_disabled":false,"rental_uris":{"android":"levelo://app?vid=d6848ef5-32bf-4a80-b9ba-ff178961e93c","ios":"levelo://app?vid=d6848ef5-32bf-4a80-b9ba-ff178961e93c"},"vehicle_type_id":"4","last_reported":1706436360,"current_range_meters":24000,"station_id":"ce4bgs92rcd13ifvqcc0","pricing_plan_id":"free"},{"bike_id":"af0f92bd-85ca-489d-bb24-c598a20e1c8e","system_id":"levelo_inurba_marseille","lat":43.302784,"lon":5.377158,"is_reserved":false,"is_disabled":false,"rental_uris":{"android":"levelo://app?vid=af0f92bd-85ca-489d-bb24-c598a20e1c8e","ios":"levelo://app?vid=af0f92bd-85ca-489d-bb24-c598a20e1c8e"},"vehicle_type_id":"4","last_reported":1706436360,"current_range_meters":27600,"station_id":"ce4bguh2rcd13ifvqcj0","pricing_plan_id":"free"},{"bike_id":"e859e84d-5fda-4353-abb0-4fb6d836be6c","system_id":"levelo_inurba_marseille","lat":43.301429,"lon":5.37413,"is_reserved":false,"is_disabled":false,"rental_uris":{"android":"levelo://app?vid=e859e84d-5fda-4353-abb0-4fb6d836be6c","ios":"levelo://app?vid=e859e84d-5fda-4353-abb0-4fb6d836be6c"},"vehicle_type_id":"4","last_reported":1706436360,"current_range_meters":30000,"station_id":"ce4bgs92rcd13ifvqcc0","pricing_plan_id":"free"},{"bike_id":"d475b063-633b-4ee8-915e-541f2032587f","system_id":"levelo_inurba_marseille","lat":43.30143,"lon":5.37413,"is_reserved":false,"is_disabled":false,"rental_uris":{"android":"levelo://app?vid=d475b063-633b-4ee8-915e-541f2032587f","ios":"levelo://app?vid=d475b063-633b-4ee8-915e-541f2032587f"},"vehicle_type_id":"4","last_reported":1706436360,"current_range_meters":21600,"station_id":"ce4bgs92rcd13ifvqcc0","pricing_plan_id":"free"},{"bike_id":"fa6b04e7-0b3f-4c0a-b3d7-b7294e70d0ab","system_id":"levelo_inurba_marseille","lat":43.301429,"lon":5.37413,"is_reserved":false,"is_disabled":false,"rental_uris":{"android":"levelo://app?vid=fa6b04e7-0b3f-4c0a-b3d7-b7294e70d0ab","ios":"levelo://app?vid=fa6b04e7-0b3f-4c0a-b3d7-b7294e70d0ab"},"vehicle_type_id":"4","last_reported":1706436360,"current_range_meters":28800,"station_id":"ce4bgs92rcd13ifvqcc0","pricing_plan_id":"free"},{"bike_id":"6c121b79-46d9-4eb0-b3b6-ae9fe8e5830e","system_id":"levelo_inurba_marseille","lat":43.319935,"lon":5.381699,"is_reserved":false,"is_disabled":false,"rental_uris":{"android":"levelo://app?vid=6c121b79-46d9-4eb0-b3b6-ae9fe8e5830e","ios":"levelo://app?vid=6c121b79-46d9-4eb0-b3b6-ae9fe8e5830e"},"vehicle_type_id":"4","last_reported":1706436360,"current_range_meters":4800,"station_id":"ce4bhr12rcd13ifvqhpg","pricing_plan_id":"free"},{"bike_id":"744976f1-461c-4492-b20f-b4e4bb1ed32a","system_id":"levelo_inurba_marseille","lat":43.313571,"lon":5.384829,"is_reserved":false,"is_disabled":false,"rental_uris":{"android":"levelo://app?vid=744976f1-461c-4492-b20f-b4e4bb1ed32a","ios":"levelo://app?vid=744976f1-461c-4492-b20f-b4e4bb1ed32a"},"vehicle_type_id":"4","last_reported":1706436360,"current_range_meters":22000,"station_id":"ce4bgt92rcd13ifvqcf0","pricing_plan_id":"free"},{"bike_id":"7c89e1f1-cfcb-4119-b10c-9c436f38d2b7","system_id":"levelo_inurba_marseille","lat":43.305364,"lon":5.384119,"is_reserved":false,"is_disabled":false,"rental_uris":{"android":"levelo://app?vid=7c89e1f1-cfcb-4119-b10c-9c436f38d2b7","ios":"levelo://app?vid=7c89e1f1-cfcb-4119-b10c-9c436f38d2b7"},"vehicle_type_id":"4","last_reported":1706436360,"current_range_meters":25200,"station_id":"ce4bgg92rcd13ifvqb30","pricing_plan_id":"free"},{"bike_id":"26d4a7dc-3f4a-4d62-9954-0be903a400ec","system_id":"levelo_inurba_marseille","lat":43.298433,"lon":5.362774,"is_reserved":false,"is_disabled":false,"rental_uris":{"android":"levelo://app?vid=26d4a7dc-3f4a-4d62-9954-0be903a400ec","ios":"levelo://app?vid=26d4a7dc-3f4a-4d62-9954-0be903a400ec"},"vehicle_type_id":"4","last_reported":1706436360,"current_range_meters":31200,"station_id":"ce4bgpp2rcd13ifvqc3g","pricing_plan_id":"free"},{"bike_id":"45d8139c-3a0b-4c48-bf39-ffa7bef44533","system_id":"levelo_inurba_marseille","lat":43.298433,"lon":5.362774,"is_reserved":false,"is_disabled":false,"rental_uris":{"android":"levelo://app?vid=45d8139c-3a0b-4c48-bf39-ffa7bef44533","ios":"levelo://app?vid=45d8139c-3a0b-4c48-bf39-ffa7bef44533"},"vehicle_type_id":"4","last_reported":1706436360,"current_range_meters":31200,"station_id":"ce4bgpp2rcd13ifvqc3g","pricing_plan_id":"free"},{"bike_id":"ace390e4-b347-427b-b2d1-34e33b796c75","system_id":"levelo_inurba_marseille","lat":43.305364,"lon":5.384119,"is_reserved":false,"is_disabled":false,"rental_uris":{"android":"levelo://app?vid=ace390e4-b347-427b-b2d1-34e33b796c75","ios":"levelo://app?vid=ace390e4-b347-427b-b2d1-34e33b796c75"},"vehicle_type_id":"4","last_reported":1706436360,"current_range_meters":27200,"station_id":"ce4bgg92rcd13ifvqb30","pricing_plan_id":"free"},{"bike_id":"a3b74381-0d58-448f-9a1c-2f1261e3769d","system_id":"levelo_inurba_marseille","lat":43.322872,"lon":5.382756,"is_reserved":false,"is_disabled":false,"rental_uris":{"android":"levelo://app?vid=a3b74381-0d58-448f-9a1c-2f1261e3769d","ios":"levelo://app?vid=a3b74381-0d58-448f-9a1c-2f1261e3769d"},"vehicle_type_id":"4","last_reported":1706436360,"current_range_meters":30800,"station_id":"ce4bhr12rcd13ifvqhqg","pricing_plan_id":"free"},{"bike_id":"ab98e573-92e3-4c87-b938-e8306447ae15","system_id":"levelo_inurba_marseille","lat":43.322872,"lon":5.382756,"is_reserved":false,"is_disabled":false,"rental_uris":{"android":"levelo://app?vid=ab98e573-92e3-4c87-b938-e8306447ae15","ios":"levelo://app?vid=ab98e573-92e3-4c87-b938-e8306447ae15"},"vehicle_type_id":"4","last_reported":1706436360,"current_range_meters":30800,"station_id":"ce4bhr12rcd13ifvqhqg","pricing_plan_id":"free"},{"bike_id":"1e3dac1e-79bb-416e-9a25-92222494a4ee","system_id":"levelo_inurba_marseille","lat":43.328371,"lon":5.366912,"is_reserved":false,"is_disabled":false,"rental_uris":{"android":"levelo://app?vid=1e3dac1e-79bb-416e-9a25-92222494a4ee","ios":"levelo://app?vid=1e3dac1e-79bb-416e-9a25-92222494a4ee"},"vehicle_type_id":"4","last_reported":1706436360,"current_range_meters":18800,"station_id":"ce4bhs92rcd13ifvqi0g","pricing_plan_id":"free"},{"bike_id":"0f7b98a3-6434-4866-adac-ccd99f91e009","system_id":"levelo_inurba_marseille","lat":43.32826,"lon":5.36686,"is_reserved":false,"is_disabled":false,"rental_uris":{"android":"levelo://app?vid=0f7b98a3-6434-4866-adac-ccd99f91e009","ios":"levelo://app?vid=0f7b98a3-6434-4866-adac-ccd99f91e009"},"vehicle_type_id":"4","last_reported":1706436360,"current_range_meters":0,"station_id":"ce4bhs92rcd13ifvqi0g","pricing_plan_id":"free"},{"bike_id":"12edd8fe-ac42-424b-86a0-ddbc64b4f114","system_id":"levelo_inurba_marseille","lat":43.328371,"lon":5.366909,"is_reserved":false,"is_disabled":false,"rental_uris":{"android":"levelo://app?vid=12edd8fe-ac42-424b-86a0-ddbc64b4f114","ios":"levelo://app?vid=12edd8fe-ac42-424b-86a0-ddbc64b4f114"},"vehicle_type_id":"4","last_reported":1706436360,"current_range_meters":14400,"station_id":"ce4bhs92rcd13ifvqi0g","pricing_plan_id":"free"},{"bike_id":"af1c8fc0-8183-4d68-848c-9159b1d2bf45","system_id":"levelo_inurba_marseille","lat":43.328371,"lon":5.366909,"is_reserved":false,"is_disabled":false,"rental_uris":{"android":"levelo://app?vid=af1c8fc0-8183-4d68-848c-9159b1d2bf45","ios":"levelo://app?vid=af1c8fc0-8183-4d68-848c-9159b1d2bf45"},"vehicle_type_id":"4","last_reported":1706436360,"current_range_meters":10800,"station_id":"ce4bhs92rcd13ifvqi0g","pricing_plan_id":"free"},{"bike_id":"7d486b26-0699-4e64-b6aa-8917ce15693f","system_id":"levelo_inurba_marseille","lat":43.297163,"lon":5.365866,"is_reserved":false,"is_disabled":false,"rental_uris":{"android":"levelo://app?vid=7d486b26-0699-4e64-b6aa-8917ce15693f","ios":"levelo://app?vid=7d486b26-0699-4e64-b6aa-8917ce15693f"},"vehicle_type_id":"4","last_reported":1706436360,"current_range_meters":27200,"station_id":"ce4bgn12rcd13ifvqbt0","pricing_plan_id":"free"},{"bike_id":"29d98e10-4725-4615-8a89-df5ff8c8d261","system_id":"levelo_inurba_marseille","lat":43.296514,"lon":5.368683,"is_reserved":false,"is_disabled":false,"rental_uris":{"android":"levelo://app?vid=29d98e10-4725-4615-8a89-df5ff8c8d261","ios":"levelo://app?vid=29d98e10-4725-4615-8a89-df5ff8c8d261"},"vehicle_type_id":"4","last_reported":1706436360,"current_range_meters":24000,"station_id":"","pricing_plan_id":"free"},{"bike_id":"a9c08e94-d589-4d91-a046-5b95231b92c7","system_id":"levelo_inurba_marseille","lat":43.295842,"lon":5.367386,"is_reserved":false,"is_disabled":false,"rental_uris":{"android":"levelo://app?vid=a9c08e94-d589-4d91-a046-5b95231b92c7","ios":"levelo://app?vid=a9c08e94-d589-4d91-a046-5b95231b92c7"},"vehicle_type_id":"4","last_reported":1706436360,"current_range_meters":25600,"station_id":"","pricing_plan_id":"free"},{"bike_id":"9d6e93d9-33a6-414f-8f86-b10426802c4b","system_id":"levelo_inurba_marseille","lat":43.309589,"lon":5.390258,"is_reserved":false,"is_disabled":false,"rental_uris":{"android":"levelo://app?vid=9d6e93d9-33a6-414f-8f86-b10426802c4b","ios":"levelo://app?vid=9d6e93d9-33a6-414f-8f86-b10426802c4b"},"vehicle_type_id":"4","last_reported":1706436360,"current_range_meters":31200,"station_id":"ce4bgup2rcd13ifvqco0","pricing_plan_id":"free"},{"bike_id":"ea347f58-d9f1-491b-86ae-f4efd937fdd3","system_id":"levelo_inurba_marseille","lat":43.309589,"lon":5.390258,"is_reserved":false,"is_disabled":false,"rental_uris":{"android":"levelo://app?vid=ea347f58-d9f1-491b-86ae-f4efd937fdd3","ios":"levelo://app?vid=ea347f58-d9f1-491b-86ae-f4efd937fdd3"},"vehicle_type_id":"4","last_reported":1706436360,"current_range_meters":26000,"station_id":"ce4bgup2rcd13ifvqco0","pricing_plan_id":"free"},{"bike_id":"af3b809f-a562-45d1-923f-898b1bd99001","system_id":"levelo_inurba_marseille","lat":43.317557,"lon":5.390173,"is_reserved":false,"is_disabled":false,"rental_uris":{"android":"levelo://app?vid=af3b809f-a562-45d1-923f-898b1bd99001","ios":"levelo://app?vid=af3b809f-a562-45d1-923f-898b1bd99001"},"vehicle_type_id":"4","last_reported":1706436360,"current_range_meters":25200,"station_id":"ce4bhqp2rcd13ifvqhng","pricing_plan_id":"free"},{"bike_id":"fed9f040-f07b-48ab-af08-0d74ea524346","system_id":"levelo_inurba_marseille","lat":43.317557,"lon":5.390173,"is_reserved":false,"is_disabled":false,"rental_uris":{"android":"levelo://app?vid=fed9f040-f07b-48ab-af08-0d74ea524346","ios":"levelo://app?vid=fed9f040-f07b-48ab-af08-0d74ea524346"},"vehicle_type_id":"4","last_reported":1706436360,"current_range_meters":24400,"station_id":"ce4bhqp2rcd13ifvqhng","pricing_plan_id":"free"},{"bike_id":"25116268-15f1-4247-8747-7481082b9269","system_id":"levelo_inurba_marseille","lat":43.298037,"lon":5.381066,"is_reserved":false,"is_disabled":false,"rental_uris":{"android":"levelo://app?vid=25116268-15f1-4247-8747-7481082b9269","ios":"levelo://app?vid=25116268-15f1-4247-8747-7481082b9269"},"vehicle_type_id":"4","last_reported":1706436360,"current_range_meters":20400,"station_id":"ce4bgip2rcd13ifvqbb0","pricing_plan_id":"free"},{"bike_id":"966a0457-6c9f-4ced-913f-0318c1d7a7cc","system_id":"levelo_inurba_marseille","lat":43.29801,"lon":5.38089,"is_reserved":false,"is_disabled":false,"rental_uris":{"android":"levelo://app?vid=966a0457-6c9f-4ced-913f-0318c1d7a7cc","ios":"levelo://app?vid=966a0457-6c9f-4ced-913f-0318c1d7a7cc"},"vehicle_type_id":"4","last_reported":1706436360,"current_range_meters":16000,"station_id":"ce4bgip2rcd13ifvqbb0","pricing_plan_id":"free"},{"bike_id":"0924dd4f-68ba-44d4-a80b-d5b598ea932f","system_id":"levelo_inurba_marseille","lat":43.297978,"lon":5.380838,"is_reserved":false,"is_disabled":false,"rental_uris":{"android":"levelo://app?vid=0924dd4f-68ba-44d4-a80b-d5b598ea932f","ios":"levelo://app?vid=0924dd4f-68ba-44d4-a80b-d5b598ea932f"},"vehicle_type_id":"4","last_reported":1706436360,"current_range_meters":14000,"station_id":"ce4bgip2rcd13ifvqbb0","pricing_plan_id":"free"},{"bike_id":"facb0391-9d1c-44be-acf5-d78d6d055036","system_id":"levelo_inurba_marseille","lat":43.297948,"lon":5.380844,"is_reserved":false,"is_disabled":false,"rental_uris":{"android":"levelo://app?vid=facb0391-9d1c-44be-acf5-d78d6d055036","ios":"levelo://app?vid=facb0391-9d1c-44be-acf5-d78d6d055036"},"vehicle_type_id":"4","last_reported":1706436360,"current_range_meters":24400,"station_id":"","pricing_plan_id":"free"},{"bike_id":"839b3367-cf00-4c78-ae62-fefe9daf52b5","system_id":"levelo_inurba_marseille","lat":43.297937,"lon":5.380861,"is_reserved":false,"is_disabled":false,"rental_uris":{"android":"levelo://app?vid=839b3367-cf00-4c78-ae62-fefe9daf52b5","ios":"levelo://app?vid=839b3367-cf00-4c78-ae62-fefe9daf52b5"},"vehicle_type_id":"4","last_reported":1706436360,"current_range_meters":24400,"station_id":"ce4bgip2rcd13ifvqbb0","pricing_plan_id":"free"},{"bike_id":"cca59268-f619-4723-9bdb-120bacf280e3","system_id":"levelo_inurba_marseille","lat":43.298037,"lon":5.381066,"is_reserved":false,"is_disabled":false,"rental_uris":{"android":"levelo://app?vid=cca59268-f619-4723-9bdb-120bacf280e3","ios":"levelo://app?vid=cca59268-f619-4723-9bdb-120bacf280e3"},"vehicle_type_id":"4","last_reported":1706436360,"current_range_meters":16400,"station_id":"ce4bgip2rcd13ifvqbb0","pricing_plan_id":"free"},{"bike_id":"443f40c4-2570-4c07-b107-19b8ed3d82ab","system_id":"levelo_inurba_marseille","lat":43.297934,"lon":5.38092,"is_reserved":false,"is_disabled":false,"rental_uris":{"android":"levelo://app?vid=443f40c4-2570-4c07-b107-19b8ed3d82ab","ios":"levelo://app?vid=443f40c4-2570-4c07-b107-19b8ed3d82ab"},"vehicle_type_id":"4","last_reported":1706436360,"current_range_meters":28800,"station_id":"ce4bgip2rcd13ifvqbb0","pricing_plan_id":"free"},{"bike_id":"49fe99d4-e5cf-404c-9af8-91168356203b","system_id":"levelo_inurba_marseille","lat":43.296263,"lon":5.377094,"is_reserved":false,"is_disabled":false,"rental_uris":{"android":"levelo://app?vid=49fe99d4-e5cf-404c-9af8-91168356203b","ios":"levelo://app?vid=49fe99d4-e5cf-404c-9af8-91168356203b"},"vehicle_type_id":"4","last_reported":1706436360,"current_range_meters":24400,"station_id":"ce4bgi92rcd13ifvqb90","pricing_plan_id":"free"},{"bike_id":"553de4b6-bfc8-4874-840a-6d67d95f163a","system_id":"levelo_inurba_marseille","lat":43.295279,"lon":5.375048,"is_reserved":false,"is_disabled":false,"rental_uris":{"android":"levelo://app?vid=553de4b6-bfc8-4874-840a-6d67d95f163a","ios":"levelo://app?vid=553de4b6-bfc8-4874-840a-6d67d95f163a"},"vehicle_type_id":"4","last_reported":1706436360,"current_range_meters":28800,"station_id":"ce4bgkp2rcd13ifvqbmg","pricing_plan_id":"free"},{"bike_id":"46f786b9-402c-48f1-84c5-26979b689df1","system_id":"levelo_inurba_marseille","lat":43.295279,"lon":5.375048,"is_reserved":false,"is_disabled":false,"rental_uris":{"android":"levelo://app?vid=46f786b9-402c-48f1-84c5-26979b689df1","ios":"levelo://app?vid=46f786b9-402c-48f1-84c5-26979b689df1"},"vehicle_type_id":"4","last_reported":1706436360,"current_range_meters":4400,"station_id":"ce4bgkp2rcd13ifvqbmg","pricing_plan_id":"free"},{"bike_id":"5fc9a615-ab81-4ba7-9b15-f061909e14a7","system_id":"levelo_inurba_marseille","lat":43.32367,"lon":5.388836,"is_reserved":false,"is_disabled":false,"rental_uris":{"android":"levelo://app?vid=5fc9a615-ab81-4ba7-9b15-f061909e14a7","ios":"levelo://app?vid=5fc9a615-ab81-4ba7-9b15-f061909e14a7"},"vehicle_type_id":"4","last_reported":1706436360,"current_range_meters":11600,"station_id":"ce4bhqp2rcd13ifvqhog","pricing_plan_id":"free"},{"bike_id":"311f2bb5-da85-44fc-915b-153e21fa0c75","system_id":"levelo_inurba_marseille","lat":43.32368,"lon":5.38883,"is_reserved":false,"is_disabled":false,"rental_uris":{"android":"levelo://app?vid=311f2bb5-da85-44fc-915b-153e21fa0c75","ios":"levelo://app?vid=311f2bb5-da85-44fc-915b-153e21fa0c75"},"vehicle_type_id":"4","last_reported":1706436360,"current_range_meters":0,"station_id":"ce4bhqp2rcd13ifvqhog","pricing_plan_id":"free"},{"bike_id":"8a33758a-88df-484d-be96-917dfb2f5d96","system_id":"levelo_inurba_marseille","lat":43.32368,"lon":5.3889,"is_reserved":false,"is_disabled":false,"rental_uris":{"android":"levelo://app?vid=8a33758a-88df-484d-be96-917dfb2f5d96","ios":"levelo://app?vid=8a33758a-88df-484d-be96-917dfb2f5d96"},"vehicle_type_id":"4","last_reported":1706436360,"current_range_meters":22400,"station_id":"ce4bhqp2rcd13ifvqhog","pricing_plan_id":"free"},{"bike_id":"2d84ef54-6806-4f25-940a-261a993d395c","system_id":"levelo_inurba_marseille","lat":43.29602,"lon":5.381084,"is_reserved":false,"is_disabled":false,"rental_uris":{"android":"levelo://app?vid=2d84ef54-6806-4f25-940a-261a993d395c","ios":"levelo://app?vid=2d84ef54-6806-4f25-940a-261a993d395c"},"vehicle_type_id":"4","last_reported":1706436360,"current_range_meters":25600,"station_id":"ce4bgl12rcd13ifvqbo0","pricing_plan_id":"free"},{"bike_id":"8c23b747-6a71-4e96-96ac-9ad65828dbe9","system_id":"levelo_inurba_marseille","lat":43.29602,"lon":5.381084,"is_reserved":false,"is_disabled":false,"rental_uris":{"android":"levelo://app?vid=8c23b747-6a71-4e96-96ac-9ad65828dbe9","ios":"levelo://app?vid=8c23b747-6a71-4e96-96ac-9ad65828dbe9"},"vehicle_type_id":"4","last_reported":1706436360,"current_range_meters":29600,"station_id":"ce4bgl12rcd13ifvqbo0","pricing_plan_id":"free"},{"bike_id":"59ee600b-5041-4f04-a3bd-1eb24adca31c","system_id":"levelo_inurba_marseille","lat":43.293259,"lon":5.371586,"is_reserved":false,"is_disabled":false,"rental_uris":{"android":"levelo://app?vid=59ee600b-5041-4f04-a3bd-1eb24adca31c","ios":"levelo://app?vid=59ee600b-5041-4f04-a3bd-1eb24adca31c"},"vehicle_type_id":"4","last_reported":1706436360,"current_range_meters":31200,"station_id":"ce4bgh92rcd13ifvqb40","pricing_plan_id":"free"},{"bike_id":"a3377912-dc89-42ab-9b7d-708b626b9334","system_id":"levelo_inurba_marseille","lat":43.293046,"lon":5.371824,"is_reserved":false,"is_disabled":false,"rental_uris":{"android":"levelo://app?vid=a3377912-dc89-42ab-9b7d-708b626b9334","ios":"levelo://app?vid=a3377912-dc89-42ab-9b7d-708b626b9334"},"vehicle_type_id":"4","last_reported":1706436360,"current_range_meters":31200,"station_id":"ce4bgh92rcd13ifvqb40","pricing_plan_id":"free"},{"bike_id":"d5f4b731-261b-4935-b6d6-3fd7bf4195ec","system_id":"levelo_inurba_marseille","lat":43.292749,"lon":5.368402,"is_reserved":false,"is_disabled":false,"rental_uris":{"android":"levelo://app?vid=d5f4b731-261b-4935-b6d6-3fd7bf4195ec","ios":"levelo://app?vid=d5f4b731-261b-4935-b6d6-3fd7bf4195ec"},"vehicle_type_id":"4","last_reported":1706436360,"current_range_meters":12800,"station_id":"ce4bhbp2rcd13ifvqesg","pricing_plan_id":"free"},{"bike_id":"b384e818-0f28-4efb-a5a5-361c194ae0a6","system_id":"levelo_inurba_marseille","lat":43.293259,"lon":5.371586,"is_reserved":false,"is_disabled":false,"rental_uris":{"android":"levelo://app?vid=b384e818-0f28-4efb-a5a5-361c194ae0a6","ios":"levelo://app?vid=b384e818-0f28-4efb-a5a5-361c194ae0a6"},"vehicle_type_id":"4","last_reported":1706436360,"current_range_meters":12400,"station_id":"ce4bgh92rcd13ifvqb40","pricing_plan_id":"free"},{"bike_id":"b5464451-4d67-4d10-9fee-5d8424e84241","system_id":"levelo_inurba_marseille","lat":43.292749,"lon":5.368402,"is_reserved":false,"is_disabled":false,"rental_uris":{"android":"levelo://app?vid=b5464451-4d67-4d10-9fee-5d8424e84241","ios":"levelo://app?vid=b5464451-4d67-4d10-9fee-5d8424e84241"},"vehicle_type_id":"4","last_reported":1706436360,"current_range_meters":25600,"station_id":"ce4bhbp2rcd13ifvqesg","pricing_plan_id":"free"},{"bike_id":"80906e2a-12d7-4d68-9425-b5f85c940c89","system_id":"levelo_inurba_marseille","lat":43.292749,"lon":5.368402,"is_reserved":false,"is_disabled":false,"rental_uris":{"android":"levelo://app?vid=80906e2a-12d7-4d68-9425-b5f85c940c89","ios":"levelo://app?vid=80906e2a-12d7-4d68-9425-b5f85c940c89"},"vehicle_type_id":"4","last_reported":1706436360,"current_range_meters":22400,"station_id":"ce4bhbp2rcd13ifvqesg","pricing_plan_id":"free"},{"bike_id":"59b5804b-82a8-4fac-a987-05a12b440dc7","system_id":"levelo_inurba_marseille","lat":43.293009,"lon":5.374584,"is_reserved":false,"is_disabled":false,"rental_uris":{"android":"levelo://app?vid=59b5804b-82a8-4fac-a987-05a12b440dc7","ios":"levelo://app?vid=59b5804b-82a8-4fac-a987-05a12b440dc7"},"vehicle_type_id":"4","last_reported":1706436360,"current_range_meters":26800,"station_id":"ce4bgi12rcd13ifvqb70","pricing_plan_id":"free"},{"bike_id":"6d4092ce-bd6c-40b7-863c-88d42e9738f3","system_id":"levelo_inurba_marseille","lat":43.293009,"lon":5.374584,"is_reserved":false,"is_disabled":false,"rental_uris":{"android":"levelo://app?vid=6d4092ce-bd6c-40b7-863c-88d42e9738f3","ios":"levelo://app?vid=6d4092ce-bd6c-40b7-863c-88d42e9738f3"},"vehicle_type_id":"4","last_reported":1706436360,"current_range_meters":26800,"station_id":"ce4bgi12rcd13ifvqb70","pricing_plan_id":"free"},{"bike_id":"5b04a1e5-e816-4edd-8046-728976fd8a5b","system_id":"levelo_inurba_marseille","lat":43.293009,"lon":5.374584,"is_reserved":false,"is_disabled":false,"rental_uris":{"android":"levelo://app?vid=5b04a1e5-e816-4edd-8046-728976fd8a5b","ios":"levelo://app?vid=5b04a1e5-e816-4edd-8046-728976fd8a5b"},"vehicle_type_id":"4","last_reported":1706436360,"current_range_meters":400,"station_id":"ce4bgi12rcd13ifvqb70","pricing_plan_id":"free"},{"bike_id":"15597761-6492-48a2-989b-0bce6bf3db05","system_id":"levelo_inurba_marseille","lat":43.293009,"lon":5.374584,"is_reserved":false,"is_disabled":false,"rental_uris":{"android":"levelo://app?vid=15597761-6492-48a2-989b-0bce6bf3db05","ios":"levelo://app?vid=15597761-6492-48a2-989b-0bce6bf3db05"},"vehicle_type_id":"4","last_reported":1706436360,"current_range_meters":31200,"station_id":"ce4bgi12rcd13ifvqb70","pricing_plan_id":"free"},{"bike_id":"3a8929b6-60c9-491a-b985-599e76cf6d6d","system_id":"levelo_inurba_marseille","lat":43.2936,"lon":5.37835,"is_reserved":false,"is_disabled":false,"rental_uris":{"android":"levelo://app?vid=3a8929b6-60c9-491a-b985-599e76cf6d6d","ios":"levelo://app?vid=3a8929b6-60c9-491a-b985-599e76cf6d6d"},"vehicle_type_id":"4","last_reported":1706436360,"current_range_meters":21200,"station_id":"ce4bgjh2rcd13ifvqbf0","pricing_plan_id":"free"},{"bike_id":"f9e30990-f32a-4174-bf61-18745f1d20c4","system_id":"levelo_inurba_marseille","lat":43.302992,"lon":5.392136,"is_reserved":false,"is_disabled":false,"rental_uris":{"android":"levelo://app?vid=f9e30990-f32a-4174-bf61-18745f1d20c4","ios":"levelo://app?vid=f9e30990-f32a-4174-bf61-18745f1d20c4"},"vehicle_type_id":"4","last_reported":1706436360,"current_range_meters":23200,"station_id":"ce4bgkh2rcd13ifvqbk0","pricing_plan_id":"free"},{"bike_id":"7f2eedd2-d5c4-4a51-a433-a9f7172ff99f","system_id":"levelo_inurba_marseille","lat":43.2936,"lon":5.37835,"is_reserved":false,"is_disabled":false,"rental_uris":{"android":"levelo://app?vid=7f2eedd2-d5c4-4a51-a433-a9f7172ff99f","ios":"levelo://app?vid=7f2eedd2-d5c4-4a51-a433-a9f7172ff99f"},"vehicle_type_id":"4","last_reported":1706436360,"current_range_meters":16400,"station_id":"ce4bgjh2rcd13ifvqbf0","pricing_plan_id":"free"},{"bike_id":"b7104123-ea31-44a3-aec1-a030c06649ac","system_id":"levelo_inurba_marseille","lat":43.292311,"lon":5.360731,"is_reserved":false,"is_disabled":false,"rental_uris":{"android":"levelo://app?vid=b7104123-ea31-44a3-aec1-a030c06649ac","ios":"levelo://app?vid=b7104123-ea31-44a3-aec1-a030c06649ac"},"vehicle_type_id":"4","last_reported":1706436360,"current_range_meters":6400,"station_id":"ce4bhbh2rcd13ifvqeqg","pricing_plan_id":"free"},{"bike_id":"014dd7df-1cf7-4e4d-bd9e-ac3666fa5c08","system_id":"levelo_inurba_marseille","lat":43.292311,"lon":5.360731,"is_reserved":false,"is_disabled":false,"rental_uris":{"android":"levelo://app?vid=014dd7df-1cf7-4e4d-bd9e-ac3666fa5c08","ios":"levelo://app?vid=014dd7df-1cf7-4e4d-bd9e-ac3666fa5c08"},"vehicle_type_id":"4","last_reported":1706436360,"current_range_meters":31200,"station_id":"ce4bhbh2rcd13ifvqeqg","pricing_plan_id":"free"},{"bike_id":"1cdd6182-45bf-4868-82e2-d52aa7a5ea6f","system_id":"levelo_inurba_marseille","lat":43.292311,"lon":5.360731,"is_reserved":false,"is_disabled":false,"rental_uris":{"android":"levelo://app?vid=1cdd6182-45bf-4868-82e2-d52aa7a5ea6f","ios":"levelo://app?vid=1cdd6182-45bf-4868-82e2-d52aa7a5ea6f"},"vehicle_type_id":"4","last_reported":1706436360,"current_range_meters":2800,"station_id":"ce4bhbh2rcd13ifvqeqg","pricing_plan_id":"free"},{"bike_id":"209317a6-aa9e-4020-9178-28279516f9fd","system_id":"levelo_inurba_marseille","lat":43.292311,"lon":5.360731,"is_reserved":false,"is_disabled":false,"rental_uris":{"android":"levelo://app?vid=209317a6-aa9e-4020-9178-28279516f9fd","ios":"levelo://app?vid=209317a6-aa9e-4020-9178-28279516f9fd"},"vehicle_type_id":"4","last_reported":1706436360,"current_range_meters":31200,"station_id":"ce4bhbh2rcd13ifvqeqg","pricing_plan_id":"free"},{"bike_id":"956242f7-7675-4d47-bb87-7e5ccfe47901","system_id":"levelo_inurba_marseille","lat":43.292311,"lon":5.360731,"is_reserved":false,"is_disabled":false,"rental_uris":{"android":"levelo://app?vid=956242f7-7675-4d47-bb87-7e5ccfe47901","ios":"levelo://app?vid=956242f7-7675-4d47-bb87-7e5ccfe47901"},"vehicle_type_id":"4","last_reported":1706436360,"current_range_meters":26000,"station_id":"ce4bhbh2rcd13ifvqeqg","pricing_plan_id":"free"},{"bike_id":"8e967eb1-cdc3-4cbf-8d3a-18684bae0171","system_id":"levelo_inurba_marseille","lat":43.29218,"lon":5.36036,"is_reserved":false,"is_disabled":false,"rental_uris":{"android":"levelo://app?vid=8e967eb1-cdc3-4cbf-8d3a-18684bae0171","ios":"levelo://app?vid=8e967eb1-cdc3-4cbf-8d3a-18684bae0171"},"vehicle_type_id":"4","last_reported":1706436360,"current_range_meters":4400,"station_id":"ce4bhbh2rcd13ifvqeqg","pricing_plan_id":"free"},{"bike_id":"89bf9756-4ebc-420f-8744-dafbfae2731a","system_id":"levelo_inurba_marseille","lat":43.291994,"lon":5.357886,"is_reserved":false,"is_disabled":false,"rental_uris":{"android":"levelo://app?vid=89bf9756-4ebc-420f-8744-dafbfae2731a","ios":"levelo://app?vid=89bf9756-4ebc-420f-8744-dafbfae2731a"},"vehicle_type_id":"4","last_reported":1706436360,"current_range_meters":23200,"station_id":"ce4bhb12rcd13ifvqel0","pricing_plan_id":"free"},{"bike_id":"841a47e1-89ae-4544-a907-6b7c3ab89792","system_id":"levelo_inurba_marseille","lat":43.309047,"lon":5.396551,"is_reserved":false,"is_disabled":false,"rental_uris":{"android":"levelo://app?vid=841a47e1-89ae-4544-a907-6b7c3ab89792","ios":"levelo://app?vid=841a47e1-89ae-4544-a907-6b7c3ab89792"},"vehicle_type_id":"4","last_reported":1706436360,"current_range_meters":31600,"station_id":"ce4bh012rcd13ifvqcv0","pricing_plan_id":"free"},{"bike_id":"88c710e9-540e-4977-a5d6-7fe4c3904e0b","system_id":"levelo_inurba_marseille","lat":43.291994,"lon":5.357886,"is_reserved":false,"is_disabled":false,"rental_uris":{"android":"levelo://app?vid=88c710e9-540e-4977-a5d6-7fe4c3904e0b","ios":"levelo://app?vid=88c710e9-540e-4977-a5d6-7fe4c3904e0b"},"vehicle_type_id":"4","last_reported":1706436360,"current_range_meters":28800,"station_id":"ce4bhb12rcd13ifvqel0","pricing_plan_id":"free"},{"bike_id":"8a5ef749-d5e1-4777-9ec6-e172c7840457","system_id":"levelo_inurba_marseille","lat":43.313291,"lon":5.396838,"is_reserved":false,"is_disabled":false,"rental_uris":{"android":"levelo://app?vid=8a5ef749-d5e1-4777-9ec6-e172c7840457","ios":"levelo://app?vid=8a5ef749-d5e1-4777-9ec6-e172c7840457"},"vehicle_type_id":"4","last_reported":1706436360,"current_range_meters":31200,"station_id":"ce4bgvp2rcd13ifvqcu0","pricing_plan_id":"free"},{"bike_id":"1c2f4dfb-e9af-4d96-9753-6f479653e589","system_id":"levelo_inurba_marseille","lat":43.313291,"lon":5.396838,"is_reserved":false,"is_disabled":false,"rental_uris":{"android":"levelo://app?vid=1c2f4dfb-e9af-4d96-9753-6f479653e589","ios":"levelo://app?vid=1c2f4dfb-e9af-4d96-9753-6f479653e589"},"vehicle_type_id":"4","last_reported":1706436360,"current_range_meters":31200,"station_id":"ce4bgvp2rcd13ifvqcu0","pricing_plan_id":"free"},{"bike_id":"ae68c703-1568-4526-b3a0-6122dcd5f78b","system_id":"levelo_inurba_marseille","lat":43.313291,"lon":5.396838,"is_reserved":false,"is_disabled":false,"rental_uris":{"android":"levelo://app?vid=ae68c703-1568-4526-b3a0-6122dcd5f78b","ios":"levelo://app?vid=ae68c703-1568-4526-b3a0-6122dcd5f78b"},"vehicle_type_id":"4","last_reported":1706436360,"current_range_meters":27600,"station_id":"ce4bgvp2rcd13ifvqcu0","pricing_plan_id":"free"},{"bike_id":"b28e11c3-f4fb-4688-9428-99a3a01b5406","system_id":"levelo_inurba_marseille","lat":43.309038,"lon":5.396546,"is_reserved":false,"is_disabled":false,"rental_uris":{"android":"levelo://app?vid=b28e11c3-f4fb-4688-9428-99a3a01b5406","ios":"levelo://app?vid=b28e11c3-f4fb-4688-9428-99a3a01b5406"},"vehicle_type_id":"4","last_reported":1706436360,"current_range_meters":31600,"station_id":"ce4bh012rcd13ifvqcv0","pricing_plan_id":"free"},{"bike_id":"350b1c12-f01b-4e76-b7e5-c2b800e68838","system_id":"levelo_inurba_marseille","lat":43.313291,"lon":5.396838,"is_reserved":false,"is_disabled":false,"rental_uris":{"android":"levelo://app?vid=350b1c12-f01b-4e76-b7e5-c2b800e68838","ios":"levelo://app?vid=350b1c12-f01b-4e76-b7e5-c2b800e68838"},"vehicle_type_id":"4","last_reported":1706436360,"current_range_meters":27200,"station_id":"ce4bgvp2rcd13ifvqcu0","pricing_plan_id":"free"},{"bike_id":"4fcdddc6-382d-451a-aa1e-9861b70288cf","system_id":"levelo_inurba_marseille","lat":43.309038,"lon":5.396546,"is_reserved":false,"is_disabled":false,"rental_uris":{"android":"levelo://app?vid=4fcdddc6-382d-451a-aa1e-9861b70288cf","ios":"levelo://app?vid=4fcdddc6-382d-451a-aa1e-9861b70288cf"},"vehicle_type_id":"4","last_reported":1706436360,"current_range_meters":19200,"station_id":"ce4bh012rcd13ifvqcv0","pricing_plan_id":"free"},{"bike_id":"029fc21d-1fd7-4050-a8bb-231a65578c1d","system_id":"levelo_inurba_marseille","lat":43.309038,"lon":5.396546,"is_reserved":false,"is_disabled":false,"rental_uris":{"android":"levelo://app?vid=029fc21d-1fd7-4050-a8bb-231a65578c1d","ios":"levelo://app?vid=029fc21d-1fd7-4050-a8bb-231a65578c1d"},"vehicle_type_id":"4","last_reported":1706436360,"current_range_meters":22800,"station_id":"ce4bh012rcd13ifvqcv0","pricing_plan_id":"free"},{"bike_id":"94c43006-aee7-4b61-8ee4-e8da33044c6d","system_id":"levelo_inurba_marseille","lat":43.291994,"lon":5.357886,"is_reserved":false,"is_disabled":false,"rental_uris":{"android":"levelo://app?vid=94c43006-aee7-4b61-8ee4-e8da33044c6d","ios":"levelo://app?vid=94c43006-aee7-4b61-8ee4-e8da33044c6d"},"vehicle_type_id":"4","last_reported":1706436360,"current_range_meters":30800,"station_id":"ce4bhb12rcd13ifvqel0","pricing_plan_id":"free"},{"bike_id":"3e667a30-ca09-4bfd-857e-ef9cd48d6744","system_id":"levelo_inurba_marseille","lat":43.29529,"lon":5.385581,"is_reserved":false,"is_disabled":false,"rental_uris":{"android":"levelo://app?vid=3e667a30-ca09-4bfd-857e-ef9cd48d6744","ios":"levelo://app?vid=3e667a30-ca09-4bfd-857e-ef9cd48d6744"},"vehicle_type_id":"4","last_reported":1706436360,"current_range_meters":10000,"station_id":"ce4bgih2rcd13ifvqba0","pricing_plan_id":"free"},{"bike_id":"fa93bb8c-ac01-4f28-a04d-b40af952c04b","system_id":"levelo_inurba_marseille","lat":43.29529,"lon":5.385581,"is_reserved":false,"is_disabled":false,"rental_uris":{"android":"levelo://app?vid=fa93bb8c-ac01-4f28-a04d-b40af952c04b","ios":"levelo://app?vid=fa93bb8c-ac01-4f28-a04d-b40af952c04b"},"vehicle_type_id":"4","last_reported":1706436360,"current_range_meters":10800,"station_id":"ce4bgih2rcd13ifvqba0","pricing_plan_id":"free"},{"bike_id":"d8aad427-e140-4cd7-976c-3493e392cc1e","system_id":"levelo_inurba_marseille","lat":43.302008,"lon":5.394694,"is_reserved":false,"is_disabled":false,"rental_uris":{"android":"levelo://app?vid=d8aad427-e140-4cd7-976c-3493e392cc1e","ios":"levelo://app?vid=d8aad427-e140-4cd7-976c-3493e392cc1e"},"vehicle_type_id":"4","last_reported":1706436360,"current_range_meters":23200,"station_id":"ce4bh0p2rcd13ifvqd70","pricing_plan_id":"free"},{"bike_id":"67a3b4db-fcc7-49ef-be71-071a57d709c7","system_id":"levelo_inurba_marseille","lat":43.302008,"lon":5.394694,"is_reserved":false,"is_disabled":false,"rental_uris":{"android":"levelo://app?vid=67a3b4db-fcc7-49ef-be71-071a57d709c7","ios":"levelo://app?vid=67a3b4db-fcc7-49ef-be71-071a57d709c7"},"vehicle_type_id":"4","last_reported":1706436360,"current_range_meters":22800,"station_id":"ce4bh0p2rcd13ifvqd70","pricing_plan_id":"free"},{"bike_id":"a7d85f0f-61ee-4761-a65e-c26e4b7cb4e7","system_id":"levelo_inurba_marseille","lat":43.290441,"lon":5.359123,"is_reserved":false,"is_disabled":false,"rental_uris":{"android":"levelo://app?vid=a7d85f0f-61ee-4761-a65e-c26e4b7cb4e7","ios":"levelo://app?vid=a7d85f0f-61ee-4761-a65e-c26e4b7cb4e7"},"vehicle_type_id":"4","last_reported":1706436360,"current_range_meters":26000,"station_id":"","pricing_plan_id":"free"},{"bike_id":"542a0db6-1ec5-4e9f-8138-5c9a9de2b630","system_id":"levelo_inurba_marseille","lat":43.294153,"lon":5.386305,"is_reserved":false,"is_disabled":false,"rental_uris":{"android":"levelo://app?vid=542a0db6-1ec5-4e9f-8138-5c9a9de2b630","ios":"levelo://app?vid=542a0db6-1ec5-4e9f-8138-5c9a9de2b630"},"vehicle_type_id":"4","last_reported":1706436360,"current_range_meters":14800,"station_id":"ce4bh2h2rcd13ifvqdh0","pricing_plan_id":"free"},{"bike_id":"58fcd41a-d200-43f3-9e07-22c28f1f31bb","system_id":"levelo_inurba_marseille","lat":43.294162,"lon":5.386292,"is_reserved":false,"is_disabled":false,"rental_uris":{"android":"levelo://app?vid=58fcd41a-d200-43f3-9e07-22c28f1f31bb","ios":"levelo://app?vid=58fcd41a-d200-43f3-9e07-22c28f1f31bb"},"vehicle_type_id":"4","last_reported":1706436360,"current_range_meters":4000,"station_id":"ce4bh2h2rcd13ifvqdh0","pricing_plan_id":"free"},{"bike_id":"ac63f2e1-3bb8-41b5-a851-c1320b07acb6","system_id":"levelo_inurba_marseille","lat":43.289184,"lon":5.366408,"is_reserved":false,"is_disabled":false,"rental_uris":{"android":"levelo://app?vid=ac63f2e1-3bb8-41b5-a851-c1320b07acb6","ios":"levelo://app?vid=ac63f2e1-3bb8-41b5-a851-c1320b07acb6"},"vehicle_type_id":"4","last_reported":1706436360,"current_range_meters":27600,"station_id":"ce4bhap2rcd13ifvqek0","pricing_plan_id":"free"},{"bike_id":"dca64035-b3f6-49e5-950a-682d786f389e","system_id":"levelo_inurba_marseille","lat":43.289184,"lon":5.366408,"is_reserved":false,"is_disabled":false,"rental_uris":{"android":"levelo://app?vid=dca64035-b3f6-49e5-950a-682d786f389e","ios":"levelo://app?vid=dca64035-b3f6-49e5-950a-682d786f389e"},"vehicle_type_id":"4","last_reported":1706436360,"current_range_meters":26800,"station_id":"ce4bhap2rcd13ifvqek0","pricing_plan_id":"free"},{"bike_id":"15ae0593-dd5b-4b89-a868-f49f3c8a545d","system_id":"levelo_inurba_marseille","lat":43.289184,"lon":5.366408,"is_reserved":false,"is_disabled":false,"rental_uris":{"android":"levelo://app?vid=15ae0593-dd5b-4b89-a868-f49f3c8a545d","ios":"levelo://app?vid=15ae0593-dd5b-4b89-a868-f49f3c8a545d"},"vehicle_type_id":"4","last_reported":1706436360,"current_range_meters":26400,"station_id":"ce4bhap2rcd13ifvqek0","pricing_plan_id":"free"},{"bike_id":"6a90b86d-d76b-4259-aa9a-d9fae7fd257e","system_id":"levelo_inurba_marseille","lat":43.292642,"lon":5.384254,"is_reserved":false,"is_disabled":false,"rental_uris":{"android":"levelo://app?vid=6a90b86d-d76b-4259-aa9a-d9fae7fd257e","ios":"levelo://app?vid=6a90b86d-d76b-4259-aa9a-d9fae7fd257e"},"vehicle_type_id":"4","last_reported":1706436360,"current_range_meters":8800,"station_id":"ce4bh692rcd13ifvqea0","pricing_plan_id":"free"},{"bike_id":"4955a50f-1824-4d7b-8593-eb099284f676","system_id":"levelo_inurba_marseille","lat":43.313291,"lon":5.396838,"is_reserved":false,"is_disabled":false,"rental_uris":{"android":"levelo://app?vid=4955a50f-1824-4d7b-8593-eb099284f676","ios":"levelo://app?vid=4955a50f-1824-4d7b-8593-eb099284f676"},"vehicle_type_id":"4","last_reported":1706436360,"current_range_meters":20400,"station_id":"ce4bgvp2rcd13ifvqcu0","pricing_plan_id":"free"},{"bike_id":"33678660-9e3a-49cf-b0f9-b820a1f1df9c","system_id":"levelo_inurba_marseille","lat":43.290104,"lon":5.356111,"is_reserved":false,"is_disabled":false,"rental_uris":{"android":"levelo://app?vid=33678660-9e3a-49cf-b0f9-b820a1f1df9c","ios":"levelo://app?vid=33678660-9e3a-49cf-b0f9-b820a1f1df9c"},"vehicle_type_id":"4","last_reported":1706436360,"current_range_meters":24000,"station_id":"ce4bhb92rcd13ifvqen0","pricing_plan_id":"free"},{"bike_id":"0a0ec86c-b814-43c5-9e44-1dc1a2ba4920","system_id":"levelo_inurba_marseille","lat":43.29777,"lon":5.39342,"is_reserved":false,"is_disabled":false,"rental_uris":{"android":"levelo://app?vid=0a0ec86c-b814-43c5-9e44-1dc1a2ba4920","ios":"levelo://app?vid=0a0ec86c-b814-43c5-9e44-1dc1a2ba4920"},"vehicle_type_id":"4","last_reported":1706436360,"current_range_meters":30400,"station_id":"chh1huq6cuj3fo74tm60","pricing_plan_id":"free"},{"bike_id":"1f004bc9-8145-41f4-a9a4-3f70faee6854","system_id":"levelo_inurba_marseille","lat":43.330442,"lon":5.389148,"is_reserved":false,"is_disabled":false,"rental_uris":{"android":"levelo://app?vid=1f004bc9-8145-41f4-a9a4-3f70faee6854","ios":"levelo://app?vid=1f004bc9-8145-41f4-a9a4-3f70faee6854"},"vehicle_type_id":"4","last_reported":1706436360,"current_range_meters":13600,"station_id":"ce4bhr92rcd13ifvqhrg","pricing_plan_id":"free"},{"bike_id":"ef60a7cd-e444-4270-9db1-35be823248d5","system_id":"levelo_inurba_marseille","lat":43.295169,"lon":5.390426,"is_reserved":false,"is_disabled":false,"rental_uris":{"android":"levelo://app?vid=ef60a7cd-e444-4270-9db1-35be823248d5","ios":"levelo://app?vid=ef60a7cd-e444-4270-9db1-35be823248d5"},"vehicle_type_id":"4","last_reported":1706436360,"current_range_meters":24000,"station_id":"ce4bh3p2rcd13ifvqdp0","pricing_plan_id":"free"},{"bike_id":"481dad6f-9967-4f6f-97c2-139abd002c75","system_id":"levelo_inurba_marseille","lat":43.330442,"lon":5.389148,"is_reserved":false,"is_disabled":false,"rental_uris":{"android":"levelo://app?vid=481dad6f-9967-4f6f-97c2-139abd002c75","ios":"levelo://app?vid=481dad6f-9967-4f6f-97c2-139abd002c75"},"vehicle_type_id":"4","last_reported":1706436360,"current_range_meters":2400,"station_id":"ce4bhr92rcd13ifvqhrg","pricing_plan_id":"free"},{"bike_id":"a563cdbf-78b8-441c-8dce-8da1c3325b92","system_id":"levelo_inurba_marseille","lat":43.33755,"lon":5.374569,"is_reserved":false,"is_disabled":false,"rental_uris":{"android":"levelo://app?vid=a563cdbf-78b8-441c-8dce-8da1c3325b92","ios":"levelo://app?vid=a563cdbf-78b8-441c-8dce-8da1c3325b92"},"vehicle_type_id":"4","last_reported":1706436360,"current_range_meters":20400,"station_id":"","pricing_plan_id":"free"},{"bike_id":"b7f12eab-e0a6-499e-87ec-2b4381c4602a","system_id":"levelo_inurba_marseille","lat":43.337582,"lon":5.374548,"is_reserved":false,"is_disabled":false,"rental_uris":{"android":"levelo://app?vid=b7f12eab-e0a6-499e-87ec-2b4381c4602a","ios":"levelo://app?vid=b7f12eab-e0a6-499e-87ec-2b4381c4602a"},"vehicle_type_id":"4","last_reported":1706436360,"current_range_meters":23600,"station_id":"","pricing_plan_id":"free"},{"bike_id":"2fab8311-0c29-4b9b-b745-eab1f5a782b6","system_id":"levelo_inurba_marseille","lat":43.33757,"lon":5.37473,"is_reserved":false,"is_disabled":false,"rental_uris":{"android":"levelo://app?vid=2fab8311-0c29-4b9b-b745-eab1f5a782b6","ios":"levelo://app?vid=2fab8311-0c29-4b9b-b745-eab1f5a782b6"},"vehicle_type_id":"4","last_reported":1706436360,"current_range_meters":11200,"station_id":"","pricing_plan_id":"free"},{"bike_id":"2fe24097-b1c2-4583-ba1f-cf8501171a4c","system_id":"levelo_inurba_marseille","lat":43.337551,"lon":5.374872,"is_reserved":false,"is_disabled":false,"rental_uris":{"android":"levelo://app?vid=2fe24097-b1c2-4583-ba1f-cf8501171a4c","ios":"levelo://app?vid=2fe24097-b1c2-4583-ba1f-cf8501171a4c"},"vehicle_type_id":"4","last_reported":1706436360,"current_range_meters":12400,"station_id":"","pricing_plan_id":"free"},{"bike_id":"b7d3b81d-d85a-44b5-a0c7-8f9c9f74639e","system_id":"levelo_inurba_marseille","lat":43.33765,"lon":5.374672,"is_reserved":false,"is_disabled":false,"rental_uris":{"android":"levelo://app?vid=b7d3b81d-d85a-44b5-a0c7-8f9c9f74639e","ios":"levelo://app?vid=b7d3b81d-d85a-44b5-a0c7-8f9c9f74639e"},"vehicle_type_id":"4","last_reported":1706436360,"current_range_meters":27600,"station_id":"","pricing_plan_id":"free"},{"bike_id":"1facbbf3-baac-42f8-85eb-cb1e36f3e4b9","system_id":"levelo_inurba_marseille","lat":43.33762,"lon":5.37489,"is_reserved":false,"is_disabled":false,"rental_uris":{"android":"levelo://app?vid=1facbbf3-baac-42f8-85eb-cb1e36f3e4b9","ios":"levelo://app?vid=1facbbf3-baac-42f8-85eb-cb1e36f3e4b9"},"vehicle_type_id":"4","last_reported":1706436360,"current_range_meters":14800,"station_id":"","pricing_plan_id":"free"},{"bike_id":"1cb2cfcc-7ff7-4072-b23a-412bb3b04bd9","system_id":"levelo_inurba_marseille","lat":43.337729,"lon":5.374292,"is_reserved":false,"is_disabled":false,"rental_uris":{"android":"levelo://app?vid=1cb2cfcc-7ff7-4072-b23a-412bb3b04bd9","ios":"levelo://app?vid=1cb2cfcc-7ff7-4072-b23a-412bb3b04bd9"},"vehicle_type_id":"4","last_reported":1706436360,"current_range_meters":15200,"station_id":"","pricing_plan_id":"free"},{"bike_id":"07b8c237-bb13-44a5-bf10-3862b802126b","system_id":"levelo_inurba_marseille","lat":43.306412,"lon":5.401035,"is_reserved":false,"is_disabled":false,"rental_uris":{"android":"levelo://app?vid=07b8c237-bb13-44a5-bf10-3862b802126b","ios":"levelo://app?vid=07b8c237-bb13-44a5-bf10-3862b802126b"},"vehicle_type_id":"4","last_reported":1706436360,"current_range_meters":27200,"station_id":"ce4bh112rcd13ifvqda0","pricing_plan_id":"free"},{"bike_id":"0c0a4625-99f9-4331-9318-4c0e9557b78d","system_id":"levelo_inurba_marseille","lat":43.286591,"lon":5.363346,"is_reserved":false,"is_disabled":false,"rental_uris":{"android":"levelo://app?vid=0c0a4625-99f9-4331-9318-4c0e9557b78d","ios":"levelo://app?vid=0c0a4625-99f9-4331-9318-4c0e9557b78d"},"vehicle_type_id":"4","last_reported":1706436360,"current_range_meters":25600,"station_id":"ce4bhah2rcd13ifvqej0","pricing_plan_id":"free"},{"bike_id":"de255d24-48cd-4ea4-8e9f-63dd2aa1a661","system_id":"levelo_inurba_marseille","lat":43.295196,"lon":5.39397,"is_reserved":false,"is_disabled":false,"rental_uris":{"android":"levelo://app?vid=de255d24-48cd-4ea4-8e9f-63dd2aa1a661","ios":"levelo://app?vid=de255d24-48cd-4ea4-8e9f-63dd2aa1a661"},"vehicle_type_id":"4","last_reported":1706436360,"current_range_meters":20000,"station_id":"ce4bh292rcd13ifvqdf0","pricing_plan_id":"free"},{"bike_id":"b6b84edb-32bc-4f25-82c1-fabdd20a440d","system_id":"levelo_inurba_marseille","lat":43.289307,"lon":5.38406,"is_reserved":false,"is_disabled":false,"rental_uris":{"android":"levelo://app?vid=b6b84edb-32bc-4f25-82c1-fabdd20a440d","ios":"levelo://app?vid=b6b84edb-32bc-4f25-82c1-fabdd20a440d"},"vehicle_type_id":"4","last_reported":1706436360,"current_range_meters":25600,"station_id":"ce4bh612rcd13ifvqe6g","pricing_plan_id":"free"},{"bike_id":"183bb1c1-398f-466c-b05d-327ac4efc436","system_id":"levelo_inurba_marseille","lat":43.302511,"lon":5.400653,"is_reserved":false,"is_disabled":false,"rental_uris":{"android":"levelo://app?vid=183bb1c1-398f-466c-b05d-327ac4efc436","ios":"levelo://app?vid=183bb1c1-398f-466c-b05d-327ac4efc436"},"vehicle_type_id":"4","last_reported":1706436360,"current_range_meters":11600,"station_id":"ce4bgth2rcd13ifvqch0","pricing_plan_id":"free"},{"bike_id":"fdc68b41-9bfa-4870-85a2-2e0be64572e7","system_id":"levelo_inurba_marseille","lat":43.286039,"lon":5.370679,"is_reserved":false,"is_disabled":false,"rental_uris":{"android":"levelo://app?vid=fdc68b41-9bfa-4870-85a2-2e0be64572e7","ios":"levelo://app?vid=fdc68b41-9bfa-4870-85a2-2e0be64572e7"},"vehicle_type_id":"4","last_reported":1706436360,"current_range_meters":6000,"station_id":"ce4bht12rcd13ifvqi60","pricing_plan_id":"free"},{"bike_id":"03447749-0c25-43f9-b101-2dd420e40b4a","system_id":"levelo_inurba_marseille","lat":43.286039,"lon":5.370681,"is_reserved":false,"is_disabled":false,"rental_uris":{"android":"levelo://app?vid=03447749-0c25-43f9-b101-2dd420e40b4a","ios":"levelo://app?vid=03447749-0c25-43f9-b101-2dd420e40b4a"},"vehicle_type_id":"4","last_reported":1706436360,"current_range_meters":6800,"station_id":"ce4bht12rcd13ifvqi60","pricing_plan_id":"free"},{"bike_id":"4706b7d6-5a27-4cb6-a503-e15bf66e92e3","system_id":"levelo_inurba_marseille","lat":43.286039,"lon":5.370681,"is_reserved":false,"is_disabled":false,"rental_uris":{"android":"levelo://app?vid=4706b7d6-5a27-4cb6-a503-e15bf66e92e3","ios":"levelo://app?vid=4706b7d6-5a27-4cb6-a503-e15bf66e92e3"},"vehicle_type_id":"4","last_reported":1706436360,"current_range_meters":8800,"station_id":"ce4bht12rcd13ifvqi60","pricing_plan_id":"free"},{"bike_id":"2e538886-93b4-490e-b029-5bc32e8aa85d","system_id":"levelo_inurba_marseille","lat":43.287137,"lon":5.3794,"is_reserved":false,"is_disabled":false,"rental_uris":{"android":"levelo://app?vid=2e538886-93b4-490e-b029-5bc32e8aa85d","ios":"levelo://app?vid=2e538886-93b4-490e-b029-5bc32e8aa85d"},"vehicle_type_id":"4","last_reported":1706436360,"current_range_meters":20400,"station_id":"ce4bh9p2rcd13ifvqec0","pricing_plan_id":"free"},{"bike_id":"8bfd1b82-b1e0-458f-b791-2a125041f6f3","system_id":"levelo_inurba_marseille","lat":43.291994,"lon":5.392907,"is_reserved":false,"is_disabled":false,"rental_uris":{"android":"levelo://app?vid=8bfd1b82-b1e0-458f-b791-2a125041f6f3","ios":"levelo://app?vid=8bfd1b82-b1e0-458f-b791-2a125041f6f3"},"vehicle_type_id":"4","last_reported":1706436360,"current_range_meters":24000,"station_id":"ce4bh192rcd13ifvqdd0","pricing_plan_id":"free"},{"bike_id":"80aef28c-58ba-438a-a570-62c79600969b","system_id":"levelo_inurba_marseille","lat":43.294314,"lon":5.397498,"is_reserved":false,"is_disabled":false,"rental_uris":{"android":"levelo://app?vid=80aef28c-58ba-438a-a570-62c79600969b","ios":"levelo://app?vid=80aef28c-58ba-438a-a570-62c79600969b"},"vehicle_type_id":"4","last_reported":1706436360,"current_range_meters":23600,"station_id":"ce4bh3h2rcd13ifvqdo0","pricing_plan_id":"free"},{"bike_id":"84939456-6752-47ce-b628-fed93bcd290d","system_id":"levelo_inurba_marseille","lat":43.285856,"lon":5.350771,"is_reserved":false,"is_disabled":false,"rental_uris":{"android":"levelo://app?vid=84939456-6752-47ce-b628-fed93bcd290d","ios":"levelo://app?vid=84939456-6752-47ce-b628-fed93bcd290d"},"vehicle_type_id":"4","last_reported":1706436360,"current_range_meters":28400,"station_id":"ce4bhch2rcd13ifvqeug","pricing_plan_id":"free"},{"bike_id":"5e6b40c2-99a5-4a13-b677-9c74364aaa3f","system_id":"levelo_inurba_marseille","lat":43.283998,"lon":5.375062,"is_reserved":false,"is_disabled":false,"rental_uris":{"android":"levelo://app?vid=5e6b40c2-99a5-4a13-b677-9c74364aaa3f","ios":"levelo://app?vid=5e6b40c2-99a5-4a13-b677-9c74364aaa3f"},"vehicle_type_id":"4","last_reported":1706436360,"current_range_meters":14400,"station_id":"ce4bh412rcd13ifvqds0","pricing_plan_id":"free"},{"bike_id":"dafdc15b-616e-45ff-806e-2a86c0fbb2a0","system_id":"levelo_inurba_marseille","lat":43.283998,"lon":5.375062,"is_reserved":false,"is_disabled":false,"rental_uris":{"android":"levelo://app?vid=dafdc15b-616e-45ff-806e-2a86c0fbb2a0","ios":"levelo://app?vid=dafdc15b-616e-45ff-806e-2a86c0fbb2a0"},"vehicle_type_id":"4","last_reported":1706436360,"current_range_meters":14400,"station_id":"ce4bh412rcd13ifvqds0","pricing_plan_id":"free"},{"bike_id":"7b89631f-9b43-4ae9-bcba-af11f039b34d","system_id":"levelo_inurba_marseille","lat":43.284086,"lon":5.375027,"is_reserved":false,"is_disabled":false,"rental_uris":{"android":"levelo://app?vid=7b89631f-9b43-4ae9-bcba-af11f039b34d","ios":"levelo://app?vid=7b89631f-9b43-4ae9-bcba-af11f039b34d"},"vehicle_type_id":"4","last_reported":1706436360,"current_range_meters":12400,"station_id":"ce4bh412rcd13ifvqds0","pricing_plan_id":"free"},{"bike_id":"410d9838-94a4-4fb8-b3b6-6af2bb51ba56","system_id":"levelo_inurba_marseille","lat":43.28404,"lon":5.37505,"is_reserved":false,"is_disabled":false,"rental_uris":{"android":"levelo://app?vid=410d9838-94a4-4fb8-b3b6-6af2bb51ba56","ios":"levelo://app?vid=410d9838-94a4-4fb8-b3b6-6af2bb51ba56"},"vehicle_type_id":"4","last_reported":1706436360,"current_range_meters":15600,"station_id":"ce4bh412rcd13ifvqds0","pricing_plan_id":"free"},{"bike_id":"b5dccef9-3d76-472f-afd2-3d20e46c3da5","system_id":"levelo_inurba_marseille","lat":43.28404,"lon":5.375105,"is_reserved":false,"is_disabled":false,"rental_uris":{"android":"levelo://app?vid=b5dccef9-3d76-472f-afd2-3d20e46c3da5","ios":"levelo://app?vid=b5dccef9-3d76-472f-afd2-3d20e46c3da5"},"vehicle_type_id":"4","last_reported":1706436360,"current_range_meters":16400,"station_id":"ce4bh412rcd13ifvqds0","pricing_plan_id":"free"},{"bike_id":"8c113efd-6fc2-4c66-9d3b-00a7eca78ba5","system_id":"levelo_inurba_marseille","lat":43.28393,"lon":5.37519,"is_reserved":false,"is_disabled":false,"rental_uris":{"android":"levelo://app?vid=8c113efd-6fc2-4c66-9d3b-00a7eca78ba5","ios":"levelo://app?vid=8c113efd-6fc2-4c66-9d3b-00a7eca78ba5"},"vehicle_type_id":"4","last_reported":1706436360,"current_range_meters":10000,"station_id":"ce4bh412rcd13ifvqds0","pricing_plan_id":"free"},{"bike_id":"b29b4b3a-7a43-4939-bb05-5f4f2fe881f9","system_id":"levelo_inurba_marseille","lat":43.319179,"lon":5.407725,"is_reserved":false,"is_disabled":false,"rental_uris":{"android":"levelo://app?vid=b29b4b3a-7a43-4939-bb05-5f4f2fe881f9","ios":"levelo://app?vid=b29b4b3a-7a43-4939-bb05-5f4f2fe881f9"},"vehicle_type_id":"4","last_reported":1706436360,"current_range_meters":31200,"station_id":"ce4bhq12rcd13ifvqhig","pricing_plan_id":"free"},{"bike_id":"05fc9190-3ea5-4df2-85a3-37ff04fb83d5","system_id":"levelo_inurba_marseille","lat":43.319179,"lon":5.407725,"is_reserved":false,"is_disabled":false,"rental_uris":{"android":"levelo://app?vid=05fc9190-3ea5-4df2-85a3-37ff04fb83d5","ios":"levelo://app?vid=05fc9190-3ea5-4df2-85a3-37ff04fb83d5"},"vehicle_type_id":"4","last_reported":1706436360,"current_range_meters":24000,"station_id":"ce4bhq12rcd13ifvqhig","pricing_plan_id":"free"},{"bike_id":"e63b7e05-da47-404b-a3ca-035d8af322bb","system_id":"levelo_inurba_marseille","lat":43.319179,"lon":5.407725,"is_reserved":false,"is_disabled":false,"rental_uris":{"android":"levelo://app?vid=e63b7e05-da47-404b-a3ca-035d8af322bb","ios":"levelo://app?vid=e63b7e05-da47-404b-a3ca-035d8af322bb"},"vehicle_type_id":"4","last_reported":1706436360,"current_range_meters":30800,"station_id":"ce4bhq12rcd13ifvqhig","pricing_plan_id":"free"},{"bike_id":"2b5f4982-548b-4158-a72b-a9e801ba15e5","system_id":"levelo_inurba_marseille","lat":43.323464,"lon":5.406297,"is_reserved":false,"is_disabled":false,"rental_uris":{"android":"levelo://app?vid=2b5f4982-548b-4158-a72b-a9e801ba15e5","ios":"levelo://app?vid=2b5f4982-548b-4158-a72b-a9e801ba15e5"},"vehicle_type_id":"4","last_reported":1706436360,"current_range_meters":31200,"station_id":"ce4bhq92rcd13ifvqhjg","pricing_plan_id":"free"},{"bike_id":"3c982f92-c162-4958-96ed-bd3ab8ee1412","system_id":"levelo_inurba_marseille","lat":43.323464,"lon":5.406297,"is_reserved":false,"is_disabled":false,"rental_uris":{"android":"levelo://app?vid=3c982f92-c162-4958-96ed-bd3ab8ee1412","ios":"levelo://app?vid=3c982f92-c162-4958-96ed-bd3ab8ee1412"},"vehicle_type_id":"4","last_reported":1706436360,"current_range_meters":25200,"station_id":"ce4bhq92rcd13ifvqhjg","pricing_plan_id":"free"},{"bike_id":"a72eb6cf-5ae4-4416-8645-89a3fd668fd9","system_id":"levelo_inurba_marseille","lat":43.284793,"lon":5.384113,"is_reserved":false,"is_disabled":false,"rental_uris":{"android":"levelo://app?vid=a72eb6cf-5ae4-4416-8645-89a3fd668fd9","ios":"levelo://app?vid=a72eb6cf-5ae4-4416-8645-89a3fd668fd9"},"vehicle_type_id":"4","last_reported":1706436360,"current_range_meters":13200,"station_id":"ce4bh512rcd13ifvqe3g","pricing_plan_id":"free"},{"bike_id":"cbdec7a8-dde1-44e7-92f6-616ed8a756e5","system_id":"levelo_inurba_marseille","lat":43.284793,"lon":5.384113,"is_reserved":false,"is_disabled":false,"rental_uris":{"android":"levelo://app?vid=cbdec7a8-dde1-44e7-92f6-616ed8a756e5","ios":"levelo://app?vid=cbdec7a8-dde1-44e7-92f6-616ed8a756e5"},"vehicle_type_id":"4","last_reported":1706436360,"current_range_meters":18000,"station_id":"ce4bh512rcd13ifvqe3g","pricing_plan_id":"free"},{"bike_id":"b2780e63-292f-4a6e-9c5d-a5b7fcd70da5","system_id":"levelo_inurba_marseille","lat":43.284219,"lon":5.3497,"is_reserved":false,"is_disabled":false,"rental_uris":{"android":"levelo://app?vid=b2780e63-292f-4a6e-9c5d-a5b7fcd70da5","ios":"levelo://app?vid=b2780e63-292f-4a6e-9c5d-a5b7fcd70da5"},"vehicle_type_id":"4","last_reported":1706436360,"current_range_meters":29200,"station_id":"ce4bhbh2rcd13ifvqepg","pricing_plan_id":"free"},{"bike_id":"5bfa4ac2-9603-4ea9-bd8f-9e9f40018fbe","system_id":"levelo_inurba_marseille","lat":43.284217,"lon":5.349697,"is_reserved":false,"is_disabled":false,"rental_uris":{"android":"levelo://app?vid=5bfa4ac2-9603-4ea9-bd8f-9e9f40018fbe","ios":"levelo://app?vid=5bfa4ac2-9603-4ea9-bd8f-9e9f40018fbe"},"vehicle_type_id":"4","last_reported":1706436360,"current_range_meters":20000,"station_id":"ce4bhbh2rcd13ifvqepg","pricing_plan_id":"free"},{"bike_id":"190f043b-27ef-4c26-adf1-e87975c28a49","system_id":"levelo_inurba_marseille","lat":43.284217,"lon":5.349697,"is_reserved":false,"is_disabled":false,"rental_uris":{"android":"levelo://app?vid=190f043b-27ef-4c26-adf1-e87975c28a49","ios":"levelo://app?vid=190f043b-27ef-4c26-adf1-e87975c28a49"},"vehicle_type_id":"4","last_reported":1706436360,"current_range_meters":29200,"station_id":"ce4bhbh2rcd13ifvqepg","pricing_plan_id":"free"},{"bike_id":"2dd757ce-872b-4574-bf63-0f52090f5e32","system_id":"levelo_inurba_marseille","lat":43.289389,"lon":5.396278,"is_reserved":false,"is_disabled":false,"rental_uris":{"android":"levelo://app?vid=2dd757ce-872b-4574-bf63-0f52090f5e32","ios":"levelo://app?vid=2dd757ce-872b-4574-bf63-0f52090f5e32"},"vehicle_type_id":"4","last_reported":1706436360,"current_range_meters":29600,"station_id":"ce4bh3h2rcd13ifvqdn0","pricing_plan_id":"free"},{"bike_id":"b41bcd76-cb12-4b33-95cd-9444d1e23578","system_id":"levelo_inurba_marseille","lat":43.293556,"lon":5.401561,"is_reserved":false,"is_disabled":false,"rental_uris":{"android":"levelo://app?vid=b41bcd76-cb12-4b33-95cd-9444d1e23578","ios":"levelo://app?vid=b41bcd76-cb12-4b33-95cd-9444d1e23578"},"vehicle_type_id":"4","last_reported":1706436360,"current_range_meters":6800,"station_id":"","pricing_plan_id":"free"},{"bike_id":"b17eeb6b-933b-4ef8-b116-b3e9c5bbff9b","system_id":"levelo_inurba_marseille","lat":43.292724,"lon":5.401131,"is_reserved":false,"is_disabled":false,"rental_uris":{"android":"levelo://app?vid=b17eeb6b-933b-4ef8-b116-b3e9c5bbff9b","ios":"levelo://app?vid=b17eeb6b-933b-4ef8-b116-b3e9c5bbff9b"},"vehicle_type_id":"4","last_reported":1706436360,"current_range_meters":13200,"station_id":"ce4bh312rcd13ifvqdk0","pricing_plan_id":"free"},{"bike_id":"cb7fd5f1-c72b-4c81-a870-c56a0d2db6bc","system_id":"levelo_inurba_marseille","lat":43.282782,"lon":5.350709,"is_reserved":false,"is_disabled":false,"rental_uris":{"android":"levelo://app?vid=cb7fd5f1-c72b-4c81-a870-c56a0d2db6bc","ios":"levelo://app?vid=cb7fd5f1-c72b-4c81-a870-c56a0d2db6bc"},"vehicle_type_id":"4","last_reported":1706436360,"current_range_meters":2400,"station_id":"ce4bhbp2rcd13ifvqerg","pricing_plan_id":"free"},{"bike_id":"8dd1be73-8e71-4300-86a4-d1e4a4ec10db","system_id":"levelo_inurba_marseille","lat":43.28269,"lon":5.35074,"is_reserved":false,"is_disabled":false,"rental_uris":{"android":"levelo://app?vid=8dd1be73-8e71-4300-86a4-d1e4a4ec10db","ios":"levelo://app?vid=8dd1be73-8e71-4300-86a4-d1e4a4ec10db"},"vehicle_type_id":"4","last_reported":1706436360,"current_range_meters":0,"station_id":"ce4bhbp2rcd13ifvqerg","pricing_plan_id":"free"},{"bike_id":"e7f2d7ab-e4f7-4dee-9a01-d6aec2a14127","system_id":"levelo_inurba_marseille","lat":43.2827,"lon":5.350697,"is_reserved":false,"is_disabled":false,"rental_uris":{"android":"levelo://app?vid=e7f2d7ab-e4f7-4dee-9a01-d6aec2a14127","ios":"levelo://app?vid=e7f2d7ab-e4f7-4dee-9a01-d6aec2a14127"},"vehicle_type_id":"4","last_reported":1706436360,"current_range_meters":28000,"station_id":"ce4bhbp2rcd13ifvqerg","pricing_plan_id":"free"},{"bike_id":"a6c0f89d-425c-4bd3-b359-208510256f32","system_id":"levelo_inurba_marseille","lat":43.282744,"lon":5.350533,"is_reserved":false,"is_disabled":false,"rental_uris":{"android":"levelo://app?vid=a6c0f89d-425c-4bd3-b359-208510256f32","ios":"levelo://app?vid=a6c0f89d-425c-4bd3-b359-208510256f32"},"vehicle_type_id":"4","last_reported":1706436360,"current_range_meters":15200,"station_id":"ce4bhbp2rcd13ifvqerg","pricing_plan_id":"free"},{"bike_id":"a4dee076-d77d-4907-b73b-8abb8cf21261","system_id":"levelo_inurba_marseille","lat":43.28039,"lon":5.369297,"is_reserved":false,"is_disabled":false,"rental_uris":{"android":"levelo://app?vid=a4dee076-d77d-4907-b73b-8abb8cf21261","ios":"levelo://app?vid=a4dee076-d77d-4907-b73b-8abb8cf21261"},"vehicle_type_id":"4","last_reported":1706436360,"current_range_meters":26000,"station_id":"ce4bha12rcd13ifvqef0","pricing_plan_id":"free"},{"bike_id":"5c91d4cd-cacb-4112-8e26-9288e7567cdc","system_id":"levelo_inurba_marseille","lat":43.28039,"lon":5.369297,"is_reserved":false,"is_disabled":false,"rental_uris":{"android":"levelo://app?vid=5c91d4cd-cacb-4112-8e26-9288e7567cdc","ios":"levelo://app?vid=5c91d4cd-cacb-4112-8e26-9288e7567cdc"},"vehicle_type_id":"4","last_reported":1706436360,"current_range_meters":30400,"station_id":"ce4bha12rcd13ifvqef0","pricing_plan_id":"free"},{"bike_id":"9b4a9518-965f-4ef4-bcae-b9ba5a2be020","system_id":"levelo_inurba_marseille","lat":43.280382,"lon":5.369291,"is_reserved":false,"is_disabled":false,"rental_uris":{"android":"levelo://app?vid=9b4a9518-965f-4ef4-bcae-b9ba5a2be020","ios":"levelo://app?vid=9b4a9518-965f-4ef4-bcae-b9ba5a2be020"},"vehicle_type_id":"4","last_reported":1706436360,"current_range_meters":29600,"station_id":"ce4bha12rcd13ifvqef0","pricing_plan_id":"free"},{"bike_id":"a2fd409c-99ce-4249-8d63-fdea0254a9c9","system_id":"levelo_inurba_marseille","lat":43.28039,"lon":5.369297,"is_reserved":false,"is_disabled":false,"rental_uris":{"android":"levelo://app?vid=a2fd409c-99ce-4249-8d63-fdea0254a9c9","ios":"levelo://app?vid=a2fd409c-99ce-4249-8d63-fdea0254a9c9"},"vehicle_type_id":"4","last_reported":1706436360,"current_range_meters":24400,"station_id":"ce4bha12rcd13ifvqef0","pricing_plan_id":"free"},{"bike_id":"7d56b545-ea86-423c-9c7b-f611e297116c","system_id":"levelo_inurba_marseille","lat":43.280382,"lon":5.369291,"is_reserved":false,"is_disabled":false,"rental_uris":{"android":"levelo://app?vid=7d56b545-ea86-423c-9c7b-f611e297116c","ios":"levelo://app?vid=7d56b545-ea86-423c-9c7b-f611e297116c"},"vehicle_type_id":"4","last_reported":1706436360,"current_range_meters":31200,"station_id":"ce4bha12rcd13ifvqef0","pricing_plan_id":"free"},{"bike_id":"2838b124-dbc1-46fb-90f3-a08eec7c7b87","system_id":"levelo_inurba_marseille","lat":43.29041,"lon":5.399634,"is_reserved":false,"is_disabled":false,"rental_uris":{"android":"levelo://app?vid=2838b124-dbc1-46fb-90f3-a08eec7c7b87","ios":"levelo://app?vid=2838b124-dbc1-46fb-90f3-a08eec7c7b87"},"vehicle_type_id":"4","last_reported":1706436360,"current_range_meters":8000,"station_id":"ce4bh392rcd13ifvqdm0","pricing_plan_id":"free"},{"bike_id":"14775d07-84a1-41c8-b4ed-82d5b75067c9","system_id":"levelo_inurba_marseille","lat":43.296263,"lon":5.40601,"is_reserved":false,"is_disabled":false,"rental_uris":{"android":"levelo://app?vid=14775d07-84a1-41c8-b4ed-82d5b75067c9","ios":"levelo://app?vid=14775d07-84a1-41c8-b4ed-82d5b75067c9"},"vehicle_type_id":"4","last_reported":1706436360,"current_range_meters":17600,"station_id":"ce4bh0h2rcd13ifvqd60","pricing_plan_id":"free"},{"bike_id":"9cd1780b-01de-4467-9af1-3837ca2cef8f","system_id":"levelo_inurba_marseille","lat":43.284462,"lon":5.392121,"is_reserved":false,"is_disabled":false,"rental_uris":{"android":"levelo://app?vid=9cd1780b-01de-4467-9af1-3837ca2cef8f","ios":"levelo://app?vid=9cd1780b-01de-4467-9af1-3837ca2cef8f"},"vehicle_type_id":"4","last_reported":1706436360,"current_range_meters":5200,"station_id":"ce4bhoh2rcd13ifvqh5g","pricing_plan_id":"free"},{"bike_id":"046406e2-3124-4f65-a46c-e831ec439c33","system_id":"levelo_inurba_marseille","lat":43.326605,"lon":5.409903,"is_reserved":false,"is_disabled":false,"rental_uris":{"android":"levelo://app?vid=046406e2-3124-4f65-a46c-e831ec439c33","ios":"levelo://app?vid=046406e2-3124-4f65-a46c-e831ec439c33"},"vehicle_type_id":"4","last_reported":1706436360,"current_range_meters":30000,"station_id":"ce4bhpp2rcd13ifvqhgg","pricing_plan_id":"free"},{"bike_id":"0cdb0ad0-8f79-49b3-8cad-52d0cb3532c3","system_id":"levelo_inurba_marseille","lat":43.279087,"lon":5.380114,"is_reserved":false,"is_disabled":false,"rental_uris":{"android":"levelo://app?vid=0cdb0ad0-8f79-49b3-8cad-52d0cb3532c3","ios":"levelo://app?vid=0cdb0ad0-8f79-49b3-8cad-52d0cb3532c3"},"vehicle_type_id":"4","last_reported":1706436360,"current_range_meters":26800,"station_id":"ce4bhf92rcd13ifvqf50","pricing_plan_id":"free"},{"bike_id":"a539d426-9e55-4e9c-b7bf-13cd28eecf36","system_id":"levelo_inurba_marseille","lat":43.27819,"lon":5.35483,"is_reserved":false,"is_disabled":false,"rental_uris":{"android":"levelo://app?vid=a539d426-9e55-4e9c-b7bf-13cd28eecf36","ios":"levelo://app?vid=a539d426-9e55-4e9c-b7bf-13cd28eecf36"},"vehicle_type_id":"4","last_reported":1706436360,"current_range_meters":8800,"station_id":"","pricing_plan_id":"free"},{"bike_id":"a10e714b-29b5-405f-b89d-b86d2ad56c7b","system_id":"levelo_inurba_marseille","lat":43.320045,"lon":5.415048,"is_reserved":false,"is_disabled":false,"rental_uris":{"android":"levelo://app?vid=a10e714b-29b5-405f-b89d-b86d2ad56c7b","ios":"levelo://app?vid=a10e714b-29b5-405f-b89d-b86d2ad56c7b"},"vehicle_type_id":"4","last_reported":1706436360,"current_range_meters":18400,"station_id":"ce4bhq92rcd13ifvqhkg","pricing_plan_id":"free"},{"bike_id":"8028e1e3-0992-4d41-80eb-6d0f05d8837e","system_id":"levelo_inurba_marseille","lat":43.279742,"lon":5.38744,"is_reserved":false,"is_disabled":false,"rental_uris":{"android":"levelo://app?vid=8028e1e3-0992-4d41-80eb-6d0f05d8837e","ios":"levelo://app?vid=8028e1e3-0992-4d41-80eb-6d0f05d8837e"},"vehicle_type_id":"4","last_reported":1706436360,"current_range_meters":30800,"station_id":"ce4bhg12rcd13ifvqf80","pricing_plan_id":"free"},{"bike_id":"15d3cff5-e5f0-4286-bb62-80c1a7cb751e","system_id":"levelo_inurba_marseille","lat":43.276179,"lon":5.361009,"is_reserved":false,"is_disabled":false,"rental_uris":{"android":"levelo://app?vid=15d3cff5-e5f0-4286-bb62-80c1a7cb751e","ios":"levelo://app?vid=15d3cff5-e5f0-4286-bb62-80c1a7cb751e"},"vehicle_type_id":"4","last_reported":1706436360,"current_range_meters":27600,"station_id":"ce4bgj92rcd13ifvqbe0","pricing_plan_id":"free"},{"bike_id":"237a2eb9-c252-4282-bd23-343914990db6","system_id":"levelo_inurba_marseille","lat":43.303837,"lon":5.418724,"is_reserved":false,"is_disabled":false,"rental_uris":{"android":"levelo://app?vid=237a2eb9-c252-4282-bd23-343914990db6","ios":"levelo://app?vid=237a2eb9-c252-4282-bd23-343914990db6"},"vehicle_type_id":"4","last_reported":1706436360,"current_range_meters":14800,"station_id":"ce4bhop2rcd13ifvqh7g","pricing_plan_id":"free"},{"bike_id":"aa0f517f-ada5-4a72-96f0-a728567ac06e","system_id":"levelo_inurba_marseille","lat":43.27379,"lon":5.36247,"is_reserved":false,"is_disabled":false,"rental_uris":{"android":"levelo://app?vid=aa0f517f-ada5-4a72-96f0-a728567ac06e","ios":"levelo://app?vid=aa0f517f-ada5-4a72-96f0-a728567ac06e"},"vehicle_type_id":"4","last_reported":1706436360,"current_range_meters":30800,"station_id":"ce4bhbh2rcd13ifvqeo0","pricing_plan_id":"free"},{"bike_id":"08e95487-6327-4001-8f0d-8ed1d4593628","system_id":"levelo_inurba_marseille","lat":43.27379,"lon":5.36246,"is_reserved":false,"is_disabled":false,"rental_uris":{"android":"levelo://app?vid=08e95487-6327-4001-8f0d-8ed1d4593628","ios":"levelo://app?vid=08e95487-6327-4001-8f0d-8ed1d4593628"},"vehicle_type_id":"4","last_reported":1706436360,"current_range_meters":31200,"station_id":"ce4bhbh2rcd13ifvqeo0","pricing_plan_id":"free"},{"bike_id":"a13dd372-9444-40e2-b6c6-1f77d905b760","system_id":"levelo_inurba_marseille","lat":43.27377,"lon":5.3625,"is_reserved":false,"is_disabled":false,"rental_uris":{"android":"levelo://app?vid=a13dd372-9444-40e2-b6c6-1f77d905b760","ios":"levelo://app?vid=a13dd372-9444-40e2-b6c6-1f77d905b760"},"vehicle_type_id":"4","last_reported":1706436360,"current_range_meters":31200,"station_id":"ce4bhbh2rcd13ifvqeo0","pricing_plan_id":"free"},{"bike_id":"347bd580-627b-4a0a-a020-3e88a12b3ddf","system_id":"levelo_inurba_marseille","lat":43.273613,"lon":5.362705,"is_reserved":false,"is_disabled":false,"rental_uris":{"android":"levelo://app?vid=347bd580-627b-4a0a-a020-3e88a12b3ddf","ios":"levelo://app?vid=347bd580-627b-4a0a-a020-3e88a12b3ddf"},"vehicle_type_id":"4","last_reported":1706436360,"current_range_meters":13200,"station_id":"ce4bhbh2rcd13ifvqeo0","pricing_plan_id":"free"},{"bike_id":"66e2109e-c534-421d-94d1-7df27aa6cecd","system_id":"levelo_inurba_marseille","lat":43.273613,"lon":5.362705,"is_reserved":false,"is_disabled":false,"rental_uris":{"android":"levelo://app?vid=66e2109e-c534-421d-94d1-7df27aa6cecd","ios":"levelo://app?vid=66e2109e-c534-421d-94d1-7df27aa6cecd"},"vehicle_type_id":"4","last_reported":1706436360,"current_range_meters":11600,"station_id":"ce4bhbh2rcd13ifvqeo0","pricing_plan_id":"free"},{"bike_id":"6725f519-dd54-49ce-a008-d33021b7f376","system_id":"levelo_inurba_marseille","lat":43.27371,"lon":5.36262,"is_reserved":false,"is_disabled":false,"rental_uris":{"android":"levelo://app?vid=6725f519-dd54-49ce-a008-d33021b7f376","ios":"levelo://app?vid=6725f519-dd54-49ce-a008-d33021b7f376"},"vehicle_type_id":"4","last_reported":1706436360,"current_range_meters":27600,"station_id":"ce4bhbh2rcd13ifvqeo0","pricing_plan_id":"free"},{"bike_id":"9348c439-1dbd-4799-8f90-e90c590d902d","system_id":"levelo_inurba_marseille","lat":43.273613,"lon":5.362705,"is_reserved":false,"is_disabled":false,"rental_uris":{"android":"levelo://app?vid=9348c439-1dbd-4799-8f90-e90c590d902d","ios":"levelo://app?vid=9348c439-1dbd-4799-8f90-e90c590d902d"},"vehicle_type_id":"4","last_reported":1706436360,"current_range_meters":21600,"station_id":"ce4bhbh2rcd13ifvqeo0","pricing_plan_id":"free"},{"bike_id":"1db1e5d8-fe57-4ac6-90c5-e60897cfd1aa","system_id":"levelo_inurba_marseille","lat":43.273613,"lon":5.362705,"is_reserved":false,"is_disabled":false,"rental_uris":{"android":"levelo://app?vid=1db1e5d8-fe57-4ac6-90c5-e60897cfd1aa","ios":"levelo://app?vid=1db1e5d8-fe57-4ac6-90c5-e60897cfd1aa"},"vehicle_type_id":"4","last_reported":1706436360,"current_range_meters":31200,"station_id":"ce4bhbh2rcd13ifvqeo0","pricing_plan_id":"free"},{"bike_id":"54049a08-f8b0-490e-99c5-5554c8d366b2","system_id":"levelo_inurba_marseille","lat":43.273609,"lon":5.362708,"is_reserved":false,"is_disabled":false,"rental_uris":{"android":"levelo://app?vid=54049a08-f8b0-490e-99c5-5554c8d366b2","ios":"levelo://app?vid=54049a08-f8b0-490e-99c5-5554c8d366b2"},"vehicle_type_id":"4","last_reported":1706436360,"current_range_meters":21600,"station_id":"ce4bhbh2rcd13ifvqeo0","pricing_plan_id":"free"},