{"last_updated":1740388253,"ttl":60,"version":"2.2","data":{"bikes":[{"bike_id":"5be81403-e80e-49df-8f5d-218571205bc6","system_id":"levelo_inurba_marseille","lat":43.28432,"lon":5.3754,"is_reserved":false,"is_disabled":true,"rental_uris":{"android":"levelo://app?vid=5be81403-e80e-49df-8f5d-218571205bc6","ios":"levelo://app?vid=5be81403-e80e-49df-8f5d-218571205bc6"},"vehicle_type_id":"4","last_reported":1740388253,"current_range_meters":2800,"station_id":"ce4bh412rcd13ifvqds0","pricing_plan_id":"cebpf4jnsgd1na2vs0mg"},{"bike_id":"2b147ce6-38c3-43ca-b247-088f0e39e1c0","system_id":"levelo_inurba_marseille","lat":43.302047,"lon":5.393672,"is_reserved":false,"is_disabled":false,"rental_uris":{"android":"levelo://app?vid=2b147ce6-38c3-43ca-b247-088f0e39e1c0","ios":"levelo://app?vid=2b147ce6-38c3-43ca-b247-088f0e39e1c0"},"vehicle_type_id":"4","last_reported":1740388253,"current_range_meters":2800,"station_id":"ce4bgi92rcd13ifvqb90","pricing_plan_id":"cebpf4jnsgd1na2vs0mg"},{"bike_id":"af06c59c-bcf2-4d90-854f-cb6d6a785f32","system_id":"levelo_inurba_marseille","lat":43.29868,"lon":5.39743,"is_reserved":false,"is_disabled":false,"rental_uris":{"android":"levelo://app?vid=af06c59c-bcf2-4d90-854f-cb6d6a785f32","ios":"levelo://app?vid=af06c59c-bcf2-4d90-854f-cb6d6a785f32"},"vehicle_type_id":"4","last_reported":1740388253,"current_range_meters":3200,"station_id":"ce4bh0h2rcd13ifvqd50","pricing_plan_id":"cebpf4jnsgd1na2vs0mg"},{"bike_id":"39077342-418b-4ec4-a9cc-eaf04e8f8e3f","system_id":"levelo_inurba_marseille","lat":43.264963,"lon":5.395376,"is_reserved":false,"is_disabled":false,"rental_uris":{"android":"levelo://app?vid=39077342-418b-4ec4-a9cc-eaf04e8f8e3f","ios":"levelo://app?vid=39077342-418b-4ec4-a9cc-eaf04e8f8e3f"},"vehicle_type_id":"4","last_reported":1740388253,"current_range_meters":3200,"station_id":"ce4bhi12rcd13ifvqfq0","pricing_plan_id":"cebpf4jnsgd1na2vs0mg"},{"bike_id":"e40f0273-ffc8-49ce-bf2e-7b979d8d592c","system_id":"levelo_inurba_marseille","lat":43.27313,"lon":5.391,"is_reserved":false,"is_disabled":false,"rental_uris":{"android":"levelo://app?vid=e40f0273-ffc8-49ce-bf2e-7b979d8d592c","ios":"levelo://app?vid=e40f0273-ffc8-49ce-bf2e-7b979d8d592c"},"vehicle_type_id":"4","last_reported":1740388253,"current_range_meters":4000,"station_id":"ce4bhgp2rcd13ifvqfe0","pricing_plan_id":"cebpf4jnsgd1na2vs0mg"},{"bike_id":"f4c73116-43d3-41d9-88bb-9461dbbb405f","system_id":"levelo_inurba_marseille","lat":43.25425,"lon":5.4158,"is_reserved":false,"is_disabled":false,"rental_uris":{"android":"levelo://app?vid=f4c73116-43d3-41d9-88bb-9461dbbb405f","ios":"levelo://app?vid=f4c73116-43d3-41d9-88bb-9461dbbb405f"},"vehicle_type_id":"4","last_reported":1740388253,"current_range_meters":4400,"station_id":"","pricing_plan_id":"cebpf4jnsgd1na2vs0mg"},{"bike_id":"1284377d-613e-4b0e-b8b9-30807af03316","system_id":"levelo_inurba_marseille","lat":43.27864,"lon":5.39179,"is_reserved":false,"is_disabled":true,"rental_uris":{"android":"levelo://app?vid=1284377d-613e-4b0e-b8b9-30807af03316","ios":"levelo://app?vid=1284377d-613e-4b0e-b8b9-30807af03316"},"vehicle_type_id":"4","last_reported":1740388253,"current_range_meters":4400,"station_id":"ce4bhjp2rcd13ifvqga0","pricing_plan_id":"cebpf4jnsgd1na2vs0mg"},{"bike_id":"a98e241e-72f8-42d5-b702-f96a6a6c9853","system_id":"levelo_inurba_marseille","lat":43.28199,"lon":5.35098,"is_reserved":false,"is_disabled":false,"rental_uris":{"android":"levelo://app?vid=a98e241e-72f8-42d5-b702-f96a6a6c9853","ios":"levelo://app?vid=a98e241e-72f8-42d5-b702-f96a6a6c9853"},"vehicle_type_id":"4","last_reported":1740388253,"current_range_meters":4400,"station_id":"ce4bgkp2rcd13ifvqbmg","pricing_plan_id":"cebpf4jnsgd1na2vs0mg"},{"bike_id":"69777bf4-f196-4d92-944d-65c72e7557a6","system_id":"levelo_inurba_marseille","lat":43.3051,"lon":5.37329,"is_reserved":false,"is_disabled":false,"rental_uris":{"android":"levelo://app?vid=69777bf4-f196-4d92-944d-65c72e7557a6","ios":"levelo://app?vid=69777bf4-f196-4d92-944d-65c72e7557a6"},"vehicle_type_id":"4","last_reported":1740388253,"current_range_meters":4800,"station_id":"","pricing_plan_id":"cebpf4jnsgd1na2vs0mg"},{"bike_id":"7c5e40e5-14b5-4b64-bdfb-0976bc56bb55","system_id":"levelo_inurba_marseille","lat":43.280763,"lon":5.396583,"is_reserved":false,"is_disabled":false,"rental_uris":{"android":"levelo://app?vid=7c5e40e5-14b5-4b64-bdfb-0976bc56bb55","ios":"levelo://app?vid=7c5e40e5-14b5-4b64-bdfb-0976bc56bb55"},"vehicle_type_id":"4","last_reported":1740388253,"current_range_meters":4800,"station_id":"ce4bho12rcd13ifvqh2g","pricing_plan_id":"cebpf4jnsgd1na2vs0mg"},{"bike_id":"09486dc5-7654-4904-afc6-3b8a40308aeb","system_id":"levelo_inurba_marseille","lat":43.25415,"lon":5.41586,"is_reserved":false,"is_disabled":false,"rental_uris":{"android":"levelo://app?vid=09486dc5-7654-4904-afc6-3b8a40308aeb","ios":"levelo://app?vid=09486dc5-7654-4904-afc6-3b8a40308aeb"},"vehicle_type_id":"4","last_reported":1740388253,"current_range_meters":5600,"station_id":"","pricing_plan_id":"cebpf4jnsgd1na2vs0mg"},{"bike_id":"16ef2f9e-4384-4cbe-9252-e08d6221e7d7","system_id":"levelo_inurba_marseille","lat":43.2418,"lon":5.39737,"is_reserved":false,"is_disabled":false,"rental_uris":{"android":"levelo://app?vid=16ef2f9e-4384-4cbe-9252-e08d6221e7d7","ios":"levelo://app?vid=16ef2f9e-4384-4cbe-9252-e08d6221e7d7"},"vehicle_type_id":"4","last_reported":1740388253,"current_range_meters":6400,"station_id":"ce4bhn12rcd13ifvqgpg","pricing_plan_id":"cebpf4jnsgd1na2vs0mg"},{"bike_id":"8e9ac07d-1885-47b2-ba7b-d745cd2d44b4","system_id":"levelo_inurba_marseille","lat":43.302255,"lon":5.38348,"is_reserved":false,"is_disabled":false,"rental_uris":{"android":"levelo://app?vid=8e9ac07d-1885-47b2-ba7b-d745cd2d44b4","ios":"levelo://app?vid=8e9ac07d-1885-47b2-ba7b-d745cd2d44b4"},"vehicle_type_id":"4","last_reported":1740388253,"current_range_meters":6400,"station_id":"","pricing_plan_id":"cebpf4jnsgd1na2vs0mg"},{"bike_id":"83f8791b-85af-45b1-8851-c015599e7317","system_id":"levelo_inurba_marseille","lat":43.33599,"lon":5.41037,"is_reserved":false,"is_disabled":false,"rental_uris":{"android":"levelo://app?vid=83f8791b-85af-45b1-8851-c015599e7317","ios":"levelo://app?vid=83f8791b-85af-45b1-8851-c015599e7317"},"vehicle_type_id":"4","last_reported":1740388253,"current_range_meters":6400,"station_id":"ce4bhqh2rcd13ifvqhmg","pricing_plan_id":"cebpf4jnsgd1na2vs0mg"},{"bike_id":"1af71967-b274-4269-9655-88715abf61c6","system_id":"levelo_inurba_marseille","lat":43.26544,"lon":5.37329,"is_reserved":false,"is_disabled":true,"rental_uris":{"android":"levelo://app?vid=1af71967-b274-4269-9655-88715abf61c6","ios":"levelo://app?vid=1af71967-b274-4269-9655-88715abf61c6"},"vehicle_type_id":"4","last_reported":1740388253,"current_range_meters":6400,"station_id":"ce4bhg12rcd13ifvqf70","pricing_plan_id":"cebpf4jnsgd1na2vs0mg"},{"bike_id":"57151c58-83a2-47b6-85b3-3bc239e773b6","system_id":"levelo_inurba_marseille","lat":43.2808,"lon":5.39667,"is_reserved":false,"is_disabled":false,"rental_uris":{"android":"levelo://app?vid=57151c58-83a2-47b6-85b3-3bc239e773b6","ios":"levelo://app?vid=57151c58-83a2-47b6-85b3-3bc239e773b6"},"vehicle_type_id":"4","last_reported":1740388253,"current_range_meters":6400,"station_id":"ce4bho12rcd13ifvqh2g","pricing_plan_id":"cebpf4jnsgd1na2vs0mg"},{"bike_id":"db53f84b-605a-4d89-898d-5a37210b182a","system_id":"levelo_inurba_marseille","lat":43.29938,"lon":5.3653,"is_reserved":false,"is_disabled":false,"rental_uris":{"android":"levelo://app?vid=db53f84b-605a-4d89-898d-5a37210b182a","ios":"levelo://app?vid=db53f84b-605a-4d89-898d-5a37210b182a"},"vehicle_type_id":"4","last_reported":1740388253,"current_range_meters":6400,"station_id":"ce4bgm92rcd13ifvqbr0","pricing_plan_id":"cebpf4jnsgd1na2vs0mg"},{"bike_id":"003ebf52-fb2e-4f8f-ae82-9d44fc2bf4ba","system_id":"levelo_inurba_marseille","lat":43.29251,"lon":5.37631,"is_reserved":false,"is_disabled":false,"rental_uris":{"android":"levelo://app?vid=003ebf52-fb2e-4f8f-ae82-9d44fc2bf4ba","ios":"levelo://app?vid=003ebf52-fb2e-4f8f-ae82-9d44fc2bf4ba"},"vehicle_type_id":"4","last_reported":1740388253,"current_range_meters":6800,"station_id":"ce4bgi12rcd13ifvqb80","pricing_plan_id":"cebpf4jnsgd1na2vs0mg"},{"bike_id":"4a772dcf-f6a1-447f-892b-251602a2179a","system_id":"levelo_inurba_marseille","lat":43.29873,"lon":5.39738,"is_reserved":false,"is_disabled":false,"rental_uris":{"android":"levelo://app?vid=4a772dcf-f6a1-447f-892b-251602a2179a","ios":"levelo://app?vid=4a772dcf-f6a1-447f-892b-251602a2179a"},"vehicle_type_id":"4","last_reported":1740388253,"current_range_meters":6800,"station_id":"ce4bh0h2rcd13ifvqd50","pricing_plan_id":"cebpf4jnsgd1na2vs0mg"},{"bike_id":"49e1c317-c43a-4e17-be08-ea23dc8d6739","system_id":"levelo_inurba_marseille","lat":43.30126,"lon":5.39578,"is_reserved":false,"is_disabled":true,"rental_uris":{"android":"levelo://app?vid=49e1c317-c43a-4e17-be08-ea23dc8d6739","ios":"levelo://app?vid=49e1c317-c43a-4e17-be08-ea23dc8d6739"},"vehicle_type_id":"4","last_reported":1740388253,"current_range_meters":6800,"station_id":"","pricing_plan_id":"cebpf4jnsgd1na2vs0mg"},{"bike_id":"58647bf0-297d-45cd-b6ed-1f90f0ab9029","system_id":"levelo_inurba_marseille","lat":43.240629,"lon":5.377487,"is_reserved":false,"is_disabled":false,"rental_uris":{"android":"levelo://app?vid=58647bf0-297d-45cd-b6ed-1f90f0ab9029","ios":"levelo://app?vid=58647bf0-297d-45cd-b6ed-1f90f0ab9029"},"vehicle_type_id":"4","last_reported":1740388253,"current_range_meters":6800,"station_id":"ce4bhnp2rcd13ifvqgvg","pricing_plan_id":"cebpf4jnsgd1na2vs0mg"},{"bike_id":"bd35f3ed-ff3d-47c6-a345-2ee7a7ab4020","system_id":"levelo_inurba_marseille","lat":43.31286,"lon":5.36834,"is_reserved":false,"is_disabled":false,"rental_uris":{"android":"levelo://app?vid=bd35f3ed-ff3d-47c6-a345-2ee7a7ab4020","ios":"levelo://app?vid=bd35f3ed-ff3d-47c6-a345-2ee7a7ab4020"},"vehicle_type_id":"4","last_reported":1740388253,"current_range_meters":6800,"station_id":"","pricing_plan_id":"cebpf4jnsgd1na2vs0mg"},{"bike_id":"bfce7ce6-d60e-4d25-875a-df893ef9ca03","system_id":"levelo_inurba_marseille","lat":43.29599,"lon":5.38098,"is_reserved":false,"is_disabled":false,"rental_uris":{"android":"levelo://app?vid=bfce7ce6-d60e-4d25-875a-df893ef9ca03","ios":"levelo://app?vid=bfce7ce6-d60e-4d25-875a-df893ef9ca03"},"vehicle_type_id":"4","last_reported":1740388253,"current_range_meters":6800,"station_id":"ce4bgl12rcd13ifvqbo0","pricing_plan_id":"cebpf4jnsgd1na2vs0mg"},{"bike_id":"1f7411cd-9379-4bab-a8bc-411b928d8602","system_id":"levelo_inurba_marseille","lat":43.27496,"lon":5.42463,"is_reserved":false,"is_disabled":false,"rental_uris":{"android":"levelo://app?vid=1f7411cd-9379-4bab-a8bc-411b928d8602","ios":"levelo://app?vid=1f7411cd-9379-4bab-a8bc-411b928d8602"},"vehicle_type_id":"4","last_reported":1740388253,"current_range_meters":7200,"station_id":"ce4bhn92rcd13ifvqgrg","pricing_plan_id":"cebpf4jnsgd1na2vs0mg"},{"bike_id":"8dc51aab-29d3-43fa-a37e-6c47cc4c2e69","system_id":"levelo_inurba_marseille","lat":43.24166,"lon":5.36408,"is_reserved":false,"is_disabled":false,"rental_uris":{"android":"levelo://app?vid=8dc51aab-29d3-43fa-a37e-6c47cc4c2e69","ios":"levelo://app?vid=8dc51aab-29d3-43fa-a37e-6c47cc4c2e69"},"vehicle_type_id":"4","last_reported":1740388253,"current_range_meters":7200,"station_id":"cpo36qri1sfpv3e86is0","pricing_plan_id":"cebpf4jnsgd1na2vs0mg"},{"bike_id":"33bb368e-dc68-4de3-bee4-58404db96f01","system_id":"levelo_inurba_marseille","lat":43.30549,"lon":5.36693,"is_reserved":false,"is_disabled":false,"rental_uris":{"android":"levelo://app?vid=33bb368e-dc68-4de3-bee4-58404db96f01","ios":"levelo://app?vid=33bb368e-dc68-4de3-bee4-58404db96f01"},"vehicle_type_id":"4","last_reported":1740388253,"current_range_meters":7200,"station_id":"ce4bgrp2rcd13ifvqc9g","pricing_plan_id":"cebpf4jnsgd1na2vs0mg"},{"bike_id":"31a19b70-1714-46be-8cf0-ea69f79ecf91","system_id":"levelo_inurba_marseille","lat":43.23972,"lon":5.36636,"is_reserved":false,"is_disabled":false,"rental_uris":{"android":"levelo://app?vid=31a19b70-1714-46be-8cf0-ea69f79ecf91","ios":"levelo://app?vid=31a19b70-1714-46be-8cf0-ea69f79ecf91"},"vehicle_type_id":"4","last_reported":1740388253,"current_range_meters":7200,"station_id":"ce4bhi12rcd13ifvqfp0","pricing_plan_id":"cebpf4jnsgd1na2vs0mg"},{"bike_id":"8ae90cfe-8302-4e8c-882c-b5f9e1a906c9","system_id":"levelo_inurba_marseille","lat":43.2607,"lon":5.37548,"is_reserved":false,"is_disabled":false,"rental_uris":{"android":"levelo://app?vid=8ae90cfe-8302-4e8c-882c-b5f9e1a906c9","ios":"levelo://app?vid=8ae90cfe-8302-4e8c-882c-b5f9e1a906c9"},"vehicle_type_id":"4","last_reported":1740388253,"current_range_meters":7200,"station_id":"","pricing_plan_id":"cebpf4jnsgd1na2vs0mg"},{"bike_id":"ffb00c11-eced-4053-8728-fadfda5c52ff","system_id":"levelo_inurba_marseille","lat":43.27321,"lon":5.39064,"is_reserved":false,"is_disabled":true,"rental_uris":{"android":"levelo://app?vid=ffb00c11-eced-4053-8728-fadfda5c52ff","ios":"levelo://app?vid=ffb00c11-eced-4053-8728-fadfda5c52ff"},"vehicle_type_id":"4","last_reported":1740388253,"current_range_meters":7200,"station_id":"ce4bhgp2rcd13ifvqfe0","pricing_plan_id":"cebpf4jnsgd1na2vs0mg"},{"bike_id":"d1e7f873-6e46-4f45-8851-420a72bfc63f","system_id":"levelo_inurba_marseille","lat":43.31381,"lon":5.36682,"is_reserved":false,"is_disabled":false,"rental_uris":{"android":"levelo://app?vid=d1e7f873-6e46-4f45-8851-420a72bfc63f","ios":"levelo://app?vid=d1e7f873-6e46-4f45-8851-420a72bfc63f"},"vehicle_type_id":"4","last_reported":1740388253,"current_range_meters":7200,"station_id":"ce4bgr92rcd13ifvqc6g","pricing_plan_id":"cebpf4jnsgd1na2vs0mg"},{"bike_id":"330f0647-6ae3-429b-bf1c-df4288b237c9","system_id":"levelo_inurba_marseille","lat":43.314914,"lon":5.372958,"is_reserved":false,"is_disabled":false,"rental_uris":{"android":"levelo://app?vid=330f0647-6ae3-429b-bf1c-df4288b237c9","ios":"levelo://app?vid=330f0647-6ae3-429b-bf1c-df4288b237c9"},"vehicle_type_id":"4","last_reported":1740388253,"current_range_meters":8000,"station_id":"ce4bgt12rcd13ifvqcd0","pricing_plan_id":"cebpf4jnsgd1na2vs0mg"},{"bike_id":"095d5026-b6cb-411c-ab71-6c60703e2b2f","system_id":"levelo_inurba_marseille","lat":43.23053,"lon":5.35507,"is_reserved":false,"is_disabled":true,"rental_uris":{"android":"levelo://app?vid=095d5026-b6cb-411c-ab71-6c60703e2b2f","ios":"levelo://app?vid=095d5026-b6cb-411c-ab71-6c60703e2b2f"},"vehicle_type_id":"4","last_reported":1740388253,"current_range_meters":8000,"station_id":"cpo3342slgdg3j2ifvpg","pricing_plan_id":"cebpf4jnsgd1na2vs0mg"},{"bike_id":"8e970296-e3d6-4832-8a51-81501fc32d70","system_id":"levelo_inurba_marseille","lat":43.288676,"lon":5.393864,"is_reserved":false,"is_disabled":false,"rental_uris":{"android":"levelo://app?vid=8e970296-e3d6-4832-8a51-81501fc32d70","ios":"levelo://app?vid=8e970296-e3d6-4832-8a51-81501fc32d70"},"vehicle_type_id":"4","last_reported":1740388253,"current_range_meters":8000,"station_id":"ce4bh2p2rcd13ifvqdi0","pricing_plan_id":"cebpf4jnsgd1na2vs0mg"},{"bike_id":"aeb548b7-ddad-477e-a24f-280e6e7d79ac","system_id":"levelo_inurba_marseille","lat":43.26959,"lon":5.38627,"is_reserved":false,"is_disabled":false,"rental_uris":{"android":"levelo://app?vid=aeb548b7-ddad-477e-a24f-280e6e7d79ac","ios":"levelo://app?vid=aeb548b7-ddad-477e-a24f-280e6e7d79ac"},"vehicle_type_id":"4","last_reported":1740388253,"current_range_meters":8400,"station_id":"ce4bhh92rcd13ifvqfh0","pricing_plan_id":"cebpf4jnsgd1na2vs0mg"},{"bike_id":"3bca3269-64d9-4460-b686-b4e7575e3edb","system_id":"levelo_inurba_marseille","lat":43.24079,"lon":5.37742,"is_reserved":false,"is_disabled":false,"rental_uris":{"android":"levelo://app?vid=3bca3269-64d9-4460-b686-b4e7575e3edb","ios":"levelo://app?vid=3bca3269-64d9-4460-b686-b4e7575e3edb"},"vehicle_type_id":"4","last_reported":1740388253,"current_range_meters":8400,"station_id":"ce4bhnp2rcd13ifvqgvg","pricing_plan_id":"cebpf4jnsgd1na2vs0mg"},{"bike_id":"d68d8965-f0df-40d2-a511-522c1a007517","system_id":"levelo_inurba_marseille","lat":43.32467,"lon":5.36558,"is_reserved":false,"is_disabled":false,"rental_uris":{"android":"levelo://app?vid=d68d8965-f0df-40d2-a511-522c1a007517","ios":"levelo://app?vid=d68d8965-f0df-40d2-a511-522c1a007517"},"vehicle_type_id":"4","last_reported":1740388253,"current_range_meters":8400,"station_id":"ce4bhs12rcd13ifvqhvg","pricing_plan_id":"cebpf4jnsgd1na2vs0mg"},{"bike_id":"8cd8e855-556a-49bb-858e-094e7857f894","system_id":"levelo_inurba_marseille","lat":43.29183,"lon":5.35789,"is_reserved":false,"is_disabled":true,"rental_uris":{"android":"levelo://app?vid=8cd8e855-556a-49bb-858e-094e7857f894","ios":"levelo://app?vid=8cd8e855-556a-49bb-858e-094e7857f894"},"vehicle_type_id":"4","last_reported":1740388253,"current_range_meters":8400,"station_id":"ce4bhb12rcd13ifvqel0","pricing_plan_id":"cebpf4jnsgd1na2vs0mg"},{"bike_id":"1127a561-55dc-461d-840d-fc4e71e9155a","system_id":"levelo_inurba_marseille","lat":43.29905,"lon":5.43668,"is_reserved":false,"is_disabled":false,"rental_uris":{"android":"levelo://app?vid=1127a561-55dc-461d-840d-fc4e71e9155a","ios":"levelo://app?vid=1127a561-55dc-461d-840d-fc4e71e9155a"},"vehicle_type_id":"4","last_reported":1740388253,"current_range_meters":8800,"station_id":"ce4bhpp2rcd13ifvqhfg","pricing_plan_id":"cebpf4jnsgd1na2vs0mg"},{"bike_id":"edaea7ea-320b-405d-86bf-2d72c60722b9","system_id":"levelo_inurba_marseille","lat":43.30535,"lon":5.36552,"is_reserved":false,"is_disabled":false,"rental_uris":{"android":"levelo://app?vid=edaea7ea-320b-405d-86bf-2d72c60722b9","ios":"levelo://app?vid=edaea7ea-320b-405d-86bf-2d72c60722b9"},"vehicle_type_id":"4","last_reported":1740388253,"current_range_meters":8800,"station_id":"ce4bgs12rcd13ifvqcag","pricing_plan_id":"cebpf4jnsgd1na2vs0mg"},{"bike_id":"79423435-50c4-4f9d-b5f5-bf531937b957","system_id":"levelo_inurba_marseille","lat":43.3096,"lon":5.39036,"is_reserved":false,"is_disabled":false,"rental_uris":{"android":"levelo://app?vid=79423435-50c4-4f9d-b5f5-bf531937b957","ios":"levelo://app?vid=79423435-50c4-4f9d-b5f5-bf531937b957"},"vehicle_type_id":"4","last_reported":1740388253,"current_range_meters":8800,"station_id":"ce4bgup2rcd13ifvqco0","pricing_plan_id":"cebpf4jnsgd1na2vs0mg"},{"bike_id":"e61c2b74-4ece-46bf-bf8e-6ea12dcb1ec2","system_id":"levelo_inurba_marseille","lat":43.3056,"lon":5.39346,"is_reserved":false,"is_disabled":true,"rental_uris":{"android":"levelo://app?vid=e61c2b74-4ece-46bf-bf8e-6ea12dcb1ec2","ios":"levelo://app?vid=e61c2b74-4ece-46bf-bf8e-6ea12dcb1ec2"},"vehicle_type_id":"4","last_reported":1740388253,"current_range_meters":8800,"station_id":"ce4bh0p2rcd13ifvqd80","pricing_plan_id":"cebpf4jnsgd1na2vs0mg"},{"bike_id":"41b8905f-5d71-47d2-981b-cd5802ac227d","system_id":"levelo_inurba_marseille","lat":43.29133,"lon":5.40003,"is_reserved":false,"is_disabled":false,"rental_uris":{"android":"levelo://app?vid=41b8905f-5d71-47d2-981b-cd5802ac227d","ios":"levelo://app?vid=41b8905f-5d71-47d2-981b-cd5802ac227d"},"vehicle_type_id":"4","last_reported":1740388253,"current_range_meters":8800,"station_id":"","pricing_plan_id":"cebpf4jnsgd1na2vs0mg"},{"bike_id":"215dc5b9-8528-4ee8-a492-716f522daa2d","system_id":"levelo_inurba_marseille","lat":43.31374,"lon":5.36716,"is_reserved":false,"is_disabled":false,"rental_uris":{"android":"levelo://app?vid=215dc5b9-8528-4ee8-a492-716f522daa2d","ios":"levelo://app?vid=215dc5b9-8528-4ee8-a492-716f522daa2d"},"vehicle_type_id":"4","last_reported":1740388253,"current_range_meters":8800,"station_id":"ce4bgr92rcd13ifvqc6g","pricing_plan_id":"cebpf4jnsgd1na2vs0mg"},{"bike_id":"4af997b1-7499-4e0c-acc6-fbcf1d472033","system_id":"levelo_inurba_marseille","lat":43.28006,"lon":5.40011,"is_reserved":false,"is_disabled":false,"rental_uris":{"android":"levelo://app?vid=4af997b1-7499-4e0c-acc6-fbcf1d472033","ios":"levelo://app?vid=4af997b1-7499-4e0c-acc6-fbcf1d472033"},"vehicle_type_id":"4","last_reported":1740388253,"current_range_meters":9200,"station_id":"ce4bho92rcd13ifvqh4g","pricing_plan_id":"cebpf4jnsgd1na2vs0mg"},{"bike_id":"934fa269-c84a-4c60-bc6f-23a7decae83c","system_id":"levelo_inurba_marseille","lat":43.25032,"lon":5.38945,"is_reserved":false,"is_disabled":false,"rental_uris":{"android":"levelo://app?vid=934fa269-c84a-4c60-bc6f-23a7decae83c","ios":"levelo://app?vid=934fa269-c84a-4c60-bc6f-23a7decae83c"},"vehicle_type_id":"4","last_reported":1740388253,"current_range_meters":9200,"station_id":"ce4bhgp2rcd13ifvqfd0","pricing_plan_id":"cebpf4jnsgd1na2vs0mg"},{"bike_id":"ab7da9df-c7ed-482b-9961-43b5cca3e34b","system_id":"levelo_inurba_marseille","lat":43.31105,"lon":5.37781,"is_reserved":false,"is_disabled":true,"rental_uris":{"android":"levelo://app?vid=ab7da9df-c7ed-482b-9961-43b5cca3e34b","ios":"levelo://app?vid=ab7da9df-c7ed-482b-9961-43b5cca3e34b"},"vehicle_type_id":"4","last_reported":1740388253,"current_range_meters":9200,"station_id":"ce4bgt92rcd13ifvqcg0","pricing_plan_id":"cebpf4jnsgd1na2vs0mg"},{"bike_id":"c4abef68-54bd-45bd-b2c0-4265c013ea72","system_id":"levelo_inurba_marseille","lat":43.24068,"lon":5.37755,"is_reserved":false,"is_disabled":false,"rental_uris":{"android":"levelo://app?vid=c4abef68-54bd-45bd-b2c0-4265c013ea72","ios":"levelo://app?vid=c4abef68-54bd-45bd-b2c0-4265c013ea72"},"vehicle_type_id":"4","last_reported":1740388253,"current_range_meters":9200,"station_id":"ce4bhnp2rcd13ifvqgvg","pricing_plan_id":"cebpf4jnsgd1na2vs0mg"},{"bike_id":"0595b6d9-db8f-4d7c-96f8-4e7c428512b6","system_id":"levelo_inurba_marseille","lat":43.26792,"lon":5.3941,"is_reserved":false,"is_disabled":false,"rental_uris":{"android":"levelo://app?vid=0595b6d9-db8f-4d7c-96f8-4e7c428512b6","ios":"levelo://app?vid=0595b6d9-db8f-4d7c-96f8-4e7c428512b6"},"vehicle_type_id":"4","last_reported":1740388253,"current_range_meters":9600,"station_id":"ce4bhh12rcd13ifvqfg0","pricing_plan_id":"cebpf4jnsgd1na2vs0mg"},{"bike_id":"d20cadd3-7237-4a35-ac9f-9c520cbd6a0f","system_id":"levelo_inurba_marseille","lat":43.24183,"lon":5.39725,"is_reserved":false,"is_disabled":false,"rental_uris":{"android":"levelo://app?vid=d20cadd3-7237-4a35-ac9f-9c520cbd6a0f","ios":"levelo://app?vid=d20cadd3-7237-4a35-ac9f-9c520cbd6a0f"},"vehicle_type_id":"4","last_reported":1740388253,"current_range_meters":9600,"station_id":"ce4bhn12rcd13ifvqgpg","pricing_plan_id":"cebpf4jnsgd1na2vs0mg"},{"bike_id":"8dccf261-1c4b-4959-ad9f-f5dfa42aed9e","system_id":"levelo_inurba_marseille","lat":43.31356,"lon":5.3673,"is_reserved":false,"is_disabled":false,"rental_uris":{"android":"levelo://app?vid=8dccf261-1c4b-4959-ad9f-f5dfa42aed9e","ios":"levelo://app?vid=8dccf261-1c4b-4959-ad9f-f5dfa42aed9e"},"vehicle_type_id":"4","last_reported":1740388253,"current_range_meters":9600,"station_id":"ce4bgr92rcd13ifvqc6g","pricing_plan_id":"cebpf4jnsgd1na2vs0mg"},{"bike_id":"a8dc7729-6589-4862-ac61-2b20487771e6","system_id":"levelo_inurba_marseille","lat":43.32128,"lon":5.36739,"is_reserved":false,"is_disabled":false,"rental_uris":{"android":"levelo://app?vid=a8dc7729-6589-4862-ac61-2b20487771e6","ios":"levelo://app?vid=a8dc7729-6589-4862-ac61-2b20487771e6"},"vehicle_type_id":"4","last_reported":1740388253,"current_range_meters":9600,"station_id":"ce4bhrh2rcd13ifvqhug","pricing_plan_id":"cebpf4jnsgd1na2vs0mg"},{"bike_id":"1346c758-53fb-4113-8a58-54006f0a2df8","system_id":"levelo_inurba_marseille","lat":43.28354,"lon":5.38112,"is_reserved":false,"is_disabled":false,"rental_uris":{"android":"levelo://app?vid=1346c758-53fb-4113-8a58-54006f0a2df8","ios":"levelo://app?vid=1346c758-53fb-4113-8a58-54006f0a2df8"},"vehicle_type_id":"4","last_reported":1740388253,"current_range_meters":9600,"station_id":"ce4bh412rcd13ifvqdr0","pricing_plan_id":"cebpf4jnsgd1na2vs0mg"},{"bike_id":"35f7fe5f-b05d-405c-a155-dda0758733e2","system_id":"levelo_inurba_marseille","lat":43.28153,"lon":5.4264,"is_reserved":false,"is_disabled":true,"rental_uris":{"android":"levelo://app?vid=35f7fe5f-b05d-405c-a155-dda0758733e2","ios":"levelo://app?vid=35f7fe5f-b05d-405c-a155-dda0758733e2"},"vehicle_type_id":"4","last_reported":1740388253,"current_range_meters":9600,"station_id":"ce4bhnh2rcd13ifvqgug","pricing_plan_id":"cebpf4jnsgd1na2vs0mg"},{"bike_id":"9fdc5228-e835-4793-ad30-e5834cfd975b","system_id":"levelo_inurba_marseille","lat":43.2585,"lon":5.39927,"is_reserved":false,"is_disabled":false,"rental_uris":{"android":"levelo://app?vid=9fdc5228-e835-4793-ad30-e5834cfd975b","ios":"levelo://app?vid=9fdc5228-e835-4793-ad30-e5834cfd975b"},"vehicle_type_id":"4","last_reported":1740388253,"current_range_meters":9600,"station_id":"ce4bhl92rcd13ifvqghg","pricing_plan_id":"cebpf4jnsgd1na2vs0mg"},{"bike_id":"bbebcd9e-ad72-4e6b-aadf-e0fdb707eb6f","system_id":"levelo_inurba_marseille","lat":43.28715,"lon":5.37393,"is_reserved":false,"is_disabled":false,"rental_uris":{"android":"levelo://app?vid=bbebcd9e-ad72-4e6b-aadf-e0fdb707eb6f","ios":"levelo://app?vid=bbebcd9e-ad72-4e6b-aadf-e0fdb707eb6f"},"vehicle_type_id":"4","last_reported":1740388253,"current_range_meters":9600,"station_id":"ce4bh3p2rcd13ifvqdq0","pricing_plan_id":"cebpf4jnsgd1na2vs0mg"},{"bike_id":"a3610751-bbe4-4d3e-a717-1a0eebd2fb2a","system_id":"levelo_inurba_marseille","lat":43.3071,"lon":5.37532,"is_reserved":false,"is_disabled":false,"rental_uris":{"android":"levelo://app?vid=a3610751-bbe4-4d3e-a717-1a0eebd2fb2a","ios":"levelo://app?vid=a3610751-bbe4-4d3e-a717-1a0eebd2fb2a"},"vehicle_type_id":"4","last_reported":1740388253,"current_range_meters":9600,"station_id":"","pricing_plan_id":"cebpf4jnsgd1na2vs0mg"},{"bike_id":"5de90a37-b7c7-4a02-ac2e-e5ef7e12ddbb","system_id":"levelo_inurba_marseille","lat":43.24159,"lon":5.36412,"is_reserved":false,"is_disabled":false,"rental_uris":{"android":"levelo://app?vid=5de90a37-b7c7-4a02-ac2e-e5ef7e12ddbb","ios":"levelo://app?vid=5de90a37-b7c7-4a02-ac2e-e5ef7e12ddbb"},"vehicle_type_id":"4","last_reported":1740388253,"current_range_meters":10000,"station_id":"cpo36qri1sfpv3e86is0","pricing_plan_id":"cebpf4jnsgd1na2vs0mg"},{"bike_id":"dfdc8222-c420-4613-9e27-05383ac06669","system_id":"levelo_inurba_marseille","lat":43.315004,"lon":5.37284,"is_reserved":false,"is_disabled":false,"rental_uris":{"android":"levelo://app?vid=dfdc8222-c420-4613-9e27-05383ac06669","ios":"levelo://app?vid=dfdc8222-c420-4613-9e27-05383ac06669"},"vehicle_type_id":"4","last_reported":1740388253,"current_range_meters":10000,"station_id":"ce4bgt12rcd13ifvqcd0","pricing_plan_id":"cebpf4jnsgd1na2vs0mg"},{"bike_id":"59cee8b2-041d-483f-9014-53e4c3fcc3d2","system_id":"levelo_inurba_marseille","lat":43.28275,"lon":5.35075,"is_reserved":false,"is_disabled":true,"rental_uris":{"android":"levelo://app?vid=59cee8b2-041d-483f-9014-53e4c3fcc3d2","ios":"levelo://app?vid=59cee8b2-041d-483f-9014-53e4c3fcc3d2"},"vehicle_type_id":"4","last_reported":1740388253,"current_range_meters":10000,"station_id":"ce4bhbp2rcd13ifvqerg","pricing_plan_id":"cebpf4jnsgd1na2vs0mg"},{"bike_id":"c60720d1-eac5-49ad-8b9a-1704965cdc90","system_id":"levelo_inurba_marseille","lat":43.28,"lon":5.40017,"is_reserved":false,"is_disabled":false,"rental_uris":{"android":"levelo://app?vid=c60720d1-eac5-49ad-8b9a-1704965cdc90","ios":"levelo://app?vid=c60720d1-eac5-49ad-8b9a-1704965cdc90"},"vehicle_type_id":"4","last_reported":1740388253,"current_range_meters":10000,"station_id":"ce4bho92rcd13ifvqh4g","pricing_plan_id":"cebpf4jnsgd1na2vs0mg"},{"bike_id":"b49d5e52-ea0b-48d3-8a70-3d9ea3251436","system_id":"levelo_inurba_marseille","lat":43.30117,"lon":5.39891,"is_reserved":false,"is_disabled":true,"rental_uris":{"android":"levelo://app?vid=b49d5e52-ea0b-48d3-8a70-3d9ea3251436","ios":"levelo://app?vid=b49d5e52-ea0b-48d3-8a70-3d9ea3251436"},"vehicle_type_id":"4","last_reported":1740388253,"current_range_meters":10800,"station_id":"ce4bh0h2rcd13ifvqd40","pricing_plan_id":"cebpf4jnsgd1na2vs0mg"},{"bike_id":"aed5036a-2d99-4696-b993-0bcbfed89a94","system_id":"levelo_inurba_marseille","lat":43.32486,"lon":5.36571,"is_reserved":false,"is_disabled":false,"rental_uris":{"android":"levelo://app?vid=aed5036a-2d99-4696-b993-0bcbfed89a94","ios":"levelo://app?vid=aed5036a-2d99-4696-b993-0bcbfed89a94"},"vehicle_type_id":"4","last_reported":1740388253,"current_range_meters":10800,"station_id":"ce4bhs12rcd13ifvqhvg","pricing_plan_id":"cebpf4jnsgd1na2vs0mg"},{"bike_id":"860eff15-4aff-4d92-8690-98414ae73df2","system_id":"levelo_inurba_marseille","lat":43.26507,"lon":5.3906,"is_reserved":false,"is_disabled":true,"rental_uris":{"android":"levelo://app?vid=860eff15-4aff-4d92-8690-98414ae73df2","ios":"levelo://app?vid=860eff15-4aff-4d92-8690-98414ae73df2"},"vehicle_type_id":"4","last_reported":1740388253,"current_range_meters":10800,"station_id":"ce4bhe12rcd13ifvqf30","pricing_plan_id":"cebpf4jnsgd1na2vs0mg"},{"bike_id":"f3bb669c-36d0-48e6-893e-0b8ac8f7727f","system_id":"levelo_inurba_marseille","lat":43.2871,"lon":5.37947,"is_reserved":false,"is_disabled":false,"rental_uris":{"android":"levelo://app?vid=f3bb669c-36d0-48e6-893e-0b8ac8f7727f","ios":"levelo://app?vid=f3bb669c-36d0-48e6-893e-0b8ac8f7727f"},"vehicle_type_id":"4","last_reported":1740388253,"current_range_meters":10800,"station_id":"ce4bh9p2rcd13ifvqec0","pricing_plan_id":"cebpf4jnsgd1na2vs0mg"},{"bike_id":"be3b3342-867a-4e60-adfb-c9fe7848c300","system_id":"levelo_inurba_marseille","lat":43.3372,"lon":5.39182,"is_reserved":false,"is_disabled":false,"rental_uris":{"android":"levelo://app?vid=be3b3342-867a-4e60-adfb-c9fe7848c300","ios":"levelo://app?vid=be3b3342-867a-4e60-adfb-c9fe7848c300"},"vehicle_type_id":"4","last_reported":1740388253,"current_range_meters":10000,"station_id":"ce4bhr92rcd13ifvqhsg","pricing_plan_id":"cebpf4jnsgd1na2vs0mg"},{"bike_id":"25bdf7fb-ea99-4a43-a8e9-503bcbe54a66","system_id":"levelo_inurba_marseille","lat":43.24649,"lon":5.3889,"is_reserved":false,"is_disabled":false,"rental_uris":{"android":"levelo://app?vid=25bdf7fb-ea99-4a43-a8e9-503bcbe54a66","ios":"levelo://app?vid=25bdf7fb-ea99-4a43-a8e9-503bcbe54a66"},"vehicle_type_id":"4","last_reported":1740388253,"current_range_meters":11200,"station_id":"ce4bhg12rcd13ifvqf60","pricing_plan_id":"cebpf4jnsgd1na2vs0mg"},{"bike_id":"4fdea899-ebb6-4c4c-8194-a7d7dbcf0358","system_id":"levelo_inurba_marseille","lat":43.29937,"lon":5.36539,"is_reserved":false,"is_disabled":false,"rental_uris":{"android":"levelo://app?vid=4fdea899-ebb6-4c4c-8194-a7d7dbcf0358","ios":"levelo://app?vid=4fdea899-ebb6-4c4c-8194-a7d7dbcf0358"},"vehicle_type_id":"4","last_reported":1740388253,"current_range_meters":11200,"station_id":"ce4bgm92rcd13ifvqbr0","pricing_plan_id":"cebpf4jnsgd1na2vs0mg"},{"bike_id":"6d3a28fb-ad8e-4099-ab7e-2f1842cf0da6","system_id":"levelo_inurba_marseille","lat":43.31998,"lon":5.38156,"is_reserved":false,"is_disabled":false,"rental_uris":{"android":"levelo://app?vid=6d3a28fb-ad8e-4099-ab7e-2f1842cf0da6","ios":"levelo://app?vid=6d3a28fb-ad8e-4099-ab7e-2f1842cf0da6"},"vehicle_type_id":"4","last_reported":1740388253,"current_range_meters":11200,"station_id":"ce4bhr12rcd13ifvqhpg","pricing_plan_id":"cebpf4jnsgd1na2vs0mg"},{"bike_id":"f87efea9-8c10-480e-9a97-1b8595348bd7","system_id":"levelo_inurba_marseille","lat":43.24075,"lon":5.37762,"is_reserved":false,"is_disabled":false,"rental_uris":{"android":"levelo://app?vid=f87efea9-8c10-480e-9a97-1b8595348bd7","ios":"levelo://app?vid=f87efea9-8c10-480e-9a97-1b8595348bd7"},"vehicle_type_id":"4","last_reported":1740388253,"current_range_meters":10800,"station_id":"ce4bhnp2rcd13ifvqgvg","pricing_plan_id":"cebpf4jnsgd1na2vs0mg"},{"bike_id":"9faf844a-413f-419f-bdea-64830f7f2bfb","system_id":"levelo_inurba_marseille","lat":43.29899,"lon":5.37865,"is_reserved":false,"is_disabled":false,"rental_uris":{"android":"levelo://app?vid=9faf844a-413f-419f-bdea-64830f7f2bfb","ios":"levelo://app?vid=9faf844a-413f-419f-bdea-64830f7f2bfb"},"vehicle_type_id":"4","last_reported":1740388253,"current_range_meters":11200,"station_id":"","pricing_plan_id":"cebpf4jnsgd1na2vs0mg"},{"bike_id":"8dc8947f-b4ba-43fa-8a3e-d3aa24ccb8cc","system_id":"levelo_inurba_marseille","lat":43.2397,"lon":5.36629,"is_reserved":false,"is_disabled":false,"rental_uris":{"android":"levelo://app?vid=8dc8947f-b4ba-43fa-8a3e-d3aa24ccb8cc","ios":"levelo://app?vid=8dc8947f-b4ba-43fa-8a3e-d3aa24ccb8cc"},"vehicle_type_id":"4","last_reported":1740388253,"current_range_meters":11200,"station_id":"ce4bhi12rcd13ifvqfp0","pricing_plan_id":"cebpf4jnsgd1na2vs0mg"},{"bike_id":"fc93a0cd-d658-4fe7-9e6a-52a49333f268","system_id":"levelo_inurba_marseille","lat":43.308105,"lon":5.381929,"is_reserved":false,"is_disabled":false,"rental_uris":{"android":"levelo://app?vid=fc93a0cd-d658-4fe7-9e6a-52a49333f268","ios":"levelo://app?vid=fc93a0cd-d658-4fe7-9e6a-52a49333f268"},"vehicle_type_id":"4","last_reported":1740388253,"current_range_meters":11200,"station_id":"ce4bgt12rcd13ifvqce0","pricing_plan_id":"cebpf4jnsgd1na2vs0mg"},{"bike_id":"689644f4-0aac-4aa6-8a90-0c48a24b1da0","system_id":"levelo_inurba_marseille","lat":43.24143,"lon":5.39725,"is_reserved":false,"is_disabled":false,"rental_uris":{"android":"levelo://app?vid=689644f4-0aac-4aa6-8a90-0c48a24b1da0","ios":"levelo://app?vid=689644f4-0aac-4aa6-8a90-0c48a24b1da0"},"vehicle_type_id":"4","last_reported":1740388253,"current_range_meters":11600,"station_id":"ce4bhn12rcd13ifvqgpg","pricing_plan_id":"cebpf4jnsgd1na2vs0mg"},{"bike_id":"1c282441-42fa-4577-98e6-37246650189e","system_id":"levelo_inurba_marseille","lat":43.30529,"lon":5.36713,"is_reserved":false,"is_disabled":false,"rental_uris":{"android":"levelo://app?vid=1c282441-42fa-4577-98e6-37246650189e","ios":"levelo://app?vid=1c282441-42fa-4577-98e6-37246650189e"},"vehicle_type_id":"4","last_reported":1740388253,"current_range_meters":11600,"station_id":"ce4bgrp2rcd13ifvqc9g","pricing_plan_id":"cebpf4jnsgd1na2vs0mg"},{"bike_id":"0b397ad7-a585-4a28-af67-72e05171869f","system_id":"levelo_inurba_marseille","lat":43.3135,"lon":5.36717,"is_reserved":false,"is_disabled":false,"rental_uris":{"android":"levelo://app?vid=0b397ad7-a585-4a28-af67-72e05171869f","ios":"levelo://app?vid=0b397ad7-a585-4a28-af67-72e05171869f"},"vehicle_type_id":"4","last_reported":1740388253,"current_range_meters":11600,"station_id":"ce4bgr92rcd13ifvqc6g","pricing_plan_id":"cebpf4jnsgd1na2vs0mg"},{"bike_id":"dc54d4c7-bc24-4392-9110-799e297e7337","system_id":"levelo_inurba_marseille","lat":43.2934,"lon":5.37258,"is_reserved":false,"is_disabled":false,"rental_uris":{"android":"levelo://app?vid=dc54d4c7-bc24-4392-9110-799e297e7337","ios":"levelo://app?vid=dc54d4c7-bc24-4392-9110-799e297e7337"},"vehicle_type_id":"4","last_reported":1740388253,"current_range_meters":11600,"station_id":"","pricing_plan_id":"cebpf4jnsgd1na2vs0mg"},{"bike_id":"10a9365f-072c-4bc6-9967-75e3cf71bc73","system_id":"levelo_inurba_marseille","lat":43.26351,"lon":5.3965,"is_reserved":false,"is_disabled":false,"rental_uris":{"android":"levelo://app?vid=10a9365f-072c-4bc6-9967-75e3cf71bc73","ios":"levelo://app?vid=10a9365f-072c-4bc6-9967-75e3cf71bc73"},"vehicle_type_id":"4","last_reported":1740388253,"current_range_meters":11600,"station_id":"","pricing_plan_id":"cebpf4jnsgd1na2vs0mg"},{"bike_id":"3fe402df-efb2-421d-9441-7aab75d83404","system_id":"levelo_inurba_marseille","lat":43.23152,"lon":5.43723,"is_reserved":false,"is_disabled":false,"rental_uris":{"android":"levelo://app?vid=3fe402df-efb2-421d-9441-7aab75d83404","ios":"levelo://app?vid=3fe402df-efb2-421d-9441-7aab75d83404"},"vehicle_type_id":"4","last_reported":1740388253,"current_range_meters":12000,"station_id":"ce4bhmp2rcd13ifvqgog","pricing_plan_id":"cebpf4jnsgd1na2vs0mg"},{"bike_id":"fcb8f976-fe48-4486-b326-2c8b38f88a18","system_id":"levelo_inurba_marseille","lat":43.29263,"lon":5.37634,"is_reserved":false,"is_disabled":false,"rental_uris":{"android":"levelo://app?vid=fcb8f976-fe48-4486-b326-2c8b38f88a18","ios":"levelo://app?vid=fcb8f976-fe48-4486-b326-2c8b38f88a18"},"vehicle_type_id":"4","last_reported":1740388253,"current_range_meters":12000,"station_id":"ce4bgi12rcd13ifvqb80","pricing_plan_id":"cebpf4jnsgd1na2vs0mg"},{"bike_id":"9e119d0b-c0b5-4dc4-8adb-833c259e51d8","system_id":"levelo_inurba_marseille","lat":43.26945,"lon":5.38641,"is_reserved":false,"is_disabled":false,"rental_uris":{"android":"levelo://app?vid=9e119d0b-c0b5-4dc4-8adb-833c259e51d8","ios":"levelo://app?vid=9e119d0b-c0b5-4dc4-8adb-833c259e51d8"},"vehicle_type_id":"4","last_reported":1740388253,"current_range_meters":12000,"station_id":"ce4bhh92rcd13ifvqfh0","pricing_plan_id":"cebpf4jnsgd1na2vs0mg"},{"bike_id":"06e1f752-0631-4115-b2d5-0075ce84bc3c","system_id":"levelo_inurba_marseille","lat":43.25835,"lon":5.39428,"is_reserved":false,"is_disabled":false,"rental_uris":{"android":"levelo://app?vid=06e1f752-0631-4115-b2d5-0075ce84bc3c","ios":"levelo://app?vid=06e1f752-0631-4115-b2d5-0075ce84bc3c"},"vehicle_type_id":"4","last_reported":1740388253,"current_range_meters":12400,"station_id":"ce4bhip2rcd13ifvqft0","pricing_plan_id":"cebpf4jnsgd1na2vs0mg"},{"bike_id":"56df2748-2c2e-439e-a556-627cad7c808a","system_id":"levelo_inurba_marseille","lat":43.26672,"lon":5.38273,"is_reserved":false,"is_disabled":false,"rental_uris":{"android":"levelo://app?vid=56df2748-2c2e-439e-a556-627cad7c808a","ios":"levelo://app?vid=56df2748-2c2e-439e-a556-627cad7c808a"},"vehicle_type_id":"4","last_reported":1740388253,"current_range_meters":12800,"station_id":"ce4bhg92rcd13ifvqf90","pricing_plan_id":"cebpf4jnsgd1na2vs0mg"},{"bike_id":"8db8ed58-37cb-4c97-97a8-1ea2735c388d","system_id":"levelo_inurba_marseille","lat":43.26791,"lon":5.39412,"is_reserved":false,"is_disabled":false,"rental_uris":{"android":"levelo://app?vid=8db8ed58-37cb-4c97-97a8-1ea2735c388d","ios":"levelo://app?vid=8db8ed58-37cb-4c97-97a8-1ea2735c388d"},"vehicle_type_id":"4","last_reported":1740388253,"current_range_meters":12800,"station_id":"ce4bhh12rcd13ifvqfg0","pricing_plan_id":"cebpf4jnsgd1na2vs0mg"},{"bike_id":"7d0e072a-3432-4778-a61a-3575849181ae","system_id":"levelo_inurba_marseille","lat":43.30529,"lon":5.36519,"is_reserved":false,"is_disabled":false,"rental_uris":{"android":"levelo://app?vid=7d0e072a-3432-4778-a61a-3575849181ae","ios":"levelo://app?vid=7d0e072a-3432-4778-a61a-3575849181ae"},"vehicle_type_id":"4","last_reported":1740388253,"current_range_meters":12800,"station_id":"ce4bgs12rcd13ifvqcag","pricing_plan_id":"cebpf4jnsgd1na2vs0mg"},{"bike_id":"917deec4-1d10-4658-97dc-4510ff7c4041","system_id":"levelo_inurba_marseille","lat":43.29223,"lon":5.36069,"is_reserved":false,"is_disabled":false,"rental_uris":{"android":"levelo://app?vid=917deec4-1d10-4658-97dc-4510ff7c4041","ios":"levelo://app?vid=917deec4-1d10-4658-97dc-4510ff7c4041"},"vehicle_type_id":"4","last_reported":1740388253,"current_range_meters":12800,"station_id":"ce4bhbh2rcd13ifvqeqg","pricing_plan_id":"cebpf4jnsgd1na2vs0mg"},{"bike_id":"01d1da51-2cef-46ef-923d-6fa5ded2f3da","system_id":"levelo_inurba_marseille","lat":43.30544,"lon":5.3653,"is_reserved":false,"is_disabled":false,"rental_uris":{"android":"levelo://app?vid=01d1da51-2cef-46ef-923d-6fa5ded2f3da","ios":"levelo://app?vid=01d1da51-2cef-46ef-923d-6fa5ded2f3da"},"vehicle_type_id":"4","last_reported":1740388253,"current_range_meters":12800,"station_id":"ce4bgs12rcd13ifvqcag","pricing_plan_id":"cebpf4jnsgd1na2vs0mg"},{"bike_id":"7fe0996e-2e24-4a3a-b975-03a2a20f6506","system_id":"levelo_inurba_marseille","lat":43.3236,"lon":5.36778,"is_reserved":false,"is_disabled":false,"rental_uris":{"android":"levelo://app?vid=7fe0996e-2e24-4a3a-b975-03a2a20f6506","ios":"levelo://app?vid=7fe0996e-2e24-4a3a-b975-03a2a20f6506"},"vehicle_type_id":"4","last_reported":1740388253,"current_range_meters":13600,"station_id":"ce4bhsh2rcd13ifvqi2g","pricing_plan_id":"cebpf4jnsgd1na2vs0mg"},{"bike_id":"f07ede6b-64e2-4f3f-a23a-75e603475a7e","system_id":"levelo_inurba_marseille","lat":43.25101,"lon":5.39515,"is_reserved":false,"is_disabled":false,"rental_uris":{"android":"levelo://app?vid=f07ede6b-64e2-4f3f-a23a-75e603475a7e","ios":"levelo://app?vid=f07ede6b-64e2-4f3f-a23a-75e603475a7e"},"vehicle_type_id":"4","last_reported":1740388253,"current_range_meters":13600,"station_id":"ce4bhm12rcd13ifvqgkg","pricing_plan_id":"cebpf4jnsgd1na2vs0mg"},{"bike_id":"25ef5a1f-5aec-48a2-a786-541af88b2004","system_id":"levelo_inurba_marseille","lat":43.30362,"lon":5.39443,"is_reserved":false,"is_disabled":false,"rental_uris":{"android":"levelo://app?vid=25ef5a1f-5aec-48a2-a786-541af88b2004","ios":"levelo://app?vid=25ef5a1f-5aec-48a2-a786-541af88b2004"},"vehicle_type_id":"4","last_reported":1740388253,"current_range_meters":14000,"station_id":"","pricing_plan_id":"cebpf4jnsgd1na2vs0mg"},{"bike_id":"41a2216f-8b22-4f4f-9eac-5e2283bcdb4b","system_id":"levelo_inurba_marseille","lat":43.28144,"lon":5.42661,"is_reserved":false,"is_disabled":true,"rental_uris":{"android":"levelo://app?vid=41a2216f-8b22-4f4f-9eac-5e2283bcdb4b","ios":"levelo://app?vid=41a2216f-8b22-4f4f-9eac-5e2283bcdb4b"},"vehicle_type_id":"4","last_reported":1740388253,"current_range_meters":14000,"station_id":"ce4bhnh2rcd13ifvqgug","pricing_plan_id":"cebpf4jnsgd1na2vs0mg"},{"bike_id":"473a2220-d805-46b4-a4a1-8e8e94797d90","system_id":"levelo_inurba_marseille","lat":43.29934,"lon":5.36544,"is_reserved":false,"is_disabled":false,"rental_uris":{"android":"levelo://app?vid=473a2220-d805-46b4-a4a1-8e8e94797d90","ios":"levelo://app?vid=473a2220-d805-46b4-a4a1-8e8e94797d90"},"vehicle_type_id":"4","last_reported":1740388253,"current_range_meters":14000,"station_id":"ce4bgm92rcd13ifvqbr0","pricing_plan_id":"cebpf4jnsgd1na2vs0mg"},{"bike_id":"9ec80d5d-5365-4fe8-b1b8-741c81741c1c","system_id":"levelo_inurba_marseille","lat":43.2774,"lon":5.40729,"is_reserved":false,"is_disabled":false,"rental_uris":{"android":"levelo://app?vid=9ec80d5d-5365-4fe8-b1b8-741c81741c1c","ios":"levelo://app?vid=9ec80d5d-5365-4fe8-b1b8-741c81741c1c"},"vehicle_type_id":"4","last_reported":1740388253,"current_range_meters":14000,"station_id":"","pricing_plan_id":"cebpf4jnsgd1na2vs0mg"},{"bike_id":"b9618233-aae5-4bb5-aff4-a6cc812bb667","system_id":"levelo_inurba_marseille","lat":43.264905,"lon":5.395412,"is_reserved":false,"is_disabled":false,"rental_uris":{"android":"levelo://app?vid=b9618233-aae5-4bb5-aff4-a6cc812bb667","ios":"levelo://app?vid=b9618233-aae5-4bb5-aff4-a6cc812bb667"},"vehicle_type_id":"4","last_reported":1740388253,"current_range_meters":11600,"station_id":"ce4bhi12rcd13ifvqfq0","pricing_plan_id":"cebpf4jnsgd1na2vs0mg"},{"bike_id":"054258a6-e903-48bc-ab14-23761879776f","system_id":"levelo_inurba_marseille","lat":43.30958,"lon":5.3904,"is_reserved":false,"is_disabled":false,"rental_uris":{"android":"levelo://app?vid=054258a6-e903-48bc-ab14-23761879776f","ios":"levelo://app?vid=054258a6-e903-48bc-ab14-23761879776f"},"vehicle_type_id":"4","last_reported":1740388253,"current_range_meters":14000,"station_id":"ce4bgup2rcd13ifvqco0","pricing_plan_id":"cebpf4jnsgd1na2vs0mg"},{"bike_id":"55e8dfe4-3690-4fe4-a013-f8375845b432","system_id":"levelo_inurba_marseille","lat":43.25924,"lon":5.40884,"is_reserved":false,"is_disabled":false,"rental_uris":{"android":"levelo://app?vid=55e8dfe4-3690-4fe4-a013-f8375845b432","ios":"levelo://app?vid=55e8dfe4-3690-4fe4-a013-f8375845b432"},"vehicle_type_id":"4","last_reported":1740388253,"current_range_meters":14400,"station_id":"ce4bhm92rcd13ifvqglg","pricing_plan_id":"cebpf4jnsgd1na2vs0mg"},{"bike_id":"a2d6ae3f-66f4-4649-ba0a-99967149441d","system_id":"levelo_inurba_marseille","lat":43.29547,"lon":5.3611,"is_reserved":false,"is_disabled":false,"rental_uris":{"android":"levelo://app?vid=a2d6ae3f-66f4-4649-ba0a-99967149441d","ios":"levelo://app?vid=a2d6ae3f-66f4-4649-ba0a-99967149441d"},"vehicle_type_id":"4","last_reported":1740388253,"current_range_meters":14400,"station_id":"","pricing_plan_id":"cebpf4jnsgd1na2vs0mg"},{"bike_id":"bc5fff51-e01e-46fc-8536-90b9645e2001","system_id":"levelo_inurba_marseille","lat":43.30312,"lon":5.3689,"is_reserved":false,"is_disabled":false,"rental_uris":{"android":"levelo://app?vid=bc5fff51-e01e-46fc-8536-90b9645e2001","ios":"levelo://app?vid=bc5fff51-e01e-46fc-8536-90b9645e2001"},"vehicle_type_id":"4","last_reported":1740388253,"current_range_meters":14800,"station_id":"ce4bgqh2rcd13ifvqc5g","pricing_plan_id":"cebpf4jnsgd1na2vs0mg"},{"bike_id":"04283277-c92e-4808-9a9d-d1855089b6b1","system_id":"levelo_inurba_marseille","lat":43.3014,"lon":5.3742,"is_reserved":false,"is_disabled":false,"rental_uris":{"android":"levelo://app?vid=04283277-c92e-4808-9a9d-d1855089b6b1","ios":"levelo://app?vid=04283277-c92e-4808-9a9d-d1855089b6b1"},"vehicle_type_id":"4","last_reported":1740388253,"current_range_meters":14800,"station_id":"ce4bgs92rcd13ifvqcc0","pricing_plan_id":"cebpf4jnsgd1na2vs0mg"},{"bike_id":"8f379b35-e4e1-4d8c-8319-ea3240528b0a","system_id":"levelo_inurba_marseille","lat":43.29287,"lon":5.40133,"is_reserved":false,"is_disabled":false,"rental_uris":{"android":"levelo://app?vid=8f379b35-e4e1-4d8c-8319-ea3240528b0a","ios":"levelo://app?vid=8f379b35-e4e1-4d8c-8319-ea3240528b0a"},"vehicle_type_id":"4","last_reported":1740388253,"current_range_meters":14800,"station_id":"ce4bhn92rcd13ifvqgrg","pricing_plan_id":"cebpf4jnsgd1na2vs0mg"},{"bike_id":"66f0ec1e-c319-4fe7-bbb7-77543d8b7c11","system_id":"levelo_inurba_marseille","lat":43.25932,"lon":5.40897,"is_reserved":false,"is_disabled":false,"rental_uris":{"android":"levelo://app?vid=66f0ec1e-c319-4fe7-bbb7-77543d8b7c11","ios":"levelo://app?vid=66f0ec1e-c319-4fe7-bbb7-77543d8b7c11"},"vehicle_type_id":"4","last_reported":1740388253,"current_range_meters":14800,"station_id":"ce4bhm92rcd13ifvqglg","pricing_plan_id":"cebpf4jnsgd1na2vs0mg"},{"bike_id":"7cac488d-ee92-4c3a-a2b4-9513e295f593","system_id":"levelo_inurba_marseille","lat":43.24078,"lon":5.37763,"is_reserved":false,"is_disabled":false,"rental_uris":{"android":"levelo://app?vid=7cac488d-ee92-4c3a-a2b4-9513e295f593","ios":"levelo://app?vid=7cac488d-ee92-4c3a-a2b4-9513e295f593"},"vehicle_type_id":"4","last_reported":1740388253,"current_range_meters":14800,"station_id":"ce4bhnp2rcd13ifvqgvg","pricing_plan_id":"cebpf4jnsgd1na2vs0mg"},{"bike_id":"cd1ed5da-4193-4b1f-828e-88308d393b06","system_id":"levelo_inurba_marseille","lat":43.33608,"lon":5.41014,"is_reserved":false,"is_disabled":false,"rental_uris":{"android":"levelo://app?vid=cd1ed5da-4193-4b1f-828e-88308d393b06","ios":"levelo://app?vid=cd1ed5da-4193-4b1f-828e-88308d393b06"},"vehicle_type_id":"4","last_reported":1740388253,"current_range_meters":15200,"station_id":"ce4bhqh2rcd13ifvqhmg","pricing_plan_id":"cebpf4jnsgd1na2vs0mg"},{"bike_id":"da805173-c32f-4615-b8c5-69bdaf0f2e7f","system_id":"levelo_inurba_marseille","lat":43.29017,"lon":5.35722,"is_reserved":false,"is_disabled":true,"rental_uris":{"android":"levelo://app?vid=da805173-c32f-4615-b8c5-69bdaf0f2e7f","ios":"levelo://app?vid=da805173-c32f-4615-b8c5-69bdaf0f2e7f"},"vehicle_type_id":"4","last_reported":1740388253,"current_range_meters":15200,"station_id":"","pricing_plan_id":"cebpf4jnsgd1na2vs0mg"},{"bike_id":"9a88dd4f-71ac-4baf-83d5-0df09385d941","system_id":"levelo_inurba_marseille","lat":43.24141,"lon":5.39729,"is_reserved":false,"is_disabled":false,"rental_uris":{"android":"levelo://app?vid=9a88dd4f-71ac-4baf-83d5-0df09385d941","ios":"levelo://app?vid=9a88dd4f-71ac-4baf-83d5-0df09385d941"},"vehicle_type_id":"4","last_reported":1740388253,"current_range_meters":15200,"station_id":"ce4bhn12rcd13ifvqgpg","pricing_plan_id":"cebpf4jnsgd1na2vs0mg"},{"bike_id":"2cb3f284-7b8f-46db-a012-ff6c476270a8","system_id":"levelo_inurba_marseille","lat":43.23187,"lon":5.35558,"is_reserved":false,"is_disabled":false,"rental_uris":{"android":"levelo://app?vid=2cb3f284-7b8f-46db-a012-ff6c476270a8","ios":"levelo://app?vid=2cb3f284-7b8f-46db-a012-ff6c476270a8"},"vehicle_type_id":"4","last_reported":1740388253,"current_range_meters":15200,"station_id":"ce4bhu92rcd13ifvqi70","pricing_plan_id":"cebpf4jnsgd1na2vs0mg"},{"bike_id":"615a02a6-6646-4df1-8ade-8686d89d8747","system_id":"levelo_inurba_marseille","lat":43.31331,"lon":5.39705,"is_reserved":false,"is_disabled":true,"rental_uris":{"android":"levelo://app?vid=615a02a6-6646-4df1-8ade-8686d89d8747","ios":"levelo://app?vid=615a02a6-6646-4df1-8ade-8686d89d8747"},"vehicle_type_id":"4","last_reported":1740388253,"current_range_meters":15200,"station_id":"ce4bgvp2rcd13ifvqcu0","pricing_plan_id":"cebpf4jnsgd1na2vs0mg"},{"bike_id":"8be5fa53-2658-4bca-9f8b-aa667690a995","system_id":"levelo_inurba_marseille","lat":43.32038,"lon":5.41559,"is_reserved":false,"is_disabled":false,"rental_uris":{"android":"levelo://app?vid=8be5fa53-2658-4bca-9f8b-aa667690a995","ios":"levelo://app?vid=8be5fa53-2658-4bca-9f8b-aa667690a995"},"vehicle_type_id":"4","last_reported":1740388253,"current_range_meters":16000,"station_id":"ce4bhq92rcd13ifvqhkg","pricing_plan_id":"cebpf4jnsgd1na2vs0mg"},{"bike_id":"44bfbfb9-509b-4282-a7c6-ff3a34b21134","system_id":"levelo_inurba_marseille","lat":43.28823,"lon":5.39309,"is_reserved":false,"is_disabled":false,"rental_uris":{"android":"levelo://app?vid=44bfbfb9-509b-4282-a7c6-ff3a34b21134","ios":"levelo://app?vid=44bfbfb9-509b-4282-a7c6-ff3a34b21134"},"vehicle_type_id":"4","last_reported":1740388253,"current_range_meters":16000,"station_id":"ce4bh2p2rcd13ifvqdi0","pricing_plan_id":"cebpf4jnsgd1na2vs0mg"},{"bike_id":"ad505fac-e138-45e3-b358-d135036ac08a","system_id":"levelo_inurba_marseille","lat":43.24655,"lon":5.38899,"is_reserved":false,"is_disabled":false,"rental_uris":{"android":"levelo://app?vid=ad505fac-e138-45e3-b358-d135036ac08a","ios":"levelo://app?vid=ad505fac-e138-45e3-b358-d135036ac08a"},"vehicle_type_id":"4","last_reported":1740388253,"current_range_meters":16000,"station_id":"ce4bhg12rcd13ifvqf60","pricing_plan_id":"cebpf4jnsgd1na2vs0mg"},{"bike_id":"7da6a383-5978-447e-b8b7-b13dbfefda9d","system_id":"levelo_inurba_marseille","lat":43.27495,"lon":5.42451,"is_reserved":false,"is_disabled":false,"rental_uris":{"android":"levelo://app?vid=7da6a383-5978-447e-b8b7-b13dbfefda9d","ios":"levelo://app?vid=7da6a383-5978-447e-b8b7-b13dbfefda9d"},"vehicle_type_id":"4","last_reported":1740388253,"current_range_meters":16000,"station_id":"ce4bhn92rcd13ifvqgrg","pricing_plan_id":"cebpf4jnsgd1na2vs0mg"},{"bike_id":"d0f9baeb-9149-42dc-b55d-2776f262fab0","system_id":"levelo_inurba_marseille","lat":43.27493,"lon":5.42455,"is_reserved":false,"is_disabled":false,"rental_uris":{"android":"levelo://app?vid=d0f9baeb-9149-42dc-b55d-2776f262fab0","ios":"levelo://app?vid=d0f9baeb-9149-42dc-b55d-2776f262fab0"},"vehicle_type_id":"4","last_reported":1740388253,"current_range_meters":16000,"station_id":"ce4bhn92rcd13ifvqgrg","pricing_plan_id":"cebpf4jnsgd1na2vs0mg"},{"bike_id":"47eaaf94-d47c-4cac-a93d-513e5c6634a9","system_id":"levelo_inurba_marseille","lat":43.29802,"lon":5.38097,"is_reserved":false,"is_disabled":false,"rental_uris":{"android":"levelo://app?vid=47eaaf94-d47c-4cac-a93d-513e5c6634a9","ios":"levelo://app?vid=47eaaf94-d47c-4cac-a93d-513e5c6634a9"},"vehicle_type_id":"4","last_reported":1740388253,"current_range_meters":16000,"station_id":"ce4bgip2rcd13ifvqbb0","pricing_plan_id":"cebpf4jnsgd1na2vs0mg"},{"bike_id":"fd532e2f-d6a4-48cf-9396-948557998389","system_id":"levelo_inurba_marseille","lat":43.28857,"lon":5.358525,"is_reserved":false,"is_disabled":false,"rental_uris":{"android":"levelo://app?vid=fd532e2f-d6a4-48cf-9396-948557998389","ios":"levelo://app?vid=fd532e2f-d6a4-48cf-9396-948557998389"},"vehicle_type_id":"4","last_reported":1740388253,"current_range_meters":15200,"station_id":"ce4bhb12rcd13ifvqem0","pricing_plan_id":"cebpf4jnsgd1na2vs0mg"},{"bike_id":"5b3de275-c3db-415e-be42-9a19b45f95bf","system_id":"levelo_inurba_marseille","lat":43.29026,"lon":5.38134,"is_reserved":false,"is_disabled":false,"rental_uris":{"android":"levelo://app?vid=5b3de275-c3db-415e-be42-9a19b45f95bf","ios":"levelo://app?vid=5b3de275-c3db-415e-be42-9a19b45f95bf"},"vehicle_type_id":"4","last_reported":1740388253,"current_range_meters":15200,"station_id":"ce4bh4p2rcd13ifvqe1g","pricing_plan_id":"cebpf4jnsgd1na2vs0mg"},{"bike_id":"74bfd96c-401a-490c-a405-314028ff1901","system_id":"levelo_inurba_marseille","lat":43.23149,"lon":5.43723,"is_reserved":false,"is_disabled":false,"rental_uris":{"android":"levelo://app?vid=74bfd96c-401a-490c-a405-314028ff1901","ios":"levelo://app?vid=74bfd96c-401a-490c-a405-314028ff1901"},"vehicle_type_id":"4","last_reported":1740388253,"current_range_meters":16000,"station_id":"ce4bhmp2rcd13ifvqgog","pricing_plan_id":"cebpf4jnsgd1na2vs0mg"},{"bike_id":"c0553ce2-1e21-4424-ae14-30f158e9755d","system_id":"levelo_inurba_marseille","lat":43.29854,"lon":5.38932,"is_reserved":false,"is_disabled":true,"rental_uris":{"android":"levelo://app?vid=c0553ce2-1e21-4424-ae14-30f158e9755d","ios":"levelo://app?vid=c0553ce2-1e21-4424-ae14-30f158e9755d"},"vehicle_type_id":"4","last_reported":1740388253,"current_range_meters":16000,"station_id":"ce4bh392rcd13ifvqdl0","pricing_plan_id":"cebpf4jnsgd1na2vs0mg"},{"bike_id":"c97f5ab1-20b5-4c00-b657-8a7a3dfc639d","system_id":"levelo_inurba_marseille","lat":43.31222,"lon":5.37226,"is_reserved":false,"is_disabled":false,"rental_uris":{"android":"levelo://app?vid=c97f5ab1-20b5-4c00-b657-8a7a3dfc639d","ios":"levelo://app?vid=c97f5ab1-20b5-4c00-b657-8a7a3dfc639d"},"vehicle_type_id":"4","last_reported":1740388253,"current_range_meters":16400,"station_id":"","pricing_plan_id":"cebpf4jnsgd1na2vs0mg"},{"bike_id":"706643d2-c89f-4374-8393-6c79d403ba35","system_id":"levelo_inurba_marseille","lat":43.29496,"lon":5.37529,"is_reserved":false,"is_disabled":true,"rental_uris":{"android":"levelo://app?vid=706643d2-c89f-4374-8393-6c79d403ba35","ios":"levelo://app?vid=706643d2-c89f-4374-8393-6c79d403ba35"},"vehicle_type_id":"4","last_reported":1740388253,"current_range_meters":16400,"station_id":"","pricing_plan_id":"cebpf4jnsgd1na2vs0mg"},{"bike_id":"a4f822cc-2640-41bb-9a08-c0038442f5fd","system_id":"levelo_inurba_marseille","lat":43.30543,"lon":5.36702,"is_reserved":false,"is_disabled":false,"rental_uris":{"android":"levelo://app?vid=a4f822cc-2640-41bb-9a08-c0038442f5fd","ios":"levelo://app?vid=a4f822cc-2640-41bb-9a08-c0038442f5fd"},"vehicle_type_id":"4","last_reported":1740388253,"current_range_meters":16400,"station_id":"ce4bgrp2rcd13ifvqc9g","pricing_plan_id":"cebpf4jnsgd1na2vs0mg"},{"bike_id":"3388648a-09f3-4b74-92b5-8287b74267ca","system_id":"levelo_inurba_marseille","lat":43.30296,"lon":5.36896,"is_reserved":false,"is_disabled":false,"rental_uris":{"android":"levelo://app?vid=3388648a-09f3-4b74-92b5-8287b74267ca","ios":"levelo://app?vid=3388648a-09f3-4b74-92b5-8287b74267ca"},"vehicle_type_id":"4","last_reported":1740388253,"current_range_meters":16400,"station_id":"ce4bgqh2rcd13ifvqc5g","pricing_plan_id":"cebpf4jnsgd1na2vs0mg"},{"bike_id":"48cd2d4a-b575-4d3a-8a93-11956c58b448","system_id":"levelo_inurba_marseille","lat":43.29681,"lon":5.37706,"is_reserved":false,"is_disabled":false,"rental_uris":{"android":"levelo://app?vid=48cd2d4a-b575-4d3a-8a93-11956c58b448","ios":"levelo://app?vid=48cd2d4a-b575-4d3a-8a93-11956c58b448"},"vehicle_type_id":"4","last_reported":1740388253,"current_range_meters":16000,"station_id":"ce4bgkh2rcd13ifvqbl0","pricing_plan_id":"cebpf4jnsgd1na2vs0mg"},{"bike_id":"66d01159-7459-400c-a8d5-a441cd548517","system_id":"levelo_inurba_marseille","lat":43.27497,"lon":5.42485,"is_reserved":false,"is_disabled":false,"rental_uris":{"android":"levelo://app?vid=66d01159-7459-400c-a8d5-a441cd548517","ios":"levelo://app?vid=66d01159-7459-400c-a8d5-a441cd548517"},"vehicle_type_id":"4","last_reported":1740388253,"current_range_meters":16400,"station_id":"ce4bhn92rcd13ifvqgrg","pricing_plan_id":"cebpf4jnsgd1na2vs0mg"},{"bike_id":"ce617805-0bfa-4045-9dcc-8d78159546ae","system_id":"levelo_inurba_marseille","lat":43.33597,"lon":5.41034,"is_reserved":false,"is_disabled":false,"rental_uris":{"android":"levelo://app?vid=ce617805-0bfa-4045-9dcc-8d78159546ae","ios":"levelo://app?vid=ce617805-0bfa-4045-9dcc-8d78159546ae"},"vehicle_type_id":"4","last_reported":1740388253,"current_range_meters":16400,"station_id":"ce4bhqh2rcd13ifvqhmg","pricing_plan_id":"cebpf4jnsgd1na2vs0mg"},{"bike_id":"16383675-fc5d-4252-93cf-d4c3ee1829f6","system_id":"levelo_inurba_marseille","lat":43.26234,"lon":5.37586,"is_reserved":false,"is_disabled":false,"rental_uris":{"android":"levelo://app?vid=16383675-fc5d-4252-93cf-d4c3ee1829f6","ios":"levelo://app?vid=16383675-fc5d-4252-93cf-d4c3ee1829f6"},"vehicle_type_id":"4","last_reported":1740388253,"current_range_meters":16800,"station_id":"","pricing_plan_id":"cebpf4jnsgd1na2vs0mg"},{"bike_id":"d4730943-c8a0-45ac-a541-8183607370d1","system_id":"levelo_inurba_marseille","lat":43.25007,"lon":5.38923,"is_reserved":false,"is_disabled":false,"rental_uris":{"android":"levelo://app?vid=d4730943-c8a0-45ac-a541-8183607370d1","ios":"levelo://app?vid=d4730943-c8a0-45ac-a541-8183607370d1"},"vehicle_type_id":"4","last_reported":1740388253,"current_range_meters":16800,"station_id":"ce4bhgp2rcd13ifvqfd0","pricing_plan_id":"cebpf4jnsgd1na2vs0mg"},{"bike_id":"cdf89f84-1d45-4ce1-b985-6a2c8b69ccf3","system_id":"levelo_inurba_marseille","lat":43.30529,"lon":5.36608,"is_reserved":false,"is_disabled":true,"rental_uris":{"android":"levelo://app?vid=cdf89f84-1d45-4ce1-b985-6a2c8b69ccf3","ios":"levelo://app?vid=cdf89f84-1d45-4ce1-b985-6a2c8b69ccf3"},"vehicle_type_id":"4","last_reported":1740388253,"current_range_meters":16800,"station_id":"","pricing_plan_id":"cebpf4jnsgd1na2vs0mg"},{"bike_id":"ebbf6217-465f-4269-8ee4-4515a862b241","system_id":"levelo_inurba_marseille","lat":43.29872,"lon":5.38915,"is_reserved":false,"is_disabled":true,"rental_uris":{"android":"levelo://app?vid=ebbf6217-465f-4269-8ee4-4515a862b241","ios":"levelo://app?vid=ebbf6217-465f-4269-8ee4-4515a862b241"},"vehicle_type_id":"4","last_reported":1740388253,"current_range_meters":16800,"station_id":"ce4bh392rcd13ifvqdl0","pricing_plan_id":"cebpf4jnsgd1na2vs0mg"},{"bike_id":"9152dc52-a17f-46af-aa01-7c274b944bd0","system_id":"levelo_inurba_marseille","lat":43.30538,"lon":5.36547,"is_reserved":false,"is_disabled":false,"rental_uris":{"android":"levelo://app?vid=9152dc52-a17f-46af-aa01-7c274b944bd0","ios":"levelo://app?vid=9152dc52-a17f-46af-aa01-7c274b944bd0"},"vehicle_type_id":"4","last_reported":1740388253,"current_range_meters":16800,"station_id":"ce4bgs12rcd13ifvqcag","pricing_plan_id":"cebpf4jnsgd1na2vs0mg"},{"bike_id":"a66059f6-2ce2-47aa-83b0-ca76626e6c68","system_id":"levelo_inurba_marseille","lat":43.24176,"lon":5.39729,"is_reserved":false,"is_disabled":false,"rental_uris":{"android":"levelo://app?vid=a66059f6-2ce2-47aa-83b0-ca76626e6c68","ios":"levelo://app?vid=a66059f6-2ce2-47aa-83b0-ca76626e6c68"},"vehicle_type_id":"4","last_reported":1740388253,"current_range_meters":16800,"station_id":"ce4bhn12rcd13ifvqgpg","pricing_plan_id":"cebpf4jnsgd1na2vs0mg"},{"bike_id":"05dff8b5-33a9-4d66-9ab6-0d3f3106b26e","system_id":"levelo_inurba_marseille","lat":43.24065,"lon":5.37737,"is_reserved":false,"is_disabled":false,"rental_uris":{"android":"levelo://app?vid=05dff8b5-33a9-4d66-9ab6-0d3f3106b26e","ios":"levelo://app?vid=05dff8b5-33a9-4d66-9ab6-0d3f3106b26e"},"vehicle_type_id":"4","last_reported":1740388253,"current_range_meters":17200,"station_id":"ce4bhnp2rcd13ifvqgvg","pricing_plan_id":"cebpf4jnsgd1na2vs0mg"},{"bike_id":"76a79653-8876-49bd-813f-5ba7031e00f3","system_id":"levelo_inurba_marseille","lat":43.29264,"lon":5.37618,"is_reserved":false,"is_disabled":false,"rental_uris":{"android":"levelo://app?vid=76a79653-8876-49bd-813f-5ba7031e00f3","ios":"levelo://app?vid=76a79653-8876-49bd-813f-5ba7031e00f3"},"vehicle_type_id":"4","last_reported":1740388253,"current_range_meters":17200,"station_id":"ce4bgi12rcd13ifvqb80","pricing_plan_id":"cebpf4jnsgd1na2vs0mg"},{"bike_id":"53899e2c-901f-4684-921b-47370fcd206b","system_id":"levelo_inurba_marseille","lat":43.30084,"lon":5.39086,"is_reserved":false,"is_disabled":false,"rental_uris":{"android":"levelo://app?vid=53899e2c-901f-4684-921b-47370fcd206b","ios":"levelo://app?vid=53899e2c-901f-4684-921b-47370fcd206b"},"vehicle_type_id":"4","last_reported":1740388253,"current_range_meters":17200,"station_id":"ce4bh192rcd13ifvqdb0","pricing_plan_id":"cebpf4jnsgd1na2vs0mg"},{"bike_id":"e3002425-2dfe-4241-a0d0-c30ced6ad606","system_id":"levelo_inurba_marseille","lat":43.30909,"lon":5.36789,"is_reserved":false,"is_disabled":false,"rental_uris":{"android":"levelo://app?vid=e3002425-2dfe-4241-a0d0-c30ced6ad606","ios":"levelo://app?vid=e3002425-2dfe-4241-a0d0-c30ced6ad606"},"vehicle_type_id":"4","last_reported":1740388253,"current_range_meters":17200,"station_id":"ce4bgn92rcd13ifvqbvg","pricing_plan_id":"cebpf4jnsgd1na2vs0mg"},{"bike_id":"bf962700-9e4e-48f2-b643-3feb90a2286a","system_id":"levelo_inurba_marseille","lat":43.31502,"lon":5.37252,"is_reserved":false,"is_disabled":false,"rental_uris":{"android":"levelo://app?vid=bf962700-9e4e-48f2-b643-3feb90a2286a","ios":"levelo://app?vid=bf962700-9e4e-48f2-b643-3feb90a2286a"},"vehicle_type_id":"4","last_reported":1740388253,"current_range_meters":17200,"station_id":"","pricing_plan_id":"cebpf4jnsgd1na2vs0mg"},{"bike_id":"43bd8135-e056-4039-9a37-6a493ee5bbec","system_id":"levelo_inurba_marseille","lat":43.30925,"lon":5.36871,"is_reserved":false,"is_disabled":false,"rental_uris":{"android":"levelo://app?vid=43bd8135-e056-4039-9a37-6a493ee5bbec","ios":"levelo://app?vid=43bd8135-e056-4039-9a37-6a493ee5bbec"},"vehicle_type_id":"4","last_reported":1740388253,"current_range_meters":17200,"station_id":"ce4bgn92rcd13ifvqbvg","pricing_plan_id":"cebpf4jnsgd1na2vs0mg"},{"bike_id":"39c3ac79-0ca0-4948-a50e-705be235be1c","system_id":"levelo_inurba_marseille","lat":43.31362,"lon":5.36706,"is_reserved":false,"is_disabled":false,"rental_uris":{"android":"levelo://app?vid=39c3ac79-0ca0-4948-a50e-705be235be1c","ios":"levelo://app?vid=39c3ac79-0ca0-4948-a50e-705be235be1c"},"vehicle_type_id":"4","last_reported":1740388253,"current_range_meters":17200,"station_id":"ce4bgr92rcd13ifvqc6g","pricing_plan_id":"cebpf4jnsgd1na2vs0mg"},{"bike_id":"8fccd655-5202-46e8-9b5a-e4322093b3c6","system_id":"levelo_inurba_marseille","lat":43.30148,"lon":5.37415,"is_reserved":false,"is_disabled":false,"rental_uris":{"android":"levelo://app?vid=8fccd655-5202-46e8-9b5a-e4322093b3c6","ios":"levelo://app?vid=8fccd655-5202-46e8-9b5a-e4322093b3c6"},"vehicle_type_id":"4","last_reported":1740388253,"current_range_meters":17200,"station_id":"ce4bgs92rcd13ifvqcc0","pricing_plan_id":"cebpf4jnsgd1na2vs0mg"},{"bike_id":"147467f8-df4e-4a9b-9e9b-8fc4b8bc51fd","system_id":"levelo_inurba_marseille","lat":43.301553,"lon":5.374043,"is_reserved":false,"is_disabled":false,"rental_uris":{"android":"levelo://app?vid=147467f8-df4e-4a9b-9e9b-8fc4b8bc51fd","ios":"levelo://app?vid=147467f8-df4e-4a9b-9e9b-8fc4b8bc51fd"},"vehicle_type_id":"4","last_reported":1740388253,"current_range_meters":17600,"station_id":"ce4bgs92rcd13ifvqcc0","pricing_plan_id":"cebpf4jnsgd1na2vs0mg"},{"bike_id":"67350e3b-ced3-434f-8df5-0f50029c572e","system_id":"levelo_inurba_marseille","lat":43.23186,"lon":5.35544,"is_reserved":false,"is_disabled":false,"rental_uris":{"android":"levelo://app?vid=67350e3b-ced3-434f-8df5-0f50029c572e","ios":"levelo://app?vid=67350e3b-ced3-434f-8df5-0f50029c572e"},"vehicle_type_id":"4","last_reported":1740388253,"current_range_meters":17600,"station_id":"ce4bhu92rcd13ifvqi70","pricing_plan_id":"cebpf4jnsgd1na2vs0mg"},{"bike_id":"f373858c-4bfe-491d-8681-185b20c75a86","system_id":"levelo_inurba_marseille","lat":43.30656,"lon":5.40086,"is_reserved":false,"is_disabled":true,"rental_uris":{"android":"levelo://app?vid=f373858c-4bfe-491d-8681-185b20c75a86","ios":"levelo://app?vid=f373858c-4bfe-491d-8681-185b20c75a86"},"vehicle_type_id":"4","last_reported":1740388253,"current_range_meters":17600,"station_id":"ce4bh112rcd13ifvqda0","pricing_plan_id":"cebpf4jnsgd1na2vs0mg"},{"bike_id":"86669f33-8519-423e-9dec-1b624217baeb","system_id":"levelo_inurba_marseille","lat":43.25081,"lon":5.39515,"is_reserved":false,"is_disabled":false,"rental_uris":{"android":"levelo://app?vid=86669f33-8519-423e-9dec-1b624217baeb","ios":"levelo://app?vid=86669f33-8519-423e-9dec-1b624217baeb"},"vehicle_type_id":"4","last_reported":1740388253,"current_range_meters":17600,"station_id":"ce4bhm12rcd13ifvqgkg","pricing_plan_id":"cebpf4jnsgd1na2vs0mg"},{"bike_id":"a2a01edb-023d-461b-9ed1-67e1fc306710","system_id":"levelo_inurba_marseille","lat":43.30515,"lon":5.36706,"is_reserved":false,"is_disabled":false,"rental_uris":{"android":"levelo://app?vid=a2a01edb-023d-461b-9ed1-67e1fc306710","ios":"levelo://app?vid=a2a01edb-023d-461b-9ed1-67e1fc306710"},"vehicle_type_id":"4","last_reported":1740388253,"current_range_meters":17600,"station_id":"ce4bgrp2rcd13ifvqc9g","pricing_plan_id":"cebpf4jnsgd1na2vs0mg"},{"bike_id":"073518a5-4dc0-447e-9477-a67f73b2a5a2","system_id":"levelo_inurba_marseille","lat":43.32374,"lon":5.3676,"is_reserved":false,"is_disabled":false,"rental_uris":{"android":"levelo://app?vid=073518a5-4dc0-447e-9477-a67f73b2a5a2","ios":"levelo://app?vid=073518a5-4dc0-447e-9477-a67f73b2a5a2"},"vehicle_type_id":"4","last_reported":1740388253,"current_range_meters":17600,"station_id":"ce4bhsh2rcd13ifvqi2g","pricing_plan_id":"cebpf4jnsgd1na2vs0mg"},{"bike_id":"02092797-d918-4ebd-bb66-4433b6516053","system_id":"levelo_inurba_marseille","lat":43.32289,"lon":5.38281,"is_reserved":false,"is_disabled":false,"rental_uris":{"android":"levelo://app?vid=02092797-d918-4ebd-bb66-4433b6516053","ios":"levelo://app?vid=02092797-d918-4ebd-bb66-4433b6516053"},"vehicle_type_id":"4","last_reported":1740388253,"current_range_meters":17600,"station_id":"ce4bhr12rcd13ifvqhqg","pricing_plan_id":"cebpf4jnsgd1na2vs0mg"},{"bike_id":"74a5ae58-5b79-4c06-a2e2-ed23a2e4a3e7","system_id":"levelo_inurba_marseille","lat":43.30179,"lon":5.36649,"is_reserved":false,"is_disabled":false,"rental_uris":{"android":"levelo://app?vid=74a5ae58-5b79-4c06-a2e2-ed23a2e4a3e7","ios":"levelo://app?vid=74a5ae58-5b79-4c06-a2e2-ed23a2e4a3e7"},"vehicle_type_id":"4","last_reported":1740388253,"current_range_meters":17600,"station_id":"ce4bgrh2rcd13ifvqc8g","pricing_plan_id":"cebpf4jnsgd1na2vs0mg"},{"bike_id":"e0a974b6-ebb6-4643-b3b6-b282d529bc0a","system_id":"levelo_inurba_marseille","lat":43.31703,"lon":5.43709,"is_reserved":false,"is_disabled":true,"rental_uris":{"android":"levelo://app?vid=e0a974b6-ebb6-4643-b3b6-b282d529bc0a","ios":"levelo://app?vid=e0a974b6-ebb6-4643-b3b6-b282d529bc0a"},"vehicle_type_id":"4","last_reported":1740388253,"current_range_meters":17600,"station_id":"ce4bhp92rcd13ifvqhcg","pricing_plan_id":"cebpf4jnsgd1na2vs0mg"},{"bike_id":"67353ec5-ce91-46f3-8df8-86128e85fd44","system_id":"levelo_inurba_marseille","lat":43.28137,"lon":5.42645,"is_reserved":false,"is_disabled":true,"rental_uris":{"android":"levelo://app?vid=67353ec5-ce91-46f3-8df8-86128e85fd44","ios":"levelo://app?vid=67353ec5-ce91-46f3-8df8-86128e85fd44"},"vehicle_type_id":"4","last_reported":1740388253,"current_range_meters":17600,"station_id":"ce4bhnh2rcd13ifvqgug","pricing_plan_id":"cebpf4jnsgd1na2vs0mg"},{"bike_id":"1a31d1e4-926c-463f-8572-d6ebfae27647","system_id":"levelo_inurba_marseille","lat":43.29917,"lon":5.37467,"is_reserved":false,"is_disabled":false,"rental_uris":{"android":"levelo://app?vid=1a31d1e4-926c-463f-8572-d6ebfae27647","ios":"levelo://app?vid=1a31d1e4-926c-463f-8572-d6ebfae27647"},"vehicle_type_id":"4","last_reported":1740388253,"current_range_meters":17600,"station_id":"ce4bgjh2rcd13ifvqbg0","pricing_plan_id":"cebpf4jnsgd1na2vs0mg"},{"bike_id":"c51fbff7-6a2a-4b56-8c2e-57a8978764b4","system_id":"levelo_inurba_marseille","lat":43.27992,"lon":5.3999,"is_reserved":false,"is_disabled":true,"rental_uris":{"android":"levelo://app?vid=c51fbff7-6a2a-4b56-8c2e-57a8978764b4","ios":"levelo://app?vid=c51fbff7-6a2a-4b56-8c2e-57a8978764b4"},"vehicle_type_id":"4","last_reported":1740388253,"current_range_meters":18000,"station_id":"ce4bho92rcd13ifvqh4g","pricing_plan_id":"cebpf4jnsgd1na2vs0mg"},{"bike_id":"486e2ada-5bcc-4384-96a4-414ac5e5e4a4","system_id":"levelo_inurba_marseille","lat":43.26946,"lon":5.3863,"is_reserved":false,"is_disabled":false,"rental_uris":{"android":"levelo://app?vid=486e2ada-5bcc-4384-96a4-414ac5e5e4a4","ios":"levelo://app?vid=486e2ada-5bcc-4384-96a4-414ac5e5e4a4"},"vehicle_type_id":"4","last_reported":1740388253,"current_range_meters":18000,"station_id":"ce4bhh92rcd13ifvqfh0","pricing_plan_id":"cebpf4jnsgd1na2vs0mg"},{"bike_id":"0d8b628b-6a6f-4c7e-85b3-173790111a6e","system_id":"levelo_inurba_marseille","lat":43.30523,"lon":5.36508,"is_reserved":false,"is_disabled":false,"rental_uris":{"android":"levelo://app?vid=0d8b628b-6a6f-4c7e-85b3-173790111a6e","ios":"levelo://app?vid=0d8b628b-6a6f-4c7e-85b3-173790111a6e"},"vehicle_type_id":"4","last_reported":1740388253,"current_range_meters":18000,"station_id":"ce4bgs12rcd13ifvqcag","pricing_plan_id":"cebpf4jnsgd1na2vs0mg"},{"bike_id":"a437ce3e-94c1-4d80-949a-3eb291854603","system_id":"levelo_inurba_marseille","lat":43.30905,"lon":5.40148,"is_reserved":false,"is_disabled":true,"rental_uris":{"android":"levelo://app?vid=a437ce3e-94c1-4d80-949a-3eb291854603","ios":"levelo://app?vid=a437ce3e-94c1-4d80-949a-3eb291854603"},"vehicle_type_id":"4","last_reported":1740388253,"current_range_meters":18000,"station_id":"ce4bgvp2rcd13ifvqct0","pricing_plan_id":"cebpf4jnsgd1na2vs0mg"},{"bike_id":"306c8afe-27f2-42dd-9d3c-74d43bc1f2cb","system_id":"levelo_inurba_marseille","lat":43.274883,"lon":5.424597,"is_reserved":false,"is_disabled":false,"rental_uris":{"android":"levelo://app?vid=306c8afe-27f2-42dd-9d3c-74d43bc1f2cb","ios":"levelo://app?vid=306c8afe-27f2-42dd-9d3c-74d43bc1f2cb"},"vehicle_type_id":"4","last_reported":1740388253,"current_range_meters":18000,"station_id":"ce4bhn92rcd13ifvqgrg","pricing_plan_id":"cebpf4jnsgd1na2vs0mg"},{"bike_id":"4ad6c8c7-d784-4586-babc-5d725e3737d0","system_id":"levelo_inurba_marseille","lat":43.29426,"lon":5.38617,"is_reserved":false,"is_disabled":false,"rental_uris":{"android":"levelo://app?vid=4ad6c8c7-d784-4586-babc-5d725e3737d0","ios":"levelo://app?vid=4ad6c8c7-d784-4586-babc-5d725e3737d0"},"vehicle_type_id":"4","last_reported":1740388253,"current_range_meters":18000,"station_id":"ce4bh2h2rcd13ifvqdh0","pricing_plan_id":"cebpf4jnsgd1na2vs0mg"},{"bike_id":"876aa59c-c91a-4ffc-81c7-21dd319d2cb2","system_id":"levelo_inurba_marseille","lat":43.29214,"lon":5.40505,"is_reserved":false,"is_disabled":false,"rental_uris":{"android":"levelo://app?vid=876aa59c-c91a-4ffc-81c7-21dd319d2cb2","ios":"levelo://app?vid=876aa59c-c91a-4ffc-81c7-21dd319d2cb2"},"vehicle_type_id":"4","last_reported":1740388253,"current_range_meters":18000,"station_id":"","pricing_plan_id":"cebpf4jnsgd1na2vs0mg"},{"bike_id":"6c47c828-fff7-4c25-91fa-eaa17a22bf2a","system_id":"levelo_inurba_marseille","lat":43.30294,"lon":5.3688,"is_reserved":false,"is_disabled":false,"rental_uris":{"android":"levelo://app?vid=6c47c828-fff7-4c25-91fa-eaa17a22bf2a","ios":"levelo://app?vid=6c47c828-fff7-4c25-91fa-eaa17a22bf2a"},"vehicle_type_id":"4","last_reported":1740388253,"current_range_meters":18000,"station_id":"ce4bgqh2rcd13ifvqc5g","pricing_plan_id":"cebpf4jnsgd1na2vs0mg"},{"bike_id":"4bf44a0b-3c1a-4345-9b50-88ed3c7aab44","system_id":"levelo_inurba_marseille","lat":43.29874,"lon":5.39735,"is_reserved":false,"is_disabled":false,"rental_uris":{"android":"levelo://app?vid=4bf44a0b-3c1a-4345-9b50-88ed3c7aab44","ios":"levelo://app?vid=4bf44a0b-3c1a-4345-9b50-88ed3c7aab44"},"vehicle_type_id":"4","last_reported":1740388253,"current_range_meters":17600,"station_id":"ce4bh0h2rcd13ifvqd50","pricing_plan_id":"cebpf4jnsgd1na2vs0mg"},{"bike_id":"8d825ae2-ed2e-40e6-9346-a5bb6d99d17f","system_id":"levelo_inurba_marseille","lat":43.27491,"lon":5.42449,"is_reserved":false,"is_disabled":false,"rental_uris":{"android":"levelo://app?vid=8d825ae2-ed2e-40e6-9346-a5bb6d99d17f","ios":"levelo://app?vid=8d825ae2-ed2e-40e6-9346-a5bb6d99d17f"},"vehicle_type_id":"4","last_reported":1740388253,"current_range_meters":18000,"station_id":"ce4bhn92rcd13ifvqgrg","pricing_plan_id":"cebpf4jnsgd1na2vs0mg"},{"bike_id":"365aebe8-9761-41aa-a351-0d71e4acc959","system_id":"levelo_inurba_marseille","lat":43.24654,"lon":5.38891,"is_reserved":false,"is_disabled":false,"rental_uris":{"android":"levelo://app?vid=365aebe8-9761-41aa-a351-0d71e4acc959","ios":"levelo://app?vid=365aebe8-9761-41aa-a351-0d71e4acc959"},"vehicle_type_id":"4","last_reported":1740388253,"current_range_meters":18000,"station_id":"ce4bhg12rcd13ifvqf60","pricing_plan_id":"cebpf4jnsgd1na2vs0mg"},{"bike_id":"53c250d8-2df3-441a-ade7-521012287108","system_id":"levelo_inurba_marseille","lat":43.24082,"lon":5.37746,"is_reserved":false,"is_disabled":false,"rental_uris":{"android":"levelo://app?vid=53c250d8-2df3-441a-ade7-521012287108","ios":"levelo://app?vid=53c250d8-2df3-441a-ade7-521012287108"},"vehicle_type_id":"4","last_reported":1740388253,"current_range_meters":18000,"station_id":"ce4bhnp2rcd13ifvqgvg","pricing_plan_id":"cebpf4jnsgd1na2vs0mg"},{"bike_id":"2def0963-f3e0-4747-a572-5c3b359c09fb","system_id":"levelo_inurba_marseille","lat":43.275,"lon":5.42472,"is_reserved":false,"is_disabled":false,"rental_uris":{"android":"levelo://app?vid=2def0963-f3e0-4747-a572-5c3b359c09fb","ios":"levelo://app?vid=2def0963-f3e0-4747-a572-5c3b359c09fb"},"vehicle_type_id":"4","last_reported":1740388253,"current_range_meters":18000,"station_id":"ce4bhn92rcd13ifvqgrg","pricing_plan_id":"cebpf4jnsgd1na2vs0mg"},{"bike_id":"61e8b40b-f7d3-4658-9150-8eeac4ba44d9","system_id":"levelo_inurba_marseille","lat":43.27494,"lon":5.42451,"is_reserved":false,"is_disabled":false,"rental_uris":{"android":"levelo://app?vid=61e8b40b-f7d3-4658-9150-8eeac4ba44d9","ios":"levelo://app?vid=61e8b40b-f7d3-4658-9150-8eeac4ba44d9"},"vehicle_type_id":"4","last_reported":1740388253,"current_range_meters":18000,"station_id":"ce4bhn92rcd13ifvqgrg","pricing_plan_id":"cebpf4jnsgd1na2vs0mg"},{"bike_id":"25822f0f-a940-4960-835e-66d2f1005144","system_id":"levelo_inurba_marseille","lat":43.33607,"lon":5.41034,"is_reserved":false,"is_disabled":false,"rental_uris":{"android":"levelo://app?vid=25822f0f-a940-4960-835e-66d2f1005144","ios":"levelo://app?vid=25822f0f-a940-4960-835e-66d2f1005144"},"vehicle_type_id":"4","last_reported":1740388253,"current_range_meters":18000,"station_id":"ce4bhqh2rcd13ifvqhmg","pricing_plan_id":"cebpf4jnsgd1na2vs0mg"},{"bike_id":"1aa0c844-9f4a-4120-9343-40dc37c3dd33","system_id":"levelo_inurba_marseille","lat":43.29925,"lon":5.36539,"is_reserved":false,"is_disabled":false,"rental_uris":{"android":"levelo://app?vid=1aa0c844-9f4a-4120-9343-40dc37c3dd33","ios":"levelo://app?vid=1aa0c844-9f4a-4120-9343-40dc37c3dd33"},"vehicle_type_id":"4","last_reported":1740388253,"current_range_meters":18000,"station_id":"ce4bgm92rcd13ifvqbr0","pricing_plan_id":"cebpf4jnsgd1na2vs0mg"},{"bike_id":"8b6d6dc7-9b3a-49c7-9e4e-44a1a302ed03","system_id":"levelo_inurba_marseille","lat":43.25932,"lon":5.40908,"is_reserved":false,"is_disabled":false,"rental_uris":{"android":"levelo://app?vid=8b6d6dc7-9b3a-49c7-9e4e-44a1a302ed03","ios":"levelo://app?vid=8b6d6dc7-9b3a-49c7-9e4e-44a1a302ed03"},"vehicle_type_id":"4","last_reported":1740388253,"current_range_meters":18800,"station_id":"ce4bhm92rcd13ifvqglg","pricing_plan_id":"cebpf4jnsgd1na2vs0mg"},{"bike_id":"479b9ae0-d182-4c84-9c54-e67ea850c4a9","system_id":"levelo_inurba_marseille","lat":43.305345,"lon":5.365515,"is_reserved":false,"is_disabled":false,"rental_uris":{"android":"levelo://app?vid=479b9ae0-d182-4c84-9c54-e67ea850c4a9","ios":"levelo://app?vid=479b9ae0-d182-4c84-9c54-e67ea850c4a9"},"vehicle_type_id":"4","last_reported":1740388253,"current_range_meters":18800,"station_id":"ce4bgs12rcd13ifvqcag","pricing_plan_id":"cebpf4jnsgd1na2vs0mg"},{"bike_id":"7652c1ae-6d1c-4b04-81e7-c1182f2c26a1","system_id":"levelo_inurba_marseille","lat":43.24177,"lon":5.3972,"is_reserved":false,"is_disabled":false,"rental_uris":{"android":"levelo://app?vid=7652c1ae-6d1c-4b04-81e7-c1182f2c26a1","ios":"levelo://app?vid=7652c1ae-6d1c-4b04-81e7-c1182f2c26a1"},"vehicle_type_id":"4","last_reported":1740388253,"current_range_meters":18800,"station_id":"ce4bhn12rcd13ifvqgpg","pricing_plan_id":"cebpf4jnsgd1na2vs0mg"},{"bike_id":"e813f92c-4fd3-41c9-ae0a-6879c319e323","system_id":"levelo_inurba_marseille","lat":43.29628,"lon":5.37146,"is_reserved":false,"is_disabled":false,"rental_uris":{"android":"levelo://app?vid=e813f92c-4fd3-41c9-ae0a-6879c319e323","ios":"levelo://app?vid=e813f92c-4fd3-41c9-ae0a-6879c319e323"},"vehicle_type_id":"4","last_reported":1740388253,"current_range_meters":18800,"station_id":"ce4bgnh2rcd13ifvqc0g","pricing_plan_id":"cebpf4jnsgd1na2vs0mg"},{"bike_id":"0db4c3f7-6b83-4b6b-b085-323d4c61deac","system_id":"levelo_inurba_marseille","lat":43.321107,"lon":5.367673,"is_reserved":false,"is_disabled":false,"rental_uris":{"android":"levelo://app?vid=0db4c3f7-6b83-4b6b-b085-323d4c61deac","ios":"levelo://app?vid=0db4c3f7-6b83-4b6b-b085-323d4c61deac"},"vehicle_type_id":"4","last_reported":1740388253,"current_range_meters":18800,"station_id":"ce4bhrh2rcd13ifvqhug","pricing_plan_id":"cebpf4jnsgd1na2vs0mg"},{"bike_id":"cae5183b-e04c-488b-bbc2-8a88557ef0cd","system_id":"levelo_inurba_marseille","lat":43.337444,"lon":5.374475,"is_reserved":false,"is_disabled":false,"rental_uris":{"android":"levelo://app?vid=cae5183b-e04c-488b-bbc2-8a88557ef0cd","ios":"levelo://app?vid=cae5183b-e04c-488b-bbc2-8a88557ef0cd"},"vehicle_type_id":"4","last_reported":1740388253,"current_range_meters":19200,"station_id":"","pricing_plan_id":"cebpf4jnsgd1na2vs0mg"},{"bike_id":"834a9289-d782-4c58-8e47-4ffb3148ee3e","system_id":"levelo_inurba_marseille","lat":43.29516,"lon":5.39035,"is_reserved":false,"is_disabled":false,"rental_uris":{"android":"levelo://app?vid=834a9289-d782-4c58-8e47-4ffb3148ee3e","ios":"levelo://app?vid=834a9289-d782-4c58-8e47-4ffb3148ee3e"},"vehicle_type_id":"4","last_reported":1740388253,"current_range_meters":14800,"station_id":"ce4bh3p2rcd13ifvqdp0","pricing_plan_id":"cebpf4jnsgd1na2vs0mg"},{"bike_id":"56a0cb01-fc13-42c8-94be-4f8cad837efb","system_id":"levelo_inurba_marseille","lat":43.30298,"lon":5.36912,"is_reserved":false,"is_disabled":false,"rental_uris":{"android":"levelo://app?vid=56a0cb01-fc13-42c8-94be-4f8cad837efb","ios":"levelo://app?vid=56a0cb01-fc13-42c8-94be-4f8cad837efb"},"vehicle_type_id":"4","last_reported":1740388253,"current_range_meters":19200,"station_id":"ce4bgqh2rcd13ifvqc5g","pricing_plan_id":"cebpf4jnsgd1na2vs0mg"},{"bike_id":"830923c6-39cb-4786-bd84-d8bc9287d2f2","system_id":"levelo_inurba_marseille","lat":43.31231,"lon":5.36867,"is_reserved":false,"is_disabled":false,"rental_uris":{"android":"levelo://app?vid=830923c6-39cb-4786-bd84-d8bc9287d2f2","ios":"levelo://app?vid=830923c6-39cb-4786-bd84-d8bc9287d2f2"},"vehicle_type_id":"4","last_reported":1740388253,"current_range_meters":19200,"station_id":"ce4bgl92rcd13ifvqbq0","pricing_plan_id":"cebpf4jnsgd1na2vs0mg"},{"bike_id":"a814f25e-89b4-4f0e-a0d6-313eb014c9c9","system_id":"levelo_inurba_marseille","lat":43.25942,"lon":5.40911,"is_reserved":false,"is_disabled":false,"rental_uris":{"android":"levelo://app?vid=a814f25e-89b4-4f0e-a0d6-313eb014c9c9","ios":"levelo://app?vid=a814f25e-89b4-4f0e-a0d6-313eb014c9c9"},"vehicle_type_id":"4","last_reported":1740388253,"current_range_meters":19200,"station_id":"ce4bhm92rcd13ifvqglg","pricing_plan_id":"cebpf4jnsgd1na2vs0mg"},{"bike_id":"06c6c325-842b-4d78-8236-c86f791ec009","system_id":"levelo_inurba_marseille","lat":43.27066,"lon":5.42283,"is_reserved":false,"is_disabled":false,"rental_uris":{"android":"levelo://app?vid=06c6c325-842b-4d78-8236-c86f791ec009","ios":"levelo://app?vid=06c6c325-842b-4d78-8236-c86f791ec009"},"vehicle_type_id":"4","last_reported":1740388253,"current_range_meters":19200,"station_id":"ce4bhk92rcd13ifvqgb0","pricing_plan_id":"cebpf4jnsgd1na2vs0mg"},{"bike_id":"0b578b0a-918d-46f6-81f3-220ca5fc5b14","system_id":"levelo_inurba_marseille","lat":43.24178,"lon":5.397331,"is_reserved":false,"is_disabled":false,"rental_uris":{"android":"levelo://app?vid=0b578b0a-918d-46f6-81f3-220ca5fc5b14","ios":"levelo://app?vid=0b578b0a-918d-46f6-81f3-220ca5fc5b14"},"vehicle_type_id":"4","last_reported":1740388253,"current_range_meters":19200,"station_id":"ce4bhn12rcd13ifvqgpg","pricing_plan_id":"cebpf4jnsgd1na2vs0mg"},{"bike_id":"ae3d3997-9872-4807-a0a3-3512c509af71","system_id":"levelo_inurba_marseille","lat":43.30069,"lon":5.39968,"is_reserved":false,"is_disabled":true,"rental_uris":{"android":"levelo://app?vid=ae3d3997-9872-4807-a0a3-3512c509af71","ios":"levelo://app?vid=ae3d3997-9872-4807-a0a3-3512c509af71"},"vehicle_type_id":"4","last_reported":1740388253,"current_range_meters":19600,"station_id":"","pricing_plan_id":"cebpf4jnsgd1na2vs0mg"},{"bike_id":"4ce2e4d1-9fbd-4622-b477-998cec79312d","system_id":"levelo_inurba_marseille","lat":43.30229,"lon":5.36632,"is_reserved":false,"is_disabled":false,"rental_uris":{"android":"levelo://app?vid=4ce2e4d1-9fbd-4622-b477-998cec79312d","ios":"levelo://app?vid=4ce2e4d1-9fbd-4622-b477-998cec79312d"},"vehicle_type_id":"4","last_reported":1740388253,"current_range_meters":19600,"station_id":"ce4bgrh2rcd13ifvqc8g","pricing_plan_id":"cebpf4jnsgd1na2vs0mg"},{"bike_id":"63afb1fc-974d-4ad7-9aeb-1f34144b4f49","system_id":"levelo_inurba_marseille","lat":43.23165,"lon":5.43717,"is_reserved":false,"is_disabled":false,"rental_uris":{"android":"levelo://app?vid=63afb1fc-974d-4ad7-9aeb-1f34144b4f49","ios":"levelo://app?vid=63afb1fc-974d-4ad7-9aeb-1f34144b4f49"},"vehicle_type_id":"4","last_reported":1740388253,"current_range_meters":19600,"station_id":"ce4bhmp2rcd13ifvqgog","pricing_plan_id":"cebpf4jnsgd1na2vs0mg"},{"bike_id":"d15bab97-415a-42d4-b817-ae269ea37219","system_id":"levelo_inurba_marseille","lat":43.2941,"lon":5.38571,"is_reserved":false,"is_disabled":true,"rental_uris":{"android":"levelo://app?vid=d15bab97-415a-42d4-b817-ae269ea37219","ios":"levelo://app?vid=d15bab97-415a-42d4-b817-ae269ea37219"},"vehicle_type_id":"4","last_reported":1740388253,"current_range_meters":19600,"station_id":"ce4bh2h2rcd13ifvqdh0","pricing_plan_id":"cebpf4jnsgd1na2vs0mg"},{"bike_id":"dd4be6f0-885d-4750-a8bb-6b3a073ca6b7","system_id":"levelo_inurba_marseille","lat":43.24649,"lon":5.38894,"is_reserved":false,"is_disabled":false,"rental_uris":{"android":"levelo://app?vid=dd4be6f0-885d-4750-a8bb-6b3a073ca6b7","ios":"levelo://app?vid=dd4be6f0-885d-4750-a8bb-6b3a073ca6b7"},"vehicle_type_id":"4","last_reported":1740388253,"current_range_meters":19600,"station_id":"ce4bhg12rcd13ifvqf60","pricing_plan_id":"cebpf4jnsgd1na2vs0mg"},{"bike_id":"558c8f51-63cb-4af4-82aa-d2f6ab4bd695","system_id":"levelo_inurba_marseille","lat":43.29439,"lon":5.39755,"is_reserved":false,"is_disabled":false,"rental_uris":{"android":"levelo://app?vid=558c8f51-63cb-4af4-82aa-d2f6ab4bd695","ios":"levelo://app?vid=558c8f51-63cb-4af4-82aa-d2f6ab4bd695"},"vehicle_type_id":"4","last_reported":1740388253,"current_range_meters":19600,"station_id":"ce4bh3h2rcd13ifvqdo0","pricing_plan_id":"cebpf4jnsgd1na2vs0mg"},{"bike_id":"96166e45-652c-4eb0-8cd0-ab89e248c010","system_id":"levelo_inurba_marseille","lat":43.33601,"lon":5.41032,"is_reserved":false,"is_disabled":false,"rental_uris":{"android":"levelo://app?vid=96166e45-652c-4eb0-8cd0-ab89e248c010","ios":"levelo://app?vid=96166e45-652c-4eb0-8cd0-ab89e248c010"},"vehicle_type_id":"4","last_reported":1740388253,"current_range_meters":20000,"station_id":"ce4bhqh2rcd13ifvqhmg","pricing_plan_id":"cebpf4jnsgd1na2vs0mg"},{"bike_id":"0d3df397-4b3c-42a6-a882-13909e8540f7","system_id":"levelo_inurba_marseille","lat":43.28148,"lon":5.42655,"is_reserved":false,"is_disabled":false,"rental_uris":{"android":"levelo://app?vid=0d3df397-4b3c-42a6-a882-13909e8540f7","ios":"levelo://app?vid=0d3df397-4b3c-42a6-a882-13909e8540f7"},"vehicle_type_id":"4","last_reported":1740388253,"current_range_meters":20000,"station_id":"ce4bhnh2rcd13ifvqgug","pricing_plan_id":"cebpf4jnsgd1na2vs0mg"},{"bike_id":"6dac1f2a-dae3-41cd-b475-5dce0158a35b","system_id":"levelo_inurba_marseille","lat":43.26955,"lon":5.38611,"is_reserved":false,"is_disabled":false,"rental_uris":{"android":"levelo://app?vid=6dac1f2a-dae3-41cd-b475-5dce0158a35b","ios":"levelo://app?vid=6dac1f2a-dae3-41cd-b475-5dce0158a35b"},"vehicle_type_id":"4","last_reported":1740388253,"current_range_meters":20000,"station_id":"ce4bhh92rcd13ifvqfh0","pricing_plan_id":"cebpf4jnsgd1na2vs0mg"},{"bike_id":"4addb255-ebfa-4230-b994-aa5af2bf75c5","system_id":"levelo_inurba_marseille","lat":43.30279,"lon":5.37704,"is_reserved":false,"is_disabled":false,"rental_uris":{"android":"levelo://app?vid=4addb255-ebfa-4230-b994-aa5af2bf75c5","ios":"levelo://app?vid=4addb255-ebfa-4230-b994-aa5af2bf75c5"},"vehicle_type_id":"4","last_reported":1740388253,"current_range_meters":20000,"station_id":"ce4bguh2rcd13ifvqcj0","pricing_plan_id":"cebpf4jnsgd1na2vs0mg"},{"bike_id":"cd649c04-58e1-4113-bc6d-a7b088bd2777","system_id":"levelo_inurba_marseille","lat":43.25013,"lon":5.38918,"is_reserved":false,"is_disabled":false,"rental_uris":{"android":"levelo://app?vid=cd649c04-58e1-4113-bc6d-a7b088bd2777","ios":"levelo://app?vid=cd649c04-58e1-4113-bc6d-a7b088bd2777"},"vehicle_type_id":"4","last_reported":1740388253,"current_range_meters":20000,"station_id":"ce4bhgp2rcd13ifvqfd0","pricing_plan_id":"cebpf4jnsgd1na2vs0mg"},{"bike_id":"e81e75ba-4a1c-41ff-b536-2be6d7d151b6","system_id":"levelo_inurba_marseille","lat":43.29419,"lon":5.38626,"is_reserved":false,"is_disabled":false,"rental_uris":{"android":"levelo://app?vid=e81e75ba-4a1c-41ff-b536-2be6d7d151b6","ios":"levelo://app?vid=e81e75ba-4a1c-41ff-b536-2be6d7d151b6"},"vehicle_type_id":"4","last_reported":1740388253,"current_range_meters":20000,"station_id":"ce4bh2h2rcd13ifvqdh0","pricing_plan_id":"cebpf4jnsgd1na2vs0mg"},{"bike_id":"4242307f-b409-4ff5-981f-7d2a718665cc","system_id":"levelo_inurba_marseille","lat":43.23158,"lon":5.43717,"is_reserved":false,"is_disabled":false,"rental_uris":{"android":"levelo://app?vid=4242307f-b409-4ff5-981f-7d2a718665cc","ios":"levelo://app?vid=4242307f-b409-4ff5-981f-7d2a718665cc"},"vehicle_type_id":"4","last_reported":1740388253,"current_range_meters":19600,"station_id":"ce4bhmp2rcd13ifvqgog","pricing_plan_id":"cebpf4jnsgd1na2vs0mg"},{"bike_id":"71686f6c-0c0a-46b4-842e-ed168955efdb","system_id":"levelo_inurba_marseille","lat":43.30315,"lon":5.37711,"is_reserved":false,"is_disabled":false,"rental_uris":{"android":"levelo://app?vid=71686f6c-0c0a-46b4-842e-ed168955efdb","ios":"levelo://app?vid=71686f6c-0c0a-46b4-842e-ed168955efdb"},"vehicle_type_id":"4","last_reported":1740388253,"current_range_meters":20000,"station_id":"ce4bguh2rcd13ifvqcj0","pricing_plan_id":"cebpf4jnsgd1na2vs0mg"},{"bike_id":"7ee7f826-dc37-4344-ad19-a7d227aa9e57","system_id":"levelo_inurba_marseille","lat":43.334005,"lon":5.441205,"is_reserved":false,"is_disabled":true,"rental_uris":{"android":"levelo://app?vid=7ee7f826-dc37-4344-ad19-a7d227aa9e57","ios":"levelo://app?vid=7ee7f826-dc37-4344-ad19-a7d227aa9e57"},"vehicle_type_id":"4","last_reported":1740388253,"current_range_meters":20400,"station_id":"","pricing_plan_id":"cebpf4jnsgd1na2vs0mg"},{"bike_id":"7e00f6cd-348d-4eb2-b595-42a596c47d81","system_id":"levelo_inurba_marseille","lat":43.29265,"lon":5.40103,"is_reserved":false,"is_disabled":true,"rental_uris":{"android":"levelo://app?vid=7e00f6cd-348d-4eb2-b595-42a596c47d81","ios":"levelo://app?vid=7e00f6cd-348d-4eb2-b595-42a596c47d81"},"vehicle_type_id":"4","last_reported":1740388253,"current_range_meters":20400,"station_id":"ce4bh312rcd13ifvqdk0","pricing_plan_id":"cebpf4jnsgd1na2vs0mg"},{"bike_id":"1e0382d9-f56f-4a37-9e80-5af4345b05fa","system_id":"levelo_inurba_marseille","lat":43.29961,"lon":5.37189,"is_reserved":false,"is_disabled":false,"rental_uris":{"android":"levelo://app?vid=1e0382d9-f56f-4a37-9e80-5af4345b05fa","ios":"levelo://app?vid=1e0382d9-f56f-4a37-9e80-5af4345b05fa"},"vehicle_type_id":"4","last_reported":1740388253,"current_range_meters":20000,"station_id":"ce4bgr92rcd13ifvqc7g","pricing_plan_id":"cebpf4jnsgd1na2vs0mg"},{"bike_id":"994ea265-1013-46db-96b8-64671d477a1f","system_id":"levelo_inurba_marseille","lat":43.26189,"lon":5.37932,"is_reserved":false,"is_disabled":false,"rental_uris":{"android":"levelo://app?vid=994ea265-1013-46db-96b8-64671d477a1f","ios":"levelo://app?vid=994ea265-1013-46db-96b8-64671d477a1f"},"vehicle_type_id":"4","last_reported":1740388253,"current_range_meters":20400,"station_id":"ce4bhjp2rcd13ifvqg90","pricing_plan_id":"cebpf4jnsgd1na2vs0mg"},{"bike_id":"1e4ddf92-0eea-4d24-a416-d7a279008e23","system_id":"levelo_inurba_marseille","lat":43.25937,"lon":5.40902,"is_reserved":false,"is_disabled":false,"rental_uris":{"android":"levelo://app?vid=1e4ddf92-0eea-4d24-a416-d7a279008e23","ios":"levelo://app?vid=1e4ddf92-0eea-4d24-a416-d7a279008e23"},"vehicle_type_id":"4","last_reported":1740388253,"current_range_meters":20800,"station_id":"ce4bhm92rcd13ifvqglg","pricing_plan_id":"cebpf4jnsgd1na2vs0mg"},{"bike_id":"94a5dfcb-cdfc-4ad8-8881-8a12d01b416a","system_id":"levelo_inurba_marseille","lat":43.24181,"lon":5.39724,"is_reserved":false,"is_disabled":false,"rental_uris":{"android":"levelo://app?vid=94a5dfcb-cdfc-4ad8-8881-8a12d01b416a","ios":"levelo://app?vid=94a5dfcb-cdfc-4ad8-8881-8a12d01b416a"},"vehicle_type_id":"4","last_reported":1740388253,"current_range_meters":20800,"station_id":"ce4bhn12rcd13ifvqgpg","pricing_plan_id":"cebpf4jnsgd1na2vs0mg"},{"bike_id":"cffad13e-816d-41ca-b7c1-f579c9e787b1","system_id":"levelo_inurba_marseille","lat":43.25945,"lon":5.40896,"is_reserved":false,"is_disabled":false,"rental_uris":{"android":"levelo://app?vid=cffad13e-816d-41ca-b7c1-f579c9e787b1","ios":"levelo://app?vid=cffad13e-816d-41ca-b7c1-f579c9e787b1"},"vehicle_type_id":"4","last_reported":1740388253,"current_range_meters":20800,"station_id":"ce4bhm92rcd13ifvqglg","pricing_plan_id":"cebpf4jnsgd1na2vs0mg"},{"bike_id":"4de3e74c-b5d6-4422-bfab-873b72fb3034","system_id":"levelo_inurba_marseille","lat":43.2572,"lon":5.41113,"is_reserved":false,"is_disabled":false,"rental_uris":{"android":"levelo://app?vid=4de3e74c-b5d6-4422-bfab-873b72fb3034","ios":"levelo://app?vid=4de3e74c-b5d6-4422-bfab-873b72fb3034"},"vehicle_type_id":"4","last_reported":1740388253,"current_range_meters":20800,"station_id":"ce4bhkp2rcd13ifvqgd0","pricing_plan_id":"cebpf4jnsgd1na2vs0mg"},{"bike_id":"d287661c-df28-44ce-a4fe-4ad3a993ee76","system_id":"levelo_inurba_marseille","lat":43.23151,"lon":5.43731,"is_reserved":false,"is_disabled":false,"rental_uris":{"android":"levelo://app?vid=d287661c-df28-44ce-a4fe-4ad3a993ee76","ios":"levelo://app?vid=d287661c-df28-44ce-a4fe-4ad3a993ee76"},"vehicle_type_id":"4","last_reported":1740388253,"current_range_meters":20800,"station_id":"ce4bhmp2rcd13ifvqgog","pricing_plan_id":"cebpf4jnsgd1na2vs0mg"},{"bike_id":"41c02980-2d5d-4ec8-b439-0a197839dea1","system_id":"levelo_inurba_marseille","lat":43.29902,"lon":5.4366,"is_reserved":false,"is_disabled":false,"rental_uris":{"android":"levelo://app?vid=41c02980-2d5d-4ec8-b439-0a197839dea1","ios":"levelo://app?vid=41c02980-2d5d-4ec8-b439-0a197839dea1"},"vehicle_type_id":"4","last_reported":1740388253,"current_range_meters":20800,"station_id":"ce4bhpp2rcd13ifvqhfg","pricing_plan_id":"cebpf4jnsgd1na2vs0mg"},{"bike_id":"26e67349-8270-4806-aad3-839f545a79a4","system_id":"levelo_inurba_marseille","lat":43.3058,"lon":5.3934,"is_reserved":false,"is_disabled":true,"rental_uris":{"android":"levelo://app?vid=26e67349-8270-4806-aad3-839f545a79a4","ios":"levelo://app?vid=26e67349-8270-4806-aad3-839f545a79a4"},"vehicle_type_id":"4","last_reported":1740388253,"current_range_meters":20800,"station_id":"ce4bh0p2rcd13ifvqd80","pricing_plan_id":"cebpf4jnsgd1na2vs0mg"},{"bike_id":"1237b337-386c-470d-b92d-7e09f0f34a91","system_id":"levelo_inurba_marseille","lat":43.28296,"lon":5.35058,"is_reserved":false,"is_disabled":true,"rental_uris":{"android":"levelo://app?vid=1237b337-386c-470d-b92d-7e09f0f34a91","ios":"levelo://app?vid=1237b337-386c-470d-b92d-7e09f0f34a91"},"vehicle_type_id":"4","last_reported":1740388253,"current_range_meters":21600,"station_id":"ce4bhbp2rcd13ifvqerg","pricing_plan_id":"cebpf4jnsgd1na2vs0mg"},{"bike_id":"63bd7c61-4a1f-4c33-b0da-bb44c69a1793","system_id":"levelo_inurba_marseille","lat":43.24079,"lon":5.3774,"is_reserved":false,"is_disabled":false,"rental_uris":{"android":"levelo://app?vid=63bd7c61-4a1f-4c33-b0da-bb44c69a1793","ios":"levelo://app?vid=63bd7c61-4a1f-4c33-b0da-bb44c69a1793"},"vehicle_type_id":"4","last_reported":1740388253,"current_range_meters":21600,"station_id":"ce4bhnp2rcd13ifvqgvg","pricing_plan_id":"cebpf4jnsgd1na2vs0mg"},{"bike_id":"fce9a80a-4538-4f86-96c5-759a5f66da83","system_id":"levelo_inurba_marseille","lat":43.31314,"lon":5.36742,"is_reserved":false,"is_disabled":false,"rental_uris":{"android":"levelo://app?vid=fce9a80a-4538-4f86-96c5-759a5f66da83","ios":"levelo://app?vid=fce9a80a-4538-4f86-96c5-759a5f66da83"},"vehicle_type_id":"4","last_reported":1740388253,"current_range_meters":21600,"station_id":"ce4bgr92rcd13ifvqc6g","pricing_plan_id":"cebpf4jnsgd1na2vs0mg"},{"bike_id":"b22fca54-b192-4ce1-8458-feec3c525f8b","system_id":"levelo_inurba_marseille","lat":43.2481,"lon":5.37455,"is_reserved":false,"is_disabled":false,"rental_uris":{"android":"levelo://app?vid=b22fca54-b192-4ce1-8458-feec3c525f8b","ios":"levelo://app?vid=b22fca54-b192-4ce1-8458-feec3c525f8b"},"vehicle_type_id":"4","last_reported":1740388253,"current_range_meters":21600,"station_id":"ce4bhgh2rcd13ifvqfb0","pricing_plan_id":"cebpf4jnsgd1na2vs0mg"},{"bike_id":"b7aa87b8-a3e9-4f8f-9f0b-8c74166d84dc","system_id":"levelo_inurba_marseille","lat":43.23129,"lon":5.35529,"is_reserved":false,"is_disabled":false,"rental_uris":{"android":"levelo://app?vid=b7aa87b8-a3e9-4f8f-9f0b-8c74166d84dc","ios":"levelo://app?vid=b7aa87b8-a3e9-4f8f-9f0b-8c74166d84dc"},"vehicle_type_id":"4","last_reported":1740388253,"current_range_meters":21600,"station_id":"","pricing_plan_id":"cebpf4jnsgd1na2vs0mg"},{"bike_id":"09099391-8a81-40ef-abc5-e567e6c542cf","system_id":"levelo_inurba_marseille","lat":43.31222,"lon":5.36863,"is_reserved":false,"is_disabled":false,"rental_uris":{"android":"levelo://app?vid=09099391-8a81-40ef-abc5-e567e6c542cf","ios":"levelo://app?vid=09099391-8a81-40ef-abc5-e567e6c542cf"},"vehicle_type_id":"4","last_reported":1740388253,"current_range_meters":21600,"station_id":"ce4bgl92rcd13ifvqbq0","pricing_plan_id":"cebpf4jnsgd1na2vs0mg"},{"bike_id":"ba116aa4-9a2c-4951-b196-63e0a40889ed","system_id":"levelo_inurba_marseille","lat":43.32353,"lon":5.36773,"is_reserved":false,"is_disabled":false,"rental_uris":{"android":"levelo://app?vid=ba116aa4-9a2c-4951-b196-63e0a40889ed","ios":"levelo://app?vid=ba116aa4-9a2c-4951-b196-63e0a40889ed"},"vehicle_type_id":"4","last_reported":1740388253,"current_range_meters":22000,"station_id":"ce4bhsh2rcd13ifvqi2g","pricing_plan_id":"cebpf4jnsgd1na2vs0mg"},{"bike_id":"fc3502fa-34c8-48c2-8c8b-0a4d5562ce06","system_id":"levelo_inurba_marseille","lat":43.24082,"lon":5.37746,"is_reserved":false,"is_disabled":false,"rental_uris":{"android":"levelo://app?vid=fc3502fa-34c8-48c2-8c8b-0a4d5562ce06","ios":"levelo://app?vid=fc3502fa-34c8-48c2-8c8b-0a4d5562ce06"},"vehicle_type_id":"4","last_reported":1740388253,"current_range_meters":22000,"station_id":"ce4bhnp2rcd13ifvqgvg","pricing_plan_id":"cebpf4jnsgd1na2vs0mg"},{"bike_id":"40c93502-1dfa-4230-b089-2007da8bd0c2","system_id":"levelo_inurba_marseille","lat":43.32481,"lon":5.36571,"is_reserved":false,"is_disabled":false,"rental_uris":{"android":"levelo://app?vid=40c93502-1dfa-4230-b089-2007da8bd0c2","ios":"levelo://app?vid=40c93502-1dfa-4230-b089-2007da8bd0c2"},"vehicle_type_id":"4","last_reported":1740388253,"current_range_meters":22000,"station_id":"ce4bhs12rcd13ifvqhvg","pricing_plan_id":"cebpf4jnsgd1na2vs0mg"},{"bike_id":"07536ba5-876a-4026-8c3c-25801e1880f0","system_id":"levelo_inurba_marseille","lat":43.29076,"lon":5.37169,"is_reserved":false,"is_disabled":false,"rental_uris":{"android":"levelo://app?vid=07536ba5-876a-4026-8c3c-25801e1880f0","ios":"levelo://app?vid=07536ba5-876a-4026-8c3c-25801e1880f0"},"vehicle_type_id":"4","last_reported":1740388253,"current_range_meters":21600,"station_id":"ce4bh5p2rcd13ifvqe4g","pricing_plan_id":"cebpf4jnsgd1na2vs0mg"},{"bike_id":"631281c3-a72e-4262-9afc-6df4191f2a24","system_id":"levelo_inurba_marseille","lat":43.29934,"lon":5.36546,"is_reserved":false,"is_disabled":false,"rental_uris":{"android":"levelo://app?vid=631281c3-a72e-4262-9afc-6df4191f2a24","ios":"levelo://app?vid=631281c3-a72e-4262-9afc-6df4191f2a24"},"vehicle_type_id":"4","last_reported":1740388253,"current_range_meters":22400,"station_id":"ce4bgm92rcd13ifvqbr0","pricing_plan_id":"cebpf4jnsgd1na2vs0mg"},{"bike_id":"c8d64bf6-083b-423a-bedb-0c5aa0d110a4","system_id":"levelo_inurba_marseille","lat":43.28706,"lon":5.39983,"is_reserved":false,"is_disabled":false,"rental_uris":{"android":"levelo://app?vid=c8d64bf6-083b-423a-bedb-0c5aa0d110a4","ios":"levelo://app?vid=c8d64bf6-083b-423a-bedb-0c5aa0d110a4"},"vehicle_type_id":"4","last_reported":1740388253,"current_range_meters":22400,"station_id":"ce4bho92rcd13ifvqh3g","pricing_plan_id":"cebpf4jnsgd1na2vs0mg"},{"bike_id":"a5439f94-a94b-472a-8212-9c3f3cd98f91","system_id":"levelo_inurba_marseille","lat":43.25928,"lon":5.40905,"is_reserved":false,"is_disabled":false,"rental_uris":{"android":"levelo://app?vid=a5439f94-a94b-472a-8212-9c3f3cd98f91","ios":"levelo://app?vid=a5439f94-a94b-472a-8212-9c3f3cd98f91"},"vehicle_type_id":"4","last_reported":1740388253,"current_range_meters":22400,"station_id":"ce4bhm92rcd13ifvqglg","pricing_plan_id":"cebpf4jnsgd1na2vs0mg"},{"bike_id":"ef843b20-55e6-429e-b3dd-9a12c9639951","system_id":"levelo_inurba_marseille","lat":43.29192,"lon":5.39319,"is_reserved":false,"is_disabled":false,"rental_uris":{"android":"levelo://app?vid=ef843b20-55e6-429e-b3dd-9a12c9639951","ios":"levelo://app?vid=ef843b20-55e6-429e-b3dd-9a12c9639951"},"vehicle_type_id":"4","last_reported":1740388253,"current_range_meters":22400,"station_id":"ce4bh192rcd13ifvqdd0","pricing_plan_id":"cebpf4jnsgd1na2vs0mg"},{"bike_id":"f06e30a9-cb21-4e55-b05d-623bd0115fba","system_id":"levelo_inurba_marseille","lat":43.26959,"lon":5.38633,"is_reserved":false,"is_disabled":false,"rental_uris":{"android":"levelo://app?vid=f06e30a9-cb21-4e55-b05d-623bd0115fba","ios":"levelo://app?vid=f06e30a9-cb21-4e55-b05d-623bd0115fba"},"vehicle_type_id":"4","last_reported":1740388253,"current_range_meters":22400,"station_id":"ce4bhh92rcd13ifvqfh0","pricing_plan_id":"cebpf4jnsgd1na2vs0mg"},{"bike_id":"236a2c8a-00d4-402b-bc71-1b0bb81f1a81","system_id":"levelo_inurba_marseille","lat":43.29876,"lon":5.36267,"is_reserved":false,"is_disabled":false,"rental_uris":{"android":"levelo://app?vid=236a2c8a-00d4-402b-bc71-1b0bb81f1a81","ios":"levelo://app?vid=236a2c8a-00d4-402b-bc71-1b0bb81f1a81"},"vehicle_type_id":"4","last_reported":1740388253,"current_range_meters":22400,"station_id":"ce4bgpp2rcd13ifvqc3g","pricing_plan_id":"cebpf4jnsgd1na2vs0mg"},{"bike_id":"beda2979-82c3-4883-8a8f-6bcdca9bb092","system_id":"levelo_inurba_marseille","lat":43.30439,"lon":5.38883,"is_reserved":false,"is_disabled":false,"rental_uris":{"android":"levelo://app?vid=beda2979-82c3-4883-8a8f-6bcdca9bb092","ios":"levelo://app?vid=beda2979-82c3-4883-8a8f-6bcdca9bb092"},"vehicle_type_id":"4","last_reported":1740388253,"current_range_meters":22400,"station_id":"ce4bgk12rcd13ifvqbi0","pricing_plan_id":"cebpf4jnsgd1na2vs0mg"},{"bike_id":"7d7a36c6-d2eb-49ab-b48a-eba7e73fbdfc","system_id":"levelo_inurba_marseille","lat":43.33623,"lon":5.41039,"is_reserved":false,"is_disabled":true,"rental_uris":{"android":"levelo://app?vid=7d7a36c6-d2eb-49ab-b48a-eba7e73fbdfc","ios":"levelo://app?vid=7d7a36c6-d2eb-49ab-b48a-eba7e73fbdfc"},"vehicle_type_id":"4","last_reported":1740388253,"current_range_meters":22400,"station_id":"ce4bhqh2rcd13ifvqhmg","pricing_plan_id":"cebpf4jnsgd1na2vs0mg"},{"bike_id":"8f0e6e61-548a-41cb-aa44-b18daed0fe0e","system_id":"levelo_inurba_marseille","lat":43.28451,"lon":5.35911,"is_reserved":false,"is_disabled":true,"rental_uris":{"android":"levelo://app?vid=8f0e6e61-548a-41cb-aa44-b18daed0fe0e","ios":"levelo://app?vid=8f0e6e61-548a-41cb-aa44-b18daed0fe0e"},"vehicle_type_id":"4","last_reported":1740388253,"current_range_meters":22400,"station_id":"ce4bhah2rcd13ifvqei0","pricing_plan_id":"cebpf4jnsgd1na2vs0mg"},