{"last_updated":1728508093,"ttl":60,"version":"2.2","data":{"bikes":[{"bike_id":"b53f77ab-ba1c-4ba1-af64-411b74248eb8","system_id":"levelo_inurba_marseille","lat":43.32819,"lon":5.38887,"is_reserved":false,"is_disabled":false,"rental_uris":{"android":"levelo://app?vid=b53f77ab-ba1c-4ba1-af64-411b74248eb8","ios":"levelo://app?vid=b53f77ab-ba1c-4ba1-af64-411b74248eb8"},"vehicle_type_id":"4","last_reported":1728508093,"current_range_meters":5600,"station_id":"","pricing_plan_id":"cebpf4jnsgd1na2vs0mg"},{"bike_id":"a2bd2ac2-8d7c-42bc-81dd-ba46339fb444","system_id":"levelo_inurba_marseille","lat":43.28455,"lon":5.35874,"is_reserved":false,"is_disabled":false,"rental_uris":{"android":"levelo://app?vid=a2bd2ac2-8d7c-42bc-81dd-ba46339fb444","ios":"levelo://app?vid=a2bd2ac2-8d7c-42bc-81dd-ba46339fb444"},"vehicle_type_id":"4","last_reported":1728508093,"current_range_meters":33600,"station_id":"ce4bhah2rcd13ifvqei0","pricing_plan_id":"cebpf4jnsgd1na2vs0mg"},{"bike_id":"fee2ea35-ed27-4505-8f23-2cced28f1db0","system_id":"levelo_inurba_marseille","lat":43.25106,"lon":5.40329,"is_reserved":false,"is_disabled":false,"rental_uris":{"android":"levelo://app?vid=fee2ea35-ed27-4505-8f23-2cced28f1db0","ios":"levelo://app?vid=fee2ea35-ed27-4505-8f23-2cced28f1db0"},"vehicle_type_id":"4","last_reported":1728508093,"current_range_meters":20400,"station_id":"ce4bhlh2rcd13ifvqgig","pricing_plan_id":"cebpf4jnsgd1na2vs0mg"},{"bike_id":"175d0b37-1f62-4442-b865-8d6671b50282","system_id":"levelo_inurba_marseille","lat":43.25112,"lon":5.40311,"is_reserved":false,"is_disabled":false,"rental_uris":{"android":"levelo://app?vid=175d0b37-1f62-4442-b865-8d6671b50282","ios":"levelo://app?vid=175d0b37-1f62-4442-b865-8d6671b50282"},"vehicle_type_id":"4","last_reported":1728508093,"current_range_meters":27600,"station_id":"ce4bhlh2rcd13ifvqgig","pricing_plan_id":"cebpf4jnsgd1na2vs0mg"},{"bike_id":"2b9de801-4944-4b89-ac1e-d0606188b06a","system_id":"levelo_inurba_marseille","lat":43.32196,"lon":5.39212,"is_reserved":false,"is_disabled":false,"rental_uris":{"android":"levelo://app?vid=2b9de801-4944-4b89-ac1e-d0606188b06a","ios":"levelo://app?vid=2b9de801-4944-4b89-ac1e-d0606188b06a"},"vehicle_type_id":"4","last_reported":1728508093,"current_range_meters":29600,"station_id":"","pricing_plan_id":"cebpf4jnsgd1na2vs0mg"},{"bike_id":"6b8918a4-396b-43e5-9a7f-f056357bf660","system_id":"levelo_inurba_marseille","lat":43.23071,"lon":5.35485,"is_reserved":false,"is_disabled":false,"rental_uris":{"android":"levelo://app?vid=6b8918a4-396b-43e5-9a7f-f056357bf660","ios":"levelo://app?vid=6b8918a4-396b-43e5-9a7f-f056357bf660"},"vehicle_type_id":"4","last_reported":1728508093,"current_range_meters":7200,"station_id":"cpo3342slgdg3j2ifvpg","pricing_plan_id":"cebpf4jnsgd1na2vs0mg"},{"bike_id":"bd4ad83f-13a0-4c66-aacd-776103491349","system_id":"levelo_inurba_marseille","lat":43.313349,"lon":5.396862,"is_reserved":false,"is_disabled":false,"rental_uris":{"android":"levelo://app?vid=bd4ad83f-13a0-4c66-aacd-776103491349","ios":"levelo://app?vid=bd4ad83f-13a0-4c66-aacd-776103491349"},"vehicle_type_id":"4","last_reported":1728508093,"current_range_meters":38800,"station_id":"ce4bgvp2rcd13ifvqcu0","pricing_plan_id":"cebpf4jnsgd1na2vs0mg"},{"bike_id":"68abd3f4-ea69-49e2-bd08-d04468479980","system_id":"levelo_inurba_marseille","lat":43.31712,"lon":5.43697,"is_reserved":false,"is_disabled":false,"rental_uris":{"android":"levelo://app?vid=68abd3f4-ea69-49e2-bd08-d04468479980","ios":"levelo://app?vid=68abd3f4-ea69-49e2-bd08-d04468479980"},"vehicle_type_id":"4","last_reported":1728508093,"current_range_meters":38800,"station_id":"ce4bhp92rcd13ifvqhcg","pricing_plan_id":"cebpf4jnsgd1na2vs0mg"},{"bike_id":"77e290a6-a562-4dc9-937e-5dbc03e2c369","system_id":"levelo_inurba_marseille","lat":43.29966,"lon":5.41327,"is_reserved":false,"is_disabled":false,"rental_uris":{"android":"levelo://app?vid=77e290a6-a562-4dc9-937e-5dbc03e2c369","ios":"levelo://app?vid=77e290a6-a562-4dc9-937e-5dbc03e2c369"},"vehicle_type_id":"4","last_reported":1728508093,"current_range_meters":18800,"station_id":"ce4bhp12rcd13ifvqh9g","pricing_plan_id":"cebpf4jnsgd1na2vs0mg"},{"bike_id":"7617cfa0-a14e-4e61-abf9-717bfe4566d5","system_id":"levelo_inurba_marseille","lat":43.30934,"lon":5.40151,"is_reserved":false,"is_disabled":false,"rental_uris":{"android":"levelo://app?vid=7617cfa0-a14e-4e61-abf9-717bfe4566d5","ios":"levelo://app?vid=7617cfa0-a14e-4e61-abf9-717bfe4566d5"},"vehicle_type_id":"4","last_reported":1728508093,"current_range_meters":22400,"station_id":"ce4bgvp2rcd13ifvqct0","pricing_plan_id":"cebpf4jnsgd1na2vs0mg"},{"bike_id":"181bc3f9-5dc1-41fb-9475-9d82bd0181a4","system_id":"levelo_inurba_marseille","lat":43.28465,"lon":5.35888,"is_reserved":false,"is_disabled":false,"rental_uris":{"android":"levelo://app?vid=181bc3f9-5dc1-41fb-9475-9d82bd0181a4","ios":"levelo://app?vid=181bc3f9-5dc1-41fb-9475-9d82bd0181a4"},"vehicle_type_id":"4","last_reported":1728508093,"current_range_meters":27600,"station_id":"ce4bhah2rcd13ifvqei0","pricing_plan_id":"cebpf4jnsgd1na2vs0mg"},{"bike_id":"353b874a-044e-489e-9db7-6741179c3308","system_id":"levelo_inurba_marseille","lat":43.29435,"lon":5.3975,"is_reserved":false,"is_disabled":false,"rental_uris":{"android":"levelo://app?vid=353b874a-044e-489e-9db7-6741179c3308","ios":"levelo://app?vid=353b874a-044e-489e-9db7-6741179c3308"},"vehicle_type_id":"4","last_reported":1728508093,"current_range_meters":35200,"station_id":"ce4bh3h2rcd13ifvqdo0","pricing_plan_id":"cebpf4jnsgd1na2vs0mg"},{"bike_id":"10adf6ac-8a26-424b-bce6-67370c8dfb5b","system_id":"levelo_inurba_marseille","lat":43.32002,"lon":5.38152,"is_reserved":false,"is_disabled":false,"rental_uris":{"android":"levelo://app?vid=10adf6ac-8a26-424b-bce6-67370c8dfb5b","ios":"levelo://app?vid=10adf6ac-8a26-424b-bce6-67370c8dfb5b"},"vehicle_type_id":"4","last_reported":1728508093,"current_range_meters":33200,"station_id":"ce4bhr12rcd13ifvqhpg","pricing_plan_id":"cebpf4jnsgd1na2vs0mg"},{"bike_id":"ab14fd6b-7ac0-4c4e-98cb-dd24c0559b1f","system_id":"levelo_inurba_marseille","lat":43.30184,"lon":5.36614,"is_reserved":false,"is_disabled":false,"rental_uris":{"android":"levelo://app?vid=ab14fd6b-7ac0-4c4e-98cb-dd24c0559b1f","ios":"levelo://app?vid=ab14fd6b-7ac0-4c4e-98cb-dd24c0559b1f"},"vehicle_type_id":"4","last_reported":1728508093,"current_range_meters":12400,"station_id":"ce4bgrh2rcd13ifvqc8g","pricing_plan_id":"cebpf4jnsgd1na2vs0mg"},{"bike_id":"76ec85ce-c9ca-4dc4-abf7-5ce9bc6d1130","system_id":"levelo_inurba_marseille","lat":43.24076,"lon":5.37762,"is_reserved":false,"is_disabled":false,"rental_uris":{"android":"levelo://app?vid=76ec85ce-c9ca-4dc4-abf7-5ce9bc6d1130","ios":"levelo://app?vid=76ec85ce-c9ca-4dc4-abf7-5ce9bc6d1130"},"vehicle_type_id":"4","last_reported":1728508093,"current_range_meters":4800,"station_id":"ce4bhnp2rcd13ifvqgvg","pricing_plan_id":"cebpf4jnsgd1na2vs0mg"},{"bike_id":"f74e6377-c0b5-4e10-8194-fc4616df6b74","system_id":"levelo_inurba_marseille","lat":43.24553,"lon":5.39522,"is_reserved":false,"is_disabled":false,"rental_uris":{"android":"levelo://app?vid=f74e6377-c0b5-4e10-8194-fc4616df6b74","ios":"levelo://app?vid=f74e6377-c0b5-4e10-8194-fc4616df6b74"},"vehicle_type_id":"4","last_reported":1728508093,"current_range_meters":38800,"station_id":"ce4bhlp2rcd13ifvqgjg","pricing_plan_id":"cebpf4jnsgd1na2vs0mg"},{"bike_id":"64c9abdc-a744-4b43-9856-a64e8ee5db15","system_id":"levelo_inurba_marseille","lat":43.23063,"lon":5.35496,"is_reserved":false,"is_disabled":false,"rental_uris":{"android":"levelo://app?vid=64c9abdc-a744-4b43-9856-a64e8ee5db15","ios":"levelo://app?vid=64c9abdc-a744-4b43-9856-a64e8ee5db15"},"vehicle_type_id":"4","last_reported":1728508093,"current_range_meters":36800,"station_id":"cpo3342slgdg3j2ifvpg","pricing_plan_id":"cebpf4jnsgd1na2vs0mg"},{"bike_id":"cdc54f35-60ba-419d-9cd7-57190d56bf8c","system_id":"levelo_inurba_marseille","lat":43.28152,"lon":5.42649,"is_reserved":false,"is_disabled":false,"rental_uris":{"android":"levelo://app?vid=cdc54f35-60ba-419d-9cd7-57190d56bf8c","ios":"levelo://app?vid=cdc54f35-60ba-419d-9cd7-57190d56bf8c"},"vehicle_type_id":"4","last_reported":1728508093,"current_range_meters":8800,"station_id":"ce4bhnh2rcd13ifvqgug","pricing_plan_id":"cebpf4jnsgd1na2vs0mg"},{"bike_id":"f6b27bed-618d-42ed-99d0-10a218b8b9e8","system_id":"levelo_inurba_marseille","lat":43.26191,"lon":5.37451,"is_reserved":false,"is_disabled":false,"rental_uris":{"android":"levelo://app?vid=f6b27bed-618d-42ed-99d0-10a218b8b9e8","ios":"levelo://app?vid=f6b27bed-618d-42ed-99d0-10a218b8b9e8"},"vehicle_type_id":"4","last_reported":1728508093,"current_range_meters":26000,"station_id":"ce4bhgp2rcd13ifvqfc0","pricing_plan_id":"cebpf4jnsgd1na2vs0mg"},{"bike_id":"bb95532b-17bc-482b-ab15-99455c538354","system_id":"levelo_inurba_marseille","lat":43.24187,"lon":5.39723,"is_reserved":false,"is_disabled":false,"rental_uris":{"android":"levelo://app?vid=bb95532b-17bc-482b-ab15-99455c538354","ios":"levelo://app?vid=bb95532b-17bc-482b-ab15-99455c538354"},"vehicle_type_id":"4","last_reported":1728508093,"current_range_meters":38800,"station_id":"ce4bhn12rcd13ifvqgpg","pricing_plan_id":"cebpf4jnsgd1na2vs0mg"},{"bike_id":"43c10ca3-e12b-4b0d-b419-b6cff13add44","system_id":"levelo_inurba_marseille","lat":43.29528,"lon":5.39399,"is_reserved":false,"is_disabled":false,"rental_uris":{"android":"levelo://app?vid=43c10ca3-e12b-4b0d-b419-b6cff13add44","ios":"levelo://app?vid=43c10ca3-e12b-4b0d-b419-b6cff13add44"},"vehicle_type_id":"4","last_reported":1728508093,"current_range_meters":38800,"station_id":"ce4bh292rcd13ifvqdf0","pricing_plan_id":"cebpf4jnsgd1na2vs0mg"},{"bike_id":"c63e83de-f5b0-4819-8f01-392a7912c20e","system_id":"levelo_inurba_marseille","lat":43.2573,"lon":5.41112,"is_reserved":false,"is_disabled":false,"rental_uris":{"android":"levelo://app?vid=c63e83de-f5b0-4819-8f01-392a7912c20e","ios":"levelo://app?vid=c63e83de-f5b0-4819-8f01-392a7912c20e"},"vehicle_type_id":"4","last_reported":1728508093,"current_range_meters":7200,"station_id":"ce4bhkp2rcd13ifvqgd0","pricing_plan_id":"cebpf4jnsgd1na2vs0mg"},{"bike_id":"f9c8d37c-c7e8-4995-8bc0-103dddee1b54","system_id":"levelo_inurba_marseille","lat":43.28492,"lon":5.38564,"is_reserved":false,"is_disabled":false,"rental_uris":{"android":"levelo://app?vid=f9c8d37c-c7e8-4995-8bc0-103dddee1b54","ios":"levelo://app?vid=f9c8d37c-c7e8-4995-8bc0-103dddee1b54"},"vehicle_type_id":"4","last_reported":1728508093,"current_range_meters":18800,"station_id":"ce4bh8p2rcd13ifvqeb0","pricing_plan_id":"cebpf4jnsgd1na2vs0mg"},{"bike_id":"f938f965-cdc0-4b98-a6d0-3a61f15e582a","system_id":"levelo_inurba_marseille","lat":43.27496,"lon":5.42446,"is_reserved":false,"is_disabled":false,"rental_uris":{"android":"levelo://app?vid=f938f965-cdc0-4b98-a6d0-3a61f15e582a","ios":"levelo://app?vid=f938f965-cdc0-4b98-a6d0-3a61f15e582a"},"vehicle_type_id":"4","last_reported":1728508093,"current_range_meters":38800,"station_id":"ce4bhn92rcd13ifvqgrg","pricing_plan_id":"cebpf4jnsgd1na2vs0mg"},{"bike_id":"058ef1ff-5858-4a6d-965f-98aeb9455f88","system_id":"levelo_inurba_marseille","lat":43.31753,"lon":5.39024,"is_reserved":false,"is_disabled":false,"rental_uris":{"android":"levelo://app?vid=058ef1ff-5858-4a6d-965f-98aeb9455f88","ios":"levelo://app?vid=058ef1ff-5858-4a6d-965f-98aeb9455f88"},"vehicle_type_id":"4","last_reported":1728508093,"current_range_meters":36400,"station_id":"ce4bhqp2rcd13ifvqhng","pricing_plan_id":"cebpf4jnsgd1na2vs0mg"},{"bike_id":"96a4c2d4-3924-4e15-9199-55d0360793e1","system_id":"levelo_inurba_marseille","lat":43.28163,"lon":5.42633,"is_reserved":false,"is_disabled":false,"rental_uris":{"android":"levelo://app?vid=96a4c2d4-3924-4e15-9199-55d0360793e1","ios":"levelo://app?vid=96a4c2d4-3924-4e15-9199-55d0360793e1"},"vehicle_type_id":"4","last_reported":1728508093,"current_range_meters":38800,"station_id":"ce4bhnh2rcd13ifvqgug","pricing_plan_id":"cebpf4jnsgd1na2vs0mg"},{"bike_id":"a64979e6-0053-4861-81e5-3c931f348c4c","system_id":"levelo_inurba_marseille","lat":43.32368,"lon":5.38879,"is_reserved":false,"is_disabled":false,"rental_uris":{"android":"levelo://app?vid=a64979e6-0053-4861-81e5-3c931f348c4c","ios":"levelo://app?vid=a64979e6-0053-4861-81e5-3c931f348c4c"},"vehicle_type_id":"4","last_reported":1728508093,"current_range_meters":10000,"station_id":"ce4bhqp2rcd13ifvqhog","pricing_plan_id":"cebpf4jnsgd1na2vs0mg"},{"bike_id":"b733a883-51df-477b-b70f-a3ed4921fe98","system_id":"levelo_inurba_marseille","lat":43.30873,"lon":5.39634,"is_reserved":false,"is_disabled":false,"rental_uris":{"android":"levelo://app?vid=b733a883-51df-477b-b70f-a3ed4921fe98","ios":"levelo://app?vid=b733a883-51df-477b-b70f-a3ed4921fe98"},"vehicle_type_id":"4","last_reported":1728508093,"current_range_meters":38800,"station_id":"ce4bh012rcd13ifvqcv0","pricing_plan_id":"cebpf4jnsgd1na2vs0mg"},{"bike_id":"f8a162ab-4b66-4bc7-8984-b44abdaf2e30","system_id":"levelo_inurba_marseille","lat":43.24648,"lon":5.38895,"is_reserved":false,"is_disabled":false,"rental_uris":{"android":"levelo://app?vid=f8a162ab-4b66-4bc7-8984-b44abdaf2e30","ios":"levelo://app?vid=f8a162ab-4b66-4bc7-8984-b44abdaf2e30"},"vehicle_type_id":"4","last_reported":1728508093,"current_range_meters":31200,"station_id":"ce4bhg12rcd13ifvqf60","pricing_plan_id":"cebpf4jnsgd1na2vs0mg"},{"bike_id":"0fc1ebfe-0ef8-4da4-9f7b-9fc488cf19bc","system_id":"levelo_inurba_marseille","lat":43.23189,"lon":5.39986,"is_reserved":false,"is_disabled":false,"rental_uris":{"android":"levelo://app?vid=0fc1ebfe-0ef8-4da4-9f7b-9fc488cf19bc","ios":"levelo://app?vid=0fc1ebfe-0ef8-4da4-9f7b-9fc488cf19bc"},"vehicle_type_id":"4","last_reported":1728508093,"current_range_meters":37600,"station_id":"ce4bhn12rcd13ifvqgqg","pricing_plan_id":"cebpf4jnsgd1na2vs0mg"},{"bike_id":"59a20882-e884-470e-b111-32ed424e7cc3","system_id":"levelo_inurba_marseille","lat":43.33727,"lon":5.39189,"is_reserved":false,"is_disabled":false,"rental_uris":{"android":"levelo://app?vid=59a20882-e884-470e-b111-32ed424e7cc3","ios":"levelo://app?vid=59a20882-e884-470e-b111-32ed424e7cc3"},"vehicle_type_id":"4","last_reported":1728508093,"current_range_meters":28800,"station_id":"ce4bhr92rcd13ifvqhsg","pricing_plan_id":"cebpf4jnsgd1na2vs0mg"},{"bike_id":"77b3f5e8-965b-4f90-a251-15770684e21b","system_id":"levelo_inurba_marseille","lat":43.24185,"lon":5.39721,"is_reserved":false,"is_disabled":false,"rental_uris":{"android":"levelo://app?vid=77b3f5e8-965b-4f90-a251-15770684e21b","ios":"levelo://app?vid=77b3f5e8-965b-4f90-a251-15770684e21b"},"vehicle_type_id":"4","last_reported":1728508093,"current_range_meters":38800,"station_id":"ce4bhn12rcd13ifvqgpg","pricing_plan_id":"cebpf4jnsgd1na2vs0mg"},{"bike_id":"72078f29-e154-4c5b-836a-c7e362ba1f09","system_id":"levelo_inurba_marseille","lat":43.33757,"lon":5.37468,"is_reserved":false,"is_disabled":false,"rental_uris":{"android":"levelo://app?vid=72078f29-e154-4c5b-836a-c7e362ba1f09","ios":"levelo://app?vid=72078f29-e154-4c5b-836a-c7e362ba1f09"},"vehicle_type_id":"4","last_reported":1728508093,"current_range_meters":10800,"station_id":"ce4rr2p2rcd13i802rgg","pricing_plan_id":"cebpf4jnsgd1na2vs0mg"},{"bike_id":"7d7ab187-9965-49a4-bf26-b6ade39671fc","system_id":"levelo_inurba_marseille","lat":43.23196,"lon":5.35552,"is_reserved":false,"is_disabled":false,"rental_uris":{"android":"levelo://app?vid=7d7ab187-9965-49a4-bf26-b6ade39671fc","ios":"levelo://app?vid=7d7ab187-9965-49a4-bf26-b6ade39671fc"},"vehicle_type_id":"4","last_reported":1728508093,"current_range_meters":23200,"station_id":"ce4bhu92rcd13ifvqi70","pricing_plan_id":"cebpf4jnsgd1na2vs0mg"},{"bike_id":"d51f0193-0dff-4957-8877-479daabe2300","system_id":"levelo_inurba_marseille","lat":43.337444,"lon":5.374475,"is_reserved":false,"is_disabled":false,"rental_uris":{"android":"levelo://app?vid=d51f0193-0dff-4957-8877-479daabe2300","ios":"levelo://app?vid=d51f0193-0dff-4957-8877-479daabe2300"},"vehicle_type_id":"4","last_reported":1728508093,"current_range_meters":36400,"station_id":"ce4rr2p2rcd13i802rgg","pricing_plan_id":"cebpf4jnsgd1na2vs0mg"},{"bike_id":"d80ef411-61a4-4a95-b327-9b2b1771f4a3","system_id":"levelo_inurba_marseille","lat":43.33608,"lon":5.41023,"is_reserved":false,"is_disabled":false,"rental_uris":{"android":"levelo://app?vid=d80ef411-61a4-4a95-b327-9b2b1771f4a3","ios":"levelo://app?vid=d80ef411-61a4-4a95-b327-9b2b1771f4a3"},"vehicle_type_id":"4","last_reported":1728508093,"current_range_meters":10000,"station_id":"ce4bhqh2rcd13ifvqhmg","pricing_plan_id":"cebpf4jnsgd1na2vs0mg"},{"bike_id":"296004e0-5751-4935-8069-bb51f866a7db","system_id":"levelo_inurba_marseille","lat":43.23188,"lon":5.39984,"is_reserved":false,"is_disabled":false,"rental_uris":{"android":"levelo://app?vid=296004e0-5751-4935-8069-bb51f866a7db","ios":"levelo://app?vid=296004e0-5751-4935-8069-bb51f866a7db"},"vehicle_type_id":"4","last_reported":1728508093,"current_range_meters":38800,"station_id":"ce4bhn12rcd13ifvqgqg","pricing_plan_id":"cebpf4jnsgd1na2vs0mg"},{"bike_id":"bd0feaab-3ea1-4388-ac8e-ed1008efa279","system_id":"levelo_inurba_marseille","lat":43.30891,"lon":5.39632,"is_reserved":false,"is_disabled":false,"rental_uris":{"android":"levelo://app?vid=bd0feaab-3ea1-4388-ac8e-ed1008efa279","ios":"levelo://app?vid=bd0feaab-3ea1-4388-ac8e-ed1008efa279"},"vehicle_type_id":"4","last_reported":1728508093,"current_range_meters":38800,"station_id":"ce4bh012rcd13ifvqcv0","pricing_plan_id":"cebpf4jnsgd1na2vs0mg"},{"bike_id":"e5079a8b-46a0-4ba7-9792-46181fa72feb","system_id":"levelo_inurba_marseille","lat":43.308974,"lon":5.396704,"is_reserved":false,"is_disabled":false,"rental_uris":{"android":"levelo://app?vid=e5079a8b-46a0-4ba7-9792-46181fa72feb","ios":"levelo://app?vid=e5079a8b-46a0-4ba7-9792-46181fa72feb"},"vehicle_type_id":"4","last_reported":1728508093,"current_range_meters":38800,"station_id":"ce4bh012rcd13ifvqcv0","pricing_plan_id":"cebpf4jnsgd1na2vs0mg"},{"bike_id":"b149bf8c-24ec-415d-b234-f0b11661de68","system_id":"levelo_inurba_marseille","lat":43.25084,"lon":5.39516,"is_reserved":false,"is_disabled":false,"rental_uris":{"android":"levelo://app?vid=b149bf8c-24ec-415d-b234-f0b11661de68","ios":"levelo://app?vid=b149bf8c-24ec-415d-b234-f0b11661de68"},"vehicle_type_id":"4","last_reported":1728508093,"current_range_meters":36000,"station_id":"ce4bhm12rcd13ifvqgkg","pricing_plan_id":"cebpf4jnsgd1na2vs0mg"},{"bike_id":"2f431856-ad2e-4b18-ad45-3aac3048766e","system_id":"levelo_inurba_marseille","lat":43.306628,"lon":5.400689,"is_reserved":false,"is_disabled":false,"rental_uris":{"android":"levelo://app?vid=2f431856-ad2e-4b18-ad45-3aac3048766e","ios":"levelo://app?vid=2f431856-ad2e-4b18-ad45-3aac3048766e"},"vehicle_type_id":"4","last_reported":1728508093,"current_range_meters":16000,"station_id":"ce4bh112rcd13ifvqda0","pricing_plan_id":"cebpf4jnsgd1na2vs0mg"},{"bike_id":"7c2b63de-592a-48ee-b00e-91959c3e4291","system_id":"levelo_inurba_marseille","lat":43.2987,"lon":5.39732,"is_reserved":false,"is_disabled":false,"rental_uris":{"android":"levelo://app?vid=7c2b63de-592a-48ee-b00e-91959c3e4291","ios":"levelo://app?vid=7c2b63de-592a-48ee-b00e-91959c3e4291"},"vehicle_type_id":"4","last_reported":1728508093,"current_range_meters":29600,"station_id":"ce4bh0h2rcd13ifvqd50","pricing_plan_id":"cebpf4jnsgd1na2vs0mg"},{"bike_id":"1a9a3cc6-2502-4c80-8b31-7bb36d7cba31","system_id":"levelo_inurba_marseille","lat":43.22935,"lon":5.35376,"is_reserved":false,"is_disabled":false,"rental_uris":{"android":"levelo://app?vid=1a9a3cc6-2502-4c80-8b31-7bb36d7cba31","ios":"levelo://app?vid=1a9a3cc6-2502-4c80-8b31-7bb36d7cba31"},"vehicle_type_id":"4","last_reported":1728508093,"current_range_meters":38800,"station_id":"cpo3532slgdg3j2ikp40","pricing_plan_id":"cebpf4jnsgd1na2vs0mg"},{"bike_id":"3e9a8f0a-b5d4-482f-b18d-8ebe831ec98f","system_id":"levelo_inurba_marseille","lat":43.29053,"lon":5.38158,"is_reserved":false,"is_disabled":false,"rental_uris":{"android":"levelo://app?vid=3e9a8f0a-b5d4-482f-b18d-8ebe831ec98f","ios":"levelo://app?vid=3e9a8f0a-b5d4-482f-b18d-8ebe831ec98f"},"vehicle_type_id":"4","last_reported":1728508093,"current_range_meters":17600,"station_id":"ce4bh512rcd13ifvqe2g","pricing_plan_id":"cebpf4jnsgd1na2vs0mg"},{"bike_id":"42a75535-f3eb-42ef-b616-b8fbfba19386","system_id":"levelo_inurba_marseille","lat":43.28102,"lon":5.37844,"is_reserved":false,"is_disabled":false,"rental_uris":{"android":"levelo://app?vid=42a75535-f3eb-42ef-b616-b8fbfba19386","ios":"levelo://app?vid=42a75535-f3eb-42ef-b616-b8fbfba19386"},"vehicle_type_id":"4","last_reported":1728508093,"current_range_meters":24000,"station_id":"ce4bha12rcd13ifvqee0","pricing_plan_id":"cebpf4jnsgd1na2vs0mg"},{"bike_id":"14cc985f-c073-46c4-bce8-9e5e4ec92403","system_id":"levelo_inurba_marseille","lat":43.32345,"lon":5.40612,"is_reserved":false,"is_disabled":false,"rental_uris":{"android":"levelo://app?vid=14cc985f-c073-46c4-bce8-9e5e4ec92403","ios":"levelo://app?vid=14cc985f-c073-46c4-bce8-9e5e4ec92403"},"vehicle_type_id":"4","last_reported":1728508093,"current_range_meters":7200,"station_id":"ce4bhq92rcd13ifvqhjg","pricing_plan_id":"cebpf4jnsgd1na2vs0mg"},{"bike_id":"e7631295-85e2-4f64-a554-825b3479c0dc","system_id":"levelo_inurba_marseille","lat":43.2749,"lon":5.42452,"is_reserved":false,"is_disabled":false,"rental_uris":{"android":"levelo://app?vid=e7631295-85e2-4f64-a554-825b3479c0dc","ios":"levelo://app?vid=e7631295-85e2-4f64-a554-825b3479c0dc"},"vehicle_type_id":"4","last_reported":1728508093,"current_range_meters":38800,"station_id":"ce4bhn92rcd13ifvqgrg","pricing_plan_id":"cebpf4jnsgd1na2vs0mg"},{"bike_id":"b67aadfb-a933-4627-9a84-dc9c648f4126","system_id":"levelo_inurba_marseille","lat":43.29608,"lon":5.37729,"is_reserved":false,"is_disabled":false,"rental_uris":{"android":"levelo://app?vid=b67aadfb-a933-4627-9a84-dc9c648f4126","ios":"levelo://app?vid=b67aadfb-a933-4627-9a84-dc9c648f4126"},"vehicle_type_id":"4","last_reported":1728508093,"current_range_meters":0,"station_id":"ce4bgi92rcd13ifvqb90","pricing_plan_id":"cebpf4jnsgd1na2vs0mg"},{"bike_id":"b6686461-4b48-4eae-9ce8-8178b8df331b","system_id":"levelo_inurba_marseille","lat":43.24658,"lon":5.38159,"is_reserved":false,"is_disabled":false,"rental_uris":{"android":"levelo://app?vid=b6686461-4b48-4eae-9ce8-8178b8df331b","ios":"levelo://app?vid=b6686461-4b48-4eae-9ce8-8178b8df331b"},"vehicle_type_id":"4","last_reported":1728508093,"current_range_meters":38800,"station_id":"ce4bhih2rcd13ifvqfr0","pricing_plan_id":"cebpf4jnsgd1na2vs0mg"},{"bike_id":"033a89d0-f8aa-41d1-8f1d-92726e3deb9f","system_id":"levelo_inurba_marseille","lat":43.25733,"lon":5.41106,"is_reserved":false,"is_disabled":false,"rental_uris":{"android":"levelo://app?vid=033a89d0-f8aa-41d1-8f1d-92726e3deb9f","ios":"levelo://app?vid=033a89d0-f8aa-41d1-8f1d-92726e3deb9f"},"vehicle_type_id":"4","last_reported":1728508093,"current_range_meters":6800,"station_id":"ce4bhkp2rcd13ifvqgd0","pricing_plan_id":"cebpf4jnsgd1na2vs0mg"},{"bike_id":"63b9cce1-f3d8-4655-b818-f5ae36bee504","system_id":"levelo_inurba_marseille","lat":43.286614,"lon":5.363565,"is_reserved":false,"is_disabled":false,"rental_uris":{"android":"levelo://app?vid=63b9cce1-f3d8-4655-b818-f5ae36bee504","ios":"levelo://app?vid=63b9cce1-f3d8-4655-b818-f5ae36bee504"},"vehicle_type_id":"4","last_reported":1728508093,"current_range_meters":39200,"station_id":"ce4bhah2rcd13ifvqej0","pricing_plan_id":"cebpf4jnsgd1na2vs0mg"},{"bike_id":"b161a9d1-43c8-479c-9276-9487d515c8ef","system_id":"levelo_inurba_marseille","lat":43.27968,"lon":5.38701,"is_reserved":false,"is_disabled":false,"rental_uris":{"android":"levelo://app?vid=b161a9d1-43c8-479c-9276-9487d515c8ef","ios":"levelo://app?vid=b161a9d1-43c8-479c-9276-9487d515c8ef"},"vehicle_type_id":"4","last_reported":1728508093,"current_range_meters":4000,"station_id":"ce4bhg12rcd13ifvqf80","pricing_plan_id":"cebpf4jnsgd1na2vs0mg"},{"bike_id":"dc45a7d7-2c7b-4e1c-b533-1d6d877ebbe3","system_id":"levelo_inurba_marseille","lat":43.32106,"lon":5.36781,"is_reserved":false,"is_disabled":false,"rental_uris":{"android":"levelo://app?vid=dc45a7d7-2c7b-4e1c-b533-1d6d877ebbe3","ios":"levelo://app?vid=dc45a7d7-2c7b-4e1c-b533-1d6d877ebbe3"},"vehicle_type_id":"4","last_reported":1728508093,"current_range_meters":38400,"station_id":"ce4bhrh2rcd13ifvqhug","pricing_plan_id":"cebpf4jnsgd1na2vs0mg"},{"bike_id":"97c98e27-9337-4b4a-ad7d-97e59c330dee","system_id":"levelo_inurba_marseille","lat":43.31332,"lon":5.39695,"is_reserved":false,"is_disabled":false,"rental_uris":{"android":"levelo://app?vid=97c98e27-9337-4b4a-ad7d-97e59c330dee","ios":"levelo://app?vid=97c98e27-9337-4b4a-ad7d-97e59c330dee"},"vehicle_type_id":"4","last_reported":1728508093,"current_range_meters":38800,"station_id":"ce4bgvp2rcd13ifvqcu0","pricing_plan_id":"cebpf4jnsgd1na2vs0mg"},{"bike_id":"e669a176-75bf-44a6-8328-91594476a2bb","system_id":"levelo_inurba_marseille","lat":43.29517,"lon":5.39407,"is_reserved":false,"is_disabled":false,"rental_uris":{"android":"levelo://app?vid=e669a176-75bf-44a6-8328-91594476a2bb","ios":"levelo://app?vid=e669a176-75bf-44a6-8328-91594476a2bb"},"vehicle_type_id":"4","last_reported":1728508093,"current_range_meters":38800,"station_id":"ce4bh292rcd13ifvqdf0","pricing_plan_id":"cebpf4jnsgd1na2vs0mg"},{"bike_id":"41be5fcf-9f4b-425f-8298-427ad3b70a16","system_id":"levelo_inurba_marseille","lat":43.32546,"lon":5.414469,"is_reserved":false,"is_disabled":false,"rental_uris":{"android":"levelo://app?vid=41be5fcf-9f4b-425f-8298-427ad3b70a16","ios":"levelo://app?vid=41be5fcf-9f4b-425f-8298-427ad3b70a16"},"vehicle_type_id":"4","last_reported":1728508093,"current_range_meters":37600,"station_id":"ce4bhq12rcd13ifvqhhg","pricing_plan_id":"cebpf4jnsgd1na2vs0mg"},{"bike_id":"f227e846-4f50-498d-b4d9-a0909876bde5","system_id":"levelo_inurba_marseille","lat":43.30195,"lon":5.36608,"is_reserved":false,"is_disabled":false,"rental_uris":{"android":"levelo://app?vid=f227e846-4f50-498d-b4d9-a0909876bde5","ios":"levelo://app?vid=f227e846-4f50-498d-b4d9-a0909876bde5"},"vehicle_type_id":"4","last_reported":1728508093,"current_range_meters":16000,"station_id":"ce4bgrh2rcd13ifvqc8g","pricing_plan_id":"cebpf4jnsgd1na2vs0mg"},{"bike_id":"83d5c4a7-73f3-451a-baad-d322ba4385ff","system_id":"levelo_inurba_marseille","lat":43.28099,"lon":5.37847,"is_reserved":false,"is_disabled":false,"rental_uris":{"android":"levelo://app?vid=83d5c4a7-73f3-451a-baad-d322ba4385ff","ios":"levelo://app?vid=83d5c4a7-73f3-451a-baad-d322ba4385ff"},"vehicle_type_id":"4","last_reported":1728508093,"current_range_meters":3600,"station_id":"ce4bha12rcd13ifvqee0","pricing_plan_id":"cebpf4jnsgd1na2vs0mg"},{"bike_id":"2c7d09f9-70d1-437c-a3c2-5fae377a8729","system_id":"levelo_inurba_marseille","lat":43.23972,"lon":5.36635,"is_reserved":false,"is_disabled":false,"rental_uris":{"android":"levelo://app?vid=2c7d09f9-70d1-437c-a3c2-5fae377a8729","ios":"levelo://app?vid=2c7d09f9-70d1-437c-a3c2-5fae377a8729"},"vehicle_type_id":"4","last_reported":1728508093,"current_range_meters":8800,"station_id":"ce4bhi12rcd13ifvqfp0","pricing_plan_id":"cebpf4jnsgd1na2vs0mg"},{"bike_id":"70955857-42bc-43d9-b6db-74a38cb7d254","system_id":"levelo_inurba_marseille","lat":43.25935,"lon":5.409,"is_reserved":false,"is_disabled":false,"rental_uris":{"android":"levelo://app?vid=70955857-42bc-43d9-b6db-74a38cb7d254","ios":"levelo://app?vid=70955857-42bc-43d9-b6db-74a38cb7d254"},"vehicle_type_id":"4","last_reported":1728508093,"current_range_meters":38800,"station_id":"ce4bhm92rcd13ifvqglg","pricing_plan_id":"cebpf4jnsgd1na2vs0mg"},{"bike_id":"4be201a3-d22e-4c46-937d-99f607eacfd8","system_id":"levelo_inurba_marseille","lat":43.29585,"lon":5.36753,"is_reserved":false,"is_disabled":false,"rental_uris":{"android":"levelo://app?vid=4be201a3-d22e-4c46-937d-99f607eacfd8","ios":"levelo://app?vid=4be201a3-d22e-4c46-937d-99f607eacfd8"},"vehicle_type_id":"4","last_reported":1728508093,"current_range_meters":32800,"station_id":"ce4bgph2rcd13ifvqc2g","pricing_plan_id":"cebpf4jnsgd1na2vs0mg"},{"bike_id":"8513be67-a978-4cfc-9563-19285ed6fe5a","system_id":"levelo_inurba_marseille","lat":43.23196,"lon":5.35544,"is_reserved":false,"is_disabled":false,"rental_uris":{"android":"levelo://app?vid=8513be67-a978-4cfc-9563-19285ed6fe5a","ios":"levelo://app?vid=8513be67-a978-4cfc-9563-19285ed6fe5a"},"vehicle_type_id":"4","last_reported":1728508093,"current_range_meters":10000,"station_id":"ce4bhu92rcd13ifvqi70","pricing_plan_id":"cebpf4jnsgd1na2vs0mg"},{"bike_id":"1197f692-639d-4fb0-ae7f-c285068db770","system_id":"levelo_inurba_marseille","lat":43.25093,"lon":5.39512,"is_reserved":false,"is_disabled":false,"rental_uris":{"android":"levelo://app?vid=1197f692-639d-4fb0-ae7f-c285068db770","ios":"levelo://app?vid=1197f692-639d-4fb0-ae7f-c285068db770"},"vehicle_type_id":"4","last_reported":1728508093,"current_range_meters":24800,"station_id":"ce4bhm12rcd13ifvqgkg","pricing_plan_id":"cebpf4jnsgd1na2vs0mg"},{"bike_id":"922252e8-02c2-4987-8eed-1d6d69073568","system_id":"levelo_inurba_marseille","lat":43.26689,"lon":5.38276,"is_reserved":false,"is_disabled":false,"rental_uris":{"android":"levelo://app?vid=922252e8-02c2-4987-8eed-1d6d69073568","ios":"levelo://app?vid=922252e8-02c2-4987-8eed-1d6d69073568"},"vehicle_type_id":"4","last_reported":1728508093,"current_range_meters":30000,"station_id":"ce4bhg92rcd13ifvqf90","pricing_plan_id":"cebpf4jnsgd1na2vs0mg"},{"bike_id":"79c051f6-fee1-42df-ae5f-985be50d40ed","system_id":"levelo_inurba_marseille","lat":43.23971,"lon":5.36621,"is_reserved":false,"is_disabled":false,"rental_uris":{"android":"levelo://app?vid=79c051f6-fee1-42df-ae5f-985be50d40ed","ios":"levelo://app?vid=79c051f6-fee1-42df-ae5f-985be50d40ed"},"vehicle_type_id":"4","last_reported":1728508093,"current_range_meters":6000,"station_id":"ce4bhi12rcd13ifvqfp0","pricing_plan_id":"cebpf4jnsgd1na2vs0mg"},{"bike_id":"372be48e-0fb3-4336-915a-4d35d755f146","system_id":"levelo_inurba_marseille","lat":43.23184,"lon":5.39988,"is_reserved":false,"is_disabled":false,"rental_uris":{"android":"levelo://app?vid=372be48e-0fb3-4336-915a-4d35d755f146","ios":"levelo://app?vid=372be48e-0fb3-4336-915a-4d35d755f146"},"vehicle_type_id":"4","last_reported":1728508093,"current_range_meters":38800,"station_id":"ce4bhn12rcd13ifvqgqg","pricing_plan_id":"cebpf4jnsgd1na2vs0mg"},{"bike_id":"20720041-cdbf-424d-a817-2fb7fa79581d","system_id":"levelo_inurba_marseille","lat":43.29053,"lon":5.40019,"is_reserved":false,"is_disabled":false,"rental_uris":{"android":"levelo://app?vid=20720041-cdbf-424d-a817-2fb7fa79581d","ios":"levelo://app?vid=20720041-cdbf-424d-a817-2fb7fa79581d"},"vehicle_type_id":"4","last_reported":1728508093,"current_range_meters":38000,"station_id":"ce4bh392rcd13ifvqdm0","pricing_plan_id":"cebpf4jnsgd1na2vs0mg"},{"bike_id":"eeca066b-6bac-4664-b05d-e7e6b3f91c1b","system_id":"levelo_inurba_marseille","lat":43.26901,"lon":5.38907,"is_reserved":false,"is_disabled":false,"rental_uris":{"android":"levelo://app?vid=eeca066b-6bac-4664-b05d-e7e6b3f91c1b","ios":"levelo://app?vid=eeca066b-6bac-4664-b05d-e7e6b3f91c1b"},"vehicle_type_id":"4","last_reported":1728508093,"current_range_meters":9600,"station_id":"ce4bgkh2rcd13ifvqbl0","pricing_plan_id":"cebpf4jnsgd1na2vs0mg"},{"bike_id":"f932501e-a4da-4648-9c1b-769ffdac52eb","system_id":"levelo_inurba_marseille","lat":43.2841,"lon":5.37501,"is_reserved":false,"is_disabled":false,"rental_uris":{"android":"levelo://app?vid=f932501e-a4da-4648-9c1b-769ffdac52eb","ios":"levelo://app?vid=f932501e-a4da-4648-9c1b-769ffdac52eb"},"vehicle_type_id":"4","last_reported":1728508093,"current_range_meters":16800,"station_id":"ce4bh412rcd13ifvqds0","pricing_plan_id":"cebpf4jnsgd1na2vs0mg"},{"bike_id":"7dd16f1e-1e61-4960-9469-4c92ce8b1209","system_id":"levelo_inurba_marseille","lat":43.28363,"lon":5.3864,"is_reserved":false,"is_disabled":false,"rental_uris":{"android":"levelo://app?vid=7dd16f1e-1e61-4960-9469-4c92ce8b1209","ios":"levelo://app?vid=7dd16f1e-1e61-4960-9469-4c92ce8b1209"},"vehicle_type_id":"4","last_reported":1728508093,"current_range_meters":17600,"station_id":"ce4bh492rcd13ifvqdvg","pricing_plan_id":"cebpf4jnsgd1na2vs0mg"},{"bike_id":"b6ab707f-16f9-4a99-b0c6-6d49d10dc066","system_id":"levelo_inurba_marseille","lat":43.29283,"lon":5.40135,"is_reserved":false,"is_disabled":false,"rental_uris":{"android":"levelo://app?vid=b6ab707f-16f9-4a99-b0c6-6d49d10dc066","ios":"levelo://app?vid=b6ab707f-16f9-4a99-b0c6-6d49d10dc066"},"vehicle_type_id":"4","last_reported":1728508093,"current_range_meters":39200,"station_id":"ce4bh312rcd13ifvqdk0","pricing_plan_id":"cebpf4jnsgd1na2vs0mg"},{"bike_id":"424ae5e4-2b9d-4ae9-9b45-f666499b549a","system_id":"levelo_inurba_marseille","lat":43.31533,"lon":5.38029,"is_reserved":false,"is_disabled":false,"rental_uris":{"android":"levelo://app?vid=424ae5e4-2b9d-4ae9-9b45-f666499b549a","ios":"levelo://app?vid=424ae5e4-2b9d-4ae9-9b45-f666499b549a"},"vehicle_type_id":"4","last_reported":1728508093,"current_range_meters":16400,"station_id":"ce4bhsp2rcd13ifvqi50","pricing_plan_id":"cebpf4jnsgd1na2vs0mg"},{"bike_id":"0a1adf47-9c44-4e77-b90b-e425aefb27d3","system_id":"levelo_inurba_marseille","lat":43.27178,"lon":5.40991,"is_reserved":false,"is_disabled":false,"rental_uris":{"android":"levelo://app?vid=0a1adf47-9c44-4e77-b90b-e425aefb27d3","ios":"levelo://app?vid=0a1adf47-9c44-4e77-b90b-e425aefb27d3"},"vehicle_type_id":"4","last_reported":1728508093,"current_range_meters":32800,"station_id":"ce4bhl12rcd13ifvqgf0","pricing_plan_id":"cebpf4jnsgd1na2vs0mg"},{"bike_id":"e62c538a-72cc-41f8-a540-bba9e16db417","system_id":"levelo_inurba_marseille","lat":43.29261,"lon":5.40903,"is_reserved":false,"is_disabled":false,"rental_uris":{"android":"levelo://app?vid=e62c538a-72cc-41f8-a540-bba9e16db417","ios":"levelo://app?vid=e62c538a-72cc-41f8-a540-bba9e16db417"},"vehicle_type_id":"4","last_reported":1728508093,"current_range_meters":27600,"station_id":"ce4bh192rcd13ifvqdc0","pricing_plan_id":"cebpf4jnsgd1na2vs0mg"},{"bike_id":"d38dd870-fb35-4ebe-8242-7b8d175eed8b","system_id":"levelo_inurba_marseille","lat":43.32337,"lon":5.40616,"is_reserved":false,"is_disabled":false,"rental_uris":{"android":"levelo://app?vid=d38dd870-fb35-4ebe-8242-7b8d175eed8b","ios":"levelo://app?vid=d38dd870-fb35-4ebe-8242-7b8d175eed8b"},"vehicle_type_id":"4","last_reported":1728508093,"current_range_meters":9600,"station_id":"ce4bhq92rcd13ifvqhjg","pricing_plan_id":"cebpf4jnsgd1na2vs0mg"},{"bike_id":"943ecad0-8760-43cd-9300-5881601fce33","system_id":"levelo_inurba_marseille","lat":43.25871,"lon":5.39895,"is_reserved":false,"is_disabled":false,"rental_uris":{"android":"levelo://app?vid=943ecad0-8760-43cd-9300-5881601fce33","ios":"levelo://app?vid=943ecad0-8760-43cd-9300-5881601fce33"},"vehicle_type_id":"4","last_reported":1728508093,"current_range_meters":8400,"station_id":"ce4bhl92rcd13ifvqghg","pricing_plan_id":"cebpf4jnsgd1na2vs0mg"},{"bike_id":"1707d01d-1d39-4ce7-b259-b95170fbb162","system_id":"levelo_inurba_marseille","lat":43.30884,"lon":5.3964,"is_reserved":false,"is_disabled":false,"rental_uris":{"android":"levelo://app?vid=1707d01d-1d39-4ce7-b259-b95170fbb162","ios":"levelo://app?vid=1707d01d-1d39-4ce7-b259-b95170fbb162"},"vehicle_type_id":"4","last_reported":1728508093,"current_range_meters":38800,"station_id":"ce4bh012rcd13ifvqcv0","pricing_plan_id":"cebpf4jnsgd1na2vs0mg"},{"bike_id":"7e912cba-052f-47e7-bfc0-b47e5b060ca8","system_id":"levelo_inurba_marseille","lat":43.29558,"lon":5.42272,"is_reserved":false,"is_disabled":false,"rental_uris":{"android":"levelo://app?vid=7e912cba-052f-47e7-bfc0-b47e5b060ca8","ios":"levelo://app?vid=7e912cba-052f-47e7-bfc0-b47e5b060ca8"},"vehicle_type_id":"4","last_reported":1728508093,"current_range_meters":37600,"station_id":"ce4bhph2rcd13ifvqhdg","pricing_plan_id":"cebpf4jnsgd1na2vs0mg"},{"bike_id":"2df730a7-89e5-413d-9bed-72b64744a6f2","system_id":"levelo_inurba_marseille","lat":43.22938,"lon":5.3537,"is_reserved":false,"is_disabled":false,"rental_uris":{"android":"levelo://app?vid=2df730a7-89e5-413d-9bed-72b64744a6f2","ios":"levelo://app?vid=2df730a7-89e5-413d-9bed-72b64744a6f2"},"vehicle_type_id":"4","last_reported":1728508093,"current_range_meters":38800,"station_id":"cpo3532slgdg3j2ikp40","pricing_plan_id":"cebpf4jnsgd1na2vs0mg"},{"bike_id":"74dea6e5-f1b2-476b-95da-8353d0ac07f5","system_id":"levelo_inurba_marseille","lat":43.22932,"lon":5.35376,"is_reserved":false,"is_disabled":false,"rental_uris":{"android":"levelo://app?vid=74dea6e5-f1b2-476b-95da-8353d0ac07f5","ios":"levelo://app?vid=74dea6e5-f1b2-476b-95da-8353d0ac07f5"},"vehicle_type_id":"4","last_reported":1728508093,"current_range_meters":38400,"station_id":"cpo3532slgdg3j2ikp40","pricing_plan_id":"cebpf4jnsgd1na2vs0mg"},{"bike_id":"a1fe1816-1e76-4cbd-926b-4f1fb96fff8f","system_id":"levelo_inurba_marseille","lat":43.27176,"lon":5.40996,"is_reserved":false,"is_disabled":false,"rental_uris":{"android":"levelo://app?vid=a1fe1816-1e76-4cbd-926b-4f1fb96fff8f","ios":"levelo://app?vid=a1fe1816-1e76-4cbd-926b-4f1fb96fff8f"},"vehicle_type_id":"4","last_reported":1728508093,"current_range_meters":38800,"station_id":"ce4bhl12rcd13ifvqgf0","pricing_plan_id":"cebpf4jnsgd1na2vs0mg"},{"bike_id":"a5aa6357-8028-4002-a33d-be7c75c703a8","system_id":"levelo_inurba_marseille","lat":43.28268,"lon":5.35054,"is_reserved":false,"is_disabled":false,"rental_uris":{"android":"levelo://app?vid=a5aa6357-8028-4002-a33d-be7c75c703a8","ios":"levelo://app?vid=a5aa6357-8028-4002-a33d-be7c75c703a8"},"vehicle_type_id":"4","last_reported":1728508093,"current_range_meters":6400,"station_id":"ce4bhbp2rcd13ifvqerg","pricing_plan_id":"cebpf4jnsgd1na2vs0mg"},{"bike_id":"7f57a457-4fbc-4d6d-a0f2-2d4f83bf1328","system_id":"levelo_inurba_marseille","lat":43.29936,"lon":5.36537,"is_reserved":false,"is_disabled":false,"rental_uris":{"android":"levelo://app?vid=7f57a457-4fbc-4d6d-a0f2-2d4f83bf1328","ios":"levelo://app?vid=7f57a457-4fbc-4d6d-a0f2-2d4f83bf1328"},"vehicle_type_id":"4","last_reported":1728508093,"current_range_meters":38800,"station_id":"ce4bgm92rcd13ifvqbr0","pricing_plan_id":"cebpf4jnsgd1na2vs0mg"},{"bike_id":"29cb1526-8d04-42cd-afd9-4af7c5cbfad4","system_id":"levelo_inurba_marseille","lat":43.23197,"lon":5.35551,"is_reserved":false,"is_disabled":false,"rental_uris":{"android":"levelo://app?vid=29cb1526-8d04-42cd-afd9-4af7c5cbfad4","ios":"levelo://app?vid=29cb1526-8d04-42cd-afd9-4af7c5cbfad4"},"vehicle_type_id":"4","last_reported":1728508093,"current_range_meters":38800,"station_id":"ce4bhu92rcd13ifvqi70","pricing_plan_id":"cebpf4jnsgd1na2vs0mg"},{"bike_id":"62930a7f-74ee-49d2-82a3-62a466b84fb0","system_id":"levelo_inurba_marseille","lat":43.316256,"lon":5.394428,"is_reserved":false,"is_disabled":false,"rental_uris":{"android":"levelo://app?vid=62930a7f-74ee-49d2-82a3-62a466b84fb0","ios":"levelo://app?vid=62930a7f-74ee-49d2-82a3-62a466b84fb0"},"vehicle_type_id":"4","last_reported":1728508093,"current_range_meters":8000,"station_id":"","pricing_plan_id":"cebpf4jnsgd1na2vs0mg"},{"bike_id":"e211b911-33be-417e-a190-299793b2b374","system_id":"levelo_inurba_marseille","lat":43.280403,"lon":5.36946,"is_reserved":false,"is_disabled":false,"rental_uris":{"android":"levelo://app?vid=e211b911-33be-417e-a190-299793b2b374","ios":"levelo://app?vid=e211b911-33be-417e-a190-299793b2b374"},"vehicle_type_id":"4","last_reported":1728508093,"current_range_meters":4000,"station_id":"ce4bha12rcd13ifvqef0","pricing_plan_id":"cebpf4jnsgd1na2vs0mg"},{"bike_id":"0bfa0ee7-df55-48c5-ba71-da82bc4adcc5","system_id":"levelo_inurba_marseille","lat":43.27605,"lon":5.36111,"is_reserved":false,"is_disabled":false,"rental_uris":{"android":"levelo://app?vid=0bfa0ee7-df55-48c5-ba71-da82bc4adcc5","ios":"levelo://app?vid=0bfa0ee7-df55-48c5-ba71-da82bc4adcc5"},"vehicle_type_id":"4","last_reported":1728508093,"current_range_meters":38800,"station_id":"ce4bgj92rcd13ifvqbe0","pricing_plan_id":"cebpf4jnsgd1na2vs0mg"},{"bike_id":"72c770e7-2ce6-424a-bc5f-e9575013a379","system_id":"levelo_inurba_marseille","lat":43.32361,"lon":5.38602,"is_reserved":false,"is_disabled":false,"rental_uris":{"android":"levelo://app?vid=72c770e7-2ce6-424a-bc5f-e9575013a379","ios":"levelo://app?vid=72c770e7-2ce6-424a-bc5f-e9575013a379"},"vehicle_type_id":"4","last_reported":1728508093,"current_range_meters":3200,"station_id":"","pricing_plan_id":"cebpf4jnsgd1na2vs0mg"},{"bike_id":"2dbd5c0b-d24b-4301-a262-e7b9fe646130","system_id":"levelo_inurba_marseille","lat":43.32662,"lon":5.40988,"is_reserved":false,"is_disabled":false,"rental_uris":{"android":"levelo://app?vid=2dbd5c0b-d24b-4301-a262-e7b9fe646130","ios":"levelo://app?vid=2dbd5c0b-d24b-4301-a262-e7b9fe646130"},"vehicle_type_id":"4","last_reported":1728508093,"current_range_meters":25200,"station_id":"ce4bhpp2rcd13ifvqhgg","pricing_plan_id":"cebpf4jnsgd1na2vs0mg"},{"bike_id":"a18662f8-7c5d-40ed-a87d-88d8a14f8320","system_id":"levelo_inurba_marseille","lat":43.31759,"lon":5.39014,"is_reserved":false,"is_disabled":false,"rental_uris":{"android":"levelo://app?vid=a18662f8-7c5d-40ed-a87d-88d8a14f8320","ios":"levelo://app?vid=a18662f8-7c5d-40ed-a87d-88d8a14f8320"},"vehicle_type_id":"4","last_reported":1728508093,"current_range_meters":26000,"station_id":"ce4bhqp2rcd13ifvqhng","pricing_plan_id":"cebpf4jnsgd1na2vs0mg"},{"bike_id":"ea4e8f52-908f-4d8f-8a66-b45f45c723f3","system_id":"levelo_inurba_marseille","lat":43.3414,"lon":5.40903,"is_reserved":false,"is_disabled":false,"rental_uris":{"android":"levelo://app?vid=ea4e8f52-908f-4d8f-8a66-b45f45c723f3","ios":"levelo://app?vid=ea4e8f52-908f-4d8f-8a66-b45f45c723f3"},"vehicle_type_id":"4","last_reported":1728508093,"current_range_meters":32800,"station_id":"ce4bhqh2rcd13ifvqhlg","pricing_plan_id":"cebpf4jnsgd1na2vs0mg"},{"bike_id":"ac73cf39-5e0d-41c0-9b62-3d3a6730aa43","system_id":"levelo_inurba_marseille","lat":43.24071,"lon":5.37761,"is_reserved":false,"is_disabled":false,"rental_uris":{"android":"levelo://app?vid=ac73cf39-5e0d-41c0-9b62-3d3a6730aa43","ios":"levelo://app?vid=ac73cf39-5e0d-41c0-9b62-3d3a6730aa43"},"vehicle_type_id":"4","last_reported":1728508093,"current_range_meters":27200,"station_id":"ce4bhnp2rcd13ifvqgvg","pricing_plan_id":"cebpf4jnsgd1na2vs0mg"},{"bike_id":"3c53e08e-ee91-459e-a796-8e1cef11ecde","system_id":"levelo_inurba_marseille","lat":43.27944,"lon":5.41041,"is_reserved":false,"is_disabled":false,"rental_uris":{"android":"levelo://app?vid=3c53e08e-ee91-459e-a796-8e1cef11ecde","ios":"levelo://app?vid=3c53e08e-ee91-459e-a796-8e1cef11ecde"},"vehicle_type_id":"4","last_reported":1728508093,"current_range_meters":38800,"station_id":"ce4bhnp2rcd13ifvqh0g","pricing_plan_id":"cebpf4jnsgd1na2vs0mg"},{"bike_id":"6680e8f2-453b-4747-b4b8-b5e7f1440a05","system_id":"levelo_inurba_marseille","lat":43.28115,"lon":5.3784,"is_reserved":false,"is_disabled":false,"rental_uris":{"android":"levelo://app?vid=6680e8f2-453b-4747-b4b8-b5e7f1440a05","ios":"levelo://app?vid=6680e8f2-453b-4747-b4b8-b5e7f1440a05"},"vehicle_type_id":"4","last_reported":1728508093,"current_range_meters":22800,"station_id":"ce4bha12rcd13ifvqee0","pricing_plan_id":"cebpf4jnsgd1na2vs0mg"},{"bike_id":"17591b68-72ec-463d-917a-7a15d54c2ca6","system_id":"levelo_inurba_marseille","lat":43.24388,"lon":5.37065,"is_reserved":false,"is_disabled":false,"rental_uris":{"android":"levelo://app?vid=17591b68-72ec-463d-917a-7a15d54c2ca6","ios":"levelo://app?vid=17591b68-72ec-463d-917a-7a15d54c2ca6"},"vehicle_type_id":"4","last_reported":1728508093,"current_range_meters":32000,"station_id":"ce4bhhh2rcd13ifvqfk0","pricing_plan_id":"cebpf4jnsgd1na2vs0mg"},{"bike_id":"d8d9e195-0b53-46b7-a4e3-f2b2c532f4ae","system_id":"levelo_inurba_marseille","lat":43.23197,"lon":5.35549,"is_reserved":false,"is_disabled":false,"rental_uris":{"android":"levelo://app?vid=d8d9e195-0b53-46b7-a4e3-f2b2c532f4ae","ios":"levelo://app?vid=d8d9e195-0b53-46b7-a4e3-f2b2c532f4ae"},"vehicle_type_id":"4","last_reported":1728508093,"current_range_meters":38000,"station_id":"ce4bhu92rcd13ifvqi70","pricing_plan_id":"cebpf4jnsgd1na2vs0mg"},{"bike_id":"41cd81c3-2e3e-40b4-95d8-2d06d19f3f98","system_id":"levelo_inurba_marseille","lat":43.28287,"lon":5.390753,"is_reserved":false,"is_disabled":false,"rental_uris":{"android":"levelo://app?vid=41cd81c3-2e3e-40b4-95d8-2d06d19f3f98","ios":"levelo://app?vid=41cd81c3-2e3e-40b4-95d8-2d06d19f3f98"},"vehicle_type_id":"4","last_reported":1728508093,"current_range_meters":37600,"station_id":"ce4bho12rcd13ifvqh2g","pricing_plan_id":"cebpf4jnsgd1na2vs0mg"},{"bike_id":"c55caa9a-9457-4152-9cf8-2af7ef053b42","system_id":"levelo_inurba_marseille","lat":43.31717,"lon":5.43635,"is_reserved":false,"is_disabled":false,"rental_uris":{"android":"levelo://app?vid=c55caa9a-9457-4152-9cf8-2af7ef053b42","ios":"levelo://app?vid=c55caa9a-9457-4152-9cf8-2af7ef053b42"},"vehicle_type_id":"4","last_reported":1728508093,"current_range_meters":23200,"station_id":"ce4bhp92rcd13ifvqhcg","pricing_plan_id":"cebpf4jnsgd1na2vs0mg"},{"bike_id":"f8b78f20-18f4-442b-aa6b-ae0f37277244","system_id":"levelo_inurba_marseille","lat":43.27176,"lon":5.40991,"is_reserved":false,"is_disabled":false,"rental_uris":{"android":"levelo://app?vid=f8b78f20-18f4-442b-aa6b-ae0f37277244","ios":"levelo://app?vid=f8b78f20-18f4-442b-aa6b-ae0f37277244"},"vehicle_type_id":"4","last_reported":1728508093,"current_range_meters":36800,"station_id":"ce4bhl12rcd13ifvqgf0","pricing_plan_id":"cebpf4jnsgd1na2vs0mg"},{"bike_id":"1aca22d9-bf5a-48af-bf25-161c5a4a28cd","system_id":"levelo_inurba_marseille","lat":43.28716,"lon":5.39984,"is_reserved":false,"is_disabled":false,"rental_uris":{"android":"levelo://app?vid=1aca22d9-bf5a-48af-bf25-161c5a4a28cd","ios":"levelo://app?vid=1aca22d9-bf5a-48af-bf25-161c5a4a28cd"},"vehicle_type_id":"4","last_reported":1728508093,"current_range_meters":8000,"station_id":"ce4bho92rcd13ifvqh3g","pricing_plan_id":"cebpf4jnsgd1na2vs0mg"},{"bike_id":"fb8c506a-f43f-4776-8b64-141d86711105","system_id":"levelo_inurba_marseille","lat":43.29799,"lon":5.40407,"is_reserved":false,"is_disabled":false,"rental_uris":{"android":"levelo://app?vid=fb8c506a-f43f-4776-8b64-141d86711105","ios":"levelo://app?vid=fb8c506a-f43f-4776-8b64-141d86711105"},"vehicle_type_id":"4","last_reported":1728508093,"current_range_meters":37600,"station_id":"ce4bh112rcd13ifvqd90","pricing_plan_id":"cebpf4jnsgd1na2vs0mg"},{"bike_id":"3c150316-e8ba-4f0d-9319-e8d2bd0bc57b","system_id":"levelo_inurba_marseille","lat":43.23186,"lon":5.39988,"is_reserved":false,"is_disabled":false,"rental_uris":{"android":"levelo://app?vid=3c150316-e8ba-4f0d-9319-e8d2bd0bc57b","ios":"levelo://app?vid=3c150316-e8ba-4f0d-9319-e8d2bd0bc57b"},"vehicle_type_id":"4","last_reported":1728508093,"current_range_meters":38800,"station_id":"ce4bhn12rcd13ifvqgqg","pricing_plan_id":"cebpf4jnsgd1na2vs0mg"},{"bike_id":"374b6c2c-2146-4013-bd77-a46d065a187d","system_id":"levelo_inurba_marseille","lat":43.29525,"lon":5.39408,"is_reserved":false,"is_disabled":false,"rental_uris":{"android":"levelo://app?vid=374b6c2c-2146-4013-bd77-a46d065a187d","ios":"levelo://app?vid=374b6c2c-2146-4013-bd77-a46d065a187d"},"vehicle_type_id":"4","last_reported":1728508093,"current_range_meters":38800,"station_id":"ce4bh292rcd13ifvqdf0","pricing_plan_id":"cebpf4jnsgd1na2vs0mg"},{"bike_id":"6550a5df-7dfa-4449-96e8-17ab2b2f0253","system_id":"levelo_inurba_marseille","lat":43.26063,"lon":5.39391,"is_reserved":false,"is_disabled":false,"rental_uris":{"android":"levelo://app?vid=6550a5df-7dfa-4449-96e8-17ab2b2f0253","ios":"levelo://app?vid=6550a5df-7dfa-4449-96e8-17ab2b2f0253"},"vehicle_type_id":"4","last_reported":1728508093,"current_range_meters":21600,"station_id":"ce4bhh92rcd13ifvqfj0","pricing_plan_id":"cebpf4jnsgd1na2vs0mg"},{"bike_id":"88b815fa-1c0a-4856-b23f-27312d03a2d8","system_id":"levelo_inurba_marseille","lat":43.33026,"lon":5.39035,"is_reserved":false,"is_disabled":false,"rental_uris":{"android":"levelo://app?vid=88b815fa-1c0a-4856-b23f-27312d03a2d8","ios":"levelo://app?vid=88b815fa-1c0a-4856-b23f-27312d03a2d8"},"vehicle_type_id":"4","last_reported":1728508093,"current_range_meters":20800,"station_id":"ce4bhr92rcd13ifvqhrg","pricing_plan_id":"cebpf4jnsgd1na2vs0mg"},{"bike_id":"f3535bf1-0333-46d7-a760-97c09e07a0d7","system_id":"levelo_inurba_marseille","lat":43.25116,"lon":5.40322,"is_reserved":false,"is_disabled":false,"rental_uris":{"android":"levelo://app?vid=f3535bf1-0333-46d7-a760-97c09e07a0d7","ios":"levelo://app?vid=f3535bf1-0333-46d7-a760-97c09e07a0d7"},"vehicle_type_id":"4","last_reported":1728508093,"current_range_meters":38800,"station_id":"ce4bhlh2rcd13ifvqgig","pricing_plan_id":"cebpf4jnsgd1na2vs0mg"},{"bike_id":"a5ac65be-92e7-46ab-932d-eb7ef35c24c9","system_id":"levelo_inurba_marseille","lat":43.2955,"lon":5.39656,"is_reserved":false,"is_disabled":false,"rental_uris":{"android":"levelo://app?vid=a5ac65be-92e7-46ab-932d-eb7ef35c24c9","ios":"levelo://app?vid=a5ac65be-92e7-46ab-932d-eb7ef35c24c9"},"vehicle_type_id":"4","last_reported":1728508093,"current_range_meters":30800,"station_id":"ce4bgvp2rcd13ifvqct0","pricing_plan_id":"cebpf4jnsgd1na2vs0mg"},{"bike_id":"8dfff532-9b92-441a-9d99-a5f3f7825690","system_id":"levelo_inurba_marseille","lat":43.28466,"lon":5.35886,"is_reserved":false,"is_disabled":false,"rental_uris":{"android":"levelo://app?vid=8dfff532-9b92-441a-9d99-a5f3f7825690","ios":"levelo://app?vid=8dfff532-9b92-441a-9d99-a5f3f7825690"},"vehicle_type_id":"4","last_reported":1728508093,"current_range_meters":16800,"station_id":"ce4bhah2rcd13ifvqei0","pricing_plan_id":"cebpf4jnsgd1na2vs0mg"},{"bike_id":"25afecff-8faf-4ca5-beb4-ce74280dcb13","system_id":"levelo_inurba_marseille","lat":43.23187,"lon":5.35542,"is_reserved":false,"is_disabled":false,"rental_uris":{"android":"levelo://app?vid=25afecff-8faf-4ca5-beb4-ce74280dcb13","ios":"levelo://app?vid=25afecff-8faf-4ca5-beb4-ce74280dcb13"},"vehicle_type_id":"4","last_reported":1728508093,"current_range_meters":38400,"station_id":"ce4bhu92rcd13ifvqi70","pricing_plan_id":"cebpf4jnsgd1na2vs0mg"},{"bike_id":"bc5da530-264e-4907-ad43-308cc5fa4656","system_id":"levelo_inurba_marseille","lat":43.33023,"lon":5.39036,"is_reserved":false,"is_disabled":false,"rental_uris":{"android":"levelo://app?vid=bc5da530-264e-4907-ad43-308cc5fa4656","ios":"levelo://app?vid=bc5da530-264e-4907-ad43-308cc5fa4656"},"vehicle_type_id":"4","last_reported":1728508093,"current_range_meters":28000,"station_id":"ce4bhr92rcd13ifvqhrg","pricing_plan_id":"cebpf4jnsgd1na2vs0mg"},{"bike_id":"e413c4f1-9fa8-4eef-adee-27c0f1da39dc","system_id":"levelo_inurba_marseille","lat":43.29969,"lon":5.37163,"is_reserved":false,"is_disabled":false,"rental_uris":{"android":"levelo://app?vid=e413c4f1-9fa8-4eef-adee-27c0f1da39dc","ios":"levelo://app?vid=e413c4f1-9fa8-4eef-adee-27c0f1da39dc"},"vehicle_type_id":"4","last_reported":1728508093,"current_range_meters":38800,"station_id":"ce4bgr92rcd13ifvqc7g","pricing_plan_id":"cebpf4jnsgd1na2vs0mg"},{"bike_id":"9911ac58-611f-468c-a27d-fab695957465","system_id":"levelo_inurba_marseille","lat":43.2857,"lon":5.395,"is_reserved":false,"is_disabled":false,"rental_uris":{"android":"levelo://app?vid=9911ac58-611f-468c-a27d-fab695957465","ios":"levelo://app?vid=9911ac58-611f-468c-a27d-fab695957465"},"vehicle_type_id":"4","last_reported":1728508093,"current_range_meters":37600,"station_id":"ce4bh292rcd13ifvqdg0","pricing_plan_id":"cebpf4jnsgd1na2vs0mg"},{"bike_id":"7219fee0-219f-4cfa-8633-b620db7597ae","system_id":"levelo_inurba_marseille","lat":43.29772,"lon":5.37077,"is_reserved":false,"is_disabled":false,"rental_uris":{"android":"levelo://app?vid=7219fee0-219f-4cfa-8633-b620db7597ae","ios":"levelo://app?vid=7219fee0-219f-4cfa-8633-b620db7597ae"},"vehicle_type_id":"4","last_reported":1728508093,"current_range_meters":6800,"station_id":"ce4bgop2rcd13ifvqc1g","pricing_plan_id":"cebpf4jnsgd1na2vs0mg"},{"bike_id":"44e30847-4d42-4d40-92b7-1cde51781390","system_id":"levelo_inurba_marseille","lat":43.27425,"lon":5.39413,"is_reserved":false,"is_disabled":false,"rental_uris":{"android":"levelo://app?vid=44e30847-4d42-4d40-92b7-1cde51781390","ios":"levelo://app?vid=44e30847-4d42-4d40-92b7-1cde51781390"},"vehicle_type_id":"4","last_reported":1728508093,"current_range_meters":17200,"station_id":"ce4bhdp2rcd13ifvqf20","pricing_plan_id":"cebpf4jnsgd1na2vs0mg"},{"bike_id":"67adf509-8309-4277-b2b5-22a4a8b5c849","system_id":"levelo_inurba_marseille","lat":43.31692,"lon":5.40463,"is_reserved":false,"is_disabled":false,"rental_uris":{"android":"levelo://app?vid=67adf509-8309-4277-b2b5-22a4a8b5c849","ios":"levelo://app?vid=67adf509-8309-4277-b2b5-22a4a8b5c849"},"vehicle_type_id":"4","last_reported":1728508093,"current_range_meters":38800,"station_id":"ce4bh012rcd13ifvqd00","pricing_plan_id":"cebpf4jnsgd1na2vs0mg"},{"bike_id":"164d759c-141a-449a-94ce-4af95c8d88c5","system_id":"levelo_inurba_marseille","lat":43.30881,"lon":5.39623,"is_reserved":false,"is_disabled":false,"rental_uris":{"android":"levelo://app?vid=164d759c-141a-449a-94ce-4af95c8d88c5","ios":"levelo://app?vid=164d759c-141a-449a-94ce-4af95c8d88c5"},"vehicle_type_id":"4","last_reported":1728508093,"current_range_meters":19600,"station_id":"ce4bh012rcd13ifvqcv0","pricing_plan_id":"cebpf4jnsgd1na2vs0mg"},{"bike_id":"c74d9bd0-5c1b-48c7-9ad7-a318cfe9f07b","system_id":"levelo_inurba_marseille","lat":43.31275,"lon":5.40167,"is_reserved":false,"is_disabled":false,"rental_uris":{"android":"levelo://app?vid=c74d9bd0-5c1b-48c7-9ad7-a318cfe9f07b","ios":"levelo://app?vid=c74d9bd0-5c1b-48c7-9ad7-a318cfe9f07b"},"vehicle_type_id":"4","last_reported":1728508093,"current_range_meters":9200,"station_id":"ce4bh092rcd13ifvqd30","pricing_plan_id":"cebpf4jnsgd1na2vs0mg"},{"bike_id":"2101d868-2457-46fd-9cea-3824384bd84b","system_id":"levelo_inurba_marseille","lat":43.313324,"lon":5.375113,"is_reserved":false,"is_disabled":false,"rental_uris":{"android":"levelo://app?vid=2101d868-2457-46fd-9cea-3824384bd84b","ios":"levelo://app?vid=2101d868-2457-46fd-9cea-3824384bd84b"},"vehicle_type_id":"4","last_reported":1728508093,"current_range_meters":37600,"station_id":"ce4bgt12rcd13ifvqcd0","pricing_plan_id":"cebpf4jnsgd1na2vs0mg"},{"bike_id":"2a032523-c958-4a4f-89c7-1eb876c0a20b","system_id":"levelo_inurba_marseille","lat":43.3153,"lon":5.38027,"is_reserved":false,"is_disabled":false,"rental_uris":{"android":"levelo://app?vid=2a032523-c958-4a4f-89c7-1eb876c0a20b","ios":"levelo://app?vid=2a032523-c958-4a4f-89c7-1eb876c0a20b"},"vehicle_type_id":"4","last_reported":1728508093,"current_range_meters":16800,"station_id":"ce4bhsp2rcd13ifvqi50","pricing_plan_id":"cebpf4jnsgd1na2vs0mg"},{"bike_id":"19c785c9-d783-48f3-b3bc-0c55ff20bca2","system_id":"levelo_inurba_marseille","lat":43.30428,"lon":5.41277,"is_reserved":false,"is_disabled":false,"rental_uris":{"android":"levelo://app?vid=19c785c9-d783-48f3-b3bc-0c55ff20bca2","ios":"levelo://app?vid=19c785c9-d783-48f3-b3bc-0c55ff20bca2"},"vehicle_type_id":"4","last_reported":1728508093,"current_range_meters":12000,"station_id":"ce4bhop2rcd13ifvqh8g","pricing_plan_id":"cebpf4jnsgd1na2vs0mg"},{"bike_id":"4c264be1-cda6-46cc-a8c2-1593de8c770a","system_id":"levelo_inurba_marseille","lat":43.27183,"lon":5.40985,"is_reserved":false,"is_disabled":false,"rental_uris":{"android":"levelo://app?vid=4c264be1-cda6-46cc-a8c2-1593de8c770a","ios":"levelo://app?vid=4c264be1-cda6-46cc-a8c2-1593de8c770a"},"vehicle_type_id":"4","last_reported":1728508093,"current_range_meters":38000,"station_id":"ce4bhl12rcd13ifvqgf0","pricing_plan_id":"cebpf4jnsgd1na2vs0mg"},{"bike_id":"fba6d365-9d25-4892-a6a9-e710064dcf5a","system_id":"levelo_inurba_marseille","lat":43.29637,"lon":5.40597,"is_reserved":false,"is_disabled":false,"rental_uris":{"android":"levelo://app?vid=fba6d365-9d25-4892-a6a9-e710064dcf5a","ios":"levelo://app?vid=fba6d365-9d25-4892-a6a9-e710064dcf5a"},"vehicle_type_id":"4","last_reported":1728508093,"current_range_meters":27200,"station_id":"ce4bh0h2rcd13ifvqd60","pricing_plan_id":"cebpf4jnsgd1na2vs0mg"},{"bike_id":"d16f107e-914f-4572-a8a8-2f2e2ee73733","system_id":"levelo_inurba_marseille","lat":43.29526,"lon":5.39401,"is_reserved":false,"is_disabled":false,"rental_uris":{"android":"levelo://app?vid=d16f107e-914f-4572-a8a8-2f2e2ee73733","ios":"levelo://app?vid=d16f107e-914f-4572-a8a8-2f2e2ee73733"},"vehicle_type_id":"4","last_reported":1728508093,"current_range_meters":38800,"station_id":"ce4bh292rcd13ifvqdf0","pricing_plan_id":"cebpf4jnsgd1na2vs0mg"},{"bike_id":"49e4fc39-2ba0-4300-b10b-a1cf49a3bd7b","system_id":"levelo_inurba_marseille","lat":43.29881,"lon":5.3891,"is_reserved":false,"is_disabled":false,"rental_uris":{"android":"levelo://app?vid=49e4fc39-2ba0-4300-b10b-a1cf49a3bd7b","ios":"levelo://app?vid=49e4fc39-2ba0-4300-b10b-a1cf49a3bd7b"},"vehicle_type_id":"4","last_reported":1728508093,"current_range_meters":24400,"station_id":"ce4bh392rcd13ifvqdl0","pricing_plan_id":"cebpf4jnsgd1na2vs0mg"},{"bike_id":"dca7c60b-d25d-4583-83b1-af4390c055f4","system_id":"levelo_inurba_marseille","lat":43.23189,"lon":5.35558,"is_reserved":false,"is_disabled":false,"rental_uris":{"android":"levelo://app?vid=dca7c60b-d25d-4583-83b1-af4390c055f4","ios":"levelo://app?vid=dca7c60b-d25d-4583-83b1-af4390c055f4"},"vehicle_type_id":"4","last_reported":1728508093,"current_range_meters":6400,"station_id":"ce4bhu92rcd13ifvqi70","pricing_plan_id":"cebpf4jnsgd1na2vs0mg"},{"bike_id":"d61e6d50-35b3-4890-b332-c3648c0fd3a5","system_id":"levelo_inurba_marseille","lat":43.28116,"lon":5.37836,"is_reserved":false,"is_disabled":false,"rental_uris":{"android":"levelo://app?vid=d61e6d50-35b3-4890-b332-c3648c0fd3a5","ios":"levelo://app?vid=d61e6d50-35b3-4890-b332-c3648c0fd3a5"},"vehicle_type_id":"4","last_reported":1728508093,"current_range_meters":3200,"station_id":"ce4bha12rcd13ifvqee0","pricing_plan_id":"cebpf4jnsgd1na2vs0mg"},{"bike_id":"d98abc05-22b9-4fd1-ab63-6d0caad7ccf5","system_id":"levelo_inurba_marseille","lat":43.31708,"lon":5.37761,"is_reserved":false,"is_disabled":false,"rental_uris":{"android":"levelo://app?vid=d98abc05-22b9-4fd1-ab63-6d0caad7ccf5","ios":"levelo://app?vid=d98abc05-22b9-4fd1-ab63-6d0caad7ccf5"},"vehicle_type_id":"4","last_reported":1728508093,"current_range_meters":27600,"station_id":"ce4bgth2rcd13ifvqch0","pricing_plan_id":"cebpf4jnsgd1na2vs0mg"},{"bike_id":"47829f8c-dd55-479c-b4cf-0317522b0fb0","system_id":"levelo_inurba_marseille","lat":43.292694,"lon":5.371198,"is_reserved":false,"is_disabled":false,"rental_uris":{"android":"levelo://app?vid=47829f8c-dd55-479c-b4cf-0317522b0fb0","ios":"levelo://app?vid=47829f8c-dd55-479c-b4cf-0317522b0fb0"},"vehicle_type_id":"4","last_reported":1728508093,"current_range_meters":8400,"station_id":"ce4bgh92rcd13ifvqb40","pricing_plan_id":"cebpf4jnsgd1na2vs0mg"},{"bike_id":"b44bddb9-8341-4408-bb5c-2330f2f7cce2","system_id":"levelo_inurba_marseille","lat":43.26055,"lon":5.39395,"is_reserved":false,"is_disabled":false,"rental_uris":{"android":"levelo://app?vid=b44bddb9-8341-4408-bb5c-2330f2f7cce2","ios":"levelo://app?vid=b44bddb9-8341-4408-bb5c-2330f2f7cce2"},"vehicle_type_id":"4","last_reported":1728508093,"current_range_meters":38000,"station_id":"ce4bhh92rcd13ifvqfj0","pricing_plan_id":"cebpf4jnsgd1na2vs0mg"},{"bike_id":"d4eac120-cd23-4a28-af7f-b4638bb6e6ff","system_id":"levelo_inurba_marseille","lat":43.29572,"lon":5.39988,"is_reserved":false,"is_disabled":false,"rental_uris":{"android":"levelo://app?vid=d4eac120-cd23-4a28-af7f-b4638bb6e6ff","ios":"levelo://app?vid=d4eac120-cd23-4a28-af7f-b4638bb6e6ff"},"vehicle_type_id":"4","last_reported":1728508093,"current_range_meters":21600,"station_id":"ce4bh312rcd13ifvqdj0","pricing_plan_id":"cebpf4jnsgd1na2vs0mg"},{"bike_id":"b4cfb96e-6000-443c-9d99-ed4a3e7fc7ea","system_id":"levelo_inurba_marseille","lat":43.29205,"lon":5.39315,"is_reserved":false,"is_disabled":false,"rental_uris":{"android":"levelo://app?vid=b4cfb96e-6000-443c-9d99-ed4a3e7fc7ea","ios":"levelo://app?vid=b4cfb96e-6000-443c-9d99-ed4a3e7fc7ea"},"vehicle_type_id":"4","last_reported":1728508093,"current_range_meters":4400,"station_id":"ce4bh192rcd13ifvqdd0","pricing_plan_id":"cebpf4jnsgd1na2vs0mg"},{"bike_id":"a6f3d0b6-b54c-4d09-9370-d02fe202d86d","system_id":"levelo_inurba_marseille","lat":43.28709,"lon":5.39982,"is_reserved":false,"is_disabled":false,"rental_uris":{"android":"levelo://app?vid=a6f3d0b6-b54c-4d09-9370-d02fe202d86d","ios":"levelo://app?vid=a6f3d0b6-b54c-4d09-9370-d02fe202d86d"},"vehicle_type_id":"4","last_reported":1728508093,"current_range_meters":24800,"station_id":"ce4bho92rcd13ifvqh3g","pricing_plan_id":"cebpf4jnsgd1na2vs0mg"},{"bike_id":"4f2e5b4a-bc46-4dee-82ca-048529cfeab8","system_id":"levelo_inurba_marseille","lat":43.30651,"lon":5.4006,"is_reserved":false,"is_disabled":false,"rental_uris":{"android":"levelo://app?vid=4f2e5b4a-bc46-4dee-82ca-048529cfeab8","ios":"levelo://app?vid=4f2e5b4a-bc46-4dee-82ca-048529cfeab8"},"vehicle_type_id":"4","last_reported":1728508093,"current_range_meters":3600,"station_id":"ce4bh112rcd13ifvqda0","pricing_plan_id":"cebpf4jnsgd1na2vs0mg"},{"bike_id":"73e5476b-e1c9-4a5d-9e10-41361ad16636","system_id":"levelo_inurba_marseille","lat":43.25126,"lon":5.40314,"is_reserved":false,"is_disabled":false,"rental_uris":{"android":"levelo://app?vid=73e5476b-e1c9-4a5d-9e10-41361ad16636","ios":"levelo://app?vid=73e5476b-e1c9-4a5d-9e10-41361ad16636"},"vehicle_type_id":"4","last_reported":1728508093,"current_range_meters":39200,"station_id":"ce4bhlh2rcd13ifvqgig","pricing_plan_id":"cebpf4jnsgd1na2vs0mg"},{"bike_id":"83094c49-8a16-4268-bb3f-b82bc8befb11","system_id":"levelo_inurba_marseille","lat":43.31091,"lon":5.4243,"is_reserved":false,"is_disabled":false,"rental_uris":{"android":"levelo://app?vid=83094c49-8a16-4268-bb3f-b82bc8befb11","ios":"levelo://app?vid=83094c49-8a16-4268-bb3f-b82bc8befb11"},"vehicle_type_id":"4","last_reported":1728508093,"current_range_meters":28400,"station_id":"ce4bhp92rcd13ifvqhag","pricing_plan_id":"cebpf4jnsgd1na2vs0mg"},{"bike_id":"d6b5cfa3-a44a-4b35-a171-f97b144308bc","system_id":"levelo_inurba_marseille","lat":43.3153,"lon":5.38024,"is_reserved":false,"is_disabled":false,"rental_uris":{"android":"levelo://app?vid=d6b5cfa3-a44a-4b35-a171-f97b144308bc","ios":"levelo://app?vid=d6b5cfa3-a44a-4b35-a171-f97b144308bc"},"vehicle_type_id":"4","last_reported":1728508093,"current_range_meters":15200,"station_id":"ce4bhsp2rcd13ifvqi50","pricing_plan_id":"cebpf4jnsgd1na2vs0mg"},{"bike_id":"4cdcd215-fc2e-4af7-9745-559a856b0ae4","system_id":"levelo_inurba_marseille","lat":43.33023,"lon":5.39047,"is_reserved":false,"is_disabled":false,"rental_uris":{"android":"levelo://app?vid=4cdcd215-fc2e-4af7-9745-559a856b0ae4","ios":"levelo://app?vid=4cdcd215-fc2e-4af7-9745-559a856b0ae4"},"vehicle_type_id":"4","last_reported":1728508093,"current_range_meters":35200,"station_id":"ce4bhr92rcd13ifvqhrg","pricing_plan_id":"cebpf4jnsgd1na2vs0mg"},{"bike_id":"6c9d17b9-7587-4e1f-a064-95fc5c59028f","system_id":"levelo_inurba_marseille","lat":43.28513,"lon":5.37497,"is_reserved":false,"is_disabled":false,"rental_uris":{"android":"levelo://app?vid=6c9d17b9-7587-4e1f-a064-95fc5c59028f","ios":"levelo://app?vid=6c9d17b9-7587-4e1f-a064-95fc5c59028f"},"vehicle_type_id":"4","last_reported":1728508093,"current_range_meters":16400,"station_id":"","pricing_plan_id":"cebpf4jnsgd1na2vs0mg"},{"bike_id":"2d8e6c42-2f35-403e-9802-2144de0d2bce","system_id":"levelo_inurba_marseille","lat":43.29035,"lon":5.38658,"is_reserved":false,"is_disabled":false,"rental_uris":{"android":"levelo://app?vid=2d8e6c42-2f35-403e-9802-2144de0d2bce","ios":"levelo://app?vid=2d8e6c42-2f35-403e-9802-2144de0d2bce"},"vehicle_type_id":"4","last_reported":1728508093,"current_range_meters":35600,"station_id":"ce4bh4p2rcd13ifvqe0g","pricing_plan_id":"cebpf4jnsgd1na2vs0mg"},{"bike_id":"e737c6da-2fda-41b9-aba8-b1d00ea0817d","system_id":"levelo_inurba_marseille","lat":43.29956,"lon":5.41315,"is_reserved":false,"is_disabled":false,"rental_uris":{"android":"levelo://app?vid=e737c6da-2fda-41b9-aba8-b1d00ea0817d","ios":"levelo://app?vid=e737c6da-2fda-41b9-aba8-b1d00ea0817d"},"vehicle_type_id":"4","last_reported":1728508093,"current_range_meters":38800,"station_id":"ce4bhp12rcd13ifvqh9g","pricing_plan_id":"cebpf4jnsgd1na2vs0mg"},{"bike_id":"6be918ff-776e-400a-8dce-92f1e9e50ca6","system_id":"levelo_inurba_marseille","lat":43.30643,"lon":5.40068,"is_reserved":false,"is_disabled":false,"rental_uris":{"android":"levelo://app?vid=6be918ff-776e-400a-8dce-92f1e9e50ca6","ios":"levelo://app?vid=6be918ff-776e-400a-8dce-92f1e9e50ca6"},"vehicle_type_id":"4","last_reported":1728508093,"current_range_meters":34800,"station_id":"ce4bh112rcd13ifvqda0","pricing_plan_id":"cebpf4jnsgd1na2vs0mg"},{"bike_id":"dcf7fa1a-67f6-4cea-a4a2-70c202568816","system_id":"levelo_inurba_marseille","lat":43.24762,"lon":5.40019,"is_reserved":false,"is_disabled":false,"rental_uris":{"android":"levelo://app?vid=dcf7fa1a-67f6-4cea-a4a2-70c202568816","ios":"levelo://app?vid=dcf7fa1a-67f6-4cea-a4a2-70c202568816"},"vehicle_type_id":"4","last_reported":1728508093,"current_range_meters":24400,"station_id":"","pricing_plan_id":"cebpf4jnsgd1na2vs0mg"},{"bike_id":"12dd3543-9792-411d-a2d3-090844735961","system_id":"levelo_inurba_marseille","lat":43.2794,"lon":5.41038,"is_reserved":false,"is_disabled":false,"rental_uris":{"android":"levelo://app?vid=12dd3543-9792-411d-a2d3-090844735961","ios":"levelo://app?vid=12dd3543-9792-411d-a2d3-090844735961"},"vehicle_type_id":"4","last_reported":1728508093,"current_range_meters":38800,"station_id":"ce4bhnp2rcd13ifvqh0g","pricing_plan_id":"cebpf4jnsgd1na2vs0mg"},{"bike_id":"44e61575-33b3-45e4-9c52-16d46941b0ae","system_id":"levelo_inurba_marseille","lat":43.27948,"lon":5.41042,"is_reserved":false,"is_disabled":false,"rental_uris":{"android":"levelo://app?vid=44e61575-33b3-45e4-9c52-16d46941b0ae","ios":"levelo://app?vid=44e61575-33b3-45e4-9c52-16d46941b0ae"},"vehicle_type_id":"4","last_reported":1728508093,"current_range_meters":38800,"station_id":"ce4bhnp2rcd13ifvqh0g","pricing_plan_id":"cebpf4jnsgd1na2vs0mg"},{"bike_id":"3367f1dd-0338-49b3-8b78-4114303ea45e","system_id":"levelo_inurba_marseille","lat":43.26331,"lon":5.38877,"is_reserved":false,"is_disabled":false,"rental_uris":{"android":"levelo://app?vid=3367f1dd-0338-49b3-8b78-4114303ea45e","ios":"levelo://app?vid=3367f1dd-0338-49b3-8b78-4114303ea45e"},"vehicle_type_id":"4","last_reported":1728508093,"current_range_meters":25600,"station_id":"ce4bhh12rcd13ifvqff0","pricing_plan_id":"cebpf4jnsgd1na2vs0mg"},{"bike_id":"31053c3e-cf65-4c8a-8fce-7813f2b75cb9","system_id":"levelo_inurba_marseille","lat":43.30141,"lon":5.39853,"is_reserved":false,"is_disabled":false,"rental_uris":{"android":"levelo://app?vid=31053c3e-cf65-4c8a-8fce-7813f2b75cb9","ios":"levelo://app?vid=31053c3e-cf65-4c8a-8fce-7813f2b75cb9"},"vehicle_type_id":"4","last_reported":1728508093,"current_range_meters":38800,"station_id":"ce4bh0h2rcd13ifvqd40","pricing_plan_id":"cebpf4jnsgd1na2vs0mg"},{"bike_id":"1230e06c-e562-49b4-8874-629a458917da","system_id":"levelo_inurba_marseille","lat":43.31689,"lon":5.40476,"is_reserved":false,"is_disabled":false,"rental_uris":{"android":"levelo://app?vid=1230e06c-e562-49b4-8874-629a458917da","ios":"levelo://app?vid=1230e06c-e562-49b4-8874-629a458917da"},"vehicle_type_id":"4","last_reported":1728508093,"current_range_meters":20000,"station_id":"ce4bh012rcd13ifvqd00","pricing_plan_id":"cebpf4jnsgd1na2vs0mg"},{"bike_id":"6caf95ac-909f-41e1-8bc7-0f91444d16fb","system_id":"levelo_inurba_marseille","lat":43.23073,"lon":5.35493,"is_reserved":false,"is_disabled":false,"rental_uris":{"android":"levelo://app?vid=6caf95ac-909f-41e1-8bc7-0f91444d16fb","ios":"levelo://app?vid=6caf95ac-909f-41e1-8bc7-0f91444d16fb"},"vehicle_type_id":"4","last_reported":1728508093,"current_range_meters":16800,"station_id":"cpo3342slgdg3j2ifvpg","pricing_plan_id":"cebpf4jnsgd1na2vs0mg"},{"bike_id":"3fab305b-1728-4a45-9f4f-fb39052b80d2","system_id":"levelo_inurba_marseille","lat":43.25491,"lon":5.37645,"is_reserved":false,"is_disabled":false,"rental_uris":{"android":"levelo://app?vid=3fab305b-1728-4a45-9f4f-fb39052b80d2","ios":"levelo://app?vid=3fab305b-1728-4a45-9f4f-fb39052b80d2"},"vehicle_type_id":"4","last_reported":1728508093,"current_range_meters":36000,"station_id":"ce4bhh12rcd13ifvqff0","pricing_plan_id":"cebpf4jnsgd1na2vs0mg"},{"bike_id":"2f946788-2ef0-4d95-94d0-374e4bea5849","system_id":"levelo_inurba_marseille","lat":43.33603,"lon":5.41034,"is_reserved":false,"is_disabled":false,"rental_uris":{"android":"levelo://app?vid=2f946788-2ef0-4d95-94d0-374e4bea5849","ios":"levelo://app?vid=2f946788-2ef0-4d95-94d0-374e4bea5849"},"vehicle_type_id":"4","last_reported":1728508093,"current_range_meters":28800,"station_id":"ce4bhqh2rcd13ifvqhmg","pricing_plan_id":"cebpf4jnsgd1na2vs0mg"},{"bike_id":"cb439072-15f2-4299-919f-ba4b86460e53","system_id":"levelo_inurba_marseille","lat":43.2805,"lon":5.36948,"is_reserved":false,"is_disabled":false,"rental_uris":{"android":"levelo://app?vid=cb439072-15f2-4299-919f-ba4b86460e53","ios":"levelo://app?vid=cb439072-15f2-4299-919f-ba4b86460e53"},"vehicle_type_id":"4","last_reported":1728508093,"current_range_meters":38800,"station_id":"ce4bha12rcd13ifvqef0","pricing_plan_id":"cebpf4jnsgd1na2vs0mg"},{"bike_id":"a01e6511-8d04-42fc-9359-9849193889b5","system_id":"levelo_inurba_marseille","lat":43.27182,"lon":5.40986,"is_reserved":false,"is_disabled":false,"rental_uris":{"android":"levelo://app?vid=a01e6511-8d04-42fc-9359-9849193889b5","ios":"levelo://app?vid=a01e6511-8d04-42fc-9359-9849193889b5"},"vehicle_type_id":"4","last_reported":1728508093,"current_range_meters":38800,"station_id":"ce4bhl12rcd13ifvqgf0","pricing_plan_id":"cebpf4jnsgd1na2vs0mg"},{"bike_id":"ede68b2f-f53f-4ad5-a3f5-950bc936b5eb","system_id":"levelo_inurba_marseille","lat":43.33773,"lon":5.37398,"is_reserved":false,"is_disabled":false,"rental_uris":{"android":"levelo://app?vid=ede68b2f-f53f-4ad5-a3f5-950bc936b5eb","ios":"levelo://app?vid=ede68b2f-f53f-4ad5-a3f5-950bc936b5eb"},"vehicle_type_id":"4","last_reported":1728508093,"current_range_meters":32400,"station_id":"","pricing_plan_id":"cebpf4jnsgd1na2vs0mg"},{"bike_id":"dce02e95-c712-4d68-98a4-68a7f35b44b2","system_id":"levelo_inurba_marseille","lat":43.27629,"lon":5.36109,"is_reserved":false,"is_disabled":false,"rental_uris":{"android":"levelo://app?vid=dce02e95-c712-4d68-98a4-68a7f35b44b2","ios":"levelo://app?vid=dce02e95-c712-4d68-98a4-68a7f35b44b2"},"vehicle_type_id":"4","last_reported":1728508093,"current_range_meters":37600,"station_id":"ce4bgj92rcd13ifvqbe0","pricing_plan_id":"cebpf4jnsgd1na2vs0mg"},{"bike_id":"ede11f7e-0841-4d60-b7dc-e38309e6814d","system_id":"levelo_inurba_marseille","lat":43.28464,"lon":5.35887,"is_reserved":false,"is_disabled":false,"rental_uris":{"android":"levelo://app?vid=ede11f7e-0841-4d60-b7dc-e38309e6814d","ios":"levelo://app?vid=ede11f7e-0841-4d60-b7dc-e38309e6814d"},"vehicle_type_id":"4","last_reported":1728508093,"current_range_meters":28000,"station_id":"ce4bhah2rcd13ifvqei0","pricing_plan_id":"cebpf4jnsgd1na2vs0mg"},{"bike_id":"bb2e048a-c55f-4f68-98e0-9f12edc3e4d6","system_id":"levelo_inurba_marseille","lat":43.24184,"lon":5.39727,"is_reserved":false,"is_disabled":false,"rental_uris":{"android":"levelo://app?vid=bb2e048a-c55f-4f68-98e0-9f12edc3e4d6","ios":"levelo://app?vid=bb2e048a-c55f-4f68-98e0-9f12edc3e4d6"},"vehicle_type_id":"4","last_reported":1728508093,"current_range_meters":38800,"station_id":"ce4bhn12rcd13ifvqgpg","pricing_plan_id":"cebpf4jnsgd1na2vs0mg"},{"bike_id":"51ac1468-270a-49d0-8cdb-4ef6fc2d7e71","system_id":"levelo_inurba_marseille","lat":43.33723,"lon":5.39176,"is_reserved":false,"is_disabled":false,"rental_uris":{"android":"levelo://app?vid=51ac1468-270a-49d0-8cdb-4ef6fc2d7e71","ios":"levelo://app?vid=51ac1468-270a-49d0-8cdb-4ef6fc2d7e71"},"vehicle_type_id":"4","last_reported":1728508093,"current_range_meters":16400,"station_id":"ce4bhr92rcd13ifvqhsg","pricing_plan_id":"cebpf4jnsgd1na2vs0mg"},{"bike_id":"2ca4a4b5-7b22-4790-9f9c-55b8b74a82e9","system_id":"levelo_inurba_marseille","lat":43.27956,"lon":5.41046,"is_reserved":false,"is_disabled":false,"rental_uris":{"android":"levelo://app?vid=2ca4a4b5-7b22-4790-9f9c-55b8b74a82e9","ios":"levelo://app?vid=2ca4a4b5-7b22-4790-9f9c-55b8b74a82e9"},"vehicle_type_id":"4","last_reported":1728508093,"current_range_meters":38800,"station_id":"ce4bhnp2rcd13ifvqh0g","pricing_plan_id":"cebpf4jnsgd1na2vs0mg"},{"bike_id":"154054a2-6c1e-467b-82d8-72e958c45190","system_id":"levelo_inurba_marseille","lat":43.24081,"lon":5.3775,"is_reserved":false,"is_disabled":false,"rental_uris":{"android":"levelo://app?vid=154054a2-6c1e-467b-82d8-72e958c45190","ios":"levelo://app?vid=154054a2-6c1e-467b-82d8-72e958c45190"},"vehicle_type_id":"4","last_reported":1728508093,"current_range_meters":9600,"station_id":"ce4bhnp2rcd13ifvqgvg","pricing_plan_id":"cebpf4jnsgd1na2vs0mg"},{"bike_id":"5d378526-5716-411b-b4b1-79e697cfb815","system_id":"levelo_inurba_marseille","lat":43.30798,"lon":5.43516,"is_reserved":false,"is_disabled":false,"rental_uris":{"android":"levelo://app?vid=5d378526-5716-411b-b4b1-79e697cfb815","ios":"levelo://app?vid=5d378526-5716-411b-b4b1-79e697cfb815"},"vehicle_type_id":"4","last_reported":1728508093,"current_range_meters":30800,"station_id":"ce4bhph2rcd13ifvqheg","pricing_plan_id":"cebpf4jnsgd1na2vs0mg"},{"bike_id":"ce4c5209-8f14-422f-933b-f32f2f1c85af","system_id":"levelo_inurba_marseille","lat":43.25109,"lon":5.40327,"is_reserved":false,"is_disabled":false,"rental_uris":{"android":"levelo://app?vid=ce4c5209-8f14-422f-933b-f32f2f1c85af","ios":"levelo://app?vid=ce4c5209-8f14-422f-933b-f32f2f1c85af"},"vehicle_type_id":"4","last_reported":1728508093,"current_range_meters":38800,"station_id":"ce4bhlh2rcd13ifvqgig","pricing_plan_id":"cebpf4jnsgd1na2vs0mg"},{"bike_id":"9b423e8f-5027-4af2-91cf-103c7a100078","system_id":"levelo_inurba_marseille","lat":43.26195,"lon":5.37448,"is_reserved":false,"is_disabled":false,"rental_uris":{"android":"levelo://app?vid=9b423e8f-5027-4af2-91cf-103c7a100078","ios":"levelo://app?vid=9b423e8f-5027-4af2-91cf-103c7a100078"},"vehicle_type_id":"4","last_reported":1728508093,"current_range_meters":38800,"station_id":"ce4bhgp2rcd13ifvqfc0","pricing_plan_id":"cebpf4jnsgd1na2vs0mg"},{"bike_id":"885b6ad9-0995-4c83-bb2b-01ee09830319","system_id":"levelo_inurba_marseille","lat":43.32305,"lon":5.38272,"is_reserved":false,"is_disabled":false,"rental_uris":{"android":"levelo://app?vid=885b6ad9-0995-4c83-bb2b-01ee09830319","ios":"levelo://app?vid=885b6ad9-0995-4c83-bb2b-01ee09830319"},"vehicle_type_id":"4","last_reported":1728508093,"current_range_meters":39200,"station_id":"ce4bhr12rcd13ifvqhqg","pricing_plan_id":"cebpf4jnsgd1na2vs0mg"},{"bike_id":"5d11f70d-ae43-4dc6-aabc-08bec0d698c8","system_id":"levelo_inurba_marseille","lat":43.29964,"lon":5.37165,"is_reserved":false,"is_disabled":false,"rental_uris":{"android":"levelo://app?vid=5d11f70d-ae43-4dc6-aabc-08bec0d698c8","ios":"levelo://app?vid=5d11f70d-ae43-4dc6-aabc-08bec0d698c8"},"vehicle_type_id":"4","last_reported":1728508093,"current_range_meters":16000,"station_id":"ce4bgr92rcd13ifvqc7g","pricing_plan_id":"cebpf4jnsgd1na2vs0mg"},{"bike_id":"810b32d6-b30c-480b-a6ee-5bd54d112eb8","system_id":"levelo_inurba_marseille","lat":43.33749,"lon":5.37442,"is_reserved":false,"is_disabled":false,"rental_uris":{"android":"levelo://app?vid=810b32d6-b30c-480b-a6ee-5bd54d112eb8","ios":"levelo://app?vid=810b32d6-b30c-480b-a6ee-5bd54d112eb8"},"vehicle_type_id":"4","last_reported":1728508093,"current_range_meters":26800,"station_id":"ce4rr2p2rcd13i802rgg","pricing_plan_id":"cebpf4jnsgd1na2vs0mg"},{"bike_id":"7507b4b6-0e77-4929-840a-43395246c408","system_id":"levelo_inurba_marseille","lat":43.30878,"lon":5.39632,"is_reserved":false,"is_disabled":false,"rental_uris":{"android":"levelo://app?vid=7507b4b6-0e77-4929-840a-43395246c408","ios":"levelo://app?vid=7507b4b6-0e77-4929-840a-43395246c408"},"vehicle_type_id":"4","last_reported":1728508093,"current_range_meters":39200,"station_id":"ce4bh012rcd13ifvqcv0","pricing_plan_id":"cebpf4jnsgd1na2vs0mg"},{"bike_id":"930d5175-da31-4536-8c17-6a3e08a1658a","system_id":"levelo_inurba_marseille","lat":43.30595,"lon":5.401,"is_reserved":false,"is_disabled":false,"rental_uris":{"android":"levelo://app?vid=930d5175-da31-4536-8c17-6a3e08a1658a","ios":"levelo://app?vid=930d5175-da31-4536-8c17-6a3e08a1658a"},"vehicle_type_id":"4","last_reported":1728508093,"current_range_meters":24800,"station_id":"","pricing_plan_id":"cebpf4jnsgd1na2vs0mg"},{"bike_id":"dcac3b1a-b82e-4bfc-8119-44654bbcd2b2","system_id":"levelo_inurba_marseille","lat":43.3118,"lon":5.38725,"is_reserved":false,"is_disabled":false,"rental_uris":{"android":"levelo://app?vid=dcac3b1a-b82e-4bfc-8119-44654bbcd2b2","ios":"levelo://app?vid=dcac3b1a-b82e-4bfc-8119-44654bbcd2b2"},"vehicle_type_id":"4","last_reported":1728508093,"current_range_meters":18000,"station_id":"ce4bgv12rcd13ifvqcp0","pricing_plan_id":"cebpf4jnsgd1na2vs0mg"},{"bike_id":"e33160e2-19a5-4b63-9f92-ec6ef6c6d28f","system_id":"levelo_inurba_marseille","lat":43.30646,"lon":5.40061,"is_reserved":false,"is_disabled":false,"rental_uris":{"android":"levelo://app?vid=e33160e2-19a5-4b63-9f92-ec6ef6c6d28f","ios":"levelo://app?vid=e33160e2-19a5-4b63-9f92-ec6ef6c6d28f"},"vehicle_type_id":"4","last_reported":1728508093,"current_range_meters":36800,"station_id":"ce4bh112rcd13ifvqda0","pricing_plan_id":"cebpf4jnsgd1na2vs0mg"},{"bike_id":"7404348e-d582-4212-80c1-ab7d59c5a446","system_id":"levelo_inurba_marseille","lat":43.25859,"lon":5.39903,"is_reserved":false,"is_disabled":false,"rental_uris":{"android":"levelo://app?vid=7404348e-d582-4212-80c1-ab7d59c5a446","ios":"levelo://app?vid=7404348e-d582-4212-80c1-ab7d59c5a446"},"vehicle_type_id":"4","last_reported":1728508093,"current_range_meters":38800,"station_id":"ce4bhl92rcd13ifvqghg","pricing_plan_id":"cebpf4jnsgd1na2vs0mg"},{"bike_id":"b4041ea6-28c8-468e-861a-46e214b62bf2","system_id":"levelo_inurba_marseille","lat":43.30533,"lon":5.367,"is_reserved":false,"is_disabled":false,"rental_uris":{"android":"levelo://app?vid=b4041ea6-28c8-468e-861a-46e214b62bf2","ios":"levelo://app?vid=b4041ea6-28c8-468e-861a-46e214b62bf2"},"vehicle_type_id":"4","last_reported":1728508093,"current_range_meters":24000,"station_id":"ce4bgrp2rcd13ifvqc9g","pricing_plan_id":"cebpf4jnsgd1na2vs0mg"},{"bike_id":"c3cd10f9-c642-40cd-8c85-bdd531121fe5","system_id":"levelo_inurba_marseille","lat":43.3234,"lon":5.40615,"is_reserved":false,"is_disabled":false,"rental_uris":{"android":"levelo://app?vid=c3cd10f9-c642-40cd-8c85-bdd531121fe5","ios":"levelo://app?vid=c3cd10f9-c642-40cd-8c85-bdd531121fe5"},"vehicle_type_id":"4","last_reported":1728508093,"current_range_meters":2800,"station_id":"ce4bhq92rcd13ifvqhjg","pricing_plan_id":"cebpf4jnsgd1na2vs0mg"},{"bike_id":"6788304e-a293-4cdd-97ad-484d5208b17d","system_id":"levelo_inurba_marseille","lat":43.278153,"lon":5.4072,"is_reserved":false,"is_disabled":false,"rental_uris":{"android":"levelo://app?vid=6788304e-a293-4cdd-97ad-484d5208b17d","ios":"levelo://app?vid=6788304e-a293-4cdd-97ad-484d5208b17d"},"vehicle_type_id":"4","last_reported":1728508093,"current_range_meters":38800,"station_id":"ce4bhnh2rcd13ifvqgtg","pricing_plan_id":"cebpf4jnsgd1na2vs0mg"},{"bike_id":"f12c47c8-0062-4df2-9d07-928dd29498d6","system_id":"levelo_inurba_marseille","lat":43.24186,"lon":5.39721,"is_reserved":false,"is_disabled":false,"rental_uris":{"android":"levelo://app?vid=f12c47c8-0062-4df2-9d07-928dd29498d6","ios":"levelo://app?vid=f12c47c8-0062-4df2-9d07-928dd29498d6"},"vehicle_type_id":"4","last_reported":1728508093,"current_range_meters":9600,"station_id":"ce4bhn12rcd13ifvqgpg","pricing_plan_id":"cebpf4jnsgd1na2vs0mg"},{"bike_id":"4930c6fa-3230-43c6-8506-5239979ced7f","system_id":"levelo_inurba_marseille","lat":43.31713,"lon":5.43705,"is_reserved":false,"is_disabled":false,"rental_uris":{"android":"levelo://app?vid=4930c6fa-3230-43c6-8506-5239979ced7f","ios":"levelo://app?vid=4930c6fa-3230-43c6-8506-5239979ced7f"},"vehicle_type_id":"4","last_reported":1728508093,"current_range_meters":17200,"station_id":"ce4bhp92rcd13ifvqhcg","pricing_plan_id":"cebpf4jnsgd1na2vs0mg"},{"bike_id":"4d056045-2ae6-40fd-9e1f-eacd055b05c1","system_id":"levelo_inurba_marseille","lat":43.240753,"lon":5.377587,"is_reserved":false,"is_disabled":false,"rental_uris":{"android":"levelo://app?vid=4d056045-2ae6-40fd-9e1f-eacd055b05c1","ios":"levelo://app?vid=4d056045-2ae6-40fd-9e1f-eacd055b05c1"},"vehicle_type_id":"4","last_reported":1728508093,"current_range_meters":4000,"station_id":"ce4bhnp2rcd13ifvqgvg","pricing_plan_id":"cebpf4jnsgd1na2vs0mg"},{"bike_id":"23a14355-8ab8-4f0d-954a-17b2a5e5a064","system_id":"levelo_inurba_marseille","lat":43.31322,"lon":5.39695,"is_reserved":false,"is_disabled":false,"rental_uris":{"android":"levelo://app?vid=23a14355-8ab8-4f0d-954a-17b2a5e5a064","ios":"levelo://app?vid=23a14355-8ab8-4f0d-954a-17b2a5e5a064"},"vehicle_type_id":"4","last_reported":1728508093,"current_range_meters":13600,"station_id":"ce4bgvp2rcd13ifvqcu0","pricing_plan_id":"cebpf4jnsgd1na2vs0mg"},{"bike_id":"6ceea0e8-32b9-476f-85a8-e90de1b533d9","system_id":"levelo_inurba_marseille","lat":43.32659,"lon":5.40994,"is_reserved":false,"is_disabled":false,"rental_uris":{"android":"levelo://app?vid=6ceea0e8-32b9-476f-85a8-e90de1b533d9","ios":"levelo://app?vid=6ceea0e8-32b9-476f-85a8-e90de1b533d9"},"vehicle_type_id":"4","last_reported":1728508093,"current_range_meters":8800,"station_id":"ce4bhpp2rcd13ifvqhgg","pricing_plan_id":"cebpf4jnsgd1na2vs0mg"},{"bike_id":"0dcfddc7-8134-4c1d-9ae7-26a59237eba3","system_id":"levelo_inurba_marseille","lat":43.29593,"lon":5.36749,"is_reserved":false,"is_disabled":false,"rental_uris":{"android":"levelo://app?vid=0dcfddc7-8134-4c1d-9ae7-26a59237eba3","ios":"levelo://app?vid=0dcfddc7-8134-4c1d-9ae7-26a59237eba3"},"vehicle_type_id":"4","last_reported":1728508093,"current_range_meters":38400,"station_id":"ce4bgph2rcd13ifvqc2g","pricing_plan_id":"cebpf4jnsgd1na2vs0mg"},{"bike_id":"1bc2c680-9c7c-4bce-8f3d-e62c0576b57a","system_id":"levelo_inurba_marseille","lat":43.24182,"lon":5.39719,"is_reserved":false,"is_disabled":false,"rental_uris":{"android":"levelo://app?vid=1bc2c680-9c7c-4bce-8f3d-e62c0576b57a","ios":"levelo://app?vid=1bc2c680-9c7c-4bce-8f3d-e62c0576b57a"},"vehicle_type_id":"4","last_reported":1728508093,"current_range_meters":37600,"station_id":"ce4bhn12rcd13ifvqgpg","pricing_plan_id":"cebpf4jnsgd1na2vs0mg"},{"bike_id":"1ed3d4d7-651a-4436-a2ad-7e2a2405ae22","system_id":"levelo_inurba_marseille","lat":43.29882,"lon":5.38902,"is_reserved":false,"is_disabled":false,"rental_uris":{"android":"levelo://app?vid=1ed3d4d7-651a-4436-a2ad-7e2a2405ae22","ios":"levelo://app?vid=1ed3d4d7-651a-4436-a2ad-7e2a2405ae22"},"vehicle_type_id":"4","last_reported":1728508093,"current_range_meters":30000,"station_id":"ce4bh392rcd13ifvqdl0","pricing_plan_id":"cebpf4jnsgd1na2vs0mg"},{"bike_id":"c8aafd0a-224f-47ad-b2d2-12b7e2c9220f","system_id":"levelo_inurba_marseille","lat":43.27574,"lon":5.38407,"is_reserved":false,"is_disabled":false,"rental_uris":{"android":"levelo://app?vid=c8aafd0a-224f-47ad-b2d2-12b7e2c9220f","ios":"levelo://app?vid=c8aafd0a-224f-47ad-b2d2-12b7e2c9220f"},"vehicle_type_id":"4","last_reported":1728508093,"current_range_meters":39200,"station_id":"ce4bhh92rcd13ifvqfi0","pricing_plan_id":"cebpf4jnsgd1na2vs0mg"},{"bike_id":"85a048f8-8505-46d4-9d20-ae725d292ea2","system_id":"levelo_inurba_marseille","lat":43.31266,"lon":5.40166,"is_reserved":false,"is_disabled":false,"rental_uris":{"android":"levelo://app?vid=85a048f8-8505-46d4-9d20-ae725d292ea2","ios":"levelo://app?vid=85a048f8-8505-46d4-9d20-ae725d292ea2"},"vehicle_type_id":"4","last_reported":1728508093,"current_range_meters":35200,"station_id":"ce4bh092rcd13ifvqd30","pricing_plan_id":"cebpf4jnsgd1na2vs0mg"},{"bike_id":"7f91e7b6-39c7-4ac1-8823-37439c8b63c6","system_id":"levelo_inurba_marseille","lat":43.26558,"lon":5.37284,"is_reserved":false,"is_disabled":false,"rental_uris":{"android":"levelo://app?vid=7f91e7b6-39c7-4ac1-8823-37439c8b63c6","ios":"levelo://app?vid=7f91e7b6-39c7-4ac1-8823-37439c8b63c6"},"vehicle_type_id":"4","last_reported":1728508093,"current_range_meters":37600,"station_id":"ce4bhg12rcd13ifvqf70","pricing_plan_id":"cebpf4jnsgd1na2vs0mg"},{"bike_id":"88a2001f-3d05-45fa-8ce2-7b6503335a54","system_id":"levelo_inurba_marseille","lat":43.32669,"lon":5.40993,"is_reserved":false,"is_disabled":false,"rental_uris":{"android":"levelo://app?vid=88a2001f-3d05-45fa-8ce2-7b6503335a54","ios":"levelo://app?vid=88a2001f-3d05-45fa-8ce2-7b6503335a54"},"vehicle_type_id":"4","last_reported":1728508093,"current_range_meters":19200,"station_id":"ce4bhpp2rcd13ifvqhgg","pricing_plan_id":"cebpf4jnsgd1na2vs0mg"},{"bike_id":"c2dbdf24-83b9-4d66-80b0-4eee816c4194","system_id":"levelo_inurba_marseille","lat":43.27819,"lon":5.40716,"is_reserved":false,"is_disabled":false,"rental_uris":{"android":"levelo://app?vid=c2dbdf24-83b9-4d66-80b0-4eee816c4194","ios":"levelo://app?vid=c2dbdf24-83b9-4d66-80b0-4eee816c4194"},"vehicle_type_id":"4","last_reported":1728508093,"current_range_meters":37600,"station_id":"ce4bhnh2rcd13ifvqgtg","pricing_plan_id":"cebpf4jnsgd1na2vs0mg"},{"bike_id":"2f9e3e08-7baf-4a8c-978a-96205524d38a","system_id":"levelo_inurba_marseille","lat":43.25734,"lon":5.41105,"is_reserved":false,"is_disabled":false,"rental_uris":{"android":"levelo://app?vid=2f9e3e08-7baf-4a8c-978a-96205524d38a","ios":"levelo://app?vid=2f9e3e08-7baf-4a8c-978a-96205524d38a"},"vehicle_type_id":"4","last_reported":1728508093,"current_range_meters":8400,"station_id":"ce4bhkp2rcd13ifvqgd0","pricing_plan_id":"cebpf4jnsgd1na2vs0mg"},{"bike_id":"84eca72f-cc24-491b-8910-9471b1565caf","system_id":"levelo_inurba_marseille","lat":43.31706,"lon":5.37752,"is_reserved":false,"is_disabled":false,"rental_uris":{"android":"levelo://app?vid=84eca72f-cc24-491b-8910-9471b1565caf","ios":"levelo://app?vid=84eca72f-cc24-491b-8910-9471b1565caf"},"vehicle_type_id":"4","last_reported":1728508093,"current_range_meters":38000,"station_id":"ce4bgth2rcd13ifvqch0","pricing_plan_id":"cebpf4jnsgd1na2vs0mg"},{"bike_id":"8caa751b-e512-4765-93aa-06847fdbb171","system_id":"levelo_inurba_marseille","lat":43.27833,"lon":5.39205,"is_reserved":false,"is_disabled":false,"rental_uris":{"android":"levelo://app?vid=8caa751b-e512-4765-93aa-06847fdbb171","ios":"levelo://app?vid=8caa751b-e512-4765-93aa-06847fdbb171"},"vehicle_type_id":"4","last_reported":1728508093,"current_range_meters":4000,"station_id":"ce4bhjp2rcd13ifvqga0","pricing_plan_id":"cebpf4jnsgd1na2vs0mg"},{"bike_id":"2f575926-81fb-4c1b-b2ee-2505b63e91dc","system_id":"levelo_inurba_marseille","lat":43.29706,"lon":5.36615,"is_reserved":false,"is_disabled":false,"rental_uris":{"android":"levelo://app?vid=2f575926-81fb-4c1b-b2ee-2505b63e91dc","ios":"levelo://app?vid=2f575926-81fb-4c1b-b2ee-2505b63e91dc"},"vehicle_type_id":"4","last_reported":1728508093,"current_range_meters":5600,"station_id":"ce4bgn12rcd13ifvqbt0","pricing_plan_id":"cebpf4jnsgd1na2vs0mg"},{"bike_id":"115f99b9-4f17-436d-b64b-539a809a91f1","system_id":"levelo_inurba_marseille","lat":43.33026,"lon":5.39036,"is_reserved":false,"is_disabled":false,"rental_uris":{"android":"levelo://app?vid=115f99b9-4f17-436d-b64b-539a809a91f1","ios":"levelo://app?vid=115f99b9-4f17-436d-b64b-539a809a91f1"},"vehicle_type_id":"4","last_reported":1728508093,"current_range_meters":36800,"station_id":"ce4bhr92rcd13ifvqhrg","pricing_plan_id":"cebpf4jnsgd1na2vs0mg"},{"bike_id":"6ff31732-8687-4a03-800d-084581525e2f","system_id":"levelo_inurba_marseille","lat":43.3117,"lon":5.38712,"is_reserved":false,"is_disabled":false,"rental_uris":{"android":"levelo://app?vid=6ff31732-8687-4a03-800d-084581525e2f","ios":"levelo://app?vid=6ff31732-8687-4a03-800d-084581525e2f"},"vehicle_type_id":"4","last_reported":1728508093,"current_range_meters":4800,"station_id":"ce4bgv12rcd13ifvqcp0","pricing_plan_id":"cebpf4jnsgd1na2vs0mg"},{"bike_id":"b4e3873d-b92a-4ac1-a3d6-78a8e17b362a","system_id":"levelo_inurba_marseille","lat":43.24998,"lon":5.38931,"is_reserved":false,"is_disabled":false,"rental_uris":{"android":"levelo://app?vid=b4e3873d-b92a-4ac1-a3d6-78a8e17b362a","ios":"levelo://app?vid=b4e3873d-b92a-4ac1-a3d6-78a8e17b362a"},"vehicle_type_id":"4","last_reported":1728508093,"current_range_meters":6800,"station_id":"ce4bhgp2rcd13ifvqfd0","pricing_plan_id":"cebpf4jnsgd1na2vs0mg"},{"bike_id":"5c1a8458-a3a4-4acf-a609-5cf70095ff7a","system_id":"levelo_inurba_marseille","lat":43.25005,"lon":5.38927,"is_reserved":false,"is_disabled":false,"rental_uris":{"android":"levelo://app?vid=5c1a8458-a3a4-4acf-a609-5cf70095ff7a","ios":"levelo://app?vid=5c1a8458-a3a4-4acf-a609-5cf70095ff7a"},"vehicle_type_id":"4","last_reported":1728508093,"current_range_meters":38000,"station_id":"ce4bhgp2rcd13ifvqfd0","pricing_plan_id":"cebpf4jnsgd1na2vs0mg"},{"bike_id":"4745caff-0453-478a-8963-025636bcb912","system_id":"levelo_inurba_marseille","lat":43.33031,"lon":5.39042,"is_reserved":false,"is_disabled":false,"rental_uris":{"android":"levelo://app?vid=4745caff-0453-478a-8963-025636bcb912","ios":"levelo://app?vid=4745caff-0453-478a-8963-025636bcb912"},"vehicle_type_id":"4","last_reported":1728508093,"current_range_meters":17600,"station_id":"ce4bhr92rcd13ifvqhrg","pricing_plan_id":"cebpf4jnsgd1na2vs0mg"},{"bike_id":"5313992a-f6d1-4718-902d-743fe30c7e96","system_id":"levelo_inurba_marseille","lat":43.24654,"lon":5.38896,"is_reserved":false,"is_disabled":false,"rental_uris":{"android":"levelo://app?vid=5313992a-f6d1-4718-902d-743fe30c7e96","ios":"levelo://app?vid=5313992a-f6d1-4718-902d-743fe30c7e96"},"vehicle_type_id":"4","last_reported":1728508093,"current_range_meters":38800,"station_id":"ce4bhg12rcd13ifvqf60","pricing_plan_id":"cebpf4jnsgd1na2vs0mg"},{"bike_id":"3be81f54-e068-494a-9d94-36870d0b625f","system_id":"levelo_inurba_marseille","lat":43.28454,"lon":5.35887,"is_reserved":false,"is_disabled":false,"rental_uris":{"android":"levelo://app?vid=3be81f54-e068-494a-9d94-36870d0b625f","ios":"levelo://app?vid=3be81f54-e068-494a-9d94-36870d0b625f"},"vehicle_type_id":"4","last_reported":1728508093,"current_range_meters":30000,"station_id":"ce4bhah2rcd13ifvqei0","pricing_plan_id":"cebpf4jnsgd1na2vs0mg"},{"bike_id":"f0d8c7a2-27b8-469a-b9f8-c2f6cbfd5f73","system_id":"levelo_inurba_marseille","lat":43.25089,"lon":5.39527,"is_reserved":false,"is_disabled":false,"rental_uris":{"android":"levelo://app?vid=f0d8c7a2-27b8-469a-b9f8-c2f6cbfd5f73","ios":"levelo://app?vid=f0d8c7a2-27b8-469a-b9f8-c2f6cbfd5f73"},"vehicle_type_id":"4","last_reported":1728508093,"current_range_meters":12800,"station_id":"ce4bhm12rcd13ifvqgkg","pricing_plan_id":"cebpf4jnsgd1na2vs0mg"},{"bike_id":"746d5dc0-a4b8-4746-858a-7dea404b6b8c","system_id":"levelo_inurba_marseille","lat":43.27919,"lon":5.39584,"is_reserved":false,"is_disabled":false,"rental_uris":{"android":"levelo://app?vid=746d5dc0-a4b8-4746-858a-7dea404b6b8c","ios":"levelo://app?vid=746d5dc0-a4b8-4746-858a-7dea404b6b8c"},"vehicle_type_id":"4","last_reported":1728508093,"current_range_meters":10800,"station_id":"ce4bhf92rcd13ifvqf40","pricing_plan_id":"cebpf4jnsgd1na2vs0mg"},{"bike_id":"bb8c49f9-d140-4d9b-93d7-4c09ebd18449","system_id":"levelo_inurba_marseille","lat":43.28468,"lon":5.35895,"is_reserved":false,"is_disabled":false,"rental_uris":{"android":"levelo://app?vid=bb8c49f9-d140-4d9b-93d7-4c09ebd18449","ios":"levelo://app?vid=bb8c49f9-d140-4d9b-93d7-4c09ebd18449"},"vehicle_type_id":"4","last_reported":1728508093,"current_range_meters":20400,"station_id":"ce4bhah2rcd13ifvqei0","pricing_plan_id":"cebpf4jnsgd1na2vs0mg"},{"bike_id":"3599e7f0-1c9a-45ab-b5d0-b7494e61233b","system_id":"levelo_inurba_marseille","lat":43.29979,"lon":5.37175,"is_reserved":false,"is_disabled":false,"rental_uris":{"android":"levelo://app?vid=3599e7f0-1c9a-45ab-b5d0-b7494e61233b","ios":"levelo://app?vid=3599e7f0-1c9a-45ab-b5d0-b7494e61233b"},"vehicle_type_id":"4","last_reported":1728508093,"current_range_meters":36400,"station_id":"ce4bgr92rcd13ifvqc7g","pricing_plan_id":"cebpf4jnsgd1na2vs0mg"},{"bike_id":"3ab46193-4f84-435a-b3f5-67089f46f93b","system_id":"levelo_inurba_marseille","lat":43.25005,"lon":5.38922,"is_reserved":false,"is_disabled":false,"rental_uris":{"android":"levelo://app?vid=3ab46193-4f84-435a-b3f5-67089f46f93b","ios":"levelo://app?vid=3ab46193-4f84-435a-b3f5-67089f46f93b"},"vehicle_type_id":"4","last_reported":1728508093,"current_range_meters":36400,"station_id":"ce4bhgp2rcd13ifvqfd0","pricing_plan_id":"cebpf4jnsgd1na2vs0mg"},{"bike_id":"ef47fd66-f90e-4346-897d-bf00f7a1142c","system_id":"levelo_inurba_marseille","lat":43.29193,"lon":5.38604,"is_reserved":false,"is_disabled":false,"rental_uris":{"android":"levelo://app?vid=ef47fd66-f90e-4346-897d-bf00f7a1142c","ios":"levelo://app?vid=ef47fd66-f90e-4346-897d-bf00f7a1142c"},"vehicle_type_id":"4","last_reported":1728508093,"current_range_meters":12000,"station_id":"","pricing_plan_id":"cebpf4jnsgd1na2vs0mg"},{"bike_id":"e0806aa6-77ff-48d5-8c74-cf3df3cf6320","system_id":"levelo_inurba_marseille","lat":43.28274,"lon":5.35065,"is_reserved":false,"is_disabled":false,"rental_uris":{"android":"levelo://app?vid=e0806aa6-77ff-48d5-8c74-cf3df3cf6320","ios":"levelo://app?vid=e0806aa6-77ff-48d5-8c74-cf3df3cf6320"},"vehicle_type_id":"4","last_reported":1728508093,"current_range_meters":25200,"station_id":"ce4bhbp2rcd13ifvqerg","pricing_plan_id":"cebpf4jnsgd1na2vs0mg"},{"bike_id":"c18ae760-fb71-43db-9144-00755b1bc3b8","system_id":"levelo_inurba_marseille","lat":43.28462,"lon":5.35874,"is_reserved":false,"is_disabled":false,"rental_uris":{"android":"levelo://app?vid=c18ae760-fb71-43db-9144-00755b1bc3b8","ios":"levelo://app?vid=c18ae760-fb71-43db-9144-00755b1bc3b8"},"vehicle_type_id":"4","last_reported":1728508093,"current_range_meters":35200,"station_id":"ce4bhah2rcd13ifvqei0","pricing_plan_id":"cebpf4jnsgd1na2vs0mg"},{"bike_id":"91b0f2de-65fb-44d9-a9c1-0386f46a1f8d","system_id":"levelo_inurba_marseille","lat":43.28572,"lon":5.39485,"is_reserved":false,"is_disabled":false,"rental_uris":{"android":"levelo://app?vid=91b0f2de-65fb-44d9-a9c1-0386f46a1f8d","ios":"levelo://app?vid=91b0f2de-65fb-44d9-a9c1-0386f46a1f8d"},"vehicle_type_id":"4","last_reported":1728508093,"current_range_meters":13600,"station_id":"ce4bh292rcd13ifvqdg0","pricing_plan_id":"cebpf4jnsgd1na2vs0mg"},{"bike_id":"72cc773e-a315-422f-8868-9fcf79057c01","system_id":"levelo_inurba_marseille","lat":43.28572,"lon":5.39505,"is_reserved":false,"is_disabled":false,"rental_uris":{"android":"levelo://app?vid=72cc773e-a315-422f-8868-9fcf79057c01","ios":"levelo://app?vid=72cc773e-a315-422f-8868-9fcf79057c01"},"vehicle_type_id":"4","last_reported":1728508093,"current_range_meters":33600,"station_id":"ce4bh292rcd13ifvqdg0","pricing_plan_id":"cebpf4jnsgd1na2vs0mg"},{"bike_id":"a4281430-2c48-4302-934f-13b654323d34","system_id":"levelo_inurba_marseille","lat":43.28153,"lon":5.42639,"is_reserved":false,"is_disabled":false,"rental_uris":{"android":"levelo://app?vid=a4281430-2c48-4302-934f-13b654323d34","ios":"levelo://app?vid=a4281430-2c48-4302-934f-13b654323d34"},"vehicle_type_id":"4","last_reported":1728508093,"current_range_meters":38000,"station_id":"ce4bhnh2rcd13ifvqgug","pricing_plan_id":"cebpf4jnsgd1na2vs0mg"},{"bike_id":"71cd805c-f9cc-4cfa-bd33-ae73d4a0225a","system_id":"levelo_inurba_marseille","lat":43.29781,"lon":5.39342,"is_reserved":false,"is_disabled":false,"rental_uris":{"android":"levelo://app?vid=71cd805c-f9cc-4cfa-bd33-ae73d4a0225a","ios":"levelo://app?vid=71cd805c-f9cc-4cfa-bd33-ae73d4a0225a"},"vehicle_type_id":"4","last_reported":1728508093,"current_range_meters":9200,"station_id":"chh1huq6cuj3fo74tm60","pricing_plan_id":"cebpf4jnsgd1na2vs0mg"},{"bike_id":"92ed4025-32d2-43d5-8e60-e3c0ef293359","system_id":"levelo_inurba_marseille","lat":43.32297,"lon":5.38265,"is_reserved":false,"is_disabled":false,"rental_uris":{"android":"levelo://app?vid=92ed4025-32d2-43d5-8e60-e3c0ef293359","ios":"levelo://app?vid=92ed4025-32d2-43d5-8e60-e3c0ef293359"},"vehicle_type_id":"4","last_reported":1728508093,"current_range_meters":8400,"station_id":"ce4bhr12rcd13ifvqhqg","pricing_plan_id":"cebpf4jnsgd1na2vs0mg"},{"bike_id":"4f68228e-466d-443b-b603-f1bbe9be24a5","system_id":"levelo_inurba_marseille","lat":43.30887,"lon":5.39641,"is_reserved":false,"is_disabled":false,"rental_uris":{"android":"levelo://app?vid=4f68228e-466d-443b-b603-f1bbe9be24a5","ios":"levelo://app?vid=4f68228e-466d-443b-b603-f1bbe9be24a5"},"vehicle_type_id":"4","last_reported":1728508093,"current_range_meters":38800,"station_id":"ce4bh012rcd13ifvqcv0","pricing_plan_id":"cebpf4jnsgd1na2vs0mg"},{"bike_id":"d3273862-e681-44d0-a625-8247fb14c45a","system_id":"levelo_inurba_marseille","lat":43.25865,"lon":5.39903,"is_reserved":false,"is_disabled":false,"rental_uris":{"android":"levelo://app?vid=d3273862-e681-44d0-a625-8247fb14c45a","ios":"levelo://app?vid=d3273862-e681-44d0-a625-8247fb14c45a"},"vehicle_type_id":"4","last_reported":1728508093,"current_range_meters":38800,"station_id":"ce4bhl92rcd13ifvqghg","pricing_plan_id":"cebpf4jnsgd1na2vs0mg"},{"bike_id":"576e423f-ac45-4f0f-abc4-c5de3f2f8f2c","system_id":"levelo_inurba_marseille","lat":43.31324,"lon":5.39693,"is_reserved":false,"is_disabled":false,"rental_uris":{"android":"levelo://app?vid=576e423f-ac45-4f0f-abc4-c5de3f2f8f2c","ios":"levelo://app?vid=576e423f-ac45-4f0f-abc4-c5de3f2f8f2c"},"vehicle_type_id":"4","last_reported":1728508093,"current_range_meters":37600,"station_id":"ce4bgvp2rcd13ifvqcu0","pricing_plan_id":"cebpf4jnsgd1na2vs0mg"},{"bike_id":"f59b3222-2c68-4488-bd5b-1ce5a42f9807","system_id":"levelo_inurba_marseille","lat":43.302821,"lon":5.377139,"is_reserved":false,"is_disabled":false,"rental_uris":{"android":"levelo://app?vid=f59b3222-2c68-4488-bd5b-1ce5a42f9807","ios":"levelo://app?vid=f59b3222-2c68-4488-bd5b-1ce5a42f9807"},"vehicle_type_id":"4","last_reported":1728508093,"current_range_meters":30800,"station_id":"ce4bha12rcd13ifvqee0","pricing_plan_id":"cebpf4jnsgd1na2vs0mg"},{"bike_id":"baca7c7d-6f20-4b1b-8e5a-d21fbb408c48","system_id":"levelo_inurba_marseille","lat":43.29035,"lon":5.39972,"is_reserved":false,"is_disabled":false,"rental_uris":{"android":"levelo://app?vid=baca7c7d-6f20-4b1b-8e5a-d21fbb408c48","ios":"levelo://app?vid=baca7c7d-6f20-4b1b-8e5a-d21fbb408c48"},"vehicle_type_id":"4","last_reported":1728508093,"current_range_meters":7200,"station_id":"ce4bh392rcd13ifvqdm0","pricing_plan_id":"cebpf4jnsgd1na2vs0mg"},{"bike_id":"b49ff9c0-3b63-4cb0-9f91-a784ac364577","system_id":"levelo_inurba_marseille","lat":43.2722,"lon":5.39186,"is_reserved":false,"is_disabled":false,"rental_uris":{"android":"levelo://app?vid=b49ff9c0-3b63-4cb0-9f91-a784ac364577","ios":"levelo://app?vid=b49ff9c0-3b63-4cb0-9f91-a784ac364577"},"vehicle_type_id":"4","last_reported":1728508093,"current_range_meters":33200,"station_id":"ce4bhhp2rcd13ifvqfm0","pricing_plan_id":"cebpf4jnsgd1na2vs0mg"},{"bike_id":"8c61a48f-28ea-4db1-b810-97942d753d8e","system_id":"levelo_inurba_marseille","lat":43.23964,"lon":5.36629,"is_reserved":false,"is_disabled":false,"rental_uris":{"android":"levelo://app?vid=8c61a48f-28ea-4db1-b810-97942d753d8e","ios":"levelo://app?vid=8c61a48f-28ea-4db1-b810-97942d753d8e"},"vehicle_type_id":"4","last_reported":1728508093,"current_range_meters":3600,"station_id":"ce4bhi12rcd13ifvqfp0","pricing_plan_id":"cebpf4jnsgd1na2vs0mg"},{"bike_id":"7eeaae80-5ceb-4b84-8d8d-801ad296a727","system_id":"levelo_inurba_marseille","lat":43.29622,"lon":5.37163,"is_reserved":false,"is_disabled":false,"rental_uris":{"android":"levelo://app?vid=7eeaae80-5ceb-4b84-8d8d-801ad296a727","ios":"levelo://app?vid=7eeaae80-5ceb-4b84-8d8d-801ad296a727"},"vehicle_type_id":"4","last_reported":1728508093,"current_range_meters":38800,"station_id":"ce4bgnh2rcd13ifvqc0g","pricing_plan_id":"cebpf4jnsgd1na2vs0mg"},{"bike_id":"2bc5f93b-b1d3-4403-8433-9d873dfb16de","system_id":"levelo_inurba_marseille","lat":43.25113,"lon":5.4033,"is_reserved":false,"is_disabled":false,"rental_uris":{"android":"levelo://app?vid=2bc5f93b-b1d3-4403-8433-9d873dfb16de","ios":"levelo://app?vid=2bc5f93b-b1d3-4403-8433-9d873dfb16de"},"vehicle_type_id":"4","last_reported":1728508093,"current_range_meters":38800,"station_id":"ce4bhlh2rcd13ifvqgig","pricing_plan_id":"cebpf4jnsgd1na2vs0mg"},