{"last_updated":1740989646,"ttl":60,"version":"2.2","data":{"bikes":[{"bike_id":"d5458f89-73a3-43f1-9894-000389f52995","system_id":"levelo_inurba_marseille","lat":43.27551,"lon":5.41657,"is_reserved":false,"is_disabled":true,"rental_uris":{"android":"levelo://app?vid=d5458f89-73a3-43f1-9894-000389f52995","ios":"levelo://app?vid=d5458f89-73a3-43f1-9894-000389f52995"},"vehicle_type_id":"4","last_reported":1740989646,"current_range_meters":0,"station_id":"","pricing_plan_id":"cebpf4jnsgd1na2vs0mg"},{"bike_id":"afcec8eb-28d8-4889-8879-0897cb5957e3","system_id":"levelo_inurba_marseille","lat":43.28,"lon":5.406,"is_reserved":false,"is_disabled":true,"rental_uris":{"android":"levelo://app?vid=afcec8eb-28d8-4889-8879-0897cb5957e3","ios":"levelo://app?vid=afcec8eb-28d8-4889-8879-0897cb5957e3"},"vehicle_type_id":"4","last_reported":1740989646,"current_range_meters":0,"station_id":"","pricing_plan_id":"cebpf4jnsgd1na2vs0mg"},{"bike_id":"7299c7f5-b19a-415a-98fb-92e8f867f54e","system_id":"levelo_inurba_marseille","lat":43.3168,"lon":5.39727,"is_reserved":false,"is_disabled":true,"rental_uris":{"android":"levelo://app?vid=7299c7f5-b19a-415a-98fb-92e8f867f54e","ios":"levelo://app?vid=7299c7f5-b19a-415a-98fb-92e8f867f54e"},"vehicle_type_id":"4","last_reported":1740989646,"current_range_meters":0,"station_id":"","pricing_plan_id":"cebpf4jnsgd1na2vs0mg"},{"bike_id":"6bead628-b45f-47a3-8763-22c7c035af2e","system_id":"levelo_inurba_marseille","lat":43.33223,"lon":5.39754,"is_reserved":false,"is_disabled":true,"rental_uris":{"android":"levelo://app?vid=6bead628-b45f-47a3-8763-22c7c035af2e","ios":"levelo://app?vid=6bead628-b45f-47a3-8763-22c7c035af2e"},"vehicle_type_id":"4","last_reported":1740989646,"current_range_meters":0,"station_id":"","pricing_plan_id":"cebpf4jnsgd1na2vs0mg"},{"bike_id":"0aba857b-44fd-4c08-a47b-aac762062db1","system_id":"levelo_inurba_marseille","lat":43.26854,"lon":5.39445,"is_reserved":false,"is_disabled":true,"rental_uris":{"android":"levelo://app?vid=0aba857b-44fd-4c08-a47b-aac762062db1","ios":"levelo://app?vid=0aba857b-44fd-4c08-a47b-aac762062db1"},"vehicle_type_id":"4","last_reported":1740989646,"current_range_meters":0,"station_id":"","pricing_plan_id":"cebpf4jnsgd1na2vs0mg"},{"bike_id":"7f4f95a7-1af3-4fd9-9204-6304ca242ca9","system_id":"levelo_inurba_marseille","lat":43.29913,"lon":5.38118,"is_reserved":false,"is_disabled":true,"rental_uris":{"android":"levelo://app?vid=7f4f95a7-1af3-4fd9-9204-6304ca242ca9","ios":"levelo://app?vid=7f4f95a7-1af3-4fd9-9204-6304ca242ca9"},"vehicle_type_id":"4","last_reported":1740989646,"current_range_meters":0,"station_id":"ce4bgj12rcd13ifvqbc0","pricing_plan_id":"cebpf4jnsgd1na2vs0mg"},{"bike_id":"43d8ba61-ddec-470e-b256-9523e4201939","system_id":"levelo_inurba_marseille","lat":43.30114,"lon":5.39068,"is_reserved":false,"is_disabled":true,"rental_uris":{"android":"levelo://app?vid=43d8ba61-ddec-470e-b256-9523e4201939","ios":"levelo://app?vid=43d8ba61-ddec-470e-b256-9523e4201939"},"vehicle_type_id":"4","last_reported":1740989646,"current_range_meters":0,"station_id":"ce4bh192rcd13ifvqdb0","pricing_plan_id":"cebpf4jnsgd1na2vs0mg"},{"bike_id":"7661d539-bffb-44cc-a64d-67a8684941c2","system_id":"levelo_inurba_marseille","lat":43.26026,"lon":5.37563,"is_reserved":false,"is_disabled":true,"rental_uris":{"android":"levelo://app?vid=7661d539-bffb-44cc-a64d-67a8684941c2","ios":"levelo://app?vid=7661d539-bffb-44cc-a64d-67a8684941c2"},"vehicle_type_id":"4","last_reported":1740989646,"current_range_meters":0,"station_id":"ce4bhgh2rcd13ifvqfa0","pricing_plan_id":"cebpf4jnsgd1na2vs0mg"},{"bike_id":"2f91dc2e-9bfe-4b4b-9407-d984fd8ccf1f","system_id":"levelo_inurba_marseille","lat":43.2314,"lon":5.43709,"is_reserved":false,"is_disabled":true,"rental_uris":{"android":"levelo://app?vid=2f91dc2e-9bfe-4b4b-9407-d984fd8ccf1f","ios":"levelo://app?vid=2f91dc2e-9bfe-4b4b-9407-d984fd8ccf1f"},"vehicle_type_id":"4","last_reported":1740989646,"current_range_meters":0,"station_id":"ce4bhmp2rcd13ifvqgog","pricing_plan_id":"cebpf4jnsgd1na2vs0mg"},{"bike_id":"757eba66-4149-42bd-b948-108e047a6ee8","system_id":"levelo_inurba_marseille","lat":43.23179,"lon":5.43663,"is_reserved":false,"is_disabled":true,"rental_uris":{"android":"levelo://app?vid=757eba66-4149-42bd-b948-108e047a6ee8","ios":"levelo://app?vid=757eba66-4149-42bd-b948-108e047a6ee8"},"vehicle_type_id":"4","last_reported":1740989646,"current_range_meters":0,"station_id":"ce4bhmp2rcd13ifvqgog","pricing_plan_id":"cebpf4jnsgd1na2vs0mg"},{"bike_id":"0b7f5b71-f4ed-4763-9583-67e09d08abcf","system_id":"levelo_inurba_marseille","lat":43.24178,"lon":5.39729,"is_reserved":false,"is_disabled":true,"rental_uris":{"android":"levelo://app?vid=0b7f5b71-f4ed-4763-9583-67e09d08abcf","ios":"levelo://app?vid=0b7f5b71-f4ed-4763-9583-67e09d08abcf"},"vehicle_type_id":"4","last_reported":1740989646,"current_range_meters":0,"station_id":"ce4bhn12rcd13ifvqgpg","pricing_plan_id":"cebpf4jnsgd1na2vs0mg"},{"bike_id":"28f34d60-4464-4cd7-a2b7-feed8edfc586","system_id":"levelo_inurba_marseille","lat":43.27496,"lon":5.42468,"is_reserved":false,"is_disabled":true,"rental_uris":{"android":"levelo://app?vid=28f34d60-4464-4cd7-a2b7-feed8edfc586","ios":"levelo://app?vid=28f34d60-4464-4cd7-a2b7-feed8edfc586"},"vehicle_type_id":"4","last_reported":1740989646,"current_range_meters":0,"station_id":"ce4bhn92rcd13ifvqgrg","pricing_plan_id":"cebpf4jnsgd1na2vs0mg"},{"bike_id":"d7ee2a0c-5521-43cd-b5d8-51146eb86d00","system_id":"levelo_inurba_marseille","lat":43.2816,"lon":5.42643,"is_reserved":false,"is_disabled":true,"rental_uris":{"android":"levelo://app?vid=d7ee2a0c-5521-43cd-b5d8-51146eb86d00","ios":"levelo://app?vid=d7ee2a0c-5521-43cd-b5d8-51146eb86d00"},"vehicle_type_id":"4","last_reported":1740989646,"current_range_meters":0,"station_id":"ce4bhnh2rcd13ifvqgug","pricing_plan_id":"cebpf4jnsgd1na2vs0mg"},{"bike_id":"04ce4393-6eb2-4187-a28b-a25bb58e105b","system_id":"levelo_inurba_marseille","lat":43.24076,"lon":5.37764,"is_reserved":false,"is_disabled":true,"rental_uris":{"android":"levelo://app?vid=04ce4393-6eb2-4187-a28b-a25bb58e105b","ios":"levelo://app?vid=04ce4393-6eb2-4187-a28b-a25bb58e105b"},"vehicle_type_id":"4","last_reported":1740989646,"current_range_meters":0,"station_id":"ce4bhnp2rcd13ifvqgvg","pricing_plan_id":"cebpf4jnsgd1na2vs0mg"},{"bike_id":"6a19106f-e8bd-4e83-8827-71506c322ab2","system_id":"levelo_inurba_marseille","lat":43.286086,"lon":5.370678,"is_reserved":false,"is_disabled":true,"rental_uris":{"android":"levelo://app?vid=6a19106f-e8bd-4e83-8827-71506c322ab2","ios":"levelo://app?vid=6a19106f-e8bd-4e83-8827-71506c322ab2"},"vehicle_type_id":"4","last_reported":1740989646,"current_range_meters":0,"station_id":"ce4bht12rcd13ifvqi60","pricing_plan_id":"cebpf4jnsgd1na2vs0mg"},{"bike_id":"79feedda-f181-4666-b735-dd3cfb2d8c0f","system_id":"levelo_inurba_marseille","lat":43.31888,"lon":5.41158,"is_reserved":false,"is_disabled":true,"rental_uris":{"android":"levelo://app?vid=79feedda-f181-4666-b735-dd3cfb2d8c0f","ios":"levelo://app?vid=79feedda-f181-4666-b735-dd3cfb2d8c0f"},"vehicle_type_id":"4","last_reported":1740989646,"current_range_meters":400,"station_id":"","pricing_plan_id":"cebpf4jnsgd1na2vs0mg"},{"bike_id":"09dd3675-3481-4067-a8c0-48ac686f0f03","system_id":"levelo_inurba_marseille","lat":43.27915,"lon":5.42676,"is_reserved":false,"is_disabled":true,"rental_uris":{"android":"levelo://app?vid=09dd3675-3481-4067-a8c0-48ac686f0f03","ios":"levelo://app?vid=09dd3675-3481-4067-a8c0-48ac686f0f03"},"vehicle_type_id":"4","last_reported":1740989646,"current_range_meters":400,"station_id":"","pricing_plan_id":"cebpf4jnsgd1na2vs0mg"},{"bike_id":"303ede4b-ba3a-454e-9910-ea8b7f4dff49","system_id":"levelo_inurba_marseille","lat":43.29097,"lon":5.40087,"is_reserved":false,"is_disabled":true,"rental_uris":{"android":"levelo://app?vid=303ede4b-ba3a-454e-9910-ea8b7f4dff49","ios":"levelo://app?vid=303ede4b-ba3a-454e-9910-ea8b7f4dff49"},"vehicle_type_id":"4","last_reported":1740989646,"current_range_meters":400,"station_id":"ce4bh392rcd13ifvqdm0","pricing_plan_id":"cebpf4jnsgd1na2vs0mg"},{"bike_id":"5933c5af-96d8-4761-ab95-b6721671f58e","system_id":"levelo_inurba_marseille","lat":43.2833,"lon":5.38115,"is_reserved":false,"is_disabled":true,"rental_uris":{"android":"levelo://app?vid=5933c5af-96d8-4761-ab95-b6721671f58e","ios":"levelo://app?vid=5933c5af-96d8-4761-ab95-b6721671f58e"},"vehicle_type_id":"4","last_reported":1740989646,"current_range_meters":400,"station_id":"ce4bh412rcd13ifvqdr0","pricing_plan_id":"cebpf4jnsgd1na2vs0mg"},{"bike_id":"05efb80a-a1a5-4b4d-8733-2780fddf4e5b","system_id":"levelo_inurba_marseille","lat":43.28081,"lon":5.40839,"is_reserved":false,"is_disabled":true,"rental_uris":{"android":"levelo://app?vid=05efb80a-a1a5-4b4d-8733-2780fddf4e5b","ios":"levelo://app?vid=05efb80a-a1a5-4b4d-8733-2780fddf4e5b"},"vehicle_type_id":"4","last_reported":1740989646,"current_range_meters":800,"station_id":"","pricing_plan_id":"cebpf4jnsgd1na2vs0mg"},{"bike_id":"d5de36dd-5d22-4765-8f01-09ddd8b02c2e","system_id":"levelo_inurba_marseille","lat":43.32963,"lon":5.40864,"is_reserved":false,"is_disabled":true,"rental_uris":{"android":"levelo://app?vid=d5de36dd-5d22-4765-8f01-09ddd8b02c2e","ios":"levelo://app?vid=d5de36dd-5d22-4765-8f01-09ddd8b02c2e"},"vehicle_type_id":"4","last_reported":1740989646,"current_range_meters":800,"station_id":"","pricing_plan_id":"cebpf4jnsgd1na2vs0mg"},{"bike_id":"b13f09f6-5c53-4412-9e95-473a3b94258f","system_id":"levelo_inurba_marseille","lat":43.29601,"lon":5.38103,"is_reserved":false,"is_disabled":true,"rental_uris":{"android":"levelo://app?vid=b13f09f6-5c53-4412-9e95-473a3b94258f","ios":"levelo://app?vid=b13f09f6-5c53-4412-9e95-473a3b94258f"},"vehicle_type_id":"4","last_reported":1740989646,"current_range_meters":800,"station_id":"ce4bgl12rcd13ifvqbo0","pricing_plan_id":"cebpf4jnsgd1na2vs0mg"},{"bike_id":"f5afcbca-f474-4bfe-b445-8882fbe30242","system_id":"levelo_inurba_marseille","lat":43.2909,"lon":5.38151,"is_reserved":false,"is_disabled":true,"rental_uris":{"android":"levelo://app?vid=f5afcbca-f474-4bfe-b445-8882fbe30242","ios":"levelo://app?vid=f5afcbca-f474-4bfe-b445-8882fbe30242"},"vehicle_type_id":"4","last_reported":1740989646,"current_range_meters":800,"station_id":"ce4bh512rcd13ifvqe2g","pricing_plan_id":"cebpf4jnsgd1na2vs0mg"},{"bike_id":"cae47438-eddb-4ea7-ad60-e45ef1cce088","system_id":"levelo_inurba_marseille","lat":43.32536,"lon":5.41435,"is_reserved":false,"is_disabled":true,"rental_uris":{"android":"levelo://app?vid=cae47438-eddb-4ea7-ad60-e45ef1cce088","ios":"levelo://app?vid=cae47438-eddb-4ea7-ad60-e45ef1cce088"},"vehicle_type_id":"4","last_reported":1740989646,"current_range_meters":800,"station_id":"ce4bhq12rcd13ifvqhhg","pricing_plan_id":"cebpf4jnsgd1na2vs0mg"},{"bike_id":"d81b2cc8-fb23-4c08-9ddd-89d546b76a90","system_id":"levelo_inurba_marseille","lat":43.32536,"lon":5.3859,"is_reserved":false,"is_disabled":true,"rental_uris":{"android":"levelo://app?vid=d81b2cc8-fb23-4c08-9ddd-89d546b76a90","ios":"levelo://app?vid=d81b2cc8-fb23-4c08-9ddd-89d546b76a90"},"vehicle_type_id":"4","last_reported":1740989646,"current_range_meters":1200,"station_id":"","pricing_plan_id":"cebpf4jnsgd1na2vs0mg"},{"bike_id":"e65d2be1-9161-4ae6-9036-c75e0fa7ad1f","system_id":"levelo_inurba_marseille","lat":43.2651,"lon":5.39029,"is_reserved":false,"is_disabled":true,"rental_uris":{"android":"levelo://app?vid=e65d2be1-9161-4ae6-9036-c75e0fa7ad1f","ios":"levelo://app?vid=e65d2be1-9161-4ae6-9036-c75e0fa7ad1f"},"vehicle_type_id":"4","last_reported":1740989646,"current_range_meters":1200,"station_id":"","pricing_plan_id":"cebpf4jnsgd1na2vs0mg"},{"bike_id":"8c2cf4a0-d728-40ff-934b-06605c93baf4","system_id":"levelo_inurba_marseille","lat":43.279388,"lon":5.410568,"is_reserved":false,"is_disabled":true,"rental_uris":{"android":"levelo://app?vid=8c2cf4a0-d728-40ff-934b-06605c93baf4","ios":"levelo://app?vid=8c2cf4a0-d728-40ff-934b-06605c93baf4"},"vehicle_type_id":"4","last_reported":1740989646,"current_range_meters":1200,"station_id":"ce4bgt12rcd13ifvqce0","pricing_plan_id":"cebpf4jnsgd1na2vs0mg"},{"bike_id":"27b7843e-3934-44bc-8565-42c1b5629bf5","system_id":"levelo_inurba_marseille","lat":43.2707,"lon":5.42281,"is_reserved":false,"is_disabled":true,"rental_uris":{"android":"levelo://app?vid=27b7843e-3934-44bc-8565-42c1b5629bf5","ios":"levelo://app?vid=27b7843e-3934-44bc-8565-42c1b5629bf5"},"vehicle_type_id":"4","last_reported":1740989646,"current_range_meters":1200,"station_id":"ce4bhk92rcd13ifvqgb0","pricing_plan_id":"cebpf4jnsgd1na2vs0mg"},{"bike_id":"48bad899-0577-4a3f-9ec8-345a0e75180e","system_id":"levelo_inurba_marseille","lat":43.25932,"lon":5.40907,"is_reserved":false,"is_disabled":true,"rental_uris":{"android":"levelo://app?vid=48bad899-0577-4a3f-9ec8-345a0e75180e","ios":"levelo://app?vid=48bad899-0577-4a3f-9ec8-345a0e75180e"},"vehicle_type_id":"4","last_reported":1740989646,"current_range_meters":1200,"station_id":"ce4bhm92rcd13ifvqglg","pricing_plan_id":"cebpf4jnsgd1na2vs0mg"},{"bike_id":"b009fe55-4d59-4f52-910b-e497dc53dfe6","system_id":"levelo_inurba_marseille","lat":43.23155,"lon":5.43708,"is_reserved":false,"is_disabled":true,"rental_uris":{"android":"levelo://app?vid=b009fe55-4d59-4f52-910b-e497dc53dfe6","ios":"levelo://app?vid=b009fe55-4d59-4f52-910b-e497dc53dfe6"},"vehicle_type_id":"4","last_reported":1740989646,"current_range_meters":1200,"station_id":"ce4bhmp2rcd13ifvqgog","pricing_plan_id":"cebpf4jnsgd1na2vs0mg"},{"bike_id":"318e62ec-c992-4c2f-8ce0-cf60457d06ba","system_id":"levelo_inurba_marseille","lat":43.21801,"lon":5.34572,"is_reserved":false,"is_disabled":true,"rental_uris":{"android":"levelo://app?vid=318e62ec-c992-4c2f-8ce0-cf60457d06ba","ios":"levelo://app?vid=318e62ec-c992-4c2f-8ce0-cf60457d06ba"},"vehicle_type_id":"4","last_reported":1740989646,"current_range_meters":1600,"station_id":"","pricing_plan_id":"cebpf4jnsgd1na2vs0mg"},{"bike_id":"d5f3545a-d7d3-4bdb-b9ca-af46e105f623","system_id":"levelo_inurba_marseille","lat":43.2742,"lon":5.39395,"is_reserved":false,"is_disabled":true,"rental_uris":{"android":"levelo://app?vid=d5f3545a-d7d3-4bdb-b9ca-af46e105f623","ios":"levelo://app?vid=d5f3545a-d7d3-4bdb-b9ca-af46e105f623"},"vehicle_type_id":"4","last_reported":1740989646,"current_range_meters":1600,"station_id":"ce4bhdp2rcd13ifvqf20","pricing_plan_id":"cebpf4jnsgd1na2vs0mg"},{"bike_id":"4d15a0ff-dbc1-4906-88fb-c8319b3e5651","system_id":"levelo_inurba_marseille","lat":43.2741,"lon":5.39407,"is_reserved":false,"is_disabled":true,"rental_uris":{"android":"levelo://app?vid=4d15a0ff-dbc1-4906-88fb-c8319b3e5651","ios":"levelo://app?vid=4d15a0ff-dbc1-4906-88fb-c8319b3e5651"},"vehicle_type_id":"4","last_reported":1740989646,"current_range_meters":1600,"station_id":"ce4bhdp2rcd13ifvqf20","pricing_plan_id":"cebpf4jnsgd1na2vs0mg"},{"bike_id":"2a6c84cf-c8a9-4f5d-86a2-89faec862185","system_id":"levelo_inurba_marseille","lat":43.24073,"lon":5.37751,"is_reserved":false,"is_disabled":true,"rental_uris":{"android":"levelo://app?vid=2a6c84cf-c8a9-4f5d-86a2-89faec862185","ios":"levelo://app?vid=2a6c84cf-c8a9-4f5d-86a2-89faec862185"},"vehicle_type_id":"4","last_reported":1740989646,"current_range_meters":1600,"station_id":"ce4bhnp2rcd13ifvqgvg","pricing_plan_id":"cebpf4jnsgd1na2vs0mg"},{"bike_id":"2fcd25b0-c421-4d0f-ba30-5f6f5ff608f3","system_id":"levelo_inurba_marseille","lat":43.30744,"lon":5.38658,"is_reserved":false,"is_disabled":true,"rental_uris":{"android":"levelo://app?vid=2fcd25b0-c421-4d0f-ba30-5f6f5ff608f3","ios":"levelo://app?vid=2fcd25b0-c421-4d0f-ba30-5f6f5ff608f3"},"vehicle_type_id":"4","last_reported":1740989646,"current_range_meters":2000,"station_id":"","pricing_plan_id":"cebpf4jnsgd1na2vs0mg"},{"bike_id":"cb0ff180-4457-492e-bdba-a09643559810","system_id":"levelo_inurba_marseille","lat":43.28346,"lon":5.38101,"is_reserved":false,"is_disabled":true,"rental_uris":{"android":"levelo://app?vid=cb0ff180-4457-492e-bdba-a09643559810","ios":"levelo://app?vid=cb0ff180-4457-492e-bdba-a09643559810"},"vehicle_type_id":"4","last_reported":1740989646,"current_range_meters":2000,"station_id":"ce4bh412rcd13ifvqdr0","pricing_plan_id":"cebpf4jnsgd1na2vs0mg"},{"bike_id":"793223ef-cb30-4133-ab1d-f689587862a6","system_id":"levelo_inurba_marseille","lat":43.2793,"lon":5.38721,"is_reserved":false,"is_disabled":false,"rental_uris":{"android":"levelo://app?vid=793223ef-cb30-4133-ab1d-f689587862a6","ios":"levelo://app?vid=793223ef-cb30-4133-ab1d-f689587862a6"},"vehicle_type_id":"4","last_reported":1740989646,"current_range_meters":2800,"station_id":"","pricing_plan_id":"cebpf4jnsgd1na2vs0mg"},{"bike_id":"0ec2b7fa-8c94-4ea8-b0e3-cf9f7d644284","system_id":"levelo_inurba_marseille","lat":43.29279,"lon":5.40116,"is_reserved":false,"is_disabled":false,"rental_uris":{"android":"levelo://app?vid=0ec2b7fa-8c94-4ea8-b0e3-cf9f7d644284","ios":"levelo://app?vid=0ec2b7fa-8c94-4ea8-b0e3-cf9f7d644284"},"vehicle_type_id":"4","last_reported":1740989646,"current_range_meters":2800,"station_id":"ce4bh312rcd13ifvqdk0","pricing_plan_id":"cebpf4jnsgd1na2vs0mg"},{"bike_id":"769136f3-f3ae-4411-b6d7-424e2510d081","system_id":"levelo_inurba_marseille","lat":43.31338,"lon":5.36723,"is_reserved":false,"is_disabled":false,"rental_uris":{"android":"levelo://app?vid=769136f3-f3ae-4411-b6d7-424e2510d081","ios":"levelo://app?vid=769136f3-f3ae-4411-b6d7-424e2510d081"},"vehicle_type_id":"4","last_reported":1740989646,"current_range_meters":3200,"station_id":"ce4bgr92rcd13ifvqc6g","pricing_plan_id":"cebpf4jnsgd1na2vs0mg"},{"bike_id":"0921ae20-6587-4b01-b6f4-0ba8ce35e8a2","system_id":"levelo_inurba_marseille","lat":43.30962,"lon":5.39037,"is_reserved":false,"is_disabled":false,"rental_uris":{"android":"levelo://app?vid=0921ae20-6587-4b01-b6f4-0ba8ce35e8a2","ios":"levelo://app?vid=0921ae20-6587-4b01-b6f4-0ba8ce35e8a2"},"vehicle_type_id":"4","last_reported":1740989646,"current_range_meters":3200,"station_id":"ce4bgup2rcd13ifvqco0","pricing_plan_id":"cebpf4jnsgd1na2vs0mg"},{"bike_id":"c597cca8-b829-4a07-9d89-148ceb7df48a","system_id":"levelo_inurba_marseille","lat":43.30325,"lon":5.36871,"is_reserved":false,"is_disabled":false,"rental_uris":{"android":"levelo://app?vid=c597cca8-b829-4a07-9d89-148ceb7df48a","ios":"levelo://app?vid=c597cca8-b829-4a07-9d89-148ceb7df48a"},"vehicle_type_id":"4","last_reported":1740989646,"current_range_meters":4000,"station_id":"ce4bgqh2rcd13ifvqc5g","pricing_plan_id":"cebpf4jnsgd1na2vs0mg"},{"bike_id":"9d9d962e-3b57-4444-8953-2256b34e6c3a","system_id":"levelo_inurba_marseille","lat":43.290039,"lon":5.356149,"is_reserved":false,"is_disabled":false,"rental_uris":{"android":"levelo://app?vid=9d9d962e-3b57-4444-8953-2256b34e6c3a","ios":"levelo://app?vid=9d9d962e-3b57-4444-8953-2256b34e6c3a"},"vehicle_type_id":"4","last_reported":1740989646,"current_range_meters":4000,"station_id":"ce4bhjp2rcd13ifvqga0","pricing_plan_id":"cebpf4jnsgd1na2vs0mg"},{"bike_id":"7dbc97d2-8d43-423b-a2e9-b386d44d772f","system_id":"levelo_inurba_marseille","lat":43.27492,"lon":5.42479,"is_reserved":false,"is_disabled":false,"rental_uris":{"android":"levelo://app?vid=7dbc97d2-8d43-423b-a2e9-b386d44d772f","ios":"levelo://app?vid=7dbc97d2-8d43-423b-a2e9-b386d44d772f"},"vehicle_type_id":"4","last_reported":1740989646,"current_range_meters":4000,"station_id":"ce4bhn92rcd13ifvqgrg","pricing_plan_id":"cebpf4jnsgd1na2vs0mg"},{"bike_id":"318dcb1b-9247-409e-9dad-ff18bd11104d","system_id":"levelo_inurba_marseille","lat":43.24794,"lon":5.37469,"is_reserved":false,"is_disabled":false,"rental_uris":{"android":"levelo://app?vid=318dcb1b-9247-409e-9dad-ff18bd11104d","ios":"levelo://app?vid=318dcb1b-9247-409e-9dad-ff18bd11104d"},"vehicle_type_id":"4","last_reported":1740989646,"current_range_meters":4400,"station_id":"ce4bhgh2rcd13ifvqfb0","pricing_plan_id":"cebpf4jnsgd1na2vs0mg"},{"bike_id":"888d2267-0c80-486d-813b-65f07d0c0490","system_id":"levelo_inurba_marseille","lat":43.322751,"lon":5.382844,"is_reserved":false,"is_disabled":false,"rental_uris":{"android":"levelo://app?vid=888d2267-0c80-486d-813b-65f07d0c0490","ios":"levelo://app?vid=888d2267-0c80-486d-813b-65f07d0c0490"},"vehicle_type_id":"4","last_reported":1740989646,"current_range_meters":4800,"station_id":"ce4bhr12rcd13ifvqhqg","pricing_plan_id":"cebpf4jnsgd1na2vs0mg"},{"bike_id":"36d09393-2416-4dae-8e0d-c4643034c234","system_id":"levelo_inurba_marseille","lat":43.302,"lon":5.38056,"is_reserved":false,"is_disabled":false,"rental_uris":{"android":"levelo://app?vid=36d09393-2416-4dae-8e0d-c4643034c234","ios":"levelo://app?vid=36d09393-2416-4dae-8e0d-c4643034c234"},"vehicle_type_id":"4","last_reported":1740989646,"current_range_meters":5600,"station_id":"","pricing_plan_id":"cebpf4jnsgd1na2vs0mg"},{"bike_id":"8e2ea686-2ed9-4286-b302-de7e1e0dbacd","system_id":"levelo_inurba_marseille","lat":43.30898,"lon":5.37884,"is_reserved":false,"is_disabled":false,"rental_uris":{"android":"levelo://app?vid=8e2ea686-2ed9-4286-b302-de7e1e0dbacd","ios":"levelo://app?vid=8e2ea686-2ed9-4286-b302-de7e1e0dbacd"},"vehicle_type_id":"4","last_reported":1740989646,"current_range_meters":5600,"station_id":"","pricing_plan_id":"cebpf4jnsgd1na2vs0mg"},{"bike_id":"c17565b3-aec9-43da-b018-ae34328886d5","system_id":"levelo_inurba_marseille","lat":43.30463,"lon":5.37911,"is_reserved":false,"is_disabled":false,"rental_uris":{"android":"levelo://app?vid=c17565b3-aec9-43da-b018-ae34328886d5","ios":"levelo://app?vid=c17565b3-aec9-43da-b018-ae34328886d5"},"vehicle_type_id":"4","last_reported":1740989646,"current_range_meters":5600,"station_id":"ce4bgup2rcd13ifvqcn0","pricing_plan_id":"cebpf4jnsgd1na2vs0mg"},{"bike_id":"13464e82-edd8-4c3a-9689-e95251e6aa17","system_id":"levelo_inurba_marseille","lat":43.28867,"lon":5.38219,"is_reserved":false,"is_disabled":false,"rental_uris":{"android":"levelo://app?vid=13464e82-edd8-4c3a-9689-e95251e6aa17","ios":"levelo://app?vid=13464e82-edd8-4c3a-9689-e95251e6aa17"},"vehicle_type_id":"4","last_reported":1740989646,"current_range_meters":5600,"station_id":"ce4bh512rcd13ifvqe2g","pricing_plan_id":"cebpf4jnsgd1na2vs0mg"},{"bike_id":"eafe4694-db55-4cde-85aa-971c3787bde8","system_id":"levelo_inurba_marseille","lat":43.24171,"lon":5.36395,"is_reserved":false,"is_disabled":false,"rental_uris":{"android":"levelo://app?vid=eafe4694-db55-4cde-85aa-971c3787bde8","ios":"levelo://app?vid=eafe4694-db55-4cde-85aa-971c3787bde8"},"vehicle_type_id":"4","last_reported":1740989646,"current_range_meters":5600,"station_id":"cpo36qri1sfpv3e86is0","pricing_plan_id":"cebpf4jnsgd1na2vs0mg"},{"bike_id":"6bd09beb-8176-4450-80f3-9835e485b9a3","system_id":"levelo_inurba_marseille","lat":43.30152,"lon":5.38087,"is_reserved":false,"is_disabled":false,"rental_uris":{"android":"levelo://app?vid=6bd09beb-8176-4450-80f3-9835e485b9a3","ios":"levelo://app?vid=6bd09beb-8176-4450-80f3-9835e485b9a3"},"vehicle_type_id":"4","last_reported":1740989646,"current_range_meters":6000,"station_id":"ce4bgjp2rcd13ifvqbh0","pricing_plan_id":"cebpf4jnsgd1na2vs0mg"},{"bike_id":"15093708-bb83-4389-8f7a-94006113b809","system_id":"levelo_inurba_marseille","lat":43.30634,"lon":5.40098,"is_reserved":false,"is_disabled":false,"rental_uris":{"android":"levelo://app?vid=15093708-bb83-4389-8f7a-94006113b809","ios":"levelo://app?vid=15093708-bb83-4389-8f7a-94006113b809"},"vehicle_type_id":"4","last_reported":1740989646,"current_range_meters":6000,"station_id":"ce4bh112rcd13ifvqda0","pricing_plan_id":"cebpf4jnsgd1na2vs0mg"},{"bike_id":"fa29dcb6-2607-4ad4-851e-c0b5f9e03763","system_id":"levelo_inurba_marseille","lat":43.27426,"lon":5.39422,"is_reserved":false,"is_disabled":false,"rental_uris":{"android":"levelo://app?vid=fa29dcb6-2607-4ad4-851e-c0b5f9e03763","ios":"levelo://app?vid=fa29dcb6-2607-4ad4-851e-c0b5f9e03763"},"vehicle_type_id":"4","last_reported":1740989646,"current_range_meters":6000,"station_id":"ce4bhdp2rcd13ifvqf20","pricing_plan_id":"cebpf4jnsgd1na2vs0mg"},{"bike_id":"97e8d4c3-f9a5-4604-95d3-9a0f93d23194","system_id":"levelo_inurba_marseille","lat":43.29198,"lon":5.40895,"is_reserved":false,"is_disabled":false,"rental_uris":{"android":"levelo://app?vid=97e8d4c3-f9a5-4604-95d3-9a0f93d23194","ios":"levelo://app?vid=97e8d4c3-f9a5-4604-95d3-9a0f93d23194"},"vehicle_type_id":"4","last_reported":1740989646,"current_range_meters":6400,"station_id":"","pricing_plan_id":"cebpf4jnsgd1na2vs0mg"},{"bike_id":"3cbb5843-7d6f-4ab1-8221-c879ecca96e4","system_id":"levelo_inurba_marseille","lat":43.32714,"lon":5.36282,"is_reserved":false,"is_disabled":false,"rental_uris":{"android":"levelo://app?vid=3cbb5843-7d6f-4ab1-8221-c879ecca96e4","ios":"levelo://app?vid=3cbb5843-7d6f-4ab1-8221-c879ecca96e4"},"vehicle_type_id":"4","last_reported":1740989646,"current_range_meters":6400,"station_id":"","pricing_plan_id":"cebpf4jnsgd1na2vs0mg"},{"bike_id":"61c4f2e8-e906-4349-b88b-b5813cbd9990","system_id":"levelo_inurba_marseille","lat":43.30459,"lon":5.37921,"is_reserved":false,"is_disabled":false,"rental_uris":{"android":"levelo://app?vid=61c4f2e8-e906-4349-b88b-b5813cbd9990","ios":"levelo://app?vid=61c4f2e8-e906-4349-b88b-b5813cbd9990"},"vehicle_type_id":"4","last_reported":1740989646,"current_range_meters":6400,"station_id":"ce4bgup2rcd13ifvqcn0","pricing_plan_id":"cebpf4jnsgd1na2vs0mg"},{"bike_id":"926c1bda-983c-4a02-8b9b-c145d55d3b98","system_id":"levelo_inurba_marseille","lat":43.2405,"lon":5.37768,"is_reserved":false,"is_disabled":false,"rental_uris":{"android":"levelo://app?vid=926c1bda-983c-4a02-8b9b-c145d55d3b98","ios":"levelo://app?vid=926c1bda-983c-4a02-8b9b-c145d55d3b98"},"vehicle_type_id":"4","last_reported":1740989646,"current_range_meters":6400,"station_id":"ce4bhnp2rcd13ifvqgvg","pricing_plan_id":"cebpf4jnsgd1na2vs0mg"},{"bike_id":"0e4d5d36-7d5d-4fbf-9597-759cc9a1b223","system_id":"levelo_inurba_marseille","lat":43.30526,"lon":5.3729,"is_reserved":false,"is_disabled":false,"rental_uris":{"android":"levelo://app?vid=0e4d5d36-7d5d-4fbf-9597-759cc9a1b223","ios":"levelo://app?vid=0e4d5d36-7d5d-4fbf-9597-759cc9a1b223"},"vehicle_type_id":"4","last_reported":1740989646,"current_range_meters":6800,"station_id":"","pricing_plan_id":"cebpf4jnsgd1na2vs0mg"},{"bike_id":"f839b7ad-b1c4-4a76-b27a-75138e17fdd2","system_id":"levelo_inurba_marseille","lat":43.31079,"lon":5.38355,"is_reserved":false,"is_disabled":false,"rental_uris":{"android":"levelo://app?vid=f839b7ad-b1c4-4a76-b27a-75138e17fdd2","ios":"levelo://app?vid=f839b7ad-b1c4-4a76-b27a-75138e17fdd2"},"vehicle_type_id":"4","last_reported":1740989646,"current_range_meters":6800,"station_id":"ce4bgv92rcd13ifvqcr0","pricing_plan_id":"cebpf4jnsgd1na2vs0mg"},{"bike_id":"7fcdc921-c459-4afe-938a-1adbeb07bc6e","system_id":"levelo_inurba_marseille","lat":43.2798,"lon":5.38745,"is_reserved":false,"is_disabled":false,"rental_uris":{"android":"levelo://app?vid=7fcdc921-c459-4afe-938a-1adbeb07bc6e","ios":"levelo://app?vid=7fcdc921-c459-4afe-938a-1adbeb07bc6e"},"vehicle_type_id":"4","last_reported":1740989646,"current_range_meters":6800,"station_id":"ce4bhg12rcd13ifvqf80","pricing_plan_id":"cebpf4jnsgd1na2vs0mg"},{"bike_id":"0693b9d6-4a9d-4e38-bfa2-80f934bcc2e3","system_id":"levelo_inurba_marseille","lat":43.24165,"lon":5.36401,"is_reserved":false,"is_disabled":false,"rental_uris":{"android":"levelo://app?vid=0693b9d6-4a9d-4e38-bfa2-80f934bcc2e3","ios":"levelo://app?vid=0693b9d6-4a9d-4e38-bfa2-80f934bcc2e3"},"vehicle_type_id":"4","last_reported":1740989646,"current_range_meters":6800,"station_id":"cpo36qri1sfpv3e86is0","pricing_plan_id":"cebpf4jnsgd1na2vs0mg"},{"bike_id":"a98463c3-dfbf-4a02-a243-a640e1e2414a","system_id":"levelo_inurba_marseille","lat":43.26952,"lon":5.38631,"is_reserved":false,"is_disabled":false,"rental_uris":{"android":"levelo://app?vid=a98463c3-dfbf-4a02-a243-a640e1e2414a","ios":"levelo://app?vid=a98463c3-dfbf-4a02-a243-a640e1e2414a"},"vehicle_type_id":"4","last_reported":1740989646,"current_range_meters":7200,"station_id":"ce4bhh92rcd13ifvqfh0","pricing_plan_id":"cebpf4jnsgd1na2vs0mg"},{"bike_id":"367fb4ce-d5e7-4054-aafc-c4d30cf921b6","system_id":"levelo_inurba_marseille","lat":43.29242,"lon":5.38225,"is_reserved":false,"is_disabled":false,"rental_uris":{"android":"levelo://app?vid=367fb4ce-d5e7-4054-aafc-c4d30cf921b6","ios":"levelo://app?vid=367fb4ce-d5e7-4054-aafc-c4d30cf921b6"},"vehicle_type_id":"4","last_reported":1740989646,"current_range_meters":8000,"station_id":"","pricing_plan_id":"cebpf4jnsgd1na2vs0mg"},{"bike_id":"82edf59c-4a7f-4cc2-9128-aaa41c8f7026","system_id":"levelo_inurba_marseille","lat":43.30464,"lon":5.37909,"is_reserved":false,"is_disabled":false,"rental_uris":{"android":"levelo://app?vid=82edf59c-4a7f-4cc2-9128-aaa41c8f7026","ios":"levelo://app?vid=82edf59c-4a7f-4cc2-9128-aaa41c8f7026"},"vehicle_type_id":"4","last_reported":1740989646,"current_range_meters":8000,"station_id":"ce4bgup2rcd13ifvqcn0","pricing_plan_id":"cebpf4jnsgd1na2vs0mg"},{"bike_id":"14691fab-3b2a-472c-8059-e47ab0efef83","system_id":"levelo_inurba_marseille","lat":43.29032,"lon":5.37568,"is_reserved":false,"is_disabled":false,"rental_uris":{"android":"levelo://app?vid=14691fab-3b2a-472c-8059-e47ab0efef83","ios":"levelo://app?vid=14691fab-3b2a-472c-8059-e47ab0efef83"},"vehicle_type_id":"4","last_reported":1740989646,"current_range_meters":8000,"station_id":"ce4bh692rcd13ifvqe90","pricing_plan_id":"cebpf4jnsgd1na2vs0mg"},{"bike_id":"1dd4abe7-652c-4db5-9c15-f76be88de608","system_id":"levelo_inurba_marseille","lat":43.26945,"lon":5.38646,"is_reserved":false,"is_disabled":false,"rental_uris":{"android":"levelo://app?vid=1dd4abe7-652c-4db5-9c15-f76be88de608","ios":"levelo://app?vid=1dd4abe7-652c-4db5-9c15-f76be88de608"},"vehicle_type_id":"4","last_reported":1740989646,"current_range_meters":8000,"station_id":"ce4bhh92rcd13ifvqfh0","pricing_plan_id":"cebpf4jnsgd1na2vs0mg"},{"bike_id":"d7e4b643-f4bb-4858-b99e-1e809ea6bd9a","system_id":"levelo_inurba_marseille","lat":43.24394,"lon":5.37071,"is_reserved":false,"is_disabled":false,"rental_uris":{"android":"levelo://app?vid=d7e4b643-f4bb-4858-b99e-1e809ea6bd9a","ios":"levelo://app?vid=d7e4b643-f4bb-4858-b99e-1e809ea6bd9a"},"vehicle_type_id":"4","last_reported":1740989646,"current_range_meters":8000,"station_id":"ce4bhhh2rcd13ifvqfk0","pricing_plan_id":"cebpf4jnsgd1na2vs0mg"},{"bike_id":"62cb3e4f-92ce-46dd-a43d-b6b86cc1a818","system_id":"levelo_inurba_marseille","lat":43.27048,"lon":5.40268,"is_reserved":false,"is_disabled":false,"rental_uris":{"android":"levelo://app?vid=62cb3e4f-92ce-46dd-a43d-b6b86cc1a818","ios":"levelo://app?vid=62cb3e4f-92ce-46dd-a43d-b6b86cc1a818"},"vehicle_type_id":"4","last_reported":1740989646,"current_range_meters":8000,"station_id":"ce4bhk92rcd13ifvqgc0","pricing_plan_id":"cebpf4jnsgd1na2vs0mg"},{"bike_id":"7c4be158-4b98-4ffa-8fd3-45ef392532d1","system_id":"levelo_inurba_marseille","lat":43.23145,"lon":5.43716,"is_reserved":false,"is_disabled":false,"rental_uris":{"android":"levelo://app?vid=7c4be158-4b98-4ffa-8fd3-45ef392532d1","ios":"levelo://app?vid=7c4be158-4b98-4ffa-8fd3-45ef392532d1"},"vehicle_type_id":"4","last_reported":1740989646,"current_range_meters":8000,"station_id":"ce4bhmp2rcd13ifvqgog","pricing_plan_id":"cebpf4jnsgd1na2vs0mg"},{"bike_id":"008953ae-ceb8-4023-9abb-6b9ecbd32953","system_id":"levelo_inurba_marseille","lat":43.24065,"lon":5.37769,"is_reserved":false,"is_disabled":false,"rental_uris":{"android":"levelo://app?vid=008953ae-ceb8-4023-9abb-6b9ecbd32953","ios":"levelo://app?vid=008953ae-ceb8-4023-9abb-6b9ecbd32953"},"vehicle_type_id":"4","last_reported":1740989646,"current_range_meters":8000,"station_id":"ce4bhnp2rcd13ifvqgvg","pricing_plan_id":"cebpf4jnsgd1na2vs0mg"},{"bike_id":"3284e9b8-acd3-4c31-a875-3d42ab73c106","system_id":"levelo_inurba_marseille","lat":43.31505,"lon":5.37249,"is_reserved":false,"is_disabled":false,"rental_uris":{"android":"levelo://app?vid=3284e9b8-acd3-4c31-a875-3d42ab73c106","ios":"levelo://app?vid=3284e9b8-acd3-4c31-a875-3d42ab73c106"},"vehicle_type_id":"4","last_reported":1740989646,"current_range_meters":8400,"station_id":"","pricing_plan_id":"cebpf4jnsgd1na2vs0mg"},{"bike_id":"505d6f52-7cd5-4bd3-8ab6-c1fdcf30a87f","system_id":"levelo_inurba_marseille","lat":43.27637,"lon":5.36107,"is_reserved":false,"is_disabled":false,"rental_uris":{"android":"levelo://app?vid=505d6f52-7cd5-4bd3-8ab6-c1fdcf30a87f","ios":"levelo://app?vid=505d6f52-7cd5-4bd3-8ab6-c1fdcf30a87f"},"vehicle_type_id":"4","last_reported":1740989646,"current_range_meters":8400,"station_id":"ce4bgj92rcd13ifvqbe0","pricing_plan_id":"cebpf4jnsgd1na2vs0mg"},{"bike_id":"2d3364f6-810c-46c8-817b-803416beb678","system_id":"levelo_inurba_marseille","lat":43.30277,"lon":5.36883,"is_reserved":false,"is_disabled":false,"rental_uris":{"android":"levelo://app?vid=2d3364f6-810c-46c8-817b-803416beb678","ios":"levelo://app?vid=2d3364f6-810c-46c8-817b-803416beb678"},"vehicle_type_id":"4","last_reported":1740989646,"current_range_meters":8400,"station_id":"ce4bgqh2rcd13ifvqc5g","pricing_plan_id":"cebpf4jnsgd1na2vs0mg"},{"bike_id":"b7037163-5206-4dbd-bae4-76b203e200ce","system_id":"levelo_inurba_marseille","lat":43.30953,"lon":5.39038,"is_reserved":false,"is_disabled":false,"rental_uris":{"android":"levelo://app?vid=b7037163-5206-4dbd-bae4-76b203e200ce","ios":"levelo://app?vid=b7037163-5206-4dbd-bae4-76b203e200ce"},"vehicle_type_id":"4","last_reported":1740989646,"current_range_meters":8400,"station_id":"ce4bgup2rcd13ifvqco0","pricing_plan_id":"cebpf4jnsgd1na2vs0mg"},{"bike_id":"354f0eba-b09c-4f64-8c95-5c192c1bce66","system_id":"levelo_inurba_marseille","lat":43.30877,"lon":5.39665,"is_reserved":false,"is_disabled":false,"rental_uris":{"android":"levelo://app?vid=354f0eba-b09c-4f64-8c95-5c192c1bce66","ios":"levelo://app?vid=354f0eba-b09c-4f64-8c95-5c192c1bce66"},"vehicle_type_id":"4","last_reported":1740989646,"current_range_meters":8400,"station_id":"ce4bh012rcd13ifvqcv0","pricing_plan_id":"cebpf4jnsgd1na2vs0mg"},{"bike_id":"d31ef7e5-4770-41fd-869e-1786c21beb85","system_id":"levelo_inurba_marseille","lat":43.24992,"lon":5.38941,"is_reserved":false,"is_disabled":false,"rental_uris":{"android":"levelo://app?vid=d31ef7e5-4770-41fd-869e-1786c21beb85","ios":"levelo://app?vid=d31ef7e5-4770-41fd-869e-1786c21beb85"},"vehicle_type_id":"4","last_reported":1740989646,"current_range_meters":8400,"station_id":"ce4bhgp2rcd13ifvqfd0","pricing_plan_id":"cebpf4jnsgd1na2vs0mg"},{"bike_id":"95bb5a60-e338-4ea7-a971-63dccfeeec35","system_id":"levelo_inurba_marseille","lat":43.25815,"lon":5.39453,"is_reserved":false,"is_disabled":false,"rental_uris":{"android":"levelo://app?vid=95bb5a60-e338-4ea7-a971-63dccfeeec35","ios":"levelo://app?vid=95bb5a60-e338-4ea7-a971-63dccfeeec35"},"vehicle_type_id":"4","last_reported":1740989646,"current_range_meters":8400,"station_id":"ce4bhip2rcd13ifvqft0","pricing_plan_id":"cebpf4jnsgd1na2vs0mg"},{"bike_id":"8feb0e94-8e50-4dd3-8ecd-f22e158f75e1","system_id":"levelo_inurba_marseille","lat":43.25936,"lon":5.40905,"is_reserved":false,"is_disabled":false,"rental_uris":{"android":"levelo://app?vid=8feb0e94-8e50-4dd3-8ecd-f22e158f75e1","ios":"levelo://app?vid=8feb0e94-8e50-4dd3-8ecd-f22e158f75e1"},"vehicle_type_id":"4","last_reported":1740989646,"current_range_meters":8400,"station_id":"ce4bhm92rcd13ifvqglg","pricing_plan_id":"cebpf4jnsgd1na2vs0mg"},{"bike_id":"1d3c7fd7-b709-4008-8e9f-a0f764fe60d9","system_id":"levelo_inurba_marseille","lat":43.28254,"lon":5.38569,"is_reserved":false,"is_disabled":false,"rental_uris":{"android":"levelo://app?vid=1d3c7fd7-b709-4008-8e9f-a0f764fe60d9","ios":"levelo://app?vid=1d3c7fd7-b709-4008-8e9f-a0f764fe60d9"},"vehicle_type_id":"4","last_reported":1740989646,"current_range_meters":8800,"station_id":"","pricing_plan_id":"cebpf4jnsgd1na2vs0mg"},{"bike_id":"05e9cf7b-c090-4ef5-8c8c-4775308fa653","system_id":"levelo_inurba_marseille","lat":43.31266,"lon":5.36837,"is_reserved":false,"is_disabled":false,"rental_uris":{"android":"levelo://app?vid=05e9cf7b-c090-4ef5-8c8c-4775308fa653","ios":"levelo://app?vid=05e9cf7b-c090-4ef5-8c8c-4775308fa653"},"vehicle_type_id":"4","last_reported":1740989646,"current_range_meters":8800,"station_id":"ce4bgl92rcd13ifvqbq0","pricing_plan_id":"cebpf4jnsgd1na2vs0mg"},{"bike_id":"1f06ec12-8c45-4020-9878-036064a66d6e","system_id":"levelo_inurba_marseille","lat":43.30317,"lon":5.40437,"is_reserved":false,"is_disabled":false,"rental_uris":{"android":"levelo://app?vid=1f06ec12-8c45-4020-9878-036064a66d6e","ios":"levelo://app?vid=1f06ec12-8c45-4020-9878-036064a66d6e"},"vehicle_type_id":"4","last_reported":1740989646,"current_range_meters":8800,"station_id":"ce4bh012rcd13ifvqd10","pricing_plan_id":"cebpf4jnsgd1na2vs0mg"},{"bike_id":"a3e4e670-96af-42cb-8c2e-a7c558780b0b","system_id":"levelo_inurba_marseille","lat":43.24071,"lon":5.37751,"is_reserved":false,"is_disabled":false,"rental_uris":{"android":"levelo://app?vid=a3e4e670-96af-42cb-8c2e-a7c558780b0b","ios":"levelo://app?vid=a3e4e670-96af-42cb-8c2e-a7c558780b0b"},"vehicle_type_id":"4","last_reported":1740989646,"current_range_meters":8800,"station_id":"ce4bhnp2rcd13ifvqgvg","pricing_plan_id":"cebpf4jnsgd1na2vs0mg"},{"bike_id":"88d09cbc-1497-4fea-99b9-c1fe29ff58f0","system_id":"levelo_inurba_marseille","lat":43.28058,"lon":5.36607,"is_reserved":false,"is_disabled":false,"rental_uris":{"android":"levelo://app?vid=88d09cbc-1497-4fea-99b9-c1fe29ff58f0","ios":"levelo://app?vid=88d09cbc-1497-4fea-99b9-c1fe29ff58f0"},"vehicle_type_id":"4","last_reported":1740989646,"current_range_meters":9200,"station_id":"","pricing_plan_id":"cebpf4jnsgd1na2vs0mg"},{"bike_id":"e3d7d43b-d33e-4764-883d-77097c242d7a","system_id":"levelo_inurba_marseille","lat":43.30549,"lon":5.36714,"is_reserved":false,"is_disabled":false,"rental_uris":{"android":"levelo://app?vid=e3d7d43b-d33e-4764-883d-77097c242d7a","ios":"levelo://app?vid=e3d7d43b-d33e-4764-883d-77097c242d7a"},"vehicle_type_id":"4","last_reported":1740989646,"current_range_meters":9200,"station_id":"ce4bgrp2rcd13ifvqc9g","pricing_plan_id":"cebpf4jnsgd1na2vs0mg"},{"bike_id":"02398146-8ff0-4d12-99d3-ff67c614a6bc","system_id":"levelo_inurba_marseille","lat":43.30273,"lon":5.377,"is_reserved":false,"is_disabled":false,"rental_uris":{"android":"levelo://app?vid=02398146-8ff0-4d12-99d3-ff67c614a6bc","ios":"levelo://app?vid=02398146-8ff0-4d12-99d3-ff67c614a6bc"},"vehicle_type_id":"4","last_reported":1740989646,"current_range_meters":9200,"station_id":"ce4bguh2rcd13ifvqcj0","pricing_plan_id":"cebpf4jnsgd1na2vs0mg"},{"bike_id":"cc28b65e-e7e2-4279-bf72-77e186531f0a","system_id":"levelo_inurba_marseille","lat":43.26562,"lon":5.39014,"is_reserved":false,"is_disabled":false,"rental_uris":{"android":"levelo://app?vid=cc28b65e-e7e2-4279-bf72-77e186531f0a","ios":"levelo://app?vid=cc28b65e-e7e2-4279-bf72-77e186531f0a"},"vehicle_type_id":"4","last_reported":1740989646,"current_range_meters":9200,"station_id":"ce4bhe12rcd13ifvqf30","pricing_plan_id":"cebpf4jnsgd1na2vs0mg"},{"bike_id":"61e3c74e-7012-4cb6-8ef4-17db5d82fdf7","system_id":"levelo_inurba_marseille","lat":43.25267,"lon":5.39407,"is_reserved":false,"is_disabled":false,"rental_uris":{"android":"levelo://app?vid=61e3c74e-7012-4cb6-8ef4-17db5d82fdf7","ios":"levelo://app?vid=61e3c74e-7012-4cb6-8ef4-17db5d82fdf7"},"vehicle_type_id":"4","last_reported":1740989646,"current_range_meters":9600,"station_id":"","pricing_plan_id":"cebpf4jnsgd1na2vs0mg"},{"bike_id":"ecd1e842-641e-4a6a-be60-41d8d8c37859","system_id":"levelo_inurba_marseille","lat":43.30946,"lon":5.39039,"is_reserved":false,"is_disabled":false,"rental_uris":{"android":"levelo://app?vid=ecd1e842-641e-4a6a-be60-41d8d8c37859","ios":"levelo://app?vid=ecd1e842-641e-4a6a-be60-41d8d8c37859"},"vehicle_type_id":"4","last_reported":1740989646,"current_range_meters":9600,"station_id":"ce4bgup2rcd13ifvqco0","pricing_plan_id":"cebpf4jnsgd1na2vs0mg"},{"bike_id":"627bd7fd-0fcc-4e03-9b9a-f5c00ac410f7","system_id":"levelo_inurba_marseille","lat":43.3058,"lon":5.39363,"is_reserved":false,"is_disabled":false,"rental_uris":{"android":"levelo://app?vid=627bd7fd-0fcc-4e03-9b9a-f5c00ac410f7","ios":"levelo://app?vid=627bd7fd-0fcc-4e03-9b9a-f5c00ac410f7"},"vehicle_type_id":"4","last_reported":1740989646,"current_range_meters":9600,"station_id":"ce4bh0p2rcd13ifvqd80","pricing_plan_id":"cebpf4jnsgd1na2vs0mg"},{"bike_id":"8556f366-a9d7-4479-becd-db5bea072333","system_id":"levelo_inurba_marseille","lat":43.2928,"lon":5.40896,"is_reserved":false,"is_disabled":false,"rental_uris":{"android":"levelo://app?vid=8556f366-a9d7-4479-becd-db5bea072333","ios":"levelo://app?vid=8556f366-a9d7-4479-becd-db5bea072333"},"vehicle_type_id":"4","last_reported":1740989646,"current_range_meters":9600,"station_id":"ce4bh192rcd13ifvqdc0","pricing_plan_id":"cebpf4jnsgd1na2vs0mg"},{"bike_id":"12ab922a-f881-4968-9e63-ec8d58f2ca05","system_id":"levelo_inurba_marseille","lat":43.24785,"lon":5.37408,"is_reserved":false,"is_disabled":false,"rental_uris":{"android":"levelo://app?vid=12ab922a-f881-4968-9e63-ec8d58f2ca05","ios":"levelo://app?vid=12ab922a-f881-4968-9e63-ec8d58f2ca05"},"vehicle_type_id":"4","last_reported":1740989646,"current_range_meters":9600,"station_id":"ce4bhgh2rcd13ifvqfb0","pricing_plan_id":"cebpf4jnsgd1na2vs0mg"},{"bike_id":"a860675f-01c4-49a9-bc48-68f8b5f286c8","system_id":"levelo_inurba_marseille","lat":43.24372,"lon":5.37076,"is_reserved":false,"is_disabled":false,"rental_uris":{"android":"levelo://app?vid=a860675f-01c4-49a9-bc48-68f8b5f286c8","ios":"levelo://app?vid=a860675f-01c4-49a9-bc48-68f8b5f286c8"},"vehicle_type_id":"4","last_reported":1740989646,"current_range_meters":9600,"station_id":"ce4bhhh2rcd13ifvqfk0","pricing_plan_id":"cebpf4jnsgd1na2vs0mg"},{"bike_id":"9fe32dd4-8c83-4f55-8d4d-26816ab2fe7e","system_id":"levelo_inurba_marseille","lat":43.2315,"lon":5.43729,"is_reserved":false,"is_disabled":false,"rental_uris":{"android":"levelo://app?vid=9fe32dd4-8c83-4f55-8d4d-26816ab2fe7e","ios":"levelo://app?vid=9fe32dd4-8c83-4f55-8d4d-26816ab2fe7e"},"vehicle_type_id":"4","last_reported":1740989646,"current_range_meters":9600,"station_id":"ce4bhmp2rcd13ifvqgog","pricing_plan_id":"cebpf4jnsgd1na2vs0mg"},{"bike_id":"e0c607bf-7f3d-4c22-8ed8-7156f04c1a25","system_id":"levelo_inurba_marseille","lat":43.2814,"lon":5.42632,"is_reserved":false,"is_disabled":false,"rental_uris":{"android":"levelo://app?vid=e0c607bf-7f3d-4c22-8ed8-7156f04c1a25","ios":"levelo://app?vid=e0c607bf-7f3d-4c22-8ed8-7156f04c1a25"},"vehicle_type_id":"4","last_reported":1740989646,"current_range_meters":9600,"station_id":"ce4bhnh2rcd13ifvqgug","pricing_plan_id":"cebpf4jnsgd1na2vs0mg"},{"bike_id":"67914107-e830-4c63-85fa-638b268eca8e","system_id":"levelo_inurba_marseille","lat":43.31458,"lon":5.37241,"is_reserved":false,"is_disabled":false,"rental_uris":{"android":"levelo://app?vid=67914107-e830-4c63-85fa-638b268eca8e","ios":"levelo://app?vid=67914107-e830-4c63-85fa-638b268eca8e"},"vehicle_type_id":"4","last_reported":1740989646,"current_range_meters":10000,"station_id":"","pricing_plan_id":"cebpf4jnsgd1na2vs0mg"},{"bike_id":"d292c1a1-5d48-4870-96f4-cf5f26c43837","system_id":"levelo_inurba_marseille","lat":43.27953,"lon":5.42614,"is_reserved":false,"is_disabled":false,"rental_uris":{"android":"levelo://app?vid=d292c1a1-5d48-4870-96f4-cf5f26c43837","ios":"levelo://app?vid=d292c1a1-5d48-4870-96f4-cf5f26c43837"},"vehicle_type_id":"4","last_reported":1740989646,"current_range_meters":10000,"station_id":"","pricing_plan_id":"cebpf4jnsgd1na2vs0mg"},{"bike_id":"53682d1a-3c4c-48d8-86fb-90fac64cd913","system_id":"levelo_inurba_marseille","lat":43.29236,"lon":5.40089,"is_reserved":false,"is_disabled":false,"rental_uris":{"android":"levelo://app?vid=53682d1a-3c4c-48d8-86fb-90fac64cd913","ios":"levelo://app?vid=53682d1a-3c4c-48d8-86fb-90fac64cd913"},"vehicle_type_id":"4","last_reported":1740989646,"current_range_meters":10000,"station_id":"ce4bh312rcd13ifvqdk0","pricing_plan_id":"cebpf4jnsgd1na2vs0mg"},{"bike_id":"b013add8-306f-455f-8106-4ff222c92509","system_id":"levelo_inurba_marseille","lat":43.33602,"lon":5.40977,"is_reserved":false,"is_disabled":false,"rental_uris":{"android":"levelo://app?vid=b013add8-306f-455f-8106-4ff222c92509","ios":"levelo://app?vid=b013add8-306f-455f-8106-4ff222c92509"},"vehicle_type_id":"4","last_reported":1740989646,"current_range_meters":10000,"station_id":"ce4bhqh2rcd13ifvqhmg","pricing_plan_id":"cebpf4jnsgd1na2vs0mg"},{"bike_id":"b86ebd64-46e7-4dad-984c-5f1808cec3f0","system_id":"levelo_inurba_marseille","lat":43.27618,"lon":5.36114,"is_reserved":false,"is_disabled":false,"rental_uris":{"android":"levelo://app?vid=b86ebd64-46e7-4dad-984c-5f1808cec3f0","ios":"levelo://app?vid=b86ebd64-46e7-4dad-984c-5f1808cec3f0"},"vehicle_type_id":"4","last_reported":1740989646,"current_range_meters":10800,"station_id":"ce4bgj92rcd13ifvqbe0","pricing_plan_id":"cebpf4jnsgd1na2vs0mg"},{"bike_id":"3d13a9a5-a376-4b77-abae-c2e5b476b738","system_id":"levelo_inurba_marseille","lat":43.30957,"lon":5.39052,"is_reserved":false,"is_disabled":false,"rental_uris":{"android":"levelo://app?vid=3d13a9a5-a376-4b77-abae-c2e5b476b738","ios":"levelo://app?vid=3d13a9a5-a376-4b77-abae-c2e5b476b738"},"vehicle_type_id":"4","last_reported":1740989646,"current_range_meters":10800,"station_id":"ce4bgup2rcd13ifvqco0","pricing_plan_id":"cebpf4jnsgd1na2vs0mg"},{"bike_id":"12a660b0-0414-41b8-b5a9-bef881713662","system_id":"levelo_inurba_marseille","lat":43.29037,"lon":5.39978,"is_reserved":false,"is_disabled":false,"rental_uris":{"android":"levelo://app?vid=12a660b0-0414-41b8-b5a9-bef881713662","ios":"levelo://app?vid=12a660b0-0414-41b8-b5a9-bef881713662"},"vehicle_type_id":"4","last_reported":1740989646,"current_range_meters":10800,"station_id":"ce4bh392rcd13ifvqdm0","pricing_plan_id":"cebpf4jnsgd1na2vs0mg"},{"bike_id":"7b9bec50-d2ae-4471-81df-a8cf7d85647e","system_id":"levelo_inurba_marseille","lat":43.294049,"lon":5.380122,"is_reserved":false,"is_disabled":false,"rental_uris":{"android":"levelo://app?vid=7b9bec50-d2ae-4471-81df-a8cf7d85647e","ios":"levelo://app?vid=7b9bec50-d2ae-4471-81df-a8cf7d85647e"},"vehicle_type_id":"4","last_reported":1740989646,"current_range_meters":10800,"station_id":"ce4bh3p2rcd13ifvqdp0","pricing_plan_id":"cebpf4jnsgd1na2vs0mg"},{"bike_id":"ad32254e-8609-42c5-8df7-9012f5ec17c7","system_id":"levelo_inurba_marseille","lat":43.23154,"lon":5.43708,"is_reserved":false,"is_disabled":false,"rental_uris":{"android":"levelo://app?vid=ad32254e-8609-42c5-8df7-9012f5ec17c7","ios":"levelo://app?vid=ad32254e-8609-42c5-8df7-9012f5ec17c7"},"vehicle_type_id":"4","last_reported":1740989646,"current_range_meters":10800,"station_id":"ce4bhmp2rcd13ifvqgog","pricing_plan_id":"cebpf4jnsgd1na2vs0mg"},{"bike_id":"d0e90060-d634-4f5f-8a3a-6f8ec476c326","system_id":"levelo_inurba_marseille","lat":43.32484,"lon":5.36564,"is_reserved":false,"is_disabled":false,"rental_uris":{"android":"levelo://app?vid=d0e90060-d634-4f5f-8a3a-6f8ec476c326","ios":"levelo://app?vid=d0e90060-d634-4f5f-8a3a-6f8ec476c326"},"vehicle_type_id":"4","last_reported":1740989646,"current_range_meters":10800,"station_id":"ce4bhs12rcd13ifvqhvg","pricing_plan_id":"cebpf4jnsgd1na2vs0mg"},{"bike_id":"fa99dc59-4ea3-41b1-bdef-0fd8a7de9150","system_id":"levelo_inurba_marseille","lat":43.27686,"lon":5.41552,"is_reserved":false,"is_disabled":false,"rental_uris":{"android":"levelo://app?vid=fa99dc59-4ea3-41b1-bdef-0fd8a7de9150","ios":"levelo://app?vid=fa99dc59-4ea3-41b1-bdef-0fd8a7de9150"},"vehicle_type_id":"4","last_reported":1740989646,"current_range_meters":11200,"station_id":"","pricing_plan_id":"cebpf4jnsgd1na2vs0mg"},{"bike_id":"edc2ba51-4f5e-4cbf-8563-7b141dc3a37b","system_id":"levelo_inurba_marseille","lat":43.31224,"lon":5.36852,"is_reserved":false,"is_disabled":false,"rental_uris":{"android":"levelo://app?vid=edc2ba51-4f5e-4cbf-8563-7b141dc3a37b","ios":"levelo://app?vid=edc2ba51-4f5e-4cbf-8563-7b141dc3a37b"},"vehicle_type_id":"4","last_reported":1740989646,"current_range_meters":11200,"station_id":"ce4bgl92rcd13ifvqbq0","pricing_plan_id":"cebpf4jnsgd1na2vs0mg"},{"bike_id":"09393a00-973d-43b6-814c-ce2027404caf","system_id":"levelo_inurba_marseille","lat":43.25827,"lon":5.39439,"is_reserved":false,"is_disabled":false,"rental_uris":{"android":"levelo://app?vid=09393a00-973d-43b6-814c-ce2027404caf","ios":"levelo://app?vid=09393a00-973d-43b6-814c-ce2027404caf"},"vehicle_type_id":"4","last_reported":1740989646,"current_range_meters":11200,"station_id":"ce4bhip2rcd13ifvqft0","pricing_plan_id":"cebpf4jnsgd1na2vs0mg"},{"bike_id":"878e1786-5c8b-4fbd-97e0-962177e72bdb","system_id":"levelo_inurba_marseille","lat":43.25943,"lon":5.40901,"is_reserved":false,"is_disabled":false,"rental_uris":{"android":"levelo://app?vid=878e1786-5c8b-4fbd-97e0-962177e72bdb","ios":"levelo://app?vid=878e1786-5c8b-4fbd-97e0-962177e72bdb"},"vehicle_type_id":"4","last_reported":1740989646,"current_range_meters":11200,"station_id":"ce4bhm92rcd13ifvqglg","pricing_plan_id":"cebpf4jnsgd1na2vs0mg"},{"bike_id":"3540c589-9554-4809-a9dc-9e143004422b","system_id":"levelo_inurba_marseille","lat":43.27502,"lon":5.42457,"is_reserved":false,"is_disabled":false,"rental_uris":{"android":"levelo://app?vid=3540c589-9554-4809-a9dc-9e143004422b","ios":"levelo://app?vid=3540c589-9554-4809-a9dc-9e143004422b"},"vehicle_type_id":"4","last_reported":1740989646,"current_range_meters":11200,"station_id":"ce4bhn92rcd13ifvqgrg","pricing_plan_id":"cebpf4jnsgd1na2vs0mg"},{"bike_id":"c5b35fc3-133b-4fcd-9bc1-000b1b46221f","system_id":"levelo_inurba_marseille","lat":43.24158,"lon":5.36413,"is_reserved":false,"is_disabled":false,"rental_uris":{"android":"levelo://app?vid=c5b35fc3-133b-4fcd-9bc1-000b1b46221f","ios":"levelo://app?vid=c5b35fc3-133b-4fcd-9bc1-000b1b46221f"},"vehicle_type_id":"4","last_reported":1740989646,"current_range_meters":11200,"station_id":"cpo36qri1sfpv3e86is0","pricing_plan_id":"cebpf4jnsgd1na2vs0mg"},{"bike_id":"9c485707-27b3-49e4-a74c-56f0dc648377","system_id":"levelo_inurba_marseille","lat":43.30235,"lon":5.36568,"is_reserved":false,"is_disabled":false,"rental_uris":{"android":"levelo://app?vid=9c485707-27b3-49e4-a74c-56f0dc648377","ios":"levelo://app?vid=9c485707-27b3-49e4-a74c-56f0dc648377"},"vehicle_type_id":"4","last_reported":1740989646,"current_range_meters":11600,"station_id":"","pricing_plan_id":"cebpf4jnsgd1na2vs0mg"},{"bike_id":"f5572dc0-57a5-4136-9a5c-670a39f52d61","system_id":"levelo_inurba_marseille","lat":43.26933,"lon":5.38662,"is_reserved":false,"is_disabled":false,"rental_uris":{"android":"levelo://app?vid=f5572dc0-57a5-4136-9a5c-670a39f52d61","ios":"levelo://app?vid=f5572dc0-57a5-4136-9a5c-670a39f52d61"},"vehicle_type_id":"4","last_reported":1740989646,"current_range_meters":11600,"station_id":"ce4bhh92rcd13ifvqfh0","pricing_plan_id":"cebpf4jnsgd1na2vs0mg"},{"bike_id":"edc1a413-247b-4125-8ff6-3193d9b9b0b7","system_id":"levelo_inurba_marseille","lat":43.24396,"lon":5.37053,"is_reserved":false,"is_disabled":false,"rental_uris":{"android":"levelo://app?vid=edc1a413-247b-4125-8ff6-3193d9b9b0b7","ios":"levelo://app?vid=edc1a413-247b-4125-8ff6-3193d9b9b0b7"},"vehicle_type_id":"4","last_reported":1740989646,"current_range_meters":11600,"station_id":"ce4bhhh2rcd13ifvqfk0","pricing_plan_id":"cebpf4jnsgd1na2vs0mg"},{"bike_id":"4dd78a9f-9698-4bed-9997-ee4fd5bc3a76","system_id":"levelo_inurba_marseille","lat":43.27064,"lon":5.42285,"is_reserved":false,"is_disabled":false,"rental_uris":{"android":"levelo://app?vid=4dd78a9f-9698-4bed-9997-ee4fd5bc3a76","ios":"levelo://app?vid=4dd78a9f-9698-4bed-9997-ee4fd5bc3a76"},"vehicle_type_id":"4","last_reported":1740989646,"current_range_meters":11600,"station_id":"ce4bhk92rcd13ifvqgb0","pricing_plan_id":"cebpf4jnsgd1na2vs0mg"},{"bike_id":"30452236-79fc-4cba-8ba7-e268e5bb0e99","system_id":"levelo_inurba_marseille","lat":43.23145,"lon":5.43725,"is_reserved":false,"is_disabled":false,"rental_uris":{"android":"levelo://app?vid=30452236-79fc-4cba-8ba7-e268e5bb0e99","ios":"levelo://app?vid=30452236-79fc-4cba-8ba7-e268e5bb0e99"},"vehicle_type_id":"4","last_reported":1740989646,"current_range_meters":11600,"station_id":"ce4bhmp2rcd13ifvqgog","pricing_plan_id":"cebpf4jnsgd1na2vs0mg"},{"bike_id":"21a25fa3-011a-487c-a6a1-9a4a8b99ec63","system_id":"levelo_inurba_marseille","lat":43.31268,"lon":5.37758,"is_reserved":false,"is_disabled":false,"rental_uris":{"android":"levelo://app?vid=21a25fa3-011a-487c-a6a1-9a4a8b99ec63","ios":"levelo://app?vid=21a25fa3-011a-487c-a6a1-9a4a8b99ec63"},"vehicle_type_id":"4","last_reported":1740989646,"current_range_meters":12000,"station_id":"","pricing_plan_id":"cebpf4jnsgd1na2vs0mg"},{"bike_id":"c5ecef9a-b710-4b96-915e-685597e5ef00","system_id":"levelo_inurba_marseille","lat":43.32081,"lon":5.37152,"is_reserved":false,"is_disabled":false,"rental_uris":{"android":"levelo://app?vid=c5ecef9a-b710-4b96-915e-685597e5ef00","ios":"levelo://app?vid=c5ecef9a-b710-4b96-915e-685597e5ef00"},"vehicle_type_id":"4","last_reported":1740989646,"current_range_meters":12000,"station_id":"","pricing_plan_id":"cebpf4jnsgd1na2vs0mg"},{"bike_id":"3fce2522-c30c-47f7-bdc4-b542eab709bc","system_id":"levelo_inurba_marseille","lat":43.33601,"lon":5.4103,"is_reserved":false,"is_disabled":false,"rental_uris":{"android":"levelo://app?vid=3fce2522-c30c-47f7-bdc4-b542eab709bc","ios":"levelo://app?vid=3fce2522-c30c-47f7-bdc4-b542eab709bc"},"vehicle_type_id":"4","last_reported":1740989646,"current_range_meters":12000,"station_id":"ce4bhqh2rcd13ifvqhmg","pricing_plan_id":"cebpf4jnsgd1na2vs0mg"},{"bike_id":"687cd9e6-0cef-4cf3-a0fd-75f582330f2e","system_id":"levelo_inurba_marseille","lat":43.337444,"lon":5.374475,"is_reserved":false,"is_disabled":false,"rental_uris":{"android":"levelo://app?vid=687cd9e6-0cef-4cf3-a0fd-75f582330f2e","ios":"levelo://app?vid=687cd9e6-0cef-4cf3-a0fd-75f582330f2e"},"vehicle_type_id":"4","last_reported":1740989646,"current_range_meters":12400,"station_id":"","pricing_plan_id":"cebpf4jnsgd1na2vs0mg"},{"bike_id":"a6e03227-9a90-4644-8efe-bc8533ca3835","system_id":"levelo_inurba_marseille","lat":43.29711,"lon":5.37698,"is_reserved":false,"is_disabled":false,"rental_uris":{"android":"levelo://app?vid=a6e03227-9a90-4644-8efe-bc8533ca3835","ios":"levelo://app?vid=a6e03227-9a90-4644-8efe-bc8533ca3835"},"vehicle_type_id":"4","last_reported":1740989646,"current_range_meters":12400,"station_id":"ce4bgkh2rcd13ifvqbl0","pricing_plan_id":"cebpf4jnsgd1na2vs0mg"},{"bike_id":"02f453e9-2967-477a-ba49-54d2503784e4","system_id":"levelo_inurba_marseille","lat":43.29051,"lon":5.3996,"is_reserved":false,"is_disabled":false,"rental_uris":{"android":"levelo://app?vid=02f453e9-2967-477a-ba49-54d2503784e4","ios":"levelo://app?vid=02f453e9-2967-477a-ba49-54d2503784e4"},"vehicle_type_id":"4","last_reported":1740989646,"current_range_meters":12400,"station_id":"ce4bh392rcd13ifvqdm0","pricing_plan_id":"cebpf4jnsgd1na2vs0mg"},{"bike_id":"6168d09e-8736-4373-94a5-dc96202b0e16","system_id":"levelo_inurba_marseille","lat":43.23155,"lon":5.43712,"is_reserved":false,"is_disabled":false,"rental_uris":{"android":"levelo://app?vid=6168d09e-8736-4373-94a5-dc96202b0e16","ios":"levelo://app?vid=6168d09e-8736-4373-94a5-dc96202b0e16"},"vehicle_type_id":"4","last_reported":1740989646,"current_range_meters":12400,"station_id":"ce4bhmp2rcd13ifvqgog","pricing_plan_id":"cebpf4jnsgd1na2vs0mg"},{"bike_id":"2848430c-e0ac-406b-99f8-d4a1f7459337","system_id":"levelo_inurba_marseille","lat":43.21263,"lon":5.35365,"is_reserved":false,"is_disabled":false,"rental_uris":{"android":"levelo://app?vid=2848430c-e0ac-406b-99f8-d4a1f7459337","ios":"levelo://app?vid=2848430c-e0ac-406b-99f8-d4a1f7459337"},"vehicle_type_id":"4","last_reported":1740989646,"current_range_meters":12800,"station_id":"","pricing_plan_id":"cebpf4jnsgd1na2vs0mg"},{"bike_id":"15865d31-974c-4af8-89dc-acaa30250c10","system_id":"levelo_inurba_marseille","lat":43.2572,"lon":5.41115,"is_reserved":false,"is_disabled":false,"rental_uris":{"android":"levelo://app?vid=15865d31-974c-4af8-89dc-acaa30250c10","ios":"levelo://app?vid=15865d31-974c-4af8-89dc-acaa30250c10"},"vehicle_type_id":"4","last_reported":1740989646,"current_range_meters":12800,"station_id":"ce4bhkp2rcd13ifvqgd0","pricing_plan_id":"cebpf4jnsgd1na2vs0mg"},{"bike_id":"23e7b74e-5cc3-434b-85a0-4486a824dddd","system_id":"levelo_inurba_marseille","lat":43.23152,"lon":5.43711,"is_reserved":false,"is_disabled":false,"rental_uris":{"android":"levelo://app?vid=23e7b74e-5cc3-434b-85a0-4486a824dddd","ios":"levelo://app?vid=23e7b74e-5cc3-434b-85a0-4486a824dddd"},"vehicle_type_id":"4","last_reported":1740989646,"current_range_meters":12800,"station_id":"ce4bhmp2rcd13ifvqgog","pricing_plan_id":"cebpf4jnsgd1na2vs0mg"},{"bike_id":"0a01f054-914c-4aa4-8403-14bafd0f2e01","system_id":"levelo_inurba_marseille","lat":43.27492,"lon":5.42455,"is_reserved":false,"is_disabled":false,"rental_uris":{"android":"levelo://app?vid=0a01f054-914c-4aa4-8403-14bafd0f2e01","ios":"levelo://app?vid=0a01f054-914c-4aa4-8403-14bafd0f2e01"},"vehicle_type_id":"4","last_reported":1740989646,"current_range_meters":12800,"station_id":"ce4bhn92rcd13ifvqgrg","pricing_plan_id":"cebpf4jnsgd1na2vs0mg"},{"bike_id":"800b86e1-041b-4de1-9ce1-4bda92c8e875","system_id":"levelo_inurba_marseille","lat":43.27491,"lon":5.42457,"is_reserved":false,"is_disabled":false,"rental_uris":{"android":"levelo://app?vid=800b86e1-041b-4de1-9ce1-4bda92c8e875","ios":"levelo://app?vid=800b86e1-041b-4de1-9ce1-4bda92c8e875"},"vehicle_type_id":"4","last_reported":1740989646,"current_range_meters":12800,"station_id":"ce4bhn92rcd13ifvqgrg","pricing_plan_id":"cebpf4jnsgd1na2vs0mg"},{"bike_id":"18dda957-3659-4111-8f9d-293dfb6e4e36","system_id":"levelo_inurba_marseille","lat":43.30171,"lon":5.38095,"is_reserved":false,"is_disabled":false,"rental_uris":{"android":"levelo://app?vid=18dda957-3659-4111-8f9d-293dfb6e4e36","ios":"levelo://app?vid=18dda957-3659-4111-8f9d-293dfb6e4e36"},"vehicle_type_id":"4","last_reported":1740989646,"current_range_meters":13600,"station_id":"ce4bgjp2rcd13ifvqbh0","pricing_plan_id":"cebpf4jnsgd1na2vs0mg"},{"bike_id":"4f7f6f0a-4e74-427f-aa43-d179f93e4a0f","system_id":"levelo_inurba_marseille","lat":43.26682,"lon":5.38275,"is_reserved":false,"is_disabled":false,"rental_uris":{"android":"levelo://app?vid=4f7f6f0a-4e74-427f-aa43-d179f93e4a0f","ios":"levelo://app?vid=4f7f6f0a-4e74-427f-aa43-d179f93e4a0f"},"vehicle_type_id":"4","last_reported":1740989646,"current_range_meters":13600,"station_id":"ce4bhg92rcd13ifvqf90","pricing_plan_id":"cebpf4jnsgd1na2vs0mg"},{"bike_id":"052f91ab-6602-42a5-baf2-59b5e512da5a","system_id":"levelo_inurba_marseille","lat":43.31372,"lon":5.38496,"is_reserved":false,"is_disabled":false,"rental_uris":{"android":"levelo://app?vid=052f91ab-6602-42a5-baf2-59b5e512da5a","ios":"levelo://app?vid=052f91ab-6602-42a5-baf2-59b5e512da5a"},"vehicle_type_id":"4","last_reported":1740989646,"current_range_meters":14000,"station_id":"ce4bgt92rcd13ifvqcf0","pricing_plan_id":"cebpf4jnsgd1na2vs0mg"},{"bike_id":"09ed7a6c-a359-4efc-9ba9-bc786c44d066","system_id":"levelo_inurba_marseille","lat":43.30084,"lon":5.39087,"is_reserved":false,"is_disabled":false,"rental_uris":{"android":"levelo://app?vid=09ed7a6c-a359-4efc-9ba9-bc786c44d066","ios":"levelo://app?vid=09ed7a6c-a359-4efc-9ba9-bc786c44d066"},"vehicle_type_id":"4","last_reported":1740989646,"current_range_meters":14000,"station_id":"ce4bh192rcd13ifvqdb0","pricing_plan_id":"cebpf4jnsgd1na2vs0mg"},{"bike_id":"839b75a2-3b79-4986-9389-18e9e5eaf91d","system_id":"levelo_inurba_marseille","lat":43.25937,"lon":5.40909,"is_reserved":false,"is_disabled":false,"rental_uris":{"android":"levelo://app?vid=839b75a2-3b79-4986-9389-18e9e5eaf91d","ios":"levelo://app?vid=839b75a2-3b79-4986-9389-18e9e5eaf91d"},"vehicle_type_id":"4","last_reported":1740989646,"current_range_meters":14000,"station_id":"ce4bhm92rcd13ifvqglg","pricing_plan_id":"cebpf4jnsgd1na2vs0mg"},{"bike_id":"c8a2e4c4-0b83-40ab-b841-3cc3bdbbafbf","system_id":"levelo_inurba_marseille","lat":43.33721,"lon":5.39185,"is_reserved":false,"is_disabled":false,"rental_uris":{"android":"levelo://app?vid=c8a2e4c4-0b83-40ab-b841-3cc3bdbbafbf","ios":"levelo://app?vid=c8a2e4c4-0b83-40ab-b841-3cc3bdbbafbf"},"vehicle_type_id":"4","last_reported":1740989646,"current_range_meters":14000,"station_id":"ce4bhr92rcd13ifvqhsg","pricing_plan_id":"cebpf4jnsgd1na2vs0mg"},{"bike_id":"76f0ecc2-74d2-4458-9089-c4bdf8553e65","system_id":"levelo_inurba_marseille","lat":43.27203,"lon":5.41872,"is_reserved":false,"is_disabled":false,"rental_uris":{"android":"levelo://app?vid=76f0ecc2-74d2-4458-9089-c4bdf8553e65","ios":"levelo://app?vid=76f0ecc2-74d2-4458-9089-c4bdf8553e65"},"vehicle_type_id":"4","last_reported":1740989646,"current_range_meters":14400,"station_id":"","pricing_plan_id":"cebpf4jnsgd1na2vs0mg"},{"bike_id":"0b877b5d-b8ee-48de-96c6-996cafb0292f","system_id":"levelo_inurba_marseille","lat":43.29381,"lon":5.37845,"is_reserved":false,"is_disabled":false,"rental_uris":{"android":"levelo://app?vid=0b877b5d-b8ee-48de-96c6-996cafb0292f","ios":"levelo://app?vid=0b877b5d-b8ee-48de-96c6-996cafb0292f"},"vehicle_type_id":"4","last_reported":1740989646,"current_range_meters":14400,"station_id":"ce4bgjh2rcd13ifvqbf0","pricing_plan_id":"cebpf4jnsgd1na2vs0mg"},{"bike_id":"f4eb20d0-e62f-4954-b7a9-ec4720bef3aa","system_id":"levelo_inurba_marseille","lat":43.25932,"lon":5.40914,"is_reserved":false,"is_disabled":false,"rental_uris":{"android":"levelo://app?vid=f4eb20d0-e62f-4954-b7a9-ec4720bef3aa","ios":"levelo://app?vid=f4eb20d0-e62f-4954-b7a9-ec4720bef3aa"},"vehicle_type_id":"4","last_reported":1740989646,"current_range_meters":14400,"station_id":"ce4bhm92rcd13ifvqglg","pricing_plan_id":"cebpf4jnsgd1na2vs0mg"},{"bike_id":"ed5d0ef3-c829-4838-97e0-fd2bf3c2b10d","system_id":"levelo_inurba_marseille","lat":43.25942,"lon":5.40905,"is_reserved":false,"is_disabled":false,"rental_uris":{"android":"levelo://app?vid=ed5d0ef3-c829-4838-97e0-fd2bf3c2b10d","ios":"levelo://app?vid=ed5d0ef3-c829-4838-97e0-fd2bf3c2b10d"},"vehicle_type_id":"4","last_reported":1740989646,"current_range_meters":14400,"station_id":"ce4bhm92rcd13ifvqglg","pricing_plan_id":"cebpf4jnsgd1na2vs0mg"},{"bike_id":"b709ee3d-218d-45c0-b22f-8323e66961da","system_id":"levelo_inurba_marseille","lat":43.24068,"lon":5.37757,"is_reserved":false,"is_disabled":false,"rental_uris":{"android":"levelo://app?vid=b709ee3d-218d-45c0-b22f-8323e66961da","ios":"levelo://app?vid=b709ee3d-218d-45c0-b22f-8323e66961da"},"vehicle_type_id":"4","last_reported":1740989646,"current_range_meters":14400,"station_id":"ce4bhnp2rcd13ifvqgvg","pricing_plan_id":"cebpf4jnsgd1na2vs0mg"},{"bike_id":"62cb0cc9-5e6c-492a-b088-33fea151eb3e","system_id":"levelo_inurba_marseille","lat":43.27891,"lon":5.41685,"is_reserved":false,"is_disabled":false,"rental_uris":{"android":"levelo://app?vid=62cb0cc9-5e6c-492a-b088-33fea151eb3e","ios":"levelo://app?vid=62cb0cc9-5e6c-492a-b088-33fea151eb3e"},"vehicle_type_id":"4","last_reported":1740989646,"current_range_meters":14800,"station_id":"","pricing_plan_id":"cebpf4jnsgd1na2vs0mg"},{"bike_id":"afa00d43-dc26-4b6a-839c-eb9531af7c1f","system_id":"levelo_inurba_marseille","lat":43.30624,"lon":5.38436,"is_reserved":false,"is_disabled":false,"rental_uris":{"android":"levelo://app?vid=afa00d43-dc26-4b6a-839c-eb9531af7c1f","ios":"levelo://app?vid=afa00d43-dc26-4b6a-839c-eb9531af7c1f"},"vehicle_type_id":"4","last_reported":1740989646,"current_range_meters":14800,"station_id":"","pricing_plan_id":"cebpf4jnsgd1na2vs0mg"},{"bike_id":"69504b16-61ed-46ba-8216-7bdaeb149c29","system_id":"levelo_inurba_marseille","lat":43.30587,"lon":5.37248,"is_reserved":false,"is_disabled":false,"rental_uris":{"android":"levelo://app?vid=69504b16-61ed-46ba-8216-7bdaeb149c29","ios":"levelo://app?vid=69504b16-61ed-46ba-8216-7bdaeb149c29"},"vehicle_type_id":"4","last_reported":1740989646,"current_range_meters":14800,"station_id":"ce4bgqh2rcd13ifvqc4g","pricing_plan_id":"cebpf4jnsgd1na2vs0mg"},{"bike_id":"8f91da26-e2cf-46fe-b02f-7e053f55b38a","system_id":"levelo_inurba_marseille","lat":43.30145,"lon":5.37422,"is_reserved":false,"is_disabled":false,"rental_uris":{"android":"levelo://app?vid=8f91da26-e2cf-46fe-b02f-7e053f55b38a","ios":"levelo://app?vid=8f91da26-e2cf-46fe-b02f-7e053f55b38a"},"vehicle_type_id":"4","last_reported":1740989646,"current_range_meters":14800,"station_id":"ce4bgs92rcd13ifvqcc0","pricing_plan_id":"cebpf4jnsgd1na2vs0mg"},{"bike_id":"a3fdac1b-69a8-42b0-ae47-bcf671ff3241","system_id":"levelo_inurba_marseille","lat":43.25011,"lon":5.38914,"is_reserved":false,"is_disabled":false,"rental_uris":{"android":"levelo://app?vid=a3fdac1b-69a8-42b0-ae47-bcf671ff3241","ios":"levelo://app?vid=a3fdac1b-69a8-42b0-ae47-bcf671ff3241"},"vehicle_type_id":"4","last_reported":1740989646,"current_range_meters":14800,"station_id":"ce4bhgp2rcd13ifvqfd0","pricing_plan_id":"cebpf4jnsgd1na2vs0mg"},{"bike_id":"05662432-9f8e-4733-bfff-ad69241d4de1","system_id":"levelo_inurba_marseille","lat":43.26509,"lon":5.39536,"is_reserved":false,"is_disabled":false,"rental_uris":{"android":"levelo://app?vid=05662432-9f8e-4733-bfff-ad69241d4de1","ios":"levelo://app?vid=05662432-9f8e-4733-bfff-ad69241d4de1"},"vehicle_type_id":"4","last_reported":1740989646,"current_range_meters":15200,"station_id":"ce4bhi12rcd13ifvqfq0","pricing_plan_id":"cebpf4jnsgd1na2vs0mg"},{"bike_id":"db6557e3-d612-45f1-870f-c403bf17088e","system_id":"levelo_inurba_marseille","lat":43.21249,"lon":5.35353,"is_reserved":false,"is_disabled":false,"rental_uris":{"android":"levelo://app?vid=db6557e3-d612-45f1-870f-c403bf17088e","ios":"levelo://app?vid=db6557e3-d612-45f1-870f-c403bf17088e"},"vehicle_type_id":"4","last_reported":1740989646,"current_range_meters":16000,"station_id":"","pricing_plan_id":"cebpf4jnsgd1na2vs0mg"},{"bike_id":"8281646f-50f1-4fd3-a583-6c6d2ab4e71e","system_id":"levelo_inurba_marseille","lat":43.300385,"lon":5.374518,"is_reserved":false,"is_disabled":false,"rental_uris":{"android":"levelo://app?vid=8281646f-50f1-4fd3-a583-6c6d2ab4e71e","ios":"levelo://app?vid=8281646f-50f1-4fd3-a583-6c6d2ab4e71e"},"vehicle_type_id":"4","last_reported":1740989646,"current_range_meters":16000,"station_id":"ce4bgup2rcd13ifvqco0","pricing_plan_id":"cebpf4jnsgd1na2vs0mg"},{"bike_id":"360cb8fb-ae2d-4942-a777-0b20fe1843ea","system_id":"levelo_inurba_marseille","lat":43.26558,"lon":5.37289,"is_reserved":false,"is_disabled":false,"rental_uris":{"android":"levelo://app?vid=360cb8fb-ae2d-4942-a777-0b20fe1843ea","ios":"levelo://app?vid=360cb8fb-ae2d-4942-a777-0b20fe1843ea"},"vehicle_type_id":"4","last_reported":1740989646,"current_range_meters":16000,"station_id":"ce4bhg12rcd13ifvqf70","pricing_plan_id":"cebpf4jnsgd1na2vs0mg"},{"bike_id":"ba1ba081-a651-458b-864c-f93419b9b0b6","system_id":"levelo_inurba_marseille","lat":43.25009,"lon":5.38917,"is_reserved":false,"is_disabled":false,"rental_uris":{"android":"levelo://app?vid=ba1ba081-a651-458b-864c-f93419b9b0b6","ios":"levelo://app?vid=ba1ba081-a651-458b-864c-f93419b9b0b6"},"vehicle_type_id":"4","last_reported":1740989646,"current_range_meters":16000,"station_id":"ce4bhgp2rcd13ifvqfd0","pricing_plan_id":"cebpf4jnsgd1na2vs0mg"},{"bike_id":"553e3afb-3686-4ac0-a033-58eaeab25741","system_id":"levelo_inurba_marseille","lat":43.27117,"lon":5.42191,"is_reserved":false,"is_disabled":false,"rental_uris":{"android":"levelo://app?vid=553e3afb-3686-4ac0-a033-58eaeab25741","ios":"levelo://app?vid=553e3afb-3686-4ac0-a033-58eaeab25741"},"vehicle_type_id":"4","last_reported":1740989646,"current_range_meters":16000,"station_id":"ce4bhk92rcd13ifvqgb0","pricing_plan_id":"cebpf4jnsgd1na2vs0mg"},{"bike_id":"0e8d5826-85d1-48fb-9035-8c06f8646ec7","system_id":"levelo_inurba_marseille","lat":43.24073,"lon":5.37758,"is_reserved":false,"is_disabled":false,"rental_uris":{"android":"levelo://app?vid=0e8d5826-85d1-48fb-9035-8c06f8646ec7","ios":"levelo://app?vid=0e8d5826-85d1-48fb-9035-8c06f8646ec7"},"vehicle_type_id":"4","last_reported":1740989646,"current_range_meters":16000,"station_id":"ce4bhnp2rcd13ifvqgvg","pricing_plan_id":"cebpf4jnsgd1na2vs0mg"},{"bike_id":"c929653a-c7df-44ae-8479-a04aa4e8a4cd","system_id":"levelo_inurba_marseille","lat":43.33607,"lon":5.41033,"is_reserved":false,"is_disabled":false,"rental_uris":{"android":"levelo://app?vid=c929653a-c7df-44ae-8479-a04aa4e8a4cd","ios":"levelo://app?vid=c929653a-c7df-44ae-8479-a04aa4e8a4cd"},"vehicle_type_id":"4","last_reported":1740989646,"current_range_meters":16000,"station_id":"ce4bhqh2rcd13ifvqhmg","pricing_plan_id":"cebpf4jnsgd1na2vs0mg"},{"bike_id":"aab51bbc-3ab4-4d20-9eb7-ef91ecee4234","system_id":"levelo_inurba_marseille","lat":43.26059,"lon":5.394,"is_reserved":false,"is_disabled":false,"rental_uris":{"android":"levelo://app?vid=aab51bbc-3ab4-4d20-9eb7-ef91ecee4234","ios":"levelo://app?vid=aab51bbc-3ab4-4d20-9eb7-ef91ecee4234"},"vehicle_type_id":"4","last_reported":1740989646,"current_range_meters":16400,"station_id":"ce4bhh92rcd13ifvqfj0","pricing_plan_id":"cebpf4jnsgd1na2vs0mg"},{"bike_id":"03b8b470-b5a5-49ad-a0ee-501d917c524e","system_id":"levelo_inurba_marseille","lat":43.23965,"lon":5.36636,"is_reserved":false,"is_disabled":false,"rental_uris":{"android":"levelo://app?vid=03b8b470-b5a5-49ad-a0ee-501d917c524e","ios":"levelo://app?vid=03b8b470-b5a5-49ad-a0ee-501d917c524e"},"vehicle_type_id":"4","last_reported":1740989646,"current_range_meters":16400,"station_id":"ce4bhi12rcd13ifvqfp0","pricing_plan_id":"cebpf4jnsgd1na2vs0mg"},{"bike_id":"123d5adf-8e93-46cc-93b8-80cd2a012f7c","system_id":"levelo_inurba_marseille","lat":43.27069,"lon":5.42299,"is_reserved":false,"is_disabled":false,"rental_uris":{"android":"levelo://app?vid=123d5adf-8e93-46cc-93b8-80cd2a012f7c","ios":"levelo://app?vid=123d5adf-8e93-46cc-93b8-80cd2a012f7c"},"vehicle_type_id":"4","last_reported":1740989646,"current_range_meters":16400,"station_id":"ce4bhk92rcd13ifvqgb0","pricing_plan_id":"cebpf4jnsgd1na2vs0mg"},{"bike_id":"76394e5b-b5d3-409a-954a-e09b2559a295","system_id":"levelo_inurba_marseille","lat":43.23187,"lon":5.35557,"is_reserved":false,"is_disabled":false,"rental_uris":{"android":"levelo://app?vid=76394e5b-b5d3-409a-954a-e09b2559a295","ios":"levelo://app?vid=76394e5b-b5d3-409a-954a-e09b2559a295"},"vehicle_type_id":"4","last_reported":1740989646,"current_range_meters":16400,"station_id":"ce4bhu92rcd13ifvqi70","pricing_plan_id":"cebpf4jnsgd1na2vs0mg"},{"bike_id":"51fce770-2d44-4f75-a8f9-5e87ec73da22","system_id":"levelo_inurba_marseille","lat":43.31233,"lon":5.36857,"is_reserved":false,"is_disabled":false,"rental_uris":{"android":"levelo://app?vid=51fce770-2d44-4f75-a8f9-5e87ec73da22","ios":"levelo://app?vid=51fce770-2d44-4f75-a8f9-5e87ec73da22"},"vehicle_type_id":"4","last_reported":1740989646,"current_range_meters":16800,"station_id":"ce4bgl92rcd13ifvqbq0","pricing_plan_id":"cebpf4jnsgd1na2vs0mg"},{"bike_id":"9fb61ed4-f97a-4020-9160-bc8df92bdf6d","system_id":"levelo_inurba_marseille","lat":43.30909,"lon":5.36843,"is_reserved":false,"is_disabled":false,"rental_uris":{"android":"levelo://app?vid=9fb61ed4-f97a-4020-9160-bc8df92bdf6d","ios":"levelo://app?vid=9fb61ed4-f97a-4020-9160-bc8df92bdf6d"},"vehicle_type_id":"4","last_reported":1740989646,"current_range_meters":16800,"station_id":"ce4bgn92rcd13ifvqbvg","pricing_plan_id":"cebpf4jnsgd1na2vs0mg"},{"bike_id":"440876d4-dc42-40f0-b4a2-14a0a7b63572","system_id":"levelo_inurba_marseille","lat":43.31348,"lon":5.36716,"is_reserved":false,"is_disabled":false,"rental_uris":{"android":"levelo://app?vid=440876d4-dc42-40f0-b4a2-14a0a7b63572","ios":"levelo://app?vid=440876d4-dc42-40f0-b4a2-14a0a7b63572"},"vehicle_type_id":"4","last_reported":1740989646,"current_range_meters":16800,"station_id":"ce4bgr92rcd13ifvqc6g","pricing_plan_id":"cebpf4jnsgd1na2vs0mg"},{"bike_id":"7f546ac2-bd59-49e4-8321-4b112ee2ca26","system_id":"levelo_inurba_marseille","lat":43.29029,"lon":5.39983,"is_reserved":false,"is_disabled":false,"rental_uris":{"android":"levelo://app?vid=7f546ac2-bd59-49e4-8321-4b112ee2ca26","ios":"levelo://app?vid=7f546ac2-bd59-49e4-8321-4b112ee2ca26"},"vehicle_type_id":"4","last_reported":1740989646,"current_range_meters":16800,"station_id":"ce4bh392rcd13ifvqdm0","pricing_plan_id":"cebpf4jnsgd1na2vs0mg"},{"bike_id":"7beba9dc-c5da-4a87-af6d-b268336bbfa7","system_id":"levelo_inurba_marseille","lat":43.23964,"lon":5.36637,"is_reserved":false,"is_disabled":false,"rental_uris":{"android":"levelo://app?vid=7beba9dc-c5da-4a87-af6d-b268336bbfa7","ios":"levelo://app?vid=7beba9dc-c5da-4a87-af6d-b268336bbfa7"},"vehicle_type_id":"4","last_reported":1740989646,"current_range_meters":16800,"station_id":"ce4bhi12rcd13ifvqfp0","pricing_plan_id":"cebpf4jnsgd1na2vs0mg"},{"bike_id":"3b778583-4fa4-4286-b3fb-8e250bde10fe","system_id":"levelo_inurba_marseille","lat":43.24175,"lon":5.39729,"is_reserved":false,"is_disabled":false,"rental_uris":{"android":"levelo://app?vid=3b778583-4fa4-4286-b3fb-8e250bde10fe","ios":"levelo://app?vid=3b778583-4fa4-4286-b3fb-8e250bde10fe"},"vehicle_type_id":"4","last_reported":1740989646,"current_range_meters":16800,"station_id":"ce4bhn12rcd13ifvqgpg","pricing_plan_id":"cebpf4jnsgd1na2vs0mg"},{"bike_id":"d5649f99-4a5d-4317-b6e6-ce2a9b70351f","system_id":"levelo_inurba_marseille","lat":43.24065,"lon":5.37775,"is_reserved":false,"is_disabled":false,"rental_uris":{"android":"levelo://app?vid=d5649f99-4a5d-4317-b6e6-ce2a9b70351f","ios":"levelo://app?vid=d5649f99-4a5d-4317-b6e6-ce2a9b70351f"},"vehicle_type_id":"4","last_reported":1740989646,"current_range_meters":16800,"station_id":"ce4bhnp2rcd13ifvqgvg","pricing_plan_id":"cebpf4jnsgd1na2vs0mg"},{"bike_id":"056e5918-eaae-4bb0-a14f-4ff0f6c20d5c","system_id":"levelo_inurba_marseille","lat":43.241671,"lon":5.363968,"is_reserved":false,"is_disabled":false,"rental_uris":{"android":"levelo://app?vid=056e5918-eaae-4bb0-a14f-4ff0f6c20d5c","ios":"levelo://app?vid=056e5918-eaae-4bb0-a14f-4ff0f6c20d5c"},"vehicle_type_id":"4","last_reported":1740989646,"current_range_meters":16800,"station_id":"cpo36qri1sfpv3e86is0","pricing_plan_id":"cebpf4jnsgd1na2vs0mg"},{"bike_id":"0b1d16a8-c879-4989-bfe7-7eb35a59ec23","system_id":"levelo_inurba_marseille","lat":43.25159,"lon":5.37813,"is_reserved":false,"is_disabled":false,"rental_uris":{"android":"levelo://app?vid=0b1d16a8-c879-4989-bfe7-7eb35a59ec23","ios":"levelo://app?vid=0b1d16a8-c879-4989-bfe7-7eb35a59ec23"},"vehicle_type_id":"4","last_reported":1740989646,"current_range_meters":17200,"station_id":"","pricing_plan_id":"cebpf4jnsgd1na2vs0mg"},{"bike_id":"4300cf9b-3f21-4db1-957e-9b9d93ea7ac9","system_id":"levelo_inurba_marseille","lat":43.31069,"lon":5.38137,"is_reserved":false,"is_disabled":false,"rental_uris":{"android":"levelo://app?vid=4300cf9b-3f21-4db1-957e-9b9d93ea7ac9","ios":"levelo://app?vid=4300cf9b-3f21-4db1-957e-9b9d93ea7ac9"},"vehicle_type_id":"4","last_reported":1740989646,"current_range_meters":17200,"station_id":"","pricing_plan_id":"cebpf4jnsgd1na2vs0mg"},{"bike_id":"88858c28-5a08-41e9-b766-6b2e555e71e3","system_id":"levelo_inurba_marseille","lat":43.295953,"lon":5.3816,"is_reserved":false,"is_disabled":false,"rental_uris":{"android":"levelo://app?vid=88858c28-5a08-41e9-b766-6b2e555e71e3","ios":"levelo://app?vid=88858c28-5a08-41e9-b766-6b2e555e71e3"},"vehicle_type_id":"4","last_reported":1740989646,"current_range_meters":17200,"station_id":"ce4bgl12rcd13ifvqbo0","pricing_plan_id":"cebpf4jnsgd1na2vs0mg"},{"bike_id":"abd09012-dd4d-4f23-9ce7-18abef1bb38b","system_id":"levelo_inurba_marseille","lat":43.30476,"lon":5.37913,"is_reserved":false,"is_disabled":false,"rental_uris":{"android":"levelo://app?vid=abd09012-dd4d-4f23-9ce7-18abef1bb38b","ios":"levelo://app?vid=abd09012-dd4d-4f23-9ce7-18abef1bb38b"},"vehicle_type_id":"4","last_reported":1740989646,"current_range_meters":17200,"station_id":"ce4bgup2rcd13ifvqcn0","pricing_plan_id":"cebpf4jnsgd1na2vs0mg"},{"bike_id":"461ffa8d-67a7-4de7-91e4-8e943cdf9bae","system_id":"levelo_inurba_marseille","lat":43.29037,"lon":5.37566,"is_reserved":false,"is_disabled":false,"rental_uris":{"android":"levelo://app?vid=461ffa8d-67a7-4de7-91e4-8e943cdf9bae","ios":"levelo://app?vid=461ffa8d-67a7-4de7-91e4-8e943cdf9bae"},"vehicle_type_id":"4","last_reported":1740989646,"current_range_meters":17200,"station_id":"ce4bh692rcd13ifvqe90","pricing_plan_id":"cebpf4jnsgd1na2vs0mg"},{"bike_id":"6df526da-e0fc-42b8-897e-57cca2fda7cc","system_id":"levelo_inurba_marseille","lat":43.270736,"lon":5.422751,"is_reserved":false,"is_disabled":false,"rental_uris":{"android":"levelo://app?vid=6df526da-e0fc-42b8-897e-57cca2fda7cc","ios":"levelo://app?vid=6df526da-e0fc-42b8-897e-57cca2fda7cc"},"vehicle_type_id":"4","last_reported":1740989646,"current_range_meters":17200,"station_id":"ce4bhk92rcd13ifvqgb0","pricing_plan_id":"cebpf4jnsgd1na2vs0mg"},{"bike_id":"daad6c1f-e352-49da-8743-27a3b898b671","system_id":"levelo_inurba_marseille","lat":43.23182,"lon":5.39992,"is_reserved":false,"is_disabled":false,"rental_uris":{"android":"levelo://app?vid=daad6c1f-e352-49da-8743-27a3b898b671","ios":"levelo://app?vid=daad6c1f-e352-49da-8743-27a3b898b671"},"vehicle_type_id":"4","last_reported":1740989646,"current_range_meters":17200,"station_id":"ce4bhn12rcd13ifvqgqg","pricing_plan_id":"cebpf4jnsgd1na2vs0mg"},{"bike_id":"13203078-7922-4853-ab3a-32638914891f","system_id":"levelo_inurba_marseille","lat":43.24059,"lon":5.3775,"is_reserved":false,"is_disabled":false,"rental_uris":{"android":"levelo://app?vid=13203078-7922-4853-ab3a-32638914891f","ios":"levelo://app?vid=13203078-7922-4853-ab3a-32638914891f"},"vehicle_type_id":"4","last_reported":1740989646,"current_range_meters":17200,"station_id":"ce4bhnp2rcd13ifvqgvg","pricing_plan_id":"cebpf4jnsgd1na2vs0mg"},{"bike_id":"c986bd4c-3766-4a76-8c78-4827ba0c9de7","system_id":"levelo_inurba_marseille","lat":43.24071,"lon":5.37761,"is_reserved":false,"is_disabled":false,"rental_uris":{"android":"levelo://app?vid=c986bd4c-3766-4a76-8c78-4827ba0c9de7","ios":"levelo://app?vid=c986bd4c-3766-4a76-8c78-4827ba0c9de7"},"vehicle_type_id":"4","last_reported":1740989646,"current_range_meters":17200,"station_id":"ce4bhnp2rcd13ifvqgvg","pricing_plan_id":"cebpf4jnsgd1na2vs0mg"},{"bike_id":"f8b9ebf9-f3de-404e-b93f-0d907948555d","system_id":"levelo_inurba_marseille","lat":43.3253,"lon":5.41449,"is_reserved":false,"is_disabled":false,"rental_uris":{"android":"levelo://app?vid=f8b9ebf9-f3de-404e-b93f-0d907948555d","ios":"levelo://app?vid=f8b9ebf9-f3de-404e-b93f-0d907948555d"},"vehicle_type_id":"4","last_reported":1740989646,"current_range_meters":17200,"station_id":"ce4bhq12rcd13ifvqhhg","pricing_plan_id":"cebpf4jnsgd1na2vs0mg"},{"bike_id":"2e98121c-8891-4ab6-a9c5-0c0bca4f1004","system_id":"levelo_inurba_marseille","lat":43.30981,"lon":5.37133,"is_reserved":false,"is_disabled":false,"rental_uris":{"android":"levelo://app?vid=2e98121c-8891-4ab6-a9c5-0c0bca4f1004","ios":"levelo://app?vid=2e98121c-8891-4ab6-a9c5-0c0bca4f1004"},"vehicle_type_id":"4","last_reported":1740989646,"current_range_meters":17600,"station_id":"","pricing_plan_id":"cebpf4jnsgd1na2vs0mg"},{"bike_id":"4aaec2e6-2dfb-4159-821a-7a493fa8e5f4","system_id":"levelo_inurba_marseille","lat":43.25007,"lon":5.38917,"is_reserved":false,"is_disabled":false,"rental_uris":{"android":"levelo://app?vid=4aaec2e6-2dfb-4159-821a-7a493fa8e5f4","ios":"levelo://app?vid=4aaec2e6-2dfb-4159-821a-7a493fa8e5f4"},"vehicle_type_id":"4","last_reported":1740989646,"current_range_meters":17600,"station_id":"ce4bhgp2rcd13ifvqfd0","pricing_plan_id":"cebpf4jnsgd1na2vs0mg"},{"bike_id":"9b71ff77-04e5-47df-ba3a-767d1c13022d","system_id":"levelo_inurba_marseille","lat":43.26965,"lon":5.38625,"is_reserved":false,"is_disabled":false,"rental_uris":{"android":"levelo://app?vid=9b71ff77-04e5-47df-ba3a-767d1c13022d","ios":"levelo://app?vid=9b71ff77-04e5-47df-ba3a-767d1c13022d"},"vehicle_type_id":"4","last_reported":1740989646,"current_range_meters":17600,"station_id":"ce4bhh92rcd13ifvqfh0","pricing_plan_id":"cebpf4jnsgd1na2vs0mg"},{"bike_id":"71ec7edc-b4bb-44ec-908b-4795e53a30e4","system_id":"levelo_inurba_marseille","lat":43.27841,"lon":5.39219,"is_reserved":false,"is_disabled":false,"rental_uris":{"android":"levelo://app?vid=71ec7edc-b4bb-44ec-908b-4795e53a30e4","ios":"levelo://app?vid=71ec7edc-b4bb-44ec-908b-4795e53a30e4"},"vehicle_type_id":"4","last_reported":1740989646,"current_range_meters":17600,"station_id":"ce4bhjp2rcd13ifvqga0","pricing_plan_id":"cebpf4jnsgd1na2vs0mg"},{"bike_id":"31b68950-9614-4f37-8c01-60100b683157","system_id":"levelo_inurba_marseille","lat":43.2407,"lon":5.37753,"is_reserved":false,"is_disabled":false,"rental_uris":{"android":"levelo://app?vid=31b68950-9614-4f37-8c01-60100b683157","ios":"levelo://app?vid=31b68950-9614-4f37-8c01-60100b683157"},"vehicle_type_id":"4","last_reported":1740989646,"current_range_meters":17600,"station_id":"ce4bhnp2rcd13ifvqgvg","pricing_plan_id":"cebpf4jnsgd1na2vs0mg"},{"bike_id":"12c72f3b-7017-4c29-8b84-820c53eae078","system_id":"levelo_inurba_marseille","lat":43.262417,"lon":5.374318,"is_reserved":false,"is_disabled":false,"rental_uris":{"android":"levelo://app?vid=12c72f3b-7017-4c29-8b84-820c53eae078","ios":"levelo://app?vid=12c72f3b-7017-4c29-8b84-820c53eae078"},"vehicle_type_id":"4","last_reported":1740989646,"current_range_meters":18000,"station_id":"ce4bgr92rcd13ifvqc7g","pricing_plan_id":"cebpf4jnsgd1na2vs0mg"},{"bike_id":"bcc7379e-55bc-40f3-98af-be7c8a165b49","system_id":"levelo_inurba_marseille","lat":43.26193,"lon":5.37447,"is_reserved":false,"is_disabled":false,"rental_uris":{"android":"levelo://app?vid=bcc7379e-55bc-40f3-98af-be7c8a165b49","ios":"levelo://app?vid=bcc7379e-55bc-40f3-98af-be7c8a165b49"},"vehicle_type_id":"4","last_reported":1740989646,"current_range_meters":18000,"station_id":"ce4bhgp2rcd13ifvqfc0","pricing_plan_id":"cebpf4jnsgd1na2vs0mg"},{"bike_id":"d072e239-2dcd-4eff-a4be-c5faca9453dd","system_id":"levelo_inurba_marseille","lat":43.26486,"lon":5.39557,"is_reserved":false,"is_disabled":false,"rental_uris":{"android":"levelo://app?vid=d072e239-2dcd-4eff-a4be-c5faca9453dd","ios":"levelo://app?vid=d072e239-2dcd-4eff-a4be-c5faca9453dd"},"vehicle_type_id":"4","last_reported":1740989646,"current_range_meters":18000,"station_id":"ce4bhi12rcd13ifvqfq0","pricing_plan_id":"cebpf4jnsgd1na2vs0mg"},{"bike_id":"127a1fac-5e85-4bf8-a2a4-9dd40f0473f7","system_id":"levelo_inurba_marseille","lat":43.27482,"lon":5.424712,"is_reserved":false,"is_disabled":false,"rental_uris":{"android":"levelo://app?vid=127a1fac-5e85-4bf8-a2a4-9dd40f0473f7","ios":"levelo://app?vid=127a1fac-5e85-4bf8-a2a4-9dd40f0473f7"},"vehicle_type_id":"4","last_reported":1740989646,"current_range_meters":18000,"station_id":"ce4bhn92rcd13ifvqgrg","pricing_plan_id":"cebpf4jnsgd1na2vs0mg"},{"bike_id":"69379c57-b1c7-4e95-b8eb-049067b38329","system_id":"levelo_inurba_marseille","lat":43.2749,"lon":5.42495,"is_reserved":false,"is_disabled":false,"rental_uris":{"android":"levelo://app?vid=69379c57-b1c7-4e95-b8eb-049067b38329","ios":"levelo://app?vid=69379c57-b1c7-4e95-b8eb-049067b38329"},"vehicle_type_id":"4","last_reported":1740989646,"current_range_meters":18000,"station_id":"ce4bhn92rcd13ifvqgrg","pricing_plan_id":"cebpf4jnsgd1na2vs0mg"},{"bike_id":"65986b17-487c-49ed-8eda-74fd7a3cee6a","system_id":"levelo_inurba_marseille","lat":43.336,"lon":5.41034,"is_reserved":false,"is_disabled":false,"rental_uris":{"android":"levelo://app?vid=65986b17-487c-49ed-8eda-74fd7a3cee6a","ios":"levelo://app?vid=65986b17-487c-49ed-8eda-74fd7a3cee6a"},"vehicle_type_id":"4","last_reported":1740989646,"current_range_meters":18000,"station_id":"ce4bhqh2rcd13ifvqhmg","pricing_plan_id":"cebpf4jnsgd1na2vs0mg"},{"bike_id":"f230aa52-0a6a-4b8e-9015-f6c3b15842fb","system_id":"levelo_inurba_marseille","lat":43.30475,"lon":5.37902,"is_reserved":false,"is_disabled":false,"rental_uris":{"android":"levelo://app?vid=f230aa52-0a6a-4b8e-9015-f6c3b15842fb","ios":"levelo://app?vid=f230aa52-0a6a-4b8e-9015-f6c3b15842fb"},"vehicle_type_id":"4","last_reported":1740989646,"current_range_meters":18800,"station_id":"ce4bgup2rcd13ifvqcn0","pricing_plan_id":"cebpf4jnsgd1na2vs0mg"},{"bike_id":"8e11b3d0-2a89-4c8c-80e1-a3d616c7c579","system_id":"levelo_inurba_marseille","lat":43.26582,"lon":5.39023,"is_reserved":false,"is_disabled":false,"rental_uris":{"android":"levelo://app?vid=8e11b3d0-2a89-4c8c-80e1-a3d616c7c579","ios":"levelo://app?vid=8e11b3d0-2a89-4c8c-80e1-a3d616c7c579"},"vehicle_type_id":"4","last_reported":1740989646,"current_range_meters":18800,"station_id":"ce4bhe12rcd13ifvqf30","pricing_plan_id":"cebpf4jnsgd1na2vs0mg"},{"bike_id":"b49050a7-0ea8-46d2-9831-68f0b93f9b29","system_id":"levelo_inurba_marseille","lat":43.241655,"lon":5.363981,"is_reserved":false,"is_disabled":false,"rental_uris":{"android":"levelo://app?vid=b49050a7-0ea8-46d2-9831-68f0b93f9b29","ios":"levelo://app?vid=b49050a7-0ea8-46d2-9831-68f0b93f9b29"},"vehicle_type_id":"4","last_reported":1740989646,"current_range_meters":18800,"station_id":"cpo36qri1sfpv3e86is0","pricing_plan_id":"cebpf4jnsgd1na2vs0mg"},{"bike_id":"88ea3635-d6ec-4847-b8de-04e30512df40","system_id":"levelo_inurba_marseille","lat":43.30833,"lon":5.3769,"is_reserved":false,"is_disabled":false,"rental_uris":{"android":"levelo://app?vid=88ea3635-d6ec-4847-b8de-04e30512df40","ios":"levelo://app?vid=88ea3635-d6ec-4847-b8de-04e30512df40"},"vehicle_type_id":"4","last_reported":1740989646,"current_range_meters":19200,"station_id":"","pricing_plan_id":"cebpf4jnsgd1na2vs0mg"},{"bike_id":"43099ed8-c284-4b7a-993c-835512f450ad","system_id":"levelo_inurba_marseille","lat":43.32929,"lon":5.43016,"is_reserved":false,"is_disabled":false,"rental_uris":{"android":"levelo://app?vid=43099ed8-c284-4b7a-993c-835512f450ad","ios":"levelo://app?vid=43099ed8-c284-4b7a-993c-835512f450ad"},"vehicle_type_id":"4","last_reported":1740989646,"current_range_meters":19200,"station_id":"","pricing_plan_id":"cebpf4jnsgd1na2vs0mg"},{"bike_id":"b5ccea05-d5f0-4c55-8e0a-e9d39e58f27a","system_id":"levelo_inurba_marseille","lat":43.31218,"lon":5.36859,"is_reserved":false,"is_disabled":false,"rental_uris":{"android":"levelo://app?vid=b5ccea05-d5f0-4c55-8e0a-e9d39e58f27a","ios":"levelo://app?vid=b5ccea05-d5f0-4c55-8e0a-e9d39e58f27a"},"vehicle_type_id":"4","last_reported":1740989646,"current_range_meters":19200,"station_id":"ce4bgl92rcd13ifvqbq0","pricing_plan_id":"cebpf4jnsgd1na2vs0mg"},{"bike_id":"12044714-a650-4fc6-a84a-6d7590db4fd3","system_id":"levelo_inurba_marseille","lat":43.30921,"lon":5.36846,"is_reserved":false,"is_disabled":false,"rental_uris":{"android":"levelo://app?vid=12044714-a650-4fc6-a84a-6d7590db4fd3","ios":"levelo://app?vid=12044714-a650-4fc6-a84a-6d7590db4fd3"},"vehicle_type_id":"4","last_reported":1740989646,"current_range_meters":19200,"station_id":"ce4bgn92rcd13ifvqbvg","pricing_plan_id":"cebpf4jnsgd1na2vs0mg"},{"bike_id":"b1410e03-bf1e-4b77-9285-c4503ded0962","system_id":"levelo_inurba_marseille","lat":43.30471,"lon":5.37905,"is_reserved":false,"is_disabled":false,"rental_uris":{"android":"levelo://app?vid=b1410e03-bf1e-4b77-9285-c4503ded0962","ios":"levelo://app?vid=b1410e03-bf1e-4b77-9285-c4503ded0962"},"vehicle_type_id":"4","last_reported":1740989646,"current_range_meters":19200,"station_id":"ce4bgup2rcd13ifvqcn0","pricing_plan_id":"cebpf4jnsgd1na2vs0mg"},{"bike_id":"9bcaadbf-8cfa-45de-92f8-7e7996e24f04","system_id":"levelo_inurba_marseille","lat":43.30848,"lon":5.39187,"is_reserved":false,"is_disabled":false,"rental_uris":{"android":"levelo://app?vid=9bcaadbf-8cfa-45de-92f8-7e7996e24f04","ios":"levelo://app?vid=9bcaadbf-8cfa-45de-92f8-7e7996e24f04"},"vehicle_type_id":"4","last_reported":1740989646,"current_range_meters":19200,"station_id":"ce4bgup2rcd13ifvqco0","pricing_plan_id":"cebpf4jnsgd1na2vs0mg"},{"bike_id":"7b33248e-7f92-49da-bb66-36d5c14b9ff1","system_id":"levelo_inurba_marseille","lat":43.27497,"lon":5.4246,"is_reserved":false,"is_disabled":false,"rental_uris":{"android":"levelo://app?vid=7b33248e-7f92-49da-bb66-36d5c14b9ff1","ios":"levelo://app?vid=7b33248e-7f92-49da-bb66-36d5c14b9ff1"},"vehicle_type_id":"4","last_reported":1740989646,"current_range_meters":19200,"station_id":"ce4bhn92rcd13ifvqgrg","pricing_plan_id":"cebpf4jnsgd1na2vs0mg"},{"bike_id":"fd8d7b66-65e3-4bfc-8b66-5b6062e83be5","system_id":"levelo_inurba_marseille","lat":43.2696,"lon":5.38628,"is_reserved":false,"is_disabled":false,"rental_uris":{"android":"levelo://app?vid=fd8d7b66-65e3-4bfc-8b66-5b6062e83be5","ios":"levelo://app?vid=fd8d7b66-65e3-4bfc-8b66-5b6062e83be5"},"vehicle_type_id":"4","last_reported":1740989646,"current_range_meters":19600,"station_id":"ce4bhh92rcd13ifvqfh0","pricing_plan_id":"cebpf4jnsgd1na2vs0mg"},{"bike_id":"d5871994-6bbc-4539-90ae-04244fd18631","system_id":"levelo_inurba_marseille","lat":43.28768,"lon":5.40042,"is_reserved":false,"is_disabled":false,"rental_uris":{"android":"levelo://app?vid=d5871994-6bbc-4539-90ae-04244fd18631","ios":"levelo://app?vid=d5871994-6bbc-4539-90ae-04244fd18631"},"vehicle_type_id":"4","last_reported":1740989646,"current_range_meters":20000,"station_id":"","pricing_plan_id":"cebpf4jnsgd1na2vs0mg"},{"bike_id":"3b4e4ee0-90a7-4227-ae52-182a4c076787","system_id":"levelo_inurba_marseille","lat":43.291721,"lon":5.398287,"is_reserved":false,"is_disabled":false,"rental_uris":{"android":"levelo://app?vid=3b4e4ee0-90a7-4227-ae52-182a4c076787","ios":"levelo://app?vid=3b4e4ee0-90a7-4227-ae52-182a4c076787"},"vehicle_type_id":"4","last_reported":1740989646,"current_range_meters":20000,"station_id":"","pricing_plan_id":"cebpf4jnsgd1na2vs0mg"},{"bike_id":"1f56ea98-3422-427d-80a0-b0449b4a89ac","system_id":"levelo_inurba_marseille","lat":43.32434,"lon":5.36608,"is_reserved":false,"is_disabled":false,"rental_uris":{"android":"levelo://app?vid=1f56ea98-3422-427d-80a0-b0449b4a89ac","ios":"levelo://app?vid=1f56ea98-3422-427d-80a0-b0449b4a89ac"},"vehicle_type_id":"4","last_reported":1740989646,"current_range_meters":20000,"station_id":"","pricing_plan_id":"cebpf4jnsgd1na2vs0mg"},{"bike_id":"a502aab4-5949-4b07-b1ce-a20bc8bd19ad","system_id":"levelo_inurba_marseille","lat":43.305487,"lon":5.384131,"is_reserved":false,"is_disabled":false,"rental_uris":{"android":"levelo://app?vid=a502aab4-5949-4b07-b1ce-a20bc8bd19ad","ios":"levelo://app?vid=a502aab4-5949-4b07-b1ce-a20bc8bd19ad"},"vehicle_type_id":"4","last_reported":1740989646,"current_range_meters":20000,"station_id":"ce4bgt12rcd13ifvqcd0","pricing_plan_id":"cebpf4jnsgd1na2vs0mg"},{"bike_id":"8a27f164-87f2-4f6c-88df-94dbe6b00d87","system_id":"levelo_inurba_marseille","lat":43.2907,"lon":5.37133,"is_reserved":false,"is_disabled":false,"rental_uris":{"android":"levelo://app?vid=8a27f164-87f2-4f6c-88df-94dbe6b00d87","ios":"levelo://app?vid=8a27f164-87f2-4f6c-88df-94dbe6b00d87"},"vehicle_type_id":"4","last_reported":1740989646,"current_range_meters":20000,"station_id":"ce4bh5p2rcd13ifvqe4g","pricing_plan_id":"cebpf4jnsgd1na2vs0mg"},{"bike_id":"31accac7-daa1-48e4-9364-efbbdee2d729","system_id":"levelo_inurba_marseille","lat":43.31446,"lon":5.3863,"is_reserved":false,"is_disabled":false,"rental_uris":{"android":"levelo://app?vid=31accac7-daa1-48e4-9364-efbbdee2d729","ios":"levelo://app?vid=31accac7-daa1-48e4-9364-efbbdee2d729"},"vehicle_type_id":"4","last_reported":1740989646,"current_range_meters":20400,"station_id":"","pricing_plan_id":"cebpf4jnsgd1na2vs0mg"},{"bike_id":"73d30b01-c62a-4110-b405-9fd8cc43096e","system_id":"levelo_inurba_marseille","lat":43.30156,"lon":5.38087,"is_reserved":false,"is_disabled":false,"rental_uris":{"android":"levelo://app?vid=73d30b01-c62a-4110-b405-9fd8cc43096e","ios":"levelo://app?vid=73d30b01-c62a-4110-b405-9fd8cc43096e"},"vehicle_type_id":"4","last_reported":1740989646,"current_range_meters":20400,"station_id":"ce4bgjp2rcd13ifvqbh0","pricing_plan_id":"cebpf4jnsgd1na2vs0mg"},{"bike_id":"dea487f0-3520-4d0e-a9e4-cbcf7a204561","system_id":"levelo_inurba_marseille","lat":43.30921,"lon":5.36866,"is_reserved":false,"is_disabled":false,"rental_uris":{"android":"levelo://app?vid=dea487f0-3520-4d0e-a9e4-cbcf7a204561","ios":"levelo://app?vid=dea487f0-3520-4d0e-a9e4-cbcf7a204561"},"vehicle_type_id":"4","last_reported":1740989646,"current_range_meters":20400,"station_id":"ce4bgn92rcd13ifvqbvg","pricing_plan_id":"cebpf4jnsgd1na2vs0mg"},{"bike_id":"77b70072-566f-4867-913a-1f7f80c311a8","system_id":"levelo_inurba_marseille","lat":43.30896,"lon":5.37206,"is_reserved":false,"is_disabled":false,"rental_uris":{"android":"levelo://app?vid=77b70072-566f-4867-913a-1f7f80c311a8","ios":"levelo://app?vid=77b70072-566f-4867-913a-1f7f80c311a8"},"vehicle_type_id":"4","last_reported":1740989646,"current_range_meters":20400,"station_id":"ce4bguh2rcd13ifvqckg","pricing_plan_id":"cebpf4jnsgd1na2vs0mg"},{"bike_id":"0833d398-6f83-4f1a-af5c-2658f8973a37","system_id":"levelo_inurba_marseille","lat":43.29272,"lon":5.40136,"is_reserved":false,"is_disabled":false,"rental_uris":{"android":"levelo://app?vid=0833d398-6f83-4f1a-af5c-2658f8973a37","ios":"levelo://app?vid=0833d398-6f83-4f1a-af5c-2658f8973a37"},"vehicle_type_id":"4","last_reported":1740989646,"current_range_meters":20400,"station_id":"ce4bh312rcd13ifvqdk0","pricing_plan_id":"cebpf4jnsgd1na2vs0mg"},{"bike_id":"94f84b8c-e021-4c1e-8ed0-f390bcea07c5","system_id":"levelo_inurba_marseille","lat":43.24995,"lon":5.38946,"is_reserved":false,"is_disabled":false,"rental_uris":{"android":"levelo://app?vid=94f84b8c-e021-4c1e-8ed0-f390bcea07c5","ios":"levelo://app?vid=94f84b8c-e021-4c1e-8ed0-f390bcea07c5"},"vehicle_type_id":"4","last_reported":1740989646,"current_range_meters":20400,"station_id":"ce4bhgp2rcd13ifvqfd0","pricing_plan_id":"cebpf4jnsgd1na2vs0mg"},{"bike_id":"5adca0c6-4b24-4647-938a-5901c7772c02","system_id":"levelo_inurba_marseille","lat":43.25915,"lon":5.40904,"is_reserved":false,"is_disabled":false,"rental_uris":{"android":"levelo://app?vid=5adca0c6-4b24-4647-938a-5901c7772c02","ios":"levelo://app?vid=5adca0c6-4b24-4647-938a-5901c7772c02"},"vehicle_type_id":"4","last_reported":1740989646,"current_range_meters":20400,"station_id":"ce4bhm92rcd13ifvqglg","pricing_plan_id":"cebpf4jnsgd1na2vs0mg"},{"bike_id":"3db32056-1568-4a98-bc20-2d97175eb2d4","system_id":"levelo_inurba_marseille","lat":43.311176,"lon":5.377927,"is_reserved":false,"is_disabled":false,"rental_uris":{"android":"levelo://app?vid=3db32056-1568-4a98-bc20-2d97175eb2d4","ios":"levelo://app?vid=3db32056-1568-4a98-bc20-2d97175eb2d4"},"vehicle_type_id":"4","last_reported":1740989646,"current_range_meters":20800,"station_id":"ce4bgt92rcd13ifvqcf0","pricing_plan_id":"cebpf4jnsgd1na2vs0mg"},{"bike_id":"c94ed8d0-112e-4072-8be7-a438e96278d9","system_id":"levelo_inurba_marseille","lat":43.25004,"lon":5.38928,"is_reserved":false,"is_disabled":false,"rental_uris":{"android":"levelo://app?vid=c94ed8d0-112e-4072-8be7-a438e96278d9","ios":"levelo://app?vid=c94ed8d0-112e-4072-8be7-a438e96278d9"},"vehicle_type_id":"4","last_reported":1740989646,"current_range_meters":20800,"station_id":"ce4bhgp2rcd13ifvqfd0","pricing_plan_id":"cebpf4jnsgd1na2vs0mg"},{"bike_id":"8a9a6caa-7fef-4f88-9b88-fd9826b56ceb","system_id":"levelo_inurba_marseille","lat":43.27999,"lon":5.40027,"is_reserved":false,"is_disabled":false,"rental_uris":{"android":"levelo://app?vid=8a9a6caa-7fef-4f88-9b88-fd9826b56ceb","ios":"levelo://app?vid=8a9a6caa-7fef-4f88-9b88-fd9826b56ceb"},"vehicle_type_id":"4","last_reported":1740989646,"current_range_meters":20800,"station_id":"ce4bho92rcd13ifvqh4g","pricing_plan_id":"cebpf4jnsgd1na2vs0mg"},{"bike_id":"97d2bd57-6755-471c-bdc9-8f0916d0fcd8","system_id":"levelo_inurba_marseille","lat":43.309882,"lon":5.384752,"is_reserved":false,"is_disabled":false,"rental_uris":{"android":"levelo://app?vid=97d2bd57-6755-471c-bdc9-8f0916d0fcd8","ios":"levelo://app?vid=97d2bd57-6755-471c-bdc9-8f0916d0fcd8"},"vehicle_type_id":"4","last_reported":1740989646,"current_range_meters":21600,"station_id":"","pricing_plan_id":"cebpf4jnsgd1na2vs0mg"},{"bike_id":"3b676d38-fd0a-4dc8-b7e5-08f731799086","system_id":"levelo_inurba_marseille","lat":43.29838,"lon":5.36267,"is_reserved":false,"is_disabled":false,"rental_uris":{"android":"levelo://app?vid=3b676d38-fd0a-4dc8-b7e5-08f731799086","ios":"levelo://app?vid=3b676d38-fd0a-4dc8-b7e5-08f731799086"},"vehicle_type_id":"4","last_reported":1740989646,"current_range_meters":21600,"station_id":"ce4bgpp2rcd13ifvqc3g","pricing_plan_id":"cebpf4jnsgd1na2vs0mg"},{"bike_id":"0b8364a5-51f8-4f85-8184-c1888f54f9d4","system_id":"levelo_inurba_marseille","lat":43.30537,"lon":5.36712,"is_reserved":false,"is_disabled":false,"rental_uris":{"android":"levelo://app?vid=0b8364a5-51f8-4f85-8184-c1888f54f9d4","ios":"levelo://app?vid=0b8364a5-51f8-4f85-8184-c1888f54f9d4"},"vehicle_type_id":"4","last_reported":1740989646,"current_range_meters":21600,"station_id":"ce4bgrp2rcd13ifvqc9g","pricing_plan_id":"cebpf4jnsgd1na2vs0mg"},{"bike_id":"ab2fc840-0f53-4952-8964-f87aac4e6c18","system_id":"levelo_inurba_marseille","lat":43.28035,"lon":5.36946,"is_reserved":false,"is_disabled":false,"rental_uris":{"android":"levelo://app?vid=ab2fc840-0f53-4952-8964-f87aac4e6c18","ios":"levelo://app?vid=ab2fc840-0f53-4952-8964-f87aac4e6c18"},"vehicle_type_id":"4","last_reported":1740989646,"current_range_meters":21600,"station_id":"ce4bha12rcd13ifvqef0","pricing_plan_id":"cebpf4jnsgd1na2vs0mg"},{"bike_id":"11685d9f-87f0-4d8b-90da-0e1fef7d8f9f","system_id":"levelo_inurba_marseille","lat":43.23961,"lon":5.36633,"is_reserved":false,"is_disabled":false,"rental_uris":{"android":"levelo://app?vid=11685d9f-87f0-4d8b-90da-0e1fef7d8f9f","ios":"levelo://app?vid=11685d9f-87f0-4d8b-90da-0e1fef7d8f9f"},"vehicle_type_id":"4","last_reported":1740989646,"current_range_meters":21600,"station_id":"ce4bhi12rcd13ifvqfp0","pricing_plan_id":"cebpf4jnsgd1na2vs0mg"},{"bike_id":"36ac13be-20e4-4498-9ae3-2221675f5490","system_id":"levelo_inurba_marseille","lat":43.27494,"lon":5.42454,"is_reserved":false,"is_disabled":false,"rental_uris":{"android":"levelo://app?vid=36ac13be-20e4-4498-9ae3-2221675f5490","ios":"levelo://app?vid=36ac13be-20e4-4498-9ae3-2221675f5490"},"vehicle_type_id":"4","last_reported":1740989646,"current_range_meters":21600,"station_id":"ce4bhn92rcd13ifvqgrg","pricing_plan_id":"cebpf4jnsgd1na2vs0mg"},{"bike_id":"774b093a-5f5b-44ea-a119-dbff1f77f205","system_id":"levelo_inurba_marseille","lat":43.23195,"lon":5.35554,"is_reserved":false,"is_disabled":false,"rental_uris":{"android":"levelo://app?vid=774b093a-5f5b-44ea-a119-dbff1f77f205","ios":"levelo://app?vid=774b093a-5f5b-44ea-a119-dbff1f77f205"},"vehicle_type_id":"4","last_reported":1740989646,"current_range_meters":21600,"station_id":"ce4bhu92rcd13ifvqi70","pricing_plan_id":"cebpf4jnsgd1na2vs0mg"},{"bike_id":"3f6d7de6-55bc-48a2-947d-ece8ba3b9f27","system_id":"levelo_inurba_marseille","lat":43.24165,"lon":5.36389,"is_reserved":false,"is_disabled":false,"rental_uris":{"android":"levelo://app?vid=3f6d7de6-55bc-48a2-947d-ece8ba3b9f27","ios":"levelo://app?vid=3f6d7de6-55bc-48a2-947d-ece8ba3b9f27"},"vehicle_type_id":"4","last_reported":1740989646,"current_range_meters":21600,"station_id":"cpo36qri1sfpv3e86is0","pricing_plan_id":"cebpf4jnsgd1na2vs0mg"},{"bike_id":"622cbcf3-e8d3-46dc-876e-24226b895f22","system_id":"levelo_inurba_marseille","lat":43.29934,"lon":5.37476,"is_reserved":false,"is_disabled":false,"rental_uris":{"android":"levelo://app?vid=622cbcf3-e8d3-46dc-876e-24226b895f22","ios":"levelo://app?vid=622cbcf3-e8d3-46dc-876e-24226b895f22"},"vehicle_type_id":"4","last_reported":1740989646,"current_range_meters":22000,"station_id":"ce4bgjh2rcd13ifvqbg0","pricing_plan_id":"cebpf4jnsgd1na2vs0mg"},{"bike_id":"aef4f567-b084-4bac-8aeb-5b02abde1406","system_id":"levelo_inurba_marseille","lat":43.31225,"lon":5.36865,"is_reserved":false,"is_disabled":false,"rental_uris":{"android":"levelo://app?vid=aef4f567-b084-4bac-8aeb-5b02abde1406","ios":"levelo://app?vid=aef4f567-b084-4bac-8aeb-5b02abde1406"},"vehicle_type_id":"4","last_reported":1740989646,"current_range_meters":22000,"station_id":"ce4bgl92rcd13ifvqbq0","pricing_plan_id":"cebpf4jnsgd1na2vs0mg"},{"bike_id":"52271471-26ba-467e-9a63-16ee69b978b0","system_id":"levelo_inurba_marseille","lat":43.30926,"lon":5.36866,"is_reserved":false,"is_disabled":false,"rental_uris":{"android":"levelo://app?vid=52271471-26ba-467e-9a63-16ee69b978b0","ios":"levelo://app?vid=52271471-26ba-467e-9a63-16ee69b978b0"},"vehicle_type_id":"4","last_reported":1740989646,"current_range_meters":22000,"station_id":"ce4bgn92rcd13ifvqbvg","pricing_plan_id":"cebpf4jnsgd1na2vs0mg"},