{"last_updated":1741817355,"ttl":60,"version":"2.2","data":{"bikes":[{"bike_id":"1fb82d20-d9c6-4cbb-8db4-72d218de1a81","system_id":"levelo_inurba_marseille","lat":43.30645,"lon":5.40105,"is_reserved":false,"is_disabled":false,"rental_uris":{"android":"levelo://app?vid=1fb82d20-d9c6-4cbb-8db4-72d218de1a81","ios":"levelo://app?vid=1fb82d20-d9c6-4cbb-8db4-72d218de1a81"},"vehicle_type_id":"4","last_reported":1741817355,"current_range_meters":2800,"station_id":"ce4bh112rcd13ifvqda0","pricing_plan_id":"cebpf4jnsgd1na2vs0mg"},{"bike_id":"b20e3c7f-6f7a-4127-acdc-df21713b9006","system_id":"levelo_inurba_marseille","lat":43.32949,"lon":5.38948,"is_reserved":false,"is_disabled":false,"rental_uris":{"android":"levelo://app?vid=b20e3c7f-6f7a-4127-acdc-df21713b9006","ios":"levelo://app?vid=b20e3c7f-6f7a-4127-acdc-df21713b9006"},"vehicle_type_id":"4","last_reported":1741817355,"current_range_meters":2800,"station_id":"","pricing_plan_id":"cebpf4jnsgd1na2vs0mg"},{"bike_id":"8d148f9c-d435-4123-bd0e-8d7ebd73846f","system_id":"levelo_inurba_marseille","lat":43.27079,"lon":5.40252,"is_reserved":false,"is_disabled":true,"rental_uris":{"android":"levelo://app?vid=8d148f9c-d435-4123-bd0e-8d7ebd73846f","ios":"levelo://app?vid=8d148f9c-d435-4123-bd0e-8d7ebd73846f"},"vehicle_type_id":"4","last_reported":1741817355,"current_range_meters":2800,"station_id":"ce4bhk92rcd13ifvqgc0","pricing_plan_id":"cebpf4jnsgd1na2vs0mg"},{"bike_id":"73ec5b48-643f-485f-a254-9a90befd3a79","system_id":"levelo_inurba_marseille","lat":43.26596,"lon":5.39011,"is_reserved":false,"is_disabled":true,"rental_uris":{"android":"levelo://app?vid=73ec5b48-643f-485f-a254-9a90befd3a79","ios":"levelo://app?vid=73ec5b48-643f-485f-a254-9a90befd3a79"},"vehicle_type_id":"4","last_reported":1741817355,"current_range_meters":3200,"station_id":"ce4bhe12rcd13ifvqf30","pricing_plan_id":"cebpf4jnsgd1na2vs0mg"},{"bike_id":"8d4bf0a4-cd38-4e92-8c90-69533c6f2a5d","system_id":"levelo_inurba_marseille","lat":43.23963,"lon":5.3664,"is_reserved":false,"is_disabled":false,"rental_uris":{"android":"levelo://app?vid=8d4bf0a4-cd38-4e92-8c90-69533c6f2a5d","ios":"levelo://app?vid=8d4bf0a4-cd38-4e92-8c90-69533c6f2a5d"},"vehicle_type_id":"4","last_reported":1741817355,"current_range_meters":3200,"station_id":"ce4bhi12rcd13ifvqfp0","pricing_plan_id":"cebpf4jnsgd1na2vs0mg"},{"bike_id":"5be62f5c-b4d5-490f-97d7-7d11c616d8af","system_id":"levelo_inurba_marseille","lat":43.23054,"lon":5.35492,"is_reserved":false,"is_disabled":false,"rental_uris":{"android":"levelo://app?vid=5be62f5c-b4d5-490f-97d7-7d11c616d8af","ios":"levelo://app?vid=5be62f5c-b4d5-490f-97d7-7d11c616d8af"},"vehicle_type_id":"4","last_reported":1741817355,"current_range_meters":3200,"station_id":"cpo3342slgdg3j2ifvpg","pricing_plan_id":"cebpf4jnsgd1na2vs0mg"},{"bike_id":"6d48744b-016f-4f38-860e-d42b85e12056","system_id":"levelo_inurba_marseille","lat":43.27495,"lon":5.42448,"is_reserved":false,"is_disabled":false,"rental_uris":{"android":"levelo://app?vid=6d48744b-016f-4f38-860e-d42b85e12056","ios":"levelo://app?vid=6d48744b-016f-4f38-860e-d42b85e12056"},"vehicle_type_id":"4","last_reported":1741817355,"current_range_meters":3600,"station_id":"ce4bhn92rcd13ifvqgrg","pricing_plan_id":"cebpf4jnsgd1na2vs0mg"},{"bike_id":"3b41a26c-8e5a-414f-b3a5-4f3f861c1cdf","system_id":"levelo_inurba_marseille","lat":43.26276,"lon":5.40417,"is_reserved":false,"is_disabled":false,"rental_uris":{"android":"levelo://app?vid=3b41a26c-8e5a-414f-b3a5-4f3f861c1cdf","ios":"levelo://app?vid=3b41a26c-8e5a-414f-b3a5-4f3f861c1cdf"},"vehicle_type_id":"4","last_reported":1741817355,"current_range_meters":3600,"station_id":"","pricing_plan_id":"cebpf4jnsgd1na2vs0mg"},{"bike_id":"45d8d7b0-29eb-4eaf-9ec9-00efd0738f1e","system_id":"levelo_inurba_marseille","lat":43.31088,"lon":5.37323,"is_reserved":false,"is_disabled":false,"rental_uris":{"android":"levelo://app?vid=45d8d7b0-29eb-4eaf-9ec9-00efd0738f1e","ios":"levelo://app?vid=45d8d7b0-29eb-4eaf-9ec9-00efd0738f1e"},"vehicle_type_id":"4","last_reported":1741817355,"current_range_meters":3600,"station_id":"","pricing_plan_id":"cebpf4jnsgd1na2vs0mg"},{"bike_id":"80771939-f406-42f7-81c5-33180fd8a338","system_id":"levelo_inurba_marseille","lat":43.23208,"lon":5.35542,"is_reserved":false,"is_disabled":false,"rental_uris":{"android":"levelo://app?vid=80771939-f406-42f7-81c5-33180fd8a338","ios":"levelo://app?vid=80771939-f406-42f7-81c5-33180fd8a338"},"vehicle_type_id":"4","last_reported":1741817355,"current_range_meters":3600,"station_id":"ce4bhu92rcd13ifvqi70","pricing_plan_id":"cebpf4jnsgd1na2vs0mg"},{"bike_id":"fdbac7ef-22ba-4941-b886-d3e0af4a7a0a","system_id":"levelo_inurba_marseille","lat":43.269173,"lon":5.36747,"is_reserved":false,"is_disabled":false,"rental_uris":{"android":"levelo://app?vid=fdbac7ef-22ba-4941-b886-d3e0af4a7a0a","ios":"levelo://app?vid=fdbac7ef-22ba-4941-b886-d3e0af4a7a0a"},"vehicle_type_id":"4","last_reported":1741817355,"current_range_meters":4000,"station_id":"ce4bhh12rcd13ifvqff0","pricing_plan_id":"cebpf4jnsgd1na2vs0mg"},{"bike_id":"ef202d0e-dca9-4b8a-b2ef-a3e69d908c04","system_id":"levelo_inurba_marseille","lat":43.26168,"lon":5.40461,"is_reserved":false,"is_disabled":false,"rental_uris":{"android":"levelo://app?vid=ef202d0e-dca9-4b8a-b2ef-a3e69d908c04","ios":"levelo://app?vid=ef202d0e-dca9-4b8a-b2ef-a3e69d908c04"},"vehicle_type_id":"4","last_reported":1741817355,"current_range_meters":4000,"station_id":"","pricing_plan_id":"cebpf4jnsgd1na2vs0mg"},{"bike_id":"e8ebfdbe-ea63-4592-a79a-3d110a8bd4cb","system_id":"levelo_inurba_marseille","lat":43.28155,"lon":5.42651,"is_reserved":false,"is_disabled":false,"rental_uris":{"android":"levelo://app?vid=e8ebfdbe-ea63-4592-a79a-3d110a8bd4cb","ios":"levelo://app?vid=e8ebfdbe-ea63-4592-a79a-3d110a8bd4cb"},"vehicle_type_id":"4","last_reported":1741817355,"current_range_meters":4000,"station_id":"ce4bhnh2rcd13ifvqgug","pricing_plan_id":"cebpf4jnsgd1na2vs0mg"},{"bike_id":"0e13eaa4-9218-468c-aab4-9d42b806daeb","system_id":"levelo_inurba_marseille","lat":43.30767,"lon":5.38159,"is_reserved":false,"is_disabled":false,"rental_uris":{"android":"levelo://app?vid=0e13eaa4-9218-468c-aab4-9d42b806daeb","ios":"levelo://app?vid=0e13eaa4-9218-468c-aab4-9d42b806daeb"},"vehicle_type_id":"4","last_reported":1741817355,"current_range_meters":4000,"station_id":"ce4bgt12rcd13ifvqce0","pricing_plan_id":"cebpf4jnsgd1na2vs0mg"},{"bike_id":"861370b7-d011-4b05-8b4b-578e10b9c3bc","system_id":"levelo_inurba_marseille","lat":43.24803,"lon":5.37446,"is_reserved":false,"is_disabled":false,"rental_uris":{"android":"levelo://app?vid=861370b7-d011-4b05-8b4b-578e10b9c3bc","ios":"levelo://app?vid=861370b7-d011-4b05-8b4b-578e10b9c3bc"},"vehicle_type_id":"4","last_reported":1741817355,"current_range_meters":4400,"station_id":"ce4bhgh2rcd13ifvqfb0","pricing_plan_id":"cebpf4jnsgd1na2vs0mg"},{"bike_id":"8447b2d4-400b-4f74-8048-25cf7f1ca261","system_id":"levelo_inurba_marseille","lat":43.23186,"lon":5.39976,"is_reserved":false,"is_disabled":false,"rental_uris":{"android":"levelo://app?vid=8447b2d4-400b-4f74-8048-25cf7f1ca261","ios":"levelo://app?vid=8447b2d4-400b-4f74-8048-25cf7f1ca261"},"vehicle_type_id":"4","last_reported":1741817355,"current_range_meters":4400,"station_id":"ce4bhn12rcd13ifvqgqg","pricing_plan_id":"cebpf4jnsgd1na2vs0mg"},{"bike_id":"89f5252d-ca6b-4c4a-8924-1e95cb6ec267","system_id":"levelo_inurba_marseille","lat":43.239625,"lon":5.366323,"is_reserved":false,"is_disabled":false,"rental_uris":{"android":"levelo://app?vid=89f5252d-ca6b-4c4a-8924-1e95cb6ec267","ios":"levelo://app?vid=89f5252d-ca6b-4c4a-8924-1e95cb6ec267"},"vehicle_type_id":"4","last_reported":1741817355,"current_range_meters":4400,"station_id":"ce4bhi12rcd13ifvqfp0","pricing_plan_id":"cebpf4jnsgd1na2vs0mg"},{"bike_id":"94eb9559-8c4f-4d60-98ac-469a5ce58b64","system_id":"levelo_inurba_marseille","lat":43.24644,"lon":5.38895,"is_reserved":false,"is_disabled":false,"rental_uris":{"android":"levelo://app?vid=94eb9559-8c4f-4d60-98ac-469a5ce58b64","ios":"levelo://app?vid=94eb9559-8c4f-4d60-98ac-469a5ce58b64"},"vehicle_type_id":"4","last_reported":1741817355,"current_range_meters":4400,"station_id":"ce4bhg12rcd13ifvqf60","pricing_plan_id":"cebpf4jnsgd1na2vs0mg"},{"bike_id":"22b98247-434c-4803-9a50-f2f855a35c40","system_id":"levelo_inurba_marseille","lat":43.25095,"lon":5.39515,"is_reserved":false,"is_disabled":false,"rental_uris":{"android":"levelo://app?vid=22b98247-434c-4803-9a50-f2f855a35c40","ios":"levelo://app?vid=22b98247-434c-4803-9a50-f2f855a35c40"},"vehicle_type_id":"4","last_reported":1741817355,"current_range_meters":4800,"station_id":"ce4bhm12rcd13ifvqgkg","pricing_plan_id":"cebpf4jnsgd1na2vs0mg"},{"bike_id":"58d1b5b3-d322-4418-97d0-3066ec3d9afc","system_id":"levelo_inurba_marseille","lat":43.23201,"lon":5.35544,"is_reserved":false,"is_disabled":false,"rental_uris":{"android":"levelo://app?vid=58d1b5b3-d322-4418-97d0-3066ec3d9afc","ios":"levelo://app?vid=58d1b5b3-d322-4418-97d0-3066ec3d9afc"},"vehicle_type_id":"4","last_reported":1741817355,"current_range_meters":4800,"station_id":"ce4bhu92rcd13ifvqi70","pricing_plan_id":"cebpf4jnsgd1na2vs0mg"},{"bike_id":"df709620-a118-4505-9780-01081510aa06","system_id":"levelo_inurba_marseille","lat":43.24077,"lon":5.3775,"is_reserved":false,"is_disabled":false,"rental_uris":{"android":"levelo://app?vid=df709620-a118-4505-9780-01081510aa06","ios":"levelo://app?vid=df709620-a118-4505-9780-01081510aa06"},"vehicle_type_id":"4","last_reported":1741817355,"current_range_meters":5600,"station_id":"ce4bhnp2rcd13ifvqgvg","pricing_plan_id":"cebpf4jnsgd1na2vs0mg"},{"bike_id":"b8785a4d-9125-4dcf-9521-8aa540b40cb4","system_id":"levelo_inurba_marseille","lat":43.24822,"lon":5.37437,"is_reserved":false,"is_disabled":false,"rental_uris":{"android":"levelo://app?vid=b8785a4d-9125-4dcf-9521-8aa540b40cb4","ios":"levelo://app?vid=b8785a4d-9125-4dcf-9521-8aa540b40cb4"},"vehicle_type_id":"4","last_reported":1741817355,"current_range_meters":5600,"station_id":"ce4bhgh2rcd13ifvqfb0","pricing_plan_id":"cebpf4jnsgd1na2vs0mg"},{"bike_id":"5eef5338-ff8a-466a-999e-0f162b00ff22","system_id":"levelo_inurba_marseille","lat":43.24528,"lon":5.39539,"is_reserved":false,"is_disabled":false,"rental_uris":{"android":"levelo://app?vid=5eef5338-ff8a-466a-999e-0f162b00ff22","ios":"levelo://app?vid=5eef5338-ff8a-466a-999e-0f162b00ff22"},"vehicle_type_id":"4","last_reported":1741817355,"current_range_meters":5600,"station_id":"ce4bhlp2rcd13ifvqgjg","pricing_plan_id":"cebpf4jnsgd1na2vs0mg"},{"bike_id":"241d79a7-8164-4ee5-8d3f-2565e2e0b3e8","system_id":"levelo_inurba_marseille","lat":43.31376,"lon":5.37964,"is_reserved":false,"is_disabled":false,"rental_uris":{"android":"levelo://app?vid=241d79a7-8164-4ee5-8d3f-2565e2e0b3e8","ios":"levelo://app?vid=241d79a7-8164-4ee5-8d3f-2565e2e0b3e8"},"vehicle_type_id":"4","last_reported":1741817355,"current_range_meters":6000,"station_id":"","pricing_plan_id":"cebpf4jnsgd1na2vs0mg"},{"bike_id":"82cd5ea9-3de1-4625-91cd-cc7216ebca60","system_id":"levelo_inurba_marseille","lat":43.255703,"lon":5.382288,"is_reserved":false,"is_disabled":false,"rental_uris":{"android":"levelo://app?vid=82cd5ea9-3de1-4625-91cd-cc7216ebca60","ios":"levelo://app?vid=82cd5ea9-3de1-4625-91cd-cc7216ebca60"},"vehicle_type_id":"4","last_reported":1741817355,"current_range_meters":6000,"station_id":"ce4bhih2rcd13ifvqfs0","pricing_plan_id":"cebpf4jnsgd1na2vs0mg"},{"bike_id":"f43a547a-a63f-466e-891d-16f53f2a7257","system_id":"levelo_inurba_marseille","lat":43.2803,"lon":5.36942,"is_reserved":false,"is_disabled":false,"rental_uris":{"android":"levelo://app?vid=f43a547a-a63f-466e-891d-16f53f2a7257","ios":"levelo://app?vid=f43a547a-a63f-466e-891d-16f53f2a7257"},"vehicle_type_id":"4","last_reported":1741817355,"current_range_meters":6000,"station_id":"ce4bha12rcd13ifvqef0","pricing_plan_id":"cebpf4jnsgd1na2vs0mg"},{"bike_id":"f640465e-8c9e-425a-8e36-08d8d5201bf6","system_id":"levelo_inurba_marseille","lat":43.23208,"lon":5.3555,"is_reserved":false,"is_disabled":false,"rental_uris":{"android":"levelo://app?vid=f640465e-8c9e-425a-8e36-08d8d5201bf6","ios":"levelo://app?vid=f640465e-8c9e-425a-8e36-08d8d5201bf6"},"vehicle_type_id":"4","last_reported":1741817355,"current_range_meters":6000,"station_id":"ce4bhu92rcd13ifvqi70","pricing_plan_id":"cebpf4jnsgd1na2vs0mg"},{"bike_id":"600eceee-4e0b-43df-8f60-e66cd0890f69","system_id":"levelo_inurba_marseille","lat":43.24392,"lon":5.37054,"is_reserved":false,"is_disabled":false,"rental_uris":{"android":"levelo://app?vid=600eceee-4e0b-43df-8f60-e66cd0890f69","ios":"levelo://app?vid=600eceee-4e0b-43df-8f60-e66cd0890f69"},"vehicle_type_id":"4","last_reported":1741817355,"current_range_meters":6000,"station_id":"ce4bhhh2rcd13ifvqfk0","pricing_plan_id":"cebpf4jnsgd1na2vs0mg"},{"bike_id":"c47abed3-463e-4702-b23e-85563cf7923d","system_id":"levelo_inurba_marseille","lat":43.31084,"lon":5.42448,"is_reserved":false,"is_disabled":false,"rental_uris":{"android":"levelo://app?vid=c47abed3-463e-4702-b23e-85563cf7923d","ios":"levelo://app?vid=c47abed3-463e-4702-b23e-85563cf7923d"},"vehicle_type_id":"4","last_reported":1741817355,"current_range_meters":6400,"station_id":"ce4bhp92rcd13ifvqhag","pricing_plan_id":"cebpf4jnsgd1na2vs0mg"},{"bike_id":"6d6ee278-de07-4c7e-8835-99d4d94307ac","system_id":"levelo_inurba_marseille","lat":43.271698,"lon":5.409911,"is_reserved":false,"is_disabled":false,"rental_uris":{"android":"levelo://app?vid=6d6ee278-de07-4c7e-8835-99d4d94307ac","ios":"levelo://app?vid=6d6ee278-de07-4c7e-8835-99d4d94307ac"},"vehicle_type_id":"4","last_reported":1741817355,"current_range_meters":6400,"station_id":"ce4bhl12rcd13ifvqgf0","pricing_plan_id":"cebpf4jnsgd1na2vs0mg"},{"bike_id":"c9c61a71-3397-471c-a817-c0fe4aeed193","system_id":"levelo_inurba_marseille","lat":43.28572,"lon":5.39509,"is_reserved":false,"is_disabled":false,"rental_uris":{"android":"levelo://app?vid=c9c61a71-3397-471c-a817-c0fe4aeed193","ios":"levelo://app?vid=c9c61a71-3397-471c-a817-c0fe4aeed193"},"vehicle_type_id":"4","last_reported":1741817355,"current_range_meters":6400,"station_id":"ce4bh292rcd13ifvqdg0","pricing_plan_id":"cebpf4jnsgd1na2vs0mg"},{"bike_id":"53bbc677-f662-4a74-ab20-889cce9f6bff","system_id":"levelo_inurba_marseille","lat":43.23188,"lon":5.39977,"is_reserved":false,"is_disabled":false,"rental_uris":{"android":"levelo://app?vid=53bbc677-f662-4a74-ab20-889cce9f6bff","ios":"levelo://app?vid=53bbc677-f662-4a74-ab20-889cce9f6bff"},"vehicle_type_id":"4","last_reported":1741817355,"current_range_meters":6400,"station_id":"ce4bhn12rcd13ifvqgqg","pricing_plan_id":"cebpf4jnsgd1na2vs0mg"},{"bike_id":"3a9a3e8b-e6a4-489d-8b44-4ad22fdd881f","system_id":"levelo_inurba_marseille","lat":43.2583,"lon":5.39438,"is_reserved":false,"is_disabled":false,"rental_uris":{"android":"levelo://app?vid=3a9a3e8b-e6a4-489d-8b44-4ad22fdd881f","ios":"levelo://app?vid=3a9a3e8b-e6a4-489d-8b44-4ad22fdd881f"},"vehicle_type_id":"4","last_reported":1741817355,"current_range_meters":6400,"station_id":"ce4bhip2rcd13ifvqft0","pricing_plan_id":"cebpf4jnsgd1na2vs0mg"},{"bike_id":"e649e2d0-af54-4ce5-b5f7-1fd68a3b0a85","system_id":"levelo_inurba_marseille","lat":43.28153,"lon":5.42636,"is_reserved":false,"is_disabled":false,"rental_uris":{"android":"levelo://app?vid=e649e2d0-af54-4ce5-b5f7-1fd68a3b0a85","ios":"levelo://app?vid=e649e2d0-af54-4ce5-b5f7-1fd68a3b0a85"},"vehicle_type_id":"4","last_reported":1741817355,"current_range_meters":6400,"station_id":"ce4bhnh2rcd13ifvqgug","pricing_plan_id":"cebpf4jnsgd1na2vs0mg"},{"bike_id":"5411fb5c-9a2a-470b-ba95-4b7fdd397de8","system_id":"levelo_inurba_marseille","lat":43.284476,"lon":5.358721,"is_reserved":false,"is_disabled":false,"rental_uris":{"android":"levelo://app?vid=5411fb5c-9a2a-470b-ba95-4b7fdd397de8","ios":"levelo://app?vid=5411fb5c-9a2a-470b-ba95-4b7fdd397de8"},"vehicle_type_id":"4","last_reported":1741817355,"current_range_meters":6400,"station_id":"ce4bhah2rcd13ifvqei0","pricing_plan_id":"cebpf4jnsgd1na2vs0mg"},{"bike_id":"18876715-2c6b-46e9-bd01-d5412f609620","system_id":"levelo_inurba_marseille","lat":43.284505,"lon":5.392009,"is_reserved":false,"is_disabled":false,"rental_uris":{"android":"levelo://app?vid=18876715-2c6b-46e9-bd01-d5412f609620","ios":"levelo://app?vid=18876715-2c6b-46e9-bd01-d5412f609620"},"vehicle_type_id":"4","last_reported":1741817355,"current_range_meters":6400,"station_id":"ce4bhoh2rcd13ifvqh5g","pricing_plan_id":"cebpf4jnsgd1na2vs0mg"},{"bike_id":"83ce6271-ffa3-4e21-8aee-eef24c3cb1c8","system_id":"levelo_inurba_marseille","lat":43.25867,"lon":5.39894,"is_reserved":false,"is_disabled":false,"rental_uris":{"android":"levelo://app?vid=83ce6271-ffa3-4e21-8aee-eef24c3cb1c8","ios":"levelo://app?vid=83ce6271-ffa3-4e21-8aee-eef24c3cb1c8"},"vehicle_type_id":"4","last_reported":1741817355,"current_range_meters":6400,"station_id":"ce4bhl92rcd13ifvqghg","pricing_plan_id":"cebpf4jnsgd1na2vs0mg"},{"bike_id":"1bb5dae5-2cdb-43ae-b04c-dad911982ded","system_id":"levelo_inurba_marseille","lat":43.25101,"lon":5.40325,"is_reserved":false,"is_disabled":false,"rental_uris":{"android":"levelo://app?vid=1bb5dae5-2cdb-43ae-b04c-dad911982ded","ios":"levelo://app?vid=1bb5dae5-2cdb-43ae-b04c-dad911982ded"},"vehicle_type_id":"4","last_reported":1741817355,"current_range_meters":6400,"station_id":"ce4bhlh2rcd13ifvqgig","pricing_plan_id":"cebpf4jnsgd1na2vs0mg"},{"bike_id":"95c4f609-4057-4688-9b5c-93c1039e1099","system_id":"levelo_inurba_marseille","lat":43.24547,"lon":5.39531,"is_reserved":false,"is_disabled":false,"rental_uris":{"android":"levelo://app?vid=95c4f609-4057-4688-9b5c-93c1039e1099","ios":"levelo://app?vid=95c4f609-4057-4688-9b5c-93c1039e1099"},"vehicle_type_id":"4","last_reported":1741817355,"current_range_meters":6400,"station_id":"ce4bhlp2rcd13ifvqgjg","pricing_plan_id":"cebpf4jnsgd1na2vs0mg"},{"bike_id":"a58f07f0-b33f-4953-ab0c-f29dc5595b36","system_id":"levelo_inurba_marseille","lat":43.29014,"lon":5.38155,"is_reserved":false,"is_disabled":true,"rental_uris":{"android":"levelo://app?vid=a58f07f0-b33f-4953-ab0c-f29dc5595b36","ios":"levelo://app?vid=a58f07f0-b33f-4953-ab0c-f29dc5595b36"},"vehicle_type_id":"4","last_reported":1741817355,"current_range_meters":6800,"station_id":"ce4bh4p2rcd13ifvqe1g","pricing_plan_id":"cebpf4jnsgd1na2vs0mg"},{"bike_id":"415e7a31-245d-4ead-9f33-dad092a04302","system_id":"levelo_inurba_marseille","lat":43.23057,"lon":5.35502,"is_reserved":false,"is_disabled":false,"rental_uris":{"android":"levelo://app?vid=415e7a31-245d-4ead-9f33-dad092a04302","ios":"levelo://app?vid=415e7a31-245d-4ead-9f33-dad092a04302"},"vehicle_type_id":"4","last_reported":1741817355,"current_range_meters":6800,"station_id":"cpo3342slgdg3j2ifvpg","pricing_plan_id":"cebpf4jnsgd1na2vs0mg"},{"bike_id":"25507fbe-8853-47fc-b5ab-c6878c9982fc","system_id":"levelo_inurba_marseille","lat":43.29081,"lon":5.38123,"is_reserved":false,"is_disabled":false,"rental_uris":{"android":"levelo://app?vid=25507fbe-8853-47fc-b5ab-c6878c9982fc","ios":"levelo://app?vid=25507fbe-8853-47fc-b5ab-c6878c9982fc"},"vehicle_type_id":"4","last_reported":1741817355,"current_range_meters":6800,"station_id":"ce4bh512rcd13ifvqe2g","pricing_plan_id":"cebpf4jnsgd1na2vs0mg"},{"bike_id":"60addeb5-8b0b-4949-b3a6-5f197b8d4abb","system_id":"levelo_inurba_marseille","lat":43.33357,"lon":5.39627,"is_reserved":false,"is_disabled":false,"rental_uris":{"android":"levelo://app?vid=60addeb5-8b0b-4949-b3a6-5f197b8d4abb","ios":"levelo://app?vid=60addeb5-8b0b-4949-b3a6-5f197b8d4abb"},"vehicle_type_id":"4","last_reported":1741817355,"current_range_meters":6800,"station_id":"","pricing_plan_id":"cebpf4jnsgd1na2vs0mg"},{"bike_id":"60942055-d2d8-4aa9-a28b-001380041759","system_id":"levelo_inurba_marseille","lat":43.28206,"lon":5.35082,"is_reserved":false,"is_disabled":false,"rental_uris":{"android":"levelo://app?vid=60942055-d2d8-4aa9-a28b-001380041759","ios":"levelo://app?vid=60942055-d2d8-4aa9-a28b-001380041759"},"vehicle_type_id":"4","last_reported":1741817355,"current_range_meters":6800,"station_id":"","pricing_plan_id":"cebpf4jnsgd1na2vs0mg"},{"bike_id":"c8424a2d-efd9-4ccf-9fc2-6fdb41afc986","system_id":"levelo_inurba_marseille","lat":43.28134,"lon":5.42635,"is_reserved":false,"is_disabled":false,"rental_uris":{"android":"levelo://app?vid=c8424a2d-efd9-4ccf-9fc2-6fdb41afc986","ios":"levelo://app?vid=c8424a2d-efd9-4ccf-9fc2-6fdb41afc986"},"vehicle_type_id":"4","last_reported":1741817355,"current_range_meters":6800,"station_id":"ce4bhnh2rcd13ifvqgug","pricing_plan_id":"cebpf4jnsgd1na2vs0mg"},{"bike_id":"e9a8f053-5162-49e3-8611-afcda5d9cc10","system_id":"levelo_inurba_marseille","lat":43.29248,"lon":5.38441,"is_reserved":false,"is_disabled":true,"rental_uris":{"android":"levelo://app?vid=e9a8f053-5162-49e3-8611-afcda5d9cc10","ios":"levelo://app?vid=e9a8f053-5162-49e3-8611-afcda5d9cc10"},"vehicle_type_id":"4","last_reported":1741817355,"current_range_meters":6800,"station_id":"ce4bh692rcd13ifvqea0","pricing_plan_id":"cebpf4jnsgd1na2vs0mg"},{"bike_id":"da440fc7-ae9a-4b21-83c8-a8e662a14c16","system_id":"levelo_inurba_marseille","lat":43.25437,"lon":5.37671,"is_reserved":false,"is_disabled":true,"rental_uris":{"android":"levelo://app?vid=da440fc7-ae9a-4b21-83c8-a8e662a14c16","ios":"levelo://app?vid=da440fc7-ae9a-4b21-83c8-a8e662a14c16"},"vehicle_type_id":"4","last_reported":1741817355,"current_range_meters":6800,"station_id":"ce4bhh12rcd13ifvqff0","pricing_plan_id":"cebpf4jnsgd1na2vs0mg"},{"bike_id":"4b07b260-5fba-4534-bdee-f9c50db59047","system_id":"levelo_inurba_marseille","lat":43.32937,"lon":5.39017,"is_reserved":false,"is_disabled":false,"rental_uris":{"android":"levelo://app?vid=4b07b260-5fba-4534-bdee-f9c50db59047","ios":"levelo://app?vid=4b07b260-5fba-4534-bdee-f9c50db59047"},"vehicle_type_id":"4","last_reported":1741817355,"current_range_meters":6800,"station_id":"","pricing_plan_id":"cebpf4jnsgd1na2vs0mg"},{"bike_id":"985ba300-542a-4309-8532-765e28bc8981","system_id":"levelo_inurba_marseille","lat":43.3081,"lon":5.36918,"is_reserved":false,"is_disabled":false,"rental_uris":{"android":"levelo://app?vid=985ba300-542a-4309-8532-765e28bc8981","ios":"levelo://app?vid=985ba300-542a-4309-8532-765e28bc8981"},"vehicle_type_id":"4","last_reported":1741817355,"current_range_meters":6800,"station_id":"","pricing_plan_id":"cebpf4jnsgd1na2vs0mg"},{"bike_id":"44ac2f0b-f0c4-43be-9a21-9dfeb1228fbc","system_id":"levelo_inurba_marseille","lat":43.28076,"lon":5.39653,"is_reserved":false,"is_disabled":false,"rental_uris":{"android":"levelo://app?vid=44ac2f0b-f0c4-43be-9a21-9dfeb1228fbc","ios":"levelo://app?vid=44ac2f0b-f0c4-43be-9a21-9dfeb1228fbc"},"vehicle_type_id":"4","last_reported":1741817355,"current_range_meters":6800,"station_id":"ce4bho12rcd13ifvqh2g","pricing_plan_id":"cebpf4jnsgd1na2vs0mg"},{"bike_id":"e12be538-6dde-4604-98c7-f66a323a5270","system_id":"levelo_inurba_marseille","lat":43.23057,"lon":5.35496,"is_reserved":false,"is_disabled":false,"rental_uris":{"android":"levelo://app?vid=e12be538-6dde-4604-98c7-f66a323a5270","ios":"levelo://app?vid=e12be538-6dde-4604-98c7-f66a323a5270"},"vehicle_type_id":"4","last_reported":1741817355,"current_range_meters":6800,"station_id":"cpo3342slgdg3j2ifvpg","pricing_plan_id":"cebpf4jnsgd1na2vs0mg"},{"bike_id":"feb4b9df-ca5a-441d-8892-405597e7da99","system_id":"levelo_inurba_marseille","lat":43.2308,"lon":5.35464,"is_reserved":false,"is_disabled":false,"rental_uris":{"android":"levelo://app?vid=feb4b9df-ca5a-441d-8892-405597e7da99","ios":"levelo://app?vid=feb4b9df-ca5a-441d-8892-405597e7da99"},"vehicle_type_id":"4","last_reported":1741817355,"current_range_meters":6800,"station_id":"cpo3342slgdg3j2ifvpg","pricing_plan_id":"cebpf4jnsgd1na2vs0mg"},{"bike_id":"f8da8588-d244-4533-8239-02d5681969bc","system_id":"levelo_inurba_marseille","lat":43.2963,"lon":5.40635,"is_reserved":false,"is_disabled":false,"rental_uris":{"android":"levelo://app?vid=f8da8588-d244-4533-8239-02d5681969bc","ios":"levelo://app?vid=f8da8588-d244-4533-8239-02d5681969bc"},"vehicle_type_id":"4","last_reported":1741817355,"current_range_meters":6800,"station_id":"ce4bh0h2rcd13ifvqd60","pricing_plan_id":"cebpf4jnsgd1na2vs0mg"},{"bike_id":"72de4c85-7223-490f-9219-5d9d46436df5","system_id":"levelo_inurba_marseille","lat":43.33173,"lon":5.394618,"is_reserved":false,"is_disabled":false,"rental_uris":{"android":"levelo://app?vid=72de4c85-7223-490f-9219-5d9d46436df5","ios":"levelo://app?vid=72de4c85-7223-490f-9219-5d9d46436df5"},"vehicle_type_id":"4","last_reported":1741817355,"current_range_meters":7200,"station_id":"","pricing_plan_id":"cebpf4jnsgd1na2vs0mg"},{"bike_id":"ff70a3fd-75ea-4067-a347-a22b59a3b447","system_id":"levelo_inurba_marseille","lat":43.28001,"lon":5.40012,"is_reserved":false,"is_disabled":false,"rental_uris":{"android":"levelo://app?vid=ff70a3fd-75ea-4067-a347-a22b59a3b447","ios":"levelo://app?vid=ff70a3fd-75ea-4067-a347-a22b59a3b447"},"vehicle_type_id":"4","last_reported":1741817355,"current_range_meters":7200,"station_id":"ce4bho92rcd13ifvqh4g","pricing_plan_id":"cebpf4jnsgd1na2vs0mg"},{"bike_id":"fc959b8d-1341-494f-98e8-b88bdc42e5fd","system_id":"levelo_inurba_marseille","lat":43.31994,"lon":5.38146,"is_reserved":false,"is_disabled":false,"rental_uris":{"android":"levelo://app?vid=fc959b8d-1341-494f-98e8-b88bdc42e5fd","ios":"levelo://app?vid=fc959b8d-1341-494f-98e8-b88bdc42e5fd"},"vehicle_type_id":"4","last_reported":1741817355,"current_range_meters":7200,"station_id":"ce4bhr12rcd13ifvqhpg","pricing_plan_id":"cebpf4jnsgd1na2vs0mg"},{"bike_id":"88017940-a702-4284-bdf5-ba38b4a40b6d","system_id":"levelo_inurba_marseille","lat":43.28853,"lon":5.35851,"is_reserved":false,"is_disabled":false,"rental_uris":{"android":"levelo://app?vid=88017940-a702-4284-bdf5-ba38b4a40b6d","ios":"levelo://app?vid=88017940-a702-4284-bdf5-ba38b4a40b6d"},"vehicle_type_id":"4","last_reported":1741817355,"current_range_meters":7200,"station_id":"ce4bhb12rcd13ifvqem0","pricing_plan_id":"cebpf4jnsgd1na2vs0mg"},{"bike_id":"05388ace-665a-4114-a828-939b708a2589","system_id":"levelo_inurba_marseille","lat":43.23188,"lon":5.39978,"is_reserved":false,"is_disabled":false,"rental_uris":{"android":"levelo://app?vid=05388ace-665a-4114-a828-939b708a2589","ios":"levelo://app?vid=05388ace-665a-4114-a828-939b708a2589"},"vehicle_type_id":"4","last_reported":1741817355,"current_range_meters":7200,"station_id":"ce4bhn12rcd13ifvqgqg","pricing_plan_id":"cebpf4jnsgd1na2vs0mg"},{"bike_id":"4abe0b72-3e42-40da-aa7c-65e81840531b","system_id":"levelo_inurba_marseille","lat":43.24645,"lon":5.39608,"is_reserved":false,"is_disabled":false,"rental_uris":{"android":"levelo://app?vid=4abe0b72-3e42-40da-aa7c-65e81840531b","ios":"levelo://app?vid=4abe0b72-3e42-40da-aa7c-65e81840531b"},"vehicle_type_id":"4","last_reported":1741817355,"current_range_meters":7200,"station_id":"","pricing_plan_id":"cebpf4jnsgd1na2vs0mg"},{"bike_id":"d8c62c7b-a8e4-4dab-8344-208315d443d4","system_id":"levelo_inurba_marseille","lat":43.28457,"lon":5.3588,"is_reserved":false,"is_disabled":false,"rental_uris":{"android":"levelo://app?vid=d8c62c7b-a8e4-4dab-8344-208315d443d4","ios":"levelo://app?vid=d8c62c7b-a8e4-4dab-8344-208315d443d4"},"vehicle_type_id":"4","last_reported":1741817355,"current_range_meters":8000,"station_id":"ce4bhah2rcd13ifvqei0","pricing_plan_id":"cebpf4jnsgd1na2vs0mg"},{"bike_id":"4d4917df-376f-4a16-997b-6ccd32c1e4b3","system_id":"levelo_inurba_marseille","lat":43.2572,"lon":5.41112,"is_reserved":false,"is_disabled":false,"rental_uris":{"android":"levelo://app?vid=4d4917df-376f-4a16-997b-6ccd32c1e4b3","ios":"levelo://app?vid=4d4917df-376f-4a16-997b-6ccd32c1e4b3"},"vehicle_type_id":"4","last_reported":1741817355,"current_range_meters":8000,"station_id":"ce4bhkp2rcd13ifvqgd0","pricing_plan_id":"cebpf4jnsgd1na2vs0mg"},{"bike_id":"830864fb-decd-4134-a03c-54cd90a6198b","system_id":"levelo_inurba_marseille","lat":43.25109,"lon":5.40337,"is_reserved":false,"is_disabled":false,"rental_uris":{"android":"levelo://app?vid=830864fb-decd-4134-a03c-54cd90a6198b","ios":"levelo://app?vid=830864fb-decd-4134-a03c-54cd90a6198b"},"vehicle_type_id":"4","last_reported":1741817355,"current_range_meters":8000,"station_id":"ce4bhlh2rcd13ifvqgig","pricing_plan_id":"cebpf4jnsgd1na2vs0mg"},{"bike_id":"b976d587-17a3-45dc-be34-3f5622aca4d0","system_id":"levelo_inurba_marseille","lat":43.29038,"lon":5.37174,"is_reserved":false,"is_disabled":false,"rental_uris":{"android":"levelo://app?vid=b976d587-17a3-45dc-be34-3f5622aca4d0","ios":"levelo://app?vid=b976d587-17a3-45dc-be34-3f5622aca4d0"},"vehicle_type_id":"4","last_reported":1741817355,"current_range_meters":7200,"station_id":"ce4bh5p2rcd13ifvqe4g","pricing_plan_id":"cebpf4jnsgd1na2vs0mg"},{"bike_id":"29845dc5-37a0-4fe4-ad83-a244b4c5c8a7","system_id":"levelo_inurba_marseille","lat":43.28169,"lon":5.42638,"is_reserved":false,"is_disabled":false,"rental_uris":{"android":"levelo://app?vid=29845dc5-37a0-4fe4-ad83-a244b4c5c8a7","ios":"levelo://app?vid=29845dc5-37a0-4fe4-ad83-a244b4c5c8a7"},"vehicle_type_id":"4","last_reported":1741817355,"current_range_meters":8000,"station_id":"ce4bhnh2rcd13ifvqgug","pricing_plan_id":"cebpf4jnsgd1na2vs0mg"},{"bike_id":"4bd1d516-27fc-4a7a-a82b-0dd452c88ab3","system_id":"levelo_inurba_marseille","lat":43.27489,"lon":5.42434,"is_reserved":false,"is_disabled":false,"rental_uris":{"android":"levelo://app?vid=4bd1d516-27fc-4a7a-a82b-0dd452c88ab3","ios":"levelo://app?vid=4bd1d516-27fc-4a7a-a82b-0dd452c88ab3"},"vehicle_type_id":"4","last_reported":1741817355,"current_range_meters":8000,"station_id":"ce4bhn92rcd13ifvqgrg","pricing_plan_id":"cebpf4jnsgd1na2vs0mg"},{"bike_id":"c4df4535-7d31-495a-82fb-c042b3676ebe","system_id":"levelo_inurba_marseille","lat":43.32346,"lon":5.40615,"is_reserved":false,"is_disabled":false,"rental_uris":{"android":"levelo://app?vid=c4df4535-7d31-495a-82fb-c042b3676ebe","ios":"levelo://app?vid=c4df4535-7d31-495a-82fb-c042b3676ebe"},"vehicle_type_id":"4","last_reported":1741817355,"current_range_meters":8000,"station_id":"ce4bhq92rcd13ifvqhjg","pricing_plan_id":"cebpf4jnsgd1na2vs0mg"},{"bike_id":"cc5080d1-5c24-412f-a5ae-ed0669e06a93","system_id":"levelo_inurba_marseille","lat":43.28658,"lon":5.36352,"is_reserved":false,"is_disabled":false,"rental_uris":{"android":"levelo://app?vid=cc5080d1-5c24-412f-a5ae-ed0669e06a93","ios":"levelo://app?vid=cc5080d1-5c24-412f-a5ae-ed0669e06a93"},"vehicle_type_id":"4","last_reported":1741817355,"current_range_meters":8000,"station_id":"ce4bhah2rcd13ifvqej0","pricing_plan_id":"cebpf4jnsgd1na2vs0mg"},{"bike_id":"1483f4fa-1617-404a-b4cb-585a7dfb87bb","system_id":"levelo_inurba_marseille","lat":43.24382,"lon":5.37057,"is_reserved":false,"is_disabled":false,"rental_uris":{"android":"levelo://app?vid=1483f4fa-1617-404a-b4cb-585a7dfb87bb","ios":"levelo://app?vid=1483f4fa-1617-404a-b4cb-585a7dfb87bb"},"vehicle_type_id":"4","last_reported":1741817355,"current_range_meters":8000,"station_id":"ce4bhhh2rcd13ifvqfk0","pricing_plan_id":"cebpf4jnsgd1na2vs0mg"},{"bike_id":"966a843b-2687-4bd7-ad0f-8d17709f0fda","system_id":"levelo_inurba_marseille","lat":43.310743,"lon":5.383651,"is_reserved":false,"is_disabled":false,"rental_uris":{"android":"levelo://app?vid=966a843b-2687-4bd7-ad0f-8d17709f0fda","ios":"levelo://app?vid=966a843b-2687-4bd7-ad0f-8d17709f0fda"},"vehicle_type_id":"4","last_reported":1741817355,"current_range_meters":8400,"station_id":"ce4bgv92rcd13ifvqcr0","pricing_plan_id":"cebpf4jnsgd1na2vs0mg"},{"bike_id":"633ba8c1-2c9f-4ecd-a921-5eb75731d6da","system_id":"levelo_inurba_marseille","lat":43.28704,"lon":5.37378,"is_reserved":false,"is_disabled":false,"rental_uris":{"android":"levelo://app?vid=633ba8c1-2c9f-4ecd-a921-5eb75731d6da","ios":"levelo://app?vid=633ba8c1-2c9f-4ecd-a921-5eb75731d6da"},"vehicle_type_id":"4","last_reported":1741817355,"current_range_meters":8400,"station_id":"ce4bh3p2rcd13ifvqdq0","pricing_plan_id":"cebpf4jnsgd1na2vs0mg"},{"bike_id":"21202178-9a74-4bc8-9d9e-6fb631a00822","system_id":"levelo_inurba_marseille","lat":43.29827,"lon":5.37323,"is_reserved":false,"is_disabled":false,"rental_uris":{"android":"levelo://app?vid=21202178-9a74-4bc8-9d9e-6fb631a00822","ios":"levelo://app?vid=21202178-9a74-4bc8-9d9e-6fb631a00822"},"vehicle_type_id":"4","last_reported":1741817355,"current_range_meters":8400,"station_id":"","pricing_plan_id":"cebpf4jnsgd1na2vs0mg"},{"bike_id":"97c4a06f-d8ef-4a57-9bb4-11a0bc4f8fb5","system_id":"levelo_inurba_marseille","lat":43.299209,"lon":5.381427,"is_reserved":false,"is_disabled":false,"rental_uris":{"android":"levelo://app?vid=97c4a06f-d8ef-4a57-9bb4-11a0bc4f8fb5","ios":"levelo://app?vid=97c4a06f-d8ef-4a57-9bb4-11a0bc4f8fb5"},"vehicle_type_id":"4","last_reported":1741817355,"current_range_meters":8400,"station_id":"ce4bhah2rcd13ifvqei0","pricing_plan_id":"cebpf4jnsgd1na2vs0mg"},{"bike_id":"385dd9cb-1d33-48e9-8250-88818c623a92","system_id":"levelo_inurba_marseille","lat":43.26056,"lon":5.39391,"is_reserved":false,"is_disabled":false,"rental_uris":{"android":"levelo://app?vid=385dd9cb-1d33-48e9-8250-88818c623a92","ios":"levelo://app?vid=385dd9cb-1d33-48e9-8250-88818c623a92"},"vehicle_type_id":"4","last_reported":1741817355,"current_range_meters":8400,"station_id":"ce4bhh92rcd13ifvqfj0","pricing_plan_id":"cebpf4jnsgd1na2vs0mg"},{"bike_id":"2931d81f-abb3-45b8-9224-dc3fce2fae31","system_id":"levelo_inurba_marseille","lat":43.3236,"lon":5.36741,"is_reserved":false,"is_disabled":false,"rental_uris":{"android":"levelo://app?vid=2931d81f-abb3-45b8-9224-dc3fce2fae31","ios":"levelo://app?vid=2931d81f-abb3-45b8-9224-dc3fce2fae31"},"vehicle_type_id":"4","last_reported":1741817355,"current_range_meters":8400,"station_id":"ce4bhsh2rcd13ifvqi2g","pricing_plan_id":"cebpf4jnsgd1na2vs0mg"},{"bike_id":"51dd079e-0925-4112-b09d-769424a40dbf","system_id":"levelo_inurba_marseille","lat":43.28449,"lon":5.35888,"is_reserved":false,"is_disabled":false,"rental_uris":{"android":"levelo://app?vid=51dd079e-0925-4112-b09d-769424a40dbf","ios":"levelo://app?vid=51dd079e-0925-4112-b09d-769424a40dbf"},"vehicle_type_id":"4","last_reported":1741817355,"current_range_meters":8400,"station_id":"ce4bhah2rcd13ifvqei0","pricing_plan_id":"cebpf4jnsgd1na2vs0mg"},{"bike_id":"8dee66dd-a753-4e90-9df0-a75f60b0d66f","system_id":"levelo_inurba_marseille","lat":43.28577,"lon":5.42488,"is_reserved":false,"is_disabled":false,"rental_uris":{"android":"levelo://app?vid=8dee66dd-a753-4e90-9df0-a75f60b0d66f","ios":"levelo://app?vid=8dee66dd-a753-4e90-9df0-a75f60b0d66f"},"vehicle_type_id":"4","last_reported":1741817355,"current_range_meters":8400,"station_id":"","pricing_plan_id":"cebpf4jnsgd1na2vs0mg"},{"bike_id":"5c0be3c0-190a-43f3-becc-02f064bfef44","system_id":"levelo_inurba_marseille","lat":43.33386,"lon":5.40078,"is_reserved":false,"is_disabled":false,"rental_uris":{"android":"levelo://app?vid=5c0be3c0-190a-43f3-becc-02f064bfef44","ios":"levelo://app?vid=5c0be3c0-190a-43f3-becc-02f064bfef44"},"vehicle_type_id":"4","last_reported":1741817355,"current_range_meters":8400,"station_id":"","pricing_plan_id":"cebpf4jnsgd1na2vs0mg"},{"bike_id":"03fcef79-f017-4d15-a10d-891c5cd96db2","system_id":"levelo_inurba_marseille","lat":43.23058,"lon":5.35494,"is_reserved":false,"is_disabled":false,"rental_uris":{"android":"levelo://app?vid=03fcef79-f017-4d15-a10d-891c5cd96db2","ios":"levelo://app?vid=03fcef79-f017-4d15-a10d-891c5cd96db2"},"vehicle_type_id":"4","last_reported":1741817355,"current_range_meters":8400,"station_id":"cpo3342slgdg3j2ifvpg","pricing_plan_id":"cebpf4jnsgd1na2vs0mg"},{"bike_id":"f829a819-671e-4b71-9c22-56c5f8047725","system_id":"levelo_inurba_marseille","lat":43.32365,"lon":5.36763,"is_reserved":false,"is_disabled":false,"rental_uris":{"android":"levelo://app?vid=f829a819-671e-4b71-9c22-56c5f8047725","ios":"levelo://app?vid=f829a819-671e-4b71-9c22-56c5f8047725"},"vehicle_type_id":"4","last_reported":1741817355,"current_range_meters":8400,"station_id":"ce4bhsh2rcd13ifvqi2g","pricing_plan_id":"cebpf4jnsgd1na2vs0mg"},{"bike_id":"f076f6f7-e4b4-48be-92db-c2ec27c500f6","system_id":"levelo_inurba_marseille","lat":43.23194,"lon":5.39989,"is_reserved":false,"is_disabled":false,"rental_uris":{"android":"levelo://app?vid=f076f6f7-e4b4-48be-92db-c2ec27c500f6","ios":"levelo://app?vid=f076f6f7-e4b4-48be-92db-c2ec27c500f6"},"vehicle_type_id":"4","last_reported":1741817355,"current_range_meters":8800,"station_id":"ce4bhn12rcd13ifvqgqg","pricing_plan_id":"cebpf4jnsgd1na2vs0mg"},{"bike_id":"707f97a7-32db-422b-bfa8-ef8d193a1bb4","system_id":"levelo_inurba_marseille","lat":43.22937,"lon":5.35376,"is_reserved":false,"is_disabled":false,"rental_uris":{"android":"levelo://app?vid=707f97a7-32db-422b-bfa8-ef8d193a1bb4","ios":"levelo://app?vid=707f97a7-32db-422b-bfa8-ef8d193a1bb4"},"vehicle_type_id":"4","last_reported":1741817355,"current_range_meters":8800,"station_id":"cpo3532slgdg3j2ikp40","pricing_plan_id":"cebpf4jnsgd1na2vs0mg"},{"bike_id":"aeca8d61-61f7-41ab-a0ef-f49a44bca5c8","system_id":"levelo_inurba_marseille","lat":43.29005,"lon":5.35583,"is_reserved":false,"is_disabled":true,"rental_uris":{"android":"levelo://app?vid=aeca8d61-61f7-41ab-a0ef-f49a44bca5c8","ios":"levelo://app?vid=aeca8d61-61f7-41ab-a0ef-f49a44bca5c8"},"vehicle_type_id":"4","last_reported":1741817355,"current_range_meters":8800,"station_id":"ce4bhb92rcd13ifvqen0","pricing_plan_id":"cebpf4jnsgd1na2vs0mg"},{"bike_id":"f4f6951d-a3fd-42a9-86a0-c61cdb750c82","system_id":"levelo_inurba_marseille","lat":43.25097,"lon":5.39505,"is_reserved":false,"is_disabled":false,"rental_uris":{"android":"levelo://app?vid=f4f6951d-a3fd-42a9-86a0-c61cdb750c82","ios":"levelo://app?vid=f4f6951d-a3fd-42a9-86a0-c61cdb750c82"},"vehicle_type_id":"4","last_reported":1741817355,"current_range_meters":8800,"station_id":"ce4bhm12rcd13ifvqgkg","pricing_plan_id":"cebpf4jnsgd1na2vs0mg"},{"bike_id":"d7aaef38-7eff-471c-ba72-07e0eabbfe50","system_id":"levelo_inurba_marseille","lat":43.27938,"lon":5.41045,"is_reserved":false,"is_disabled":false,"rental_uris":{"android":"levelo://app?vid=d7aaef38-7eff-471c-ba72-07e0eabbfe50","ios":"levelo://app?vid=d7aaef38-7eff-471c-ba72-07e0eabbfe50"},"vehicle_type_id":"4","last_reported":1741817355,"current_range_meters":8800,"station_id":"ce4bhnp2rcd13ifvqh0g","pricing_plan_id":"cebpf4jnsgd1na2vs0mg"},{"bike_id":"6190eac7-4d69-4aee-8885-569caf678aef","system_id":"levelo_inurba_marseille","lat":43.257315,"lon":5.410979,"is_reserved":false,"is_disabled":false,"rental_uris":{"android":"levelo://app?vid=6190eac7-4d69-4aee-8885-569caf678aef","ios":"levelo://app?vid=6190eac7-4d69-4aee-8885-569caf678aef"},"vehicle_type_id":"4","last_reported":1741817355,"current_range_meters":8800,"station_id":"ce4bhkp2rcd13ifvqgd0","pricing_plan_id":"cebpf4jnsgd1na2vs0mg"},{"bike_id":"a9fd4230-e2f4-4b08-a216-36b0dfe72f30","system_id":"levelo_inurba_marseille","lat":43.23192,"lon":5.35552,"is_reserved":false,"is_disabled":false,"rental_uris":{"android":"levelo://app?vid=a9fd4230-e2f4-4b08-a216-36b0dfe72f30","ios":"levelo://app?vid=a9fd4230-e2f4-4b08-a216-36b0dfe72f30"},"vehicle_type_id":"4","last_reported":1741817355,"current_range_meters":8800,"station_id":"ce4bhu92rcd13ifvqi70","pricing_plan_id":"cebpf4jnsgd1na2vs0mg"},{"bike_id":"4d4acf51-c07c-4aef-b577-238196b1ded2","system_id":"levelo_inurba_marseille","lat":43.27067,"lon":5.42277,"is_reserved":false,"is_disabled":false,"rental_uris":{"android":"levelo://app?vid=4d4acf51-c07c-4aef-b577-238196b1ded2","ios":"levelo://app?vid=4d4acf51-c07c-4aef-b577-238196b1ded2"},"vehicle_type_id":"4","last_reported":1741817355,"current_range_meters":9200,"station_id":"ce4bhk92rcd13ifvqgb0","pricing_plan_id":"cebpf4jnsgd1na2vs0mg"},{"bike_id":"46f2e81a-8d75-4b81-a3ee-d46e23c0fa4e","system_id":"levelo_inurba_marseille","lat":43.245466,"lon":5.395309,"is_reserved":false,"is_disabled":false,"rental_uris":{"android":"levelo://app?vid=46f2e81a-8d75-4b81-a3ee-d46e23c0fa4e","ios":"levelo://app?vid=46f2e81a-8d75-4b81-a3ee-d46e23c0fa4e"},"vehicle_type_id":"4","last_reported":1741817355,"current_range_meters":9200,"station_id":"ce4bhlp2rcd13ifvqgjg","pricing_plan_id":"cebpf4jnsgd1na2vs0mg"},{"bike_id":"efab6700-508c-45e7-a250-bfb1d4670a97","system_id":"levelo_inurba_marseille","lat":43.31324,"lon":5.39702,"is_reserved":false,"is_disabled":false,"rental_uris":{"android":"levelo://app?vid=efab6700-508c-45e7-a250-bfb1d4670a97","ios":"levelo://app?vid=efab6700-508c-45e7-a250-bfb1d4670a97"},"vehicle_type_id":"4","last_reported":1741817355,"current_range_meters":9200,"station_id":"ce4bgvp2rcd13ifvqcu0","pricing_plan_id":"cebpf4jnsgd1na2vs0mg"},{"bike_id":"1546ff40-85d4-4deb-8b07-0d7c91145c4d","system_id":"levelo_inurba_marseille","lat":43.28445,"lon":5.39207,"is_reserved":false,"is_disabled":false,"rental_uris":{"android":"levelo://app?vid=1546ff40-85d4-4deb-8b07-0d7c91145c4d","ios":"levelo://app?vid=1546ff40-85d4-4deb-8b07-0d7c91145c4d"},"vehicle_type_id":"4","last_reported":1741817355,"current_range_meters":9200,"station_id":"ce4bhoh2rcd13ifvqh5g","pricing_plan_id":"cebpf4jnsgd1na2vs0mg"},{"bike_id":"485f1510-a973-46b6-8b2d-6d22ffc60cae","system_id":"levelo_inurba_marseille","lat":43.24177,"lon":5.3642,"is_reserved":false,"is_disabled":false,"rental_uris":{"android":"levelo://app?vid=485f1510-a973-46b6-8b2d-6d22ffc60cae","ios":"levelo://app?vid=485f1510-a973-46b6-8b2d-6d22ffc60cae"},"vehicle_type_id":"4","last_reported":1741817355,"current_range_meters":9200,"station_id":"cpo36qri1sfpv3e86is0","pricing_plan_id":"cebpf4jnsgd1na2vs0mg"},{"bike_id":"6d03d5ce-f222-4314-8f3d-91fa7c60933e","system_id":"levelo_inurba_marseille","lat":43.289462,"lon":5.396338,"is_reserved":false,"is_disabled":false,"rental_uris":{"android":"levelo://app?vid=6d03d5ce-f222-4314-8f3d-91fa7c60933e","ios":"levelo://app?vid=6d03d5ce-f222-4314-8f3d-91fa7c60933e"},"vehicle_type_id":"4","last_reported":1741817355,"current_range_meters":9200,"station_id":"ce4bh3h2rcd13ifvqdn0","pricing_plan_id":"cebpf4jnsgd1na2vs0mg"},{"bike_id":"540f8b94-18a7-495a-be2a-6d9b18696d20","system_id":"levelo_inurba_marseille","lat":43.3108,"lon":5.42428,"is_reserved":false,"is_disabled":false,"rental_uris":{"android":"levelo://app?vid=540f8b94-18a7-495a-be2a-6d9b18696d20","ios":"levelo://app?vid=540f8b94-18a7-495a-be2a-6d9b18696d20"},"vehicle_type_id":"4","last_reported":1741817355,"current_range_meters":9200,"station_id":"ce4bhp92rcd13ifvqhag","pricing_plan_id":"cebpf4jnsgd1na2vs0mg"},{"bike_id":"ec5d08ce-934d-49b5-9a73-c20b44942d11","system_id":"levelo_inurba_marseille","lat":43.314248,"lon":5.375391,"is_reserved":false,"is_disabled":false,"rental_uris":{"android":"levelo://app?vid=ec5d08ce-934d-49b5-9a73-c20b44942d11","ios":"levelo://app?vid=ec5d08ce-934d-49b5-9a73-c20b44942d11"},"vehicle_type_id":"4","last_reported":1741817355,"current_range_meters":9200,"station_id":"","pricing_plan_id":"cebpf4jnsgd1na2vs0mg"},{"bike_id":"c16477d5-7793-4073-b158-0eaf5052f2dc","system_id":"levelo_inurba_marseille","lat":43.28296,"lon":5.43228,"is_reserved":false,"is_disabled":false,"rental_uris":{"android":"levelo://app?vid=c16477d5-7793-4073-b158-0eaf5052f2dc","ios":"levelo://app?vid=c16477d5-7793-4073-b158-0eaf5052f2dc"},"vehicle_type_id":"4","last_reported":1741817355,"current_range_meters":9200,"station_id":"","pricing_plan_id":"cebpf4jnsgd1na2vs0mg"},{"bike_id":"7713ad5f-d464-46e0-a493-16b009a70715","system_id":"levelo_inurba_marseille","lat":43.28666,"lon":5.3866,"is_reserved":false,"is_disabled":false,"rental_uris":{"android":"levelo://app?vid=7713ad5f-d464-46e0-a493-16b009a70715","ios":"levelo://app?vid=7713ad5f-d464-46e0-a493-16b009a70715"},"vehicle_type_id":"4","last_reported":1741817355,"current_range_meters":9200,"station_id":"ce4bh492rcd13ifvqdug","pricing_plan_id":"cebpf4jnsgd1na2vs0mg"},{"bike_id":"12d8c0d4-6abc-4053-9c8c-690abca02735","system_id":"levelo_inurba_marseille","lat":43.31208,"lon":5.3741,"is_reserved":false,"is_disabled":false,"rental_uris":{"android":"levelo://app?vid=12d8c0d4-6abc-4053-9c8c-690abca02735","ios":"levelo://app?vid=12d8c0d4-6abc-4053-9c8c-690abca02735"},"vehicle_type_id":"4","last_reported":1741817355,"current_range_meters":9200,"station_id":"","pricing_plan_id":"cebpf4jnsgd1na2vs0mg"},{"bike_id":"e59dfd2a-6724-4e77-b6b3-0f0dfc37aab3","system_id":"levelo_inurba_marseille","lat":43.30792,"lon":5.3816,"is_reserved":false,"is_disabled":false,"rental_uris":{"android":"levelo://app?vid=e59dfd2a-6724-4e77-b6b3-0f0dfc37aab3","ios":"levelo://app?vid=e59dfd2a-6724-4e77-b6b3-0f0dfc37aab3"},"vehicle_type_id":"4","last_reported":1741817355,"current_range_meters":9200,"station_id":"ce4bgt12rcd13ifvqce0","pricing_plan_id":"cebpf4jnsgd1na2vs0mg"},{"bike_id":"cf16dec3-3347-40cc-be03-a3cd79c5b809","system_id":"levelo_inurba_marseille","lat":43.29427,"lon":5.38637,"is_reserved":false,"is_disabled":false,"rental_uris":{"android":"levelo://app?vid=cf16dec3-3347-40cc-be03-a3cd79c5b809","ios":"levelo://app?vid=cf16dec3-3347-40cc-be03-a3cd79c5b809"},"vehicle_type_id":"4","last_reported":1741817355,"current_range_meters":9200,"station_id":"ce4bh2h2rcd13ifvqdh0","pricing_plan_id":"cebpf4jnsgd1na2vs0mg"},{"bike_id":"0a995a9a-6122-4f4b-b298-a8b06cbca7e2","system_id":"levelo_inurba_marseille","lat":43.25016,"lon":5.38912,"is_reserved":false,"is_disabled":false,"rental_uris":{"android":"levelo://app?vid=0a995a9a-6122-4f4b-b298-a8b06cbca7e2","ios":"levelo://app?vid=0a995a9a-6122-4f4b-b298-a8b06cbca7e2"},"vehicle_type_id":"4","last_reported":1741817355,"current_range_meters":9600,"station_id":"ce4bhgp2rcd13ifvqfd0","pricing_plan_id":"cebpf4jnsgd1na2vs0mg"},{"bike_id":"85e5198d-7b5c-47df-8c25-3139b7284419","system_id":"levelo_inurba_marseille","lat":43.30652,"lon":5.40082,"is_reserved":false,"is_disabled":false,"rental_uris":{"android":"levelo://app?vid=85e5198d-7b5c-47df-8c25-3139b7284419","ios":"levelo://app?vid=85e5198d-7b5c-47df-8c25-3139b7284419"},"vehicle_type_id":"4","last_reported":1741817355,"current_range_meters":9600,"station_id":"ce4bh112rcd13ifvqda0","pricing_plan_id":"cebpf4jnsgd1na2vs0mg"},{"bike_id":"f83b1590-73f8-4900-a667-6c005eb9b249","system_id":"levelo_inurba_marseille","lat":43.29561,"lon":5.39969,"is_reserved":false,"is_disabled":true,"rental_uris":{"android":"levelo://app?vid=f83b1590-73f8-4900-a667-6c005eb9b249","ios":"levelo://app?vid=f83b1590-73f8-4900-a667-6c005eb9b249"},"vehicle_type_id":"4","last_reported":1741817355,"current_range_meters":9600,"station_id":"ce4bh312rcd13ifvqdj0","pricing_plan_id":"cebpf4jnsgd1na2vs0mg"},{"bike_id":"20719e7d-e656-4d2f-a019-3cbf98c17c5e","system_id":"levelo_inurba_marseille","lat":43.28621,"lon":5.35098,"is_reserved":false,"is_disabled":false,"rental_uris":{"android":"levelo://app?vid=20719e7d-e656-4d2f-a019-3cbf98c17c5e","ios":"levelo://app?vid=20719e7d-e656-4d2f-a019-3cbf98c17c5e"},"vehicle_type_id":"4","last_reported":1741817355,"current_range_meters":9600,"station_id":"ce4bhch2rcd13ifvqeug","pricing_plan_id":"cebpf4jnsgd1na2vs0mg"},{"bike_id":"55fe5d5a-17ad-4e56-ad62-6cc28a264c81","system_id":"levelo_inurba_marseille","lat":43.25039,"lon":5.38901,"is_reserved":false,"is_disabled":false,"rental_uris":{"android":"levelo://app?vid=55fe5d5a-17ad-4e56-ad62-6cc28a264c81","ios":"levelo://app?vid=55fe5d5a-17ad-4e56-ad62-6cc28a264c81"},"vehicle_type_id":"4","last_reported":1741817355,"current_range_meters":9600,"station_id":"ce4bhgp2rcd13ifvqfd0","pricing_plan_id":"cebpf4jnsgd1na2vs0mg"},{"bike_id":"600a8b1d-91ce-4fc9-92cd-846d63d5cb51","system_id":"levelo_inurba_marseille","lat":43.24994,"lon":5.38934,"is_reserved":false,"is_disabled":false,"rental_uris":{"android":"levelo://app?vid=600a8b1d-91ce-4fc9-92cd-846d63d5cb51","ios":"levelo://app?vid=600a8b1d-91ce-4fc9-92cd-846d63d5cb51"},"vehicle_type_id":"4","last_reported":1741817355,"current_range_meters":9600,"station_id":"ce4bhgp2rcd13ifvqfd0","pricing_plan_id":"cebpf4jnsgd1na2vs0mg"},{"bike_id":"090953b7-cc15-4183-bb95-59952ed68ce5","system_id":"levelo_inurba_marseille","lat":43.293897,"lon":5.401521,"is_reserved":false,"is_disabled":false,"rental_uris":{"android":"levelo://app?vid=090953b7-cc15-4183-bb95-59952ed68ce5","ios":"levelo://app?vid=090953b7-cc15-4183-bb95-59952ed68ce5"},"vehicle_type_id":"4","last_reported":1741817355,"current_range_meters":9600,"station_id":"ce4bh3h2rcd13ifvqdo0","pricing_plan_id":"cebpf4jnsgd1na2vs0mg"},{"bike_id":"7d4aedfe-c4d1-46e1-9530-386849f612f8","system_id":"levelo_inurba_marseille","lat":43.30373,"lon":5.42487,"is_reserved":false,"is_disabled":false,"rental_uris":{"android":"levelo://app?vid=7d4aedfe-c4d1-46e1-9530-386849f612f8","ios":"levelo://app?vid=7d4aedfe-c4d1-46e1-9530-386849f612f8"},"vehicle_type_id":"4","last_reported":1741817355,"current_range_meters":9600,"station_id":"ce4bghh2rcd13ifvqb60","pricing_plan_id":"cebpf4jnsgd1na2vs0mg"},{"bike_id":"2d16443d-ed2e-4c48-af94-4deffe2479f1","system_id":"levelo_inurba_marseille","lat":43.25028,"lon":5.38891,"is_reserved":false,"is_disabled":false,"rental_uris":{"android":"levelo://app?vid=2d16443d-ed2e-4c48-af94-4deffe2479f1","ios":"levelo://app?vid=2d16443d-ed2e-4c48-af94-4deffe2479f1"},"vehicle_type_id":"4","last_reported":1741817355,"current_range_meters":9600,"station_id":"ce4bhgp2rcd13ifvqfd0","pricing_plan_id":"cebpf4jnsgd1na2vs0mg"},{"bike_id":"3baf227d-0be9-4b96-8721-684a3fb14c35","system_id":"levelo_inurba_marseille","lat":43.31825,"lon":5.3732,"is_reserved":false,"is_disabled":false,"rental_uris":{"android":"levelo://app?vid=3baf227d-0be9-4b96-8721-684a3fb14c35","ios":"levelo://app?vid=3baf227d-0be9-4b96-8721-684a3fb14c35"},"vehicle_type_id":"4","last_reported":1741817355,"current_range_meters":10000,"station_id":"","pricing_plan_id":"cebpf4jnsgd1na2vs0mg"},{"bike_id":"df6b060b-9f9e-4288-bcc1-ae0d53050642","system_id":"levelo_inurba_marseille","lat":43.2294,"lon":5.35376,"is_reserved":false,"is_disabled":false,"rental_uris":{"android":"levelo://app?vid=df6b060b-9f9e-4288-bcc1-ae0d53050642","ios":"levelo://app?vid=df6b060b-9f9e-4288-bcc1-ae0d53050642"},"vehicle_type_id":"4","last_reported":1741817355,"current_range_meters":10000,"station_id":"cpo3532slgdg3j2ikp40","pricing_plan_id":"cebpf4jnsgd1na2vs0mg"},{"bike_id":"9f25a6ad-433a-45b0-a0d0-4a619d769e26","system_id":"levelo_inurba_marseille","lat":43.23197,"lon":5.35563,"is_reserved":false,"is_disabled":false,"rental_uris":{"android":"levelo://app?vid=9f25a6ad-433a-45b0-a0d0-4a619d769e26","ios":"levelo://app?vid=9f25a6ad-433a-45b0-a0d0-4a619d769e26"},"vehicle_type_id":"4","last_reported":1741817355,"current_range_meters":10000,"station_id":"ce4bhu92rcd13ifvqi70","pricing_plan_id":"cebpf4jnsgd1na2vs0mg"},{"bike_id":"27978618-6a05-41e9-b500-4c9c04aec95f","system_id":"levelo_inurba_marseille","lat":43.28154,"lon":5.42641,"is_reserved":false,"is_disabled":false,"rental_uris":{"android":"levelo://app?vid=27978618-6a05-41e9-b500-4c9c04aec95f","ios":"levelo://app?vid=27978618-6a05-41e9-b500-4c9c04aec95f"},"vehicle_type_id":"4","last_reported":1741817355,"current_range_meters":10000,"station_id":"ce4bhnh2rcd13ifvqgug","pricing_plan_id":"cebpf4jnsgd1na2vs0mg"},{"bike_id":"e82a7765-952e-473e-ae93-51129021ba92","system_id":"levelo_inurba_marseille","lat":43.23974,"lon":5.36623,"is_reserved":false,"is_disabled":false,"rental_uris":{"android":"levelo://app?vid=e82a7765-952e-473e-ae93-51129021ba92","ios":"levelo://app?vid=e82a7765-952e-473e-ae93-51129021ba92"},"vehicle_type_id":"4","last_reported":1741817355,"current_range_meters":10000,"station_id":"ce4bhi12rcd13ifvqfp0","pricing_plan_id":"cebpf4jnsgd1na2vs0mg"},{"bike_id":"6dbc9b4a-c5a1-4dbf-a00f-5bb7462d2694","system_id":"levelo_inurba_marseille","lat":43.2811,"lon":5.39864,"is_reserved":false,"is_disabled":false,"rental_uris":{"android":"levelo://app?vid=6dbc9b4a-c5a1-4dbf-a00f-5bb7462d2694","ios":"levelo://app?vid=6dbc9b4a-c5a1-4dbf-a00f-5bb7462d2694"},"vehicle_type_id":"4","last_reported":1741817355,"current_range_meters":10000,"station_id":"","pricing_plan_id":"cebpf4jnsgd1na2vs0mg"},{"bike_id":"234f837a-7327-4b92-8f17-adec428df1b9","system_id":"levelo_inurba_marseille","lat":43.25929,"lon":5.40908,"is_reserved":false,"is_disabled":false,"rental_uris":{"android":"levelo://app?vid=234f837a-7327-4b92-8f17-adec428df1b9","ios":"levelo://app?vid=234f837a-7327-4b92-8f17-adec428df1b9"},"vehicle_type_id":"4","last_reported":1741817355,"current_range_meters":10000,"station_id":"ce4bhm92rcd13ifvqglg","pricing_plan_id":"cebpf4jnsgd1na2vs0mg"},{"bike_id":"457c105a-b57e-4a80-86e8-b40918b9ad62","system_id":"levelo_inurba_marseille","lat":43.30088,"lon":5.39075,"is_reserved":false,"is_disabled":false,"rental_uris":{"android":"levelo://app?vid=457c105a-b57e-4a80-86e8-b40918b9ad62","ios":"levelo://app?vid=457c105a-b57e-4a80-86e8-b40918b9ad62"},"vehicle_type_id":"4","last_reported":1741817355,"current_range_meters":10000,"station_id":"ce4bh192rcd13ifvqdb0","pricing_plan_id":"cebpf4jnsgd1na2vs0mg"},{"bike_id":"f89b9f3b-9595-4d0e-acf5-ac5f650bb50c","system_id":"levelo_inurba_marseille","lat":43.30374,"lon":5.42485,"is_reserved":false,"is_disabled":false,"rental_uris":{"android":"levelo://app?vid=f89b9f3b-9595-4d0e-acf5-ac5f650bb50c","ios":"levelo://app?vid=f89b9f3b-9595-4d0e-acf5-ac5f650bb50c"},"vehicle_type_id":"4","last_reported":1741817355,"current_range_meters":10000,"station_id":"ce4bghh2rcd13ifvqb60","pricing_plan_id":"cebpf4jnsgd1na2vs0mg"},{"bike_id":"754c237d-5821-4330-866f-75f381380385","system_id":"levelo_inurba_marseille","lat":43.28941,"lon":5.38385,"is_reserved":false,"is_disabled":false,"rental_uris":{"android":"levelo://app?vid=754c237d-5821-4330-866f-75f381380385","ios":"levelo://app?vid=754c237d-5821-4330-866f-75f381380385"},"vehicle_type_id":"4","last_reported":1741817355,"current_range_meters":10000,"station_id":"ce4bh612rcd13ifvqe6g","pricing_plan_id":"cebpf4jnsgd1na2vs0mg"},{"bike_id":"6c83aba9-eb1e-4e35-add9-1ed6c49a74fd","system_id":"levelo_inurba_marseille","lat":43.28008,"lon":5.41657,"is_reserved":false,"is_disabled":false,"rental_uris":{"android":"levelo://app?vid=6c83aba9-eb1e-4e35-add9-1ed6c49a74fd","ios":"levelo://app?vid=6c83aba9-eb1e-4e35-add9-1ed6c49a74fd"},"vehicle_type_id":"4","last_reported":1741817355,"current_range_meters":10000,"station_id":"ce4bho12rcd13ifvqh1g","pricing_plan_id":"cebpf4jnsgd1na2vs0mg"},{"bike_id":"299f5537-20a7-46bb-9d82-e34927175af8","system_id":"levelo_inurba_marseille","lat":43.31511,"lon":5.37023,"is_reserved":false,"is_disabled":false,"rental_uris":{"android":"levelo://app?vid=299f5537-20a7-46bb-9d82-e34927175af8","ios":"levelo://app?vid=299f5537-20a7-46bb-9d82-e34927175af8"},"vehicle_type_id":"4","last_reported":1741817355,"current_range_meters":10000,"station_id":"","pricing_plan_id":"cebpf4jnsgd1na2vs0mg"},{"bike_id":"9c9b4fe2-0c24-4e47-8858-2d4973e49f79","system_id":"levelo_inurba_marseille","lat":43.27524,"lon":5.38443,"is_reserved":false,"is_disabled":false,"rental_uris":{"android":"levelo://app?vid=9c9b4fe2-0c24-4e47-8858-2d4973e49f79","ios":"levelo://app?vid=9c9b4fe2-0c24-4e47-8858-2d4973e49f79"},"vehicle_type_id":"4","last_reported":1741817355,"current_range_meters":10800,"station_id":"ce4bhh92rcd13ifvqfi0","pricing_plan_id":"cebpf4jnsgd1na2vs0mg"},{"bike_id":"63a97a08-5bd6-402f-a69b-1a4f72254415","system_id":"levelo_inurba_marseille","lat":43.310652,"lon":5.383537,"is_reserved":false,"is_disabled":false,"rental_uris":{"android":"levelo://app?vid=63a97a08-5bd6-402f-a69b-1a4f72254415","ios":"levelo://app?vid=63a97a08-5bd6-402f-a69b-1a4f72254415"},"vehicle_type_id":"4","last_reported":1741817355,"current_range_meters":10800,"station_id":"ce4bgv92rcd13ifvqcr0","pricing_plan_id":"cebpf4jnsgd1na2vs0mg"},{"bike_id":"23667599-c39f-4b94-a83e-082050eb199c","system_id":"levelo_inurba_marseille","lat":43.28415,"lon":5.37514,"is_reserved":false,"is_disabled":false,"rental_uris":{"android":"levelo://app?vid=23667599-c39f-4b94-a83e-082050eb199c","ios":"levelo://app?vid=23667599-c39f-4b94-a83e-082050eb199c"},"vehicle_type_id":"4","last_reported":1741817355,"current_range_meters":10800,"station_id":"ce4bh412rcd13ifvqds0","pricing_plan_id":"cebpf4jnsgd1na2vs0mg"},{"bike_id":"c8f5a7aa-328f-49c1-a785-9624fa888d07","system_id":"levelo_inurba_marseille","lat":43.25003,"lon":5.38916,"is_reserved":false,"is_disabled":false,"rental_uris":{"android":"levelo://app?vid=c8f5a7aa-328f-49c1-a785-9624fa888d07","ios":"levelo://app?vid=c8f5a7aa-328f-49c1-a785-9624fa888d07"},"vehicle_type_id":"4","last_reported":1741817355,"current_range_meters":10800,"station_id":"ce4bhgp2rcd13ifvqfd0","pricing_plan_id":"cebpf4jnsgd1na2vs0mg"},{"bike_id":"0234a9c0-0d92-4771-9dd1-5abbd3156dde","system_id":"levelo_inurba_marseille","lat":43.2408,"lon":5.37745,"is_reserved":false,"is_disabled":false,"rental_uris":{"android":"levelo://app?vid=0234a9c0-0d92-4771-9dd1-5abbd3156dde","ios":"levelo://app?vid=0234a9c0-0d92-4771-9dd1-5abbd3156dde"},"vehicle_type_id":"4","last_reported":1741817355,"current_range_meters":10800,"station_id":"ce4bhnp2rcd13ifvqgvg","pricing_plan_id":"cebpf4jnsgd1na2vs0mg"},{"bike_id":"6797bf15-c428-46eb-86a3-64177d518a4c","system_id":"levelo_inurba_marseille","lat":43.31312,"lon":5.39704,"is_reserved":false,"is_disabled":false,"rental_uris":{"android":"levelo://app?vid=6797bf15-c428-46eb-86a3-64177d518a4c","ios":"levelo://app?vid=6797bf15-c428-46eb-86a3-64177d518a4c"},"vehicle_type_id":"4","last_reported":1741817355,"current_range_meters":11200,"station_id":"ce4bgvp2rcd13ifvqcu0","pricing_plan_id":"cebpf4jnsgd1na2vs0mg"},{"bike_id":"df666d8d-21bb-4a31-a58c-0e4b634c7195","system_id":"levelo_inurba_marseille","lat":43.29506,"lon":5.39393,"is_reserved":false,"is_disabled":true,"rental_uris":{"android":"levelo://app?vid=df666d8d-21bb-4a31-a58c-0e4b634c7195","ios":"levelo://app?vid=df666d8d-21bb-4a31-a58c-0e4b634c7195"},"vehicle_type_id":"4","last_reported":1741817355,"current_range_meters":11200,"station_id":"ce4bh292rcd13ifvqdf0","pricing_plan_id":"cebpf4jnsgd1na2vs0mg"},{"bike_id":"79397302-4916-493d-9bc0-e5035ae3c476","system_id":"levelo_inurba_marseille","lat":43.22919,"lon":5.35382,"is_reserved":false,"is_disabled":false,"rental_uris":{"android":"levelo://app?vid=79397302-4916-493d-9bc0-e5035ae3c476","ios":"levelo://app?vid=79397302-4916-493d-9bc0-e5035ae3c476"},"vehicle_type_id":"4","last_reported":1741817355,"current_range_meters":11200,"station_id":"cpo3532slgdg3j2ikp40","pricing_plan_id":"cebpf4jnsgd1na2vs0mg"},{"bike_id":"d1309957-921e-405b-b003-407a2d70e92c","system_id":"levelo_inurba_marseille","lat":43.29105,"lon":5.38118,"is_reserved":false,"is_disabled":false,"rental_uris":{"android":"levelo://app?vid=d1309957-921e-405b-b003-407a2d70e92c","ios":"levelo://app?vid=d1309957-921e-405b-b003-407a2d70e92c"},"vehicle_type_id":"4","last_reported":1741817355,"current_range_meters":11200,"station_id":"ce4bh512rcd13ifvqe2g","pricing_plan_id":"cebpf4jnsgd1na2vs0mg"},{"bike_id":"2214eca3-ab97-4506-b860-b288639ca218","system_id":"levelo_inurba_marseille","lat":43.28669,"lon":5.36347,"is_reserved":false,"is_disabled":false,"rental_uris":{"android":"levelo://app?vid=2214eca3-ab97-4506-b860-b288639ca218","ios":"levelo://app?vid=2214eca3-ab97-4506-b860-b288639ca218"},"vehicle_type_id":"4","last_reported":1741817355,"current_range_meters":11600,"station_id":"ce4bhah2rcd13ifvqej0","pricing_plan_id":"cebpf4jnsgd1na2vs0mg"},{"bike_id":"9dc8ba98-3de9-4f14-81e1-9a5589e794de","system_id":"levelo_inurba_marseille","lat":43.2585,"lon":5.39909,"is_reserved":false,"is_disabled":true,"rental_uris":{"android":"levelo://app?vid=9dc8ba98-3de9-4f14-81e1-9a5589e794de","ios":"levelo://app?vid=9dc8ba98-3de9-4f14-81e1-9a5589e794de"},"vehicle_type_id":"4","last_reported":1741817355,"current_range_meters":11600,"station_id":"ce4bhl92rcd13ifvqghg","pricing_plan_id":"cebpf4jnsgd1na2vs0mg"},{"bike_id":"29982826-bd7f-4522-8a2b-5667c6dbda27","system_id":"levelo_inurba_marseille","lat":43.29429,"lon":5.38619,"is_reserved":false,"is_disabled":false,"rental_uris":{"android":"levelo://app?vid=29982826-bd7f-4522-8a2b-5667c6dbda27","ios":"levelo://app?vid=29982826-bd7f-4522-8a2b-5667c6dbda27"},"vehicle_type_id":"4","last_reported":1741817355,"current_range_meters":11600,"station_id":"ce4bh2h2rcd13ifvqdh0","pricing_plan_id":"cebpf4jnsgd1na2vs0mg"},{"bike_id":"4c607265-c996-4d9b-81fd-daa80dd99e32","system_id":"levelo_inurba_marseille","lat":43.28724,"lon":5.38429,"is_reserved":false,"is_disabled":false,"rental_uris":{"android":"levelo://app?vid=4c607265-c996-4d9b-81fd-daa80dd99e32","ios":"levelo://app?vid=4c607265-c996-4d9b-81fd-daa80dd99e32"},"vehicle_type_id":"4","last_reported":1741817355,"current_range_meters":11600,"station_id":"","pricing_plan_id":"cebpf4jnsgd1na2vs0mg"},{"bike_id":"e7b25e36-0a83-4dda-88d0-c2926bc1cbb4","system_id":"levelo_inurba_marseille","lat":43.29851,"lon":5.36292,"is_reserved":false,"is_disabled":true,"rental_uris":{"android":"levelo://app?vid=e7b25e36-0a83-4dda-88d0-c2926bc1cbb4","ios":"levelo://app?vid=e7b25e36-0a83-4dda-88d0-c2926bc1cbb4"},"vehicle_type_id":"4","last_reported":1741817355,"current_range_meters":11600,"station_id":"ce4bgpp2rcd13ifvqc3g","pricing_plan_id":"cebpf4jnsgd1na2vs0mg"},{"bike_id":"79e732be-e7d8-4dc9-8c8f-89d56717d799","system_id":"levelo_inurba_marseille","lat":43.29029,"lon":5.37549,"is_reserved":false,"is_disabled":true,"rental_uris":{"android":"levelo://app?vid=79e732be-e7d8-4dc9-8c8f-89d56717d799","ios":"levelo://app?vid=79e732be-e7d8-4dc9-8c8f-89d56717d799"},"vehicle_type_id":"4","last_reported":1741817355,"current_range_meters":11600,"station_id":"ce4bh692rcd13ifvqe90","pricing_plan_id":"cebpf4jnsgd1na2vs0mg"},{"bike_id":"31e51267-b547-4604-ba1e-cdf64565f3ef","system_id":"levelo_inurba_marseille","lat":43.29448,"lon":5.38575,"is_reserved":false,"is_disabled":false,"rental_uris":{"android":"levelo://app?vid=31e51267-b547-4604-ba1e-cdf64565f3ef","ios":"levelo://app?vid=31e51267-b547-4604-ba1e-cdf64565f3ef"},"vehicle_type_id":"4","last_reported":1741817355,"current_range_meters":11600,"station_id":"ce4bh2h2rcd13ifvqdh0","pricing_plan_id":"cebpf4jnsgd1na2vs0mg"},{"bike_id":"443a3fb1-e6f8-4551-9dcb-92b2072390e6","system_id":"levelo_inurba_marseille","lat":43.30159,"lon":5.37697,"is_reserved":false,"is_disabled":false,"rental_uris":{"android":"levelo://app?vid=443a3fb1-e6f8-4551-9dcb-92b2072390e6","ios":"levelo://app?vid=443a3fb1-e6f8-4551-9dcb-92b2072390e6"},"vehicle_type_id":"4","last_reported":1741817355,"current_range_meters":11600,"station_id":"","pricing_plan_id":"cebpf4jnsgd1na2vs0mg"},{"bike_id":"ece86757-6640-491c-a421-ba8c6be1515c","system_id":"levelo_inurba_marseille","lat":43.25119,"lon":5.40334,"is_reserved":false,"is_disabled":false,"rental_uris":{"android":"levelo://app?vid=ece86757-6640-491c-a421-ba8c6be1515c","ios":"levelo://app?vid=ece86757-6640-491c-a421-ba8c6be1515c"},"vehicle_type_id":"4","last_reported":1741817355,"current_range_meters":11600,"station_id":"ce4bhlh2rcd13ifvqgig","pricing_plan_id":"cebpf4jnsgd1na2vs0mg"},{"bike_id":"2418d0da-086d-4e67-b2f5-3f1067242595","system_id":"levelo_inurba_marseille","lat":43.26226,"lon":5.40452,"is_reserved":false,"is_disabled":false,"rental_uris":{"android":"levelo://app?vid=2418d0da-086d-4e67-b2f5-3f1067242595","ios":"levelo://app?vid=2418d0da-086d-4e67-b2f5-3f1067242595"},"vehicle_type_id":"4","last_reported":1741817355,"current_range_meters":12000,"station_id":"ce4bhmh2rcd13ifvqgmg","pricing_plan_id":"cebpf4jnsgd1na2vs0mg"},{"bike_id":"559d880c-413b-4bec-b478-ce00f72287ce","system_id":"levelo_inurba_marseille","lat":43.31759,"lon":5.37609,"is_reserved":false,"is_disabled":false,"rental_uris":{"android":"levelo://app?vid=559d880c-413b-4bec-b478-ce00f72287ce","ios":"levelo://app?vid=559d880c-413b-4bec-b478-ce00f72287ce"},"vehicle_type_id":"4","last_reported":1741817355,"current_range_meters":12000,"station_id":"ce4bgth2rcd13ifvqch0","pricing_plan_id":"cebpf4jnsgd1na2vs0mg"},{"bike_id":"2c7213de-1d2d-4b17-ab38-ba3bb19fab23","system_id":"levelo_inurba_marseille","lat":43.28937,"lon":5.36634,"is_reserved":false,"is_disabled":false,"rental_uris":{"android":"levelo://app?vid=2c7213de-1d2d-4b17-ab38-ba3bb19fab23","ios":"levelo://app?vid=2c7213de-1d2d-4b17-ab38-ba3bb19fab23"},"vehicle_type_id":"4","last_reported":1741817355,"current_range_meters":12000,"station_id":"ce4bhap2rcd13ifvqek0","pricing_plan_id":"cebpf4jnsgd1na2vs0mg"},{"bike_id":"5412c073-a21a-4f09-b8b3-6e8cd885fd55","system_id":"levelo_inurba_marseille","lat":43.31073,"lon":5.38338,"is_reserved":false,"is_disabled":true,"rental_uris":{"android":"levelo://app?vid=5412c073-a21a-4f09-b8b3-6e8cd885fd55","ios":"levelo://app?vid=5412c073-a21a-4f09-b8b3-6e8cd885fd55"},"vehicle_type_id":"4","last_reported":1741817355,"current_range_meters":12000,"station_id":"ce4bgv92rcd13ifvqcr0","pricing_plan_id":"cebpf4jnsgd1na2vs0mg"},{"bike_id":"43210ee2-7bae-42bd-8e6d-b2d5802f48a9","system_id":"levelo_inurba_marseille","lat":43.2904,"lon":5.39946,"is_reserved":false,"is_disabled":false,"rental_uris":{"android":"levelo://app?vid=43210ee2-7bae-42bd-8e6d-b2d5802f48a9","ios":"levelo://app?vid=43210ee2-7bae-42bd-8e6d-b2d5802f48a9"},"vehicle_type_id":"4","last_reported":1741817355,"current_range_meters":12000,"station_id":"ce4bh392rcd13ifvqdm0","pricing_plan_id":"cebpf4jnsgd1na2vs0mg"},{"bike_id":"f2ee747f-c996-4c41-b815-ac9913b5b0ef","system_id":"levelo_inurba_marseille","lat":43.31473,"lon":5.3757,"is_reserved":false,"is_disabled":false,"rental_uris":{"android":"levelo://app?vid=f2ee747f-c996-4c41-b815-ac9913b5b0ef","ios":"levelo://app?vid=f2ee747f-c996-4c41-b815-ac9913b5b0ef"},"vehicle_type_id":"4","last_reported":1741817355,"current_range_meters":12000,"station_id":"","pricing_plan_id":"cebpf4jnsgd1na2vs0mg"},{"bike_id":"04b6b0f6-d318-40e6-a023-347d481d621c","system_id":"levelo_inurba_marseille","lat":43.29201,"lon":5.37558,"is_reserved":false,"is_disabled":false,"rental_uris":{"android":"levelo://app?vid=04b6b0f6-d318-40e6-a023-347d481d621c","ios":"levelo://app?vid=04b6b0f6-d318-40e6-a023-347d481d621c"},"vehicle_type_id":"4","last_reported":1741817355,"current_range_meters":12400,"station_id":"","pricing_plan_id":"cebpf4jnsgd1na2vs0mg"},{"bike_id":"39e01789-9180-467b-960e-2cf905e306ae","system_id":"levelo_inurba_marseille","lat":43.30638,"lon":5.40094,"is_reserved":false,"is_disabled":false,"rental_uris":{"android":"levelo://app?vid=39e01789-9180-467b-960e-2cf905e306ae","ios":"levelo://app?vid=39e01789-9180-467b-960e-2cf905e306ae"},"vehicle_type_id":"4","last_reported":1741817355,"current_range_meters":12400,"station_id":"ce4bh112rcd13ifvqda0","pricing_plan_id":"cebpf4jnsgd1na2vs0mg"},{"bike_id":"6df1e7f3-12c0-481c-9941-2246e17807ca","system_id":"levelo_inurba_marseille","lat":43.284968,"lon":5.36809,"is_reserved":false,"is_disabled":true,"rental_uris":{"android":"levelo://app?vid=6df1e7f3-12c0-481c-9941-2246e17807ca","ios":"levelo://app?vid=6df1e7f3-12c0-481c-9941-2246e17807ca"},"vehicle_type_id":"4","last_reported":1741817355,"current_range_meters":12400,"station_id":"","pricing_plan_id":"cebpf4jnsgd1na2vs0mg"},{"bike_id":"14cdb32a-9821-4b92-bebf-08afd4f081b1","system_id":"levelo_inurba_marseille","lat":43.29254,"lon":5.40902,"is_reserved":false,"is_disabled":false,"rental_uris":{"android":"levelo://app?vid=14cdb32a-9821-4b92-bebf-08afd4f081b1","ios":"levelo://app?vid=14cdb32a-9821-4b92-bebf-08afd4f081b1"},"vehicle_type_id":"4","last_reported":1741817355,"current_range_meters":12400,"station_id":"ce4bh192rcd13ifvqdc0","pricing_plan_id":"cebpf4jnsgd1na2vs0mg"},{"bike_id":"a94f52d3-8f92-4581-aa55-a6373f361c0f","system_id":"levelo_inurba_marseille","lat":43.30889,"lon":5.39634,"is_reserved":false,"is_disabled":false,"rental_uris":{"android":"levelo://app?vid=a94f52d3-8f92-4581-aa55-a6373f361c0f","ios":"levelo://app?vid=a94f52d3-8f92-4581-aa55-a6373f361c0f"},"vehicle_type_id":"4","last_reported":1741817355,"current_range_meters":12400,"station_id":"ce4bh012rcd13ifvqcv0","pricing_plan_id":"cebpf4jnsgd1na2vs0mg"},{"bike_id":"45fd1bb1-794d-4df4-b163-157b6c4166f2","system_id":"levelo_inurba_marseille","lat":43.31324,"lon":5.397,"is_reserved":false,"is_disabled":false,"rental_uris":{"android":"levelo://app?vid=45fd1bb1-794d-4df4-b163-157b6c4166f2","ios":"levelo://app?vid=45fd1bb1-794d-4df4-b163-157b6c4166f2"},"vehicle_type_id":"4","last_reported":1741817355,"current_range_meters":12400,"station_id":"ce4bgvp2rcd13ifvqcu0","pricing_plan_id":"cebpf4jnsgd1na2vs0mg"},{"bike_id":"7382db7c-ea28-4d6b-a6ac-0a5dc179880b","system_id":"levelo_inurba_marseille","lat":43.33083,"lon":5.38165,"is_reserved":false,"is_disabled":false,"rental_uris":{"android":"levelo://app?vid=7382db7c-ea28-4d6b-a6ac-0a5dc179880b","ios":"levelo://app?vid=7382db7c-ea28-4d6b-a6ac-0a5dc179880b"},"vehicle_type_id":"4","last_reported":1741817355,"current_range_meters":12800,"station_id":"","pricing_plan_id":"cebpf4jnsgd1na2vs0mg"},{"bike_id":"1eeb43c6-bcc5-4484-9765-c2384a5952c3","system_id":"levelo_inurba_marseille","lat":43.28938,"lon":5.36632,"is_reserved":false,"is_disabled":false,"rental_uris":{"android":"levelo://app?vid=1eeb43c6-bcc5-4484-9765-c2384a5952c3","ios":"levelo://app?vid=1eeb43c6-bcc5-4484-9765-c2384a5952c3"},"vehicle_type_id":"4","last_reported":1741817355,"current_range_meters":12800,"station_id":"ce4bhap2rcd13ifvqek0","pricing_plan_id":"cebpf4jnsgd1na2vs0mg"},{"bike_id":"4e16c78a-df55-4db5-923f-b4881e3d1774","system_id":"levelo_inurba_marseille","lat":43.28662,"lon":5.36357,"is_reserved":false,"is_disabled":false,"rental_uris":{"android":"levelo://app?vid=4e16c78a-df55-4db5-923f-b4881e3d1774","ios":"levelo://app?vid=4e16c78a-df55-4db5-923f-b4881e3d1774"},"vehicle_type_id":"4","last_reported":1741817355,"current_range_meters":12800,"station_id":"ce4bhah2rcd13ifvqej0","pricing_plan_id":"cebpf4jnsgd1na2vs0mg"},{"bike_id":"278cc6d0-f87b-4a85-be1c-9ab962284920","system_id":"levelo_inurba_marseille","lat":43.31105,"lon":5.3777,"is_reserved":false,"is_disabled":false,"rental_uris":{"android":"levelo://app?vid=278cc6d0-f87b-4a85-be1c-9ab962284920","ios":"levelo://app?vid=278cc6d0-f87b-4a85-be1c-9ab962284920"},"vehicle_type_id":"4","last_reported":1741817355,"current_range_meters":12800,"station_id":"ce4bgt92rcd13ifvqcg0","pricing_plan_id":"cebpf4jnsgd1na2vs0mg"},{"bike_id":"e388842b-49ad-446d-8654-0f4ebe3cf0bb","system_id":"levelo_inurba_marseille","lat":43.29569,"lon":5.39972,"is_reserved":false,"is_disabled":false,"rental_uris":{"android":"levelo://app?vid=e388842b-49ad-446d-8654-0f4ebe3cf0bb","ios":"levelo://app?vid=e388842b-49ad-446d-8654-0f4ebe3cf0bb"},"vehicle_type_id":"4","last_reported":1741817355,"current_range_meters":12800,"station_id":"ce4bh312rcd13ifvqdj0","pricing_plan_id":"cebpf4jnsgd1na2vs0mg"},{"bike_id":"3082748f-98e4-4f65-aad3-436c5bc661ca","system_id":"levelo_inurba_marseille","lat":43.27982,"lon":5.40022,"is_reserved":false,"is_disabled":false,"rental_uris":{"android":"levelo://app?vid=3082748f-98e4-4f65-aad3-436c5bc661ca","ios":"levelo://app?vid=3082748f-98e4-4f65-aad3-436c5bc661ca"},"vehicle_type_id":"4","last_reported":1741817355,"current_range_meters":14000,"station_id":"ce4bho92rcd13ifvqh4g","pricing_plan_id":"cebpf4jnsgd1na2vs0mg"},{"bike_id":"96a2ded3-1991-4d9a-999d-06cdb7b93665","system_id":"levelo_inurba_marseille","lat":43.28725,"lon":5.36086,"is_reserved":false,"is_disabled":false,"rental_uris":{"android":"levelo://app?vid=96a2ded3-1991-4d9a-999d-06cdb7b93665","ios":"levelo://app?vid=96a2ded3-1991-4d9a-999d-06cdb7b93665"},"vehicle_type_id":"4","last_reported":1741817355,"current_range_meters":14000,"station_id":"cki0cbj6b192h4jlfktg","pricing_plan_id":"cebpf4jnsgd1na2vs0mg"},{"bike_id":"160ee366-45ff-4abc-859b-170d32229d5d","system_id":"levelo_inurba_marseille","lat":43.23978,"lon":5.36625,"is_reserved":false,"is_disabled":false,"rental_uris":{"android":"levelo://app?vid=160ee366-45ff-4abc-859b-170d32229d5d","ios":"levelo://app?vid=160ee366-45ff-4abc-859b-170d32229d5d"},"vehicle_type_id":"4","last_reported":1741817355,"current_range_meters":14000,"station_id":"ce4bhi12rcd13ifvqfp0","pricing_plan_id":"cebpf4jnsgd1na2vs0mg"},{"bike_id":"f2123f56-4b86-4f37-9277-4e46a6129744","system_id":"levelo_inurba_marseille","lat":43.27942,"lon":5.41042,"is_reserved":false,"is_disabled":false,"rental_uris":{"android":"levelo://app?vid=f2123f56-4b86-4f37-9277-4e46a6129744","ios":"levelo://app?vid=f2123f56-4b86-4f37-9277-4e46a6129744"},"vehicle_type_id":"4","last_reported":1741817355,"current_range_meters":14000,"station_id":"ce4bhnp2rcd13ifvqh0g","pricing_plan_id":"cebpf4jnsgd1na2vs0mg"},{"bike_id":"fd440347-0404-4c36-8fbe-7ebffd7a9e8f","system_id":"levelo_inurba_marseille","lat":43.33357,"lon":5.39573,"is_reserved":false,"is_disabled":false,"rental_uris":{"android":"levelo://app?vid=fd440347-0404-4c36-8fbe-7ebffd7a9e8f","ios":"levelo://app?vid=fd440347-0404-4c36-8fbe-7ebffd7a9e8f"},"vehicle_type_id":"4","last_reported":1741817355,"current_range_meters":14000,"station_id":"","pricing_plan_id":"cebpf4jnsgd1na2vs0mg"},{"bike_id":"e85e7281-8ded-4f9f-9074-cd43c73f5f32","system_id":"levelo_inurba_marseille","lat":43.31308,"lon":5.37314,"is_reserved":false,"is_disabled":false,"rental_uris":{"android":"levelo://app?vid=e85e7281-8ded-4f9f-9074-cd43c73f5f32","ios":"levelo://app?vid=e85e7281-8ded-4f9f-9074-cd43c73f5f32"},"vehicle_type_id":"4","last_reported":1741817355,"current_range_meters":14000,"station_id":"","pricing_plan_id":"cebpf4jnsgd1na2vs0mg"},{"bike_id":"894adb72-eba3-4c31-be33-a34cdb918fbd","system_id":"levelo_inurba_marseille","lat":43.25716,"lon":5.41089,"is_reserved":false,"is_disabled":false,"rental_uris":{"android":"levelo://app?vid=894adb72-eba3-4c31-be33-a34cdb918fbd","ios":"levelo://app?vid=894adb72-eba3-4c31-be33-a34cdb918fbd"},"vehicle_type_id":"4","last_reported":1741817355,"current_range_meters":14000,"station_id":"ce4bhkp2rcd13ifvqgd0","pricing_plan_id":"cebpf4jnsgd1na2vs0mg"},{"bike_id":"d1235ce3-1007-4d2d-9e28-ea39398a63a8","system_id":"levelo_inurba_marseille","lat":43.23214,"lon":5.35546,"is_reserved":false,"is_disabled":false,"rental_uris":{"android":"levelo://app?vid=d1235ce3-1007-4d2d-9e28-ea39398a63a8","ios":"levelo://app?vid=d1235ce3-1007-4d2d-9e28-ea39398a63a8"},"vehicle_type_id":"4","last_reported":1741817355,"current_range_meters":14000,"station_id":"ce4bhu92rcd13ifvqi70","pricing_plan_id":"cebpf4jnsgd1na2vs0mg"},{"bike_id":"82f667a4-011d-43d9-a5b2-2b7a9c09e3e1","system_id":"levelo_inurba_marseille","lat":43.292,"lon":5.39314,"is_reserved":false,"is_disabled":false,"rental_uris":{"android":"levelo://app?vid=82f667a4-011d-43d9-a5b2-2b7a9c09e3e1","ios":"levelo://app?vid=82f667a4-011d-43d9-a5b2-2b7a9c09e3e1"},"vehicle_type_id":"4","last_reported":1741817355,"current_range_meters":14000,"station_id":"ce4bh192rcd13ifvqdd0","pricing_plan_id":"cebpf4jnsgd1na2vs0mg"},{"bike_id":"0118782e-a9be-4c57-a3c6-f989e8d3b9bf","system_id":"levelo_inurba_marseille","lat":43.24165,"lon":5.39699,"is_reserved":false,"is_disabled":false,"rental_uris":{"android":"levelo://app?vid=0118782e-a9be-4c57-a3c6-f989e8d3b9bf","ios":"levelo://app?vid=0118782e-a9be-4c57-a3c6-f989e8d3b9bf"},"vehicle_type_id":"4","last_reported":1741817355,"current_range_meters":14000,"station_id":"ce4bhn12rcd13ifvqgpg","pricing_plan_id":"cebpf4jnsgd1na2vs0mg"},{"bike_id":"ac03e251-f109-43a3-82d8-343daf4cd1d5","system_id":"levelo_inurba_marseille","lat":43.27948,"lon":5.41049,"is_reserved":false,"is_disabled":false,"rental_uris":{"android":"levelo://app?vid=ac03e251-f109-43a3-82d8-343daf4cd1d5","ios":"levelo://app?vid=ac03e251-f109-43a3-82d8-343daf4cd1d5"},"vehicle_type_id":"4","last_reported":1741817355,"current_range_meters":14000,"station_id":"ce4bhnp2rcd13ifvqh0g","pricing_plan_id":"cebpf4jnsgd1na2vs0mg"},{"bike_id":"303ff363-ae27-464f-897b-a8687ab6ce28","system_id":"levelo_inurba_marseille","lat":43.30888,"lon":5.39632,"is_reserved":false,"is_disabled":false,"rental_uris":{"android":"levelo://app?vid=303ff363-ae27-464f-897b-a8687ab6ce28","ios":"levelo://app?vid=303ff363-ae27-464f-897b-a8687ab6ce28"},"vehicle_type_id":"4","last_reported":1741817355,"current_range_meters":14000,"station_id":"ce4bh012rcd13ifvqcv0","pricing_plan_id":"cebpf4jnsgd1na2vs0mg"},{"bike_id":"673d81e8-8ab9-4ce6-83bf-142379266fb2","system_id":"levelo_inurba_marseille","lat":43.31065,"lon":5.38352,"is_reserved":false,"is_disabled":false,"rental_uris":{"android":"levelo://app?vid=673d81e8-8ab9-4ce6-83bf-142379266fb2","ios":"levelo://app?vid=673d81e8-8ab9-4ce6-83bf-142379266fb2"},"vehicle_type_id":"4","last_reported":1741817355,"current_range_meters":14400,"station_id":"ce4bgv92rcd13ifvqcr0","pricing_plan_id":"cebpf4jnsgd1na2vs0mg"},{"bike_id":"ef1689a0-8d9c-46fd-871a-e67ff9a6daec","system_id":"levelo_inurba_marseille","lat":43.29804,"lon":5.40404,"is_reserved":false,"is_disabled":false,"rental_uris":{"android":"levelo://app?vid=ef1689a0-8d9c-46fd-871a-e67ff9a6daec","ios":"levelo://app?vid=ef1689a0-8d9c-46fd-871a-e67ff9a6daec"},"vehicle_type_id":"4","last_reported":1741817355,"current_range_meters":14400,"station_id":"ce4bh112rcd13ifvqd90","pricing_plan_id":"cebpf4jnsgd1na2vs0mg"},{"bike_id":"d2773e10-f455-4491-8b29-022de0220a00","system_id":"levelo_inurba_marseille","lat":43.27683,"lon":5.38876,"is_reserved":false,"is_disabled":false,"rental_uris":{"android":"levelo://app?vid=d2773e10-f455-4491-8b29-022de0220a00","ios":"levelo://app?vid=d2773e10-f455-4491-8b29-022de0220a00"},"vehicle_type_id":"4","last_reported":1741817355,"current_range_meters":14400,"station_id":"ce4bhi12rcd13ifvqfo0","pricing_plan_id":"cebpf4jnsgd1na2vs0mg"},{"bike_id":"6d3e7fa0-015e-4947-9b27-3d488b74170e","system_id":"levelo_inurba_marseille","lat":43.27972,"lon":5.3873,"is_reserved":false,"is_disabled":false,"rental_uris":{"android":"levelo://app?vid=6d3e7fa0-015e-4947-9b27-3d488b74170e","ios":"levelo://app?vid=6d3e7fa0-015e-4947-9b27-3d488b74170e"},"vehicle_type_id":"4","last_reported":1741817355,"current_range_meters":14400,"station_id":"ce4bhg12rcd13ifvqf80","pricing_plan_id":"cebpf4jnsgd1na2vs0mg"},{"bike_id":"47e69b59-ebb6-4704-8786-703b1e4ed927","system_id":"levelo_inurba_marseille","lat":43.24179,"lon":5.39725,"is_reserved":false,"is_disabled":false,"rental_uris":{"android":"levelo://app?vid=47e69b59-ebb6-4704-8786-703b1e4ed927","ios":"levelo://app?vid=47e69b59-ebb6-4704-8786-703b1e4ed927"},"vehicle_type_id":"4","last_reported":1741817355,"current_range_meters":14400,"station_id":"ce4bhn12rcd13ifvqgpg","pricing_plan_id":"cebpf4jnsgd1na2vs0mg"},{"bike_id":"fc3e2299-43e3-44f6-b38f-f445795becb9","system_id":"levelo_inurba_marseille","lat":43.3108,"lon":5.42431,"is_reserved":false,"is_disabled":false,"rental_uris":{"android":"levelo://app?vid=fc3e2299-43e3-44f6-b38f-f445795becb9","ios":"levelo://app?vid=fc3e2299-43e3-44f6-b38f-f445795becb9"},"vehicle_type_id":"4","last_reported":1741817355,"current_range_meters":14400,"station_id":"ce4bhp92rcd13ifvqhag","pricing_plan_id":"cebpf4jnsgd1na2vs0mg"},{"bike_id":"edf00114-4f01-4cef-8cf4-c1aab6c16ae1","system_id":"levelo_inurba_marseille","lat":43.28459,"lon":5.3588,"is_reserved":false,"is_disabled":false,"rental_uris":{"android":"levelo://app?vid=edf00114-4f01-4cef-8cf4-c1aab6c16ae1","ios":"levelo://app?vid=edf00114-4f01-4cef-8cf4-c1aab6c16ae1"},"vehicle_type_id":"4","last_reported":1741817355,"current_range_meters":14400,"station_id":"ce4bhah2rcd13ifvqei0","pricing_plan_id":"cebpf4jnsgd1na2vs0mg"},{"bike_id":"94b30f95-19e8-4b24-809a-d279976d82ea","system_id":"levelo_inurba_marseille","lat":43.31364,"lon":5.39658,"is_reserved":false,"is_disabled":false,"rental_uris":{"android":"levelo://app?vid=94b30f95-19e8-4b24-809a-d279976d82ea","ios":"levelo://app?vid=94b30f95-19e8-4b24-809a-d279976d82ea"},"vehicle_type_id":"4","last_reported":1741817355,"current_range_meters":14800,"station_id":"ce4bgvp2rcd13ifvqcu0","pricing_plan_id":"cebpf4jnsgd1na2vs0mg"},{"bike_id":"671d55cb-191d-47bc-89c2-8691b74c74cc","system_id":"levelo_inurba_marseille","lat":43.2845,"lon":5.36048,"is_reserved":false,"is_disabled":false,"rental_uris":{"android":"levelo://app?vid=671d55cb-191d-47bc-89c2-8691b74c74cc","ios":"levelo://app?vid=671d55cb-191d-47bc-89c2-8691b74c74cc"},"vehicle_type_id":"4","last_reported":1741817355,"current_range_meters":14800,"station_id":"","pricing_plan_id":"cebpf4jnsgd1na2vs0mg"},{"bike_id":"da5bf2f6-a6c6-486d-96d1-89230f98b28d","system_id":"levelo_inurba_marseille","lat":43.31481,"lon":5.37306,"is_reserved":false,"is_disabled":false,"rental_uris":{"android":"levelo://app?vid=da5bf2f6-a6c6-486d-96d1-89230f98b28d","ios":"levelo://app?vid=da5bf2f6-a6c6-486d-96d1-89230f98b28d"},"vehicle_type_id":"4","last_reported":1741817355,"current_range_meters":14800,"station_id":"ce4bgt12rcd13ifvqcd0","pricing_plan_id":"cebpf4jnsgd1na2vs0mg"},{"bike_id":"25f2d06a-d003-4f4f-bf54-3b9ea7555834","system_id":"levelo_inurba_marseille","lat":43.29883,"lon":5.38904,"is_reserved":false,"is_disabled":false,"rental_uris":{"android":"levelo://app?vid=25f2d06a-d003-4f4f-bf54-3b9ea7555834","ios":"levelo://app?vid=25f2d06a-d003-4f4f-bf54-3b9ea7555834"},"vehicle_type_id":"4","last_reported":1741817355,"current_range_meters":14800,"station_id":"ce4bh392rcd13ifvqdl0","pricing_plan_id":"cebpf4jnsgd1na2vs0mg"},{"bike_id":"f550acae-a478-493d-8418-eb4ab17dc323","system_id":"levelo_inurba_marseille","lat":43.25011,"lon":5.38921,"is_reserved":false,"is_disabled":false,"rental_uris":{"android":"levelo://app?vid=f550acae-a478-493d-8418-eb4ab17dc323","ios":"levelo://app?vid=f550acae-a478-493d-8418-eb4ab17dc323"},"vehicle_type_id":"4","last_reported":1741817355,"current_range_meters":14800,"station_id":"ce4bhgp2rcd13ifvqfd0","pricing_plan_id":"cebpf4jnsgd1na2vs0mg"},{"bike_id":"c0d93da8-20a9-43de-ac96-41ac95e88f41","system_id":"levelo_inurba_marseille","lat":43.28664,"lon":5.36351,"is_reserved":false,"is_disabled":false,"rental_uris":{"android":"levelo://app?vid=c0d93da8-20a9-43de-ac96-41ac95e88f41","ios":"levelo://app?vid=c0d93da8-20a9-43de-ac96-41ac95e88f41"},"vehicle_type_id":"4","last_reported":1741817355,"current_range_meters":14800,"station_id":"ce4bhah2rcd13ifvqej0","pricing_plan_id":"cebpf4jnsgd1na2vs0mg"},{"bike_id":"127fed04-fe1d-4143-a0f1-08353951ebd0","system_id":"levelo_inurba_marseille","lat":43.31294,"lon":5.40154,"is_reserved":false,"is_disabled":false,"rental_uris":{"android":"levelo://app?vid=127fed04-fe1d-4143-a0f1-08353951ebd0","ios":"levelo://app?vid=127fed04-fe1d-4143-a0f1-08353951ebd0"},"vehicle_type_id":"4","last_reported":1741817355,"current_range_meters":14800,"station_id":"ce4bh092rcd13ifvqd30","pricing_plan_id":"cebpf4jnsgd1na2vs0mg"},{"bike_id":"81b9cb1e-db42-4d55-9d6b-044a4092416a","system_id":"levelo_inurba_marseille","lat":43.30942,"lon":5.40138,"is_reserved":false,"is_disabled":false,"rental_uris":{"android":"levelo://app?vid=81b9cb1e-db42-4d55-9d6b-044a4092416a","ios":"levelo://app?vid=81b9cb1e-db42-4d55-9d6b-044a4092416a"},"vehicle_type_id":"4","last_reported":1741817355,"current_range_meters":15200,"station_id":"ce4bgvp2rcd13ifvqct0","pricing_plan_id":"cebpf4jnsgd1na2vs0mg"},{"bike_id":"95583956-9373-403e-a9b7-af095ab52947","system_id":"levelo_inurba_marseille","lat":43.30933,"lon":5.40149,"is_reserved":false,"is_disabled":false,"rental_uris":{"android":"levelo://app?vid=95583956-9373-403e-a9b7-af095ab52947","ios":"levelo://app?vid=95583956-9373-403e-a9b7-af095ab52947"},"vehicle_type_id":"4","last_reported":1741817355,"current_range_meters":15200,"station_id":"ce4bgvp2rcd13ifvqct0","pricing_plan_id":"cebpf4jnsgd1na2vs0mg"},{"bike_id":"a823fe98-0845-44f0-af70-a3e75e70ed04","system_id":"levelo_inurba_marseille","lat":43.25009,"lon":5.38914,"is_reserved":false,"is_disabled":false,"rental_uris":{"android":"levelo://app?vid=a823fe98-0845-44f0-af70-a3e75e70ed04","ios":"levelo://app?vid=a823fe98-0845-44f0-af70-a3e75e70ed04"},"vehicle_type_id":"4","last_reported":1741817355,"current_range_meters":15200,"station_id":"ce4bhgp2rcd13ifvqfd0","pricing_plan_id":"cebpf4jnsgd1na2vs0mg"},{"bike_id":"acbbf5a5-ee54-4b5b-ad3f-2fdd7f2f6f4f","system_id":"levelo_inurba_marseille","lat":43.30749,"lon":5.37671,"is_reserved":false,"is_disabled":false,"rental_uris":{"android":"levelo://app?vid=acbbf5a5-ee54-4b5b-ad3f-2fdd7f2f6f4f","ios":"levelo://app?vid=acbbf5a5-ee54-4b5b-ad3f-2fdd7f2f6f4f"},"vehicle_type_id":"4","last_reported":1741817355,"current_range_meters":15200,"station_id":"","pricing_plan_id":"cebpf4jnsgd1na2vs0mg"},{"bike_id":"e5a88207-5482-4ac3-942e-0894a9c16d43","system_id":"levelo_inurba_marseille","lat":43.28423,"lon":5.39199,"is_reserved":false,"is_disabled":false,"rental_uris":{"android":"levelo://app?vid=e5a88207-5482-4ac3-942e-0894a9c16d43","ios":"levelo://app?vid=e5a88207-5482-4ac3-942e-0894a9c16d43"},"vehicle_type_id":"4","last_reported":1741817355,"current_range_meters":15200,"station_id":"ce4bhoh2rcd13ifvqh5g","pricing_plan_id":"cebpf4jnsgd1na2vs0mg"},{"bike_id":"0807fab1-82bf-4bf0-bf30-2487c43c2d85","system_id":"levelo_inurba_marseille","lat":43.29224,"lon":5.39319,"is_reserved":false,"is_disabled":false,"rental_uris":{"android":"levelo://app?vid=0807fab1-82bf-4bf0-bf30-2487c43c2d85","ios":"levelo://app?vid=0807fab1-82bf-4bf0-bf30-2487c43c2d85"},"vehicle_type_id":"4","last_reported":1741817355,"current_range_meters":15200,"station_id":"ce4bh192rcd13ifvqdd0","pricing_plan_id":"cebpf4jnsgd1na2vs0mg"},{"bike_id":"d55e0a9b-5b55-4193-8f33-f2e5b61857d6","system_id":"levelo_inurba_marseille","lat":43.28714,"lon":5.39984,"is_reserved":false,"is_disabled":false,"rental_uris":{"android":"levelo://app?vid=d55e0a9b-5b55-4193-8f33-f2e5b61857d6","ios":"levelo://app?vid=d55e0a9b-5b55-4193-8f33-f2e5b61857d6"},"vehicle_type_id":"4","last_reported":1741817355,"current_range_meters":15200,"station_id":"ce4bho92rcd13ifvqh3g","pricing_plan_id":"cebpf4jnsgd1na2vs0mg"},{"bike_id":"ca920681-127f-486b-b464-cdcd08357746","system_id":"levelo_inurba_marseille","lat":43.284178,"lon":5.375329,"is_reserved":false,"is_disabled":false,"rental_uris":{"android":"levelo://app?vid=ca920681-127f-486b-b464-cdcd08357746","ios":"levelo://app?vid=ca920681-127f-486b-b464-cdcd08357746"},"vehicle_type_id":"4","last_reported":1741817355,"current_range_meters":15200,"station_id":"ce4bh412rcd13ifvqds0","pricing_plan_id":"cebpf4jnsgd1na2vs0mg"},{"bike_id":"6d3b21af-e6ed-4744-8f69-608405b1a7d1","system_id":"levelo_inurba_marseille","lat":43.30896,"lon":5.39646,"is_reserved":false,"is_disabled":false,"rental_uris":{"android":"levelo://app?vid=6d3b21af-e6ed-4744-8f69-608405b1a7d1","ios":"levelo://app?vid=6d3b21af-e6ed-4744-8f69-608405b1a7d1"},"vehicle_type_id":"4","last_reported":1741817355,"current_range_meters":15200,"station_id":"ce4bh012rcd13ifvqcv0","pricing_plan_id":"cebpf4jnsgd1na2vs0mg"},{"bike_id":"3a0406cd-c8ef-42ef-b405-bb4a8bd64c09","system_id":"levelo_inurba_marseille","lat":43.30893,"lon":5.39636,"is_reserved":false,"is_disabled":false,"rental_uris":{"android":"levelo://app?vid=3a0406cd-c8ef-42ef-b405-bb4a8bd64c09","ios":"levelo://app?vid=3a0406cd-c8ef-42ef-b405-bb4a8bd64c09"},"vehicle_type_id":"4","last_reported":1741817355,"current_range_meters":15200,"station_id":"ce4bh012rcd13ifvqcv0","pricing_plan_id":"cebpf4jnsgd1na2vs0mg"},{"bike_id":"4c388885-9691-4385-9d41-52732298bfb4","system_id":"levelo_inurba_marseille","lat":43.29455,"lon":5.38609,"is_reserved":false,"is_disabled":false,"rental_uris":{"android":"levelo://app?vid=4c388885-9691-4385-9d41-52732298bfb4","ios":"levelo://app?vid=4c388885-9691-4385-9d41-52732298bfb4"},"vehicle_type_id":"4","last_reported":1741817355,"current_range_meters":16000,"station_id":"ce4bh2h2rcd13ifvqdh0","pricing_plan_id":"cebpf4jnsgd1na2vs0mg"},{"bike_id":"d0ab2a3e-a999-4385-92b9-ee36f2d9e18c","system_id":"levelo_inurba_marseille","lat":43.28857,"lon":5.35831,"is_reserved":false,"is_disabled":false,"rental_uris":{"android":"levelo://app?vid=d0ab2a3e-a999-4385-92b9-ee36f2d9e18c","ios":"levelo://app?vid=d0ab2a3e-a999-4385-92b9-ee36f2d9e18c"},"vehicle_type_id":"4","last_reported":1741817355,"current_range_meters":16000,"station_id":"ce4bhb12rcd13ifvqem0","pricing_plan_id":"cebpf4jnsgd1na2vs0mg"},{"bike_id":"78cf740e-7bb4-4bff-a0fb-c6292c88d924","system_id":"levelo_inurba_marseille","lat":43.27915,"lon":5.39577,"is_reserved":false,"is_disabled":false,"rental_uris":{"android":"levelo://app?vid=78cf740e-7bb4-4bff-a0fb-c6292c88d924","ios":"levelo://app?vid=78cf740e-7bb4-4bff-a0fb-c6292c88d924"},"vehicle_type_id":"4","last_reported":1741817355,"current_range_meters":16000,"station_id":"ce4bhf92rcd13ifvqf40","pricing_plan_id":"cebpf4jnsgd1na2vs0mg"},{"bike_id":"588d101e-9f1e-4743-bfb3-1be6dffe89b7","system_id":"levelo_inurba_marseille","lat":43.28681,"lon":5.37396,"is_reserved":false,"is_disabled":false,"rental_uris":{"android":"levelo://app?vid=588d101e-9f1e-4743-bfb3-1be6dffe89b7","ios":"levelo://app?vid=588d101e-9f1e-4743-bfb3-1be6dffe89b7"},"vehicle_type_id":"4","last_reported":1741817355,"current_range_meters":16000,"station_id":"ce4bh3p2rcd13ifvqdq0","pricing_plan_id":"cebpf4jnsgd1na2vs0mg"},{"bike_id":"ecefee2d-0daa-4cc3-9d63-61a078601cfd","system_id":"levelo_inurba_marseille","lat":43.2868,"lon":5.37376,"is_reserved":false,"is_disabled":true,"rental_uris":{"android":"levelo://app?vid=ecefee2d-0daa-4cc3-9d63-61a078601cfd","ios":"levelo://app?vid=ecefee2d-0daa-4cc3-9d63-61a078601cfd"},"vehicle_type_id":"4","last_reported":1741817355,"current_range_meters":16000,"station_id":"ce4bh3p2rcd13ifvqdq0","pricing_plan_id":"cebpf4jnsgd1na2vs0mg"},{"bike_id":"e403288d-b468-4ea8-b33d-644efb4c82c2","system_id":"levelo_inurba_marseille","lat":43.27785,"lon":5.40738,"is_reserved":false,"is_disabled":false,"rental_uris":{"android":"levelo://app?vid=e403288d-b468-4ea8-b33d-644efb4c82c2","ios":"levelo://app?vid=e403288d-b468-4ea8-b33d-644efb4c82c2"},"vehicle_type_id":"4","last_reported":1741817355,"current_range_meters":16000,"station_id":"ce4bhnh2rcd13ifvqgtg","pricing_plan_id":"cebpf4jnsgd1na2vs0mg"},{"bike_id":"70a53264-8bbe-452e-8c7e-ee5964d8270a","system_id":"levelo_inurba_marseille","lat":43.24079,"lon":5.37754,"is_reserved":false,"is_disabled":false,"rental_uris":{"android":"levelo://app?vid=70a53264-8bbe-452e-8c7e-ee5964d8270a","ios":"levelo://app?vid=70a53264-8bbe-452e-8c7e-ee5964d8270a"},"vehicle_type_id":"4","last_reported":1741817355,"current_range_meters":16000,"station_id":"ce4bhnp2rcd13ifvqgvg","pricing_plan_id":"cebpf4jnsgd1na2vs0mg"},{"bike_id":"9c067a7a-ca47-4ba3-982e-e3c13c2eb137","system_id":"levelo_inurba_marseille","lat":43.28074,"lon":5.39658,"is_reserved":false,"is_disabled":false,"rental_uris":{"android":"levelo://app?vid=9c067a7a-ca47-4ba3-982e-e3c13c2eb137","ios":"levelo://app?vid=9c067a7a-ca47-4ba3-982e-e3c13c2eb137"},"vehicle_type_id":"4","last_reported":1741817355,"current_range_meters":16000,"station_id":"ce4bho12rcd13ifvqh2g","pricing_plan_id":"cebpf4jnsgd1na2vs0mg"},{"bike_id":"8d93327b-4c27-4905-8185-af00d21521bf","system_id":"levelo_inurba_marseille","lat":43.28406,"lon":5.37514,"is_reserved":false,"is_disabled":false,"rental_uris":{"android":"levelo://app?vid=8d93327b-4c27-4905-8185-af00d21521bf","ios":"levelo://app?vid=8d93327b-4c27-4905-8185-af00d21521bf"},"vehicle_type_id":"4","last_reported":1741817355,"current_range_meters":16000,"station_id":"ce4bh412rcd13ifvqds0","pricing_plan_id":"cebpf4jnsgd1na2vs0mg"},{"bike_id":"8cbb226b-80bd-49a7-9b10-1ab5be908c3c","system_id":"levelo_inurba_marseille","lat":43.29529,"lon":5.385363,"is_reserved":false,"is_disabled":false,"rental_uris":{"android":"levelo://app?vid=8cbb226b-80bd-49a7-9b10-1ab5be908c3c","ios":"levelo://app?vid=8cbb226b-80bd-49a7-9b10-1ab5be908c3c"},"vehicle_type_id":"4","last_reported":1741817355,"current_range_meters":16000,"station_id":"ce4bgih2rcd13ifvqba0","pricing_plan_id":"cebpf4jnsgd1na2vs0mg"},{"bike_id":"478c6b7e-c9f5-4336-b301-c63c8b41ef49","system_id":"levelo_inurba_marseille","lat":43.31159,"lon":5.40224,"is_reserved":false,"is_disabled":false,"rental_uris":{"android":"levelo://app?vid=478c6b7e-c9f5-4336-b301-c63c8b41ef49","ios":"levelo://app?vid=478c6b7e-c9f5-4336-b301-c63c8b41ef49"},"vehicle_type_id":"4","last_reported":1741817355,"current_range_meters":16000,"station_id":"","pricing_plan_id":"cebpf4jnsgd1na2vs0mg"},{"bike_id":"58189b20-7c9f-49f4-bc87-1c5a2e968cde","system_id":"levelo_inurba_marseille","lat":43.26822,"lon":5.41116,"is_reserved":false,"is_disabled":false,"rental_uris":{"android":"levelo://app?vid=58189b20-7c9f-49f4-bc87-1c5a2e968cde","ios":"levelo://app?vid=58189b20-7c9f-49f4-bc87-1c5a2e968cde"},"vehicle_type_id":"4","last_reported":1741817355,"current_range_meters":16000,"station_id":"","pricing_plan_id":"cebpf4jnsgd1na2vs0mg"},{"bike_id":"927285e7-0e22-4c5b-9f53-d6fa1d997eea","system_id":"levelo_inurba_marseille","lat":43.25109,"lon":5.40362,"is_reserved":false,"is_disabled":false,"rental_uris":{"android":"levelo://app?vid=927285e7-0e22-4c5b-9f53-d6fa1d997eea","ios":"levelo://app?vid=927285e7-0e22-4c5b-9f53-d6fa1d997eea"},"vehicle_type_id":"4","last_reported":1741817355,"current_range_meters":16000,"station_id":"ce4bhlh2rcd13ifvqgig","pricing_plan_id":"cebpf4jnsgd1na2vs0mg"},{"bike_id":"82d7dd21-1379-4657-9d9a-8c2681e2f3c3","system_id":"levelo_inurba_marseille","lat":43.29933,"lon":5.36562,"is_reserved":false,"is_disabled":false,"rental_uris":{"android":"levelo://app?vid=82d7dd21-1379-4657-9d9a-8c2681e2f3c3","ios":"levelo://app?vid=82d7dd21-1379-4657-9d9a-8c2681e2f3c3"},"vehicle_type_id":"4","last_reported":1741817355,"current_range_meters":16000,"station_id":"ce4bgm92rcd13ifvqbr0","pricing_plan_id":"cebpf4jnsgd1na2vs0mg"},{"bike_id":"2ceee151-07bf-4d36-80b7-294af7caa2e2","system_id":"levelo_inurba_marseille","lat":43.28358,"lon":5.38631,"is_reserved":false,"is_disabled":true,"rental_uris":{"android":"levelo://app?vid=2ceee151-07bf-4d36-80b7-294af7caa2e2","ios":"levelo://app?vid=2ceee151-07bf-4d36-80b7-294af7caa2e2"},"vehicle_type_id":"4","last_reported":1741817355,"current_range_meters":16400,"station_id":"ce4bh492rcd13ifvqdvg","pricing_plan_id":"cebpf4jnsgd1na2vs0mg"},{"bike_id":"3261339d-2e07-49f9-93a0-a5653b9a3582","system_id":"levelo_inurba_marseille","lat":43.30315,"lon":5.36892,"is_reserved":false,"is_disabled":false,"rental_uris":{"android":"levelo://app?vid=3261339d-2e07-49f9-93a0-a5653b9a3582","ios":"levelo://app?vid=3261339d-2e07-49f9-93a0-a5653b9a3582"},"vehicle_type_id":"4","last_reported":1741817355,"current_range_meters":16400,"station_id":"ce4bgqh2rcd13ifvqc5g","pricing_plan_id":"cebpf4jnsgd1na2vs0mg"},{"bike_id":"a66124cb-566a-4d33-93d8-1c0403fb5851","system_id":"levelo_inurba_marseille","lat":43.32727,"lon":5.39246,"is_reserved":false,"is_disabled":false,"rental_uris":{"android":"levelo://app?vid=a66124cb-566a-4d33-93d8-1c0403fb5851","ios":"levelo://app?vid=a66124cb-566a-4d33-93d8-1c0403fb5851"},"vehicle_type_id":"4","last_reported":1741817355,"current_range_meters":16400,"station_id":"","pricing_plan_id":"cebpf4jnsgd1na2vs0mg"},{"bike_id":"7e266a52-c107-42c0-9b42-44d2b54fa50b","system_id":"levelo_inurba_marseille","lat":43.254922,"lon":5.376476,"is_reserved":false,"is_disabled":true,"rental_uris":{"android":"levelo://app?vid=7e266a52-c107-42c0-9b42-44d2b54fa50b","ios":"levelo://app?vid=7e266a52-c107-42c0-9b42-44d2b54fa50b"},"vehicle_type_id":"4","last_reported":1741817355,"current_range_meters":16400,"station_id":"ce4bhh12rcd13ifvqff0","pricing_plan_id":"cebpf4jnsgd1na2vs0mg"},{"bike_id":"ad84dcdb-ca91-4fae-8613-31faa66d14ad","system_id":"levelo_inurba_marseille","lat":43.30309,"lon":5.40448,"is_reserved":false,"is_disabled":false,"rental_uris":{"android":"levelo://app?vid=ad84dcdb-ca91-4fae-8613-31faa66d14ad","ios":"levelo://app?vid=ad84dcdb-ca91-4fae-8613-31faa66d14ad"},"vehicle_type_id":"4","last_reported":1741817355,"current_range_meters":16400,"station_id":"ce4bh012rcd13ifvqd10","pricing_plan_id":"cebpf4jnsgd1na2vs0mg"},{"bike_id":"46f57872-eb49-4260-a97a-1df293c4fba1","system_id":"levelo_inurba_marseille","lat":43.302091,"lon":5.394605,"is_reserved":false,"is_disabled":false,"rental_uris":{"android":"levelo://app?vid=46f57872-eb49-4260-a97a-1df293c4fba1","ios":"levelo://app?vid=46f57872-eb49-4260-a97a-1df293c4fba1"},"vehicle_type_id":"4","last_reported":1741817355,"current_range_meters":16400,"station_id":"ce4bh0p2rcd13ifvqd70","pricing_plan_id":"cebpf4jnsgd1na2vs0mg"},{"bike_id":"6d41e3df-d59c-4c8f-855b-2c1aab2ac389","system_id":"levelo_inurba_marseille","lat":43.29272,"lon":5.40114,"is_reserved":false,"is_disabled":false,"rental_uris":{"android":"levelo://app?vid=6d41e3df-d59c-4c8f-855b-2c1aab2ac389","ios":"levelo://app?vid=6d41e3df-d59c-4c8f-855b-2c1aab2ac389"},"vehicle_type_id":"4","last_reported":1741817355,"current_range_meters":16400,"station_id":"ce4bh312rcd13ifvqdk0","pricing_plan_id":"cebpf4jnsgd1na2vs0mg"},{"bike_id":"8b5f0b70-6225-47a1-bf52-0ca86853a820","system_id":"levelo_inurba_marseille","lat":43.29937,"lon":5.36555,"is_reserved":false,"is_disabled":false,"rental_uris":{"android":"levelo://app?vid=8b5f0b70-6225-47a1-bf52-0ca86853a820","ios":"levelo://app?vid=8b5f0b70-6225-47a1-bf52-0ca86853a820"},"vehicle_type_id":"4","last_reported":1741817355,"current_range_meters":16400,"station_id":"ce4bgm92rcd13ifvqbr0","pricing_plan_id":"cebpf4jnsgd1na2vs0mg"},{"bike_id":"988612f3-1fbe-4a8c-834c-105ffc1b0235","system_id":"levelo_inurba_marseille","lat":43.32656,"lon":5.40994,"is_reserved":false,"is_disabled":false,"rental_uris":{"android":"levelo://app?vid=988612f3-1fbe-4a8c-834c-105ffc1b0235","ios":"levelo://app?vid=988612f3-1fbe-4a8c-834c-105ffc1b0235"},"vehicle_type_id":"4","last_reported":1741817355,"current_range_meters":16400,"station_id":"ce4bhpp2rcd13ifvqhgg","pricing_plan_id":"cebpf4jnsgd1na2vs0mg"},{"bike_id":"f3291a48-4171-4dd1-b341-037b6e6f6b32","system_id":"levelo_inurba_marseille","lat":43.28335,"lon":5.38105,"is_reserved":false,"is_disabled":true,"rental_uris":{"android":"levelo://app?vid=f3291a48-4171-4dd1-b341-037b6e6f6b32","ios":"levelo://app?vid=f3291a48-4171-4dd1-b341-037b6e6f6b32"},"vehicle_type_id":"4","last_reported":1741817355,"current_range_meters":16400,"station_id":"ce4bh412rcd13ifvqdr0","pricing_plan_id":"cebpf4jnsgd1na2vs0mg"},{"bike_id":"7298c7d1-3ce4-4a57-8b77-77e90d1d8f0b","system_id":"levelo_inurba_marseille","lat":43.29265,"lon":5.37628,"is_reserved":false,"is_disabled":false,"rental_uris":{"android":"levelo://app?vid=7298c7d1-3ce4-4a57-8b77-77e90d1d8f0b","ios":"levelo://app?vid=7298c7d1-3ce4-4a57-8b77-77e90d1d8f0b"},"vehicle_type_id":"4","last_reported":1741817355,"current_range_meters":16400,"station_id":"ce4bgi12rcd13ifvqb80","pricing_plan_id":"cebpf4jnsgd1na2vs0mg"},{"bike_id":"1144b701-514d-4936-837f-5b6a1f20d793","system_id":"levelo_inurba_marseille","lat":43.30786,"lon":5.38158,"is_reserved":false,"is_disabled":false,"rental_uris":{"android":"levelo://app?vid=1144b701-514d-4936-837f-5b6a1f20d793","ios":"levelo://app?vid=1144b701-514d-4936-837f-5b6a1f20d793"},"vehicle_type_id":"4","last_reported":1741817355,"current_range_meters":16400,"station_id":"ce4bgt12rcd13ifvqce0","pricing_plan_id":"cebpf4jnsgd1na2vs0mg"},{"bike_id":"3a254f63-8711-4d27-a9ac-39bd66820438","system_id":"levelo_inurba_marseille","lat":43.30934,"lon":5.40153,"is_reserved":false,"is_disabled":false,"rental_uris":{"android":"levelo://app?vid=3a254f63-8711-4d27-a9ac-39bd66820438","ios":"levelo://app?vid=3a254f63-8711-4d27-a9ac-39bd66820438"},"vehicle_type_id":"4","last_reported":1741817355,"current_range_meters":16400,"station_id":"ce4bgvp2rcd13ifvqct0","pricing_plan_id":"cebpf4jnsgd1na2vs0mg"},{"bike_id":"f27df232-bb49-4bc3-83b2-9956074d1efb","system_id":"levelo_inurba_marseille","lat":43.31076,"lon":5.38351,"is_reserved":false,"is_disabled":false,"rental_uris":{"android":"levelo://app?vid=f27df232-bb49-4bc3-83b2-9956074d1efb","ios":"levelo://app?vid=f27df232-bb49-4bc3-83b2-9956074d1efb"},"vehicle_type_id":"4","last_reported":1741817355,"current_range_meters":16400,"station_id":"ce4bgv92rcd13ifvqcr0","pricing_plan_id":"cebpf4jnsgd1na2vs0mg"},{"bike_id":"9ed23d75-e565-4d85-bd51-775a148a9246","system_id":"levelo_inurba_marseille","lat":43.24681,"lon":5.38138,"is_reserved":false,"is_disabled":false,"rental_uris":{"android":"levelo://app?vid=9ed23d75-e565-4d85-bd51-775a148a9246","ios":"levelo://app?vid=9ed23d75-e565-4d85-bd51-775a148a9246"},"vehicle_type_id":"4","last_reported":1741817355,"current_range_meters":16400,"station_id":"ce4bhih2rcd13ifvqfr0","pricing_plan_id":"cebpf4jnsgd1na2vs0mg"},