{"last_updated":1766070756,"ttl":60,"version":"2.2","data":{"bikes":[{"bike_id":"52a54e30-98ea-4cde-b62d-e76ff0fd87ba","system_id":"levelo_inurba_marseille","lat":43.27489,"lon":5.42446,"is_reserved":false,"is_disabled":true,"rental_uris":{"android":"levelo://app?vid=52a54e30-98ea-4cde-b62d-e76ff0fd87ba","ios":"levelo://app?vid=52a54e30-98ea-4cde-b62d-e76ff0fd87ba"},"vehicle_type_id":"4","last_reported":1766070757,"current_range_meters":2800,"station_id":"ce4bhn92rcd13ifvqgrg","pricing_plan_id":"cebpf4jnsgd1na2vs0mg"},{"bike_id":"2e95b54b-b23d-42ec-8292-60e1c749d49a","system_id":"levelo_inurba_marseille","lat":43.30033,"lon":5.40116,"is_reserved":false,"is_disabled":false,"rental_uris":{"android":"levelo://app?vid=2e95b54b-b23d-42ec-8292-60e1c749d49a","ios":"levelo://app?vid=2e95b54b-b23d-42ec-8292-60e1c749d49a"},"vehicle_type_id":"4","last_reported":1766070757,"current_range_meters":2800,"station_id":"","pricing_plan_id":"cebpf4jnsgd1na2vs0mg"},{"bike_id":"b837e29c-a49d-4037-8ffb-c58ec3701d59","system_id":"levelo_inurba_marseille","lat":43.31188,"lon":5.45383,"is_reserved":false,"is_disabled":false,"rental_uris":{"android":"levelo://app?vid=b837e29c-a49d-4037-8ffb-c58ec3701d59","ios":"levelo://app?vid=b837e29c-a49d-4037-8ffb-c58ec3701d59"},"vehicle_type_id":"4","last_reported":1766070757,"current_range_meters":2800,"station_id":"","pricing_plan_id":"cebpf4jnsgd1na2vs0mg"},{"bike_id":"1bd40e53-4601-4920-9b5f-b8857405cc90","system_id":"levelo_inurba_marseille","lat":43.23953,"lon":5.36632,"is_reserved":false,"is_disabled":false,"rental_uris":{"android":"levelo://app?vid=1bd40e53-4601-4920-9b5f-b8857405cc90","ios":"levelo://app?vid=1bd40e53-4601-4920-9b5f-b8857405cc90"},"vehicle_type_id":"4","last_reported":1766070757,"current_range_meters":2800,"station_id":"ce4bhi12rcd13ifvqfp0","pricing_plan_id":"cebpf4jnsgd1na2vs0mg"},{"bike_id":"dc1c66a1-ec6a-4a97-84f0-949967d8e557","system_id":"levelo_inurba_marseille","lat":43.31009,"lon":5.3936,"is_reserved":false,"is_disabled":false,"rental_uris":{"android":"levelo://app?vid=dc1c66a1-ec6a-4a97-84f0-949967d8e557","ios":"levelo://app?vid=dc1c66a1-ec6a-4a97-84f0-949967d8e557"},"vehicle_type_id":"4","last_reported":1766070757,"current_range_meters":2800,"station_id":"","pricing_plan_id":"cebpf4jnsgd1na2vs0mg"},{"bike_id":"c155fd05-40c9-4011-9265-fba55a04b677","system_id":"levelo_inurba_marseille","lat":43.2639,"lon":5.41086,"is_reserved":false,"is_disabled":false,"rental_uris":{"android":"levelo://app?vid=c155fd05-40c9-4011-9265-fba55a04b677","ios":"levelo://app?vid=c155fd05-40c9-4011-9265-fba55a04b677"},"vehicle_type_id":"4","last_reported":1766070757,"current_range_meters":2800,"station_id":"st_d4e5ca6na9uc73bfl5fg","pricing_plan_id":"cebpf4jnsgd1na2vs0mg"},{"bike_id":"39cae8c7-f4e6-4861-9fba-d75fb47493ce","system_id":"levelo_inurba_marseille","lat":43.239684,"lon":5.366233,"is_reserved":false,"is_disabled":false,"rental_uris":{"android":"levelo://app?vid=39cae8c7-f4e6-4861-9fba-d75fb47493ce","ios":"levelo://app?vid=39cae8c7-f4e6-4861-9fba-d75fb47493ce"},"vehicle_type_id":"4","last_reported":1766070757,"current_range_meters":2800,"station_id":"ce4bhi12rcd13ifvqfp0","pricing_plan_id":"cebpf4jnsgd1na2vs0mg"},{"bike_id":"3dde39a6-9631-4ad9-91c8-8bf86a414415","system_id":"levelo_inurba_marseille","lat":43.2996,"lon":5.37194,"is_reserved":false,"is_disabled":false,"rental_uris":{"android":"levelo://app?vid=3dde39a6-9631-4ad9-91c8-8bf86a414415","ios":"levelo://app?vid=3dde39a6-9631-4ad9-91c8-8bf86a414415"},"vehicle_type_id":"4","last_reported":1766070757,"current_range_meters":3200,"station_id":"ce4bgr92rcd13ifvqc7g","pricing_plan_id":"cebpf4jnsgd1na2vs0mg"},{"bike_id":"bd448f3f-de5e-49bd-b8a0-14472dcc752a","system_id":"levelo_inurba_marseille","lat":43.303,"lon":5.377234,"is_reserved":false,"is_disabled":false,"rental_uris":{"android":"levelo://app?vid=bd448f3f-de5e-49bd-b8a0-14472dcc752a","ios":"levelo://app?vid=bd448f3f-de5e-49bd-b8a0-14472dcc752a"},"vehicle_type_id":"4","last_reported":1766070757,"current_range_meters":3200,"station_id":"ce4bguh2rcd13ifvqcj0","pricing_plan_id":"cebpf4jnsgd1na2vs0mg"},{"bike_id":"e354606f-b700-47ba-9bd2-eef7af425cb1","system_id":"levelo_inurba_marseille","lat":43.29006,"lon":5.35586,"is_reserved":false,"is_disabled":false,"rental_uris":{"android":"levelo://app?vid=e354606f-b700-47ba-9bd2-eef7af425cb1","ios":"levelo://app?vid=e354606f-b700-47ba-9bd2-eef7af425cb1"},"vehicle_type_id":"4","last_reported":1766070757,"current_range_meters":3200,"station_id":"ce4bhb92rcd13ifvqen0","pricing_plan_id":"cebpf4jnsgd1na2vs0mg"},{"bike_id":"2e08df65-c35b-4794-afe4-fbc75c417b79","system_id":"levelo_inurba_marseille","lat":43.23201,"lon":5.35556,"is_reserved":false,"is_disabled":false,"rental_uris":{"android":"levelo://app?vid=2e08df65-c35b-4794-afe4-fbc75c417b79","ios":"levelo://app?vid=2e08df65-c35b-4794-afe4-fbc75c417b79"},"vehicle_type_id":"4","last_reported":1766070757,"current_range_meters":3200,"station_id":"ce4bhu92rcd13ifvqi70","pricing_plan_id":"cebpf4jnsgd1na2vs0mg"},{"bike_id":"3cdc646b-297f-4e0b-8dad-0bcb28503fb7","system_id":"levelo_inurba_marseille","lat":43.29279,"lon":5.36845,"is_reserved":false,"is_disabled":false,"rental_uris":{"android":"levelo://app?vid=3cdc646b-297f-4e0b-8dad-0bcb28503fb7","ios":"levelo://app?vid=3cdc646b-297f-4e0b-8dad-0bcb28503fb7"},"vehicle_type_id":"4","last_reported":1766070757,"current_range_meters":3600,"station_id":"ce4bhbp2rcd13ifvqesg","pricing_plan_id":"cebpf4jnsgd1na2vs0mg"},{"bike_id":"7f431ae6-2f3f-4d5b-9bd2-7a74ee500c2a","system_id":"levelo_inurba_marseille","lat":43.27371,"lon":5.36257,"is_reserved":false,"is_disabled":false,"rental_uris":{"android":"levelo://app?vid=7f431ae6-2f3f-4d5b-9bd2-7a74ee500c2a","ios":"levelo://app?vid=7f431ae6-2f3f-4d5b-9bd2-7a74ee500c2a"},"vehicle_type_id":"4","last_reported":1766070757,"current_range_meters":3600,"station_id":"ce4bhbh2rcd13ifvqeo0","pricing_plan_id":"cebpf4jnsgd1na2vs0mg"},{"bike_id":"339d251b-5332-4901-aae2-eda8f9aa1d79","system_id":"levelo_inurba_marseille","lat":43.27085,"lon":5.42278,"is_reserved":false,"is_disabled":true,"rental_uris":{"android":"levelo://app?vid=339d251b-5332-4901-aae2-eda8f9aa1d79","ios":"levelo://app?vid=339d251b-5332-4901-aae2-eda8f9aa1d79"},"vehicle_type_id":"4","last_reported":1766070757,"current_range_meters":3600,"station_id":"ce4bhk92rcd13ifvqgb0","pricing_plan_id":"cebpf4jnsgd1na2vs0mg"},{"bike_id":"99da6bd4-e5cb-48de-97be-33bf72d397ce","system_id":"levelo_inurba_marseille","lat":43.265,"lon":5.39539,"is_reserved":false,"is_disabled":false,"rental_uris":{"android":"levelo://app?vid=99da6bd4-e5cb-48de-97be-33bf72d397ce","ios":"levelo://app?vid=99da6bd4-e5cb-48de-97be-33bf72d397ce"},"vehicle_type_id":"4","last_reported":1766070757,"current_range_meters":3600,"station_id":"ce4bhi12rcd13ifvqfq0","pricing_plan_id":"cebpf4jnsgd1na2vs0mg"},{"bike_id":"87718070-4599-4cec-94f5-ce78e4391d21","system_id":"levelo_inurba_marseille","lat":43.29717,"lon":5.36616,"is_reserved":false,"is_disabled":false,"rental_uris":{"android":"levelo://app?vid=87718070-4599-4cec-94f5-ce78e4391d21","ios":"levelo://app?vid=87718070-4599-4cec-94f5-ce78e4391d21"},"vehicle_type_id":"4","last_reported":1766070757,"current_range_meters":3600,"station_id":"ce4bgn12rcd13ifvqbt0","pricing_plan_id":"cebpf4jnsgd1na2vs0mg"},{"bike_id":"075753f2-03fc-482d-992a-1a659c9f27f8","system_id":"levelo_inurba_marseille","lat":43.28218,"lon":5.34909,"is_reserved":false,"is_disabled":false,"rental_uris":{"android":"levelo://app?vid=075753f2-03fc-482d-992a-1a659c9f27f8","ios":"levelo://app?vid=075753f2-03fc-482d-992a-1a659c9f27f8"},"vehicle_type_id":"4","last_reported":1766070757,"current_range_meters":4000,"station_id":"","pricing_plan_id":"cebpf4jnsgd1na2vs0mg"},{"bike_id":"04cf1524-9dd3-41a4-9ba2-6005961bab4a","system_id":"levelo_inurba_marseille","lat":43.28431,"lon":5.38347,"is_reserved":false,"is_disabled":false,"rental_uris":{"android":"levelo://app?vid=04cf1524-9dd3-41a4-9ba2-6005961bab4a","ios":"levelo://app?vid=04cf1524-9dd3-41a4-9ba2-6005961bab4a"},"vehicle_type_id":"4","last_reported":1766070757,"current_range_meters":4000,"station_id":"","pricing_plan_id":"cebpf4jnsgd1na2vs0mg"},{"bike_id":"841d168f-3890-4dd8-a60a-0852ae3fc4a1","system_id":"levelo_inurba_marseille","lat":43.30275,"lon":5.37254,"is_reserved":false,"is_disabled":false,"rental_uris":{"android":"levelo://app?vid=841d168f-3890-4dd8-a60a-0852ae3fc4a1","ios":"levelo://app?vid=841d168f-3890-4dd8-a60a-0852ae3fc4a1"},"vehicle_type_id":"4","last_reported":1766070757,"current_range_meters":4000,"station_id":"","pricing_plan_id":"cebpf4jnsgd1na2vs0mg"},{"bike_id":"43797619-998d-402c-89e0-0dd9255e364b","system_id":"levelo_inurba_marseille","lat":43.27964,"lon":5.38713,"is_reserved":false,"is_disabled":false,"rental_uris":{"android":"levelo://app?vid=43797619-998d-402c-89e0-0dd9255e364b","ios":"levelo://app?vid=43797619-998d-402c-89e0-0dd9255e364b"},"vehicle_type_id":"4","last_reported":1766070757,"current_range_meters":4000,"station_id":"ce4bhg12rcd13ifvqf80","pricing_plan_id":"cebpf4jnsgd1na2vs0mg"},{"bike_id":"d5c6fa74-6555-4e9a-b747-1273f1992163","system_id":"levelo_inurba_marseille","lat":43.3018,"lon":5.36313,"is_reserved":false,"is_disabled":false,"rental_uris":{"android":"levelo://app?vid=d5c6fa74-6555-4e9a-b747-1273f1992163","ios":"levelo://app?vid=d5c6fa74-6555-4e9a-b747-1273f1992163"},"vehicle_type_id":"4","last_reported":1766070757,"current_range_meters":4000,"station_id":"","pricing_plan_id":"cebpf4jnsgd1na2vs0mg"},{"bike_id":"d8a7fef2-72f4-4296-a870-17ff5ebeb160","system_id":"levelo_inurba_marseille","lat":43.292801,"lon":5.401155,"is_reserved":false,"is_disabled":false,"rental_uris":{"android":"levelo://app?vid=d8a7fef2-72f4-4296-a870-17ff5ebeb160","ios":"levelo://app?vid=d8a7fef2-72f4-4296-a870-17ff5ebeb160"},"vehicle_type_id":"4","last_reported":1766070757,"current_range_meters":4400,"station_id":"","pricing_plan_id":"cebpf4jnsgd1na2vs0mg"},{"bike_id":"846ba82f-b80b-4118-ba94-f1f7e836af7f","system_id":"levelo_inurba_marseille","lat":43.33757,"lon":5.374367,"is_reserved":false,"is_disabled":false,"rental_uris":{"android":"levelo://app?vid=846ba82f-b80b-4118-ba94-f1f7e836af7f","ios":"levelo://app?vid=846ba82f-b80b-4118-ba94-f1f7e836af7f"},"vehicle_type_id":"4","last_reported":1766070757,"current_range_meters":4400,"station_id":"","pricing_plan_id":"cebpf4jnsgd1na2vs0mg"},{"bike_id":"65cf6a67-35f2-4b5b-8aa4-0768f055bf1f","system_id":"levelo_inurba_marseille","lat":43.297102,"lon":5.376854,"is_reserved":false,"is_disabled":false,"rental_uris":{"android":"levelo://app?vid=65cf6a67-35f2-4b5b-8aa4-0768f055bf1f","ios":"levelo://app?vid=65cf6a67-35f2-4b5b-8aa4-0768f055bf1f"},"vehicle_type_id":"4","last_reported":1766070757,"current_range_meters":4400,"station_id":"ce4bgkh2rcd13ifvqbl0","pricing_plan_id":"cebpf4jnsgd1na2vs0mg"},{"bike_id":"98993f92-8523-4dcd-8645-6917e252aa81","system_id":"levelo_inurba_marseille","lat":43.29807,"lon":5.38104,"is_reserved":false,"is_disabled":false,"rental_uris":{"android":"levelo://app?vid=98993f92-8523-4dcd-8645-6917e252aa81","ios":"levelo://app?vid=98993f92-8523-4dcd-8645-6917e252aa81"},"vehicle_type_id":"4","last_reported":1766070757,"current_range_meters":4400,"station_id":"ce4bgip2rcd13ifvqbb0","pricing_plan_id":"cebpf4jnsgd1na2vs0mg"},{"bike_id":"93339b7b-891a-4820-a8e7-660640573e7e","system_id":"levelo_inurba_marseille","lat":43.301431,"lon":5.374202,"is_reserved":false,"is_disabled":false,"rental_uris":{"android":"levelo://app?vid=93339b7b-891a-4820-a8e7-660640573e7e","ios":"levelo://app?vid=93339b7b-891a-4820-a8e7-660640573e7e"},"vehicle_type_id":"4","last_reported":1766070757,"current_range_meters":4400,"station_id":"ce4bgs92rcd13ifvqcc0","pricing_plan_id":"cebpf4jnsgd1na2vs0mg"},{"bike_id":"1234872a-39b1-4f90-a2b5-ff0589ee7faa","system_id":"levelo_inurba_marseille","lat":43.26934,"lon":5.40249,"is_reserved":false,"is_disabled":false,"rental_uris":{"android":"levelo://app?vid=1234872a-39b1-4f90-a2b5-ff0589ee7faa","ios":"levelo://app?vid=1234872a-39b1-4f90-a2b5-ff0589ee7faa"},"vehicle_type_id":"4","last_reported":1766070757,"current_range_meters":4400,"station_id":"cjm6bp8fraef2m0cb0m0","pricing_plan_id":"cebpf4jnsgd1na2vs0mg"},{"bike_id":"85af97e3-1423-4cfb-ae81-091f2bb4b762","system_id":"levelo_inurba_marseille","lat":43.232819,"lon":5.39968,"is_reserved":false,"is_disabled":false,"rental_uris":{"android":"levelo://app?vid=85af97e3-1423-4cfb-ae81-091f2bb4b762","ios":"levelo://app?vid=85af97e3-1423-4cfb-ae81-091f2bb4b762"},"vehicle_type_id":"4","last_reported":1766070757,"current_range_meters":4400,"station_id":"ce4bhn12rcd13ifvqgqg","pricing_plan_id":"cebpf4jnsgd1na2vs0mg"},{"bike_id":"f1f74614-33ac-441f-af80-d784b5e55bd2","system_id":"levelo_inurba_marseille","lat":43.328946,"lon":5.399653,"is_reserved":false,"is_disabled":false,"rental_uris":{"android":"levelo://app?vid=f1f74614-33ac-441f-af80-d784b5e55bd2","ios":"levelo://app?vid=f1f74614-33ac-441f-af80-d784b5e55bd2"},"vehicle_type_id":"4","last_reported":1766070757,"current_range_meters":4400,"station_id":"","pricing_plan_id":"cebpf4jnsgd1na2vs0mg"},{"bike_id":"cbd68531-b42b-4a02-b099-3de101794d4c","system_id":"levelo_inurba_marseille","lat":43.29338,"lon":5.37875,"is_reserved":false,"is_disabled":false,"rental_uris":{"android":"levelo://app?vid=cbd68531-b42b-4a02-b099-3de101794d4c","ios":"levelo://app?vid=cbd68531-b42b-4a02-b099-3de101794d4c"},"vehicle_type_id":"4","last_reported":1766070757,"current_range_meters":4800,"station_id":"ce4bgjh2rcd13ifvqbf0","pricing_plan_id":"cebpf4jnsgd1na2vs0mg"},{"bike_id":"801ef91e-0460-41a4-9767-cabb316999d9","system_id":"levelo_inurba_marseille","lat":43.29592,"lon":5.37732,"is_reserved":false,"is_disabled":true,"rental_uris":{"android":"levelo://app?vid=801ef91e-0460-41a4-9767-cabb316999d9","ios":"levelo://app?vid=801ef91e-0460-41a4-9767-cabb316999d9"},"vehicle_type_id":"4","last_reported":1766070757,"current_range_meters":4800,"station_id":"ce4bgi92rcd13ifvqb90","pricing_plan_id":"cebpf4jnsgd1na2vs0mg"},{"bike_id":"1140393d-f6f0-4c10-8ecd-8466d3c9a4a9","system_id":"levelo_inurba_marseille","lat":43.240662,"lon":5.378008,"is_reserved":false,"is_disabled":false,"rental_uris":{"android":"levelo://app?vid=1140393d-f6f0-4c10-8ecd-8466d3c9a4a9","ios":"levelo://app?vid=1140393d-f6f0-4c10-8ecd-8466d3c9a4a9"},"vehicle_type_id":"4","last_reported":1766070757,"current_range_meters":4800,"station_id":"ce4bhnp2rcd13ifvqgvg","pricing_plan_id":"cebpf4jnsgd1na2vs0mg"},{"bike_id":"5ead6c83-58b7-4f7e-b50b-c7eb57035471","system_id":"levelo_inurba_marseille","lat":43.30421,"lon":5.39728,"is_reserved":false,"is_disabled":false,"rental_uris":{"android":"levelo://app?vid=5ead6c83-58b7-4f7e-b50b-c7eb57035471","ios":"levelo://app?vid=5ead6c83-58b7-4f7e-b50b-c7eb57035471"},"vehicle_type_id":"4","last_reported":1766070757,"current_range_meters":4800,"station_id":"ce4bh092rcd13ifvqd20","pricing_plan_id":"cebpf4jnsgd1na2vs0mg"},{"bike_id":"8d321c31-2ebe-45ab-b3e2-dce2428bd0f9","system_id":"levelo_inurba_marseille","lat":43.26035,"lon":5.37547,"is_reserved":false,"is_disabled":false,"rental_uris":{"android":"levelo://app?vid=8d321c31-2ebe-45ab-b3e2-dce2428bd0f9","ios":"levelo://app?vid=8d321c31-2ebe-45ab-b3e2-dce2428bd0f9"},"vehicle_type_id":"4","last_reported":1766070757,"current_range_meters":4800,"station_id":"ce4bhgh2rcd13ifvqfa0","pricing_plan_id":"cebpf4jnsgd1na2vs0mg"},{"bike_id":"9767daf2-e3f2-45a3-945d-c5b17edd9965","system_id":"levelo_inurba_marseille","lat":43.30731,"lon":5.4245,"is_reserved":false,"is_disabled":false,"rental_uris":{"android":"levelo://app?vid=9767daf2-e3f2-45a3-945d-c5b17edd9965","ios":"levelo://app?vid=9767daf2-e3f2-45a3-945d-c5b17edd9965"},"vehicle_type_id":"4","last_reported":1766070757,"current_range_meters":4800,"station_id":"st_cvj6ca6bvosntc0bfgr0","pricing_plan_id":"cebpf4jnsgd1na2vs0mg"},{"bike_id":"d12458d4-d565-4e42-9da9-1d1ca5f2ab98","system_id":"levelo_inurba_marseille","lat":43.240753,"lon":5.377478,"is_reserved":false,"is_disabled":false,"rental_uris":{"android":"levelo://app?vid=d12458d4-d565-4e42-9da9-1d1ca5f2ab98","ios":"levelo://app?vid=d12458d4-d565-4e42-9da9-1d1ca5f2ab98"},"vehicle_type_id":"4","last_reported":1766070757,"current_range_meters":4800,"station_id":"","pricing_plan_id":"cebpf4jnsgd1na2vs0mg"},{"bike_id":"39155204-1342-4c68-978b-cd5c51e7cf47","system_id":"levelo_inurba_marseille","lat":43.24461,"lon":5.42533,"is_reserved":false,"is_disabled":false,"rental_uris":{"android":"levelo://app?vid=39155204-1342-4c68-978b-cd5c51e7cf47","ios":"levelo://app?vid=39155204-1342-4c68-978b-cd5c51e7cf47"},"vehicle_type_id":"4","last_reported":1766070757,"current_range_meters":4800,"station_id":"st_d4a3vfp97mjs738cd8kg","pricing_plan_id":"cebpf4jnsgd1na2vs0mg"},{"bike_id":"9105b6c9-df52-4935-ad7c-1ed373c8d6bb","system_id":"levelo_inurba_marseille","lat":43.28264,"lon":5.35058,"is_reserved":false,"is_disabled":false,"rental_uris":{"android":"levelo://app?vid=9105b6c9-df52-4935-ad7c-1ed373c8d6bb","ios":"levelo://app?vid=9105b6c9-df52-4935-ad7c-1ed373c8d6bb"},"vehicle_type_id":"4","last_reported":1766070757,"current_range_meters":4800,"station_id":"ce4bhbp2rcd13ifvqerg","pricing_plan_id":"cebpf4jnsgd1na2vs0mg"},{"bike_id":"49d0e97e-67a1-4947-ac33-37e61e15827e","system_id":"levelo_inurba_marseille","lat":43.29358,"lon":5.37844,"is_reserved":false,"is_disabled":false,"rental_uris":{"android":"levelo://app?vid=49d0e97e-67a1-4947-ac33-37e61e15827e","ios":"levelo://app?vid=49d0e97e-67a1-4947-ac33-37e61e15827e"},"vehicle_type_id":"4","last_reported":1766070757,"current_range_meters":5600,"station_id":"ce4bgjh2rcd13ifvqbf0","pricing_plan_id":"cebpf4jnsgd1na2vs0mg"},{"bike_id":"496d1481-dbaf-459e-89a5-2d3a32918031","system_id":"levelo_inurba_marseille","lat":43.286657,"lon":5.374008,"is_reserved":false,"is_disabled":false,"rental_uris":{"android":"levelo://app?vid=496d1481-dbaf-459e-89a5-2d3a32918031","ios":"levelo://app?vid=496d1481-dbaf-459e-89a5-2d3a32918031"},"vehicle_type_id":"4","last_reported":1766070757,"current_range_meters":5600,"station_id":"ce4bgm92rcd13ifvqbr0","pricing_plan_id":"cebpf4jnsgd1na2vs0mg"},{"bike_id":"99d8ea02-e747-4c23-aa82-fb9ccdafa88a","system_id":"levelo_inurba_marseille","lat":43.2509,"lon":5.39523,"is_reserved":false,"is_disabled":false,"rental_uris":{"android":"levelo://app?vid=99d8ea02-e747-4c23-aa82-fb9ccdafa88a","ios":"levelo://app?vid=99d8ea02-e747-4c23-aa82-fb9ccdafa88a"},"vehicle_type_id":"4","last_reported":1766070757,"current_range_meters":5600,"station_id":"ce4bhm12rcd13ifvqgkg","pricing_plan_id":"cebpf4jnsgd1na2vs0mg"},{"bike_id":"cbeb2abd-e0c8-4493-970a-12e14a9a99fb","system_id":"levelo_inurba_marseille","lat":43.3054,"lon":5.38421,"is_reserved":false,"is_disabled":false,"rental_uris":{"android":"levelo://app?vid=cbeb2abd-e0c8-4493-970a-12e14a9a99fb","ios":"levelo://app?vid=cbeb2abd-e0c8-4493-970a-12e14a9a99fb"},"vehicle_type_id":"4","last_reported":1766070757,"current_range_meters":5600,"station_id":"ce4bgg92rcd13ifvqb30","pricing_plan_id":"cebpf4jnsgd1na2vs0mg"},{"bike_id":"e03b03ff-dddc-47a1-a2a6-92726b9b50a0","system_id":"levelo_inurba_marseille","lat":43.29622,"lon":5.37706,"is_reserved":false,"is_disabled":false,"rental_uris":{"android":"levelo://app?vid=e03b03ff-dddc-47a1-a2a6-92726b9b50a0","ios":"levelo://app?vid=e03b03ff-dddc-47a1-a2a6-92726b9b50a0"},"vehicle_type_id":"4","last_reported":1766070757,"current_range_meters":5600,"station_id":"ce4bgi92rcd13ifvqb90","pricing_plan_id":"cebpf4jnsgd1na2vs0mg"},{"bike_id":"52f1af7e-5601-4e4e-9ae7-2043cdcbc26e","system_id":"levelo_inurba_marseille","lat":43.27211,"lon":5.3918,"is_reserved":false,"is_disabled":false,"rental_uris":{"android":"levelo://app?vid=52f1af7e-5601-4e4e-9ae7-2043cdcbc26e","ios":"levelo://app?vid=52f1af7e-5601-4e4e-9ae7-2043cdcbc26e"},"vehicle_type_id":"4","last_reported":1766070757,"current_range_meters":6000,"station_id":"ce4bhhp2rcd13ifvqfm0","pricing_plan_id":"cebpf4jnsgd1na2vs0mg"},{"bike_id":"da1b0410-bb02-4ac2-822d-7767af060fb5","system_id":"levelo_inurba_marseille","lat":43.28628,"lon":5.35102,"is_reserved":false,"is_disabled":false,"rental_uris":{"android":"levelo://app?vid=da1b0410-bb02-4ac2-822d-7767af060fb5","ios":"levelo://app?vid=da1b0410-bb02-4ac2-822d-7767af060fb5"},"vehicle_type_id":"4","last_reported":1766070757,"current_range_meters":6000,"station_id":"ce4bhch2rcd13ifvqeug","pricing_plan_id":"cebpf4jnsgd1na2vs0mg"},{"bike_id":"d24b2fc2-f614-426f-8aa5-83f8e6edb804","system_id":"levelo_inurba_marseille","lat":43.29608,"lon":5.37721,"is_reserved":false,"is_disabled":false,"rental_uris":{"android":"levelo://app?vid=d24b2fc2-f614-426f-8aa5-83f8e6edb804","ios":"levelo://app?vid=d24b2fc2-f614-426f-8aa5-83f8e6edb804"},"vehicle_type_id":"4","last_reported":1766070757,"current_range_meters":6000,"station_id":"ce4bgi92rcd13ifvqb90","pricing_plan_id":"cebpf4jnsgd1na2vs0mg"},{"bike_id":"4d4a609f-fc61-4268-af29-20a1a3688ae7","system_id":"levelo_inurba_marseille","lat":43.262273,"lon":5.404524,"is_reserved":false,"is_disabled":false,"rental_uris":{"android":"levelo://app?vid=4d4a609f-fc61-4268-af29-20a1a3688ae7","ios":"levelo://app?vid=4d4a609f-fc61-4268-af29-20a1a3688ae7"},"vehicle_type_id":"4","last_reported":1766070757,"current_range_meters":6000,"station_id":"ce4bhmh2rcd13ifvqgmg","pricing_plan_id":"cebpf4jnsgd1na2vs0mg"},{"bike_id":"421429dd-cc7d-47ec-9c23-d069c5b26c89","system_id":"levelo_inurba_marseille","lat":43.297197,"lon":5.370967,"is_reserved":false,"is_disabled":false,"rental_uris":{"android":"levelo://app?vid=421429dd-cc7d-47ec-9c23-d069c5b26c89","ios":"levelo://app?vid=421429dd-cc7d-47ec-9c23-d069c5b26c89"},"vehicle_type_id":"4","last_reported":1766070757,"current_range_meters":6000,"station_id":"","pricing_plan_id":"cebpf4jnsgd1na2vs0mg"},{"bike_id":"b1137460-5dc1-4bc3-91cb-92dff9a76e69","system_id":"levelo_inurba_marseille","lat":43.27981,"lon":5.38739,"is_reserved":false,"is_disabled":false,"rental_uris":{"android":"levelo://app?vid=b1137460-5dc1-4bc3-91cb-92dff9a76e69","ios":"levelo://app?vid=b1137460-5dc1-4bc3-91cb-92dff9a76e69"},"vehicle_type_id":"4","last_reported":1766070757,"current_range_meters":6000,"station_id":"ce4bhg12rcd13ifvqf80","pricing_plan_id":"cebpf4jnsgd1na2vs0mg"},{"bike_id":"0bb4aea0-cd2d-4260-9073-2602e9e1b1df","system_id":"levelo_inurba_marseille","lat":43.22532,"lon":5.34859,"is_reserved":false,"is_disabled":false,"rental_uris":{"android":"levelo://app?vid=0bb4aea0-cd2d-4260-9073-2602e9e1b1df","ios":"levelo://app?vid=0bb4aea0-cd2d-4260-9073-2602e9e1b1df"},"vehicle_type_id":"4","last_reported":1766070757,"current_range_meters":6400,"station_id":"","pricing_plan_id":"cebpf4jnsgd1na2vs0mg"},{"bike_id":"88031236-6a40-4d32-a503-adc00e8f1b31","system_id":"levelo_inurba_marseille","lat":43.33767,"lon":5.374479,"is_reserved":false,"is_disabled":false,"rental_uris":{"android":"levelo://app?vid=88031236-6a40-4d32-a503-adc00e8f1b31","ios":"levelo://app?vid=88031236-6a40-4d32-a503-adc00e8f1b31"},"vehicle_type_id":"4","last_reported":1766070757,"current_range_meters":6400,"station_id":"","pricing_plan_id":"cebpf4jnsgd1na2vs0mg"},{"bike_id":"488c7aca-0baf-4e69-9cc9-168306c4247d","system_id":"levelo_inurba_marseille","lat":43.23182,"lon":5.39981,"is_reserved":false,"is_disabled":false,"rental_uris":{"android":"levelo://app?vid=488c7aca-0baf-4e69-9cc9-168306c4247d","ios":"levelo://app?vid=488c7aca-0baf-4e69-9cc9-168306c4247d"},"vehicle_type_id":"4","last_reported":1766070757,"current_range_meters":6400,"station_id":"ce4bhn12rcd13ifvqgqg","pricing_plan_id":"cebpf4jnsgd1na2vs0mg"},{"bike_id":"cc178787-4e27-477e-85ac-bb874f1df1de","system_id":"levelo_inurba_marseille","lat":43.2733,"lon":5.41054,"is_reserved":false,"is_disabled":false,"rental_uris":{"android":"levelo://app?vid=cc178787-4e27-477e-85ac-bb874f1df1de","ios":"levelo://app?vid=cc178787-4e27-477e-85ac-bb874f1df1de"},"vehicle_type_id":"4","last_reported":1766070757,"current_range_meters":6400,"station_id":"","pricing_plan_id":"cebpf4jnsgd1na2vs0mg"},{"bike_id":"0f5787f4-8bc7-4894-8d56-064426733f78","system_id":"levelo_inurba_marseille","lat":43.3123,"lon":5.36873,"is_reserved":false,"is_disabled":false,"rental_uris":{"android":"levelo://app?vid=0f5787f4-8bc7-4894-8d56-064426733f78","ios":"levelo://app?vid=0f5787f4-8bc7-4894-8d56-064426733f78"},"vehicle_type_id":"4","last_reported":1766070757,"current_range_meters":6400,"station_id":"ce4bgl92rcd13ifvqbq0","pricing_plan_id":"cebpf4jnsgd1na2vs0mg"},{"bike_id":"24526b54-cb3b-472a-b29f-bf2afc3801ca","system_id":"levelo_inurba_marseille","lat":43.306437,"lon":5.401339,"is_reserved":false,"is_disabled":false,"rental_uris":{"android":"levelo://app?vid=24526b54-cb3b-472a-b29f-bf2afc3801ca","ios":"levelo://app?vid=24526b54-cb3b-472a-b29f-bf2afc3801ca"},"vehicle_type_id":"4","last_reported":1766070757,"current_range_meters":6400,"station_id":"ce4bh112rcd13ifvqda0","pricing_plan_id":"cebpf4jnsgd1na2vs0mg"},{"bike_id":"66119983-adfd-4893-8400-b70b3dec29d1","system_id":"levelo_inurba_marseille","lat":43.30539,"lon":5.36713,"is_reserved":false,"is_disabled":false,"rental_uris":{"android":"levelo://app?vid=66119983-adfd-4893-8400-b70b3dec29d1","ios":"levelo://app?vid=66119983-adfd-4893-8400-b70b3dec29d1"},"vehicle_type_id":"4","last_reported":1766070757,"current_range_meters":6400,"station_id":"ce4bgrp2rcd13ifvqc9g","pricing_plan_id":"cebpf4jnsgd1na2vs0mg"},{"bike_id":"60331a34-05ec-4851-9d95-d9fbf5d3ab1f","system_id":"levelo_inurba_marseille","lat":43.26951,"lon":5.40244,"is_reserved":false,"is_disabled":false,"rental_uris":{"android":"levelo://app?vid=60331a34-05ec-4851-9d95-d9fbf5d3ab1f","ios":"levelo://app?vid=60331a34-05ec-4851-9d95-d9fbf5d3ab1f"},"vehicle_type_id":"4","last_reported":1766070757,"current_range_meters":6800,"station_id":"cjm6bp8fraef2m0cb0m0","pricing_plan_id":"cebpf4jnsgd1na2vs0mg"},{"bike_id":"b147f415-51a0-425f-bb2d-544b352fc1c1","system_id":"levelo_inurba_marseille","lat":43.2839,"lon":5.37529,"is_reserved":false,"is_disabled":false,"rental_uris":{"android":"levelo://app?vid=b147f415-51a0-425f-bb2d-544b352fc1c1","ios":"levelo://app?vid=b147f415-51a0-425f-bb2d-544b352fc1c1"},"vehicle_type_id":"4","last_reported":1766070757,"current_range_meters":6800,"station_id":"ce4bh412rcd13ifvqds0","pricing_plan_id":"cebpf4jnsgd1na2vs0mg"},{"bike_id":"85db6c0a-3845-439c-9efa-2efc303f44c8","system_id":"levelo_inurba_marseille","lat":43.28858,"lon":5.42525,"is_reserved":false,"is_disabled":false,"rental_uris":{"android":"levelo://app?vid=85db6c0a-3845-439c-9efa-2efc303f44c8","ios":"levelo://app?vid=85db6c0a-3845-439c-9efa-2efc303f44c8"},"vehicle_type_id":"4","last_reported":1766070757,"current_range_meters":6800,"station_id":"st_d3b462108ojc7389ooeg","pricing_plan_id":"cebpf4jnsgd1na2vs0mg"},{"bike_id":"13d57d92-ce63-4639-9890-4c1eeb528ffd","system_id":"levelo_inurba_marseille","lat":43.30549,"lon":5.36539,"is_reserved":false,"is_disabled":false,"rental_uris":{"android":"levelo://app?vid=13d57d92-ce63-4639-9890-4c1eeb528ffd","ios":"levelo://app?vid=13d57d92-ce63-4639-9890-4c1eeb528ffd"},"vehicle_type_id":"4","last_reported":1766070757,"current_range_meters":6800,"station_id":"ce4bgs12rcd13ifvqcag","pricing_plan_id":"cebpf4jnsgd1na2vs0mg"},{"bike_id":"dedbf5f8-8c8c-42c7-98c5-3eb3666eab36","system_id":"levelo_inurba_marseille","lat":43.26367,"lon":5.41083,"is_reserved":false,"is_disabled":false,"rental_uris":{"android":"levelo://app?vid=dedbf5f8-8c8c-42c7-98c5-3eb3666eab36","ios":"levelo://app?vid=dedbf5f8-8c8c-42c7-98c5-3eb3666eab36"},"vehicle_type_id":"4","last_reported":1766070757,"current_range_meters":6800,"station_id":"st_d4e5ca6na9uc73bfl5fg","pricing_plan_id":"cebpf4jnsgd1na2vs0mg"},{"bike_id":"c860a80f-ecd1-4758-a092-e4caee911a6e","system_id":"levelo_inurba_marseille","lat":43.3055,"lon":5.36535,"is_reserved":false,"is_disabled":false,"rental_uris":{"android":"levelo://app?vid=c860a80f-ecd1-4758-a092-e4caee911a6e","ios":"levelo://app?vid=c860a80f-ecd1-4758-a092-e4caee911a6e"},"vehicle_type_id":"4","last_reported":1766070757,"current_range_meters":6800,"station_id":"ce4bgs12rcd13ifvqcag","pricing_plan_id":"cebpf4jnsgd1na2vs0mg"},{"bike_id":"ef605d87-d34c-487d-8411-3714ef9486d0","system_id":"levelo_inurba_marseille","lat":43.2439,"lon":5.37051,"is_reserved":false,"is_disabled":false,"rental_uris":{"android":"levelo://app?vid=ef605d87-d34c-487d-8411-3714ef9486d0","ios":"levelo://app?vid=ef605d87-d34c-487d-8411-3714ef9486d0"},"vehicle_type_id":"4","last_reported":1766070757,"current_range_meters":6800,"station_id":"ce4bhhh2rcd13ifvqfk0","pricing_plan_id":"cebpf4jnsgd1na2vs0mg"},{"bike_id":"3bfd6c2a-2e96-4c66-b7ba-58180062dbeb","system_id":"levelo_inurba_marseille","lat":43.29371,"lon":5.37839,"is_reserved":false,"is_disabled":false,"rental_uris":{"android":"levelo://app?vid=3bfd6c2a-2e96-4c66-b7ba-58180062dbeb","ios":"levelo://app?vid=3bfd6c2a-2e96-4c66-b7ba-58180062dbeb"},"vehicle_type_id":"4","last_reported":1766070757,"current_range_meters":7200,"station_id":"ce4bgjh2rcd13ifvqbf0","pricing_plan_id":"cebpf4jnsgd1na2vs0mg"},{"bike_id":"7e16a29b-1fbf-412f-80f7-d54ff217a3bb","system_id":"levelo_inurba_marseille","lat":43.32459,"lon":5.36559,"is_reserved":false,"is_disabled":false,"rental_uris":{"android":"levelo://app?vid=7e16a29b-1fbf-412f-80f7-d54ff217a3bb","ios":"levelo://app?vid=7e16a29b-1fbf-412f-80f7-d54ff217a3bb"},"vehicle_type_id":"4","last_reported":1766070757,"current_range_meters":7200,"station_id":"ce4bhs12rcd13ifvqhvg","pricing_plan_id":"cebpf4jnsgd1na2vs0mg"},{"bike_id":"91c77ff2-3b95-4277-ae31-83f4ff52016e","system_id":"levelo_inurba_marseille","lat":43.30932,"lon":5.40141,"is_reserved":false,"is_disabled":false,"rental_uris":{"android":"levelo://app?vid=91c77ff2-3b95-4277-ae31-83f4ff52016e","ios":"levelo://app?vid=91c77ff2-3b95-4277-ae31-83f4ff52016e"},"vehicle_type_id":"4","last_reported":1766070757,"current_range_meters":7200,"station_id":"ce4bgvp2rcd13ifvqct0","pricing_plan_id":"cebpf4jnsgd1na2vs0mg"},{"bike_id":"b9e289e9-e1d8-4db9-8eeb-d4ae6610e1bb","system_id":"levelo_inurba_marseille","lat":43.288651,"lon":5.425252,"is_reserved":false,"is_disabled":false,"rental_uris":{"android":"levelo://app?vid=b9e289e9-e1d8-4db9-8eeb-d4ae6610e1bb","ios":"levelo://app?vid=b9e289e9-e1d8-4db9-8eeb-d4ae6610e1bb"},"vehicle_type_id":"4","last_reported":1766070757,"current_range_meters":7200,"station_id":"st_d3b462108ojc7389ooeg","pricing_plan_id":"cebpf4jnsgd1na2vs0mg"},{"bike_id":"518ae65b-36a2-4932-916e-e758d6bb11c9","system_id":"levelo_inurba_marseille","lat":43.23784,"lon":5.3663,"is_reserved":false,"is_disabled":false,"rental_uris":{"android":"levelo://app?vid=518ae65b-36a2-4932-916e-e758d6bb11c9","ios":"levelo://app?vid=518ae65b-36a2-4932-916e-e758d6bb11c9"},"vehicle_type_id":"4","last_reported":1766070757,"current_range_meters":7200,"station_id":"st_d3nk18o9ro0c73en2l3g","pricing_plan_id":"cebpf4jnsgd1na2vs0mg"},{"bike_id":"10d8d732-2ef8-47b3-b0fe-a83ce4aafc47","system_id":"levelo_inurba_marseille","lat":43.23191,"lon":5.35553,"is_reserved":false,"is_disabled":false,"rental_uris":{"android":"levelo://app?vid=10d8d732-2ef8-47b3-b0fe-a83ce4aafc47","ios":"levelo://app?vid=10d8d732-2ef8-47b3-b0fe-a83ce4aafc47"},"vehicle_type_id":"4","last_reported":1766070757,"current_range_meters":7200,"station_id":"ce4bhu92rcd13ifvqi70","pricing_plan_id":"cebpf4jnsgd1na2vs0mg"},{"bike_id":"50e6eefe-8aea-4054-ab8f-87d6e301ff34","system_id":"levelo_inurba_marseille","lat":43.24301,"lon":5.43822,"is_reserved":false,"is_disabled":false,"rental_uris":{"android":"levelo://app?vid=50e6eefe-8aea-4054-ab8f-87d6e301ff34","ios":"levelo://app?vid=50e6eefe-8aea-4054-ab8f-87d6e301ff34"},"vehicle_type_id":"4","last_reported":1766070757,"current_range_meters":7200,"station_id":"","pricing_plan_id":"cebpf4jnsgd1na2vs0mg"},{"bike_id":"a1ac0ba7-1483-464e-9caa-755fc64f46a4","system_id":"levelo_inurba_marseille","lat":43.2405,"lon":5.37836,"is_reserved":false,"is_disabled":false,"rental_uris":{"android":"levelo://app?vid=a1ac0ba7-1483-464e-9caa-755fc64f46a4","ios":"levelo://app?vid=a1ac0ba7-1483-464e-9caa-755fc64f46a4"},"vehicle_type_id":"4","last_reported":1766070757,"current_range_meters":7200,"station_id":"","pricing_plan_id":"cebpf4jnsgd1na2vs0mg"},{"bike_id":"2823b4ca-2c59-4063-b2e9-c35cc4559fe6","system_id":"levelo_inurba_marseille","lat":43.28217,"lon":5.39041,"is_reserved":false,"is_disabled":false,"rental_uris":{"android":"levelo://app?vid=2823b4ca-2c59-4063-b2e9-c35cc4559fe6","ios":"levelo://app?vid=2823b4ca-2c59-4063-b2e9-c35cc4559fe6"},"vehicle_type_id":"4","last_reported":1766070757,"current_range_meters":8000,"station_id":"ce4bhn92rcd13ifvqgsg","pricing_plan_id":"cebpf4jnsgd1na2vs0mg"},{"bike_id":"05c11225-843a-47cc-ae7a-625ff555981b","system_id":"levelo_inurba_marseille","lat":43.23788,"lon":5.36634,"is_reserved":false,"is_disabled":false,"rental_uris":{"android":"levelo://app?vid=05c11225-843a-47cc-ae7a-625ff555981b","ios":"levelo://app?vid=05c11225-843a-47cc-ae7a-625ff555981b"},"vehicle_type_id":"4","last_reported":1766070757,"current_range_meters":8000,"station_id":"st_d3nk18o9ro0c73en2l3g","pricing_plan_id":"cebpf4jnsgd1na2vs0mg"},{"bike_id":"07102bbf-8e43-4cc8-abfb-b7bffaf00185","system_id":"levelo_inurba_marseille","lat":43.29377,"lon":5.3627,"is_reserved":false,"is_disabled":false,"rental_uris":{"android":"levelo://app?vid=07102bbf-8e43-4cc8-abfb-b7bffaf00185","ios":"levelo://app?vid=07102bbf-8e43-4cc8-abfb-b7bffaf00185"},"vehicle_type_id":"4","last_reported":1766070757,"current_range_meters":8000,"station_id":"","pricing_plan_id":"cebpf4jnsgd1na2vs0mg"},{"bike_id":"c7e5daf3-a6b0-4ffc-8e95-134c47362fa1","system_id":"levelo_inurba_marseille","lat":43.30105,"lon":5.36871,"is_reserved":false,"is_disabled":false,"rental_uris":{"android":"levelo://app?vid=c7e5daf3-a6b0-4ffc-8e95-134c47362fa1","ios":"levelo://app?vid=c7e5daf3-a6b0-4ffc-8e95-134c47362fa1"},"vehicle_type_id":"4","last_reported":1766070757,"current_range_meters":8000,"station_id":"","pricing_plan_id":"cebpf4jnsgd1na2vs0mg"},{"bike_id":"9cb52630-f8b4-4ff3-9ddb-fd021bf763e2","system_id":"levelo_inurba_marseille","lat":43.29876,"lon":5.37132,"is_reserved":false,"is_disabled":false,"rental_uris":{"android":"levelo://app?vid=9cb52630-f8b4-4ff3-9ddb-fd021bf763e2","ios":"levelo://app?vid=9cb52630-f8b4-4ff3-9ddb-fd021bf763e2"},"vehicle_type_id":"4","last_reported":1766070757,"current_range_meters":8000,"station_id":"","pricing_plan_id":"cebpf4jnsgd1na2vs0mg"},{"bike_id":"debb0837-e6b9-4d30-a553-e1879d256af6","system_id":"levelo_inurba_marseille","lat":43.28855,"lon":5.35855,"is_reserved":false,"is_disabled":false,"rental_uris":{"android":"levelo://app?vid=debb0837-e6b9-4d30-a553-e1879d256af6","ios":"levelo://app?vid=debb0837-e6b9-4d30-a553-e1879d256af6"},"vehicle_type_id":"4","last_reported":1766070757,"current_range_meters":8400,"station_id":"ce4bhb12rcd13ifvqem0","pricing_plan_id":"cebpf4jnsgd1na2vs0mg"},{"bike_id":"e68edb33-f119-4668-a648-2630e687f520","system_id":"levelo_inurba_marseille","lat":43.2994,"lon":5.37458,"is_reserved":false,"is_disabled":false,"rental_uris":{"android":"levelo://app?vid=e68edb33-f119-4668-a648-2630e687f520","ios":"levelo://app?vid=e68edb33-f119-4668-a648-2630e687f520"},"vehicle_type_id":"4","last_reported":1766070757,"current_range_meters":8400,"station_id":"ce4bgjh2rcd13ifvqbg0","pricing_plan_id":"cebpf4jnsgd1na2vs0mg"},{"bike_id":"a9adc8bf-52f1-4c31-a2de-42743dd086bf","system_id":"levelo_inurba_marseille","lat":43.33723,"lon":5.3748,"is_reserved":false,"is_disabled":false,"rental_uris":{"android":"levelo://app?vid=a9adc8bf-52f1-4c31-a2de-42743dd086bf","ios":"levelo://app?vid=a9adc8bf-52f1-4c31-a2de-42743dd086bf"},"vehicle_type_id":"4","last_reported":1766070757,"current_range_meters":8400,"station_id":"","pricing_plan_id":"cebpf4jnsgd1na2vs0mg"},{"bike_id":"bd6e3456-1d79-4a46-8638-9f36c62b99d3","system_id":"levelo_inurba_marseille","lat":43.25582,"lon":5.382502,"is_reserved":false,"is_disabled":false,"rental_uris":{"android":"levelo://app?vid=bd6e3456-1d79-4a46-8638-9f36c62b99d3","ios":"levelo://app?vid=bd6e3456-1d79-4a46-8638-9f36c62b99d3"},"vehicle_type_id":"4","last_reported":1766070757,"current_range_meters":8400,"station_id":"ce4bhih2rcd13ifvqfs0","pricing_plan_id":"cebpf4jnsgd1na2vs0mg"},{"bike_id":"ffdeb232-3eba-4cca-8280-112e2506557f","system_id":"levelo_inurba_marseille","lat":43.30214,"lon":5.36553,"is_reserved":false,"is_disabled":false,"rental_uris":{"android":"levelo://app?vid=ffdeb232-3eba-4cca-8280-112e2506557f","ios":"levelo://app?vid=ffdeb232-3eba-4cca-8280-112e2506557f"},"vehicle_type_id":"4","last_reported":1766070757,"current_range_meters":8800,"station_id":"","pricing_plan_id":"cebpf4jnsgd1na2vs0mg"},{"bike_id":"00fd2dcb-6faf-4c7a-8c99-525909084655","system_id":"levelo_inurba_marseille","lat":43.28168,"lon":5.4265,"is_reserved":false,"is_disabled":true,"rental_uris":{"android":"levelo://app?vid=00fd2dcb-6faf-4c7a-8c99-525909084655","ios":"levelo://app?vid=00fd2dcb-6faf-4c7a-8c99-525909084655"},"vehicle_type_id":"4","last_reported":1766070757,"current_range_meters":8800,"station_id":"ce4bhnh2rcd13ifvqgug","pricing_plan_id":"cebpf4jnsgd1na2vs0mg"},{"bike_id":"9cd0b5cd-982d-46c9-b94d-972458c0583a","system_id":"levelo_inurba_marseille","lat":43.30625,"lon":5.37374,"is_reserved":false,"is_disabled":false,"rental_uris":{"android":"levelo://app?vid=9cd0b5cd-982d-46c9-b94d-972458c0583a","ios":"levelo://app?vid=9cd0b5cd-982d-46c9-b94d-972458c0583a"},"vehicle_type_id":"4","last_reported":1766070757,"current_range_meters":8800,"station_id":"","pricing_plan_id":"cebpf4jnsgd1na2vs0mg"},{"bike_id":"57bb64a5-fc36-46ad-86bd-f95d7bafd086","system_id":"levelo_inurba_marseille","lat":43.30135,"lon":5.37415,"is_reserved":false,"is_disabled":false,"rental_uris":{"android":"levelo://app?vid=57bb64a5-fc36-46ad-86bd-f95d7bafd086","ios":"levelo://app?vid=57bb64a5-fc36-46ad-86bd-f95d7bafd086"},"vehicle_type_id":"4","last_reported":1766070757,"current_range_meters":8800,"station_id":"ce4bgs92rcd13ifvqcc0","pricing_plan_id":"cebpf4jnsgd1na2vs0mg"},{"bike_id":"e83b8d17-76e6-4834-acc9-aef4df9c5f88","system_id":"levelo_inurba_marseille","lat":43.29026,"lon":5.3812,"is_reserved":false,"is_disabled":false,"rental_uris":{"android":"levelo://app?vid=e83b8d17-76e6-4834-acc9-aef4df9c5f88","ios":"levelo://app?vid=e83b8d17-76e6-4834-acc9-aef4df9c5f88"},"vehicle_type_id":"4","last_reported":1766070757,"current_range_meters":8800,"station_id":"ce4bh4p2rcd13ifvqe1g","pricing_plan_id":"cebpf4jnsgd1na2vs0mg"},{"bike_id":"a47bd05e-93fd-4dba-a7ed-43fadc681201","system_id":"levelo_inurba_marseille","lat":43.29207,"lon":5.36037,"is_reserved":false,"is_disabled":false,"rental_uris":{"android":"levelo://app?vid=a47bd05e-93fd-4dba-a7ed-43fadc681201","ios":"levelo://app?vid=a47bd05e-93fd-4dba-a7ed-43fadc681201"},"vehicle_type_id":"4","last_reported":1766070757,"current_range_meters":8800,"station_id":"ce4bhbh2rcd13ifvqeqg","pricing_plan_id":"cebpf4jnsgd1na2vs0mg"},{"bike_id":"08a46a08-db79-4af1-90f0-dd853b10ad3e","system_id":"levelo_inurba_marseille","lat":43.24181,"lon":5.39732,"is_reserved":false,"is_disabled":false,"rental_uris":{"android":"levelo://app?vid=08a46a08-db79-4af1-90f0-dd853b10ad3e","ios":"levelo://app?vid=08a46a08-db79-4af1-90f0-dd853b10ad3e"},"vehicle_type_id":"4","last_reported":1766070757,"current_range_meters":8800,"station_id":"ce4bhn12rcd13ifvqgpg","pricing_plan_id":"cebpf4jnsgd1na2vs0mg"},{"bike_id":"18693ba9-e70c-4712-b809-f92059e0abc5","system_id":"levelo_inurba_marseille","lat":43.252383,"lon":5.380002,"is_reserved":false,"is_disabled":false,"rental_uris":{"android":"levelo://app?vid=18693ba9-e70c-4712-b809-f92059e0abc5","ios":"levelo://app?vid=18693ba9-e70c-4712-b809-f92059e0abc5"},"vehicle_type_id":"4","last_reported":1766070757,"current_range_meters":8800,"station_id":"","pricing_plan_id":"cebpf4jnsgd1na2vs0mg"},{"bike_id":"c9f7afe3-6fe9-4919-8774-7909bc43aaab","system_id":"levelo_inurba_marseille","lat":43.30463,"lon":5.37899,"is_reserved":false,"is_disabled":false,"rental_uris":{"android":"levelo://app?vid=c9f7afe3-6fe9-4919-8774-7909bc43aaab","ios":"levelo://app?vid=c9f7afe3-6fe9-4919-8774-7909bc43aaab"},"vehicle_type_id":"4","last_reported":1766070757,"current_range_meters":9200,"station_id":"ce4bgup2rcd13ifvqcn0","pricing_plan_id":"cebpf4jnsgd1na2vs0mg"},{"bike_id":"a474f569-93b6-408e-90c8-4c5a2064fccb","system_id":"levelo_inurba_marseille","lat":43.25002,"lon":5.38913,"is_reserved":false,"is_disabled":false,"rental_uris":{"android":"levelo://app?vid=a474f569-93b6-408e-90c8-4c5a2064fccb","ios":"levelo://app?vid=a474f569-93b6-408e-90c8-4c5a2064fccb"},"vehicle_type_id":"4","last_reported":1766070757,"current_range_meters":9200,"station_id":"ce4bhgp2rcd13ifvqfd0","pricing_plan_id":"cebpf4jnsgd1na2vs0mg"},{"bike_id":"ab92e49a-9f5e-4ab4-bbc2-d078f15ba447","system_id":"levelo_inurba_marseille","lat":43.29031,"lon":5.3757,"is_reserved":false,"is_disabled":false,"rental_uris":{"android":"levelo://app?vid=ab92e49a-9f5e-4ab4-bbc2-d078f15ba447","ios":"levelo://app?vid=ab92e49a-9f5e-4ab4-bbc2-d078f15ba447"},"vehicle_type_id":"4","last_reported":1766070757,"current_range_meters":9200,"station_id":"ce4bh692rcd13ifvqe90","pricing_plan_id":"cebpf4jnsgd1na2vs0mg"},{"bike_id":"c39d345a-be58-400f-b22b-057cb73fed8f","system_id":"levelo_inurba_marseille","lat":43.29796,"lon":5.40405,"is_reserved":false,"is_disabled":false,"rental_uris":{"android":"levelo://app?vid=c39d345a-be58-400f-b22b-057cb73fed8f","ios":"levelo://app?vid=c39d345a-be58-400f-b22b-057cb73fed8f"},"vehicle_type_id":"4","last_reported":1766070757,"current_range_meters":9200,"station_id":"ce4bh112rcd13ifvqd90","pricing_plan_id":"cebpf4jnsgd1na2vs0mg"},{"bike_id":"7ab85ca7-5479-4fa9-97a7-4b6e66aa28e6","system_id":"levelo_inurba_marseille","lat":43.26077,"lon":5.39395,"is_reserved":false,"is_disabled":false,"rental_uris":{"android":"levelo://app?vid=7ab85ca7-5479-4fa9-97a7-4b6e66aa28e6","ios":"levelo://app?vid=7ab85ca7-5479-4fa9-97a7-4b6e66aa28e6"},"vehicle_type_id":"4","last_reported":1766070757,"current_range_meters":9200,"station_id":"ce4bhh92rcd13ifvqfj0","pricing_plan_id":"cebpf4jnsgd1na2vs0mg"},{"bike_id":"5614cec6-e3b0-4365-88b4-7cc34436ed87","system_id":"levelo_inurba_marseille","lat":43.30295,"lon":5.37703,"is_reserved":false,"is_disabled":false,"rental_uris":{"android":"levelo://app?vid=5614cec6-e3b0-4365-88b4-7cc34436ed87","ios":"levelo://app?vid=5614cec6-e3b0-4365-88b4-7cc34436ed87"},"vehicle_type_id":"4","last_reported":1766070757,"current_range_meters":9200,"station_id":"ce4bguh2rcd13ifvqcj0","pricing_plan_id":"cebpf4jnsgd1na2vs0mg"},{"bike_id":"ef12faa4-80ab-4d48-8154-7251eb985a1d","system_id":"levelo_inurba_marseille","lat":43.26686,"lon":5.38273,"is_reserved":false,"is_disabled":false,"rental_uris":{"android":"levelo://app?vid=ef12faa4-80ab-4d48-8154-7251eb985a1d","ios":"levelo://app?vid=ef12faa4-80ab-4d48-8154-7251eb985a1d"},"vehicle_type_id":"4","last_reported":1766070757,"current_range_meters":9600,"station_id":"ce4bhg92rcd13ifvqf90","pricing_plan_id":"cebpf4jnsgd1na2vs0mg"},{"bike_id":"de9685d7-9538-424c-b68a-88f7014001e2","system_id":"levelo_inurba_marseille","lat":43.27206,"lon":5.39183,"is_reserved":false,"is_disabled":false,"rental_uris":{"android":"levelo://app?vid=de9685d7-9538-424c-b68a-88f7014001e2","ios":"levelo://app?vid=de9685d7-9538-424c-b68a-88f7014001e2"},"vehicle_type_id":"4","last_reported":1766070757,"current_range_meters":9600,"station_id":"ce4bhhp2rcd13ifvqfm0","pricing_plan_id":"cebpf4jnsgd1na2vs0mg"},{"bike_id":"444f71b8-a38e-4539-b803-38dd71b427da","system_id":"levelo_inurba_marseille","lat":43.29026,"lon":5.38122,"is_reserved":false,"is_disabled":false,"rental_uris":{"android":"levelo://app?vid=444f71b8-a38e-4539-b803-38dd71b427da","ios":"levelo://app?vid=444f71b8-a38e-4539-b803-38dd71b427da"},"vehicle_type_id":"4","last_reported":1766070757,"current_range_meters":9600,"station_id":"ce4bh4p2rcd13ifvqe1g","pricing_plan_id":"cebpf4jnsgd1na2vs0mg"},{"bike_id":"dda73adc-2a30-48a2-b3c5-76e58b62d776","system_id":"levelo_inurba_marseille","lat":43.30954,"lon":5.39037,"is_reserved":false,"is_disabled":false,"rental_uris":{"android":"levelo://app?vid=dda73adc-2a30-48a2-b3c5-76e58b62d776","ios":"levelo://app?vid=dda73adc-2a30-48a2-b3c5-76e58b62d776"},"vehicle_type_id":"4","last_reported":1766070757,"current_range_meters":9600,"station_id":"ce4bgup2rcd13ifvqco0","pricing_plan_id":"cebpf4jnsgd1na2vs0mg"},{"bike_id":"db74bb2d-a7a3-4fd4-9824-1aabf161dd75","system_id":"levelo_inurba_marseille","lat":43.28468,"lon":5.38414,"is_reserved":false,"is_disabled":false,"rental_uris":{"android":"levelo://app?vid=db74bb2d-a7a3-4fd4-9824-1aabf161dd75","ios":"levelo://app?vid=db74bb2d-a7a3-4fd4-9824-1aabf161dd75"},"vehicle_type_id":"4","last_reported":1766070757,"current_range_meters":9600,"station_id":"ce4bh512rcd13ifvqe3g","pricing_plan_id":"cebpf4jnsgd1na2vs0mg"},{"bike_id":"2662ceb0-290d-4ce4-b329-341d7f8526ec","system_id":"levelo_inurba_marseille","lat":43.245555,"lon":5.395013,"is_reserved":false,"is_disabled":false,"rental_uris":{"android":"levelo://app?vid=2662ceb0-290d-4ce4-b329-341d7f8526ec","ios":"levelo://app?vid=2662ceb0-290d-4ce4-b329-341d7f8526ec"},"vehicle_type_id":"4","last_reported":1766070757,"current_range_meters":9600,"station_id":"","pricing_plan_id":"cebpf4jnsgd1na2vs0mg"},{"bike_id":"3cde007c-a409-4597-91e7-ca2461274ad1","system_id":"levelo_inurba_marseille","lat":43.2657,"lon":5.40193,"is_reserved":false,"is_disabled":false,"rental_uris":{"android":"levelo://app?vid=3cde007c-a409-4597-91e7-ca2461274ad1","ios":"levelo://app?vid=3cde007c-a409-4597-91e7-ca2461274ad1"},"vehicle_type_id":"4","last_reported":1766070757,"current_range_meters":9600,"station_id":"","pricing_plan_id":"cebpf4jnsgd1na2vs0mg"},{"bike_id":"f7f5c04a-22b5-4669-9293-4e0da7df3812","system_id":"levelo_inurba_marseille","lat":43.30144,"lon":5.39859,"is_reserved":false,"is_disabled":false,"rental_uris":{"android":"levelo://app?vid=f7f5c04a-22b5-4669-9293-4e0da7df3812","ios":"levelo://app?vid=f7f5c04a-22b5-4669-9293-4e0da7df3812"},"vehicle_type_id":"4","last_reported":1766070757,"current_range_meters":9600,"station_id":"ce4bh0h2rcd13ifvqd40","pricing_plan_id":"cebpf4jnsgd1na2vs0mg"},{"bike_id":"e87fa722-ae50-4516-b31f-a8d6c69e8fef","system_id":"levelo_inurba_marseille","lat":43.29228,"lon":5.36078,"is_reserved":false,"is_disabled":false,"rental_uris":{"android":"levelo://app?vid=e87fa722-ae50-4516-b31f-a8d6c69e8fef","ios":"levelo://app?vid=e87fa722-ae50-4516-b31f-a8d6c69e8fef"},"vehicle_type_id":"4","last_reported":1766070757,"current_range_meters":9600,"station_id":"ce4bhbh2rcd13ifvqeqg","pricing_plan_id":"cebpf4jnsgd1na2vs0mg"},{"bike_id":"0f033089-1424-4fb4-b3dd-976abb0af258","system_id":"levelo_inurba_marseille","lat":43.24073,"lon":5.37736,"is_reserved":false,"is_disabled":false,"rental_uris":{"android":"levelo://app?vid=0f033089-1424-4fb4-b3dd-976abb0af258","ios":"levelo://app?vid=0f033089-1424-4fb4-b3dd-976abb0af258"},"vehicle_type_id":"4","last_reported":1766070757,"current_range_meters":9600,"station_id":"ce4bhnp2rcd13ifvqgvg","pricing_plan_id":"cebpf4jnsgd1na2vs0mg"},{"bike_id":"38d5bbe5-85ce-4ef0-a09a-30d465a65053","system_id":"levelo_inurba_marseille","lat":43.29592,"lon":5.37664,"is_reserved":false,"is_disabled":false,"rental_uris":{"android":"levelo://app?vid=38d5bbe5-85ce-4ef0-a09a-30d465a65053","ios":"levelo://app?vid=38d5bbe5-85ce-4ef0-a09a-30d465a65053"},"vehicle_type_id":"4","last_reported":1766070757,"current_range_meters":10000,"station_id":"","pricing_plan_id":"cebpf4jnsgd1na2vs0mg"},{"bike_id":"a24ee5b6-572d-4941-9ef3-a9d89c28bd82","system_id":"levelo_inurba_marseille","lat":43.30538,"lon":5.36702,"is_reserved":false,"is_disabled":false,"rental_uris":{"android":"levelo://app?vid=a24ee5b6-572d-4941-9ef3-a9d89c28bd82","ios":"levelo://app?vid=a24ee5b6-572d-4941-9ef3-a9d89c28bd82"},"vehicle_type_id":"4","last_reported":1766070757,"current_range_meters":10000,"station_id":"ce4bgrp2rcd13ifvqc9g","pricing_plan_id":"cebpf4jnsgd1na2vs0mg"},{"bike_id":"7a217e04-e527-4f4b-ace2-648f28f70b0e","system_id":"levelo_inurba_marseille","lat":43.25576,"lon":5.38241,"is_reserved":false,"is_disabled":false,"rental_uris":{"android":"levelo://app?vid=7a217e04-e527-4f4b-ace2-648f28f70b0e","ios":"levelo://app?vid=7a217e04-e527-4f4b-ace2-648f28f70b0e"},"vehicle_type_id":"4","last_reported":1766070757,"current_range_meters":10000,"station_id":"ce4bhih2rcd13ifvqfs0","pricing_plan_id":"cebpf4jnsgd1na2vs0mg"},{"bike_id":"e3e53fe2-9141-448c-bd17-d451259458d8","system_id":"levelo_inurba_marseille","lat":43.240603,"lon":5.377629,"is_reserved":false,"is_disabled":false,"rental_uris":{"android":"levelo://app?vid=e3e53fe2-9141-448c-bd17-d451259458d8","ios":"levelo://app?vid=e3e53fe2-9141-448c-bd17-d451259458d8"},"vehicle_type_id":"4","last_reported":1766070757,"current_range_meters":10000,"station_id":"ce4bhnp2rcd13ifvqgvg","pricing_plan_id":"cebpf4jnsgd1na2vs0mg"},{"bike_id":"77dab691-c6f9-433b-aa90-082c7a8f6c6d","system_id":"levelo_inurba_marseille","lat":43.237872,"lon":5.366366,"is_reserved":false,"is_disabled":false,"rental_uris":{"android":"levelo://app?vid=77dab691-c6f9-433b-aa90-082c7a8f6c6d","ios":"levelo://app?vid=77dab691-c6f9-433b-aa90-082c7a8f6c6d"},"vehicle_type_id":"4","last_reported":1766070757,"current_range_meters":10000,"station_id":"st_d3nk18o9ro0c73en2l3g","pricing_plan_id":"cebpf4jnsgd1na2vs0mg"},{"bike_id":"f29b32cd-5878-4df8-a4c2-8a9ba7bb65d0","system_id":"levelo_inurba_marseille","lat":43.30946,"lon":5.40155,"is_reserved":false,"is_disabled":false,"rental_uris":{"android":"levelo://app?vid=f29b32cd-5878-4df8-a4c2-8a9ba7bb65d0","ios":"levelo://app?vid=f29b32cd-5878-4df8-a4c2-8a9ba7bb65d0"},"vehicle_type_id":"4","last_reported":1766070757,"current_range_meters":10000,"station_id":"ce4bgvp2rcd13ifvqct0","pricing_plan_id":"cebpf4jnsgd1na2vs0mg"},{"bike_id":"f87a7598-e6b9-4feb-a6e3-d98d4acd6941","system_id":"levelo_inurba_marseille","lat":43.24174,"lon":5.36407,"is_reserved":false,"is_disabled":false,"rental_uris":{"android":"levelo://app?vid=f87a7598-e6b9-4feb-a6e3-d98d4acd6941","ios":"levelo://app?vid=f87a7598-e6b9-4feb-a6e3-d98d4acd6941"},"vehicle_type_id":"4","last_reported":1766070757,"current_range_meters":10000,"station_id":"cpo36qri1sfpv3e86is0","pricing_plan_id":"cebpf4jnsgd1na2vs0mg"},{"bike_id":"1d959034-8c3b-4194-8f03-ba31b683013e","system_id":"levelo_inurba_marseille","lat":43.33536,"lon":5.3747,"is_reserved":false,"is_disabled":false,"rental_uris":{"android":"levelo://app?vid=1d959034-8c3b-4194-8f03-ba31b683013e","ios":"levelo://app?vid=1d959034-8c3b-4194-8f03-ba31b683013e"},"vehicle_type_id":"4","last_reported":1766070757,"current_range_meters":10000,"station_id":"st_d46tts09ee8s73dlu43g","pricing_plan_id":"cebpf4jnsgd1na2vs0mg"},{"bike_id":"9c10a177-9935-4a1a-982e-4841575bfa35","system_id":"levelo_inurba_marseille","lat":43.28621,"lon":5.35105,"is_reserved":false,"is_disabled":false,"rental_uris":{"android":"levelo://app?vid=9c10a177-9935-4a1a-982e-4841575bfa35","ios":"levelo://app?vid=9c10a177-9935-4a1a-982e-4841575bfa35"},"vehicle_type_id":"4","last_reported":1766070757,"current_range_meters":10000,"station_id":"ce4bhch2rcd13ifvqeug","pricing_plan_id":"cebpf4jnsgd1na2vs0mg"},{"bike_id":"cd4b798f-ef73-462b-a871-c0e46f70c7b6","system_id":"levelo_inurba_marseille","lat":43.29704,"lon":5.377,"is_reserved":false,"is_disabled":false,"rental_uris":{"android":"levelo://app?vid=cd4b798f-ef73-462b-a871-c0e46f70c7b6","ios":"levelo://app?vid=cd4b798f-ef73-462b-a871-c0e46f70c7b6"},"vehicle_type_id":"4","last_reported":1766070757,"current_range_meters":10800,"station_id":"ce4bgkh2rcd13ifvqbl0","pricing_plan_id":"cebpf4jnsgd1na2vs0mg"},{"bike_id":"50bb104f-bdbe-4eab-bd19-f33b1d1b4be5","system_id":"levelo_inurba_marseille","lat":43.25334,"lon":5.42172,"is_reserved":false,"is_disabled":false,"rental_uris":{"android":"levelo://app?vid=50bb104f-bdbe-4eab-bd19-f33b1d1b4be5","ios":"levelo://app?vid=50bb104f-bdbe-4eab-bd19-f33b1d1b4be5"},"vehicle_type_id":"4","last_reported":1766070757,"current_range_meters":10800,"station_id":"st_d2m65c5bi1j21697t3ng","pricing_plan_id":"cebpf4jnsgd1na2vs0mg"},{"bike_id":"e06c37bf-170f-4a5e-bc20-3afce321bbac","system_id":"levelo_inurba_marseille","lat":43.29157,"lon":5.3716,"is_reserved":false,"is_disabled":false,"rental_uris":{"android":"levelo://app?vid=e06c37bf-170f-4a5e-bc20-3afce321bbac","ios":"levelo://app?vid=e06c37bf-170f-4a5e-bc20-3afce321bbac"},"vehicle_type_id":"4","last_reported":1766070757,"current_range_meters":10800,"station_id":"ce4bha92rcd13ifvqeh0","pricing_plan_id":"cebpf4jnsgd1na2vs0mg"},{"bike_id":"345527b9-e5b3-41dc-86fa-0725a99c666a","system_id":"levelo_inurba_marseille","lat":43.331939,"lon":5.367311,"is_reserved":false,"is_disabled":false,"rental_uris":{"android":"levelo://app?vid=345527b9-e5b3-41dc-86fa-0725a99c666a","ios":"levelo://app?vid=345527b9-e5b3-41dc-86fa-0725a99c666a"},"vehicle_type_id":"4","last_reported":1766070757,"current_range_meters":10800,"station_id":"","pricing_plan_id":"cebpf4jnsgd1na2vs0mg"},{"bike_id":"c8ae05dc-be68-4290-a207-222d34083f3e","system_id":"levelo_inurba_marseille","lat":43.28306,"lon":5.38919,"is_reserved":false,"is_disabled":false,"rental_uris":{"android":"levelo://app?vid=c8ae05dc-be68-4290-a207-222d34083f3e","ios":"levelo://app?vid=c8ae05dc-be68-4290-a207-222d34083f3e"},"vehicle_type_id":"4","last_reported":1766070757,"current_range_meters":10800,"station_id":"","pricing_plan_id":"cebpf4jnsgd1na2vs0mg"},{"bike_id":"7e5e3878-901e-4cf9-bd85-774bfec7564a","system_id":"levelo_inurba_marseille","lat":43.31039,"lon":5.37168,"is_reserved":false,"is_disabled":false,"rental_uris":{"android":"levelo://app?vid=7e5e3878-901e-4cf9-bd85-774bfec7564a","ios":"levelo://app?vid=7e5e3878-901e-4cf9-bd85-774bfec7564a"},"vehicle_type_id":"4","last_reported":1766070757,"current_range_meters":10800,"station_id":"st_d4kl2rp97mjs73e7tdfg","pricing_plan_id":"cebpf4jnsgd1na2vs0mg"},{"bike_id":"81508f0a-e327-4705-ae72-228165570b37","system_id":"levelo_inurba_marseille","lat":43.25111,"lon":5.3898,"is_reserved":false,"is_disabled":false,"rental_uris":{"android":"levelo://app?vid=81508f0a-e327-4705-ae72-228165570b37","ios":"levelo://app?vid=81508f0a-e327-4705-ae72-228165570b37"},"vehicle_type_id":"4","last_reported":1766070757,"current_range_meters":10800,"station_id":"","pricing_plan_id":"cebpf4jnsgd1na2vs0mg"},{"bike_id":"e09e65d3-96e2-4631-ad79-2fc55af40855","system_id":"levelo_inurba_marseille","lat":43.29153,"lon":5.37154,"is_reserved":false,"is_disabled":false,"rental_uris":{"android":"levelo://app?vid=e09e65d3-96e2-4631-ad79-2fc55af40855","ios":"levelo://app?vid=e09e65d3-96e2-4631-ad79-2fc55af40855"},"vehicle_type_id":"4","last_reported":1766070757,"current_range_meters":10800,"station_id":"ce4bha92rcd13ifvqeh0","pricing_plan_id":"cebpf4jnsgd1na2vs0mg"},{"bike_id":"21a4d8e8-53dc-417f-a856-698ab3236d2d","system_id":"levelo_inurba_marseille","lat":43.280479,"lon":5.368713,"is_reserved":false,"is_disabled":false,"rental_uris":{"android":"levelo://app?vid=21a4d8e8-53dc-417f-a856-698ab3236d2d","ios":"levelo://app?vid=21a4d8e8-53dc-417f-a856-698ab3236d2d"},"vehicle_type_id":"4","last_reported":1766070757,"current_range_meters":10800,"station_id":"ce4bha12rcd13ifvqef0","pricing_plan_id":"cebpf4jnsgd1na2vs0mg"},{"bike_id":"11f01633-1467-48d4-a58d-38bd78112852","system_id":"levelo_inurba_marseille","lat":43.27576,"lon":5.38406,"is_reserved":false,"is_disabled":false,"rental_uris":{"android":"levelo://app?vid=11f01633-1467-48d4-a58d-38bd78112852","ios":"levelo://app?vid=11f01633-1467-48d4-a58d-38bd78112852"},"vehicle_type_id":"4","last_reported":1766070757,"current_range_meters":10800,"station_id":"ce4bhh92rcd13ifvqfi0","pricing_plan_id":"cebpf4jnsgd1na2vs0mg"},{"bike_id":"1c783e39-3092-489d-97e8-0a4c367392b3","system_id":"levelo_inurba_marseille","lat":43.30625,"lon":5.37205,"is_reserved":false,"is_disabled":false,"rental_uris":{"android":"levelo://app?vid=1c783e39-3092-489d-97e8-0a4c367392b3","ios":"levelo://app?vid=1c783e39-3092-489d-97e8-0a4c367392b3"},"vehicle_type_id":"4","last_reported":1766070757,"current_range_meters":11200,"station_id":"ce4bgqh2rcd13ifvqc4g","pricing_plan_id":"cebpf4jnsgd1na2vs0mg"},{"bike_id":"38cf53a6-ff03-4245-b99b-a3c30164292b","system_id":"levelo_inurba_marseille","lat":43.29598,"lon":5.380981,"is_reserved":false,"is_disabled":true,"rental_uris":{"android":"levelo://app?vid=38cf53a6-ff03-4245-b99b-a3c30164292b","ios":"levelo://app?vid=38cf53a6-ff03-4245-b99b-a3c30164292b"},"vehicle_type_id":"4","last_reported":1766070757,"current_range_meters":11200,"station_id":"ce4bgl12rcd13ifvqbo0","pricing_plan_id":"cebpf4jnsgd1na2vs0mg"},{"bike_id":"2154a936-f819-49ae-b7ae-2734365f2c42","system_id":"levelo_inurba_marseille","lat":43.33495,"lon":5.37489,"is_reserved":false,"is_disabled":false,"rental_uris":{"android":"levelo://app?vid=2154a936-f819-49ae-b7ae-2734365f2c42","ios":"levelo://app?vid=2154a936-f819-49ae-b7ae-2734365f2c42"},"vehicle_type_id":"4","last_reported":1766070757,"current_range_meters":11200,"station_id":"st_d46tts09ee8s73dlu43g","pricing_plan_id":"cebpf4jnsgd1na2vs0mg"},{"bike_id":"6a1e1967-fdaf-4e65-ae26-1571d7f0290c","system_id":"levelo_inurba_marseille","lat":43.337605,"lon":5.374353,"is_reserved":false,"is_disabled":false,"rental_uris":{"android":"levelo://app?vid=6a1e1967-fdaf-4e65-ae26-1571d7f0290c","ios":"levelo://app?vid=6a1e1967-fdaf-4e65-ae26-1571d7f0290c"},"vehicle_type_id":"4","last_reported":1766070757,"current_range_meters":11200,"station_id":"","pricing_plan_id":"cebpf4jnsgd1na2vs0mg"},{"bike_id":"bca3ef8f-a76c-47e8-92d5-6c1a5ece9b4d","system_id":"levelo_inurba_marseille","lat":43.23788,"lon":5.36627,"is_reserved":false,"is_disabled":false,"rental_uris":{"android":"levelo://app?vid=bca3ef8f-a76c-47e8-92d5-6c1a5ece9b4d","ios":"levelo://app?vid=bca3ef8f-a76c-47e8-92d5-6c1a5ece9b4d"},"vehicle_type_id":"4","last_reported":1766070757,"current_range_meters":11200,"station_id":"st_d3nk18o9ro0c73en2l3g","pricing_plan_id":"cebpf4jnsgd1na2vs0mg"},{"bike_id":"1b3c2c60-6ff2-4726-98a5-0e15725bfce9","system_id":"levelo_inurba_marseille","lat":43.29579,"lon":5.36734,"is_reserved":false,"is_disabled":false,"rental_uris":{"android":"levelo://app?vid=1b3c2c60-6ff2-4726-98a5-0e15725bfce9","ios":"levelo://app?vid=1b3c2c60-6ff2-4726-98a5-0e15725bfce9"},"vehicle_type_id":"4","last_reported":1766070757,"current_range_meters":11200,"station_id":"ce4bgph2rcd13ifvqc2g","pricing_plan_id":"cebpf4jnsgd1na2vs0mg"},{"bike_id":"51f43a5f-2a5a-4c8a-847c-1c5481be0271","system_id":"levelo_inurba_marseille","lat":43.30811,"lon":5.36731,"is_reserved":false,"is_disabled":true,"rental_uris":{"android":"levelo://app?vid=51f43a5f-2a5a-4c8a-847c-1c5481be0271","ios":"levelo://app?vid=51f43a5f-2a5a-4c8a-847c-1c5481be0271"},"vehicle_type_id":"4","last_reported":1766070757,"current_range_meters":11200,"station_id":"","pricing_plan_id":"cebpf4jnsgd1na2vs0mg"},{"bike_id":"1ce0f5c0-25df-445b-ba92-26de3010da50","system_id":"levelo_inurba_marseille","lat":43.33163,"lon":5.3769,"is_reserved":false,"is_disabled":false,"rental_uris":{"android":"levelo://app?vid=1ce0f5c0-25df-445b-ba92-26de3010da50","ios":"levelo://app?vid=1ce0f5c0-25df-445b-ba92-26de3010da50"},"vehicle_type_id":"4","last_reported":1766070757,"current_range_meters":11200,"station_id":"st_d46cu089ee8s73dldbu0","pricing_plan_id":"cebpf4jnsgd1na2vs0mg"},{"bike_id":"03c76c94-f1b1-42a4-b0c8-7f445a3a9340","system_id":"levelo_inurba_marseille","lat":43.28921,"lon":5.38393,"is_reserved":false,"is_disabled":false,"rental_uris":{"android":"levelo://app?vid=03c76c94-f1b1-42a4-b0c8-7f445a3a9340","ios":"levelo://app?vid=03c76c94-f1b1-42a4-b0c8-7f445a3a9340"},"vehicle_type_id":"4","last_reported":1766070757,"current_range_meters":11200,"station_id":"ce4bh612rcd13ifvqe6g","pricing_plan_id":"cebpf4jnsgd1na2vs0mg"},{"bike_id":"cf0e2dfe-8751-4251-bbd3-3ad00be9f3ad","system_id":"levelo_inurba_marseille","lat":43.284808,"lon":5.483978,"is_reserved":false,"is_disabled":false,"rental_uris":{"android":"levelo://app?vid=cf0e2dfe-8751-4251-bbd3-3ad00be9f3ad","ios":"levelo://app?vid=cf0e2dfe-8751-4251-bbd3-3ad00be9f3ad"},"vehicle_type_id":"4","last_reported":1766070757,"current_range_meters":11200,"station_id":"st_d3svhcjqgbts73a3dn0g","pricing_plan_id":"cebpf4jnsgd1na2vs0mg"},{"bike_id":"0e5605a0-8a9b-4110-930b-7d8a6198266d","system_id":"levelo_inurba_marseille","lat":43.32366,"lon":5.385,"is_reserved":false,"is_disabled":false,"rental_uris":{"android":"levelo://app?vid=0e5605a0-8a9b-4110-930b-7d8a6198266d","ios":"levelo://app?vid=0e5605a0-8a9b-4110-930b-7d8a6198266d"},"vehicle_type_id":"4","last_reported":1766070757,"current_range_meters":11200,"station_id":"st_d45171o9ee8s73djdqug","pricing_plan_id":"cebpf4jnsgd1na2vs0mg"},{"bike_id":"09575982-d1ce-48f3-97ed-c290bec651a2","system_id":"levelo_inurba_marseille","lat":43.28542,"lon":5.441,"is_reserved":false,"is_disabled":false,"rental_uris":{"android":"levelo://app?vid=09575982-d1ce-48f3-97ed-c290bec651a2","ios":"levelo://app?vid=09575982-d1ce-48f3-97ed-c290bec651a2"},"vehicle_type_id":"4","last_reported":1766070757,"current_range_meters":11200,"station_id":"st_d3j3df2ikq2c7380ej80","pricing_plan_id":"cebpf4jnsgd1na2vs0mg"},{"bike_id":"0940fde5-816b-4e43-b825-546e9c74bab0","system_id":"levelo_inurba_marseille","lat":43.29297,"lon":5.37469,"is_reserved":false,"is_disabled":false,"rental_uris":{"android":"levelo://app?vid=0940fde5-816b-4e43-b825-546e9c74bab0","ios":"levelo://app?vid=0940fde5-816b-4e43-b825-546e9c74bab0"},"vehicle_type_id":"4","last_reported":1766070757,"current_range_meters":11600,"station_id":"ce4bgi12rcd13ifvqb70","pricing_plan_id":"cebpf4jnsgd1na2vs0mg"},{"bike_id":"2a7cb992-0930-4ad6-8e4f-da52676eb138","system_id":"levelo_inurba_marseille","lat":43.27389,"lon":5.36264,"is_reserved":false,"is_disabled":false,"rental_uris":{"android":"levelo://app?vid=2a7cb992-0930-4ad6-8e4f-da52676eb138","ios":"levelo://app?vid=2a7cb992-0930-4ad6-8e4f-da52676eb138"},"vehicle_type_id":"4","last_reported":1766070757,"current_range_meters":11600,"station_id":"ce4bhbh2rcd13ifvqeo0","pricing_plan_id":"cebpf4jnsgd1na2vs0mg"},{"bike_id":"4a614ce4-d61c-499d-8955-0569e02f377b","system_id":"levelo_inurba_marseille","lat":43.27517,"lon":5.37283,"is_reserved":false,"is_disabled":false,"rental_uris":{"android":"levelo://app?vid=4a614ce4-d61c-499d-8955-0569e02f377b","ios":"levelo://app?vid=4a614ce4-d61c-499d-8955-0569e02f377b"},"vehicle_type_id":"4","last_reported":1766070757,"current_range_meters":11600,"station_id":"","pricing_plan_id":"cebpf4jnsgd1na2vs0mg"},{"bike_id":"ee6f7e5c-24b4-4046-a3ec-072080785116","system_id":"levelo_inurba_marseille","lat":43.21736,"lon":5.34567,"is_reserved":false,"is_disabled":true,"rental_uris":{"android":"levelo://app?vid=ee6f7e5c-24b4-4046-a3ec-072080785116","ios":"levelo://app?vid=ee6f7e5c-24b4-4046-a3ec-072080785116"},"vehicle_type_id":"4","last_reported":1766070757,"current_range_meters":11600,"station_id":"st_cvj6r9ubvosntc0bgbag","pricing_plan_id":"cebpf4jnsgd1na2vs0mg"},{"bike_id":"ebcd0d10-df3c-4e1d-91fb-3b7f9f34f179","system_id":"levelo_inurba_marseille","lat":43.29872,"lon":5.39731,"is_reserved":false,"is_disabled":false,"rental_uris":{"android":"levelo://app?vid=ebcd0d10-df3c-4e1d-91fb-3b7f9f34f179","ios":"levelo://app?vid=ebcd0d10-df3c-4e1d-91fb-3b7f9f34f179"},"vehicle_type_id":"4","last_reported":1766070757,"current_range_meters":11600,"station_id":"ce4bh0h2rcd13ifvqd50","pricing_plan_id":"cebpf4jnsgd1na2vs0mg"},{"bike_id":"c08f9ecd-03ca-4fdf-9e4c-62848f6e4625","system_id":"levelo_inurba_marseille","lat":43.29619,"lon":5.37721,"is_reserved":false,"is_disabled":false,"rental_uris":{"android":"levelo://app?vid=c08f9ecd-03ca-4fdf-9e4c-62848f6e4625","ios":"levelo://app?vid=c08f9ecd-03ca-4fdf-9e4c-62848f6e4625"},"vehicle_type_id":"4","last_reported":1766070757,"current_range_meters":11600,"station_id":"ce4bgi92rcd13ifvqb90","pricing_plan_id":"cebpf4jnsgd1na2vs0mg"},{"bike_id":"2208c49f-81fb-4468-8204-92b43005b984","system_id":"levelo_inurba_marseille","lat":43.27807,"lon":5.40715,"is_reserved":false,"is_disabled":false,"rental_uris":{"android":"levelo://app?vid=2208c49f-81fb-4468-8204-92b43005b984","ios":"levelo://app?vid=2208c49f-81fb-4468-8204-92b43005b984"},"vehicle_type_id":"4","last_reported":1766070757,"current_range_meters":11600,"station_id":"ce4bhnh2rcd13ifvqgtg","pricing_plan_id":"cebpf4jnsgd1na2vs0mg"},{"bike_id":"e4857aae-2b03-42b1-971c-faa05885a884","system_id":"levelo_inurba_marseille","lat":43.2957,"lon":5.37525,"is_reserved":false,"is_disabled":false,"rental_uris":{"android":"levelo://app?vid=e4857aae-2b03-42b1-971c-faa05885a884","ios":"levelo://app?vid=e4857aae-2b03-42b1-971c-faa05885a884"},"vehicle_type_id":"4","last_reported":1766070757,"current_range_meters":11600,"station_id":"ce4bgh92rcd13ifvqb50","pricing_plan_id":"cebpf4jnsgd1na2vs0mg"},{"bike_id":"f0552324-7f16-45f2-af53-7d50398c0e4b","system_id":"levelo_inurba_marseille","lat":43.29198,"lon":5.39342,"is_reserved":false,"is_disabled":true,"rental_uris":{"android":"levelo://app?vid=f0552324-7f16-45f2-af53-7d50398c0e4b","ios":"levelo://app?vid=f0552324-7f16-45f2-af53-7d50398c0e4b"},"vehicle_type_id":"4","last_reported":1766070757,"current_range_meters":11600,"station_id":"ce4bh192rcd13ifvqdd0","pricing_plan_id":"cebpf4jnsgd1na2vs0mg"},{"bike_id":"f0f9be4d-1ac9-499d-a37f-ab840763b248","system_id":"levelo_inurba_marseille","lat":43.29805,"lon":5.39339,"is_reserved":false,"is_disabled":false,"rental_uris":{"android":"levelo://app?vid=f0f9be4d-1ac9-499d-a37f-ab840763b248","ios":"levelo://app?vid=f0f9be4d-1ac9-499d-a37f-ab840763b248"},"vehicle_type_id":"4","last_reported":1766070757,"current_range_meters":11600,"station_id":"chh1huq6cuj3fo74tm60","pricing_plan_id":"cebpf4jnsgd1na2vs0mg"},{"bike_id":"53b4f7a5-d4a3-4ba7-a32f-24fcc5f84365","system_id":"levelo_inurba_marseille","lat":43.27375,"lon":5.36252,"is_reserved":false,"is_disabled":false,"rental_uris":{"android":"levelo://app?vid=53b4f7a5-d4a3-4ba7-a32f-24fcc5f84365","ios":"levelo://app?vid=53b4f7a5-d4a3-4ba7-a32f-24fcc5f84365"},"vehicle_type_id":"4","last_reported":1766070757,"current_range_meters":11600,"station_id":"ce4bhbh2rcd13ifvqeo0","pricing_plan_id":"cebpf4jnsgd1na2vs0mg"},{"bike_id":"436e467e-3ef8-4484-b12e-82fd46509f97","system_id":"levelo_inurba_marseille","lat":43.2332,"lon":5.44422,"is_reserved":false,"is_disabled":false,"rental_uris":{"android":"levelo://app?vid=436e467e-3ef8-4484-b12e-82fd46509f97","ios":"levelo://app?vid=436e467e-3ef8-4484-b12e-82fd46509f97"},"vehicle_type_id":"4","last_reported":1766070757,"current_range_meters":12000,"station_id":"","pricing_plan_id":"cebpf4jnsgd1na2vs0mg"},{"bike_id":"0e1e6704-cb4c-4bac-9afe-811b4fdf1b5e","system_id":"levelo_inurba_marseille","lat":43.303,"lon":5.36893,"is_reserved":false,"is_disabled":false,"rental_uris":{"android":"levelo://app?vid=0e1e6704-cb4c-4bac-9afe-811b4fdf1b5e","ios":"levelo://app?vid=0e1e6704-cb4c-4bac-9afe-811b4fdf1b5e"},"vehicle_type_id":"4","last_reported":1766070757,"current_range_meters":12000,"station_id":"ce4bgqh2rcd13ifvqc5g","pricing_plan_id":"cebpf4jnsgd1na2vs0mg"},{"bike_id":"9a4090b1-3af1-4620-96cb-2dd026585aca","system_id":"levelo_inurba_marseille","lat":43.32401,"lon":5.36608,"is_reserved":false,"is_disabled":false,"rental_uris":{"android":"levelo://app?vid=9a4090b1-3af1-4620-96cb-2dd026585aca","ios":"levelo://app?vid=9a4090b1-3af1-4620-96cb-2dd026585aca"},"vehicle_type_id":"4","last_reported":1766070757,"current_range_meters":12000,"station_id":"","pricing_plan_id":"cebpf4jnsgd1na2vs0mg"},{"bike_id":"2704a896-1b81-4eb2-9ff3-afb57e76d700","system_id":"levelo_inurba_marseille","lat":43.2984,"lon":5.36278,"is_reserved":false,"is_disabled":false,"rental_uris":{"android":"levelo://app?vid=2704a896-1b81-4eb2-9ff3-afb57e76d700","ios":"levelo://app?vid=2704a896-1b81-4eb2-9ff3-afb57e76d700"},"vehicle_type_id":"4","last_reported":1766070757,"current_range_meters":12400,"station_id":"ce4bgpp2rcd13ifvqc3g","pricing_plan_id":"cebpf4jnsgd1na2vs0mg"},{"bike_id":"9d054196-cd6f-4325-bb1d-fbfbbc9318d2","system_id":"levelo_inurba_marseille","lat":43.301169,"lon":5.43118,"is_reserved":false,"is_disabled":false,"rental_uris":{"android":"levelo://app?vid=9d054196-cd6f-4325-bb1d-fbfbbc9318d2","ios":"levelo://app?vid=9d054196-cd6f-4325-bb1d-fbfbbc9318d2"},"vehicle_type_id":"4","last_reported":1766070757,"current_range_meters":12400,"station_id":"st_d3js3co5814s73ftftug","pricing_plan_id":"cebpf4jnsgd1na2vs0mg"},{"bike_id":"6c913f05-1c3c-4e55-ab8c-c57455a59302","system_id":"levelo_inurba_marseille","lat":43.30798,"lon":5.38161,"is_reserved":false,"is_disabled":false,"rental_uris":{"android":"levelo://app?vid=6c913f05-1c3c-4e55-ab8c-c57455a59302","ios":"levelo://app?vid=6c913f05-1c3c-4e55-ab8c-c57455a59302"},"vehicle_type_id":"4","last_reported":1766070757,"current_range_meters":12400,"station_id":"ce4bgt12rcd13ifvqce0","pricing_plan_id":"cebpf4jnsgd1na2vs0mg"},{"bike_id":"228ed5e4-a793-4f90-a46f-1e70b2793524","system_id":"levelo_inurba_marseille","lat":43.28626,"lon":5.39879,"is_reserved":false,"is_disabled":true,"rental_uris":{"android":"levelo://app?vid=228ed5e4-a793-4f90-a46f-1e70b2793524","ios":"levelo://app?vid=228ed5e4-a793-4f90-a46f-1e70b2793524"},"vehicle_type_id":"4","last_reported":1766070757,"current_range_meters":12400,"station_id":"st_d4a7ka997mjs738ck50g","pricing_plan_id":"cebpf4jnsgd1na2vs0mg"},{"bike_id":"c5365846-c619-4f12-8c92-97c9f9725a15","system_id":"levelo_inurba_marseille","lat":43.29529,"lon":5.37928,"is_reserved":false,"is_disabled":false,"rental_uris":{"android":"levelo://app?vid=c5365846-c619-4f12-8c92-97c9f9725a15","ios":"levelo://app?vid=c5365846-c619-4f12-8c92-97c9f9725a15"},"vehicle_type_id":"4","last_reported":1766070757,"current_range_meters":12400,"station_id":"","pricing_plan_id":"cebpf4jnsgd1na2vs0mg"},{"bike_id":"778d9648-fd97-4408-8b44-dc72af41a7c5","system_id":"levelo_inurba_marseille","lat":43.255042,"lon":5.37651,"is_reserved":false,"is_disabled":false,"rental_uris":{"android":"levelo://app?vid=778d9648-fd97-4408-8b44-dc72af41a7c5","ios":"levelo://app?vid=778d9648-fd97-4408-8b44-dc72af41a7c5"},"vehicle_type_id":"4","last_reported":1766070757,"current_range_meters":12400,"station_id":"ce4bhh12rcd13ifvqff0","pricing_plan_id":"cebpf4jnsgd1na2vs0mg"},{"bike_id":"a6bb7fde-2db0-447e-8cac-38a0c3844ce6","system_id":"levelo_inurba_marseille","lat":43.27772,"lon":5.38789,"is_reserved":false,"is_disabled":false,"rental_uris":{"android":"levelo://app?vid=a6bb7fde-2db0-447e-8cac-38a0c3844ce6","ios":"levelo://app?vid=a6bb7fde-2db0-447e-8cac-38a0c3844ce6"},"vehicle_type_id":"4","last_reported":1766070757,"current_range_meters":12800,"station_id":"","pricing_plan_id":"cebpf4jnsgd1na2vs0mg"},{"bike_id":"b6521d11-99b8-43ca-a853-a51747d5db82","system_id":"levelo_inurba_marseille","lat":43.301253,"lon":5.431195,"is_reserved":false,"is_disabled":false,"rental_uris":{"android":"levelo://app?vid=b6521d11-99b8-43ca-a853-a51747d5db82","ios":"levelo://app?vid=b6521d11-99b8-43ca-a853-a51747d5db82"},"vehicle_type_id":"4","last_reported":1766070757,"current_range_meters":12800,"station_id":"st_d3js3co5814s73ftftug","pricing_plan_id":"cebpf4jnsgd1na2vs0mg"},{"bike_id":"a12aec62-cb0e-4bf9-9011-6b7a9ceb2f31","system_id":"levelo_inurba_marseille","lat":43.25001,"lon":5.3893,"is_reserved":false,"is_disabled":false,"rental_uris":{"android":"levelo://app?vid=a12aec62-cb0e-4bf9-9011-6b7a9ceb2f31","ios":"levelo://app?vid=a12aec62-cb0e-4bf9-9011-6b7a9ceb2f31"},"vehicle_type_id":"4","last_reported":1766070757,"current_range_meters":12800,"station_id":"ce4bhgp2rcd13ifvqfd0","pricing_plan_id":"cebpf4jnsgd1na2vs0mg"},{"bike_id":"85f12ccf-5b46-4628-894a-c4095346a940","system_id":"levelo_inurba_marseille","lat":43.27964,"lon":5.41054,"is_reserved":false,"is_disabled":true,"rental_uris":{"android":"levelo://app?vid=85f12ccf-5b46-4628-894a-c4095346a940","ios":"levelo://app?vid=85f12ccf-5b46-4628-894a-c4095346a940"},"vehicle_type_id":"4","last_reported":1766070757,"current_range_meters":12800,"station_id":"ce4bhnp2rcd13ifvqh0g","pricing_plan_id":"cebpf4jnsgd1na2vs0mg"},{"bike_id":"d50867a0-a974-4546-a28c-eba4c2e0b399","system_id":"levelo_inurba_marseille","lat":43.23189,"lon":5.35553,"is_reserved":false,"is_disabled":false,"rental_uris":{"android":"levelo://app?vid=d50867a0-a974-4546-a28c-eba4c2e0b399","ios":"levelo://app?vid=d50867a0-a974-4546-a28c-eba4c2e0b399"},"vehicle_type_id":"4","last_reported":1766070757,"current_range_meters":12800,"station_id":"ce4bhu92rcd13ifvqi70","pricing_plan_id":"cebpf4jnsgd1na2vs0mg"},{"bike_id":"52b61354-da80-471d-a0ef-682891b3f0eb","system_id":"levelo_inurba_marseille","lat":43.24388,"lon":5.37104,"is_reserved":false,"is_disabled":true,"rental_uris":{"android":"levelo://app?vid=52b61354-da80-471d-a0ef-682891b3f0eb","ios":"levelo://app?vid=52b61354-da80-471d-a0ef-682891b3f0eb"},"vehicle_type_id":"4","last_reported":1766070757,"current_range_meters":12800,"station_id":"ce4bhhh2rcd13ifvqfk0","pricing_plan_id":"cebpf4jnsgd1na2vs0mg"},{"bike_id":"1f8bf9e3-c9bd-4c05-9201-34f9580d25af","system_id":"levelo_inurba_marseille","lat":43.21203,"lon":5.35069,"is_reserved":false,"is_disabled":false,"rental_uris":{"android":"levelo://app?vid=1f8bf9e3-c9bd-4c05-9201-34f9580d25af","ios":"levelo://app?vid=1f8bf9e3-c9bd-4c05-9201-34f9580d25af"},"vehicle_type_id":"4","last_reported":1766070757,"current_range_meters":12800,"station_id":"st_cvj6sg6p6f1abm77japg","pricing_plan_id":"cebpf4jnsgd1na2vs0mg"},{"bike_id":"0d76f9ec-36de-4311-a1ef-897de10e0d0d","system_id":"levelo_inurba_marseille","lat":43.29841,"lon":5.44079,"is_reserved":false,"is_disabled":false,"rental_uris":{"android":"levelo://app?vid=0d76f9ec-36de-4311-a1ef-897de10e0d0d","ios":"levelo://app?vid=0d76f9ec-36de-4311-a1ef-897de10e0d0d"},"vehicle_type_id":"4","last_reported":1766070757,"current_range_meters":12800,"station_id":"","pricing_plan_id":"cebpf4jnsgd1na2vs0mg"},{"bike_id":"7ac32299-ac28-4516-a921-07c87e98c7c5","system_id":"levelo_inurba_marseille","lat":43.2476,"lon":5.37477,"is_reserved":false,"is_disabled":false,"rental_uris":{"android":"levelo://app?vid=7ac32299-ac28-4516-a921-07c87e98c7c5","ios":"levelo://app?vid=7ac32299-ac28-4516-a921-07c87e98c7c5"},"vehicle_type_id":"4","last_reported":1766070757,"current_range_meters":12800,"station_id":"ce4bhgh2rcd13ifvqfb0","pricing_plan_id":"cebpf4jnsgd1na2vs0mg"},{"bike_id":"b080cdab-e598-4c96-83d6-9ef88795fc74","system_id":"levelo_inurba_marseille","lat":43.29202,"lon":5.358052,"is_reserved":false,"is_disabled":false,"rental_uris":{"android":"levelo://app?vid=b080cdab-e598-4c96-83d6-9ef88795fc74","ios":"levelo://app?vid=b080cdab-e598-4c96-83d6-9ef88795fc74"},"vehicle_type_id":"4","last_reported":1766070757,"current_range_meters":12800,"station_id":"ce4bhb12rcd13ifvqel0","pricing_plan_id":"cebpf4jnsgd1na2vs0mg"},{"bike_id":"466b8b34-b975-4feb-aba8-890444a3c50b","system_id":"levelo_inurba_marseille","lat":43.29034,"lon":5.38631,"is_reserved":false,"is_disabled":false,"rental_uris":{"android":"levelo://app?vid=466b8b34-b975-4feb-aba8-890444a3c50b","ios":"levelo://app?vid=466b8b34-b975-4feb-aba8-890444a3c50b"},"vehicle_type_id":"4","last_reported":1766070757,"current_range_meters":12800,"station_id":"ce4bh4p2rcd13ifvqe0g","pricing_plan_id":"cebpf4jnsgd1na2vs0mg"},{"bike_id":"4d8ed88d-01cb-4470-9f21-2f377b0e095c","system_id":"levelo_inurba_marseille","lat":43.28721,"lon":5.36089,"is_reserved":false,"is_disabled":false,"rental_uris":{"android":"levelo://app?vid=4d8ed88d-01cb-4470-9f21-2f377b0e095c","ios":"levelo://app?vid=4d8ed88d-01cb-4470-9f21-2f377b0e095c"},"vehicle_type_id":"4","last_reported":1766070757,"current_range_meters":12800,"station_id":"cki0cbj6b192h4jlfktg","pricing_plan_id":"cebpf4jnsgd1na2vs0mg"},{"bike_id":"7d66c6df-8513-4be7-ae50-4718cfeb6a90","system_id":"levelo_inurba_marseille","lat":43.32366,"lon":5.36738,"is_reserved":false,"is_disabled":false,"rental_uris":{"android":"levelo://app?vid=7d66c6df-8513-4be7-ae50-4718cfeb6a90","ios":"levelo://app?vid=7d66c6df-8513-4be7-ae50-4718cfeb6a90"},"vehicle_type_id":"4","last_reported":1766070757,"current_range_meters":12800,"station_id":"ce4bhsh2rcd13ifvqi2g","pricing_plan_id":"cebpf4jnsgd1na2vs0mg"},{"bike_id":"9d69d969-80ac-4208-a742-5bc89bcc7fbb","system_id":"levelo_inurba_marseille","lat":43.255765,"lon":5.382362,"is_reserved":false,"is_disabled":false,"rental_uris":{"android":"levelo://app?vid=9d69d969-80ac-4208-a742-5bc89bcc7fbb","ios":"levelo://app?vid=9d69d969-80ac-4208-a742-5bc89bcc7fbb"},"vehicle_type_id":"4","last_reported":1766070757,"current_range_meters":12800,"station_id":"ce4bhih2rcd13ifvqfs0","pricing_plan_id":"cebpf4jnsgd1na2vs0mg"},{"bike_id":"e79f34f4-a454-46bc-b7bd-c453550482db","system_id":"levelo_inurba_marseille","lat":43.30559,"lon":5.367,"is_reserved":false,"is_disabled":false,"rental_uris":{"android":"levelo://app?vid=e79f34f4-a454-46bc-b7bd-c453550482db","ios":"levelo://app?vid=e79f34f4-a454-46bc-b7bd-c453550482db"},"vehicle_type_id":"4","last_reported":1766070757,"current_range_meters":12800,"station_id":"ce4bgrp2rcd13ifvqc9g","pricing_plan_id":"cebpf4jnsgd1na2vs0mg"},{"bike_id":"98df3c79-a09d-4fcd-8e72-1d835e48117a","system_id":"levelo_inurba_marseille","lat":43.31433,"lon":5.40386,"is_reserved":false,"is_disabled":false,"rental_uris":{"android":"levelo://app?vid=98df3c79-a09d-4fcd-8e72-1d835e48117a","ios":"levelo://app?vid=98df3c79-a09d-4fcd-8e72-1d835e48117a"},"vehicle_type_id":"4","last_reported":1766070757,"current_range_meters":12800,"station_id":"","pricing_plan_id":"cebpf4jnsgd1na2vs0mg"},{"bike_id":"539a15a5-ea1f-433a-b280-748c300e9855","system_id":"levelo_inurba_marseille","lat":43.232789,"lon":5.399677,"is_reserved":false,"is_disabled":false,"rental_uris":{"android":"levelo://app?vid=539a15a5-ea1f-433a-b280-748c300e9855","ios":"levelo://app?vid=539a15a5-ea1f-433a-b280-748c300e9855"},"vehicle_type_id":"4","last_reported":1766070757,"current_range_meters":12800,"station_id":"ce4bhn12rcd13ifvqgqg","pricing_plan_id":"cebpf4jnsgd1na2vs0mg"},{"bike_id":"0de50e14-dc05-48db-b2b3-c6b99664dcd7","system_id":"levelo_inurba_marseille","lat":43.23184,"lon":5.35553,"is_reserved":false,"is_disabled":false,"rental_uris":{"android":"levelo://app?vid=0de50e14-dc05-48db-b2b3-c6b99664dcd7","ios":"levelo://app?vid=0de50e14-dc05-48db-b2b3-c6b99664dcd7"},"vehicle_type_id":"4","last_reported":1766070757,"current_range_meters":13600,"station_id":"ce4bhu92rcd13ifvqi70","pricing_plan_id":"cebpf4jnsgd1na2vs0mg"},{"bike_id":"e88c0e2c-b3d4-45b4-ab12-271fc07f2d4e","system_id":"levelo_inurba_marseille","lat":43.2767,"lon":5.38878,"is_reserved":false,"is_disabled":false,"rental_uris":{"android":"levelo://app?vid=e88c0e2c-b3d4-45b4-ab12-271fc07f2d4e","ios":"levelo://app?vid=e88c0e2c-b3d4-45b4-ab12-271fc07f2d4e"},"vehicle_type_id":"4","last_reported":1766070757,"current_range_meters":13600,"station_id":"ce4bhi12rcd13ifvqfo0","pricing_plan_id":"cebpf4jnsgd1na2vs0mg"},{"bike_id":"e021dafe-b1f9-403c-bd19-c846f9798435","system_id":"levelo_inurba_marseille","lat":43.24068,"lon":5.3777,"is_reserved":false,"is_disabled":false,"rental_uris":{"android":"levelo://app?vid=e021dafe-b1f9-403c-bd19-c846f9798435","ios":"levelo://app?vid=e021dafe-b1f9-403c-bd19-c846f9798435"},"vehicle_type_id":"4","last_reported":1766070757,"current_range_meters":13600,"station_id":"ce4bhnp2rcd13ifvqgvg","pricing_plan_id":"cebpf4jnsgd1na2vs0mg"},{"bike_id":"63c41449-76cb-4593-a116-d53f025be3ec","system_id":"levelo_inurba_marseille","lat":43.26649,"lon":5.40818,"is_reserved":false,"is_disabled":false,"rental_uris":{"android":"levelo://app?vid=63c41449-76cb-4593-a116-d53f025be3ec","ios":"levelo://app?vid=63c41449-76cb-4593-a116-d53f025be3ec"},"vehicle_type_id":"4","last_reported":1766070757,"current_range_meters":13600,"station_id":"","pricing_plan_id":"cebpf4jnsgd1na2vs0mg"},{"bike_id":"41b4934d-7a02-4ba6-8bd3-a99f08d428b2","system_id":"levelo_inurba_marseille","lat":43.28853,"lon":5.35853,"is_reserved":false,"is_disabled":false,"rental_uris":{"android":"levelo://app?vid=41b4934d-7a02-4ba6-8bd3-a99f08d428b2","ios":"levelo://app?vid=41b4934d-7a02-4ba6-8bd3-a99f08d428b2"},"vehicle_type_id":"4","last_reported":1766070757,"current_range_meters":13600,"station_id":"ce4bhb12rcd13ifvqem0","pricing_plan_id":"cebpf4jnsgd1na2vs0mg"},{"bike_id":"03a674ea-657c-4035-8e69-54a23edb2670","system_id":"levelo_inurba_marseille","lat":43.2638,"lon":5.41046,"is_reserved":false,"is_disabled":false,"rental_uris":{"android":"levelo://app?vid=03a674ea-657c-4035-8e69-54a23edb2670","ios":"levelo://app?vid=03a674ea-657c-4035-8e69-54a23edb2670"},"vehicle_type_id":"4","last_reported":1766070757,"current_range_meters":13600,"station_id":"st_d4e5ca6na9uc73bfl5fg","pricing_plan_id":"cebpf4jnsgd1na2vs0mg"},{"bike_id":"fade1f76-6248-43fe-aeb9-7f93aeff737b","system_id":"levelo_inurba_marseille","lat":43.27921,"lon":5.395713,"is_reserved":false,"is_disabled":true,"rental_uris":{"android":"levelo://app?vid=fade1f76-6248-43fe-aeb9-7f93aeff737b","ios":"levelo://app?vid=fade1f76-6248-43fe-aeb9-7f93aeff737b"},"vehicle_type_id":"4","last_reported":1766070757,"current_range_meters":13600,"station_id":"ce4bhf92rcd13ifvqf40","pricing_plan_id":"cebpf4jnsgd1na2vs0mg"},{"bike_id":"fee29f30-60dc-4795-b535-0950dc0b0aca","system_id":"levelo_inurba_marseille","lat":43.3126,"lon":5.36863,"is_reserved":false,"is_disabled":false,"rental_uris":{"android":"levelo://app?vid=fee29f30-60dc-4795-b535-0950dc0b0aca","ios":"levelo://app?vid=fee29f30-60dc-4795-b535-0950dc0b0aca"},"vehicle_type_id":"4","last_reported":1766070757,"current_range_meters":13600,"station_id":"ce4bgl92rcd13ifvqbq0","pricing_plan_id":"cebpf4jnsgd1na2vs0mg"},{"bike_id":"f0c5eaa0-7ffa-4f96-be5d-71a2a68eb154","system_id":"levelo_inurba_marseille","lat":43.29785,"lon":5.38095,"is_reserved":false,"is_disabled":false,"rental_uris":{"android":"levelo://app?vid=f0c5eaa0-7ffa-4f96-be5d-71a2a68eb154","ios":"levelo://app?vid=f0c5eaa0-7ffa-4f96-be5d-71a2a68eb154"},"vehicle_type_id":"4","last_reported":1766070757,"current_range_meters":13600,"station_id":"ce4bgip2rcd13ifvqbb0","pricing_plan_id":"cebpf4jnsgd1na2vs0mg"},{"bike_id":"9f6c9975-15d6-48de-a383-d85662191ef8","system_id":"levelo_inurba_marseille","lat":43.21225,"lon":5.3508,"is_reserved":false,"is_disabled":false,"rental_uris":{"android":"levelo://app?vid=9f6c9975-15d6-48de-a383-d85662191ef8","ios":"levelo://app?vid=9f6c9975-15d6-48de-a383-d85662191ef8"},"vehicle_type_id":"4","last_reported":1766070757,"current_range_meters":14000,"station_id":"st_cvj6sg6p6f1abm77japg","pricing_plan_id":"cebpf4jnsgd1na2vs0mg"},{"bike_id":"d235767a-3e44-44c9-893e-7ebda15e5a64","system_id":"levelo_inurba_marseille","lat":43.25432,"lon":5.38519,"is_reserved":false,"is_disabled":false,"rental_uris":{"android":"levelo://app?vid=d235767a-3e44-44c9-893e-7ebda15e5a64","ios":"levelo://app?vid=d235767a-3e44-44c9-893e-7ebda15e5a64"},"vehicle_type_id":"4","last_reported":1766070757,"current_range_meters":14000,"station_id":"","pricing_plan_id":"cebpf4jnsgd1na2vs0mg"},{"bike_id":"f621baf8-0b1d-4915-82f5-f14757f2e678","system_id":"levelo_inurba_marseille","lat":43.26647,"lon":5.38255,"is_reserved":false,"is_disabled":false,"rental_uris":{"android":"levelo://app?vid=f621baf8-0b1d-4915-82f5-f14757f2e678","ios":"levelo://app?vid=f621baf8-0b1d-4915-82f5-f14757f2e678"},"vehicle_type_id":"4","last_reported":1766070757,"current_range_meters":14000,"station_id":"ce4bhg92rcd13ifvqf90","pricing_plan_id":"cebpf4jnsgd1na2vs0mg"},{"bike_id":"5d65cceb-4b3a-42ef-a9d8-44a2e8fcd9c4","system_id":"levelo_inurba_marseille","lat":43.237955,"lon":5.36636,"is_reserved":false,"is_disabled":false,"rental_uris":{"android":"levelo://app?vid=5d65cceb-4b3a-42ef-a9d8-44a2e8fcd9c4","ios":"levelo://app?vid=5d65cceb-4b3a-42ef-a9d8-44a2e8fcd9c4"},"vehicle_type_id":"4","last_reported":1766070757,"current_range_meters":14000,"station_id":"st_d3nk18o9ro0c73en2l3g","pricing_plan_id":"cebpf4jnsgd1na2vs0mg"},{"bike_id":"81b4879d-5423-4aad-a0bc-1edbef8c668c","system_id":"levelo_inurba_marseille","lat":43.241709,"lon":5.364032,"is_reserved":false,"is_disabled":false,"rental_uris":{"android":"levelo://app?vid=81b4879d-5423-4aad-a0bc-1edbef8c668c","ios":"levelo://app?vid=81b4879d-5423-4aad-a0bc-1edbef8c668c"},"vehicle_type_id":"4","last_reported":1766070757,"current_range_meters":14000,"station_id":"cpo36qri1sfpv3e86is0","pricing_plan_id":"cebpf4jnsgd1na2vs0mg"},{"bike_id":"2029c855-dcdb-4970-bac2-bc6c1ffd0882","system_id":"levelo_inurba_marseille","lat":43.266812,"lon":5.38273,"is_reserved":false,"is_disabled":false,"rental_uris":{"android":"levelo://app?vid=2029c855-dcdb-4970-bac2-bc6c1ffd0882","ios":"levelo://app?vid=2029c855-dcdb-4970-bac2-bc6c1ffd0882"},"vehicle_type_id":"4","last_reported":1766070757,"current_range_meters":14000,"station_id":"","pricing_plan_id":"cebpf4jnsgd1na2vs0mg"},{"bike_id":"5df7c2b5-328b-4cf1-a7f3-c3abbb4ce075","system_id":"levelo_inurba_marseille","lat":43.23798,"lon":5.36626,"is_reserved":false,"is_disabled":false,"rental_uris":{"android":"levelo://app?vid=5df7c2b5-328b-4cf1-a7f3-c3abbb4ce075","ios":"levelo://app?vid=5df7c2b5-328b-4cf1-a7f3-c3abbb4ce075"},"vehicle_type_id":"4","last_reported":1766070757,"current_range_meters":14000,"station_id":"st_d3nk18o9ro0c73en2l3g","pricing_plan_id":"cebpf4jnsgd1na2vs0mg"},{"bike_id":"67b338a7-d69f-4107-83ae-8f5394436342","system_id":"levelo_inurba_marseille","lat":43.30427,"lon":5.39754,"is_reserved":false,"is_disabled":false,"rental_uris":{"android":"levelo://app?vid=67b338a7-d69f-4107-83ae-8f5394436342","ios":"levelo://app?vid=67b338a7-d69f-4107-83ae-8f5394436342"},"vehicle_type_id":"4","last_reported":1766070757,"current_range_meters":14000,"station_id":"ce4bh092rcd13ifvqd20","pricing_plan_id":"cebpf4jnsgd1na2vs0mg"},{"bike_id":"4218c3f6-4764-47cf-93fc-c76838aefb78","system_id":"levelo_inurba_marseille","lat":43.24164,"lon":5.36417,"is_reserved":false,"is_disabled":false,"rental_uris":{"android":"levelo://app?vid=4218c3f6-4764-47cf-93fc-c76838aefb78","ios":"levelo://app?vid=4218c3f6-4764-47cf-93fc-c76838aefb78"},"vehicle_type_id":"4","last_reported":1766070757,"current_range_meters":14400,"station_id":"cpo36qri1sfpv3e86is0","pricing_plan_id":"cebpf4jnsgd1na2vs0mg"},{"bike_id":"1d07838f-da7d-479c-916e-372000b4b0aa","system_id":"levelo_inurba_marseille","lat":43.3029,"lon":5.37703,"is_reserved":false,"is_disabled":false,"rental_uris":{"android":"levelo://app?vid=1d07838f-da7d-479c-916e-372000b4b0aa","ios":"levelo://app?vid=1d07838f-da7d-479c-916e-372000b4b0aa"},"vehicle_type_id":"4","last_reported":1766070757,"current_range_meters":14400,"station_id":"ce4bguh2rcd13ifvqcj0","pricing_plan_id":"cebpf4jnsgd1na2vs0mg"},{"bike_id":"eac78c98-095f-4d78-8e98-87b6e0773649","system_id":"levelo_inurba_marseille","lat":43.23192,"lon":5.35557,"is_reserved":false,"is_disabled":false,"rental_uris":{"android":"levelo://app?vid=eac78c98-095f-4d78-8e98-87b6e0773649","ios":"levelo://app?vid=eac78c98-095f-4d78-8e98-87b6e0773649"},"vehicle_type_id":"4","last_reported":1766070757,"current_range_meters":14400,"station_id":"ce4bhu92rcd13ifvqi70","pricing_plan_id":"cebpf4jnsgd1na2vs0mg"},{"bike_id":"54b699d7-65f2-4a7a-9f83-f79492606b86","system_id":"levelo_inurba_marseille","lat":43.30574,"lon":5.36553,"is_reserved":false,"is_disabled":false,"rental_uris":{"android":"levelo://app?vid=54b699d7-65f2-4a7a-9f83-f79492606b86","ios":"levelo://app?vid=54b699d7-65f2-4a7a-9f83-f79492606b86"},"vehicle_type_id":"4","last_reported":1766070757,"current_range_meters":14400,"station_id":"ce4bgs12rcd13ifvqcag","pricing_plan_id":"cebpf4jnsgd1na2vs0mg"},{"bike_id":"b5d9764c-ea5d-45f3-a7eb-f0370a792c72","system_id":"levelo_inurba_marseille","lat":43.30551,"lon":5.36523,"is_reserved":false,"is_disabled":false,"rental_uris":{"android":"levelo://app?vid=b5d9764c-ea5d-45f3-a7eb-f0370a792c72","ios":"levelo://app?vid=b5d9764c-ea5d-45f3-a7eb-f0370a792c72"},"vehicle_type_id":"4","last_reported":1766070757,"current_range_meters":14400,"station_id":"ce4bgs12rcd13ifvqcag","pricing_plan_id":"cebpf4jnsgd1na2vs0mg"},{"bike_id":"4bad03ab-9172-4623-aab8-80d774521857","system_id":"levelo_inurba_marseille","lat":43.31728,"lon":5.42395,"is_reserved":false,"is_disabled":false,"rental_uris":{"android":"levelo://app?vid=4bad03ab-9172-4623-aab8-80d774521857","ios":"levelo://app?vid=4bad03ab-9172-4623-aab8-80d774521857"},"vehicle_type_id":"4","last_reported":1766070757,"current_range_meters":14400,"station_id":"ce4bhp92rcd13ifvqhbg","pricing_plan_id":"cebpf4jnsgd1na2vs0mg"},{"bike_id":"d0591e5b-3d70-427e-8f9c-2b7eb3479936","system_id":"levelo_inurba_marseille","lat":43.30546,"lon":5.36539,"is_reserved":false,"is_disabled":false,"rental_uris":{"android":"levelo://app?vid=d0591e5b-3d70-427e-8f9c-2b7eb3479936","ios":"levelo://app?vid=d0591e5b-3d70-427e-8f9c-2b7eb3479936"},"vehicle_type_id":"4","last_reported":1766070757,"current_range_meters":14400,"station_id":"ce4bgs12rcd13ifvqcag","pricing_plan_id":"cebpf4jnsgd1na2vs0mg"},{"bike_id":"5bf6adec-b858-4ddd-a484-829eb6d5c3e8","system_id":"levelo_inurba_marseille","lat":43.30319,"lon":5.40436,"is_reserved":false,"is_disabled":false,"rental_uris":{"android":"levelo://app?vid=5bf6adec-b858-4ddd-a484-829eb6d5c3e8","ios":"levelo://app?vid=5bf6adec-b858-4ddd-a484-829eb6d5c3e8"},"vehicle_type_id":"4","last_reported":1766070757,"current_range_meters":14400,"station_id":"ce4bh012rcd13ifvqd10","pricing_plan_id":"cebpf4jnsgd1na2vs0mg"},{"bike_id":"2791d06b-7195-446e-bf1e-1191f9c38b94","system_id":"levelo_inurba_marseille","lat":43.2901,"lon":5.35615,"is_reserved":false,"is_disabled":false,"rental_uris":{"android":"levelo://app?vid=2791d06b-7195-446e-bf1e-1191f9c38b94","ios":"levelo://app?vid=2791d06b-7195-446e-bf1e-1191f9c38b94"},"vehicle_type_id":"4","last_reported":1766070757,"current_range_meters":14400,"station_id":"ce4bhb92rcd13ifvqen0","pricing_plan_id":"cebpf4jnsgd1na2vs0mg"},{"bike_id":"1f056b37-e3f2-4d39-81cb-848d585f8a47","system_id":"levelo_inurba_marseille","lat":43.241714,"lon":5.364032,"is_reserved":false,"is_disabled":false,"rental_uris":{"android":"levelo://app?vid=1f056b37-e3f2-4d39-81cb-848d585f8a47","ios":"levelo://app?vid=1f056b37-e3f2-4d39-81cb-848d585f8a47"},"vehicle_type_id":"4","last_reported":1766070757,"current_range_meters":14400,"station_id":"cpo36qri1sfpv3e86is0","pricing_plan_id":"cebpf4jnsgd1na2vs0mg"},{"bike_id":"d0dd282f-2c05-49dd-834d-6d93cee6c88a","system_id":"levelo_inurba_marseille","lat":43.30203,"lon":5.36624,"is_reserved":false,"is_disabled":true,"rental_uris":{"android":"levelo://app?vid=d0dd282f-2c05-49dd-834d-6d93cee6c88a","ios":"levelo://app?vid=d0dd282f-2c05-49dd-834d-6d93cee6c88a"},"vehicle_type_id":"4","last_reported":1766070757,"current_range_meters":14800,"station_id":"ce4bgrh2rcd13ifvqc8g","pricing_plan_id":"cebpf4jnsgd1na2vs0mg"},{"bike_id":"31a8a530-d875-470f-bb82-c3f6f0a5a4e2","system_id":"levelo_inurba_marseille","lat":43.29495,"lon":5.43303,"is_reserved":false,"is_disabled":false,"rental_uris":{"android":"levelo://app?vid=31a8a530-d875-470f-bb82-c3f6f0a5a4e2","ios":"levelo://app?vid=31a8a530-d875-470f-bb82-c3f6f0a5a4e2"},"vehicle_type_id":"4","last_reported":1766070757,"current_range_meters":14800,"station_id":"st_d3j5ugp08ojc73fj9d10","pricing_plan_id":"cebpf4jnsgd1na2vs0mg"},{"bike_id":"f3a4c2fd-c27a-4ca6-bbe5-3949d2a88808","system_id":"levelo_inurba_marseille","lat":43.28572,"lon":5.4299,"is_reserved":false,"is_disabled":false,"rental_uris":{"android":"levelo://app?vid=f3a4c2fd-c27a-4ca6-bbe5-3949d2a88808","ios":"levelo://app?vid=f3a4c2fd-c27a-4ca6-bbe5-3949d2a88808"},"vehicle_type_id":"4","last_reported":1766070757,"current_range_meters":14800,"station_id":"","pricing_plan_id":"cebpf4jnsgd1na2vs0mg"},{"bike_id":"17a49efb-d179-4b85-b20c-4afe87c0613f","system_id":"levelo_inurba_marseille","lat":43.31022,"lon":5.37178,"is_reserved":false,"is_disabled":true,"rental_uris":{"android":"levelo://app?vid=17a49efb-d179-4b85-b20c-4afe87c0613f","ios":"levelo://app?vid=17a49efb-d179-4b85-b20c-4afe87c0613f"},"vehicle_type_id":"4","last_reported":1766070757,"current_range_meters":14800,"station_id":"st_d4kl2rp97mjs73e7tdfg","pricing_plan_id":"cebpf4jnsgd1na2vs0mg"},{"bike_id":"313a044d-6bba-48e4-acaf-41d1a51462dc","system_id":"levelo_inurba_marseille","lat":43.28472,"lon":5.38825,"is_reserved":false,"is_disabled":false,"rental_uris":{"android":"levelo://app?vid=313a044d-6bba-48e4-acaf-41d1a51462dc","ios":"levelo://app?vid=313a044d-6bba-48e4-acaf-41d1a51462dc"},"vehicle_type_id":"4","last_reported":1766070757,"current_range_meters":14800,"station_id":"","pricing_plan_id":"cebpf4jnsgd1na2vs0mg"},{"bike_id":"ddedb140-ab44-49b4-88fc-f6e9cbc01202","system_id":"levelo_inurba_marseille","lat":43.27897,"lon":5.3919,"is_reserved":false,"is_disabled":false,"rental_uris":{"android":"levelo://app?vid=ddedb140-ab44-49b4-88fc-f6e9cbc01202","ios":"levelo://app?vid=ddedb140-ab44-49b4-88fc-f6e9cbc01202"},"vehicle_type_id":"4","last_reported":1766070757,"current_range_meters":14800,"station_id":"","pricing_plan_id":"cebpf4jnsgd1na2vs0mg"},{"bike_id":"6bdb7b78-283a-497a-9416-941a4a02872a","system_id":"levelo_inurba_marseille","lat":43.33542,"lon":5.374712,"is_reserved":false,"is_disabled":false,"rental_uris":{"android":"levelo://app?vid=6bdb7b78-283a-497a-9416-941a4a02872a","ios":"levelo://app?vid=6bdb7b78-283a-497a-9416-941a4a02872a"},"vehicle_type_id":"4","last_reported":1766070757,"current_range_meters":14800,"station_id":"st_d46tts09ee8s73dlu43g","pricing_plan_id":"cebpf4jnsgd1na2vs0mg"},{"bike_id":"1fe61e53-783b-4be3-86da-1e2214f6789d","system_id":"levelo_inurba_marseille","lat":43.29771,"lon":5.38075,"is_reserved":false,"is_disabled":false,"rental_uris":{"android":"levelo://app?vid=1fe61e53-783b-4be3-86da-1e2214f6789d","ios":"levelo://app?vid=1fe61e53-783b-4be3-86da-1e2214f6789d"},"vehicle_type_id":"4","last_reported":1766070757,"current_range_meters":14800,"station_id":"","pricing_plan_id":"cebpf4jnsgd1na2vs0mg"},{"bike_id":"acdb6905-2e88-4ba3-8611-6513ba3fc45e","system_id":"levelo_inurba_marseille","lat":43.30467,"lon":5.37908,"is_reserved":false,"is_disabled":false,"rental_uris":{"android":"levelo://app?vid=acdb6905-2e88-4ba3-8611-6513ba3fc45e","ios":"levelo://app?vid=acdb6905-2e88-4ba3-8611-6513ba3fc45e"},"vehicle_type_id":"4","last_reported":1766070757,"current_range_meters":15200,"station_id":"ce4bgup2rcd13ifvqcn0","pricing_plan_id":"cebpf4jnsgd1na2vs0mg"},{"bike_id":"b494c767-effb-47c2-9a4d-0fc429c1d80d","system_id":"levelo_inurba_marseille","lat":43.29582,"lon":5.37498,"is_reserved":false,"is_disabled":true,"rental_uris":{"android":"levelo://app?vid=b494c767-effb-47c2-9a4d-0fc429c1d80d","ios":"levelo://app?vid=b494c767-effb-47c2-9a4d-0fc429c1d80d"},"vehicle_type_id":"4","last_reported":1766070757,"current_range_meters":15200,"station_id":"","pricing_plan_id":"cebpf4jnsgd1na2vs0mg"},{"bike_id":"29ff8d65-fbca-42c1-b12e-cd4dc579808a","system_id":"levelo_inurba_marseille","lat":43.301407,"lon":5.374218,"is_reserved":false,"is_disabled":false,"rental_uris":{"android":"levelo://app?vid=29ff8d65-fbca-42c1-b12e-cd4dc579808a","ios":"levelo://app?vid=29ff8d65-fbca-42c1-b12e-cd4dc579808a"},"vehicle_type_id":"4","last_reported":1766070757,"current_range_meters":15200,"station_id":"ce4bh392rcd13ifvqdl0","pricing_plan_id":"cebpf4jnsgd1na2vs0mg"},{"bike_id":"cf5eb2c1-c87d-4ae3-9256-41d8d82f1276","system_id":"levelo_inurba_marseille","lat":43.29222,"lon":5.36067,"is_reserved":false,"is_disabled":false,"rental_uris":{"android":"levelo://app?vid=cf5eb2c1-c87d-4ae3-9256-41d8d82f1276","ios":"levelo://app?vid=cf5eb2c1-c87d-4ae3-9256-41d8d82f1276"},"vehicle_type_id":"4","last_reported":1766070757,"current_range_meters":15200,"station_id":"ce4bhbh2rcd13ifvqeqg","pricing_plan_id":"cebpf4jnsgd1na2vs0mg"},{"bike_id":"413557ff-13d9-40fb-81ee-6ad5e7d92bea","system_id":"levelo_inurba_marseille","lat":43.21186,"lon":5.350737,"is_reserved":false,"is_disabled":false,"rental_uris":{"android":"levelo://app?vid=413557ff-13d9-40fb-81ee-6ad5e7d92bea","ios":"levelo://app?vid=413557ff-13d9-40fb-81ee-6ad5e7d92bea"},"vehicle_type_id":"4","last_reported":1766070757,"current_range_meters":15200,"station_id":"st_cvj6sg6p6f1abm77japg","pricing_plan_id":"cebpf4jnsgd1na2vs0mg"},{"bike_id":"e7dfab09-bfd4-4367-ac6a-0fd9a0169d94","system_id":"levelo_inurba_marseille","lat":43.30144,"lon":5.374119,"is_reserved":false,"is_disabled":false,"rental_uris":{"android":"levelo://app?vid=e7dfab09-bfd4-4367-ac6a-0fd9a0169d94","ios":"levelo://app?vid=e7dfab09-bfd4-4367-ac6a-0fd9a0169d94"},"vehicle_type_id":"4","last_reported":1766070757,"current_range_meters":15200,"station_id":"ce4bgs92rcd13ifvqcc0","pricing_plan_id":"cebpf4jnsgd1na2vs0mg"},{"bike_id":"9b3ad9e9-6c8e-47dd-9f00-d7499ff2fa77","system_id":"levelo_inurba_marseille","lat":43.21189,"lon":5.35069,"is_reserved":false,"is_disabled":false,"rental_uris":{"android":"levelo://app?vid=9b3ad9e9-6c8e-47dd-9f00-d7499ff2fa77","ios":"levelo://app?vid=9b3ad9e9-6c8e-47dd-9f00-d7499ff2fa77"},"vehicle_type_id":"4","last_reported":1766070757,"current_range_meters":15200,"station_id":"st_cvj6sg6p6f1abm77japg","pricing_plan_id":"cebpf4jnsgd1na2vs0mg"},{"bike_id":"0e192f01-5d75-45ac-b95e-67ff36316530","system_id":"levelo_inurba_marseille","lat":43.309989,"lon":5.368602,"is_reserved":false,"is_disabled":false,"rental_uris":{"android":"levelo://app?vid=0e192f01-5d75-45ac-b95e-67ff36316530","ios":"levelo://app?vid=0e192f01-5d75-45ac-b95e-67ff36316530"},"vehicle_type_id":"4","last_reported":1766070757,"current_range_meters":15200,"station_id":"ce4bgn92rcd13ifvqbvg","pricing_plan_id":"cebpf4jnsgd1na2vs0mg"},{"bike_id":"6d7dc6d0-a382-42ef-864d-38075c2a3c35","system_id":"levelo_inurba_marseille","lat":43.27193,"lon":5.39197,"is_reserved":false,"is_disabled":false,"rental_uris":{"android":"levelo://app?vid=6d7dc6d0-a382-42ef-864d-38075c2a3c35","ios":"levelo://app?vid=6d7dc6d0-a382-42ef-864d-38075c2a3c35"},"vehicle_type_id":"4","last_reported":1766070757,"current_range_meters":16000,"station_id":"ce4bhhp2rcd13ifvqfm0","pricing_plan_id":"cebpf4jnsgd1na2vs0mg"},{"bike_id":"907c6bab-d04b-4a2f-a93b-74499e90fd68","system_id":"levelo_inurba_marseille","lat":43.31279,"lon":5.36865,"is_reserved":false,"is_disabled":false,"rental_uris":{"android":"levelo://app?vid=907c6bab-d04b-4a2f-a93b-74499e90fd68","ios":"levelo://app?vid=907c6bab-d04b-4a2f-a93b-74499e90fd68"},"vehicle_type_id":"4","last_reported":1766070757,"current_range_meters":16000,"station_id":"ce4bgl92rcd13ifvqbq0","pricing_plan_id":"cebpf4jnsgd1na2vs0mg"},{"bike_id":"254d37b4-a453-4bef-8698-ef2e940aac87","system_id":"levelo_inurba_marseille","lat":43.28444,"lon":5.39196,"is_reserved":false,"is_disabled":false,"rental_uris":{"android":"levelo://app?vid=254d37b4-a453-4bef-8698-ef2e940aac87","ios":"levelo://app?vid=254d37b4-a453-4bef-8698-ef2e940aac87"},"vehicle_type_id":"4","last_reported":1766070757,"current_range_meters":16000,"station_id":"ce4bhoh2rcd13ifvqh5g","pricing_plan_id":"cebpf4jnsgd1na2vs0mg"},{"bike_id":"b3a6fcda-f86f-4fd8-93ce-3e07cb8dc6cd","system_id":"levelo_inurba_marseille","lat":43.259312,"lon":5.409064,"is_reserved":false,"is_disabled":false,"rental_uris":{"android":"levelo://app?vid=b3a6fcda-f86f-4fd8-93ce-3e07cb8dc6cd","ios":"levelo://app?vid=b3a6fcda-f86f-4fd8-93ce-3e07cb8dc6cd"},"vehicle_type_id":"4","last_reported":1766070757,"current_range_meters":16000,"station_id":"ce4bhm92rcd13ifvqglg","pricing_plan_id":"cebpf4jnsgd1na2vs0mg"},{"bike_id":"37484701-bd64-42e7-b5e9-b0b0a6e39726","system_id":"levelo_inurba_marseille","lat":43.30549,"lon":5.36521,"is_reserved":false,"is_disabled":false,"rental_uris":{"android":"levelo://app?vid=37484701-bd64-42e7-b5e9-b0b0a6e39726","ios":"levelo://app?vid=37484701-bd64-42e7-b5e9-b0b0a6e39726"},"vehicle_type_id":"4","last_reported":1766070757,"current_range_meters":16000,"station_id":"ce4bgs12rcd13ifvqcag","pricing_plan_id":"cebpf4jnsgd1na2vs0mg"},{"bike_id":"9c4172f7-3e84-4ed9-8932-eb8fd6299377","system_id":"levelo_inurba_marseille","lat":43.291,"lon":5.38112,"is_reserved":false,"is_disabled":false,"rental_uris":{"android":"levelo://app?vid=9c4172f7-3e84-4ed9-8932-eb8fd6299377","ios":"levelo://app?vid=9c4172f7-3e84-4ed9-8932-eb8fd6299377"},