{"last_updated":1747315299,"ttl":60,"version":"2.2","data":{"bikes":[{"bike_id":"41778ef5-15e9-4f8d-b2f9-f66c4605cbd4","system_id":"levelo_inurba_marseille","lat":43.26568,"lon":5.39024,"is_reserved":false,"is_disabled":false,"rental_uris":{"android":"levelo://app?vid=41778ef5-15e9-4f8d-b2f9-f66c4605cbd4","ios":"levelo://app?vid=41778ef5-15e9-4f8d-b2f9-f66c4605cbd4"},"vehicle_type_id":"4","last_reported":1747315299,"current_range_meters":2800,"station_id":"ce4bhe12rcd13ifvqf30","pricing_plan_id":"cebpf4jnsgd1na2vs0mg"},{"bike_id":"a570fe96-cccc-46c8-b7cd-3916791e4e0d","system_id":"levelo_inurba_marseille","lat":43.28103,"lon":5.37847,"is_reserved":false,"is_disabled":false,"rental_uris":{"android":"levelo://app?vid=a570fe96-cccc-46c8-b7cd-3916791e4e0d","ios":"levelo://app?vid=a570fe96-cccc-46c8-b7cd-3916791e4e0d"},"vehicle_type_id":"4","last_reported":1747315299,"current_range_meters":2800,"station_id":"ce4bha12rcd13ifvqee0","pricing_plan_id":"cebpf4jnsgd1na2vs0mg"},{"bike_id":"01e3e4c1-2a1f-4812-8e98-559141dfc177","system_id":"levelo_inurba_marseille","lat":43.284923,"lon":5.389613,"is_reserved":false,"is_disabled":false,"rental_uris":{"android":"levelo://app?vid=01e3e4c1-2a1f-4812-8e98-559141dfc177","ios":"levelo://app?vid=01e3e4c1-2a1f-4812-8e98-559141dfc177"},"vehicle_type_id":"4","last_reported":1747315299,"current_range_meters":2800,"station_id":"ce4bhoh2rcd13ifvqh5g","pricing_plan_id":"cebpf4jnsgd1na2vs0mg"},{"bike_id":"8129a4e4-58cc-4a4c-a147-c7297789f706","system_id":"levelo_inurba_marseille","lat":43.30552,"lon":5.36745,"is_reserved":false,"is_disabled":false,"rental_uris":{"android":"levelo://app?vid=8129a4e4-58cc-4a4c-a147-c7297789f706","ios":"levelo://app?vid=8129a4e4-58cc-4a4c-a147-c7297789f706"},"vehicle_type_id":"4","last_reported":1747315299,"current_range_meters":3200,"station_id":"ce4bgrp2rcd13ifvqc9g","pricing_plan_id":"cebpf4jnsgd1na2vs0mg"},{"bike_id":"fad79381-a8b0-430f-a633-2e6797965b2c","system_id":"levelo_inurba_marseille","lat":43.30933,"lon":5.4014,"is_reserved":false,"is_disabled":false,"rental_uris":{"android":"levelo://app?vid=fad79381-a8b0-430f-a633-2e6797965b2c","ios":"levelo://app?vid=fad79381-a8b0-430f-a633-2e6797965b2c"},"vehicle_type_id":"4","last_reported":1747315299,"current_range_meters":3200,"station_id":"ce4bgvp2rcd13ifvqct0","pricing_plan_id":"cebpf4jnsgd1na2vs0mg"},{"bike_id":"9f7b4d48-028c-4106-a61d-19f334303f66","system_id":"levelo_inurba_marseille","lat":43.290654,"lon":5.358982,"is_reserved":false,"is_disabled":false,"rental_uris":{"android":"levelo://app?vid=9f7b4d48-028c-4106-a61d-19f334303f66","ios":"levelo://app?vid=9f7b4d48-028c-4106-a61d-19f334303f66"},"vehicle_type_id":"4","last_reported":1747315299,"current_range_meters":3200,"station_id":"ce4bha92rcd13ifvqeg0","pricing_plan_id":"cebpf4jnsgd1na2vs0mg"},{"bike_id":"1c0401c1-c5ff-4bd7-826f-db5320c4debd","system_id":"levelo_inurba_marseille","lat":43.30539,"lon":5.36551,"is_reserved":false,"is_disabled":false,"rental_uris":{"android":"levelo://app?vid=1c0401c1-c5ff-4bd7-826f-db5320c4debd","ios":"levelo://app?vid=1c0401c1-c5ff-4bd7-826f-db5320c4debd"},"vehicle_type_id":"4","last_reported":1747315299,"current_range_meters":3200,"station_id":"ce4bgs12rcd13ifvqcag","pricing_plan_id":"cebpf4jnsgd1na2vs0mg"},{"bike_id":"7b491ca0-1c37-4920-9719-eb8c11b0cedf","system_id":"levelo_inurba_marseille","lat":43.289974,"lon":5.356177,"is_reserved":false,"is_disabled":false,"rental_uris":{"android":"levelo://app?vid=7b491ca0-1c37-4920-9719-eb8c11b0cedf","ios":"levelo://app?vid=7b491ca0-1c37-4920-9719-eb8c11b0cedf"},"vehicle_type_id":"4","last_reported":1747315299,"current_range_meters":3200,"station_id":"ce4bhb92rcd13ifvqen0","pricing_plan_id":"cebpf4jnsgd1na2vs0mg"},{"bike_id":"a9c3b652-79f7-4850-9c6e-8883434cd647","system_id":"levelo_inurba_marseille","lat":43.27421,"lon":5.39409,"is_reserved":false,"is_disabled":false,"rental_uris":{"android":"levelo://app?vid=a9c3b652-79f7-4850-9c6e-8883434cd647","ios":"levelo://app?vid=a9c3b652-79f7-4850-9c6e-8883434cd647"},"vehicle_type_id":"4","last_reported":1747315299,"current_range_meters":3600,"station_id":"ce4bhdp2rcd13ifvqf20","pricing_plan_id":"cebpf4jnsgd1na2vs0mg"},{"bike_id":"58a367e2-0f30-4743-93e1-71e459e4f886","system_id":"levelo_inurba_marseille","lat":43.2549,"lon":5.3765,"is_reserved":false,"is_disabled":false,"rental_uris":{"android":"levelo://app?vid=58a367e2-0f30-4743-93e1-71e459e4f886","ios":"levelo://app?vid=58a367e2-0f30-4743-93e1-71e459e4f886"},"vehicle_type_id":"4","last_reported":1747315299,"current_range_meters":3600,"station_id":"ce4bhh12rcd13ifvqff0","pricing_plan_id":"cebpf4jnsgd1na2vs0mg"},{"bike_id":"1bf472b3-9e28-4359-8d15-8fc927b8cf3d","system_id":"levelo_inurba_marseille","lat":43.290741,"lon":5.371779,"is_reserved":false,"is_disabled":false,"rental_uris":{"android":"levelo://app?vid=1bf472b3-9e28-4359-8d15-8fc927b8cf3d","ios":"levelo://app?vid=1bf472b3-9e28-4359-8d15-8fc927b8cf3d"},"vehicle_type_id":"4","last_reported":1747315299,"current_range_meters":3600,"station_id":"ce4bh5p2rcd13ifvqe4g","pricing_plan_id":"cebpf4jnsgd1na2vs0mg"},{"bike_id":"5a4e6370-7fcf-480c-aa9e-91f022052d56","system_id":"levelo_inurba_marseille","lat":43.28264,"lon":5.35069,"is_reserved":false,"is_disabled":false,"rental_uris":{"android":"levelo://app?vid=5a4e6370-7fcf-480c-aa9e-91f022052d56","ios":"levelo://app?vid=5a4e6370-7fcf-480c-aa9e-91f022052d56"},"vehicle_type_id":"4","last_reported":1747315299,"current_range_meters":3600,"station_id":"ce4bhbp2rcd13ifvqerg","pricing_plan_id":"cebpf4jnsgd1na2vs0mg"},{"bike_id":"28492021-fbfa-4955-a446-67b7c946bd09","system_id":"levelo_inurba_marseille","lat":43.26566,"lon":5.39017,"is_reserved":false,"is_disabled":false,"rental_uris":{"android":"levelo://app?vid=28492021-fbfa-4955-a446-67b7c946bd09","ios":"levelo://app?vid=28492021-fbfa-4955-a446-67b7c946bd09"},"vehicle_type_id":"4","last_reported":1747315299,"current_range_meters":4000,"station_id":"ce4bhe12rcd13ifvqf30","pricing_plan_id":"cebpf4jnsgd1na2vs0mg"},{"bike_id":"994ea5e1-ff72-41e4-9b75-f27cf799c3b9","system_id":"levelo_inurba_marseille","lat":43.29199,"lon":5.39315,"is_reserved":false,"is_disabled":false,"rental_uris":{"android":"levelo://app?vid=994ea5e1-ff72-41e4-9b75-f27cf799c3b9","ios":"levelo://app?vid=994ea5e1-ff72-41e4-9b75-f27cf799c3b9"},"vehicle_type_id":"4","last_reported":1747315299,"current_range_meters":4000,"station_id":"ce4bh192rcd13ifvqdd0","pricing_plan_id":"cebpf4jnsgd1na2vs0mg"},{"bike_id":"5ca41ceb-959f-4a12-ba49-1a751f1e9777","system_id":"levelo_inurba_marseille","lat":43.2736,"lon":5.36244,"is_reserved":false,"is_disabled":false,"rental_uris":{"android":"levelo://app?vid=5ca41ceb-959f-4a12-ba49-1a751f1e9777","ios":"levelo://app?vid=5ca41ceb-959f-4a12-ba49-1a751f1e9777"},"vehicle_type_id":"4","last_reported":1747315299,"current_range_meters":4400,"station_id":"ce4bhbh2rcd13ifvqeo0","pricing_plan_id":"cebpf4jnsgd1na2vs0mg"},{"bike_id":"8367eaf4-e59c-420b-8e6f-301e254bd631","system_id":"levelo_inurba_marseille","lat":43.29697,"lon":5.36605,"is_reserved":false,"is_disabled":false,"rental_uris":{"android":"levelo://app?vid=8367eaf4-e59c-420b-8e6f-301e254bd631","ios":"levelo://app?vid=8367eaf4-e59c-420b-8e6f-301e254bd631"},"vehicle_type_id":"4","last_reported":1747315299,"current_range_meters":4400,"station_id":"ce4bgn12rcd13ifvqbt0","pricing_plan_id":"cebpf4jnsgd1na2vs0mg"},{"bike_id":"c34c41c1-f865-4e11-91c1-dcbe9fa88ec7","system_id":"levelo_inurba_marseille","lat":43.287891,"lon":5.360985,"is_reserved":false,"is_disabled":false,"rental_uris":{"android":"levelo://app?vid=c34c41c1-f865-4e11-91c1-dcbe9fa88ec7","ios":"levelo://app?vid=c34c41c1-f865-4e11-91c1-dcbe9fa88ec7"},"vehicle_type_id":"4","last_reported":1747315299,"current_range_meters":4000,"station_id":"cki0cbj6b192h4jlfktg","pricing_plan_id":"cebpf4jnsgd1na2vs0mg"},{"bike_id":"0303231a-44d3-46bc-914a-1fb5aa190fd8","system_id":"levelo_inurba_marseille","lat":43.32484,"lon":5.36569,"is_reserved":false,"is_disabled":false,"rental_uris":{"android":"levelo://app?vid=0303231a-44d3-46bc-914a-1fb5aa190fd8","ios":"levelo://app?vid=0303231a-44d3-46bc-914a-1fb5aa190fd8"},"vehicle_type_id":"4","last_reported":1747315299,"current_range_meters":4400,"station_id":"ce4bhs12rcd13ifvqhvg","pricing_plan_id":"cebpf4jnsgd1na2vs0mg"},{"bike_id":"7d8f5f6a-aced-482a-a3f1-b85be5a3f3c9","system_id":"levelo_inurba_marseille","lat":43.30955,"lon":5.39042,"is_reserved":false,"is_disabled":false,"rental_uris":{"android":"levelo://app?vid=7d8f5f6a-aced-482a-a3f1-b85be5a3f3c9","ios":"levelo://app?vid=7d8f5f6a-aced-482a-a3f1-b85be5a3f3c9"},"vehicle_type_id":"4","last_reported":1747315299,"current_range_meters":4400,"station_id":"ce4bgup2rcd13ifvqco0","pricing_plan_id":"cebpf4jnsgd1na2vs0mg"},{"bike_id":"4439649f-7739-4f07-a01c-6577497ea17b","system_id":"levelo_inurba_marseille","lat":43.32484,"lon":5.36586,"is_reserved":false,"is_disabled":false,"rental_uris":{"android":"levelo://app?vid=4439649f-7739-4f07-a01c-6577497ea17b","ios":"levelo://app?vid=4439649f-7739-4f07-a01c-6577497ea17b"},"vehicle_type_id":"4","last_reported":1747315299,"current_range_meters":4800,"station_id":"ce4bhs12rcd13ifvqhvg","pricing_plan_id":"cebpf4jnsgd1na2vs0mg"},{"bike_id":"08625615-1926-4331-b489-7d7bd08b6d01","system_id":"levelo_inurba_marseille","lat":43.273743,"lon":5.362444,"is_reserved":false,"is_disabled":false,"rental_uris":{"android":"levelo://app?vid=08625615-1926-4331-b489-7d7bd08b6d01","ios":"levelo://app?vid=08625615-1926-4331-b489-7d7bd08b6d01"},"vehicle_type_id":"4","last_reported":1747315299,"current_range_meters":4800,"station_id":"","pricing_plan_id":"cebpf4jnsgd1na2vs0mg"},{"bike_id":"1d774fd4-d9fe-42e0-b701-37196646cbb9","system_id":"levelo_inurba_marseille","lat":43.28423,"lon":5.34976,"is_reserved":false,"is_disabled":false,"rental_uris":{"android":"levelo://app?vid=1d774fd4-d9fe-42e0-b701-37196646cbb9","ios":"levelo://app?vid=1d774fd4-d9fe-42e0-b701-37196646cbb9"},"vehicle_type_id":"4","last_reported":1747315299,"current_range_meters":5600,"station_id":"ce4bhbh2rcd13ifvqepg","pricing_plan_id":"cebpf4jnsgd1na2vs0mg"},{"bike_id":"8b3b5cfb-464d-44b3-8e76-e0b2a5ee5564","system_id":"levelo_inurba_marseille","lat":43.23178,"lon":5.4373,"is_reserved":false,"is_disabled":false,"rental_uris":{"android":"levelo://app?vid=8b3b5cfb-464d-44b3-8e76-e0b2a5ee5564","ios":"levelo://app?vid=8b3b5cfb-464d-44b3-8e76-e0b2a5ee5564"},"vehicle_type_id":"4","last_reported":1747315299,"current_range_meters":5600,"station_id":"ce4bhmp2rcd13ifvqgog","pricing_plan_id":"cebpf4jnsgd1na2vs0mg"},{"bike_id":"5fab2e08-373d-41d2-b64a-5c31be8fb44a","system_id":"levelo_inurba_marseille","lat":43.28617,"lon":5.35107,"is_reserved":false,"is_disabled":false,"rental_uris":{"android":"levelo://app?vid=5fab2e08-373d-41d2-b64a-5c31be8fb44a","ios":"levelo://app?vid=5fab2e08-373d-41d2-b64a-5c31be8fb44a"},"vehicle_type_id":"4","last_reported":1747315299,"current_range_meters":5600,"station_id":"ce4bhch2rcd13ifvqeug","pricing_plan_id":"cebpf4jnsgd1na2vs0mg"},{"bike_id":"0d840b19-94d1-492d-9b13-49a41cdb9813","system_id":"levelo_inurba_marseille","lat":43.29281,"lon":5.3685,"is_reserved":false,"is_disabled":false,"rental_uris":{"android":"levelo://app?vid=0d840b19-94d1-492d-9b13-49a41cdb9813","ios":"levelo://app?vid=0d840b19-94d1-492d-9b13-49a41cdb9813"},"vehicle_type_id":"4","last_reported":1747315299,"current_range_meters":5600,"station_id":"ce4bhbp2rcd13ifvqesg","pricing_plan_id":"cebpf4jnsgd1na2vs0mg"},{"bike_id":"6bf54d60-f58b-4089-8a78-f6bd8e020120","system_id":"levelo_inurba_marseille","lat":43.27909,"lon":5.39589,"is_reserved":false,"is_disabled":false,"rental_uris":{"android":"levelo://app?vid=6bf54d60-f58b-4089-8a78-f6bd8e020120","ios":"levelo://app?vid=6bf54d60-f58b-4089-8a78-f6bd8e020120"},"vehicle_type_id":"4","last_reported":1747315299,"current_range_meters":5600,"station_id":"ce4bhf92rcd13ifvqf40","pricing_plan_id":"cebpf4jnsgd1na2vs0mg"},{"bike_id":"59ec2fcc-05c9-499d-a471-3a1ef2556f53","system_id":"levelo_inurba_marseille","lat":43.30295,"lon":5.39227,"is_reserved":false,"is_disabled":false,"rental_uris":{"android":"levelo://app?vid=59ec2fcc-05c9-499d-a471-3a1ef2556f53","ios":"levelo://app?vid=59ec2fcc-05c9-499d-a471-3a1ef2556f53"},"vehicle_type_id":"4","last_reported":1747315299,"current_range_meters":6000,"station_id":"ce4bgkh2rcd13ifvqbk0","pricing_plan_id":"cebpf4jnsgd1na2vs0mg"},{"bike_id":"36fd0fff-7f4c-4d1b-b937-5e37ec0bca93","system_id":"levelo_inurba_marseille","lat":43.319269,"lon":5.414179,"is_reserved":false,"is_disabled":false,"rental_uris":{"android":"levelo://app?vid=36fd0fff-7f4c-4d1b-b937-5e37ec0bca93","ios":"levelo://app?vid=36fd0fff-7f4c-4d1b-b937-5e37ec0bca93"},"vehicle_type_id":"4","last_reported":1747315299,"current_range_meters":6000,"station_id":"ce4bhq92rcd13ifvqhkg","pricing_plan_id":"cebpf4jnsgd1na2vs0mg"},{"bike_id":"5e15cee8-45ed-4e50-a328-4b6f5cee20e4","system_id":"levelo_inurba_marseille","lat":43.27555,"lon":5.3844,"is_reserved":false,"is_disabled":false,"rental_uris":{"android":"levelo://app?vid=5e15cee8-45ed-4e50-a328-4b6f5cee20e4","ios":"levelo://app?vid=5e15cee8-45ed-4e50-a328-4b6f5cee20e4"},"vehicle_type_id":"4","last_reported":1747315299,"current_range_meters":5600,"station_id":"ce4bhh92rcd13ifvqfi0","pricing_plan_id":"cebpf4jnsgd1na2vs0mg"},{"bike_id":"1a201e81-d857-45f2-aa1d-2cd9e2ff8773","system_id":"levelo_inurba_marseille","lat":43.26028,"lon":5.3755,"is_reserved":false,"is_disabled":false,"rental_uris":{"android":"levelo://app?vid=1a201e81-d857-45f2-aa1d-2cd9e2ff8773","ios":"levelo://app?vid=1a201e81-d857-45f2-aa1d-2cd9e2ff8773"},"vehicle_type_id":"4","last_reported":1747315299,"current_range_meters":6000,"station_id":"ce4bhgh2rcd13ifvqfa0","pricing_plan_id":"cebpf4jnsgd1na2vs0mg"},{"bike_id":"73f90d98-0666-48b5-83b2-565b29353220","system_id":"levelo_inurba_marseille","lat":43.29624,"lon":5.38113,"is_reserved":false,"is_disabled":false,"rental_uris":{"android":"levelo://app?vid=73f90d98-0666-48b5-83b2-565b29353220","ios":"levelo://app?vid=73f90d98-0666-48b5-83b2-565b29353220"},"vehicle_type_id":"4","last_reported":1747315299,"current_range_meters":6000,"station_id":"ce4bgl12rcd13ifvqbo0","pricing_plan_id":"cebpf4jnsgd1na2vs0mg"},{"bike_id":"fd9eaf13-2caf-4631-b123-c036611405c4","system_id":"levelo_inurba_marseille","lat":43.29538,"lon":5.38544,"is_reserved":false,"is_disabled":false,"rental_uris":{"android":"levelo://app?vid=fd9eaf13-2caf-4631-b123-c036611405c4","ios":"levelo://app?vid=fd9eaf13-2caf-4631-b123-c036611405c4"},"vehicle_type_id":"4","last_reported":1747315299,"current_range_meters":6000,"station_id":"ce4bgih2rcd13ifvqba0","pricing_plan_id":"cebpf4jnsgd1na2vs0mg"},{"bike_id":"e6b82796-31fe-4649-98d3-b78dfc1cfc62","system_id":"levelo_inurba_marseille","lat":43.26961,"lon":5.38638,"is_reserved":false,"is_disabled":false,"rental_uris":{"android":"levelo://app?vid=e6b82796-31fe-4649-98d3-b78dfc1cfc62","ios":"levelo://app?vid=e6b82796-31fe-4649-98d3-b78dfc1cfc62"},"vehicle_type_id":"4","last_reported":1747315299,"current_range_meters":6000,"station_id":"ce4bhh92rcd13ifvqfh0","pricing_plan_id":"cebpf4jnsgd1na2vs0mg"},{"bike_id":"3f3584b3-ff69-426f-a153-46db14308113","system_id":"levelo_inurba_marseille","lat":43.24663,"lon":5.38159,"is_reserved":false,"is_disabled":false,"rental_uris":{"android":"levelo://app?vid=3f3584b3-ff69-426f-a153-46db14308113","ios":"levelo://app?vid=3f3584b3-ff69-426f-a153-46db14308113"},"vehicle_type_id":"4","last_reported":1747315299,"current_range_meters":6800,"station_id":"ce4bhih2rcd13ifvqfr0","pricing_plan_id":"cebpf4jnsgd1na2vs0mg"},{"bike_id":"810022b0-8049-4386-8aae-fb7d80aaa8fd","system_id":"levelo_inurba_marseille","lat":43.29309,"lon":5.37461,"is_reserved":false,"is_disabled":false,"rental_uris":{"android":"levelo://app?vid=810022b0-8049-4386-8aae-fb7d80aaa8fd","ios":"levelo://app?vid=810022b0-8049-4386-8aae-fb7d80aaa8fd"},"vehicle_type_id":"4","last_reported":1747315299,"current_range_meters":6800,"station_id":"ce4bgi12rcd13ifvqb70","pricing_plan_id":"cebpf4jnsgd1na2vs0mg"},{"bike_id":"b687320f-b910-460b-b2c9-baa4432af165","system_id":"levelo_inurba_marseille","lat":43.2656,"lon":5.39014,"is_reserved":false,"is_disabled":false,"rental_uris":{"android":"levelo://app?vid=b687320f-b910-460b-b2c9-baa4432af165","ios":"levelo://app?vid=b687320f-b910-460b-b2c9-baa4432af165"},"vehicle_type_id":"4","last_reported":1747315299,"current_range_meters":6800,"station_id":"ce4bhe12rcd13ifvqf30","pricing_plan_id":"cebpf4jnsgd1na2vs0mg"},{"bike_id":"f399ba97-0951-4175-a416-e54dc5c4bf42","system_id":"levelo_inurba_marseille","lat":43.28624,"lon":5.35109,"is_reserved":false,"is_disabled":false,"rental_uris":{"android":"levelo://app?vid=f399ba97-0951-4175-a416-e54dc5c4bf42","ios":"levelo://app?vid=f399ba97-0951-4175-a416-e54dc5c4bf42"},"vehicle_type_id":"4","last_reported":1747315299,"current_range_meters":6800,"station_id":"ce4bhch2rcd13ifvqeug","pricing_plan_id":"cebpf4jnsgd1na2vs0mg"},{"bike_id":"50bdc33a-e749-454a-81cb-1ac61d7c6751","system_id":"levelo_inurba_marseille","lat":43.284203,"lon":5.349747,"is_reserved":false,"is_disabled":false,"rental_uris":{"android":"levelo://app?vid=50bdc33a-e749-454a-81cb-1ac61d7c6751","ios":"levelo://app?vid=50bdc33a-e749-454a-81cb-1ac61d7c6751"},"vehicle_type_id":"4","last_reported":1747315299,"current_range_meters":6800,"station_id":"ce4bhbh2rcd13ifvqepg","pricing_plan_id":"cebpf4jnsgd1na2vs0mg"},{"bike_id":"b95db1da-5c84-4730-a021-94add571b4f9","system_id":"levelo_inurba_marseille","lat":43.286113,"lon":5.35115,"is_reserved":false,"is_disabled":false,"rental_uris":{"android":"levelo://app?vid=b95db1da-5c84-4730-a021-94add571b4f9","ios":"levelo://app?vid=b95db1da-5c84-4730-a021-94add571b4f9"},"vehicle_type_id":"4","last_reported":1747315299,"current_range_meters":7200,"station_id":"ce4bhch2rcd13ifvqeug","pricing_plan_id":"cebpf4jnsgd1na2vs0mg"},{"bike_id":"4eccd5a5-c5ea-4741-9b2c-752517376d3a","system_id":"levelo_inurba_marseille","lat":43.28264,"lon":5.35064,"is_reserved":false,"is_disabled":false,"rental_uris":{"android":"levelo://app?vid=4eccd5a5-c5ea-4741-9b2c-752517376d3a","ios":"levelo://app?vid=4eccd5a5-c5ea-4741-9b2c-752517376d3a"},"vehicle_type_id":"4","last_reported":1747315299,"current_range_meters":7200,"station_id":"ce4bhbp2rcd13ifvqerg","pricing_plan_id":"cebpf4jnsgd1na2vs0mg"},{"bike_id":"3faf053c-e846-4d83-83ee-8fd51efc38bb","system_id":"levelo_inurba_marseille","lat":43.32155,"lon":5.36776,"is_reserved":false,"is_disabled":false,"rental_uris":{"android":"levelo://app?vid=3faf053c-e846-4d83-83ee-8fd51efc38bb","ios":"levelo://app?vid=3faf053c-e846-4d83-83ee-8fd51efc38bb"},"vehicle_type_id":"4","last_reported":1747315299,"current_range_meters":7200,"station_id":"","pricing_plan_id":"cebpf4jnsgd1na2vs0mg"},{"bike_id":"6bbef8c0-7a85-4989-bdb2-a7c0a613fdf7","system_id":"levelo_inurba_marseille","lat":43.28849,"lon":5.393,"is_reserved":false,"is_disabled":false,"rental_uris":{"android":"levelo://app?vid=6bbef8c0-7a85-4989-bdb2-a7c0a613fdf7","ios":"levelo://app?vid=6bbef8c0-7a85-4989-bdb2-a7c0a613fdf7"},"vehicle_type_id":"4","last_reported":1747315299,"current_range_meters":8000,"station_id":"ce4bh2p2rcd13ifvqdi0","pricing_plan_id":"cebpf4jnsgd1na2vs0mg"},{"bike_id":"d5ddcfd4-cc60-4a84-bc76-55f25a231b05","system_id":"levelo_inurba_marseille","lat":43.265579,"lon":5.37281,"is_reserved":false,"is_disabled":false,"rental_uris":{"android":"levelo://app?vid=d5ddcfd4-cc60-4a84-bc76-55f25a231b05","ios":"levelo://app?vid=d5ddcfd4-cc60-4a84-bc76-55f25a231b05"},"vehicle_type_id":"4","last_reported":1747315299,"current_range_meters":8000,"station_id":"ce4bhg12rcd13ifvqf70","pricing_plan_id":"cebpf4jnsgd1na2vs0mg"},{"bike_id":"4395082b-0488-496c-ac96-8c6485993f7a","system_id":"levelo_inurba_marseille","lat":43.28028,"lon":5.3694,"is_reserved":false,"is_disabled":false,"rental_uris":{"android":"levelo://app?vid=4395082b-0488-496c-ac96-8c6485993f7a","ios":"levelo://app?vid=4395082b-0488-496c-ac96-8c6485993f7a"},"vehicle_type_id":"4","last_reported":1747315299,"current_range_meters":8000,"station_id":"ce4bha12rcd13ifvqef0","pricing_plan_id":"cebpf4jnsgd1na2vs0mg"},{"bike_id":"a606276b-e92e-481a-bbe7-bf67efbdd93c","system_id":"levelo_inurba_marseille","lat":43.29272,"lon":5.38444,"is_reserved":false,"is_disabled":false,"rental_uris":{"android":"levelo://app?vid=a606276b-e92e-481a-bbe7-bf67efbdd93c","ios":"levelo://app?vid=a606276b-e92e-481a-bbe7-bf67efbdd93c"},"vehicle_type_id":"4","last_reported":1747315299,"current_range_meters":8000,"station_id":"ce4bh692rcd13ifvqea0","pricing_plan_id":"cebpf4jnsgd1na2vs0mg"},{"bike_id":"da094370-d5e1-469a-acf6-c99dbb6627b8","system_id":"levelo_inurba_marseille","lat":43.27376,"lon":5.36256,"is_reserved":false,"is_disabled":false,"rental_uris":{"android":"levelo://app?vid=da094370-d5e1-469a-acf6-c99dbb6627b8","ios":"levelo://app?vid=da094370-d5e1-469a-acf6-c99dbb6627b8"},"vehicle_type_id":"4","last_reported":1747315299,"current_range_meters":8000,"station_id":"ce4bhbh2rcd13ifvqeo0","pricing_plan_id":"cebpf4jnsgd1na2vs0mg"},{"bike_id":"f9904bb3-bae1-4cb8-95a4-68c2d14ee1f9","system_id":"levelo_inurba_marseille","lat":43.29322,"lon":5.37172,"is_reserved":false,"is_disabled":false,"rental_uris":{"android":"levelo://app?vid=f9904bb3-bae1-4cb8-95a4-68c2d14ee1f9","ios":"levelo://app?vid=f9904bb3-bae1-4cb8-95a4-68c2d14ee1f9"},"vehicle_type_id":"4","last_reported":1747315299,"current_range_meters":7200,"station_id":"","pricing_plan_id":"cebpf4jnsgd1na2vs0mg"},{"bike_id":"094c4808-776d-4b66-af3a-cf29dfc94970","system_id":"levelo_inurba_marseille","lat":43.265561,"lon":5.372846,"is_reserved":false,"is_disabled":false,"rental_uris":{"android":"levelo://app?vid=094c4808-776d-4b66-af3a-cf29dfc94970","ios":"levelo://app?vid=094c4808-776d-4b66-af3a-cf29dfc94970"},"vehicle_type_id":"4","last_reported":1747315299,"current_range_meters":8000,"station_id":"ce4bhg12rcd13ifvqf70","pricing_plan_id":"cebpf4jnsgd1na2vs0mg"},{"bike_id":"d255e228-7798-4584-ba50-fc86da330544","system_id":"levelo_inurba_marseille","lat":43.29425,"lon":5.37839,"is_reserved":false,"is_disabled":false,"rental_uris":{"android":"levelo://app?vid=d255e228-7798-4584-ba50-fc86da330544","ios":"levelo://app?vid=d255e228-7798-4584-ba50-fc86da330544"},"vehicle_type_id":"4","last_reported":1747315299,"current_range_meters":8000,"station_id":"ce4bgjh2rcd13ifvqbf0","pricing_plan_id":"cebpf4jnsgd1na2vs0mg"},{"bike_id":"0e68518c-0014-4e6f-aec7-ade0978a6643","system_id":"levelo_inurba_marseille","lat":43.28942,"lon":5.36395,"is_reserved":false,"is_disabled":false,"rental_uris":{"android":"levelo://app?vid=0e68518c-0014-4e6f-aec7-ade0978a6643","ios":"levelo://app?vid=0e68518c-0014-4e6f-aec7-ade0978a6643"},"vehicle_type_id":"4","last_reported":1747315299,"current_range_meters":8000,"station_id":"ce4bhc92rcd13ifvqetg","pricing_plan_id":"cebpf4jnsgd1na2vs0mg"},{"bike_id":"e3faef6f-635a-4b6b-b2b3-c0b918604df6","system_id":"levelo_inurba_marseille","lat":43.299135,"lon":5.436394,"is_reserved":false,"is_disabled":false,"rental_uris":{"android":"levelo://app?vid=e3faef6f-635a-4b6b-b2b3-c0b918604df6","ios":"levelo://app?vid=e3faef6f-635a-4b6b-b2b3-c0b918604df6"},"vehicle_type_id":"4","last_reported":1747315299,"current_range_meters":8000,"station_id":"ce4bhpp2rcd13ifvqhfg","pricing_plan_id":"cebpf4jnsgd1na2vs0mg"},{"bike_id":"a19ad25c-77ec-48e7-bab6-e48962bf21e3","system_id":"levelo_inurba_marseille","lat":43.31529,"lon":5.38037,"is_reserved":false,"is_disabled":false,"rental_uris":{"android":"levelo://app?vid=a19ad25c-77ec-48e7-bab6-e48962bf21e3","ios":"levelo://app?vid=a19ad25c-77ec-48e7-bab6-e48962bf21e3"},"vehicle_type_id":"4","last_reported":1747315299,"current_range_meters":8000,"station_id":"ce4bhsp2rcd13ifvqi50","pricing_plan_id":"cebpf4jnsgd1na2vs0mg"},{"bike_id":"0c4d88aa-d524-4ae2-bf44-37a32f7f889d","system_id":"levelo_inurba_marseille","lat":43.28613,"lon":5.35103,"is_reserved":false,"is_disabled":false,"rental_uris":{"android":"levelo://app?vid=0c4d88aa-d524-4ae2-bf44-37a32f7f889d","ios":"levelo://app?vid=0c4d88aa-d524-4ae2-bf44-37a32f7f889d"},"vehicle_type_id":"4","last_reported":1747315299,"current_range_meters":8400,"station_id":"ce4bhch2rcd13ifvqeug","pricing_plan_id":"cebpf4jnsgd1na2vs0mg"},{"bike_id":"4934b8a7-2c21-4a88-bb03-e9bacb06e199","system_id":"levelo_inurba_marseille","lat":43.2867,"lon":5.36347,"is_reserved":false,"is_disabled":false,"rental_uris":{"android":"levelo://app?vid=4934b8a7-2c21-4a88-bb03-e9bacb06e199","ios":"levelo://app?vid=4934b8a7-2c21-4a88-bb03-e9bacb06e199"},"vehicle_type_id":"4","last_reported":1747315299,"current_range_meters":8800,"station_id":"ce4bhah2rcd13ifvqej0","pricing_plan_id":"cebpf4jnsgd1na2vs0mg"},{"bike_id":"73174a1e-b779-4402-b8c8-f72bd450c25f","system_id":"levelo_inurba_marseille","lat":43.265567,"lon":5.372823,"is_reserved":false,"is_disabled":false,"rental_uris":{"android":"levelo://app?vid=73174a1e-b779-4402-b8c8-f72bd450c25f","ios":"levelo://app?vid=73174a1e-b779-4402-b8c8-f72bd450c25f"},"vehicle_type_id":"4","last_reported":1747315299,"current_range_meters":8800,"station_id":"ce4bhg12rcd13ifvqf70","pricing_plan_id":"cebpf4jnsgd1na2vs0mg"},{"bike_id":"a7283f0c-d429-4648-949a-a436e0a2f35a","system_id":"levelo_inurba_marseille","lat":43.28437,"lon":5.35003,"is_reserved":false,"is_disabled":false,"rental_uris":{"android":"levelo://app?vid=a7283f0c-d429-4648-949a-a436e0a2f35a","ios":"levelo://app?vid=a7283f0c-d429-4648-949a-a436e0a2f35a"},"vehicle_type_id":"4","last_reported":1747315299,"current_range_meters":8800,"station_id":"ce4bhbh2rcd13ifvqepg","pricing_plan_id":"cebpf4jnsgd1na2vs0mg"},{"bike_id":"3252108f-ed39-47ec-b9ee-c1da9871cecf","system_id":"levelo_inurba_marseille","lat":43.26957,"lon":5.40235,"is_reserved":false,"is_disabled":false,"rental_uris":{"android":"levelo://app?vid=3252108f-ed39-47ec-b9ee-c1da9871cecf","ios":"levelo://app?vid=3252108f-ed39-47ec-b9ee-c1da9871cecf"},"vehicle_type_id":"4","last_reported":1747315299,"current_range_meters":9200,"station_id":"cjm6bp8fraef2m0cb0m0","pricing_plan_id":"cebpf4jnsgd1na2vs0mg"},{"bike_id":"3e2223ce-7bde-4ec4-9252-679cd1be4927","system_id":"levelo_inurba_marseille","lat":43.23153,"lon":5.43713,"is_reserved":false,"is_disabled":false,"rental_uris":{"android":"levelo://app?vid=3e2223ce-7bde-4ec4-9252-679cd1be4927","ios":"levelo://app?vid=3e2223ce-7bde-4ec4-9252-679cd1be4927"},"vehicle_type_id":"4","last_reported":1747315299,"current_range_meters":8800,"station_id":"ce4bhmp2rcd13ifvqgog","pricing_plan_id":"cebpf4jnsgd1na2vs0mg"},{"bike_id":"902c3167-105b-4699-b317-e21c74fee998","system_id":"levelo_inurba_marseille","lat":43.2956,"lon":5.42292,"is_reserved":false,"is_disabled":false,"rental_uris":{"android":"levelo://app?vid=902c3167-105b-4699-b317-e21c74fee998","ios":"levelo://app?vid=902c3167-105b-4699-b317-e21c74fee998"},"vehicle_type_id":"4","last_reported":1747315299,"current_range_meters":8800,"station_id":"ce4bhph2rcd13ifvqhdg","pricing_plan_id":"cebpf4jnsgd1na2vs0mg"},{"bike_id":"f7557673-bc83-42bd-a681-18a2fc8a7373","system_id":"levelo_inurba_marseille","lat":43.32549,"lon":5.41447,"is_reserved":false,"is_disabled":false,"rental_uris":{"android":"levelo://app?vid=f7557673-bc83-42bd-a681-18a2fc8a7373","ios":"levelo://app?vid=f7557673-bc83-42bd-a681-18a2fc8a7373"},"vehicle_type_id":"4","last_reported":1747315299,"current_range_meters":8800,"station_id":"ce4bhq12rcd13ifvqhhg","pricing_plan_id":"cebpf4jnsgd1na2vs0mg"},{"bike_id":"7ee1138f-1806-4252-8e45-cafdba01d3ae","system_id":"levelo_inurba_marseille","lat":43.30525,"lon":5.36532,"is_reserved":false,"is_disabled":false,"rental_uris":{"android":"levelo://app?vid=7ee1138f-1806-4252-8e45-cafdba01d3ae","ios":"levelo://app?vid=7ee1138f-1806-4252-8e45-cafdba01d3ae"},"vehicle_type_id":"4","last_reported":1747315299,"current_range_meters":8800,"station_id":"ce4bgs12rcd13ifvqcag","pricing_plan_id":"cebpf4jnsgd1na2vs0mg"},{"bike_id":"803e72a1-5d0e-4def-87b2-deb9c4d14ee4","system_id":"levelo_inurba_marseille","lat":43.325408,"lon":5.414402,"is_reserved":false,"is_disabled":false,"rental_uris":{"android":"levelo://app?vid=803e72a1-5d0e-4def-87b2-deb9c4d14ee4","ios":"levelo://app?vid=803e72a1-5d0e-4def-87b2-deb9c4d14ee4"},"vehicle_type_id":"4","last_reported":1747315299,"current_range_meters":8800,"station_id":"ce4bhq12rcd13ifvqhhg","pricing_plan_id":"cebpf4jnsgd1na2vs0mg"},{"bike_id":"e9644d12-b48e-4a2f-8ba8-7cc3dea7b648","system_id":"levelo_inurba_marseille","lat":43.32494,"lon":5.36565,"is_reserved":false,"is_disabled":false,"rental_uris":{"android":"levelo://app?vid=e9644d12-b48e-4a2f-8ba8-7cc3dea7b648","ios":"levelo://app?vid=e9644d12-b48e-4a2f-8ba8-7cc3dea7b648"},"vehicle_type_id":"4","last_reported":1747315299,"current_range_meters":8800,"station_id":"ce4bhs12rcd13ifvqhvg","pricing_plan_id":"cebpf4jnsgd1na2vs0mg"},{"bike_id":"f141b136-aadf-4a94-923e-4b198f8dbce8","system_id":"levelo_inurba_marseille","lat":43.26242,"lon":5.40451,"is_reserved":false,"is_disabled":false,"rental_uris":{"android":"levelo://app?vid=f141b136-aadf-4a94-923e-4b198f8dbce8","ios":"levelo://app?vid=f141b136-aadf-4a94-923e-4b198f8dbce8"},"vehicle_type_id":"4","last_reported":1747315299,"current_range_meters":8800,"station_id":"ce4bhmh2rcd13ifvqgmg","pricing_plan_id":"cebpf4jnsgd1na2vs0mg"},{"bike_id":"f79d0407-54c8-461b-bc06-85cd959ec4d5","system_id":"levelo_inurba_marseille","lat":43.31503,"lon":5.37302,"is_reserved":false,"is_disabled":true,"rental_uris":{"android":"levelo://app?vid=f79d0407-54c8-461b-bc06-85cd959ec4d5","ios":"levelo://app?vid=f79d0407-54c8-461b-bc06-85cd959ec4d5"},"vehicle_type_id":"4","last_reported":1747315299,"current_range_meters":9200,"station_id":"ce4bgt12rcd13ifvqcd0","pricing_plan_id":"cebpf4jnsgd1na2vs0mg"},{"bike_id":"c68022f0-7be7-4dde-9a51-7a59aed68b2d","system_id":"levelo_inurba_marseille","lat":43.23167,"lon":5.43784,"is_reserved":false,"is_disabled":false,"rental_uris":{"android":"levelo://app?vid=c68022f0-7be7-4dde-9a51-7a59aed68b2d","ios":"levelo://app?vid=c68022f0-7be7-4dde-9a51-7a59aed68b2d"},"vehicle_type_id":"4","last_reported":1747315299,"current_range_meters":9200,"station_id":"ce4bhmp2rcd13ifvqgog","pricing_plan_id":"cebpf4jnsgd1na2vs0mg"},{"bike_id":"e8ec1bd8-ec9d-4ad6-ac01-c1fc6ff69f19","system_id":"levelo_inurba_marseille","lat":43.31331,"lon":5.39692,"is_reserved":false,"is_disabled":false,"rental_uris":{"android":"levelo://app?vid=e8ec1bd8-ec9d-4ad6-ac01-c1fc6ff69f19","ios":"levelo://app?vid=e8ec1bd8-ec9d-4ad6-ac01-c1fc6ff69f19"},"vehicle_type_id":"4","last_reported":1747315299,"current_range_meters":9200,"station_id":"ce4bgvp2rcd13ifvqcu0","pricing_plan_id":"cebpf4jnsgd1na2vs0mg"},{"bike_id":"69eb01fe-a041-4881-907c-9534fa72f0a1","system_id":"levelo_inurba_marseille","lat":43.29041,"lon":5.3997,"is_reserved":false,"is_disabled":false,"rental_uris":{"android":"levelo://app?vid=69eb01fe-a041-4881-907c-9534fa72f0a1","ios":"levelo://app?vid=69eb01fe-a041-4881-907c-9534fa72f0a1"},"vehicle_type_id":"4","last_reported":1747315299,"current_range_meters":8800,"station_id":"ce4bh392rcd13ifvqdm0","pricing_plan_id":"cebpf4jnsgd1na2vs0mg"},{"bike_id":"106a152a-8da3-48e1-a435-116c7da7fb08","system_id":"levelo_inurba_marseille","lat":43.30442,"lon":5.38881,"is_reserved":false,"is_disabled":false,"rental_uris":{"android":"levelo://app?vid=106a152a-8da3-48e1-a435-116c7da7fb08","ios":"levelo://app?vid=106a152a-8da3-48e1-a435-116c7da7fb08"},"vehicle_type_id":"4","last_reported":1747315299,"current_range_meters":9200,"station_id":"ce4bgk12rcd13ifvqbi0","pricing_plan_id":"cebpf4jnsgd1na2vs0mg"},{"bike_id":"17d57f58-ffb0-4d77-bbe5-7f462887ac74","system_id":"levelo_inurba_marseille","lat":43.24221,"lon":5.39744,"is_reserved":false,"is_disabled":false,"rental_uris":{"android":"levelo://app?vid=17d57f58-ffb0-4d77-bbe5-7f462887ac74","ios":"levelo://app?vid=17d57f58-ffb0-4d77-bbe5-7f462887ac74"},"vehicle_type_id":"4","last_reported":1747315299,"current_range_meters":9200,"station_id":"ce4bhn12rcd13ifvqgpg","pricing_plan_id":"cebpf4jnsgd1na2vs0mg"},{"bike_id":"7cad8bbf-afe9-4767-8543-3e633fd367b9","system_id":"levelo_inurba_marseille","lat":43.278057,"lon":5.407109,"is_reserved":false,"is_disabled":false,"rental_uris":{"android":"levelo://app?vid=7cad8bbf-afe9-4767-8543-3e633fd367b9","ios":"levelo://app?vid=7cad8bbf-afe9-4767-8543-3e633fd367b9"},"vehicle_type_id":"4","last_reported":1747315299,"current_range_meters":9200,"station_id":"ce4bhnh2rcd13ifvqgtg","pricing_plan_id":"cebpf4jnsgd1na2vs0mg"},{"bike_id":"48524fe8-415d-4d2b-9d5f-003ea231edbf","system_id":"levelo_inurba_marseille","lat":43.2957,"lon":5.39964,"is_reserved":false,"is_disabled":false,"rental_uris":{"android":"levelo://app?vid=48524fe8-415d-4d2b-9d5f-003ea231edbf","ios":"levelo://app?vid=48524fe8-415d-4d2b-9d5f-003ea231edbf"},"vehicle_type_id":"4","last_reported":1747315299,"current_range_meters":9200,"station_id":"ce4bh312rcd13ifvqdj0","pricing_plan_id":"cebpf4jnsgd1na2vs0mg"},{"bike_id":"e53c7f18-60cf-4219-9ac8-4254c2f9fe68","system_id":"levelo_inurba_marseille","lat":43.31246,"lon":5.36848,"is_reserved":false,"is_disabled":false,"rental_uris":{"android":"levelo://app?vid=e53c7f18-60cf-4219-9ac8-4254c2f9fe68","ios":"levelo://app?vid=e53c7f18-60cf-4219-9ac8-4254c2f9fe68"},"vehicle_type_id":"4","last_reported":1747315299,"current_range_meters":9200,"station_id":"ce4bgl92rcd13ifvqbq0","pricing_plan_id":"cebpf4jnsgd1na2vs0mg"},{"bike_id":"1b801466-21d2-4d00-a6d9-d5e76f10b875","system_id":"levelo_inurba_marseille","lat":43.28985,"lon":5.37834,"is_reserved":false,"is_disabled":false,"rental_uris":{"android":"levelo://app?vid=1b801466-21d2-4d00-a6d9-d5e76f10b875","ios":"levelo://app?vid=1b801466-21d2-4d00-a6d9-d5e76f10b875"},"vehicle_type_id":"4","last_reported":1747315299,"current_range_meters":9600,"station_id":"ce4bh9p2rcd13ifvqed0","pricing_plan_id":"cebpf4jnsgd1na2vs0mg"},{"bike_id":"dec5007b-b8ec-4e93-8c2e-28de3bead79a","system_id":"levelo_inurba_marseille","lat":43.24396,"lon":5.37061,"is_reserved":false,"is_disabled":false,"rental_uris":{"android":"levelo://app?vid=dec5007b-b8ec-4e93-8c2e-28de3bead79a","ios":"levelo://app?vid=dec5007b-b8ec-4e93-8c2e-28de3bead79a"},"vehicle_type_id":"4","last_reported":1747315299,"current_range_meters":9600,"station_id":"ce4bhhh2rcd13ifvqfk0","pricing_plan_id":"cebpf4jnsgd1na2vs0mg"},{"bike_id":"0c0af3ee-dd77-4b3b-a2eb-a98daacf09f1","system_id":"levelo_inurba_marseille","lat":43.30148,"lon":5.38083,"is_reserved":false,"is_disabled":false,"rental_uris":{"android":"levelo://app?vid=0c0af3ee-dd77-4b3b-a2eb-a98daacf09f1","ios":"levelo://app?vid=0c0af3ee-dd77-4b3b-a2eb-a98daacf09f1"},"vehicle_type_id":"4","last_reported":1747315299,"current_range_meters":9600,"station_id":"ce4bgjp2rcd13ifvqbh0","pricing_plan_id":"cebpf4jnsgd1na2vs0mg"},{"bike_id":"f4527b19-b6d4-49bd-8c28-5fad3a7b360e","system_id":"levelo_inurba_marseille","lat":43.275478,"lon":5.384522,"is_reserved":false,"is_disabled":false,"rental_uris":{"android":"levelo://app?vid=f4527b19-b6d4-49bd-8c28-5fad3a7b360e","ios":"levelo://app?vid=f4527b19-b6d4-49bd-8c28-5fad3a7b360e"},"vehicle_type_id":"4","last_reported":1747315299,"current_range_meters":9600,"station_id":"ce4bhh92rcd13ifvqfi0","pricing_plan_id":"cebpf4jnsgd1na2vs0mg"},{"bike_id":"d0f3b23c-0dd5-4317-94c1-8a3e00b2b653","system_id":"levelo_inurba_marseille","lat":43.27372,"lon":5.3627,"is_reserved":false,"is_disabled":false,"rental_uris":{"android":"levelo://app?vid=d0f3b23c-0dd5-4317-94c1-8a3e00b2b653","ios":"levelo://app?vid=d0f3b23c-0dd5-4317-94c1-8a3e00b2b653"},"vehicle_type_id":"4","last_reported":1747315299,"current_range_meters":9600,"station_id":"ce4bhbh2rcd13ifvqeo0","pricing_plan_id":"cebpf4jnsgd1na2vs0mg"},{"bike_id":"5fd6ccdf-df6a-4465-8344-ef8e58c5c6d3","system_id":"levelo_inurba_marseille","lat":43.304268,"lon":5.388859,"is_reserved":false,"is_disabled":false,"rental_uris":{"android":"levelo://app?vid=5fd6ccdf-df6a-4465-8344-ef8e58c5c6d3","ios":"levelo://app?vid=5fd6ccdf-df6a-4465-8344-ef8e58c5c6d3"},"vehicle_type_id":"4","last_reported":1747315299,"current_range_meters":9600,"station_id":"ce4bgk12rcd13ifvqbi0","pricing_plan_id":"cebpf4jnsgd1na2vs0mg"},{"bike_id":"55697a48-9aaa-468a-9813-6afc6f45d640","system_id":"levelo_inurba_marseille","lat":43.2762,"lon":5.36119,"is_reserved":false,"is_disabled":false,"rental_uris":{"android":"levelo://app?vid=55697a48-9aaa-468a-9813-6afc6f45d640","ios":"levelo://app?vid=55697a48-9aaa-468a-9813-6afc6f45d640"},"vehicle_type_id":"4","last_reported":1747315299,"current_range_meters":10000,"station_id":"ce4bgj92rcd13ifvqbe0","pricing_plan_id":"cebpf4jnsgd1na2vs0mg"},{"bike_id":"90049ab7-471a-407b-9c25-9134ef02f6bc","system_id":"levelo_inurba_marseille","lat":43.27561,"lon":5.38437,"is_reserved":false,"is_disabled":false,"rental_uris":{"android":"levelo://app?vid=90049ab7-471a-407b-9c25-9134ef02f6bc","ios":"levelo://app?vid=90049ab7-471a-407b-9c25-9134ef02f6bc"},"vehicle_type_id":"4","last_reported":1747315299,"current_range_meters":10000,"station_id":"ce4bhh92rcd13ifvqfi0","pricing_plan_id":"cebpf4jnsgd1na2vs0mg"},{"bike_id":"3b998cd5-18c3-42da-8048-c62c78cc0f5d","system_id":"levelo_inurba_marseille","lat":43.2862,"lon":5.35107,"is_reserved":false,"is_disabled":false,"rental_uris":{"android":"levelo://app?vid=3b998cd5-18c3-42da-8048-c62c78cc0f5d","ios":"levelo://app?vid=3b998cd5-18c3-42da-8048-c62c78cc0f5d"},"vehicle_type_id":"4","last_reported":1747315299,"current_range_meters":10000,"station_id":"ce4bhch2rcd13ifvqeug","pricing_plan_id":"cebpf4jnsgd1na2vs0mg"},{"bike_id":"afe7843a-d135-4148-b85e-fbc57bdc1be9","system_id":"levelo_inurba_marseille","lat":43.28458,"lon":5.3588,"is_reserved":false,"is_disabled":false,"rental_uris":{"android":"levelo://app?vid=afe7843a-d135-4148-b85e-fbc57bdc1be9","ios":"levelo://app?vid=afe7843a-d135-4148-b85e-fbc57bdc1be9"},"vehicle_type_id":"4","last_reported":1747315299,"current_range_meters":10000,"station_id":"ce4bhah2rcd13ifvqei0","pricing_plan_id":"cebpf4jnsgd1na2vs0mg"},{"bike_id":"821e4e81-eb2a-479b-b4e1-4bb3638fb811","system_id":"levelo_inurba_marseille","lat":43.24073,"lon":5.37752,"is_reserved":false,"is_disabled":false,"rental_uris":{"android":"levelo://app?vid=821e4e81-eb2a-479b-b4e1-4bb3638fb811","ios":"levelo://app?vid=821e4e81-eb2a-479b-b4e1-4bb3638fb811"},"vehicle_type_id":"4","last_reported":1747315299,"current_range_meters":10800,"station_id":"ce4bhnp2rcd13ifvqgvg","pricing_plan_id":"cebpf4jnsgd1na2vs0mg"},{"bike_id":"7a5426de-a02a-46c3-a1ec-4eaaa28c631c","system_id":"levelo_inurba_marseille","lat":43.28272,"lon":5.35069,"is_reserved":false,"is_disabled":false,"rental_uris":{"android":"levelo://app?vid=7a5426de-a02a-46c3-a1ec-4eaaa28c631c","ios":"levelo://app?vid=7a5426de-a02a-46c3-a1ec-4eaaa28c631c"},"vehicle_type_id":"4","last_reported":1747315299,"current_range_meters":10800,"station_id":"ce4bhbp2rcd13ifvqerg","pricing_plan_id":"cebpf4jnsgd1na2vs0mg"},{"bike_id":"2896e979-7f88-486e-a618-c11aad4eb9cf","system_id":"levelo_inurba_marseille","lat":43.31179,"lon":5.38706,"is_reserved":false,"is_disabled":false,"rental_uris":{"android":"levelo://app?vid=2896e979-7f88-486e-a618-c11aad4eb9cf","ios":"levelo://app?vid=2896e979-7f88-486e-a618-c11aad4eb9cf"},"vehicle_type_id":"4","last_reported":1747315299,"current_range_meters":10800,"station_id":"ce4bgv12rcd13ifvqcp0","pricing_plan_id":"cebpf4jnsgd1na2vs0mg"},{"bike_id":"e7a9fe1f-0630-429e-a442-16437d6d8736","system_id":"levelo_inurba_marseille","lat":43.28416,"lon":5.34974,"is_reserved":false,"is_disabled":false,"rental_uris":{"android":"levelo://app?vid=e7a9fe1f-0630-429e-a442-16437d6d8736","ios":"levelo://app?vid=e7a9fe1f-0630-429e-a442-16437d6d8736"},"vehicle_type_id":"4","last_reported":1747315299,"current_range_meters":10800,"station_id":"ce4bhbh2rcd13ifvqepg","pricing_plan_id":"cebpf4jnsgd1na2vs0mg"},{"bike_id":"51d8166b-a115-43f2-8efa-24b7c5da141a","system_id":"levelo_inurba_marseille","lat":43.27498,"lon":5.42456,"is_reserved":false,"is_disabled":false,"rental_uris":{"android":"levelo://app?vid=51d8166b-a115-43f2-8efa-24b7c5da141a","ios":"levelo://app?vid=51d8166b-a115-43f2-8efa-24b7c5da141a"},"vehicle_type_id":"4","last_reported":1747315299,"current_range_meters":10800,"station_id":"ce4bhn92rcd13ifvqgrg","pricing_plan_id":"cebpf4jnsgd1na2vs0mg"},{"bike_id":"8c7308bf-84fd-4edb-9b86-07fbeaf5e51b","system_id":"levelo_inurba_marseille","lat":43.31748,"lon":5.42403,"is_reserved":false,"is_disabled":false,"rental_uris":{"android":"levelo://app?vid=8c7308bf-84fd-4edb-9b86-07fbeaf5e51b","ios":"levelo://app?vid=8c7308bf-84fd-4edb-9b86-07fbeaf5e51b"},"vehicle_type_id":"4","last_reported":1747315299,"current_range_meters":10800,"station_id":"ce4bhp92rcd13ifvqhbg","pricing_plan_id":"cebpf4jnsgd1na2vs0mg"},{"bike_id":"bbfd3c35-ddaa-44e6-9cb1-c430263d73d9","system_id":"levelo_inurba_marseille","lat":43.2655,"lon":5.37277,"is_reserved":false,"is_disabled":false,"rental_uris":{"android":"levelo://app?vid=bbfd3c35-ddaa-44e6-9cb1-c430263d73d9","ios":"levelo://app?vid=bbfd3c35-ddaa-44e6-9cb1-c430263d73d9"},"vehicle_type_id":"4","last_reported":1747315299,"current_range_meters":11200,"station_id":"ce4bhg12rcd13ifvqf70","pricing_plan_id":"cebpf4jnsgd1na2vs0mg"},{"bike_id":"bee35244-ec95-4b3d-8fae-96abe913294a","system_id":"levelo_inurba_marseille","lat":43.28622,"lon":5.35101,"is_reserved":false,"is_disabled":false,"rental_uris":{"android":"levelo://app?vid=bee35244-ec95-4b3d-8fae-96abe913294a","ios":"levelo://app?vid=bee35244-ec95-4b3d-8fae-96abe913294a"},"vehicle_type_id":"4","last_reported":1747315299,"current_range_meters":11200,"station_id":"ce4bhch2rcd13ifvqeug","pricing_plan_id":"cebpf4jnsgd1na2vs0mg"},{"bike_id":"b24c5ff8-2c01-4725-952a-df8c2ec03ae2","system_id":"levelo_inurba_marseille","lat":43.30148,"lon":5.37412,"is_reserved":false,"is_disabled":false,"rental_uris":{"android":"levelo://app?vid=b24c5ff8-2c01-4725-952a-df8c2ec03ae2","ios":"levelo://app?vid=b24c5ff8-2c01-4725-952a-df8c2ec03ae2"},"vehicle_type_id":"4","last_reported":1747315299,"current_range_meters":11200,"station_id":"ce4bgs92rcd13ifvqcc0","pricing_plan_id":"cebpf4jnsgd1na2vs0mg"},{"bike_id":"e91c2ba2-c92e-4784-b8d9-b1830483926d","system_id":"levelo_inurba_marseille","lat":43.26209,"lon":5.37921,"is_reserved":false,"is_disabled":false,"rental_uris":{"android":"levelo://app?vid=e91c2ba2-c92e-4784-b8d9-b1830483926d","ios":"levelo://app?vid=e91c2ba2-c92e-4784-b8d9-b1830483926d"},"vehicle_type_id":"4","last_reported":1747315299,"current_range_meters":11200,"station_id":"ce4bhjp2rcd13ifvqg90","pricing_plan_id":"cebpf4jnsgd1na2vs0mg"},{"bike_id":"a8e117f7-9550-4a45-9d38-5ed7c1c939c5","system_id":"levelo_inurba_marseille","lat":43.27668,"lon":5.38877,"is_reserved":false,"is_disabled":false,"rental_uris":{"android":"levelo://app?vid=a8e117f7-9550-4a45-9d38-5ed7c1c939c5","ios":"levelo://app?vid=a8e117f7-9550-4a45-9d38-5ed7c1c939c5"},"vehicle_type_id":"4","last_reported":1747315299,"current_range_meters":11200,"station_id":"ce4bhi12rcd13ifvqfo0","pricing_plan_id":"cebpf4jnsgd1na2vs0mg"},{"bike_id":"45e307f9-dc69-4d8e-b5a0-a3fb58d38a70","system_id":"levelo_inurba_marseille","lat":43.289448,"lon":5.363875,"is_reserved":false,"is_disabled":false,"rental_uris":{"android":"levelo://app?vid=45e307f9-dc69-4d8e-b5a0-a3fb58d38a70","ios":"levelo://app?vid=45e307f9-dc69-4d8e-b5a0-a3fb58d38a70"},"vehicle_type_id":"4","last_reported":1747315299,"current_range_meters":11600,"station_id":"ce4bhc92rcd13ifvqetg","pricing_plan_id":"cebpf4jnsgd1na2vs0mg"},{"bike_id":"cc377332-c824-4cf8-bc9d-97d1852f3692","system_id":"levelo_inurba_marseille","lat":43.31706,"lon":5.40485,"is_reserved":false,"is_disabled":false,"rental_uris":{"android":"levelo://app?vid=cc377332-c824-4cf8-bc9d-97d1852f3692","ios":"levelo://app?vid=cc377332-c824-4cf8-bc9d-97d1852f3692"},"vehicle_type_id":"4","last_reported":1747315299,"current_range_meters":11600,"station_id":"ce4bh012rcd13ifvqd00","pricing_plan_id":"cebpf4jnsgd1na2vs0mg"},{"bike_id":"a6083d34-e66a-4824-b164-ef0a4090c517","system_id":"levelo_inurba_marseille","lat":43.265558,"lon":5.372842,"is_reserved":false,"is_disabled":false,"rental_uris":{"android":"levelo://app?vid=a6083d34-e66a-4824-b164-ef0a4090c517","ios":"levelo://app?vid=a6083d34-e66a-4824-b164-ef0a4090c517"},"vehicle_type_id":"4","last_reported":1747315299,"current_range_meters":11600,"station_id":"ce4bhg12rcd13ifvqf70","pricing_plan_id":"cebpf4jnsgd1na2vs0mg"},{"bike_id":"cb8b7059-8a42-4571-9d84-7a35fb676251","system_id":"levelo_inurba_marseille","lat":43.26211,"lon":5.40464,"is_reserved":false,"is_disabled":false,"rental_uris":{"android":"levelo://app?vid=cb8b7059-8a42-4571-9d84-7a35fb676251","ios":"levelo://app?vid=cb8b7059-8a42-4571-9d84-7a35fb676251"},"vehicle_type_id":"4","last_reported":1747315299,"current_range_meters":11600,"station_id":"ce4bhmh2rcd13ifvqgmg","pricing_plan_id":"cebpf4jnsgd1na2vs0mg"},{"bike_id":"893adeee-17ef-46ce-8f56-e8ec7cea0725","system_id":"levelo_inurba_marseille","lat":43.323735,"lon":5.367381,"is_reserved":false,"is_disabled":false,"rental_uris":{"android":"levelo://app?vid=893adeee-17ef-46ce-8f56-e8ec7cea0725","ios":"levelo://app?vid=893adeee-17ef-46ce-8f56-e8ec7cea0725"},"vehicle_type_id":"4","last_reported":1747315299,"current_range_meters":12000,"station_id":"","pricing_plan_id":"cebpf4jnsgd1na2vs0mg"},{"bike_id":"4a8658bd-b181-4148-b6c4-a6e3c842282b","system_id":"levelo_inurba_marseille","lat":43.33029,"lon":5.39043,"is_reserved":false,"is_disabled":false,"rental_uris":{"android":"levelo://app?vid=4a8658bd-b181-4148-b6c4-a6e3c842282b","ios":"levelo://app?vid=4a8658bd-b181-4148-b6c4-a6e3c842282b"},"vehicle_type_id":"4","last_reported":1747315299,"current_range_meters":12000,"station_id":"ce4bhr92rcd13ifvqhrg","pricing_plan_id":"cebpf4jnsgd1na2vs0mg"},{"bike_id":"009875bc-4fd5-4b3e-ae40-0a56471efd32","system_id":"levelo_inurba_marseille","lat":43.29677,"lon":5.37273,"is_reserved":false,"is_disabled":false,"rental_uris":{"android":"levelo://app?vid=009875bc-4fd5-4b3e-ae40-0a56471efd32","ios":"levelo://app?vid=009875bc-4fd5-4b3e-ae40-0a56471efd32"},"vehicle_type_id":"4","last_reported":1747315299,"current_range_meters":12000,"station_id":"ce4bgk12rcd13ifvqbj0","pricing_plan_id":"cebpf4jnsgd1na2vs0mg"},{"bike_id":"f7b25ce1-a89d-4c0c-8bc4-c0f867e52f74","system_id":"levelo_inurba_marseille","lat":43.265583,"lon":5.372842,"is_reserved":false,"is_disabled":false,"rental_uris":{"android":"levelo://app?vid=f7b25ce1-a89d-4c0c-8bc4-c0f867e52f74","ios":"levelo://app?vid=f7b25ce1-a89d-4c0c-8bc4-c0f867e52f74"},"vehicle_type_id":"4","last_reported":1747315299,"current_range_meters":12000,"station_id":"ce4bhg12rcd13ifvqf70","pricing_plan_id":"cebpf4jnsgd1na2vs0mg"},{"bike_id":"a4254f33-dfdc-4beb-9ee4-21271a8a3aac","system_id":"levelo_inurba_marseille","lat":43.30444,"lon":5.41297,"is_reserved":false,"is_disabled":true,"rental_uris":{"android":"levelo://app?vid=a4254f33-dfdc-4beb-9ee4-21271a8a3aac","ios":"levelo://app?vid=a4254f33-dfdc-4beb-9ee4-21271a8a3aac"},"vehicle_type_id":"4","last_reported":1747315299,"current_range_meters":12000,"station_id":"ce4bhop2rcd13ifvqh8g","pricing_plan_id":"cebpf4jnsgd1na2vs0mg"},{"bike_id":"0f3d78b5-d474-45ec-974c-32fc1c93c162","system_id":"levelo_inurba_marseille","lat":43.32367,"lon":5.38881,"is_reserved":false,"is_disabled":false,"rental_uris":{"android":"levelo://app?vid=0f3d78b5-d474-45ec-974c-32fc1c93c162","ios":"levelo://app?vid=0f3d78b5-d474-45ec-974c-32fc1c93c162"},"vehicle_type_id":"4","last_reported":1747315299,"current_range_meters":12400,"station_id":"ce4bhqp2rcd13ifvqhog","pricing_plan_id":"cebpf4jnsgd1na2vs0mg"},{"bike_id":"94425245-09df-4108-9a30-610dbcaf2585","system_id":"levelo_inurba_marseille","lat":43.317236,"lon":5.423931,"is_reserved":false,"is_disabled":false,"rental_uris":{"android":"levelo://app?vid=94425245-09df-4108-9a30-610dbcaf2585","ios":"levelo://app?vid=94425245-09df-4108-9a30-610dbcaf2585"},"vehicle_type_id":"4","last_reported":1747315299,"current_range_meters":12400,"station_id":"ce4bhp92rcd13ifvqhbg","pricing_plan_id":"cebpf4jnsgd1na2vs0mg"},{"bike_id":"5d143fa7-3fcc-4f6d-b56e-46a9140a5e84","system_id":"levelo_inurba_marseille","lat":43.29557,"lon":5.42295,"is_reserved":false,"is_disabled":false,"rental_uris":{"android":"levelo://app?vid=5d143fa7-3fcc-4f6d-b56e-46a9140a5e84","ios":"levelo://app?vid=5d143fa7-3fcc-4f6d-b56e-46a9140a5e84"},"vehicle_type_id":"4","last_reported":1747315299,"current_range_meters":12400,"station_id":"ce4bhph2rcd13ifvqhdg","pricing_plan_id":"cebpf4jnsgd1na2vs0mg"},{"bike_id":"6e4a2201-51d8-4726-a5b9-1d8f7f49a126","system_id":"levelo_inurba_marseille","lat":43.30828,"lon":5.43517,"is_reserved":false,"is_disabled":false,"rental_uris":{"android":"levelo://app?vid=6e4a2201-51d8-4726-a5b9-1d8f7f49a126","ios":"levelo://app?vid=6e4a2201-51d8-4726-a5b9-1d8f7f49a126"},"vehicle_type_id":"4","last_reported":1747315299,"current_range_meters":12800,"station_id":"ce4bhph2rcd13ifvqheg","pricing_plan_id":"cebpf4jnsgd1na2vs0mg"},{"bike_id":"1ca372b2-144c-48a2-ac1f-4e82f694691e","system_id":"levelo_inurba_marseille","lat":43.2862,"lon":5.35115,"is_reserved":false,"is_disabled":false,"rental_uris":{"android":"levelo://app?vid=1ca372b2-144c-48a2-ac1f-4e82f694691e","ios":"levelo://app?vid=1ca372b2-144c-48a2-ac1f-4e82f694691e"},"vehicle_type_id":"4","last_reported":1747315299,"current_range_meters":12800,"station_id":"ce4bhch2rcd13ifvqeug","pricing_plan_id":"cebpf4jnsgd1na2vs0mg"},{"bike_id":"ef5c0992-9d7f-4151-aef2-2762e84efc85","system_id":"levelo_inurba_marseille","lat":43.3176,"lon":5.39012,"is_reserved":false,"is_disabled":false,"rental_uris":{"android":"levelo://app?vid=ef5c0992-9d7f-4151-aef2-2762e84efc85","ios":"levelo://app?vid=ef5c0992-9d7f-4151-aef2-2762e84efc85"},"vehicle_type_id":"4","last_reported":1747315299,"current_range_meters":12800,"station_id":"ce4bhqp2rcd13ifvqhng","pricing_plan_id":"cebpf4jnsgd1na2vs0mg"},{"bike_id":"f447a4bb-1f96-4a20-b3eb-2ebf0cd1326a","system_id":"levelo_inurba_marseille","lat":43.302706,"lon":5.377096,"is_reserved":false,"is_disabled":false,"rental_uris":{"android":"levelo://app?vid=f447a4bb-1f96-4a20-b3eb-2ebf0cd1326a","ios":"levelo://app?vid=f447a4bb-1f96-4a20-b3eb-2ebf0cd1326a"},"vehicle_type_id":"4","last_reported":1747315299,"current_range_meters":12800,"station_id":"ce4bguh2rcd13ifvqcj0","pricing_plan_id":"cebpf4jnsgd1na2vs0mg"},{"bike_id":"fd88f120-3983-4de8-b0fd-4d184d789bd3","system_id":"levelo_inurba_marseille","lat":43.29375,"lon":5.37824,"is_reserved":false,"is_disabled":false,"rental_uris":{"android":"levelo://app?vid=fd88f120-3983-4de8-b0fd-4d184d789bd3","ios":"levelo://app?vid=fd88f120-3983-4de8-b0fd-4d184d789bd3"},"vehicle_type_id":"4","last_reported":1747315299,"current_range_meters":13600,"station_id":"ce4bgjh2rcd13ifvqbf0","pricing_plan_id":"cebpf4jnsgd1na2vs0mg"},{"bike_id":"7f3855bb-a282-4095-8d09-2e7c2e3838e5","system_id":"levelo_inurba_marseille","lat":43.30541,"lon":5.36545,"is_reserved":false,"is_disabled":false,"rental_uris":{"android":"levelo://app?vid=7f3855bb-a282-4095-8d09-2e7c2e3838e5","ios":"levelo://app?vid=7f3855bb-a282-4095-8d09-2e7c2e3838e5"},"vehicle_type_id":"4","last_reported":1747315299,"current_range_meters":13600,"station_id":"ce4bgs12rcd13ifvqcag","pricing_plan_id":"cebpf4jnsgd1na2vs0mg"},{"bike_id":"3f056d99-c7e4-4035-aa29-e5fa5baa1c67","system_id":"levelo_inurba_marseille","lat":43.28679,"lon":5.3867,"is_reserved":false,"is_disabled":false,"rental_uris":{"android":"levelo://app?vid=3f056d99-c7e4-4035-aa29-e5fa5baa1c67","ios":"levelo://app?vid=3f056d99-c7e4-4035-aa29-e5fa5baa1c67"},"vehicle_type_id":"4","last_reported":1747315299,"current_range_meters":13600,"station_id":"ce4bh492rcd13ifvqdug","pricing_plan_id":"cebpf4jnsgd1na2vs0mg"},{"bike_id":"e52494ed-992f-4886-99d5-0a13de980004","system_id":"levelo_inurba_marseille","lat":43.28412,"lon":5.34987,"is_reserved":false,"is_disabled":false,"rental_uris":{"android":"levelo://app?vid=e52494ed-992f-4886-99d5-0a13de980004","ios":"levelo://app?vid=e52494ed-992f-4886-99d5-0a13de980004"},"vehicle_type_id":"4","last_reported":1747315299,"current_range_meters":13600,"station_id":"ce4bhbh2rcd13ifvqepg","pricing_plan_id":"cebpf4jnsgd1na2vs0mg"},{"bike_id":"dc643886-ab96-41da-96d1-bd674f19bfdb","system_id":"levelo_inurba_marseille","lat":43.28618,"lon":5.35099,"is_reserved":false,"is_disabled":false,"rental_uris":{"android":"levelo://app?vid=dc643886-ab96-41da-96d1-bd674f19bfdb","ios":"levelo://app?vid=dc643886-ab96-41da-96d1-bd674f19bfdb"},"vehicle_type_id":"4","last_reported":1747315299,"current_range_meters":13600,"station_id":"ce4bhch2rcd13ifvqeug","pricing_plan_id":"cebpf4jnsgd1na2vs0mg"},{"bike_id":"1ddc50bb-e8f8-4467-af61-db311b9ddc3e","system_id":"levelo_inurba_marseille","lat":43.30133,"lon":5.39847,"is_reserved":false,"is_disabled":false,"rental_uris":{"android":"levelo://app?vid=1ddc50bb-e8f8-4467-af61-db311b9ddc3e","ios":"levelo://app?vid=1ddc50bb-e8f8-4467-af61-db311b9ddc3e"},"vehicle_type_id":"4","last_reported":1747315299,"current_range_meters":14000,"station_id":"ce4bh0h2rcd13ifvqd40","pricing_plan_id":"cebpf4jnsgd1na2vs0mg"},{"bike_id":"53505935-e5b5-41b3-8526-69163251ab68","system_id":"levelo_inurba_marseille","lat":43.240793,"lon":5.377569,"is_reserved":false,"is_disabled":false,"rental_uris":{"android":"levelo://app?vid=53505935-e5b5-41b3-8526-69163251ab68","ios":"levelo://app?vid=53505935-e5b5-41b3-8526-69163251ab68"},"vehicle_type_id":"4","last_reported":1747315299,"current_range_meters":14000,"station_id":"","pricing_plan_id":"cebpf4jnsgd1na2vs0mg"},{"bike_id":"24db4cee-c84f-4675-9250-c8dbae4d875d","system_id":"levelo_inurba_marseille","lat":43.27812,"lon":5.40717,"is_reserved":false,"is_disabled":false,"rental_uris":{"android":"levelo://app?vid=24db4cee-c84f-4675-9250-c8dbae4d875d","ios":"levelo://app?vid=24db4cee-c84f-4675-9250-c8dbae4d875d"},"vehicle_type_id":"4","last_reported":1747315299,"current_range_meters":14000,"station_id":"ce4bhnh2rcd13ifvqgtg","pricing_plan_id":"cebpf4jnsgd1na2vs0mg"},{"bike_id":"82cefd46-37c4-46da-ae0b-6a4910a96e91","system_id":"levelo_inurba_marseille","lat":43.23965,"lon":5.36626,"is_reserved":false,"is_disabled":false,"rental_uris":{"android":"levelo://app?vid=82cefd46-37c4-46da-ae0b-6a4910a96e91","ios":"levelo://app?vid=82cefd46-37c4-46da-ae0b-6a4910a96e91"},"vehicle_type_id":"4","last_reported":1747315299,"current_range_meters":14000,"station_id":"ce4bhi12rcd13ifvqfp0","pricing_plan_id":"cebpf4jnsgd1na2vs0mg"},{"bike_id":"c3acc1e9-c036-4520-87a3-7e8466cee4e3","system_id":"levelo_inurba_marseille","lat":43.32493,"lon":5.36564,"is_reserved":false,"is_disabled":false,"rental_uris":{"android":"levelo://app?vid=c3acc1e9-c036-4520-87a3-7e8466cee4e3","ios":"levelo://app?vid=c3acc1e9-c036-4520-87a3-7e8466cee4e3"},"vehicle_type_id":"4","last_reported":1747315299,"current_range_meters":14400,"station_id":"ce4bhs12rcd13ifvqhvg","pricing_plan_id":"cebpf4jnsgd1na2vs0mg"},{"bike_id":"44f8de94-69ad-4727-b41f-494cb8bac861","system_id":"levelo_inurba_marseille","lat":43.30281,"lon":5.37703,"is_reserved":false,"is_disabled":false,"rental_uris":{"android":"levelo://app?vid=44f8de94-69ad-4727-b41f-494cb8bac861","ios":"levelo://app?vid=44f8de94-69ad-4727-b41f-494cb8bac861"},"vehicle_type_id":"4","last_reported":1747315299,"current_range_meters":14400,"station_id":"ce4bguh2rcd13ifvqcj0","pricing_plan_id":"cebpf4jnsgd1na2vs0mg"},{"bike_id":"a949b9e7-5481-4332-a4e1-0b6f34f3838d","system_id":"levelo_inurba_marseille","lat":43.28618,"lon":5.37061,"is_reserved":false,"is_disabled":false,"rental_uris":{"android":"levelo://app?vid=a949b9e7-5481-4332-a4e1-0b6f34f3838d","ios":"levelo://app?vid=a949b9e7-5481-4332-a4e1-0b6f34f3838d"},"vehicle_type_id":"4","last_reported":1747315299,"current_range_meters":14400,"station_id":"ce4bht12rcd13ifvqi60","pricing_plan_id":"cebpf4jnsgd1na2vs0mg"},{"bike_id":"aafd9813-2a6b-45bc-a2c2-3eaec8c1ed3a","system_id":"levelo_inurba_marseille","lat":43.279665,"lon":5.387357,"is_reserved":false,"is_disabled":false,"rental_uris":{"android":"levelo://app?vid=aafd9813-2a6b-45bc-a2c2-3eaec8c1ed3a","ios":"levelo://app?vid=aafd9813-2a6b-45bc-a2c2-3eaec8c1ed3a"},"vehicle_type_id":"4","last_reported":1747315299,"current_range_meters":14400,"station_id":"","pricing_plan_id":"cebpf4jnsgd1na2vs0mg"},{"bike_id":"c0b9fd4f-e181-46ce-b0bf-f5119973334f","system_id":"levelo_inurba_marseille","lat":43.33771,"lon":5.37424,"is_reserved":false,"is_disabled":false,"rental_uris":{"android":"levelo://app?vid=c0b9fd4f-e181-46ce-b0bf-f5119973334f","ios":"levelo://app?vid=c0b9fd4f-e181-46ce-b0bf-f5119973334f"},"vehicle_type_id":"4","last_reported":1747315299,"current_range_meters":14400,"station_id":"","pricing_plan_id":"cebpf4jnsgd1na2vs0mg"},{"bike_id":"cd52ee78-b5e2-4f85-8c42-df67b71386c5","system_id":"levelo_inurba_marseille","lat":43.30909,"lon":5.36859,"is_reserved":false,"is_disabled":false,"rental_uris":{"android":"levelo://app?vid=cd52ee78-b5e2-4f85-8c42-df67b71386c5","ios":"levelo://app?vid=cd52ee78-b5e2-4f85-8c42-df67b71386c5"},"vehicle_type_id":"4","last_reported":1747315299,"current_range_meters":14800,"station_id":"ce4bgn92rcd13ifvqbvg","pricing_plan_id":"cebpf4jnsgd1na2vs0mg"},{"bike_id":"59576e81-0f19-4514-a47d-f8c875761719","system_id":"levelo_inurba_marseille","lat":43.2862,"lon":5.35102,"is_reserved":false,"is_disabled":false,"rental_uris":{"android":"levelo://app?vid=59576e81-0f19-4514-a47d-f8c875761719","ios":"levelo://app?vid=59576e81-0f19-4514-a47d-f8c875761719"},"vehicle_type_id":"4","last_reported":1747315299,"current_range_meters":14800,"station_id":"ce4bhch2rcd13ifvqeug","pricing_plan_id":"cebpf4jnsgd1na2vs0mg"},{"bike_id":"2c6f9f29-86b5-4c98-a0eb-a23a5914f8c2","system_id":"levelo_inurba_marseille","lat":43.28355,"lon":5.35021,"is_reserved":false,"is_disabled":false,"rental_uris":{"android":"levelo://app?vid=2c6f9f29-86b5-4c98-a0eb-a23a5914f8c2","ios":"levelo://app?vid=2c6f9f29-86b5-4c98-a0eb-a23a5914f8c2"},"vehicle_type_id":"4","last_reported":1747315299,"current_range_meters":14800,"station_id":"","pricing_plan_id":"cebpf4jnsgd1na2vs0mg"},{"bike_id":"fffc88ab-1a16-45c9-abfc-99a9202ea6f3","system_id":"levelo_inurba_marseille","lat":43.33604,"lon":5.4103,"is_reserved":false,"is_disabled":false,"rental_uris":{"android":"levelo://app?vid=fffc88ab-1a16-45c9-abfc-99a9202ea6f3","ios":"levelo://app?vid=fffc88ab-1a16-45c9-abfc-99a9202ea6f3"},"vehicle_type_id":"4","last_reported":1747315299,"current_range_meters":14800,"station_id":"ce4bhqh2rcd13ifvqhmg","pricing_plan_id":"cebpf4jnsgd1na2vs0mg"},{"bike_id":"027f72d8-88c3-409a-9f83-3afde0954f18","system_id":"levelo_inurba_marseille","lat":43.30257,"lon":5.397,"is_reserved":false,"is_disabled":false,"rental_uris":{"android":"levelo://app?vid=027f72d8-88c3-409a-9f83-3afde0954f18","ios":"levelo://app?vid=027f72d8-88c3-409a-9f83-3afde0954f18"},"vehicle_type_id":"4","last_reported":1747315299,"current_range_meters":14800,"station_id":"","pricing_plan_id":"cebpf4jnsgd1na2vs0mg"},{"bike_id":"db875314-98c8-4592-a3e4-6910ea32e16f","system_id":"levelo_inurba_marseille","lat":43.28268,"lon":5.3507,"is_reserved":false,"is_disabled":false,"rental_uris":{"android":"levelo://app?vid=db875314-98c8-4592-a3e4-6910ea32e16f","ios":"levelo://app?vid=db875314-98c8-4592-a3e4-6910ea32e16f"},"vehicle_type_id":"4","last_reported":1747315299,"current_range_meters":15200,"station_id":"ce4bhbp2rcd13ifvqerg","pricing_plan_id":"cebpf4jnsgd1na2vs0mg"},{"bike_id":"13eb1f69-45e3-469b-a3cc-9aa18480ae5e","system_id":"levelo_inurba_marseille","lat":43.29008,"lon":5.35604,"is_reserved":false,"is_disabled":false,"rental_uris":{"android":"levelo://app?vid=13eb1f69-45e3-469b-a3cc-9aa18480ae5e","ios":"levelo://app?vid=13eb1f69-45e3-469b-a3cc-9aa18480ae5e"},"vehicle_type_id":"4","last_reported":1747315299,"current_range_meters":15200,"station_id":"ce4bhb92rcd13ifvqen0","pricing_plan_id":"cebpf4jnsgd1na2vs0mg"},{"bike_id":"8140b3c6-6b6e-46bd-aebf-2d94ccf162be","system_id":"levelo_inurba_marseille","lat":43.29793,"lon":5.38095,"is_reserved":false,"is_disabled":false,"rental_uris":{"android":"levelo://app?vid=8140b3c6-6b6e-46bd-aebf-2d94ccf162be","ios":"levelo://app?vid=8140b3c6-6b6e-46bd-aebf-2d94ccf162be"},"vehicle_type_id":"4","last_reported":1747315299,"current_range_meters":15200,"station_id":"ce4bgip2rcd13ifvqbb0","pricing_plan_id":"cebpf4jnsgd1na2vs0mg"},{"bike_id":"dd5422d6-53cb-49fb-8efb-b898f8501e90","system_id":"levelo_inurba_marseille","lat":43.27622,"lon":5.36132,"is_reserved":false,"is_disabled":false,"rental_uris":{"android":"levelo://app?vid=dd5422d6-53cb-49fb-8efb-b898f8501e90","ios":"levelo://app?vid=dd5422d6-53cb-49fb-8efb-b898f8501e90"},"vehicle_type_id":"4","last_reported":1747315299,"current_range_meters":15200,"station_id":"ce4bgj92rcd13ifvqbe0","pricing_plan_id":"cebpf4jnsgd1na2vs0mg"},{"bike_id":"652fc85a-60bd-45dc-b75a-fc3eb033f0a9","system_id":"levelo_inurba_marseille","lat":43.28618,"lon":5.35103,"is_reserved":false,"is_disabled":false,"rental_uris":{"android":"levelo://app?vid=652fc85a-60bd-45dc-b75a-fc3eb033f0a9","ios":"levelo://app?vid=652fc85a-60bd-45dc-b75a-fc3eb033f0a9"},"vehicle_type_id":"4","last_reported":1747315299,"current_range_meters":15200,"station_id":"ce4bhch2rcd13ifvqeug","pricing_plan_id":"cebpf4jnsgd1na2vs0mg"},{"bike_id":"ed78e454-e22c-4861-aee3-ce16af7c7be6","system_id":"levelo_inurba_marseille","lat":43.25497,"lon":5.37646,"is_reserved":false,"is_disabled":false,"rental_uris":{"android":"levelo://app?vid=ed78e454-e22c-4861-aee3-ce16af7c7be6","ios":"levelo://app?vid=ed78e454-e22c-4861-aee3-ce16af7c7be6"},"vehicle_type_id":"4","last_reported":1747315299,"current_range_meters":16000,"station_id":"ce4bhh12rcd13ifvqff0","pricing_plan_id":"cebpf4jnsgd1na2vs0mg"},{"bike_id":"385c5680-aa17-4953-8596-7f0cb64e8bcd","system_id":"levelo_inurba_marseille","lat":43.32487,"lon":5.365638,"is_reserved":false,"is_disabled":false,"rental_uris":{"android":"levelo://app?vid=385c5680-aa17-4953-8596-7f0cb64e8bcd","ios":"levelo://app?vid=385c5680-aa17-4953-8596-7f0cb64e8bcd"},"vehicle_type_id":"4","last_reported":1747315299,"current_range_meters":16000,"station_id":"ce4bhs12rcd13ifvqhvg","pricing_plan_id":"cebpf4jnsgd1na2vs0mg"},{"bike_id":"024fbeb4-79b0-4f9f-a1d2-5edc8a7a32d4","system_id":"levelo_inurba_marseille","lat":43.28606,"lon":5.35123,"is_reserved":false,"is_disabled":false,"rental_uris":{"android":"levelo://app?vid=024fbeb4-79b0-4f9f-a1d2-5edc8a7a32d4","ios":"levelo://app?vid=024fbeb4-79b0-4f9f-a1d2-5edc8a7a32d4"},"vehicle_type_id":"4","last_reported":1747315299,"current_range_meters":16000,"station_id":"ce4bhch2rcd13ifvqeug","pricing_plan_id":"cebpf4jnsgd1na2vs0mg"},{"bike_id":"38a2f8b3-7865-48ef-856b-ce5b57713fd1","system_id":"levelo_inurba_marseille","lat":43.29852,"lon":5.36275,"is_reserved":false,"is_disabled":false,"rental_uris":{"android":"levelo://app?vid=38a2f8b3-7865-48ef-856b-ce5b57713fd1","ios":"levelo://app?vid=38a2f8b3-7865-48ef-856b-ce5b57713fd1"},"vehicle_type_id":"4","last_reported":1747315299,"current_range_meters":16000,"station_id":"ce4bgpp2rcd13ifvqc3g","pricing_plan_id":"cebpf4jnsgd1na2vs0mg"},{"bike_id":"57d11794-83e4-4d3f-918e-67334f06abb8","system_id":"levelo_inurba_marseille","lat":43.32543,"lon":5.41479,"is_reserved":false,"is_disabled":false,"rental_uris":{"android":"levelo://app?vid=57d11794-83e4-4d3f-918e-67334f06abb8","ios":"levelo://app?vid=57d11794-83e4-4d3f-918e-67334f06abb8"},"vehicle_type_id":"4","last_reported":1747315299,"current_range_meters":16000,"station_id":"ce4bhq12rcd13ifvqhhg","pricing_plan_id":"cebpf4jnsgd1na2vs0mg"},{"bike_id":"f8a8e7f3-56e2-4aae-a998-d43df0ecdbe3","system_id":"levelo_inurba_marseille","lat":43.27497,"lon":5.4245,"is_reserved":false,"is_disabled":false,"rental_uris":{"android":"levelo://app?vid=f8a8e7f3-56e2-4aae-a998-d43df0ecdbe3","ios":"levelo://app?vid=f8a8e7f3-56e2-4aae-a998-d43df0ecdbe3"},"vehicle_type_id":"4","last_reported":1747315299,"current_range_meters":16000,"station_id":"ce4bhn92rcd13ifvqgrg","pricing_plan_id":"cebpf4jnsgd1na2vs0mg"},{"bike_id":"bb1d9ff3-2064-444b-8040-4b6fab6fd3a3","system_id":"levelo_inurba_marseille","lat":43.28273,"lon":5.35064,"is_reserved":false,"is_disabled":false,"rental_uris":{"android":"levelo://app?vid=bb1d9ff3-2064-444b-8040-4b6fab6fd3a3","ios":"levelo://app?vid=bb1d9ff3-2064-444b-8040-4b6fab6fd3a3"},"vehicle_type_id":"4","last_reported":1747315299,"current_range_meters":16000,"station_id":"ce4bhbp2rcd13ifvqerg","pricing_plan_id":"cebpf4jnsgd1na2vs0mg"},{"bike_id":"e0ef2b5e-1c02-4fc3-927d-180e0950a852","system_id":"levelo_inurba_marseille","lat":43.31119,"lon":5.37776,"is_reserved":false,"is_disabled":false,"rental_uris":{"android":"levelo://app?vid=e0ef2b5e-1c02-4fc3-927d-180e0950a852","ios":"levelo://app?vid=e0ef2b5e-1c02-4fc3-927d-180e0950a852"},"vehicle_type_id":"4","last_reported":1747315299,"current_range_meters":16000,"station_id":"ce4bgt92rcd13ifvqcg0","pricing_plan_id":"cebpf4jnsgd1na2vs0mg"},{"bike_id":"e1f147f3-8692-495f-9d7f-f2a31a988c6d","system_id":"levelo_inurba_marseille","lat":43.23968,"lon":5.36634,"is_reserved":false,"is_disabled":false,"rental_uris":{"android":"levelo://app?vid=e1f147f3-8692-495f-9d7f-f2a31a988c6d","ios":"levelo://app?vid=e1f147f3-8692-495f-9d7f-f2a31a988c6d"},"vehicle_type_id":"4","last_reported":1747315299,"current_range_meters":16400,"station_id":"ce4bhi12rcd13ifvqfp0","pricing_plan_id":"cebpf4jnsgd1na2vs0mg"},{"bike_id":"7b812e31-b364-4d01-ac2f-10386046d8f8","system_id":"levelo_inurba_marseille","lat":43.29898,"lon":5.43667,"is_reserved":false,"is_disabled":false,"rental_uris":{"android":"levelo://app?vid=7b812e31-b364-4d01-ac2f-10386046d8f8","ios":"levelo://app?vid=7b812e31-b364-4d01-ac2f-10386046d8f8"},"vehicle_type_id":"4","last_reported":1747315299,"current_range_meters":16400,"station_id":"ce4bhpp2rcd13ifvqhfg","pricing_plan_id":"cebpf4jnsgd1na2vs0mg"},{"bike_id":"1342f53f-d107-413e-bc8b-f2291fe1a8a2","system_id":"levelo_inurba_marseille","lat":43.29196,"lon":5.3933,"is_reserved":false,"is_disabled":false,"rental_uris":{"android":"levelo://app?vid=1342f53f-d107-413e-bc8b-f2291fe1a8a2","ios":"levelo://app?vid=1342f53f-d107-413e-bc8b-f2291fe1a8a2"},"vehicle_type_id":"4","last_reported":1747315299,"current_range_meters":16400,"station_id":"ce4bh192rcd13ifvqdd0","pricing_plan_id":"cebpf4jnsgd1na2vs0mg"},{"bike_id":"cd32096a-333b-4499-9b83-432552d4deca","system_id":"levelo_inurba_marseille","lat":43.28569,"lon":5.39501,"is_reserved":false,"is_disabled":false,"rental_uris":{"android":"levelo://app?vid=cd32096a-333b-4499-9b83-432552d4deca","ios":"levelo://app?vid=cd32096a-333b-4499-9b83-432552d4deca"},"vehicle_type_id":"4","last_reported":1747315299,"current_range_meters":16400,"station_id":"ce4bh292rcd13ifvqdg0","pricing_plan_id":"cebpf4jnsgd1na2vs0mg"},{"bike_id":"6d9f4590-c6fd-459b-97df-0ee4e11aedf8","system_id":"levelo_inurba_marseille","lat":43.32109,"lon":5.3677,"is_reserved":false,"is_disabled":false,"rental_uris":{"android":"levelo://app?vid=6d9f4590-c6fd-459b-97df-0ee4e11aedf8","ios":"levelo://app?vid=6d9f4590-c6fd-459b-97df-0ee4e11aedf8"},"vehicle_type_id":"4","last_reported":1747315299,"current_range_meters":16400,"station_id":"ce4bhrh2rcd13ifvqhug","pricing_plan_id":"cebpf4jnsgd1na2vs0mg"},{"bike_id":"2e7af619-3ce7-4d06-a69d-a2b71993de3c","system_id":"levelo_inurba_marseille","lat":43.30287,"lon":5.37703,"is_reserved":false,"is_disabled":false,"rental_uris":{"android":"levelo://app?vid=2e7af619-3ce7-4d06-a69d-a2b71993de3c","ios":"levelo://app?vid=2e7af619-3ce7-4d06-a69d-a2b71993de3c"},"vehicle_type_id":"4","last_reported":1747315299,"current_range_meters":16400,"station_id":"ce4bguh2rcd13ifvqcj0","pricing_plan_id":"cebpf4jnsgd1na2vs0mg"},{"bike_id":"bf148fad-e35c-429e-bfcc-e69d3314491e","system_id":"levelo_inurba_marseille","lat":43.31279,"lon":5.40168,"is_reserved":false,"is_disabled":false,"rental_uris":{"android":"levelo://app?vid=bf148fad-e35c-429e-bfcc-e69d3314491e","ios":"levelo://app?vid=bf148fad-e35c-429e-bfcc-e69d3314491e"},"vehicle_type_id":"4","last_reported":1747315299,"current_range_meters":16400,"station_id":"ce4bh092rcd13ifvqd30","pricing_plan_id":"cebpf4jnsgd1na2vs0mg"},{"bike_id":"6a5ca72e-51de-4905-96e1-5bd7c7c37213","system_id":"levelo_inurba_marseille","lat":43.27368,"lon":5.36257,"is_reserved":false,"is_disabled":false,"rental_uris":{"android":"levelo://app?vid=6a5ca72e-51de-4905-96e1-5bd7c7c37213","ios":"levelo://app?vid=6a5ca72e-51de-4905-96e1-5bd7c7c37213"},"vehicle_type_id":"4","last_reported":1747315299,"current_range_meters":16400,"station_id":"ce4bhbh2rcd13ifvqeo0","pricing_plan_id":"cebpf4jnsgd1na2vs0mg"},{"bike_id":"f040ad3c-4242-43bb-bece-7fba787e5919","system_id":"levelo_inurba_marseille","lat":43.27375,"lon":5.36257,"is_reserved":false,"is_disabled":false,"rental_uris":{"android":"levelo://app?vid=f040ad3c-4242-43bb-bece-7fba787e5919","ios":"levelo://app?vid=f040ad3c-4242-43bb-bece-7fba787e5919"},"vehicle_type_id":"4","last_reported":1747315299,"current_range_meters":16400,"station_id":"ce4bhbh2rcd13ifvqeo0","pricing_plan_id":"cebpf4jnsgd1na2vs0mg"},{"bike_id":"b3d5342e-5515-48d6-860b-2c6a82fb25ff","system_id":"levelo_inurba_marseille","lat":43.27496,"lon":5.42451,"is_reserved":false,"is_disabled":false,"rental_uris":{"android":"levelo://app?vid=b3d5342e-5515-48d6-860b-2c6a82fb25ff","ios":"levelo://app?vid=b3d5342e-5515-48d6-860b-2c6a82fb25ff"},"vehicle_type_id":"4","last_reported":1747315299,"current_range_meters":16400,"station_id":"ce4bhn92rcd13ifvqgrg","pricing_plan_id":"cebpf4jnsgd1na2vs0mg"},{"bike_id":"4ea4eb19-3914-4a1b-a447-a35e81c31d7a","system_id":"levelo_inurba_marseille","lat":43.3027,"lon":5.377,"is_reserved":false,"is_disabled":false,"rental_uris":{"android":"levelo://app?vid=4ea4eb19-3914-4a1b-a447-a35e81c31d7a","ios":"levelo://app?vid=4ea4eb19-3914-4a1b-a447-a35e81c31d7a"},"vehicle_type_id":"4","last_reported":1747315299,"current_range_meters":16400,"station_id":"ce4bguh2rcd13ifvqcj0","pricing_plan_id":"cebpf4jnsgd1na2vs0mg"},{"bike_id":"24662577-69c7-4d84-a260-f2892b169180","system_id":"levelo_inurba_marseille","lat":43.21757,"lon":5.3459,"is_reserved":false,"is_disabled":false,"rental_uris":{"android":"levelo://app?vid=24662577-69c7-4d84-a260-f2892b169180","ios":"levelo://app?vid=24662577-69c7-4d84-a260-f2892b169180"},"vehicle_type_id":"4","last_reported":1747315299,"current_range_meters":16800,"station_id":"st_cvj6r9ubvosntc0bgbag","pricing_plan_id":"cebpf4jnsgd1na2vs0mg"},{"bike_id":"f1a29317-f6c1-489f-afc4-4aea3a589d74","system_id":"levelo_inurba_marseille","lat":43.2861,"lon":5.351,"is_reserved":false,"is_disabled":false,"rental_uris":{"android":"levelo://app?vid=f1a29317-f6c1-489f-afc4-4aea3a589d74","ios":"levelo://app?vid=f1a29317-f6c1-489f-afc4-4aea3a589d74"},"vehicle_type_id":"4","last_reported":1747315299,"current_range_meters":16800,"station_id":"ce4bhch2rcd13ifvqeug","pricing_plan_id":"cebpf4jnsgd1na2vs0mg"},{"bike_id":"6d886103-344e-431a-ac80-7f62879d2f7c","system_id":"levelo_inurba_marseille","lat":43.22934,"lon":5.35377,"is_reserved":false,"is_disabled":false,"rental_uris":{"android":"levelo://app?vid=6d886103-344e-431a-ac80-7f62879d2f7c","ios":"levelo://app?vid=6d886103-344e-431a-ac80-7f62879d2f7c"},"vehicle_type_id":"4","last_reported":1747315299,"current_range_meters":16800,"station_id":"cpo3532slgdg3j2ikp40","pricing_plan_id":"cebpf4jnsgd1na2vs0mg"},{"bike_id":"6414c6d0-c577-4b00-8541-05cb008ccfad","system_id":"levelo_inurba_marseille","lat":43.284145,"lon":5.349779,"is_reserved":false,"is_disabled":false,"rental_uris":{"android":"levelo://app?vid=6414c6d0-c577-4b00-8541-05cb008ccfad","ios":"levelo://app?vid=6414c6d0-c577-4b00-8541-05cb008ccfad"},"vehicle_type_id":"4","last_reported":1747315299,"current_range_meters":16800,"station_id":"ce4bhbh2rcd13ifvqepg","pricing_plan_id":"cebpf4jnsgd1na2vs0mg"},{"bike_id":"52d1638d-c01c-4b93-af74-56246a94d3de","system_id":"levelo_inurba_marseille","lat":43.27074,"lon":5.42275,"is_reserved":false,"is_disabled":false,"rental_uris":{"android":"levelo://app?vid=52d1638d-c01c-4b93-af74-56246a94d3de","ios":"levelo://app?vid=52d1638d-c01c-4b93-af74-56246a94d3de"},"vehicle_type_id":"4","last_reported":1747315299,"current_range_meters":16800,"station_id":"ce4bhk92rcd13ifvqgb0","pricing_plan_id":"cebpf4jnsgd1na2vs0mg"},{"bike_id":"b77b2bb9-aa75-4c7c-aecf-26315a02d304","system_id":"levelo_inurba_marseille","lat":43.24664,"lon":5.38166,"is_reserved":false,"is_disabled":false,"rental_uris":{"android":"levelo://app?vid=b77b2bb9-aa75-4c7c-aecf-26315a02d304","ios":"levelo://app?vid=b77b2bb9-aa75-4c7c-aecf-26315a02d304"},"vehicle_type_id":"4","last_reported":1747315299,"current_range_meters":16800,"station_id":"ce4bhih2rcd13ifvqfr0","pricing_plan_id":"cebpf4jnsgd1na2vs0mg"},{"bike_id":"1785bbb9-bc50-4115-94de-e51085438c6b","system_id":"levelo_inurba_marseille","lat":43.29003,"lon":5.3561,"is_reserved":false,"is_disabled":false,"rental_uris":{"android":"levelo://app?vid=1785bbb9-bc50-4115-94de-e51085438c6b","ios":"levelo://app?vid=1785bbb9-bc50-4115-94de-e51085438c6b"},"vehicle_type_id":"4","last_reported":1747315299,"current_range_meters":16800,"station_id":"ce4bhb92rcd13ifvqen0","pricing_plan_id":"cebpf4jnsgd1na2vs0mg"},{"bike_id":"7eabcfe4-4418-4b9d-b76d-5930654da7d6","system_id":"levelo_inurba_marseille","lat":43.26248,"lon":5.40475,"is_reserved":false,"is_disabled":false,"rental_uris":{"android":"levelo://app?vid=7eabcfe4-4418-4b9d-b76d-5930654da7d6","ios":"levelo://app?vid=7eabcfe4-4418-4b9d-b76d-5930654da7d6"},"vehicle_type_id":"4","last_reported":1747315299,"current_range_meters":16800,"station_id":"ce4bhmh2rcd13ifvqgmg","pricing_plan_id":"cebpf4jnsgd1na2vs0mg"},{"bike_id":"5ff4d1f0-fd6c-490f-90cb-b565e4cf7abb","system_id":"levelo_inurba_marseille","lat":43.28625,"lon":5.35106,"is_reserved":false,"is_disabled":false,"rental_uris":{"android":"levelo://app?vid=5ff4d1f0-fd6c-490f-90cb-b565e4cf7abb","ios":"levelo://app?vid=5ff4d1f0-fd6c-490f-90cb-b565e4cf7abb"},"vehicle_type_id":"4","last_reported":1747315299,"current_range_meters":16800,"station_id":"ce4bhch2rcd13ifvqeug","pricing_plan_id":"cebpf4jnsgd1na2vs0mg"},{"bike_id":"b127a7f9-2af6-4d66-a018-944286f30a53","system_id":"levelo_inurba_marseille","lat":43.31235,"lon":5.36891,"is_reserved":false,"is_disabled":false,"rental_uris":{"android":"levelo://app?vid=b127a7f9-2af6-4d66-a018-944286f30a53","ios":"levelo://app?vid=b127a7f9-2af6-4d66-a018-944286f30a53"},"vehicle_type_id":"4","last_reported":1747315299,"current_range_meters":16800,"station_id":"ce4bgl92rcd13ifvqbq0","pricing_plan_id":"cebpf4jnsgd1na2vs0mg"},{"bike_id":"1b2ca96b-a115-4009-b707-71f4c5b975d8","system_id":"levelo_inurba_marseille","lat":43.32487,"lon":5.36576,"is_reserved":false,"is_disabled":false,"rental_uris":{"android":"levelo://app?vid=1b2ca96b-a115-4009-b707-71f4c5b975d8","ios":"levelo://app?vid=1b2ca96b-a115-4009-b707-71f4c5b975d8"},"vehicle_type_id":"4","last_reported":1747315299,"current_range_meters":16800,"station_id":"ce4bhs12rcd13ifvqhvg","pricing_plan_id":"cebpf4jnsgd1na2vs0mg"},{"bike_id":"0e642aa4-6b11-42d7-a2d5-23309c013ac1","system_id":"levelo_inurba_marseille","lat":43.30525,"lon":5.36694,"is_reserved":false,"is_disabled":false,"rental_uris":{"android":"levelo://app?vid=0e642aa4-6b11-42d7-a2d5-23309c013ac1","ios":"levelo://app?vid=0e642aa4-6b11-42d7-a2d5-23309c013ac1"},"vehicle_type_id":"4","last_reported":1747315299,"current_range_meters":17200,"station_id":"ce4bgrp2rcd13ifvqc9g","pricing_plan_id":"cebpf4jnsgd1na2vs0mg"},{"bike_id":"27dab60f-6acc-4f1f-8ced-7ae492d0f387","system_id":"levelo_inurba_marseille","lat":43.30527,"lon":5.36533,"is_reserved":false,"is_disabled":false,"rental_uris":{"android":"levelo://app?vid=27dab60f-6acc-4f1f-8ced-7ae492d0f387","ios":"levelo://app?vid=27dab60f-6acc-4f1f-8ced-7ae492d0f387"},"vehicle_type_id":"4","last_reported":1747315299,"current_range_meters":17200,"station_id":"ce4bgs12rcd13ifvqcag","pricing_plan_id":"cebpf4jnsgd1na2vs0mg"},{"bike_id":"3efbd02d-cbfd-4ed0-872d-3e297fe2ef36","system_id":"levelo_inurba_marseille","lat":43.24183,"lon":5.39719,"is_reserved":false,"is_disabled":false,"rental_uris":{"android":"levelo://app?vid=3efbd02d-cbfd-4ed0-872d-3e297fe2ef36","ios":"levelo://app?vid=3efbd02d-cbfd-4ed0-872d-3e297fe2ef36"},"vehicle_type_id":"4","last_reported":1747315299,"current_range_meters":17600,"station_id":"ce4bhn12rcd13ifvqgpg","pricing_plan_id":"cebpf4jnsgd1na2vs0mg"},{"bike_id":"9c69e55b-3827-4551-aa71-02fc928cda04","system_id":"levelo_inurba_marseille","lat":43.32368,"lon":5.38884,"is_reserved":false,"is_disabled":false,"rental_uris":{"android":"levelo://app?vid=9c69e55b-3827-4551-aa71-02fc928cda04","ios":"levelo://app?vid=9c69e55b-3827-4551-aa71-02fc928cda04"},"vehicle_type_id":"4","last_reported":1747315299,"current_range_meters":17600,"station_id":"ce4bhqp2rcd13ifvqhog","pricing_plan_id":"cebpf4jnsgd1na2vs0mg"},{"bike_id":"31a89660-f99c-495c-91c4-2f7bd8343cef","system_id":"levelo_inurba_marseille","lat":43.29007,"lon":5.35611,"is_reserved":false,"is_disabled":false,"rental_uris":{"android":"levelo://app?vid=31a89660-f99c-495c-91c4-2f7bd8343cef","ios":"levelo://app?vid=31a89660-f99c-495c-91c4-2f7bd8343cef"},"vehicle_type_id":"4","last_reported":1747315299,"current_range_meters":17200,"station_id":"ce4bhb92rcd13ifvqen0","pricing_plan_id":"cebpf4jnsgd1na2vs0mg"},{"bike_id":"c2acb4e9-5353-4213-9caa-f76a916fee04","system_id":"levelo_inurba_marseille","lat":43.28029,"lon":5.36939,"is_reserved":false,"is_disabled":false,"rental_uris":{"android":"levelo://app?vid=c2acb4e9-5353-4213-9caa-f76a916fee04","ios":"levelo://app?vid=c2acb4e9-5353-4213-9caa-f76a916fee04"},"vehicle_type_id":"4","last_reported":1747315299,"current_range_meters":17600,"station_id":"ce4bha12rcd13ifvqef0","pricing_plan_id":"cebpf4jnsgd1na2vs0mg"},{"bike_id":"422a51ad-bcbc-41e5-a5aa-af5b15a22506","system_id":"levelo_inurba_marseille","lat":43.23961,"lon":5.36638,"is_reserved":false,"is_disabled":false,"rental_uris":{"android":"levelo://app?vid=422a51ad-bcbc-41e5-a5aa-af5b15a22506","ios":"levelo://app?vid=422a51ad-bcbc-41e5-a5aa-af5b15a22506"},"vehicle_type_id":"4","last_reported":1747315299,"current_range_meters":17600,"station_id":"ce4bhi12rcd13ifvqfp0","pricing_plan_id":"cebpf4jnsgd1na2vs0mg"},{"bike_id":"5ac197dc-1194-441d-8151-30e599965fa1","system_id":"levelo_inurba_marseille","lat":43.28666,"lon":5.38673,"is_reserved":false,"is_disabled":false,"rental_uris":{"android":"levelo://app?vid=5ac197dc-1194-441d-8151-30e599965fa1","ios":"levelo://app?vid=5ac197dc-1194-441d-8151-30e599965fa1"},"vehicle_type_id":"4","last_reported":1747315299,"current_range_meters":18000,"station_id":"ce4bh492rcd13ifvqdug","pricing_plan_id":"cebpf4jnsgd1na2vs0mg"},{"bike_id":"5f89716f-0360-46a5-ad4d-a2e2dc48035a","system_id":"levelo_inurba_marseille","lat":43.29278,"lon":5.40116,"is_reserved":false,"is_disabled":false,"rental_uris":{"android":"levelo://app?vid=5f89716f-0360-46a5-ad4d-a2e2dc48035a","ios":"levelo://app?vid=5f89716f-0360-46a5-ad4d-a2e2dc48035a"},"vehicle_type_id":"4","last_reported":1747315299,"current_range_meters":18000,"station_id":"ce4bh312rcd13ifvqdk0","pricing_plan_id":"cebpf4jnsgd1na2vs0mg"},{"bike_id":"b04d83ba-cbc3-42fd-9f3a-475da3064896","system_id":"levelo_inurba_marseille","lat":43.27499,"lon":5.42466,"is_reserved":false,"is_disabled":false,"rental_uris":{"android":"levelo://app?vid=b04d83ba-cbc3-42fd-9f3a-475da3064896","ios":"levelo://app?vid=b04d83ba-cbc3-42fd-9f3a-475da3064896"},"vehicle_type_id":"4","last_reported":1747315299,"current_range_meters":18000,"station_id":"ce4bhn92rcd13ifvqgrg","pricing_plan_id":"cebpf4jnsgd1na2vs0mg"},{"bike_id":"5b47fc8c-3496-4566-be9a-c62694c429be","system_id":"levelo_inurba_marseille","lat":43.27376,"lon":5.36259,"is_reserved":false,"is_disabled":false,"rental_uris":{"android":"levelo://app?vid=5b47fc8c-3496-4566-be9a-c62694c429be","ios":"levelo://app?vid=5b47fc8c-3496-4566-be9a-c62694c429be"},"vehicle_type_id":"4","last_reported":1747315299,"current_range_meters":18000,"station_id":"ce4bhbh2rcd13ifvqeo0","pricing_plan_id":"cebpf4jnsgd1na2vs0mg"},{"bike_id":"7d31d720-bae3-47d1-99f0-b11e42b4dafd","system_id":"levelo_inurba_marseille","lat":43.2795,"lon":5.41039,"is_reserved":false,"is_disabled":false,"rental_uris":{"android":"levelo://app?vid=7d31d720-bae3-47d1-99f0-b11e42b4dafd","ios":"levelo://app?vid=7d31d720-bae3-47d1-99f0-b11e42b4dafd"},"vehicle_type_id":"4","last_reported":1747315299,"current_range_meters":18000,"station_id":"ce4bhnp2rcd13ifvqh0g","pricing_plan_id":"cebpf4jnsgd1na2vs0mg"},{"bike_id":"6e3a2a89-a769-40fd-9d75-6f65e239f3ef","system_id":"levelo_inurba_marseille","lat":43.29639,"lon":5.42261,"is_reserved":false,"is_disabled":false,"rental_uris":{"android":"levelo://app?vid=6e3a2a89-a769-40fd-9d75-6f65e239f3ef","ios":"levelo://app?vid=6e3a2a89-a769-40fd-9d75-6f65e239f3ef"},"vehicle_type_id":"4","last_reported":1747315299,"current_range_meters":18000,"station_id":"","pricing_plan_id":"cebpf4jnsgd1na2vs0mg"},{"bike_id":"228e4d6a-e038-4298-91d7-ef0db8977f42","system_id":"levelo_inurba_marseille","lat":43.27624,"lon":5.36108,"is_reserved":false,"is_disabled":false,"rental_uris":{"android":"levelo://app?vid=228e4d6a-e038-4298-91d7-ef0db8977f42","ios":"levelo://app?vid=228e4d6a-e038-4298-91d7-ef0db8977f42"},"vehicle_type_id":"4","last_reported":1747315299,"current_range_meters":18000,"station_id":"ce4bgj92rcd13ifvqbe0","pricing_plan_id":"cebpf4jnsgd1na2vs0mg"},{"bike_id":"a575b724-c62b-43a3-9d29-b989e4011196","system_id":"levelo_inurba_marseille","lat":43.26785,"lon":5.39413,"is_reserved":false,"is_disabled":false,"rental_uris":{"android":"levelo://app?vid=a575b724-c62b-43a3-9d29-b989e4011196","ios":"levelo://app?vid=a575b724-c62b-43a3-9d29-b989e4011196"},"vehicle_type_id":"4","last_reported":1747315299,"current_range_meters":18000,"station_id":"ce4bhh12rcd13ifvqfg0","pricing_plan_id":"cebpf4jnsgd1na2vs0mg"},{"bike_id":"8937e58a-82bd-4181-b426-25cf9717cf13","system_id":"levelo_inurba_marseille","lat":43.28434,"lon":5.35007,"is_reserved":false,"is_disabled":false,"rental_uris":{"android":"levelo://app?vid=8937e58a-82bd-4181-b426-25cf9717cf13","ios":"levelo://app?vid=8937e58a-82bd-4181-b426-25cf9717cf13"},"vehicle_type_id":"4","last_reported":1747315299,"current_range_meters":18000,"station_id":"ce4bhbh2rcd13ifvqepg","pricing_plan_id":"cebpf4jnsgd1na2vs0mg"},{"bike_id":"8c801b9f-3818-4ceb-9573-4499ff41234b","system_id":"levelo_inurba_marseille","lat":43.28421,"lon":5.34982,"is_reserved":false,"is_disabled":false,"rental_uris":{"android":"levelo://app?vid=8c801b9f-3818-4ceb-9573-4499ff41234b","ios":"levelo://app?vid=8c801b9f-3818-4ceb-9573-4499ff41234b"},"vehicle_type_id":"4","last_reported":1747315299,"current_range_meters":18000,"station_id":"ce4bhbh2rcd13ifvqepg","pricing_plan_id":"cebpf4jnsgd1na2vs0mg"},{"bike_id":"ca7fe2ce-2a4a-44fc-8e58-d2d7e7c56a79","system_id":"levelo_inurba_marseille","lat":43.31496,"lon":5.37307,"is_reserved":false,"is_disabled":false,"rental_uris":{"android":"levelo://app?vid=ca7fe2ce-2a4a-44fc-8e58-d2d7e7c56a79","ios":"levelo://app?vid=ca7fe2ce-2a4a-44fc-8e58-d2d7e7c56a79"},"vehicle_type_id":"4","last_reported":1747315299,"current_range_meters":18000,"station_id":"ce4bgt12rcd13ifvqcd0","pricing_plan_id":"cebpf4jnsgd1na2vs0mg"},{"bike_id":"10e0193d-8711-4319-9e2c-a6efb8e6265f","system_id":"levelo_inurba_marseille","lat":43.308938,"lon":5.368552,"is_reserved":false,"is_disabled":false,"rental_uris":{"android":"levelo://app?vid=10e0193d-8711-4319-9e2c-a6efb8e6265f","ios":"levelo://app?vid=10e0193d-8711-4319-9e2c-a6efb8e6265f"},"vehicle_type_id":"4","last_reported":1747315299,"current_range_meters":18000,"station_id":"ce4bhbp2rcd13ifvqerg","pricing_plan_id":"cebpf4jnsgd1na2vs0mg"},{"bike_id":"2fcc4300-9147-4a4b-a12c-17076499c238","system_id":"levelo_inurba_marseille","lat":43.32571,"lon":5.41483,"is_reserved":false,"is_disabled":false,"rental_uris":{"android":"levelo://app?vid=2fcc4300-9147-4a4b-a12c-17076499c238","ios":"levelo://app?vid=2fcc4300-9147-4a4b-a12c-17076499c238"},"vehicle_type_id":"4","last_reported":1747315299,"current_range_meters":18800,"station_id":"","pricing_plan_id":"cebpf4jnsgd1na2vs0mg"},{"bike_id":"c65ef12a-b7f8-4167-b91a-b9cd2e6a4f89","system_id":"levelo_inurba_marseille","lat":43.29873,"lon":5.39733,"is_reserved":false,"is_disabled":false,"rental_uris":{"android":"levelo://app?vid=c65ef12a-b7f8-4167-b91a-b9cd2e6a4f89","ios":"levelo://app?vid=c65ef12a-b7f8-4167-b91a-b9cd2e6a4f89"},"vehicle_type_id":"4","last_reported":1747315299,"current_range_meters":18800,"station_id":"ce4bh0h2rcd13ifvqd50","pricing_plan_id":"cebpf4jnsgd1na2vs0mg"},{"bike_id":"d69a2b4a-01ec-417f-8ab3-984ad2b62dd5","system_id":"levelo_inurba_marseille","lat":43.24804,"lon":5.37452,"is_reserved":false,"is_disabled":false,"rental_uris":{"android":"levelo://app?vid=d69a2b4a-01ec-417f-8ab3-984ad2b62dd5","ios":"levelo://app?vid=d69a2b4a-01ec-417f-8ab3-984ad2b62dd5"},"vehicle_type_id":"4","last_reported":1747315299,"current_range_meters":18000,"station_id":"ce4bhgh2rcd13ifvqfb0","pricing_plan_id":"cebpf4jnsgd1na2vs0mg"},{"bike_id":"56b281eb-56cb-460f-8b8f-cf004e7b133c","system_id":"levelo_inurba_marseille","lat":43.26235,"lon":5.40457,"is_reserved":false,"is_disabled":false,"rental_uris":{"android":"levelo://app?vid=56b281eb-56cb-460f-8b8f-cf004e7b133c","ios":"levelo://app?vid=56b281eb-56cb-460f-8b8f-cf004e7b133c"},"vehicle_type_id":"4","last_reported":1747315299,"current_range_meters":18800,"station_id":"ce4bhmh2rcd13ifvqgmg","pricing_plan_id":"cebpf4jnsgd1na2vs0mg"},{"bike_id":"e72fe0c5-999d-4db9-ade8-743df67f7ee8","system_id":"levelo_inurba_marseille","lat":43.25873,"lon":5.39891,"is_reserved":false,"is_disabled":false,"rental_uris":{"android":"levelo://app?vid=e72fe0c5-999d-4db9-ade8-743df67f7ee8","ios":"levelo://app?vid=e72fe0c5-999d-4db9-ade8-743df67f7ee8"},"vehicle_type_id":"4","last_reported":1747315299,"current_range_meters":18800,"station_id":"ce4bhl92rcd13ifvqghg","pricing_plan_id":"cebpf4jnsgd1na2vs0mg"},{"bike_id":"3fcd8beb-ef26-4c11-a024-e63ad61d78ed","system_id":"levelo_inurba_marseille","lat":43.248027,"lon":5.374527,"is_reserved":false,"is_disabled":false,"rental_uris":{"android":"levelo://app?vid=3fcd8beb-ef26-4c11-a024-e63ad61d78ed","ios":"levelo://app?vid=3fcd8beb-ef26-4c11-a024-e63ad61d78ed"},"vehicle_type_id":"4","last_reported":1747315299,"current_range_meters":18800,"station_id":"ce4bhgh2rcd13ifvqfb0","pricing_plan_id":"cebpf4jnsgd1na2vs0mg"},{"bike_id":"71061298-85e7-45bc-993b-630ac66b913f","system_id":"levelo_inurba_marseille","lat":43.26572,"lon":5.37284,"is_reserved":false,"is_disabled":false,"rental_uris":{"android":"levelo://app?vid=71061298-85e7-45bc-993b-630ac66b913f","ios":"levelo://app?vid=71061298-85e7-45bc-993b-630ac66b913f"},"vehicle_type_id":"4","last_reported":1747315299,"current_range_meters":18800,"station_id":"ce4bhg12rcd13ifvqf70","pricing_plan_id":"cebpf4jnsgd1na2vs0mg"},{"bike_id":"dc70d875-4b6e-4a55-9dd2-b05fe889d279","system_id":"levelo_inurba_marseille","lat":43.2963,"lon":5.37749,"is_reserved":false,"is_disabled":false,"rental_uris":{"android":"levelo://app?vid=dc70d875-4b6e-4a55-9dd2-b05fe889d279","ios":"levelo://app?vid=dc70d875-4b6e-4a55-9dd2-b05fe889d279"},"vehicle_type_id":"4","last_reported":1747315299,"current_range_meters":18800,"station_id":"ce4bgi92rcd13ifvqb90","pricing_plan_id":"cebpf4jnsgd1na2vs0mg"},{"bike_id":"c0e0fd84-4c7c-420a-b641-45b7066ef9a9","system_id":"levelo_inurba_marseille","lat":43.31349,"lon":5.3672,"is_reserved":false,"is_disabled":false,"rental_uris":{"android":"levelo://app?vid=c0e0fd84-4c7c-420a-b641-45b7066ef9a9","ios":"levelo://app?vid=c0e0fd84-4c7c-420a-b641-45b7066ef9a9"},"vehicle_type_id":"4","last_reported":1747315299,"current_range_meters":19200,"station_id":"ce4bgr92rcd13ifvqc6g","pricing_plan_id":"cebpf4jnsgd1na2vs0mg"},{"bike_id":"180e10a7-ba2a-44a0-95b4-4567b94c2920","system_id":"levelo_inurba_marseille","lat":43.21749,"lon":5.34597,"is_reserved":false,"is_disabled":false,"rental_uris":{"android":"levelo://app?vid=180e10a7-ba2a-44a0-95b4-4567b94c2920","ios":"levelo://app?vid=180e10a7-ba2a-44a0-95b4-4567b94c2920"},"vehicle_type_id":"4","last_reported":1747315299,"current_range_meters":19200,"station_id":"st_cvj6r9ubvosntc0bgbag","pricing_plan_id":"cebpf4jnsgd1na2vs0mg"},{"bike_id":"481f414e-1c07-48c4-abdd-d000c8715ea1","system_id":"levelo_inurba_marseille","lat":43.28666,"lon":5.38664,"is_reserved":false,"is_disabled":false,"rental_uris":{"android":"levelo://app?vid=481f414e-1c07-48c4-abdd-d000c8715ea1","ios":"levelo://app?vid=481f414e-1c07-48c4-abdd-d000c8715ea1"},"vehicle_type_id":"4","last_reported":1747315299,"current_range_meters":19200,"station_id":"ce4bh492rcd13ifvqdug","pricing_plan_id":"cebpf4jnsgd1na2vs0mg"},{"bike_id":"7440b71d-87cc-4671-a552-aa78731f3e35","system_id":"levelo_inurba_marseille","lat":43.28703,"lon":5.39979,"is_reserved":false,"is_disabled":false,"rental_uris":{"android":"levelo://app?vid=7440b71d-87cc-4671-a552-aa78731f3e35","ios":"levelo://app?vid=7440b71d-87cc-4671-a552-aa78731f3e35"},"vehicle_type_id":"4","last_reported":1747315299,"current_range_meters":19200,"station_id":"ce4bho92rcd13ifvqh3g","pricing_plan_id":"cebpf4jnsgd1na2vs0mg"},{"bike_id":"54a1a73b-9f7a-414c-a48f-eeace73bd9b0","system_id":"levelo_inurba_marseille","lat":43.22508,"lon":5.34783,"is_reserved":false,"is_disabled":false,"rental_uris":{"android":"levelo://app?vid=54a1a73b-9f7a-414c-a48f-eeace73bd9b0","ios":"levelo://app?vid=54a1a73b-9f7a-414c-a48f-eeace73bd9b0"},"vehicle_type_id":"4","last_reported":1747315299,"current_range_meters":19200,"station_id":"st_cvj5dfep6f1abm77gieg","pricing_plan_id":"cebpf4jnsgd1na2vs0mg"},{"bike_id":"d8703330-5a53-48b3-b02c-fe83572faca4","system_id":"levelo_inurba_marseille","lat":43.2927,"lon":5.38431,"is_reserved":false,"is_disabled":false,"rental_uris":{"android":"levelo://app?vid=d8703330-5a53-48b3-b02c-fe83572faca4","ios":"levelo://app?vid=d8703330-5a53-48b3-b02c-fe83572faca4"},"vehicle_type_id":"4","last_reported":1747315299,"current_range_meters":19200,"station_id":"ce4bh692rcd13ifvqea0","pricing_plan_id":"cebpf4jnsgd1na2vs0mg"},{"bike_id":"a6a918b7-f192-461f-8ef4-9b93ba3f3240","system_id":"levelo_inurba_marseille","lat":43.21747,"lon":5.34594,"is_reserved":false,"is_disabled":false,"rental_uris":{"android":"levelo://app?vid=a6a918b7-f192-461f-8ef4-9b93ba3f3240","ios":"levelo://app?vid=a6a918b7-f192-461f-8ef4-9b93ba3f3240"},"vehicle_type_id":"4","last_reported":1747315299,"current_range_meters":19200,"station_id":"st_cvj6r9ubvosntc0bgbag","pricing_plan_id":"cebpf4jnsgd1na2vs0mg"},{"bike_id":"73eb8e9e-ce3d-4565-8fef-69eef5630cbd","system_id":"levelo_inurba_marseille","lat":43.24072,"lon":5.37761,"is_reserved":false,"is_disabled":false,"rental_uris":{"android":"levelo://app?vid=73eb8e9e-ce3d-4565-8fef-69eef5630cbd","ios":"levelo://app?vid=73eb8e9e-ce3d-4565-8fef-69eef5630cbd"},"vehicle_type_id":"4","last_reported":1747315299,"current_range_meters":19200,"station_id":"ce4bhnp2rcd13ifvqgvg","pricing_plan_id":"cebpf4jnsgd1na2vs0mg"},{"bike_id":"ce2d5fd7-697f-4e9a-ae60-3c24d36eee6a","system_id":"levelo_inurba_marseille","lat":43.275,"lon":5.42455,"is_reserved":false,"is_disabled":false,"rental_uris":{"android":"levelo://app?vid=ce2d5fd7-697f-4e9a-ae60-3c24d36eee6a","ios":"levelo://app?vid=ce2d5fd7-697f-4e9a-ae60-3c24d36eee6a"},"vehicle_type_id":"4","last_reported":1747315299,"current_range_meters":19200,"station_id":"ce4bhn92rcd13ifvqgrg","pricing_plan_id":"cebpf4jnsgd1na2vs0mg"},{"bike_id":"db77887e-0d96-4823-9d7a-29dcd7da204d","system_id":"levelo_inurba_marseille","lat":43.26214,"lon":5.40452,"is_reserved":false,"is_disabled":false,"rental_uris":{"android":"levelo://app?vid=db77887e-0d96-4823-9d7a-29dcd7da204d","ios":"levelo://app?vid=db77887e-0d96-4823-9d7a-29dcd7da204d"},"vehicle_type_id":"4","last_reported":1747315299,"current_range_meters":19200,"station_id":"ce4bhmh2rcd13ifvqgmg","pricing_plan_id":"cebpf4jnsgd1na2vs0mg"},{"bike_id":"47a41c13-73bf-4c8a-8423-5c548a57dfa8","system_id":"levelo_inurba_marseille","lat":43.27377,"lon":5.36256,"is_reserved":false,"is_disabled":false,"rental_uris":{"android":"levelo://app?vid=47a41c13-73bf-4c8a-8423-5c548a57dfa8","ios":"levelo://app?vid=47a41c13-73bf-4c8a-8423-5c548a57dfa8"},"vehicle_type_id":"4","last_reported":1747315299,"current_range_meters":19600,"station_id":"ce4bhbh2rcd13ifvqeo0","pricing_plan_id":"cebpf4jnsgd1na2vs0mg"},{"bike_id":"1a8dca05-63e1-4602-8397-e3f4fbfd82fb","system_id":"levelo_inurba_marseille","lat":43.25006,"lon":5.38924,"is_reserved":false,"is_disabled":false,"rental_uris":{"android":"levelo://app?vid=1a8dca05-63e1-4602-8397-e3f4fbfd82fb","ios":"levelo://app?vid=1a8dca05-63e1-4602-8397-e3f4fbfd82fb"},"vehicle_type_id":"4","last_reported":1747315299,"current_range_meters":19600,"station_id":"ce4bhgp2rcd13ifvqfd0","pricing_plan_id":"cebpf4jnsgd1na2vs0mg"},{"bike_id":"6f109bcc-0a3b-417d-ac25-00b161c5171d","system_id":"levelo_inurba_marseille","lat":43.27381,"lon":5.36275,"is_reserved":false,"is_disabled":false,"rental_uris":{"android":"levelo://app?vid=6f109bcc-0a3b-417d-ac25-00b161c5171d","ios":"levelo://app?vid=6f109bcc-0a3b-417d-ac25-00b161c5171d"},"vehicle_type_id":"4","last_reported":1747315299,"current_range_meters":19600,"station_id":"ce4bhbh2rcd13ifvqeo0","pricing_plan_id":"cebpf4jnsgd1na2vs0mg"},{"bike_id":"e1157676-c1cd-46a4-8dab-e8b2e72da4b6","system_id":"levelo_inurba_marseille","lat":43.28106,"lon":5.37827,"is_reserved":false,"is_disabled":false,"rental_uris":{"android":"levelo://app?vid=e1157676-c1cd-46a4-8dab-e8b2e72da4b6","ios":"levelo://app?vid=e1157676-c1cd-46a4-8dab-e8b2e72da4b6"},"vehicle_type_id":"4","last_reported":1747315299,"current_range_meters":19600,"station_id":"ce4bha12rcd13ifvqee0","pricing_plan_id":"cebpf4jnsgd1na2vs0mg"},{"bike_id":"21f5a1a4-43c5-4049-8a8d-3146c5c35157","system_id":"levelo_inurba_marseille","lat":43.229289,"lon":5.353807,"is_reserved":false,"is_disabled":false,"rental_uris":{"android":"levelo://app?vid=21f5a1a4-43c5-4049-8a8d-3146c5c35157","ios":"levelo://app?vid=21f5a1a4-43c5-4049-8a8d-3146c5c35157"},"vehicle_type_id":"4","last_reported":1747315299,"current_range_meters":19600,"station_id":"cpo3532slgdg3j2ikp40","pricing_plan_id":"cebpf4jnsgd1na2vs0mg"},{"bike_id":"54c80718-1468-47f9-9877-bc44f5940722","system_id":"levelo_inurba_marseille","lat":43.21203,"lon":5.35084,"is_reserved":false,"is_disabled":false,"rental_uris":{"android":"levelo://app?vid=54c80718-1468-47f9-9877-bc44f5940722","ios":"levelo://app?vid=54c80718-1468-47f9-9877-bc44f5940722"},"vehicle_type_id":"4","last_reported":1747315299,"current_range_meters":19600,"station_id":"st_cvj6sg6p6f1abm77japg","pricing_plan_id":"cebpf4jnsgd1na2vs0mg"},{"bike_id":"8167e193-3716-4b21-8704-a1f6f97fe099","system_id":"levelo_inurba_marseille","lat":43.24171,"lon":5.36383,"is_reserved":false,"is_disabled":false,"rental_uris":{"android":"levelo://app?vid=8167e193-3716-4b21-8704-a1f6f97fe099","ios":"levelo://app?vid=8167e193-3716-4b21-8704-a1f6f97fe099"},"vehicle_type_id":"4","last_reported":1747315299,"current_range_meters":19600,"station_id":"cpo36qri1sfpv3e86is0","pricing_plan_id":"cebpf4jnsgd1na2vs0mg"},{"bike_id":"aa53c5b9-c9b8-4906-989e-6e49a1f5abe6","system_id":"levelo_inurba_marseille","lat":43.22932,"lon":5.35374,"is_reserved":false,"is_disabled":false,"rental_uris":{"android":"levelo://app?vid=aa53c5b9-c9b8-4906-989e-6e49a1f5abe6","ios":"levelo://app?vid=aa53c5b9-c9b8-4906-989e-6e49a1f5abe6"},"vehicle_type_id":"4","last_reported":1747315299,"current_range_meters":19600,"station_id":"cpo3532slgdg3j2ikp40","pricing_plan_id":"cebpf4jnsgd1na2vs0mg"},{"bike_id":"444a83ab-8534-4782-ba69-20c25ccaa8b0","system_id":"levelo_inurba_marseille","lat":43.26563,"lon":5.37307,"is_reserved":false,"is_disabled":false,"rental_uris":{"android":"levelo://app?vid=444a83ab-8534-4782-ba69-20c25ccaa8b0","ios":"levelo://app?vid=444a83ab-8534-4782-ba69-20c25ccaa8b0"},"vehicle_type_id":"4","last_reported":1747315299,"current_range_meters":19600,"station_id":"ce4bhg12rcd13ifvqf70","pricing_plan_id":"cebpf4jnsgd1na2vs0mg"},{"bike_id":"028512d3-26df-40b2-b967-7e505524b114","system_id":"levelo_inurba_marseille","lat":43.27498,"lon":5.42445,"is_reserved":false,"is_disabled":false,"rental_uris":{"android":"levelo://app?vid=028512d3-26df-40b2-b967-7e505524b114","ios":"levelo://app?vid=028512d3-26df-40b2-b967-7e505524b114"},"vehicle_type_id":"4","last_reported":1747315299,"current_range_meters":19600,"station_id":"ce4bhn92rcd13ifvqgrg","pricing_plan_id":"cebpf4jnsgd1na2vs0mg"},{"bike_id":"28ed1b42-7d7b-458f-8f52-d8ac679b825a","system_id":"levelo_inurba_marseille","lat":43.25502,"lon":5.37658,"is_reserved":false,"is_disabled":false,"rental_uris":{"android":"levelo://app?vid=28ed1b42-7d7b-458f-8f52-d8ac679b825a","ios":"levelo://app?vid=28ed1b42-7d7b-458f-8f52-d8ac679b825a"},"vehicle_type_id":"4","last_reported":1747315299,"current_range_meters":19600,"station_id":"ce4bhh12rcd13ifvqff0","pricing_plan_id":"cebpf4jnsgd1na2vs0mg"},{"bike_id":"4ed201c5-9372-4f0e-84db-9a8bcfecb764","system_id":"levelo_inurba_marseille","lat":43.26557,"lon":5.37282,"is_reserved":false,"is_disabled":false,"rental_uris":{"android":"levelo://app?vid=4ed201c5-9372-4f0e-84db-9a8bcfecb764","ios":"levelo://app?vid=4ed201c5-9372-4f0e-84db-9a8bcfecb764"},"vehicle_type_id":"4","last_reported":1747315299,"current_range_meters":20000,"station_id":"ce4bhg12rcd13ifvqf70","pricing_plan_id":"cebpf4jnsgd1na2vs0mg"},{"bike_id":"5901a22e-4376-4fe3-a3fe-40f3745cbf8a","system_id":"levelo_inurba_marseille","lat":43.27379,"lon":5.36251,"is_reserved":false,"is_disabled":false,"rental_uris":{"android":"levelo://app?vid=5901a22e-4376-4fe3-a3fe-40f3745cbf8a","ios":"levelo://app?vid=5901a22e-4376-4fe3-a3fe-40f3745cbf8a"},"vehicle_type_id":"4","last_reported":1747315299,"current_range_meters":20000,"station_id":"ce4bhbh2rcd13ifvqeo0","pricing_plan_id":"cebpf4jnsgd1na2vs0mg"},{"bike_id":"3d46183d-e421-4498-8767-0e257c53394b","system_id":"levelo_inurba_marseille","lat":43.32545,"lon":5.4142,"is_reserved":false,"is_disabled":false,"rental_uris":{"android":"levelo://app?vid=3d46183d-e421-4498-8767-0e257c53394b","ios":"levelo://app?vid=3d46183d-e421-4498-8767-0e257c53394b"},"vehicle_type_id":"4","last_reported":1747315299,"current_range_meters":20000,"station_id":"ce4bhq12rcd13ifvqhhg","pricing_plan_id":"cebpf4jnsgd1na2vs0mg"},{"bike_id":"549c6be5-cea4-42ad-a1a3-3ae411264425","system_id":"levelo_inurba_marseille","lat":43.21191,"lon":5.35071,"is_reserved":false,"is_disabled":false,"rental_uris":{"android":"levelo://app?vid=549c6be5-cea4-42ad-a1a3-3ae411264425","ios":"levelo://app?vid=549c6be5-cea4-42ad-a1a3-3ae411264425"},"vehicle_type_id":"4","last_reported":1747315299,"current_range_meters":20000,"station_id":"st_cvj6sg6p6f1abm77japg","pricing_plan_id":"cebpf4jnsgd1na2vs0mg"},{"bike_id":"f6205ad3-e68f-4455-a06e-4a30dd56d15c","system_id":"levelo_inurba_marseille","lat":43.31355,"lon":5.38491,"is_reserved":false,"is_disabled":true,"rental_uris":{"android":"levelo://app?vid=f6205ad3-e68f-4455-a06e-4a30dd56d15c","ios":"levelo://app?vid=f6205ad3-e68f-4455-a06e-4a30dd56d15c"},"vehicle_type_id":"4","last_reported":1747315299,"current_range_meters":20000,"station_id":"ce4bgt92rcd13ifvqcf0","pricing_plan_id":"cebpf4jnsgd1na2vs0mg"},{"bike_id":"9f46cd2b-bdd6-4c52-802d-ce5a08999bc8","system_id":"levelo_inurba_marseille","lat":43.23963,"lon":5.36627,"is_reserved":false,"is_disabled":false,"rental_uris":{"android":"levelo://app?vid=9f46cd2b-bdd6-4c52-802d-ce5a08999bc8","ios":"levelo://app?vid=9f46cd2b-bdd6-4c52-802d-ce5a08999bc8"},"vehicle_type_id":"4","last_reported":1747315299,"current_range_meters":20000,"station_id":"ce4bhi12rcd13ifvqfp0","pricing_plan_id":"cebpf4jnsgd1na2vs0mg"},{"bike_id":"06b131cc-ae70-468a-9d8d-250d5ecde233","system_id":"levelo_inurba_marseille","lat":43.26562,"lon":5.38991,"is_reserved":false,"is_disabled":false,"rental_uris":{"android":"levelo://app?vid=06b131cc-ae70-468a-9d8d-250d5ecde233","ios":"levelo://app?vid=06b131cc-ae70-468a-9d8d-250d5ecde233"},"vehicle_type_id":"4","last_reported":1747315299,"current_range_meters":20000,"station_id":"ce4bhe12rcd13ifvqf30","pricing_plan_id":"cebpf4jnsgd1na2vs0mg"},