{"last_updated":1744881039,"ttl":60,"version":"2.2","data":{"bikes":[{"bike_id":"44894151-b1c4-4c34-abcf-88c8467f678e","system_id":"levelo_inurba_marseille","lat":43.257288,"lon":5.411134,"is_reserved":false,"is_disabled":false,"rental_uris":{"android":"levelo://app?vid=44894151-b1c4-4c34-abcf-88c8467f678e","ios":"levelo://app?vid=44894151-b1c4-4c34-abcf-88c8467f678e"},"vehicle_type_id":"4","last_reported":1744881039,"current_range_meters":3200,"station_id":"ce4bhkp2rcd13ifvqgd0","pricing_plan_id":"cebpf4jnsgd1na2vs0mg"},{"bike_id":"fa24a847-61cb-4f83-a7f4-b28d6f6fd077","system_id":"levelo_inurba_marseille","lat":43.28843,"lon":5.39305,"is_reserved":false,"is_disabled":false,"rental_uris":{"android":"levelo://app?vid=fa24a847-61cb-4f83-a7f4-b28d6f6fd077","ios":"levelo://app?vid=fa24a847-61cb-4f83-a7f4-b28d6f6fd077"},"vehicle_type_id":"4","last_reported":1744881039,"current_range_meters":3600,"station_id":"ce4bh2p2rcd13ifvqdi0","pricing_plan_id":"cebpf4jnsgd1na2vs0mg"},{"bike_id":"4be423fc-b49d-4203-8abc-985b45dfd65e","system_id":"levelo_inurba_marseille","lat":43.329136,"lon":5.433816,"is_reserved":false,"is_disabled":false,"rental_uris":{"android":"levelo://app?vid=4be423fc-b49d-4203-8abc-985b45dfd65e","ios":"levelo://app?vid=4be423fc-b49d-4203-8abc-985b45dfd65e"},"vehicle_type_id":"4","last_reported":1744881039,"current_range_meters":3600,"station_id":"","pricing_plan_id":"cebpf4jnsgd1na2vs0mg"},{"bike_id":"376f754b-7bba-4962-babe-b49b1468281c","system_id":"levelo_inurba_marseille","lat":43.30922,"lon":5.40176,"is_reserved":false,"is_disabled":true,"rental_uris":{"android":"levelo://app?vid=376f754b-7bba-4962-babe-b49b1468281c","ios":"levelo://app?vid=376f754b-7bba-4962-babe-b49b1468281c"},"vehicle_type_id":"4","last_reported":1744881039,"current_range_meters":4000,"station_id":"ce4bgvp2rcd13ifvqct0","pricing_plan_id":"cebpf4jnsgd1na2vs0mg"},{"bike_id":"e830f15f-1fc7-4598-869b-2baaf3289f9f","system_id":"levelo_inurba_marseille","lat":43.32543,"lon":5.4145,"is_reserved":false,"is_disabled":false,"rental_uris":{"android":"levelo://app?vid=e830f15f-1fc7-4598-869b-2baaf3289f9f","ios":"levelo://app?vid=e830f15f-1fc7-4598-869b-2baaf3289f9f"},"vehicle_type_id":"4","last_reported":1744881039,"current_range_meters":4400,"station_id":"ce4bhq12rcd13ifvqhhg","pricing_plan_id":"cebpf4jnsgd1na2vs0mg"},{"bike_id":"2ae9fccf-a24c-4dea-91e1-5943f8989867","system_id":"levelo_inurba_marseille","lat":43.28401,"lon":5.37511,"is_reserved":false,"is_disabled":false,"rental_uris":{"android":"levelo://app?vid=2ae9fccf-a24c-4dea-91e1-5943f8989867","ios":"levelo://app?vid=2ae9fccf-a24c-4dea-91e1-5943f8989867"},"vehicle_type_id":"4","last_reported":1744881039,"current_range_meters":4400,"station_id":"ce4bh412rcd13ifvqds0","pricing_plan_id":"cebpf4jnsgd1na2vs0mg"},{"bike_id":"3bc5ba5b-8d55-466c-b126-0301703e0963","system_id":"levelo_inurba_marseille","lat":43.31213,"lon":5.36847,"is_reserved":false,"is_disabled":false,"rental_uris":{"android":"levelo://app?vid=3bc5ba5b-8d55-466c-b126-0301703e0963","ios":"levelo://app?vid=3bc5ba5b-8d55-466c-b126-0301703e0963"},"vehicle_type_id":"4","last_reported":1744881039,"current_range_meters":4800,"station_id":"ce4bgl92rcd13ifvqbq0","pricing_plan_id":"cebpf4jnsgd1na2vs0mg"},{"bike_id":"a3941fed-3cce-4dd4-9f13-4412d6e39cfa","system_id":"levelo_inurba_marseille","lat":43.309494,"lon":5.39027,"is_reserved":false,"is_disabled":false,"rental_uris":{"android":"levelo://app?vid=a3941fed-3cce-4dd4-9f13-4412d6e39cfa","ios":"levelo://app?vid=a3941fed-3cce-4dd4-9f13-4412d6e39cfa"},"vehicle_type_id":"4","last_reported":1744881039,"current_range_meters":4800,"station_id":"","pricing_plan_id":"cebpf4jnsgd1na2vs0mg"},{"bike_id":"90686203-14ab-46ed-9bec-37b56bf42616","system_id":"levelo_inurba_marseille","lat":43.247349,"lon":5.382231,"is_reserved":false,"is_disabled":false,"rental_uris":{"android":"levelo://app?vid=90686203-14ab-46ed-9bec-37b56bf42616","ios":"levelo://app?vid=90686203-14ab-46ed-9bec-37b56bf42616"},"vehicle_type_id":"4","last_reported":1744881039,"current_range_meters":5600,"station_id":"ce4bhh12rcd13ifvqff0","pricing_plan_id":"cebpf4jnsgd1na2vs0mg"},{"bike_id":"db1d188d-89a9-4b26-8d6d-207e9d196654","system_id":"levelo_inurba_marseille","lat":43.278285,"lon":5.406975,"is_reserved":false,"is_disabled":false,"rental_uris":{"android":"levelo://app?vid=db1d188d-89a9-4b26-8d6d-207e9d196654","ios":"levelo://app?vid=db1d188d-89a9-4b26-8d6d-207e9d196654"},"vehicle_type_id":"4","last_reported":1744881039,"current_range_meters":5600,"station_id":"ce4bhnh2rcd13ifvqgtg","pricing_plan_id":"cebpf4jnsgd1na2vs0mg"},{"bike_id":"27d65429-e235-4ad4-8e99-624219bf772a","system_id":"levelo_inurba_marseille","lat":43.30725,"lon":5.42438,"is_reserved":false,"is_disabled":false,"rental_uris":{"android":"levelo://app?vid=27d65429-e235-4ad4-8e99-624219bf772a","ios":"levelo://app?vid=27d65429-e235-4ad4-8e99-624219bf772a"},"vehicle_type_id":"4","last_reported":1744881039,"current_range_meters":5600,"station_id":"st_cvj6ca6bvosntc0bfgr0","pricing_plan_id":"cebpf4jnsgd1na2vs0mg"},{"bike_id":"aba6c310-a0df-4063-aa0b-8fe8353b3061","system_id":"levelo_inurba_marseille","lat":43.3014,"lon":5.37415,"is_reserved":false,"is_disabled":false,"rental_uris":{"android":"levelo://app?vid=aba6c310-a0df-4063-aa0b-8fe8353b3061","ios":"levelo://app?vid=aba6c310-a0df-4063-aa0b-8fe8353b3061"},"vehicle_type_id":"4","last_reported":1744881039,"current_range_meters":6000,"station_id":"ce4bgs92rcd13ifvqcc0","pricing_plan_id":"cebpf4jnsgd1na2vs0mg"},{"bike_id":"3ac779a4-a733-41fb-a10f-59270a58f3e4","system_id":"levelo_inurba_marseille","lat":43.2593,"lon":5.40894,"is_reserved":false,"is_disabled":false,"rental_uris":{"android":"levelo://app?vid=3ac779a4-a733-41fb-a10f-59270a58f3e4","ios":"levelo://app?vid=3ac779a4-a733-41fb-a10f-59270a58f3e4"},"vehicle_type_id":"4","last_reported":1744881039,"current_range_meters":6400,"station_id":"ce4bhm92rcd13ifvqglg","pricing_plan_id":"cebpf4jnsgd1na2vs0mg"},{"bike_id":"994695a9-98fd-4da6-9191-c96330e6cffb","system_id":"levelo_inurba_marseille","lat":43.21746,"lon":5.34601,"is_reserved":false,"is_disabled":false,"rental_uris":{"android":"levelo://app?vid=994695a9-98fd-4da6-9191-c96330e6cffb","ios":"levelo://app?vid=994695a9-98fd-4da6-9191-c96330e6cffb"},"vehicle_type_id":"4","last_reported":1744881039,"current_range_meters":6800,"station_id":"st_cvj6r9ubvosntc0bgbag","pricing_plan_id":"cebpf4jnsgd1na2vs0mg"},{"bike_id":"12e75396-ae51-4cff-a662-db9329a0cc7b","system_id":"levelo_inurba_marseille","lat":43.2954,"lon":5.37496,"is_reserved":false,"is_disabled":false,"rental_uris":{"android":"levelo://app?vid=12e75396-ae51-4cff-a662-db9329a0cc7b","ios":"levelo://app?vid=12e75396-ae51-4cff-a662-db9329a0cc7b"},"vehicle_type_id":"4","last_reported":1744881039,"current_range_meters":6800,"station_id":"ce4bgkp2rcd13ifvqbmg","pricing_plan_id":"cebpf4jnsgd1na2vs0mg"},{"bike_id":"25fbf435-8704-46ab-ae5a-6c8e353af5ed","system_id":"levelo_inurba_marseille","lat":43.29877,"lon":5.39735,"is_reserved":false,"is_disabled":false,"rental_uris":{"android":"levelo://app?vid=25fbf435-8704-46ab-ae5a-6c8e353af5ed","ios":"levelo://app?vid=25fbf435-8704-46ab-ae5a-6c8e353af5ed"},"vehicle_type_id":"4","last_reported":1744881039,"current_range_meters":6400,"station_id":"ce4bh0h2rcd13ifvqd50","pricing_plan_id":"cebpf4jnsgd1na2vs0mg"},{"bike_id":"d3ea6a8a-7979-4354-9a55-8b372e6777f5","system_id":"levelo_inurba_marseille","lat":43.29968,"lon":5.38497,"is_reserved":false,"is_disabled":false,"rental_uris":{"android":"levelo://app?vid=d3ea6a8a-7979-4354-9a55-8b372e6777f5","ios":"levelo://app?vid=d3ea6a8a-7979-4354-9a55-8b372e6777f5"},"vehicle_type_id":"4","last_reported":1744881039,"current_range_meters":7200,"station_id":"ce4bgj92rcd13ifvqbd0","pricing_plan_id":"cebpf4jnsgd1na2vs0mg"},{"bike_id":"2e4fbe9c-cd7a-4779-ad7f-26ec0f0cc6ce","system_id":"levelo_inurba_marseille","lat":43.24812,"lon":5.37471,"is_reserved":false,"is_disabled":false,"rental_uris":{"android":"levelo://app?vid=2e4fbe9c-cd7a-4779-ad7f-26ec0f0cc6ce","ios":"levelo://app?vid=2e4fbe9c-cd7a-4779-ad7f-26ec0f0cc6ce"},"vehicle_type_id":"4","last_reported":1744881039,"current_range_meters":7200,"station_id":"ce4bhgh2rcd13ifvqfb0","pricing_plan_id":"cebpf4jnsgd1na2vs0mg"},{"bike_id":"d1d622e7-c2be-42ed-8711-65f5b32374f9","system_id":"levelo_inurba_marseille","lat":43.29566,"lon":5.37525,"is_reserved":false,"is_disabled":false,"rental_uris":{"android":"levelo://app?vid=d1d622e7-c2be-42ed-8711-65f5b32374f9","ios":"levelo://app?vid=d1d622e7-c2be-42ed-8711-65f5b32374f9"},"vehicle_type_id":"4","last_reported":1744881039,"current_range_meters":7200,"station_id":"ce4bgh92rcd13ifvqb50","pricing_plan_id":"cebpf4jnsgd1na2vs0mg"},{"bike_id":"a42a5ce9-2cba-49d1-91c2-e82429329c19","system_id":"levelo_inurba_marseille","lat":43.27056,"lon":5.40261,"is_reserved":false,"is_disabled":false,"rental_uris":{"android":"levelo://app?vid=a42a5ce9-2cba-49d1-91c2-e82429329c19","ios":"levelo://app?vid=a42a5ce9-2cba-49d1-91c2-e82429329c19"},"vehicle_type_id":"4","last_reported":1744881039,"current_range_meters":8000,"station_id":"ce4bhk92rcd13ifvqgc0","pricing_plan_id":"cebpf4jnsgd1na2vs0mg"},{"bike_id":"21d2bc12-7a3c-43c9-9a70-5cf4274cd2d1","system_id":"levelo_inurba_marseille","lat":43.30303,"lon":5.36907,"is_reserved":false,"is_disabled":false,"rental_uris":{"android":"levelo://app?vid=21d2bc12-7a3c-43c9-9a70-5cf4274cd2d1","ios":"levelo://app?vid=21d2bc12-7a3c-43c9-9a70-5cf4274cd2d1"},"vehicle_type_id":"4","last_reported":1744881039,"current_range_meters":8000,"station_id":"ce4bgqh2rcd13ifvqc5g","pricing_plan_id":"cebpf4jnsgd1na2vs0mg"},{"bike_id":"4a340735-6d34-4c51-83b1-b50b0b43373d","system_id":"levelo_inurba_marseille","lat":43.32493,"lon":5.36565,"is_reserved":false,"is_disabled":false,"rental_uris":{"android":"levelo://app?vid=4a340735-6d34-4c51-83b1-b50b0b43373d","ios":"levelo://app?vid=4a340735-6d34-4c51-83b1-b50b0b43373d"},"vehicle_type_id":"4","last_reported":1744881039,"current_range_meters":8000,"station_id":"ce4bhs12rcd13ifvqhvg","pricing_plan_id":"cebpf4jnsgd1na2vs0mg"},{"bike_id":"6a42fdd6-075d-4748-811a-29f5845c8920","system_id":"levelo_inurba_marseille","lat":43.217468,"lon":5.346057,"is_reserved":false,"is_disabled":false,"rental_uris":{"android":"levelo://app?vid=6a42fdd6-075d-4748-811a-29f5845c8920","ios":"levelo://app?vid=6a42fdd6-075d-4748-811a-29f5845c8920"},"vehicle_type_id":"4","last_reported":1744881039,"current_range_meters":8400,"station_id":"","pricing_plan_id":"cebpf4jnsgd1na2vs0mg"},{"bike_id":"15701ca2-b92e-4248-b2b6-04ee3b91dd40","system_id":"levelo_inurba_marseille","lat":43.29304,"lon":5.37173,"is_reserved":false,"is_disabled":false,"rental_uris":{"android":"levelo://app?vid=15701ca2-b92e-4248-b2b6-04ee3b91dd40","ios":"levelo://app?vid=15701ca2-b92e-4248-b2b6-04ee3b91dd40"},"vehicle_type_id":"4","last_reported":1744881039,"current_range_meters":8400,"station_id":"ce4bgh92rcd13ifvqb40","pricing_plan_id":"cebpf4jnsgd1na2vs0mg"},{"bike_id":"6a3f40c4-4ded-4144-be9b-7cf436c88be1","system_id":"levelo_inurba_marseille","lat":43.25921,"lon":5.40894,"is_reserved":false,"is_disabled":false,"rental_uris":{"android":"levelo://app?vid=6a3f40c4-4ded-4144-be9b-7cf436c88be1","ios":"levelo://app?vid=6a3f40c4-4ded-4144-be9b-7cf436c88be1"},"vehicle_type_id":"4","last_reported":1744881039,"current_range_meters":8400,"station_id":"ce4bhm92rcd13ifvqglg","pricing_plan_id":"cebpf4jnsgd1na2vs0mg"},{"bike_id":"178dad46-cb0d-4eb0-b656-2a8e4563fbcb","system_id":"levelo_inurba_marseille","lat":43.30169,"lon":5.38088,"is_reserved":false,"is_disabled":false,"rental_uris":{"android":"levelo://app?vid=178dad46-cb0d-4eb0-b656-2a8e4563fbcb","ios":"levelo://app?vid=178dad46-cb0d-4eb0-b656-2a8e4563fbcb"},"vehicle_type_id":"4","last_reported":1744881039,"current_range_meters":8400,"station_id":"ce4bgjp2rcd13ifvqbh0","pricing_plan_id":"cebpf4jnsgd1na2vs0mg"},{"bike_id":"6ec2cec1-eca4-41b1-a5bc-69493acfb9d4","system_id":"levelo_inurba_marseille","lat":43.23194,"lon":5.35554,"is_reserved":false,"is_disabled":false,"rental_uris":{"android":"levelo://app?vid=6ec2cec1-eca4-41b1-a5bc-69493acfb9d4","ios":"levelo://app?vid=6ec2cec1-eca4-41b1-a5bc-69493acfb9d4"},"vehicle_type_id":"4","last_reported":1744881039,"current_range_meters":8800,"station_id":"ce4bhu92rcd13ifvqi70","pricing_plan_id":"cebpf4jnsgd1na2vs0mg"},{"bike_id":"84b58d90-bb57-4bdb-8485-62b6e661a441","system_id":"levelo_inurba_marseille","lat":43.24173,"lon":5.39738,"is_reserved":false,"is_disabled":true,"rental_uris":{"android":"levelo://app?vid=84b58d90-bb57-4bdb-8485-62b6e661a441","ios":"levelo://app?vid=84b58d90-bb57-4bdb-8485-62b6e661a441"},"vehicle_type_id":"4","last_reported":1744881039,"current_range_meters":9200,"station_id":"ce4bhn12rcd13ifvqgpg","pricing_plan_id":"cebpf4jnsgd1na2vs0mg"},{"bike_id":"d039d2b4-40e8-4f5c-af2b-a64b88326650","system_id":"levelo_inurba_marseille","lat":43.25932,"lon":5.40891,"is_reserved":false,"is_disabled":false,"rental_uris":{"android":"levelo://app?vid=d039d2b4-40e8-4f5c-af2b-a64b88326650","ios":"levelo://app?vid=d039d2b4-40e8-4f5c-af2b-a64b88326650"},"vehicle_type_id":"4","last_reported":1744881039,"current_range_meters":9200,"station_id":"ce4bhm92rcd13ifvqglg","pricing_plan_id":"cebpf4jnsgd1na2vs0mg"},{"bike_id":"c4a6513a-d4a4-4dae-a9c5-295c6d3810c3","system_id":"levelo_inurba_marseille","lat":43.30949,"lon":5.39042,"is_reserved":false,"is_disabled":false,"rental_uris":{"android":"levelo://app?vid=c4a6513a-d4a4-4dae-a9c5-295c6d3810c3","ios":"levelo://app?vid=c4a6513a-d4a4-4dae-a9c5-295c6d3810c3"},"vehicle_type_id":"4","last_reported":1744881039,"current_range_meters":9200,"station_id":"ce4bgup2rcd13ifvqco0","pricing_plan_id":"cebpf4jnsgd1na2vs0mg"},{"bike_id":"3419a327-3cfa-41d5-9afd-a9cef45b2989","system_id":"levelo_inurba_marseille","lat":43.27319,"lon":5.39069,"is_reserved":false,"is_disabled":false,"rental_uris":{"android":"levelo://app?vid=3419a327-3cfa-41d5-9afd-a9cef45b2989","ios":"levelo://app?vid=3419a327-3cfa-41d5-9afd-a9cef45b2989"},"vehicle_type_id":"4","last_reported":1744881039,"current_range_meters":9200,"station_id":"ce4bhgp2rcd13ifvqfe0","pricing_plan_id":"cebpf4jnsgd1na2vs0mg"},{"bike_id":"17d425c7-2ff7-47af-abf9-ee9063cee3be","system_id":"levelo_inurba_marseille","lat":43.33607,"lon":5.41002,"is_reserved":false,"is_disabled":false,"rental_uris":{"android":"levelo://app?vid=17d425c7-2ff7-47af-abf9-ee9063cee3be","ios":"levelo://app?vid=17d425c7-2ff7-47af-abf9-ee9063cee3be"},"vehicle_type_id":"4","last_reported":1744881039,"current_range_meters":9200,"station_id":"ce4bhqh2rcd13ifvqhmg","pricing_plan_id":"cebpf4jnsgd1na2vs0mg"},{"bike_id":"af25fc65-cc8d-4cc6-b6ca-794b13ed0e05","system_id":"levelo_inurba_marseille","lat":43.30533,"lon":5.36717,"is_reserved":false,"is_disabled":false,"rental_uris":{"android":"levelo://app?vid=af25fc65-cc8d-4cc6-b6ca-794b13ed0e05","ios":"levelo://app?vid=af25fc65-cc8d-4cc6-b6ca-794b13ed0e05"},"vehicle_type_id":"4","last_reported":1744881039,"current_range_meters":9200,"station_id":"ce4bgrp2rcd13ifvqc9g","pricing_plan_id":"cebpf4jnsgd1na2vs0mg"},{"bike_id":"8ff58947-d896-4635-b515-ca6dc11b26b9","system_id":"levelo_inurba_marseille","lat":43.25931,"lon":5.40909,"is_reserved":false,"is_disabled":false,"rental_uris":{"android":"levelo://app?vid=8ff58947-d896-4635-b515-ca6dc11b26b9","ios":"levelo://app?vid=8ff58947-d896-4635-b515-ca6dc11b26b9"},"vehicle_type_id":"4","last_reported":1744881039,"current_range_meters":9200,"station_id":"ce4bhm92rcd13ifvqglg","pricing_plan_id":"cebpf4jnsgd1na2vs0mg"},{"bike_id":"cc660ce7-d27b-4993-972e-fcdcc06efb2d","system_id":"levelo_inurba_marseille","lat":43.290442,"lon":5.399571,"is_reserved":false,"is_disabled":false,"rental_uris":{"android":"levelo://app?vid=cc660ce7-d27b-4993-972e-fcdcc06efb2d","ios":"levelo://app?vid=cc660ce7-d27b-4993-972e-fcdcc06efb2d"},"vehicle_type_id":"4","last_reported":1744881039,"current_range_meters":9600,"station_id":"ce4bh392rcd13ifvqdm0","pricing_plan_id":"cebpf4jnsgd1na2vs0mg"},{"bike_id":"a089ecf6-aadd-4456-b3f6-5d195b287bfa","system_id":"levelo_inurba_marseille","lat":43.29942,"lon":5.36529,"is_reserved":false,"is_disabled":false,"rental_uris":{"android":"levelo://app?vid=a089ecf6-aadd-4456-b3f6-5d195b287bfa","ios":"levelo://app?vid=a089ecf6-aadd-4456-b3f6-5d195b287bfa"},"vehicle_type_id":"4","last_reported":1744881039,"current_range_meters":9600,"station_id":"ce4bgm92rcd13ifvqbr0","pricing_plan_id":"cebpf4jnsgd1na2vs0mg"},{"bike_id":"4e38bcb9-242e-4572-9e2d-e8d231d35def","system_id":"levelo_inurba_marseille","lat":43.23955,"lon":5.36635,"is_reserved":false,"is_disabled":false,"rental_uris":{"android":"levelo://app?vid=4e38bcb9-242e-4572-9e2d-e8d231d35def","ios":"levelo://app?vid=4e38bcb9-242e-4572-9e2d-e8d231d35def"},"vehicle_type_id":"4","last_reported":1744881039,"current_range_meters":9600,"station_id":"ce4bhi12rcd13ifvqfp0","pricing_plan_id":"cebpf4jnsgd1na2vs0mg"},{"bike_id":"834ec9e1-9d50-4bee-85ae-d1db335c55e5","system_id":"levelo_inurba_marseille","lat":43.31792,"lon":5.36906,"is_reserved":false,"is_disabled":false,"rental_uris":{"android":"levelo://app?vid=834ec9e1-9d50-4bee-85ae-d1db335c55e5","ios":"levelo://app?vid=834ec9e1-9d50-4bee-85ae-d1db335c55e5"},"vehicle_type_id":"4","last_reported":1744881039,"current_range_meters":9600,"station_id":"","pricing_plan_id":"cebpf4jnsgd1na2vs0mg"},{"bike_id":"6b263e6b-aafb-45b2-8f6c-e9526fac004d","system_id":"levelo_inurba_marseille","lat":43.25824,"lon":5.39423,"is_reserved":false,"is_disabled":false,"rental_uris":{"android":"levelo://app?vid=6b263e6b-aafb-45b2-8f6c-e9526fac004d","ios":"levelo://app?vid=6b263e6b-aafb-45b2-8f6c-e9526fac004d"},"vehicle_type_id":"4","last_reported":1744881039,"current_range_meters":9600,"station_id":"ce4bhip2rcd13ifvqft0","pricing_plan_id":"cebpf4jnsgd1na2vs0mg"},{"bike_id":"1a819fae-2a47-4ba9-8357-fa61875d73ca","system_id":"levelo_inurba_marseille","lat":43.24551,"lon":5.39522,"is_reserved":false,"is_disabled":false,"rental_uris":{"android":"levelo://app?vid=1a819fae-2a47-4ba9-8357-fa61875d73ca","ios":"levelo://app?vid=1a819fae-2a47-4ba9-8357-fa61875d73ca"},"vehicle_type_id":"4","last_reported":1744881039,"current_range_meters":9600,"station_id":"ce4bhlp2rcd13ifvqgjg","pricing_plan_id":"cebpf4jnsgd1na2vs0mg"},{"bike_id":"33a6722b-a378-4581-b569-bb0fe1ac4475","system_id":"levelo_inurba_marseille","lat":43.29984,"lon":5.3718,"is_reserved":false,"is_disabled":true,"rental_uris":{"android":"levelo://app?vid=33a6722b-a378-4581-b569-bb0fe1ac4475","ios":"levelo://app?vid=33a6722b-a378-4581-b569-bb0fe1ac4475"},"vehicle_type_id":"4","last_reported":1744881039,"current_range_meters":9600,"station_id":"ce4bgr92rcd13ifvqc7g","pricing_plan_id":"cebpf4jnsgd1na2vs0mg"},{"bike_id":"af88db6c-6ed6-4cd1-bda5-d2603147fa04","system_id":"levelo_inurba_marseille","lat":43.33614,"lon":5.40985,"is_reserved":false,"is_disabled":false,"rental_uris":{"android":"levelo://app?vid=af88db6c-6ed6-4cd1-bda5-d2603147fa04","ios":"levelo://app?vid=af88db6c-6ed6-4cd1-bda5-d2603147fa04"},"vehicle_type_id":"4","last_reported":1744881039,"current_range_meters":10000,"station_id":"ce4bhqh2rcd13ifvqhmg","pricing_plan_id":"cebpf4jnsgd1na2vs0mg"},{"bike_id":"ac0a62f6-2aec-40ce-8a46-55cb7b086727","system_id":"levelo_inurba_marseille","lat":43.28466,"lon":5.3588,"is_reserved":false,"is_disabled":false,"rental_uris":{"android":"levelo://app?vid=ac0a62f6-2aec-40ce-8a46-55cb7b086727","ios":"levelo://app?vid=ac0a62f6-2aec-40ce-8a46-55cb7b086727"},"vehicle_type_id":"4","last_reported":1744881039,"current_range_meters":9600,"station_id":"ce4bhah2rcd13ifvqei0","pricing_plan_id":"cebpf4jnsgd1na2vs0mg"},{"bike_id":"5eccede5-a092-4c79-861e-9ba408b79172","system_id":"levelo_inurba_marseille","lat":43.321018,"lon":5.367957,"is_reserved":false,"is_disabled":false,"rental_uris":{"android":"levelo://app?vid=5eccede5-a092-4c79-861e-9ba408b79172","ios":"levelo://app?vid=5eccede5-a092-4c79-861e-9ba408b79172"},"vehicle_type_id":"4","last_reported":1744881039,"current_range_meters":10000,"station_id":"ce4bhrh2rcd13ifvqhug","pricing_plan_id":"cebpf4jnsgd1na2vs0mg"},{"bike_id":"e06d49c3-720f-46c4-916c-cef1338107d7","system_id":"levelo_inurba_marseille","lat":43.32354,"lon":5.36765,"is_reserved":false,"is_disabled":false,"rental_uris":{"android":"levelo://app?vid=e06d49c3-720f-46c4-916c-cef1338107d7","ios":"levelo://app?vid=e06d49c3-720f-46c4-916c-cef1338107d7"},"vehicle_type_id":"4","last_reported":1744881039,"current_range_meters":10000,"station_id":"ce4bhsh2rcd13ifvqi2g","pricing_plan_id":"cebpf4jnsgd1na2vs0mg"},{"bike_id":"5df85a79-274c-4999-ab35-d1f225e8f5cd","system_id":"levelo_inurba_marseille","lat":43.31362,"lon":5.36715,"is_reserved":false,"is_disabled":false,"rental_uris":{"android":"levelo://app?vid=5df85a79-274c-4999-ab35-d1f225e8f5cd","ios":"levelo://app?vid=5df85a79-274c-4999-ab35-d1f225e8f5cd"},"vehicle_type_id":"4","last_reported":1744881039,"current_range_meters":10000,"station_id":"ce4bgr92rcd13ifvqc6g","pricing_plan_id":"cebpf4jnsgd1na2vs0mg"},{"bike_id":"1bdba7a7-a82e-4252-906c-80db6beb180e","system_id":"levelo_inurba_marseille","lat":43.24891,"lon":5.39414,"is_reserved":false,"is_disabled":false,"rental_uris":{"android":"levelo://app?vid=1bdba7a7-a82e-4252-906c-80db6beb180e","ios":"levelo://app?vid=1bdba7a7-a82e-4252-906c-80db6beb180e"},"vehicle_type_id":"4","last_reported":1744881039,"current_range_meters":10800,"station_id":"","pricing_plan_id":"cebpf4jnsgd1na2vs0mg"},{"bike_id":"cc7ac33d-b61e-49f5-ad83-554a3d040679","system_id":"levelo_inurba_marseille","lat":43.30467,"lon":5.37912,"is_reserved":false,"is_disabled":false,"rental_uris":{"android":"levelo://app?vid=cc7ac33d-b61e-49f5-ad83-554a3d040679","ios":"levelo://app?vid=cc7ac33d-b61e-49f5-ad83-554a3d040679"},"vehicle_type_id":"4","last_reported":1744881039,"current_range_meters":10800,"station_id":"ce4bgup2rcd13ifvqcn0","pricing_plan_id":"cebpf4jnsgd1na2vs0mg"},{"bike_id":"5a93d799-973b-4cf9-9d96-d6feba3f193d","system_id":"levelo_inurba_marseille","lat":43.24073,"lon":5.37735,"is_reserved":false,"is_disabled":true,"rental_uris":{"android":"levelo://app?vid=5a93d799-973b-4cf9-9d96-d6feba3f193d","ios":"levelo://app?vid=5a93d799-973b-4cf9-9d96-d6feba3f193d"},"vehicle_type_id":"4","last_reported":1744881039,"current_range_meters":11200,"station_id":"ce4bhnp2rcd13ifvqgvg","pricing_plan_id":"cebpf4jnsgd1na2vs0mg"},{"bike_id":"4c1ddfc7-5467-47b7-afaf-657a8d340b70","system_id":"levelo_inurba_marseille","lat":43.2592,"lon":5.4089,"is_reserved":false,"is_disabled":false,"rental_uris":{"android":"levelo://app?vid=4c1ddfc7-5467-47b7-afaf-657a8d340b70","ios":"levelo://app?vid=4c1ddfc7-5467-47b7-afaf-657a8d340b70"},"vehicle_type_id":"4","last_reported":1744881039,"current_range_meters":11200,"station_id":"ce4bhm92rcd13ifvqglg","pricing_plan_id":"cebpf4jnsgd1na2vs0mg"},{"bike_id":"56faa365-6eef-4646-bb31-e922c367b2fe","system_id":"levelo_inurba_marseille","lat":43.2593,"lon":5.40874,"is_reserved":false,"is_disabled":false,"rental_uris":{"android":"levelo://app?vid=56faa365-6eef-4646-bb31-e922c367b2fe","ios":"levelo://app?vid=56faa365-6eef-4646-bb31-e922c367b2fe"},"vehicle_type_id":"4","last_reported":1744881039,"current_range_meters":11200,"station_id":"ce4bhm92rcd13ifvqglg","pricing_plan_id":"cebpf4jnsgd1na2vs0mg"},{"bike_id":"4f3dfbf4-d1ae-44db-8110-b28c7d24107a","system_id":"levelo_inurba_marseille","lat":43.27073,"lon":5.40233,"is_reserved":false,"is_disabled":false,"rental_uris":{"android":"levelo://app?vid=4f3dfbf4-d1ae-44db-8110-b28c7d24107a","ios":"levelo://app?vid=4f3dfbf4-d1ae-44db-8110-b28c7d24107a"},"vehicle_type_id":"4","last_reported":1744881039,"current_range_meters":11600,"station_id":"ce4bhk92rcd13ifvqgc0","pricing_plan_id":"cebpf4jnsgd1na2vs0mg"},{"bike_id":"da3ab058-c6d6-485f-b98b-b00a61086bf9","system_id":"levelo_inurba_marseille","lat":43.29271,"lon":5.36856,"is_reserved":false,"is_disabled":false,"rental_uris":{"android":"levelo://app?vid=da3ab058-c6d6-485f-b98b-b00a61086bf9","ios":"levelo://app?vid=da3ab058-c6d6-485f-b98b-b00a61086bf9"},"vehicle_type_id":"4","last_reported":1744881039,"current_range_meters":11600,"station_id":"ce4bhbp2rcd13ifvqesg","pricing_plan_id":"cebpf4jnsgd1na2vs0mg"},{"bike_id":"44ac3e56-8798-42d8-a1cc-bd3af8b36a49","system_id":"levelo_inurba_marseille","lat":43.32279,"lon":5.38263,"is_reserved":false,"is_disabled":false,"rental_uris":{"android":"levelo://app?vid=44ac3e56-8798-42d8-a1cc-bd3af8b36a49","ios":"levelo://app?vid=44ac3e56-8798-42d8-a1cc-bd3af8b36a49"},"vehicle_type_id":"4","last_reported":1744881039,"current_range_meters":11600,"station_id":"ce4bhr12rcd13ifvqhqg","pricing_plan_id":"cebpf4jnsgd1na2vs0mg"},{"bike_id":"a829ae25-8f1a-4059-a4b7-5be1d885c516","system_id":"levelo_inurba_marseille","lat":43.3122,"lon":5.369,"is_reserved":false,"is_disabled":false,"rental_uris":{"android":"levelo://app?vid=a829ae25-8f1a-4059-a4b7-5be1d885c516","ios":"levelo://app?vid=a829ae25-8f1a-4059-a4b7-5be1d885c516"},"vehicle_type_id":"4","last_reported":1744881039,"current_range_meters":12000,"station_id":"ce4bgl92rcd13ifvqbq0","pricing_plan_id":"cebpf4jnsgd1na2vs0mg"},{"bike_id":"57406be6-c0b4-4691-8abf-3f6842e4ec81","system_id":"levelo_inurba_marseille","lat":43.28447,"lon":5.39184,"is_reserved":false,"is_disabled":true,"rental_uris":{"android":"levelo://app?vid=57406be6-c0b4-4691-8abf-3f6842e4ec81","ios":"levelo://app?vid=57406be6-c0b4-4691-8abf-3f6842e4ec81"},"vehicle_type_id":"4","last_reported":1744881039,"current_range_meters":12000,"station_id":"ce4bhoh2rcd13ifvqh5g","pricing_plan_id":"cebpf4jnsgd1na2vs0mg"},{"bike_id":"c3952952-4b52-49f4-b864-0656fcaf3b72","system_id":"levelo_inurba_marseille","lat":43.30965,"lon":5.39035,"is_reserved":false,"is_disabled":false,"rental_uris":{"android":"levelo://app?vid=c3952952-4b52-49f4-b864-0656fcaf3b72","ios":"levelo://app?vid=c3952952-4b52-49f4-b864-0656fcaf3b72"},"vehicle_type_id":"4","last_reported":1744881039,"current_range_meters":12400,"station_id":"ce4bgup2rcd13ifvqco0","pricing_plan_id":"cebpf4jnsgd1na2vs0mg"},{"bike_id":"2c3d3a3d-4f89-47fa-b961-2c1ba170afb7","system_id":"levelo_inurba_marseille","lat":43.27217,"lon":5.39188,"is_reserved":false,"is_disabled":false,"rental_uris":{"android":"levelo://app?vid=2c3d3a3d-4f89-47fa-b961-2c1ba170afb7","ios":"levelo://app?vid=2c3d3a3d-4f89-47fa-b961-2c1ba170afb7"},"vehicle_type_id":"4","last_reported":1744881039,"current_range_meters":12400,"station_id":"ce4bhhp2rcd13ifvqfm0","pricing_plan_id":"cebpf4jnsgd1na2vs0mg"},{"bike_id":"89284911-e80c-471a-8b5f-b374022a4bc4","system_id":"levelo_inurba_marseille","lat":43.30166,"lon":5.37417,"is_reserved":false,"is_disabled":false,"rental_uris":{"android":"levelo://app?vid=89284911-e80c-471a-8b5f-b374022a4bc4","ios":"levelo://app?vid=89284911-e80c-471a-8b5f-b374022a4bc4"},"vehicle_type_id":"4","last_reported":1744881039,"current_range_meters":12400,"station_id":"ce4bgs92rcd13ifvqcc0","pricing_plan_id":"cebpf4jnsgd1na2vs0mg"},{"bike_id":"03bf794e-97dd-4c67-ae28-5cd291d0b4c4","system_id":"levelo_inurba_marseille","lat":43.30104,"lon":5.38084,"is_reserved":false,"is_disabled":false,"rental_uris":{"android":"levelo://app?vid=03bf794e-97dd-4c67-ae28-5cd291d0b4c4","ios":"levelo://app?vid=03bf794e-97dd-4c67-ae28-5cd291d0b4c4"},"vehicle_type_id":"4","last_reported":1744881039,"current_range_meters":12400,"station_id":"ce4bgjp2rcd13ifvqbh0","pricing_plan_id":"cebpf4jnsgd1na2vs0mg"},{"bike_id":"b3368a4b-172f-436c-89f1-5b68b3612fbc","system_id":"levelo_inurba_marseille","lat":43.295477,"lon":5.42276,"is_reserved":false,"is_disabled":false,"rental_uris":{"android":"levelo://app?vid=b3368a4b-172f-436c-89f1-5b68b3612fbc","ios":"levelo://app?vid=b3368a4b-172f-436c-89f1-5b68b3612fbc"},"vehicle_type_id":"4","last_reported":1744881039,"current_range_meters":12800,"station_id":"ce4bhph2rcd13ifvqhdg","pricing_plan_id":"cebpf4jnsgd1na2vs0mg"},{"bike_id":"6b167838-79e8-4b8d-95e8-60926f312d86","system_id":"levelo_inurba_marseille","lat":43.29183,"lon":5.37155,"is_reserved":false,"is_disabled":false,"rental_uris":{"android":"levelo://app?vid=6b167838-79e8-4b8d-95e8-60926f312d86","ios":"levelo://app?vid=6b167838-79e8-4b8d-95e8-60926f312d86"},"vehicle_type_id":"4","last_reported":1744881039,"current_range_meters":12800,"station_id":"ce4bha92rcd13ifvqeh0","pricing_plan_id":"cebpf4jnsgd1na2vs0mg"},{"bike_id":"96b29ce6-b923-4df2-8cfe-345c6517113c","system_id":"levelo_inurba_marseille","lat":43.312094,"lon":5.386551,"is_reserved":false,"is_disabled":false,"rental_uris":{"android":"levelo://app?vid=96b29ce6-b923-4df2-8cfe-345c6517113c","ios":"levelo://app?vid=96b29ce6-b923-4df2-8cfe-345c6517113c"},"vehicle_type_id":"4","last_reported":1744881039,"current_range_meters":12800,"station_id":"ce4bgv12rcd13ifvqcp0","pricing_plan_id":"cebpf4jnsgd1na2vs0mg"},{"bike_id":"da0699e6-fffb-42fd-bda2-fa249cfedfd8","system_id":"levelo_inurba_marseille","lat":43.31481,"lon":5.37302,"is_reserved":false,"is_disabled":false,"rental_uris":{"android":"levelo://app?vid=da0699e6-fffb-42fd-bda2-fa249cfedfd8","ios":"levelo://app?vid=da0699e6-fffb-42fd-bda2-fa249cfedfd8"},"vehicle_type_id":"4","last_reported":1744881039,"current_range_meters":13600,"station_id":"ce4bgt12rcd13ifvqcd0","pricing_plan_id":"cebpf4jnsgd1na2vs0mg"},{"bike_id":"ff935f1c-246d-4e07-a399-40ad7e059de5","system_id":"levelo_inurba_marseille","lat":43.25508,"lon":5.37647,"is_reserved":false,"is_disabled":true,"rental_uris":{"android":"levelo://app?vid=ff935f1c-246d-4e07-a399-40ad7e059de5","ios":"levelo://app?vid=ff935f1c-246d-4e07-a399-40ad7e059de5"},"vehicle_type_id":"4","last_reported":1744881039,"current_range_meters":13600,"station_id":"ce4bhh12rcd13ifvqff0","pricing_plan_id":"cebpf4jnsgd1na2vs0mg"},{"bike_id":"9ae4de2b-65d6-4c8d-9fd9-eb2927f36e22","system_id":"levelo_inurba_marseille","lat":43.23348,"lon":5.36459,"is_reserved":false,"is_disabled":false,"rental_uris":{"android":"levelo://app?vid=9ae4de2b-65d6-4c8d-9fd9-eb2927f36e22","ios":"levelo://app?vid=9ae4de2b-65d6-4c8d-9fd9-eb2927f36e22"},"vehicle_type_id":"4","last_reported":1744881039,"current_range_meters":13600,"station_id":"","pricing_plan_id":"cebpf4jnsgd1na2vs0mg"},{"bike_id":"fe552450-c0a0-482b-ad4d-745c7e3315b5","system_id":"levelo_inurba_marseille","lat":43.23966,"lon":5.36632,"is_reserved":false,"is_disabled":false,"rental_uris":{"android":"levelo://app?vid=fe552450-c0a0-482b-ad4d-745c7e3315b5","ios":"levelo://app?vid=fe552450-c0a0-482b-ad4d-745c7e3315b5"},"vehicle_type_id":"4","last_reported":1744881039,"current_range_meters":14400,"station_id":"ce4bhi12rcd13ifvqfp0","pricing_plan_id":"cebpf4jnsgd1na2vs0mg"},{"bike_id":"0b7b9afc-b2db-43f5-aeb8-7a1248a5408e","system_id":"levelo_inurba_marseille","lat":43.31287,"lon":5.37757,"is_reserved":false,"is_disabled":false,"rental_uris":{"android":"levelo://app?vid=0b7b9afc-b2db-43f5-aeb8-7a1248a5408e","ios":"levelo://app?vid=0b7b9afc-b2db-43f5-aeb8-7a1248a5408e"},"vehicle_type_id":"4","last_reported":1744881039,"current_range_meters":14400,"station_id":"","pricing_plan_id":"cebpf4jnsgd1na2vs0mg"},{"bike_id":"949deb4f-0a26-48b5-89a7-d4ca42bdbbd3","system_id":"levelo_inurba_marseille","lat":43.30113,"lon":5.3907,"is_reserved":false,"is_disabled":false,"rental_uris":{"android":"levelo://app?vid=949deb4f-0a26-48b5-89a7-d4ca42bdbbd3","ios":"levelo://app?vid=949deb4f-0a26-48b5-89a7-d4ca42bdbbd3"},"vehicle_type_id":"4","last_reported":1744881039,"current_range_meters":14400,"station_id":"ce4bh192rcd13ifvqdb0","pricing_plan_id":"cebpf4jnsgd1na2vs0mg"},{"bike_id":"ec8c9ac7-1e95-4171-97f3-226ce1e3c951","system_id":"levelo_inurba_marseille","lat":43.32109,"lon":5.36799,"is_reserved":false,"is_disabled":false,"rental_uris":{"android":"levelo://app?vid=ec8c9ac7-1e95-4171-97f3-226ce1e3c951","ios":"levelo://app?vid=ec8c9ac7-1e95-4171-97f3-226ce1e3c951"},"vehicle_type_id":"4","last_reported":1744881039,"current_range_meters":14800,"station_id":"ce4bhrh2rcd13ifvqhug","pricing_plan_id":"cebpf4jnsgd1na2vs0mg"},{"bike_id":"6b2d7d4a-c5ab-403d-bef9-a9de96cca6da","system_id":"levelo_inurba_marseille","lat":43.30193,"lon":5.36618,"is_reserved":false,"is_disabled":false,"rental_uris":{"android":"levelo://app?vid=6b2d7d4a-c5ab-403d-bef9-a9de96cca6da","ios":"levelo://app?vid=6b2d7d4a-c5ab-403d-bef9-a9de96cca6da"},"vehicle_type_id":"4","last_reported":1744881039,"current_range_meters":14800,"station_id":"ce4bgrh2rcd13ifvqc8g","pricing_plan_id":"cebpf4jnsgd1na2vs0mg"},{"bike_id":"da8950e0-8d23-4f66-aaca-45d3a4fe8164","system_id":"levelo_inurba_marseille","lat":43.31234,"lon":5.36892,"is_reserved":false,"is_disabled":false,"rental_uris":{"android":"levelo://app?vid=da8950e0-8d23-4f66-aaca-45d3a4fe8164","ios":"levelo://app?vid=da8950e0-8d23-4f66-aaca-45d3a4fe8164"},"vehicle_type_id":"4","last_reported":1744881039,"current_range_meters":14800,"station_id":"ce4bgl92rcd13ifvqbq0","pricing_plan_id":"cebpf4jnsgd1na2vs0mg"},{"bike_id":"f9294aff-5b6f-4d62-9db7-b7bdca4ffaf5","system_id":"levelo_inurba_marseille","lat":43.32542,"lon":5.41425,"is_reserved":false,"is_disabled":true,"rental_uris":{"android":"levelo://app?vid=f9294aff-5b6f-4d62-9db7-b7bdca4ffaf5","ios":"levelo://app?vid=f9294aff-5b6f-4d62-9db7-b7bdca4ffaf5"},"vehicle_type_id":"4","last_reported":1744881039,"current_range_meters":14800,"station_id":"ce4bhq12rcd13ifvqhhg","pricing_plan_id":"cebpf4jnsgd1na2vs0mg"},{"bike_id":"5feb23f3-9770-4b8b-b11f-fd7b74e675e5","system_id":"levelo_inurba_marseille","lat":43.29843,"lon":5.3628,"is_reserved":false,"is_disabled":false,"rental_uris":{"android":"levelo://app?vid=5feb23f3-9770-4b8b-b11f-fd7b74e675e5","ios":"levelo://app?vid=5feb23f3-9770-4b8b-b11f-fd7b74e675e5"},"vehicle_type_id":"4","last_reported":1744881039,"current_range_meters":14400,"station_id":"ce4bgpp2rcd13ifvqc3g","pricing_plan_id":"cebpf4jnsgd1na2vs0mg"},{"bike_id":"59c2e1e0-94da-4452-9b76-84ff52f79e63","system_id":"levelo_inurba_marseille","lat":43.312388,"lon":5.368641,"is_reserved":false,"is_disabled":false,"rental_uris":{"android":"levelo://app?vid=59c2e1e0-94da-4452-9b76-84ff52f79e63","ios":"levelo://app?vid=59c2e1e0-94da-4452-9b76-84ff52f79e63"},"vehicle_type_id":"4","last_reported":1744881039,"current_range_meters":15200,"station_id":"ce4bgl92rcd13ifvqbq0","pricing_plan_id":"cebpf4jnsgd1na2vs0mg"},{"bike_id":"40f21402-eed0-4256-816e-6cf17d773ef3","system_id":"levelo_inurba_marseille","lat":43.30142,"lon":5.37422,"is_reserved":false,"is_disabled":false,"rental_uris":{"android":"levelo://app?vid=40f21402-eed0-4256-816e-6cf17d773ef3","ios":"levelo://app?vid=40f21402-eed0-4256-816e-6cf17d773ef3"},"vehicle_type_id":"4","last_reported":1744881039,"current_range_meters":15200,"station_id":"ce4bgs92rcd13ifvqcc0","pricing_plan_id":"cebpf4jnsgd1na2vs0mg"},{"bike_id":"c226f634-0881-455e-9e75-ba9229ed6ed9","system_id":"levelo_inurba_marseille","lat":43.29622,"lon":5.37729,"is_reserved":false,"is_disabled":false,"rental_uris":{"android":"levelo://app?vid=c226f634-0881-455e-9e75-ba9229ed6ed9","ios":"levelo://app?vid=c226f634-0881-455e-9e75-ba9229ed6ed9"},"vehicle_type_id":"4","last_reported":1744881039,"current_range_meters":15200,"station_id":"ce4bgi92rcd13ifvqb90","pricing_plan_id":"cebpf4jnsgd1na2vs0mg"},{"bike_id":"dc88ca14-385b-47d2-8f34-ba0ff66a2869","system_id":"levelo_inurba_marseille","lat":43.30919,"lon":5.37887,"is_reserved":false,"is_disabled":false,"rental_uris":{"android":"levelo://app?vid=dc88ca14-385b-47d2-8f34-ba0ff66a2869","ios":"levelo://app?vid=dc88ca14-385b-47d2-8f34-ba0ff66a2869"},"vehicle_type_id":"4","last_reported":1744881039,"current_range_meters":15200,"station_id":"","pricing_plan_id":"cebpf4jnsgd1na2vs0mg"},{"bike_id":"173d39b4-7a97-4693-9385-db8bda0fe199","system_id":"levelo_inurba_marseille","lat":43.21741,"lon":5.34602,"is_reserved":false,"is_disabled":true,"rental_uris":{"android":"levelo://app?vid=173d39b4-7a97-4693-9385-db8bda0fe199","ios":"levelo://app?vid=173d39b4-7a97-4693-9385-db8bda0fe199"},"vehicle_type_id":"4","last_reported":1744881039,"current_range_meters":16000,"station_id":"","pricing_plan_id":"cebpf4jnsgd1na2vs0mg"},{"bike_id":"0291b7a7-5f86-48ec-8437-eba04e7bafe8","system_id":"levelo_inurba_marseille","lat":43.32359,"lon":5.36745,"is_reserved":false,"is_disabled":false,"rental_uris":{"android":"levelo://app?vid=0291b7a7-5f86-48ec-8437-eba04e7bafe8","ios":"levelo://app?vid=0291b7a7-5f86-48ec-8437-eba04e7bafe8"},"vehicle_type_id":"4","last_reported":1744881039,"current_range_meters":16000,"station_id":"ce4bhsh2rcd13ifvqi2g","pricing_plan_id":"cebpf4jnsgd1na2vs0mg"},{"bike_id":"c0f306c5-f2c6-43de-abd7-9a4cfb7a2937","system_id":"levelo_inurba_marseille","lat":43.304599,"lon":5.379063,"is_reserved":false,"is_disabled":false,"rental_uris":{"android":"levelo://app?vid=c0f306c5-f2c6-43de-abd7-9a4cfb7a2937","ios":"levelo://app?vid=c0f306c5-f2c6-43de-abd7-9a4cfb7a2937"},"vehicle_type_id":"4","last_reported":1744881039,"current_range_meters":15200,"station_id":"ce4bgl12rcd13ifvqbo0","pricing_plan_id":"cebpf4jnsgd1na2vs0mg"},{"bike_id":"3443e20f-59c8-4682-b755-5319bb73ea6f","system_id":"levelo_inurba_marseille","lat":43.28659,"lon":5.3634,"is_reserved":false,"is_disabled":false,"rental_uris":{"android":"levelo://app?vid=3443e20f-59c8-4682-b755-5319bb73ea6f","ios":"levelo://app?vid=3443e20f-59c8-4682-b755-5319bb73ea6f"},"vehicle_type_id":"4","last_reported":1744881039,"current_range_meters":16000,"station_id":"ce4bhah2rcd13ifvqej0","pricing_plan_id":"cebpf4jnsgd1na2vs0mg"},{"bike_id":"3af48173-ba90-4f90-a09a-afe24b29a50c","system_id":"levelo_inurba_marseille","lat":43.241744,"lon":5.3973,"is_reserved":false,"is_disabled":false,"rental_uris":{"android":"levelo://app?vid=3af48173-ba90-4f90-a09a-afe24b29a50c","ios":"levelo://app?vid=3af48173-ba90-4f90-a09a-afe24b29a50c"},"vehicle_type_id":"4","last_reported":1744881039,"current_range_meters":16400,"station_id":"ce4bhn12rcd13ifvqgpg","pricing_plan_id":"cebpf4jnsgd1na2vs0mg"},{"bike_id":"efde32c9-561c-4692-9fba-2cc47bb4e18e","system_id":"levelo_inurba_marseille","lat":43.27569,"lon":5.38422,"is_reserved":false,"is_disabled":false,"rental_uris":{"android":"levelo://app?vid=efde32c9-561c-4692-9fba-2cc47bb4e18e","ios":"levelo://app?vid=efde32c9-561c-4692-9fba-2cc47bb4e18e"},"vehicle_type_id":"4","last_reported":1744881039,"current_range_meters":16000,"station_id":"ce4bhh92rcd13ifvqfi0","pricing_plan_id":"cebpf4jnsgd1na2vs0mg"},{"bike_id":"2d150546-1b6c-4e70-9d11-12a41294af18","system_id":"levelo_inurba_marseille","lat":43.301846,"lon":5.366314,"is_reserved":false,"is_disabled":false,"rental_uris":{"android":"levelo://app?vid=2d150546-1b6c-4e70-9d11-12a41294af18","ios":"levelo://app?vid=2d150546-1b6c-4e70-9d11-12a41294af18"},"vehicle_type_id":"4","last_reported":1744881039,"current_range_meters":16400,"station_id":"ce4bgl92rcd13ifvqbq0","pricing_plan_id":"cebpf4jnsgd1na2vs0mg"},{"bike_id":"78154f9e-a675-40b5-aedc-448676d3a498","system_id":"levelo_inurba_marseille","lat":43.3059,"lon":5.36683,"is_reserved":false,"is_disabled":false,"rental_uris":{"android":"levelo://app?vid=78154f9e-a675-40b5-aedc-448676d3a498","ios":"levelo://app?vid=78154f9e-a675-40b5-aedc-448676d3a498"},"vehicle_type_id":"4","last_reported":1744881039,"current_range_meters":16800,"station_id":"ce4bgrp2rcd13ifvqc9g","pricing_plan_id":"cebpf4jnsgd1na2vs0mg"},{"bike_id":"d750596a-6ac6-4755-84cc-45acd4464f3d","system_id":"levelo_inurba_marseille","lat":43.24393,"lon":5.37075,"is_reserved":false,"is_disabled":false,"rental_uris":{"android":"levelo://app?vid=d750596a-6ac6-4755-84cc-45acd4464f3d","ios":"levelo://app?vid=d750596a-6ac6-4755-84cc-45acd4464f3d"},"vehicle_type_id":"4","last_reported":1744881039,"current_range_meters":16800,"station_id":"ce4bhhh2rcd13ifvqfk0","pricing_plan_id":"cebpf4jnsgd1na2vs0mg"},{"bike_id":"41fb0398-f2fe-4abb-ae37-a38f47615ea9","system_id":"levelo_inurba_marseille","lat":43.32323,"lon":5.3666,"is_reserved":false,"is_disabled":false,"rental_uris":{"android":"levelo://app?vid=41fb0398-f2fe-4abb-ae37-a38f47615ea9","ios":"levelo://app?vid=41fb0398-f2fe-4abb-ae37-a38f47615ea9"},"vehicle_type_id":"4","last_reported":1744881039,"current_range_meters":16800,"station_id":"","pricing_plan_id":"cebpf4jnsgd1na2vs0mg"},{"bike_id":"e14c265e-eca3-4791-a3e7-f534121ae166","system_id":"levelo_inurba_marseille","lat":43.229318,"lon":5.35378,"is_reserved":false,"is_disabled":false,"rental_uris":{"android":"levelo://app?vid=e14c265e-eca3-4791-a3e7-f534121ae166","ios":"levelo://app?vid=e14c265e-eca3-4791-a3e7-f534121ae166"},"vehicle_type_id":"4","last_reported":1744881039,"current_range_meters":16800,"station_id":"","pricing_plan_id":"cebpf4jnsgd1na2vs0mg"},{"bike_id":"fb982aae-6808-4a93-a829-fa9507c310e0","system_id":"levelo_inurba_marseille","lat":43.2958,"lon":5.37521,"is_reserved":false,"is_disabled":false,"rental_uris":{"android":"levelo://app?vid=fb982aae-6808-4a93-a829-fa9507c310e0","ios":"levelo://app?vid=fb982aae-6808-4a93-a829-fa9507c310e0"},"vehicle_type_id":"4","last_reported":1744881039,"current_range_meters":16800,"station_id":"ce4bgh92rcd13ifvqb50","pricing_plan_id":"cebpf4jnsgd1na2vs0mg"},{"bike_id":"316f1278-2622-4449-a714-0504bd336aeb","system_id":"levelo_inurba_marseille","lat":43.31511,"lon":5.37279,"is_reserved":false,"is_disabled":false,"rental_uris":{"android":"levelo://app?vid=316f1278-2622-4449-a714-0504bd336aeb","ios":"levelo://app?vid=316f1278-2622-4449-a714-0504bd336aeb"},"vehicle_type_id":"4","last_reported":1744881039,"current_range_meters":16800,"station_id":"ce4bgt12rcd13ifvqcd0","pricing_plan_id":"cebpf4jnsgd1na2vs0mg"},{"bike_id":"d6c5720c-1e06-4c89-b576-56458ef13672","system_id":"levelo_inurba_marseille","lat":43.30309,"lon":5.3921,"is_reserved":false,"is_disabled":false,"rental_uris":{"android":"levelo://app?vid=d6c5720c-1e06-4c89-b576-56458ef13672","ios":"levelo://app?vid=d6c5720c-1e06-4c89-b576-56458ef13672"},"vehicle_type_id":"4","last_reported":1744881039,"current_range_meters":16800,"station_id":"ce4bgkh2rcd13ifvqbk0","pricing_plan_id":"cebpf4jnsgd1na2vs0mg"},{"bike_id":"0f1b0350-e08d-4977-9b7e-d9b764fb1cd0","system_id":"levelo_inurba_marseille","lat":43.28356,"lon":5.3864,"is_reserved":false,"is_disabled":false,"rental_uris":{"android":"levelo://app?vid=0f1b0350-e08d-4977-9b7e-d9b764fb1cd0","ios":"levelo://app?vid=0f1b0350-e08d-4977-9b7e-d9b764fb1cd0"},"vehicle_type_id":"4","last_reported":1744881039,"current_range_meters":16800,"station_id":"ce4bh492rcd13ifvqdvg","pricing_plan_id":"cebpf4jnsgd1na2vs0mg"},{"bike_id":"373635db-b1fd-41c4-8fe2-6a97768d7602","system_id":"levelo_inurba_marseille","lat":43.27371,"lon":5.36263,"is_reserved":false,"is_disabled":false,"rental_uris":{"android":"levelo://app?vid=373635db-b1fd-41c4-8fe2-6a97768d7602","ios":"levelo://app?vid=373635db-b1fd-41c4-8fe2-6a97768d7602"},"vehicle_type_id":"4","last_reported":1744881039,"current_range_meters":17200,"station_id":"ce4bhbh2rcd13ifvqeo0","pricing_plan_id":"cebpf4jnsgd1na2vs0mg"},{"bike_id":"cd89367d-f88e-4e82-bea3-5b02e4244e45","system_id":"levelo_inurba_marseille","lat":43.27069,"lon":5.42284,"is_reserved":false,"is_disabled":false,"rental_uris":{"android":"levelo://app?vid=cd89367d-f88e-4e82-bea3-5b02e4244e45","ios":"levelo://app?vid=cd89367d-f88e-4e82-bea3-5b02e4244e45"},"vehicle_type_id":"4","last_reported":1744881039,"current_range_meters":17200,"station_id":"ce4bhk92rcd13ifvqgb0","pricing_plan_id":"cebpf4jnsgd1na2vs0mg"},{"bike_id":"5e1950f1-3570-4e07-a7cc-3dbf8a21d845","system_id":"levelo_inurba_marseille","lat":43.28137,"lon":5.42672,"is_reserved":false,"is_disabled":false,"rental_uris":{"android":"levelo://app?vid=5e1950f1-3570-4e07-a7cc-3dbf8a21d845","ios":"levelo://app?vid=5e1950f1-3570-4e07-a7cc-3dbf8a21d845"},"vehicle_type_id":"4","last_reported":1744881039,"current_range_meters":17200,"station_id":"ce4bhnh2rcd13ifvqgug","pricing_plan_id":"cebpf4jnsgd1na2vs0mg"},{"bike_id":"a39e4da7-b045-4423-b704-4a0ced7a3226","system_id":"levelo_inurba_marseille","lat":43.30954,"lon":5.39041,"is_reserved":false,"is_disabled":false,"rental_uris":{"android":"levelo://app?vid=a39e4da7-b045-4423-b704-4a0ced7a3226","ios":"levelo://app?vid=a39e4da7-b045-4423-b704-4a0ced7a3226"},"vehicle_type_id":"4","last_reported":1744881039,"current_range_meters":16800,"station_id":"ce4bgup2rcd13ifvqco0","pricing_plan_id":"cebpf4jnsgd1na2vs0mg"},{"bike_id":"aa1991b7-35d8-49f9-8406-7c423d7b2751","system_id":"levelo_inurba_marseille","lat":43.292,"lon":5.3933,"is_reserved":false,"is_disabled":false,"rental_uris":{"android":"levelo://app?vid=aa1991b7-35d8-49f9-8406-7c423d7b2751","ios":"levelo://app?vid=aa1991b7-35d8-49f9-8406-7c423d7b2751"},"vehicle_type_id":"4","last_reported":1744881039,"current_range_meters":17600,"station_id":"ce4bh192rcd13ifvqdd0","pricing_plan_id":"cebpf4jnsgd1na2vs0mg"},{"bike_id":"502eb57f-58c1-46b5-bbab-f82b11336169","system_id":"levelo_inurba_marseille","lat":43.30531,"lon":5.36546,"is_reserved":false,"is_disabled":false,"rental_uris":{"android":"levelo://app?vid=502eb57f-58c1-46b5-bbab-f82b11336169","ios":"levelo://app?vid=502eb57f-58c1-46b5-bbab-f82b11336169"},"vehicle_type_id":"4","last_reported":1744881039,"current_range_meters":17600,"station_id":"ce4bgs12rcd13ifvqcag","pricing_plan_id":"cebpf4jnsgd1na2vs0mg"},{"bike_id":"60c41a03-0aff-48f0-80b8-3a46c9010b24","system_id":"levelo_inurba_marseille","lat":43.30585,"lon":5.39361,"is_reserved":false,"is_disabled":false,"rental_uris":{"android":"levelo://app?vid=60c41a03-0aff-48f0-80b8-3a46c9010b24","ios":"levelo://app?vid=60c41a03-0aff-48f0-80b8-3a46c9010b24"},"vehicle_type_id":"4","last_reported":1744881039,"current_range_meters":17600,"station_id":"ce4bh0p2rcd13ifvqd80","pricing_plan_id":"cebpf4jnsgd1na2vs0mg"},{"bike_id":"3fea615b-e4ab-4448-ba79-320c684b4d2e","system_id":"levelo_inurba_marseille","lat":43.29264,"lon":5.37626,"is_reserved":false,"is_disabled":false,"rental_uris":{"android":"levelo://app?vid=3fea615b-e4ab-4448-ba79-320c684b4d2e","ios":"levelo://app?vid=3fea615b-e4ab-4448-ba79-320c684b4d2e"},"vehicle_type_id":"4","last_reported":1744881039,"current_range_meters":17600,"station_id":"ce4bgi12rcd13ifvqb80","pricing_plan_id":"cebpf4jnsgd1na2vs0mg"},{"bike_id":"fd1df286-7165-4182-a141-85501f34964f","system_id":"levelo_inurba_marseille","lat":43.29268,"lon":5.38445,"is_reserved":false,"is_disabled":false,"rental_uris":{"android":"levelo://app?vid=fd1df286-7165-4182-a141-85501f34964f","ios":"levelo://app?vid=fd1df286-7165-4182-a141-85501f34964f"},"vehicle_type_id":"4","last_reported":1744881039,"current_range_meters":17600,"station_id":"ce4bh692rcd13ifvqea0","pricing_plan_id":"cebpf4jnsgd1na2vs0mg"},{"bike_id":"042fb7b9-0ec7-4402-9592-2fd7f7e5efa3","system_id":"levelo_inurba_marseille","lat":43.320353,"lon":5.41574,"is_reserved":false,"is_disabled":false,"rental_uris":{"android":"levelo://app?vid=042fb7b9-0ec7-4402-9592-2fd7f7e5efa3","ios":"levelo://app?vid=042fb7b9-0ec7-4402-9592-2fd7f7e5efa3"},"vehicle_type_id":"4","last_reported":1744881039,"current_range_meters":18000,"station_id":"ce4bhq92rcd13ifvqhkg","pricing_plan_id":"cebpf4jnsgd1na2vs0mg"},{"bike_id":"a212017b-b8c9-4723-aa3d-180e11e4c4bf","system_id":"levelo_inurba_marseille","lat":43.29556,"lon":5.37513,"is_reserved":false,"is_disabled":false,"rental_uris":{"android":"levelo://app?vid=a212017b-b8c9-4723-aa3d-180e11e4c4bf","ios":"levelo://app?vid=a212017b-b8c9-4723-aa3d-180e11e4c4bf"},"vehicle_type_id":"4","last_reported":1744881039,"current_range_meters":18000,"station_id":"ce4bgh92rcd13ifvqb50","pricing_plan_id":"cebpf4jnsgd1na2vs0mg"},{"bike_id":"a17920db-4b7e-474c-ab57-3b97ec496a14","system_id":"levelo_inurba_marseille","lat":43.24166,"lon":5.39758,"is_reserved":false,"is_disabled":false,"rental_uris":{"android":"levelo://app?vid=a17920db-4b7e-474c-ab57-3b97ec496a14","ios":"levelo://app?vid=a17920db-4b7e-474c-ab57-3b97ec496a14"},"vehicle_type_id":"4","last_reported":1744881039,"current_range_meters":18000,"station_id":"ce4bhn12rcd13ifvqgpg","pricing_plan_id":"cebpf4jnsgd1na2vs0mg"},{"bike_id":"de82c0b6-3627-4f32-9540-2f29e2a656c1","system_id":"levelo_inurba_marseille","lat":43.32104,"lon":5.3677,"is_reserved":false,"is_disabled":false,"rental_uris":{"android":"levelo://app?vid=de82c0b6-3627-4f32-9540-2f29e2a656c1","ios":"levelo://app?vid=de82c0b6-3627-4f32-9540-2f29e2a656c1"},"vehicle_type_id":"4","last_reported":1744881039,"current_range_meters":18000,"station_id":"ce4bhrh2rcd13ifvqhug","pricing_plan_id":"cebpf4jnsgd1na2vs0mg"},{"bike_id":"05889502-1960-4626-b647-6be7781e2329","system_id":"levelo_inurba_marseille","lat":43.28634,"lon":5.35098,"is_reserved":false,"is_disabled":false,"rental_uris":{"android":"levelo://app?vid=05889502-1960-4626-b647-6be7781e2329","ios":"levelo://app?vid=05889502-1960-4626-b647-6be7781e2329"},"vehicle_type_id":"4","last_reported":1744881039,"current_range_meters":18000,"station_id":"ce4bhch2rcd13ifvqeug","pricing_plan_id":"cebpf4jnsgd1na2vs0mg"},{"bike_id":"a0ddb0a5-f7f0-4281-aa27-9e82747cc573","system_id":"levelo_inurba_marseille","lat":43.33754,"lon":5.37491,"is_reserved":false,"is_disabled":false,"rental_uris":{"android":"levelo://app?vid=a0ddb0a5-f7f0-4281-aa27-9e82747cc573","ios":"levelo://app?vid=a0ddb0a5-f7f0-4281-aa27-9e82747cc573"},"vehicle_type_id":"4","last_reported":1744881039,"current_range_meters":18000,"station_id":"","pricing_plan_id":"cebpf4jnsgd1na2vs0mg"},{"bike_id":"9fa73263-7426-4e4d-8efb-f8a523ae2ba1","system_id":"levelo_inurba_marseille","lat":43.30893,"lon":5.37197,"is_reserved":false,"is_disabled":false,"rental_uris":{"android":"levelo://app?vid=9fa73263-7426-4e4d-8efb-f8a523ae2ba1","ios":"levelo://app?vid=9fa73263-7426-4e4d-8efb-f8a523ae2ba1"},"vehicle_type_id":"4","last_reported":1744881039,"current_range_meters":18800,"station_id":"ce4bguh2rcd13ifvqckg","pricing_plan_id":"cebpf4jnsgd1na2vs0mg"},{"bike_id":"bbb1c662-cc65-4c72-8489-de78d2f0f12f","system_id":"levelo_inurba_marseille","lat":43.23067,"lon":5.35498,"is_reserved":false,"is_disabled":false,"rental_uris":{"android":"levelo://app?vid=bbb1c662-cc65-4c72-8489-de78d2f0f12f","ios":"levelo://app?vid=bbb1c662-cc65-4c72-8489-de78d2f0f12f"},"vehicle_type_id":"4","last_reported":1744881039,"current_range_meters":18800,"station_id":"cpo3342slgdg3j2ifvpg","pricing_plan_id":"cebpf4jnsgd1na2vs0mg"},{"bike_id":"7ed91d22-3d5b-4254-83bf-64eb2a7d5481","system_id":"levelo_inurba_marseille","lat":43.22507,"lon":5.34802,"is_reserved":false,"is_disabled":false,"rental_uris":{"android":"levelo://app?vid=7ed91d22-3d5b-4254-83bf-64eb2a7d5481","ios":"levelo://app?vid=7ed91d22-3d5b-4254-83bf-64eb2a7d5481"},"vehicle_type_id":"4","last_reported":1744881039,"current_range_meters":18800,"station_id":"","pricing_plan_id":"cebpf4jnsgd1na2vs0mg"},{"bike_id":"4db06d98-ef3f-4322-bb1a-56487e040895","system_id":"levelo_inurba_marseille","lat":43.24194,"lon":5.39745,"is_reserved":false,"is_disabled":false,"rental_uris":{"android":"levelo://app?vid=4db06d98-ef3f-4322-bb1a-56487e040895","ios":"levelo://app?vid=4db06d98-ef3f-4322-bb1a-56487e040895"},"vehicle_type_id":"4","last_reported":1744881039,"current_range_meters":18800,"station_id":"ce4bhn12rcd13ifvqgpg","pricing_plan_id":"cebpf4jnsgd1na2vs0mg"},{"bike_id":"04d24c1e-360c-4eca-97ff-fffa86588fd8","system_id":"levelo_inurba_marseille","lat":43.27322,"lon":5.39082,"is_reserved":false,"is_disabled":false,"rental_uris":{"android":"levelo://app?vid=04d24c1e-360c-4eca-97ff-fffa86588fd8","ios":"levelo://app?vid=04d24c1e-360c-4eca-97ff-fffa86588fd8"},"vehicle_type_id":"4","last_reported":1744881039,"current_range_meters":18800,"station_id":"ce4bhgp2rcd13ifvqfe0","pricing_plan_id":"cebpf4jnsgd1na2vs0mg"},{"bike_id":"84c48c85-9b00-408c-a761-1ac18b23fed5","system_id":"levelo_inurba_marseille","lat":43.24395,"lon":5.37066,"is_reserved":false,"is_disabled":true,"rental_uris":{"android":"levelo://app?vid=84c48c85-9b00-408c-a761-1ac18b23fed5","ios":"levelo://app?vid=84c48c85-9b00-408c-a761-1ac18b23fed5"},"vehicle_type_id":"4","last_reported":1744881039,"current_range_meters":18800,"station_id":"ce4bhhh2rcd13ifvqfk0","pricing_plan_id":"cebpf4jnsgd1na2vs0mg"},{"bike_id":"fa846a43-9da8-4144-b184-2d1ab74501c4","system_id":"levelo_inurba_marseille","lat":43.25925,"lon":5.40886,"is_reserved":false,"is_disabled":false,"rental_uris":{"android":"levelo://app?vid=fa846a43-9da8-4144-b184-2d1ab74501c4","ios":"levelo://app?vid=fa846a43-9da8-4144-b184-2d1ab74501c4"},"vehicle_type_id":"4","last_reported":1744881039,"current_range_meters":18800,"station_id":"ce4bhm92rcd13ifvqglg","pricing_plan_id":"cebpf4jnsgd1na2vs0mg"},{"bike_id":"ce03ad46-9270-40bd-95e3-665a24df5431","system_id":"levelo_inurba_marseille","lat":43.30483,"lon":5.37919,"is_reserved":false,"is_disabled":false,"rental_uris":{"android":"levelo://app?vid=ce03ad46-9270-40bd-95e3-665a24df5431","ios":"levelo://app?vid=ce03ad46-9270-40bd-95e3-665a24df5431"},"vehicle_type_id":"4","last_reported":1744881039,"current_range_meters":18800,"station_id":"ce4bgup2rcd13ifvqcn0","pricing_plan_id":"cebpf4jnsgd1na2vs0mg"},{"bike_id":"0af547ee-0928-4232-9589-d99004dda2ed","system_id":"levelo_inurba_marseille","lat":43.309494,"lon":5.390306,"is_reserved":false,"is_disabled":false,"rental_uris":{"android":"levelo://app?vid=0af547ee-0928-4232-9589-d99004dda2ed","ios":"levelo://app?vid=0af547ee-0928-4232-9589-d99004dda2ed"},"vehicle_type_id":"4","last_reported":1744881039,"current_range_meters":18800,"station_id":"ce4bgup2rcd13ifvqco0","pricing_plan_id":"cebpf4jnsgd1na2vs0mg"},{"bike_id":"727179f5-0c3a-45df-baf0-e85db52bfe04","system_id":"levelo_inurba_marseille","lat":43.288556,"lon":5.393132,"is_reserved":false,"is_disabled":false,"rental_uris":{"android":"levelo://app?vid=727179f5-0c3a-45df-baf0-e85db52bfe04","ios":"levelo://app?vid=727179f5-0c3a-45df-baf0-e85db52bfe04"},"vehicle_type_id":"4","last_reported":1744881039,"current_range_meters":18800,"station_id":"ce4bh2p2rcd13ifvqdi0","pricing_plan_id":"cebpf4jnsgd1na2vs0mg"},{"bike_id":"a514d395-39f7-4e9a-9140-2d828a875d5f","system_id":"levelo_inurba_marseille","lat":43.30954,"lon":5.39035,"is_reserved":false,"is_disabled":false,"rental_uris":{"android":"levelo://app?vid=a514d395-39f7-4e9a-9140-2d828a875d5f","ios":"levelo://app?vid=a514d395-39f7-4e9a-9140-2d828a875d5f"},"vehicle_type_id":"4","last_reported":1744881039,"current_range_meters":19200,"station_id":"ce4bgup2rcd13ifvqco0","pricing_plan_id":"cebpf4jnsgd1na2vs0mg"},{"bike_id":"5376db3a-f912-4a95-826f-4197746248f5","system_id":"levelo_inurba_marseille","lat":43.30376,"lon":5.42487,"is_reserved":false,"is_disabled":true,"rental_uris":{"android":"levelo://app?vid=5376db3a-f912-4a95-826f-4197746248f5","ios":"levelo://app?vid=5376db3a-f912-4a95-826f-4197746248f5"},"vehicle_type_id":"4","last_reported":1744881039,"current_range_meters":19200,"station_id":"ce4bhoh2rcd13ifvqh6g","pricing_plan_id":"cebpf4jnsgd1na2vs0mg"},{"bike_id":"2a2bab79-1315-45f2-b160-6232baedd935","system_id":"levelo_inurba_marseille","lat":43.29292,"lon":5.37475,"is_reserved":false,"is_disabled":false,"rental_uris":{"android":"levelo://app?vid=2a2bab79-1315-45f2-b160-6232baedd935","ios":"levelo://app?vid=2a2bab79-1315-45f2-b160-6232baedd935"},"vehicle_type_id":"4","last_reported":1744881039,"current_range_meters":19200,"station_id":"ce4bgi12rcd13ifvqb70","pricing_plan_id":"cebpf4jnsgd1na2vs0mg"},{"bike_id":"cc30662a-cc43-42c2-9e8d-a5ec9b5a6035","system_id":"levelo_inurba_marseille","lat":43.30281,"lon":5.37698,"is_reserved":false,"is_disabled":false,"rental_uris":{"android":"levelo://app?vid=cc30662a-cc43-42c2-9e8d-a5ec9b5a6035","ios":"levelo://app?vid=cc30662a-cc43-42c2-9e8d-a5ec9b5a6035"},"vehicle_type_id":"4","last_reported":1744881039,"current_range_meters":19200,"station_id":"ce4bguh2rcd13ifvqcj0","pricing_plan_id":"cebpf4jnsgd1na2vs0mg"},{"bike_id":"7eb8853e-3665-40f5-8308-1299f0674652","system_id":"levelo_inurba_marseille","lat":43.30382,"lon":5.42478,"is_reserved":false,"is_disabled":false,"rental_uris":{"android":"levelo://app?vid=7eb8853e-3665-40f5-8308-1299f0674652","ios":"levelo://app?vid=7eb8853e-3665-40f5-8308-1299f0674652"},"vehicle_type_id":"4","last_reported":1744881039,"current_range_meters":19200,"station_id":"ce4bhoh2rcd13ifvqh6g","pricing_plan_id":"cebpf4jnsgd1na2vs0mg"},{"bike_id":"80b8ef47-1efa-4a26-97fd-254797337830","system_id":"levelo_inurba_marseille","lat":43.32654,"lon":5.41003,"is_reserved":false,"is_disabled":false,"rental_uris":{"android":"levelo://app?vid=80b8ef47-1efa-4a26-97fd-254797337830","ios":"levelo://app?vid=80b8ef47-1efa-4a26-97fd-254797337830"},"vehicle_type_id":"4","last_reported":1744881039,"current_range_meters":19200,"station_id":"ce4bhpp2rcd13ifvqhgg","pricing_plan_id":"cebpf4jnsgd1na2vs0mg"},{"bike_id":"f94fc29f-580f-4be1-b7b9-2adb72581c04","system_id":"levelo_inurba_marseille","lat":43.27674,"lon":5.38877,"is_reserved":false,"is_disabled":false,"rental_uris":{"android":"levelo://app?vid=f94fc29f-580f-4be1-b7b9-2adb72581c04","ios":"levelo://app?vid=f94fc29f-580f-4be1-b7b9-2adb72581c04"},"vehicle_type_id":"4","last_reported":1744881039,"current_range_meters":19600,"station_id":"ce4bhi12rcd13ifvqfo0","pricing_plan_id":"cebpf4jnsgd1na2vs0mg"},{"bike_id":"03c9e03c-67c6-453d-8b38-cbed9721f95d","system_id":"levelo_inurba_marseille","lat":43.28614,"lon":5.35104,"is_reserved":false,"is_disabled":false,"rental_uris":{"android":"levelo://app?vid=03c9e03c-67c6-453d-8b38-cbed9721f95d","ios":"levelo://app?vid=03c9e03c-67c6-453d-8b38-cbed9721f95d"},"vehicle_type_id":"4","last_reported":1744881039,"current_range_meters":19600,"station_id":"ce4bhch2rcd13ifvqeug","pricing_plan_id":"cebpf4jnsgd1na2vs0mg"},{"bike_id":"cb9fbd32-dd02-453a-a7b2-e244f4e367b6","system_id":"levelo_inurba_marseille","lat":43.30933,"lon":5.40146,"is_reserved":false,"is_disabled":false,"rental_uris":{"android":"levelo://app?vid=cb9fbd32-dd02-453a-a7b2-e244f4e367b6","ios":"levelo://app?vid=cb9fbd32-dd02-453a-a7b2-e244f4e367b6"},"vehicle_type_id":"4","last_reported":1744881039,"current_range_meters":19600,"station_id":"ce4bgvp2rcd13ifvqct0","pricing_plan_id":"cebpf4jnsgd1na2vs0mg"},{"bike_id":"ef6e9c6f-8f69-4fcf-9727-b556a001e5bc","system_id":"levelo_inurba_marseille","lat":43.29549,"lon":5.42269,"is_reserved":false,"is_disabled":false,"rental_uris":{"android":"levelo://app?vid=ef6e9c6f-8f69-4fcf-9727-b556a001e5bc","ios":"levelo://app?vid=ef6e9c6f-8f69-4fcf-9727-b556a001e5bc"},"vehicle_type_id":"4","last_reported":1744881039,"current_range_meters":19600,"station_id":"ce4bhph2rcd13ifvqhdg","pricing_plan_id":"cebpf4jnsgd1na2vs0mg"},{"bike_id":"332d50ef-0349-465a-a3f8-a14d47a27c91","system_id":"levelo_inurba_marseille","lat":43.30531,"lon":5.36542,"is_reserved":false,"is_disabled":false,"rental_uris":{"android":"levelo://app?vid=332d50ef-0349-465a-a3f8-a14d47a27c91","ios":"levelo://app?vid=332d50ef-0349-465a-a3f8-a14d47a27c91"},"vehicle_type_id":"4","last_reported":1744881039,"current_range_meters":19600,"station_id":"ce4bgs12rcd13ifvqcag","pricing_plan_id":"cebpf4jnsgd1na2vs0mg"},{"bike_id":"33efbe4e-e642-4271-be29-4926b421ca5b","system_id":"levelo_inurba_marseille","lat":43.241601,"lon":5.364167,"is_reserved":false,"is_disabled":false,"rental_uris":{"android":"levelo://app?vid=33efbe4e-e642-4271-be29-4926b421ca5b","ios":"levelo://app?vid=33efbe4e-e642-4271-be29-4926b421ca5b"},"vehicle_type_id":"4","last_reported":1744881039,"current_range_meters":19600,"station_id":"cpo36qri1sfpv3e86is0","pricing_plan_id":"cebpf4jnsgd1na2vs0mg"},{"bike_id":"02bb3b75-d262-47b2-80a3-a50ba89b763c","system_id":"levelo_inurba_marseille","lat":43.24181,"lon":5.3973,"is_reserved":false,"is_disabled":false,"rental_uris":{"android":"levelo://app?vid=02bb3b75-d262-47b2-80a3-a50ba89b763c","ios":"levelo://app?vid=02bb3b75-d262-47b2-80a3-a50ba89b763c"},"vehicle_type_id":"4","last_reported":1744881039,"current_range_meters":19600,"station_id":"ce4bhn12rcd13ifvqgpg","pricing_plan_id":"cebpf4jnsgd1na2vs0mg"},{"bike_id":"549bf9a0-a1c7-4738-b653-5f78b1e71145","system_id":"levelo_inurba_marseille","lat":43.29192,"lon":5.35806,"is_reserved":false,"is_disabled":false,"rental_uris":{"android":"levelo://app?vid=549bf9a0-a1c7-4738-b653-5f78b1e71145","ios":"levelo://app?vid=549bf9a0-a1c7-4738-b653-5f78b1e71145"},"vehicle_type_id":"4","last_reported":1744881039,"current_range_meters":19600,"station_id":"ce4bhb12rcd13ifvqel0","pricing_plan_id":"cebpf4jnsgd1na2vs0mg"},{"bike_id":"37ea8d6b-4547-40f6-af0f-7c7b47c6b053","system_id":"levelo_inurba_marseille","lat":43.25576,"lon":5.38233,"is_reserved":false,"is_disabled":false,"rental_uris":{"android":"levelo://app?vid=37ea8d6b-4547-40f6-af0f-7c7b47c6b053","ios":"levelo://app?vid=37ea8d6b-4547-40f6-af0f-7c7b47c6b053"},"vehicle_type_id":"4","last_reported":1744881039,"current_range_meters":19600,"station_id":"ce4bhih2rcd13ifvqfs0","pricing_plan_id":"cebpf4jnsgd1na2vs0mg"},{"bike_id":"a3cb3541-e34e-4e91-96bd-3d2be11ba3ea","system_id":"levelo_inurba_marseille","lat":43.30469,"lon":5.37908,"is_reserved":false,"is_disabled":false,"rental_uris":{"android":"levelo://app?vid=a3cb3541-e34e-4e91-96bd-3d2be11ba3ea","ios":"levelo://app?vid=a3cb3541-e34e-4e91-96bd-3d2be11ba3ea"},"vehicle_type_id":"4","last_reported":1744881039,"current_range_meters":19600,"station_id":"ce4bgup2rcd13ifvqcn0","pricing_plan_id":"cebpf4jnsgd1na2vs0mg"},{"bike_id":"02988bdf-81f6-474c-ae2d-b4f6427cc78e","system_id":"levelo_inurba_marseille","lat":43.29254,"lon":5.3605,"is_reserved":false,"is_disabled":false,"rental_uris":{"android":"levelo://app?vid=02988bdf-81f6-474c-ae2d-b4f6427cc78e","ios":"levelo://app?vid=02988bdf-81f6-474c-ae2d-b4f6427cc78e"},"vehicle_type_id":"4","last_reported":1744881039,"current_range_meters":20000,"station_id":"ce4bhbh2rcd13ifvqeqg","pricing_plan_id":"cebpf4jnsgd1na2vs0mg"},{"bike_id":"68342d9f-f0b6-47e7-b690-b27078e67a77","system_id":"levelo_inurba_marseille","lat":43.24165,"lon":5.3639,"is_reserved":false,"is_disabled":false,"rental_uris":{"android":"levelo://app?vid=68342d9f-f0b6-47e7-b690-b27078e67a77","ios":"levelo://app?vid=68342d9f-f0b6-47e7-b690-b27078e67a77"},"vehicle_type_id":"4","last_reported":1744881039,"current_range_meters":20000,"station_id":"cpo36qri1sfpv3e86is0","pricing_plan_id":"cebpf4jnsgd1na2vs0mg"},{"bike_id":"789c3822-56ca-4769-bcd4-8845bdea2fda","system_id":"levelo_inurba_marseille","lat":43.24166,"lon":5.36394,"is_reserved":false,"is_disabled":false,"rental_uris":{"android":"levelo://app?vid=789c3822-56ca-4769-bcd4-8845bdea2fda","ios":"levelo://app?vid=789c3822-56ca-4769-bcd4-8845bdea2fda"},"vehicle_type_id":"4","last_reported":1744881039,"current_range_meters":20000,"station_id":"cpo36qri1sfpv3e86is0","pricing_plan_id":"cebpf4jnsgd1na2vs0mg"},{"bike_id":"9bb7361c-307f-49cb-ac99-d77623f20e19","system_id":"levelo_inurba_marseille","lat":43.32483,"lon":5.365613,"is_reserved":false,"is_disabled":false,"rental_uris":{"android":"levelo://app?vid=9bb7361c-307f-49cb-ac99-d77623f20e19","ios":"levelo://app?vid=9bb7361c-307f-49cb-ac99-d77623f20e19"},"vehicle_type_id":"4","last_reported":1744881039,"current_range_meters":20000,"station_id":"ce4bhs12rcd13ifvqhvg","pricing_plan_id":"cebpf4jnsgd1na2vs0mg"},{"bike_id":"19620581-1ceb-402e-b7f1-a1cb58dfb3ea","system_id":"levelo_inurba_marseille","lat":43.25887,"lon":5.40839,"is_reserved":false,"is_disabled":false,"rental_uris":{"android":"levelo://app?vid=19620581-1ceb-402e-b7f1-a1cb58dfb3ea","ios":"levelo://app?vid=19620581-1ceb-402e-b7f1-a1cb58dfb3ea"},"vehicle_type_id":"4","last_reported":1744881039,"current_range_meters":20000,"station_id":"","pricing_plan_id":"cebpf4jnsgd1na2vs0mg"},{"bike_id":"6032e738-f012-4275-92a6-1c203e24e4cd","system_id":"levelo_inurba_marseille","lat":43.29883,"lon":5.43678,"is_reserved":false,"is_disabled":false,"rental_uris":{"android":"levelo://app?vid=6032e738-f012-4275-92a6-1c203e24e4cd","ios":"levelo://app?vid=6032e738-f012-4275-92a6-1c203e24e4cd"},"vehicle_type_id":"4","last_reported":1744881039,"current_range_meters":20000,"station_id":"ce4bhpp2rcd13ifvqhfg","pricing_plan_id":"cebpf4jnsgd1na2vs0mg"},{"bike_id":"d7aa2c4f-efa3-40c3-87f7-8f13c43c6a95","system_id":"levelo_inurba_marseille","lat":43.2397,"lon":5.3662,"is_reserved":false,"is_disabled":false,"rental_uris":{"android":"levelo://app?vid=d7aa2c4f-efa3-40c3-87f7-8f13c43c6a95","ios":"levelo://app?vid=d7aa2c4f-efa3-40c3-87f7-8f13c43c6a95"},"vehicle_type_id":"4","last_reported":1744881039,"current_range_meters":20000,"station_id":"ce4bhi12rcd13ifvqfp0","pricing_plan_id":"cebpf4jnsgd1na2vs0mg"},{"bike_id":"934a8fc0-98f8-4aaf-a145-d485dee937c7","system_id":"levelo_inurba_marseille","lat":43.32366,"lon":5.36759,"is_reserved":false,"is_disabled":false,"rental_uris":{"android":"levelo://app?vid=934a8fc0-98f8-4aaf-a145-d485dee937c7","ios":"levelo://app?vid=934a8fc0-98f8-4aaf-a145-d485dee937c7"},"vehicle_type_id":"4","last_reported":1744881039,"current_range_meters":20000,"station_id":"ce4bhsh2rcd13ifvqi2g","pricing_plan_id":"cebpf4jnsgd1na2vs0mg"},{"bike_id":"37f9071e-853b-46c7-8103-e592f5e125f5","system_id":"levelo_inurba_marseille","lat":43.26688,"lon":5.38297,"is_reserved":false,"is_disabled":false,"rental_uris":{"android":"levelo://app?vid=37f9071e-853b-46c7-8103-e592f5e125f5","ios":"levelo://app?vid=37f9071e-853b-46c7-8103-e592f5e125f5"},"vehicle_type_id":"4","last_reported":1744881039,"current_range_meters":20000,"station_id":"ce4bhg92rcd13ifvqf90","pricing_plan_id":"cebpf4jnsgd1na2vs0mg"},{"bike_id":"62bda6b6-fcb8-410c-b767-c85620d8484b","system_id":"levelo_inurba_marseille","lat":43.279947,"lon":5.416524,"is_reserved":false,"is_disabled":false,"rental_uris":{"android":"levelo://app?vid=62bda6b6-fcb8-410c-b767-c85620d8484b","ios":"levelo://app?vid=62bda6b6-fcb8-410c-b767-c85620d8484b"},"vehicle_type_id":"4","last_reported":1744881039,"current_range_meters":20000,"station_id":"ce4bho12rcd13ifvqh1g","pricing_plan_id":"cebpf4jnsgd1na2vs0mg"},{"bike_id":"2a3df68e-728a-4b9c-bbc2-4259a4448e26","system_id":"levelo_inurba_marseille","lat":43.279949,"lon":5.400068,"is_reserved":false,"is_disabled":false,"rental_uris":{"android":"levelo://app?vid=2a3df68e-728a-4b9c-bbc2-4259a4448e26","ios":"levelo://app?vid=2a3df68e-728a-4b9c-bbc2-4259a4448e26"},"vehicle_type_id":"4","last_reported":1744881039,"current_range_meters":20400,"station_id":"ce4bho92rcd13ifvqh4g","pricing_plan_id":"cebpf4jnsgd1na2vs0mg"},{"bike_id":"11aba779-b9a1-49cb-90d3-0669feeb74c9","system_id":"levelo_inurba_marseille","lat":43.21191,"lon":5.35073,"is_reserved":false,"is_disabled":false,"rental_uris":{"android":"levelo://app?vid=11aba779-b9a1-49cb-90d3-0669feeb74c9","ios":"levelo://app?vid=11aba779-b9a1-49cb-90d3-0669feeb74c9"},"vehicle_type_id":"4","last_reported":1744881039,"current_range_meters":20400,"station_id":"st_cvj6sg6p6f1abm77japg","pricing_plan_id":"cebpf4jnsgd1na2vs0mg"},{"bike_id":"85190004-0a1e-41e5-ae30-a658dc534e46","system_id":"levelo_inurba_marseille","lat":43.294418,"lon":5.378937,"is_reserved":false,"is_disabled":false,"rental_uris":{"android":"levelo://app?vid=85190004-0a1e-41e5-ae30-a658dc534e46","ios":"levelo://app?vid=85190004-0a1e-41e5-ae30-a658dc534e46"},"vehicle_type_id":"4","last_reported":1744881039,"current_range_meters":20000,"station_id":"ce4bhoh2rcd13ifvqh5g","pricing_plan_id":"cebpf4jnsgd1na2vs0mg"},{"bike_id":"f663d8f8-94df-44ad-8cd8-9a35c10a4df5","system_id":"levelo_inurba_marseille","lat":43.25753,"lon":5.41244,"is_reserved":false,"is_disabled":false,"rental_uris":{"android":"levelo://app?vid=f663d8f8-94df-44ad-8cd8-9a35c10a4df5","ios":"levelo://app?vid=f663d8f8-94df-44ad-8cd8-9a35c10a4df5"},"vehicle_type_id":"4","last_reported":1744881039,"current_range_meters":20400,"station_id":"ce4bhkp2rcd13ifvqgd0","pricing_plan_id":"cebpf4jnsgd1na2vs0mg"},{"bike_id":"3d478ed8-ed25-416a-87f2-402df3b77c0b","system_id":"levelo_inurba_marseille","lat":43.241658,"lon":5.397341,"is_reserved":false,"is_disabled":false,"rental_uris":{"android":"levelo://app?vid=3d478ed8-ed25-416a-87f2-402df3b77c0b","ios":"levelo://app?vid=3d478ed8-ed25-416a-87f2-402df3b77c0b"},"vehicle_type_id":"4","last_reported":1744881039,"current_range_meters":20400,"station_id":"ce4bhn12rcd13ifvqgpg","pricing_plan_id":"cebpf4jnsgd1na2vs0mg"},{"bike_id":"e2610827-be5f-4519-9010-041a87391e95","system_id":"levelo_inurba_marseille","lat":43.23152,"lon":5.43708,"is_reserved":false,"is_disabled":false,"rental_uris":{"android":"levelo://app?vid=e2610827-be5f-4519-9010-041a87391e95","ios":"levelo://app?vid=e2610827-be5f-4519-9010-041a87391e95"},"vehicle_type_id":"4","last_reported":1744881039,"current_range_meters":20400,"station_id":"ce4bhmp2rcd13ifvqgog","pricing_plan_id":"cebpf4jnsgd1na2vs0mg"},{"bike_id":"1f3d5d90-a5e7-42da-b30a-ed5e19b3ee0f","system_id":"levelo_inurba_marseille","lat":43.26557,"lon":5.37285,"is_reserved":false,"is_disabled":false,"rental_uris":{"android":"levelo://app?vid=1f3d5d90-a5e7-42da-b30a-ed5e19b3ee0f","ios":"levelo://app?vid=1f3d5d90-a5e7-42da-b30a-ed5e19b3ee0f"},"vehicle_type_id":"4","last_reported":1744881039,"current_range_meters":20800,"station_id":"ce4bhg12rcd13ifvqf70","pricing_plan_id":"cebpf4jnsgd1na2vs0mg"},{"bike_id":"17634355-9bc1-4724-b546-3aae67092dd5","system_id":"levelo_inurba_marseille","lat":43.30196,"lon":5.36619,"is_reserved":false,"is_disabled":false,"rental_uris":{"android":"levelo://app?vid=17634355-9bc1-4724-b546-3aae67092dd5","ios":"levelo://app?vid=17634355-9bc1-4724-b546-3aae67092dd5"},"vehicle_type_id":"4","last_reported":1744881039,"current_range_meters":20400,"station_id":"ce4bgrh2rcd13ifvqc8g","pricing_plan_id":"cebpf4jnsgd1na2vs0mg"},{"bike_id":"9ead92d8-71c4-45b6-94f2-ea600e72a836","system_id":"levelo_inurba_marseille","lat":43.2984,"lon":5.36269,"is_reserved":false,"is_disabled":false,"rental_uris":{"android":"levelo://app?vid=9ead92d8-71c4-45b6-94f2-ea600e72a836","ios":"levelo://app?vid=9ead92d8-71c4-45b6-94f2-ea600e72a836"},"vehicle_type_id":"4","last_reported":1744881039,"current_range_meters":20400,"station_id":"ce4bgpp2rcd13ifvqc3g","pricing_plan_id":"cebpf4jnsgd1na2vs0mg"},{"bike_id":"04b27430-aed8-4dd3-a229-380dfbad9203","system_id":"levelo_inurba_marseille","lat":43.30552,"lon":5.367,"is_reserved":false,"is_disabled":false,"rental_uris":{"android":"levelo://app?vid=04b27430-aed8-4dd3-a229-380dfbad9203","ios":"levelo://app?vid=04b27430-aed8-4dd3-a229-380dfbad9203"},"vehicle_type_id":"4","last_reported":1744881039,"current_range_meters":20800,"station_id":"ce4bgrp2rcd13ifvqc9g","pricing_plan_id":"cebpf4jnsgd1na2vs0mg"},{"bike_id":"46fa07cf-5d50-4afd-b73f-01c9999b8b29","system_id":"levelo_inurba_marseille","lat":43.27204,"lon":5.39186,"is_reserved":false,"is_disabled":true,"rental_uris":{"android":"levelo://app?vid=46fa07cf-5d50-4afd-b73f-01c9999b8b29","ios":"levelo://app?vid=46fa07cf-5d50-4afd-b73f-01c9999b8b29"},"vehicle_type_id":"4","last_reported":1744881039,"current_range_meters":20800,"station_id":"ce4bhhp2rcd13ifvqfm0","pricing_plan_id":"cebpf4jnsgd1na2vs0mg"},{"bike_id":"d59761ba-395f-46bb-ab65-b40c9728f54f","system_id":"levelo_inurba_marseille","lat":43.307953,"lon":5.381511,"is_reserved":false,"is_disabled":false,"rental_uris":{"android":"levelo://app?vid=d59761ba-395f-46bb-ab65-b40c9728f54f","ios":"levelo://app?vid=d59761ba-395f-46bb-ab65-b40c9728f54f"},"vehicle_type_id":"4","last_reported":1744881039,"current_range_meters":20800,"station_id":"ce4bgkh2rcd13ifvqbl0","pricing_plan_id":"cebpf4jnsgd1na2vs0mg"},{"bike_id":"f9d3fbe6-73e5-424e-af02-f446d5b07152","system_id":"levelo_inurba_marseille","lat":43.2175,"lon":5.34609,"is_reserved":false,"is_disabled":false,"rental_uris":{"android":"levelo://app?vid=f9d3fbe6-73e5-424e-af02-f446d5b07152","ios":"levelo://app?vid=f9d3fbe6-73e5-424e-af02-f446d5b07152"},"vehicle_type_id":"4","last_reported":1744881039,"current_range_meters":20800,"station_id":"st_cvj6r9ubvosntc0bgbag","pricing_plan_id":"cebpf4jnsgd1na2vs0mg"},{"bike_id":"210ca041-5803-457b-9a83-f5c528a0044c","system_id":"levelo_inurba_marseille","lat":43.2558,"lon":5.38235,"is_reserved":false,"is_disabled":false,"rental_uris":{"android":"levelo://app?vid=210ca041-5803-457b-9a83-f5c528a0044c","ios":"levelo://app?vid=210ca041-5803-457b-9a83-f5c528a0044c"},"vehicle_type_id":"4","last_reported":1744881039,"current_range_meters":20800,"station_id":"ce4bhih2rcd13ifvqfs0","pricing_plan_id":"cebpf4jnsgd1na2vs0mg"},{"bike_id":"04a4deb4-41bf-441f-925a-eda17aad26c7","system_id":"levelo_inurba_marseille","lat":43.26679,"lon":5.38267,"is_reserved":false,"is_disabled":false,"rental_uris":{"android":"levelo://app?vid=04a4deb4-41bf-441f-925a-eda17aad26c7","ios":"levelo://app?vid=04a4deb4-41bf-441f-925a-eda17aad26c7"},"vehicle_type_id":"4","last_reported":1744881039,"current_range_meters":21600,"station_id":"ce4bhg92rcd13ifvqf90","pricing_plan_id":"cebpf4jnsgd1na2vs0mg"},{"bike_id":"c02736c8-234f-4dbb-b61b-8d0e77484ef0","system_id":"levelo_inurba_marseille","lat":43.27914,"lon":5.39597,"is_reserved":false,"is_disabled":false,"rental_uris":{"android":"levelo://app?vid=c02736c8-234f-4dbb-b61b-8d0e77484ef0","ios":"levelo://app?vid=c02736c8-234f-4dbb-b61b-8d0e77484ef0"},"vehicle_type_id":"4","last_reported":1744881039,"current_range_meters":21600,"station_id":"ce4bhf92rcd13ifvqf40","pricing_plan_id":"cebpf4jnsgd1na2vs0mg"},{"bike_id":"04cd718a-739b-4f09-8fdf-74e445452766","system_id":"levelo_inurba_marseille","lat":43.31525,"lon":5.37272,"is_reserved":false,"is_disabled":false,"rental_uris":{"android":"levelo://app?vid=04cd718a-739b-4f09-8fdf-74e445452766","ios":"levelo://app?vid=04cd718a-739b-4f09-8fdf-74e445452766"},"vehicle_type_id":"4","last_reported":1744881039,"current_range_meters":21600,"station_id":"","pricing_plan_id":"cebpf4jnsgd1na2vs0mg"},{"bike_id":"767ac8e2-0e80-4549-a954-7d5c8496a13a","system_id":"levelo_inurba_marseille","lat":43.30536,"lon":5.36553,"is_reserved":false,"is_disabled":false,"rental_uris":{"android":"levelo://app?vid=767ac8e2-0e80-4549-a954-7d5c8496a13a","ios":"levelo://app?vid=767ac8e2-0e80-4549-a954-7d5c8496a13a"},"vehicle_type_id":"4","last_reported":1744881039,"current_range_meters":21600,"station_id":"ce4bgs12rcd13ifvqcag","pricing_plan_id":"cebpf4jnsgd1na2vs0mg"},{"bike_id":"bfc0f2bb-f1f4-4fed-b9af-c547a21d1d5d","system_id":"levelo_inurba_marseille","lat":43.28614,"lon":5.35109,"is_reserved":false,"is_disabled":false,"rental_uris":{"android":"levelo://app?vid=bfc0f2bb-f1f4-4fed-b9af-c547a21d1d5d","ios":"levelo://app?vid=bfc0f2bb-f1f4-4fed-b9af-c547a21d1d5d"},"vehicle_type_id":"4","last_reported":1744881039,"current_range_meters":21600,"station_id":"ce4bhch2rcd13ifvqeug","pricing_plan_id":"cebpf4jnsgd1na2vs0mg"},{"bike_id":"c305c827-8b59-4e6c-91de-4d8a3fcbcac2","system_id":"levelo_inurba_marseille","lat":43.24174,"lon":5.36433,"is_reserved":false,"is_disabled":false,"rental_uris":{"android":"levelo://app?vid=c305c827-8b59-4e6c-91de-4d8a3fcbcac2","ios":"levelo://app?vid=c305c827-8b59-4e6c-91de-4d8a3fcbcac2"},"vehicle_type_id":"4","last_reported":1744881039,"current_range_meters":21600,"station_id":"cpo36qri1sfpv3e86is0","pricing_plan_id":"cebpf4jnsgd1na2vs0mg"},{"bike_id":"d1a2b493-7d30-4a9c-a02b-dfad0b4f73f7","system_id":"levelo_inurba_marseille","lat":43.248174,"lon":5.374592,"is_reserved":false,"is_disabled":false,"rental_uris":{"android":"levelo://app?vid=d1a2b493-7d30-4a9c-a02b-dfad0b4f73f7","ios":"levelo://app?vid=d1a2b493-7d30-4a9c-a02b-dfad0b4f73f7"},"vehicle_type_id":"4","last_reported":1744881039,"current_range_meters":21600,"station_id":"ce4bhgh2rcd13ifvqfb0","pricing_plan_id":"cebpf4jnsgd1na2vs0mg"},{"bike_id":"d39e5537-c00a-4bf8-9f22-53966b448679","system_id":"levelo_inurba_marseille","lat":43.29561,"lon":5.42287,"is_reserved":false,"is_disabled":false,"rental_uris":{"android":"levelo://app?vid=d39e5537-c00a-4bf8-9f22-53966b448679","ios":"levelo://app?vid=d39e5537-c00a-4bf8-9f22-53966b448679"},"vehicle_type_id":"4","last_reported":1744881039,"current_range_meters":22000,"station_id":"ce4bhph2rcd13ifvqhdg","pricing_plan_id":"cebpf4jnsgd1na2vs0mg"},{"bike_id":"c9b9c447-ea7a-4b96-a1a1-916329df1291","system_id":"levelo_inurba_marseille","lat":43.30804,"lon":5.43529,"is_reserved":false,"is_disabled":false,"rental_uris":{"android":"levelo://app?vid=c9b9c447-ea7a-4b96-a1a1-916329df1291","ios":"levelo://app?vid=c9b9c447-ea7a-4b96-a1a1-916329df1291"},"vehicle_type_id":"4","last_reported":1744881039,"current_range_meters":21600,"station_id":"ce4bhph2rcd13ifvqheg","pricing_plan_id":"cebpf4jnsgd1na2vs0mg"},{"bike_id":"04b0cb39-9229-4c02-890e-562e273ff746","system_id":"levelo_inurba_marseille","lat":43.29796,"lon":5.38103,"is_reserved":false,"is_disabled":true,"rental_uris":{"android":"levelo://app?vid=04b0cb39-9229-4c02-890e-562e273ff746","ios":"levelo://app?vid=04b0cb39-9229-4c02-890e-562e273ff746"},"vehicle_type_id":"4","last_reported":1744881039,"current_range_meters":22000,"station_id":"ce4bgip2rcd13ifvqbb0","pricing_plan_id":"cebpf4jnsgd1na2vs0mg"},{"bike_id":"8c0be09f-1a08-4f03-adf3-9ab53d05b7e1","system_id":"levelo_inurba_marseille","lat":43.30423,"lon":5.41277,"is_reserved":false,"is_disabled":true,"rental_uris":{"android":"levelo://app?vid=8c0be09f-1a08-4f03-adf3-9ab53d05b7e1","ios":"levelo://app?vid=8c0be09f-1a08-4f03-adf3-9ab53d05b7e1"},"vehicle_type_id":"4","last_reported":1744881039,"current_range_meters":22000,"station_id":"ce4bhop2rcd13ifvqh8g","pricing_plan_id":"cebpf4jnsgd1na2vs0mg"},{"bike_id":"41103f70-9dce-4fa3-ae82-faa56e548921","system_id":"levelo_inurba_marseille","lat":43.29412,"lon":5.38617,"is_reserved":false,"is_disabled":false,"rental_uris":{"android":"levelo://app?vid=41103f70-9dce-4fa3-ae82-faa56e548921","ios":"levelo://app?vid=41103f70-9dce-4fa3-ae82-faa56e548921"},"vehicle_type_id":"4","last_reported":1744881039,"current_range_meters":21600,"station_id":"ce4bh2h2rcd13ifvqdh0","pricing_plan_id":"cebpf4jnsgd1na2vs0mg"},{"bike_id":"01930f64-c679-4b05-b064-7998f12896b3","system_id":"levelo_inurba_marseille","lat":43.25932,"lon":5.40865,"is_reserved":false,"is_disabled":false,"rental_uris":{"android":"levelo://app?vid=01930f64-c679-4b05-b064-7998f12896b3","ios":"levelo://app?vid=01930f64-c679-4b05-b064-7998f12896b3"},"vehicle_type_id":"4","last_reported":1744881039,"current_range_meters":22000,"station_id":"ce4bhm92rcd13ifvqglg","pricing_plan_id":"cebpf4jnsgd1na2vs0mg"},{"bike_id":"820e84c8-1ea3-44d0-9a99-ea37a97a0f1c","system_id":"levelo_inurba_marseille","lat":43.28998,"lon":5.35615,"is_reserved":false,"is_disabled":false,"rental_uris":{"android":"levelo://app?vid=820e84c8-1ea3-44d0-9a99-ea37a97a0f1c","ios":"levelo://app?vid=820e84c8-1ea3-44d0-9a99-ea37a97a0f1c"},"vehicle_type_id":"4","last_reported":1744881039,"current_range_meters":22000,"station_id":"ce4bhb92rcd13ifvqen0","pricing_plan_id":"cebpf4jnsgd1na2vs0mg"},{"bike_id":"980829e1-f26b-4e3b-8ec7-536b69016beb","system_id":"levelo_inurba_marseille","lat":43.30564,"lon":5.3672,"is_reserved":false,"is_disabled":false,"rental_uris":{"android":"levelo://app?vid=980829e1-f26b-4e3b-8ec7-536b69016beb","ios":"levelo://app?vid=980829e1-f26b-4e3b-8ec7-536b69016beb"},"vehicle_type_id":"4","last_reported":1744881039,"current_range_meters":22000,"station_id":"ce4bgrp2rcd13ifvqc9g","pricing_plan_id":"cebpf4jnsgd1na2vs0mg"},{"bike_id":"b031717c-d653-4f88-afc2-538ee742058b","system_id":"levelo_inurba_marseille","lat":43.25585,"lon":5.38239,"is_reserved":false,"is_disabled":false,"rental_uris":{"android":"levelo://app?vid=b031717c-d653-4f88-afc2-538ee742058b","ios":"levelo://app?vid=b031717c-d653-4f88-afc2-538ee742058b"},"vehicle_type_id":"4","last_reported":1744881039,"current_range_meters":22000,"station_id":"ce4bhih2rcd13ifvqfs0","pricing_plan_id":"cebpf4jnsgd1na2vs0mg"},{"bike_id":"59c35d7a-34d5-4cdc-abf4-25abfe91af30","system_id":"levelo_inurba_marseille","lat":43.28463,"lon":5.35895,"is_reserved":false,"is_disabled":false,"rental_uris":{"android":"levelo://app?vid=59c35d7a-34d5-4cdc-abf4-25abfe91af30","ios":"levelo://app?vid=59c35d7a-34d5-4cdc-abf4-25abfe91af30"},"vehicle_type_id":"4","last_reported":1744881039,"current_range_meters":22000,"station_id":"ce4bhah2rcd13ifvqei0","pricing_plan_id":"cebpf4jnsgd1na2vs0mg"},{"bike_id":"2fe3623f-9164-4e30-815a-b6d7a5f64613","system_id":"levelo_inurba_marseille","lat":43.28422,"lon":5.34985,"is_reserved":false,"is_disabled":false,"rental_uris":{"android":"levelo://app?vid=2fe3623f-9164-4e30-815a-b6d7a5f64613","ios":"levelo://app?vid=2fe3623f-9164-4e30-815a-b6d7a5f64613"},"vehicle_type_id":"4","last_reported":1744881039,"current_range_meters":22000,"station_id":"ce4bhbh2rcd13ifvqepg","pricing_plan_id":"cebpf4jnsgd1na2vs0mg"},{"bike_id":"b554f0c3-1dec-406f-befb-a020931834cc","system_id":"levelo_inurba_marseille","lat":43.30263,"lon":5.37721,"is_reserved":false,"is_disabled":false,"rental_uris":{"android":"levelo://app?vid=b554f0c3-1dec-406f-befb-a020931834cc","ios":"levelo://app?vid=b554f0c3-1dec-406f-befb-a020931834cc"},"vehicle_type_id":"4","last_reported":1744881039,"current_range_meters":22000,"station_id":"ce4bguh2rcd13ifvqcj0","pricing_plan_id":"cebpf4jnsgd1na2vs0mg"},{"bike_id":"b44e1935-cddb-4fdc-a5d1-220a260772ce","system_id":"levelo_inurba_marseille","lat":43.29612,"lon":5.37718,"is_reserved":false,"is_disabled":false,"rental_uris":{"android":"levelo://app?vid=b44e1935-cddb-4fdc-a5d1-220a260772ce","ios":"levelo://app?vid=b44e1935-cddb-4fdc-a5d1-220a260772ce"},"vehicle_type_id":"4","last_reported":1744881039,"current_range_meters":22400,"station_id":"ce4bgi92rcd13ifvqb90","pricing_plan_id":"cebpf4jnsgd1na2vs0mg"},{"bike_id":"33bf5d63-424c-48d6-a0cb-a0565488ee3e","system_id":"levelo_inurba_marseille","lat":43.24163,"lon":5.39708,"is_reserved":false,"is_disabled":false,"rental_uris":{"android":"levelo://app?vid=33bf5d63-424c-48d6-a0cb-a0565488ee3e","ios":"levelo://app?vid=33bf5d63-424c-48d6-a0cb-a0565488ee3e"},"vehicle_type_id":"4","last_reported":1744881039,"current_range_meters":22400,"station_id":"ce4bhn12rcd13ifvqgpg","pricing_plan_id":"cebpf4jnsgd1na2vs0mg"},{"bike_id":"05f9b99d-7805-460c-b863-06baeb2f9dc2","system_id":"levelo_inurba_marseille","lat":43.30174,"lon":5.38095,"is_reserved":false,"is_disabled":false,"rental_uris":{"android":"levelo://app?vid=05f9b99d-7805-460c-b863-06baeb2f9dc2","ios":"levelo://app?vid=05f9b99d-7805-460c-b863-06baeb2f9dc2"},"vehicle_type_id":"4","last_reported":1744881039,"current_range_meters":22400,"station_id":"ce4bgjp2rcd13ifvqbh0","pricing_plan_id":"cebpf4jnsgd1na2vs0mg"},{"bike_id":"b0f53ea3-e12d-4466-9e36-790bba87033c","system_id":"levelo_inurba_marseille","lat":43.30805,"lon":5.435268,"is_reserved":false,"is_disabled":false,"rental_uris":{"android":"levelo://app?vid=b0f53ea3-e12d-4466-9e36-790bba87033c","ios":"levelo://app?vid=b0f53ea3-e12d-4466-9e36-790bba87033c"},"vehicle_type_id":"4","last_reported":1744881039,"current_range_meters":22400,"station_id":"ce4bhph2rcd13ifvqheg","pricing_plan_id":"cebpf4jnsgd1na2vs0mg"},{"bike_id":"c7153f08-efe4-4004-8960-3a6728357ff3","system_id":"levelo_inurba_marseille","lat":43.25916,"lon":5.40882,"is_reserved":false,"is_disabled":false,"rental_uris":{"android":"levelo://app?vid=c7153f08-efe4-4004-8960-3a6728357ff3","ios":"levelo://app?vid=c7153f08-efe4-4004-8960-3a6728357ff3"},"vehicle_type_id":"4","last_reported":1744881039,"current_range_meters":22400,"station_id":"ce4bhm92rcd13ifvqglg","pricing_plan_id":"cebpf4jnsgd1na2vs0mg"},{"bike_id":"69c8e20a-1c36-4769-a200-8cafb939f8d6","system_id":"levelo_inurba_marseille","lat":43.294189,"lon":5.386204,"is_reserved":false,"is_disabled":false,"rental_uris":{"android":"levelo://app?vid=69c8e20a-1c36-4769-a200-8cafb939f8d6","ios":"levelo://app?vid=69c8e20a-1c36-4769-a200-8cafb939f8d6"},"vehicle_type_id":"4","last_reported":1744881039,"current_range_meters":22400,"station_id":"ce4bh2h2rcd13ifvqdh0","pricing_plan_id":"cebpf4jnsgd1na2vs0mg"},{"bike_id":"0a5e45a3-9e60-40ab-8d32-73af893cf04f","system_id":"levelo_inurba_marseille","lat":43.32476,"lon":5.36565,"is_reserved":false,"is_disabled":false,"rental_uris":{"android":"levelo://app?vid=0a5e45a3-9e60-40ab-8d32-73af893cf04f","ios":"levelo://app?vid=0a5e45a3-9e60-40ab-8d32-73af893cf04f"},"vehicle_type_id":"4","last_reported":1744881039,"current_range_meters":22400,"station_id":"ce4bhs12rcd13ifvqhvg","pricing_plan_id":"cebpf4jnsgd1na2vs0mg"},{"bike_id":"5e6be620-a3d0-49c3-9ff0-b85332cde817","system_id":"levelo_inurba_marseille","lat":43.231943,"lon":5.355619,"is_reserved":false,"is_disabled":false,"rental_uris":{"android":"levelo://app?vid=5e6be620-a3d0-49c3-9ff0-b85332cde817","ios":"levelo://app?vid=5e6be620-a3d0-49c3-9ff0-b85332cde817"},"vehicle_type_id":"4","last_reported":1744881039,"current_range_meters":22400,"station_id":"ce4bhu92rcd13ifvqi70","pricing_plan_id":"cebpf4jnsgd1na2vs0mg"},{"bike_id":"2730025f-c78d-4247-991c-378116bcf61f","system_id":"levelo_inurba_marseille","lat":43.27813,"lon":5.4072,"is_reserved":false,"is_disabled":false,"rental_uris":{"android":"levelo://app?vid=2730025f-c78d-4247-991c-378116bcf61f","ios":"levelo://app?vid=2730025f-c78d-4247-991c-378116bcf61f"},"vehicle_type_id":"4","last_reported":1744881039,"current_range_meters":22400,"station_id":"ce4bhnh2rcd13ifvqgtg","pricing_plan_id":"cebpf4jnsgd1na2vs0mg"},{"bike_id":"efb996b3-bed7-4ae8-93ff-d4d1352bc8f1","system_id":"levelo_inurba_marseille","lat":43.30284,"lon":5.37693,"is_reserved":false,"is_disabled":false,"rental_uris":{"android":"levelo://app?vid=efb996b3-bed7-4ae8-93ff-d4d1352bc8f1","ios":"levelo://app?vid=efb996b3-bed7-4ae8-93ff-d4d1352bc8f1"},"vehicle_type_id":"4","last_reported":1744881039,"current_range_meters":22800,"station_id":"ce4bguh2rcd13ifvqcj0","pricing_plan_id":"cebpf4jnsgd1na2vs0mg"},{"bike_id":"300a5681-5eca-4aa4-997a-ad17091b8314","system_id":"levelo_inurba_marseille","lat":43.27564,"lon":5.38429,"is_reserved":false,"is_disabled":false,"rental_uris":{"android":"levelo://app?vid=300a5681-5eca-4aa4-997a-ad17091b8314","ios":"levelo://app?vid=300a5681-5eca-4aa4-997a-ad17091b8314"},"vehicle_type_id":"4","last_reported":1744881039,"current_range_meters":22800,"station_id":"ce4bhh92rcd13ifvqfi0","pricing_plan_id":"cebpf4jnsgd1na2vs0mg"},{"bike_id":"c28c763a-8552-403a-af1d-69e4b5d7e6d6","system_id":"levelo_inurba_marseille","lat":43.30143,"lon":5.38784,"is_reserved":false,"is_disabled":false,"rental_uris":{"android":"levelo://app?vid=c28c763a-8552-403a-af1d-69e4b5d7e6d6","ios":"levelo://app?vid=c28c763a-8552-403a-af1d-69e4b5d7e6d6"},"vehicle_type_id":"4","last_reported":1744881039,"current_range_meters":22400,"station_id":"ce4bghh2rcd13ifvqb60","pricing_plan_id":"cebpf4jnsgd1na2vs0mg"},{"bike_id":"4f0ae3f2-6f4a-4da5-a21c-aa47c040632f","system_id":"levelo_inurba_marseille","lat":43.32295,"lon":5.382638,"is_reserved":false,"is_disabled":false,"rental_uris":{"android":"levelo://app?vid=4f0ae3f2-6f4a-4da5-a21c-aa47c040632f","ios":"levelo://app?vid=4f0ae3f2-6f4a-4da5-a21c-aa47c040632f"},"vehicle_type_id":"4","last_reported":1744881039,"current_range_meters":22800,"station_id":"ce4bhr12rcd13ifvqhqg","pricing_plan_id":"cebpf4jnsgd1na2vs0mg"},{"bike_id":"873bcab6-b973-48ed-b129-34762c209441","system_id":"levelo_inurba_marseille","lat":43.31479,"lon":5.37309,"is_reserved":false,"is_disabled":false,"rental_uris":{"android":"levelo://app?vid=873bcab6-b973-48ed-b129-34762c209441","ios":"levelo://app?vid=873bcab6-b973-48ed-b129-34762c209441"},"vehicle_type_id":"4","last_reported":1744881039,"current_range_meters":22800,"station_id":"ce4bgt12rcd13ifvqcd0","pricing_plan_id":"cebpf4jnsgd1na2vs0mg"},{"bike_id":"eab72e13-6ede-42d7-b087-313fb4dfb126","system_id":"levelo_inurba_marseille","lat":43.3091,"lon":5.37207,"is_reserved":false,"is_disabled":false,"rental_uris":{"android":"levelo://app?vid=eab72e13-6ede-42d7-b087-313fb4dfb126","ios":"levelo://app?vid=eab72e13-6ede-42d7-b087-313fb4dfb126"},"vehicle_type_id":"4","last_reported":1744881039,"current_range_meters":22800,"station_id":"ce4bguh2rcd13ifvqckg","pricing_plan_id":"cebpf4jnsgd1na2vs0mg"},{"bike_id":"5edff29b-8597-4123-8eac-13badbdfa345","system_id":"levelo_inurba_marseille","lat":43.29288,"lon":5.37437,"is_reserved":false,"is_disabled":false,"rental_uris":{"android":"levelo://app?vid=5edff29b-8597-4123-8eac-13badbdfa345","ios":"levelo://app?vid=5edff29b-8597-4123-8eac-13badbdfa345"},"vehicle_type_id":"4","last_reported":1744881039,"current_range_meters":22800,"station_id":"ce4bgi12rcd13ifvqb70","pricing_plan_id":"cebpf4jnsgd1na2vs0mg"},{"bike_id":"cc57b88c-ecb4-4caf-96f3-2be5e8ab0e99","system_id":"levelo_inurba_marseille","lat":43.30549,"lon":5.36564,"is_reserved":false,"is_disabled":false,"rental_uris":{"android":"levelo://app?vid=cc57b88c-ecb4-4caf-96f3-2be5e8ab0e99","ios":"levelo://app?vid=cc57b88c-ecb4-4caf-96f3-2be5e8ab0e99"},"vehicle_type_id":"4","last_reported":1744881039,"current_range_meters":22800,"station_id":"ce4bgs12rcd13ifvqcag","pricing_plan_id":"cebpf4jnsgd1na2vs0mg"},{"bike_id":"80bac1fe-218c-4068-937c-4aa733df023f","system_id":"levelo_inurba_marseille","lat":43.28611,"lon":5.37068,"is_reserved":false,"is_disabled":false,"rental_uris":{"android":"levelo://app?vid=80bac1fe-218c-4068-937c-4aa733df023f","ios":"levelo://app?vid=80bac1fe-218c-4068-937c-4aa733df023f"},"vehicle_type_id":"4","last_reported":1744881039,"current_range_meters":22800,"station_id":"ce4bht12rcd13ifvqi60","pricing_plan_id":"cebpf4jnsgd1na2vs0mg"},{"bike_id":"d09a9237-3b9b-40ec-9f32-e17d6d379cb5","system_id":"levelo_inurba_marseille","lat":43.32108,"lon":5.36769,"is_reserved":false,"is_disabled":false,"rental_uris":{"android":"levelo://app?vid=d09a9237-3b9b-40ec-9f32-e17d6d379cb5","ios":"levelo://app?vid=d09a9237-3b9b-40ec-9f32-e17d6d379cb5"},"vehicle_type_id":"4","last_reported":1744881039,"current_range_meters":23200,"station_id":"ce4bhrh2rcd13ifvqhug","pricing_plan_id":"cebpf4jnsgd1na2vs0mg"},{"bike_id":"d1c8f330-b960-4ff8-9370-c3d3825558d9","system_id":"levelo_inurba_marseille","lat":43.29313,"lon":5.37175,"is_reserved":false,"is_disabled":false,"rental_uris":{"android":"levelo://app?vid=d1c8f330-b960-4ff8-9370-c3d3825558d9","ios":"levelo://app?vid=d1c8f330-b960-4ff8-9370-c3d3825558d9"},"vehicle_type_id":"4","last_reported":1744881039,"current_range_meters":23200,"station_id":"ce4bgh92rcd13ifvqb40","pricing_plan_id":"cebpf4jnsgd1na2vs0mg"},{"bike_id":"91aa591a-3e56-4092-a295-ecb6aebe69eb","system_id":"levelo_inurba_marseille","lat":43.22508,"lon":5.34782,"is_reserved":false,"is_disabled":false,"rental_uris":{"android":"levelo://app?vid=91aa591a-3e56-4092-a295-ecb6aebe69eb","ios":"levelo://app?vid=91aa591a-3e56-4092-a295-ecb6aebe69eb"},"vehicle_type_id":"4","last_reported":1744881039,"current_range_meters":23200,"station_id":"st_cvj5dfep6f1abm77gieg","pricing_plan_id":"cebpf4jnsgd1na2vs0mg"},{"bike_id":"a042b204-0d21-4737-ab54-3c716ae452de","system_id":"levelo_inurba_marseille","lat":43.28411,"lon":5.37517,"is_reserved":false,"is_disabled":false,"rental_uris":{"android":"levelo://app?vid=a042b204-0d21-4737-ab54-3c716ae452de","ios":"levelo://app?vid=a042b204-0d21-4737-ab54-3c716ae452de"},"vehicle_type_id":"4","last_reported":1744881039,"current_range_meters":22800,"station_id":"ce4bh412rcd13ifvqds0","pricing_plan_id":"cebpf4jnsgd1na2vs0mg"},{"bike_id":"aea2afb6-112e-4c3a-968a-5eb5aa77e9be","system_id":"levelo_inurba_marseille","lat":43.21189,"lon":5.35078,"is_reserved":false,"is_disabled":false,"rental_uris":{"android":"levelo://app?vid=aea2afb6-112e-4c3a-968a-5eb5aa77e9be","ios":"levelo://app?vid=aea2afb6-112e-4c3a-968a-5eb5aa77e9be"},"vehicle_type_id":"4","last_reported":1744881039,"current_range_meters":23200,"station_id":"st_cvj6sg6p6f1abm77japg","pricing_plan_id":"cebpf4jnsgd1na2vs0mg"},{"bike_id":"09ed2f99-3de5-46d0-a2e0-ed554d61393f","system_id":"levelo_inurba_marseille","lat":43.31007,"lon":5.38534,"is_reserved":false,"is_disabled":false,"rental_uris":{"android":"levelo://app?vid=09ed2f99-3de5-46d0-a2e0-ed554d61393f","ios":"levelo://app?vid=09ed2f99-3de5-46d0-a2e0-ed554d61393f"},"vehicle_type_id":"4","last_reported":1744881039,"current_range_meters":23200,"station_id":"","pricing_plan_id":"cebpf4jnsgd1na2vs0mg"},{"bike_id":"b3a4cad4-5af9-4cd4-a9c5-acd968b383fa","system_id":"levelo_inurba_marseille","lat":43.2694,"lon":5.38926,"is_reserved":false,"is_disabled":false,"rental_uris":{"android":"levelo://app?vid=b3a4cad4-5af9-4cd4-a9c5-acd968b383fa","ios":"levelo://app?vid=b3a4cad4-5af9-4cd4-a9c5-acd968b383fa"},"vehicle_type_id":"4","last_reported":1744881039,"current_range_meters":23200,"station_id":"ce4bhhh2rcd13ifvqfl0","pricing_plan_id":"cebpf4jnsgd1na2vs0mg"},{"bike_id":"9eb6738d-486c-4d0a-88f4-70b8d81983d1","system_id":"levelo_inurba_marseille","lat":43.2175,"lon":5.346,"is_reserved":false,"is_disabled":false,"rental_uris":{"android":"levelo://app?vid=9eb6738d-486c-4d0a-88f4-70b8d81983d1","ios":"levelo://app?vid=9eb6738d-486c-4d0a-88f4-70b8d81983d1"},"vehicle_type_id":"4","last_reported":1744881039,"current_range_meters":23200,"station_id":"st_cvj6r9ubvosntc0bgbag","pricing_plan_id":"cebpf4jnsgd1na2vs0mg"},{"bike_id":"d05b7cc4-f88b-4d02-ae6c-c344f22c0e5c","system_id":"levelo_inurba_marseille","lat":43.29768,"lon":5.3654,"is_reserved":false,"is_disabled":false,"rental_uris":{"android":"levelo://app?vid=d05b7cc4-f88b-4d02-ae6c-c344f22c0e5c","ios":"levelo://app?vid=d05b7cc4-f88b-4d02-ae6c-c344f22c0e5c"},"vehicle_type_id":"4","last_reported":1744881039,"current_range_meters":24000,"station_id":"","pricing_plan_id":"cebpf4jnsgd1na2vs0mg"},{"bike_id":"43d8fda1-b686-43bb-87c5-e9094641c8ce","system_id":"levelo_inurba_marseille","lat":43.26957,"lon":5.38631,"is_reserved":false,"is_disabled":false,"rental_uris":{"android":"levelo://app?vid=43d8fda1-b686-43bb-87c5-e9094641c8ce","ios":"levelo://app?vid=43d8fda1-b686-43bb-87c5-e9094641c8ce"},"vehicle_type_id":"4","last_reported":1744881039,"current_range_meters":23200,"station_id":"ce4bhh92rcd13ifvqfh0","pricing_plan_id":"cebpf4jnsgd1na2vs0mg"},{"bike_id":"169cfa47-f08f-4b2d-acdf-f6e87b6776f1","system_id":"levelo_inurba_marseille","lat":43.31199,"lon":5.36886,"is_reserved":false,"is_disabled":false,"rental_uris":{"android":"levelo://app?vid=169cfa47-f08f-4b2d-acdf-f6e87b6776f1","ios":"levelo://app?vid=169cfa47-f08f-4b2d-acdf-f6e87b6776f1"},"vehicle_type_id":"4","last_reported":1744881039,"current_range_meters":24000,"station_id":"ce4bgl92rcd13ifvqbq0","pricing_plan_id":"cebpf4jnsgd1na2vs0mg"},{"bike_id":"4c38699a-66b6-4804-8c97-8c8a6c015f73","system_id":"levelo_inurba_marseille","lat":43.2953,"lon":5.38542,"is_reserved":false,"is_disabled":false,"rental_uris":{"android":"levelo://app?vid=4c38699a-66b6-4804-8c97-8c8a6c015f73","ios":"levelo://app?vid=4c38699a-66b6-4804-8c97-8c8a6c015f73"},"vehicle_type_id":"4","last_reported":1744881039,"current_range_meters":24000,"station_id":"ce4bgih2rcd13ifvqba0","pricing_plan_id":"cebpf4jnsgd1na2vs0mg"},{"bike_id":"9b6a0450-86fd-400d-a03a-c181f56bc070","system_id":"levelo_inurba_marseille","lat":43.2795,"lon":5.41032,"is_reserved":false,"is_disabled":false,"rental_uris":{"android":"levelo://app?vid=9b6a0450-86fd-400d-a03a-c181f56bc070","ios":"levelo://app?vid=9b6a0450-86fd-400d-a03a-c181f56bc070"},"vehicle_type_id":"4","last_reported":1744881039,"current_range_meters":24000,"station_id":"ce4bhnp2rcd13ifvqh0g","pricing_plan_id":"cebpf4jnsgd1na2vs0mg"},{"bike_id":"e010048e-e0ed-486c-968d-bffebb9259bb","system_id":"levelo_inurba_marseille","lat":43.28669,"lon":5.36353,"is_reserved":false,"is_disabled":false,"rental_uris":{"android":"levelo://app?vid=e010048e-e0ed-486c-968d-bffebb9259bb","ios":"levelo://app?vid=e010048e-e0ed-486c-968d-bffebb9259bb"},"vehicle_type_id":"4","last_reported":1744881039,"current_range_meters":23200,"station_id":"ce4bhah2rcd13ifvqej0","pricing_plan_id":"cebpf4jnsgd1na2vs0mg"},{"bike_id":"db2488d1-77a1-4eb3-9b9b-b51975bfb43c","system_id":"levelo_inurba_marseille","lat":43.30136,"lon":5.37411,"is_reserved":false,"is_disabled":false,"rental_uris":{"android":"levelo://app?vid=db2488d1-77a1-4eb3-9b9b-b51975bfb43c","ios":"levelo://app?vid=db2488d1-77a1-4eb3-9b9b-b51975bfb43c"},"vehicle_type_id":"4","last_reported":1744881039,"current_range_meters":24000,"station_id":"ce4bgs92rcd13ifvqcc0","pricing_plan_id":"cebpf4jnsgd1na2vs0mg"},{"bike_id":"57bc6ae8-8ba9-43fb-955d-045fe331c855","system_id":"levelo_inurba_marseille","lat":43.30558,"lon":5.36703,"is_reserved":false,"is_disabled":false,"rental_uris":{"android":"levelo://app?vid=57bc6ae8-8ba9-43fb-955d-045fe331c855","ios":"levelo://app?vid=57bc6ae8-8ba9-43fb-955d-045fe331c855"},"vehicle_type_id":"4","last_reported":1744881039,"current_range_meters":24000,"station_id":"ce4bgrp2rcd13ifvqc9g","pricing_plan_id":"cebpf4jnsgd1na2vs0mg"},{"bike_id":"07456d6f-306c-4403-a6be-79421c908067","system_id":"levelo_inurba_marseille","lat":43.2968,"lon":5.36668,"is_reserved":false,"is_disabled":true,"rental_uris":{"android":"levelo://app?vid=07456d6f-306c-4403-a6be-79421c908067","ios":"levelo://app?vid=07456d6f-306c-4403-a6be-79421c908067"},"vehicle_type_id":"4","last_reported":1744881039,"current_range_meters":24000,"station_id":"ce4bgn12rcd13ifvqbt0","pricing_plan_id":"cebpf4jnsgd1na2vs0mg"},{"bike_id":"8a0a2825-e27c-4a04-9f37-7d37515ee796","system_id":"levelo_inurba_marseille","lat":43.25926,"lon":5.40886,"is_reserved":false,"is_disabled":false,"rental_uris":{"android":"levelo://app?vid=8a0a2825-e27c-4a04-9f37-7d37515ee796","ios":"levelo://app?vid=8a0a2825-e27c-4a04-9f37-7d37515ee796"},"vehicle_type_id":"4","last_reported":1744881039,"current_range_meters":24000,"station_id":"ce4bhm92rcd13ifvqglg","pricing_plan_id":"cebpf4jnsgd1na2vs0mg"},{"bike_id":"c205edf5-cc11-4037-b51a-c04fd0fac98e","system_id":"levelo_inurba_marseille","lat":43.235397,"lon":5.403267,"is_reserved":false,"is_disabled":false,"rental_uris":{"android":"levelo://app?vid=c205edf5-cc11-4037-b51a-c04fd0fac98e","ios":"levelo://app?vid=c205edf5-cc11-4037-b51a-c04fd0fac98e"},"vehicle_type_id":"4","last_reported":1744881039,"current_range_meters":24000,"station_id":"","pricing_plan_id":"cebpf4jnsgd1na2vs0mg"},{"bike_id":"d4232a8f-a564-4e44-93fc-5037ace3f483","system_id":"levelo_inurba_marseille","lat":43.30311,"lon":5.39209,"is_reserved":false,"is_disabled":false,"rental_uris":{"android":"levelo://app?vid=d4232a8f-a564-4e44-93fc-5037ace3f483","ios":"levelo://app?vid=d4232a8f-a564-4e44-93fc-5037ace3f483"},"vehicle_type_id":"4","last_reported":1744881039,"current_range_meters":24000,"station_id":"ce4bgkh2rcd13ifvqbk0","pricing_plan_id":"cebpf4jnsgd1na2vs0mg"},{"bike_id":"2fd5f4e5-9aa1-4265-82aa-34fb76fdd3d3","system_id":"levelo_inurba_marseille","lat":43.29549,"lon":5.38537,"is_reserved":false,"is_disabled":false,"rental_uris":{"android":"levelo://app?vid=2fd5f4e5-9aa1-4265-82aa-34fb76fdd3d3","ios":"levelo://app?vid=2fd5f4e5-9aa1-4265-82aa-34fb76fdd3d3"},"vehicle_type_id":"4","last_reported":1744881039,"current_range_meters":24400,"station_id":"ce4bgih2rcd13ifvqba0","pricing_plan_id":"cebpf4jnsgd1na2vs0mg"},{"bike_id":"7d1b0b4b-e95b-4533-8309-734860489786","system_id":"levelo_inurba_marseille","lat":43.27495,"lon":5.41128,"is_reserved":false,"is_disabled":false,"rental_uris":{"android":"levelo://app?vid=7d1b0b4b-e95b-4533-8309-734860489786","ios":"levelo://app?vid=7d1b0b4b-e95b-4533-8309-734860489786"},"vehicle_type_id":"4","last_reported":1744881039,"current_range_meters":24400,"station_id":"","pricing_plan_id":"cebpf4jnsgd1na2vs0mg"},{"bike_id":"4f172882-e66e-4d6c-944a-b9671eae4dda","system_id":"levelo_inurba_marseille","lat":43.24164,"lon":5.39734,"is_reserved":false,"is_disabled":false,"rental_uris":{"android":"levelo://app?vid=4f172882-e66e-4d6c-944a-b9671eae4dda","ios":"levelo://app?vid=4f172882-e66e-4d6c-944a-b9671eae4dda"},"vehicle_type_id":"4","last_reported":1744881039,"current_range_meters":24400,"station_id":"ce4bhn12rcd13ifvqgpg","pricing_plan_id":"cebpf4jnsgd1na2vs0mg"},{"bike_id":"4f278d3a-50c8-4cb9-9daf-40437454749c","system_id":"levelo_inurba_marseille","lat":43.28618,"lon":5.35101,"is_reserved":false,"is_disabled":false,"rental_uris":{"android":"levelo://app?vid=4f278d3a-50c8-4cb9-9daf-40437454749c","ios":"levelo://app?vid=4f278d3a-50c8-4cb9-9daf-40437454749c"},"vehicle_type_id":"4","last_reported":1744881039,"current_range_meters":24400,"station_id":"ce4bhch2rcd13ifvqeug","pricing_plan_id":"cebpf4jnsgd1na2vs0mg"},