{"last_updated":1742555316,"ttl":60,"version":"2.2","data":{"bikes":[{"bike_id":"c3e9b471-2646-4f8a-9291-ede6ed5b8a44","system_id":"levelo_inurba_marseille","lat":43.28417,"lon":5.34974,"is_reserved":false,"is_disabled":false,"rental_uris":{"android":"levelo://app?vid=c3e9b471-2646-4f8a-9291-ede6ed5b8a44","ios":"levelo://app?vid=c3e9b471-2646-4f8a-9291-ede6ed5b8a44"},"vehicle_type_id":"4","last_reported":1742555317,"current_range_meters":2800,"station_id":"ce4bhbh2rcd13ifvqepg","pricing_plan_id":"cebpf4jnsgd1na2vs0mg"},{"bike_id":"d4c7810d-5136-4c1c-9e59-2eafd545bbd4","system_id":"levelo_inurba_marseille","lat":43.30653,"lon":5.40077,"is_reserved":false,"is_disabled":false,"rental_uris":{"android":"levelo://app?vid=d4c7810d-5136-4c1c-9e59-2eafd545bbd4","ios":"levelo://app?vid=d4c7810d-5136-4c1c-9e59-2eafd545bbd4"},"vehicle_type_id":"4","last_reported":1742555317,"current_range_meters":2800,"station_id":"ce4bh112rcd13ifvqda0","pricing_plan_id":"cebpf4jnsgd1na2vs0mg"},{"bike_id":"a9cf5ff7-36bc-4131-a26a-d2a5701e8f33","system_id":"levelo_inurba_marseille","lat":43.26587,"lon":5.39007,"is_reserved":false,"is_disabled":true,"rental_uris":{"android":"levelo://app?vid=a9cf5ff7-36bc-4131-a26a-d2a5701e8f33","ios":"levelo://app?vid=a9cf5ff7-36bc-4131-a26a-d2a5701e8f33"},"vehicle_type_id":"4","last_reported":1742555317,"current_range_meters":2800,"station_id":"ce4bhe12rcd13ifvqf30","pricing_plan_id":"cebpf4jnsgd1na2vs0mg"},{"bike_id":"5188b82b-8c44-42ff-93c4-bf85de5ec3b7","system_id":"levelo_inurba_marseille","lat":43.321,"lon":5.36768,"is_reserved":false,"is_disabled":false,"rental_uris":{"android":"levelo://app?vid=5188b82b-8c44-42ff-93c4-bf85de5ec3b7","ios":"levelo://app?vid=5188b82b-8c44-42ff-93c4-bf85de5ec3b7"},"vehicle_type_id":"4","last_reported":1742555317,"current_range_meters":2800,"station_id":"ce4bhrh2rcd13ifvqhug","pricing_plan_id":"cebpf4jnsgd1na2vs0mg"},{"bike_id":"01ea29a8-41e8-4a6f-92bc-cfa039ed46b6","system_id":"levelo_inurba_marseille","lat":43.27973,"lon":5.38745,"is_reserved":false,"is_disabled":false,"rental_uris":{"android":"levelo://app?vid=01ea29a8-41e8-4a6f-92bc-cfa039ed46b6","ios":"levelo://app?vid=01ea29a8-41e8-4a6f-92bc-cfa039ed46b6"},"vehicle_type_id":"4","last_reported":1742555317,"current_range_meters":2800,"station_id":"ce4bhg12rcd13ifvqf80","pricing_plan_id":"cebpf4jnsgd1na2vs0mg"},{"bike_id":"9cfedcb9-a778-435c-ad61-4ae6ea82bc21","system_id":"levelo_inurba_marseille","lat":43.29846,"lon":5.36272,"is_reserved":false,"is_disabled":false,"rental_uris":{"android":"levelo://app?vid=9cfedcb9-a778-435c-ad61-4ae6ea82bc21","ios":"levelo://app?vid=9cfedcb9-a778-435c-ad61-4ae6ea82bc21"},"vehicle_type_id":"4","last_reported":1742555317,"current_range_meters":2800,"station_id":"ce4bgpp2rcd13ifvqc3g","pricing_plan_id":"cebpf4jnsgd1na2vs0mg"},{"bike_id":"9d26c008-8ec1-4269-9cd2-f45774f03ccb","system_id":"levelo_inurba_marseille","lat":43.27946,"lon":5.3794,"is_reserved":false,"is_disabled":true,"rental_uris":{"android":"levelo://app?vid=9d26c008-8ec1-4269-9cd2-f45774f03ccb","ios":"levelo://app?vid=9d26c008-8ec1-4269-9cd2-f45774f03ccb"},"vehicle_type_id":"4","last_reported":1742555317,"current_range_meters":2800,"station_id":"","pricing_plan_id":"cebpf4jnsgd1na2vs0mg"},{"bike_id":"b343d148-027f-47df-852f-5e3b5ede9c89","system_id":"levelo_inurba_marseille","lat":43.29732,"lon":5.37663,"is_reserved":false,"is_disabled":false,"rental_uris":{"android":"levelo://app?vid=b343d148-027f-47df-852f-5e3b5ede9c89","ios":"levelo://app?vid=b343d148-027f-47df-852f-5e3b5ede9c89"},"vehicle_type_id":"4","last_reported":1742555317,"current_range_meters":3200,"station_id":"ce4bgkh2rcd13ifvqbl0","pricing_plan_id":"cebpf4jnsgd1na2vs0mg"},{"bike_id":"7661730a-e11b-431a-9786-e9413570571f","system_id":"levelo_inurba_marseille","lat":43.32548,"lon":5.4146,"is_reserved":false,"is_disabled":false,"rental_uris":{"android":"levelo://app?vid=7661730a-e11b-431a-9786-e9413570571f","ios":"levelo://app?vid=7661730a-e11b-431a-9786-e9413570571f"},"vehicle_type_id":"4","last_reported":1742555317,"current_range_meters":3200,"station_id":"ce4bhq12rcd13ifvqhhg","pricing_plan_id":"cebpf4jnsgd1na2vs0mg"},{"bike_id":"31765131-a7f6-4512-8b21-b3baafb09697","system_id":"levelo_inurba_marseille","lat":43.24076,"lon":5.37761,"is_reserved":false,"is_disabled":false,"rental_uris":{"android":"levelo://app?vid=31765131-a7f6-4512-8b21-b3baafb09697","ios":"levelo://app?vid=31765131-a7f6-4512-8b21-b3baafb09697"},"vehicle_type_id":"4","last_reported":1742555317,"current_range_meters":3200,"station_id":"ce4bhnp2rcd13ifvqgvg","pricing_plan_id":"cebpf4jnsgd1na2vs0mg"},{"bike_id":"ab69bcfc-d761-4956-93da-10e15e871153","system_id":"levelo_inurba_marseille","lat":43.23159,"lon":5.43706,"is_reserved":false,"is_disabled":false,"rental_uris":{"android":"levelo://app?vid=ab69bcfc-d761-4956-93da-10e15e871153","ios":"levelo://app?vid=ab69bcfc-d761-4956-93da-10e15e871153"},"vehicle_type_id":"4","last_reported":1742555317,"current_range_meters":3600,"station_id":"ce4bhmp2rcd13ifvqgog","pricing_plan_id":"cebpf4jnsgd1na2vs0mg"},{"bike_id":"3ae4f3bd-c485-4c98-8e8e-3c9bb312423a","system_id":"levelo_inurba_marseille","lat":43.248,"lon":5.37453,"is_reserved":false,"is_disabled":false,"rental_uris":{"android":"levelo://app?vid=3ae4f3bd-c485-4c98-8e8e-3c9bb312423a","ios":"levelo://app?vid=3ae4f3bd-c485-4c98-8e8e-3c9bb312423a"},"vehicle_type_id":"4","last_reported":1742555317,"current_range_meters":3600,"station_id":"ce4bhgh2rcd13ifvqfb0","pricing_plan_id":"cebpf4jnsgd1na2vs0mg"},{"bike_id":"a8b8dae1-87ef-4f8a-a2c8-fe9fd9bf0f77","system_id":"levelo_inurba_marseille","lat":43.23653,"lon":5.37731,"is_reserved":false,"is_disabled":false,"rental_uris":{"android":"levelo://app?vid=a8b8dae1-87ef-4f8a-a2c8-fe9fd9bf0f77","ios":"levelo://app?vid=a8b8dae1-87ef-4f8a-a2c8-fe9fd9bf0f77"},"vehicle_type_id":"4","last_reported":1742555317,"current_range_meters":3600,"station_id":"","pricing_plan_id":"cebpf4jnsgd1na2vs0mg"},{"bike_id":"0e947b71-ce8b-404e-8265-f05b0de9c5db","system_id":"levelo_inurba_marseille","lat":43.288708,"lon":5.382087,"is_reserved":false,"is_disabled":false,"rental_uris":{"android":"levelo://app?vid=0e947b71-ce8b-404e-8265-f05b0de9c5db","ios":"levelo://app?vid=0e947b71-ce8b-404e-8265-f05b0de9c5db"},"vehicle_type_id":"4","last_reported":1742555317,"current_range_meters":5600,"station_id":"ce4bgjp2rcd13ifvqbh0","pricing_plan_id":"cebpf4jnsgd1na2vs0mg"},{"bike_id":"5f3ba40f-7d5e-4849-a6a7-abeb2800d1e5","system_id":"levelo_inurba_marseille","lat":43.28468,"lon":5.38422,"is_reserved":false,"is_disabled":false,"rental_uris":{"android":"levelo://app?vid=5f3ba40f-7d5e-4849-a6a7-abeb2800d1e5","ios":"levelo://app?vid=5f3ba40f-7d5e-4849-a6a7-abeb2800d1e5"},"vehicle_type_id":"4","last_reported":1742555317,"current_range_meters":3600,"station_id":"ce4bh512rcd13ifvqe3g","pricing_plan_id":"cebpf4jnsgd1na2vs0mg"},{"bike_id":"5423bdbe-87f8-466f-9c88-9a04badfb3da","system_id":"levelo_inurba_marseille","lat":43.27811,"lon":5.40711,"is_reserved":false,"is_disabled":false,"rental_uris":{"android":"levelo://app?vid=5423bdbe-87f8-466f-9c88-9a04badfb3da","ios":"levelo://app?vid=5423bdbe-87f8-466f-9c88-9a04badfb3da"},"vehicle_type_id":"4","last_reported":1742555317,"current_range_meters":3600,"station_id":"ce4bhnh2rcd13ifvqgtg","pricing_plan_id":"cebpf4jnsgd1na2vs0mg"},{"bike_id":"d526b6e2-b103-4339-baa5-b85128efba8c","system_id":"levelo_inurba_marseille","lat":43.23062,"lon":5.35486,"is_reserved":false,"is_disabled":false,"rental_uris":{"android":"levelo://app?vid=d526b6e2-b103-4339-baa5-b85128efba8c","ios":"levelo://app?vid=d526b6e2-b103-4339-baa5-b85128efba8c"},"vehicle_type_id":"4","last_reported":1742555317,"current_range_meters":3600,"station_id":"cpo3342slgdg3j2ifvpg","pricing_plan_id":"cebpf4jnsgd1na2vs0mg"},{"bike_id":"1e736923-ea4a-4708-bf10-7f0da898f396","system_id":"levelo_inurba_marseille","lat":43.27945,"lon":5.41042,"is_reserved":false,"is_disabled":false,"rental_uris":{"android":"levelo://app?vid=1e736923-ea4a-4708-bf10-7f0da898f396","ios":"levelo://app?vid=1e736923-ea4a-4708-bf10-7f0da898f396"},"vehicle_type_id":"4","last_reported":1742555317,"current_range_meters":4000,"station_id":"ce4bhnp2rcd13ifvqh0g","pricing_plan_id":"cebpf4jnsgd1na2vs0mg"},{"bike_id":"dd3884dc-0b6b-4a2b-8af5-b0f72ae3a61b","system_id":"levelo_inurba_marseille","lat":43.23214,"lon":5.35551,"is_reserved":false,"is_disabled":false,"rental_uris":{"android":"levelo://app?vid=dd3884dc-0b6b-4a2b-8af5-b0f72ae3a61b","ios":"levelo://app?vid=dd3884dc-0b6b-4a2b-8af5-b0f72ae3a61b"},"vehicle_type_id":"4","last_reported":1742555317,"current_range_meters":4000,"station_id":"ce4bhu92rcd13ifvqi70","pricing_plan_id":"cebpf4jnsgd1na2vs0mg"},{"bike_id":"9fcb3f14-f368-4f79-aa70-01b27150c36b","system_id":"levelo_inurba_marseille","lat":43.30616,"lon":5.37219,"is_reserved":false,"is_disabled":false,"rental_uris":{"android":"levelo://app?vid=9fcb3f14-f368-4f79-aa70-01b27150c36b","ios":"levelo://app?vid=9fcb3f14-f368-4f79-aa70-01b27150c36b"},"vehicle_type_id":"4","last_reported":1742555317,"current_range_meters":4400,"station_id":"ce4bgqh2rcd13ifvqc4g","pricing_plan_id":"cebpf4jnsgd1na2vs0mg"},{"bike_id":"a8bff648-9b4d-483e-8acf-924a729bd8cf","system_id":"levelo_inurba_marseille","lat":43.29253,"lon":5.37619,"is_reserved":false,"is_disabled":false,"rental_uris":{"android":"levelo://app?vid=a8bff648-9b4d-483e-8acf-924a729bd8cf","ios":"levelo://app?vid=a8bff648-9b4d-483e-8acf-924a729bd8cf"},"vehicle_type_id":"4","last_reported":1742555317,"current_range_meters":4400,"station_id":"ce4bgi12rcd13ifvqb80","pricing_plan_id":"cebpf4jnsgd1na2vs0mg"},{"bike_id":"71f4d8c0-62a7-4e03-84e4-761cb37b4665","system_id":"levelo_inurba_marseille","lat":43.25866,"lon":5.39896,"is_reserved":false,"is_disabled":false,"rental_uris":{"android":"levelo://app?vid=71f4d8c0-62a7-4e03-84e4-761cb37b4665","ios":"levelo://app?vid=71f4d8c0-62a7-4e03-84e4-761cb37b4665"},"vehicle_type_id":"4","last_reported":1742555317,"current_range_meters":4400,"station_id":"ce4bhl92rcd13ifvqghg","pricing_plan_id":"cebpf4jnsgd1na2vs0mg"},{"bike_id":"3727f4be-5563-409d-8da3-b38dbedb20f7","system_id":"levelo_inurba_marseille","lat":43.31082,"lon":5.42428,"is_reserved":false,"is_disabled":false,"rental_uris":{"android":"levelo://app?vid=3727f4be-5563-409d-8da3-b38dbedb20f7","ios":"levelo://app?vid=3727f4be-5563-409d-8da3-b38dbedb20f7"},"vehicle_type_id":"4","last_reported":1742555317,"current_range_meters":4400,"station_id":"ce4bhp92rcd13ifvqhag","pricing_plan_id":"cebpf4jnsgd1na2vs0mg"},{"bike_id":"e2d44c57-a27d-483b-ad06-7050d944e5ad","system_id":"levelo_inurba_marseille","lat":43.26955,"lon":5.38631,"is_reserved":false,"is_disabled":false,"rental_uris":{"android":"levelo://app?vid=e2d44c57-a27d-483b-ad06-7050d944e5ad","ios":"levelo://app?vid=e2d44c57-a27d-483b-ad06-7050d944e5ad"},"vehicle_type_id":"4","last_reported":1742555317,"current_range_meters":4400,"station_id":"ce4bhh92rcd13ifvqfh0","pricing_plan_id":"cebpf4jnsgd1na2vs0mg"},{"bike_id":"0d87581c-e8a1-4ddc-bbdb-cc51556eba17","system_id":"levelo_inurba_marseille","lat":43.33605,"lon":5.41006,"is_reserved":false,"is_disabled":false,"rental_uris":{"android":"levelo://app?vid=0d87581c-e8a1-4ddc-bbdb-cc51556eba17","ios":"levelo://app?vid=0d87581c-e8a1-4ddc-bbdb-cc51556eba17"},"vehicle_type_id":"4","last_reported":1742555317,"current_range_meters":4800,"station_id":"ce4bhqh2rcd13ifvqhmg","pricing_plan_id":"cebpf4jnsgd1na2vs0mg"},{"bike_id":"3bc09cc6-7519-4148-8e02-6be6b2944326","system_id":"levelo_inurba_marseille","lat":43.33599,"lon":5.41029,"is_reserved":false,"is_disabled":false,"rental_uris":{"android":"levelo://app?vid=3bc09cc6-7519-4148-8e02-6be6b2944326","ios":"levelo://app?vid=3bc09cc6-7519-4148-8e02-6be6b2944326"},"vehicle_type_id":"4","last_reported":1742555317,"current_range_meters":4800,"station_id":"ce4bhqh2rcd13ifvqhmg","pricing_plan_id":"cebpf4jnsgd1na2vs0mg"},{"bike_id":"e2ecdb3b-13af-49d0-808a-fbb62af48169","system_id":"levelo_inurba_marseille","lat":43.30418,"lon":5.41264,"is_reserved":false,"is_disabled":false,"rental_uris":{"android":"levelo://app?vid=e2ecdb3b-13af-49d0-808a-fbb62af48169","ios":"levelo://app?vid=e2ecdb3b-13af-49d0-808a-fbb62af48169"},"vehicle_type_id":"4","last_reported":1742555317,"current_range_meters":4800,"station_id":"ce4bhop2rcd13ifvqh8g","pricing_plan_id":"cebpf4jnsgd1na2vs0mg"},{"bike_id":"f0873dc0-191c-4072-a604-161d0d7354a6","system_id":"levelo_inurba_marseille","lat":43.303726,"lon":5.424886,"is_reserved":false,"is_disabled":false,"rental_uris":{"android":"levelo://app?vid=f0873dc0-191c-4072-a604-161d0d7354a6","ios":"levelo://app?vid=f0873dc0-191c-4072-a604-161d0d7354a6"},"vehicle_type_id":"4","last_reported":1742555317,"current_range_meters":6400,"station_id":"ce4bgvh2rcd13ifvqcs0","pricing_plan_id":"cebpf4jnsgd1na2vs0mg"},{"bike_id":"bf0245c4-7cee-4d0e-846e-faf8fb6593a4","system_id":"levelo_inurba_marseille","lat":43.27362,"lon":5.36273,"is_reserved":false,"is_disabled":false,"rental_uris":{"android":"levelo://app?vid=bf0245c4-7cee-4d0e-846e-faf8fb6593a4","ios":"levelo://app?vid=bf0245c4-7cee-4d0e-846e-faf8fb6593a4"},"vehicle_type_id":"4","last_reported":1742555317,"current_range_meters":4800,"station_id":"ce4bhbh2rcd13ifvqeo0","pricing_plan_id":"cebpf4jnsgd1na2vs0mg"},{"bike_id":"fe50c81f-f7a5-4b77-a579-9f306f596c54","system_id":"levelo_inurba_marseille","lat":43.29302,"lon":5.37456,"is_reserved":false,"is_disabled":false,"rental_uris":{"android":"levelo://app?vid=fe50c81f-f7a5-4b77-a579-9f306f596c54","ios":"levelo://app?vid=fe50c81f-f7a5-4b77-a579-9f306f596c54"},"vehicle_type_id":"4","last_reported":1742555317,"current_range_meters":4800,"station_id":"ce4bgi12rcd13ifvqb70","pricing_plan_id":"cebpf4jnsgd1na2vs0mg"},{"bike_id":"1d38a32a-ef1a-4b49-a7dd-cf323330d96c","system_id":"levelo_inurba_marseille","lat":43.30926,"lon":5.40138,"is_reserved":false,"is_disabled":true,"rental_uris":{"android":"levelo://app?vid=1d38a32a-ef1a-4b49-a7dd-cf323330d96c","ios":"levelo://app?vid=1d38a32a-ef1a-4b49-a7dd-cf323330d96c"},"vehicle_type_id":"4","last_reported":1742555317,"current_range_meters":4400,"station_id":"ce4bgvp2rcd13ifvqct0","pricing_plan_id":"cebpf4jnsgd1na2vs0mg"},{"bike_id":"c02cb7d4-ba88-4de5-a483-7eec6c538320","system_id":"levelo_inurba_marseille","lat":43.24647,"lon":5.3889,"is_reserved":false,"is_disabled":false,"rental_uris":{"android":"levelo://app?vid=c02cb7d4-ba88-4de5-a483-7eec6c538320","ios":"levelo://app?vid=c02cb7d4-ba88-4de5-a483-7eec6c538320"},"vehicle_type_id":"4","last_reported":1742555317,"current_range_meters":4800,"station_id":"ce4bhg12rcd13ifvqf60","pricing_plan_id":"cebpf4jnsgd1na2vs0mg"},{"bike_id":"471b8c1a-1a85-4080-b533-fb41f3dbfd81","system_id":"levelo_inurba_marseille","lat":43.2321,"lon":5.35553,"is_reserved":false,"is_disabled":false,"rental_uris":{"android":"levelo://app?vid=471b8c1a-1a85-4080-b533-fb41f3dbfd81","ios":"levelo://app?vid=471b8c1a-1a85-4080-b533-fb41f3dbfd81"},"vehicle_type_id":"4","last_reported":1742555317,"current_range_meters":5600,"station_id":"ce4bhu92rcd13ifvqi70","pricing_plan_id":"cebpf4jnsgd1na2vs0mg"},{"bike_id":"671210b1-9e8f-4893-953f-985ab8b97e34","system_id":"levelo_inurba_marseille","lat":43.32104,"lon":5.36755,"is_reserved":false,"is_disabled":false,"rental_uris":{"android":"levelo://app?vid=671210b1-9e8f-4893-953f-985ab8b97e34","ios":"levelo://app?vid=671210b1-9e8f-4893-953f-985ab8b97e34"},"vehicle_type_id":"4","last_reported":1742555317,"current_range_meters":5600,"station_id":"ce4bhrh2rcd13ifvqhug","pricing_plan_id":"cebpf4jnsgd1na2vs0mg"},{"bike_id":"6fc4d402-a718-4441-82e4-db60aa4fa880","system_id":"levelo_inurba_marseille","lat":43.30528,"lon":5.36722,"is_reserved":false,"is_disabled":false,"rental_uris":{"android":"levelo://app?vid=6fc4d402-a718-4441-82e4-db60aa4fa880","ios":"levelo://app?vid=6fc4d402-a718-4441-82e4-db60aa4fa880"},"vehicle_type_id":"4","last_reported":1742555317,"current_range_meters":6000,"station_id":"ce4bgrp2rcd13ifvqc9g","pricing_plan_id":"cebpf4jnsgd1na2vs0mg"},{"bike_id":"1dba7d11-aa8b-424c-a49e-cca2ab6fa1b3","system_id":"levelo_inurba_marseille","lat":43.306,"lon":5.36579,"is_reserved":false,"is_disabled":false,"rental_uris":{"android":"levelo://app?vid=1dba7d11-aa8b-424c-a49e-cca2ab6fa1b3","ios":"levelo://app?vid=1dba7d11-aa8b-424c-a49e-cca2ab6fa1b3"},"vehicle_type_id":"4","last_reported":1742555317,"current_range_meters":6000,"station_id":"ce4bgs12rcd13ifvqcag","pricing_plan_id":"cebpf4jnsgd1na2vs0mg"},{"bike_id":"88235f40-31c6-4a2f-8946-34e3a8b8f4b1","system_id":"levelo_inurba_marseille","lat":43.29876,"lon":5.3975,"is_reserved":false,"is_disabled":false,"rental_uris":{"android":"levelo://app?vid=88235f40-31c6-4a2f-8946-34e3a8b8f4b1","ios":"levelo://app?vid=88235f40-31c6-4a2f-8946-34e3a8b8f4b1"},"vehicle_type_id":"4","last_reported":1742555317,"current_range_meters":6000,"station_id":"ce4bh0h2rcd13ifvqd50","pricing_plan_id":"cebpf4jnsgd1na2vs0mg"},{"bike_id":"caf327ee-0718-40f1-8a49-7a70f510b0a8","system_id":"levelo_inurba_marseille","lat":43.2696,"lon":5.38624,"is_reserved":false,"is_disabled":true,"rental_uris":{"android":"levelo://app?vid=caf327ee-0718-40f1-8a49-7a70f510b0a8","ios":"levelo://app?vid=caf327ee-0718-40f1-8a49-7a70f510b0a8"},"vehicle_type_id":"4","last_reported":1742555317,"current_range_meters":6000,"station_id":"ce4bhh92rcd13ifvqfh0","pricing_plan_id":"cebpf4jnsgd1na2vs0mg"},{"bike_id":"9b6be2af-88e9-4c3e-9a05-30ebb81a71bc","system_id":"levelo_inurba_marseille","lat":43.22936,"lon":5.35382,"is_reserved":false,"is_disabled":false,"rental_uris":{"android":"levelo://app?vid=9b6be2af-88e9-4c3e-9a05-30ebb81a71bc","ios":"levelo://app?vid=9b6be2af-88e9-4c3e-9a05-30ebb81a71bc"},"vehicle_type_id":"4","last_reported":1742555317,"current_range_meters":6400,"station_id":"cpo3532slgdg3j2ikp40","pricing_plan_id":"cebpf4jnsgd1na2vs0mg"},{"bike_id":"cb6062cd-3cfa-4917-b79b-5707b99e3c03","system_id":"levelo_inurba_marseille","lat":43.321185,"lon":5.367534,"is_reserved":false,"is_disabled":false,"rental_uris":{"android":"levelo://app?vid=cb6062cd-3cfa-4917-b79b-5707b99e3c03","ios":"levelo://app?vid=cb6062cd-3cfa-4917-b79b-5707b99e3c03"},"vehicle_type_id":"4","last_reported":1742555317,"current_range_meters":6800,"station_id":"ce4bho92rcd13ifvqh3g","pricing_plan_id":"cebpf4jnsgd1na2vs0mg"},{"bike_id":"18da5e6a-cee5-42b3-b6fc-ba5d7d10a7b8","system_id":"levelo_inurba_marseille","lat":43.30973,"lon":5.39056,"is_reserved":false,"is_disabled":false,"rental_uris":{"android":"levelo://app?vid=18da5e6a-cee5-42b3-b6fc-ba5d7d10a7b8","ios":"levelo://app?vid=18da5e6a-cee5-42b3-b6fc-ba5d7d10a7b8"},"vehicle_type_id":"4","last_reported":1742555317,"current_range_meters":6400,"station_id":"ce4bgup2rcd13ifvqco0","pricing_plan_id":"cebpf4jnsgd1na2vs0mg"},{"bike_id":"c2e5f77d-7def-477a-88be-4e7832c31727","system_id":"levelo_inurba_marseille","lat":43.25922,"lon":5.40881,"is_reserved":false,"is_disabled":false,"rental_uris":{"android":"levelo://app?vid=c2e5f77d-7def-477a-88be-4e7832c31727","ios":"levelo://app?vid=c2e5f77d-7def-477a-88be-4e7832c31727"},"vehicle_type_id":"4","last_reported":1742555317,"current_range_meters":6400,"station_id":"ce4bhm92rcd13ifvqglg","pricing_plan_id":"cebpf4jnsgd1na2vs0mg"},{"bike_id":"9b2a4ae1-45d2-42a7-b1d8-970226b193d0","system_id":"levelo_inurba_marseille","lat":43.24178,"lon":5.39727,"is_reserved":false,"is_disabled":false,"rental_uris":{"android":"levelo://app?vid=9b2a4ae1-45d2-42a7-b1d8-970226b193d0","ios":"levelo://app?vid=9b2a4ae1-45d2-42a7-b1d8-970226b193d0"},"vehicle_type_id":"4","last_reported":1742555317,"current_range_meters":6400,"station_id":"ce4bhn12rcd13ifvqgpg","pricing_plan_id":"cebpf4jnsgd1na2vs0mg"},{"bike_id":"bb39998e-5536-4c01-9649-aa23c9e877a2","system_id":"levelo_inurba_marseille","lat":43.24545,"lon":5.39518,"is_reserved":false,"is_disabled":false,"rental_uris":{"android":"levelo://app?vid=bb39998e-5536-4c01-9649-aa23c9e877a2","ios":"levelo://app?vid=bb39998e-5536-4c01-9649-aa23c9e877a2"},"vehicle_type_id":"4","last_reported":1742555317,"current_range_meters":6400,"station_id":"ce4bhlp2rcd13ifvqgjg","pricing_plan_id":"cebpf4jnsgd1na2vs0mg"},{"bike_id":"68259663-c26a-49c3-a9a6-d533211a814c","system_id":"levelo_inurba_marseille","lat":43.28467,"lon":5.38413,"is_reserved":false,"is_disabled":false,"rental_uris":{"android":"levelo://app?vid=68259663-c26a-49c3-a9a6-d533211a814c","ios":"levelo://app?vid=68259663-c26a-49c3-a9a6-d533211a814c"},"vehicle_type_id":"4","last_reported":1742555317,"current_range_meters":6400,"station_id":"ce4bh512rcd13ifvqe3g","pricing_plan_id":"cebpf4jnsgd1na2vs0mg"},{"bike_id":"e3e6d7fb-d0eb-400d-99f6-b9fcf266ea1c","system_id":"levelo_inurba_marseille","lat":43.30558,"lon":5.36558,"is_reserved":false,"is_disabled":false,"rental_uris":{"android":"levelo://app?vid=e3e6d7fb-d0eb-400d-99f6-b9fcf266ea1c","ios":"levelo://app?vid=e3e6d7fb-d0eb-400d-99f6-b9fcf266ea1c"},"vehicle_type_id":"4","last_reported":1742555317,"current_range_meters":6400,"station_id":"ce4bgs12rcd13ifvqcag","pricing_plan_id":"cebpf4jnsgd1na2vs0mg"},{"bike_id":"d7645557-54c5-44ed-8c44-41e433a350da","system_id":"levelo_inurba_marseille","lat":43.29476,"lon":5.35555,"is_reserved":false,"is_disabled":false,"rental_uris":{"android":"levelo://app?vid=d7645557-54c5-44ed-8c44-41e433a350da","ios":"levelo://app?vid=d7645557-54c5-44ed-8c44-41e433a350da"},"vehicle_type_id":"4","last_reported":1742555317,"current_range_meters":6400,"station_id":"","pricing_plan_id":"cebpf4jnsgd1na2vs0mg"},{"bike_id":"cdce0b1e-0adf-4c02-b344-7a2532049191","system_id":"levelo_inurba_marseille","lat":43.28034,"lon":5.36951,"is_reserved":false,"is_disabled":false,"rental_uris":{"android":"levelo://app?vid=cdce0b1e-0adf-4c02-b344-7a2532049191","ios":"levelo://app?vid=cdce0b1e-0adf-4c02-b344-7a2532049191"},"vehicle_type_id":"4","last_reported":1742555317,"current_range_meters":6400,"station_id":"ce4bha12rcd13ifvqef0","pricing_plan_id":"cebpf4jnsgd1na2vs0mg"},{"bike_id":"2538143b-ce35-4121-88d6-2a5bb3504c70","system_id":"levelo_inurba_marseille","lat":43.27811,"lon":5.40706,"is_reserved":false,"is_disabled":false,"rental_uris":{"android":"levelo://app?vid=2538143b-ce35-4121-88d6-2a5bb3504c70","ios":"levelo://app?vid=2538143b-ce35-4121-88d6-2a5bb3504c70"},"vehicle_type_id":"4","last_reported":1742555317,"current_range_meters":6800,"station_id":"ce4bhnh2rcd13ifvqgtg","pricing_plan_id":"cebpf4jnsgd1na2vs0mg"},{"bike_id":"3a260712-d654-4076-bb8e-2d2c938680e2","system_id":"levelo_inurba_marseille","lat":43.33603,"lon":5.40994,"is_reserved":false,"is_disabled":false,"rental_uris":{"android":"levelo://app?vid=3a260712-d654-4076-bb8e-2d2c938680e2","ios":"levelo://app?vid=3a260712-d654-4076-bb8e-2d2c938680e2"},"vehicle_type_id":"4","last_reported":1742555317,"current_range_meters":6800,"station_id":"ce4bhqh2rcd13ifvqhmg","pricing_plan_id":"cebpf4jnsgd1na2vs0mg"},{"bike_id":"4f3fae75-1507-44ea-b182-5931043b4935","system_id":"levelo_inurba_marseille","lat":43.26572,"lon":5.38995,"is_reserved":false,"is_disabled":false,"rental_uris":{"android":"levelo://app?vid=4f3fae75-1507-44ea-b182-5931043b4935","ios":"levelo://app?vid=4f3fae75-1507-44ea-b182-5931043b4935"},"vehicle_type_id":"4","last_reported":1742555317,"current_range_meters":6800,"station_id":"ce4bhe12rcd13ifvqf30","pricing_plan_id":"cebpf4jnsgd1na2vs0mg"},{"bike_id":"b82d6ead-402b-4db0-8007-debc71aee8bc","system_id":"levelo_inurba_marseille","lat":43.2314,"lon":5.43709,"is_reserved":false,"is_disabled":false,"rental_uris":{"android":"levelo://app?vid=b82d6ead-402b-4db0-8007-debc71aee8bc","ios":"levelo://app?vid=b82d6ead-402b-4db0-8007-debc71aee8bc"},"vehicle_type_id":"4","last_reported":1742555317,"current_range_meters":6800,"station_id":"ce4bhmp2rcd13ifvqgog","pricing_plan_id":"cebpf4jnsgd1na2vs0mg"},{"bike_id":"79b9318f-7b68-4ffa-a739-3d904aa51145","system_id":"levelo_inurba_marseille","lat":43.26738,"lon":5.39374,"is_reserved":false,"is_disabled":false,"rental_uris":{"android":"levelo://app?vid=79b9318f-7b68-4ffa-a739-3d904aa51145","ios":"levelo://app?vid=79b9318f-7b68-4ffa-a739-3d904aa51145"},"vehicle_type_id":"4","last_reported":1742555317,"current_range_meters":6800,"station_id":"","pricing_plan_id":"cebpf4jnsgd1na2vs0mg"},{"bike_id":"4da38abe-63fe-44a7-abd3-4bad6629a678","system_id":"levelo_inurba_marseille","lat":43.297,"lon":5.37347,"is_reserved":false,"is_disabled":false,"rental_uris":{"android":"levelo://app?vid=4da38abe-63fe-44a7-abd3-4bad6629a678","ios":"levelo://app?vid=4da38abe-63fe-44a7-abd3-4bad6629a678"},"vehicle_type_id":"4","last_reported":1742555317,"current_range_meters":6800,"station_id":"","pricing_plan_id":"cebpf4jnsgd1na2vs0mg"},{"bike_id":"a1d4474e-dc54-4e96-8359-81b099ba1a93","system_id":"levelo_inurba_marseille","lat":43.23181,"lon":5.40001,"is_reserved":false,"is_disabled":false,"rental_uris":{"android":"levelo://app?vid=a1d4474e-dc54-4e96-8359-81b099ba1a93","ios":"levelo://app?vid=a1d4474e-dc54-4e96-8359-81b099ba1a93"},"vehicle_type_id":"4","last_reported":1742555317,"current_range_meters":7200,"station_id":"ce4bhn12rcd13ifvqgqg","pricing_plan_id":"cebpf4jnsgd1na2vs0mg"},{"bike_id":"b266faba-4e26-4c50-b078-a54d17773ddd","system_id":"levelo_inurba_marseille","lat":43.24551,"lon":5.39516,"is_reserved":false,"is_disabled":false,"rental_uris":{"android":"levelo://app?vid=b266faba-4e26-4c50-b078-a54d17773ddd","ios":"levelo://app?vid=b266faba-4e26-4c50-b078-a54d17773ddd"},"vehicle_type_id":"4","last_reported":1742555317,"current_range_meters":7200,"station_id":"ce4bhlp2rcd13ifvqgjg","pricing_plan_id":"cebpf4jnsgd1na2vs0mg"},{"bike_id":"bf937b59-7f17-447a-bbc2-76c829f6f4d8","system_id":"levelo_inurba_marseille","lat":43.30423,"lon":5.39756,"is_reserved":false,"is_disabled":false,"rental_uris":{"android":"levelo://app?vid=bf937b59-7f17-447a-bbc2-76c829f6f4d8","ios":"levelo://app?vid=bf937b59-7f17-447a-bbc2-76c829f6f4d8"},"vehicle_type_id":"4","last_reported":1742555317,"current_range_meters":6800,"station_id":"ce4bh092rcd13ifvqd20","pricing_plan_id":"cebpf4jnsgd1na2vs0mg"},{"bike_id":"a0deeb6c-62a7-4efb-834c-1bec837aaba6","system_id":"levelo_inurba_marseille","lat":43.33667,"lon":5.37876,"is_reserved":false,"is_disabled":false,"rental_uris":{"android":"levelo://app?vid=a0deeb6c-62a7-4efb-834c-1bec837aaba6","ios":"levelo://app?vid=a0deeb6c-62a7-4efb-834c-1bec837aaba6"},"vehicle_type_id":"4","last_reported":1742555317,"current_range_meters":7200,"station_id":"","pricing_plan_id":"cebpf4jnsgd1na2vs0mg"},{"bike_id":"e89938e1-20fe-43f7-9171-53b16b1c8573","system_id":"levelo_inurba_marseille","lat":43.29936,"lon":5.36543,"is_reserved":false,"is_disabled":false,"rental_uris":{"android":"levelo://app?vid=e89938e1-20fe-43f7-9171-53b16b1c8573","ios":"levelo://app?vid=e89938e1-20fe-43f7-9171-53b16b1c8573"},"vehicle_type_id":"4","last_reported":1742555317,"current_range_meters":7200,"station_id":"ce4bgm92rcd13ifvqbr0","pricing_plan_id":"cebpf4jnsgd1na2vs0mg"},{"bike_id":"ffbee1c9-ab8d-45ee-b606-c546ab78c5f2","system_id":"levelo_inurba_marseille","lat":43.29737,"lon":5.37761,"is_reserved":false,"is_disabled":false,"rental_uris":{"android":"levelo://app?vid=ffbee1c9-ab8d-45ee-b606-c546ab78c5f2","ios":"levelo://app?vid=ffbee1c9-ab8d-45ee-b606-c546ab78c5f2"},"vehicle_type_id":"4","last_reported":1742555317,"current_range_meters":7200,"station_id":"","pricing_plan_id":"cebpf4jnsgd1na2vs0mg"},{"bike_id":"9044461e-62db-4d23-b825-ab9c7ed1b440","system_id":"levelo_inurba_marseille","lat":43.27493,"lon":5.42465,"is_reserved":false,"is_disabled":false,"rental_uris":{"android":"levelo://app?vid=9044461e-62db-4d23-b825-ab9c7ed1b440","ios":"levelo://app?vid=9044461e-62db-4d23-b825-ab9c7ed1b440"},"vehicle_type_id":"4","last_reported":1742555317,"current_range_meters":7200,"station_id":"ce4bho12rcd13ifvqh1g","pricing_plan_id":"cebpf4jnsgd1na2vs0mg"},{"bike_id":"750bbe6b-d065-4fc6-8f04-f37a21c3cf71","system_id":"levelo_inurba_marseille","lat":43.2994,"lon":5.36544,"is_reserved":false,"is_disabled":false,"rental_uris":{"android":"levelo://app?vid=750bbe6b-d065-4fc6-8f04-f37a21c3cf71","ios":"levelo://app?vid=750bbe6b-d065-4fc6-8f04-f37a21c3cf71"},"vehicle_type_id":"4","last_reported":1742555317,"current_range_meters":7200,"station_id":"ce4bgm92rcd13ifvqbr0","pricing_plan_id":"cebpf4jnsgd1na2vs0mg"},{"bike_id":"c5bb5dca-1dc9-450e-9a3d-9fa737cf345d","system_id":"levelo_inurba_marseille","lat":43.2464,"lon":5.38876,"is_reserved":false,"is_disabled":false,"rental_uris":{"android":"levelo://app?vid=c5bb5dca-1dc9-450e-9a3d-9fa737cf345d","ios":"levelo://app?vid=c5bb5dca-1dc9-450e-9a3d-9fa737cf345d"},"vehicle_type_id":"4","last_reported":1742555317,"current_range_meters":7200,"station_id":"ce4bhg12rcd13ifvqf60","pricing_plan_id":"cebpf4jnsgd1na2vs0mg"},{"bike_id":"c384682c-192d-40f7-b9e4-de36f2f1db0c","system_id":"levelo_inurba_marseille","lat":43.28976,"lon":5.37838,"is_reserved":false,"is_disabled":false,"rental_uris":{"android":"levelo://app?vid=c384682c-192d-40f7-b9e4-de36f2f1db0c","ios":"levelo://app?vid=c384682c-192d-40f7-b9e4-de36f2f1db0c"},"vehicle_type_id":"4","last_reported":1742555317,"current_range_meters":6400,"station_id":"ce4bh9p2rcd13ifvqed0","pricing_plan_id":"cebpf4jnsgd1na2vs0mg"},{"bike_id":"08fbfc0e-8859-40ee-8cbd-19a2ca342a7f","system_id":"levelo_inurba_marseille","lat":43.28489,"lon":5.38553,"is_reserved":false,"is_disabled":false,"rental_uris":{"android":"levelo://app?vid=08fbfc0e-8859-40ee-8cbd-19a2ca342a7f","ios":"levelo://app?vid=08fbfc0e-8859-40ee-8cbd-19a2ca342a7f"},"vehicle_type_id":"4","last_reported":1742555317,"current_range_meters":8000,"station_id":"ce4bh8p2rcd13ifvqeb0","pricing_plan_id":"cebpf4jnsgd1na2vs0mg"},{"bike_id":"74ca8f8e-770f-4c39-9bcc-04d356dfc1fe","system_id":"levelo_inurba_marseille","lat":43.32485,"lon":5.36587,"is_reserved":false,"is_disabled":false,"rental_uris":{"android":"levelo://app?vid=74ca8f8e-770f-4c39-9bcc-04d356dfc1fe","ios":"levelo://app?vid=74ca8f8e-770f-4c39-9bcc-04d356dfc1fe"},"vehicle_type_id":"4","last_reported":1742555317,"current_range_meters":8000,"station_id":"ce4bhs12rcd13ifvqhvg","pricing_plan_id":"cebpf4jnsgd1na2vs0mg"},{"bike_id":"86bb197c-4821-4486-8240-358a84aba221","system_id":"levelo_inurba_marseille","lat":43.268117,"lon":5.402769,"is_reserved":false,"is_disabled":false,"rental_uris":{"android":"levelo://app?vid=86bb197c-4821-4486-8240-358a84aba221","ios":"levelo://app?vid=86bb197c-4821-4486-8240-358a84aba221"},"vehicle_type_id":"4","last_reported":1742555317,"current_range_meters":8000,"station_id":"ce501612rcd8frsf0b60","pricing_plan_id":"cebpf4jnsgd1na2vs0mg"},{"bike_id":"32e3927b-12d0-4b1a-9923-ea2f64ded6c1","system_id":"levelo_inurba_marseille","lat":43.2816,"lon":5.42651,"is_reserved":false,"is_disabled":false,"rental_uris":{"android":"levelo://app?vid=32e3927b-12d0-4b1a-9923-ea2f64ded6c1","ios":"levelo://app?vid=32e3927b-12d0-4b1a-9923-ea2f64ded6c1"},"vehicle_type_id":"4","last_reported":1742555317,"current_range_meters":8000,"station_id":"ce4bhnh2rcd13ifvqgug","pricing_plan_id":"cebpf4jnsgd1na2vs0mg"},{"bike_id":"88501e53-e76c-489b-99f7-574c8d93ec0e","system_id":"levelo_inurba_marseille","lat":43.30143,"lon":5.39878,"is_reserved":false,"is_disabled":false,"rental_uris":{"android":"levelo://app?vid=88501e53-e76c-489b-99f7-574c8d93ec0e","ios":"levelo://app?vid=88501e53-e76c-489b-99f7-574c8d93ec0e"},"vehicle_type_id":"4","last_reported":1742555317,"current_range_meters":8000,"station_id":"ce4bh0h2rcd13ifvqd40","pricing_plan_id":"cebpf4jnsgd1na2vs0mg"},{"bike_id":"e4fbf9fd-bd25-478f-b5b7-4e74d725d8b8","system_id":"levelo_inurba_marseille","lat":43.2816,"lon":5.42638,"is_reserved":false,"is_disabled":false,"rental_uris":{"android":"levelo://app?vid=e4fbf9fd-bd25-478f-b5b7-4e74d725d8b8","ios":"levelo://app?vid=e4fbf9fd-bd25-478f-b5b7-4e74d725d8b8"},"vehicle_type_id":"4","last_reported":1742555317,"current_range_meters":8000,"station_id":"ce4bhnh2rcd13ifvqgug","pricing_plan_id":"cebpf4jnsgd1na2vs0mg"},{"bike_id":"298094ff-1b8f-403e-b315-5326030acb86","system_id":"levelo_inurba_marseille","lat":43.2816,"lon":5.42633,"is_reserved":false,"is_disabled":false,"rental_uris":{"android":"levelo://app?vid=298094ff-1b8f-403e-b315-5326030acb86","ios":"levelo://app?vid=298094ff-1b8f-403e-b315-5326030acb86"},"vehicle_type_id":"4","last_reported":1742555317,"current_range_meters":8000,"station_id":"ce4bhnh2rcd13ifvqgug","pricing_plan_id":"cebpf4jnsgd1na2vs0mg"},{"bike_id":"27ba7872-d30c-4e7a-8a0a-2b21102c26b6","system_id":"levelo_inurba_marseille","lat":43.2649,"lon":5.39538,"is_reserved":false,"is_disabled":false,"rental_uris":{"android":"levelo://app?vid=27ba7872-d30c-4e7a-8a0a-2b21102c26b6","ios":"levelo://app?vid=27ba7872-d30c-4e7a-8a0a-2b21102c26b6"},"vehicle_type_id":"4","last_reported":1742555317,"current_range_meters":8000,"station_id":"ce4bhi12rcd13ifvqfq0","pricing_plan_id":"cebpf4jnsgd1na2vs0mg"},{"bike_id":"1650c152-e083-415c-b118-5516ca869cbf","system_id":"levelo_inurba_marseille","lat":43.26961,"lon":5.38635,"is_reserved":false,"is_disabled":false,"rental_uris":{"android":"levelo://app?vid=1650c152-e083-415c-b118-5516ca869cbf","ios":"levelo://app?vid=1650c152-e083-415c-b118-5516ca869cbf"},"vehicle_type_id":"4","last_reported":1742555317,"current_range_meters":8000,"station_id":"ce4bhh92rcd13ifvqfh0","pricing_plan_id":"cebpf4jnsgd1na2vs0mg"},{"bike_id":"08b1c5d9-0db5-4f74-ad5f-3ea86750a7be","system_id":"levelo_inurba_marseille","lat":43.31087,"lon":5.38356,"is_reserved":false,"is_disabled":false,"rental_uris":{"android":"levelo://app?vid=08b1c5d9-0db5-4f74-ad5f-3ea86750a7be","ios":"levelo://app?vid=08b1c5d9-0db5-4f74-ad5f-3ea86750a7be"},"vehicle_type_id":"4","last_reported":1742555317,"current_range_meters":8000,"station_id":"ce4bgv92rcd13ifvqcr0","pricing_plan_id":"cebpf4jnsgd1na2vs0mg"},{"bike_id":"b9e4bdd0-024c-4547-9a94-39d0c7923642","system_id":"levelo_inurba_marseille","lat":43.24173,"lon":5.36399,"is_reserved":false,"is_disabled":false,"rental_uris":{"android":"levelo://app?vid=b9e4bdd0-024c-4547-9a94-39d0c7923642","ios":"levelo://app?vid=b9e4bdd0-024c-4547-9a94-39d0c7923642"},"vehicle_type_id":"4","last_reported":1742555317,"current_range_meters":8000,"station_id":"cpo36qri1sfpv3e86is0","pricing_plan_id":"cebpf4jnsgd1na2vs0mg"},{"bike_id":"e617fadc-609d-4332-b29e-e6d16aa5ecb4","system_id":"levelo_inurba_marseille","lat":43.27811,"lon":5.40708,"is_reserved":false,"is_disabled":false,"rental_uris":{"android":"levelo://app?vid=e617fadc-609d-4332-b29e-e6d16aa5ecb4","ios":"levelo://app?vid=e617fadc-609d-4332-b29e-e6d16aa5ecb4"},"vehicle_type_id":"4","last_reported":1742555317,"current_range_meters":8000,"station_id":"ce4bhnh2rcd13ifvqgtg","pricing_plan_id":"cebpf4jnsgd1na2vs0mg"},{"bike_id":"d15c630a-acc1-4278-b4d1-feb375d3df70","system_id":"levelo_inurba_marseille","lat":43.3047,"lon":5.37909,"is_reserved":false,"is_disabled":false,"rental_uris":{"android":"levelo://app?vid=d15c630a-acc1-4278-b4d1-feb375d3df70","ios":"levelo://app?vid=d15c630a-acc1-4278-b4d1-feb375d3df70"},"vehicle_type_id":"4","last_reported":1742555317,"current_range_meters":8000,"station_id":"ce4bgup2rcd13ifvqcn0","pricing_plan_id":"cebpf4jnsgd1na2vs0mg"},{"bike_id":"311f3d6e-f9db-4cb3-9683-608f9dcd7aad","system_id":"levelo_inurba_marseille","lat":43.3032,"lon":5.36898,"is_reserved":false,"is_disabled":false,"rental_uris":{"android":"levelo://app?vid=311f3d6e-f9db-4cb3-9683-608f9dcd7aad","ios":"levelo://app?vid=311f3d6e-f9db-4cb3-9683-608f9dcd7aad"},"vehicle_type_id":"4","last_reported":1742555317,"current_range_meters":8400,"station_id":"ce4bgqh2rcd13ifvqc5g","pricing_plan_id":"cebpf4jnsgd1na2vs0mg"},{"bike_id":"e5c14285-2e1d-41d9-bab9-ae38b8ffec63","system_id":"levelo_inurba_marseille","lat":43.33593,"lon":5.41007,"is_reserved":false,"is_disabled":false,"rental_uris":{"android":"levelo://app?vid=e5c14285-2e1d-41d9-bab9-ae38b8ffec63","ios":"levelo://app?vid=e5c14285-2e1d-41d9-bab9-ae38b8ffec63"},"vehicle_type_id":"4","last_reported":1742555317,"current_range_meters":8400,"station_id":"ce4bhqh2rcd13ifvqhmg","pricing_plan_id":"cebpf4jnsgd1na2vs0mg"},{"bike_id":"2fefe649-2bc5-465e-8d95-0eb6489d9f46","system_id":"levelo_inurba_marseille","lat":43.25871,"lon":5.39904,"is_reserved":false,"is_disabled":false,"rental_uris":{"android":"levelo://app?vid=2fefe649-2bc5-465e-8d95-0eb6489d9f46","ios":"levelo://app?vid=2fefe649-2bc5-465e-8d95-0eb6489d9f46"},"vehicle_type_id":"4","last_reported":1742555317,"current_range_meters":8400,"station_id":"ce4bhl92rcd13ifvqghg","pricing_plan_id":"cebpf4jnsgd1na2vs0mg"},{"bike_id":"f3c40357-427a-41cf-bfc1-219c6b9879a9","system_id":"levelo_inurba_marseille","lat":43.29192,"lon":5.35809,"is_reserved":false,"is_disabled":false,"rental_uris":{"android":"levelo://app?vid=f3c40357-427a-41cf-bfc1-219c6b9879a9","ios":"levelo://app?vid=f3c40357-427a-41cf-bfc1-219c6b9879a9"},"vehicle_type_id":"4","last_reported":1742555317,"current_range_meters":8400,"station_id":"ce4bhb12rcd13ifvqel0","pricing_plan_id":"cebpf4jnsgd1na2vs0mg"},{"bike_id":"f7943530-3e0d-4d01-bb89-b05735a3f850","system_id":"levelo_inurba_marseille","lat":43.29881,"lon":5.39731,"is_reserved":false,"is_disabled":false,"rental_uris":{"android":"levelo://app?vid=f7943530-3e0d-4d01-bb89-b05735a3f850","ios":"levelo://app?vid=f7943530-3e0d-4d01-bb89-b05735a3f850"},"vehicle_type_id":"4","last_reported":1742555317,"current_range_meters":8400,"station_id":"ce4bh0h2rcd13ifvqd50","pricing_plan_id":"cebpf4jnsgd1na2vs0mg"},{"bike_id":"1d8daad7-9bb4-40dd-adfc-e589f483368c","system_id":"levelo_inurba_marseille","lat":43.25821,"lon":5.39438,"is_reserved":false,"is_disabled":false,"rental_uris":{"android":"levelo://app?vid=1d8daad7-9bb4-40dd-adfc-e589f483368c","ios":"levelo://app?vid=1d8daad7-9bb4-40dd-adfc-e589f483368c"},"vehicle_type_id":"4","last_reported":1742555317,"current_range_meters":8800,"station_id":"ce4bhip2rcd13ifvqft0","pricing_plan_id":"cebpf4jnsgd1na2vs0mg"},{"bike_id":"d60cc3bf-d395-4d88-a7c6-639c35074efd","system_id":"levelo_inurba_marseille","lat":43.31062,"lon":5.38352,"is_reserved":false,"is_disabled":false,"rental_uris":{"android":"levelo://app?vid=d60cc3bf-d395-4d88-a7c6-639c35074efd","ios":"levelo://app?vid=d60cc3bf-d395-4d88-a7c6-639c35074efd"},"vehicle_type_id":"4","last_reported":1742555317,"current_range_meters":8800,"station_id":"ce4bgv92rcd13ifvqcr0","pricing_plan_id":"cebpf4jnsgd1na2vs0mg"},{"bike_id":"3e254c2a-9da1-4788-9a4f-2fe0fc2f1596","system_id":"levelo_inurba_marseille","lat":43.29531,"lon":5.39042,"is_reserved":false,"is_disabled":false,"rental_uris":{"android":"levelo://app?vid=3e254c2a-9da1-4788-9a4f-2fe0fc2f1596","ios":"levelo://app?vid=3e254c2a-9da1-4788-9a4f-2fe0fc2f1596"},"vehicle_type_id":"4","last_reported":1742555317,"current_range_meters":8800,"station_id":"ce4bh3p2rcd13ifvqdp0","pricing_plan_id":"cebpf4jnsgd1na2vs0mg"},{"bike_id":"c21e8d07-31dd-4eef-92d1-0a9d74b4f2dd","system_id":"levelo_inurba_marseille","lat":43.26561,"lon":5.37282,"is_reserved":false,"is_disabled":false,"rental_uris":{"android":"levelo://app?vid=c21e8d07-31dd-4eef-92d1-0a9d74b4f2dd","ios":"levelo://app?vid=c21e8d07-31dd-4eef-92d1-0a9d74b4f2dd"},"vehicle_type_id":"4","last_reported":1742555317,"current_range_meters":8800,"station_id":"ce4bhg12rcd13ifvqf70","pricing_plan_id":"cebpf4jnsgd1na2vs0mg"},{"bike_id":"62bf2f5c-9819-4816-afad-4a268d7a76b8","system_id":"levelo_inurba_marseille","lat":43.2417,"lon":5.36412,"is_reserved":false,"is_disabled":false,"rental_uris":{"android":"levelo://app?vid=62bf2f5c-9819-4816-afad-4a268d7a76b8","ios":"levelo://app?vid=62bf2f5c-9819-4816-afad-4a268d7a76b8"},"vehicle_type_id":"4","last_reported":1742555317,"current_range_meters":8800,"station_id":"cpo36qri1sfpv3e86is0","pricing_plan_id":"cebpf4jnsgd1na2vs0mg"},{"bike_id":"be38586b-e5dc-4232-ab17-bdf14f9705ea","system_id":"levelo_inurba_marseille","lat":43.28145,"lon":5.4264,"is_reserved":false,"is_disabled":false,"rental_uris":{"android":"levelo://app?vid=be38586b-e5dc-4232-ab17-bdf14f9705ea","ios":"levelo://app?vid=be38586b-e5dc-4232-ab17-bdf14f9705ea"},"vehicle_type_id":"4","last_reported":1742555317,"current_range_meters":8800,"station_id":"ce4bhnh2rcd13ifvqgug","pricing_plan_id":"cebpf4jnsgd1na2vs0mg"},{"bike_id":"b5acc6c1-f2ed-46ae-ac6d-f87b22ac88b5","system_id":"levelo_inurba_marseille","lat":43.30304,"lon":5.3689,"is_reserved":false,"is_disabled":false,"rental_uris":{"android":"levelo://app?vid=b5acc6c1-f2ed-46ae-ac6d-f87b22ac88b5","ios":"levelo://app?vid=b5acc6c1-f2ed-46ae-ac6d-f87b22ac88b5"},"vehicle_type_id":"4","last_reported":1742555317,"current_range_meters":8800,"station_id":"ce4bgqh2rcd13ifvqc5g","pricing_plan_id":"cebpf4jnsgd1na2vs0mg"},{"bike_id":"037dbfe4-6d41-4ed0-a07d-0521a0c84e5d","system_id":"levelo_inurba_marseille","lat":43.26218,"lon":5.3744,"is_reserved":false,"is_disabled":false,"rental_uris":{"android":"levelo://app?vid=037dbfe4-6d41-4ed0-a07d-0521a0c84e5d","ios":"levelo://app?vid=037dbfe4-6d41-4ed0-a07d-0521a0c84e5d"},"vehicle_type_id":"4","last_reported":1742555317,"current_range_meters":8800,"station_id":"ce4bhgp2rcd13ifvqfc0","pricing_plan_id":"cebpf4jnsgd1na2vs0mg"},{"bike_id":"1c3b5361-695c-4ccc-94f9-aca7f37b6d45","system_id":"levelo_inurba_marseille","lat":43.2319,"lon":5.35555,"is_reserved":false,"is_disabled":false,"rental_uris":{"android":"levelo://app?vid=1c3b5361-695c-4ccc-94f9-aca7f37b6d45","ios":"levelo://app?vid=1c3b5361-695c-4ccc-94f9-aca7f37b6d45"},"vehicle_type_id":"4","last_reported":1742555317,"current_range_meters":9200,"station_id":"ce4bhu92rcd13ifvqi70","pricing_plan_id":"cebpf4jnsgd1na2vs0mg"},{"bike_id":"9e829b61-bb07-4953-b3a4-b3e8e3e13897","system_id":"levelo_inurba_marseille","lat":43.30322,"lon":5.36898,"is_reserved":false,"is_disabled":false,"rental_uris":{"android":"levelo://app?vid=9e829b61-bb07-4953-b3a4-b3e8e3e13897","ios":"levelo://app?vid=9e829b61-bb07-4953-b3a4-b3e8e3e13897"},"vehicle_type_id":"4","last_reported":1742555317,"current_range_meters":9200,"station_id":"ce4bgqh2rcd13ifvqc5g","pricing_plan_id":"cebpf4jnsgd1na2vs0mg"},{"bike_id":"04c1ea18-a0b0-40b9-97da-a40d123a7321","system_id":"levelo_inurba_marseille","lat":43.27948,"lon":5.41054,"is_reserved":false,"is_disabled":false,"rental_uris":{"android":"levelo://app?vid=04c1ea18-a0b0-40b9-97da-a40d123a7321","ios":"levelo://app?vid=04c1ea18-a0b0-40b9-97da-a40d123a7321"},"vehicle_type_id":"4","last_reported":1742555317,"current_range_meters":9200,"station_id":"ce4bhnp2rcd13ifvqh0g","pricing_plan_id":"cebpf4jnsgd1na2vs0mg"},{"bike_id":"2678929a-312d-4089-b116-1e816de7db90","system_id":"levelo_inurba_marseille","lat":43.32106,"lon":5.36748,"is_reserved":false,"is_disabled":false,"rental_uris":{"android":"levelo://app?vid=2678929a-312d-4089-b116-1e816de7db90","ios":"levelo://app?vid=2678929a-312d-4089-b116-1e816de7db90"},"vehicle_type_id":"4","last_reported":1742555317,"current_range_meters":9200,"station_id":"ce4bhrh2rcd13ifvqhug","pricing_plan_id":"cebpf4jnsgd1na2vs0mg"},{"bike_id":"2f2b326b-41ff-4ad7-96d6-45f9b9533bd7","system_id":"levelo_inurba_marseille","lat":43.24802,"lon":5.37439,"is_reserved":false,"is_disabled":false,"rental_uris":{"android":"levelo://app?vid=2f2b326b-41ff-4ad7-96d6-45f9b9533bd7","ios":"levelo://app?vid=2f2b326b-41ff-4ad7-96d6-45f9b9533bd7"},"vehicle_type_id":"4","last_reported":1742555317,"current_range_meters":9200,"station_id":"ce4bhgh2rcd13ifvqfb0","pricing_plan_id":"cebpf4jnsgd1na2vs0mg"},{"bike_id":"42705629-9dac-452f-bc78-e8df40bdb056","system_id":"levelo_inurba_marseille","lat":43.29529,"lon":5.3904,"is_reserved":false,"is_disabled":false,"rental_uris":{"android":"levelo://app?vid=42705629-9dac-452f-bc78-e8df40bdb056","ios":"levelo://app?vid=42705629-9dac-452f-bc78-e8df40bdb056"},"vehicle_type_id":"4","last_reported":1742555317,"current_range_meters":9200,"station_id":"ce4bh3p2rcd13ifvqdp0","pricing_plan_id":"cebpf4jnsgd1na2vs0mg"},{"bike_id":"39773b37-1b2d-459c-9190-eadd1c74da58","system_id":"levelo_inurba_marseille","lat":43.30145,"lon":5.39879,"is_reserved":false,"is_disabled":false,"rental_uris":{"android":"levelo://app?vid=39773b37-1b2d-459c-9190-eadd1c74da58","ios":"levelo://app?vid=39773b37-1b2d-459c-9190-eadd1c74da58"},"vehicle_type_id":"4","last_reported":1742555317,"current_range_meters":9200,"station_id":"ce4bh0h2rcd13ifvqd40","pricing_plan_id":"cebpf4jnsgd1na2vs0mg"},{"bike_id":"7f8ba043-7b48-4c79-ade2-dceb34c6d543","system_id":"levelo_inurba_marseille","lat":43.33603,"lon":5.41026,"is_reserved":false,"is_disabled":false,"rental_uris":{"android":"levelo://app?vid=7f8ba043-7b48-4c79-ade2-dceb34c6d543","ios":"levelo://app?vid=7f8ba043-7b48-4c79-ade2-dceb34c6d543"},"vehicle_type_id":"4","last_reported":1742555317,"current_range_meters":9200,"station_id":"ce4bhqh2rcd13ifvqhmg","pricing_plan_id":"cebpf4jnsgd1na2vs0mg"},{"bike_id":"31ba5937-48f4-487d-85b0-bd6c0014621f","system_id":"levelo_inurba_marseille","lat":43.31485,"lon":5.37326,"is_reserved":false,"is_disabled":false,"rental_uris":{"android":"levelo://app?vid=31ba5937-48f4-487d-85b0-bd6c0014621f","ios":"levelo://app?vid=31ba5937-48f4-487d-85b0-bd6c0014621f"},"vehicle_type_id":"4","last_reported":1742555317,"current_range_meters":9200,"station_id":"ce4bgt12rcd13ifvqcd0","pricing_plan_id":"cebpf4jnsgd1na2vs0mg"},{"bike_id":"86859bc8-cdf3-4c55-a231-e1ff87943727","system_id":"levelo_inurba_marseille","lat":43.31513,"lon":5.37287,"is_reserved":false,"is_disabled":false,"rental_uris":{"android":"levelo://app?vid=86859bc8-cdf3-4c55-a231-e1ff87943727","ios":"levelo://app?vid=86859bc8-cdf3-4c55-a231-e1ff87943727"},"vehicle_type_id":"4","last_reported":1742555317,"current_range_meters":9600,"station_id":"ce4bgt12rcd13ifvqcd0","pricing_plan_id":"cebpf4jnsgd1na2vs0mg"},{"bike_id":"f2387910-c486-4275-a7ab-dbeb87afdc12","system_id":"levelo_inurba_marseille","lat":43.33727,"lon":5.39189,"is_reserved":false,"is_disabled":false,"rental_uris":{"android":"levelo://app?vid=f2387910-c486-4275-a7ab-dbeb87afdc12","ios":"levelo://app?vid=f2387910-c486-4275-a7ab-dbeb87afdc12"},"vehicle_type_id":"4","last_reported":1742555317,"current_range_meters":9600,"station_id":"ce4bhr92rcd13ifvqhsg","pricing_plan_id":"cebpf4jnsgd1na2vs0mg"},{"bike_id":"14e04a47-4b39-4bd7-ae6e-bf93cf9acaee","system_id":"levelo_inurba_marseille","lat":43.2926,"lon":5.40133,"is_reserved":false,"is_disabled":false,"rental_uris":{"android":"levelo://app?vid=14e04a47-4b39-4bd7-ae6e-bf93cf9acaee","ios":"levelo://app?vid=14e04a47-4b39-4bd7-ae6e-bf93cf9acaee"},"vehicle_type_id":"4","last_reported":1742555317,"current_range_meters":9600,"station_id":"ce4bh312rcd13ifvqdk0","pricing_plan_id":"cebpf4jnsgd1na2vs0mg"},{"bike_id":"c7f0b1a9-d1cb-4001-8f4e-99b174944710","system_id":"levelo_inurba_marseille","lat":43.26568,"lon":5.3901,"is_reserved":false,"is_disabled":false,"rental_uris":{"android":"levelo://app?vid=c7f0b1a9-d1cb-4001-8f4e-99b174944710","ios":"levelo://app?vid=c7f0b1a9-d1cb-4001-8f4e-99b174944710"},"vehicle_type_id":"4","last_reported":1742555317,"current_range_meters":9600,"station_id":"ce4bhe12rcd13ifvqf30","pricing_plan_id":"cebpf4jnsgd1na2vs0mg"},{"bike_id":"a8e54271-f43e-4238-be61-5a0d0f7d1259","system_id":"levelo_inurba_marseille","lat":43.246658,"lon":5.381627,"is_reserved":false,"is_disabled":false,"rental_uris":{"android":"levelo://app?vid=a8e54271-f43e-4238-be61-5a0d0f7d1259","ios":"levelo://app?vid=a8e54271-f43e-4238-be61-5a0d0f7d1259"},"vehicle_type_id":"4","last_reported":1742555317,"current_range_meters":9600,"station_id":"ce4bhih2rcd13ifvqfr0","pricing_plan_id":"cebpf4jnsgd1na2vs0mg"},{"bike_id":"a67c54b6-5ce9-4632-8070-5ca7d5b7fc9e","system_id":"levelo_inurba_marseille","lat":43.23065,"lon":5.35493,"is_reserved":false,"is_disabled":false,"rental_uris":{"android":"levelo://app?vid=a67c54b6-5ce9-4632-8070-5ca7d5b7fc9e","ios":"levelo://app?vid=a67c54b6-5ce9-4632-8070-5ca7d5b7fc9e"},"vehicle_type_id":"4","last_reported":1742555317,"current_range_meters":9600,"station_id":"cpo3342slgdg3j2ifvpg","pricing_plan_id":"cebpf4jnsgd1na2vs0mg"},{"bike_id":"9d87eaf5-326d-495f-a80f-e96261b34364","system_id":"levelo_inurba_marseille","lat":43.31334,"lon":5.36699,"is_reserved":false,"is_disabled":false,"rental_uris":{"android":"levelo://app?vid=9d87eaf5-326d-495f-a80f-e96261b34364","ios":"levelo://app?vid=9d87eaf5-326d-495f-a80f-e96261b34364"},"vehicle_type_id":"4","last_reported":1742555317,"current_range_meters":9600,"station_id":"ce4bgr92rcd13ifvqc6g","pricing_plan_id":"cebpf4jnsgd1na2vs0mg"},{"bike_id":"5ef2432c-8b14-42cf-8e2a-1af923562f84","system_id":"levelo_inurba_marseille","lat":43.31492,"lon":5.37276,"is_reserved":false,"is_disabled":false,"rental_uris":{"android":"levelo://app?vid=5ef2432c-8b14-42cf-8e2a-1af923562f84","ios":"levelo://app?vid=5ef2432c-8b14-42cf-8e2a-1af923562f84"},"vehicle_type_id":"4","last_reported":1742555317,"current_range_meters":9600,"station_id":"ce4bgt12rcd13ifvqcd0","pricing_plan_id":"cebpf4jnsgd1na2vs0mg"},{"bike_id":"e7099a91-f011-4f51-8f8e-c8f0d1018eb5","system_id":"levelo_inurba_marseille","lat":43.23178,"lon":5.39977,"is_reserved":false,"is_disabled":false,"rental_uris":{"android":"levelo://app?vid=e7099a91-f011-4f51-8f8e-c8f0d1018eb5","ios":"levelo://app?vid=e7099a91-f011-4f51-8f8e-c8f0d1018eb5"},"vehicle_type_id":"4","last_reported":1742555317,"current_range_meters":9600,"station_id":"ce4bhn12rcd13ifvqgqg","pricing_plan_id":"cebpf4jnsgd1na2vs0mg"},{"bike_id":"01c3ff60-128a-4db2-9fda-6ae8143fc517","system_id":"levelo_inurba_marseille","lat":43.32007,"lon":5.38145,"is_reserved":false,"is_disabled":false,"rental_uris":{"android":"levelo://app?vid=01c3ff60-128a-4db2-9fda-6ae8143fc517","ios":"levelo://app?vid=01c3ff60-128a-4db2-9fda-6ae8143fc517"},"vehicle_type_id":"4","last_reported":1742555317,"current_range_meters":10000,"station_id":"ce4bhr12rcd13ifvqhpg","pricing_plan_id":"cebpf4jnsgd1na2vs0mg"},{"bike_id":"589d1ccd-d3e4-4348-884e-1b7c59d63dac","system_id":"levelo_inurba_marseille","lat":43.30795,"lon":5.38117,"is_reserved":false,"is_disabled":false,"rental_uris":{"android":"levelo://app?vid=589d1ccd-d3e4-4348-884e-1b7c59d63dac","ios":"levelo://app?vid=589d1ccd-d3e4-4348-884e-1b7c59d63dac"},"vehicle_type_id":"4","last_reported":1742555317,"current_range_meters":10000,"station_id":"ce4bgt12rcd13ifvqce0","pricing_plan_id":"cebpf4jnsgd1na2vs0mg"},{"bike_id":"0863b7b8-fdee-4d9c-a490-f37452779f3e","system_id":"levelo_inurba_marseille","lat":43.27815,"lon":5.40702,"is_reserved":false,"is_disabled":false,"rental_uris":{"android":"levelo://app?vid=0863b7b8-fdee-4d9c-a490-f37452779f3e","ios":"levelo://app?vid=0863b7b8-fdee-4d9c-a490-f37452779f3e"},"vehicle_type_id":"4","last_reported":1742555317,"current_range_meters":10000,"station_id":"ce4bhnh2rcd13ifvqgtg","pricing_plan_id":"cebpf4jnsgd1na2vs0mg"},{"bike_id":"ca38fcd6-3c68-4041-b15a-86267bca2e49","system_id":"levelo_inurba_marseille","lat":43.3248,"lon":5.36572,"is_reserved":false,"is_disabled":false,"rental_uris":{"android":"levelo://app?vid=ca38fcd6-3c68-4041-b15a-86267bca2e49","ios":"levelo://app?vid=ca38fcd6-3c68-4041-b15a-86267bca2e49"},"vehicle_type_id":"4","last_reported":1742555317,"current_range_meters":10000,"station_id":"ce4bhs12rcd13ifvqhvg","pricing_plan_id":"cebpf4jnsgd1na2vs0mg"},{"bike_id":"fd63a192-a2ae-4c1d-aa3f-4b573664d6e9","system_id":"levelo_inurba_marseille","lat":43.31358,"lon":5.36715,"is_reserved":false,"is_disabled":false,"rental_uris":{"android":"levelo://app?vid=fd63a192-a2ae-4c1d-aa3f-4b573664d6e9","ios":"levelo://app?vid=fd63a192-a2ae-4c1d-aa3f-4b573664d6e9"},"vehicle_type_id":"4","last_reported":1742555317,"current_range_meters":10000,"station_id":"ce4bgr92rcd13ifvqc6g","pricing_plan_id":"cebpf4jnsgd1na2vs0mg"},{"bike_id":"bf5d7bdb-65a8-4310-b955-6a76e2cbd7fe","system_id":"levelo_inurba_marseille","lat":43.33719,"lon":5.39182,"is_reserved":false,"is_disabled":false,"rental_uris":{"android":"levelo://app?vid=bf5d7bdb-65a8-4310-b955-6a76e2cbd7fe","ios":"levelo://app?vid=bf5d7bdb-65a8-4310-b955-6a76e2cbd7fe"},"vehicle_type_id":"4","last_reported":1742555317,"current_range_meters":10000,"station_id":"ce4bhr92rcd13ifvqhsg","pricing_plan_id":"cebpf4jnsgd1na2vs0mg"},{"bike_id":"995b22b0-4e59-4b39-9ea2-5a9778d0fd48","system_id":"levelo_inurba_marseille","lat":43.24998,"lon":5.38931,"is_reserved":false,"is_disabled":false,"rental_uris":{"android":"levelo://app?vid=995b22b0-4e59-4b39-9ea2-5a9778d0fd48","ios":"levelo://app?vid=995b22b0-4e59-4b39-9ea2-5a9778d0fd48"},"vehicle_type_id":"4","last_reported":1742555317,"current_range_meters":9200,"station_id":"ce4bhgp2rcd13ifvqfd0","pricing_plan_id":"cebpf4jnsgd1na2vs0mg"},{"bike_id":"e3bfaa63-7ecc-42a8-b2bc-7c7410993c9f","system_id":"levelo_inurba_marseille","lat":43.30563,"lon":5.36653,"is_reserved":false,"is_disabled":false,"rental_uris":{"android":"levelo://app?vid=e3bfaa63-7ecc-42a8-b2bc-7c7410993c9f","ios":"levelo://app?vid=e3bfaa63-7ecc-42a8-b2bc-7c7410993c9f"},"vehicle_type_id":"4","last_reported":1742555317,"current_range_meters":10000,"station_id":"","pricing_plan_id":"cebpf4jnsgd1na2vs0mg"},{"bike_id":"64f3f160-3d41-4047-a7c4-5d9924ce80c7","system_id":"levelo_inurba_marseille","lat":43.25829,"lon":5.3942,"is_reserved":false,"is_disabled":false,"rental_uris":{"android":"levelo://app?vid=64f3f160-3d41-4047-a7c4-5d9924ce80c7","ios":"levelo://app?vid=64f3f160-3d41-4047-a7c4-5d9924ce80c7"},"vehicle_type_id":"4","last_reported":1742555317,"current_range_meters":10000,"station_id":"ce4bhip2rcd13ifvqft0","pricing_plan_id":"cebpf4jnsgd1na2vs0mg"},{"bike_id":"ea01e00c-190b-4302-94fc-b75be72740e1","system_id":"levelo_inurba_marseille","lat":43.31477,"lon":5.373,"is_reserved":false,"is_disabled":false,"rental_uris":{"android":"levelo://app?vid=ea01e00c-190b-4302-94fc-b75be72740e1","ios":"levelo://app?vid=ea01e00c-190b-4302-94fc-b75be72740e1"},"vehicle_type_id":"4","last_reported":1742555317,"current_range_meters":10000,"station_id":"ce4bgt12rcd13ifvqcd0","pricing_plan_id":"cebpf4jnsgd1na2vs0mg"},{"bike_id":"a3251066-4c40-4122-a906-99c3befc3d95","system_id":"levelo_inurba_marseille","lat":43.31364,"lon":5.36698,"is_reserved":false,"is_disabled":false,"rental_uris":{"android":"levelo://app?vid=a3251066-4c40-4122-a906-99c3befc3d95","ios":"levelo://app?vid=a3251066-4c40-4122-a906-99c3befc3d95"},"vehicle_type_id":"4","last_reported":1742555317,"current_range_meters":10800,"station_id":"ce4bgr92rcd13ifvqc6g","pricing_plan_id":"cebpf4jnsgd1na2vs0mg"},{"bike_id":"899ab87e-4ea4-40e5-9304-e09f83aad3d0","system_id":"levelo_inurba_marseille","lat":43.23967,"lon":5.36618,"is_reserved":false,"is_disabled":false,"rental_uris":{"android":"levelo://app?vid=899ab87e-4ea4-40e5-9304-e09f83aad3d0","ios":"levelo://app?vid=899ab87e-4ea4-40e5-9304-e09f83aad3d0"},"vehicle_type_id":"4","last_reported":1742555317,"current_range_meters":10800,"station_id":"ce4bhi12rcd13ifvqfp0","pricing_plan_id":"cebpf4jnsgd1na2vs0mg"},{"bike_id":"35bacac1-b4b2-409a-a031-4fd05ba88bce","system_id":"levelo_inurba_marseille","lat":43.2696,"lon":5.38633,"is_reserved":false,"is_disabled":false,"rental_uris":{"android":"levelo://app?vid=35bacac1-b4b2-409a-a031-4fd05ba88bce","ios":"levelo://app?vid=35bacac1-b4b2-409a-a031-4fd05ba88bce"},"vehicle_type_id":"4","last_reported":1742555317,"current_range_meters":10800,"station_id":"ce4bhh92rcd13ifvqfh0","pricing_plan_id":"cebpf4jnsgd1na2vs0mg"},{"bike_id":"fb15ee11-b2b6-4fb7-9d7d-b32657ee284c","system_id":"levelo_inurba_marseille","lat":43.30314,"lon":5.36904,"is_reserved":false,"is_disabled":false,"rental_uris":{"android":"levelo://app?vid=fb15ee11-b2b6-4fb7-9d7d-b32657ee284c","ios":"levelo://app?vid=fb15ee11-b2b6-4fb7-9d7d-b32657ee284c"},"vehicle_type_id":"4","last_reported":1742555317,"current_range_meters":10800,"station_id":"ce4bgqh2rcd13ifvqc5g","pricing_plan_id":"cebpf4jnsgd1na2vs0mg"},{"bike_id":"32c136b5-47bb-4db2-974c-debde23c849b","system_id":"levelo_inurba_marseille","lat":43.29252,"lon":5.37606,"is_reserved":false,"is_disabled":false,"rental_uris":{"android":"levelo://app?vid=32c136b5-47bb-4db2-974c-debde23c849b","ios":"levelo://app?vid=32c136b5-47bb-4db2-974c-debde23c849b"},"vehicle_type_id":"4","last_reported":1742555317,"current_range_meters":10800,"station_id":"ce4bgi12rcd13ifvqb80","pricing_plan_id":"cebpf4jnsgd1na2vs0mg"},{"bike_id":"aba7a31c-d1db-4bb4-ba56-e84838fed699","system_id":"levelo_inurba_marseille","lat":43.24644,"lon":5.389,"is_reserved":false,"is_disabled":false,"rental_uris":{"android":"levelo://app?vid=aba7a31c-d1db-4bb4-ba56-e84838fed699","ios":"levelo://app?vid=aba7a31c-d1db-4bb4-ba56-e84838fed699"},"vehicle_type_id":"4","last_reported":1742555317,"current_range_meters":10800,"station_id":"ce4bhg12rcd13ifvqf60","pricing_plan_id":"cebpf4jnsgd1na2vs0mg"},{"bike_id":"c1f744de-0225-4564-ae52-2765484d0186","system_id":"levelo_inurba_marseille","lat":43.2978,"lon":5.37105,"is_reserved":false,"is_disabled":false,"rental_uris":{"android":"levelo://app?vid=c1f744de-0225-4564-ae52-2765484d0186","ios":"levelo://app?vid=c1f744de-0225-4564-ae52-2765484d0186"},"vehicle_type_id":"4","last_reported":1742555317,"current_range_meters":10800,"station_id":"ce4bgop2rcd13ifvqc1g","pricing_plan_id":"cebpf4jnsgd1na2vs0mg"},{"bike_id":"da25a481-ec45-460d-8fd6-0e400f91c966","system_id":"levelo_inurba_marseille","lat":43.31388,"lon":5.36672,"is_reserved":false,"is_disabled":false,"rental_uris":{"android":"levelo://app?vid=da25a481-ec45-460d-8fd6-0e400f91c966","ios":"levelo://app?vid=da25a481-ec45-460d-8fd6-0e400f91c966"},"vehicle_type_id":"4","last_reported":1742555317,"current_range_meters":10800,"station_id":"","pricing_plan_id":"cebpf4jnsgd1na2vs0mg"},{"bike_id":"563086a8-8515-4d07-a2d8-6c7fc246f529","system_id":"levelo_inurba_marseille","lat":43.25828,"lon":5.3942,"is_reserved":false,"is_disabled":false,"rental_uris":{"android":"levelo://app?vid=563086a8-8515-4d07-a2d8-6c7fc246f529","ios":"levelo://app?vid=563086a8-8515-4d07-a2d8-6c7fc246f529"},"vehicle_type_id":"4","last_reported":1742555317,"current_range_meters":11200,"station_id":"ce4bhip2rcd13ifvqft0","pricing_plan_id":"cebpf4jnsgd1na2vs0mg"},{"bike_id":"cff5c5d7-b2c2-4661-bcba-b7a09aa5def1","system_id":"levelo_inurba_marseille","lat":43.30322,"lon":5.36903,"is_reserved":false,"is_disabled":false,"rental_uris":{"android":"levelo://app?vid=cff5c5d7-b2c2-4661-bcba-b7a09aa5def1","ios":"levelo://app?vid=cff5c5d7-b2c2-4661-bcba-b7a09aa5def1"},"vehicle_type_id":"4","last_reported":1742555317,"current_range_meters":11200,"station_id":"ce4bgqh2rcd13ifvqc5g","pricing_plan_id":"cebpf4jnsgd1na2vs0mg"},{"bike_id":"1f4b5356-d265-454a-aa48-2f7dec9d4d2a","system_id":"levelo_inurba_marseille","lat":43.33727,"lon":5.39186,"is_reserved":false,"is_disabled":false,"rental_uris":{"android":"levelo://app?vid=1f4b5356-d265-454a-aa48-2f7dec9d4d2a","ios":"levelo://app?vid=1f4b5356-d265-454a-aa48-2f7dec9d4d2a"},"vehicle_type_id":"4","last_reported":1742555317,"current_range_meters":11200,"station_id":"ce4bhr92rcd13ifvqhsg","pricing_plan_id":"cebpf4jnsgd1na2vs0mg"},{"bike_id":"7f9b0c96-3ea1-4371-8a7f-965188bbf16f","system_id":"levelo_inurba_marseille","lat":43.27973,"lon":5.38751,"is_reserved":false,"is_disabled":false,"rental_uris":{"android":"levelo://app?vid=7f9b0c96-3ea1-4371-8a7f-965188bbf16f","ios":"levelo://app?vid=7f9b0c96-3ea1-4371-8a7f-965188bbf16f"},"vehicle_type_id":"4","last_reported":1742555317,"current_range_meters":11200,"station_id":"ce4bhg12rcd13ifvqf80","pricing_plan_id":"cebpf4jnsgd1na2vs0mg"},{"bike_id":"a06df953-ee24-4eee-acd9-cfb685fc1c62","system_id":"levelo_inurba_marseille","lat":43.31424,"lon":5.37444,"is_reserved":false,"is_disabled":false,"rental_uris":{"android":"levelo://app?vid=a06df953-ee24-4eee-acd9-cfb685fc1c62","ios":"levelo://app?vid=a06df953-ee24-4eee-acd9-cfb685fc1c62"},"vehicle_type_id":"4","last_reported":1742555317,"current_range_meters":11600,"station_id":"","pricing_plan_id":"cebpf4jnsgd1na2vs0mg"},{"bike_id":"4267841d-5d94-44c6-8617-f314080e9a83","system_id":"levelo_inurba_marseille","lat":43.32497,"lon":5.36558,"is_reserved":false,"is_disabled":false,"rental_uris":{"android":"levelo://app?vid=4267841d-5d94-44c6-8617-f314080e9a83","ios":"levelo://app?vid=4267841d-5d94-44c6-8617-f314080e9a83"},"vehicle_type_id":"4","last_reported":1742555317,"current_range_meters":11600,"station_id":"ce4bhs12rcd13ifvqhvg","pricing_plan_id":"cebpf4jnsgd1na2vs0mg"},{"bike_id":"4abb3195-7132-49da-98e0-ec29e44ed135","system_id":"levelo_inurba_marseille","lat":43.2408,"lon":5.37743,"is_reserved":false,"is_disabled":false,"rental_uris":{"android":"levelo://app?vid=4abb3195-7132-49da-98e0-ec29e44ed135","ios":"levelo://app?vid=4abb3195-7132-49da-98e0-ec29e44ed135"},"vehicle_type_id":"4","last_reported":1742555317,"current_range_meters":11600,"station_id":"ce4bhnp2rcd13ifvqgvg","pricing_plan_id":"cebpf4jnsgd1na2vs0mg"},{"bike_id":"81fe10f7-c822-4c1f-b162-a1d0fd44096d","system_id":"levelo_inurba_marseille","lat":43.2795,"lon":5.4104,"is_reserved":false,"is_disabled":false,"rental_uris":{"android":"levelo://app?vid=81fe10f7-c822-4c1f-b162-a1d0fd44096d","ios":"levelo://app?vid=81fe10f7-c822-4c1f-b162-a1d0fd44096d"},"vehicle_type_id":"4","last_reported":1742555317,"current_range_meters":11600,"station_id":"ce4bhnp2rcd13ifvqh0g","pricing_plan_id":"cebpf4jnsgd1na2vs0mg"},{"bike_id":"e62dac40-44c1-4bd0-960d-9e1c5df60e4a","system_id":"levelo_inurba_marseille","lat":43.30311,"lon":5.36899,"is_reserved":false,"is_disabled":false,"rental_uris":{"android":"levelo://app?vid=e62dac40-44c1-4bd0-960d-9e1c5df60e4a","ios":"levelo://app?vid=e62dac40-44c1-4bd0-960d-9e1c5df60e4a"},"vehicle_type_id":"4","last_reported":1742555317,"current_range_meters":11600,"station_id":"ce4bgqh2rcd13ifvqc5g","pricing_plan_id":"cebpf4jnsgd1na2vs0mg"},{"bike_id":"52c16ac5-3447-4053-956c-78fc8bf0dc7c","system_id":"levelo_inurba_marseille","lat":43.3234,"lon":5.367,"is_reserved":false,"is_disabled":false,"rental_uris":{"android":"levelo://app?vid=52c16ac5-3447-4053-956c-78fc8bf0dc7c","ios":"levelo://app?vid=52c16ac5-3447-4053-956c-78fc8bf0dc7c"},"vehicle_type_id":"4","last_reported":1742555317,"current_range_meters":12000,"station_id":"ce4bhsh2rcd13ifvqi2g","pricing_plan_id":"cebpf4jnsgd1na2vs0mg"},{"bike_id":"6a3576cc-8682-4eab-a5f2-d069939a9803","system_id":"levelo_inurba_marseille","lat":43.32042,"lon":5.41576,"is_reserved":false,"is_disabled":false,"rental_uris":{"android":"levelo://app?vid=6a3576cc-8682-4eab-a5f2-d069939a9803","ios":"levelo://app?vid=6a3576cc-8682-4eab-a5f2-d069939a9803"},"vehicle_type_id":"4","last_reported":1742555317,"current_range_meters":12000,"station_id":"ce4bhq92rcd13ifvqhkg","pricing_plan_id":"cebpf4jnsgd1na2vs0mg"},{"bike_id":"9f1c3e5c-869d-4869-b7c6-0c926f2da6bf","system_id":"levelo_inurba_marseille","lat":43.28493,"lon":5.39824,"is_reserved":false,"is_disabled":false,"rental_uris":{"android":"levelo://app?vid=9f1c3e5c-869d-4869-b7c6-0c926f2da6bf","ios":"levelo://app?vid=9f1c3e5c-869d-4869-b7c6-0c926f2da6bf"},"vehicle_type_id":"4","last_reported":1742555317,"current_range_meters":12000,"station_id":"","pricing_plan_id":"cebpf4jnsgd1na2vs0mg"},{"bike_id":"08eaddc6-d579-40b8-895c-089b2f8ce149","system_id":"levelo_inurba_marseille","lat":43.24675,"lon":5.38178,"is_reserved":false,"is_disabled":false,"rental_uris":{"android":"levelo://app?vid=08eaddc6-d579-40b8-895c-089b2f8ce149","ios":"levelo://app?vid=08eaddc6-d579-40b8-895c-089b2f8ce149"},"vehicle_type_id":"4","last_reported":1742555317,"current_range_meters":12000,"station_id":"ce4bhih2rcd13ifvqfr0","pricing_plan_id":"cebpf4jnsgd1na2vs0mg"},{"bike_id":"89bd425d-5c74-417a-805e-163d9876b8a9","system_id":"levelo_inurba_marseille","lat":43.27175,"lon":5.40989,"is_reserved":false,"is_disabled":false,"rental_uris":{"android":"levelo://app?vid=89bd425d-5c74-417a-805e-163d9876b8a9","ios":"levelo://app?vid=89bd425d-5c74-417a-805e-163d9876b8a9"},"vehicle_type_id":"4","last_reported":1742555317,"current_range_meters":11600,"station_id":"ce4bhl12rcd13ifvqgf0","pricing_plan_id":"cebpf4jnsgd1na2vs0mg"},{"bike_id":"55c5e336-cbe0-4b0e-a7d1-ffdf60e309db","system_id":"levelo_inurba_marseille","lat":43.29812,"lon":5.38097,"is_reserved":false,"is_disabled":false,"rental_uris":{"android":"levelo://app?vid=55c5e336-cbe0-4b0e-a7d1-ffdf60e309db","ios":"levelo://app?vid=55c5e336-cbe0-4b0e-a7d1-ffdf60e309db"},"vehicle_type_id":"4","last_reported":1742555317,"current_range_meters":12000,"station_id":"ce4bgip2rcd13ifvqbb0","pricing_plan_id":"cebpf4jnsgd1na2vs0mg"},{"bike_id":"4eed87ec-6ba8-4423-bb2a-902257d20a6d","system_id":"levelo_inurba_marseille","lat":43.23147,"lon":5.43714,"is_reserved":false,"is_disabled":false,"rental_uris":{"android":"levelo://app?vid=4eed87ec-6ba8-4423-bb2a-902257d20a6d","ios":"levelo://app?vid=4eed87ec-6ba8-4423-bb2a-902257d20a6d"},"vehicle_type_id":"4","last_reported":1742555317,"current_range_meters":12400,"station_id":"ce4bhmp2rcd13ifvqgog","pricing_plan_id":"cebpf4jnsgd1na2vs0mg"},{"bike_id":"a7e18cac-67ad-47c9-a886-dd8be5c3d4d8","system_id":"levelo_inurba_marseille","lat":43.31885,"lon":5.40738,"is_reserved":false,"is_disabled":false,"rental_uris":{"android":"levelo://app?vid=a7e18cac-67ad-47c9-a886-dd8be5c3d4d8","ios":"levelo://app?vid=a7e18cac-67ad-47c9-a886-dd8be5c3d4d8"},"vehicle_type_id":"4","last_reported":1742555317,"current_range_meters":12400,"station_id":"ce4bhq12rcd13ifvqhig","pricing_plan_id":"cebpf4jnsgd1na2vs0mg"},{"bike_id":"8d8aa966-3f9a-4f7c-8370-35601cca72a6","system_id":"levelo_inurba_marseille","lat":43.30323,"lon":5.36911,"is_reserved":false,"is_disabled":false,"rental_uris":{"android":"levelo://app?vid=8d8aa966-3f9a-4f7c-8370-35601cca72a6","ios":"levelo://app?vid=8d8aa966-3f9a-4f7c-8370-35601cca72a6"},"vehicle_type_id":"4","last_reported":1742555317,"current_range_meters":12400,"station_id":"ce4bgqh2rcd13ifvqc5g","pricing_plan_id":"cebpf4jnsgd1na2vs0mg"},{"bike_id":"3c62f258-7851-4775-bba4-7daa70d05d3e","system_id":"levelo_inurba_marseille","lat":43.27206,"lon":5.39181,"is_reserved":false,"is_disabled":false,"rental_uris":{"android":"levelo://app?vid=3c62f258-7851-4775-bba4-7daa70d05d3e","ios":"levelo://app?vid=3c62f258-7851-4775-bba4-7daa70d05d3e"},"vehicle_type_id":"4","last_reported":1742555317,"current_range_meters":12400,"station_id":"ce4bhhp2rcd13ifvqfm0","pricing_plan_id":"cebpf4jnsgd1na2vs0mg"},{"bike_id":"fbbb3028-b15b-4750-98dc-ac90972ecc9b","system_id":"levelo_inurba_marseille","lat":43.32107,"lon":5.36781,"is_reserved":false,"is_disabled":false,"rental_uris":{"android":"levelo://app?vid=fbbb3028-b15b-4750-98dc-ac90972ecc9b","ios":"levelo://app?vid=fbbb3028-b15b-4750-98dc-ac90972ecc9b"},"vehicle_type_id":"4","last_reported":1742555317,"current_range_meters":12400,"station_id":"ce4bhrh2rcd13ifvqhug","pricing_plan_id":"cebpf4jnsgd1na2vs0mg"},{"bike_id":"9e61d54f-7dc1-4b99-babd-90e347699855","system_id":"levelo_inurba_marseille","lat":43.28453,"lon":5.3842,"is_reserved":false,"is_disabled":false,"rental_uris":{"android":"levelo://app?vid=9e61d54f-7dc1-4b99-babd-90e347699855","ios":"levelo://app?vid=9e61d54f-7dc1-4b99-babd-90e347699855"},"vehicle_type_id":"4","last_reported":1742555317,"current_range_meters":12400,"station_id":"ce4bh512rcd13ifvqe3g","pricing_plan_id":"cebpf4jnsgd1na2vs0mg"},{"bike_id":"7161bf49-f297-4c5d-b50f-96fee72e6d26","system_id":"levelo_inurba_marseille","lat":43.299623,"lon":5.38512,"is_reserved":false,"is_disabled":false,"rental_uris":{"android":"levelo://app?vid=7161bf49-f297-4c5d-b50f-96fee72e6d26","ios":"levelo://app?vid=7161bf49-f297-4c5d-b50f-96fee72e6d26"},"vehicle_type_id":"4","last_reported":1742555317,"current_range_meters":12800,"station_id":"ce4bgj92rcd13ifvqbd0","pricing_plan_id":"cebpf4jnsgd1na2vs0mg"},{"bike_id":"dc537980-6042-493d-8080-0667efb1d6ad","system_id":"levelo_inurba_marseille","lat":43.24528,"lon":5.39509,"is_reserved":false,"is_disabled":false,"rental_uris":{"android":"levelo://app?vid=dc537980-6042-493d-8080-0667efb1d6ad","ios":"levelo://app?vid=dc537980-6042-493d-8080-0667efb1d6ad"},"vehicle_type_id":"4","last_reported":1742555317,"current_range_meters":12800,"station_id":"ce4bhlp2rcd13ifvqgjg","pricing_plan_id":"cebpf4jnsgd1na2vs0mg"},{"bike_id":"f7b19721-c68b-4280-b653-43eff6dbb1fd","system_id":"levelo_inurba_marseille","lat":43.32104,"lon":5.36801,"is_reserved":false,"is_disabled":false,"rental_uris":{"android":"levelo://app?vid=f7b19721-c68b-4280-b653-43eff6dbb1fd","ios":"levelo://app?vid=f7b19721-c68b-4280-b653-43eff6dbb1fd"},"vehicle_type_id":"4","last_reported":1742555317,"current_range_meters":12800,"station_id":"ce4bhrh2rcd13ifvqhug","pricing_plan_id":"cebpf4jnsgd1na2vs0mg"},{"bike_id":"556b5e08-97ea-4f47-9aee-0ddb89816c84","system_id":"levelo_inurba_marseille","lat":43.30528,"lon":5.36716,"is_reserved":false,"is_disabled":false,"rental_uris":{"android":"levelo://app?vid=556b5e08-97ea-4f47-9aee-0ddb89816c84","ios":"levelo://app?vid=556b5e08-97ea-4f47-9aee-0ddb89816c84"},"vehicle_type_id":"4","last_reported":1742555317,"current_range_meters":13600,"station_id":"ce4bgrp2rcd13ifvqc9g","pricing_plan_id":"cebpf4jnsgd1na2vs0mg"},{"bike_id":"870c7776-b195-4e8d-bb8a-27544d4dc0aa","system_id":"levelo_inurba_marseille","lat":43.28475,"lon":5.3842,"is_reserved":false,"is_disabled":false,"rental_uris":{"android":"levelo://app?vid=870c7776-b195-4e8d-bb8a-27544d4dc0aa","ios":"levelo://app?vid=870c7776-b195-4e8d-bb8a-27544d4dc0aa"},"vehicle_type_id":"4","last_reported":1742555317,"current_range_meters":13600,"station_id":"ce4bh512rcd13ifvqe3g","pricing_plan_id":"cebpf4jnsgd1na2vs0mg"},{"bike_id":"29c299a3-8deb-46e4-8cd6-c7a928ea34d7","system_id":"levelo_inurba_marseille","lat":43.26563,"lon":5.37285,"is_reserved":false,"is_disabled":false,"rental_uris":{"android":"levelo://app?vid=29c299a3-8deb-46e4-8cd6-c7a928ea34d7","ios":"levelo://app?vid=29c299a3-8deb-46e4-8cd6-c7a928ea34d7"},"vehicle_type_id":"4","last_reported":1742555317,"current_range_meters":14000,"station_id":"ce4bhg12rcd13ifvqf70","pricing_plan_id":"cebpf4jnsgd1na2vs0mg"},{"bike_id":"f857e3ee-7b86-4ccd-8116-6a58a1cacb60","system_id":"levelo_inurba_marseille","lat":43.33088,"lon":5.4083,"is_reserved":false,"is_disabled":false,"rental_uris":{"android":"levelo://app?vid=f857e3ee-7b86-4ccd-8116-6a58a1cacb60","ios":"levelo://app?vid=f857e3ee-7b86-4ccd-8116-6a58a1cacb60"},"vehicle_type_id":"4","last_reported":1742555317,"current_range_meters":14000,"station_id":"","pricing_plan_id":"cebpf4jnsgd1na2vs0mg"},{"bike_id":"bf9454a8-2f16-4a60-9135-f026663fa1d8","system_id":"levelo_inurba_marseille","lat":43.30295,"lon":5.39213,"is_reserved":false,"is_disabled":false,"rental_uris":{"android":"levelo://app?vid=bf9454a8-2f16-4a60-9135-f026663fa1d8","ios":"levelo://app?vid=bf9454a8-2f16-4a60-9135-f026663fa1d8"},"vehicle_type_id":"4","last_reported":1742555317,"current_range_meters":14000,"station_id":"ce4bgkh2rcd13ifvqbk0","pricing_plan_id":"cebpf4jnsgd1na2vs0mg"},{"bike_id":"053b1415-53bf-4ea8-a2b7-e7b257f27759","system_id":"levelo_inurba_marseille","lat":43.273281,"lon":5.391787,"is_reserved":false,"is_disabled":false,"rental_uris":{"android":"levelo://app?vid=053b1415-53bf-4ea8-a2b7-e7b257f27759","ios":"levelo://app?vid=053b1415-53bf-4ea8-a2b7-e7b257f27759"},"vehicle_type_id":"4","last_reported":1742555317,"current_range_meters":14000,"station_id":"ce4bhh92rcd13ifvqfi0","pricing_plan_id":"cebpf4jnsgd1na2vs0mg"},{"bike_id":"0fbf373c-ac5b-49d9-a94e-bea438af3895","system_id":"levelo_inurba_marseille","lat":43.309743,"lon":5.39062,"is_reserved":false,"is_disabled":true,"rental_uris":{"android":"levelo://app?vid=0fbf373c-ac5b-49d9-a94e-bea438af3895","ios":"levelo://app?vid=0fbf373c-ac5b-49d9-a94e-bea438af3895"},"vehicle_type_id":"4","last_reported":1742555317,"current_range_meters":14000,"station_id":"ce4bgup2rcd13ifvqco0","pricing_plan_id":"cebpf4jnsgd1na2vs0mg"},{"bike_id":"a47f16c3-0fe7-4911-81db-3c2d255506b7","system_id":"levelo_inurba_marseille","lat":43.29847,"lon":5.36278,"is_reserved":false,"is_disabled":false,"rental_uris":{"android":"levelo://app?vid=a47f16c3-0fe7-4911-81db-3c2d255506b7","ios":"levelo://app?vid=a47f16c3-0fe7-4911-81db-3c2d255506b7"},"vehicle_type_id":"4","last_reported":1742555317,"current_range_meters":14000,"station_id":"ce4bgpp2rcd13ifvqc3g","pricing_plan_id":"cebpf4jnsgd1na2vs0mg"},{"bike_id":"984e1c28-da5a-4821-aa06-86abad0bf7db","system_id":"levelo_inurba_marseille","lat":43.27375,"lon":5.36256,"is_reserved":false,"is_disabled":false,"rental_uris":{"android":"levelo://app?vid=984e1c28-da5a-4821-aa06-86abad0bf7db","ios":"levelo://app?vid=984e1c28-da5a-4821-aa06-86abad0bf7db"},"vehicle_type_id":"4","last_reported":1742555317,"current_range_meters":13600,"station_id":"ce4bhbh2rcd13ifvqeo0","pricing_plan_id":"cebpf4jnsgd1na2vs0mg"},{"bike_id":"e748d43c-f53b-4bf4-8b03-e57c556bf7b2","system_id":"levelo_inurba_marseille","lat":43.28464,"lon":5.38416,"is_reserved":false,"is_disabled":false,"rental_uris":{"android":"levelo://app?vid=e748d43c-f53b-4bf4-8b03-e57c556bf7b2","ios":"levelo://app?vid=e748d43c-f53b-4bf4-8b03-e57c556bf7b2"},"vehicle_type_id":"4","last_reported":1742555317,"current_range_meters":14400,"station_id":"ce4bh512rcd13ifvqe3g","pricing_plan_id":"cebpf4jnsgd1na2vs0mg"},{"bike_id":"4ba70a3b-43ac-4de8-b351-3a8833532eb6","system_id":"levelo_inurba_marseille","lat":43.31481,"lon":5.37307,"is_reserved":false,"is_disabled":false,"rental_uris":{"android":"levelo://app?vid=4ba70a3b-43ac-4de8-b351-3a8833532eb6","ios":"levelo://app?vid=4ba70a3b-43ac-4de8-b351-3a8833532eb6"},"vehicle_type_id":"4","last_reported":1742555317,"current_range_meters":14400,"station_id":"ce4bgt12rcd13ifvqcd0","pricing_plan_id":"cebpf4jnsgd1na2vs0mg"},{"bike_id":"ca9dac2f-92c1-4751-a21f-8e6a54bc5473","system_id":"levelo_inurba_marseille","lat":43.29966,"lon":5.37175,"is_reserved":false,"is_disabled":false,"rental_uris":{"android":"levelo://app?vid=ca9dac2f-92c1-4751-a21f-8e6a54bc5473","ios":"levelo://app?vid=ca9dac2f-92c1-4751-a21f-8e6a54bc5473"},"vehicle_type_id":"4","last_reported":1742555317,"current_range_meters":14400,"station_id":"ce4bgr92rcd13ifvqc7g","pricing_plan_id":"cebpf4jnsgd1na2vs0mg"},{"bike_id":"145f064f-efa5-4631-8ce7-f2b5b6a9f397","system_id":"levelo_inurba_marseille","lat":43.28658,"lon":5.36363,"is_reserved":false,"is_disabled":false,"rental_uris":{"android":"levelo://app?vid=145f064f-efa5-4631-8ce7-f2b5b6a9f397","ios":"levelo://app?vid=145f064f-efa5-4631-8ce7-f2b5b6a9f397"},"vehicle_type_id":"4","last_reported":1742555317,"current_range_meters":14400,"station_id":"ce4bhah2rcd13ifvqej0","pricing_plan_id":"cebpf4jnsgd1na2vs0mg"},{"bike_id":"7f1f9059-aa05-4a00-a863-b23f642c2ca9","system_id":"levelo_inurba_marseille","lat":43.29362,"lon":5.37833,"is_reserved":false,"is_disabled":false,"rental_uris":{"android":"levelo://app?vid=7f1f9059-aa05-4a00-a863-b23f642c2ca9","ios":"levelo://app?vid=7f1f9059-aa05-4a00-a863-b23f642c2ca9"},"vehicle_type_id":"4","last_reported":1742555317,"current_range_meters":14400,"station_id":"cpo3532slgdg3j2ikp40","pricing_plan_id":"cebpf4jnsgd1na2vs0mg"},{"bike_id":"317d6b69-7893-4d6a-bcf4-3a5c81de488e","system_id":"levelo_inurba_marseille","lat":43.27499,"lon":5.42448,"is_reserved":false,"is_disabled":false,"rental_uris":{"android":"levelo://app?vid=317d6b69-7893-4d6a-bcf4-3a5c81de488e","ios":"levelo://app?vid=317d6b69-7893-4d6a-bcf4-3a5c81de488e"},"vehicle_type_id":"4","last_reported":1742555317,"current_range_meters":14400,"station_id":"ce4bhn92rcd13ifvqgrg","pricing_plan_id":"cebpf4jnsgd1na2vs0mg"},{"bike_id":"ab723d6b-06b9-421d-aee9-ca26cff9203d","system_id":"levelo_inurba_marseille","lat":43.31996,"lon":5.38149,"is_reserved":false,"is_disabled":false,"rental_uris":{"android":"levelo://app?vid=ab723d6b-06b9-421d-aee9-ca26cff9203d","ios":"levelo://app?vid=ab723d6b-06b9-421d-aee9-ca26cff9203d"},"vehicle_type_id":"4","last_reported":1742555317,"current_range_meters":14400,"station_id":"ce4bhr12rcd13ifvqhpg","pricing_plan_id":"cebpf4jnsgd1na2vs0mg"},{"bike_id":"758d6121-2739-47f8-baa5-39507cb03d50","system_id":"levelo_inurba_marseille","lat":43.31497,"lon":5.37296,"is_reserved":false,"is_disabled":false,"rental_uris":{"android":"levelo://app?vid=758d6121-2739-47f8-baa5-39507cb03d50","ios":"levelo://app?vid=758d6121-2739-47f8-baa5-39507cb03d50"},"vehicle_type_id":"4","last_reported":1742555317,"current_range_meters":14800,"station_id":"ce4bgt12rcd13ifvqcd0","pricing_plan_id":"cebpf4jnsgd1na2vs0mg"},{"bike_id":"6c2d259d-cc39-462c-94d1-46efd2f019c7","system_id":"levelo_inurba_marseille","lat":43.29027,"lon":5.38132,"is_reserved":false,"is_disabled":false,"rental_uris":{"android":"levelo://app?vid=6c2d259d-cc39-462c-94d1-46efd2f019c7","ios":"levelo://app?vid=6c2d259d-cc39-462c-94d1-46efd2f019c7"},"vehicle_type_id":"4","last_reported":1742555317,"current_range_meters":14800,"station_id":"ce4bh4p2rcd13ifvqe1g","pricing_plan_id":"cebpf4jnsgd1na2vs0mg"},{"bike_id":"85395184-366b-4290-aaa9-154eae029bb9","system_id":"levelo_inurba_marseille","lat":43.31349,"lon":5.36707,"is_reserved":false,"is_disabled":false,"rental_uris":{"android":"levelo://app?vid=85395184-366b-4290-aaa9-154eae029bb9","ios":"levelo://app?vid=85395184-366b-4290-aaa9-154eae029bb9"},"vehicle_type_id":"4","last_reported":1742555317,"current_range_meters":14800,"station_id":"ce4bgr92rcd13ifvqc6g","pricing_plan_id":"cebpf4jnsgd1na2vs0mg"},{"bike_id":"b6dee7f7-c090-4cbc-8429-65affe67e72a","system_id":"levelo_inurba_marseille","lat":43.2997,"lon":5.38485,"is_reserved":false,"is_disabled":false,"rental_uris":{"android":"levelo://app?vid=b6dee7f7-c090-4cbc-8429-65affe67e72a","ios":"levelo://app?vid=b6dee7f7-c090-4cbc-8429-65affe67e72a"},"vehicle_type_id":"4","last_reported":1742555317,"current_range_meters":14400,"station_id":"ce4bgj92rcd13ifvqbd0","pricing_plan_id":"cebpf4jnsgd1na2vs0mg"},{"bike_id":"295b2b96-8a22-4b6f-a45b-df5a7ed58969","system_id":"levelo_inurba_marseille","lat":43.33729,"lon":5.39182,"is_reserved":false,"is_disabled":false,"rental_uris":{"android":"levelo://app?vid=295b2b96-8a22-4b6f-a45b-df5a7ed58969","ios":"levelo://app?vid=295b2b96-8a22-4b6f-a45b-df5a7ed58969"},"vehicle_type_id":"4","last_reported":1742555317,"current_range_meters":15200,"station_id":"ce4bhr92rcd13ifvqhsg","pricing_plan_id":"cebpf4jnsgd1na2vs0mg"},{"bike_id":"8d506eb5-6e6f-4e23-8278-802c9bc0c802","system_id":"levelo_inurba_marseille","lat":43.30547,"lon":5.36706,"is_reserved":false,"is_disabled":false,"rental_uris":{"android":"levelo://app?vid=8d506eb5-6e6f-4e23-8278-802c9bc0c802","ios":"levelo://app?vid=8d506eb5-6e6f-4e23-8278-802c9bc0c802"},"vehicle_type_id":"4","last_reported":1742555317,"current_range_meters":15200,"station_id":"ce4bgrp2rcd13ifvqc9g","pricing_plan_id":"cebpf4jnsgd1na2vs0mg"},{"bike_id":"8550f580-0fc4-4e94-bbd6-bc5fe20fc1b3","system_id":"levelo_inurba_marseille","lat":43.23158,"lon":5.43701,"is_reserved":false,"is_disabled":false,"rental_uris":{"android":"levelo://app?vid=8550f580-0fc4-4e94-bbd6-bc5fe20fc1b3","ios":"levelo://app?vid=8550f580-0fc4-4e94-bbd6-bc5fe20fc1b3"},"vehicle_type_id":"4","last_reported":1742555317,"current_range_meters":15200,"station_id":"ce4bhmp2rcd13ifvqgog","pricing_plan_id":"cebpf4jnsgd1na2vs0mg"},{"bike_id":"e4fb5ea4-7047-4ed2-b894-231fa292c026","system_id":"levelo_inurba_marseille","lat":43.2409,"lon":5.37749,"is_reserved":false,"is_disabled":false,"rental_uris":{"android":"levelo://app?vid=e4fb5ea4-7047-4ed2-b894-231fa292c026","ios":"levelo://app?vid=e4fb5ea4-7047-4ed2-b894-231fa292c026"},"vehicle_type_id":"4","last_reported":1742555317,"current_range_meters":15200,"station_id":"ce4bhnp2rcd13ifvqgvg","pricing_plan_id":"cebpf4jnsgd1na2vs0mg"},{"bike_id":"fa7ea6da-e04b-42aa-911f-bf56d8706d18","system_id":"levelo_inurba_marseille","lat":43.28468,"lon":5.38431,"is_reserved":false,"is_disabled":false,"rental_uris":{"android":"levelo://app?vid=fa7ea6da-e04b-42aa-911f-bf56d8706d18","ios":"levelo://app?vid=fa7ea6da-e04b-42aa-911f-bf56d8706d18"},"vehicle_type_id":"4","last_reported":1742555317,"current_range_meters":15200,"station_id":"ce4bh512rcd13ifvqe3g","pricing_plan_id":"cebpf4jnsgd1na2vs0mg"},{"bike_id":"ef2e25a3-f4d9-40f4-8012-0596b8149b2b","system_id":"levelo_inurba_marseille","lat":43.32745,"lon":5.39228,"is_reserved":false,"is_disabled":false,"rental_uris":{"android":"levelo://app?vid=ef2e25a3-f4d9-40f4-8012-0596b8149b2b","ios":"levelo://app?vid=ef2e25a3-f4d9-40f4-8012-0596b8149b2b"},"vehicle_type_id":"4","last_reported":1742555317,"current_range_meters":15200,"station_id":"","pricing_plan_id":"cebpf4jnsgd1na2vs0mg"},{"bike_id":"f1c1254d-d9d6-4485-8910-4ae2a7c84bc0","system_id":"levelo_inurba_marseille","lat":43.23192,"lon":5.39983,"is_reserved":false,"is_disabled":false,"rental_uris":{"android":"levelo://app?vid=f1c1254d-d9d6-4485-8910-4ae2a7c84bc0","ios":"levelo://app?vid=f1c1254d-d9d6-4485-8910-4ae2a7c84bc0"},"vehicle_type_id":"4","last_reported":1742555317,"current_range_meters":15200,"station_id":"ce4bhn12rcd13ifvqgqg","pricing_plan_id":"cebpf4jnsgd1na2vs0mg"},{"bike_id":"f548ece1-1804-4d01-be82-e7f385d3fa93","system_id":"levelo_inurba_marseille","lat":43.2816,"lon":5.42643,"is_reserved":false,"is_disabled":false,"rental_uris":{"android":"levelo://app?vid=f548ece1-1804-4d01-be82-e7f385d3fa93","ios":"levelo://app?vid=f548ece1-1804-4d01-be82-e7f385d3fa93"},"vehicle_type_id":"4","last_reported":1742555317,"current_range_meters":16000,"station_id":"ce4bhnh2rcd13ifvqgug","pricing_plan_id":"cebpf4jnsgd1na2vs0mg"},{"bike_id":"855405f1-ab79-4ec6-acec-b06736610eae","system_id":"levelo_inurba_marseille","lat":43.2848,"lon":5.38427,"is_reserved":false,"is_disabled":false,"rental_uris":{"android":"levelo://app?vid=855405f1-ab79-4ec6-acec-b06736610eae","ios":"levelo://app?vid=855405f1-ab79-4ec6-acec-b06736610eae"},"vehicle_type_id":"4","last_reported":1742555317,"current_range_meters":16000,"station_id":"ce4bh512rcd13ifvqe3g","pricing_plan_id":"cebpf4jnsgd1na2vs0mg"},{"bike_id":"a1e7a6c4-10c0-4a73-b94f-8c4b20be5194","system_id":"levelo_inurba_marseille","lat":43.23148,"lon":5.43708,"is_reserved":false,"is_disabled":false,"rental_uris":{"android":"levelo://app?vid=a1e7a6c4-10c0-4a73-b94f-8c4b20be5194","ios":"levelo://app?vid=a1e7a6c4-10c0-4a73-b94f-8c4b20be5194"},"vehicle_type_id":"4","last_reported":1742555317,"current_range_meters":15200,"station_id":"ce4bhmp2rcd13ifvqgog","pricing_plan_id":"cebpf4jnsgd1na2vs0mg"},{"bike_id":"9683555e-fe04-4de7-b706-7a9b0019a6a7","system_id":"levelo_inurba_marseille","lat":43.33753,"lon":5.37495,"is_reserved":false,"is_disabled":true,"rental_uris":{"android":"levelo://app?vid=9683555e-fe04-4de7-b706-7a9b0019a6a7","ios":"levelo://app?vid=9683555e-fe04-4de7-b706-7a9b0019a6a7"},"vehicle_type_id":"4","last_reported":1742555317,"current_range_meters":16000,"station_id":"ce4bh2h2rcd13ifvqdh0","pricing_plan_id":"cebpf4jnsgd1na2vs0mg"},{"bike_id":"72cca7f8-15d6-4fcb-beed-6d2fca619262","system_id":"levelo_inurba_marseille","lat":43.29533,"lon":5.39044,"is_reserved":false,"is_disabled":false,"rental_uris":{"android":"levelo://app?vid=72cca7f8-15d6-4fcb-beed-6d2fca619262","ios":"levelo://app?vid=72cca7f8-15d6-4fcb-beed-6d2fca619262"},"vehicle_type_id":"4","last_reported":1742555317,"current_range_meters":16000,"station_id":"ce4bh3p2rcd13ifvqdp0","pricing_plan_id":"cebpf4jnsgd1na2vs0mg"},{"bike_id":"8554844d-ad1f-4179-94b2-8ae283e549a0","system_id":"levelo_inurba_marseille","lat":43.30528,"lon":5.36539,"is_reserved":false,"is_disabled":false,"rental_uris":{"android":"levelo://app?vid=8554844d-ad1f-4179-94b2-8ae283e549a0","ios":"levelo://app?vid=8554844d-ad1f-4179-94b2-8ae283e549a0"},"vehicle_type_id":"4","last_reported":1742555317,"current_range_meters":16000,"station_id":"ce4bgs12rcd13ifvqcag","pricing_plan_id":"cebpf4jnsgd1na2vs0mg"},{"bike_id":"1f3d2cd1-71d4-4296-bb53-f0a7c7715831","system_id":"levelo_inurba_marseille","lat":43.28476,"lon":5.38416,"is_reserved":false,"is_disabled":false,"rental_uris":{"android":"levelo://app?vid=1f3d2cd1-71d4-4296-bb53-f0a7c7715831","ios":"levelo://app?vid=1f3d2cd1-71d4-4296-bb53-f0a7c7715831"},"vehicle_type_id":"4","last_reported":1742555317,"current_range_meters":16400,"station_id":"ce4bh512rcd13ifvqe3g","pricing_plan_id":"cebpf4jnsgd1na2vs0mg"},{"bike_id":"ae9b7c09-9380-4d82-86ab-3cc7ab42d12a","system_id":"levelo_inurba_marseille","lat":43.293036,"lon":5.378595,"is_reserved":false,"is_disabled":false,"rental_uris":{"android":"levelo://app?vid=ae9b7c09-9380-4d82-86ab-3cc7ab42d12a","ios":"levelo://app?vid=ae9b7c09-9380-4d82-86ab-3cc7ab42d12a"},"vehicle_type_id":"4","last_reported":1742555317,"current_range_meters":16800,"station_id":"ce4bgjh2rcd13ifvqbf0","pricing_plan_id":"cebpf4jnsgd1na2vs0mg"},{"bike_id":"1941e1fe-aa74-4007-afde-fda9d78d046e","system_id":"levelo_inurba_marseille","lat":43.29252,"lon":5.37603,"is_reserved":false,"is_disabled":false,"rental_uris":{"android":"levelo://app?vid=1941e1fe-aa74-4007-afde-fda9d78d046e","ios":"levelo://app?vid=1941e1fe-aa74-4007-afde-fda9d78d046e"},"vehicle_type_id":"4","last_reported":1742555317,"current_range_meters":16400,"station_id":"ce4bgi12rcd13ifvqb80","pricing_plan_id":"cebpf4jnsgd1na2vs0mg"},{"bike_id":"d244b941-b1b3-4e42-9d00-74ec791a42a9","system_id":"levelo_inurba_marseille","lat":43.30596,"lon":5.37226,"is_reserved":false,"is_disabled":false,"rental_uris":{"android":"levelo://app?vid=d244b941-b1b3-4e42-9d00-74ec791a42a9","ios":"levelo://app?vid=d244b941-b1b3-4e42-9d00-74ec791a42a9"},"vehicle_type_id":"4","last_reported":1742555317,"current_range_meters":16400,"station_id":"ce4bgqh2rcd13ifvqc4g","pricing_plan_id":"cebpf4jnsgd1na2vs0mg"},{"bike_id":"a6513c5d-5fee-477a-b611-a59ee207a2bb","system_id":"levelo_inurba_marseille","lat":43.31166,"lon":5.3873,"is_reserved":false,"is_disabled":false,"rental_uris":{"android":"levelo://app?vid=a6513c5d-5fee-477a-b611-a59ee207a2bb","ios":"levelo://app?vid=a6513c5d-5fee-477a-b611-a59ee207a2bb"},"vehicle_type_id":"4","last_reported":1742555317,"current_range_meters":16400,"station_id":"ce4bgv12rcd13ifvqcp0","pricing_plan_id":"cebpf4jnsgd1na2vs0mg"},{"bike_id":"ecef44e5-88c9-4bf3-9e69-cb5f84157e15","system_id":"levelo_inurba_marseille","lat":43.30271,"lon":5.377202,"is_reserved":false,"is_disabled":false,"rental_uris":{"android":"levelo://app?vid=ecef44e5-88c9-4bf3-9e69-cb5f84157e15","ios":"levelo://app?vid=ecef44e5-88c9-4bf3-9e69-cb5f84157e15"},"vehicle_type_id":"4","last_reported":1742555317,"current_range_meters":16400,"station_id":"ce4bguh2rcd13ifvqcj0","pricing_plan_id":"cebpf4jnsgd1na2vs0mg"},{"bike_id":"27370c4f-6644-4fae-a290-ff6e5f4fe8b8","system_id":"levelo_inurba_marseille","lat":43.24187,"lon":5.39736,"is_reserved":false,"is_disabled":false,"rental_uris":{"android":"levelo://app?vid=27370c4f-6644-4fae-a290-ff6e5f4fe8b8","ios":"levelo://app?vid=27370c4f-6644-4fae-a290-ff6e5f4fe8b8"},"vehicle_type_id":"4","last_reported":1742555317,"current_range_meters":16400,"station_id":"ce4bhn12rcd13ifvqgpg","pricing_plan_id":"cebpf4jnsgd1na2vs0mg"},{"bike_id":"3b0e697c-315b-4890-bdd7-a982e9a5956c","system_id":"levelo_inurba_marseille","lat":43.29047,"lon":5.39908,"is_reserved":false,"is_disabled":false,"rental_uris":{"android":"levelo://app?vid=3b0e697c-315b-4890-bdd7-a982e9a5956c","ios":"levelo://app?vid=3b0e697c-315b-4890-bdd7-a982e9a5956c"},"vehicle_type_id":"4","last_reported":1742555317,"current_range_meters":16400,"station_id":"ce4bh392rcd13ifvqdm0","pricing_plan_id":"cebpf4jnsgd1na2vs0mg"},{"bike_id":"864cc626-acee-4281-a704-02772977571f","system_id":"levelo_inurba_marseille","lat":43.31232,"lon":5.36843,"is_reserved":false,"is_disabled":false,"rental_uris":{"android":"levelo://app?vid=864cc626-acee-4281-a704-02772977571f","ios":"levelo://app?vid=864cc626-acee-4281-a704-02772977571f"},"vehicle_type_id":"4","last_reported":1742555317,"current_range_meters":16400,"station_id":"ce4bgl92rcd13ifvqbq0","pricing_plan_id":"cebpf4jnsgd1na2vs0mg"},{"bike_id":"845a9092-e4d6-4a36-bc94-34057775bed6","system_id":"levelo_inurba_marseille","lat":43.29555,"lon":5.42283,"is_reserved":false,"is_disabled":false,"rental_uris":{"android":"levelo://app?vid=845a9092-e4d6-4a36-bc94-34057775bed6","ios":"levelo://app?vid=845a9092-e4d6-4a36-bc94-34057775bed6"},"vehicle_type_id":"4","last_reported":1742555317,"current_range_meters":16400,"station_id":"ce4bhph2rcd13ifvqhdg","pricing_plan_id":"cebpf4jnsgd1na2vs0mg"},{"bike_id":"a93b6cdd-048b-4ec0-a07b-dcd3650e1115","system_id":"levelo_inurba_marseille","lat":43.33615,"lon":5.41022,"is_reserved":false,"is_disabled":false,"rental_uris":{"android":"levelo://app?vid=a93b6cdd-048b-4ec0-a07b-dcd3650e1115","ios":"levelo://app?vid=a93b6cdd-048b-4ec0-a07b-dcd3650e1115"},"vehicle_type_id":"4","last_reported":1742555317,"current_range_meters":16400,"station_id":"ce4bhqh2rcd13ifvqhmg","pricing_plan_id":"cebpf4jnsgd1na2vs0mg"},{"bike_id":"9c0b06cd-ea83-47e9-8872-08c206e3f13f","system_id":"levelo_inurba_marseille","lat":43.29889,"lon":5.38901,"is_reserved":false,"is_disabled":false,"rental_uris":{"android":"levelo://app?vid=9c0b06cd-ea83-47e9-8872-08c206e3f13f","ios":"levelo://app?vid=9c0b06cd-ea83-47e9-8872-08c206e3f13f"},"vehicle_type_id":"4","last_reported":1742555317,"current_range_meters":17200,"station_id":"ce4bh392rcd13ifvqdl0","pricing_plan_id":"cebpf4jnsgd1na2vs0mg"},{"bike_id":"f4ab34c3-fa93-4c87-a143-a7db6e9063a8","system_id":"levelo_inurba_marseille","lat":43.2847,"lon":5.38419,"is_reserved":false,"is_disabled":true,"rental_uris":{"android":"levelo://app?vid=f4ab34c3-fa93-4c87-a143-a7db6e9063a8","ios":"levelo://app?vid=f4ab34c3-fa93-4c87-a143-a7db6e9063a8"},"vehicle_type_id":"4","last_reported":1742555317,"current_range_meters":16400,"station_id":"ce4bh512rcd13ifvqe3g","pricing_plan_id":"cebpf4jnsgd1na2vs0mg"},{"bike_id":"00c64e9b-a9d7-483c-8bf2-7d8110e57439","system_id":"levelo_inurba_marseille","lat":43.27814,"lon":5.40712,"is_reserved":false,"is_disabled":false,"rental_uris":{"android":"levelo://app?vid=00c64e9b-a9d7-483c-8bf2-7d8110e57439","ios":"levelo://app?vid=00c64e9b-a9d7-483c-8bf2-7d8110e57439"},"vehicle_type_id":"4","last_reported":1742555317,"current_range_meters":16400,"station_id":"ce4bhnh2rcd13ifvqgtg","pricing_plan_id":"cebpf4jnsgd1na2vs0mg"},{"bike_id":"a93640e5-b70a-4f16-9e62-8114eaf8a4f4","system_id":"levelo_inurba_marseille","lat":43.251821,"lon":5.387268,"is_reserved":false,"is_disabled":false,"rental_uris":{"android":"levelo://app?vid=a93640e5-b70a-4f16-9e62-8114eaf8a4f4","ios":"levelo://app?vid=a93640e5-b70a-4f16-9e62-8114eaf8a4f4"},"vehicle_type_id":"4","last_reported":1742555317,"current_range_meters":11600,"station_id":"ce4bhlh2rcd13ifvqgig","pricing_plan_id":"cebpf4jnsgd1na2vs0mg"},{"bike_id":"b27c565b-0798-4129-b9a7-1c2eac3fa281","system_id":"levelo_inurba_marseille","lat":43.27493,"lon":5.42465,"is_reserved":false,"is_disabled":false,"rental_uris":{"android":"levelo://app?vid=b27c565b-0798-4129-b9a7-1c2eac3fa281","ios":"levelo://app?vid=b27c565b-0798-4129-b9a7-1c2eac3fa281"},"vehicle_type_id":"4","last_reported":1742555317,"current_range_meters":16800,"station_id":"ce4bhn92rcd13ifvqgrg","pricing_plan_id":"cebpf4jnsgd1na2vs0mg"},{"bike_id":"7f475576-195c-49b5-9713-63332bc7491c","system_id":"levelo_inurba_marseille","lat":43.28474,"lon":5.38429,"is_reserved":false,"is_disabled":false,"rental_uris":{"android":"levelo://app?vid=7f475576-195c-49b5-9713-63332bc7491c","ios":"levelo://app?vid=7f475576-195c-49b5-9713-63332bc7491c"},"vehicle_type_id":"4","last_reported":1742555317,"current_range_meters":16800,"station_id":"ce4bh512rcd13ifvqe3g","pricing_plan_id":"cebpf4jnsgd1na2vs0mg"},{"bike_id":"9f16860a-a9d9-41e8-8dc9-536321d30837","system_id":"levelo_inurba_marseille","lat":43.29853,"lon":5.39754,"is_reserved":false,"is_disabled":false,"rental_uris":{"android":"levelo://app?vid=9f16860a-a9d9-41e8-8dc9-536321d30837","ios":"levelo://app?vid=9f16860a-a9d9-41e8-8dc9-536321d30837"},"vehicle_type_id":"4","last_reported":1742555317,"current_range_meters":16800,"station_id":"ce4bh0h2rcd13ifvqd50","pricing_plan_id":"cebpf4jnsgd1na2vs0mg"},{"bike_id":"750f347e-373f-4c98-8af1-4dfba1eb89e2","system_id":"levelo_inurba_marseille","lat":43.25834,"lon":5.39438,"is_reserved":false,"is_disabled":false,"rental_uris":{"android":"levelo://app?vid=750f347e-373f-4c98-8af1-4dfba1eb89e2","ios":"levelo://app?vid=750f347e-373f-4c98-8af1-4dfba1eb89e2"},"vehicle_type_id":"4","last_reported":1742555317,"current_range_meters":16800,"station_id":"ce4bhip2rcd13ifvqft0","pricing_plan_id":"cebpf4jnsgd1na2vs0mg"},{"bike_id":"90deafae-e380-4a2a-b84b-42a4bba9791b","system_id":"levelo_inurba_marseille","lat":43.3027,"lon":5.37685,"is_reserved":false,"is_disabled":false,"rental_uris":{"android":"levelo://app?vid=90deafae-e380-4a2a-b84b-42a4bba9791b","ios":"levelo://app?vid=90deafae-e380-4a2a-b84b-42a4bba9791b"},"vehicle_type_id":"4","last_reported":1742555317,"current_range_meters":16800,"station_id":"ce4bguh2rcd13ifvqcj0","pricing_plan_id":"cebpf4jnsgd1na2vs0mg"},{"bike_id":"16148049-8e3f-4e1c-804b-d7f698a1eefb","system_id":"levelo_inurba_marseille","lat":43.27811,"lon":5.40709,"is_reserved":false,"is_disabled":false,"rental_uris":{"android":"levelo://app?vid=16148049-8e3f-4e1c-804b-d7f698a1eefb","ios":"levelo://app?vid=16148049-8e3f-4e1c-804b-d7f698a1eefb"},"vehicle_type_id":"4","last_reported":1742555317,"current_range_meters":16800,"station_id":"ce4bhnh2rcd13ifvqgtg","pricing_plan_id":"cebpf4jnsgd1na2vs0mg"},{"bike_id":"72503a27-a949-4a46-b139-c44d4f416a58","system_id":"levelo_inurba_marseille","lat":43.23199,"lon":5.35555,"is_reserved":false,"is_disabled":false,"rental_uris":{"android":"levelo://app?vid=72503a27-a949-4a46-b139-c44d4f416a58","ios":"levelo://app?vid=72503a27-a949-4a46-b139-c44d4f416a58"},"vehicle_type_id":"4","last_reported":1742555317,"current_range_meters":16800,"station_id":"ce4bhu92rcd13ifvqi70","pricing_plan_id":"cebpf4jnsgd1na2vs0mg"},{"bike_id":"ae5b73bd-11a0-4b36-b696-33d036384b32","system_id":"levelo_inurba_marseille","lat":43.28153,"lon":5.4266,"is_reserved":false,"is_disabled":false,"rental_uris":{"android":"levelo://app?vid=ae5b73bd-11a0-4b36-b696-33d036384b32","ios":"levelo://app?vid=ae5b73bd-11a0-4b36-b696-33d036384b32"},"vehicle_type_id":"4","last_reported":1742555317,"current_range_meters":16800,"station_id":"ce4bhnh2rcd13ifvqgug","pricing_plan_id":"cebpf4jnsgd1na2vs0mg"},{"bike_id":"0b5c41fa-abf0-4e80-9a27-4cc662d825a3","system_id":"levelo_inurba_marseille","lat":43.30328,"lon":5.369,"is_reserved":false,"is_disabled":false,"rental_uris":{"android":"levelo://app?vid=0b5c41fa-abf0-4e80-9a27-4cc662d825a3","ios":"levelo://app?vid=0b5c41fa-abf0-4e80-9a27-4cc662d825a3"},"vehicle_type_id":"4","last_reported":1742555317,"current_range_meters":16800,"station_id":"ce4bgqh2rcd13ifvqc5g","pricing_plan_id":"cebpf4jnsgd1na2vs0mg"},{"bike_id":"b0c67106-2699-4447-bbce-6fab55ddc28d","system_id":"levelo_inurba_marseille","lat":43.337444,"lon":5.374475,"is_reserved":false,"is_disabled":false,"rental_uris":{"android":"levelo://app?vid=b0c67106-2699-4447-bbce-6fab55ddc28d","ios":"levelo://app?vid=b0c67106-2699-4447-bbce-6fab55ddc28d"},"vehicle_type_id":"4","last_reported":1742555317,"current_range_meters":16800,"station_id":"ce4bh3p2rcd13ifvqdp0","pricing_plan_id":"cebpf4jnsgd1na2vs0mg"},{"bike_id":"b66f8ee0-0e8d-4112-8a76-11bd9796bc3a","system_id":"levelo_inurba_marseille","lat":43.30289,"lon":5.36904,"is_reserved":false,"is_disabled":false,"rental_uris":{"android":"levelo://app?vid=b66f8ee0-0e8d-4112-8a76-11bd9796bc3a","ios":"levelo://app?vid=b66f8ee0-0e8d-4112-8a76-11bd9796bc3a"},"vehicle_type_id":"4","last_reported":1742555317,"current_range_meters":16800,"station_id":"ce4bgqh2rcd13ifvqc5g","pricing_plan_id":"cebpf4jnsgd1na2vs0mg"},{"bike_id":"9c6aca2f-ebf6-4e17-8d0c-cc9578f6b84d","system_id":"levelo_inurba_marseille","lat":43.32505,"lon":5.36559,"is_reserved":false,"is_disabled":false,"rental_uris":{"android":"levelo://app?vid=9c6aca2f-ebf6-4e17-8d0c-cc9578f6b84d","ios":"levelo://app?vid=9c6aca2f-ebf6-4e17-8d0c-cc9578f6b84d"},"vehicle_type_id":"4","last_reported":1742555317,"current_range_meters":16800,"station_id":"ce4bhs12rcd13ifvqhvg","pricing_plan_id":"cebpf4jnsgd1na2vs0mg"},{"bike_id":"a5235df1-0421-49c6-9ab1-d4066c968db2","system_id":"levelo_inurba_marseille","lat":43.31589,"lon":5.38943,"is_reserved":false,"is_disabled":false,"rental_uris":{"android":"levelo://app?vid=a5235df1-0421-49c6-9ab1-d4066c968db2","ios":"levelo://app?vid=a5235df1-0421-49c6-9ab1-d4066c968db2"},"vehicle_type_id":"4","last_reported":1742555317,"current_range_meters":16800,"station_id":"","pricing_plan_id":"cebpf4jnsgd1na2vs0mg"},{"bike_id":"e2765e4c-f9fc-417f-b4bf-6d998fe7aadd","system_id":"levelo_inurba_marseille","lat":43.2798,"lon":5.38711,"is_reserved":false,"is_disabled":false,"rental_uris":{"android":"levelo://app?vid=e2765e4c-f9fc-417f-b4bf-6d998fe7aadd","ios":"levelo://app?vid=e2765e4c-f9fc-417f-b4bf-6d998fe7aadd"},"vehicle_type_id":"4","last_reported":1742555317,"current_range_meters":17200,"station_id":"ce4bhg12rcd13ifvqf80","pricing_plan_id":"cebpf4jnsgd1na2vs0mg"},{"bike_id":"ca6c29bf-ca82-4902-bd39-aea9c85d0746","system_id":"levelo_inurba_marseille","lat":43.31093,"lon":5.42426,"is_reserved":false,"is_disabled":false,"rental_uris":{"android":"levelo://app?vid=ca6c29bf-ca82-4902-bd39-aea9c85d0746","ios":"levelo://app?vid=ca6c29bf-ca82-4902-bd39-aea9c85d0746"},"vehicle_type_id":"4","last_reported":1742555317,"current_range_meters":17200,"station_id":"ce4bhp92rcd13ifvqhag","pricing_plan_id":"cebpf4jnsgd1na2vs0mg"},{"bike_id":"a4d65c7a-f23e-408a-9cca-73678d301a7d","system_id":"levelo_inurba_marseille","lat":43.2962,"lon":5.37725,"is_reserved":false,"is_disabled":false,"rental_uris":{"android":"levelo://app?vid=a4d65c7a-f23e-408a-9cca-73678d301a7d","ios":"levelo://app?vid=a4d65c7a-f23e-408a-9cca-73678d301a7d"},"vehicle_type_id":"4","last_reported":1742555317,"current_range_meters":16800,"station_id":"ce4bgi92rcd13ifvqb90","pricing_plan_id":"cebpf4jnsgd1na2vs0mg"},{"bike_id":"7442246c-2798-431d-84d3-acec834915be","system_id":"levelo_inurba_marseille","lat":43.30902,"lon":5.36835,"is_reserved":false,"is_disabled":false,"rental_uris":{"android":"levelo://app?vid=7442246c-2798-431d-84d3-acec834915be","ios":"levelo://app?vid=7442246c-2798-431d-84d3-acec834915be"},"vehicle_type_id":"4","last_reported":1742555317,"current_range_meters":17200,"station_id":"ce4bgn92rcd13ifvqbvg","pricing_plan_id":"cebpf4jnsgd1na2vs0mg"},{"bike_id":"26a1308a-6fbd-4a6e-b07f-930b27baf4e5","system_id":"levelo_inurba_marseille","lat":43.23197,"lon":5.40003,"is_reserved":false,"is_disabled":false,"rental_uris":{"android":"levelo://app?vid=26a1308a-6fbd-4a6e-b07f-930b27baf4e5","ios":"levelo://app?vid=26a1308a-6fbd-4a6e-b07f-930b27baf4e5"},"vehicle_type_id":"4","last_reported":1742555317,"current_range_meters":17200,"station_id":"ce4bhn12rcd13ifvqgqg","pricing_plan_id":"cebpf4jnsgd1na2vs0mg"},{"bike_id":"824b5c8a-2273-46d6-b1c6-75e22d7e118f","system_id":"levelo_inurba_marseille","lat":43.2926,"lon":5.37636,"is_reserved":false,"is_disabled":false,"rental_uris":{"android":"levelo://app?vid=824b5c8a-2273-46d6-b1c6-75e22d7e118f","ios":"levelo://app?vid=824b5c8a-2273-46d6-b1c6-75e22d7e118f"},"vehicle_type_id":"4","last_reported":1742555317,"current_range_meters":17200,"station_id":"ce4bgi12rcd13ifvqb80","pricing_plan_id":"cebpf4jnsgd1na2vs0mg"},{"bike_id":"d2221b9b-7250-4209-9ed0-d09dd0214d4a","system_id":"levelo_inurba_marseille","lat":43.30538,"lon":5.38428,"is_reserved":false,"is_disabled":false,"rental_uris":{"android":"levelo://app?vid=d2221b9b-7250-4209-9ed0-d09dd0214d4a","ios":"levelo://app?vid=d2221b9b-7250-4209-9ed0-d09dd0214d4a"},"vehicle_type_id":"4","last_reported":1742555317,"current_range_meters":17200,"station_id":"ce4bgg92rcd13ifvqb30","pricing_plan_id":"cebpf4jnsgd1na2vs0mg"},{"bike_id":"6fc21b01-e24b-444a-87c5-05071b373b97","system_id":"levelo_inurba_marseille","lat":43.30967,"lon":5.39041,"is_reserved":false,"is_disabled":false,"rental_uris":{"android":"levelo://app?vid=6fc21b01-e24b-444a-87c5-05071b373b97","ios":"levelo://app?vid=6fc21b01-e24b-444a-87c5-05071b373b97"},"vehicle_type_id":"4","last_reported":1742555317,"current_range_meters":17200,"station_id":"ce4bgup2rcd13ifvqco0","pricing_plan_id":"cebpf4jnsgd1na2vs0mg"},