{"last_updated":1686938897,"ttl":30,"version":"2.2","data":{"bikes":[{"bike_id":"fb99fbe6-58cd-4815-8c51-3c32b1d51fdd","system_id":"levelo_inurba_marseille","lat":43.31229,"lon":5.36856,"is_reserved":false,"is_disabled":false,"rental_uris":{"android":"levelo://app?vid=fb99fbe6-58cd-4815-8c51-3c32b1d51fdd","ios":"levelo://app?vid=fb99fbe6-58cd-4815-8c51-3c32b1d51fdd"},"vehicle_type_id":"4","last_reported":1686938898,"current_range_meters":3600,"station_id":"ce4bgl92rcd13ifvqbq0","pricing_plan_id":"free"},{"bike_id":"fc6a6248-53e9-4b4c-9ba1-d61315265064","system_id":"levelo_inurba_marseille","lat":43.308606,"lon":5.372099,"is_reserved":false,"is_disabled":false,"rental_uris":{"android":"levelo://app?vid=fc6a6248-53e9-4b4c-9ba1-d61315265064","ios":"levelo://app?vid=fc6a6248-53e9-4b4c-9ba1-d61315265064"},"vehicle_type_id":"4","last_reported":1686938898,"current_range_meters":6800,"station_id":"ce4bguh2rcd13ifvqckg","pricing_plan_id":"free"},{"bike_id":"a9ff2878-6656-48b7-9f99-7af40ab81ab2","system_id":"levelo_inurba_marseille","lat":43.305989,"lon":5.37225,"is_reserved":false,"is_disabled":false,"rental_uris":{"android":"levelo://app?vid=a9ff2878-6656-48b7-9f99-7af40ab81ab2","ios":"levelo://app?vid=a9ff2878-6656-48b7-9f99-7af40ab81ab2"},"vehicle_type_id":"4","last_reported":1686938898,"current_range_meters":30000,"station_id":"ce4bgqh2rcd13ifvqc4g","pricing_plan_id":"free"},{"bike_id":"3d59fda6-5153-471c-b2bb-31092707e54c","system_id":"levelo_inurba_marseille","lat":43.317075,"lon":5.377367,"is_reserved":false,"is_disabled":false,"rental_uris":{"android":"levelo://app?vid=3d59fda6-5153-471c-b2bb-31092707e54c","ios":"levelo://app?vid=3d59fda6-5153-471c-b2bb-31092707e54c"},"vehicle_type_id":"4","last_reported":1686938898,"current_range_meters":11600,"station_id":"ce4bgth2rcd13ifvqch0","pricing_plan_id":"free"},{"bike_id":"e0215f9d-9d45-4704-b59c-f60b3cc81937","system_id":"levelo_inurba_marseille","lat":43.317075,"lon":5.377367,"is_reserved":false,"is_disabled":false,"rental_uris":{"android":"levelo://app?vid=e0215f9d-9d45-4704-b59c-f60b3cc81937","ios":"levelo://app?vid=e0215f9d-9d45-4704-b59c-f60b3cc81937"},"vehicle_type_id":"4","last_reported":1686938898,"current_range_meters":14800,"station_id":"ce4bgth2rcd13ifvqch0","pricing_plan_id":"free"},{"bike_id":"156d0da5-aaf7-4bd0-bb9e-79dc41a2d471","system_id":"levelo_inurba_marseille","lat":43.31709,"lon":5.37758,"is_reserved":false,"is_disabled":false,"rental_uris":{"android":"levelo://app?vid=156d0da5-aaf7-4bd0-bb9e-79dc41a2d471","ios":"levelo://app?vid=156d0da5-aaf7-4bd0-bb9e-79dc41a2d471"},"vehicle_type_id":"4","last_reported":1686938898,"current_range_meters":22400,"station_id":"ce4bgth2rcd13ifvqch0","pricing_plan_id":"free"},{"bike_id":"2424216c-0462-4ad0-b127-d0366c91b61c","system_id":"levelo_inurba_marseille","lat":43.31708,"lon":5.37761,"is_reserved":false,"is_disabled":false,"rental_uris":{"android":"levelo://app?vid=2424216c-0462-4ad0-b127-d0366c91b61c","ios":"levelo://app?vid=2424216c-0462-4ad0-b127-d0366c91b61c"},"vehicle_type_id":"4","last_reported":1686938898,"current_range_meters":29600,"station_id":"ce4bgth2rcd13ifvqch0","pricing_plan_id":"free"},{"bike_id":"7964c54e-c5eb-4c14-80fd-affaf7bdfc1f","system_id":"levelo_inurba_marseille","lat":43.30805,"lon":5.38151,"is_reserved":false,"is_disabled":false,"rental_uris":{"android":"levelo://app?vid=7964c54e-c5eb-4c14-80fd-affaf7bdfc1f","ios":"levelo://app?vid=7964c54e-c5eb-4c14-80fd-affaf7bdfc1f"},"vehicle_type_id":"4","last_reported":1686938898,"current_range_meters":800,"station_id":"ce4bgt12rcd13ifvqce0","pricing_plan_id":"free"},{"bike_id":"ae33307b-fcd5-479b-9ae1-9002ed226c6e","system_id":"levelo_inurba_marseille","lat":43.308012,"lon":5.381511,"is_reserved":false,"is_disabled":false,"rental_uris":{"android":"levelo://app?vid=ae33307b-fcd5-479b-9ae1-9002ed226c6e","ios":"levelo://app?vid=ae33307b-fcd5-479b-9ae1-9002ed226c6e"},"vehicle_type_id":"4","last_reported":1686938898,"current_range_meters":14000,"station_id":"ce4bgt12rcd13ifvqce0","pricing_plan_id":"free"},{"bike_id":"43fc693e-f2a9-4aec-8fd9-d094bb02cb70","system_id":"levelo_inurba_marseille","lat":43.304606,"lon":5.379026,"is_reserved":false,"is_disabled":false,"rental_uris":{"android":"levelo://app?vid=43fc693e-f2a9-4aec-8fd9-d094bb02cb70","ios":"levelo://app?vid=43fc693e-f2a9-4aec-8fd9-d094bb02cb70"},"vehicle_type_id":"4","last_reported":1686938898,"current_range_meters":24400,"station_id":"ce4bgup2rcd13ifvqcn0","pricing_plan_id":"free"},{"bike_id":"fc4a69da-5dee-4c68-8631-20ee11bc487b","system_id":"levelo_inurba_marseille","lat":43.304606,"lon":5.379026,"is_reserved":false,"is_disabled":false,"rental_uris":{"android":"levelo://app?vid=fc4a69da-5dee-4c68-8631-20ee11bc487b","ios":"levelo://app?vid=fc4a69da-5dee-4c68-8631-20ee11bc487b"},"vehicle_type_id":"4","last_reported":1686938898,"current_range_meters":30400,"station_id":"ce4bgup2rcd13ifvqcn0","pricing_plan_id":"free"},{"bike_id":"32827146-2d6b-4fb1-b00e-6b2f535ca544","system_id":"levelo_inurba_marseille","lat":43.30501,"lon":5.37963,"is_reserved":false,"is_disabled":false,"rental_uris":{"android":"levelo://app?vid=32827146-2d6b-4fb1-b00e-6b2f535ca544","ios":"levelo://app?vid=32827146-2d6b-4fb1-b00e-6b2f535ca544"},"vehicle_type_id":"4","last_reported":1686938898,"current_range_meters":31200,"station_id":"","pricing_plan_id":"free"},{"bike_id":"0257acb5-5960-4f49-bbe9-2b87523cfc8c","system_id":"levelo_inurba_marseille","lat":43.319935,"lon":5.381699,"is_reserved":false,"is_disabled":false,"rental_uris":{"android":"levelo://app?vid=0257acb5-5960-4f49-bbe9-2b87523cfc8c","ios":"levelo://app?vid=0257acb5-5960-4f49-bbe9-2b87523cfc8c"},"vehicle_type_id":"4","last_reported":1686938898,"current_range_meters":7200,"station_id":"ce4bhr12rcd13ifvqhpg","pricing_plan_id":"free"},{"bike_id":"4e106952-a865-45be-89f8-eabbc267d507","system_id":"levelo_inurba_marseille","lat":43.319935,"lon":5.381699,"is_reserved":false,"is_disabled":false,"rental_uris":{"android":"levelo://app?vid=4e106952-a865-45be-89f8-eabbc267d507","ios":"levelo://app?vid=4e106952-a865-45be-89f8-eabbc267d507"},"vehicle_type_id":"4","last_reported":1686938898,"current_range_meters":16400,"station_id":"ce4bhr12rcd13ifvqhpg","pricing_plan_id":"free"},{"bike_id":"330412da-b9eb-49fa-9ba0-9288ee9ddd31","system_id":"levelo_inurba_marseille","lat":43.30026,"lon":5.37524,"is_reserved":false,"is_disabled":false,"rental_uris":{"android":"levelo://app?vid=330412da-b9eb-49fa-9ba0-9288ee9ddd31","ios":"levelo://app?vid=330412da-b9eb-49fa-9ba0-9288ee9ddd31"},"vehicle_type_id":"4","last_reported":1686938898,"current_range_meters":22400,"station_id":"","pricing_plan_id":"free"},{"bike_id":"73c38d3d-1a50-4b6c-b4d0-57ceeadaade6","system_id":"levelo_inurba_marseille","lat":43.311822,"lon":5.387048,"is_reserved":false,"is_disabled":false,"rental_uris":{"android":"levelo://app?vid=73c38d3d-1a50-4b6c-b4d0-57ceeadaade6","ios":"levelo://app?vid=73c38d3d-1a50-4b6c-b4d0-57ceeadaade6"},"vehicle_type_id":"4","last_reported":1686938898,"current_range_meters":20400,"station_id":"ce4bgv12rcd13ifvqcp0","pricing_plan_id":"free"},{"bike_id":"d6ef2779-e6a6-4245-896c-ba5d869a9eb1","system_id":"levelo_inurba_marseille","lat":43.29839,"lon":5.36267,"is_reserved":false,"is_disabled":false,"rental_uris":{"android":"levelo://app?vid=d6ef2779-e6a6-4245-896c-ba5d869a9eb1","ios":"levelo://app?vid=d6ef2779-e6a6-4245-896c-ba5d869a9eb1"},"vehicle_type_id":"4","last_reported":1686938898,"current_range_meters":22400,"station_id":"ce4bgpp2rcd13ifvqc3g","pricing_plan_id":"free"},{"bike_id":"5a51bfc2-ff05-4145-9338-8801736163cc","system_id":"levelo_inurba_marseille","lat":43.311722,"lon":5.387247,"is_reserved":false,"is_disabled":false,"rental_uris":{"android":"levelo://app?vid=5a51bfc2-ff05-4145-9338-8801736163cc","ios":"levelo://app?vid=5a51bfc2-ff05-4145-9338-8801736163cc"},"vehicle_type_id":"4","last_reported":1686938898,"current_range_meters":0,"station_id":"ce4bgv12rcd13ifvqcp0","pricing_plan_id":"free"},{"bike_id":"4eb699e1-e7f6-4e9b-a9cc-ccd52d31c0a3","system_id":"levelo_inurba_marseille","lat":43.297774,"lon":5.370875,"is_reserved":false,"is_disabled":false,"rental_uris":{"android":"levelo://app?vid=4eb699e1-e7f6-4e9b-a9cc-ccd52d31c0a3","ios":"levelo://app?vid=4eb699e1-e7f6-4e9b-a9cc-ccd52d31c0a3"},"vehicle_type_id":"4","last_reported":1686938898,"current_range_meters":800,"station_id":"ce4bgop2rcd13ifvqc1g","pricing_plan_id":"free"},{"bike_id":"13789290-d172-4159-a096-3fb1156ae25e","system_id":"levelo_inurba_marseille","lat":43.328371,"lon":5.366912,"is_reserved":false,"is_disabled":false,"rental_uris":{"android":"levelo://app?vid=13789290-d172-4159-a096-3fb1156ae25e","ios":"levelo://app?vid=13789290-d172-4159-a096-3fb1156ae25e"},"vehicle_type_id":"4","last_reported":1686938898,"current_range_meters":16000,"station_id":"ce4bhs92rcd13ifvqi0g","pricing_plan_id":"free"},{"bike_id":"176f4894-d7fc-460e-aa5d-7c8c1e206dc3","system_id":"levelo_inurba_marseille","lat":43.297163,"lon":5.365866,"is_reserved":false,"is_disabled":false,"rental_uris":{"android":"levelo://app?vid=176f4894-d7fc-460e-aa5d-7c8c1e206dc3","ios":"levelo://app?vid=176f4894-d7fc-460e-aa5d-7c8c1e206dc3"},"vehicle_type_id":"4","last_reported":1686938898,"current_range_meters":19600,"station_id":"ce4bgn12rcd13ifvqbt0","pricing_plan_id":"free"},{"bike_id":"1745fb01-7597-4565-acf6-dfcdddcec512","system_id":"levelo_inurba_marseille","lat":43.297163,"lon":5.365866,"is_reserved":false,"is_disabled":false,"rental_uris":{"android":"levelo://app?vid=1745fb01-7597-4565-acf6-dfcdddcec512","ios":"levelo://app?vid=1745fb01-7597-4565-acf6-dfcdddcec512"},"vehicle_type_id":"4","last_reported":1686938898,"current_range_meters":400,"station_id":"ce4bgn12rcd13ifvqbt0","pricing_plan_id":"free"},{"bike_id":"88d0330c-5bb0-4a19-9b65-d4683b42e015","system_id":"levelo_inurba_marseille","lat":43.29683,"lon":5.36046,"is_reserved":false,"is_disabled":false,"rental_uris":{"android":"levelo://app?vid=88d0330c-5bb0-4a19-9b65-d4683b42e015","ios":"levelo://app?vid=88d0330c-5bb0-4a19-9b65-d4683b42e015"},"vehicle_type_id":"4","last_reported":1686938898,"current_range_meters":9600,"station_id":"ce4bgpp2rcd13ifvqc3g","pricing_plan_id":"free"},{"bike_id":"24f41ca5-b432-4feb-a0c8-a15026b97306","system_id":"levelo_inurba_marseille","lat":43.296131,"lon":5.370773,"is_reserved":false,"is_disabled":false,"rental_uris":{"android":"levelo://app?vid=24f41ca5-b432-4feb-a0c8-a15026b97306","ios":"levelo://app?vid=24f41ca5-b432-4feb-a0c8-a15026b97306"},"vehicle_type_id":"4","last_reported":1686938898,"current_range_meters":19200,"station_id":"ce4bgnh2rcd13ifvqc0g","pricing_plan_id":"free"},{"bike_id":"a16c4f1c-63fb-4ecb-8c3e-f384f88e2fc2","system_id":"levelo_inurba_marseille","lat":43.29714,"lon":5.37685,"is_reserved":false,"is_disabled":false,"rental_uris":{"android":"levelo://app?vid=a16c4f1c-63fb-4ecb-8c3e-f384f88e2fc2","ios":"levelo://app?vid=a16c4f1c-63fb-4ecb-8c3e-f384f88e2fc2"},"vehicle_type_id":"4","last_reported":1686938898,"current_range_meters":8000,"station_id":"","pricing_plan_id":"free"},{"bike_id":"250c8a96-8498-4211-b8f3-1b00a8d1fbaf","system_id":"levelo_inurba_marseille","lat":43.296477,"lon":5.37768,"is_reserved":false,"is_disabled":false,"rental_uris":{"android":"levelo://app?vid=250c8a96-8498-4211-b8f3-1b00a8d1fbaf","ios":"levelo://app?vid=250c8a96-8498-4211-b8f3-1b00a8d1fbaf"},"vehicle_type_id":"4","last_reported":1686938898,"current_range_meters":19600,"station_id":"","pricing_plan_id":"free"},{"bike_id":"5d232376-f5a2-4288-981e-bc0048e7176b","system_id":"levelo_inurba_marseille","lat":43.29615,"lon":5.37718,"is_reserved":false,"is_disabled":false,"rental_uris":{"android":"levelo://app?vid=5d232376-f5a2-4288-981e-bc0048e7176b","ios":"levelo://app?vid=5d232376-f5a2-4288-981e-bc0048e7176b"},"vehicle_type_id":"4","last_reported":1686938898,"current_range_meters":28800,"station_id":"ce4bgi92rcd13ifvqb90","pricing_plan_id":"free"},{"bike_id":"aae9053e-c2b0-4bd2-8c5c-4b9716c884d9","system_id":"levelo_inurba_marseille","lat":43.304278,"lon":5.388868,"is_reserved":false,"is_disabled":false,"rental_uris":{"android":"levelo://app?vid=aae9053e-c2b0-4bd2-8c5c-4b9716c884d9","ios":"levelo://app?vid=aae9053e-c2b0-4bd2-8c5c-4b9716c884d9"},"vehicle_type_id":"4","last_reported":1686938898,"current_range_meters":18000,"station_id":"ce4bgk12rcd13ifvqbi0","pricing_plan_id":"free"},{"bike_id":"4c3229d8-9037-4cfa-9713-d0ab6e89d176","system_id":"levelo_inurba_marseille","lat":43.299724,"lon":5.384848,"is_reserved":false,"is_disabled":false,"rental_uris":{"android":"levelo://app?vid=4c3229d8-9037-4cfa-9713-d0ab6e89d176","ios":"levelo://app?vid=4c3229d8-9037-4cfa-9713-d0ab6e89d176"},"vehicle_type_id":"4","last_reported":1686938898,"current_range_meters":18400,"station_id":"ce4bgj92rcd13ifvqbd0","pricing_plan_id":"free"},{"bike_id":"2c9ad911-25e0-4222-8751-d809dfadd582","system_id":"levelo_inurba_marseille","lat":43.32368,"lon":5.38863,"is_reserved":false,"is_disabled":false,"rental_uris":{"android":"levelo://app?vid=2c9ad911-25e0-4222-8751-d809dfadd582","ios":"levelo://app?vid=2c9ad911-25e0-4222-8751-d809dfadd582"},"vehicle_type_id":"4","last_reported":1686938898,"current_range_meters":29600,"station_id":"ce4bhqp2rcd13ifvqhog","pricing_plan_id":"free"},{"bike_id":"05b3119e-f582-4e25-92b2-6f7ca8f05c6c","system_id":"levelo_inurba_marseille","lat":43.292749,"lon":5.368402,"is_reserved":false,"is_disabled":false,"rental_uris":{"android":"levelo://app?vid=05b3119e-f582-4e25-92b2-6f7ca8f05c6c","ios":"levelo://app?vid=05b3119e-f582-4e25-92b2-6f7ca8f05c6c"},"vehicle_type_id":"4","last_reported":1686938898,"current_range_meters":0,"station_id":"ce4bhbp2rcd13ifvqesg","pricing_plan_id":"free"},{"bike_id":"8b008e9c-20e6-4e43-bfbb-aa5c0f7bfc4b","system_id":"levelo_inurba_marseille","lat":43.29252,"lon":5.35967,"is_reserved":false,"is_disabled":false,"rental_uris":{"android":"levelo://app?vid=8b008e9c-20e6-4e43-bfbb-aa5c0f7bfc4b","ios":"levelo://app?vid=8b008e9c-20e6-4e43-bfbb-aa5c0f7bfc4b"},"vehicle_type_id":"4","last_reported":1686938898,"current_range_meters":12800,"station_id":"","pricing_plan_id":"free"},{"bike_id":"3fa907cd-24af-4f90-8ade-12906fbfb896","system_id":"levelo_inurba_marseille","lat":43.292663,"lon":5.376389,"is_reserved":false,"is_disabled":false,"rental_uris":{"android":"levelo://app?vid=3fa907cd-24af-4f90-8ade-12906fbfb896","ios":"levelo://app?vid=3fa907cd-24af-4f90-8ade-12906fbfb896"},"vehicle_type_id":"4","last_reported":1686938898,"current_range_meters":0,"station_id":"ce4bgi12rcd13ifvqb80","pricing_plan_id":"free"},{"bike_id":"edd27ecf-5e8a-44a0-82e6-021137b2b9de","system_id":"levelo_inurba_marseille","lat":43.29291,"lon":5.35677,"is_reserved":false,"is_disabled":false,"rental_uris":{"android":"levelo://app?vid=edd27ecf-5e8a-44a0-82e6-021137b2b9de","ios":"levelo://app?vid=edd27ecf-5e8a-44a0-82e6-021137b2b9de"},"vehicle_type_id":"4","last_reported":1686938898,"current_range_meters":5600,"station_id":"","pricing_plan_id":"free"},{"bike_id":"9deb49cb-709d-4057-8fc1-da342ecb36b4","system_id":"levelo_inurba_marseille","lat":43.291671,"lon":5.371575,"is_reserved":false,"is_disabled":false,"rental_uris":{"android":"levelo://app?vid=9deb49cb-709d-4057-8fc1-da342ecb36b4","ios":"levelo://app?vid=9deb49cb-709d-4057-8fc1-da342ecb36b4"},"vehicle_type_id":"4","last_reported":1686938898,"current_range_meters":7200,"station_id":"ce4bha92rcd13ifvqeh0","pricing_plan_id":"free"},{"bike_id":"7999464f-39f0-4b15-b055-06f0cdc81755","system_id":"levelo_inurba_marseille","lat":43.29529,"lon":5.385581,"is_reserved":false,"is_disabled":false,"rental_uris":{"android":"levelo://app?vid=7999464f-39f0-4b15-b055-06f0cdc81755","ios":"levelo://app?vid=7999464f-39f0-4b15-b055-06f0cdc81755"},"vehicle_type_id":"4","last_reported":1686938898,"current_range_meters":0,"station_id":"ce4bgih2rcd13ifvqba0","pricing_plan_id":"free"},{"bike_id":"195de0af-e9b7-4913-8a97-110139b92d11","system_id":"levelo_inurba_marseille","lat":43.290779,"lon":5.371482,"is_reserved":false,"is_disabled":false,"rental_uris":{"android":"levelo://app?vid=195de0af-e9b7-4913-8a97-110139b92d11","ios":"levelo://app?vid=195de0af-e9b7-4913-8a97-110139b92d11"},"vehicle_type_id":"4","last_reported":1686938898,"current_range_meters":2000,"station_id":"ce4bh5p2rcd13ifvqe4g","pricing_plan_id":"free"},{"bike_id":"9ab8c94e-d669-4b92-ac24-7be32022e534","system_id":"levelo_inurba_marseille","lat":43.2901,"lon":5.36828,"is_reserved":false,"is_disabled":false,"rental_uris":{"android":"levelo://app?vid=9ab8c94e-d669-4b92-ac24-7be32022e534","ios":"levelo://app?vid=9ab8c94e-d669-4b92-ac24-7be32022e534"},"vehicle_type_id":"4","last_reported":1686938898,"current_range_meters":31200,"station_id":"","pricing_plan_id":"free"},{"bike_id":"f8d21225-06f0-4463-83bb-c69475ec9bbd","system_id":"levelo_inurba_marseille","lat":43.302008,"lon":5.394694,"is_reserved":false,"is_disabled":false,"rental_uris":{"android":"levelo://app?vid=f8d21225-06f0-4463-83bb-c69475ec9bbd","ios":"levelo://app?vid=f8d21225-06f0-4463-83bb-c69475ec9bbd"},"vehicle_type_id":"4","last_reported":1686938898,"current_range_meters":19200,"station_id":"ce4bh0p2rcd13ifvqd70","pricing_plan_id":"free"},{"bike_id":"717eaaef-6a4e-4396-b673-9dea5c102b0a","system_id":"levelo_inurba_marseille","lat":43.30215,"lon":5.39471,"is_reserved":false,"is_disabled":false,"rental_uris":{"android":"levelo://app?vid=717eaaef-6a4e-4396-b673-9dea5c102b0a","ios":"levelo://app?vid=717eaaef-6a4e-4396-b673-9dea5c102b0a"},"vehicle_type_id":"4","last_reported":1686938898,"current_range_meters":5600,"station_id":"ce4bh0p2rcd13ifvqd70","pricing_plan_id":"free"},{"bike_id":"9e1ef72c-e03a-40f0-9753-43c9430b3db9","system_id":"levelo_inurba_marseille","lat":43.29421,"lon":5.38628,"is_reserved":false,"is_disabled":false,"rental_uris":{"android":"levelo://app?vid=9e1ef72c-e03a-40f0-9753-43c9430b3db9","ios":"levelo://app?vid=9e1ef72c-e03a-40f0-9753-43c9430b3db9"},"vehicle_type_id":"4","last_reported":1686938898,"current_range_meters":20000,"station_id":"ce4bh2h2rcd13ifvqdh0","pricing_plan_id":"free"},{"bike_id":"38eb09af-7166-42b9-865e-84246929498f","system_id":"levelo_inurba_marseille","lat":43.294153,"lon":5.386305,"is_reserved":false,"is_disabled":false,"rental_uris":{"android":"levelo://app?vid=38eb09af-7166-42b9-865e-84246929498f","ios":"levelo://app?vid=38eb09af-7166-42b9-865e-84246929498f"},"vehicle_type_id":"4","last_reported":1686938898,"current_range_meters":31200,"station_id":"ce4bh2h2rcd13ifvqdh0","pricing_plan_id":"free"},{"bike_id":"37809476-9df5-41d4-a680-63c014add618","system_id":"levelo_inurba_marseille","lat":43.29417,"lon":5.38624,"is_reserved":false,"is_disabled":false,"rental_uris":{"android":"levelo://app?vid=37809476-9df5-41d4-a680-63c014add618","ios":"levelo://app?vid=37809476-9df5-41d4-a680-63c014add618"},"vehicle_type_id":"4","last_reported":1686938898,"current_range_meters":400,"station_id":"","pricing_plan_id":"free"},{"bike_id":"a6b69582-f3d7-418c-a150-f37d33eea909","system_id":"levelo_inurba_marseille","lat":43.294162,"lon":5.386292,"is_reserved":false,"is_disabled":false,"rental_uris":{"android":"levelo://app?vid=a6b69582-f3d7-418c-a150-f37d33eea909","ios":"levelo://app?vid=a6b69582-f3d7-418c-a150-f37d33eea909"},"vehicle_type_id":"4","last_reported":1686938898,"current_range_meters":0,"station_id":"ce4bh2h2rcd13ifvqdh0","pricing_plan_id":"free"},{"bike_id":"106738e2-1ea0-450a-aa43-57d93990b3a4","system_id":"levelo_inurba_marseille","lat":43.29262,"lon":5.38427,"is_reserved":false,"is_disabled":false,"rental_uris":{"android":"levelo://app?vid=106738e2-1ea0-450a-aa43-57d93990b3a4","ios":"levelo://app?vid=106738e2-1ea0-450a-aa43-57d93990b3a4"},"vehicle_type_id":"4","last_reported":1686938898,"current_range_meters":13600,"station_id":"","pricing_plan_id":"free"},{"bike_id":"03352ce5-afc9-4abc-ace8-719a8d97b102","system_id":"levelo_inurba_marseille","lat":43.304274,"lon":5.397513,"is_reserved":false,"is_disabled":false,"rental_uris":{"android":"levelo://app?vid=03352ce5-afc9-4abc-ace8-719a8d97b102","ios":"levelo://app?vid=03352ce5-afc9-4abc-ace8-719a8d97b102"},"vehicle_type_id":"4","last_reported":1686938898,"current_range_meters":2400,"station_id":"ce4bh092rcd13ifvqd20","pricing_plan_id":"free"},{"bike_id":"e77c09c5-acba-45bf-a480-f657351ea049","system_id":"levelo_inurba_marseille","lat":43.292644,"lon":5.384257,"is_reserved":false,"is_disabled":false,"rental_uris":{"android":"levelo://app?vid=e77c09c5-acba-45bf-a480-f657351ea049","ios":"levelo://app?vid=e77c09c5-acba-45bf-a480-f657351ea049"},"vehicle_type_id":"4","last_reported":1686938898,"current_range_meters":12000,"station_id":"ce4bh692rcd13ifvqea0","pricing_plan_id":"free"},{"bike_id":"ed742d16-d003-4f40-aff3-b059e8335a98","system_id":"levelo_inurba_marseille","lat":43.330442,"lon":5.389148,"is_reserved":false,"is_disabled":false,"rental_uris":{"android":"levelo://app?vid=ed742d16-d003-4f40-aff3-b059e8335a98","ios":"levelo://app?vid=ed742d16-d003-4f40-aff3-b059e8335a98"},"vehicle_type_id":"4","last_reported":1686938898,"current_range_meters":0,"station_id":"ce4bhr92rcd13ifvqhrg","pricing_plan_id":"free"},{"bike_id":"b0592ee3-7d2e-4f32-b5e2-1cbdd544c4de","system_id":"levelo_inurba_marseille","lat":43.2902,"lon":5.38137,"is_reserved":false,"is_disabled":false,"rental_uris":{"android":"levelo://app?vid=b0592ee3-7d2e-4f32-b5e2-1cbdd544c4de","ios":"levelo://app?vid=b0592ee3-7d2e-4f32-b5e2-1cbdd544c4de"},"vehicle_type_id":"4","last_reported":1686938898,"current_range_meters":16000,"station_id":"ce4bh4p2rcd13ifvqe1g","pricing_plan_id":"free"},{"bike_id":"2eb411be-9ba4-40f1-8faa-86114f278eda","system_id":"levelo_inurba_marseille","lat":43.2901,"lon":5.381269,"is_reserved":false,"is_disabled":false,"rental_uris":{"android":"levelo://app?vid=2eb411be-9ba4-40f1-8faa-86114f278eda","ios":"levelo://app?vid=2eb411be-9ba4-40f1-8faa-86114f278eda"},"vehicle_type_id":"4","last_reported":1686938898,"current_range_meters":0,"station_id":"ce4bh4p2rcd13ifvqe1g","pricing_plan_id":"free"},{"bike_id":"c0fb8083-e02d-4dec-b1b9-fa095e6c5b75","system_id":"levelo_inurba_marseille","lat":43.337396,"lon":5.374526,"is_reserved":false,"is_disabled":false,"rental_uris":{"android":"levelo://app?vid=c0fb8083-e02d-4dec-b1b9-fa095e6c5b75","ios":"levelo://app?vid=c0fb8083-e02d-4dec-b1b9-fa095e6c5b75"},"vehicle_type_id":"4","last_reported":1686938898,"current_range_meters":400,"station_id":"ce4bhp92rcd13ifvqhag","pricing_plan_id":"free"},{"bike_id":"da86bf5f-320c-40d1-bf20-4965b4734599","system_id":"levelo_inurba_marseille","lat":43.33745,"lon":5.37482,"is_reserved":false,"is_disabled":false,"rental_uris":{"android":"levelo://app?vid=da86bf5f-320c-40d1-bf20-4965b4734599","ios":"levelo://app?vid=da86bf5f-320c-40d1-bf20-4965b4734599"},"vehicle_type_id":"4","last_reported":1686938898,"current_range_meters":31200,"station_id":"","pricing_plan_id":"free"},{"bike_id":"ab52bea2-b538-4483-abd2-bb04634c1504","system_id":"levelo_inurba_marseille","lat":43.30642,"lon":5.401031,"is_reserved":false,"is_disabled":false,"rental_uris":{"android":"levelo://app?vid=ab52bea2-b538-4483-abd2-bb04634c1504","ios":"levelo://app?vid=ab52bea2-b538-4483-abd2-bb04634c1504"},"vehicle_type_id":"4","last_reported":1686938898,"current_range_meters":12800,"station_id":"ce4bh112rcd13ifvqda0","pricing_plan_id":"free"},{"bike_id":"953b29fc-e78a-4d68-8894-2bca0a1f7eaf","system_id":"levelo_inurba_marseille","lat":43.290319,"lon":5.386461,"is_reserved":false,"is_disabled":false,"rental_uris":{"android":"levelo://app?vid=953b29fc-e78a-4d68-8894-2bca0a1f7eaf","ios":"levelo://app?vid=953b29fc-e78a-4d68-8894-2bca0a1f7eaf"},"vehicle_type_id":"4","last_reported":1686938898,"current_range_meters":5200,"station_id":"","pricing_plan_id":"free"},{"bike_id":"a575de7d-b6bf-48fe-aa24-93afa01bcf62","system_id":"levelo_inurba_marseille","lat":43.286039,"lon":5.370681,"is_reserved":false,"is_disabled":false,"rental_uris":{"android":"levelo://app?vid=a575de7d-b6bf-48fe-aa24-93afa01bcf62","ios":"levelo://app?vid=a575de7d-b6bf-48fe-aa24-93afa01bcf62"},"vehicle_type_id":"4","last_reported":1686938898,"current_range_meters":7200,"station_id":"ce4bht12rcd13ifvqi60","pricing_plan_id":"free"},{"bike_id":"0eec0ee3-faa8-41d9-842e-6f1bd5b94848","system_id":"levelo_inurba_marseille","lat":43.285848,"lon":5.350787,"is_reserved":false,"is_disabled":false,"rental_uris":{"android":"levelo://app?vid=0eec0ee3-faa8-41d9-842e-6f1bd5b94848","ios":"levelo://app?vid=0eec0ee3-faa8-41d9-842e-6f1bd5b94848"},"vehicle_type_id":"4","last_reported":1686938898,"current_range_meters":0,"station_id":"ce4bhch2rcd13ifvqeug","pricing_plan_id":"free"},{"bike_id":"cb27147b-43b5-44f9-b5a6-d8a3fc8bd8ff","system_id":"levelo_inurba_marseille","lat":43.294314,"lon":5.397498,"is_reserved":false,"is_disabled":false,"rental_uris":{"android":"levelo://app?vid=cb27147b-43b5-44f9-b5a6-d8a3fc8bd8ff","ios":"levelo://app?vid=cb27147b-43b5-44f9-b5a6-d8a3fc8bd8ff"},"vehicle_type_id":"4","last_reported":1686938898,"current_range_meters":20400,"station_id":"ce4bh3h2rcd13ifvqdo0","pricing_plan_id":"free"},{"bike_id":"881cce5a-f957-433d-b040-4e6f7ef207b0","system_id":"levelo_inurba_marseille","lat":43.28405,"lon":5.37516,"is_reserved":false,"is_disabled":false,"rental_uris":{"android":"levelo://app?vid=881cce5a-f957-433d-b040-4e6f7ef207b0","ios":"levelo://app?vid=881cce5a-f957-433d-b040-4e6f7ef207b0"},"vehicle_type_id":"4","last_reported":1686938898,"current_range_meters":0,"station_id":"","pricing_plan_id":"free"},{"bike_id":"4ca9468a-87da-4f2b-a98b-23660a7abe29","system_id":"levelo_inurba_marseille","lat":43.295713,"lon":5.399639,"is_reserved":false,"is_disabled":false,"rental_uris":{"android":"levelo://app?vid=4ca9468a-87da-4f2b-a98b-23660a7abe29","ios":"levelo://app?vid=4ca9468a-87da-4f2b-a98b-23660a7abe29"},"vehicle_type_id":"4","last_reported":1686938898,"current_range_meters":3600,"station_id":"ce4bh312rcd13ifvqdj0","pricing_plan_id":"free"},{"bike_id":"f59e15ff-8139-4fc3-ac86-1f00083f57c1","system_id":"levelo_inurba_marseille","lat":43.28537,"lon":5.3843,"is_reserved":false,"is_disabled":false,"rental_uris":{"android":"levelo://app?vid=f59e15ff-8139-4fc3-ac86-1f00083f57c1","ios":"levelo://app?vid=f59e15ff-8139-4fc3-ac86-1f00083f57c1"},"vehicle_type_id":"4","last_reported":1686938898,"current_range_meters":0,"station_id":"ce4bhg12rcd13ifvqf80","pricing_plan_id":"free"},{"bike_id":"16e5fedd-6e86-436a-a0a2-72c7cd60a6ea","system_id":"levelo_inurba_marseille","lat":43.32333,"lon":5.40622,"is_reserved":false,"is_disabled":false,"rental_uris":{"android":"levelo://app?vid=16e5fedd-6e86-436a-a0a2-72c7cd60a6ea","ios":"levelo://app?vid=16e5fedd-6e86-436a-a0a2-72c7cd60a6ea"},"vehicle_type_id":"4","last_reported":1686938898,"current_range_meters":31200,"station_id":"ce4bhq92rcd13ifvqhjg","pricing_plan_id":"free"},{"bike_id":"2bf3d4e9-d0de-4c79-840f-42264397a655","system_id":"levelo_inurba_marseille","lat":43.28486,"lon":5.38415,"is_reserved":false,"is_disabled":false,"rental_uris":{"android":"levelo://app?vid=2bf3d4e9-d0de-4c79-840f-42264397a655","ios":"levelo://app?vid=2bf3d4e9-d0de-4c79-840f-42264397a655"},"vehicle_type_id":"4","last_reported":1686938898,"current_range_meters":14000,"station_id":"ce4bh512rcd13ifvqe3g","pricing_plan_id":"free"},{"bike_id":"8587af11-a27f-4ff5-b6d4-0fecc9b128c2","system_id":"levelo_inurba_marseille","lat":43.28799,"lon":5.39179,"is_reserved":false,"is_disabled":false,"rental_uris":{"android":"levelo://app?vid=8587af11-a27f-4ff5-b6d4-0fecc9b128c2","ios":"levelo://app?vid=8587af11-a27f-4ff5-b6d4-0fecc9b128c2"},"vehicle_type_id":"4","last_reported":1686938898,"current_range_meters":4000,"station_id":"","pricing_plan_id":"free"},{"bike_id":"dab0576c-6786-49ba-a6d2-64f51543bc01","system_id":"levelo_inurba_marseille","lat":43.284793,"lon":5.384119,"is_reserved":false,"is_disabled":false,"rental_uris":{"android":"levelo://app?vid=dab0576c-6786-49ba-a6d2-64f51543bc01","ios":"levelo://app?vid=dab0576c-6786-49ba-a6d2-64f51543bc01"},"vehicle_type_id":"4","last_reported":1686938898,"current_range_meters":7200,"station_id":"ce4bh512rcd13ifvqe3g","pricing_plan_id":"free"},{"bike_id":"00b4d942-d645-4a17-a320-9c02b5ecca68","system_id":"levelo_inurba_marseille","lat":43.288497,"lon":5.393089,"is_reserved":false,"is_disabled":false,"rental_uris":{"android":"levelo://app?vid=00b4d942-d645-4a17-a320-9c02b5ecca68","ios":"levelo://app?vid=00b4d942-d645-4a17-a320-9c02b5ecca68"},"vehicle_type_id":"4","last_reported":1686938898,"current_range_meters":28800,"station_id":"ce4bh2p2rcd13ifvqdi0","pricing_plan_id":"free"},{"bike_id":"3da2b338-3375-49ae-a313-ef6c0e462f83","system_id":"levelo_inurba_marseille","lat":43.284219,"lon":5.3497,"is_reserved":false,"is_disabled":false,"rental_uris":{"android":"levelo://app?vid=3da2b338-3375-49ae-a313-ef6c0e462f83","ios":"levelo://app?vid=3da2b338-3375-49ae-a313-ef6c0e462f83"},"vehicle_type_id":"4","last_reported":1686938898,"current_range_meters":0,"station_id":"ce4bhbh2rcd13ifvqepg","pricing_plan_id":"free"},{"bike_id":"6527af3c-cb9b-47be-93f2-078e4ae89e22","system_id":"levelo_inurba_marseille","lat":43.284217,"lon":5.349697,"is_reserved":false,"is_disabled":false,"rental_uris":{"android":"levelo://app?vid=6527af3c-cb9b-47be-93f2-078e4ae89e22","ios":"levelo://app?vid=6527af3c-cb9b-47be-93f2-078e4ae89e22"},"vehicle_type_id":"4","last_reported":1686938898,"current_range_meters":0,"station_id":"ce4bhbh2rcd13ifvqepg","pricing_plan_id":"free"},{"bike_id":"2fd510e0-ebc7-4690-a226-dc627daa5e6b","system_id":"levelo_inurba_marseille","lat":43.284217,"lon":5.349697,"is_reserved":false,"is_disabled":false,"rental_uris":{"android":"levelo://app?vid=2fd510e0-ebc7-4690-a226-dc627daa5e6b","ios":"levelo://app?vid=2fd510e0-ebc7-4690-a226-dc627daa5e6b"},"vehicle_type_id":"4","last_reported":1686938898,"current_range_meters":18800,"station_id":"ce4bhbh2rcd13ifvqepg","pricing_plan_id":"free"},{"bike_id":"2a40378d-37da-4f5e-9c38-bc15f80ad089","system_id":"levelo_inurba_marseille","lat":43.28417,"lon":5.34984,"is_reserved":false,"is_disabled":false,"rental_uris":{"android":"levelo://app?vid=2a40378d-37da-4f5e-9c38-bc15f80ad089","ios":"levelo://app?vid=2a40378d-37da-4f5e-9c38-bc15f80ad089"},"vehicle_type_id":"4","last_reported":1686938898,"current_range_meters":15600,"station_id":"ce4bhbh2rcd13ifvqepg","pricing_plan_id":"free"},{"bike_id":"d7560ff4-726f-4c61-ae08-a19809aa1f14","system_id":"levelo_inurba_marseille","lat":43.28277,"lon":5.35068,"is_reserved":false,"is_disabled":false,"rental_uris":{"android":"levelo://app?vid=d7560ff4-726f-4c61-ae08-a19809aa1f14","ios":"levelo://app?vid=d7560ff4-726f-4c61-ae08-a19809aa1f14"},"vehicle_type_id":"4","last_reported":1686938898,"current_range_meters":800,"station_id":"ce4bhbp2rcd13ifvqerg","pricing_plan_id":"free"},{"bike_id":"e2c3a0aa-7f22-492a-a04d-15e355466059","system_id":"levelo_inurba_marseille","lat":43.32879,"lon":5.40534,"is_reserved":false,"is_disabled":false,"rental_uris":{"android":"levelo://app?vid=e2c3a0aa-7f22-492a-a04d-15e355466059","ios":"levelo://app?vid=e2c3a0aa-7f22-492a-a04d-15e355466059"},"vehicle_type_id":"4","last_reported":1686938898,"current_range_meters":12400,"station_id":"","pricing_plan_id":"free"},{"bike_id":"ed578a5c-0baf-457a-b72d-32de7912accb","system_id":"levelo_inurba_marseille","lat":43.28273,"lon":5.35056,"is_reserved":false,"is_disabled":false,"rental_uris":{"android":"levelo://app?vid=ed578a5c-0baf-457a-b72d-32de7912accb","ios":"levelo://app?vid=ed578a5c-0baf-457a-b72d-32de7912accb"},"vehicle_type_id":"4","last_reported":1686938898,"current_range_meters":13200,"station_id":"ce4bhbp2rcd13ifvqerg","pricing_plan_id":"free"},{"bike_id":"f744612e-b7c8-4f01-ab56-0f237453011c","system_id":"levelo_inurba_marseille","lat":43.28264,"lon":5.35068,"is_reserved":false,"is_disabled":false,"rental_uris":{"android":"levelo://app?vid=f744612e-b7c8-4f01-ab56-0f237453011c","ios":"levelo://app?vid=f744612e-b7c8-4f01-ab56-0f237453011c"},"vehicle_type_id":"4","last_reported":1686938898,"current_range_meters":0,"station_id":"ce4bhbp2rcd13ifvqerg","pricing_plan_id":"free"},{"bike_id":"182c8f68-bdef-4e3e-af7d-ba16e47c95c6","system_id":"levelo_inurba_marseille","lat":43.28039,"lon":5.369297,"is_reserved":false,"is_disabled":false,"rental_uris":{"android":"levelo://app?vid=182c8f68-bdef-4e3e-af7d-ba16e47c95c6","ios":"levelo://app?vid=182c8f68-bdef-4e3e-af7d-ba16e47c95c6"},"vehicle_type_id":"4","last_reported":1686938898,"current_range_meters":6000,"station_id":"ce4bha12rcd13ifvqef0","pricing_plan_id":"free"},{"bike_id":"6c49d063-41d9-4a2e-85d5-1440c395b2ab","system_id":"levelo_inurba_marseille","lat":43.281044,"lon":5.378308,"is_reserved":false,"is_disabled":false,"rental_uris":{"android":"levelo://app?vid=6c49d063-41d9-4a2e-85d5-1440c395b2ab","ios":"levelo://app?vid=6c49d063-41d9-4a2e-85d5-1440c395b2ab"},"vehicle_type_id":"4","last_reported":1686938898,"current_range_meters":400,"station_id":"ce4bha12rcd13ifvqee0","pricing_plan_id":"free"},{"bike_id":"74a59d6c-d6c7-460f-bba7-ce13812ac794","system_id":"levelo_inurba_marseille","lat":43.32664,"lon":5.40977,"is_reserved":false,"is_disabled":false,"rental_uris":{"android":"levelo://app?vid=74a59d6c-d6c7-460f-bba7-ce13812ac794","ios":"levelo://app?vid=74a59d6c-d6c7-460f-bba7-ce13812ac794"},"vehicle_type_id":"4","last_reported":1686938898,"current_range_meters":20000,"station_id":"ce4bhpp2rcd13ifvqhgg","pricing_plan_id":"free"},{"bike_id":"f48ee2ec-b0db-4e23-9a7f-86874bc56640","system_id":"levelo_inurba_marseille","lat":43.326605,"lon":5.409903,"is_reserved":false,"is_disabled":false,"rental_uris":{"android":"levelo://app?vid=f48ee2ec-b0db-4e23-9a7f-86874bc56640","ios":"levelo://app?vid=f48ee2ec-b0db-4e23-9a7f-86874bc56640"},"vehicle_type_id":"4","last_reported":1686938898,"current_range_meters":10000,"station_id":"ce4bhpp2rcd13ifvqhgg","pricing_plan_id":"free"},{"bike_id":"63ac74cc-0937-4f8d-b034-559349763d95","system_id":"levelo_inurba_marseille","lat":43.326605,"lon":5.409903,"is_reserved":false,"is_disabled":false,"rental_uris":{"android":"levelo://app?vid=63ac74cc-0937-4f8d-b034-559349763d95","ios":"levelo://app?vid=63ac74cc-0937-4f8d-b034-559349763d95"},"vehicle_type_id":"4","last_reported":1686938898,"current_range_meters":7200,"station_id":"ce4bhpp2rcd13ifvqhgg","pricing_plan_id":"free"},{"bike_id":"7edb2131-ddae-4ae7-9e9c-463549dd0947","system_id":"levelo_inurba_marseille","lat":43.326605,"lon":5.409903,"is_reserved":false,"is_disabled":false,"rental_uris":{"android":"levelo://app?vid=7edb2131-ddae-4ae7-9e9c-463549dd0947","ios":"levelo://app?vid=7edb2131-ddae-4ae7-9e9c-463549dd0947"},"vehicle_type_id":"4","last_reported":1686938898,"current_range_meters":16800,"station_id":"ce4bhpp2rcd13ifvqhgg","pricing_plan_id":"free"},{"bike_id":"0033b346-9bd5-4d71-9e91-aa0556d3fd81","system_id":"levelo_inurba_marseille","lat":43.326605,"lon":5.409903,"is_reserved":false,"is_disabled":false,"rental_uris":{"android":"levelo://app?vid=0033b346-9bd5-4d71-9e91-aa0556d3fd81","ios":"levelo://app?vid=0033b346-9bd5-4d71-9e91-aa0556d3fd81"},"vehicle_type_id":"4","last_reported":1686938898,"current_range_meters":7200,"station_id":"ce4bhpp2rcd13ifvqhgg","pricing_plan_id":"free"},{"bike_id":"90fd3729-7854-4014-8adc-4acef6400033","system_id":"levelo_inurba_marseille","lat":43.326605,"lon":5.409903,"is_reserved":false,"is_disabled":false,"rental_uris":{"android":"levelo://app?vid=90fd3729-7854-4014-8adc-4acef6400033","ios":"levelo://app?vid=90fd3729-7854-4014-8adc-4acef6400033"},"vehicle_type_id":"4","last_reported":1686938898,"current_range_meters":6400,"station_id":"ce4bhpp2rcd13ifvqhgg","pricing_plan_id":"free"},{"bike_id":"6e490864-7436-499e-ab54-ab00df873f22","system_id":"levelo_inurba_marseille","lat":43.320045,"lon":5.415046,"is_reserved":false,"is_disabled":false,"rental_uris":{"android":"levelo://app?vid=6e490864-7436-499e-ab54-ab00df873f22","ios":"levelo://app?vid=6e490864-7436-499e-ab54-ab00df873f22"},"vehicle_type_id":"4","last_reported":1686938898,"current_range_meters":20000,"station_id":"ce4bhq92rcd13ifvqhkg","pricing_plan_id":"free"},{"bike_id":"0833bc9e-ec6b-4c28-83d4-9184902f2c42","system_id":"levelo_inurba_marseille","lat":43.29961,"lon":5.41323,"is_reserved":false,"is_disabled":false,"rental_uris":{"android":"levelo://app?vid=0833bc9e-ec6b-4c28-83d4-9184902f2c42","ios":"levelo://app?vid=0833bc9e-ec6b-4c28-83d4-9184902f2c42"},"vehicle_type_id":"4","last_reported":1686938898,"current_range_meters":30800,"station_id":"ce4bhp12rcd13ifvqh9g","pricing_plan_id":"free"},{"bike_id":"704f9080-5b32-483f-a5de-423cd357917a","system_id":"levelo_inurba_marseille","lat":43.27977,"lon":5.3874,"is_reserved":false,"is_disabled":false,"rental_uris":{"android":"levelo://app?vid=704f9080-5b32-483f-a5de-423cd357917a","ios":"levelo://app?vid=704f9080-5b32-483f-a5de-423cd357917a"},"vehicle_type_id":"4","last_reported":1686938898,"current_range_meters":4400,"station_id":"ce4bhg12rcd13ifvqf80","pricing_plan_id":"free"},{"bike_id":"d1664270-4c78-41a1-af8d-027a5fc9d5f6","system_id":"levelo_inurba_marseille","lat":43.279742,"lon":5.38744,"is_reserved":false,"is_disabled":false,"rental_uris":{"android":"levelo://app?vid=d1664270-4c78-41a1-af8d-027a5fc9d5f6","ios":"levelo://app?vid=d1664270-4c78-41a1-af8d-027a5fc9d5f6"},"vehicle_type_id":"4","last_reported":1686938898,"current_range_meters":2800,"station_id":"ce4bhg12rcd13ifvqf80","pricing_plan_id":"free"},{"bike_id":"109cdfee-b2aa-46fc-8080-3e3f7852a1b7","system_id":"levelo_inurba_marseille","lat":43.279742,"lon":5.38744,"is_reserved":false,"is_disabled":false,"rental_uris":{"android":"levelo://app?vid=109cdfee-b2aa-46fc-8080-3e3f7852a1b7","ios":"levelo://app?vid=109cdfee-b2aa-46fc-8080-3e3f7852a1b7"},"vehicle_type_id":"4","last_reported":1686938898,"current_range_meters":8000,"station_id":"ce4bhg12rcd13ifvqf80","pricing_plan_id":"free"},{"bike_id":"a5469096-61b8-4e3e-8120-8a3ad3d92db1","system_id":"levelo_inurba_marseille","lat":43.292569,"lon":5.409107,"is_reserved":false,"is_disabled":false,"rental_uris":{"android":"levelo://app?vid=a5469096-61b8-4e3e-8120-8a3ad3d92db1","ios":"levelo://app?vid=a5469096-61b8-4e3e-8120-8a3ad3d92db1"},"vehicle_type_id":"4","last_reported":1686938898,"current_range_meters":20400,"station_id":"ce4bh192rcd13ifvqdc0","pricing_plan_id":"free"},{"bike_id":"11c25776-8c9b-40b7-a566-b29f82dcc328","system_id":"levelo_inurba_marseille","lat":43.325233,"lon":5.414318,"is_reserved":false,"is_disabled":false,"rental_uris":{"android":"levelo://app?vid=11c25776-8c9b-40b7-a566-b29f82dcc328","ios":"levelo://app?vid=11c25776-8c9b-40b7-a566-b29f82dcc328"},"vehicle_type_id":"4","last_reported":1686938898,"current_range_meters":10800,"station_id":"ce4bhq12rcd13ifvqhhg","pricing_plan_id":"free"},{"bike_id":"0ec7cdc3-590e-4a2c-bebd-1690468876eb","system_id":"levelo_inurba_marseille","lat":43.27618,"lon":5.361009,"is_reserved":false,"is_disabled":false,"rental_uris":{"android":"levelo://app?vid=0ec7cdc3-590e-4a2c-bebd-1690468876eb","ios":"levelo://app?vid=0ec7cdc3-590e-4a2c-bebd-1690468876eb"},"vehicle_type_id":"4","last_reported":1686938898,"current_range_meters":2000,"station_id":"ce4bgj92rcd13ifvqbe0","pricing_plan_id":"free"},{"bike_id":"6d493a7b-7b6f-44c3-8749-26f32fd7f9cb","system_id":"levelo_inurba_marseille","lat":43.27618,"lon":5.361009,"is_reserved":false,"is_disabled":false,"rental_uris":{"android":"levelo://app?vid=6d493a7b-7b6f-44c3-8749-26f32fd7f9cb","ios":"levelo://app?vid=6d493a7b-7b6f-44c3-8749-26f32fd7f9cb"},"vehicle_type_id":"4","last_reported":1686938898,"current_range_meters":4400,"station_id":"ce4bgj92rcd13ifvqbe0","pricing_plan_id":"free"},{"bike_id":"011d8bf8-9df0-4f43-a8e4-1d4f058a4380","system_id":"levelo_inurba_marseille","lat":43.273613,"lon":5.362705,"is_reserved":false,"is_disabled":false,"rental_uris":{"android":"levelo://app?vid=011d8bf8-9df0-4f43-a8e4-1d4f058a4380","ios":"levelo://app?vid=011d8bf8-9df0-4f43-a8e4-1d4f058a4380"},"vehicle_type_id":"4","last_reported":1686938898,"current_range_meters":7600,"station_id":"ce4bhbh2rcd13ifvqeo0","pricing_plan_id":"free"},{"bike_id":"c2cb7995-3d32-4bd3-afc6-70a43c09a864","system_id":"levelo_inurba_marseille","lat":43.273613,"lon":5.362705,"is_reserved":false,"is_disabled":false,"rental_uris":{"android":"levelo://app?vid=c2cb7995-3d32-4bd3-afc6-70a43c09a864","ios":"levelo://app?vid=c2cb7995-3d32-4bd3-afc6-70a43c09a864"},"vehicle_type_id":"4","last_reported":1686938898,"current_range_meters":800,"station_id":"ce4bhbh2rcd13ifvqeo0","pricing_plan_id":"free"},{"bike_id":"089bc5a7-06de-4b27-bdff-aa957de2b584","system_id":"levelo_inurba_marseille","lat":43.336134,"lon":5.410341,"is_reserved":false,"is_disabled":false,"rental_uris":{"android":"levelo://app?vid=089bc5a7-06de-4b27-bdff-aa957de2b584","ios":"levelo://app?vid=089bc5a7-06de-4b27-bdff-aa957de2b584"},"vehicle_type_id":"4","last_reported":1686938898,"current_range_meters":5600,"station_id":"ce4bhqh2rcd13ifvqhmg","pricing_plan_id":"free"},{"bike_id":"43e5e0a2-2456-45e6-b68a-476ff4533c5f","system_id":"levelo_inurba_marseille","lat":43.276771,"lon":5.388799,"is_reserved":false,"is_disabled":false,"rental_uris":{"android":"levelo://app?vid=43e5e0a2-2456-45e6-b68a-476ff4533c5f","ios":"levelo://app?vid=43e5e0a2-2456-45e6-b68a-476ff4533c5f"},"vehicle_type_id":"4","last_reported":1686938898,"current_range_meters":27200,"station_id":"ce4bhi12rcd13ifvqfo0","pricing_plan_id":"free"},{"bike_id":"2bf68ed4-d662-490c-901e-9818bd9d939e","system_id":"levelo_inurba_marseille","lat":43.317121,"lon":5.423936,"is_reserved":false,"is_disabled":false,"rental_uris":{"android":"levelo://app?vid=2bf68ed4-d662-490c-901e-9818bd9d939e","ios":"levelo://app?vid=2bf68ed4-d662-490c-901e-9818bd9d939e"},"vehicle_type_id":"4","last_reported":1686938898,"current_range_meters":3200,"station_id":"ce4bhp92rcd13ifvqhbg","pricing_plan_id":"free"},{"bike_id":"f82c4e0b-ce86-4de4-962b-f266d6ba506e","system_id":"levelo_inurba_marseille","lat":43.273125,"lon":5.390731,"is_reserved":false,"is_disabled":false,"rental_uris":{"android":"levelo://app?vid=f82c4e0b-ce86-4de4-962b-f266d6ba506e","ios":"levelo://app?vid=f82c4e0b-ce86-4de4-962b-f266d6ba506e"},"vehicle_type_id":"4","last_reported":1686938898,"current_range_meters":26800,"station_id":"ce4bhgp2rcd13ifvqfe0","pricing_plan_id":"free"},{"bike_id":"a3f2e6c3-b112-409d-81f8-4d06a2bbc261","system_id":"levelo_inurba_marseille","lat":43.29554,"lon":5.4229,"is_reserved":false,"is_disabled":false,"rental_uris":{"android":"levelo://app?vid=a3f2e6c3-b112-409d-81f8-4d06a2bbc261","ios":"levelo://app?vid=a3f2e6c3-b112-409d-81f8-4d06a2bbc261"},"vehicle_type_id":"4","last_reported":1686938898,"current_range_meters":14400,"station_id":"ce4bhph2rcd13ifvqhdg","pricing_plan_id":"free"},{"bike_id":"d0a15fdc-fde1-4e8d-8fd9-e3e52c806da4","system_id":"levelo_inurba_marseille","lat":43.272124,"lon":5.391768,"is_reserved":false,"is_disabled":false,"rental_uris":{"android":"levelo://app?vid=d0a15fdc-fde1-4e8d-8fd9-e3e52c806da4","ios":"levelo://app?vid=d0a15fdc-fde1-4e8d-8fd9-e3e52c806da4"},"vehicle_type_id":"4","last_reported":1686938898,"current_range_meters":0,"station_id":"ce4bhhp2rcd13ifvqfm0","pricing_plan_id":"free"},{"bike_id":"1fb37aa1-55ce-4a11-a08e-333bfee4bc6f","system_id":"levelo_inurba_marseille","lat":43.27795,"lon":5.40571,"is_reserved":false,"is_disabled":false,"rental_uris":{"android":"levelo://app?vid=1fb37aa1-55ce-4a11-a08e-333bfee4bc6f","ios":"levelo://app?vid=1fb37aa1-55ce-4a11-a08e-333bfee4bc6f"},"vehicle_type_id":"4","last_reported":1686938898,"current_range_meters":22400,"station_id":"","pricing_plan_id":"free"},{"bike_id":"60980631-9a3b-42f5-b02c-285165fb65e3","system_id":"levelo_inurba_marseille","lat":43.26681,"lon":5.382694,"is_reserved":false,"is_disabled":false,"rental_uris":{"android":"levelo://app?vid=60980631-9a3b-42f5-b02c-285165fb65e3","ios":"levelo://app?vid=60980631-9a3b-42f5-b02c-285165fb65e3"},"vehicle_type_id":"4","last_reported":1686938898,"current_range_meters":3200,"station_id":"ce4bhg92rcd13ifvqf90","pricing_plan_id":"free"},{"bike_id":"3c36f439-1a24-48f8-ab55-e1c693333192","system_id":"levelo_inurba_marseille","lat":43.26682,"lon":5.38266,"is_reserved":false,"is_disabled":false,"rental_uris":{"android":"levelo://app?vid=3c36f439-1a24-48f8-ab55-e1c693333192","ios":"levelo://app?vid=3c36f439-1a24-48f8-ab55-e1c693333192"},"vehicle_type_id":"4","last_reported":1686938898,"current_range_meters":4000,"station_id":"ce4bhg92rcd13ifvqf90","pricing_plan_id":"free"},{"bike_id":"cfba2fbe-9ed5-423f-b411-8d6c38451715","system_id":"levelo_inurba_marseille","lat":43.26681,"lon":5.382694,"is_reserved":false,"is_disabled":false,"rental_uris":{"android":"levelo://app?vid=cfba2fbe-9ed5-423f-b411-8d6c38451715","ios":"levelo://app?vid=cfba2fbe-9ed5-423f-b411-8d6c38451715"},"vehicle_type_id":"4","last_reported":1686938898,"current_range_meters":31200,"station_id":"ce4bhg92rcd13ifvqf90","pricing_plan_id":"free"},{"bike_id":"3fcd6fcd-a9b7-479e-aea1-9e5983d257b4","system_id":"levelo_inurba_marseille","lat":43.26681,"lon":5.382694,"is_reserved":false,"is_disabled":false,"rental_uris":{"android":"levelo://app?vid=3fcd6fcd-a9b7-479e-aea1-9e5983d257b4","ios":"levelo://app?vid=3fcd6fcd-a9b7-479e-aea1-9e5983d257b4"},"vehicle_type_id":"4","last_reported":1686938898,"current_range_meters":5600,"station_id":"ce4bhg92rcd13ifvqf90","pricing_plan_id":"free"},{"bike_id":"de1854c1-3f39-47aa-a1b9-4c957ed97107","system_id":"levelo_inurba_marseille","lat":43.26681,"lon":5.382694,"is_reserved":false,"is_disabled":false,"rental_uris":{"android":"levelo://app?vid=de1854c1-3f39-47aa-a1b9-4c957ed97107","ios":"levelo://app?vid=de1854c1-3f39-47aa-a1b9-4c957ed97107"},"vehicle_type_id":"4","last_reported":1686938898,"current_range_meters":0,"station_id":"ce4bhg92rcd13ifvqf90","pricing_plan_id":"free"},{"bike_id":"bac8311f-df6e-4238-a48d-8802458ec24b","system_id":"levelo_inurba_marseille","lat":43.26679,"lon":5.38266,"is_reserved":false,"is_disabled":false,"rental_uris":{"android":"levelo://app?vid=bac8311f-df6e-4238-a48d-8802458ec24b","ios":"levelo://app?vid=bac8311f-df6e-4238-a48d-8802458ec24b"},"vehicle_type_id":"4","last_reported":1686938898,"current_range_meters":0,"station_id":"ce4bhg92rcd13ifvqf90","pricing_plan_id":"free"},{"bike_id":"7a68e153-9dde-4036-89e2-a88db74712b1","system_id":"levelo_inurba_marseille","lat":43.26679,"lon":5.38269,"is_reserved":false,"is_disabled":false,"rental_uris":{"android":"levelo://app?vid=7a68e153-9dde-4036-89e2-a88db74712b1","ios":"levelo://app?vid=7a68e153-9dde-4036-89e2-a88db74712b1"},"vehicle_type_id":"4","last_reported":1686938898,"current_range_meters":9600,"station_id":"ce4bhg92rcd13ifvqf90","pricing_plan_id":"free"},{"bike_id":"53ddc772-5780-4561-b8bb-23a6e7efebdf","system_id":"levelo_inurba_marseille","lat":43.26681,"lon":5.382694,"is_reserved":false,"is_disabled":false,"rental_uris":{"android":"levelo://app?vid=53ddc772-5780-4561-b8bb-23a6e7efebdf","ios":"levelo://app?vid=53ddc772-5780-4561-b8bb-23a6e7efebdf"},"vehicle_type_id":"4","last_reported":1686938898,"current_range_meters":4800,"station_id":"ce4bhg92rcd13ifvqf90","pricing_plan_id":"free"},{"bike_id":"45fd3b3e-60cc-485d-9e79-70c5523b4573","system_id":"levelo_inurba_marseille","lat":43.26681,"lon":5.382694,"is_reserved":false,"is_disabled":false,"rental_uris":{"android":"levelo://app?vid=45fd3b3e-60cc-485d-9e79-70c5523b4573","ios":"levelo://app?vid=45fd3b3e-60cc-485d-9e79-70c5523b4573"},"vehicle_type_id":"4","last_reported":1686938898,"current_range_meters":12000,"station_id":"ce4bhg92rcd13ifvqf90","pricing_plan_id":"free"},{"bike_id":"131412c0-90cc-45ab-bdac-a4f2b3a3bc1e","system_id":"levelo_inurba_marseille","lat":43.26681,"lon":5.382694,"is_reserved":false,"is_disabled":false,"rental_uris":{"android":"levelo://app?vid=131412c0-90cc-45ab-bdac-a4f2b3a3bc1e","ios":"levelo://app?vid=131412c0-90cc-45ab-bdac-a4f2b3a3bc1e"},"vehicle_type_id":"4","last_reported":1686938898,"current_range_meters":24800,"station_id":"ce4bhg92rcd13ifvqf90","pricing_plan_id":"free"},{"bike_id":"df7ecf0b-6a4b-4d84-946a-3260a767d91f","system_id":"levelo_inurba_marseille","lat":43.26681,"lon":5.382694,"is_reserved":false,"is_disabled":false,"rental_uris":{"android":"levelo://app?vid=df7ecf0b-6a4b-4d84-946a-3260a767d91f","ios":"levelo://app?vid=df7ecf0b-6a4b-4d84-946a-3260a767d91f"},"vehicle_type_id":"4","last_reported":1686938898,"current_range_meters":28400,"station_id":"ce4bhg92rcd13ifvqf90","pricing_plan_id":"free"},{"bike_id":"848025f5-6c3c-475d-a370-1c65454ff0d5","system_id":"levelo_inurba_marseille","lat":43.26681,"lon":5.382694,"is_reserved":false,"is_disabled":false,"rental_uris":{"android":"levelo://app?vid=848025f5-6c3c-475d-a370-1c65454ff0d5","ios":"levelo://app?vid=848025f5-6c3c-475d-a370-1c65454ff0d5"},"vehicle_type_id":"4","last_reported":1686938898,"current_range_meters":2000,"station_id":"ce4bhg92rcd13ifvqf90","pricing_plan_id":"free"},{"bike_id":"74b870d7-dd65-49b2-af31-ed98dfb18a73","system_id":"levelo_inurba_marseille","lat":43.26681,"lon":5.382694,"is_reserved":false,"is_disabled":false,"rental_uris":{"android":"levelo://app?vid=74b870d7-dd65-49b2-af31-ed98dfb18a73","ios":"levelo://app?vid=74b870d7-dd65-49b2-af31-ed98dfb18a73"},"vehicle_type_id":"4","last_reported":1686938898,"current_range_meters":10800,"station_id":"ce4bhg92rcd13ifvqf90","pricing_plan_id":"free"},{"bike_id":"6275aaca-a354-407f-be44-df40f2969d44","system_id":"levelo_inurba_marseille","lat":43.26681,"lon":5.382694,"is_reserved":false,"is_disabled":false,"rental_uris":{"android":"levelo://app?vid=6275aaca-a354-407f-be44-df40f2969d44","ios":"levelo://app?vid=6275aaca-a354-407f-be44-df40f2969d44"},"vehicle_type_id":"4","last_reported":1686938898,"current_range_meters":31600,"station_id":"ce4bhg92rcd13ifvqf90","pricing_plan_id":"free"},{"bike_id":"64177553-f8a7-4880-ae52-e89222187220","system_id":"levelo_inurba_marseille","lat":43.27996,"lon":5.416624,"is_reserved":false,"is_disabled":false,"rental_uris":{"android":"levelo://app?vid=64177553-f8a7-4880-ae52-e89222187220","ios":"levelo://app?vid=64177553-f8a7-4880-ae52-e89222187220"},"vehicle_type_id":"4","last_reported":1686938898,"current_range_meters":22000,"station_id":"ce4bho12rcd13ifvqh1g","pricing_plan_id":"free"},{"bike_id":"b6047cff-cb93-47c4-8df8-f30be7e3e5fe","system_id":"levelo_inurba_marseille","lat":43.27994,"lon":5.4166,"is_reserved":false,"is_disabled":false,"rental_uris":{"android":"levelo://app?vid=b6047cff-cb93-47c4-8df8-f30be7e3e5fe","ios":"levelo://app?vid=b6047cff-cb93-47c4-8df8-f30be7e3e5fe"},"vehicle_type_id":"4","last_reported":1686938898,"current_range_meters":4400,"station_id":"ce4bho12rcd13ifvqh1g","pricing_plan_id":"free"},{"bike_id":"5b865ece-d8ce-4580-8914-7bc083e620f0","system_id":"levelo_inurba_marseille","lat":43.267966,"lon":5.393976,"is_reserved":false,"is_disabled":false,"rental_uris":{"android":"levelo://app?vid=5b865ece-d8ce-4580-8914-7bc083e620f0","ios":"levelo://app?vid=5b865ece-d8ce-4580-8914-7bc083e620f0"},"vehicle_type_id":"4","last_reported":1686938898,"current_range_meters":0,"station_id":"ce4bhh12rcd13ifvqfg0","pricing_plan_id":"free"},{"bike_id":"34ca54d2-be3b-47bd-bf10-9972540c08b5","system_id":"levelo_inurba_marseille","lat":43.267966,"lon":5.393976,"is_reserved":false,"is_disabled":false,"rental_uris":{"android":"levelo://app?vid=34ca54d2-be3b-47bd-bf10-9972540c08b5","ios":"levelo://app?vid=34ca54d2-be3b-47bd-bf10-9972540c08b5"},"vehicle_type_id":"4","last_reported":1686938898,"current_range_meters":2800,"station_id":"ce4bhh12rcd13ifvqfg0","pricing_plan_id":"free"},{"bike_id":"3987290e-fd4b-4f2b-81c0-57fca98f9cde","system_id":"levelo_inurba_marseille","lat":43.267966,"lon":5.393976,"is_reserved":false,"is_disabled":false,"rental_uris":{"android":"levelo://app?vid=3987290e-fd4b-4f2b-81c0-57fca98f9cde","ios":"levelo://app?vid=3987290e-fd4b-4f2b-81c0-57fca98f9cde"},"vehicle_type_id":"4","last_reported":1686938898,"current_range_meters":30000,"station_id":"ce4bhh12rcd13ifvqfg0","pricing_plan_id":"free"},{"bike_id":"b95ab27b-66e1-477d-a27d-27d0d6c375b2","system_id":"levelo_inurba_marseille","lat":43.267966,"lon":5.393976,"is_reserved":false,"is_disabled":false,"rental_uris":{"android":"levelo://app?vid=b95ab27b-66e1-477d-a27d-27d0d6c375b2","ios":"levelo://app?vid=b95ab27b-66e1-477d-a27d-27d0d6c375b2"},"vehicle_type_id":"4","last_reported":1686938898,"current_range_meters":28400,"station_id":"ce4bhh12rcd13ifvqfg0","pricing_plan_id":"free"},{"bike_id":"0e1aef63-997b-4eac-aab9-f85d093a1e22","system_id":"levelo_inurba_marseille","lat":43.26565,"lon":5.39007,"is_reserved":false,"is_disabled":false,"rental_uris":{"android":"levelo://app?vid=0e1aef63-997b-4eac-aab9-f85d093a1e22","ios":"levelo://app?vid=0e1aef63-997b-4eac-aab9-f85d093a1e22"},"vehicle_type_id":"4","last_reported":1686938898,"current_range_meters":3600,"station_id":"ce4bhe12rcd13ifvqf30","pricing_plan_id":"free"},{"bike_id":"0dbf6b3d-abff-4a14-8cce-373ae896de28","system_id":"levelo_inurba_marseille","lat":43.26328,"lon":5.37848,"is_reserved":false,"is_disabled":false,"rental_uris":{"android":"levelo://app?vid=0dbf6b3d-abff-4a14-8cce-373ae896de28","ios":"levelo://app?vid=0dbf6b3d-abff-4a14-8cce-373ae896de28"},"vehicle_type_id":"4","last_reported":1686938898,"current_range_meters":2800,"station_id":"","pricing_plan_id":"free"},{"bike_id":"da435ee8-620d-461d-a1c6-31933af99e41","system_id":"levelo_inurba_marseille","lat":43.261959,"lon":5.374399,"is_reserved":false,"is_disabled":false,"rental_uris":{"android":"levelo://app?vid=da435ee8-620d-461d-a1c6-31933af99e41","ios":"levelo://app?vid=da435ee8-620d-461d-a1c6-31933af99e41"},"vehicle_type_id":"4","last_reported":1686938898,"current_range_meters":31200,"station_id":"ce4bhgp2rcd13ifvqfc0","pricing_plan_id":"free"},{"bike_id":"8d73ec14-d485-444e-877c-174d9a1818aa","system_id":"levelo_inurba_marseille","lat":43.26195,"lon":5.37436,"is_reserved":false,"is_disabled":false,"rental_uris":{"android":"levelo://app?vid=8d73ec14-d485-444e-877c-174d9a1818aa","ios":"levelo://app?vid=8d73ec14-d485-444e-877c-174d9a1818aa"},"vehicle_type_id":"4","last_reported":1686938898,"current_range_meters":31200,"station_id":"ce4bhgp2rcd13ifvqfc0","pricing_plan_id":"free"},{"bike_id":"b102bc94-d8cb-459f-a2af-812a1bf11581","system_id":"levelo_inurba_marseille","lat":43.261782,"lon":5.374515,"is_reserved":false,"is_disabled":false,"rental_uris":{"android":"levelo://app?vid=b102bc94-d8cb-459f-a2af-812a1bf11581","ios":"levelo://app?vid=b102bc94-d8cb-459f-a2af-812a1bf11581"},"vehicle_type_id":"4","last_reported":1686938898,"current_range_meters":28000,"station_id":"ce4bhgp2rcd13ifvqfc0","pricing_plan_id":"free"},{"bike_id":"5261a6d9-be5b-435a-a1e3-465f082f3151","system_id":"levelo_inurba_marseille","lat":43.261924,"lon":5.374439,"is_reserved":false,"is_disabled":false,"rental_uris":{"android":"levelo://app?vid=5261a6d9-be5b-435a-a1e3-465f082f3151","ios":"levelo://app?vid=5261a6d9-be5b-435a-a1e3-465f082f3151"},"vehicle_type_id":"4","last_reported":1686938898,"current_range_meters":21200,"station_id":"ce4bhgp2rcd13ifvqfc0","pricing_plan_id":"free"},{"bike_id":"088a0517-8f39-47d1-b625-26421c957b0f","system_id":"levelo_inurba_marseille","lat":43.261782,"lon":5.374515,"is_reserved":false,"is_disabled":false,"rental_uris":{"android":"levelo://app?vid=088a0517-8f39-47d1-b625-26421c957b0f","ios":"levelo://app?vid=088a0517-8f39-47d1-b625-26421c957b0f"},"vehicle_type_id":"4","last_reported":1686938898,"current_range_meters":31600,"station_id":"ce4bhgp2rcd13ifvqfc0","pricing_plan_id":"free"},{"bike_id":"cbf1d7c0-bbf1-434b-ba64-be6c1f00b75b","system_id":"levelo_inurba_marseille","lat":43.26191,"lon":5.37439,"is_reserved":false,"is_disabled":false,"rental_uris":{"android":"levelo://app?vid=cbf1d7c0-bbf1-434b-ba64-be6c1f00b75b","ios":"levelo://app?vid=cbf1d7c0-bbf1-434b-ba64-be6c1f00b75b"},"vehicle_type_id":"4","last_reported":1686938898,"current_range_meters":17600,"station_id":"ce4bhgp2rcd13ifvqfc0","pricing_plan_id":"free"},{"bike_id":"ab2676ce-d711-43c0-97fd-c681e837a8c9","system_id":"levelo_inurba_marseille","lat":43.26191,"lon":5.3744,"is_reserved":false,"is_disabled":false,"rental_uris":{"android":"levelo://app?vid=ab2676ce-d711-43c0-97fd-c681e837a8c9","ios":"levelo://app?vid=ab2676ce-d711-43c0-97fd-c681e837a8c9"},"vehicle_type_id":"4","last_reported":1686938898,"current_range_meters":31200,"station_id":"ce4bhgp2rcd13ifvqfc0","pricing_plan_id":"free"},{"bike_id":"0011c012-5f08-4eff-8733-a240351feb84","system_id":"levelo_inurba_marseille","lat":43.261782,"lon":5.374515,"is_reserved":false,"is_disabled":false,"rental_uris":{"android":"levelo://app?vid=0011c012-5f08-4eff-8733-a240351feb84","ios":"levelo://app?vid=0011c012-5f08-4eff-8733-a240351feb84"},"vehicle_type_id":"4","last_reported":1686938898,"current_range_meters":15200,"station_id":"ce4bhgp2rcd13ifvqfc0","pricing_plan_id":"free"},{"bike_id":"ece0b1b2-6c98-4ad9-9ba8-edd9030d9e0d","system_id":"levelo_inurba_marseille","lat":43.261782,"lon":5.374515,"is_reserved":false,"is_disabled":false,"rental_uris":{"android":"levelo://app?vid=ece0b1b2-6c98-4ad9-9ba8-edd9030d9e0d","ios":"levelo://app?vid=ece0b1b2-6c98-4ad9-9ba8-edd9030d9e0d"},"vehicle_type_id":"4","last_reported":1686938898,"current_range_meters":31200,"station_id":"ce4bhgp2rcd13ifvqfc0","pricing_plan_id":"free"},{"bike_id":"4a955f4b-a30e-4a3c-a05b-1f4d96370364","system_id":"levelo_inurba_marseille","lat":43.261905,"lon":5.374432,"is_reserved":false,"is_disabled":false,"rental_uris":{"android":"levelo://app?vid=4a955f4b-a30e-4a3c-a05b-1f4d96370364","ios":"levelo://app?vid=4a955f4b-a30e-4a3c-a05b-1f4d96370364"},"vehicle_type_id":"4","last_reported":1686938898,"current_range_meters":29600,"station_id":"ce4bhgp2rcd13ifvqfc0","pricing_plan_id":"free"},{"bike_id":"0ea6b517-e8d3-4483-a307-afdba83005c3","system_id":"levelo_inurba_marseille","lat":43.2619,"lon":5.37441,"is_reserved":false,"is_disabled":false,"rental_uris":{"android":"levelo://app?vid=0ea6b517-e8d3-4483-a307-afdba83005c3","ios":"levelo://app?vid=0ea6b517-e8d3-4483-a307-afdba83005c3"},"vehicle_type_id":"4","last_reported":1686938898,"current_range_meters":31600,"station_id":"ce4bhgp2rcd13ifvqfc0","pricing_plan_id":"free"},{"bike_id":"c986f20f-5bf5-48cc-9726-647d8416715d","system_id":"levelo_inurba_marseille","lat":43.261782,"lon":5.374515,"is_reserved":false,"is_disabled":false,"rental_uris":{"android":"levelo://app?vid=c986f20f-5bf5-48cc-9726-647d8416715d","ios":"levelo://app?vid=c986f20f-5bf5-48cc-9726-647d8416715d"},"vehicle_type_id":"4","last_reported":1686938898,"current_range_meters":26800,"station_id":"ce4bhgp2rcd13ifvqfc0","pricing_plan_id":"free"},{"bike_id":"32ae8ee1-44a5-4693-a912-f9e1881222c7","system_id":"levelo_inurba_marseille","lat":43.26189,"lon":5.37437,"is_reserved":false,"is_disabled":false,"rental_uris":{"android":"levelo://app?vid=32ae8ee1-44a5-4693-a912-f9e1881222c7","ios":"levelo://app?vid=32ae8ee1-44a5-4693-a912-f9e1881222c7"},"vehicle_type_id":"4","last_reported":1686938898,"current_range_meters":31200,"station_id":"ce4bhgp2rcd13ifvqfc0","pricing_plan_id":"free"},{"bike_id":"b50564c5-4dcf-4fbd-b0ac-70edc4f15fd8","system_id":"levelo_inurba_marseille","lat":43.261782,"lon":5.374515,"is_reserved":false,"is_disabled":false,"rental_uris":{"android":"levelo://app?vid=b50564c5-4dcf-4fbd-b0ac-70edc4f15fd8","ios":"levelo://app?vid=b50564c5-4dcf-4fbd-b0ac-70edc4f15fd8"},"vehicle_type_id":"4","last_reported":1686938898,"current_range_meters":31200,"station_id":"ce4bhgp2rcd13ifvqfc0","pricing_plan_id":"free"},{"bike_id":"3304313d-ea28-4b06-9d79-4723512e7cc3","system_id":"levelo_inurba_marseille","lat":43.261883,"lon":5.374397,"is_reserved":false,"is_disabled":false,"rental_uris":{"android":"levelo://app?vid=3304313d-ea28-4b06-9d79-4723512e7cc3","ios":"levelo://app?vid=3304313d-ea28-4b06-9d79-4723512e7cc3"},"vehicle_type_id":"4","last_reported":1686938898,"current_range_meters":31200,"station_id":"ce4bhgp2rcd13ifvqfc0","pricing_plan_id":"free"},{"bike_id":"278402f1-8467-4b3d-bb51-c71b2f2af55a","system_id":"levelo_inurba_marseille","lat":43.26188,"lon":5.37438,"is_reserved":false,"is_disabled":false,"rental_uris":{"android":"levelo://app?vid=278402f1-8467-4b3d-bb51-c71b2f2af55a","ios":"levelo://app?vid=278402f1-8467-4b3d-bb51-c71b2f2af55a"},"vehicle_type_id":"4","last_reported":1686938898,"current_range_meters":31200,"station_id":"ce4bhgp2rcd13ifvqfc0","pricing_plan_id":"free"},{"bike_id":"d4dd31c7-0ed8-48db-9484-218012c5c450","system_id":"levelo_inurba_marseille","lat":43.26187,"lon":5.37441,"is_reserved":false,"is_disabled":false,"rental_uris":{"android":"levelo://app?vid=d4dd31c7-0ed8-48db-9484-218012c5c450","ios":"levelo://app?vid=d4dd31c7-0ed8-48db-9484-218012c5c450"},"vehicle_type_id":"4","last_reported":1686938898,"current_range_meters":31200,"station_id":"ce4bhgp2rcd13ifvqfc0","pricing_plan_id":"free"},{"bike_id":"2b57445f-58fd-4b38-a842-6a5af8b134c7","system_id":"levelo_inurba_marseille","lat":43.261863,"lon":5.374396,"is_reserved":false,"is_disabled":false,"rental_uris":{"android":"levelo://app?vid=2b57445f-58fd-4b38-a842-6a5af8b134c7","ios":"levelo://app?vid=2b57445f-58fd-4b38-a842-6a5af8b134c7"},"vehicle_type_id":"4","last_reported":1686938898,"current_range_meters":31600,"station_id":"ce4bhgp2rcd13ifvqfc0","pricing_plan_id":"free"},{"bike_id":"efa31768-8978-4b83-a43c-a2064bef4549","system_id":"levelo_inurba_marseille","lat":43.26187,"lon":5.37454,"is_reserved":false,"is_disabled":false,"rental_uris":{"android":"levelo://app?vid=efa31768-8978-4b83-a43c-a2064bef4549","ios":"levelo://app?vid=efa31768-8978-4b83-a43c-a2064bef4549"},"vehicle_type_id":"4","last_reported":1686938898,"current_range_meters":31200,"station_id":"ce4bhgp2rcd13ifvqfc0","pricing_plan_id":"free"},{"bike_id":"8160c2a8-cadb-4372-b210-8e02342a5471","system_id":"levelo_inurba_marseille","lat":43.261782,"lon":5.374515,"is_reserved":false,"is_disabled":false,"rental_uris":{"android":"levelo://app?vid=8160c2a8-cadb-4372-b210-8e02342a5471","ios":"levelo://app?vid=8160c2a8-cadb-4372-b210-8e02342a5471"},"vehicle_type_id":"4","last_reported":1686938898,"current_range_meters":31200,"station_id":"ce4bhgp2rcd13ifvqfc0","pricing_plan_id":"free"},{"bike_id":"19afb9c8-8014-4b21-8651-e767594ca917","system_id":"levelo_inurba_marseille","lat":43.26186,"lon":5.37452,"is_reserved":false,"is_disabled":false,"rental_uris":{"android":"levelo://app?vid=19afb9c8-8014-4b21-8651-e767594ca917","ios":"levelo://app?vid=19afb9c8-8014-4b21-8651-e767594ca917"},"vehicle_type_id":"4","last_reported":1686938898,"current_range_meters":8000,"station_id":"ce4bhgp2rcd13ifvqfc0","pricing_plan_id":"free"},{"bike_id":"897dee5a-40a5-48e6-b2b9-285c5e8c02ec","system_id":"levelo_inurba_marseille","lat":43.261782,"lon":5.374515,"is_reserved":false,"is_disabled":false,"rental_uris":{"android":"levelo://app?vid=897dee5a-40a5-48e6-b2b9-285c5e8c02ec","ios":"levelo://app?vid=897dee5a-40a5-48e6-b2b9-285c5e8c02ec"},"vehicle_type_id":"4","last_reported":1686938898,"current_range_meters":30800,"station_id":"ce4bhgp2rcd13ifvqfc0","pricing_plan_id":"free"},{"bike_id":"1c8733a1-ad21-4284-a65b-6f6b8dda187d","system_id":"levelo_inurba_marseille","lat":43.26185,"lon":5.37444,"is_reserved":false,"is_disabled":false,"rental_uris":{"android":"levelo://app?vid=1c8733a1-ad21-4284-a65b-6f6b8dda187d","ios":"levelo://app?vid=1c8733a1-ad21-4284-a65b-6f6b8dda187d"},"vehicle_type_id":"4","last_reported":1686938898,"current_range_meters":16400,"station_id":"ce4bhgp2rcd13ifvqfc0","pricing_plan_id":"free"},{"bike_id":"1c838eb4-ea45-4598-8ae0-9717a2f0bb32","system_id":"levelo_inurba_marseille","lat":43.317104,"lon":5.436818,"is_reserved":false,"is_disabled":false,"rental_uris":{"android":"levelo://app?vid=1c838eb4-ea45-4598-8ae0-9717a2f0bb32","ios":"levelo://app?vid=1c838eb4-ea45-4598-8ae0-9717a2f0bb32"},"vehicle_type_id":"4","last_reported":1686938898,"current_range_meters":19600,"station_id":"ce4bhp92rcd13ifvqhcg","pricing_plan_id":"free"},{"bike_id":"bf763a88-aaf6-4ae0-af63-dd8823b0264d","system_id":"levelo_inurba_marseille","lat":43.26183,"lon":5.37441,"is_reserved":false,"is_disabled":false,"rental_uris":{"android":"levelo://app?vid=bf763a88-aaf6-4ae0-af63-dd8823b0264d","ios":"levelo://app?vid=bf763a88-aaf6-4ae0-af63-dd8823b0264d"},"vehicle_type_id":"4","last_reported":1686938898,"current_range_meters":31200,"station_id":"ce4bhgp2rcd13ifvqfc0","pricing_plan_id":"free"},{"bike_id":"3c95ff38-d5db-4a2e-b5a6-5c99719e88e4","system_id":"levelo_inurba_marseille","lat":43.261782,"lon":5.374515,"is_reserved":false,"is_disabled":false,"rental_uris":{"android":"levelo://app?vid=3c95ff38-d5db-4a2e-b5a6-5c99719e88e4","ios":"levelo://app?vid=3c95ff38-d5db-4a2e-b5a6-5c99719e88e4"},"vehicle_type_id":"4","last_reported":1686938898,"current_range_meters":31200,"station_id":"ce4bhgp2rcd13ifvqfc0","pricing_plan_id":"free"},{"bike_id":"5ddb55f6-3e92-4f9a-8e95-4d5880813dc9","system_id":"levelo_inurba_marseille","lat":43.26213,"lon":5.3792,"is_reserved":false,"is_disabled":false,"rental_uris":{"android":"levelo://app?vid=5ddb55f6-3e92-4f9a-8e95-4d5880813dc9","ios":"levelo://app?vid=5ddb55f6-3e92-4f9a-8e95-4d5880813dc9"},"vehicle_type_id":"4","last_reported":1686938898,"current_range_meters":31200,"station_id":"ce4bhjp2rcd13ifvqg90","pricing_plan_id":"free"},{"bike_id":"b15816cc-e74c-4248-afc4-52d13181d055","system_id":"levelo_inurba_marseille","lat":43.26213,"lon":5.37924,"is_reserved":false,"is_disabled":false,"rental_uris":{"android":"levelo://app?vid=b15816cc-e74c-4248-afc4-52d13181d055","ios":"levelo://app?vid=b15816cc-e74c-4248-afc4-52d13181d055"},"vehicle_type_id":"4","last_reported":1686938898,"current_range_meters":1600,"station_id":"ce4bhjp2rcd13ifvqg90","pricing_plan_id":"free"},{"bike_id":"02a89742-31a3-4ee4-a871-dc9c8ec9400b","system_id":"levelo_inurba_marseille","lat":43.2621,"lon":5.37918,"is_reserved":false,"is_disabled":false,"rental_uris":{"android":"levelo://app?vid=02a89742-31a3-4ee4-a871-dc9c8ec9400b","ios":"levelo://app?vid=02a89742-31a3-4ee4-a871-dc9c8ec9400b"},"vehicle_type_id":"4","last_reported":1686938898,"current_range_meters":9600,"station_id":"ce4bhjp2rcd13ifvqg90","pricing_plan_id":"free"},{"bike_id":"a96c582b-35b2-4d08-9a57-27767101d206","system_id":"levelo_inurba_marseille","lat":43.26202,"lon":5.379299,"is_reserved":false,"is_disabled":false,"rental_uris":{"android":"levelo://app?vid=a96c582b-35b2-4d08-9a57-27767101d206","ios":"levelo://app?vid=a96c582b-35b2-4d08-9a57-27767101d206"},"vehicle_type_id":"4","last_reported":1686938898,"current_range_meters":14400,"station_id":"ce4bhjp2rcd13ifvqg90","pricing_plan_id":"free"},{"bike_id":"cd6b46fc-36aa-450c-9866-15273c092f71","system_id":"levelo_inurba_marseille","lat":43.26202,"lon":5.379299,"is_reserved":false,"is_disabled":false,"rental_uris":{"android":"levelo://app?vid=cd6b46fc-36aa-450c-9866-15273c092f71","ios":"levelo://app?vid=cd6b46fc-36aa-450c-9866-15273c092f71"},"vehicle_type_id":"4","last_reported":1686938898,"current_range_meters":31200,"station_id":"ce4bhjp2rcd13ifvqg90","pricing_plan_id":"free"},{"bike_id":"c622a3d2-c0d0-4fed-a4ef-52de91303c57","system_id":"levelo_inurba_marseille","lat":43.26207,"lon":5.37918,"is_reserved":false,"is_disabled":false,"rental_uris":{"android":"levelo://app?vid=c622a3d2-c0d0-4fed-a4ef-52de91303c57","ios":"levelo://app?vid=c622a3d2-c0d0-4fed-a4ef-52de91303c57"},"vehicle_type_id":"4","last_reported":1686938898,"current_range_meters":6800,"station_id":"ce4bhjp2rcd13ifvqg90","pricing_plan_id":"free"},{"bike_id":"cffa8e8a-7fce-4f4b-b079-af059364d074","system_id":"levelo_inurba_marseille","lat":43.26207,"lon":5.37922,"is_reserved":false,"is_disabled":false,"rental_uris":{"android":"levelo://app?vid=cffa8e8a-7fce-4f4b-b079-af059364d074","ios":"levelo://app?vid=cffa8e8a-7fce-4f4b-b079-af059364d074"},"vehicle_type_id":"4","last_reported":1686938898,"current_range_meters":18800,"station_id":"ce4bhjp2rcd13ifvqg90","pricing_plan_id":"free"},{"bike_id":"a017d87b-ebf2-4782-b843-25d585c6a6e2","system_id":"levelo_inurba_marseille","lat":43.26202,"lon":5.379299,"is_reserved":false,"is_disabled":false,"rental_uris":{"android":"levelo://app?vid=a017d87b-ebf2-4782-b843-25d585c6a6e2","ios":"levelo://app?vid=a017d87b-ebf2-4782-b843-25d585c6a6e2"},"vehicle_type_id":"4","last_reported":1686938898,"current_range_meters":19200,"station_id":"ce4bhjp2rcd13ifvqg90","pricing_plan_id":"free"},{"bike_id":"9c45573d-7e2a-4e16-a7ba-cfe7257710aa","system_id":"levelo_inurba_marseille","lat":43.26206,"lon":5.37924,"is_reserved":false,"is_disabled":false,"rental_uris":{"android":"levelo://app?vid=9c45573d-7e2a-4e16-a7ba-cfe7257710aa","ios":"levelo://app?vid=9c45573d-7e2a-4e16-a7ba-cfe7257710aa"},"vehicle_type_id":"4","last_reported":1686938898,"current_range_meters":17200,"station_id":"ce4bhjp2rcd13ifvqg90","pricing_plan_id":"free"},{"bike_id":"bc611118-a5ff-447c-b17d-7f25d1124891","system_id":"levelo_inurba_marseille","lat":43.26202,"lon":5.379299,"is_reserved":false,"is_disabled":false,"rental_uris":{"android":"levelo://app?vid=bc611118-a5ff-447c-b17d-7f25d1124891","ios":"levelo://app?vid=bc611118-a5ff-447c-b17d-7f25d1124891"},"vehicle_type_id":"4","last_reported":1686938898,"current_range_meters":31200,"station_id":"ce4bhjp2rcd13ifvqg90","pricing_plan_id":"free"},{"bike_id":"2ed7b7c2-8a07-4615-90fa-91057de4c68c","system_id":"levelo_inurba_marseille","lat":43.26202,"lon":5.379299,"is_reserved":false,"is_disabled":false,"rental_uris":{"android":"levelo://app?vid=2ed7b7c2-8a07-4615-90fa-91057de4c68c","ios":"levelo://app?vid=2ed7b7c2-8a07-4615-90fa-91057de4c68c"},"vehicle_type_id":"4","last_reported":1686938898,"current_range_meters":31200,"station_id":"ce4bhjp2rcd13ifvqg90","pricing_plan_id":"free"},{"bike_id":"6c9b2446-e41d-4f27-86ef-6b3d46ce64d4","system_id":"levelo_inurba_marseille","lat":43.26205,"lon":5.37926,"is_reserved":false,"is_disabled":false,"rental_uris":{"android":"levelo://app?vid=6c9b2446-e41d-4f27-86ef-6b3d46ce64d4","ios":"levelo://app?vid=6c9b2446-e41d-4f27-86ef-6b3d46ce64d4"},"vehicle_type_id":"4","last_reported":1686938898,"current_range_meters":31200,"station_id":"ce4bhjp2rcd13ifvqg90","pricing_plan_id":"free"},{"bike_id":"022b8a81-e07e-4f94-bdf1-f40e4a6d68a6","system_id":"levelo_inurba_marseille","lat":43.26205,"lon":5.37929,"is_reserved":false,"is_disabled":false,"rental_uris":{"android":"levelo://app?vid=022b8a81-e07e-4f94-bdf1-f40e4a6d68a6","ios":"levelo://app?vid=022b8a81-e07e-4f94-bdf1-f40e4a6d68a6"},"vehicle_type_id":"4","last_reported":1686938898,"current_range_meters":4000,"station_id":"ce4bhjp2rcd13ifvqg90","pricing_plan_id":"free"},{"bike_id":"af87371b-abc9-4142-abfc-17410517b812","system_id":"levelo_inurba_marseille","lat":43.26204,"lon":5.37923,"is_reserved":false,"is_disabled":false,"rental_uris":{"android":"levelo://app?vid=af87371b-abc9-4142-abfc-17410517b812","ios":"levelo://app?vid=af87371b-abc9-4142-abfc-17410517b812"},"vehicle_type_id":"4","last_reported":1686938898,"current_range_meters":30400,"station_id":"ce4bhjp2rcd13ifvqg90","pricing_plan_id":"free"},{"bike_id":"9675edd2-e071-4555-8d25-6570bf35413c","system_id":"levelo_inurba_marseille","lat":43.26204,"lon":5.37923,"is_reserved":false,"is_disabled":false,"rental_uris":{"android":"levelo://app?vid=9675edd2-e071-4555-8d25-6570bf35413c","ios":"levelo://app?vid=9675edd2-e071-4555-8d25-6570bf35413c"},"vehicle_type_id":"4","last_reported":1686938898,"current_range_meters":12400,"station_id":"ce4bhjp2rcd13ifvqg90","pricing_plan_id":"free"},{"bike_id":"b52e203b-a3cd-44f4-97b3-a664966960fe","system_id":"levelo_inurba_marseille","lat":43.26202,"lon":5.379299,"is_reserved":false,"is_disabled":false,"rental_uris":{"android":"levelo://app?vid=b52e203b-a3cd-44f4-97b3-a664966960fe","ios":"levelo://app?vid=b52e203b-a3cd-44f4-97b3-a664966960fe"},"vehicle_type_id":"4","last_reported":1686938898,"current_range_meters":12400,"station_id":"ce4bhjp2rcd13ifvqg90","pricing_plan_id":"free"},{"bike_id":"1c50530b-b2e4-4b41-ae0c-282e246b3ee9","system_id":"levelo_inurba_marseille","lat":43.26203,"lon":5.37925,"is_reserved":false,"is_disabled":false,"rental_uris":{"android":"levelo://app?vid=1c50530b-b2e4-4b41-ae0c-282e246b3ee9","ios":"levelo://app?vid=1c50530b-b2e4-4b41-ae0c-282e246b3ee9"},"vehicle_type_id":"4","last_reported":1686938898,"current_range_meters":26400,"station_id":"ce4bhjp2rcd13ifvqg90","pricing_plan_id":"free"},{"bike_id":"7cb31352-5dd2-4392-86bc-b23964a6b79a","system_id":"levelo_inurba_marseille","lat":43.26202,"lon":5.379299,"is_reserved":false,"is_disabled":false,"rental_uris":{"android":"levelo://app?vid=7cb31352-5dd2-4392-86bc-b23964a6b79a","ios":"levelo://app?vid=7cb31352-5dd2-4392-86bc-b23964a6b79a"},"vehicle_type_id":"4","last_reported":1686938898,"current_range_meters":31200,"station_id":"ce4bhjp2rcd13ifvqg90","pricing_plan_id":"free"},{"bike_id":"daac0333-dbfc-48a5-8160-31833bb5fd7c","system_id":"levelo_inurba_marseille","lat":43.26202,"lon":5.379299,"is_reserved":false,"is_disabled":false,"rental_uris":{"android":"levelo://app?vid=daac0333-dbfc-48a5-8160-31833bb5fd7c","ios":"levelo://app?vid=daac0333-dbfc-48a5-8160-31833bb5fd7c"},"vehicle_type_id":"4","last_reported":1686938898,"current_range_meters":27200,"station_id":"ce4bhjp2rcd13ifvqg90","pricing_plan_id":"free"},{"bike_id":"0dd31d74-bc15-450b-a75c-4e20bc6576f8","system_id":"levelo_inurba_marseille","lat":43.26202,"lon":5.37922,"is_reserved":false,"is_disabled":false,"rental_uris":{"android":"levelo://app?vid=0dd31d74-bc15-450b-a75c-4e20bc6576f8","ios":"levelo://app?vid=0dd31d74-bc15-450b-a75c-4e20bc6576f8"},"vehicle_type_id":"4","last_reported":1686938898,"current_range_meters":23200,"station_id":"ce4bhjp2rcd13ifvqg90","pricing_plan_id":"free"},{"bike_id":"0e60e233-b07f-48cd-a83e-99e3950ea7ae","system_id":"levelo_inurba_marseille","lat":43.26202,"lon":5.379299,"is_reserved":false,"is_disabled":false,"rental_uris":{"android":"levelo://app?vid=0e60e233-b07f-48cd-a83e-99e3950ea7ae","ios":"levelo://app?vid=0e60e233-b07f-48cd-a83e-99e3950ea7ae"},"vehicle_type_id":"4","last_reported":1686938898,"current_range_meters":21600,"station_id":"ce4bhjp2rcd13ifvqg90","pricing_plan_id":"free"},{"bike_id":"1314fd1f-e069-4617-a027-826e7dc8f158","system_id":"levelo_inurba_marseille","lat":43.26202,"lon":5.379299,"is_reserved":false,"is_disabled":false,"rental_uris":{"android":"levelo://app?vid=1314fd1f-e069-4617-a027-826e7dc8f158","ios":"levelo://app?vid=1314fd1f-e069-4617-a027-826e7dc8f158"},"vehicle_type_id":"4","last_reported":1686938898,"current_range_meters":17200,"station_id":"ce4bhjp2rcd13ifvqg90","pricing_plan_id":"free"},{"bike_id":"02704997-86cc-46e2-8fe6-b9c9aa5373ce","system_id":"levelo_inurba_marseille","lat":43.26202,"lon":5.37926,"is_reserved":false,"is_disabled":false,"rental_uris":{"android":"levelo://app?vid=02704997-86cc-46e2-8fe6-b9c9aa5373ce","ios":"levelo://app?vid=02704997-86cc-46e2-8fe6-b9c9aa5373ce"},"vehicle_type_id":"4","last_reported":1686938898,"current_range_meters":16400,"station_id":"ce4bhjp2rcd13ifvqg90","pricing_plan_id":"free"},{"bike_id":"135bfdc9-da53-4544-b54c-560caf8e77d1","system_id":"levelo_inurba_marseille","lat":43.26201,"lon":5.37924,"is_reserved":false,"is_disabled":false,"rental_uris":{"android":"levelo://app?vid=135bfdc9-da53-4544-b54c-560caf8e77d1","ios":"levelo://app?vid=135bfdc9-da53-4544-b54c-560caf8e77d1"},"vehicle_type_id":"4","last_reported":1686938898,"current_range_meters":18800,"station_id":"ce4bhjp2rcd13ifvqg90","pricing_plan_id":"free"},{"bike_id":"b4438a96-040d-4da3-8190-6e8427d21e32","system_id":"levelo_inurba_marseille","lat":43.26202,"lon":5.37932,"is_reserved":false,"is_disabled":false,"rental_uris":{"android":"levelo://app?vid=b4438a96-040d-4da3-8190-6e8427d21e32","ios":"levelo://app?vid=b4438a96-040d-4da3-8190-6e8427d21e32"},"vehicle_type_id":"4","last_reported":1686938898,"current_range_meters":9600,"station_id":"ce4bhjp2rcd13ifvqg90","pricing_plan_id":"free"},{"bike_id":"40a30b95-5688-45be-ac3d-11a6e4cadaac","system_id":"levelo_inurba_marseille","lat":43.262,"lon":5.37923,"is_reserved":false,"is_disabled":false,"rental_uris":{"android":"levelo://app?vid=40a30b95-5688-45be-ac3d-11a6e4cadaac","ios":"levelo://app?vid=40a30b95-5688-45be-ac3d-11a6e4cadaac"},"vehicle_type_id":"4","last_reported":1686938898,"current_range_meters":31200,"station_id":"ce4bhjp2rcd13ifvqg90","pricing_plan_id":"free"},{"bike_id":"c1852bfd-6840-44ca-b507-a10564223d89","system_id":"levelo_inurba_marseille","lat":43.262,"lon":5.37924,"is_reserved":false,"is_disabled":false,"rental_uris":{"android":"levelo://app?vid=c1852bfd-6840-44ca-b507-a10564223d89","ios":"levelo://app?vid=c1852bfd-6840-44ca-b507-a10564223d89"},"vehicle_type_id":"4","last_reported":1686938898,"current_range_meters":31200,"station_id":"ce4bhjp2rcd13ifvqg90","pricing_plan_id":"free"},{"bike_id":"e46ab0ec-88c0-43db-8bd4-4a4e071aa25d","system_id":"levelo_inurba_marseille","lat":43.262,"lon":5.37926,"is_reserved":false,"is_disabled":false,"rental_uris":{"android":"levelo://app?vid=e46ab0ec-88c0-43db-8bd4-4a4e071aa25d","ios":"levelo://app?vid=e46ab0ec-88c0-43db-8bd4-4a4e071aa25d"},"vehicle_type_id":"4","last_reported":1686938898,"current_range_meters":17200,"station_id":"ce4bhjp2rcd13ifvqg90","pricing_plan_id":"free"},{"bike_id":"d968640c-41ff-48e7-b790-82f7b592cd6f","system_id":"levelo_inurba_marseille","lat":43.26202,"lon":5.379299,"is_reserved":false,"is_disabled":false,"rental_uris":{"android":"levelo://app?vid=d968640c-41ff-48e7-b790-82f7b592cd6f","ios":"levelo://app?vid=d968640c-41ff-48e7-b790-82f7b592cd6f"},"vehicle_type_id":"4","last_reported":1686938898,"current_range_meters":15200,"station_id":"ce4bhjp2rcd13ifvqg90","pricing_plan_id":"free"},{"bike_id":"52aff03d-fd8d-409e-a466-e02f52a3179d","system_id":"levelo_inurba_marseille","lat":43.26202,"lon":5.379299,"is_reserved":false,"is_disabled":false,"rental_uris":{"android":"levelo://app?vid=52aff03d-fd8d-409e-a466-e02f52a3179d","ios":"levelo://app?vid=52aff03d-fd8d-409e-a466-e02f52a3179d"},"vehicle_type_id":"4","last_reported":1686938898,"current_range_meters":29600,"station_id":"ce4bhjp2rcd13ifvqg90","pricing_plan_id":"free"},{"bike_id":"d11b2b8a-fc3f-4a6e-a031-fca57f2a6dbe","system_id":"levelo_inurba_marseille","lat":43.26202,"lon":5.379299,"is_reserved":false,"is_disabled":false,"rental_uris":{"android":"levelo://app?vid=d11b2b8a-fc3f-4a6e-a031-fca57f2a6dbe","ios":"levelo://app?vid=d11b2b8a-fc3f-4a6e-a031-fca57f2a6dbe"},"vehicle_type_id":"4","last_reported":1686938898,"current_range_meters":26400,"station_id":"ce4bhjp2rcd13ifvqg90","pricing_plan_id":"free"},{"bike_id":"22bd9b3c-c84a-4ecb-9d3f-88b997ed2715","system_id":"levelo_inurba_marseille","lat":43.262,"lon":5.37932,"is_reserved":false,"is_disabled":false,"rental_uris":{"android":"levelo://app?vid=22bd9b3c-c84a-4ecb-9d3f-88b997ed2715","ios":"levelo://app?vid=22bd9b3c-c84a-4ecb-9d3f-88b997ed2715"},"vehicle_type_id":"4","last_reported":1686938898,"current_range_meters":22400,"station_id":"ce4bhjp2rcd13ifvqg90","pricing_plan_id":"free"},{"bike_id":"a43604cf-6338-465e-b30a-55c742f1264b","system_id":"levelo_inurba_marseille","lat":43.26202,"lon":5.379299,"is_reserved":false,"is_disabled":false,"rental_uris":{"android":"levelo://app?vid=a43604cf-6338-465e-b30a-55c742f1264b","ios":"levelo://app?vid=a43604cf-6338-465e-b30a-55c742f1264b"},"vehicle_type_id":"4","last_reported":1686938898,"current_range_meters":22400,"station_id":"ce4bhjp2rcd13ifvqg90","pricing_plan_id":"free"},{"bike_id":"e49348f7-246e-4940-b3cf-2e0103a058dd","system_id":"levelo_inurba_marseille","lat":43.26198,"lon":5.37927,"is_reserved":false,"is_disabled":false,"rental_uris":{"android":"levelo://app?vid=e49348f7-246e-4940-b3cf-2e0103a058dd","ios":"levelo://app?vid=e49348f7-246e-4940-b3cf-2e0103a058dd"},"vehicle_type_id":"4","last_reported":1686938898,"current_range_meters":27200,"station_id":"ce4bhjp2rcd13ifvqg90","pricing_plan_id":"free"},{"bike_id":"b9765a6f-f3d2-4480-a13b-28e90420ca3e","system_id":"levelo_inurba_marseille","lat":43.26197,"lon":5.37923,"is_reserved":false,"is_disabled":false,"rental_uris":{"android":"levelo://app?vid=b9765a6f-f3d2-4480-a13b-28e90420ca3e","ios":"levelo://app?vid=b9765a6f-f3d2-4480-a13b-28e90420ca3e"},"vehicle_type_id":"4","last_reported":1686938898,"current_range_meters":31200,"station_id":"ce4bhjp2rcd13ifvqg90","pricing_plan_id":"free"},{"bike_id":"6345dde2-8be5-4b14-b554-75b467131e9d","system_id":"levelo_inurba_marseille","lat":43.26202,"lon":5.379299,"is_reserved":false,"is_disabled":false,"rental_uris":{"android":"levelo://app?vid=6345dde2-8be5-4b14-b554-75b467131e9d","ios":"levelo://app?vid=6345dde2-8be5-4b14-b554-75b467131e9d"},"vehicle_type_id":"4","last_reported":1686938898,"current_range_meters":22800,"station_id":"ce4bhjp2rcd13ifvqg90","pricing_plan_id":"free"},{"bike_id":"fea41673-a085-442a-92a0-90fd61618e6f","system_id":"levelo_inurba_marseille","lat":43.26197,"lon":5.37926,"is_reserved":false,"is_disabled":false,"rental_uris":{"android":"levelo://app?vid=fea41673-a085-442a-92a0-90fd61618e6f","ios":"levelo://app?vid=fea41673-a085-442a-92a0-90fd61618e6f"},"vehicle_type_id":"4","last_reported":1686938898,"current_range_meters":31200,"station_id":"ce4bhjp2rcd13ifvqg90","pricing_plan_id":"free"},{"bike_id":"fcc791b7-d7d6-431e-9e36-c8438d7a6101","system_id":"levelo_inurba_marseille","lat":43.262012,"lon":5.379307,"is_reserved":false,"is_disabled":false,"rental_uris":{"android":"levelo://app?vid=fcc791b7-d7d6-431e-9e36-c8438d7a6101","ios":"levelo://app?vid=fcc791b7-d7d6-431e-9e36-c8438d7a6101"},"vehicle_type_id":"4","last_reported":1686938898,"current_range_meters":27600,"station_id":"ce4bhjp2rcd13ifvqg90","pricing_plan_id":"free"},{"bike_id":"5ac085d7-8649-4990-8085-b600b60eb0d3","system_id":"levelo_inurba_marseille","lat":43.26197,"lon":5.37929,"is_reserved":false,"is_disabled":false,"rental_uris":{"android":"levelo://app?vid=5ac085d7-8649-4990-8085-b600b60eb0d3","ios":"levelo://app?vid=5ac085d7-8649-4990-8085-b600b60eb0d3"},"vehicle_type_id":"4","last_reported":1686938898,"current_range_meters":20400,"station_id":"ce4bhjp2rcd13ifvqg90","pricing_plan_id":"free"},{"bike_id":"68339086-9a1e-40e3-b666-8b288940409f","system_id":"levelo_inurba_marseille","lat":43.26196,"lon":5.37927,"is_reserved":false,"is_disabled":false,"rental_uris":{"android":"levelo://app?vid=68339086-9a1e-40e3-b666-8b288940409f","ios":"levelo://app?vid=68339086-9a1e-40e3-b666-8b288940409f"},"vehicle_type_id":"4","last_reported":1686938898,"current_range_meters":19200,"station_id":"ce4bhjp2rcd13ifvqg90","pricing_plan_id":"free"},{"bike_id":"3a142ae7-ef8c-48a8-8d04-e0bb2909522b","system_id":"levelo_inurba_marseille","lat":43.26196,"lon":5.3793,"is_reserved":false,"is_disabled":false,"rental_uris":{"android":"levelo://app?vid=3a142ae7-ef8c-48a8-8d04-e0bb2909522b","ios":"levelo://app?vid=3a142ae7-ef8c-48a8-8d04-e0bb2909522b"},"vehicle_type_id":"4","last_reported":1686938898,"current_range_meters":30400,"station_id":"ce4bhjp2rcd13ifvqg90","pricing_plan_id":"free"},{"bike_id":"2a1b23f2-dabb-4511-ba16-c075d2484d5d","system_id":"levelo_inurba_marseille","lat":43.26202,"lon":5.379299,"is_reserved":false,"is_disabled":false,"rental_uris":{"android":"levelo://app?vid=2a1b23f2-dabb-4511-ba16-c075d2484d5d","ios":"levelo://app?vid=2a1b23f2-dabb-4511-ba16-c075d2484d5d"},"vehicle_type_id":"4","last_reported":1686938898,"current_range_meters":31200,"station_id":"ce4bhjp2rcd13ifvqg90","pricing_plan_id":"free"},{"bike_id":"e7c7d2ee-29f7-469c-bcea-af1164a0c4f4","system_id":"levelo_inurba_marseille","lat":43.262012,"lon":5.379307,"is_reserved":false,"is_disabled":false,"rental_uris":{"android":"levelo://app?vid=e7c7d2ee-29f7-469c-bcea-af1164a0c4f4","ios":"levelo://app?vid=e7c7d2ee-29f7-469c-bcea-af1164a0c4f4"},"vehicle_type_id":"4","last_reported":1686938898,"current_range_meters":30000,"station_id":"ce4bhjp2rcd13ifvqg90","pricing_plan_id":"free"},{"bike_id":"e572aed1-71e6-49ea-a174-5691c7cd1da6","system_id":"levelo_inurba_marseille","lat":43.26202,"lon":5.379299,"is_reserved":false,"is_disabled":false,"rental_uris":{"android":"levelo://app?vid=e572aed1-71e6-49ea-a174-5691c7cd1da6","ios":"levelo://app?vid=e572aed1-71e6-49ea-a174-5691c7cd1da6"},"vehicle_type_id":"4","last_reported":1686938898,"current_range_meters":31200,"station_id":"ce4bhjp2rcd13ifvqg90","pricing_plan_id":"free"},{"bike_id":"6867bdb6-91aa-49c3-b63c-816c0b897b04","system_id":"levelo_inurba_marseille","lat":43.26192,"lon":5.37932,"is_reserved":false,"is_disabled":false,"rental_uris":{"android":"levelo://app?vid=6867bdb6-91aa-49c3-b63c-816c0b897b04","ios":"levelo://app?vid=6867bdb6-91aa-49c3-b63c-816c0b897b04"},"vehicle_type_id":"4","last_reported":1686938898,"current_range_meters":31200,"station_id":"ce4bhjp2rcd13ifvqg90","pricing_plan_id":"free"},{"bike_id":"fc6f6dd1-5daa-490a-b3ad-4f064d9c1cfe","system_id":"levelo_inurba_marseille","lat":43.260225,"lon":5.375455,"is_reserved":false,"is_disabled":false,"rental_uris":{"android":"levelo://app?vid=fc6f6dd1-5daa-490a-b3ad-4f064d9c1cfe","ios":"levelo://app?vid=fc6f6dd1-5daa-490a-b3ad-4f064d9c1cfe"},"vehicle_type_id":"4","last_reported":1686938898,"current_range_meters":29200,"station_id":"ce4bhgh2rcd13ifvqfa0","pricing_plan_id":"free"},{"bike_id":"61c90903-f473-40c2-9527-2f7fc5497beb","system_id":"levelo_inurba_marseille","lat":43.260225,"lon":5.375455,"is_reserved":false,"is_disabled":false,"rental_uris":{"android":"levelo://app?vid=61c90903-f473-40c2-9527-2f7fc5497beb","ios":"levelo://app?vid=61c90903-f473-40c2-9527-2f7fc5497beb"},"vehicle_type_id":"4","last_reported":1686938898,"current_range_meters":0,"station_id":"ce4bhgh2rcd13ifvqfa0","pricing_plan_id":"free"},{"bike_id":"5e548f9c-38cb-44b7-a781-7c0ec4c97953","system_id":"levelo_inurba_marseille","lat":43.260225,"lon":5.375455,"is_reserved":false,"is_disabled":false,"rental_uris":{"android":"levelo://app?vid=5e548f9c-38cb-44b7-a781-7c0ec4c97953","ios":"levelo://app?vid=5e548f9c-38cb-44b7-a781-7c0ec4c97953"},"vehicle_type_id":"4","last_reported":1686938898,"current_range_meters":16800,"station_id":"ce4bhgh2rcd13ifvqfa0","pricing_plan_id":"free"},{"bike_id":"e4e2c325-b561-447a-92f3-83b31c3cd861","system_id":"levelo_inurba_marseille","lat":43.260225,"lon":5.375455,"is_reserved":false,"is_disabled":false,"rental_uris":{"android":"levelo://app?vid=e4e2c325-b561-447a-92f3-83b31c3cd861","ios":"levelo://app?vid=e4e2c325-b561-447a-92f3-83b31c3cd861"},"vehicle_type_id":"4","last_reported":1686938898,"current_range_meters":8000,"station_id":"ce4bhgh2rcd13ifvqfa0","pricing_plan_id":"free"},{"bike_id":"385ace37-2f3b-4276-bbcc-7987ed2b1edd","system_id":"levelo_inurba_marseille","lat":43.260225,"lon":5.375455,"is_reserved":false,"is_disabled":false,"rental_uris":{"android":"levelo://app?vid=385ace37-2f3b-4276-bbcc-7987ed2b1edd","ios":"levelo://app?vid=385ace37-2f3b-4276-bbcc-7987ed2b1edd"},"vehicle_type_id":"4","last_reported":1686938898,"current_range_meters":0,"station_id":"ce4bhgh2rcd13ifvqfa0","pricing_plan_id":"free"},{"bike_id":"48fd9ed1-66eb-4144-bf27-60a2848eeffd","system_id":"levelo_inurba_marseille","lat":43.26029,"lon":5.37548,"is_reserved":false,"is_disabled":false,"rental_uris":{"android":"levelo://app?vid=48fd9ed1-66eb-4144-bf27-60a2848eeffd","ios":"levelo://app?vid=48fd9ed1-66eb-4144-bf27-60a2848eeffd"},"vehicle_type_id":"4","last_reported":1686938898,"current_range_meters":27600,"station_id":"ce4bhgh2rcd13ifvqfa0","pricing_plan_id":"free"},{"bike_id":"ebb308d9-2dfe-4604-a00b-a7b23fe1cfad","system_id":"levelo_inurba_marseille","lat":43.260225,"lon":5.375455,"is_reserved":false,"is_disabled":false,"rental_uris":{"android":"levelo://app?vid=ebb308d9-2dfe-4604-a00b-a7b23fe1cfad","ios":"levelo://app?vid=ebb308d9-2dfe-4604-a00b-a7b23fe1cfad"},"vehicle_type_id":"4","last_reported":1686938898,"current_range_meters":26000,"station_id":"ce4bhgh2rcd13ifvqfa0","pricing_plan_id":"free"},{"bike_id":"34812181-475b-431f-9c2f-ba182cc9f568","system_id":"levelo_inurba_marseille","lat":43.260219,"lon":5.37546,"is_reserved":false,"is_disabled":false,"rental_uris":{"android":"levelo://app?vid=34812181-475b-431f-9c2f-ba182cc9f568","ios":"levelo://app?vid=34812181-475b-431f-9c2f-ba182cc9f568"},"vehicle_type_id":"4","last_reported":1686938898,"current_range_meters":14000,"station_id":"ce4bhgh2rcd13ifvqfa0","pricing_plan_id":"free"},{"bike_id":"4df57491-8958-4e80-8bd4-9018284dee07","system_id":"levelo_inurba_marseille","lat":43.26028,"lon":5.37548,"is_reserved":false,"is_disabled":false,"rental_uris":{"android":"levelo://app?vid=4df57491-8958-4e80-8bd4-9018284dee07","ios":"levelo://app?vid=4df57491-8958-4e80-8bd4-9018284dee07"},"vehicle_type_id":"4","last_reported":1686938898,"current_range_meters":28800,"station_id":"ce4bhgh2rcd13ifvqfa0","pricing_plan_id":"free"},{"bike_id":"189b2466-8c1b-4c67-b840-24c1115e693d","system_id":"levelo_inurba_marseille","lat":43.260225,"lon":5.375455,"is_reserved":false,"is_disabled":false,"rental_uris":{"android":"levelo://app?vid=189b2466-8c1b-4c67-b840-24c1115e693d","ios":"levelo://app?vid=189b2466-8c1b-4c67-b840-24c1115e693d"},"vehicle_type_id":"4","last_reported":1686938898,"current_range_meters":2800,"station_id":"ce4bhgh2rcd13ifvqfa0","pricing_plan_id":"free"},{"bike_id":"d7770252-b51b-43aa-b334-07af4b388e5c","system_id":"levelo_inurba_marseille","lat":43.260219,"lon":5.37546,"is_reserved":false,"is_disabled":false,"rental_uris":{"android":"levelo://app?vid=d7770252-b51b-43aa-b334-07af4b388e5c","ios":"levelo://app?vid=d7770252-b51b-43aa-b334-07af4b388e5c"},"vehicle_type_id":"4","last_reported":1686938898,"current_range_meters":2400,"station_id":"ce4bhgh2rcd13ifvqfa0","pricing_plan_id":"free"},{"bike_id":"a54eab0a-876b-453c-bbe5-7b8fc8c8fa20","system_id":"levelo_inurba_marseille","lat":43.26027,"lon":5.37552,"is_reserved":false,"is_disabled":false,"rental_uris":{"android":"levelo://app?vid=a54eab0a-876b-453c-bbe5-7b8fc8c8fa20","ios":"levelo://app?vid=a54eab0a-876b-453c-bbe5-7b8fc8c8fa20"},"vehicle_type_id":"4","last_reported":1686938898,"current_range_meters":23600,"station_id":"ce4bhgh2rcd13ifvqfa0","pricing_plan_id":"free"},{"bike_id":"9e3b2dad-ac72-43cd-a489-e15481569191","system_id":"levelo_inurba_marseille","lat":43.260219,"lon":5.37546,"is_reserved":false,"is_disabled":false,"rental_uris":{"android":"levelo://app?vid=9e3b2dad-ac72-43cd-a489-e15481569191","ios":"levelo://app?vid=9e3b2dad-ac72-43cd-a489-e15481569191"},"vehicle_type_id":"4","last_reported":1686938898,"current_range_meters":31200,"station_id":"ce4bhgh2rcd13ifvqfa0","pricing_plan_id":"free"},{"bike_id":"a1d2bb86-1603-4271-8da0-0d18461887c5","system_id":"levelo_inurba_marseille","lat":43.260225,"lon":5.375455,"is_reserved":false,"is_disabled":false,"rental_uris":{"android":"levelo://app?vid=a1d2bb86-1603-4271-8da0-0d18461887c5","ios":"levelo://app?vid=a1d2bb86-1603-4271-8da0-0d18461887c5"},"vehicle_type_id":"4","last_reported":1686938898,"current_range_meters":5600,"station_id":"ce4bhgh2rcd13ifvqfa0","pricing_plan_id":"free"},{"bike_id":"1d92b9e9-0023-49ed-9a01-aea145b75a8f","system_id":"levelo_inurba_marseille","lat":43.26026,"lon":5.37551,"is_reserved":false,"is_disabled":false,"rental_uris":{"android":"levelo://app?vid=1d92b9e9-0023-49ed-9a01-aea145b75a8f","ios":"levelo://app?vid=1d92b9e9-0023-49ed-9a01-aea145b75a8f"},"vehicle_type_id":"4","last_reported":1686938898,"current_range_meters":7600,"station_id":"ce4bhgh2rcd13ifvqfa0","pricing_plan_id":"free"},{"bike_id":"1dd85006-d1ab-4212-92a6-b74e4a195bbe","system_id":"levelo_inurba_marseille","lat":43.260225,"lon":5.375455,"is_reserved":false,"is_disabled":false,"rental_uris":{"android":"levelo://app?vid=1dd85006-d1ab-4212-92a6-b74e4a195bbe","ios":"levelo://app?vid=1dd85006-d1ab-4212-92a6-b74e4a195bbe"},"vehicle_type_id":"4","last_reported":1686938898,"current_range_meters":21600,"station_id":"ce4bhgh2rcd13ifvqfa0","pricing_plan_id":"free"},{"bike_id":"b336399c-5e3a-4505-9cbf-13db8665887d","system_id":"levelo_inurba_marseille","lat":43.260219,"lon":5.37546,"is_reserved":false,"is_disabled":false,"rental_uris":{"android":"levelo://app?vid=b336399c-5e3a-4505-9cbf-13db8665887d","ios":"levelo://app?vid=b336399c-5e3a-4505-9cbf-13db8665887d"},"vehicle_type_id":"4","last_reported":1686938898,"current_range_meters":10800,"station_id":"ce4bhgh2rcd13ifvqfa0","pricing_plan_id":"free"},{"bike_id":"7e4e4f89-fab9-4e8a-9112-52798112a820","system_id":"levelo_inurba_marseille","lat":43.26023,"lon":5.37553,"is_reserved":false,"is_disabled":false,"rental_uris":{"android":"levelo://app?vid=7e4e4f89-fab9-4e8a-9112-52798112a820","ios":"levelo://app?vid=7e4e4f89-fab9-4e8a-9112-52798112a820"},"vehicle_type_id":"4","last_reported":1686938898,"current_range_meters":31200,"station_id":"ce4bhgh2rcd13ifvqfa0","pricing_plan_id":"free"},{"bike_id":"86a91cfb-6e45-470b-9852-a55060b27fa0","system_id":"levelo_inurba_marseille","lat":43.26021,"lon":5.37549,"is_reserved":false,"is_disabled":false,"rental_uris":{"android":"levelo://app?vid=86a91cfb-6e45-470b-9852-a55060b27fa0","ios":"levelo://app?vid=86a91cfb-6e45-470b-9852-a55060b27fa0"},"vehicle_type_id":"4","last_reported":1686938898,"current_range_meters":400,"station_id":"ce4bhgh2rcd13ifvqfa0","pricing_plan_id":"free"},{"bike_id":"0f76b100-c1f9-40de-9027-82d8a34d77da","system_id":"levelo_inurba_marseille","lat":43.260219,"lon":5.37546,"is_reserved":false,"is_disabled":false,"rental_uris":{"android":"levelo://app?vid=0f76b100-c1f9-40de-9027-82d8a34d77da","ios":"levelo://app?vid=0f76b100-c1f9-40de-9027-82d8a34d77da"},"vehicle_type_id":"4","last_reported":1686938898,"current_range_meters":22800,"station_id":"ce4bhgh2rcd13ifvqfa0","pricing_plan_id":"free"},{"bike_id":"6f86d618-2929-4a05-8847-3b16c14efad8","system_id":"levelo_inurba_marseille","lat":43.275028,"lon":5.424534,"is_reserved":false,"is_disabled":false,"rental_uris":{"android":"levelo://app?vid=6f86d618-2929-4a05-8847-3b16c14efad8","ios":"levelo://app?vid=6f86d618-2929-4a05-8847-3b16c14efad8"},"vehicle_type_id":"4","last_reported":1686938898,"current_range_meters":16000,"station_id":"ce4bhn92rcd13ifvqgrg","pricing_plan_id":"free"},{"bike_id":"2f2241c9-f27f-4035-930c-a3ccd4416647","system_id":"levelo_inurba_marseille","lat":43.255756,"lon":5.382303,"is_reserved":false,"is_disabled":false,"rental_uris":{"android":"levelo://app?vid=2f2241c9-f27f-4035-930c-a3ccd4416647","ios":"levelo://app?vid=2f2241c9-f27f-4035-930c-a3ccd4416647"},"vehicle_type_id":"4","last_reported":1686938898,"current_range_meters":27600,"station_id":"ce4bhih2rcd13ifvqfs0","pricing_plan_id":"free"},{"bike_id":"70e875ec-decd-4b9b-99d9-6bc27f58a053","system_id":"levelo_inurba_marseille","lat":43.255756,"lon":5.382303,"is_reserved":false,"is_disabled":false,"rental_uris":{"android":"levelo://app?vid=70e875ec-decd-4b9b-99d9-6bc27f58a053","ios":"levelo://app?vid=70e875ec-decd-4b9b-99d9-6bc27f58a053"},"vehicle_type_id":"4","last_reported":1686938898,"current_range_meters":27200,"station_id":"ce4bhih2rcd13ifvqfs0","pricing_plan_id":"free"},{"bike_id":"23f369bd-e515-4b78-acd1-21be7fff7af8","system_id":"levelo_inurba_marseille","lat":43.255756,"lon":5.382303,"is_reserved":false,"is_disabled":false,"rental_uris":{"android":"levelo://app?vid=23f369bd-e515-4b78-acd1-21be7fff7af8","ios":"levelo://app?vid=23f369bd-e515-4b78-acd1-21be7fff7af8"},"vehicle_type_id":"4","last_reported":1686938898,"current_range_meters":27600,"station_id":"ce4bhih2rcd13ifvqfs0","pricing_plan_id":"free"},{"bike_id":"65f9c38c-38e8-4503-8826-72b6b37ee70b","system_id":"levelo_inurba_marseille","lat":43.255756,"lon":5.382303,"is_reserved":false,"is_disabled":false,"rental_uris":{"android":"levelo://app?vid=65f9c38c-38e8-4503-8826-72b6b37ee70b","ios":"levelo://app?vid=65f9c38c-38e8-4503-8826-72b6b37ee70b"},"vehicle_type_id":"4","last_reported":1686938898,"current_range_meters":11600,"station_id":"ce4bhih2rcd13ifvqfs0","pricing_plan_id":"free"},{"bike_id":"8f5e4c16-0bf5-460e-8f08-688259810ac3","system_id":"levelo_inurba_marseille","lat":43.255756,"lon":5.382303,"is_reserved":false,"is_disabled":false,"rental_uris":{"android":"levelo://app?vid=8f5e4c16-0bf5-460e-8f08-688259810ac3","ios":"levelo://app?vid=8f5e4c16-0bf5-460e-8f08-688259810ac3"},"vehicle_type_id":"4","last_reported":1686938898,"current_range_meters":23600,"station_id":"ce4bhih2rcd13ifvqfs0","pricing_plan_id":"free"},{"bike_id":"6b429598-12f9-4054-b16b-c7f7be488ba7","system_id":"levelo_inurba_marseille","lat":43.255756,"lon":5.382303,"is_reserved":false,"is_disabled":false,"rental_uris":{"android":"levelo://app?vid=6b429598-12f9-4054-b16b-c7f7be488ba7","ios":"levelo://app?vid=6b429598-12f9-4054-b16b-c7f7be488ba7"},"vehicle_type_id":"4","last_reported":1686938898,"current_range_meters":26000,"station_id":"ce4bhih2rcd13ifvqfs0","pricing_plan_id":"free"},{"bike_id":"b1fc6454-acb9-449b-b65b-56ae6a31f12b","system_id":"levelo_inurba_marseille","lat":43.25578,"lon":5.38236,"is_reserved":false,"is_disabled":false,"rental_uris":{"android":"levelo://app?vid=b1fc6454-acb9-449b-b65b-56ae6a31f12b","ios":"levelo://app?vid=b1fc6454-acb9-449b-b65b-56ae6a31f12b"},"vehicle_type_id":"4","last_reported":1686938898,"current_range_meters":18000,"station_id":"ce4bhih2rcd13ifvqfs0","pricing_plan_id":"free"},{"bike_id":"17cf7591-3bc5-47fd-920b-966908fbce89","system_id":"levelo_inurba_marseille","lat":43.255756,"lon":5.382303,"is_reserved":false,"is_disabled":false,"rental_uris":{"android":"levelo://app?vid=17cf7591-3bc5-47fd-920b-966908fbce89","ios":"levelo://app?vid=17cf7591-3bc5-47fd-920b-966908fbce89"},"vehicle_type_id":"4","last_reported":1686938898,"current_range_meters":22800,"station_id":"ce4bhih2rcd13ifvqfs0","pricing_plan_id":"free"},{"bike_id":"5b747b69-9617-413b-98d6-6e93b11efe2f","system_id":"levelo_inurba_marseille","lat":43.255756,"lon":5.382303,"is_reserved":false,"is_disabled":false,"rental_uris":{"android":"levelo://app?vid=5b747b69-9617-413b-98d6-6e93b11efe2f","ios":"levelo://app?vid=5b747b69-9617-413b-98d6-6e93b11efe2f"},"vehicle_type_id":"4","last_reported":1686938898,"current_range_meters":19200,"station_id":"ce4bhih2rcd13ifvqfs0","pricing_plan_id":"free"},{"bike_id":"b5406617-6a2d-468e-a648-0f89ce8828af","system_id":"levelo_inurba_marseille","lat":43.255756,"lon":5.382303,"is_reserved":false,"is_disabled":false,"rental_uris":{"android":"levelo://app?vid=b5406617-6a2d-468e-a648-0f89ce8828af","ios":"levelo://app?vid=b5406617-6a2d-468e-a648-0f89ce8828af"},"vehicle_type_id":"4","last_reported":1686938898,"current_range_meters":30400,"station_id":"ce4bhih2rcd13ifvqfs0","pricing_plan_id":"free"},{"bike_id":"e4db9544-a629-432c-a7fc-2f2907b6a959","system_id":"levelo_inurba_marseille","lat":43.255756,"lon":5.382303,"is_reserved":false,"is_disabled":false,"rental_uris":{"android":"levelo://app?vid=e4db9544-a629-432c-a7fc-2f2907b6a959","ios":"levelo://app?vid=e4db9544-a629-432c-a7fc-2f2907b6a959"},"vehicle_type_id":"4","last_reported":1686938898,"current_range_meters":25200,"station_id":"ce4bhih2rcd13ifvqfs0","pricing_plan_id":"free"},{"bike_id":"61cfea1f-77a0-435c-9271-6370aca0de39","system_id":"levelo_inurba_marseille","lat":43.254947,"lon":5.376454,"is_reserved":false,"is_disabled":false,"rental_uris":{"android":"levelo://app?vid=61cfea1f-77a0-435c-9271-6370aca0de39","ios":"levelo://app?vid=61cfea1f-77a0-435c-9271-6370aca0de39"},"vehicle_type_id":"4","last_reported":1686938898,"current_range_meters":0,"station_id":"ce4bhh12rcd13ifvqff0","pricing_plan_id":"free"},{"bike_id":"34865adb-be03-4618-aea1-befa0618bab0","system_id":"levelo_inurba_marseille","lat":43.254947,"lon":5.376454,"is_reserved":false,"is_disabled":false,"rental_uris":{"android":"levelo://app?vid=34865adb-be03-4618-aea1-befa0618bab0","ios":"levelo://app?vid=34865adb-be03-4618-aea1-befa0618bab0"},"vehicle_type_id":"4","last_reported":1686938898,"current_range_meters":10000,"station_id":"ce4bhh12rcd13ifvqff0","pricing_plan_id":"free"},{"bike_id":"53d2a2e4-8fc9-47d1-9909-6cb8fa39cded","system_id":"levelo_inurba_marseille","lat":43.25498,"lon":5.3765,"is_reserved":false,"is_disabled":false,"rental_uris":{"android":"levelo://app?vid=53d2a2e4-8fc9-47d1-9909-6cb8fa39cded","ios":"levelo://app?vid=53d2a2e4-8fc9-47d1-9909-6cb8fa39cded"},"vehicle_type_id":"4","last_reported":1686938898,"current_range_meters":5600,"station_id":"","pricing_plan_id":"free"},