{"last_updated":1741353450,"ttl":60,"version":"2.2","data":{"bikes":[{"bike_id":"fc2e01e2-a336-49f9-8a33-0d1f4dfa9e0b","system_id":"levelo_inurba_marseille","lat":43.337444,"lon":5.374475,"is_reserved":false,"is_disabled":true,"rental_uris":{"android":"levelo://app?vid=fc2e01e2-a336-49f9-8a33-0d1f4dfa9e0b","ios":"levelo://app?vid=fc2e01e2-a336-49f9-8a33-0d1f4dfa9e0b"},"vehicle_type_id":"4","last_reported":1741353450,"current_range_meters":0,"station_id":"","pricing_plan_id":"cebpf4jnsgd1na2vs0mg"},{"bike_id":"ee1d2ad1-36ca-49dd-a328-f2a9a9994ecb","system_id":"levelo_inurba_marseille","lat":43.3108,"lon":5.38135,"is_reserved":false,"is_disabled":true,"rental_uris":{"android":"levelo://app?vid=ee1d2ad1-36ca-49dd-a328-f2a9a9994ecb","ios":"levelo://app?vid=ee1d2ad1-36ca-49dd-a328-f2a9a9994ecb"},"vehicle_type_id":"4","last_reported":1741353450,"current_range_meters":0,"station_id":"","pricing_plan_id":"cebpf4jnsgd1na2vs0mg"},{"bike_id":"a210f621-2f99-4d2d-8e77-55c62f63f162","system_id":"levelo_inurba_marseille","lat":43.30152,"lon":5.38079,"is_reserved":false,"is_disabled":true,"rental_uris":{"android":"levelo://app?vid=a210f621-2f99-4d2d-8e77-55c62f63f162","ios":"levelo://app?vid=a210f621-2f99-4d2d-8e77-55c62f63f162"},"vehicle_type_id":"4","last_reported":1741353450,"current_range_meters":0,"station_id":"ce4bgjp2rcd13ifvqbh0","pricing_plan_id":"cebpf4jnsgd1na2vs0mg"},{"bike_id":"da85afe2-e24f-4209-bad0-bde3ffb2a4d3","system_id":"levelo_inurba_marseille","lat":43.30534,"lon":5.36713,"is_reserved":false,"is_disabled":true,"rental_uris":{"android":"levelo://app?vid=da85afe2-e24f-4209-bad0-bde3ffb2a4d3","ios":"levelo://app?vid=da85afe2-e24f-4209-bad0-bde3ffb2a4d3"},"vehicle_type_id":"4","last_reported":1741353450,"current_range_meters":0,"station_id":"ce4bgrp2rcd13ifvqc9g","pricing_plan_id":"cebpf4jnsgd1na2vs0mg"},{"bike_id":"f3776e53-04fe-40a1-bfbb-193e545f0c17","system_id":"levelo_inurba_marseille","lat":43.30592,"lon":5.39327,"is_reserved":false,"is_disabled":true,"rental_uris":{"android":"levelo://app?vid=f3776e53-04fe-40a1-bfbb-193e545f0c17","ios":"levelo://app?vid=f3776e53-04fe-40a1-bfbb-193e545f0c17"},"vehicle_type_id":"4","last_reported":1741353450,"current_range_meters":0,"station_id":"ce4bh0p2rcd13ifvqd80","pricing_plan_id":"cebpf4jnsgd1na2vs0mg"},{"bike_id":"250f5a88-98ef-4ee9-8614-26f404394256","system_id":"levelo_inurba_marseille","lat":43.28848,"lon":5.39307,"is_reserved":false,"is_disabled":true,"rental_uris":{"android":"levelo://app?vid=250f5a88-98ef-4ee9-8614-26f404394256","ios":"levelo://app?vid=250f5a88-98ef-4ee9-8614-26f404394256"},"vehicle_type_id":"4","last_reported":1741353450,"current_range_meters":0,"station_id":"ce4bh2p2rcd13ifvqdi0","pricing_plan_id":"cebpf4jnsgd1na2vs0mg"},{"bike_id":"a5a329f1-54d2-438e-a51f-05ab88b07b19","system_id":"levelo_inurba_marseille","lat":43.29265,"lon":5.38445,"is_reserved":false,"is_disabled":true,"rental_uris":{"android":"levelo://app?vid=a5a329f1-54d2-438e-a51f-05ab88b07b19","ios":"levelo://app?vid=a5a329f1-54d2-438e-a51f-05ab88b07b19"},"vehicle_type_id":"4","last_reported":1741353450,"current_range_meters":0,"station_id":"ce4bh692rcd13ifvqea0","pricing_plan_id":"cebpf4jnsgd1na2vs0mg"},{"bike_id":"4be93dbe-89a0-4004-8e0a-cfbbc80f6816","system_id":"levelo_inurba_marseille","lat":43.27371,"lon":5.36267,"is_reserved":false,"is_disabled":true,"rental_uris":{"android":"levelo://app?vid=4be93dbe-89a0-4004-8e0a-cfbbc80f6816","ios":"levelo://app?vid=4be93dbe-89a0-4004-8e0a-cfbbc80f6816"},"vehicle_type_id":"4","last_reported":1741353450,"current_range_meters":0,"station_id":"ce4bhbh2rcd13ifvqeo0","pricing_plan_id":"cebpf4jnsgd1na2vs0mg"},{"bike_id":"fd3969db-25e9-424b-bc71-523f0eb1872c","system_id":"levelo_inurba_marseille","lat":43.2315,"lon":5.43704,"is_reserved":false,"is_disabled":true,"rental_uris":{"android":"levelo://app?vid=fd3969db-25e9-424b-bc71-523f0eb1872c","ios":"levelo://app?vid=fd3969db-25e9-424b-bc71-523f0eb1872c"},"vehicle_type_id":"4","last_reported":1741353450,"current_range_meters":0,"station_id":"ce4bhmp2rcd13ifvqgog","pricing_plan_id":"cebpf4jnsgd1na2vs0mg"},{"bike_id":"8b57c5a2-d1e7-46a4-9807-051945facb4e","system_id":"levelo_inurba_marseille","lat":43.2316,"lon":5.43697,"is_reserved":false,"is_disabled":true,"rental_uris":{"android":"levelo://app?vid=8b57c5a2-d1e7-46a4-9807-051945facb4e","ios":"levelo://app?vid=8b57c5a2-d1e7-46a4-9807-051945facb4e"},"vehicle_type_id":"4","last_reported":1741353450,"current_range_meters":0,"station_id":"ce4bhmp2rcd13ifvqgog","pricing_plan_id":"cebpf4jnsgd1na2vs0mg"},{"bike_id":"becdc9d2-6868-4227-8ade-eac5407217f9","system_id":"levelo_inurba_marseille","lat":43.26833,"lon":5.40241,"is_reserved":false,"is_disabled":true,"rental_uris":{"android":"levelo://app?vid=becdc9d2-6868-4227-8ade-eac5407217f9","ios":"levelo://app?vid=becdc9d2-6868-4227-8ade-eac5407217f9"},"vehicle_type_id":"4","last_reported":1741353450,"current_range_meters":0,"station_id":"ce501612rcd8frsf0b60","pricing_plan_id":"cebpf4jnsgd1na2vs0mg"},{"bike_id":"0c50eba0-f73e-448e-ac9d-012708af1a13","system_id":"levelo_inurba_marseille","lat":43.26558,"lon":5.37283,"is_reserved":false,"is_disabled":true,"rental_uris":{"android":"levelo://app?vid=0c50eba0-f73e-448e-ac9d-012708af1a13","ios":"levelo://app?vid=0c50eba0-f73e-448e-ac9d-012708af1a13"},"vehicle_type_id":"4","last_reported":1741353450,"current_range_meters":400,"station_id":"ce4bhg12rcd13ifvqf70","pricing_plan_id":"cebpf4jnsgd1na2vs0mg"},{"bike_id":"ae0938ef-a123-43e1-b7a9-8a88eb35d4c5","system_id":"levelo_inurba_marseille","lat":43.2408,"lon":5.37744,"is_reserved":false,"is_disabled":true,"rental_uris":{"android":"levelo://app?vid=ae0938ef-a123-43e1-b7a9-8a88eb35d4c5","ios":"levelo://app?vid=ae0938ef-a123-43e1-b7a9-8a88eb35d4c5"},"vehicle_type_id":"4","last_reported":1741353450,"current_range_meters":400,"station_id":"ce4bhnp2rcd13ifvqgvg","pricing_plan_id":"cebpf4jnsgd1na2vs0mg"},{"bike_id":"7e9dd073-7be9-4d56-9fad-d8953262c832","system_id":"levelo_inurba_marseille","lat":43.29867,"lon":5.38907,"is_reserved":false,"is_disabled":true,"rental_uris":{"android":"levelo://app?vid=7e9dd073-7be9-4d56-9fad-d8953262c832","ios":"levelo://app?vid=7e9dd073-7be9-4d56-9fad-d8953262c832"},"vehicle_type_id":"4","last_reported":1741353450,"current_range_meters":800,"station_id":"ce4bh392rcd13ifvqdl0","pricing_plan_id":"cebpf4jnsgd1na2vs0mg"},{"bike_id":"13e57fae-96e2-4b53-9acf-c5ee913744c9","system_id":"levelo_inurba_marseille","lat":43.26569,"lon":5.39008,"is_reserved":false,"is_disabled":true,"rental_uris":{"android":"levelo://app?vid=13e57fae-96e2-4b53-9acf-c5ee913744c9","ios":"levelo://app?vid=13e57fae-96e2-4b53-9acf-c5ee913744c9"},"vehicle_type_id":"4","last_reported":1741353450,"current_range_meters":800,"station_id":"ce4bhe12rcd13ifvqf30","pricing_plan_id":"cebpf4jnsgd1na2vs0mg"},{"bike_id":"58c15f7c-4e59-4136-b07f-084e574a0e64","system_id":"levelo_inurba_marseille","lat":43.32546,"lon":5.41431,"is_reserved":false,"is_disabled":true,"rental_uris":{"android":"levelo://app?vid=58c15f7c-4e59-4136-b07f-084e574a0e64","ios":"levelo://app?vid=58c15f7c-4e59-4136-b07f-084e574a0e64"},"vehicle_type_id":"4","last_reported":1741353450,"current_range_meters":800,"station_id":"ce4bhq12rcd13ifvqhhg","pricing_plan_id":"cebpf4jnsgd1na2vs0mg"},{"bike_id":"9107dc61-0c31-443f-87ea-8705226b9062","system_id":"levelo_inurba_marseille","lat":43.22925,"lon":5.35373,"is_reserved":false,"is_disabled":true,"rental_uris":{"android":"levelo://app?vid=9107dc61-0c31-443f-87ea-8705226b9062","ios":"levelo://app?vid=9107dc61-0c31-443f-87ea-8705226b9062"},"vehicle_type_id":"4","last_reported":1741353450,"current_range_meters":800,"station_id":"cpo3532slgdg3j2ikp40","pricing_plan_id":"cebpf4jnsgd1na2vs0mg"},{"bike_id":"6d144ff5-14a1-4919-bacd-17e44d124452","system_id":"levelo_inurba_marseille","lat":43.31164,"lon":5.38711,"is_reserved":false,"is_disabled":true,"rental_uris":{"android":"levelo://app?vid=6d144ff5-14a1-4919-bacd-17e44d124452","ios":"levelo://app?vid=6d144ff5-14a1-4919-bacd-17e44d124452"},"vehicle_type_id":"4","last_reported":1741353450,"current_range_meters":1200,"station_id":"ce4bgv12rcd13ifvqcp0","pricing_plan_id":"cebpf4jnsgd1na2vs0mg"},{"bike_id":"71f3e460-b06c-4de9-8ae6-e71e688dab0d","system_id":"levelo_inurba_marseille","lat":43.30638,"lon":5.40078,"is_reserved":false,"is_disabled":true,"rental_uris":{"android":"levelo://app?vid=71f3e460-b06c-4de9-8ae6-e71e688dab0d","ios":"levelo://app?vid=71f3e460-b06c-4de9-8ae6-e71e688dab0d"},"vehicle_type_id":"4","last_reported":1741353450,"current_range_meters":1200,"station_id":"ce4bh112rcd13ifvqda0","pricing_plan_id":"cebpf4jnsgd1na2vs0mg"},{"bike_id":"399553aa-afd1-452d-8754-3cff14f47fa5","system_id":"levelo_inurba_marseille","lat":43.26562,"lon":5.39009,"is_reserved":false,"is_disabled":true,"rental_uris":{"android":"levelo://app?vid=399553aa-afd1-452d-8754-3cff14f47fa5","ios":"levelo://app?vid=399553aa-afd1-452d-8754-3cff14f47fa5"},"vehicle_type_id":"4","last_reported":1741353450,"current_range_meters":1200,"station_id":"ce4bhe12rcd13ifvqf30","pricing_plan_id":"cebpf4jnsgd1na2vs0mg"},{"bike_id":"ee60138f-ac34-4811-8fe4-02f8c471e430","system_id":"levelo_inurba_marseille","lat":43.2314,"lon":5.43713,"is_reserved":false,"is_disabled":true,"rental_uris":{"android":"levelo://app?vid=ee60138f-ac34-4811-8fe4-02f8c471e430","ios":"levelo://app?vid=ee60138f-ac34-4811-8fe4-02f8c471e430"},"vehicle_type_id":"4","last_reported":1741353450,"current_range_meters":1200,"station_id":"ce4bhmp2rcd13ifvqgog","pricing_plan_id":"cebpf4jnsgd1na2vs0mg"},{"bike_id":"3d96131d-f37b-4f88-a2a8-0a01a04356d9","system_id":"levelo_inurba_marseille","lat":43.29896,"lon":5.43674,"is_reserved":false,"is_disabled":true,"rental_uris":{"android":"levelo://app?vid=3d96131d-f37b-4f88-a2a8-0a01a04356d9","ios":"levelo://app?vid=3d96131d-f37b-4f88-a2a8-0a01a04356d9"},"vehicle_type_id":"4","last_reported":1741353450,"current_range_meters":1200,"station_id":"ce4bhpp2rcd13ifvqhfg","pricing_plan_id":"cebpf4jnsgd1na2vs0mg"},{"bike_id":"604baac5-83b7-465a-a47d-088d34b42ff7","system_id":"levelo_inurba_marseille","lat":43.31225,"lon":5.36854,"is_reserved":false,"is_disabled":true,"rental_uris":{"android":"levelo://app?vid=604baac5-83b7-465a-a47d-088d34b42ff7","ios":"levelo://app?vid=604baac5-83b7-465a-a47d-088d34b42ff7"},"vehicle_type_id":"4","last_reported":1741353450,"current_range_meters":1600,"station_id":"ce4bgl92rcd13ifvqbq0","pricing_plan_id":"cebpf4jnsgd1na2vs0mg"},{"bike_id":"b40c9956-09cc-43e8-8caa-73e98dd6076d","system_id":"levelo_inurba_marseille","lat":43.30131,"lon":5.37428,"is_reserved":false,"is_disabled":true,"rental_uris":{"android":"levelo://app?vid=b40c9956-09cc-43e8-8caa-73e98dd6076d","ios":"levelo://app?vid=b40c9956-09cc-43e8-8caa-73e98dd6076d"},"vehicle_type_id":"4","last_reported":1741353450,"current_range_meters":1600,"station_id":"ce4bgs92rcd13ifvqcc0","pricing_plan_id":"cebpf4jnsgd1na2vs0mg"},{"bike_id":"5c9a9b0b-286f-4bbc-9f0f-6566de1c445a","system_id":"levelo_inurba_marseille","lat":43.30874,"lon":5.39646,"is_reserved":false,"is_disabled":true,"rental_uris":{"android":"levelo://app?vid=5c9a9b0b-286f-4bbc-9f0f-6566de1c445a","ios":"levelo://app?vid=5c9a9b0b-286f-4bbc-9f0f-6566de1c445a"},"vehicle_type_id":"4","last_reported":1741353450,"current_range_meters":1600,"station_id":"ce4bh012rcd13ifvqcv0","pricing_plan_id":"cebpf4jnsgd1na2vs0mg"},{"bike_id":"d0a15aa0-ce1e-4104-8523-418a34d9e8f9","system_id":"levelo_inurba_marseille","lat":43.27048,"lon":5.40268,"is_reserved":false,"is_disabled":true,"rental_uris":{"android":"levelo://app?vid=d0a15aa0-ce1e-4104-8523-418a34d9e8f9","ios":"levelo://app?vid=d0a15aa0-ce1e-4104-8523-418a34d9e8f9"},"vehicle_type_id":"4","last_reported":1741353450,"current_range_meters":1600,"station_id":"ce4bhk92rcd13ifvqgc0","pricing_plan_id":"cebpf4jnsgd1na2vs0mg"},{"bike_id":"40cfae97-ac75-4495-829b-6a7f0edfd516","system_id":"levelo_inurba_marseille","lat":43.30951,"lon":5.39029,"is_reserved":false,"is_disabled":true,"rental_uris":{"android":"levelo://app?vid=40cfae97-ac75-4495-829b-6a7f0edfd516","ios":"levelo://app?vid=40cfae97-ac75-4495-829b-6a7f0edfd516"},"vehicle_type_id":"4","last_reported":1741353450,"current_range_meters":2000,"station_id":"ce4bgup2rcd13ifvqco0","pricing_plan_id":"cebpf4jnsgd1na2vs0mg"},{"bike_id":"a51c33b8-df59-44ce-adc3-bf0a67a243fc","system_id":"levelo_inurba_marseille","lat":43.31333,"lon":5.39662,"is_reserved":false,"is_disabled":true,"rental_uris":{"android":"levelo://app?vid=a51c33b8-df59-44ce-adc3-bf0a67a243fc","ios":"levelo://app?vid=a51c33b8-df59-44ce-adc3-bf0a67a243fc"},"vehicle_type_id":"4","last_reported":1741353450,"current_range_meters":2000,"station_id":"ce4bgvp2rcd13ifvqcu0","pricing_plan_id":"cebpf4jnsgd1na2vs0mg"},{"bike_id":"c08c2e84-1ccf-4ceb-abcc-20c0eb19550e","system_id":"levelo_inurba_marseille","lat":43.31331,"lon":5.39678,"is_reserved":false,"is_disabled":true,"rental_uris":{"android":"levelo://app?vid=c08c2e84-1ccf-4ceb-abcc-20c0eb19550e","ios":"levelo://app?vid=c08c2e84-1ccf-4ceb-abcc-20c0eb19550e"},"vehicle_type_id":"4","last_reported":1741353450,"current_range_meters":2000,"station_id":"ce4bgvp2rcd13ifvqcu0","pricing_plan_id":"cebpf4jnsgd1na2vs0mg"},{"bike_id":"b09bd3b4-d507-48af-bb4a-4eb2d23704ef","system_id":"levelo_inurba_marseille","lat":43.28341,"lon":5.38116,"is_reserved":false,"is_disabled":true,"rental_uris":{"android":"levelo://app?vid=b09bd3b4-d507-48af-bb4a-4eb2d23704ef","ios":"levelo://app?vid=b09bd3b4-d507-48af-bb4a-4eb2d23704ef"},"vehicle_type_id":"4","last_reported":1741353450,"current_range_meters":2000,"station_id":"ce4bh412rcd13ifvqdr0","pricing_plan_id":"cebpf4jnsgd1na2vs0mg"},{"bike_id":"c26bf79b-5510-41ec-8a82-4dbfb61364ab","system_id":"levelo_inurba_marseille","lat":43.32537,"lon":5.41424,"is_reserved":false,"is_disabled":true,"rental_uris":{"android":"levelo://app?vid=c26bf79b-5510-41ec-8a82-4dbfb61364ab","ios":"levelo://app?vid=c26bf79b-5510-41ec-8a82-4dbfb61364ab"},"vehicle_type_id":"4","last_reported":1741353450,"current_range_meters":2000,"station_id":"ce4bhq12rcd13ifvqhhg","pricing_plan_id":"cebpf4jnsgd1na2vs0mg"},{"bike_id":"4a17d1b8-749f-4ead-8e77-3be80208c84b","system_id":"levelo_inurba_marseille","lat":43.28092,"lon":5.3987,"is_reserved":false,"is_disabled":false,"rental_uris":{"android":"levelo://app?vid=4a17d1b8-749f-4ead-8e77-3be80208c84b","ios":"levelo://app?vid=4a17d1b8-749f-4ead-8e77-3be80208c84b"},"vehicle_type_id":"4","last_reported":1741353450,"current_range_meters":2800,"station_id":"","pricing_plan_id":"cebpf4jnsgd1na2vs0mg"},{"bike_id":"52329d8f-fabd-46e1-acd1-0bf5ca9f273f","system_id":"levelo_inurba_marseille","lat":43.30557,"lon":5.3652,"is_reserved":false,"is_disabled":false,"rental_uris":{"android":"levelo://app?vid=52329d8f-fabd-46e1-acd1-0bf5ca9f273f","ios":"levelo://app?vid=52329d8f-fabd-46e1-acd1-0bf5ca9f273f"},"vehicle_type_id":"4","last_reported":1741353450,"current_range_meters":2800,"station_id":"ce4bgs12rcd13ifvqcag","pricing_plan_id":"cebpf4jnsgd1na2vs0mg"},{"bike_id":"3a2e8d55-6777-4e7f-92ca-34327fc2befa","system_id":"levelo_inurba_marseille","lat":43.29578,"lon":5.39973,"is_reserved":false,"is_disabled":false,"rental_uris":{"android":"levelo://app?vid=3a2e8d55-6777-4e7f-92ca-34327fc2befa","ios":"levelo://app?vid=3a2e8d55-6777-4e7f-92ca-34327fc2befa"},"vehicle_type_id":"4","last_reported":1741353450,"current_range_meters":3200,"station_id":"ce4bh312rcd13ifvqdj0","pricing_plan_id":"cebpf4jnsgd1na2vs0mg"},{"bike_id":"1560ff32-c084-4914-af5b-c95ed5b07882","system_id":"levelo_inurba_marseille","lat":43.26789,"lon":5.39416,"is_reserved":false,"is_disabled":false,"rental_uris":{"android":"levelo://app?vid=1560ff32-c084-4914-af5b-c95ed5b07882","ios":"levelo://app?vid=1560ff32-c084-4914-af5b-c95ed5b07882"},"vehicle_type_id":"4","last_reported":1741353450,"current_range_meters":3200,"station_id":"ce4bhh12rcd13ifvqfg0","pricing_plan_id":"cebpf4jnsgd1na2vs0mg"},{"bike_id":"e0c11a7d-8689-41a4-87c2-01c7cdb0c9f8","system_id":"levelo_inurba_marseille","lat":43.25087,"lon":5.39521,"is_reserved":false,"is_disabled":false,"rental_uris":{"android":"levelo://app?vid=e0c11a7d-8689-41a4-87c2-01c7cdb0c9f8","ios":"levelo://app?vid=e0c11a7d-8689-41a4-87c2-01c7cdb0c9f8"},"vehicle_type_id":"4","last_reported":1741353450,"current_range_meters":3200,"station_id":"ce4bhm12rcd13ifvqgkg","pricing_plan_id":"cebpf4jnsgd1na2vs0mg"},{"bike_id":"d2a5955c-a29a-48df-938e-0690b4b287b9","system_id":"levelo_inurba_marseille","lat":43.24177,"lon":5.397297,"is_reserved":false,"is_disabled":false,"rental_uris":{"android":"levelo://app?vid=d2a5955c-a29a-48df-938e-0690b4b287b9","ios":"levelo://app?vid=d2a5955c-a29a-48df-938e-0690b4b287b9"},"vehicle_type_id":"4","last_reported":1741353450,"current_range_meters":3200,"station_id":"ce4bhn12rcd13ifvqgpg","pricing_plan_id":"cebpf4jnsgd1na2vs0mg"},{"bike_id":"44c23c85-f3bd-4968-ba83-cb83f6f05c9a","system_id":"levelo_inurba_marseille","lat":43.30208,"lon":5.39477,"is_reserved":false,"is_disabled":false,"rental_uris":{"android":"levelo://app?vid=44c23c85-f3bd-4968-ba83-cb83f6f05c9a","ios":"levelo://app?vid=44c23c85-f3bd-4968-ba83-cb83f6f05c9a"},"vehicle_type_id":"4","last_reported":1741353450,"current_range_meters":3600,"station_id":"ce4bh0p2rcd13ifvqd70","pricing_plan_id":"cebpf4jnsgd1na2vs0mg"},{"bike_id":"2fc0a513-af63-4819-9eaa-dff7834617e9","system_id":"levelo_inurba_marseille","lat":43.28356,"lon":5.38632,"is_reserved":false,"is_disabled":false,"rental_uris":{"android":"levelo://app?vid=2fc0a513-af63-4819-9eaa-dff7834617e9","ios":"levelo://app?vid=2fc0a513-af63-4819-9eaa-dff7834617e9"},"vehicle_type_id":"4","last_reported":1741353450,"current_range_meters":3600,"station_id":"ce4bh492rcd13ifvqdvg","pricing_plan_id":"cebpf4jnsgd1na2vs0mg"},{"bike_id":"794b3584-9d45-47bb-8f35-01212b5c5592","system_id":"levelo_inurba_marseille","lat":43.26565,"lon":5.39026,"is_reserved":false,"is_disabled":false,"rental_uris":{"android":"levelo://app?vid=794b3584-9d45-47bb-8f35-01212b5c5592","ios":"levelo://app?vid=794b3584-9d45-47bb-8f35-01212b5c5592"},"vehicle_type_id":"4","last_reported":1741353450,"current_range_meters":4000,"station_id":"ce4bhe12rcd13ifvqf30","pricing_plan_id":"cebpf4jnsgd1na2vs0mg"},{"bike_id":"60ca2d11-e6af-45ee-8186-84d398205c2c","system_id":"levelo_inurba_marseille","lat":43.26203,"lon":5.37921,"is_reserved":false,"is_disabled":false,"rental_uris":{"android":"levelo://app?vid=60ca2d11-e6af-45ee-8186-84d398205c2c","ios":"levelo://app?vid=60ca2d11-e6af-45ee-8186-84d398205c2c"},"vehicle_type_id":"4","last_reported":1741353450,"current_range_meters":4000,"station_id":"ce4bhjp2rcd13ifvqg90","pricing_plan_id":"cebpf4jnsgd1na2vs0mg"},{"bike_id":"db8a21fa-4ff7-474e-9a39-218291cdbf50","system_id":"levelo_inurba_marseille","lat":43.28717,"lon":5.36092,"is_reserved":false,"is_disabled":false,"rental_uris":{"android":"levelo://app?vid=db8a21fa-4ff7-474e-9a39-218291cdbf50","ios":"levelo://app?vid=db8a21fa-4ff7-474e-9a39-218291cdbf50"},"vehicle_type_id":"4","last_reported":1741353450,"current_range_meters":4000,"station_id":"cki0cbj6b192h4jlfktg","pricing_plan_id":"cebpf4jnsgd1na2vs0mg"},{"bike_id":"e6cc0099-0019-4d7a-90f4-2045a3e22cbb","system_id":"levelo_inurba_marseille","lat":43.30604,"lon":5.39322,"is_reserved":false,"is_disabled":false,"rental_uris":{"android":"levelo://app?vid=e6cc0099-0019-4d7a-90f4-2045a3e22cbb","ios":"levelo://app?vid=e6cc0099-0019-4d7a-90f4-2045a3e22cbb"},"vehicle_type_id":"4","last_reported":1741353450,"current_range_meters":4400,"station_id":"ce4bh0p2rcd13ifvqd80","pricing_plan_id":"cebpf4jnsgd1na2vs0mg"},{"bike_id":"5aa268fe-a58b-497c-b24b-dc290ed4bc3d","system_id":"levelo_inurba_marseille","lat":43.28937,"lon":5.364,"is_reserved":false,"is_disabled":false,"rental_uris":{"android":"levelo://app?vid=5aa268fe-a58b-497c-b24b-dc290ed4bc3d","ios":"levelo://app?vid=5aa268fe-a58b-497c-b24b-dc290ed4bc3d"},"vehicle_type_id":"4","last_reported":1741353450,"current_range_meters":4400,"station_id":"ce4bhc92rcd13ifvqetg","pricing_plan_id":"cebpf4jnsgd1na2vs0mg"},{"bike_id":"feb0f1e4-8daa-4169-9c60-dbb8b1521e48","system_id":"levelo_inurba_marseille","lat":43.32463,"lon":5.36543,"is_reserved":false,"is_disabled":false,"rental_uris":{"android":"levelo://app?vid=feb0f1e4-8daa-4169-9c60-dbb8b1521e48","ios":"levelo://app?vid=feb0f1e4-8daa-4169-9c60-dbb8b1521e48"},"vehicle_type_id":"4","last_reported":1741353450,"current_range_meters":4400,"station_id":"ce4bhs12rcd13ifvqhvg","pricing_plan_id":"cebpf4jnsgd1na2vs0mg"},{"bike_id":"e0c0bec3-454a-410d-a60f-3aed516ec149","system_id":"levelo_inurba_marseille","lat":43.23195,"lon":5.35548,"is_reserved":false,"is_disabled":false,"rental_uris":{"android":"levelo://app?vid=e0c0bec3-454a-410d-a60f-3aed516ec149","ios":"levelo://app?vid=e0c0bec3-454a-410d-a60f-3aed516ec149"},"vehicle_type_id":"4","last_reported":1741353450,"current_range_meters":4800,"station_id":"ce4bhu92rcd13ifvqi70","pricing_plan_id":"cebpf4jnsgd1na2vs0mg"},{"bike_id":"b4f6b571-3b0d-44ad-88ce-ba549fa12a27","system_id":"levelo_inurba_marseille","lat":43.26552,"lon":5.37287,"is_reserved":false,"is_disabled":false,"rental_uris":{"android":"levelo://app?vid=b4f6b571-3b0d-44ad-88ce-ba549fa12a27","ios":"levelo://app?vid=b4f6b571-3b0d-44ad-88ce-ba549fa12a27"},"vehicle_type_id":"4","last_reported":1741353450,"current_range_meters":5600,"station_id":"ce4bhg12rcd13ifvqf70","pricing_plan_id":"cebpf4jnsgd1na2vs0mg"},{"bike_id":"7460888d-0a5f-435a-a625-0f4312e846d7","system_id":"levelo_inurba_marseille","lat":43.26792,"lon":5.39416,"is_reserved":false,"is_disabled":false,"rental_uris":{"android":"levelo://app?vid=7460888d-0a5f-435a-a625-0f4312e846d7","ios":"levelo://app?vid=7460888d-0a5f-435a-a625-0f4312e846d7"},"vehicle_type_id":"4","last_reported":1741353450,"current_range_meters":5600,"station_id":"ce4bhh12rcd13ifvqfg0","pricing_plan_id":"cebpf4jnsgd1na2vs0mg"},{"bike_id":"0628bfc6-0456-445d-8704-f2d9f89f3921","system_id":"levelo_inurba_marseille","lat":43.27208,"lon":5.39184,"is_reserved":false,"is_disabled":false,"rental_uris":{"android":"levelo://app?vid=0628bfc6-0456-445d-8704-f2d9f89f3921","ios":"levelo://app?vid=0628bfc6-0456-445d-8704-f2d9f89f3921"},"vehicle_type_id":"4","last_reported":1741353450,"current_range_meters":5600,"station_id":"ce4bhhp2rcd13ifvqfm0","pricing_plan_id":"cebpf4jnsgd1na2vs0mg"},{"bike_id":"d572b633-d5af-4df0-87b8-0a5b1819b02b","system_id":"levelo_inurba_marseille","lat":43.24164,"lon":5.39714,"is_reserved":false,"is_disabled":false,"rental_uris":{"android":"levelo://app?vid=d572b633-d5af-4df0-87b8-0a5b1819b02b","ios":"levelo://app?vid=d572b633-d5af-4df0-87b8-0a5b1819b02b"},"vehicle_type_id":"4","last_reported":1741353450,"current_range_meters":5600,"station_id":"ce4bhn12rcd13ifvqgpg","pricing_plan_id":"cebpf4jnsgd1na2vs0mg"},{"bike_id":"c0c47341-625e-4ef2-ba2f-5e525ff9942e","system_id":"levelo_inurba_marseille","lat":43.2926,"lon":5.37604,"is_reserved":false,"is_disabled":false,"rental_uris":{"android":"levelo://app?vid=c0c47341-625e-4ef2-ba2f-5e525ff9942e","ios":"levelo://app?vid=c0c47341-625e-4ef2-ba2f-5e525ff9942e"},"vehicle_type_id":"4","last_reported":1741353450,"current_range_meters":6000,"station_id":"ce4bgi12rcd13ifvqb80","pricing_plan_id":"cebpf4jnsgd1na2vs0mg"},{"bike_id":"543d2187-0f62-41a9-b260-de157049cc16","system_id":"levelo_inurba_marseille","lat":43.30144,"lon":5.3808,"is_reserved":false,"is_disabled":false,"rental_uris":{"android":"levelo://app?vid=543d2187-0f62-41a9-b260-de157049cc16","ios":"levelo://app?vid=543d2187-0f62-41a9-b260-de157049cc16"},"vehicle_type_id":"4","last_reported":1741353450,"current_range_meters":6000,"station_id":"ce4bgjp2rcd13ifvqbh0","pricing_plan_id":"cebpf4jnsgd1na2vs0mg"},{"bike_id":"1d7e0ac6-3023-407a-96b2-5aca3f86c63d","system_id":"levelo_inurba_marseille","lat":43.30253,"lon":5.40088,"is_reserved":false,"is_disabled":false,"rental_uris":{"android":"levelo://app?vid=1d7e0ac6-3023-407a-96b2-5aca3f86c63d","ios":"levelo://app?vid=1d7e0ac6-3023-407a-96b2-5aca3f86c63d"},"vehicle_type_id":"4","last_reported":1741353450,"current_range_meters":6400,"station_id":"ce4bgvh2rcd13ifvqcs0","pricing_plan_id":"cebpf4jnsgd1na2vs0mg"},{"bike_id":"f927a9c8-5d84-472f-b8fd-88f2fc3bc3e6","system_id":"levelo_inurba_marseille","lat":43.29898,"lon":5.43678,"is_reserved":false,"is_disabled":false,"rental_uris":{"android":"levelo://app?vid=f927a9c8-5d84-472f-b8fd-88f2fc3bc3e6","ios":"levelo://app?vid=f927a9c8-5d84-472f-b8fd-88f2fc3bc3e6"},"vehicle_type_id":"4","last_reported":1741353450,"current_range_meters":6400,"station_id":"ce4bhpp2rcd13ifvqhfg","pricing_plan_id":"cebpf4jnsgd1na2vs0mg"},{"bike_id":"81220ab9-fb8e-4638-a084-692a6595df85","system_id":"levelo_inurba_marseille","lat":43.26192,"lon":5.42064,"is_reserved":false,"is_disabled":false,"rental_uris":{"android":"levelo://app?vid=81220ab9-fb8e-4638-a084-692a6595df85","ios":"levelo://app?vid=81220ab9-fb8e-4638-a084-692a6595df85"},"vehicle_type_id":"4","last_reported":1741353450,"current_range_meters":6800,"station_id":"","pricing_plan_id":"cebpf4jnsgd1na2vs0mg"},{"bike_id":"24df224d-ffa5-472e-acc0-380979001d96","system_id":"levelo_inurba_marseille","lat":43.25717,"lon":5.41111,"is_reserved":false,"is_disabled":false,"rental_uris":{"android":"levelo://app?vid=24df224d-ffa5-472e-acc0-380979001d96","ios":"levelo://app?vid=24df224d-ffa5-472e-acc0-380979001d96"},"vehicle_type_id":"4","last_reported":1741353450,"current_range_meters":6800,"station_id":"ce4bhkp2rcd13ifvqgd0","pricing_plan_id":"cebpf4jnsgd1na2vs0mg"},{"bike_id":"3c5e0350-07a6-4d3d-b526-00ffb41b6d3e","system_id":"levelo_inurba_marseille","lat":43.2795,"lon":5.41022,"is_reserved":false,"is_disabled":false,"rental_uris":{"android":"levelo://app?vid=3c5e0350-07a6-4d3d-b526-00ffb41b6d3e","ios":"levelo://app?vid=3c5e0350-07a6-4d3d-b526-00ffb41b6d3e"},"vehicle_type_id":"4","last_reported":1741353450,"current_range_meters":6800,"station_id":"ce4bhnp2rcd13ifvqh0g","pricing_plan_id":"cebpf4jnsgd1na2vs0mg"},{"bike_id":"7f1905bf-da4d-4f13-af14-c5d46804e585","system_id":"levelo_inurba_marseille","lat":43.23183,"lon":5.35548,"is_reserved":false,"is_disabled":false,"rental_uris":{"android":"levelo://app?vid=7f1905bf-da4d-4f13-af14-c5d46804e585","ios":"levelo://app?vid=7f1905bf-da4d-4f13-af14-c5d46804e585"},"vehicle_type_id":"4","last_reported":1741353450,"current_range_meters":6800,"station_id":"ce4bhu92rcd13ifvqi70","pricing_plan_id":"cebpf4jnsgd1na2vs0mg"},{"bike_id":"ab9b9d8d-e19b-4992-8eab-e6ddab79e94a","system_id":"levelo_inurba_marseille","lat":43.30536,"lon":5.36539,"is_reserved":false,"is_disabled":false,"rental_uris":{"android":"levelo://app?vid=ab9b9d8d-e19b-4992-8eab-e6ddab79e94a","ios":"levelo://app?vid=ab9b9d8d-e19b-4992-8eab-e6ddab79e94a"},"vehicle_type_id":"4","last_reported":1741353450,"current_range_meters":7200,"station_id":"ce4bgs12rcd13ifvqcag","pricing_plan_id":"cebpf4jnsgd1na2vs0mg"},{"bike_id":"b4c8f7c6-4370-4640-b211-499f90edd1e6","system_id":"levelo_inurba_marseille","lat":43.2456,"lon":5.39538,"is_reserved":false,"is_disabled":false,"rental_uris":{"android":"levelo://app?vid=b4c8f7c6-4370-4640-b211-499f90edd1e6","ios":"levelo://app?vid=b4c8f7c6-4370-4640-b211-499f90edd1e6"},"vehicle_type_id":"4","last_reported":1741353450,"current_range_meters":7200,"station_id":"ce4bhlp2rcd13ifvqgjg","pricing_plan_id":"cebpf4jnsgd1na2vs0mg"},{"bike_id":"c262f8cf-6400-4efd-af91-c8aabadab203","system_id":"levelo_inurba_marseille","lat":43.231888,"lon":5.3998,"is_reserved":false,"is_disabled":false,"rental_uris":{"android":"levelo://app?vid=c262f8cf-6400-4efd-af91-c8aabadab203","ios":"levelo://app?vid=c262f8cf-6400-4efd-af91-c8aabadab203"},"vehicle_type_id":"4","last_reported":1741353450,"current_range_meters":7200,"station_id":"ce4bhn12rcd13ifvqgqg","pricing_plan_id":"cebpf4jnsgd1na2vs0mg"},{"bike_id":"7c6f78ad-ed1a-4043-959b-c08dfad6cc76","system_id":"levelo_inurba_marseille","lat":43.27505,"lon":5.42459,"is_reserved":false,"is_disabled":false,"rental_uris":{"android":"levelo://app?vid=7c6f78ad-ed1a-4043-959b-c08dfad6cc76","ios":"levelo://app?vid=7c6f78ad-ed1a-4043-959b-c08dfad6cc76"},"vehicle_type_id":"4","last_reported":1741353450,"current_range_meters":7200,"station_id":"ce4bhn92rcd13ifvqgrg","pricing_plan_id":"cebpf4jnsgd1na2vs0mg"},{"bike_id":"7accdb0f-6b22-4f86-ac4d-6266017ee5c9","system_id":"levelo_inurba_marseille","lat":43.2955,"lon":5.42285,"is_reserved":false,"is_disabled":false,"rental_uris":{"android":"levelo://app?vid=7accdb0f-6b22-4f86-ac4d-6266017ee5c9","ios":"levelo://app?vid=7accdb0f-6b22-4f86-ac4d-6266017ee5c9"},"vehicle_type_id":"4","last_reported":1741353450,"current_range_meters":7200,"station_id":"ce4bhph2rcd13ifvqhdg","pricing_plan_id":"cebpf4jnsgd1na2vs0mg"},{"bike_id":"858c50df-ffa3-4ac3-a680-aba957e8944e","system_id":"levelo_inurba_marseille","lat":43.29903,"lon":5.43667,"is_reserved":false,"is_disabled":false,"rental_uris":{"android":"levelo://app?vid=858c50df-ffa3-4ac3-a680-aba957e8944e","ios":"levelo://app?vid=858c50df-ffa3-4ac3-a680-aba957e8944e"},"vehicle_type_id":"4","last_reported":1741353450,"current_range_meters":7200,"station_id":"ce4bhpp2rcd13ifvqhfg","pricing_plan_id":"cebpf4jnsgd1na2vs0mg"},{"bike_id":"c5d9a748-fb84-4751-9008-dc4467d9ed9a","system_id":"levelo_inurba_marseille","lat":43.23207,"lon":5.35533,"is_reserved":false,"is_disabled":false,"rental_uris":{"android":"levelo://app?vid=c5d9a748-fb84-4751-9008-dc4467d9ed9a","ios":"levelo://app?vid=c5d9a748-fb84-4751-9008-dc4467d9ed9a"},"vehicle_type_id":"4","last_reported":1741353450,"current_range_meters":7200,"station_id":"ce4bhu92rcd13ifvqi70","pricing_plan_id":"cebpf4jnsgd1na2vs0mg"},{"bike_id":"11cf2b7a-8794-4933-b5a2-7f8a54979c1f","system_id":"levelo_inurba_marseille","lat":43.30143,"lon":5.38078,"is_reserved":false,"is_disabled":false,"rental_uris":{"android":"levelo://app?vid=11cf2b7a-8794-4933-b5a2-7f8a54979c1f","ios":"levelo://app?vid=11cf2b7a-8794-4933-b5a2-7f8a54979c1f"},"vehicle_type_id":"4","last_reported":1741353450,"current_range_meters":8000,"station_id":"ce4bgjp2rcd13ifvqbh0","pricing_plan_id":"cebpf4jnsgd1na2vs0mg"},{"bike_id":"ee4847b0-5be0-4376-9dc5-eceecad08d54","system_id":"levelo_inurba_marseille","lat":43.30952,"lon":5.39032,"is_reserved":false,"is_disabled":false,"rental_uris":{"android":"levelo://app?vid=ee4847b0-5be0-4376-9dc5-eceecad08d54","ios":"levelo://app?vid=ee4847b0-5be0-4376-9dc5-eceecad08d54"},"vehicle_type_id":"4","last_reported":1741353450,"current_range_meters":8000,"station_id":"ce4bgup2rcd13ifvqco0","pricing_plan_id":"cebpf4jnsgd1na2vs0mg"},{"bike_id":"e33f59ac-0f5a-4e06-bf24-76610c4f0bda","system_id":"levelo_inurba_marseille","lat":43.25579,"lon":5.38229,"is_reserved":false,"is_disabled":false,"rental_uris":{"android":"levelo://app?vid=e33f59ac-0f5a-4e06-bf24-76610c4f0bda","ios":"levelo://app?vid=e33f59ac-0f5a-4e06-bf24-76610c4f0bda"},"vehicle_type_id":"4","last_reported":1741353450,"current_range_meters":8000,"station_id":"ce4bhih2rcd13ifvqfs0","pricing_plan_id":"cebpf4jnsgd1na2vs0mg"},{"bike_id":"1b34c58c-f011-43f3-baac-47c6cf7523c0","system_id":"levelo_inurba_marseille","lat":43.29892,"lon":5.43688,"is_reserved":false,"is_disabled":false,"rental_uris":{"android":"levelo://app?vid=1b34c58c-f011-43f3-baac-47c6cf7523c0","ios":"levelo://app?vid=1b34c58c-f011-43f3-baac-47c6cf7523c0"},"vehicle_type_id":"4","last_reported":1741353450,"current_range_meters":8000,"station_id":"ce4bhpp2rcd13ifvqhfg","pricing_plan_id":"cebpf4jnsgd1na2vs0mg"},{"bike_id":"e9f7d157-0e7a-4fa3-aa48-b91932e9c096","system_id":"levelo_inurba_marseille","lat":43.30579,"lon":5.3934,"is_reserved":false,"is_disabled":false,"rental_uris":{"android":"levelo://app?vid=e9f7d157-0e7a-4fa3-aa48-b91932e9c096","ios":"levelo://app?vid=e9f7d157-0e7a-4fa3-aa48-b91932e9c096"},"vehicle_type_id":"4","last_reported":1741353450,"current_range_meters":8400,"station_id":"ce4bh0p2rcd13ifvqd80","pricing_plan_id":"cebpf4jnsgd1na2vs0mg"},{"bike_id":"43d80879-61e1-487c-9f47-df90f30e417d","system_id":"levelo_inurba_marseille","lat":43.27905,"lon":5.37993,"is_reserved":false,"is_disabled":false,"rental_uris":{"android":"levelo://app?vid=43d80879-61e1-487c-9f47-df90f30e417d","ios":"levelo://app?vid=43d80879-61e1-487c-9f47-df90f30e417d"},"vehicle_type_id":"4","last_reported":1741353450,"current_range_meters":8400,"station_id":"ce4bhf92rcd13ifvqf50","pricing_plan_id":"cebpf4jnsgd1na2vs0mg"},{"bike_id":"663accf6-681a-4ca4-bd91-1c8e74411d3e","system_id":"levelo_inurba_marseille","lat":43.26575,"lon":5.37326,"is_reserved":false,"is_disabled":false,"rental_uris":{"android":"levelo://app?vid=663accf6-681a-4ca4-bd91-1c8e74411d3e","ios":"levelo://app?vid=663accf6-681a-4ca4-bd91-1c8e74411d3e"},"vehicle_type_id":"4","last_reported":1741353450,"current_range_meters":8400,"station_id":"ce4bhg12rcd13ifvqf70","pricing_plan_id":"cebpf4jnsgd1na2vs0mg"},{"bike_id":"4fc59b32-4bfa-4d77-a7ce-e2b6e44a9472","system_id":"levelo_inurba_marseille","lat":43.32658,"lon":5.40986,"is_reserved":false,"is_disabled":false,"rental_uris":{"android":"levelo://app?vid=4fc59b32-4bfa-4d77-a7ce-e2b6e44a9472","ios":"levelo://app?vid=4fc59b32-4bfa-4d77-a7ce-e2b6e44a9472"},"vehicle_type_id":"4","last_reported":1741353450,"current_range_meters":8400,"station_id":"ce4bhpp2rcd13ifvqhgg","pricing_plan_id":"cebpf4jnsgd1na2vs0mg"},{"bike_id":"a67e0f76-569f-41a3-9478-efaf4f81ba58","system_id":"levelo_inurba_marseille","lat":43.3237,"lon":5.38884,"is_reserved":false,"is_disabled":false,"rental_uris":{"android":"levelo://app?vid=a67e0f76-569f-41a3-9478-efaf4f81ba58","ios":"levelo://app?vid=a67e0f76-569f-41a3-9478-efaf4f81ba58"},"vehicle_type_id":"4","last_reported":1741353450,"current_range_meters":8400,"station_id":"ce4bhqp2rcd13ifvqhog","pricing_plan_id":"cebpf4jnsgd1na2vs0mg"},{"bike_id":"357f6b0d-7429-4870-b5b1-c540923d954d","system_id":"levelo_inurba_marseille","lat":43.230656,"lon":5.354959,"is_reserved":false,"is_disabled":false,"rental_uris":{"android":"levelo://app?vid=357f6b0d-7429-4870-b5b1-c540923d954d","ios":"levelo://app?vid=357f6b0d-7429-4870-b5b1-c540923d954d"},"vehicle_type_id":"4","last_reported":1741353450,"current_range_meters":8400,"station_id":"cpo3342slgdg3j2ifvpg","pricing_plan_id":"cebpf4jnsgd1na2vs0mg"},{"bike_id":"35130f87-b313-43ca-86df-0e44026654c1","system_id":"levelo_inurba_marseille","lat":43.30789,"lon":5.37973,"is_reserved":false,"is_disabled":false,"rental_uris":{"android":"levelo://app?vid=35130f87-b313-43ca-86df-0e44026654c1","ios":"levelo://app?vid=35130f87-b313-43ca-86df-0e44026654c1"},"vehicle_type_id":"4","last_reported":1741353450,"current_range_meters":8800,"station_id":"","pricing_plan_id":"cebpf4jnsgd1na2vs0mg"},{"bike_id":"305ae609-526a-4409-ac67-e53bcafb9b2a","system_id":"levelo_inurba_marseille","lat":43.29786,"lon":5.38092,"is_reserved":false,"is_disabled":false,"rental_uris":{"android":"levelo://app?vid=305ae609-526a-4409-ac67-e53bcafb9b2a","ios":"levelo://app?vid=305ae609-526a-4409-ac67-e53bcafb9b2a"},"vehicle_type_id":"4","last_reported":1741353450,"current_range_meters":8800,"station_id":"ce4bgip2rcd13ifvqbb0","pricing_plan_id":"cebpf4jnsgd1na2vs0mg"},{"bike_id":"67878546-5902-4385-9009-b5ddaec285aa","system_id":"levelo_inurba_marseille","lat":43.29793,"lon":5.38096,"is_reserved":false,"is_disabled":false,"rental_uris":{"android":"levelo://app?vid=67878546-5902-4385-9009-b5ddaec285aa","ios":"levelo://app?vid=67878546-5902-4385-9009-b5ddaec285aa"},"vehicle_type_id":"4","last_reported":1741353450,"current_range_meters":8800,"station_id":"ce4bgip2rcd13ifvqbb0","pricing_plan_id":"cebpf4jnsgd1na2vs0mg"},{"bike_id":"e5f92429-87bf-44fc-9c36-8c4cac7cc88b","system_id":"levelo_inurba_marseille","lat":43.308788,"lon":5.397966,"is_reserved":false,"is_disabled":false,"rental_uris":{"android":"levelo://app?vid=e5f92429-87bf-44fc-9c36-8c4cac7cc88b","ios":"levelo://app?vid=e5f92429-87bf-44fc-9c36-8c4cac7cc88b"},"vehicle_type_id":"4","last_reported":1741353450,"current_range_meters":8800,"station_id":"ce4bh012rcd13ifvqcv0","pricing_plan_id":"cebpf4jnsgd1na2vs0mg"},{"bike_id":"dfe90e4a-09cb-4a66-8da8-2c7074cfa7bc","system_id":"levelo_inurba_marseille","lat":43.28936,"lon":5.36646,"is_reserved":false,"is_disabled":false,"rental_uris":{"android":"levelo://app?vid=dfe90e4a-09cb-4a66-8da8-2c7074cfa7bc","ios":"levelo://app?vid=dfe90e4a-09cb-4a66-8da8-2c7074cfa7bc"},"vehicle_type_id":"4","last_reported":1741353450,"current_range_meters":8800,"station_id":"ce4bhap2rcd13ifvqek0","pricing_plan_id":"cebpf4jnsgd1na2vs0mg"},{"bike_id":"c39377da-b5ee-44ee-afe0-4f9b25e1a2b5","system_id":"levelo_inurba_marseille","lat":43.29004,"lon":5.35618,"is_reserved":false,"is_disabled":false,"rental_uris":{"android":"levelo://app?vid=c39377da-b5ee-44ee-afe0-4f9b25e1a2b5","ios":"levelo://app?vid=c39377da-b5ee-44ee-afe0-4f9b25e1a2b5"},"vehicle_type_id":"4","last_reported":1741353450,"current_range_meters":8800,"station_id":"ce4bhb92rcd13ifvqen0","pricing_plan_id":"cebpf4jnsgd1na2vs0mg"},{"bike_id":"96878885-da50-4f7b-bc03-7004fbf7d2f7","system_id":"levelo_inurba_marseille","lat":43.26563,"lon":5.39039,"is_reserved":false,"is_disabled":false,"rental_uris":{"android":"levelo://app?vid=96878885-da50-4f7b-bc03-7004fbf7d2f7","ios":"levelo://app?vid=96878885-da50-4f7b-bc03-7004fbf7d2f7"},"vehicle_type_id":"4","last_reported":1741353450,"current_range_meters":8800,"station_id":"ce4bhe12rcd13ifvqf30","pricing_plan_id":"cebpf4jnsgd1na2vs0mg"},{"bike_id":"c264a273-b2b3-410f-8775-6fe801a99ccc","system_id":"levelo_inurba_marseille","lat":43.262,"lon":5.3793,"is_reserved":false,"is_disabled":false,"rental_uris":{"android":"levelo://app?vid=c264a273-b2b3-410f-8775-6fe801a99ccc","ios":"levelo://app?vid=c264a273-b2b3-410f-8775-6fe801a99ccc"},"vehicle_type_id":"4","last_reported":1741353450,"current_range_meters":8800,"station_id":"ce4bhjp2rcd13ifvqg90","pricing_plan_id":"cebpf4jnsgd1na2vs0mg"},{"bike_id":"362dc044-2d86-4a5a-a43d-78d8f57d22c9","system_id":"levelo_inurba_marseille","lat":43.24073,"lon":5.37762,"is_reserved":false,"is_disabled":false,"rental_uris":{"android":"levelo://app?vid=362dc044-2d86-4a5a-a43d-78d8f57d22c9","ios":"levelo://app?vid=362dc044-2d86-4a5a-a43d-78d8f57d22c9"},"vehicle_type_id":"4","last_reported":1741353450,"current_range_meters":8800,"station_id":"ce4bhnp2rcd13ifvqgvg","pricing_plan_id":"cebpf4jnsgd1na2vs0mg"},{"bike_id":"2d340159-37c8-41dc-a62f-ca06729e55bc","system_id":"levelo_inurba_marseille","lat":43.32359,"lon":5.3677,"is_reserved":false,"is_disabled":false,"rental_uris":{"android":"levelo://app?vid=2d340159-37c8-41dc-a62f-ca06729e55bc","ios":"levelo://app?vid=2d340159-37c8-41dc-a62f-ca06729e55bc"},"vehicle_type_id":"4","last_reported":1741353450,"current_range_meters":8800,"station_id":"ce4bhsh2rcd13ifvqi2g","pricing_plan_id":"cebpf4jnsgd1na2vs0mg"},{"bike_id":"53a5c7da-c944-4cf7-8069-e88323a2e33b","system_id":"levelo_inurba_marseille","lat":43.30136,"lon":5.38779,"is_reserved":false,"is_disabled":false,"rental_uris":{"android":"levelo://app?vid=53a5c7da-c944-4cf7-8069-e88323a2e33b","ios":"levelo://app?vid=53a5c7da-c944-4cf7-8069-e88323a2e33b"},"vehicle_type_id":"4","last_reported":1741353450,"current_range_meters":9200,"station_id":"ce4bghh2rcd13ifvqb60","pricing_plan_id":"cebpf4jnsgd1na2vs0mg"},{"bike_id":"f19371b3-6375-4bb7-a058-81c03046b1a9","system_id":"levelo_inurba_marseille","lat":43.26563,"lon":5.39002,"is_reserved":false,"is_disabled":false,"rental_uris":{"android":"levelo://app?vid=f19371b3-6375-4bb7-a058-81c03046b1a9","ios":"levelo://app?vid=f19371b3-6375-4bb7-a058-81c03046b1a9"},"vehicle_type_id":"4","last_reported":1741353450,"current_range_meters":9200,"station_id":"ce4bhe12rcd13ifvqf30","pricing_plan_id":"cebpf4jnsgd1na2vs0mg"},{"bike_id":"28437508-fa41-4054-b93c-b2fb98fbe78d","system_id":"levelo_inurba_marseille","lat":43.27892,"lon":5.37997,"is_reserved":false,"is_disabled":false,"rental_uris":{"android":"levelo://app?vid=28437508-fa41-4054-b93c-b2fb98fbe78d","ios":"levelo://app?vid=28437508-fa41-4054-b93c-b2fb98fbe78d"},"vehicle_type_id":"4","last_reported":1741353450,"current_range_meters":9200,"station_id":"ce4bhf92rcd13ifvqf50","pricing_plan_id":"cebpf4jnsgd1na2vs0mg"},{"bike_id":"8aef80f6-d63a-4d5b-a709-5382d05dd4df","system_id":"levelo_inurba_marseille","lat":43.24829,"lon":5.37439,"is_reserved":false,"is_disabled":false,"rental_uris":{"android":"levelo://app?vid=8aef80f6-d63a-4d5b-a709-5382d05dd4df","ios":"levelo://app?vid=8aef80f6-d63a-4d5b-a709-5382d05dd4df"},"vehicle_type_id":"4","last_reported":1741353450,"current_range_meters":9200,"station_id":"ce4bhgh2rcd13ifvqfb0","pricing_plan_id":"cebpf4jnsgd1na2vs0mg"},{"bike_id":"7a60d2cb-3bf0-404d-8573-df878562c632","system_id":"levelo_inurba_marseille","lat":43.262,"lon":5.3794,"is_reserved":false,"is_disabled":false,"rental_uris":{"android":"levelo://app?vid=7a60d2cb-3bf0-404d-8573-df878562c632","ios":"levelo://app?vid=7a60d2cb-3bf0-404d-8573-df878562c632"},"vehicle_type_id":"4","last_reported":1741353450,"current_range_meters":9200,"station_id":"ce4bhjp2rcd13ifvqg90","pricing_plan_id":"cebpf4jnsgd1na2vs0mg"},{"bike_id":"af8c10a2-1094-41c0-8010-9e57b191eef9","system_id":"levelo_inurba_marseille","lat":43.33606,"lon":5.41023,"is_reserved":false,"is_disabled":false,"rental_uris":{"android":"levelo://app?vid=af8c10a2-1094-41c0-8010-9e57b191eef9","ios":"levelo://app?vid=af8c10a2-1094-41c0-8010-9e57b191eef9"},"vehicle_type_id":"4","last_reported":1741353450,"current_range_meters":9200,"station_id":"ce4bhqh2rcd13ifvqhmg","pricing_plan_id":"cebpf4jnsgd1na2vs0mg"},{"bike_id":"60de5551-a720-4749-9467-383ec6da13d7","system_id":"levelo_inurba_marseille","lat":43.33608,"lon":5.41038,"is_reserved":false,"is_disabled":false,"rental_uris":{"android":"levelo://app?vid=60de5551-a720-4749-9467-383ec6da13d7","ios":"levelo://app?vid=60de5551-a720-4749-9467-383ec6da13d7"},"vehicle_type_id":"4","last_reported":1741353450,"current_range_meters":9200,"station_id":"ce4bhqh2rcd13ifvqhmg","pricing_plan_id":"cebpf4jnsgd1na2vs0mg"},{"bike_id":"c60e6676-2738-45db-9d7d-8a984ca0c09b","system_id":"levelo_inurba_marseille","lat":43.32372,"lon":5.38877,"is_reserved":false,"is_disabled":false,"rental_uris":{"android":"levelo://app?vid=c60e6676-2738-45db-9d7d-8a984ca0c09b","ios":"levelo://app?vid=c60e6676-2738-45db-9d7d-8a984ca0c09b"},"vehicle_type_id":"4","last_reported":1741353450,"current_range_meters":9200,"station_id":"ce4bhqp2rcd13ifvqhog","pricing_plan_id":"cebpf4jnsgd1na2vs0mg"},{"bike_id":"87cc9b30-41d4-43f8-8c18-9e4a6c9a187d","system_id":"levelo_inurba_marseille","lat":43.32359,"lon":5.36755,"is_reserved":false,"is_disabled":false,"rental_uris":{"android":"levelo://app?vid=87cc9b30-41d4-43f8-8c18-9e4a6c9a187d","ios":"levelo://app?vid=87cc9b30-41d4-43f8-8c18-9e4a6c9a187d"},"vehicle_type_id":"4","last_reported":1741353450,"current_range_meters":9200,"station_id":"ce4bhsh2rcd13ifvqi2g","pricing_plan_id":"cebpf4jnsgd1na2vs0mg"},{"bike_id":"cec5a9d9-3269-4f40-8f68-02c828cdb767","system_id":"levelo_inurba_marseille","lat":43.29596,"lon":5.38098,"is_reserved":false,"is_disabled":false,"rental_uris":{"android":"levelo://app?vid=cec5a9d9-3269-4f40-8f68-02c828cdb767","ios":"levelo://app?vid=cec5a9d9-3269-4f40-8f68-02c828cdb767"},"vehicle_type_id":"4","last_reported":1741353450,"current_range_meters":9600,"station_id":"ce4bgl12rcd13ifvqbo0","pricing_plan_id":"cebpf4jnsgd1na2vs0mg"},{"bike_id":"1ad7ba79-c4e4-427a-b6a6-3be502e9fd00","system_id":"levelo_inurba_marseille","lat":43.26571,"lon":5.39001,"is_reserved":false,"is_disabled":false,"rental_uris":{"android":"levelo://app?vid=1ad7ba79-c4e4-427a-b6a6-3be502e9fd00","ios":"levelo://app?vid=1ad7ba79-c4e4-427a-b6a6-3be502e9fd00"},"vehicle_type_id":"4","last_reported":1741353450,"current_range_meters":9600,"station_id":"ce4bhe12rcd13ifvqf30","pricing_plan_id":"cebpf4jnsgd1na2vs0mg"},{"bike_id":"ed2e7aa1-1223-4251-9822-65cc08857cc2","system_id":"levelo_inurba_marseille","lat":43.2511,"lon":5.40325,"is_reserved":false,"is_disabled":false,"rental_uris":{"android":"levelo://app?vid=ed2e7aa1-1223-4251-9822-65cc08857cc2","ios":"levelo://app?vid=ed2e7aa1-1223-4251-9822-65cc08857cc2"},"vehicle_type_id":"4","last_reported":1741353450,"current_range_meters":9600,"station_id":"ce4bhlh2rcd13ifvqgig","pricing_plan_id":"cebpf4jnsgd1na2vs0mg"},{"bike_id":"412dd356-68f2-4570-8b6a-480af55b2e6a","system_id":"levelo_inurba_marseille","lat":43.28143,"lon":5.42626,"is_reserved":false,"is_disabled":false,"rental_uris":{"android":"levelo://app?vid=412dd356-68f2-4570-8b6a-480af55b2e6a","ios":"levelo://app?vid=412dd356-68f2-4570-8b6a-480af55b2e6a"},"vehicle_type_id":"4","last_reported":1741353450,"current_range_meters":9600,"station_id":"ce4bhnh2rcd13ifvqgug","pricing_plan_id":"cebpf4jnsgd1na2vs0mg"},{"bike_id":"3b40fc7a-09e5-43cd-af4a-867d41893975","system_id":"levelo_inurba_marseille","lat":43.29787,"lon":5.38108,"is_reserved":false,"is_disabled":false,"rental_uris":{"android":"levelo://app?vid=3b40fc7a-09e5-43cd-af4a-867d41893975","ios":"levelo://app?vid=3b40fc7a-09e5-43cd-af4a-867d41893975"},"vehicle_type_id":"4","last_reported":1741353450,"current_range_meters":10000,"station_id":"ce4bgip2rcd13ifvqbb0","pricing_plan_id":"cebpf4jnsgd1na2vs0mg"},{"bike_id":"a7e8bc7d-4983-4763-86bc-9b1548214877","system_id":"levelo_inurba_marseille","lat":43.3052,"lon":5.36723,"is_reserved":false,"is_disabled":false,"rental_uris":{"android":"levelo://app?vid=a7e8bc7d-4983-4763-86bc-9b1548214877","ios":"levelo://app?vid=a7e8bc7d-4983-4763-86bc-9b1548214877"},"vehicle_type_id":"4","last_reported":1741353450,"current_range_meters":10000,"station_id":"ce4bgrp2rcd13ifvqc9g","pricing_plan_id":"cebpf4jnsgd1na2vs0mg"},{"bike_id":"2dafe4c3-4c28-4c90-a34e-a2cb09c1c316","system_id":"levelo_inurba_marseille","lat":43.305704,"lon":5.365523,"is_reserved":false,"is_disabled":false,"rental_uris":{"android":"levelo://app?vid=2dafe4c3-4c28-4c90-a34e-a2cb09c1c316","ios":"levelo://app?vid=2dafe4c3-4c28-4c90-a34e-a2cb09c1c316"},"vehicle_type_id":"4","last_reported":1741353450,"current_range_meters":10000,"station_id":"ce4bgs12rcd13ifvqcag","pricing_plan_id":"cebpf4jnsgd1na2vs0mg"},{"bike_id":"b5332ce3-77d6-4ed1-84fb-ab81d3835e7b","system_id":"levelo_inurba_marseille","lat":43.25111,"lon":5.4032,"is_reserved":false,"is_disabled":false,"rental_uris":{"android":"levelo://app?vid=b5332ce3-77d6-4ed1-84fb-ab81d3835e7b","ios":"levelo://app?vid=b5332ce3-77d6-4ed1-84fb-ab81d3835e7b"},"vehicle_type_id":"4","last_reported":1741353450,"current_range_meters":10000,"station_id":"ce4bhlh2rcd13ifvqgig","pricing_plan_id":"cebpf4jnsgd1na2vs0mg"},{"bike_id":"0d33dccf-1372-4df6-9416-eeb9f17b8b78","system_id":"levelo_inurba_marseille","lat":43.24074,"lon":5.37744,"is_reserved":false,"is_disabled":false,"rental_uris":{"android":"levelo://app?vid=0d33dccf-1372-4df6-9416-eeb9f17b8b78","ios":"levelo://app?vid=0d33dccf-1372-4df6-9416-eeb9f17b8b78"},"vehicle_type_id":"4","last_reported":1741353450,"current_range_meters":10000,"station_id":"ce4bhnp2rcd13ifvqgvg","pricing_plan_id":"cebpf4jnsgd1na2vs0mg"},{"bike_id":"724bd415-8ca1-4a65-8802-3b5daf39c060","system_id":"levelo_inurba_marseille","lat":43.32042,"lon":5.41538,"is_reserved":false,"is_disabled":false,"rental_uris":{"android":"levelo://app?vid=724bd415-8ca1-4a65-8802-3b5daf39c060","ios":"levelo://app?vid=724bd415-8ca1-4a65-8802-3b5daf39c060"},"vehicle_type_id":"4","last_reported":1741353450,"current_range_meters":10000,"station_id":"ce4bhq92rcd13ifvqhkg","pricing_plan_id":"cebpf4jnsgd1na2vs0mg"},{"bike_id":"55f1a346-655d-4ceb-961f-e11c032b07e0","system_id":"levelo_inurba_marseille","lat":43.32702,"lon":5.4031,"is_reserved":false,"is_disabled":false,"rental_uris":{"android":"levelo://app?vid=55f1a346-655d-4ceb-961f-e11c032b07e0","ios":"levelo://app?vid=55f1a346-655d-4ceb-961f-e11c032b07e0"},"vehicle_type_id":"4","last_reported":1741353450,"current_range_meters":10800,"station_id":"","pricing_plan_id":"cebpf4jnsgd1na2vs0mg"},{"bike_id":"42323b44-4776-4993-88db-08c90d643018","system_id":"levelo_inurba_marseille","lat":43.30086,"lon":5.37679,"is_reserved":false,"is_disabled":false,"rental_uris":{"android":"levelo://app?vid=42323b44-4776-4993-88db-08c90d643018","ios":"levelo://app?vid=42323b44-4776-4993-88db-08c90d643018"},"vehicle_type_id":"4","last_reported":1741353450,"current_range_meters":10800,"station_id":"","pricing_plan_id":"cebpf4jnsgd1na2vs0mg"},{"bike_id":"f6a9d99b-40e1-4313-955e-fe1045af5dfd","system_id":"levelo_inurba_marseille","lat":43.27644,"lon":5.53058,"is_reserved":false,"is_disabled":false,"rental_uris":{"android":"levelo://app?vid=f6a9d99b-40e1-4313-955e-fe1045af5dfd","ios":"levelo://app?vid=f6a9d99b-40e1-4313-955e-fe1045af5dfd"},"vehicle_type_id":"4","last_reported":1741353450,"current_range_meters":10800,"station_id":"","pricing_plan_id":"cebpf4jnsgd1na2vs0mg"},{"bike_id":"e9895759-e2cb-4428-b95c-344254eab399","system_id":"levelo_inurba_marseille","lat":43.29527,"lon":5.39034,"is_reserved":false,"is_disabled":false,"rental_uris":{"android":"levelo://app?vid=e9895759-e2cb-4428-b95c-344254eab399","ios":"levelo://app?vid=e9895759-e2cb-4428-b95c-344254eab399"},"vehicle_type_id":"4","last_reported":1741353450,"current_range_meters":10800,"station_id":"ce4bh3p2rcd13ifvqdp0","pricing_plan_id":"cebpf4jnsgd1na2vs0mg"},{"bike_id":"63336a99-00d4-442d-b70a-2ddb48055c11","system_id":"levelo_inurba_marseille","lat":43.28267,"lon":5.3507,"is_reserved":false,"is_disabled":false,"rental_uris":{"android":"levelo://app?vid=63336a99-00d4-442d-b70a-2ddb48055c11","ios":"levelo://app?vid=63336a99-00d4-442d-b70a-2ddb48055c11"},"vehicle_type_id":"4","last_reported":1741353450,"current_range_meters":10800,"station_id":"ce4bhbp2rcd13ifvqerg","pricing_plan_id":"cebpf4jnsgd1na2vs0mg"},{"bike_id":"74115dde-800e-4416-963f-21ccb334f73c","system_id":"levelo_inurba_marseille","lat":43.28608,"lon":5.37069,"is_reserved":false,"is_disabled":false,"rental_uris":{"android":"levelo://app?vid=74115dde-800e-4416-963f-21ccb334f73c","ios":"levelo://app?vid=74115dde-800e-4416-963f-21ccb334f73c"},"vehicle_type_id":"4","last_reported":1741353450,"current_range_meters":10800,"station_id":"ce4bht12rcd13ifvqi60","pricing_plan_id":"cebpf4jnsgd1na2vs0mg"},{"bike_id":"6a1366c1-41ed-4dda-b62f-b12cda709bc4","system_id":"levelo_inurba_marseille","lat":43.32409,"lon":5.38851,"is_reserved":false,"is_disabled":false,"rental_uris":{"android":"levelo://app?vid=6a1366c1-41ed-4dda-b62f-b12cda709bc4","ios":"levelo://app?vid=6a1366c1-41ed-4dda-b62f-b12cda709bc4"},"vehicle_type_id":"4","last_reported":1741353450,"current_range_meters":11200,"station_id":"","pricing_plan_id":"cebpf4jnsgd1na2vs0mg"},{"bike_id":"99bc5722-6509-4c8d-b9ec-d8d4424bd12c","system_id":"levelo_inurba_marseille","lat":43.29919,"lon":5.37467,"is_reserved":false,"is_disabled":false,"rental_uris":{"android":"levelo://app?vid=99bc5722-6509-4c8d-b9ec-d8d4424bd12c","ios":"levelo://app?vid=99bc5722-6509-4c8d-b9ec-d8d4424bd12c"},"vehicle_type_id":"4","last_reported":1741353450,"current_range_meters":11200,"station_id":"ce4bgjh2rcd13ifvqbg0","pricing_plan_id":"cebpf4jnsgd1na2vs0mg"},{"bike_id":"fde79411-d136-4b74-a679-5c4aa329c19b","system_id":"levelo_inurba_marseille","lat":43.29594,"lon":5.38094,"is_reserved":false,"is_disabled":false,"rental_uris":{"android":"levelo://app?vid=fde79411-d136-4b74-a679-5c4aa329c19b","ios":"levelo://app?vid=fde79411-d136-4b74-a679-5c4aa329c19b"},"vehicle_type_id":"4","last_reported":1741353450,"current_range_meters":11200,"station_id":"ce4bgl12rcd13ifvqbo0","pricing_plan_id":"cebpf4jnsgd1na2vs0mg"},{"bike_id":"056af41c-494e-49fa-bb4c-4dc892ff0eda","system_id":"levelo_inurba_marseille","lat":43.30255,"lon":5.40058,"is_reserved":false,"is_disabled":false,"rental_uris":{"android":"levelo://app?vid=056af41c-494e-49fa-bb4c-4dc892ff0eda","ios":"levelo://app?vid=056af41c-494e-49fa-bb4c-4dc892ff0eda"},"vehicle_type_id":"4","last_reported":1741353450,"current_range_meters":11200,"station_id":"ce4bgvh2rcd13ifvqcs0","pricing_plan_id":"cebpf4jnsgd1na2vs0mg"},{"bike_id":"45f9b855-9f16-403f-bf12-5435b8351fde","system_id":"levelo_inurba_marseille","lat":43.3022,"lon":5.39471,"is_reserved":false,"is_disabled":false,"rental_uris":{"android":"levelo://app?vid=45f9b855-9f16-403f-bf12-5435b8351fde","ios":"levelo://app?vid=45f9b855-9f16-403f-bf12-5435b8351fde"},"vehicle_type_id":"4","last_reported":1741353450,"current_range_meters":11200,"station_id":"ce4bh0p2rcd13ifvqd70","pricing_plan_id":"cebpf4jnsgd1na2vs0mg"},{"bike_id":"bafc9a65-b06b-486d-b40e-79d32cf6926c","system_id":"levelo_inurba_marseille","lat":43.28411,"lon":5.37504,"is_reserved":false,"is_disabled":false,"rental_uris":{"android":"levelo://app?vid=bafc9a65-b06b-486d-b40e-79d32cf6926c","ios":"levelo://app?vid=bafc9a65-b06b-486d-b40e-79d32cf6926c"},"vehicle_type_id":"4","last_reported":1741353450,"current_range_meters":11200,"station_id":"ce4bh412rcd13ifvqds0","pricing_plan_id":"cebpf4jnsgd1na2vs0mg"},{"bike_id":"6eb36d94-2a08-4129-9978-c104d9d30c63","system_id":"levelo_inurba_marseille","lat":43.26199,"lon":5.3745,"is_reserved":false,"is_disabled":false,"rental_uris":{"android":"levelo://app?vid=6eb36d94-2a08-4129-9978-c104d9d30c63","ios":"levelo://app?vid=6eb36d94-2a08-4129-9978-c104d9d30c63"},"vehicle_type_id":"4","last_reported":1741353450,"current_range_meters":11200,"station_id":"ce4bhgp2rcd13ifvqfc0","pricing_plan_id":"cebpf4jnsgd1na2vs0mg"},{"bike_id":"e766505f-8ef0-4a36-af04-b993266060f1","system_id":"levelo_inurba_marseille","lat":43.27506,"lon":5.42455,"is_reserved":false,"is_disabled":false,"rental_uris":{"android":"levelo://app?vid=e766505f-8ef0-4a36-af04-b993266060f1","ios":"levelo://app?vid=e766505f-8ef0-4a36-af04-b993266060f1"},"vehicle_type_id":"4","last_reported":1741353450,"current_range_meters":11200,"station_id":"ce4bhn92rcd13ifvqgrg","pricing_plan_id":"cebpf4jnsgd1na2vs0mg"},{"bike_id":"80e67249-d783-49bb-9b26-d559274b7e12","system_id":"levelo_inurba_marseille","lat":43.32286,"lon":5.38277,"is_reserved":false,"is_disabled":false,"rental_uris":{"android":"levelo://app?vid=80e67249-d783-49bb-9b26-d559274b7e12","ios":"levelo://app?vid=80e67249-d783-49bb-9b26-d559274b7e12"},"vehicle_type_id":"4","last_reported":1741353450,"current_range_meters":11200,"station_id":"ce4bhr12rcd13ifvqhqg","pricing_plan_id":"cebpf4jnsgd1na2vs0mg"},{"bike_id":"52281daa-6397-4468-aa27-2584f579aca1","system_id":"levelo_inurba_marseille","lat":43.316207,"lon":5.378696,"is_reserved":false,"is_disabled":false,"rental_uris":{"android":"levelo://app?vid=52281daa-6397-4468-aa27-2584f579aca1","ios":"levelo://app?vid=52281daa-6397-4468-aa27-2584f579aca1"},"vehicle_type_id":"4","last_reported":1741353450,"current_range_meters":11200,"station_id":"ce4bhsp2rcd13ifvqi50","pricing_plan_id":"cebpf4jnsgd1na2vs0mg"},{"bike_id":"daa48c53-c5de-46aa-94fc-655cbd710c8c","system_id":"levelo_inurba_marseille","lat":43.22926,"lon":5.35396,"is_reserved":false,"is_disabled":false,"rental_uris":{"android":"levelo://app?vid=daa48c53-c5de-46aa-94fc-655cbd710c8c","ios":"levelo://app?vid=daa48c53-c5de-46aa-94fc-655cbd710c8c"},"vehicle_type_id":"4","last_reported":1741353450,"current_range_meters":11200,"station_id":"cpo3532slgdg3j2ikp40","pricing_plan_id":"cebpf4jnsgd1na2vs0mg"},{"bike_id":"d4fb8032-8005-4ddc-af86-c25cd5e9510b","system_id":"levelo_inurba_marseille","lat":43.22922,"lon":5.35384,"is_reserved":false,"is_disabled":false,"rental_uris":{"android":"levelo://app?vid=d4fb8032-8005-4ddc-af86-c25cd5e9510b","ios":"levelo://app?vid=d4fb8032-8005-4ddc-af86-c25cd5e9510b"},"vehicle_type_id":"4","last_reported":1741353450,"current_range_meters":11200,"station_id":"cpo3532slgdg3j2ikp40","pricing_plan_id":"cebpf4jnsgd1na2vs0mg"},{"bike_id":"801af9ec-611a-41a5-a293-f86b166cfe55","system_id":"levelo_inurba_marseille","lat":43.29304,"lon":5.37191,"is_reserved":false,"is_disabled":false,"rental_uris":{"android":"levelo://app?vid=801af9ec-611a-41a5-a293-f86b166cfe55","ios":"levelo://app?vid=801af9ec-611a-41a5-a293-f86b166cfe55"},"vehicle_type_id":"4","last_reported":1741353450,"current_range_meters":11600,"station_id":"ce4bgh92rcd13ifvqb40","pricing_plan_id":"cebpf4jnsgd1na2vs0mg"},{"bike_id":"8ad02207-40a0-416c-88a0-827eb3479d2d","system_id":"levelo_inurba_marseille","lat":43.30136,"lon":5.38779,"is_reserved":false,"is_disabled":false,"rental_uris":{"android":"levelo://app?vid=8ad02207-40a0-416c-88a0-827eb3479d2d","ios":"levelo://app?vid=8ad02207-40a0-416c-88a0-827eb3479d2d"},"vehicle_type_id":"4","last_reported":1741353450,"current_range_meters":11600,"station_id":"ce4bghh2rcd13ifvqb60","pricing_plan_id":"cebpf4jnsgd1na2vs0mg"},{"bike_id":"da6adee6-58f1-4c96-acad-50f8d6775b15","system_id":"levelo_inurba_marseille","lat":43.2979,"lon":5.38101,"is_reserved":false,"is_disabled":false,"rental_uris":{"android":"levelo://app?vid=da6adee6-58f1-4c96-acad-50f8d6775b15","ios":"levelo://app?vid=da6adee6-58f1-4c96-acad-50f8d6775b15"},"vehicle_type_id":"4","last_reported":1741353450,"current_range_meters":11600,"station_id":"ce4bgip2rcd13ifvqbb0","pricing_plan_id":"cebpf4jnsgd1na2vs0mg"},{"bike_id":"707f7ab7-3329-4bbe-a15e-b7a9d9e721c7","system_id":"levelo_inurba_marseille","lat":43.31235,"lon":5.36851,"is_reserved":false,"is_disabled":false,"rental_uris":{"android":"levelo://app?vid=707f7ab7-3329-4bbe-a15e-b7a9d9e721c7","ios":"levelo://app?vid=707f7ab7-3329-4bbe-a15e-b7a9d9e721c7"},"vehicle_type_id":"4","last_reported":1741353450,"current_range_meters":11600,"station_id":"ce4bgl92rcd13ifvqbq0","pricing_plan_id":"cebpf4jnsgd1na2vs0mg"},{"bike_id":"460ce6ff-4190-4f1b-b892-a4f944cbecfb","system_id":"levelo_inurba_marseille","lat":43.30905,"lon":5.36851,"is_reserved":false,"is_disabled":false,"rental_uris":{"android":"levelo://app?vid=460ce6ff-4190-4f1b-b892-a4f944cbecfb","ios":"levelo://app?vid=460ce6ff-4190-4f1b-b892-a4f944cbecfb"},"vehicle_type_id":"4","last_reported":1741353450,"current_range_meters":11600,"station_id":"ce4bgn92rcd13ifvqbvg","pricing_plan_id":"cebpf4jnsgd1na2vs0mg"},{"bike_id":"52f8fb82-ddb3-4634-bc24-c394e2aa5462","system_id":"levelo_inurba_marseille","lat":43.30306,"lon":5.36906,"is_reserved":false,"is_disabled":false,"rental_uris":{"android":"levelo://app?vid=52f8fb82-ddb3-4634-bc24-c394e2aa5462","ios":"levelo://app?vid=52f8fb82-ddb3-4634-bc24-c394e2aa5462"},"vehicle_type_id":"4","last_reported":1741353450,"current_range_meters":11600,"station_id":"ce4bgqh2rcd13ifvqc5g","pricing_plan_id":"cebpf4jnsgd1na2vs0mg"},{"bike_id":"f353b7e5-d901-4ebe-bebd-99092f3f7eb8","system_id":"levelo_inurba_marseille","lat":43.28486,"lon":5.38581,"is_reserved":false,"is_disabled":false,"rental_uris":{"android":"levelo://app?vid=f353b7e5-d901-4ebe-bebd-99092f3f7eb8","ios":"levelo://app?vid=f353b7e5-d901-4ebe-bebd-99092f3f7eb8"},"vehicle_type_id":"4","last_reported":1741353450,"current_range_meters":11600,"station_id":"ce4bh8p2rcd13ifvqeb0","pricing_plan_id":"cebpf4jnsgd1na2vs0mg"},{"bike_id":"db65588d-d9c3-4993-926d-70523c5c6858","system_id":"levelo_inurba_marseille","lat":43.240718,"lon":5.377568,"is_reserved":false,"is_disabled":false,"rental_uris":{"android":"levelo://app?vid=db65588d-d9c3-4993-926d-70523c5c6858","ios":"levelo://app?vid=db65588d-d9c3-4993-926d-70523c5c6858"},"vehicle_type_id":"4","last_reported":1741353450,"current_range_meters":11600,"station_id":"ce4bhnp2rcd13ifvqgvg","pricing_plan_id":"cebpf4jnsgd1na2vs0mg"},{"bike_id":"9da935d0-0941-44db-bb4f-7f7e582bd3d3","system_id":"levelo_inurba_marseille","lat":43.2417,"lon":5.36403,"is_reserved":false,"is_disabled":false,"rental_uris":{"android":"levelo://app?vid=9da935d0-0941-44db-bb4f-7f7e582bd3d3","ios":"levelo://app?vid=9da935d0-0941-44db-bb4f-7f7e582bd3d3"},"vehicle_type_id":"4","last_reported":1741353450,"current_range_meters":11600,"station_id":"cpo36qri1sfpv3e86is0","pricing_plan_id":"cebpf4jnsgd1na2vs0mg"},{"bike_id":"3949e300-2dbd-4203-aa58-eef0b1b0c774","system_id":"levelo_inurba_marseille","lat":43.33778,"lon":5.37452,"is_reserved":false,"is_disabled":false,"rental_uris":{"android":"levelo://app?vid=3949e300-2dbd-4203-aa58-eef0b1b0c774","ios":"levelo://app?vid=3949e300-2dbd-4203-aa58-eef0b1b0c774"},"vehicle_type_id":"4","last_reported":1741353450,"current_range_meters":12000,"station_id":"","pricing_plan_id":"cebpf4jnsgd1na2vs0mg"},{"bike_id":"79bac43d-1e84-42a0-9859-8f97931b5e63","system_id":"levelo_inurba_marseille","lat":43.29534,"lon":5.38549,"is_reserved":false,"is_disabled":false,"rental_uris":{"android":"levelo://app?vid=79bac43d-1e84-42a0-9859-8f97931b5e63","ios":"levelo://app?vid=79bac43d-1e84-42a0-9859-8f97931b5e63"},"vehicle_type_id":"4","last_reported":1741353450,"current_range_meters":12400,"station_id":"ce4bgih2rcd13ifvqba0","pricing_plan_id":"cebpf4jnsgd1na2vs0mg"},{"bike_id":"2903da06-81c2-4e93-afa3-bd7037de2a4e","system_id":"levelo_inurba_marseille","lat":43.29528,"lon":5.39043,"is_reserved":false,"is_disabled":false,"rental_uris":{"android":"levelo://app?vid=2903da06-81c2-4e93-afa3-bd7037de2a4e","ios":"levelo://app?vid=2903da06-81c2-4e93-afa3-bd7037de2a4e"},"vehicle_type_id":"4","last_reported":1741353450,"current_range_meters":12400,"station_id":"ce4bh3p2rcd13ifvqdp0","pricing_plan_id":"cebpf4jnsgd1na2vs0mg"},{"bike_id":"9c3f2636-c1e9-4085-8e62-5c37505521d7","system_id":"levelo_inurba_marseille","lat":43.27173,"lon":5.40997,"is_reserved":false,"is_disabled":false,"rental_uris":{"android":"levelo://app?vid=9c3f2636-c1e9-4085-8e62-5c37505521d7","ios":"levelo://app?vid=9c3f2636-c1e9-4085-8e62-5c37505521d7"},"vehicle_type_id":"4","last_reported":1741353450,"current_range_meters":12400,"station_id":"ce4bhl12rcd13ifvqgf0","pricing_plan_id":"cebpf4jnsgd1na2vs0mg"},{"bike_id":"6d7e0450-89ad-4e81-9f4f-61db2e3e009a","system_id":"levelo_inurba_marseille","lat":43.29899,"lon":5.43661,"is_reserved":false,"is_disabled":false,"rental_uris":{"android":"levelo://app?vid=6d7e0450-89ad-4e81-9f4f-61db2e3e009a","ios":"levelo://app?vid=6d7e0450-89ad-4e81-9f4f-61db2e3e009a"},"vehicle_type_id":"4","last_reported":1741353450,"current_range_meters":12400,"station_id":"ce4bhpp2rcd13ifvqhfg","pricing_plan_id":"cebpf4jnsgd1na2vs0mg"},{"bike_id":"99055eb8-7bb8-4b94-883f-41910cfde39e","system_id":"levelo_inurba_marseille","lat":43.34148,"lon":5.40905,"is_reserved":false,"is_disabled":false,"rental_uris":{"android":"levelo://app?vid=99055eb8-7bb8-4b94-883f-41910cfde39e","ios":"levelo://app?vid=99055eb8-7bb8-4b94-883f-41910cfde39e"},"vehicle_type_id":"4","last_reported":1741353450,"current_range_meters":12400,"station_id":"ce4bhqh2rcd13ifvqhlg","pricing_plan_id":"cebpf4jnsgd1na2vs0mg"},{"bike_id":"6f4034b1-e0e1-435f-9cf6-baad24e62aca","system_id":"levelo_inurba_marseille","lat":43.29521,"lon":5.38562,"is_reserved":false,"is_disabled":false,"rental_uris":{"android":"levelo://app?vid=6f4034b1-e0e1-435f-9cf6-baad24e62aca","ios":"levelo://app?vid=6f4034b1-e0e1-435f-9cf6-baad24e62aca"},"vehicle_type_id":"4","last_reported":1741353450,"current_range_meters":12800,"station_id":"ce4bgih2rcd13ifvqba0","pricing_plan_id":"cebpf4jnsgd1na2vs0mg"},{"bike_id":"8f697299-afde-422a-a3ba-d046c0741047","system_id":"levelo_inurba_marseille","lat":43.31103,"lon":5.37763,"is_reserved":false,"is_disabled":false,"rental_uris":{"android":"levelo://app?vid=8f697299-afde-422a-a3ba-d046c0741047","ios":"levelo://app?vid=8f697299-afde-422a-a3ba-d046c0741047"},"vehicle_type_id":"4","last_reported":1741353450,"current_range_meters":12800,"station_id":"ce4bgt92rcd13ifvqcg0","pricing_plan_id":"cebpf4jnsgd1na2vs0mg"},{"bike_id":"9bbad9d5-b70d-44c4-a43a-3f9228c68d4f","system_id":"levelo_inurba_marseille","lat":43.30604,"lon":5.39356,"is_reserved":false,"is_disabled":false,"rental_uris":{"android":"levelo://app?vid=9bbad9d5-b70d-44c4-a43a-3f9228c68d4f","ios":"levelo://app?vid=9bbad9d5-b70d-44c4-a43a-3f9228c68d4f"},"vehicle_type_id":"4","last_reported":1741353450,"current_range_meters":12800,"station_id":"ce4bh0p2rcd13ifvqd80","pricing_plan_id":"cebpf4jnsgd1na2vs0mg"},{"bike_id":"4ac452fc-7a27-4d76-a4d7-8ec820715c30","system_id":"levelo_inurba_marseille","lat":43.2953,"lon":5.39042,"is_reserved":false,"is_disabled":false,"rental_uris":{"android":"levelo://app?vid=4ac452fc-7a27-4d76-a4d7-8ec820715c30","ios":"levelo://app?vid=4ac452fc-7a27-4d76-a4d7-8ec820715c30"},"vehicle_type_id":"4","last_reported":1741353450,"current_range_meters":12800,"station_id":"ce4bh3p2rcd13ifvqdp0","pricing_plan_id":"cebpf4jnsgd1na2vs0mg"},{"bike_id":"e6472cf0-0ad7-491d-9b42-ba9a1b7210e2","system_id":"levelo_inurba_marseille","lat":43.29893,"lon":5.4368,"is_reserved":false,"is_disabled":false,"rental_uris":{"android":"levelo://app?vid=e6472cf0-0ad7-491d-9b42-ba9a1b7210e2","ios":"levelo://app?vid=e6472cf0-0ad7-491d-9b42-ba9a1b7210e2"},"vehicle_type_id":"4","last_reported":1741353450,"current_range_meters":12800,"station_id":"ce4bhpp2rcd13ifvqhfg","pricing_plan_id":"cebpf4jnsgd1na2vs0mg"},{"bike_id":"14d944f1-340c-4625-9e7c-9858f81a1ec8","system_id":"levelo_inurba_marseille","lat":43.24167,"lon":5.36399,"is_reserved":false,"is_disabled":false,"rental_uris":{"android":"levelo://app?vid=14d944f1-340c-4625-9e7c-9858f81a1ec8","ios":"levelo://app?vid=14d944f1-340c-4625-9e7c-9858f81a1ec8"},"vehicle_type_id":"4","last_reported":1741353450,"current_range_meters":12800,"station_id":"cpo36qri1sfpv3e86is0","pricing_plan_id":"cebpf4jnsgd1na2vs0mg"},{"bike_id":"6dc172cc-bafc-4383-897b-623fe4e9d3d1","system_id":"levelo_inurba_marseille","lat":43.30573,"lon":5.36546,"is_reserved":false,"is_disabled":false,"rental_uris":{"android":"levelo://app?vid=6dc172cc-bafc-4383-897b-623fe4e9d3d1","ios":"levelo://app?vid=6dc172cc-bafc-4383-897b-623fe4e9d3d1"},"vehicle_type_id":"4","last_reported":1741353450,"current_range_meters":13600,"station_id":"ce4bgs12rcd13ifvqcag","pricing_plan_id":"cebpf4jnsgd1na2vs0mg"},{"bike_id":"fd7938d0-6427-4c6d-b71e-646b176b8099","system_id":"levelo_inurba_marseille","lat":43.26551,"lon":5.37279,"is_reserved":false,"is_disabled":false,"rental_uris":{"android":"levelo://app?vid=fd7938d0-6427-4c6d-b71e-646b176b8099","ios":"levelo://app?vid=fd7938d0-6427-4c6d-b71e-646b176b8099"},"vehicle_type_id":"4","last_reported":1741353450,"current_range_meters":13600,"station_id":"ce4bhg12rcd13ifvqf70","pricing_plan_id":"cebpf4jnsgd1na2vs0mg"},{"bike_id":"20aaeac2-cc56-440b-8c49-c36b7f251adb","system_id":"levelo_inurba_marseille","lat":43.26501,"lon":5.39535,"is_reserved":false,"is_disabled":false,"rental_uris":{"android":"levelo://app?vid=20aaeac2-cc56-440b-8c49-c36b7f251adb","ios":"levelo://app?vid=20aaeac2-cc56-440b-8c49-c36b7f251adb"},"vehicle_type_id":"4","last_reported":1741353450,"current_range_meters":13600,"station_id":"ce4bhi12rcd13ifvqfq0","pricing_plan_id":"cebpf4jnsgd1na2vs0mg"},{"bike_id":"0e674cb4-f37d-4bd5-aaff-7ec953d386c6","system_id":"levelo_inurba_marseille","lat":43.2416,"lon":5.36401,"is_reserved":false,"is_disabled":false,"rental_uris":{"android":"levelo://app?vid=0e674cb4-f37d-4bd5-aaff-7ec953d386c6","ios":"levelo://app?vid=0e674cb4-f37d-4bd5-aaff-7ec953d386c6"},"vehicle_type_id":"4","last_reported":1741353450,"current_range_meters":13600,"station_id":"cpo36qri1sfpv3e86is0","pricing_plan_id":"cebpf4jnsgd1na2vs0mg"},{"bike_id":"c80f38a9-5fee-47bf-b7c1-6013180df327","system_id":"levelo_inurba_marseille","lat":43.29523,"lon":5.38544,"is_reserved":false,"is_disabled":false,"rental_uris":{"android":"levelo://app?vid=c80f38a9-5fee-47bf-b7c1-6013180df327","ios":"levelo://app?vid=c80f38a9-5fee-47bf-b7c1-6013180df327"},"vehicle_type_id":"4","last_reported":1741353450,"current_range_meters":14000,"station_id":"ce4bgih2rcd13ifvqba0","pricing_plan_id":"cebpf4jnsgd1na2vs0mg"},{"bike_id":"faee5b0d-235a-4af3-813f-46f6d750e794","system_id":"levelo_inurba_marseille","lat":43.29601,"lon":5.38105,"is_reserved":false,"is_disabled":false,"rental_uris":{"android":"levelo://app?vid=faee5b0d-235a-4af3-813f-46f6d750e794","ios":"levelo://app?vid=faee5b0d-235a-4af3-813f-46f6d750e794"},"vehicle_type_id":"4","last_reported":1741353450,"current_range_meters":14000,"station_id":"ce4bgl12rcd13ifvqbo0","pricing_plan_id":"cebpf4jnsgd1na2vs0mg"},{"bike_id":"a4b1b1a3-61d4-4174-bb2e-b172d6f28585","system_id":"levelo_inurba_marseille","lat":43.305942,"lon":5.393673,"is_reserved":false,"is_disabled":false,"rental_uris":{"android":"levelo://app?vid=a4b1b1a3-61d4-4174-bb2e-b172d6f28585","ios":"levelo://app?vid=a4b1b1a3-61d4-4174-bb2e-b172d6f28585"},"vehicle_type_id":"4","last_reported":1741353450,"current_range_meters":14000,"station_id":"ce4bh192rcd13ifvqdc0","pricing_plan_id":"cebpf4jnsgd1na2vs0mg"},{"bike_id":"7bb74981-8bac-49c1-90d7-e024af6ba1d5","system_id":"levelo_inurba_marseille","lat":43.27422,"lon":5.39418,"is_reserved":false,"is_disabled":false,"rental_uris":{"android":"levelo://app?vid=7bb74981-8bac-49c1-90d7-e024af6ba1d5","ios":"levelo://app?vid=7bb74981-8bac-49c1-90d7-e024af6ba1d5"},"vehicle_type_id":"4","last_reported":1741353450,"current_range_meters":14000,"station_id":"ce4bhdp2rcd13ifvqf20","pricing_plan_id":"cebpf4jnsgd1na2vs0mg"},{"bike_id":"264d3d19-ffb6-4f5b-92f2-70c0ba6bf915","system_id":"levelo_inurba_marseille","lat":43.26564,"lon":5.37289,"is_reserved":false,"is_disabled":false,"rental_uris":{"android":"levelo://app?vid=264d3d19-ffb6-4f5b-92f2-70c0ba6bf915","ios":"levelo://app?vid=264d3d19-ffb6-4f5b-92f2-70c0ba6bf915"},"vehicle_type_id":"4","last_reported":1741353450,"current_range_meters":14000,"station_id":"ce4bhg12rcd13ifvqf70","pricing_plan_id":"cebpf4jnsgd1na2vs0mg"},{"bike_id":"c5bae9f6-60d9-4cba-9a07-d0f28d4709da","system_id":"levelo_inurba_marseille","lat":43.28706,"lon":5.39992,"is_reserved":false,"is_disabled":false,"rental_uris":{"android":"levelo://app?vid=c5bae9f6-60d9-4cba-9a07-d0f28d4709da","ios":"levelo://app?vid=c5bae9f6-60d9-4cba-9a07-d0f28d4709da"},"vehicle_type_id":"4","last_reported":1741353450,"current_range_meters":14000,"station_id":"ce4bho92rcd13ifvqh3g","pricing_plan_id":"cebpf4jnsgd1na2vs0mg"},{"bike_id":"7372ba19-4949-453e-a20c-490c28817add","system_id":"levelo_inurba_marseille","lat":43.33784,"lon":5.37444,"is_reserved":false,"is_disabled":false,"rental_uris":{"android":"levelo://app?vid=7372ba19-4949-453e-a20c-490c28817add","ios":"levelo://app?vid=7372ba19-4949-453e-a20c-490c28817add"},"vehicle_type_id":"4","last_reported":1741353450,"current_range_meters":14400,"station_id":"","pricing_plan_id":"cebpf4jnsgd1na2vs0mg"},{"bike_id":"43e775a5-bfa2-4221-b6d2-a7086ccb2151","system_id":"levelo_inurba_marseille","lat":43.30459,"lon":5.37904,"is_reserved":false,"is_disabled":false,"rental_uris":{"android":"levelo://app?vid=43e775a5-bfa2-4221-b6d2-a7086ccb2151","ios":"levelo://app?vid=43e775a5-bfa2-4221-b6d2-a7086ccb2151"},"vehicle_type_id":"4","last_reported":1741353450,"current_range_meters":14400,"station_id":"ce4bgup2rcd13ifvqcn0","pricing_plan_id":"cebpf4jnsgd1na2vs0mg"},{"bike_id":"a924bcbf-3a57-49a8-8274-9eb911603b6a","system_id":"levelo_inurba_marseille","lat":43.31329,"lon":5.39692,"is_reserved":false,"is_disabled":false,"rental_uris":{"android":"levelo://app?vid=a924bcbf-3a57-49a8-8274-9eb911603b6a","ios":"levelo://app?vid=a924bcbf-3a57-49a8-8274-9eb911603b6a"},"vehicle_type_id":"4","last_reported":1741353450,"current_range_meters":14400,"station_id":"ce4bgvp2rcd13ifvqcu0","pricing_plan_id":"cebpf4jnsgd1na2vs0mg"},{"bike_id":"6ae77951-a909-4dfa-a933-35324bca41b7","system_id":"levelo_inurba_marseille","lat":43.25016,"lon":5.389,"is_reserved":false,"is_disabled":false,"rental_uris":{"android":"levelo://app?vid=6ae77951-a909-4dfa-a933-35324bca41b7","ios":"levelo://app?vid=6ae77951-a909-4dfa-a933-35324bca41b7"},"vehicle_type_id":"4","last_reported":1741353450,"current_range_meters":14400,"station_id":"ce4bhgp2rcd13ifvqfd0","pricing_plan_id":"cebpf4jnsgd1na2vs0mg"},{"bike_id":"0fae1422-e2b0-4582-b90b-5eb41a92fc90","system_id":"levelo_inurba_marseille","lat":43.25084,"lon":5.39527,"is_reserved":false,"is_disabled":false,"rental_uris":{"android":"levelo://app?vid=0fae1422-e2b0-4582-b90b-5eb41a92fc90","ios":"levelo://app?vid=0fae1422-e2b0-4582-b90b-5eb41a92fc90"},"vehicle_type_id":"4","last_reported":1741353450,"current_range_meters":14400,"station_id":"ce4bhm12rcd13ifvqgkg","pricing_plan_id":"cebpf4jnsgd1na2vs0mg"},{"bike_id":"e524bcef-a391-41b2-bad2-673eae53ea51","system_id":"levelo_inurba_marseille","lat":43.31728,"lon":5.43685,"is_reserved":false,"is_disabled":false,"rental_uris":{"android":"levelo://app?vid=e524bcef-a391-41b2-bad2-673eae53ea51","ios":"levelo://app?vid=e524bcef-a391-41b2-bad2-673eae53ea51"},"vehicle_type_id":"4","last_reported":1741353450,"current_range_meters":14400,"station_id":"ce4bhp92rcd13ifvqhcg","pricing_plan_id":"cebpf4jnsgd1na2vs0mg"},{"bike_id":"ca56f945-8b7e-44ff-8c48-3e0b263d9492","system_id":"levelo_inurba_marseille","lat":43.30884,"lon":5.36807,"is_reserved":false,"is_disabled":false,"rental_uris":{"android":"levelo://app?vid=ca56f945-8b7e-44ff-8c48-3e0b263d9492","ios":"levelo://app?vid=ca56f945-8b7e-44ff-8c48-3e0b263d9492"},"vehicle_type_id":"4","last_reported":1741353450,"current_range_meters":14800,"station_id":"ce4bgn92rcd13ifvqbvg","pricing_plan_id":"cebpf4jnsgd1na2vs0mg"},{"bike_id":"97d1125e-23bd-4986-a8c2-161949a8b183","system_id":"levelo_inurba_marseille","lat":43.30555,"lon":5.36538,"is_reserved":false,"is_disabled":false,"rental_uris":{"android":"levelo://app?vid=97d1125e-23bd-4986-a8c2-161949a8b183","ios":"levelo://app?vid=97d1125e-23bd-4986-a8c2-161949a8b183"},"vehicle_type_id":"4","last_reported":1741353450,"current_range_meters":14800,"station_id":"ce4bgs12rcd13ifvqcag","pricing_plan_id":"cebpf4jnsgd1na2vs0mg"},{"bike_id":"0c9d8ebc-e6f7-4efd-931c-e3f2ca5ac9a8","system_id":"levelo_inurba_marseille","lat":43.3026,"lon":5.40082,"is_reserved":false,"is_disabled":false,"rental_uris":{"android":"levelo://app?vid=0c9d8ebc-e6f7-4efd-931c-e3f2ca5ac9a8","ios":"levelo://app?vid=0c9d8ebc-e6f7-4efd-931c-e3f2ca5ac9a8"},"vehicle_type_id":"4","last_reported":1741353450,"current_range_meters":14800,"station_id":"ce4bgvh2rcd13ifvqcs0","pricing_plan_id":"cebpf4jnsgd1na2vs0mg"},{"bike_id":"065a6c82-6cd5-4e20-bca7-0972d5bafe58","system_id":"levelo_inurba_marseille","lat":43.24078,"lon":5.37757,"is_reserved":false,"is_disabled":false,"rental_uris":{"android":"levelo://app?vid=065a6c82-6cd5-4e20-bca7-0972d5bafe58","ios":"levelo://app?vid=065a6c82-6cd5-4e20-bca7-0972d5bafe58"},"vehicle_type_id":"4","last_reported":1741353450,"current_range_meters":14800,"station_id":"ce4bhnp2rcd13ifvqgvg","pricing_plan_id":"cebpf4jnsgd1na2vs0mg"},{"bike_id":"8a90ef27-fe32-443f-8845-c2a1c9a18a4e","system_id":"levelo_inurba_marseille","lat":43.31878,"lon":5.40735,"is_reserved":false,"is_disabled":false,"rental_uris":{"android":"levelo://app?vid=8a90ef27-fe32-443f-8845-c2a1c9a18a4e","ios":"levelo://app?vid=8a90ef27-fe32-443f-8845-c2a1c9a18a4e"},"vehicle_type_id":"4","last_reported":1741353450,"current_range_meters":14800,"station_id":"ce4bhq12rcd13ifvqhig","pricing_plan_id":"cebpf4jnsgd1na2vs0mg"},{"bike_id":"8ca01a57-7f25-43a5-9ebc-4c0b2bfe3e12","system_id":"levelo_inurba_marseille","lat":43.33613,"lon":5.41029,"is_reserved":false,"is_disabled":false,"rental_uris":{"android":"levelo://app?vid=8ca01a57-7f25-43a5-9ebc-4c0b2bfe3e12","ios":"levelo://app?vid=8ca01a57-7f25-43a5-9ebc-4c0b2bfe3e12"},"vehicle_type_id":"4","last_reported":1741353450,"current_range_meters":14800,"station_id":"ce4bhqh2rcd13ifvqhmg","pricing_plan_id":"cebpf4jnsgd1na2vs0mg"},{"bike_id":"db1c7047-7b9f-4b56-96ef-3b289cb537df","system_id":"levelo_inurba_marseille","lat":43.308244,"lon":5.374054,"is_reserved":false,"is_disabled":false,"rental_uris":{"android":"levelo://app?vid=db1c7047-7b9f-4b56-96ef-3b289cb537df","ios":"levelo://app?vid=db1c7047-7b9f-4b56-96ef-3b289cb537df"},"vehicle_type_id":"4","last_reported":1741353450,"current_range_meters":15200,"station_id":"","pricing_plan_id":"cebpf4jnsgd1na2vs0mg"},{"bike_id":"b1e2d67c-0776-4910-8485-0f3f1fbe7a49","system_id":"levelo_inurba_marseille","lat":43.2959,"lon":5.38087,"is_reserved":false,"is_disabled":false,"rental_uris":{"android":"levelo://app?vid=b1e2d67c-0776-4910-8485-0f3f1fbe7a49","ios":"levelo://app?vid=b1e2d67c-0776-4910-8485-0f3f1fbe7a49"},"vehicle_type_id":"4","last_reported":1741353450,"current_range_meters":15200,"station_id":"ce4bgl12rcd13ifvqbo0","pricing_plan_id":"cebpf4jnsgd1na2vs0mg"},{"bike_id":"eeb993f7-e96f-4f58-9d1f-dbdebd89ab70","system_id":"levelo_inurba_marseille","lat":43.25106,"lon":5.40326,"is_reserved":false,"is_disabled":false,"rental_uris":{"android":"levelo://app?vid=eeb993f7-e96f-4f58-9d1f-dbdebd89ab70","ios":"levelo://app?vid=eeb993f7-e96f-4f58-9d1f-dbdebd89ab70"},"vehicle_type_id":"4","last_reported":1741353450,"current_range_meters":15200,"station_id":"ce4bhlh2rcd13ifvqgig","pricing_plan_id":"cebpf4jnsgd1na2vs0mg"},{"bike_id":"e79dc040-4a1d-4ad1-bf6c-8396f32051ce","system_id":"levelo_inurba_marseille","lat":43.2815,"lon":5.42649,"is_reserved":false,"is_disabled":false,"rental_uris":{"android":"levelo://app?vid=e79dc040-4a1d-4ad1-bf6c-8396f32051ce","ios":"levelo://app?vid=e79dc040-4a1d-4ad1-bf6c-8396f32051ce"},"vehicle_type_id":"4","last_reported":1741353450,"current_range_meters":15200,"station_id":"ce4bhnh2rcd13ifvqgug","pricing_plan_id":"cebpf4jnsgd1na2vs0mg"},{"bike_id":"bde30f3f-a693-4ade-8091-62a0d1ad9df2","system_id":"levelo_inurba_marseille","lat":43.3091,"lon":5.37219,"is_reserved":false,"is_disabled":false,"rental_uris":{"android":"levelo://app?vid=bde30f3f-a693-4ade-8091-62a0d1ad9df2","ios":"levelo://app?vid=bde30f3f-a693-4ade-8091-62a0d1ad9df2"},"vehicle_type_id":"4","last_reported":1741353450,"current_range_meters":16000,"station_id":"ce4bguh2rcd13ifvqckg","pricing_plan_id":"cebpf4jnsgd1na2vs0mg"},{"bike_id":"30237378-bcf4-4c51-a7f0-a418a4e6021c","system_id":"levelo_inurba_marseille","lat":43.30466,"lon":5.37906,"is_reserved":false,"is_disabled":false,"rental_uris":{"android":"levelo://app?vid=30237378-bcf4-4c51-a7f0-a418a4e6021c","ios":"levelo://app?vid=30237378-bcf4-4c51-a7f0-a418a4e6021c"},"vehicle_type_id":"4","last_reported":1741353450,"current_range_meters":16000,"station_id":"ce4bgup2rcd13ifvqcn0","pricing_plan_id":"cebpf4jnsgd1na2vs0mg"},{"bike_id":"1a20bbc5-8764-4791-8ec5-719477d304ce","system_id":"levelo_inurba_marseille","lat":43.30311,"lon":5.40448,"is_reserved":false,"is_disabled":false,"rental_uris":{"android":"levelo://app?vid=1a20bbc5-8764-4791-8ec5-719477d304ce","ios":"levelo://app?vid=1a20bbc5-8764-4791-8ec5-719477d304ce"},"vehicle_type_id":"4","last_reported":1741353450,"current_range_meters":16000,"station_id":"ce4bh012rcd13ifvqd10","pricing_plan_id":"cebpf4jnsgd1na2vs0mg"},{"bike_id":"c33a8483-45d6-48b0-93b0-066c45377e7f","system_id":"levelo_inurba_marseille","lat":43.26217,"lon":5.37451,"is_reserved":false,"is_disabled":false,"rental_uris":{"android":"levelo://app?vid=c33a8483-45d6-48b0-93b0-066c45377e7f","ios":"levelo://app?vid=c33a8483-45d6-48b0-93b0-066c45377e7f"},"vehicle_type_id":"4","last_reported":1741353450,"current_range_meters":16000,"station_id":"ce4bhgp2rcd13ifvqfc0","pricing_plan_id":"cebpf4jnsgd1na2vs0mg"},{"bike_id":"a25e1aba-0551-4010-9c12-e65da05051b1","system_id":"levelo_inurba_marseille","lat":43.27072,"lon":5.42271,"is_reserved":false,"is_disabled":false,"rental_uris":{"android":"levelo://app?vid=a25e1aba-0551-4010-9c12-e65da05051b1","ios":"levelo://app?vid=a25e1aba-0551-4010-9c12-e65da05051b1"},"vehicle_type_id":"4","last_reported":1741353450,"current_range_meters":16000,"station_id":"ce4bhk92rcd13ifvqgb0","pricing_plan_id":"cebpf4jnsgd1na2vs0mg"},{"bike_id":"9b8789be-c150-4679-b8ba-e1d5e4639da2","system_id":"levelo_inurba_marseille","lat":43.25699,"lon":5.411,"is_reserved":false,"is_disabled":false,"rental_uris":{"android":"levelo://app?vid=9b8789be-c150-4679-b8ba-e1d5e4639da2","ios":"levelo://app?vid=9b8789be-c150-4679-b8ba-e1d5e4639da2"},"vehicle_type_id":"4","last_reported":1741353450,"current_range_meters":16000,"station_id":"ce4bhkp2rcd13ifvqgd0","pricing_plan_id":"cebpf4jnsgd1na2vs0mg"},{"bike_id":"37c795b7-c172-41a1-a38f-2f25494fb3e3","system_id":"levelo_inurba_marseille","lat":43.25923,"lon":5.40881,"is_reserved":false,"is_disabled":false,"rental_uris":{"android":"levelo://app?vid=37c795b7-c172-41a1-a38f-2f25494fb3e3","ios":"levelo://app?vid=37c795b7-c172-41a1-a38f-2f25494fb3e3"},"vehicle_type_id":"4","last_reported":1741353450,"current_range_meters":16000,"station_id":"ce4bhm92rcd13ifvqglg","pricing_plan_id":"cebpf4jnsgd1na2vs0mg"},{"bike_id":"28dc7432-62a1-4555-b8f3-869e3c53e0f4","system_id":"levelo_inurba_marseille","lat":43.24074,"lon":5.37761,"is_reserved":false,"is_disabled":false,"rental_uris":{"android":"levelo://app?vid=28dc7432-62a1-4555-b8f3-869e3c53e0f4","ios":"levelo://app?vid=28dc7432-62a1-4555-b8f3-869e3c53e0f4"},"vehicle_type_id":"4","last_reported":1741353450,"current_range_meters":16000,"station_id":"ce4bhnp2rcd13ifvqgvg","pricing_plan_id":"cebpf4jnsgd1na2vs0mg"},{"bike_id":"0eb0b702-8c5c-488b-aa56-7b0550e21596","system_id":"levelo_inurba_marseille","lat":43.24071,"lon":5.37755,"is_reserved":false,"is_disabled":false,"rental_uris":{"android":"levelo://app?vid=0eb0b702-8c5c-488b-aa56-7b0550e21596","ios":"levelo://app?vid=0eb0b702-8c5c-488b-aa56-7b0550e21596"},"vehicle_type_id":"4","last_reported":1741353450,"current_range_meters":16000,"station_id":"ce4bhnp2rcd13ifvqgvg","pricing_plan_id":"cebpf4jnsgd1na2vs0mg"},{"bike_id":"ac4e37af-1ba4-43ce-aa86-7cd5e40775ae","system_id":"levelo_inurba_marseille","lat":43.29525,"lon":5.42306,"is_reserved":false,"is_disabled":false,"rental_uris":{"android":"levelo://app?vid=ac4e37af-1ba4-43ce-aa86-7cd5e40775ae","ios":"levelo://app?vid=ac4e37af-1ba4-43ce-aa86-7cd5e40775ae"},"vehicle_type_id":"4","last_reported":1741353450,"current_range_meters":16000,"station_id":"ce4bhph2rcd13ifvqhdg","pricing_plan_id":"cebpf4jnsgd1na2vs0mg"},{"bike_id":"b1d03295-5a4c-4b8b-ad8e-3dbefaa793f2","system_id":"levelo_inurba_marseille","lat":43.23199,"lon":5.35552,"is_reserved":false,"is_disabled":false,"rental_uris":{"android":"levelo://app?vid=b1d03295-5a4c-4b8b-ad8e-3dbefaa793f2","ios":"levelo://app?vid=b1d03295-5a4c-4b8b-ad8e-3dbefaa793f2"},"vehicle_type_id":"4","last_reported":1741353450,"current_range_meters":16000,"station_id":"ce4bhu92rcd13ifvqi70","pricing_plan_id":"cebpf4jnsgd1na2vs0mg"},{"bike_id":"8bea2b01-d981-4506-b7ac-b9bfd3015097","system_id":"levelo_inurba_marseille","lat":43.297943,"lon":5.380833,"is_reserved":false,"is_disabled":false,"rental_uris":{"android":"levelo://app?vid=8bea2b01-d981-4506-b7ac-b9bfd3015097","ios":"levelo://app?vid=8bea2b01-d981-4506-b7ac-b9bfd3015097"},"vehicle_type_id":"4","last_reported":1741353450,"current_range_meters":16400,"station_id":"ce4bgip2rcd13ifvqbb0","pricing_plan_id":"cebpf4jnsgd1na2vs0mg"},{"bike_id":"d0b0db61-80d1-44dc-b99d-80a98fa75946","system_id":"levelo_inurba_marseille","lat":43.29586,"lon":5.38101,"is_reserved":false,"is_disabled":false,"rental_uris":{"android":"levelo://app?vid=d0b0db61-80d1-44dc-b99d-80a98fa75946","ios":"levelo://app?vid=d0b0db61-80d1-44dc-b99d-80a98fa75946"},"vehicle_type_id":"4","last_reported":1741353450,"current_range_meters":16400,"station_id":"ce4bgl12rcd13ifvqbo0","pricing_plan_id":"cebpf4jnsgd1na2vs0mg"},{"bike_id":"25db000e-d19c-4398-ae97-e9e1deee0744","system_id":"levelo_inurba_marseille","lat":43.29758,"lon":5.37108,"is_reserved":false,"is_disabled":false,"rental_uris":{"android":"levelo://app?vid=25db000e-d19c-4398-ae97-e9e1deee0744","ios":"levelo://app?vid=25db000e-d19c-4398-ae97-e9e1deee0744"},"vehicle_type_id":"4","last_reported":1741353450,"current_range_meters":16400,"station_id":"ce4bgop2rcd13ifvqc1g","pricing_plan_id":"cebpf4jnsgd1na2vs0mg"},{"bike_id":"23675f06-efd0-4c51-aba7-74b02af7980e","system_id":"levelo_inurba_marseille","lat":43.28851,"lon":5.39319,"is_reserved":false,"is_disabled":false,"rental_uris":{"android":"levelo://app?vid=23675f06-efd0-4c51-aba7-74b02af7980e","ios":"levelo://app?vid=23675f06-efd0-4c51-aba7-74b02af7980e"},"vehicle_type_id":"4","last_reported":1741353450,"current_range_meters":16400,"station_id":"ce4bh2p2rcd13ifvqdi0","pricing_plan_id":"cebpf4jnsgd1na2vs0mg"},{"bike_id":"523dd7c5-08de-4faa-af09-359a3efdba9c","system_id":"levelo_inurba_marseille","lat":43.24178,"lon":5.39709,"is_reserved":false,"is_disabled":false,"rental_uris":{"android":"levelo://app?vid=523dd7c5-08de-4faa-af09-359a3efdba9c","ios":"levelo://app?vid=523dd7c5-08de-4faa-af09-359a3efdba9c"},"vehicle_type_id":"4","last_reported":1741353450,"current_range_meters":16400,"station_id":"ce4bhn12rcd13ifvqgpg","pricing_plan_id":"cebpf4jnsgd1na2vs0mg"},{"bike_id":"34fca5e7-8353-4d68-89e6-b1d671353da7","system_id":"levelo_inurba_marseille","lat":43.323656,"lon":5.388794,"is_reserved":false,"is_disabled":false,"rental_uris":{"android":"levelo://app?vid=34fca5e7-8353-4d68-89e6-b1d671353da7","ios":"levelo://app?vid=34fca5e7-8353-4d68-89e6-b1d671353da7"},"vehicle_type_id":"4","last_reported":1741353450,"current_range_meters":16400,"station_id":"ce4bhqp2rcd13ifvqhog","pricing_plan_id":"cebpf4jnsgd1na2vs0mg"},{"bike_id":"35063509-0941-41df-a575-b642e7ac37f1","system_id":"levelo_inurba_marseille","lat":43.28724,"lon":5.36102,"is_reserved":false,"is_disabled":false,"rental_uris":{"android":"levelo://app?vid=35063509-0941-41df-a575-b642e7ac37f1","ios":"levelo://app?vid=35063509-0941-41df-a575-b642e7ac37f1"},"vehicle_type_id":"4","last_reported":1741353450,"current_range_meters":16400,"station_id":"cki0cbj6b192h4jlfktg","pricing_plan_id":"cebpf4jnsgd1na2vs0mg"},{"bike_id":"f310cd65-c3ee-4e81-98eb-21d466a2d77c","system_id":"levelo_inurba_marseille","lat":43.3015,"lon":5.38092,"is_reserved":false,"is_disabled":false,"rental_uris":{"android":"levelo://app?vid=f310cd65-c3ee-4e81-98eb-21d466a2d77c","ios":"levelo://app?vid=f310cd65-c3ee-4e81-98eb-21d466a2d77c"},"vehicle_type_id":"4","last_reported":1741353450,"current_range_meters":16800,"station_id":"ce4bgjp2rcd13ifvqbh0","pricing_plan_id":"cebpf4jnsgd1na2vs0mg"},{"bike_id":"ac3ecb1f-3502-4da4-92e0-b38c56459c1f","system_id":"levelo_inurba_marseille","lat":43.29097,"lon":5.38125,"is_reserved":false,"is_disabled":false,"rental_uris":{"android":"levelo://app?vid=ac3ecb1f-3502-4da4-92e0-b38c56459c1f","ios":"levelo://app?vid=ac3ecb1f-3502-4da4-92e0-b38c56459c1f"},"vehicle_type_id":"4","last_reported":1741353450,"current_range_meters":16800,"station_id":"ce4bh512rcd13ifvqe2g","pricing_plan_id":"cebpf4jnsgd1na2vs0mg"},{"bike_id":"2bd6c752-d5cd-47c3-a83d-7d783a91d2b2","system_id":"levelo_inurba_marseille","lat":43.25002,"lon":5.38918,"is_reserved":false,"is_disabled":false,"rental_uris":{"android":"levelo://app?vid=2bd6c752-d5cd-47c3-a83d-7d783a91d2b2","ios":"levelo://app?vid=2bd6c752-d5cd-47c3-a83d-7d783a91d2b2"},"vehicle_type_id":"4","last_reported":1741353450,"current_range_meters":16800,"station_id":"ce4bhgp2rcd13ifvqfd0","pricing_plan_id":"cebpf4jnsgd1na2vs0mg"},{"bike_id":"c91f0db7-3f8a-45c8-958f-0c73ec947eb7","system_id":"levelo_inurba_marseille","lat":43.25497,"lon":5.37654,"is_reserved":false,"is_disabled":false,"rental_uris":{"android":"levelo://app?vid=c91f0db7-3f8a-45c8-958f-0c73ec947eb7","ios":"levelo://app?vid=c91f0db7-3f8a-45c8-958f-0c73ec947eb7"},"vehicle_type_id":"4","last_reported":1741353450,"current_range_meters":16800,"station_id":"ce4bhh12rcd13ifvqff0","pricing_plan_id":"cebpf4jnsgd1na2vs0mg"},{"bike_id":"8c2ab5a7-da7b-40d2-a6e8-9b9702a261ea","system_id":"levelo_inurba_marseille","lat":43.284693,"lon":5.358847,"is_reserved":false,"is_disabled":false,"rental_uris":{"android":"levelo://app?vid=8c2ab5a7-da7b-40d2-a6e8-9b9702a261ea","ios":"levelo://app?vid=8c2ab5a7-da7b-40d2-a6e8-9b9702a261ea"},"vehicle_type_id":"4","last_reported":1741353450,"current_range_meters":16800,"station_id":"ce4bhl92rcd13ifvqghg","pricing_plan_id":"cebpf4jnsgd1na2vs0mg"},{"bike_id":"f8c55578-540c-423b-a9d7-2d8d021340c0","system_id":"levelo_inurba_marseille","lat":43.27492,"lon":5.42449,"is_reserved":false,"is_disabled":false,"rental_uris":{"android":"levelo://app?vid=f8c55578-540c-423b-a9d7-2d8d021340c0","ios":"levelo://app?vid=f8c55578-540c-423b-a9d7-2d8d021340c0"},"vehicle_type_id":"4","last_reported":1741353450,"current_range_meters":16800,"station_id":"ce4bhn92rcd13ifvqgrg","pricing_plan_id":"cebpf4jnsgd1na2vs0mg"},{"bike_id":"b2c2514d-58df-4080-9acc-0a3325c87525","system_id":"levelo_inurba_marseille","lat":43.323632,"lon":5.367586,"is_reserved":false,"is_disabled":false,"rental_uris":{"android":"levelo://app?vid=b2c2514d-58df-4080-9acc-0a3325c87525","ios":"levelo://app?vid=b2c2514d-58df-4080-9acc-0a3325c87525"},"vehicle_type_id":"4","last_reported":1741353450,"current_range_meters":16800,"station_id":"ce4bhsh2rcd13ifvqi2g","pricing_plan_id":"cebpf4jnsgd1na2vs0mg"},{"bike_id":"574de7c3-9b22-4d8c-a232-74de5c796cf3","system_id":"levelo_inurba_marseille","lat":43.28604,"lon":5.37067,"is_reserved":false,"is_disabled":false,"rental_uris":{"android":"levelo://app?vid=574de7c3-9b22-4d8c-a232-74de5c796cf3","ios":"levelo://app?vid=574de7c3-9b22-4d8c-a232-74de5c796cf3"},"vehicle_type_id":"4","last_reported":1741353450,"current_range_meters":16800,"station_id":"ce4bht12rcd13ifvqi60","pricing_plan_id":"cebpf4jnsgd1na2vs0mg"},{"bike_id":"12d3b10e-5dbe-469f-a99e-64937e202e64","system_id":"levelo_inurba_marseille","lat":43.29798,"lon":5.38112,"is_reserved":false,"is_disabled":false,"rental_uris":{"android":"levelo://app?vid=12d3b10e-5dbe-469f-a99e-64937e202e64","ios":"levelo://app?vid=12d3b10e-5dbe-469f-a99e-64937e202e64"},"vehicle_type_id":"4","last_reported":1741353450,"current_range_meters":17200,"station_id":"ce4bgip2rcd13ifvqbb0","pricing_plan_id":"cebpf4jnsgd1na2vs0mg"},{"bike_id":"c223036a-82c7-462b-962e-64818e6a180b","system_id":"levelo_inurba_marseille","lat":43.30533,"lon":5.36543,"is_reserved":false,"is_disabled":false,"rental_uris":{"android":"levelo://app?vid=c223036a-82c7-462b-962e-64818e6a180b","ios":"levelo://app?vid=c223036a-82c7-462b-962e-64818e6a180b"},"vehicle_type_id":"4","last_reported":1741353450,"current_range_meters":17200,"station_id":"ce4bgs12rcd13ifvqcag","pricing_plan_id":"cebpf4jnsgd1na2vs0mg"},{"bike_id":"22b88210-4ae4-4bc7-81fc-4345259940fc","system_id":"levelo_inurba_marseille","lat":43.319728,"lon":5.412771,"is_reserved":false,"is_disabled":false,"rental_uris":{"android":"levelo://app?vid=22b88210-4ae4-4bc7-81fc-4345259940fc","ios":"levelo://app?vid=22b88210-4ae4-4bc7-81fc-4345259940fc"},"vehicle_type_id":"4","last_reported":1741353450,"current_range_meters":17200,"station_id":"ce4bh092rcd13ifvqd30","pricing_plan_id":"cebpf4jnsgd1na2vs0mg"},{"bike_id":"4701075b-7826-409a-ae31-7e14fd1cc4c1","system_id":"levelo_inurba_marseille","lat":43.29413,"lon":5.38633,"is_reserved":false,"is_disabled":false,"rental_uris":{"android":"levelo://app?vid=4701075b-7826-409a-ae31-7e14fd1cc4c1","ios":"levelo://app?vid=4701075b-7826-409a-ae31-7e14fd1cc4c1"},"vehicle_type_id":"4","last_reported":1741353450,"current_range_meters":17200,"station_id":"ce4bh2h2rcd13ifvqdh0","pricing_plan_id":"cebpf4jnsgd1na2vs0mg"},{"bike_id":"780a36c0-1795-41d3-8e2d-f101a7b1a3f3","system_id":"levelo_inurba_marseille","lat":43.24387,"lon":5.37061,"is_reserved":false,"is_disabled":false,"rental_uris":{"android":"levelo://app?vid=780a36c0-1795-41d3-8e2d-f101a7b1a3f3","ios":"levelo://app?vid=780a36c0-1795-41d3-8e2d-f101a7b1a3f3"},"vehicle_type_id":"4","last_reported":1741353450,"current_range_meters":17200,"station_id":"ce4bhhh2rcd13ifvqfk0","pricing_plan_id":"cebpf4jnsgd1na2vs0mg"},{"bike_id":"b074c098-105a-483f-9325-0896897af1e3","system_id":"levelo_inurba_marseille","lat":43.23208,"lon":5.39967,"is_reserved":false,"is_disabled":false,"rental_uris":{"android":"levelo://app?vid=b074c098-105a-483f-9325-0896897af1e3","ios":"levelo://app?vid=b074c098-105a-483f-9325-0896897af1e3"},"vehicle_type_id":"4","last_reported":1741353450,"current_range_meters":17200,"station_id":"ce4bhn12rcd13ifvqgqg","pricing_plan_id":"cebpf4jnsgd1na2vs0mg"},{"bike_id":"b2e60216-7aae-4346-84e2-a524940b8816","system_id":"levelo_inurba_marseille","lat":43.27807,"lon":5.40719,"is_reserved":false,"is_disabled":false,"rental_uris":{"android":"levelo://app?vid=b2e60216-7aae-4346-84e2-a524940b8816","ios":"levelo://app?vid=b2e60216-7aae-4346-84e2-a524940b8816"},"vehicle_type_id":"4","last_reported":1741353450,"current_range_meters":17200,"station_id":"ce4bhnh2rcd13ifvqgtg","pricing_plan_id":"cebpf4jnsgd1na2vs0mg"},{"bike_id":"59d9095a-96c6-41aa-9f57-14d46bf30d8c","system_id":"levelo_inurba_marseille","lat":43.24075,"lon":5.37758,"is_reserved":false,"is_disabled":false,"rental_uris":{"android":"levelo://app?vid=59d9095a-96c6-41aa-9f57-14d46bf30d8c","ios":"levelo://app?vid=59d9095a-96c6-41aa-9f57-14d46bf30d8c"},"vehicle_type_id":"4","last_reported":1741353450,"current_range_meters":17200,"station_id":"ce4bhnp2rcd13ifvqgvg","pricing_plan_id":"cebpf4jnsgd1na2vs0mg"},{"bike_id":"1ff664cb-f378-4a6c-b3c1-b47ee25a2174","system_id":"levelo_inurba_marseille","lat":43.32364,"lon":5.38877,"is_reserved":false,"is_disabled":false,"rental_uris":{"android":"levelo://app?vid=1ff664cb-f378-4a6c-b3c1-b47ee25a2174","ios":"levelo://app?vid=1ff664cb-f378-4a6c-b3c1-b47ee25a2174"},"vehicle_type_id":"4","last_reported":1741353450,"current_range_meters":17200,"station_id":"ce4bhqp2rcd13ifvqhog","pricing_plan_id":"cebpf4jnsgd1na2vs0mg"},{"bike_id":"f68f8d47-bf4d-49c0-939b-9f85f216adfd","system_id":"levelo_inurba_marseille","lat":43.29787,"lon":5.38115,"is_reserved":false,"is_disabled":false,"rental_uris":{"android":"levelo://app?vid=f68f8d47-bf4d-49c0-939b-9f85f216adfd","ios":"levelo://app?vid=f68f8d47-bf4d-49c0-939b-9f85f216adfd"},"vehicle_type_id":"4","last_reported":1741353450,"current_range_meters":17600,"station_id":"ce4bgip2rcd13ifvqbb0","pricing_plan_id":"cebpf4jnsgd1na2vs0mg"},{"bike_id":"b51b9c19-bd6d-47f8-989c-88e7af7fc7af","system_id":"levelo_inurba_marseille","lat":43.29908,"lon":5.37477,"is_reserved":false,"is_disabled":false,"rental_uris":{"android":"levelo://app?vid=b51b9c19-bd6d-47f8-989c-88e7af7fc7af","ios":"levelo://app?vid=b51b9c19-bd6d-47f8-989c-88e7af7fc7af"},"vehicle_type_id":"4","last_reported":1741353450,"current_range_meters":17600,"station_id":"ce4bgjh2rcd13ifvqbg0","pricing_plan_id":"cebpf4jnsgd1na2vs0mg"},{"bike_id":"e7eecb6c-aac4-4dc0-bc93-3ae7881ab617","system_id":"levelo_inurba_marseille","lat":43.28568,"lon":5.39493,"is_reserved":false,"is_disabled":false,"rental_uris":{"android":"levelo://app?vid=e7eecb6c-aac4-4dc0-bc93-3ae7881ab617","ios":"levelo://app?vid=e7eecb6c-aac4-4dc0-bc93-3ae7881ab617"},"vehicle_type_id":"4","last_reported":1741353450,"current_range_meters":17600,"station_id":"ce4bh292rcd13ifvqdg0","pricing_plan_id":"cebpf4jnsgd1na2vs0mg"},{"bike_id":"e08958c1-3b6f-43a9-8100-c65c726bb4f1","system_id":"levelo_inurba_marseille","lat":43.28347,"lon":5.38104,"is_reserved":false,"is_disabled":false,"rental_uris":{"android":"levelo://app?vid=e08958c1-3b6f-43a9-8100-c65c726bb4f1","ios":"levelo://app?vid=e08958c1-3b6f-43a9-8100-c65c726bb4f1"},"vehicle_type_id":"4","last_reported":1741353450,"current_range_meters":17600,"station_id":"ce4bh412rcd13ifvqdr0","pricing_plan_id":"cebpf4jnsgd1na2vs0mg"},{"bike_id":"ddd914c7-254a-40fa-8bbe-e1a48029d9d1","system_id":"levelo_inurba_marseille","lat":43.28946,"lon":5.36399,"is_reserved":false,"is_disabled":false,"rental_uris":{"android":"levelo://app?vid=ddd914c7-254a-40fa-8bbe-e1a48029d9d1","ios":"levelo://app?vid=ddd914c7-254a-40fa-8bbe-e1a48029d9d1"},"vehicle_type_id":"4","last_reported":1741353450,"current_range_meters":17600,"station_id":"ce4bhc92rcd13ifvqetg","pricing_plan_id":"cebpf4jnsgd1na2vs0mg"},{"bike_id":"c1c412b3-ae23-45ab-894a-fe5b494cc9e6","system_id":"levelo_inurba_marseille","lat":43.23187,"lon":5.3557,"is_reserved":false,"is_disabled":false,"rental_uris":{"android":"levelo://app?vid=c1c412b3-ae23-45ab-894a-fe5b494cc9e6","ios":"levelo://app?vid=c1c412b3-ae23-45ab-894a-fe5b494cc9e6"},"vehicle_type_id":"4","last_reported":1741353450,"current_range_meters":17600,"station_id":"ce4bhu92rcd13ifvqi70","pricing_plan_id":"cebpf4jnsgd1na2vs0mg"},{"bike_id":"c429de85-2030-43ac-b7ca-b75001501649","system_id":"levelo_inurba_marseille","lat":43.23197,"lon":5.3555,"is_reserved":false,"is_disabled":false,"rental_uris":{"android":"levelo://app?vid=c429de85-2030-43ac-b7ca-b75001501649","ios":"levelo://app?vid=c429de85-2030-43ac-b7ca-b75001501649"},"vehicle_type_id":"4","last_reported":1741353450,"current_range_meters":17600,"station_id":"ce4bhu92rcd13ifvqi70","pricing_plan_id":"cebpf4jnsgd1na2vs0mg"},{"bike_id":"fbf804d7-6c73-46e9-abdb-acb74deb6dc4","system_id":"levelo_inurba_marseille","lat":43.23063,"lon":5.35493,"is_reserved":false,"is_disabled":false,"rental_uris":{"android":"levelo://app?vid=fbf804d7-6c73-46e9-abdb-acb74deb6dc4","ios":"levelo://app?vid=fbf804d7-6c73-46e9-abdb-acb74deb6dc4"},"vehicle_type_id":"4","last_reported":1741353450,"current_range_meters":17600,"station_id":"cpo3342slgdg3j2ifvpg","pricing_plan_id":"cebpf4jnsgd1na2vs0mg"},{"bike_id":"27ab3f75-d5ee-43a9-8ddd-f6fbab7edacb","system_id":"levelo_inurba_marseille","lat":43.32134,"lon":5.36786,"is_reserved":false,"is_disabled":false,"rental_uris":{"android":"levelo://app?vid=27ab3f75-d5ee-43a9-8ddd-f6fbab7edacb","ios":"levelo://app?vid=27ab3f75-d5ee-43a9-8ddd-f6fbab7edacb"},"vehicle_type_id":"4","last_reported":1741353450,"current_range_meters":18000,"station_id":"","pricing_plan_id":"cebpf4jnsgd1na2vs0mg"},{"bike_id":"a1e2fe77-a11b-4e6b-860f-2d3875927dcb","system_id":"levelo_inurba_marseille","lat":43.29302,"lon":5.37466,"is_reserved":false,"is_disabled":false,"rental_uris":{"android":"levelo://app?vid=a1e2fe77-a11b-4e6b-860f-2d3875927dcb","ios":"levelo://app?vid=a1e2fe77-a11b-4e6b-860f-2d3875927dcb"},"vehicle_type_id":"4","last_reported":1741353450,"current_range_meters":18000,"station_id":"ce4bgi12rcd13ifvqb70","pricing_plan_id":"cebpf4jnsgd1na2vs0mg"},{"bike_id":"9ad5802d-7dba-4b65-b21d-4e8eb8da3b61","system_id":"levelo_inurba_marseille","lat":43.30548,"lon":5.36549,"is_reserved":false,"is_disabled":false,"rental_uris":{"android":"levelo://app?vid=9ad5802d-7dba-4b65-b21d-4e8eb8da3b61","ios":"levelo://app?vid=9ad5802d-7dba-4b65-b21d-4e8eb8da3b61"},"vehicle_type_id":"4","last_reported":1741353450,"current_range_meters":18000,"station_id":"ce4bgs12rcd13ifvqcag","pricing_plan_id":"cebpf4jnsgd1na2vs0mg"},{"bike_id":"05120658-1076-4ffb-bb81-a73f32ca2e2a","system_id":"levelo_inurba_marseille","lat":43.2917,"lon":5.37174,"is_reserved":false,"is_disabled":false,"rental_uris":{"android":"levelo://app?vid=05120658-1076-4ffb-bb81-a73f32ca2e2a","ios":"levelo://app?vid=05120658-1076-4ffb-bb81-a73f32ca2e2a"},"vehicle_type_id":"4","last_reported":1741353450,"current_range_meters":18000,"station_id":"ce4bha92rcd13ifvqeh0","pricing_plan_id":"cebpf4jnsgd1na2vs0mg"},{"bike_id":"35a0cc01-4f05-4857-ac4a-119dc9e33c32","system_id":"levelo_inurba_marseille","lat":43.296132,"lon":5.381109,"is_reserved":false,"is_disabled":false,"rental_uris":{"android":"levelo://app?vid=35a0cc01-4f05-4857-ac4a-119dc9e33c32","ios":"levelo://app?vid=35a0cc01-4f05-4857-ac4a-119dc9e33c32"},"vehicle_type_id":"4","last_reported":1741353450,"current_range_meters":18800,"station_id":"ce4bgl12rcd13ifvqbo0","pricing_plan_id":"cebpf4jnsgd1na2vs0mg"},{"bike_id":"fbc0e0f5-e1d1-481b-87a9-fe51dda743cf","system_id":"levelo_inurba_marseille","lat":43.307115,"lon":5.380746,"is_reserved":false,"is_disabled":false,"rental_uris":{"android":"levelo://app?vid=fbc0e0f5-e1d1-481b-87a9-fe51dda743cf","ios":"levelo://app?vid=fbc0e0f5-e1d1-481b-87a9-fe51dda743cf"},"vehicle_type_id":"4","last_reported":1741353450,"current_range_meters":18800,"station_id":"ce4bgt92rcd13ifvqcg0","pricing_plan_id":"cebpf4jnsgd1na2vs0mg"},{"bike_id":"e7a47a36-4c7a-4d18-9556-80e0688c24b2","system_id":"levelo_inurba_marseille","lat":43.3028,"lon":5.37696,"is_reserved":false,"is_disabled":false,"rental_uris":{"android":"levelo://app?vid=e7a47a36-4c7a-4d18-9556-80e0688c24b2","ios":"levelo://app?vid=e7a47a36-4c7a-4d18-9556-80e0688c24b2"},"vehicle_type_id":"4","last_reported":1741353450,"current_range_meters":18800,"station_id":"ce4bguh2rcd13ifvqcj0","pricing_plan_id":"cebpf4jnsgd1na2vs0mg"},