{"last_updated":1752433682,"ttl":60,"version":"2.2","data":{"bikes":[{"bike_id":"524f6326-2f8f-462a-89c0-1f06a7d07ae7","system_id":"levelo_inurba_marseille","lat":43.25494,"lon":5.37635,"is_reserved":false,"is_disabled":true,"rental_uris":{"android":"levelo://app?vid=524f6326-2f8f-462a-89c0-1f06a7d07ae7","ios":"levelo://app?vid=524f6326-2f8f-462a-89c0-1f06a7d07ae7"},"vehicle_type_id":"4","last_reported":1752433683,"current_range_meters":2800,"station_id":"ce4bhh12rcd13ifvqff0","pricing_plan_id":"cebpf4jnsgd1na2vs0mg"},{"bike_id":"08f42fbc-a9a8-46e7-abd6-ae80d4e9a85d","system_id":"levelo_inurba_marseille","lat":43.31329,"lon":5.39696,"is_reserved":false,"is_disabled":false,"rental_uris":{"android":"levelo://app?vid=08f42fbc-a9a8-46e7-abd6-ae80d4e9a85d","ios":"levelo://app?vid=08f42fbc-a9a8-46e7-abd6-ae80d4e9a85d"},"vehicle_type_id":"4","last_reported":1752433683,"current_range_meters":2800,"station_id":"ce4bgvp2rcd13ifvqcu0","pricing_plan_id":"cebpf4jnsgd1na2vs0mg"},{"bike_id":"e1d87dec-08e6-427d-b046-30f68ac681a4","system_id":"levelo_inurba_marseille","lat":43.248072,"lon":5.3746,"is_reserved":false,"is_disabled":false,"rental_uris":{"android":"levelo://app?vid=e1d87dec-08e6-427d-b046-30f68ac681a4","ios":"levelo://app?vid=e1d87dec-08e6-427d-b046-30f68ac681a4"},"vehicle_type_id":"4","last_reported":1752433683,"current_range_meters":3200,"station_id":"ce4bhgh2rcd13ifvqfb0","pricing_plan_id":"cebpf4jnsgd1na2vs0mg"},{"bike_id":"968b3653-7c8a-4dbb-8d46-94471b5cd821","system_id":"levelo_inurba_marseille","lat":43.24812,"lon":5.37458,"is_reserved":false,"is_disabled":false,"rental_uris":{"android":"levelo://app?vid=968b3653-7c8a-4dbb-8d46-94471b5cd821","ios":"levelo://app?vid=968b3653-7c8a-4dbb-8d46-94471b5cd821"},"vehicle_type_id":"4","last_reported":1752433683,"current_range_meters":3200,"station_id":"ce4bhgh2rcd13ifvqfb0","pricing_plan_id":"cebpf4jnsgd1na2vs0mg"},{"bike_id":"ba570a28-739c-47b7-b3b5-8eebdc64697c","system_id":"levelo_inurba_marseille","lat":43.28613,"lon":5.35104,"is_reserved":false,"is_disabled":false,"rental_uris":{"android":"levelo://app?vid=ba570a28-739c-47b7-b3b5-8eebdc64697c","ios":"levelo://app?vid=ba570a28-739c-47b7-b3b5-8eebdc64697c"},"vehicle_type_id":"4","last_reported":1752433683,"current_range_meters":3200,"station_id":"ce4bhch2rcd13ifvqeug","pricing_plan_id":"cebpf4jnsgd1na2vs0mg"},{"bike_id":"35bd9521-eed3-4d29-8111-4d2e1c9c79ae","system_id":"levelo_inurba_marseille","lat":43.28411,"lon":5.37514,"is_reserved":false,"is_disabled":false,"rental_uris":{"android":"levelo://app?vid=35bd9521-eed3-4d29-8111-4d2e1c9c79ae","ios":"levelo://app?vid=35bd9521-eed3-4d29-8111-4d2e1c9c79ae"},"vehicle_type_id":"4","last_reported":1752433683,"current_range_meters":3600,"station_id":"ce4bh412rcd13ifvqds0","pricing_plan_id":"cebpf4jnsgd1na2vs0mg"},{"bike_id":"2f0ba75c-aff3-43f4-857b-fc7c66f4e426","system_id":"levelo_inurba_marseille","lat":43.30992,"lon":5.39021,"is_reserved":false,"is_disabled":true,"rental_uris":{"android":"levelo://app?vid=2f0ba75c-aff3-43f4-857b-fc7c66f4e426","ios":"levelo://app?vid=2f0ba75c-aff3-43f4-857b-fc7c66f4e426"},"vehicle_type_id":"4","last_reported":1752433683,"current_range_meters":3600,"station_id":"ce4bgup2rcd13ifvqco0","pricing_plan_id":"cebpf4jnsgd1na2vs0mg"},{"bike_id":"4f25b010-bb0b-4e2d-aff7-d4f5558e0651","system_id":"levelo_inurba_marseille","lat":43.261932,"lon":5.374509,"is_reserved":false,"is_disabled":true,"rental_uris":{"android":"levelo://app?vid=4f25b010-bb0b-4e2d-aff7-d4f5558e0651","ios":"levelo://app?vid=4f25b010-bb0b-4e2d-aff7-d4f5558e0651"},"vehicle_type_id":"4","last_reported":1752433683,"current_range_meters":3600,"station_id":"ce4bhgp2rcd13ifvqfc0","pricing_plan_id":"cebpf4jnsgd1na2vs0mg"},{"bike_id":"1a807fbf-2537-414c-b4af-f48c3c8f903e","system_id":"levelo_inurba_marseille","lat":43.27151,"lon":5.40935,"is_reserved":false,"is_disabled":false,"rental_uris":{"android":"levelo://app?vid=1a807fbf-2537-414c-b4af-f48c3c8f903e","ios":"levelo://app?vid=1a807fbf-2537-414c-b4af-f48c3c8f903e"},"vehicle_type_id":"4","last_reported":1752433683,"current_range_meters":3600,"station_id":"","pricing_plan_id":"cebpf4jnsgd1na2vs0mg"},{"bike_id":"8f9c6078-0aa4-4cae-af3b-f8ebf7e14100","system_id":"levelo_inurba_marseille","lat":43.29794,"lon":5.38091,"is_reserved":false,"is_disabled":false,"rental_uris":{"android":"levelo://app?vid=8f9c6078-0aa4-4cae-af3b-f8ebf7e14100","ios":"levelo://app?vid=8f9c6078-0aa4-4cae-af3b-f8ebf7e14100"},"vehicle_type_id":"4","last_reported":1752433683,"current_range_meters":4000,"station_id":"ce4bgip2rcd13ifvqbb0","pricing_plan_id":"cebpf4jnsgd1na2vs0mg"},{"bike_id":"69a98ef8-9b4f-490a-b1e7-11ae49fc387b","system_id":"levelo_inurba_marseille","lat":43.21203,"lon":5.35084,"is_reserved":false,"is_disabled":false,"rental_uris":{"android":"levelo://app?vid=69a98ef8-9b4f-490a-b1e7-11ae49fc387b","ios":"levelo://app?vid=69a98ef8-9b4f-490a-b1e7-11ae49fc387b"},"vehicle_type_id":"4","last_reported":1752433683,"current_range_meters":4400,"station_id":"st_cvj6sg6p6f1abm77japg","pricing_plan_id":"cebpf4jnsgd1na2vs0mg"},{"bike_id":"e3a75ee9-c614-467b-8cc2-f813bcef2ab1","system_id":"levelo_inurba_marseille","lat":43.33743,"lon":5.3919,"is_reserved":false,"is_disabled":true,"rental_uris":{"android":"levelo://app?vid=e3a75ee9-c614-467b-8cc2-f813bcef2ab1","ios":"levelo://app?vid=e3a75ee9-c614-467b-8cc2-f813bcef2ab1"},"vehicle_type_id":"4","last_reported":1752433683,"current_range_meters":4400,"station_id":"ce4bhr92rcd13ifvqhsg","pricing_plan_id":"cebpf4jnsgd1na2vs0mg"},{"bike_id":"d2b53cde-0c80-4121-b379-7a13374d6f93","system_id":"levelo_inurba_marseille","lat":43.273657,"lon":5.362536,"is_reserved":false,"is_disabled":false,"rental_uris":{"android":"levelo://app?vid=d2b53cde-0c80-4121-b379-7a13374d6f93","ios":"levelo://app?vid=d2b53cde-0c80-4121-b379-7a13374d6f93"},"vehicle_type_id":"4","last_reported":1752433683,"current_range_meters":4400,"station_id":"ce4bhbh2rcd13ifvqeo0","pricing_plan_id":"cebpf4jnsgd1na2vs0mg"},{"bike_id":"3c8e508f-c45c-42ed-92bd-d406eca1fcf0","system_id":"levelo_inurba_marseille","lat":43.30538,"lon":5.36706,"is_reserved":false,"is_disabled":false,"rental_uris":{"android":"levelo://app?vid=3c8e508f-c45c-42ed-92bd-d406eca1fcf0","ios":"levelo://app?vid=3c8e508f-c45c-42ed-92bd-d406eca1fcf0"},"vehicle_type_id":"4","last_reported":1752433683,"current_range_meters":4800,"station_id":"ce4bgrp2rcd13ifvqc9g","pricing_plan_id":"cebpf4jnsgd1na2vs0mg"},{"bike_id":"36fb1df1-91db-411d-a9d2-e416abc243af","system_id":"levelo_inurba_marseille","lat":43.29176,"lon":5.38459,"is_reserved":false,"is_disabled":false,"rental_uris":{"android":"levelo://app?vid=36fb1df1-91db-411d-a9d2-e416abc243af","ios":"levelo://app?vid=36fb1df1-91db-411d-a9d2-e416abc243af"},"vehicle_type_id":"4","last_reported":1752433683,"current_range_meters":4800,"station_id":"","pricing_plan_id":"cebpf4jnsgd1na2vs0mg"},{"bike_id":"0e8815c8-0e68-4b66-96fd-4286371dab0d","system_id":"levelo_inurba_marseille","lat":43.29301,"lon":5.37464,"is_reserved":false,"is_disabled":false,"rental_uris":{"android":"levelo://app?vid=0e8815c8-0e68-4b66-96fd-4286371dab0d","ios":"levelo://app?vid=0e8815c8-0e68-4b66-96fd-4286371dab0d"},"vehicle_type_id":"4","last_reported":1752433683,"current_range_meters":4800,"station_id":"ce4bgi12rcd13ifvqb70","pricing_plan_id":"cebpf4jnsgd1na2vs0mg"},{"bike_id":"7b8bc6b7-840c-458c-8f6a-46980a401154","system_id":"levelo_inurba_marseille","lat":43.29895,"lon":5.38891,"is_reserved":false,"is_disabled":false,"rental_uris":{"android":"levelo://app?vid=7b8bc6b7-840c-458c-8f6a-46980a401154","ios":"levelo://app?vid=7b8bc6b7-840c-458c-8f6a-46980a401154"},"vehicle_type_id":"4","last_reported":1752433683,"current_range_meters":5600,"station_id":"ce4bh392rcd13ifvqdl0","pricing_plan_id":"cebpf4jnsgd1na2vs0mg"},{"bike_id":"df61839a-7a72-4634-9960-e8ea0d9a8d35","system_id":"levelo_inurba_marseille","lat":43.239474,"lon":5.366089,"is_reserved":false,"is_disabled":true,"rental_uris":{"android":"levelo://app?vid=df61839a-7a72-4634-9960-e8ea0d9a8d35","ios":"levelo://app?vid=df61839a-7a72-4634-9960-e8ea0d9a8d35"},"vehicle_type_id":"4","last_reported":1752433683,"current_range_meters":5600,"station_id":"","pricing_plan_id":"cebpf4jnsgd1na2vs0mg"},{"bike_id":"380bfe9f-b549-4334-817f-bd7b675f8505","system_id":"levelo_inurba_marseille","lat":43.305966,"lon":5.372336,"is_reserved":false,"is_disabled":false,"rental_uris":{"android":"levelo://app?vid=380bfe9f-b549-4334-817f-bd7b675f8505","ios":"levelo://app?vid=380bfe9f-b549-4334-817f-bd7b675f8505"},"vehicle_type_id":"4","last_reported":1752433683,"current_range_meters":5600,"station_id":"ce4bgqh2rcd13ifvqc4g","pricing_plan_id":"cebpf4jnsgd1na2vs0mg"},{"bike_id":"bffcb9b8-f0d2-4bce-947a-729d619957a5","system_id":"levelo_inurba_marseille","lat":43.23426,"lon":5.41235,"is_reserved":false,"is_disabled":false,"rental_uris":{"android":"levelo://app?vid=bffcb9b8-f0d2-4bce-947a-729d619957a5","ios":"levelo://app?vid=bffcb9b8-f0d2-4bce-947a-729d619957a5"},"vehicle_type_id":"4","last_reported":1752433683,"current_range_meters":5600,"station_id":"","pricing_plan_id":"cebpf4jnsgd1na2vs0mg"},{"bike_id":"532a6854-4f73-420f-a71b-79e28603a8a0","system_id":"levelo_inurba_marseille","lat":43.278856,"lon":5.354046,"is_reserved":false,"is_disabled":false,"rental_uris":{"android":"levelo://app?vid=532a6854-4f73-420f-a71b-79e28603a8a0","ios":"levelo://app?vid=532a6854-4f73-420f-a71b-79e28603a8a0"},"vehicle_type_id":"4","last_reported":1752433683,"current_range_meters":5600,"station_id":"","pricing_plan_id":"cebpf4jnsgd1na2vs0mg"},{"bike_id":"d28fac07-1924-42dc-99a9-b2f49c236903","system_id":"levelo_inurba_marseille","lat":43.29539,"lon":5.3856,"is_reserved":false,"is_disabled":false,"rental_uris":{"android":"levelo://app?vid=d28fac07-1924-42dc-99a9-b2f49c236903","ios":"levelo://app?vid=d28fac07-1924-42dc-99a9-b2f49c236903"},"vehicle_type_id":"4","last_reported":1752433683,"current_range_meters":6000,"station_id":"ce4bgih2rcd13ifvqba0","pricing_plan_id":"cebpf4jnsgd1na2vs0mg"},{"bike_id":"cb9282c9-0a04-426f-af4a-9dc494a82650","system_id":"levelo_inurba_marseille","lat":43.225,"lon":5.3478,"is_reserved":false,"is_disabled":false,"rental_uris":{"android":"levelo://app?vid=cb9282c9-0a04-426f-af4a-9dc494a82650","ios":"levelo://app?vid=cb9282c9-0a04-426f-af4a-9dc494a82650"},"vehicle_type_id":"4","last_reported":1752433683,"current_range_meters":6000,"station_id":"","pricing_plan_id":"cebpf4jnsgd1na2vs0mg"},{"bike_id":"8929c1bf-fd4d-44e4-aa66-b3eb6538c998","system_id":"levelo_inurba_marseille","lat":43.28571,"lon":5.42946,"is_reserved":false,"is_disabled":false,"rental_uris":{"android":"levelo://app?vid=8929c1bf-fd4d-44e4-aa66-b3eb6538c998","ios":"levelo://app?vid=8929c1bf-fd4d-44e4-aa66-b3eb6538c998"},"vehicle_type_id":"4","last_reported":1752433683,"current_range_meters":6400,"station_id":"","pricing_plan_id":"cebpf4jnsgd1na2vs0mg"},{"bike_id":"3440e539-2a25-45a6-91a1-9c3e29b7b1e2","system_id":"levelo_inurba_marseille","lat":43.313606,"lon":5.385087,"is_reserved":false,"is_disabled":true,"rental_uris":{"android":"levelo://app?vid=3440e539-2a25-45a6-91a1-9c3e29b7b1e2","ios":"levelo://app?vid=3440e539-2a25-45a6-91a1-9c3e29b7b1e2"},"vehicle_type_id":"4","last_reported":1752433683,"current_range_meters":6400,"station_id":"ce4bgt92rcd13ifvqcf0","pricing_plan_id":"cebpf4jnsgd1na2vs0mg"},{"bike_id":"7d979f4d-837d-4923-bea4-9309987ed4f7","system_id":"levelo_inurba_marseille","lat":43.27911,"lon":5.39569,"is_reserved":false,"is_disabled":true,"rental_uris":{"android":"levelo://app?vid=7d979f4d-837d-4923-bea4-9309987ed4f7","ios":"levelo://app?vid=7d979f4d-837d-4923-bea4-9309987ed4f7"},"vehicle_type_id":"4","last_reported":1752433683,"current_range_meters":6400,"station_id":"ce4bhf92rcd13ifvqf40","pricing_plan_id":"cebpf4jnsgd1na2vs0mg"},{"bike_id":"6070c3be-7535-4c90-8ef1-277f2efabd61","system_id":"levelo_inurba_marseille","lat":43.29255,"lon":5.40081,"is_reserved":false,"is_disabled":false,"rental_uris":{"android":"levelo://app?vid=6070c3be-7535-4c90-8ef1-277f2efabd61","ios":"levelo://app?vid=6070c3be-7535-4c90-8ef1-277f2efabd61"},"vehicle_type_id":"4","last_reported":1752433683,"current_range_meters":6400,"station_id":"ce4bh312rcd13ifvqdk0","pricing_plan_id":"cebpf4jnsgd1na2vs0mg"},{"bike_id":"87991947-21b8-4b64-b6d4-5bae920498b7","system_id":"levelo_inurba_marseille","lat":43.30962,"lon":5.38998,"is_reserved":false,"is_disabled":true,"rental_uris":{"android":"levelo://app?vid=87991947-21b8-4b64-b6d4-5bae920498b7","ios":"levelo://app?vid=87991947-21b8-4b64-b6d4-5bae920498b7"},"vehicle_type_id":"4","last_reported":1752433683,"current_range_meters":6400,"station_id":"ce4bgup2rcd13ifvqco0","pricing_plan_id":"cebpf4jnsgd1na2vs0mg"},{"bike_id":"2332e8bf-6416-4161-a8a8-67b8ee7cd57f","system_id":"levelo_inurba_marseille","lat":43.310736,"lon":5.383633,"is_reserved":false,"is_disabled":false,"rental_uris":{"android":"levelo://app?vid=2332e8bf-6416-4161-a8a8-67b8ee7cd57f","ios":"levelo://app?vid=2332e8bf-6416-4161-a8a8-67b8ee7cd57f"},"vehicle_type_id":"4","last_reported":1752433683,"current_range_meters":6800,"station_id":"ce4bgv92rcd13ifvqcr0","pricing_plan_id":"cebpf4jnsgd1na2vs0mg"},{"bike_id":"5a71ab42-51f6-4d74-8942-e5c8339f2255","system_id":"levelo_inurba_marseille","lat":43.31753,"lon":5.39022,"is_reserved":false,"is_disabled":true,"rental_uris":{"android":"levelo://app?vid=5a71ab42-51f6-4d74-8942-e5c8339f2255","ios":"levelo://app?vid=5a71ab42-51f6-4d74-8942-e5c8339f2255"},"vehicle_type_id":"4","last_reported":1752433683,"current_range_meters":6800,"station_id":"ce4bhqp2rcd13ifvqhng","pricing_plan_id":"cebpf4jnsgd1na2vs0mg"},{"bike_id":"422ac485-bc7b-4361-b00c-af28364f94e4","system_id":"levelo_inurba_marseille","lat":43.22807,"lon":5.34987,"is_reserved":false,"is_disabled":false,"rental_uris":{"android":"levelo://app?vid=422ac485-bc7b-4361-b00c-af28364f94e4","ios":"levelo://app?vid=422ac485-bc7b-4361-b00c-af28364f94e4"},"vehicle_type_id":"4","last_reported":1752433683,"current_range_meters":6800,"station_id":"","pricing_plan_id":"cebpf4jnsgd1na2vs0mg"},{"bike_id":"ea0fb25d-7b20-460e-b68d-107191fc6e0c","system_id":"levelo_inurba_marseille","lat":43.26554,"lon":5.37286,"is_reserved":false,"is_disabled":false,"rental_uris":{"android":"levelo://app?vid=ea0fb25d-7b20-460e-b68d-107191fc6e0c","ios":"levelo://app?vid=ea0fb25d-7b20-460e-b68d-107191fc6e0c"},"vehicle_type_id":"4","last_reported":1752433683,"current_range_meters":6800,"station_id":"ce4bhg12rcd13ifvqf70","pricing_plan_id":"cebpf4jnsgd1na2vs0mg"},{"bike_id":"dbba3321-20c7-4989-a7b5-ea9ab2c4b3e8","system_id":"levelo_inurba_marseille","lat":43.261935,"lon":5.374477,"is_reserved":false,"is_disabled":true,"rental_uris":{"android":"levelo://app?vid=dbba3321-20c7-4989-a7b5-ea9ab2c4b3e8","ios":"levelo://app?vid=dbba3321-20c7-4989-a7b5-ea9ab2c4b3e8"},"vehicle_type_id":"4","last_reported":1752433683,"current_range_meters":6800,"station_id":"ce4bhgp2rcd13ifvqfc0","pricing_plan_id":"cebpf4jnsgd1na2vs0mg"},{"bike_id":"a52f605f-fb26-4553-ad26-6f4e0b77d048","system_id":"levelo_inurba_marseille","lat":43.32327,"lon":5.40659,"is_reserved":false,"is_disabled":false,"rental_uris":{"android":"levelo://app?vid=a52f605f-fb26-4553-ad26-6f4e0b77d048","ios":"levelo://app?vid=a52f605f-fb26-4553-ad26-6f4e0b77d048"},"vehicle_type_id":"4","last_reported":1752433683,"current_range_meters":7200,"station_id":"ce4bhq92rcd13ifvqhjg","pricing_plan_id":"cebpf4jnsgd1na2vs0mg"},{"bike_id":"ae6b9bb3-31c8-4302-91c6-0e6b059eb0f3","system_id":"levelo_inurba_marseille","lat":43.33764,"lon":5.37422,"is_reserved":false,"is_disabled":true,"rental_uris":{"android":"levelo://app?vid=ae6b9bb3-31c8-4302-91c6-0e6b059eb0f3","ios":"levelo://app?vid=ae6b9bb3-31c8-4302-91c6-0e6b059eb0f3"},"vehicle_type_id":"4","last_reported":1752433683,"current_range_meters":7200,"station_id":"","pricing_plan_id":"cebpf4jnsgd1na2vs0mg"},{"bike_id":"7b624790-b21b-46d1-a9ca-774e836eea2b","system_id":"levelo_inurba_marseille","lat":43.2969,"lon":5.36618,"is_reserved":false,"is_disabled":true,"rental_uris":{"android":"levelo://app?vid=7b624790-b21b-46d1-a9ca-774e836eea2b","ios":"levelo://app?vid=7b624790-b21b-46d1-a9ca-774e836eea2b"},"vehicle_type_id":"4","last_reported":1752433683,"current_range_meters":7200,"station_id":"ce4bgn12rcd13ifvqbt0","pricing_plan_id":"cebpf4jnsgd1na2vs0mg"},{"bike_id":"5e3c66c2-6975-4cea-b52b-4a8dae4844bf","system_id":"levelo_inurba_marseille","lat":43.29795,"lon":5.39319,"is_reserved":false,"is_disabled":false,"rental_uris":{"android":"levelo://app?vid=5e3c66c2-6975-4cea-b52b-4a8dae4844bf","ios":"levelo://app?vid=5e3c66c2-6975-4cea-b52b-4a8dae4844bf"},"vehicle_type_id":"4","last_reported":1752433683,"current_range_meters":7200,"station_id":"chh1huq6cuj3fo74tm60","pricing_plan_id":"cebpf4jnsgd1na2vs0mg"},{"bike_id":"b93ccc84-2f6a-4c8d-a203-3130ac531966","system_id":"levelo_inurba_marseille","lat":43.29848,"lon":5.36267,"is_reserved":false,"is_disabled":false,"rental_uris":{"android":"levelo://app?vid=b93ccc84-2f6a-4c8d-a203-3130ac531966","ios":"levelo://app?vid=b93ccc84-2f6a-4c8d-a203-3130ac531966"},"vehicle_type_id":"4","last_reported":1752433683,"current_range_meters":8000,"station_id":"ce4bgpp2rcd13ifvqc3g","pricing_plan_id":"cebpf4jnsgd1na2vs0mg"},{"bike_id":"78709967-30b8-45fe-aeb8-302749e46634","system_id":"levelo_inurba_marseille","lat":43.3025,"lon":5.40055,"is_reserved":false,"is_disabled":false,"rental_uris":{"android":"levelo://app?vid=78709967-30b8-45fe-aeb8-302749e46634","ios":"levelo://app?vid=78709967-30b8-45fe-aeb8-302749e46634"},"vehicle_type_id":"4","last_reported":1752433683,"current_range_meters":8000,"station_id":"ce4bgvh2rcd13ifvqcs0","pricing_plan_id":"cebpf4jnsgd1na2vs0mg"},{"bike_id":"696aca5a-f985-42f2-b5f7-74ca3a442dcb","system_id":"levelo_inurba_marseille","lat":43.30952,"lon":5.37144,"is_reserved":false,"is_disabled":false,"rental_uris":{"android":"levelo://app?vid=696aca5a-f985-42f2-b5f7-74ca3a442dcb","ios":"levelo://app?vid=696aca5a-f985-42f2-b5f7-74ca3a442dcb"},"vehicle_type_id":"4","last_reported":1752433683,"current_range_meters":8000,"station_id":"","pricing_plan_id":"cebpf4jnsgd1na2vs0mg"},{"bike_id":"cfa5d845-faf7-445b-920d-4172d0f28aa7","system_id":"levelo_inurba_marseille","lat":43.2867,"lon":5.38655,"is_reserved":false,"is_disabled":false,"rental_uris":{"android":"levelo://app?vid=cfa5d845-faf7-445b-920d-4172d0f28aa7","ios":"levelo://app?vid=cfa5d845-faf7-445b-920d-4172d0f28aa7"},"vehicle_type_id":"4","last_reported":1752433683,"current_range_meters":8000,"station_id":"ce4bh492rcd13ifvqdug","pricing_plan_id":"cebpf4jnsgd1na2vs0mg"},{"bike_id":"4e18f6a0-cf0a-4e54-823e-14d073e25d70","system_id":"levelo_inurba_marseille","lat":43.28036,"lon":5.36944,"is_reserved":false,"is_disabled":true,"rental_uris":{"android":"levelo://app?vid=4e18f6a0-cf0a-4e54-823e-14d073e25d70","ios":"levelo://app?vid=4e18f6a0-cf0a-4e54-823e-14d073e25d70"},"vehicle_type_id":"4","last_reported":1752433683,"current_range_meters":8000,"station_id":"ce4bha12rcd13ifvqef0","pricing_plan_id":"cebpf4jnsgd1na2vs0mg"},{"bike_id":"02883b92-225f-428d-a8a6-4844ec1f2d26","system_id":"levelo_inurba_marseille","lat":43.30652,"lon":5.37255,"is_reserved":false,"is_disabled":true,"rental_uris":{"android":"levelo://app?vid=02883b92-225f-428d-a8a6-4844ec1f2d26","ios":"levelo://app?vid=02883b92-225f-428d-a8a6-4844ec1f2d26"},"vehicle_type_id":"4","last_reported":1752433683,"current_range_meters":8000,"station_id":"","pricing_plan_id":"cebpf4jnsgd1na2vs0mg"},{"bike_id":"1dc71bf0-efd9-486b-b44c-d28598467042","system_id":"levelo_inurba_marseille","lat":43.30596,"lon":5.39361,"is_reserved":false,"is_disabled":false,"rental_uris":{"android":"levelo://app?vid=1dc71bf0-efd9-486b-b44c-d28598467042","ios":"levelo://app?vid=1dc71bf0-efd9-486b-b44c-d28598467042"},"vehicle_type_id":"4","last_reported":1752433683,"current_range_meters":8400,"station_id":"ce4bh0p2rcd13ifvqd80","pricing_plan_id":"cebpf4jnsgd1na2vs0mg"},{"bike_id":"15802a97-2c20-45b4-ab54-6fa5fb828b79","system_id":"levelo_inurba_marseille","lat":43.29706,"lon":5.36619,"is_reserved":false,"is_disabled":false,"rental_uris":{"android":"levelo://app?vid=15802a97-2c20-45b4-ab54-6fa5fb828b79","ios":"levelo://app?vid=15802a97-2c20-45b4-ab54-6fa5fb828b79"},"vehicle_type_id":"4","last_reported":1752433683,"current_range_meters":8400,"station_id":"ce4bgn12rcd13ifvqbt0","pricing_plan_id":"cebpf4jnsgd1na2vs0mg"},{"bike_id":"6180c5ca-b38e-4c48-8755-0bf5ff7fe3a6","system_id":"levelo_inurba_marseille","lat":43.31997,"lon":5.38135,"is_reserved":false,"is_disabled":false,"rental_uris":{"android":"levelo://app?vid=6180c5ca-b38e-4c48-8755-0bf5ff7fe3a6","ios":"levelo://app?vid=6180c5ca-b38e-4c48-8755-0bf5ff7fe3a6"},"vehicle_type_id":"4","last_reported":1752433683,"current_range_meters":8400,"station_id":"ce4bhr12rcd13ifvqhpg","pricing_plan_id":"cebpf4jnsgd1na2vs0mg"},{"bike_id":"44dd919c-32df-4fe9-8b1c-c9988fb68d5b","system_id":"levelo_inurba_marseille","lat":43.26949,"lon":5.40248,"is_reserved":false,"is_disabled":true,"rental_uris":{"android":"levelo://app?vid=44dd919c-32df-4fe9-8b1c-c9988fb68d5b","ios":"levelo://app?vid=44dd919c-32df-4fe9-8b1c-c9988fb68d5b"},"vehicle_type_id":"4","last_reported":1752433683,"current_range_meters":8800,"station_id":"cjm6bp8fraef2m0cb0m0","pricing_plan_id":"cebpf4jnsgd1na2vs0mg"},{"bike_id":"96d54fdb-5835-4cd8-9827-093c0b08e4ca","system_id":"levelo_inurba_marseille","lat":43.21217,"lon":5.35064,"is_reserved":false,"is_disabled":false,"rental_uris":{"android":"levelo://app?vid=96d54fdb-5835-4cd8-9827-093c0b08e4ca","ios":"levelo://app?vid=96d54fdb-5835-4cd8-9827-093c0b08e4ca"},"vehicle_type_id":"4","last_reported":1752433683,"current_range_meters":8800,"station_id":"st_cvj6sg6p6f1abm77japg","pricing_plan_id":"cebpf4jnsgd1na2vs0mg"},{"bike_id":"433e6a8b-e158-4711-a1a6-d29a922562b0","system_id":"levelo_inurba_marseille","lat":43.264861,"lon":5.395429,"is_reserved":false,"is_disabled":false,"rental_uris":{"android":"levelo://app?vid=433e6a8b-e158-4711-a1a6-d29a922562b0","ios":"levelo://app?vid=433e6a8b-e158-4711-a1a6-d29a922562b0"},"vehicle_type_id":"4","last_reported":1752433683,"current_range_meters":8800,"station_id":"ce4bhi12rcd13ifvqfq0","pricing_plan_id":"cebpf4jnsgd1na2vs0mg"},{"bike_id":"470d1e9d-8c05-40b8-a6b2-039f183b9f6a","system_id":"levelo_inurba_marseille","lat":43.23194,"lon":5.35559,"is_reserved":false,"is_disabled":true,"rental_uris":{"android":"levelo://app?vid=470d1e9d-8c05-40b8-a6b2-039f183b9f6a","ios":"levelo://app?vid=470d1e9d-8c05-40b8-a6b2-039f183b9f6a"},"vehicle_type_id":"4","last_reported":1752433683,"current_range_meters":8800,"station_id":"ce4bhu92rcd13ifvqi70","pricing_plan_id":"cebpf4jnsgd1na2vs0mg"},{"bike_id":"8fe3cb2c-8167-4fc6-8991-74a32ec56aac","system_id":"levelo_inurba_marseille","lat":43.26558,"lon":5.37287,"is_reserved":false,"is_disabled":false,"rental_uris":{"android":"levelo://app?vid=8fe3cb2c-8167-4fc6-8991-74a32ec56aac","ios":"levelo://app?vid=8fe3cb2c-8167-4fc6-8991-74a32ec56aac"},"vehicle_type_id":"4","last_reported":1752433683,"current_range_meters":9200,"station_id":"ce4bhg12rcd13ifvqf70","pricing_plan_id":"cebpf4jnsgd1na2vs0mg"},{"bike_id":"383a2485-518e-4235-b1cd-0ebf65ba74a5","system_id":"levelo_inurba_marseille","lat":43.29541,"lon":5.3854,"is_reserved":false,"is_disabled":true,"rental_uris":{"android":"levelo://app?vid=383a2485-518e-4235-b1cd-0ebf65ba74a5","ios":"levelo://app?vid=383a2485-518e-4235-b1cd-0ebf65ba74a5"},"vehicle_type_id":"4","last_reported":1752433683,"current_range_meters":9200,"station_id":"ce4bgih2rcd13ifvqba0","pricing_plan_id":"cebpf4jnsgd1na2vs0mg"},{"bike_id":"be75d28f-310a-4620-a621-2afc0384414d","system_id":"levelo_inurba_marseille","lat":43.31115,"lon":5.37777,"is_reserved":false,"is_disabled":false,"rental_uris":{"android":"levelo://app?vid=be75d28f-310a-4620-a621-2afc0384414d","ios":"levelo://app?vid=be75d28f-310a-4620-a621-2afc0384414d"},"vehicle_type_id":"4","last_reported":1752433683,"current_range_meters":9200,"station_id":"ce4bgt92rcd13ifvqcg0","pricing_plan_id":"cebpf4jnsgd1na2vs0mg"},{"bike_id":"0b0f1962-1ccb-4bc3-895b-70f8484b3602","system_id":"levelo_inurba_marseille","lat":43.28742,"lon":5.36099,"is_reserved":false,"is_disabled":true,"rental_uris":{"android":"levelo://app?vid=0b0f1962-1ccb-4bc3-895b-70f8484b3602","ios":"levelo://app?vid=0b0f1962-1ccb-4bc3-895b-70f8484b3602"},"vehicle_type_id":"4","last_reported":1752433683,"current_range_meters":9200,"station_id":"cki0cbj6b192h4jlfktg","pricing_plan_id":"cebpf4jnsgd1na2vs0mg"},{"bike_id":"b681ad71-1671-4dbb-bec3-08203d83a2f1","system_id":"levelo_inurba_marseille","lat":43.28402,"lon":5.37508,"is_reserved":false,"is_disabled":false,"rental_uris":{"android":"levelo://app?vid=b681ad71-1671-4dbb-bec3-08203d83a2f1","ios":"levelo://app?vid=b681ad71-1671-4dbb-bec3-08203d83a2f1"},"vehicle_type_id":"4","last_reported":1752433683,"current_range_meters":9600,"station_id":"ce4bh412rcd13ifvqds0","pricing_plan_id":"cebpf4jnsgd1na2vs0mg"},{"bike_id":"1f1cf2c9-d9cd-47b7-9cb3-4b9894799b60","system_id":"levelo_inurba_marseille","lat":43.31648,"lon":5.3732,"is_reserved":false,"is_disabled":false,"rental_uris":{"android":"levelo://app?vid=1f1cf2c9-d9cd-47b7-9cb3-4b9894799b60","ios":"levelo://app?vid=1f1cf2c9-d9cd-47b7-9cb3-4b9894799b60"},"vehicle_type_id":"4","last_reported":1752433683,"current_range_meters":9600,"station_id":"","pricing_plan_id":"cebpf4jnsgd1na2vs0mg"},{"bike_id":"afb3e3b0-3b35-40a1-a3d9-2a416ca6d8c0","system_id":"levelo_inurba_marseille","lat":43.2738,"lon":5.36258,"is_reserved":false,"is_disabled":true,"rental_uris":{"android":"levelo://app?vid=afb3e3b0-3b35-40a1-a3d9-2a416ca6d8c0","ios":"levelo://app?vid=afb3e3b0-3b35-40a1-a3d9-2a416ca6d8c0"},"vehicle_type_id":"4","last_reported":1752433683,"current_range_meters":9600,"station_id":"ce4bhbh2rcd13ifvqeo0","pricing_plan_id":"cebpf4jnsgd1na2vs0mg"},{"bike_id":"1bfa1b76-fa6d-4cdd-aff5-612b86c512c4","system_id":"levelo_inurba_marseille","lat":43.26566,"lon":5.390048,"is_reserved":false,"is_disabled":true,"rental_uris":{"android":"levelo://app?vid=1bfa1b76-fa6d-4cdd-aff5-612b86c512c4","ios":"levelo://app?vid=1bfa1b76-fa6d-4cdd-aff5-612b86c512c4"},"vehicle_type_id":"4","last_reported":1752433683,"current_range_meters":9600,"station_id":"ce4bhe12rcd13ifvqf30","pricing_plan_id":"cebpf4jnsgd1na2vs0mg"},{"bike_id":"4dc8c5f2-5e61-46ac-bf51-cdf0733cf054","system_id":"levelo_inurba_marseille","lat":43.282541,"lon":5.386202,"is_reserved":false,"is_disabled":false,"rental_uris":{"android":"levelo://app?vid=4dc8c5f2-5e61-46ac-bf51-cdf0733cf054","ios":"levelo://app?vid=4dc8c5f2-5e61-46ac-bf51-cdf0733cf054"},"vehicle_type_id":"4","last_reported":1752433683,"current_range_meters":9600,"station_id":"ce4bh8p2rcd13ifvqeb0","pricing_plan_id":"cebpf4jnsgd1na2vs0mg"},{"bike_id":"f70d4eb7-0483-4b22-b4af-6857c0805839","system_id":"levelo_inurba_marseille","lat":43.29916,"lon":5.38104,"is_reserved":false,"is_disabled":true,"rental_uris":{"android":"levelo://app?vid=f70d4eb7-0483-4b22-b4af-6857c0805839","ios":"levelo://app?vid=f70d4eb7-0483-4b22-b4af-6857c0805839"},"vehicle_type_id":"4","last_reported":1752433683,"current_range_meters":10000,"station_id":"ce4bgj12rcd13ifvqbc0","pricing_plan_id":"cebpf4jnsgd1na2vs0mg"},{"bike_id":"49801dc2-618a-44b8-84ae-416cd87fdbe9","system_id":"levelo_inurba_marseille","lat":43.33767,"lon":5.37478,"is_reserved":false,"is_disabled":false,"rental_uris":{"android":"levelo://app?vid=49801dc2-618a-44b8-84ae-416cd87fdbe9","ios":"levelo://app?vid=49801dc2-618a-44b8-84ae-416cd87fdbe9"},"vehicle_type_id":"4","last_reported":1752433683,"current_range_meters":10000,"station_id":"","pricing_plan_id":"cebpf4jnsgd1na2vs0mg"},{"bike_id":"20bed089-9b8d-4076-856f-cf41d3d90c28","system_id":"levelo_inurba_marseille","lat":43.260268,"lon":5.375451,"is_reserved":false,"is_disabled":false,"rental_uris":{"android":"levelo://app?vid=20bed089-9b8d-4076-856f-cf41d3d90c28","ios":"levelo://app?vid=20bed089-9b8d-4076-856f-cf41d3d90c28"},"vehicle_type_id":"4","last_reported":1752433683,"current_range_meters":10800,"station_id":"ce4bhgh2rcd13ifvqfa0","pricing_plan_id":"cebpf4jnsgd1na2vs0mg"},{"bike_id":"31f76825-7b9f-439a-a66c-521eb63e58c1","system_id":"levelo_inurba_marseille","lat":43.29492,"lon":5.43807,"is_reserved":false,"is_disabled":false,"rental_uris":{"android":"levelo://app?vid=31f76825-7b9f-439a-a66c-521eb63e58c1","ios":"levelo://app?vid=31f76825-7b9f-439a-a66c-521eb63e58c1"},"vehicle_type_id":"4","last_reported":1752433683,"current_range_meters":10000,"station_id":"","pricing_plan_id":"cebpf4jnsgd1na2vs0mg"},{"bike_id":"7a888645-4b0c-4379-98d8-380a5347b74c","system_id":"levelo_inurba_marseille","lat":43.27376,"lon":5.36229,"is_reserved":false,"is_disabled":true,"rental_uris":{"android":"levelo://app?vid=7a888645-4b0c-4379-98d8-380a5347b74c","ios":"levelo://app?vid=7a888645-4b0c-4379-98d8-380a5347b74c"},"vehicle_type_id":"4","last_reported":1752433683,"current_range_meters":10800,"station_id":"ce4bhbh2rcd13ifvqeo0","pricing_plan_id":"cebpf4jnsgd1na2vs0mg"},{"bike_id":"13e76998-2121-46ec-8213-29e91cf624e4","system_id":"levelo_inurba_marseille","lat":43.29629,"lon":5.37204,"is_reserved":false,"is_disabled":false,"rental_uris":{"android":"levelo://app?vid=13e76998-2121-46ec-8213-29e91cf624e4","ios":"levelo://app?vid=13e76998-2121-46ec-8213-29e91cf624e4"},"vehicle_type_id":"4","last_reported":1752433683,"current_range_meters":10800,"station_id":"","pricing_plan_id":"cebpf4jnsgd1na2vs0mg"},{"bike_id":"9149e404-dec9-4f44-b663-f8dfb22ee83d","system_id":"levelo_inurba_marseille","lat":43.292664,"lon":5.384306,"is_reserved":false,"is_disabled":false,"rental_uris":{"android":"levelo://app?vid=9149e404-dec9-4f44-b663-f8dfb22ee83d","ios":"levelo://app?vid=9149e404-dec9-4f44-b663-f8dfb22ee83d"},"vehicle_type_id":"4","last_reported":1752433683,"current_range_meters":10800,"station_id":"ce4bh692rcd13ifvqea0","pricing_plan_id":"cebpf4jnsgd1na2vs0mg"},{"bike_id":"cc82db1e-071a-4225-a83d-f48bf721bc52","system_id":"levelo_inurba_marseille","lat":43.29539,"lon":5.37509,"is_reserved":false,"is_disabled":false,"rental_uris":{"android":"levelo://app?vid=cc82db1e-071a-4225-a83d-f48bf721bc52","ios":"levelo://app?vid=cc82db1e-071a-4225-a83d-f48bf721bc52"},"vehicle_type_id":"4","last_reported":1752433683,"current_range_meters":11200,"station_id":"ce4bgkp2rcd13ifvqbmg","pricing_plan_id":"cebpf4jnsgd1na2vs0mg"},{"bike_id":"55872c00-2a27-45e2-8cb6-3ad3563e8a35","system_id":"levelo_inurba_marseille","lat":43.30795,"lon":5.38166,"is_reserved":false,"is_disabled":false,"rental_uris":{"android":"levelo://app?vid=55872c00-2a27-45e2-8cb6-3ad3563e8a35","ios":"levelo://app?vid=55872c00-2a27-45e2-8cb6-3ad3563e8a35"},"vehicle_type_id":"4","last_reported":1752433683,"current_range_meters":11200,"station_id":"ce4bgt12rcd13ifvqce0","pricing_plan_id":"cebpf4jnsgd1na2vs0mg"},{"bike_id":"5d522e77-ec27-4fd6-a510-ea7d6f16223a","system_id":"levelo_inurba_marseille","lat":43.27596,"lon":5.37092,"is_reserved":false,"is_disabled":false,"rental_uris":{"android":"levelo://app?vid=5d522e77-ec27-4fd6-a510-ea7d6f16223a","ios":"levelo://app?vid=5d522e77-ec27-4fd6-a510-ea7d6f16223a"},"vehicle_type_id":"4","last_reported":1752433683,"current_range_meters":11600,"station_id":"","pricing_plan_id":"cebpf4jnsgd1na2vs0mg"},{"bike_id":"85fd9d36-44ea-4f4f-9c03-07c4352b010d","system_id":"levelo_inurba_marseille","lat":43.2964,"lon":5.40602,"is_reserved":false,"is_disabled":false,"rental_uris":{"android":"levelo://app?vid=85fd9d36-44ea-4f4f-9c03-07c4352b010d","ios":"levelo://app?vid=85fd9d36-44ea-4f4f-9c03-07c4352b010d"},"vehicle_type_id":"4","last_reported":1752433683,"current_range_meters":11600,"station_id":"ce4bh0h2rcd13ifvqd60","pricing_plan_id":"cebpf4jnsgd1na2vs0mg"},{"bike_id":"8b37f03f-f226-4bbc-8648-b109da7ba145","system_id":"levelo_inurba_marseille","lat":43.30536,"lon":5.366999,"is_reserved":false,"is_disabled":false,"rental_uris":{"android":"levelo://app?vid=8b37f03f-f226-4bbc-8648-b109da7ba145","ios":"levelo://app?vid=8b37f03f-f226-4bbc-8648-b109da7ba145"},"vehicle_type_id":"4","last_reported":1752433683,"current_range_meters":11600,"station_id":"","pricing_plan_id":"cebpf4jnsgd1na2vs0mg"},{"bike_id":"f23760ff-ab61-4853-aa67-28aac93822c1","system_id":"levelo_inurba_marseille","lat":43.337444,"lon":5.374475,"is_reserved":false,"is_disabled":false,"rental_uris":{"android":"levelo://app?vid=f23760ff-ab61-4853-aa67-28aac93822c1","ios":"levelo://app?vid=f23760ff-ab61-4853-aa67-28aac93822c1"},"vehicle_type_id":"4","last_reported":1752433683,"current_range_meters":11600,"station_id":"","pricing_plan_id":"cebpf4jnsgd1na2vs0mg"},{"bike_id":"792b8725-b145-4f61-b094-2f3c9780ebe6","system_id":"levelo_inurba_marseille","lat":43.28608,"lon":5.37062,"is_reserved":false,"is_disabled":false,"rental_uris":{"android":"levelo://app?vid=792b8725-b145-4f61-b094-2f3c9780ebe6","ios":"levelo://app?vid=792b8725-b145-4f61-b094-2f3c9780ebe6"},"vehicle_type_id":"4","last_reported":1752433683,"current_range_meters":11600,"station_id":"ce4bht12rcd13ifvqi60","pricing_plan_id":"cebpf4jnsgd1na2vs0mg"},{"bike_id":"dc1604b9-1efc-4c05-83a9-21950496e011","system_id":"levelo_inurba_marseille","lat":43.29533,"lon":5.38544,"is_reserved":false,"is_disabled":false,"rental_uris":{"android":"levelo://app?vid=dc1604b9-1efc-4c05-83a9-21950496e011","ios":"levelo://app?vid=dc1604b9-1efc-4c05-83a9-21950496e011"},"vehicle_type_id":"4","last_reported":1752433683,"current_range_meters":12000,"station_id":"ce4bgih2rcd13ifvqba0","pricing_plan_id":"cebpf4jnsgd1na2vs0mg"},{"bike_id":"6d3f299a-d341-49bc-a1f9-7534528d9b67","system_id":"levelo_inurba_marseille","lat":43.231884,"lon":5.355574,"is_reserved":false,"is_disabled":false,"rental_uris":{"android":"levelo://app?vid=6d3f299a-d341-49bc-a1f9-7534528d9b67","ios":"levelo://app?vid=6d3f299a-d341-49bc-a1f9-7534528d9b67"},"vehicle_type_id":"4","last_reported":1752433683,"current_range_meters":12000,"station_id":"ce4bhu92rcd13ifvqi70","pricing_plan_id":"cebpf4jnsgd1na2vs0mg"},{"bike_id":"c700f998-7cbc-457a-a56a-699ac5e6fc9a","system_id":"levelo_inurba_marseille","lat":43.25111,"lon":5.40321,"is_reserved":false,"is_disabled":false,"rental_uris":{"android":"levelo://app?vid=c700f998-7cbc-457a-a56a-699ac5e6fc9a","ios":"levelo://app?vid=c700f998-7cbc-457a-a56a-699ac5e6fc9a"},"vehicle_type_id":"4","last_reported":1752433683,"current_range_meters":12000,"station_id":"ce4bhlh2rcd13ifvqgig","pricing_plan_id":"cebpf4jnsgd1na2vs0mg"},{"bike_id":"00afd354-eb9e-4aa4-8a34-72bedfd2e410","system_id":"levelo_inurba_marseille","lat":43.30799,"lon":5.38148,"is_reserved":false,"is_disabled":false,"rental_uris":{"android":"levelo://app?vid=00afd354-eb9e-4aa4-8a34-72bedfd2e410","ios":"levelo://app?vid=00afd354-eb9e-4aa4-8a34-72bedfd2e410"},"vehicle_type_id":"4","last_reported":1752433683,"current_range_meters":12000,"station_id":"ce4bgt12rcd13ifvqce0","pricing_plan_id":"cebpf4jnsgd1na2vs0mg"},{"bike_id":"3b1c118d-cf13-44cf-8cc9-9df71829a4ed","system_id":"levelo_inurba_marseille","lat":43.28438,"lon":5.39194,"is_reserved":false,"is_disabled":false,"rental_uris":{"android":"levelo://app?vid=3b1c118d-cf13-44cf-8cc9-9df71829a4ed","ios":"levelo://app?vid=3b1c118d-cf13-44cf-8cc9-9df71829a4ed"},"vehicle_type_id":"4","last_reported":1752433683,"current_range_meters":12400,"station_id":"ce4bhoh2rcd13ifvqh5g","pricing_plan_id":"cebpf4jnsgd1na2vs0mg"},{"bike_id":"3064d7db-7a51-4e85-bef4-6def601894cd","system_id":"levelo_inurba_marseille","lat":43.30963,"lon":5.39051,"is_reserved":false,"is_disabled":true,"rental_uris":{"android":"levelo://app?vid=3064d7db-7a51-4e85-bef4-6def601894cd","ios":"levelo://app?vid=3064d7db-7a51-4e85-bef4-6def601894cd"},"vehicle_type_id":"4","last_reported":1752433683,"current_range_meters":12400,"station_id":"ce4bgup2rcd13ifvqco0","pricing_plan_id":"cebpf4jnsgd1na2vs0mg"},{"bike_id":"3ba80a6b-c9f3-4a32-8bcf-33638533d23f","system_id":"levelo_inurba_marseille","lat":43.29097,"lon":5.38141,"is_reserved":false,"is_disabled":false,"rental_uris":{"android":"levelo://app?vid=3ba80a6b-c9f3-4a32-8bcf-33638533d23f","ios":"levelo://app?vid=3ba80a6b-c9f3-4a32-8bcf-33638533d23f"},"vehicle_type_id":"4","last_reported":1752433683,"current_range_meters":12400,"station_id":"ce4bh512rcd13ifvqe2g","pricing_plan_id":"cebpf4jnsgd1na2vs0mg"},{"bike_id":"645252d2-b266-41ea-ac89-e5fc596c92e6","system_id":"levelo_inurba_marseille","lat":43.3079,"lon":5.3816,"is_reserved":false,"is_disabled":false,"rental_uris":{"android":"levelo://app?vid=645252d2-b266-41ea-ac89-e5fc596c92e6","ios":"levelo://app?vid=645252d2-b266-41ea-ac89-e5fc596c92e6"},"vehicle_type_id":"4","last_reported":1752433683,"current_range_meters":12400,"station_id":"ce4bgt12rcd13ifvqce0","pricing_plan_id":"cebpf4jnsgd1na2vs0mg"},{"bike_id":"3cb19edb-4804-460b-b0b3-0b761f013548","system_id":"levelo_inurba_marseille","lat":43.28614,"lon":5.351,"is_reserved":false,"is_disabled":false,"rental_uris":{"android":"levelo://app?vid=3cb19edb-4804-460b-b0b3-0b761f013548","ios":"levelo://app?vid=3cb19edb-4804-460b-b0b3-0b761f013548"},"vehicle_type_id":"4","last_reported":1752433683,"current_range_meters":12400,"station_id":"ce4bhch2rcd13ifvqeug","pricing_plan_id":"cebpf4jnsgd1na2vs0mg"},{"bike_id":"cfbc0be2-89a1-44ee-af2f-25ecefd451c7","system_id":"levelo_inurba_marseille","lat":43.29968,"lon":5.37169,"is_reserved":false,"is_disabled":false,"rental_uris":{"android":"levelo://app?vid=cfbc0be2-89a1-44ee-af2f-25ecefd451c7","ios":"levelo://app?vid=cfbc0be2-89a1-44ee-af2f-25ecefd451c7"},"vehicle_type_id":"4","last_reported":1752433683,"current_range_meters":8400,"station_id":"ce4bgr92rcd13ifvqc7g","pricing_plan_id":"cebpf4jnsgd1na2vs0mg"},{"bike_id":"59bd944e-8158-4d03-98d6-e97af0707782","system_id":"levelo_inurba_marseille","lat":43.21207,"lon":5.35057,"is_reserved":false,"is_disabled":false,"rental_uris":{"android":"levelo://app?vid=59bd944e-8158-4d03-98d6-e97af0707782","ios":"levelo://app?vid=59bd944e-8158-4d03-98d6-e97af0707782"},"vehicle_type_id":"4","last_reported":1752433683,"current_range_meters":12400,"station_id":"st_cvj6sg6p6f1abm77japg","pricing_plan_id":"cebpf4jnsgd1na2vs0mg"},{"bike_id":"601412b0-6528-47af-965e-1711a93589ae","system_id":"levelo_inurba_marseille","lat":43.29555,"lon":5.42281,"is_reserved":false,"is_disabled":false,"rental_uris":{"android":"levelo://app?vid=601412b0-6528-47af-965e-1711a93589ae","ios":"levelo://app?vid=601412b0-6528-47af-965e-1711a93589ae"},"vehicle_type_id":"4","last_reported":1752433683,"current_range_meters":12800,"station_id":"ce4bhph2rcd13ifvqhdg","pricing_plan_id":"cebpf4jnsgd1na2vs0mg"},{"bike_id":"b1f14d6c-f9cd-4b31-a56c-8279d6d9ab9b","system_id":"levelo_inurba_marseille","lat":43.29966,"lon":5.38494,"is_reserved":false,"is_disabled":false,"rental_uris":{"android":"levelo://app?vid=b1f14d6c-f9cd-4b31-a56c-8279d6d9ab9b","ios":"levelo://app?vid=b1f14d6c-f9cd-4b31-a56c-8279d6d9ab9b"},"vehicle_type_id":"4","last_reported":1752433683,"current_range_meters":12800,"station_id":"ce4bgj92rcd13ifvqbd0","pricing_plan_id":"cebpf4jnsgd1na2vs0mg"},{"bike_id":"e2ce6e8a-ef9f-4211-8776-042780e4931d","system_id":"levelo_inurba_marseille","lat":43.284387,"lon":5.349789,"is_reserved":false,"is_disabled":true,"rental_uris":{"android":"levelo://app?vid=e2ce6e8a-ef9f-4211-8776-042780e4931d","ios":"levelo://app?vid=e2ce6e8a-ef9f-4211-8776-042780e4931d"},"vehicle_type_id":"4","last_reported":1752433683,"current_range_meters":12800,"station_id":"ce4bhbh2rcd13ifvqepg","pricing_plan_id":"cebpf4jnsgd1na2vs0mg"},{"bike_id":"7048b274-bb73-4f78-bd84-2dffe4927289","system_id":"levelo_inurba_marseille","lat":43.2979,"lon":5.39354,"is_reserved":false,"is_disabled":true,"rental_uris":{"android":"levelo://app?vid=7048b274-bb73-4f78-bd84-2dffe4927289","ios":"levelo://app?vid=7048b274-bb73-4f78-bd84-2dffe4927289"},"vehicle_type_id":"4","last_reported":1752433683,"current_range_meters":12800,"station_id":"chh1huq6cuj3fo74tm60","pricing_plan_id":"cebpf4jnsgd1na2vs0mg"},{"bike_id":"3b16c353-4b08-466b-9efe-b1b6f355a715","system_id":"levelo_inurba_marseille","lat":43.29511,"lon":5.39403,"is_reserved":false,"is_disabled":false,"rental_uris":{"android":"levelo://app?vid=3b16c353-4b08-466b-9efe-b1b6f355a715","ios":"levelo://app?vid=3b16c353-4b08-466b-9efe-b1b6f355a715"},"vehicle_type_id":"4","last_reported":1752433683,"current_range_meters":12800,"station_id":"ce4bh292rcd13ifvqdf0","pricing_plan_id":"cebpf4jnsgd1na2vs0mg"},{"bike_id":"62fac614-47b6-4ccf-9920-6cea6ff3d419","system_id":"levelo_inurba_marseille","lat":43.230594,"lon":5.35491,"is_reserved":false,"is_disabled":true,"rental_uris":{"android":"levelo://app?vid=62fac614-47b6-4ccf-9920-6cea6ff3d419","ios":"levelo://app?vid=62fac614-47b6-4ccf-9920-6cea6ff3d419"},"vehicle_type_id":"4","last_reported":1752433683,"current_range_meters":12800,"station_id":"cpo3532slgdg3j2ikp40","pricing_plan_id":"cebpf4jnsgd1na2vs0mg"},{"bike_id":"6f06c981-4e8f-4fb1-b3ea-e465da24c06f","system_id":"levelo_inurba_marseille","lat":43.249998,"lon":5.389284,"is_reserved":false,"is_disabled":false,"rental_uris":{"android":"levelo://app?vid=6f06c981-4e8f-4fb1-b3ea-e465da24c06f","ios":"levelo://app?vid=6f06c981-4e8f-4fb1-b3ea-e465da24c06f"},"vehicle_type_id":"4","last_reported":1752433683,"current_range_meters":13600,"station_id":"ce4bhgp2rcd13ifvqfd0","pricing_plan_id":"cebpf4jnsgd1na2vs0mg"},{"bike_id":"b43b2136-b460-4889-aedd-7488171725a4","system_id":"levelo_inurba_marseille","lat":43.29569,"lon":5.38546,"is_reserved":false,"is_disabled":false,"rental_uris":{"android":"levelo://app?vid=b43b2136-b460-4889-aedd-7488171725a4","ios":"levelo://app?vid=b43b2136-b460-4889-aedd-7488171725a4"},"vehicle_type_id":"4","last_reported":1752433683,"current_range_meters":13600,"station_id":"ce4bgih2rcd13ifvqba0","pricing_plan_id":"cebpf4jnsgd1na2vs0mg"},{"bike_id":"116ab867-6d4c-4afd-97f7-a02b1218134c","system_id":"levelo_inurba_marseille","lat":43.29414,"lon":5.38605,"is_reserved":false,"is_disabled":false,"rental_uris":{"android":"levelo://app?vid=116ab867-6d4c-4afd-97f7-a02b1218134c","ios":"levelo://app?vid=116ab867-6d4c-4afd-97f7-a02b1218134c"},"vehicle_type_id":"4","last_reported":1752433683,"current_range_meters":13600,"station_id":"ce4bh2h2rcd13ifvqdh0","pricing_plan_id":"cebpf4jnsgd1na2vs0mg"},{"bike_id":"1366d683-1ebd-44a1-9e66-5d68d4b85ee8","system_id":"levelo_inurba_marseille","lat":43.2571,"lon":5.4112,"is_reserved":false,"is_disabled":false,"rental_uris":{"android":"levelo://app?vid=1366d683-1ebd-44a1-9e66-5d68d4b85ee8","ios":"levelo://app?vid=1366d683-1ebd-44a1-9e66-5d68d4b85ee8"},"vehicle_type_id":"4","last_reported":1752433683,"current_range_meters":13600,"station_id":"ce4bhkp2rcd13ifvqgd0","pricing_plan_id":"cebpf4jnsgd1na2vs0mg"},{"bike_id":"a44f68aa-b920-4eb6-845e-df1183944a6b","system_id":"levelo_inurba_marseille","lat":43.2858,"lon":5.35051,"is_reserved":false,"is_disabled":true,"rental_uris":{"android":"levelo://app?vid=a44f68aa-b920-4eb6-845e-df1183944a6b","ios":"levelo://app?vid=a44f68aa-b920-4eb6-845e-df1183944a6b"},"vehicle_type_id":"4","last_reported":1752433683,"current_range_meters":13600,"station_id":"","pricing_plan_id":"cebpf4jnsgd1na2vs0mg"},{"bike_id":"b90a4c3f-f431-4a4f-98c8-11bda501b92a","system_id":"levelo_inurba_marseille","lat":43.29909,"lon":5.38139,"is_reserved":false,"is_disabled":false,"rental_uris":{"android":"levelo://app?vid=b90a4c3f-f431-4a4f-98c8-11bda501b92a","ios":"levelo://app?vid=b90a4c3f-f431-4a4f-98c8-11bda501b92a"},"vehicle_type_id":"4","last_reported":1752433683,"current_range_meters":13600,"station_id":"ce4bgj12rcd13ifvqbc0","pricing_plan_id":"cebpf4jnsgd1na2vs0mg"},{"bike_id":"947f6994-5216-4191-afd1-9c7412197203","system_id":"levelo_inurba_marseille","lat":43.28405,"lon":5.37483,"is_reserved":false,"is_disabled":false,"rental_uris":{"android":"levelo://app?vid=947f6994-5216-4191-afd1-9c7412197203","ios":"levelo://app?vid=947f6994-5216-4191-afd1-9c7412197203"},"vehicle_type_id":"4","last_reported":1752433683,"current_range_meters":14000,"station_id":"ce4bh412rcd13ifvqds0","pricing_plan_id":"cebpf4jnsgd1na2vs0mg"},{"bike_id":"bcbf738f-1bc3-4516-85da-8f9c93fbde21","system_id":"levelo_inurba_marseille","lat":43.29611,"lon":5.38066,"is_reserved":false,"is_disabled":false,"rental_uris":{"android":"levelo://app?vid=bcbf738f-1bc3-4516-85da-8f9c93fbde21","ios":"levelo://app?vid=bcbf738f-1bc3-4516-85da-8f9c93fbde21"},"vehicle_type_id":"4","last_reported":1752433683,"current_range_meters":14000,"station_id":"ce4bgl12rcd13ifvqbo0","pricing_plan_id":"cebpf4jnsgd1na2vs0mg"},{"bike_id":"d8036479-4244-433c-95f7-f266fabeeb93","system_id":"levelo_inurba_marseille","lat":43.29932,"lon":5.36545,"is_reserved":false,"is_disabled":false,"rental_uris":{"android":"levelo://app?vid=d8036479-4244-433c-95f7-f266fabeeb93","ios":"levelo://app?vid=d8036479-4244-433c-95f7-f266fabeeb93"},"vehicle_type_id":"4","last_reported":1752433683,"current_range_meters":14000,"station_id":"ce4bgm92rcd13ifvqbr0","pricing_plan_id":"cebpf4jnsgd1na2vs0mg"},{"bike_id":"fe5e3cc4-7269-47dc-bb1e-2be389730cd8","system_id":"levelo_inurba_marseille","lat":43.29526,"lon":5.38537,"is_reserved":false,"is_disabled":false,"rental_uris":{"android":"levelo://app?vid=fe5e3cc4-7269-47dc-bb1e-2be389730cd8","ios":"levelo://app?vid=fe5e3cc4-7269-47dc-bb1e-2be389730cd8"},"vehicle_type_id":"4","last_reported":1752433683,"current_range_meters":14000,"station_id":"ce4bgih2rcd13ifvqba0","pricing_plan_id":"cebpf4jnsgd1na2vs0mg"},{"bike_id":"c7187e07-d40c-445f-9e54-a150bc631872","system_id":"levelo_inurba_marseille","lat":43.279075,"lon":5.380148,"is_reserved":false,"is_disabled":false,"rental_uris":{"android":"levelo://app?vid=c7187e07-d40c-445f-9e54-a150bc631872","ios":"levelo://app?vid=c7187e07-d40c-445f-9e54-a150bc631872"},"vehicle_type_id":"4","last_reported":1752433683,"current_range_meters":14000,"station_id":"ce4bhf92rcd13ifvqf50","pricing_plan_id":"cebpf4jnsgd1na2vs0mg"},{"bike_id":"1007b3d2-4593-43e6-8227-034c8a4e6796","system_id":"levelo_inurba_marseille","lat":43.292633,"lon":5.384368,"is_reserved":false,"is_disabled":false,"rental_uris":{"android":"levelo://app?vid=1007b3d2-4593-43e6-8227-034c8a4e6796","ios":"levelo://app?vid=1007b3d2-4593-43e6-8227-034c8a4e6796"},"vehicle_type_id":"4","last_reported":1752433683,"current_range_meters":14000,"station_id":"ce4bhbh2rcd13ifvqepg","pricing_plan_id":"cebpf4jnsgd1na2vs0mg"},{"bike_id":"56fe633b-008a-4c57-8eb6-66db3138f0b6","system_id":"levelo_inurba_marseille","lat":43.27225,"lon":5.39203,"is_reserved":false,"is_disabled":false,"rental_uris":{"android":"levelo://app?vid=56fe633b-008a-4c57-8eb6-66db3138f0b6","ios":"levelo://app?vid=56fe633b-008a-4c57-8eb6-66db3138f0b6"},"vehicle_type_id":"4","last_reported":1752433683,"current_range_meters":14000,"station_id":"ce4bhhp2rcd13ifvqfm0","pricing_plan_id":"cebpf4jnsgd1na2vs0mg"},{"bike_id":"89b888ec-407d-4efd-8dff-b1f4e809ae74","system_id":"levelo_inurba_marseille","lat":43.308017,"lon":5.381602,"is_reserved":false,"is_disabled":false,"rental_uris":{"android":"levelo://app?vid=89b888ec-407d-4efd-8dff-b1f4e809ae74","ios":"levelo://app?vid=89b888ec-407d-4efd-8dff-b1f4e809ae74"},"vehicle_type_id":"4","last_reported":1752433683,"current_range_meters":14000,"station_id":"ce4bgt12rcd13ifvqce0","pricing_plan_id":"cebpf4jnsgd1na2vs0mg"},{"bike_id":"1899dfe5-543f-451e-b4b4-956a852c6b4c","system_id":"levelo_inurba_marseille","lat":43.23149,"lon":5.43711,"is_reserved":false,"is_disabled":false,"rental_uris":{"android":"levelo://app?vid=1899dfe5-543f-451e-b4b4-956a852c6b4c","ios":"levelo://app?vid=1899dfe5-543f-451e-b4b4-956a852c6b4c"},"vehicle_type_id":"4","last_reported":1752433683,"current_range_meters":14000,"station_id":"ce4bhmp2rcd13ifvqgog","pricing_plan_id":"cebpf4jnsgd1na2vs0mg"},{"bike_id":"1949ad9e-1919-46fc-bcd2-7e338028b759","system_id":"levelo_inurba_marseille","lat":43.30134,"lon":5.38785,"is_reserved":false,"is_disabled":false,"rental_uris":{"android":"levelo://app?vid=1949ad9e-1919-46fc-bcd2-7e338028b759","ios":"levelo://app?vid=1949ad9e-1919-46fc-bcd2-7e338028b759"},"vehicle_type_id":"4","last_reported":1752433683,"current_range_meters":15200,"station_id":"ce4bghh2rcd13ifvqb60","pricing_plan_id":"cebpf4jnsgd1na2vs0mg"},{"bike_id":"755f5a2b-ffe3-41e3-b53b-f76d7bf8470a","system_id":"levelo_inurba_marseille","lat":43.27941,"lon":5.4104,"is_reserved":false,"is_disabled":false,"rental_uris":{"android":"levelo://app?vid=755f5a2b-ffe3-41e3-b53b-f76d7bf8470a","ios":"levelo://app?vid=755f5a2b-ffe3-41e3-b53b-f76d7bf8470a"},"vehicle_type_id":"4","last_reported":1752433683,"current_range_meters":14400,"station_id":"ce4bhnp2rcd13ifvqh0g","pricing_plan_id":"cebpf4jnsgd1na2vs0mg"},{"bike_id":"9a46b9ab-a60b-45fc-88a3-caad63ae5b94","system_id":"levelo_inurba_marseille","lat":43.33759,"lon":5.37489,"is_reserved":false,"is_disabled":true,"rental_uris":{"android":"levelo://app?vid=9a46b9ab-a60b-45fc-88a3-caad63ae5b94","ios":"levelo://app?vid=9a46b9ab-a60b-45fc-88a3-caad63ae5b94"},"vehicle_type_id":"4","last_reported":1752433683,"current_range_meters":14400,"station_id":"","pricing_plan_id":"cebpf4jnsgd1na2vs0mg"},{"bike_id":"bee5ba22-cb9e-47fe-a64f-2b34d9c08916","system_id":"levelo_inurba_marseille","lat":43.289387,"lon":5.364013,"is_reserved":false,"is_disabled":false,"rental_uris":{"android":"levelo://app?vid=bee5ba22-cb9e-47fe-a64f-2b34d9c08916","ios":"levelo://app?vid=bee5ba22-cb9e-47fe-a64f-2b34d9c08916"},"vehicle_type_id":"4","last_reported":1752433683,"current_range_meters":14400,"station_id":"ce4bhc92rcd13ifvqetg","pricing_plan_id":"cebpf4jnsgd1na2vs0mg"},{"bike_id":"782edaa1-3564-4d18-b3b0-9716920ac42f","system_id":"levelo_inurba_marseille","lat":43.28722,"lon":5.37928,"is_reserved":false,"is_disabled":false,"rental_uris":{"android":"levelo://app?vid=782edaa1-3564-4d18-b3b0-9716920ac42f","ios":"levelo://app?vid=782edaa1-3564-4d18-b3b0-9716920ac42f"},"vehicle_type_id":"4","last_reported":1752433683,"current_range_meters":14400,"station_id":"ce4bh9p2rcd13ifvqec0","pricing_plan_id":"cebpf4jnsgd1na2vs0mg"},{"bike_id":"cdb74e7f-d700-4917-aa2d-66310a1a68d4","system_id":"levelo_inurba_marseille","lat":43.27992,"lon":5.40019,"is_reserved":false,"is_disabled":false,"rental_uris":{"android":"levelo://app?vid=cdb74e7f-d700-4917-aa2d-66310a1a68d4","ios":"levelo://app?vid=cdb74e7f-d700-4917-aa2d-66310a1a68d4"},"vehicle_type_id":"4","last_reported":1752433683,"current_range_meters":14400,"station_id":"ce4bho92rcd13ifvqh4g","pricing_plan_id":"cebpf4jnsgd1na2vs0mg"},{"bike_id":"0e483935-2d83-4006-b98d-47da1e59091a","system_id":"levelo_inurba_marseille","lat":43.21193,"lon":5.35063,"is_reserved":false,"is_disabled":false,"rental_uris":{"android":"levelo://app?vid=0e483935-2d83-4006-b98d-47da1e59091a","ios":"levelo://app?vid=0e483935-2d83-4006-b98d-47da1e59091a"},"vehicle_type_id":"4","last_reported":1752433683,"current_range_meters":14400,"station_id":"st_cvj6sg6p6f1abm77japg","pricing_plan_id":"cebpf4jnsgd1na2vs0mg"},{"bike_id":"5fe3ceee-686d-40ab-b007-7120b2e61bb9","system_id":"levelo_inurba_marseille","lat":43.29269,"lon":5.3845,"is_reserved":false,"is_disabled":false,"rental_uris":{"android":"levelo://app?vid=5fe3ceee-686d-40ab-b007-7120b2e61bb9","ios":"levelo://app?vid=5fe3ceee-686d-40ab-b007-7120b2e61bb9"},"vehicle_type_id":"4","last_reported":1752433683,"current_range_meters":14400,"station_id":"ce4bh692rcd13ifvqea0","pricing_plan_id":"cebpf4jnsgd1na2vs0mg"},{"bike_id":"538d18cc-d47d-4564-ae31-4e8854697729","system_id":"levelo_inurba_marseille","lat":43.27174,"lon":5.40995,"is_reserved":false,"is_disabled":false,"rental_uris":{"android":"levelo://app?vid=538d18cc-d47d-4564-ae31-4e8854697729","ios":"levelo://app?vid=538d18cc-d47d-4564-ae31-4e8854697729"},"vehicle_type_id":"4","last_reported":1752433683,"current_range_meters":14400,"station_id":"ce4bhl12rcd13ifvqgf0","pricing_plan_id":"cebpf4jnsgd1na2vs0mg"},{"bike_id":"b5ac0d67-6875-4019-bf6a-1fa34ed63cca","system_id":"levelo_inurba_marseille","lat":43.30944,"lon":5.39032,"is_reserved":false,"is_disabled":false,"rental_uris":{"android":"levelo://app?vid=b5ac0d67-6875-4019-bf6a-1fa34ed63cca","ios":"levelo://app?vid=b5ac0d67-6875-4019-bf6a-1fa34ed63cca"},"vehicle_type_id":"4","last_reported":1752433683,"current_range_meters":14800,"station_id":"ce4bgup2rcd13ifvqco0","pricing_plan_id":"cebpf4jnsgd1na2vs0mg"},{"bike_id":"1eddcbc5-e14f-4b20-b063-818b2b9c192d","system_id":"levelo_inurba_marseille","lat":43.29314,"lon":5.37168,"is_reserved":false,"is_disabled":false,"rental_uris":{"android":"levelo://app?vid=1eddcbc5-e14f-4b20-b063-818b2b9c192d","ios":"levelo://app?vid=1eddcbc5-e14f-4b20-b063-818b2b9c192d"},"vehicle_type_id":"4","last_reported":1752433683,"current_range_meters":14800,"station_id":"ce4bgh92rcd13ifvqb40","pricing_plan_id":"cebpf4jnsgd1na2vs0mg"},{"bike_id":"ced0c6fd-c968-4eaa-8119-4395c687ef9e","system_id":"levelo_inurba_marseille","lat":43.27052,"lon":5.40262,"is_reserved":false,"is_disabled":false,"rental_uris":{"android":"levelo://app?vid=ced0c6fd-c968-4eaa-8119-4395c687ef9e","ios":"levelo://app?vid=ced0c6fd-c968-4eaa-8119-4395c687ef9e"},"vehicle_type_id":"4","last_reported":1752433683,"current_range_meters":14800,"station_id":"ce4bhk92rcd13ifvqgc0","pricing_plan_id":"cebpf4jnsgd1na2vs0mg"},{"bike_id":"14a1dddd-7003-4b71-8091-ba93f06d79ad","system_id":"levelo_inurba_marseille","lat":43.26043,"lon":5.37503,"is_reserved":false,"is_disabled":false,"rental_uris":{"android":"levelo://app?vid=14a1dddd-7003-4b71-8091-ba93f06d79ad","ios":"levelo://app?vid=14a1dddd-7003-4b71-8091-ba93f06d79ad"},"vehicle_type_id":"4","last_reported":1752433683,"current_range_meters":14800,"station_id":"ce4bhgh2rcd13ifvqfa0","pricing_plan_id":"cebpf4jnsgd1na2vs0mg"},{"bike_id":"ccaffb67-4e99-407b-b251-5f8503d308ed","system_id":"levelo_inurba_marseille","lat":43.29688,"lon":5.36683,"is_reserved":false,"is_disabled":false,"rental_uris":{"android":"levelo://app?vid=ccaffb67-4e99-407b-b251-5f8503d308ed","ios":"levelo://app?vid=ccaffb67-4e99-407b-b251-5f8503d308ed"},"vehicle_type_id":"4","last_reported":1752433683,"current_range_meters":14800,"station_id":"","pricing_plan_id":"cebpf4jnsgd1na2vs0mg"},{"bike_id":"d23b74c8-dd37-49ae-9674-e8dbc508da56","system_id":"levelo_inurba_marseille","lat":43.2993,"lon":5.36549,"is_reserved":false,"is_disabled":false,"rental_uris":{"android":"levelo://app?vid=d23b74c8-dd37-49ae-9674-e8dbc508da56","ios":"levelo://app?vid=d23b74c8-dd37-49ae-9674-e8dbc508da56"},"vehicle_type_id":"4","last_reported":1752433683,"current_range_meters":14800,"station_id":"ce4bgm92rcd13ifvqbr0","pricing_plan_id":"cebpf4jnsgd1na2vs0mg"},{"bike_id":"02b29f73-9448-469e-abfd-d27f635907fc","system_id":"levelo_inurba_marseille","lat":43.27371,"lon":5.36256,"is_reserved":false,"is_disabled":false,"rental_uris":{"android":"levelo://app?vid=02b29f73-9448-469e-abfd-d27f635907fc","ios":"levelo://app?vid=02b29f73-9448-469e-abfd-d27f635907fc"},"vehicle_type_id":"4","last_reported":1752433683,"current_range_meters":15200,"station_id":"ce4bhbh2rcd13ifvqeo0","pricing_plan_id":"cebpf4jnsgd1na2vs0mg"},{"bike_id":"1a469edf-5352-481f-91e3-cfaef6ee1547","system_id":"levelo_inurba_marseille","lat":43.21223,"lon":5.35055,"is_reserved":false,"is_disabled":false,"rental_uris":{"android":"levelo://app?vid=1a469edf-5352-481f-91e3-cfaef6ee1547","ios":"levelo://app?vid=1a469edf-5352-481f-91e3-cfaef6ee1547"},"vehicle_type_id":"4","last_reported":1752433683,"current_range_meters":15200,"station_id":"","pricing_plan_id":"cebpf4jnsgd1na2vs0mg"},{"bike_id":"d56f5dba-28b0-4d99-b1db-101a342a4768","system_id":"levelo_inurba_marseille","lat":43.306763,"lon":5.381657,"is_reserved":false,"is_disabled":false,"rental_uris":{"android":"levelo://app?vid=d56f5dba-28b0-4d99-b1db-101a342a4768","ios":"levelo://app?vid=d56f5dba-28b0-4d99-b1db-101a342a4768"},"vehicle_type_id":"4","last_reported":1752433683,"current_range_meters":15200,"station_id":"ce4bgt12rcd13ifvqce0","pricing_plan_id":"cebpf4jnsgd1na2vs0mg"},{"bike_id":"7269d02a-d339-42f2-9268-579d2d090d90","system_id":"levelo_inurba_marseille","lat":43.28148,"lon":5.43819,"is_reserved":false,"is_disabled":false,"rental_uris":{"android":"levelo://app?vid=7269d02a-d339-42f2-9268-579d2d090d90","ios":"levelo://app?vid=7269d02a-d339-42f2-9268-579d2d090d90"},"vehicle_type_id":"4","last_reported":1752433683,"current_range_meters":15200,"station_id":"","pricing_plan_id":"cebpf4jnsgd1na2vs0mg"},{"bike_id":"2ee4bceb-5e6b-4926-882e-97629c7a5539","system_id":"levelo_inurba_marseille","lat":43.297799,"lon":5.380997,"is_reserved":false,"is_disabled":false,"rental_uris":{"android":"levelo://app?vid=2ee4bceb-5e6b-4926-882e-97629c7a5539","ios":"levelo://app?vid=2ee4bceb-5e6b-4926-882e-97629c7a5539"},"vehicle_type_id":"4","last_reported":1752433683,"current_range_meters":15200,"station_id":"ce4bgip2rcd13ifvqbb0","pricing_plan_id":"cebpf4jnsgd1na2vs0mg"},{"bike_id":"79ac9d5c-87ca-42a3-a25e-34606432c125","system_id":"levelo_inurba_marseille","lat":43.21181,"lon":5.35068,"is_reserved":false,"is_disabled":false,"rental_uris":{"android":"levelo://app?vid=79ac9d5c-87ca-42a3-a25e-34606432c125","ios":"levelo://app?vid=79ac9d5c-87ca-42a3-a25e-34606432c125"},"vehicle_type_id":"4","last_reported":1752433683,"current_range_meters":15200,"station_id":"st_cvj6sg6p6f1abm77japg","pricing_plan_id":"cebpf4jnsgd1na2vs0mg"},{"bike_id":"8690d514-a5a6-486d-8bcf-795e813d3101","system_id":"levelo_inurba_marseille","lat":43.2972,"lon":5.37691,"is_reserved":false,"is_disabled":false,"rental_uris":{"android":"levelo://app?vid=8690d514-a5a6-486d-8bcf-795e813d3101","ios":"levelo://app?vid=8690d514-a5a6-486d-8bcf-795e813d3101"},"vehicle_type_id":"4","last_reported":1752433683,"current_range_meters":15200,"station_id":"ce4bgkh2rcd13ifvqbl0","pricing_plan_id":"cebpf4jnsgd1na2vs0mg"},{"bike_id":"bfa12c31-1a7d-4ff9-9e9a-e56395392d12","system_id":"levelo_inurba_marseille","lat":43.2319,"lon":5.35539,"is_reserved":false,"is_disabled":true,"rental_uris":{"android":"levelo://app?vid=bfa12c31-1a7d-4ff9-9e9a-e56395392d12","ios":"levelo://app?vid=bfa12c31-1a7d-4ff9-9e9a-e56395392d12"},"vehicle_type_id":"4","last_reported":1752433683,"current_range_meters":15200,"station_id":"ce4bhu92rcd13ifvqi70","pricing_plan_id":"cebpf4jnsgd1na2vs0mg"},{"bike_id":"8f4c6436-ae21-493c-b2ce-cabd95ea103e","system_id":"levelo_inurba_marseille","lat":43.29258,"lon":5.3844,"is_reserved":false,"is_disabled":false,"rental_uris":{"android":"levelo://app?vid=8f4c6436-ae21-493c-b2ce-cabd95ea103e","ios":"levelo://app?vid=8f4c6436-ae21-493c-b2ce-cabd95ea103e"},"vehicle_type_id":"4","last_reported":1752433683,"current_range_meters":16000,"station_id":"ce4bh692rcd13ifvqea0","pricing_plan_id":"cebpf4jnsgd1na2vs0mg"},{"bike_id":"58375fde-ca97-4dab-be52-59caf98323d3","system_id":"levelo_inurba_marseille","lat":43.26553,"lon":5.37272,"is_reserved":false,"is_disabled":true,"rental_uris":{"android":"levelo://app?vid=58375fde-ca97-4dab-be52-59caf98323d3","ios":"levelo://app?vid=58375fde-ca97-4dab-be52-59caf98323d3"},"vehicle_type_id":"4","last_reported":1752433683,"current_range_meters":16000,"station_id":"ce4bhg12rcd13ifvqf70","pricing_plan_id":"cebpf4jnsgd1na2vs0mg"},{"bike_id":"1700fcd6-30ad-4b74-a158-50e5dcb60b9b","system_id":"levelo_inurba_marseille","lat":43.28945,"lon":5.36639,"is_reserved":false,"is_disabled":true,"rental_uris":{"android":"levelo://app?vid=1700fcd6-30ad-4b74-a158-50e5dcb60b9b","ios":"levelo://app?vid=1700fcd6-30ad-4b74-a158-50e5dcb60b9b"},"vehicle_type_id":"4","last_reported":1752433683,"current_range_meters":16000,"station_id":"ce4bhap2rcd13ifvqek0","pricing_plan_id":"cebpf4jnsgd1na2vs0mg"},{"bike_id":"869678c7-e1fc-41a2-93b8-ced1eebfd6ca","system_id":"levelo_inurba_marseille","lat":43.27212,"lon":5.3918,"is_reserved":false,"is_disabled":false,"rental_uris":{"android":"levelo://app?vid=869678c7-e1fc-41a2-93b8-ced1eebfd6ca","ios":"levelo://app?vid=869678c7-e1fc-41a2-93b8-ced1eebfd6ca"},"vehicle_type_id":"4","last_reported":1752433683,"current_range_meters":16000,"station_id":"ce4bhhp2rcd13ifvqfm0","pricing_plan_id":"cebpf4jnsgd1na2vs0mg"},{"bike_id":"486e104a-f260-4fc3-a76c-007aafda0d08","system_id":"levelo_inurba_marseille","lat":43.29623,"lon":5.37707,"is_reserved":false,"is_disabled":false,"rental_uris":{"android":"levelo://app?vid=486e104a-f260-4fc3-a76c-007aafda0d08","ios":"levelo://app?vid=486e104a-f260-4fc3-a76c-007aafda0d08"},"vehicle_type_id":"4","last_reported":1752433683,"current_range_meters":16000,"station_id":"ce4bgi92rcd13ifvqb90","pricing_plan_id":"cebpf4jnsgd1na2vs0mg"},{"bike_id":"3ed5a958-260e-4469-9820-42936ef47aa5","system_id":"levelo_inurba_marseille","lat":43.296704,"lon":5.378685,"is_reserved":false,"is_disabled":false,"rental_uris":{"android":"levelo://app?vid=3ed5a958-260e-4469-9820-42936ef47aa5","ios":"levelo://app?vid=3ed5a958-260e-4469-9820-42936ef47aa5"},"vehicle_type_id":"4","last_reported":1752433683,"current_range_meters":16400,"station_id":"ce4bgi92rcd13ifvqb90","pricing_plan_id":"cebpf4jnsgd1na2vs0mg"},{"bike_id":"79724c7a-8951-4858-8e03-5dd8592df824","system_id":"levelo_inurba_marseille","lat":43.30311,"lon":5.36898,"is_reserved":false,"is_disabled":true,"rental_uris":{"android":"levelo://app?vid=79724c7a-8951-4858-8e03-5dd8592df824","ios":"levelo://app?vid=79724c7a-8951-4858-8e03-5dd8592df824"},"vehicle_type_id":"4","last_reported":1752433683,"current_range_meters":16400,"station_id":"ce4bgqh2rcd13ifvqc5g","pricing_plan_id":"cebpf4jnsgd1na2vs0mg"},{"bike_id":"7b60e2b3-fe60-4caf-8d3e-4c917054d448","system_id":"levelo_inurba_marseille","lat":43.28436,"lon":5.34932,"is_reserved":false,"is_disabled":true,"rental_uris":{"android":"levelo://app?vid=7b60e2b3-fe60-4caf-8d3e-4c917054d448","ios":"levelo://app?vid=7b60e2b3-fe60-4caf-8d3e-4c917054d448"},"vehicle_type_id":"4","last_reported":1752433683,"current_range_meters":16400,"station_id":"ce4bhbh2rcd13ifvqepg","pricing_plan_id":"cebpf4jnsgd1na2vs0mg"},{"bike_id":"28f6661f-fa05-4b8f-8f5e-cb4158aac2c7","system_id":"levelo_inurba_marseille","lat":43.29379,"lon":5.37842,"is_reserved":false,"is_disabled":true,"rental_uris":{"android":"levelo://app?vid=28f6661f-fa05-4b8f-8f5e-cb4158aac2c7","ios":"levelo://app?vid=28f6661f-fa05-4b8f-8f5e-cb4158aac2c7"},"vehicle_type_id":"4","last_reported":1752433683,"current_range_meters":16400,"station_id":"ce4bgjh2rcd13ifvqbf0","pricing_plan_id":"cebpf4jnsgd1na2vs0mg"},{"bike_id":"31c710b8-59c4-4592-9629-b8ad795fae60","system_id":"levelo_inurba_marseille","lat":43.30254,"lon":5.40073,"is_reserved":false,"is_disabled":true,"rental_uris":{"android":"levelo://app?vid=31c710b8-59c4-4592-9629-b8ad795fae60","ios":"levelo://app?vid=31c710b8-59c4-4592-9629-b8ad795fae60"},"vehicle_type_id":"4","last_reported":1752433683,"current_range_meters":16400,"station_id":"ce4bgvh2rcd13ifvqcs0","pricing_plan_id":"cebpf4jnsgd1na2vs0mg"},{"bike_id":"c7377893-ce01-48e7-be86-d517688b662a","system_id":"levelo_inurba_marseille","lat":43.29576,"lon":5.37523,"is_reserved":false,"is_disabled":false,"rental_uris":{"android":"levelo://app?vid=c7377893-ce01-48e7-be86-d517688b662a","ios":"levelo://app?vid=c7377893-ce01-48e7-be86-d517688b662a"},"vehicle_type_id":"4","last_reported":1752433683,"current_range_meters":16400,"station_id":"ce4bgh92rcd13ifvqb50","pricing_plan_id":"cebpf4jnsgd1na2vs0mg"},{"bike_id":"a7f266e1-ee65-41f8-9c40-a9cb116db8cd","system_id":"levelo_inurba_marseille","lat":43.25704,"lon":5.41099,"is_reserved":false,"is_disabled":false,"rental_uris":{"android":"levelo://app?vid=a7f266e1-ee65-41f8-9c40-a9cb116db8cd","ios":"levelo://app?vid=a7f266e1-ee65-41f8-9c40-a9cb116db8cd"},"vehicle_type_id":"4","last_reported":1752433683,"current_range_meters":16400,"station_id":"ce4bhkp2rcd13ifvqgd0","pricing_plan_id":"cebpf4jnsgd1na2vs0mg"},{"bike_id":"b053f929-7efb-49cd-9959-74ef096980bb","system_id":"levelo_inurba_marseille","lat":43.33772,"lon":5.37458,"is_reserved":false,"is_disabled":true,"rental_uris":{"android":"levelo://app?vid=b053f929-7efb-49cd-9959-74ef096980bb","ios":"levelo://app?vid=b053f929-7efb-49cd-9959-74ef096980bb"},"vehicle_type_id":"4","last_reported":1752433683,"current_range_meters":16400,"station_id":"","pricing_plan_id":"cebpf4jnsgd1na2vs0mg"},{"bike_id":"1aedaa42-1f03-48cc-8e38-d983e72f730b","system_id":"levelo_inurba_marseille","lat":43.27082,"lon":5.42282,"is_reserved":false,"is_disabled":false,"rental_uris":{"android":"levelo://app?vid=1aedaa42-1f03-48cc-8e38-d983e72f730b","ios":"levelo://app?vid=1aedaa42-1f03-48cc-8e38-d983e72f730b"},"vehicle_type_id":"4","last_reported":1752433683,"current_range_meters":16400,"station_id":"ce4bhk92rcd13ifvqgb0","pricing_plan_id":"cebpf4jnsgd1na2vs0mg"},{"bike_id":"f2183f19-3763-4a25-8229-a828f773ef0d","system_id":"levelo_inurba_marseille","lat":43.23195,"lon":5.35551,"is_reserved":false,"is_disabled":false,"rental_uris":{"android":"levelo://app?vid=f2183f19-3763-4a25-8229-a828f773ef0d","ios":"levelo://app?vid=f2183f19-3763-4a25-8229-a828f773ef0d"},"vehicle_type_id":"4","last_reported":1752433683,"current_range_meters":16400,"station_id":"ce4bhu92rcd13ifvqi70","pricing_plan_id":"cebpf4jnsgd1na2vs0mg"},{"bike_id":"e083971e-8892-4464-9f88-a7902557aa4d","system_id":"levelo_inurba_marseille","lat":43.23195,"lon":5.35534,"is_reserved":false,"is_disabled":false,"rental_uris":{"android":"levelo://app?vid=e083971e-8892-4464-9f88-a7902557aa4d","ios":"levelo://app?vid=e083971e-8892-4464-9f88-a7902557aa4d"},"vehicle_type_id":"4","last_reported":1752433683,"current_range_meters":16400,"station_id":"ce4bhu92rcd13ifvqi70","pricing_plan_id":"cebpf4jnsgd1na2vs0mg"},{"bike_id":"77afb162-ed1b-4c74-b5e9-8aca149da95a","system_id":"levelo_inurba_marseille","lat":43.29701,"lon":5.36615,"is_reserved":false,"is_disabled":false,"rental_uris":{"android":"levelo://app?vid=77afb162-ed1b-4c74-b5e9-8aca149da95a","ios":"levelo://app?vid=77afb162-ed1b-4c74-b5e9-8aca149da95a"},"vehicle_type_id":"4","last_reported":1752433683,"current_range_meters":16400,"station_id":"ce4bgn12rcd13ifvqbt0","pricing_plan_id":"cebpf4jnsgd1na2vs0mg"},{"bike_id":"2ec427da-b403-4a7e-86be-3f48ba535d18","system_id":"levelo_inurba_marseille","lat":43.21193,"lon":5.35065,"is_reserved":false,"is_disabled":false,"rental_uris":{"android":"levelo://app?vid=2ec427da-b403-4a7e-86be-3f48ba535d18","ios":"levelo://app?vid=2ec427da-b403-4a7e-86be-3f48ba535d18"},"vehicle_type_id":"4","last_reported":1752433683,"current_range_meters":16800,"station_id":"st_cvj6sg6p6f1abm77japg","pricing_plan_id":"cebpf4jnsgd1na2vs0mg"},{"bike_id":"350baf57-19b6-4304-9c57-75c381c047e9","system_id":"levelo_inurba_marseille","lat":43.30304,"lon":5.3691,"is_reserved":false,"is_disabled":false,"rental_uris":{"android":"levelo://app?vid=350baf57-19b6-4304-9c57-75c381c047e9","ios":"levelo://app?vid=350baf57-19b6-4304-9c57-75c381c047e9"},"vehicle_type_id":"4","last_reported":1752433683,"current_range_meters":16800,"station_id":"ce4bgqh2rcd13ifvqc5g","pricing_plan_id":"cebpf4jnsgd1na2vs0mg"},{"bike_id":"dc214cbe-44e7-41d0-abbf-23227b370da2","system_id":"levelo_inurba_marseille","lat":43.27809,"lon":5.4071,"is_reserved":false,"is_disabled":false,"rental_uris":{"android":"levelo://app?vid=dc214cbe-44e7-41d0-abbf-23227b370da2","ios":"levelo://app?vid=dc214cbe-44e7-41d0-abbf-23227b370da2"},"vehicle_type_id":"4","last_reported":1752433683,"current_range_meters":16800,"station_id":"ce4bhnh2rcd13ifvqgtg","pricing_plan_id":"cebpf4jnsgd1na2vs0mg"},{"bike_id":"91e36618-f857-45af-ac89-91d909da2db3","system_id":"levelo_inurba_marseille","lat":43.29417,"lon":5.38607,"is_reserved":false,"is_disabled":true,"rental_uris":{"android":"levelo://app?vid=91e36618-f857-45af-ac89-91d909da2db3","ios":"levelo://app?vid=91e36618-f857-45af-ac89-91d909da2db3"},"vehicle_type_id":"4","last_reported":1752433683,"current_range_meters":16800,"station_id":"ce4bh2h2rcd13ifvqdh0","pricing_plan_id":"cebpf4jnsgd1na2vs0mg"},{"bike_id":"f5a47db5-6fb2-46bd-a2de-efa4ad13bf60","system_id":"levelo_inurba_marseille","lat":43.212005,"lon":5.350759,"is_reserved":false,"is_disabled":false,"rental_uris":{"android":"levelo://app?vid=f5a47db5-6fb2-46bd-a2de-efa4ad13bf60","ios":"levelo://app?vid=f5a47db5-6fb2-46bd-a2de-efa4ad13bf60"},"vehicle_type_id":"4","last_reported":1752433683,"current_range_meters":16800,"station_id":"st_cvj6sg6p6f1abm77japg","pricing_plan_id":"cebpf4jnsgd1na2vs0mg"},{"bike_id":"fc8fbef1-e5f1-4c91-bc01-e5efe553b8aa","system_id":"levelo_inurba_marseille","lat":43.249911,"lon":5.389517,"is_reserved":false,"is_disabled":false,"rental_uris":{"android":"levelo://app?vid=fc8fbef1-e5f1-4c91-bc01-e5efe553b8aa","ios":"levelo://app?vid=fc8fbef1-e5f1-4c91-bc01-e5efe553b8aa"},"vehicle_type_id":"4","last_reported":1752433683,"current_range_meters":16800,"station_id":"ce4bhgp2rcd13ifvqfd0","pricing_plan_id":"cebpf4jnsgd1na2vs0mg"},{"bike_id":"fcc93063-9ca2-4c91-9622-06c12b9ff347","system_id":"levelo_inurba_marseille","lat":43.29845,"lon":5.36279,"is_reserved":false,"is_disabled":false,"rental_uris":{"android":"levelo://app?vid=fcc93063-9ca2-4c91-9622-06c12b9ff347","ios":"levelo://app?vid=fcc93063-9ca2-4c91-9622-06c12b9ff347"},"vehicle_type_id":"4","last_reported":1752433683,"current_range_meters":16800,"station_id":"ce4bgpp2rcd13ifvqc3g","pricing_plan_id":"cebpf4jnsgd1na2vs0mg"},{"bike_id":"20f31502-0b7d-4796-97fe-1f7786bc9c76","system_id":"levelo_inurba_marseille","lat":43.25087,"lon":5.39517,"is_reserved":false,"is_disabled":false,"rental_uris":{"android":"levelo://app?vid=20f31502-0b7d-4796-97fe-1f7786bc9c76","ios":"levelo://app?vid=20f31502-0b7d-4796-97fe-1f7786bc9c76"},"vehicle_type_id":"4","last_reported":1752433683,"current_range_meters":16800,"station_id":"ce4bhm12rcd13ifvqgkg","pricing_plan_id":"cebpf4jnsgd1na2vs0mg"},{"bike_id":"c8c4de1a-846f-4f5b-aace-9fb14bf7ad52","system_id":"levelo_inurba_marseille","lat":43.21188,"lon":5.35074,"is_reserved":false,"is_disabled":false,"rental_uris":{"android":"levelo://app?vid=c8c4de1a-846f-4f5b-aace-9fb14bf7ad52","ios":"levelo://app?vid=c8c4de1a-846f-4f5b-aace-9fb14bf7ad52"},"vehicle_type_id":"4","last_reported":1752433683,"current_range_meters":16800,"station_id":"st_cvj6sg6p6f1abm77japg","pricing_plan_id":"cebpf4jnsgd1na2vs0mg"},{"bike_id":"8605f962-9695-43f5-b47a-24efc7e47fd2","system_id":"levelo_inurba_marseille","lat":43.29281,"lon":5.38459,"is_reserved":false,"is_disabled":false,"rental_uris":{"android":"levelo://app?vid=8605f962-9695-43f5-b47a-24efc7e47fd2","ios":"levelo://app?vid=8605f962-9695-43f5-b47a-24efc7e47fd2"},"vehicle_type_id":"4","last_reported":1752433683,"current_range_meters":17200,"station_id":"ce4bh692rcd13ifvqea0","pricing_plan_id":"cebpf4jnsgd1na2vs0mg"},{"bike_id":"caf871db-67b1-46df-ae74-ea04e84dd4ac","system_id":"levelo_inurba_marseille","lat":43.297072,"lon":5.366059,"is_reserved":false,"is_disabled":false,"rental_uris":{"android":"levelo://app?vid=caf871db-67b1-46df-ae74-ea04e84dd4ac","ios":"levelo://app?vid=caf871db-67b1-46df-ae74-ea04e84dd4ac"},"vehicle_type_id":"4","last_reported":1752433683,"current_range_meters":17200,"station_id":"ce4bhf92rcd13ifvqf40","pricing_plan_id":"cebpf4jnsgd1na2vs0mg"},{"bike_id":"55253168-a971-491d-a2a9-88376350b929","system_id":"levelo_inurba_marseille","lat":43.29261,"lon":5.38438,"is_reserved":false,"is_disabled":false,"rental_uris":{"android":"levelo://app?vid=55253168-a971-491d-a2a9-88376350b929","ios":"levelo://app?vid=55253168-a971-491d-a2a9-88376350b929"},"vehicle_type_id":"4","last_reported":1752433683,"current_range_meters":17200,"station_id":"ce4bh692rcd13ifvqea0","pricing_plan_id":"cebpf4jnsgd1na2vs0mg"},{"bike_id":"b1f565f2-83c4-4631-9b4d-1d683a0261ef","system_id":"levelo_inurba_marseille","lat":43.21188,"lon":5.35075,"is_reserved":false,"is_disabled":false,"rental_uris":{"android":"levelo://app?vid=b1f565f2-83c4-4631-9b4d-1d683a0261ef","ios":"levelo://app?vid=b1f565f2-83c4-4631-9b4d-1d683a0261ef"},"vehicle_type_id":"4","last_reported":1752433683,"current_range_meters":17200,"station_id":"st_cvj6sg6p6f1abm77japg","pricing_plan_id":"cebpf4jnsgd1na2vs0mg"},{"bike_id":"8a24c66b-ccbb-4cf7-b3e5-30e3ec5efa5a","system_id":"levelo_inurba_marseille","lat":43.31755,"lon":5.39022,"is_reserved":false,"is_disabled":false,"rental_uris":{"android":"levelo://app?vid=8a24c66b-ccbb-4cf7-b3e5-30e3ec5efa5a","ios":"levelo://app?vid=8a24c66b-ccbb-4cf7-b3e5-30e3ec5efa5a"},"vehicle_type_id":"4","last_reported":1752433683,"current_range_meters":17200,"station_id":"ce4bhqp2rcd13ifvqhng","pricing_plan_id":"cebpf4jnsgd1na2vs0mg"},{"bike_id":"406373a1-591f-45b4-988d-bb44263a4ad6","system_id":"levelo_inurba_marseille","lat":43.26673,"lon":5.38242,"is_reserved":false,"is_disabled":false,"rental_uris":{"android":"levelo://app?vid=406373a1-591f-45b4-988d-bb44263a4ad6","ios":"levelo://app?vid=406373a1-591f-45b4-988d-bb44263a4ad6"},"vehicle_type_id":"4","last_reported":1752433683,"current_range_meters":17200,"station_id":"ce4bhg92rcd13ifvqf90","pricing_plan_id":"cebpf4jnsgd1na2vs0mg"},{"bike_id":"e91ced2f-2041-4b38-8446-0d5d97adec95","system_id":"levelo_inurba_marseille","lat":43.25578,"lon":5.38227,"is_reserved":false,"is_disabled":true,"rental_uris":{"android":"levelo://app?vid=e91ced2f-2041-4b38-8446-0d5d97adec95","ios":"levelo://app?vid=e91ced2f-2041-4b38-8446-0d5d97adec95"},"vehicle_type_id":"4","last_reported":1752433683,"current_range_meters":17200,"station_id":"ce4bhih2rcd13ifvqfs0","pricing_plan_id":"cebpf4jnsgd1na2vs0mg"},{"bike_id":"40392a3b-1d10-4dd5-b1d6-6477ad9a4c60","system_id":"levelo_inurba_marseille","lat":43.29095,"lon":5.38151,"is_reserved":false,"is_disabled":false,"rental_uris":{"android":"levelo://app?vid=40392a3b-1d10-4dd5-b1d6-6477ad9a4c60","ios":"levelo://app?vid=40392a3b-1d10-4dd5-b1d6-6477ad9a4c60"},"vehicle_type_id":"4","last_reported":1752433683,"current_range_meters":17200,"station_id":"ce4bh512rcd13ifvqe2g","pricing_plan_id":"cebpf4jnsgd1na2vs0mg"},{"bike_id":"e83439d2-4642-48a2-8689-7a894582417f","system_id":"levelo_inurba_marseille","lat":43.21209,"lon":5.35067,"is_reserved":false,"is_disabled":false,"rental_uris":{"android":"levelo://app?vid=e83439d2-4642-48a2-8689-7a894582417f","ios":"levelo://app?vid=e83439d2-4642-48a2-8689-7a894582417f"},"vehicle_type_id":"4","last_reported":1752433683,"current_range_meters":17200,"station_id":"st_cvj6sg6p6f1abm77japg","pricing_plan_id":"cebpf4jnsgd1na2vs0mg"},{"bike_id":"6c5208e4-7c58-4709-95fc-ef95571ca273","system_id":"levelo_inurba_marseille","lat":43.29531,"lon":5.38538,"is_reserved":false,"is_disabled":false,"rental_uris":{"android":"levelo://app?vid=6c5208e4-7c58-4709-95fc-ef95571ca273","ios":"levelo://app?vid=6c5208e4-7c58-4709-95fc-ef95571ca273"},"vehicle_type_id":"4","last_reported":1752433683,"current_range_meters":17200,"station_id":"ce4bgih2rcd13ifvqba0","pricing_plan_id":"cebpf4jnsgd1na2vs0mg"},{"bike_id":"cc7d251d-3ff6-4551-a234-f1f9a85fce81","system_id":"levelo_inurba_marseille","lat":43.29171,"lon":5.37167,"is_reserved":false,"is_disabled":false,"rental_uris":{"android":"levelo://app?vid=cc7d251d-3ff6-4551-a234-f1f9a85fce81","ios":"levelo://app?vid=cc7d251d-3ff6-4551-a234-f1f9a85fce81"},"vehicle_type_id":"4","last_reported":1752433683,"current_range_meters":17600,"station_id":"ce4bha92rcd13ifvqeh0","pricing_plan_id":"cebpf4jnsgd1na2vs0mg"},{"bike_id":"45583b9b-98ff-4d18-a778-0d792c89bae3","system_id":"levelo_inurba_marseille","lat":43.28577,"lon":5.39503,"is_reserved":false,"is_disabled":true,"rental_uris":{"android":"levelo://app?vid=45583b9b-98ff-4d18-a778-0d792c89bae3","ios":"levelo://app?vid=45583b9b-98ff-4d18-a778-0d792c89bae3"},"vehicle_type_id":"4","last_reported":1752433683,"current_range_meters":17600,"station_id":"ce4bh292rcd13ifvqdg0","pricing_plan_id":"cebpf4jnsgd1na2vs0mg"},{"bike_id":"80955d0f-8669-4c02-b90f-c6fe20790c37","system_id":"levelo_inurba_marseille","lat":43.232,"lon":5.3507,"is_reserved":false,"is_disabled":false,"rental_uris":{"android":"levelo://app?vid=80955d0f-8669-4c02-b90f-c6fe20790c37","ios":"levelo://app?vid=80955d0f-8669-4c02-b90f-c6fe20790c37"},"vehicle_type_id":"4","last_reported":1752433683,"current_range_meters":17600,"station_id":"","pricing_plan_id":"cebpf4jnsgd1na2vs0mg"},{"bike_id":"23a0fc67-4c39-4b74-8a86-2903d79b1606","system_id":"levelo_inurba_marseille","lat":43.232,"lon":5.35541,"is_reserved":false,"is_disabled":true,"rental_uris":{"android":"levelo://app?vid=23a0fc67-4c39-4b74-8a86-2903d79b1606","ios":"levelo://app?vid=23a0fc67-4c39-4b74-8a86-2903d79b1606"},"vehicle_type_id":"4","last_reported":1752433683,"current_range_meters":17600,"station_id":"ce4bhu92rcd13ifvqi70","pricing_plan_id":"cebpf4jnsgd1na2vs0mg"},{"bike_id":"f7cf9aab-0ed3-4931-a48c-8d0743d0c0b9","system_id":"levelo_inurba_marseille","lat":43.22924,"lon":5.35379,"is_reserved":false,"is_disabled":true,"rental_uris":{"android":"levelo://app?vid=f7cf9aab-0ed3-4931-a48c-8d0743d0c0b9","ios":"levelo://app?vid=f7cf9aab-0ed3-4931-a48c-8d0743d0c0b9"},"vehicle_type_id":"4","last_reported":1752433683,"current_range_meters":17600,"station_id":"cpo3532slgdg3j2ikp40","pricing_plan_id":"cebpf4jnsgd1na2vs0mg"},{"bike_id":"bf67854a-fc75-4bbe-84b3-70a770694533","system_id":"levelo_inurba_marseille","lat":43.289499,"lon":5.39634,"is_reserved":false,"is_disabled":true,"rental_uris":{"android":"levelo://app?vid=bf67854a-fc75-4bbe-84b3-70a770694533","ios":"levelo://app?vid=bf67854a-fc75-4bbe-84b3-70a770694533"},"vehicle_type_id":"4","last_reported":1752433683,"current_range_meters":17600,"station_id":"ce4bh3h2rcd13ifvqdn0","pricing_plan_id":"cebpf4jnsgd1na2vs0mg"},{"bike_id":"8a01e88a-8371-4085-9838-47ae11897cd3","system_id":"levelo_inurba_marseille","lat":43.281539,"lon":5.426366,"is_reserved":false,"is_disabled":true,"rental_uris":{"android":"levelo://app?vid=8a01e88a-8371-4085-9838-47ae11897cd3","ios":"levelo://app?vid=8a01e88a-8371-4085-9838-47ae11897cd3"},"vehicle_type_id":"4","last_reported":1752433683,"current_range_meters":17600,"station_id":"ce4bhnh2rcd13ifvqgug","pricing_plan_id":"cebpf4jnsgd1na2vs0mg"},{"bike_id":"a4523c85-4168-49aa-995a-39d7bbfc0786","system_id":"levelo_inurba_marseille","lat":43.27903,"lon":5.38016,"is_reserved":false,"is_disabled":false,"rental_uris":{"android":"levelo://app?vid=a4523c85-4168-49aa-995a-39d7bbfc0786","ios":"levelo://app?vid=a4523c85-4168-49aa-995a-39d7bbfc0786"},"vehicle_type_id":"4","last_reported":1752433683,"current_range_meters":17600,"station_id":"ce4bhf92rcd13ifvqf50","pricing_plan_id":"cebpf4jnsgd1na2vs0mg"},{"bike_id":"d20e25d1-0bc7-4668-955d-f7bdc936f6ee","system_id":"levelo_inurba_marseille","lat":43.32447,"lon":5.36717,"is_reserved":false,"is_disabled":false,"rental_uris":{"android":"levelo://app?vid=d20e25d1-0bc7-4668-955d-f7bdc936f6ee","ios":"levelo://app?vid=d20e25d1-0bc7-4668-955d-f7bdc936f6ee"},"vehicle_type_id":"4","last_reported":1752433683,"current_range_meters":18000,"station_id":"","pricing_plan_id":"cebpf4jnsgd1na2vs0mg"},{"bike_id":"088e6b1d-8a81-47e0-9ad0-36233ed399c0","system_id":"levelo_inurba_marseille","lat":43.27925,"lon":5.39573,"is_reserved":false,"is_disabled":true,"rental_uris":{"android":"levelo://app?vid=088e6b1d-8a81-47e0-9ad0-36233ed399c0","ios":"levelo://app?vid=088e6b1d-8a81-47e0-9ad0-36233ed399c0"},"vehicle_type_id":"4","last_reported":1752433683,"current_range_meters":17600,"station_id":"ce4bhf92rcd13ifvqf40","pricing_plan_id":"cebpf4jnsgd1na2vs0mg"},{"bike_id":"697d5fc4-b988-4a4e-8323-c1ce5ed61a61","system_id":"levelo_inurba_marseille","lat":43.21192,"lon":5.35072,"is_reserved":false,"is_disabled":false,"rental_uris":{"android":"levelo://app?vid=697d5fc4-b988-4a4e-8323-c1ce5ed61a61","ios":"levelo://app?vid=697d5fc4-b988-4a4e-8323-c1ce5ed61a61"},"vehicle_type_id":"4","last_reported":1752433683,"current_range_meters":18000,"station_id":"st_cvj6sg6p6f1abm77japg","pricing_plan_id":"cebpf4jnsgd1na2vs0mg"},{"bike_id":"5dddd7d8-5fb3-4297-b2d9-98066a16bca0","system_id":"levelo_inurba_marseille","lat":43.29966,"lon":5.38494,"is_reserved":false,"is_disabled":false,"rental_uris":{"android":"levelo://app?vid=5dddd7d8-5fb3-4297-b2d9-98066a16bca0","ios":"levelo://app?vid=5dddd7d8-5fb3-4297-b2d9-98066a16bca0"},"vehicle_type_id":"4","last_reported":1752433683,"current_range_meters":18000,"station_id":"ce4bgj92rcd13ifvqbd0","pricing_plan_id":"cebpf4jnsgd1na2vs0mg"},{"bike_id":"cedbaff3-380d-470a-b9ba-9c22829c28e1","system_id":"levelo_inurba_marseille","lat":43.31121,"lon":5.37752,"is_reserved":false,"is_disabled":false,"rental_uris":{"android":"levelo://app?vid=cedbaff3-380d-470a-b9ba-9c22829c28e1","ios":"levelo://app?vid=cedbaff3-380d-470a-b9ba-9c22829c28e1"},"vehicle_type_id":"4","last_reported":1752433683,"current_range_meters":18000,"station_id":"ce4bgt92rcd13ifvqcg0","pricing_plan_id":"cebpf4jnsgd1na2vs0mg"},{"bike_id":"e1442ff3-c767-4bb3-901d-e5f60873ad13","system_id":"levelo_inurba_marseille","lat":43.23195,"lon":5.3997,"is_reserved":false,"is_disabled":false,"rental_uris":{"android":"levelo://app?vid=e1442ff3-c767-4bb3-901d-e5f60873ad13","ios":"levelo://app?vid=e1442ff3-c767-4bb3-901d-e5f60873ad13"},"vehicle_type_id":"4","last_reported":1752433683,"current_range_meters":18000,"station_id":"ce4bhn12rcd13ifvqgqg","pricing_plan_id":"cebpf4jnsgd1na2vs0mg"},{"bike_id":"06a0be2c-417f-461c-a887-27fc0583ca58","system_id":"levelo_inurba_marseille","lat":43.28854,"lon":5.35856,"is_reserved":false,"is_disabled":false,"rental_uris":{"android":"levelo://app?vid=06a0be2c-417f-461c-a887-27fc0583ca58","ios":"levelo://app?vid=06a0be2c-417f-461c-a887-27fc0583ca58"},"vehicle_type_id":"4","last_reported":1752433683,"current_range_meters":18000,"station_id":"ce4bhb12rcd13ifvqem0","pricing_plan_id":"cebpf4jnsgd1na2vs0mg"},{"bike_id":"6ac174d4-75c5-4a9c-9699-97cd631c6e65","system_id":"levelo_inurba_marseille","lat":43.25473,"lon":5.3992,"is_reserved":false,"is_disabled":false,"rental_uris":{"android":"levelo://app?vid=6ac174d4-75c5-4a9c-9699-97cd631c6e65","ios":"levelo://app?vid=6ac174d4-75c5-4a9c-9699-97cd631c6e65"},"vehicle_type_id":"4","last_reported":1752433683,"current_range_meters":18000,"station_id":"","pricing_plan_id":"cebpf4jnsgd1na2vs0mg"},{"bike_id":"f59f6657-f62a-42fc-a273-bf50a25645d6","system_id":"levelo_inurba_marseille","lat":43.2736,"lon":5.36236,"is_reserved":false,"is_disabled":false,"rental_uris":{"android":"levelo://app?vid=f59f6657-f62a-42fc-a273-bf50a25645d6","ios":"levelo://app?vid=f59f6657-f62a-42fc-a273-bf50a25645d6"},"vehicle_type_id":"4","last_reported":1752433683,"current_range_meters":18000,"station_id":"ce4bhbh2rcd13ifvqeo0","pricing_plan_id":"cebpf4jnsgd1na2vs0mg"},{"bike_id":"a4d07f45-19f9-4df9-9728-be6623530a64","system_id":"levelo_inurba_marseille","lat":43.23711,"lon":5.38825,"is_reserved":false,"is_disabled":false,"rental_uris":{"android":"levelo://app?vid=a4d07f45-19f9-4df9-9728-be6623530a64","ios":"levelo://app?vid=a4d07f45-19f9-4df9-9728-be6623530a64"},"vehicle_type_id":"4","last_reported":1752433683,"current_range_meters":18000,"station_id":"","pricing_plan_id":"cebpf4jnsgd1na2vs0mg"},{"bike_id":"3fe12894-5c6e-4969-9825-6e38cace598e","system_id":"levelo_inurba_marseille","lat":43.29262,"lon":5.38446,"is_reserved":false,"is_disabled":false,"rental_uris":{"android":"levelo://app?vid=3fe12894-5c6e-4969-9825-6e38cace598e","ios":"levelo://app?vid=3fe12894-5c6e-4969-9825-6e38cace598e"},"vehicle_type_id":"4","last_reported":1752433683,"current_range_meters":18000,"station_id":"ce4bh692rcd13ifvqea0","pricing_plan_id":"cebpf4jnsgd1na2vs0mg"},{"bike_id":"aa8be674-49de-4cc9-b113-c1cb392968c0","system_id":"levelo_inurba_marseille","lat":43.26559,"lon":5.37304,"is_reserved":false,"is_disabled":false,"rental_uris":{"android":"levelo://app?vid=aa8be674-49de-4cc9-b113-c1cb392968c0","ios":"levelo://app?vid=aa8be674-49de-4cc9-b113-c1cb392968c0"},"vehicle_type_id":"4","last_reported":1752433683,"current_range_meters":18000,"station_id":"ce4bhg12rcd13ifvqf70","pricing_plan_id":"cebpf4jnsgd1na2vs0mg"},{"bike_id":"be290aaf-a2c6-434e-842d-7a6b3b51df18","system_id":"levelo_inurba_marseille","lat":43.29264,"lon":5.38438,"is_reserved":false,"is_disabled":false,"rental_uris":{"android":"levelo://app?vid=be290aaf-a2c6-434e-842d-7a6b3b51df18","ios":"levelo://app?vid=be290aaf-a2c6-434e-842d-7a6b3b51df18"},"vehicle_type_id":"4","last_reported":1752433683,"current_range_meters":18000,"station_id":"ce4bh692rcd13ifvqea0","pricing_plan_id":"cebpf4jnsgd1na2vs0mg"},{"bike_id":"a645d6c0-dcdf-402b-b506-c70f20c3f081","system_id":"levelo_inurba_marseille","lat":43.313656,"lon":5.384858,"is_reserved":false,"is_disabled":true,"rental_uris":{"android":"levelo://app?vid=a645d6c0-dcdf-402b-b506-c70f20c3f081","ios":"levelo://app?vid=a645d6c0-dcdf-402b-b506-c70f20c3f081"},"vehicle_type_id":"4","last_reported":1752433683,"current_range_meters":18800,"station_id":"ce4bgt92rcd13ifvqcf0","pricing_plan_id":"cebpf4jnsgd1na2vs0mg"},{"bike_id":"8aca55cb-7328-4e66-b1e1-ee63eb511a16","system_id":"levelo_inurba_marseille","lat":43.29034,"lon":5.39961,"is_reserved":false,"is_disabled":false,"rental_uris":{"android":"levelo://app?vid=8aca55cb-7328-4e66-b1e1-ee63eb511a16","ios":"levelo://app?vid=8aca55cb-7328-4e66-b1e1-ee63eb511a16"},"vehicle_type_id":"4","last_reported":1752433683,"current_range_meters":18800,"station_id":"ce4bh392rcd13ifvqdm0","pricing_plan_id":"cebpf4jnsgd1na2vs0mg"},{"bike_id":"12d48e4d-a291-49bb-ab45-967804b53d7b","system_id":"levelo_inurba_marseille","lat":43.276104,"lon":5.361039,"is_reserved":false,"is_disabled":true,"rental_uris":{"android":"levelo://app?vid=12d48e4d-a291-49bb-ab45-967804b53d7b","ios":"levelo://app?vid=12d48e4d-a291-49bb-ab45-967804b53d7b"},"vehicle_type_id":"4","last_reported":1752433683,"current_range_meters":18800,"station_id":"ce4bgj92rcd13ifvqbe0","pricing_plan_id":"cebpf4jnsgd1na2vs0mg"},{"bike_id":"9b59b22f-5f4b-432f-be59-c16459c4633a","system_id":"levelo_inurba_marseille","lat":43.28043,"lon":5.36943,"is_reserved":false,"is_disabled":false,"rental_uris":{"android":"levelo://app?vid=9b59b22f-5f4b-432f-be59-c16459c4633a","ios":"levelo://app?vid=9b59b22f-5f4b-432f-be59-c16459c4633a"},"vehicle_type_id":"4","last_reported":1752433683,"current_range_meters":18800,"station_id":"ce4bha12rcd13ifvqef0","pricing_plan_id":"cebpf4jnsgd1na2vs0mg"},{"bike_id":"e1928b01-bff5-4cea-b60c-f8d9223daef3","system_id":"levelo_inurba_marseille","lat":43.27069,"lon":5.42268,"is_reserved":false,"is_disabled":false,"rental_uris":{"android":"levelo://app?vid=e1928b01-bff5-4cea-b60c-f8d9223daef3","ios":"levelo://app?vid=e1928b01-bff5-4cea-b60c-f8d9223daef3"},"vehicle_type_id":"4","last_reported":1752433683,"current_range_meters":18800,"station_id":"ce4bhk92rcd13ifvqgb0","pricing_plan_id":"cebpf4jnsgd1na2vs0mg"},{"bike_id":"2c81c752-b139-48bc-a4ee-7fa7f8526278","system_id":"levelo_inurba_marseille","lat":43.21763,"lon":5.34617,"is_reserved":false,"is_disabled":true,"rental_uris":{"android":"levelo://app?vid=2c81c752-b139-48bc-a4ee-7fa7f8526278","ios":"levelo://app?vid=2c81c752-b139-48bc-a4ee-7fa7f8526278"},"vehicle_type_id":"4","last_reported":1752433683,"current_range_meters":18800,"station_id":"st_cvj6r9ubvosntc0bgbag","pricing_plan_id":"cebpf4jnsgd1na2vs0mg"},{"bike_id":"5f48d587-f9d0-43e5-b0b2-bf2fb17b1a3c","system_id":"levelo_inurba_marseille","lat":43.29418,"lon":5.38603,"is_reserved":false,"is_disabled":true,"rental_uris":{"android":"levelo://app?vid=5f48d587-f9d0-43e5-b0b2-bf2fb17b1a3c","ios":"levelo://app?vid=5f48d587-f9d0-43e5-b0b2-bf2fb17b1a3c"},"vehicle_type_id":"4","last_reported":1752433683,"current_range_meters":18800,"station_id":"ce4bh2h2rcd13ifvqdh0","pricing_plan_id":"cebpf4jnsgd1na2vs0mg"},{"bike_id":"d47e4f02-72ab-416d-9685-ee36f346cacb","system_id":"levelo_inurba_marseille","lat":43.29964,"lon":5.38495,"is_reserved":false,"is_disabled":false,"rental_uris":{"android":"levelo://app?vid=d47e4f02-72ab-416d-9685-ee36f346cacb","ios":"levelo://app?vid=d47e4f02-72ab-416d-9685-ee36f346cacb"},"vehicle_type_id":"4","last_reported":1752433683,"current_range_meters":18800,"station_id":"ce4bgj92rcd13ifvqbd0","pricing_plan_id":"cebpf4jnsgd1na2vs0mg"},{"bike_id":"36afecec-a91e-46ea-9246-f2d0f42bab15","system_id":"levelo_inurba_marseille","lat":43.296112,"lon":5.381058,"is_reserved":false,"is_disabled":false,"rental_uris":{"android":"levelo://app?vid=36afecec-a91e-46ea-9246-f2d0f42bab15","ios":"levelo://app?vid=36afecec-a91e-46ea-9246-f2d0f42bab15"},"vehicle_type_id":"4","last_reported":1752433683,"current_range_meters":18800,"station_id":"","pricing_plan_id":"cebpf4jnsgd1na2vs0mg"},{"bike_id":"3a572c2a-3b5e-44d4-a7e2-e879a556fe93","system_id":"levelo_inurba_marseille","lat":43.292725,"lon":5.384402,"is_reserved":false,"is_disabled":false,"rental_uris":{"android":"levelo://app?vid=3a572c2a-3b5e-44d4-a7e2-e879a556fe93","ios":"levelo://app?vid=3a572c2a-3b5e-44d4-a7e2-e879a556fe93"},"vehicle_type_id":"4","last_reported":1752433683,"current_range_meters":18800,"station_id":"ce4bh692rcd13ifvqea0","pricing_plan_id":"cebpf4jnsgd1na2vs0mg"},{"bike_id":"05ec0fe5-95d7-4001-8492-12a32d45aa61","system_id":"levelo_inurba_marseille","lat":43.30948,"lon":5.39011,"is_reserved":false,"is_disabled":false,"rental_uris":{"android":"levelo://app?vid=05ec0fe5-95d7-4001-8492-12a32d45aa61","ios":"levelo://app?vid=05ec0fe5-95d7-4001-8492-12a32d45aa61"},"vehicle_type_id":"4","last_reported":1752433683,"current_range_meters":19200,"station_id":"ce4bgup2rcd13ifvqco0","pricing_plan_id":"cebpf4jnsgd1na2vs0mg"},{"bike_id":"0978e0ad-a056-4a71-b392-f3211f4f9023","system_id":"levelo_inurba_marseille","lat":43.29618,"lon":5.38084,"is_reserved":false,"is_disabled":false,"rental_uris":{"android":"levelo://app?vid=0978e0ad-a056-4a71-b392-f3211f4f9023","ios":"levelo://app?vid=0978e0ad-a056-4a71-b392-f3211f4f9023"},"vehicle_type_id":"4","last_reported":1752433683,"current_range_meters":19200,"station_id":"ce4bgl12rcd13ifvqbo0","pricing_plan_id":"cebpf4jnsgd1na2vs0mg"},{"bike_id":"6b709f20-8c1b-467d-911c-16baafb0e489","system_id":"levelo_inurba_marseille","lat":43.29265,"lon":5.3843,"is_reserved":false,"is_disabled":false,"rental_uris":{"android":"levelo://app?vid=6b709f20-8c1b-467d-911c-16baafb0e489","ios":"levelo://app?vid=6b709f20-8c1b-467d-911c-16baafb0e489"},"vehicle_type_id":"4","last_reported":1752433683,"current_range_meters":19200,"station_id":"ce4bh692rcd13ifvqea0","pricing_plan_id":"cebpf4jnsgd1na2vs0mg"},{"bike_id":"e6229c97-f40a-4ba8-865c-3dfed79509e8","system_id":"levelo_inurba_marseille","lat":43.29844,"lon":5.36274,"is_reserved":false,"is_disabled":false,"rental_uris":{"android":"levelo://app?vid=e6229c97-f40a-4ba8-865c-3dfed79509e8","ios":"levelo://app?vid=e6229c97-f40a-4ba8-865c-3dfed79509e8"},"vehicle_type_id":"4","last_reported":1752433683,"current_range_meters":19200,"station_id":"ce4bgpp2rcd13ifvqc3g","pricing_plan_id":"cebpf4jnsgd1na2vs0mg"},{"bike_id":"aa260077-cb0d-43c9-8e67-329c1b69779f","system_id":"levelo_inurba_marseille","lat":43.21213,"lon":5.3505,"is_reserved":false,"is_disabled":false,"rental_uris":{"android":"levelo://app?vid=aa260077-cb0d-43c9-8e67-329c1b69779f","ios":"levelo://app?vid=aa260077-cb0d-43c9-8e67-329c1b69779f"},"vehicle_type_id":"4","last_reported":1752433683,"current_range_meters":19200,"station_id":"st_cvj6sg6p6f1abm77japg","pricing_plan_id":"cebpf4jnsgd1na2vs0mg"},{"bike_id":"19653d97-ba49-4a18-8fe5-074d2259b669","system_id":"levelo_inurba_marseille","lat":43.29856,"lon":5.36283,"is_reserved":false,"is_disabled":false,"rental_uris":{"android":"levelo://app?vid=19653d97-ba49-4a18-8fe5-074d2259b669","ios":"levelo://app?vid=19653d97-ba49-4a18-8fe5-074d2259b669"},"vehicle_type_id":"4","last_reported":1752433683,"current_range_meters":19200,"station_id":"ce4bgpp2rcd13ifvqc3g","pricing_plan_id":"cebpf4jnsgd1na2vs0mg"},{"bike_id":"d9a08d7e-5335-47f9-a7e0-f3c73873f869","system_id":"levelo_inurba_marseille","lat":43.29013,"lon":5.35628,"is_reserved":false,"is_disabled":false,"rental_uris":{"android":"levelo://app?vid=d9a08d7e-5335-47f9-a7e0-f3c73873f869","ios":"levelo://app?vid=d9a08d7e-5335-47f9-a7e0-f3c73873f869"},"vehicle_type_id":"4","last_reported":1752433683,"current_range_meters":19200,"station_id":"ce4bhb92rcd13ifvqen0","pricing_plan_id":"cebpf4jnsgd1na2vs0mg"},{"bike_id":"beeb84c6-d84f-4968-ad23-59081d038c66","system_id":"levelo_inurba_marseille","lat":43.23178,"lon":5.39992,"is_reserved":false,"is_disabled":false,"rental_uris":{"android":"levelo://app?vid=beeb84c6-d84f-4968-ad23-59081d038c66","ios":"levelo://app?vid=beeb84c6-d84f-4968-ad23-59081d038c66"},"vehicle_type_id":"4","last_reported":1752433683,"current_range_meters":19200,"station_id":"ce4bhn12rcd13ifvqgqg","pricing_plan_id":"cebpf4jnsgd1na2vs0mg"},{"bike_id":"0327ba3d-56c5-40a2-9b87-fb20780bb2cf","system_id":"levelo_inurba_marseille","lat":43.28496,"lon":5.38402,"is_reserved":false,"is_disabled":true,"rental_uris":{"android":"levelo://app?vid=0327ba3d-56c5-40a2-9b87-fb20780bb2cf","ios":"levelo://app?vid=0327ba3d-56c5-40a2-9b87-fb20780bb2cf"},"vehicle_type_id":"4","last_reported":1752433683,"current_range_meters":19200,"station_id":"ce4bh512rcd13ifvqe3g","pricing_plan_id":"cebpf4jnsgd1na2vs0mg"},{"bike_id":"4e73c7b2-71ac-481d-b50e-9460678b9170","system_id":"levelo_inurba_marseille","lat":43.29975,"lon":5.38487,"is_reserved":false,"is_disabled":false,"rental_uris":{"android":"levelo://app?vid=4e73c7b2-71ac-481d-b50e-9460678b9170","ios":"levelo://app?vid=4e73c7b2-71ac-481d-b50e-9460678b9170"},"vehicle_type_id":"4","last_reported":1752433683,"current_range_meters":18800,"station_id":"ce4bgj92rcd13ifvqbd0","pricing_plan_id":"cebpf4jnsgd1na2vs0mg"},{"bike_id":"08e67338-a2ff-42fc-a939-92ad435f118e","system_id":"levelo_inurba_marseille","lat":43.27674,"lon":5.35714,"is_reserved":false,"is_disabled":false,"rental_uris":{"android":"levelo://app?vid=08e67338-a2ff-42fc-a939-92ad435f118e","ios":"levelo://app?vid=08e67338-a2ff-42fc-a939-92ad435f118e"},"vehicle_type_id":"4","last_reported":1752433683,"current_range_meters":19200,"station_id":"","pricing_plan_id":"cebpf4jnsgd1na2vs0mg"},{"bike_id":"62e04f8d-4a20-45ae-8118-d47bf351cefe","system_id":"levelo_inurba_marseille","lat":43.29715,"lon":5.36601,"is_reserved":false,"is_disabled":false,"rental_uris":{"android":"levelo://app?vid=62e04f8d-4a20-45ae-8118-d47bf351cefe","ios":"levelo://app?vid=62e04f8d-4a20-45ae-8118-d47bf351cefe"},"vehicle_type_id":"4","last_reported":1752433683,"current_range_meters":19600,"station_id":"ce4bgn12rcd13ifvqbt0","pricing_plan_id":"cebpf4jnsgd1na2vs0mg"},{"bike_id":"fdf41f87-deb0-46b3-9de1-6dd73b263487","system_id":"levelo_inurba_marseille","lat":43.25521,"lon":5.37614,"is_reserved":false,"is_disabled":true,"rental_uris":{"android":"levelo://app?vid=fdf41f87-deb0-46b3-9de1-6dd73b263487","ios":"levelo://app?vid=fdf41f87-deb0-46b3-9de1-6dd73b263487"},"vehicle_type_id":"4","last_reported":1752433683,"current_range_meters":19600,"station_id":"ce4bhh12rcd13ifvqff0","pricing_plan_id":"cebpf4jnsgd1na2vs0mg"},{"bike_id":"71e479f4-838c-44c9-a19e-d1950cd099a6","system_id":"levelo_inurba_marseille","lat":43.27642,"lon":5.423668,"is_reserved":false,"is_disabled":false,"rental_uris":{"android":"levelo://app?vid=71e479f4-838c-44c9-a19e-d1950cd099a6","ios":"levelo://app?vid=71e479f4-838c-44c9-a19e-d1950cd099a6"},"vehicle_type_id":"4","last_reported":1752433683,"current_range_meters":19600,"station_id":"","pricing_plan_id":"cebpf4jnsgd1na2vs0mg"},{"bike_id":"bccbc9bd-6ab0-4c04-af2f-20e815ce6244","system_id":"levelo_inurba_marseille","lat":43.286075,"lon":5.370595,"is_reserved":false,"is_disabled":false,"rental_uris":{"android":"levelo://app?vid=bccbc9bd-6ab0-4c04-af2f-20e815ce6244","ios":"levelo://app?vid=bccbc9bd-6ab0-4c04-af2f-20e815ce6244"},"vehicle_type_id":"4","last_reported":1752433683,"current_range_meters":19600,"station_id":"ce4bht12rcd13ifvqi60","pricing_plan_id":"cebpf4jnsgd1na2vs0mg"},{"bike_id":"bf41fac6-c182-4d27-a0d1-dfd4a50fa961","system_id":"levelo_inurba_marseille","lat":43.29849,"lon":5.36293,"is_reserved":false,"is_disabled":false,"rental_uris":{"android":"levelo://app?vid=bf41fac6-c182-4d27-a0d1-dfd4a50fa961","ios":"levelo://app?vid=bf41fac6-c182-4d27-a0d1-dfd4a50fa961"},"vehicle_type_id":"4","last_reported":1752433683,"current_range_meters":19600,"station_id":"ce4bgpp2rcd13ifvqc3g","pricing_plan_id":"cebpf4jnsgd1na2vs0mg"},{"bike_id":"95c7ab9e-bad9-4c30-aaad-912dd221d294","system_id":"levelo_inurba_marseille","lat":43.26024,"lon":5.37549,"is_reserved":false,"is_disabled":false,"rental_uris":{"android":"levelo://app?vid=95c7ab9e-bad9-4c30-aaad-912dd221d294","ios":"levelo://app?vid=95c7ab9e-bad9-4c30-aaad-912dd221d294"},"vehicle_type_id":"4","last_reported":1752433683,"current_range_meters":19600,"station_id":"ce4bhgh2rcd13ifvqfa0","pricing_plan_id":"cebpf4jnsgd1na2vs0mg"},{"bike_id":"697da811-3a08-4197-83ef-2721e8e7f54a","system_id":"levelo_inurba_marseille","lat":43.254365,"lon":5.376685,"is_reserved":false,"is_disabled":false,"rental_uris":{"android":"levelo://app?vid=697da811-3a08-4197-83ef-2721e8e7f54a","ios":"levelo://app?vid=697da811-3a08-4197-83ef-2721e8e7f54a"},"vehicle_type_id":"4","last_reported":1752433683,"current_range_meters":19200,"station_id":"ce4bhh12rcd13ifvqff0","pricing_plan_id":"cebpf4jnsgd1na2vs0mg"},{"bike_id":"0a36eb4e-864b-481e-a07f-54eb69e5afa7","system_id":"levelo_inurba_marseille","lat":43.26587,"lon":5.39483,"is_reserved":false,"is_disabled":false,"rental_uris":{"android":"levelo://app?vid=0a36eb4e-864b-481e-a07f-54eb69e5afa7","ios":"levelo://app?vid=0a36eb4e-864b-481e-a07f-54eb69e5afa7"},"vehicle_type_id":"4","last_reported":1752433683,"current_range_meters":19600,"station_id":"","pricing_plan_id":"cebpf4jnsgd1na2vs0mg"},{"bike_id":"dbdb60d6-f360-4dac-abb8-df5a9e4a2c45","system_id":"levelo_inurba_marseille","lat":43.289369,"lon":5.366461,"is_reserved":false,"is_disabled":false,"rental_uris":{"android":"levelo://app?vid=dbdb60d6-f360-4dac-abb8-df5a9e4a2c45","ios":"levelo://app?vid=dbdb60d6-f360-4dac-abb8-df5a9e4a2c45"},"vehicle_type_id":"4","last_reported":1752433683,"current_range_meters":19600,"station_id":"ce4bhap2rcd13ifvqek0","pricing_plan_id":"cebpf4jnsgd1na2vs0mg"},{"bike_id":"9dfc5526-1ec9-4811-8509-43d5c42ff642","system_id":"levelo_inurba_marseille","lat":43.29419,"lon":5.38612,"is_reserved":false,"is_disabled":false,"rental_uris":{"android":"levelo://app?vid=9dfc5526-1ec9-4811-8509-43d5c42ff642","ios":"levelo://app?vid=9dfc5526-1ec9-4811-8509-43d5c42ff642"},"vehicle_type_id":"4","last_reported":1752433683,"current_range_meters":19600,"station_id":"ce4bh2h2rcd13ifvqdh0","pricing_plan_id":"cebpf4jnsgd1na2vs0mg"},{"bike_id":"51b784bf-ebf4-44f9-b989-e2c334a8db33","system_id":"levelo_inurba_marseille","lat":43.301385,"lon":5.387673,"is_reserved":false,"is_disabled":false,"rental_uris":{"android":"levelo://app?vid=51b784bf-ebf4-44f9-b989-e2c334a8db33","ios":"levelo://app?vid=51b784bf-ebf4-44f9-b989-e2c334a8db33"},"vehicle_type_id":"4","last_reported":1752433683,"current_range_meters":19600,"station_id":"","pricing_plan_id":"cebpf4jnsgd1na2vs0mg"},{"bike_id":"04b9bbde-a145-41e7-a7b0-cd8d25714b9e","system_id":"levelo_inurba_marseille","lat":43.29207,"lon":5.35784,"is_reserved":false,"is_disabled":false,"rental_uris":{"android":"levelo://app?vid=04b9bbde-a145-41e7-a7b0-cd8d25714b9e","ios":"levelo://app?vid=04b9bbde-a145-41e7-a7b0-cd8d25714b9e"},"vehicle_type_id":"4","last_reported":1752433683,"current_range_meters":19600,"station_id":"ce4bhb12rcd13ifvqel0","pricing_plan_id":"cebpf4jnsgd1na2vs0mg"},{"bike_id":"c2857b8a-2544-48ae-936c-90bab1dd6ab6","system_id":"levelo_inurba_marseille","lat":43.21207,"lon":5.3505,"is_reserved":false,"is_disabled":false,"rental_uris":{"android":"levelo://app?vid=c2857b8a-2544-48ae-936c-90bab1dd6ab6","ios":"levelo://app?vid=c2857b8a-2544-48ae-936c-90bab1dd6ab6"},"vehicle_type_id":"4","last_reported":1752433683,"current_range_meters":19600,"station_id":"st_cvj6sg6p6f1abm77japg","pricing_plan_id":"cebpf4jnsgd1na2vs0mg"},{"bike_id":"bbbd7405-0e12-4512-b62c-d8d1cbbecf09","system_id":"levelo_inurba_marseille","lat":43.29976,"lon":5.38486,"is_reserved":false,"is_disabled":true,"rental_uris":{"android":"levelo://app?vid=bbbd7405-0e12-4512-b62c-d8d1cbbecf09","ios":"levelo://app?vid=bbbd7405-0e12-4512-b62c-d8d1cbbecf09"},"vehicle_type_id":"4","last_reported":1752433683,"current_range_meters":19600,"station_id":"ce4bgj92rcd13ifvqbd0","pricing_plan_id":"cebpf4jnsgd1na2vs0mg"},