{"last_updated":1770560310,"ttl":60,"version":"2.2","data":{"bikes":[{"bike_id":"9dadd4c2-97fc-4ce7-a20f-b7c55300a138","system_id":"levelo_inurba_marseille","lat":43.29815,"lon":5.44065,"is_reserved":false,"is_disabled":false,"rental_uris":{"android":"levelo://app?vid=9dadd4c2-97fc-4ce7-a20f-b7c55300a138","ios":"levelo://app?vid=9dadd4c2-97fc-4ce7-a20f-b7c55300a138"},"vehicle_type_id":"4","last_reported":1770560310,"current_range_meters":2800,"station_id":"st_d3jp68qikq2c7381ktn0","pricing_plan_id":"cebpf4jnsgd1na2vs0mg"},{"bike_id":"95ddcd5a-bf89-4af0-8832-e9e870a74381","system_id":"levelo_inurba_marseille","lat":43.26214,"lon":5.38847,"is_reserved":false,"is_disabled":false,"rental_uris":{"android":"levelo://app?vid=95ddcd5a-bf89-4af0-8832-e9e870a74381","ios":"levelo://app?vid=95ddcd5a-bf89-4af0-8832-e9e870a74381"},"vehicle_type_id":"4","last_reported":1770560310,"current_range_meters":2800,"station_id":"","pricing_plan_id":"cebpf4jnsgd1na2vs0mg"},{"bike_id":"34a55f58-a955-4283-bcd6-91c6f2bdcd18","system_id":"levelo_inurba_marseille","lat":43.26537,"lon":5.39347,"is_reserved":false,"is_disabled":false,"rental_uris":{"android":"levelo://app?vid=34a55f58-a955-4283-bcd6-91c6f2bdcd18","ios":"levelo://app?vid=34a55f58-a955-4283-bcd6-91c6f2bdcd18"},"vehicle_type_id":"4","last_reported":1770560310,"current_range_meters":2800,"station_id":"","pricing_plan_id":"cebpf4jnsgd1na2vs0mg"},{"bike_id":"1780f274-efef-4868-ad51-2e25c5373fc0","system_id":"levelo_inurba_marseille","lat":43.270652,"lon":5.42274,"is_reserved":false,"is_disabled":false,"rental_uris":{"android":"levelo://app?vid=1780f274-efef-4868-ad51-2e25c5373fc0","ios":"levelo://app?vid=1780f274-efef-4868-ad51-2e25c5373fc0"},"vehicle_type_id":"4","last_reported":1770560310,"current_range_meters":2800,"station_id":"ce4bhk92rcd13ifvqgb0","pricing_plan_id":"cebpf4jnsgd1na2vs0mg"},{"bike_id":"b834e44c-7a6b-44e2-8b98-4864f68f72bc","system_id":"levelo_inurba_marseille","lat":43.25829,"lon":5.39424,"is_reserved":false,"is_disabled":false,"rental_uris":{"android":"levelo://app?vid=b834e44c-7a6b-44e2-8b98-4864f68f72bc","ios":"levelo://app?vid=b834e44c-7a6b-44e2-8b98-4864f68f72bc"},"vehicle_type_id":"4","last_reported":1770560310,"current_range_meters":3200,"station_id":"ce4bhip2rcd13ifvqft0","pricing_plan_id":"cebpf4jnsgd1na2vs0mg"},{"bike_id":"fb50550a-664f-432c-81a9-9b6ae7c31a3f","system_id":"levelo_inurba_marseille","lat":43.26947,"lon":5.38645,"is_reserved":false,"is_disabled":false,"rental_uris":{"android":"levelo://app?vid=fb50550a-664f-432c-81a9-9b6ae7c31a3f","ios":"levelo://app?vid=fb50550a-664f-432c-81a9-9b6ae7c31a3f"},"vehicle_type_id":"4","last_reported":1770560310,"current_range_meters":3200,"station_id":"ce4bhh92rcd13ifvqfh0","pricing_plan_id":"cebpf4jnsgd1na2vs0mg"},{"bike_id":"8b196301-953d-4921-91c6-509e59f21ccb","system_id":"levelo_inurba_marseille","lat":43.29872,"lon":5.36877,"is_reserved":false,"is_disabled":false,"rental_uris":{"android":"levelo://app?vid=8b196301-953d-4921-91c6-509e59f21ccb","ios":"levelo://app?vid=8b196301-953d-4921-91c6-509e59f21ccb"},"vehicle_type_id":"4","last_reported":1770560310,"current_range_meters":3200,"station_id":"","pricing_plan_id":"cebpf4jnsgd1na2vs0mg"},{"bike_id":"82f38651-b135-48cf-bb30-2efbdc34233b","system_id":"levelo_inurba_marseille","lat":43.29808,"lon":5.44082,"is_reserved":false,"is_disabled":false,"rental_uris":{"android":"levelo://app?vid=82f38651-b135-48cf-bb30-2efbdc34233b","ios":"levelo://app?vid=82f38651-b135-48cf-bb30-2efbdc34233b"},"vehicle_type_id":"4","last_reported":1770560310,"current_range_meters":3200,"station_id":"st_d3jp68qikq2c7381ktn0","pricing_plan_id":"cebpf4jnsgd1na2vs0mg"},{"bike_id":"70ddbad5-60df-46e3-860c-17e515c61363","system_id":"levelo_inurba_marseille","lat":43.3112,"lon":5.37762,"is_reserved":false,"is_disabled":false,"rental_uris":{"android":"levelo://app?vid=70ddbad5-60df-46e3-860c-17e515c61363","ios":"levelo://app?vid=70ddbad5-60df-46e3-860c-17e515c61363"},"vehicle_type_id":"4","last_reported":1770560310,"current_range_meters":3200,"station_id":"ce4bgt92rcd13ifvqcg0","pricing_plan_id":"cebpf4jnsgd1na2vs0mg"},{"bike_id":"7e707e23-ddd5-4780-8ee7-af32e3a9fde6","system_id":"levelo_inurba_marseille","lat":43.32357,"lon":5.36739,"is_reserved":false,"is_disabled":false,"rental_uris":{"android":"levelo://app?vid=7e707e23-ddd5-4780-8ee7-af32e3a9fde6","ios":"levelo://app?vid=7e707e23-ddd5-4780-8ee7-af32e3a9fde6"},"vehicle_type_id":"4","last_reported":1770560310,"current_range_meters":3200,"station_id":"ce4bhsh2rcd13ifvqi2g","pricing_plan_id":"cebpf4jnsgd1na2vs0mg"},{"bike_id":"f5b3c0bc-b0db-4532-8e2f-eae93141d573","system_id":"levelo_inurba_marseille","lat":43.33547,"lon":5.37446,"is_reserved":false,"is_disabled":false,"rental_uris":{"android":"levelo://app?vid=f5b3c0bc-b0db-4532-8e2f-eae93141d573","ios":"levelo://app?vid=f5b3c0bc-b0db-4532-8e2f-eae93141d573"},"vehicle_type_id":"4","last_reported":1770560310,"current_range_meters":3200,"station_id":"st_d46tts09ee8s73dlu43g","pricing_plan_id":"cebpf4jnsgd1na2vs0mg"},{"bike_id":"3b71a1ad-0888-4e5c-82a0-0dec693b29d4","system_id":"levelo_inurba_marseille","lat":43.31108,"lon":5.38136,"is_reserved":false,"is_disabled":false,"rental_uris":{"android":"levelo://app?vid=3b71a1ad-0888-4e5c-82a0-0dec693b29d4","ios":"levelo://app?vid=3b71a1ad-0888-4e5c-82a0-0dec693b29d4"},"vehicle_type_id":"4","last_reported":1770560310,"current_range_meters":3200,"station_id":"","pricing_plan_id":"cebpf4jnsgd1na2vs0mg"},{"bike_id":"92214892-23c3-4a70-b075-071930aa4f77","system_id":"levelo_inurba_marseille","lat":43.30752,"lon":5.42438,"is_reserved":false,"is_disabled":false,"rental_uris":{"android":"levelo://app?vid=92214892-23c3-4a70-b075-071930aa4f77","ios":"levelo://app?vid=92214892-23c3-4a70-b075-071930aa4f77"},"vehicle_type_id":"4","last_reported":1770560310,"current_range_meters":3200,"station_id":"st_cvj6ca6bvosntc0bfgr0","pricing_plan_id":"cebpf4jnsgd1na2vs0mg"},{"bike_id":"695a138c-9117-4798-9030-e462ffee3fe5","system_id":"levelo_inurba_marseille","lat":43.24825,"lon":5.37422,"is_reserved":false,"is_disabled":false,"rental_uris":{"android":"levelo://app?vid=695a138c-9117-4798-9030-e462ffee3fe5","ios":"levelo://app?vid=695a138c-9117-4798-9030-e462ffee3fe5"},"vehicle_type_id":"4","last_reported":1770560310,"current_range_meters":3200,"station_id":"ce4bhgh2rcd13ifvqfb0","pricing_plan_id":"cebpf4jnsgd1na2vs0mg"},{"bike_id":"3424fe65-7365-4a3d-b40c-9b25ec3af19d","system_id":"levelo_inurba_marseille","lat":43.31326,"lon":5.38662,"is_reserved":false,"is_disabled":false,"rental_uris":{"android":"levelo://app?vid=3424fe65-7365-4a3d-b40c-9b25ec3af19d","ios":"levelo://app?vid=3424fe65-7365-4a3d-b40c-9b25ec3af19d"},"vehicle_type_id":"4","last_reported":1770560310,"current_range_meters":3600,"station_id":"","pricing_plan_id":"cebpf4jnsgd1na2vs0mg"},{"bike_id":"b92cefea-b054-4668-8b8f-6f3d47fab6c0","system_id":"levelo_inurba_marseille","lat":43.32108,"lon":5.36753,"is_reserved":false,"is_disabled":false,"rental_uris":{"android":"levelo://app?vid=b92cefea-b054-4668-8b8f-6f3d47fab6c0","ios":"levelo://app?vid=b92cefea-b054-4668-8b8f-6f3d47fab6c0"},"vehicle_type_id":"4","last_reported":1770560310,"current_range_meters":3600,"station_id":"ce4bhrh2rcd13ifvqhug","pricing_plan_id":"cebpf4jnsgd1na2vs0mg"},{"bike_id":"95cefdd7-6275-45ce-be27-d9d01e4dc178","system_id":"levelo_inurba_marseille","lat":43.26949,"lon":5.38904,"is_reserved":false,"is_disabled":true,"rental_uris":{"android":"levelo://app?vid=95cefdd7-6275-45ce-be27-d9d01e4dc178","ios":"levelo://app?vid=95cefdd7-6275-45ce-be27-d9d01e4dc178"},"vehicle_type_id":"4","last_reported":1770560310,"current_range_meters":3600,"station_id":"ce4bhhh2rcd13ifvqfl0","pricing_plan_id":"cebpf4jnsgd1na2vs0mg"},{"bike_id":"d7b7c118-575b-4f69-a01a-1a37afc992ca","system_id":"levelo_inurba_marseille","lat":43.32345,"lon":5.38871,"is_reserved":false,"is_disabled":false,"rental_uris":{"android":"levelo://app?vid=d7b7c118-575b-4f69-a01a-1a37afc992ca","ios":"levelo://app?vid=d7b7c118-575b-4f69-a01a-1a37afc992ca"},"vehicle_type_id":"4","last_reported":1770560310,"current_range_meters":3600,"station_id":"ce4bhqp2rcd13ifvqhog","pricing_plan_id":"cebpf4jnsgd1na2vs0mg"},{"bike_id":"574a237c-726e-4c0f-b75b-afd451cb0719","system_id":"levelo_inurba_marseille","lat":43.24182,"lon":5.39732,"is_reserved":false,"is_disabled":false,"rental_uris":{"android":"levelo://app?vid=574a237c-726e-4c0f-b75b-afd451cb0719","ios":"levelo://app?vid=574a237c-726e-4c0f-b75b-afd451cb0719"},"vehicle_type_id":"4","last_reported":1770560310,"current_range_meters":3600,"station_id":"ce4bhn12rcd13ifvqgpg","pricing_plan_id":"cebpf4jnsgd1na2vs0mg"},{"bike_id":"a85d500c-1b7e-4b3f-bba8-c0b38aec10c6","system_id":"levelo_inurba_marseille","lat":43.25932,"lon":5.40904,"is_reserved":false,"is_disabled":false,"rental_uris":{"android":"levelo://app?vid=a85d500c-1b7e-4b3f-bba8-c0b38aec10c6","ios":"levelo://app?vid=a85d500c-1b7e-4b3f-bba8-c0b38aec10c6"},"vehicle_type_id":"4","last_reported":1770560310,"current_range_meters":3600,"station_id":"ce4bhm92rcd13ifvqglg","pricing_plan_id":"cebpf4jnsgd1na2vs0mg"},{"bike_id":"4308129b-6751-4273-bbe8-20208f30cb65","system_id":"levelo_inurba_marseille","lat":43.22933,"lon":5.35382,"is_reserved":false,"is_disabled":false,"rental_uris":{"android":"levelo://app?vid=4308129b-6751-4273-bbe8-20208f30cb65","ios":"levelo://app?vid=4308129b-6751-4273-bbe8-20208f30cb65"},"vehicle_type_id":"4","last_reported":1770560310,"current_range_meters":3600,"station_id":"cpo3532slgdg3j2ikp40","pricing_plan_id":"cebpf4jnsgd1na2vs0mg"},{"bike_id":"44df0d6d-61a2-46ab-9bf9-ae3cec90cb8f","system_id":"levelo_inurba_marseille","lat":43.25015,"lon":5.38921,"is_reserved":false,"is_disabled":true,"rental_uris":{"android":"levelo://app?vid=44df0d6d-61a2-46ab-9bf9-ae3cec90cb8f","ios":"levelo://app?vid=44df0d6d-61a2-46ab-9bf9-ae3cec90cb8f"},"vehicle_type_id":"4","last_reported":1770560310,"current_range_meters":3600,"station_id":"ce4bhgp2rcd13ifvqfd0","pricing_plan_id":"cebpf4jnsgd1na2vs0mg"},{"bike_id":"e8b3f3bc-4896-4dbc-afc4-dfc343612c09","system_id":"levelo_inurba_marseille","lat":43.314387,"lon":5.366947,"is_reserved":false,"is_disabled":false,"rental_uris":{"android":"levelo://app?vid=e8b3f3bc-4896-4dbc-afc4-dfc343612c09","ios":"levelo://app?vid=e8b3f3bc-4896-4dbc-afc4-dfc343612c09"},"vehicle_type_id":"4","last_reported":1770560310,"current_range_meters":4000,"station_id":"","pricing_plan_id":"cebpf4jnsgd1na2vs0mg"},{"bike_id":"bb5cab08-186f-4af0-9cfa-2f009cafe5c6","system_id":"levelo_inurba_marseille","lat":43.2293,"lon":5.35375,"is_reserved":false,"is_disabled":false,"rental_uris":{"android":"levelo://app?vid=bb5cab08-186f-4af0-9cfa-2f009cafe5c6","ios":"levelo://app?vid=bb5cab08-186f-4af0-9cfa-2f009cafe5c6"},"vehicle_type_id":"4","last_reported":1770560310,"current_range_meters":4000,"station_id":"cpo3532slgdg3j2ikp40","pricing_plan_id":"cebpf4jnsgd1na2vs0mg"},{"bike_id":"a8166b5b-d24f-4bfd-bc3a-e719ac9d4b2e","system_id":"levelo_inurba_marseille","lat":43.28055,"lon":5.40864,"is_reserved":false,"is_disabled":false,"rental_uris":{"android":"levelo://app?vid=a8166b5b-d24f-4bfd-bc3a-e719ac9d4b2e","ios":"levelo://app?vid=a8166b5b-d24f-4bfd-bc3a-e719ac9d4b2e"},"vehicle_type_id":"4","last_reported":1770560310,"current_range_meters":4000,"station_id":"","pricing_plan_id":"cebpf4jnsgd1na2vs0mg"},{"bike_id":"55701a05-0afd-44f2-b5ec-65dd45bfe15c","system_id":"levelo_inurba_marseille","lat":43.23963,"lon":5.36614,"is_reserved":false,"is_disabled":false,"rental_uris":{"android":"levelo://app?vid=55701a05-0afd-44f2-b5ec-65dd45bfe15c","ios":"levelo://app?vid=55701a05-0afd-44f2-b5ec-65dd45bfe15c"},"vehicle_type_id":"4","last_reported":1770560310,"current_range_meters":4000,"station_id":"ce4bhi12rcd13ifvqfp0","pricing_plan_id":"cebpf4jnsgd1na2vs0mg"},{"bike_id":"386b4487-f2a2-455b-8ef5-022f78fae20f","system_id":"levelo_inurba_marseille","lat":43.24821,"lon":5.37446,"is_reserved":false,"is_disabled":false,"rental_uris":{"android":"levelo://app?vid=386b4487-f2a2-455b-8ef5-022f78fae20f","ios":"levelo://app?vid=386b4487-f2a2-455b-8ef5-022f78fae20f"},"vehicle_type_id":"4","last_reported":1770560310,"current_range_meters":4000,"station_id":"ce4bhgh2rcd13ifvqfb0","pricing_plan_id":"cebpf4jnsgd1na2vs0mg"},{"bike_id":"13a66910-aa65-4559-ba7a-e63b61e82f6f","system_id":"levelo_inurba_marseille","lat":43.29552,"lon":5.42289,"is_reserved":false,"is_disabled":false,"rental_uris":{"android":"levelo://app?vid=13a66910-aa65-4559-ba7a-e63b61e82f6f","ios":"levelo://app?vid=13a66910-aa65-4559-ba7a-e63b61e82f6f"},"vehicle_type_id":"4","last_reported":1770560310,"current_range_meters":4000,"station_id":"ce4bhph2rcd13ifvqhdg","pricing_plan_id":"cebpf4jnsgd1na2vs0mg"},{"bike_id":"ff981718-737a-46d1-b7ba-67de65affffe","system_id":"levelo_inurba_marseille","lat":43.25865,"lon":5.39889,"is_reserved":false,"is_disabled":false,"rental_uris":{"android":"levelo://app?vid=ff981718-737a-46d1-b7ba-67de65affffe","ios":"levelo://app?vid=ff981718-737a-46d1-b7ba-67de65affffe"},"vehicle_type_id":"4","last_reported":1770560310,"current_range_meters":4000,"station_id":"ce4bhl92rcd13ifvqghg","pricing_plan_id":"cebpf4jnsgd1na2vs0mg"},{"bike_id":"03431b60-4c57-4b38-a44e-dd832c690cfa","system_id":"levelo_inurba_marseille","lat":43.28469,"lon":5.38452,"is_reserved":false,"is_disabled":false,"rental_uris":{"android":"levelo://app?vid=03431b60-4c57-4b38-a44e-dd832c690cfa","ios":"levelo://app?vid=03431b60-4c57-4b38-a44e-dd832c690cfa"},"vehicle_type_id":"4","last_reported":1770560310,"current_range_meters":4400,"station_id":"ce4bh512rcd13ifvqe3g","pricing_plan_id":"cebpf4jnsgd1na2vs0mg"},{"bike_id":"811ecfab-1e6f-4cd1-8960-403c2a502307","system_id":"levelo_inurba_marseille","lat":43.22924,"lon":5.35375,"is_reserved":false,"is_disabled":false,"rental_uris":{"android":"levelo://app?vid=811ecfab-1e6f-4cd1-8960-403c2a502307","ios":"levelo://app?vid=811ecfab-1e6f-4cd1-8960-403c2a502307"},"vehicle_type_id":"4","last_reported":1770560310,"current_range_meters":4400,"station_id":"cpo3532slgdg3j2ikp40","pricing_plan_id":"cebpf4jnsgd1na2vs0mg"},{"bike_id":"4940192c-cd9e-43b0-a8dd-fd4c04e7805e","system_id":"levelo_inurba_marseille","lat":43.22562,"lon":5.41628,"is_reserved":false,"is_disabled":false,"rental_uris":{"android":"levelo://app?vid=4940192c-cd9e-43b0-a8dd-fd4c04e7805e","ios":"levelo://app?vid=4940192c-cd9e-43b0-a8dd-fd4c04e7805e"},"vehicle_type_id":"4","last_reported":1770560310,"current_range_meters":4400,"station_id":"st_d2o4gvlbi1j2169b742g","pricing_plan_id":"cebpf4jnsgd1na2vs0mg"},{"bike_id":"6a33da45-77ca-4fe9-986d-2ca1e064b34b","system_id":"levelo_inurba_marseille","lat":43.24499,"lon":5.39554,"is_reserved":false,"is_disabled":false,"rental_uris":{"android":"levelo://app?vid=6a33da45-77ca-4fe9-986d-2ca1e064b34b","ios":"levelo://app?vid=6a33da45-77ca-4fe9-986d-2ca1e064b34b"},"vehicle_type_id":"4","last_reported":1770560310,"current_range_meters":4400,"station_id":"","pricing_plan_id":"cebpf4jnsgd1na2vs0mg"},{"bike_id":"e7d04e0e-2451-4648-abd5-daad92300d9d","system_id":"levelo_inurba_marseille","lat":43.29257,"lon":5.3762,"is_reserved":false,"is_disabled":false,"rental_uris":{"android":"levelo://app?vid=e7d04e0e-2451-4648-abd5-daad92300d9d","ios":"levelo://app?vid=e7d04e0e-2451-4648-abd5-daad92300d9d"},"vehicle_type_id":"4","last_reported":1770560310,"current_range_meters":4400,"station_id":"ce4bgi12rcd13ifvqb80","pricing_plan_id":"cebpf4jnsgd1na2vs0mg"},{"bike_id":"3aed5847-38a3-483f-a302-c0e755a4674d","system_id":"levelo_inurba_marseille","lat":43.26365,"lon":5.4105,"is_reserved":false,"is_disabled":false,"rental_uris":{"android":"levelo://app?vid=3aed5847-38a3-483f-a302-c0e755a4674d","ios":"levelo://app?vid=3aed5847-38a3-483f-a302-c0e755a4674d"},"vehicle_type_id":"4","last_reported":1770560310,"current_range_meters":4400,"station_id":"st_d4e5ca6na9uc73bfl5fg","pricing_plan_id":"cebpf4jnsgd1na2vs0mg"},{"bike_id":"90154499-7a4e-4deb-a403-154052f8c6cd","system_id":"levelo_inurba_marseille","lat":43.284568,"lon":5.358911,"is_reserved":false,"is_disabled":false,"rental_uris":{"android":"levelo://app?vid=90154499-7a4e-4deb-a403-154052f8c6cd","ios":"levelo://app?vid=90154499-7a4e-4deb-a403-154052f8c6cd"},"vehicle_type_id":"4","last_reported":1770560310,"current_range_meters":4400,"station_id":"ce4bhah2rcd13ifvqei0","pricing_plan_id":"cebpf4jnsgd1na2vs0mg"},{"bike_id":"b0331170-4722-484f-85fa-ff26f59380f0","system_id":"levelo_inurba_marseille","lat":43.29502,"lon":5.43292,"is_reserved":false,"is_disabled":false,"rental_uris":{"android":"levelo://app?vid=b0331170-4722-484f-85fa-ff26f59380f0","ios":"levelo://app?vid=b0331170-4722-484f-85fa-ff26f59380f0"},"vehicle_type_id":"4","last_reported":1770560310,"current_range_meters":4400,"station_id":"st_d3j5ugp08ojc73fj9d10","pricing_plan_id":"cebpf4jnsgd1na2vs0mg"},{"bike_id":"8b3be9c3-9004-4049-910b-09fae9aa7d59","system_id":"levelo_inurba_marseille","lat":43.2463,"lon":5.43127,"is_reserved":false,"is_disabled":false,"rental_uris":{"android":"levelo://app?vid=8b3be9c3-9004-4049-910b-09fae9aa7d59","ios":"levelo://app?vid=8b3be9c3-9004-4049-910b-09fae9aa7d59"},"vehicle_type_id":"4","last_reported":1770560310,"current_range_meters":4800,"station_id":"st_d2m6c4gdas8pm72e190g","pricing_plan_id":"cebpf4jnsgd1na2vs0mg"},{"bike_id":"deb74d2f-8287-483e-a4e8-6f2536d6f6ad","system_id":"levelo_inurba_marseille","lat":43.28872,"lon":5.35838,"is_reserved":false,"is_disabled":false,"rental_uris":{"android":"levelo://app?vid=deb74d2f-8287-483e-a4e8-6f2536d6f6ad","ios":"levelo://app?vid=deb74d2f-8287-483e-a4e8-6f2536d6f6ad"},"vehicle_type_id":"4","last_reported":1770560310,"current_range_meters":4800,"station_id":"ce4bhb12rcd13ifvqem0","pricing_plan_id":"cebpf4jnsgd1na2vs0mg"},{"bike_id":"32641f13-9d93-4f9b-b623-ce0c373ebef8","system_id":"levelo_inurba_marseille","lat":43.28528,"lon":5.38422,"is_reserved":false,"is_disabled":false,"rental_uris":{"android":"levelo://app?vid=32641f13-9d93-4f9b-b623-ce0c373ebef8","ios":"levelo://app?vid=32641f13-9d93-4f9b-b623-ce0c373ebef8"},"vehicle_type_id":"4","last_reported":1770560310,"current_range_meters":4800,"station_id":"","pricing_plan_id":"cebpf4jnsgd1na2vs0mg"},{"bike_id":"6d4d7125-f230-40ff-9866-8a80f2da0b0b","system_id":"levelo_inurba_marseille","lat":43.22932,"lon":5.35385,"is_reserved":false,"is_disabled":false,"rental_uris":{"android":"levelo://app?vid=6d4d7125-f230-40ff-9866-8a80f2da0b0b","ios":"levelo://app?vid=6d4d7125-f230-40ff-9866-8a80f2da0b0b"},"vehicle_type_id":"4","last_reported":1770560310,"current_range_meters":4800,"station_id":"cpo3532slgdg3j2ikp40","pricing_plan_id":"cebpf4jnsgd1na2vs0mg"},{"bike_id":"9c27da16-0b95-483f-acc9-aaafd261f73e","system_id":"levelo_inurba_marseille","lat":43.30909,"lon":5.36852,"is_reserved":false,"is_disabled":false,"rental_uris":{"android":"levelo://app?vid=9c27da16-0b95-483f-acc9-aaafd261f73e","ios":"levelo://app?vid=9c27da16-0b95-483f-acc9-aaafd261f73e"},"vehicle_type_id":"4","last_reported":1770560310,"current_range_meters":4800,"station_id":"ce4bgn92rcd13ifvqbvg","pricing_plan_id":"cebpf4jnsgd1na2vs0mg"},{"bike_id":"09986119-327c-45bf-b6a8-e15c339167ea","system_id":"levelo_inurba_marseille","lat":43.28499,"lon":5.43968,"is_reserved":false,"is_disabled":false,"rental_uris":{"android":"levelo://app?vid=09986119-327c-45bf-b6a8-e15c339167ea","ios":"levelo://app?vid=09986119-327c-45bf-b6a8-e15c339167ea"},"vehicle_type_id":"4","last_reported":1770560310,"current_range_meters":4800,"station_id":"","pricing_plan_id":"cebpf4jnsgd1na2vs0mg"},{"bike_id":"c8f076d1-661c-4ca9-be71-ea3d2a4ec101","system_id":"levelo_inurba_marseille","lat":43.296,"lon":5.38099,"is_reserved":false,"is_disabled":false,"rental_uris":{"android":"levelo://app?vid=c8f076d1-661c-4ca9-be71-ea3d2a4ec101","ios":"levelo://app?vid=c8f076d1-661c-4ca9-be71-ea3d2a4ec101"},"vehicle_type_id":"4","last_reported":1770560310,"current_range_meters":4800,"station_id":"ce4bgl12rcd13ifvqbo0","pricing_plan_id":"cebpf4jnsgd1na2vs0mg"},{"bike_id":"d55e8f59-f61e-47e0-acd8-2c1927e67bc8","system_id":"levelo_inurba_marseille","lat":43.30162,"lon":5.38067,"is_reserved":false,"is_disabled":false,"rental_uris":{"android":"levelo://app?vid=d55e8f59-f61e-47e0-acd8-2c1927e67bc8","ios":"levelo://app?vid=d55e8f59-f61e-47e0-acd8-2c1927e67bc8"},"vehicle_type_id":"4","last_reported":1770560310,"current_range_meters":5600,"station_id":"ce4bgjp2rcd13ifvqbh0","pricing_plan_id":"cebpf4jnsgd1na2vs0mg"},{"bike_id":"5cdd27df-1aa5-4830-b5fc-91672ce179d3","system_id":"levelo_inurba_marseille","lat":43.27963,"lon":5.41003,"is_reserved":false,"is_disabled":true,"rental_uris":{"android":"levelo://app?vid=5cdd27df-1aa5-4830-b5fc-91672ce179d3","ios":"levelo://app?vid=5cdd27df-1aa5-4830-b5fc-91672ce179d3"},"vehicle_type_id":"4","last_reported":1770560310,"current_range_meters":5600,"station_id":"ce4bhnp2rcd13ifvqh0g","pricing_plan_id":"cebpf4jnsgd1na2vs0mg"},{"bike_id":"62e4c22c-ba08-4e76-83ca-cbbe5a97d8d7","system_id":"levelo_inurba_marseille","lat":43.23199,"lon":5.35545,"is_reserved":false,"is_disabled":false,"rental_uris":{"android":"levelo://app?vid=62e4c22c-ba08-4e76-83ca-cbbe5a97d8d7","ios":"levelo://app?vid=62e4c22c-ba08-4e76-83ca-cbbe5a97d8d7"},"vehicle_type_id":"4","last_reported":1770560310,"current_range_meters":5600,"station_id":"ce4bhu92rcd13ifvqi70","pricing_plan_id":"cebpf4jnsgd1na2vs0mg"},{"bike_id":"7d133632-afa7-496a-89cf-31f9337d1c83","system_id":"levelo_inurba_marseille","lat":43.29061,"lon":5.37149,"is_reserved":false,"is_disabled":true,"rental_uris":{"android":"levelo://app?vid=7d133632-afa7-496a-89cf-31f9337d1c83","ios":"levelo://app?vid=7d133632-afa7-496a-89cf-31f9337d1c83"},"vehicle_type_id":"4","last_reported":1770560310,"current_range_meters":5600,"station_id":"ce4bh5p2rcd13ifvqe4g","pricing_plan_id":"cebpf4jnsgd1na2vs0mg"},{"bike_id":"f5da9401-db7e-426f-9a0f-2330a30b8658","system_id":"levelo_inurba_marseille","lat":43.24386,"lon":5.37067,"is_reserved":false,"is_disabled":true,"rental_uris":{"android":"levelo://app?vid=f5da9401-db7e-426f-9a0f-2330a30b8658","ios":"levelo://app?vid=f5da9401-db7e-426f-9a0f-2330a30b8658"},"vehicle_type_id":"4","last_reported":1770560310,"current_range_meters":5600,"station_id":"ce4bhhh2rcd13ifvqfk0","pricing_plan_id":"cebpf4jnsgd1na2vs0mg"},{"bike_id":"0c0f8a2f-9a4d-41d4-989d-0153bebb1c3c","system_id":"levelo_inurba_marseille","lat":43.24656,"lon":5.38894,"is_reserved":false,"is_disabled":false,"rental_uris":{"android":"levelo://app?vid=0c0f8a2f-9a4d-41d4-989d-0153bebb1c3c","ios":"levelo://app?vid=0c0f8a2f-9a4d-41d4-989d-0153bebb1c3c"},"vehicle_type_id":"4","last_reported":1770560310,"current_range_meters":5600,"station_id":"ce4bhg12rcd13ifvqf60","pricing_plan_id":"cebpf4jnsgd1na2vs0mg"},{"bike_id":"6216461a-536b-4362-ac08-815386365ad7","system_id":"levelo_inurba_marseille","lat":43.30133,"lon":5.4313,"is_reserved":false,"is_disabled":false,"rental_uris":{"android":"levelo://app?vid=6216461a-536b-4362-ac08-815386365ad7","ios":"levelo://app?vid=6216461a-536b-4362-ac08-815386365ad7"},"vehicle_type_id":"4","last_reported":1770560310,"current_range_meters":5600,"station_id":"st_d3js3co5814s73ftftug","pricing_plan_id":"cebpf4jnsgd1na2vs0mg"},{"bike_id":"3b9a9b82-b164-4299-abaa-2409aa3deeda","system_id":"levelo_inurba_marseille","lat":43.22906,"lon":5.35387,"is_reserved":false,"is_disabled":false,"rental_uris":{"android":"levelo://app?vid=3b9a9b82-b164-4299-abaa-2409aa3deeda","ios":"levelo://app?vid=3b9a9b82-b164-4299-abaa-2409aa3deeda"},"vehicle_type_id":"4","last_reported":1770560310,"current_range_meters":5600,"station_id":"cpo3532slgdg3j2ikp40","pricing_plan_id":"cebpf4jnsgd1na2vs0mg"},{"bike_id":"d9d493c8-2229-4bda-a958-4c19d5464801","system_id":"levelo_inurba_marseille","lat":43.25875,"lon":5.39854,"is_reserved":false,"is_disabled":false,"rental_uris":{"android":"levelo://app?vid=d9d493c8-2229-4bda-a958-4c19d5464801","ios":"levelo://app?vid=d9d493c8-2229-4bda-a958-4c19d5464801"},"vehicle_type_id":"4","last_reported":1770560310,"current_range_meters":5600,"station_id":"ce4bhl92rcd13ifvqghg","pricing_plan_id":"cebpf4jnsgd1na2vs0mg"},{"bike_id":"e6d03073-11a9-495e-8d13-201bb403d1fc","system_id":"levelo_inurba_marseille","lat":43.211848,"lon":5.350821,"is_reserved":false,"is_disabled":false,"rental_uris":{"android":"levelo://app?vid=e6d03073-11a9-495e-8d13-201bb403d1fc","ios":"levelo://app?vid=e6d03073-11a9-495e-8d13-201bb403d1fc"},"vehicle_type_id":"4","last_reported":1770560310,"current_range_meters":6000,"station_id":"st_cvj6sg6p6f1abm77japg","pricing_plan_id":"cebpf4jnsgd1na2vs0mg"},{"bike_id":"5e1c107b-6624-40f0-998c-ef84f3d71a9b","system_id":"levelo_inurba_marseille","lat":43.27342,"lon":5.39118,"is_reserved":false,"is_disabled":true,"rental_uris":{"android":"levelo://app?vid=5e1c107b-6624-40f0-998c-ef84f3d71a9b","ios":"levelo://app?vid=5e1c107b-6624-40f0-998c-ef84f3d71a9b"},"vehicle_type_id":"4","last_reported":1770560310,"current_range_meters":6000,"station_id":"ce4bhgp2rcd13ifvqfe0","pricing_plan_id":"cebpf4jnsgd1na2vs0mg"},{"bike_id":"508fb8b9-4cee-4799-8b3b-fa3d800ff13e","system_id":"levelo_inurba_marseille","lat":43.33546,"lon":5.37425,"is_reserved":false,"is_disabled":false,"rental_uris":{"android":"levelo://app?vid=508fb8b9-4cee-4799-8b3b-fa3d800ff13e","ios":"levelo://app?vid=508fb8b9-4cee-4799-8b3b-fa3d800ff13e"},"vehicle_type_id":"4","last_reported":1770560310,"current_range_meters":6000,"station_id":"st_d46tts09ee8s73dlu43g","pricing_plan_id":"cebpf4jnsgd1na2vs0mg"},{"bike_id":"ea8c0580-dee3-43f3-bf01-1aa8969bd163","system_id":"levelo_inurba_marseille","lat":43.24186,"lon":5.36383,"is_reserved":false,"is_disabled":false,"rental_uris":{"android":"levelo://app?vid=ea8c0580-dee3-43f3-bf01-1aa8969bd163","ios":"levelo://app?vid=ea8c0580-dee3-43f3-bf01-1aa8969bd163"},"vehicle_type_id":"4","last_reported":1770560310,"current_range_meters":6000,"station_id":"cpo36qri1sfpv3e86is0","pricing_plan_id":"cebpf4jnsgd1na2vs0mg"},{"bike_id":"6a144693-7691-4af0-a94f-86308d14d8c0","system_id":"levelo_inurba_marseille","lat":43.25926,"lon":5.40898,"is_reserved":false,"is_disabled":false,"rental_uris":{"android":"levelo://app?vid=6a144693-7691-4af0-a94f-86308d14d8c0","ios":"levelo://app?vid=6a144693-7691-4af0-a94f-86308d14d8c0"},"vehicle_type_id":"4","last_reported":1770560310,"current_range_meters":6000,"station_id":"ce4bhm92rcd13ifvqglg","pricing_plan_id":"cebpf4jnsgd1na2vs0mg"},{"bike_id":"fd3f6ee2-b573-44cd-b12f-ecb3ca6ae4d0","system_id":"levelo_inurba_marseille","lat":43.27995,"lon":5.41667,"is_reserved":false,"is_disabled":false,"rental_uris":{"android":"levelo://app?vid=fd3f6ee2-b573-44cd-b12f-ecb3ca6ae4d0","ios":"levelo://app?vid=fd3f6ee2-b573-44cd-b12f-ecb3ca6ae4d0"},"vehicle_type_id":"4","last_reported":1770560310,"current_range_meters":6000,"station_id":"ce4bho12rcd13ifvqh1g","pricing_plan_id":"cebpf4jnsgd1na2vs0mg"},{"bike_id":"e55da058-5f2f-4502-8e5f-50303f92e92a","system_id":"levelo_inurba_marseille","lat":43.265611,"lon":5.37301,"is_reserved":false,"is_disabled":false,"rental_uris":{"android":"levelo://app?vid=e55da058-5f2f-4502-8e5f-50303f92e92a","ios":"levelo://app?vid=e55da058-5f2f-4502-8e5f-50303f92e92a"},"vehicle_type_id":"4","last_reported":1770560310,"current_range_meters":6000,"station_id":"ce4bhg12rcd13ifvqf70","pricing_plan_id":"cebpf4jnsgd1na2vs0mg"},{"bike_id":"4c1d817c-2311-4829-b074-c35d06d3a077","system_id":"levelo_inurba_marseille","lat":43.22929,"lon":5.35379,"is_reserved":false,"is_disabled":false,"rental_uris":{"android":"levelo://app?vid=4c1d817c-2311-4829-b074-c35d06d3a077","ios":"levelo://app?vid=4c1d817c-2311-4829-b074-c35d06d3a077"},"vehicle_type_id":"4","last_reported":1770560310,"current_range_meters":6000,"station_id":"cpo3532slgdg3j2ikp40","pricing_plan_id":"cebpf4jnsgd1na2vs0mg"},{"bike_id":"2cb5a43b-e623-4a02-b02d-84a79ff3e02e","system_id":"levelo_inurba_marseille","lat":43.22553,"lon":5.41629,"is_reserved":false,"is_disabled":false,"rental_uris":{"android":"levelo://app?vid=2cb5a43b-e623-4a02-b02d-84a79ff3e02e","ios":"levelo://app?vid=2cb5a43b-e623-4a02-b02d-84a79ff3e02e"},"vehicle_type_id":"4","last_reported":1770560310,"current_range_meters":6400,"station_id":"st_d2o4gvlbi1j2169b742g","pricing_plan_id":"cebpf4jnsgd1na2vs0mg"},{"bike_id":"0f9398e4-1c51-403f-8553-7aa3b9b52ae1","system_id":"levelo_inurba_marseille","lat":43.2849,"lon":5.3842,"is_reserved":false,"is_disabled":false,"rental_uris":{"android":"levelo://app?vid=0f9398e4-1c51-403f-8553-7aa3b9b52ae1","ios":"levelo://app?vid=0f9398e4-1c51-403f-8553-7aa3b9b52ae1"},"vehicle_type_id":"4","last_reported":1770560310,"current_range_meters":6400,"station_id":"ce4bh512rcd13ifvqe3g","pricing_plan_id":"cebpf4jnsgd1na2vs0mg"},{"bike_id":"a15bbded-05ca-465f-844e-c505328d58c9","system_id":"levelo_inurba_marseille","lat":43.265598,"lon":5.372892,"is_reserved":false,"is_disabled":false,"rental_uris":{"android":"levelo://app?vid=a15bbded-05ca-465f-844e-c505328d58c9","ios":"levelo://app?vid=a15bbded-05ca-465f-844e-c505328d58c9"},"vehicle_type_id":"4","last_reported":1770560310,"current_range_meters":6400,"station_id":"ce4bhg12rcd13ifvqf70","pricing_plan_id":"cebpf4jnsgd1na2vs0mg"},{"bike_id":"beda68ef-f369-4f32-832a-0322245f271f","system_id":"levelo_inurba_marseille","lat":43.28599,"lon":5.35107,"is_reserved":false,"is_disabled":false,"rental_uris":{"android":"levelo://app?vid=beda68ef-f369-4f32-832a-0322245f271f","ios":"levelo://app?vid=beda68ef-f369-4f32-832a-0322245f271f"},"vehicle_type_id":"4","last_reported":1770560310,"current_range_meters":6400,"station_id":"ce4bhch2rcd13ifvqeug","pricing_plan_id":"cebpf4jnsgd1na2vs0mg"},{"bike_id":"6b6b3044-dd0e-4787-8945-aab93fdd08a2","system_id":"levelo_inurba_marseille","lat":43.29766,"lon":5.37378,"is_reserved":false,"is_disabled":false,"rental_uris":{"android":"levelo://app?vid=6b6b3044-dd0e-4787-8945-aab93fdd08a2","ios":"levelo://app?vid=6b6b3044-dd0e-4787-8945-aab93fdd08a2"},"vehicle_type_id":"4","last_reported":1770560310,"current_range_meters":6400,"station_id":"","pricing_plan_id":"cebpf4jnsgd1na2vs0mg"},{"bike_id":"d196c33b-4ad6-44b6-97f4-5fb6c48fa350","system_id":"levelo_inurba_marseille","lat":43.31709,"lon":5.43708,"is_reserved":false,"is_disabled":false,"rental_uris":{"android":"levelo://app?vid=d196c33b-4ad6-44b6-97f4-5fb6c48fa350","ios":"levelo://app?vid=d196c33b-4ad6-44b6-97f4-5fb6c48fa350"},"vehicle_type_id":"4","last_reported":1770560310,"current_range_meters":6400,"station_id":"ce4bhp92rcd13ifvqhcg","pricing_plan_id":"cebpf4jnsgd1na2vs0mg"},{"bike_id":"ae12ad40-d776-4c8c-a1b5-593d194154e8","system_id":"levelo_inurba_marseille","lat":43.32113,"lon":5.36779,"is_reserved":false,"is_disabled":false,"rental_uris":{"android":"levelo://app?vid=ae12ad40-d776-4c8c-a1b5-593d194154e8","ios":"levelo://app?vid=ae12ad40-d776-4c8c-a1b5-593d194154e8"},"vehicle_type_id":"4","last_reported":1770560310,"current_range_meters":6400,"station_id":"ce4bhrh2rcd13ifvqhug","pricing_plan_id":"cebpf4jnsgd1na2vs0mg"},{"bike_id":"9c9db9d5-0e0c-47a3-a905-8fcf5962983e","system_id":"levelo_inurba_marseille","lat":43.23196,"lon":5.35541,"is_reserved":false,"is_disabled":false,"rental_uris":{"android":"levelo://app?vid=9c9db9d5-0e0c-47a3-a905-8fcf5962983e","ios":"levelo://app?vid=9c9db9d5-0e0c-47a3-a905-8fcf5962983e"},"vehicle_type_id":"4","last_reported":1770560310,"current_range_meters":6400,"station_id":"ce4bhu92rcd13ifvqi70","pricing_plan_id":"cebpf4jnsgd1na2vs0mg"},{"bike_id":"8138c7ab-272e-47d5-82e8-142e12d30a9b","system_id":"levelo_inurba_marseille","lat":43.321089,"lon":5.367786,"is_reserved":false,"is_disabled":false,"rental_uris":{"android":"levelo://app?vid=8138c7ab-272e-47d5-82e8-142e12d30a9b","ios":"levelo://app?vid=8138c7ab-272e-47d5-82e8-142e12d30a9b"},"vehicle_type_id":"4","last_reported":1770560310,"current_range_meters":6400,"station_id":"ce4bhrh2rcd13ifvqhug","pricing_plan_id":"cebpf4jnsgd1na2vs0mg"},{"bike_id":"968f210a-55fc-4510-bcd2-d3ede65fbe45","system_id":"levelo_inurba_marseille","lat":43.32488,"lon":5.36542,"is_reserved":false,"is_disabled":false,"rental_uris":{"android":"levelo://app?vid=968f210a-55fc-4510-bcd2-d3ede65fbe45","ios":"levelo://app?vid=968f210a-55fc-4510-bcd2-d3ede65fbe45"},"vehicle_type_id":"4","last_reported":1770560310,"current_range_meters":6400,"station_id":"ce4bhs12rcd13ifvqhvg","pricing_plan_id":"cebpf4jnsgd1na2vs0mg"},{"bike_id":"bca568ff-38c7-43df-af7f-69e9c70c5b42","system_id":"levelo_inurba_marseille","lat":43.23784,"lon":5.36622,"is_reserved":false,"is_disabled":false,"rental_uris":{"android":"levelo://app?vid=bca568ff-38c7-43df-af7f-69e9c70c5b42","ios":"levelo://app?vid=bca568ff-38c7-43df-af7f-69e9c70c5b42"},"vehicle_type_id":"4","last_reported":1770560310,"current_range_meters":6800,"station_id":"st_d3nk18o9ro0c73en2l3g","pricing_plan_id":"cebpf4jnsgd1na2vs0mg"},{"bike_id":"6b9ad2f0-0d88-40ff-a88f-7ddf87de7fb0","system_id":"levelo_inurba_marseille","lat":43.29893,"lon":5.43683,"is_reserved":false,"is_disabled":false,"rental_uris":{"android":"levelo://app?vid=6b9ad2f0-0d88-40ff-a88f-7ddf87de7fb0","ios":"levelo://app?vid=6b9ad2f0-0d88-40ff-a88f-7ddf87de7fb0"},"vehicle_type_id":"4","last_reported":1770560310,"current_range_meters":6800,"station_id":"ce4bhpp2rcd13ifvqhfg","pricing_plan_id":"cebpf4jnsgd1na2vs0mg"},{"bike_id":"b0e7feeb-1416-4406-b174-1e7f94d3553f","system_id":"levelo_inurba_marseille","lat":43.33542,"lon":5.37462,"is_reserved":false,"is_disabled":false,"rental_uris":{"android":"levelo://app?vid=b0e7feeb-1416-4406-b174-1e7f94d3553f","ios":"levelo://app?vid=b0e7feeb-1416-4406-b174-1e7f94d3553f"},"vehicle_type_id":"4","last_reported":1770560310,"current_range_meters":6800,"station_id":"","pricing_plan_id":"cebpf4jnsgd1na2vs0mg"},{"bike_id":"a93a3f3a-fc89-4e32-a1fb-c7685626cbdd","system_id":"levelo_inurba_marseille","lat":43.31159,"lon":5.38589,"is_reserved":false,"is_disabled":false,"rental_uris":{"android":"levelo://app?vid=a93a3f3a-fc89-4e32-a1fb-c7685626cbdd","ios":"levelo://app?vid=a93a3f3a-fc89-4e32-a1fb-c7685626cbdd"},"vehicle_type_id":"4","last_reported":1770560310,"current_range_meters":6800,"station_id":"","pricing_plan_id":"cebpf4jnsgd1na2vs0mg"},{"bike_id":"8c1d327c-0aef-40f2-9c1e-c8f679c30716","system_id":"levelo_inurba_marseille","lat":43.303158,"lon":5.369074,"is_reserved":false,"is_disabled":false,"rental_uris":{"android":"levelo://app?vid=8c1d327c-0aef-40f2-9c1e-c8f679c30716","ios":"levelo://app?vid=8c1d327c-0aef-40f2-9c1e-c8f679c30716"},"vehicle_type_id":"4","last_reported":1770560310,"current_range_meters":6800,"station_id":"ce4bgqh2rcd13ifvqc5g","pricing_plan_id":"cebpf4jnsgd1na2vs0mg"},{"bike_id":"9c7b49e3-2672-465f-9113-79b2777ffeb5","system_id":"levelo_inurba_marseille","lat":43.25028,"lon":5.39506,"is_reserved":false,"is_disabled":false,"rental_uris":{"android":"levelo://app?vid=9c7b49e3-2672-465f-9113-79b2777ffeb5","ios":"levelo://app?vid=9c7b49e3-2672-465f-9113-79b2777ffeb5"},"vehicle_type_id":"4","last_reported":1770560310,"current_range_meters":6800,"station_id":"","pricing_plan_id":"cebpf4jnsgd1na2vs0mg"},{"bike_id":"f957ccc7-2bd4-4806-8d87-912204afeaf8","system_id":"levelo_inurba_marseille","lat":43.27901,"lon":5.38266,"is_reserved":false,"is_disabled":false,"rental_uris":{"android":"levelo://app?vid=f957ccc7-2bd4-4806-8d87-912204afeaf8","ios":"levelo://app?vid=f957ccc7-2bd4-4806-8d87-912204afeaf8"},"vehicle_type_id":"4","last_reported":1770560310,"current_range_meters":6800,"station_id":"","pricing_plan_id":"cebpf4jnsgd1na2vs0mg"},{"bike_id":"66f61838-99ce-449f-9957-4eada4297346","system_id":"levelo_inurba_marseille","lat":43.2833,"lon":5.38114,"is_reserved":false,"is_disabled":true,"rental_uris":{"android":"levelo://app?vid=66f61838-99ce-449f-9957-4eada4297346","ios":"levelo://app?vid=66f61838-99ce-449f-9957-4eada4297346"},"vehicle_type_id":"4","last_reported":1770560310,"current_range_meters":6800,"station_id":"ce4bh412rcd13ifvqdr0","pricing_plan_id":"cebpf4jnsgd1na2vs0mg"},{"bike_id":"e8457bb3-f99d-40e0-aa19-6d3fdf1a5998","system_id":"levelo_inurba_marseille","lat":43.28104,"lon":5.42653,"is_reserved":false,"is_disabled":false,"rental_uris":{"android":"levelo://app?vid=e8457bb3-f99d-40e0-aa19-6d3fdf1a5998","ios":"levelo://app?vid=e8457bb3-f99d-40e0-aa19-6d3fdf1a5998"},"vehicle_type_id":"4","last_reported":1770560310,"current_range_meters":6800,"station_id":"","pricing_plan_id":"cebpf4jnsgd1na2vs0mg"},{"bike_id":"84049220-6d70-4eda-a979-6a77057b85d6","system_id":"levelo_inurba_marseille","lat":43.2848,"lon":5.38398,"is_reserved":false,"is_disabled":false,"rental_uris":{"android":"levelo://app?vid=84049220-6d70-4eda-a979-6a77057b85d6","ios":"levelo://app?vid=84049220-6d70-4eda-a979-6a77057b85d6"},"vehicle_type_id":"4","last_reported":1770560310,"current_range_meters":6800,"station_id":"ce4bh512rcd13ifvqe3g","pricing_plan_id":"cebpf4jnsgd1na2vs0mg"},{"bike_id":"a03713b9-bb1f-4cd8-9a75-37ef2a7948ba","system_id":"levelo_inurba_marseille","lat":43.26233,"lon":5.37764,"is_reserved":false,"is_disabled":false,"rental_uris":{"android":"levelo://app?vid=a03713b9-bb1f-4cd8-9a75-37ef2a7948ba","ios":"levelo://app?vid=a03713b9-bb1f-4cd8-9a75-37ef2a7948ba"},"vehicle_type_id":"4","last_reported":1770560310,"current_range_meters":6800,"station_id":"","pricing_plan_id":"cebpf4jnsgd1na2vs0mg"},{"bike_id":"7e432d56-4167-484a-a6d0-1b8a4f18fe1c","system_id":"levelo_inurba_marseille","lat":43.2293,"lon":5.35381,"is_reserved":false,"is_disabled":false,"rental_uris":{"android":"levelo://app?vid=7e432d56-4167-484a-a6d0-1b8a4f18fe1c","ios":"levelo://app?vid=7e432d56-4167-484a-a6d0-1b8a4f18fe1c"},"vehicle_type_id":"4","last_reported":1770560310,"current_range_meters":6800,"station_id":"cpo3532slgdg3j2ikp40","pricing_plan_id":"cebpf4jnsgd1na2vs0mg"},{"bike_id":"28ea6fbe-b592-43e0-b4f1-22356d5bc8f9","system_id":"levelo_inurba_marseille","lat":43.33535,"lon":5.37455,"is_reserved":false,"is_disabled":false,"rental_uris":{"android":"levelo://app?vid=28ea6fbe-b592-43e0-b4f1-22356d5bc8f9","ios":"levelo://app?vid=28ea6fbe-b592-43e0-b4f1-22356d5bc8f9"},"vehicle_type_id":"4","last_reported":1770560310,"current_range_meters":6800,"station_id":"st_d46tts09ee8s73dlu43g","pricing_plan_id":"cebpf4jnsgd1na2vs0mg"},{"bike_id":"bc75ac16-8bb6-421e-94c2-94272fb557fb","system_id":"levelo_inurba_marseille","lat":43.30158,"lon":5.38096,"is_reserved":false,"is_disabled":false,"rental_uris":{"android":"levelo://app?vid=bc75ac16-8bb6-421e-94c2-94272fb557fb","ios":"levelo://app?vid=bc75ac16-8bb6-421e-94c2-94272fb557fb"},"vehicle_type_id":"4","last_reported":1770560310,"current_range_meters":7200,"station_id":"ce4bgjp2rcd13ifvqbh0","pricing_plan_id":"cebpf4jnsgd1na2vs0mg"},{"bike_id":"13ce2358-2d78-4000-bbd2-230bee171af5","system_id":"levelo_inurba_marseille","lat":43.28655,"lon":5.3988,"is_reserved":false,"is_disabled":false,"rental_uris":{"android":"levelo://app?vid=13ce2358-2d78-4000-bbd2-230bee171af5","ios":"levelo://app?vid=13ce2358-2d78-4000-bbd2-230bee171af5"},"vehicle_type_id":"4","last_reported":1770560310,"current_range_meters":7200,"station_id":"st_d4a7ka997mjs738ck50g","pricing_plan_id":"cebpf4jnsgd1na2vs0mg"},{"bike_id":"fc7e4b88-1656-4ea3-ac70-db935a568e8d","system_id":"levelo_inurba_marseille","lat":43.33174,"lon":5.37671,"is_reserved":false,"is_disabled":false,"rental_uris":{"android":"levelo://app?vid=fc7e4b88-1656-4ea3-ac70-db935a568e8d","ios":"levelo://app?vid=fc7e4b88-1656-4ea3-ac70-db935a568e8d"},"vehicle_type_id":"4","last_reported":1770560310,"current_range_meters":7200,"station_id":"st_d46cu089ee8s73dldbu0","pricing_plan_id":"cebpf4jnsgd1na2vs0mg"},{"bike_id":"92f96dc6-fb36-497e-b003-4cf97cad9044","system_id":"levelo_inurba_marseille","lat":43.323398,"lon":5.38509,"is_reserved":false,"is_disabled":false,"rental_uris":{"android":"levelo://app?vid=92f96dc6-fb36-497e-b003-4cf97cad9044","ios":"levelo://app?vid=92f96dc6-fb36-497e-b003-4cf97cad9044"},"vehicle_type_id":"4","last_reported":1770560310,"current_range_meters":7200,"station_id":"st_d45171o9ee8s73djdqug","pricing_plan_id":"cebpf4jnsgd1na2vs0mg"},{"bike_id":"ec530521-2795-4ff9-af45-352d2124398c","system_id":"levelo_inurba_marseille","lat":43.31382,"lon":5.36715,"is_reserved":false,"is_disabled":true,"rental_uris":{"android":"levelo://app?vid=ec530521-2795-4ff9-af45-352d2124398c","ios":"levelo://app?vid=ec530521-2795-4ff9-af45-352d2124398c"},"vehicle_type_id":"4","last_reported":1770560310,"current_range_meters":7200,"station_id":"ce4bgr92rcd13ifvqc6g","pricing_plan_id":"cebpf4jnsgd1na2vs0mg"},{"bike_id":"31e52e49-2b8e-4bc3-9815-4a71a716ef19","system_id":"levelo_inurba_marseille","lat":43.29277,"lon":5.37585,"is_reserved":false,"is_disabled":false,"rental_uris":{"android":"levelo://app?vid=31e52e49-2b8e-4bc3-9815-4a71a716ef19","ios":"levelo://app?vid=31e52e49-2b8e-4bc3-9815-4a71a716ef19"},"vehicle_type_id":"4","last_reported":1770560310,"current_range_meters":7200,"station_id":"ce4bgi12rcd13ifvqb80","pricing_plan_id":"cebpf4jnsgd1na2vs0mg"},{"bike_id":"76921968-741d-4270-88e0-a01f3724f854","system_id":"levelo_inurba_marseille","lat":43.28694,"lon":5.38707,"is_reserved":false,"is_disabled":false,"rental_uris":{"android":"levelo://app?vid=76921968-741d-4270-88e0-a01f3724f854","ios":"levelo://app?vid=76921968-741d-4270-88e0-a01f3724f854"},"vehicle_type_id":"4","last_reported":1770560310,"current_range_meters":7200,"station_id":"ce4bh492rcd13ifvqdug","pricing_plan_id":"cebpf4jnsgd1na2vs0mg"},{"bike_id":"ef05e718-6e12-4f9b-8c44-b632e5891399","system_id":"levelo_inurba_marseille","lat":43.2908,"lon":5.37606,"is_reserved":false,"is_disabled":false,"rental_uris":{"android":"levelo://app?vid=ef05e718-6e12-4f9b-8c44-b632e5891399","ios":"levelo://app?vid=ef05e718-6e12-4f9b-8c44-b632e5891399"},"vehicle_type_id":"4","last_reported":1770560310,"current_range_meters":7200,"station_id":"","pricing_plan_id":"cebpf4jnsgd1na2vs0mg"},{"bike_id":"c1c15dd8-d5f4-419a-b7d9-76b9cd0f2968","system_id":"levelo_inurba_marseille","lat":43.28268,"lon":5.35069,"is_reserved":false,"is_disabled":false,"rental_uris":{"android":"levelo://app?vid=c1c15dd8-d5f4-419a-b7d9-76b9cd0f2968","ios":"levelo://app?vid=c1c15dd8-d5f4-419a-b7d9-76b9cd0f2968"},"vehicle_type_id":"4","last_reported":1770560310,"current_range_meters":7200,"station_id":"ce4bhbp2rcd13ifvqerg","pricing_plan_id":"cebpf4jnsgd1na2vs0mg"},{"bike_id":"2ec8dfc1-6364-4f8d-b3dd-d63bc7efaa91","system_id":"levelo_inurba_marseille","lat":43.3211,"lon":5.36774,"is_reserved":false,"is_disabled":false,"rental_uris":{"android":"levelo://app?vid=2ec8dfc1-6364-4f8d-b3dd-d63bc7efaa91","ios":"levelo://app?vid=2ec8dfc1-6364-4f8d-b3dd-d63bc7efaa91"},"vehicle_type_id":"4","last_reported":1770560310,"current_range_meters":7200,"station_id":"ce4bhrh2rcd13ifvqhug","pricing_plan_id":"cebpf4jnsgd1na2vs0mg"},{"bike_id":"40106db3-21d3-46c7-a226-276d5c0a6ebe","system_id":"levelo_inurba_marseille","lat":43.29041,"lon":5.38099,"is_reserved":false,"is_disabled":false,"rental_uris":{"android":"levelo://app?vid=40106db3-21d3-46c7-a226-276d5c0a6ebe","ios":"levelo://app?vid=40106db3-21d3-46c7-a226-276d5c0a6ebe"},"vehicle_type_id":"4","last_reported":1770560310,"current_range_meters":7200,"station_id":"ce4bh4p2rcd13ifvqe1g","pricing_plan_id":"cebpf4jnsgd1na2vs0mg"},{"bike_id":"cf7abb30-91b4-4fa2-abfb-7d7173b59b2c","system_id":"levelo_inurba_marseille","lat":43.25341,"lon":5.4216,"is_reserved":false,"is_disabled":false,"rental_uris":{"android":"levelo://app?vid=cf7abb30-91b4-4fa2-abfb-7d7173b59b2c","ios":"levelo://app?vid=cf7abb30-91b4-4fa2-abfb-7d7173b59b2c"},"vehicle_type_id":"4","last_reported":1770560310,"current_range_meters":7200,"station_id":"st_d2m65c5bi1j21697t3ng","pricing_plan_id":"cebpf4jnsgd1na2vs0mg"},{"bike_id":"3748cc8f-9de7-4c71-8615-5f25be89c94e","system_id":"levelo_inurba_marseille","lat":43.30302,"lon":5.36909,"is_reserved":false,"is_disabled":false,"rental_uris":{"android":"levelo://app?vid=3748cc8f-9de7-4c71-8615-5f25be89c94e","ios":"levelo://app?vid=3748cc8f-9de7-4c71-8615-5f25be89c94e"},"vehicle_type_id":"4","last_reported":1770560310,"current_range_meters":7200,"station_id":"ce4bgqh2rcd13ifvqc5g","pricing_plan_id":"cebpf4jnsgd1na2vs0mg"},{"bike_id":"5f9bd2ca-91e3-4fbe-a1bb-af05a97d2ea2","system_id":"levelo_inurba_marseille","lat":43.3146,"lon":5.45353,"is_reserved":false,"is_disabled":false,"rental_uris":{"android":"levelo://app?vid=5f9bd2ca-91e3-4fbe-a1bb-af05a97d2ea2","ios":"levelo://app?vid=5f9bd2ca-91e3-4fbe-a1bb-af05a97d2ea2"},"vehicle_type_id":"4","last_reported":1770560310,"current_range_meters":7200,"station_id":"","pricing_plan_id":"cebpf4jnsgd1na2vs0mg"},{"bike_id":"4414a71f-328e-433c-ae9b-b1fe012b70ff","system_id":"levelo_inurba_marseille","lat":43.30284,"lon":5.37733,"is_reserved":false,"is_disabled":false,"rental_uris":{"android":"levelo://app?vid=4414a71f-328e-433c-ae9b-b1fe012b70ff","ios":"levelo://app?vid=4414a71f-328e-433c-ae9b-b1fe012b70ff"},"vehicle_type_id":"4","last_reported":1770560310,"current_range_meters":7200,"station_id":"ce4bguh2rcd13ifvqcj0","pricing_plan_id":"cebpf4jnsgd1na2vs0mg"},{"bike_id":"cfb9f90a-8bba-4df6-b769-b6924ddbf8e2","system_id":"levelo_inurba_marseille","lat":43.26184,"lon":5.37913,"is_reserved":false,"is_disabled":false,"rental_uris":{"android":"levelo://app?vid=cfb9f90a-8bba-4df6-b769-b6924ddbf8e2","ios":"levelo://app?vid=cfb9f90a-8bba-4df6-b769-b6924ddbf8e2"},"vehicle_type_id":"4","last_reported":1770560310,"current_range_meters":7200,"station_id":"ce4bhjp2rcd13ifvqg90","pricing_plan_id":"cebpf4jnsgd1na2vs0mg"},{"bike_id":"fbd8c4f9-3856-46a2-b291-e190e6907420","system_id":"levelo_inurba_marseille","lat":43.25003,"lon":5.38928,"is_reserved":false,"is_disabled":false,"rental_uris":{"android":"levelo://app?vid=fbd8c4f9-3856-46a2-b291-e190e6907420","ios":"levelo://app?vid=fbd8c4f9-3856-46a2-b291-e190e6907420"},"vehicle_type_id":"4","last_reported":1770560310,"current_range_meters":7200,"station_id":"ce4bhgp2rcd13ifvqfd0","pricing_plan_id":"cebpf4jnsgd1na2vs0mg"},{"bike_id":"1a1d969f-bada-4aaa-a461-ec3f4a01601c","system_id":"levelo_inurba_marseille","lat":43.33547,"lon":5.37448,"is_reserved":false,"is_disabled":false,"rental_uris":{"android":"levelo://app?vid=1a1d969f-bada-4aaa-a461-ec3f4a01601c","ios":"levelo://app?vid=1a1d969f-bada-4aaa-a461-ec3f4a01601c"},"vehicle_type_id":"4","last_reported":1770560310,"current_range_meters":7200,"station_id":"st_d46tts09ee8s73dlu43g","pricing_plan_id":"cebpf4jnsgd1na2vs0mg"},{"bike_id":"7a2c796a-2c27-403d-a799-411424496833","system_id":"levelo_inurba_marseille","lat":43.26572,"lon":5.40328,"is_reserved":false,"is_disabled":false,"rental_uris":{"android":"levelo://app?vid=7a2c796a-2c27-403d-a799-411424496833","ios":"levelo://app?vid=7a2c796a-2c27-403d-a799-411424496833"},"vehicle_type_id":"4","last_reported":1770560310,"current_range_meters":8000,"station_id":"ce4bhmp2rcd13ifvqgng","pricing_plan_id":"cebpf4jnsgd1na2vs0mg"},{"bike_id":"0a0ad101-734f-476a-a817-88bc4ca6e49c","system_id":"levelo_inurba_marseille","lat":43.30804,"lon":5.38142,"is_reserved":false,"is_disabled":false,"rental_uris":{"android":"levelo://app?vid=0a0ad101-734f-476a-a817-88bc4ca6e49c","ios":"levelo://app?vid=0a0ad101-734f-476a-a817-88bc4ca6e49c"},"vehicle_type_id":"4","last_reported":1770560310,"current_range_meters":8000,"station_id":"ce4bgt12rcd13ifvqce0","pricing_plan_id":"cebpf4jnsgd1na2vs0mg"},{"bike_id":"0b84e61d-62ba-4706-80f1-3a72823c8089","system_id":"levelo_inurba_marseille","lat":43.25935,"lon":5.40895,"is_reserved":false,"is_disabled":false,"rental_uris":{"android":"levelo://app?vid=0b84e61d-62ba-4706-80f1-3a72823c8089","ios":"levelo://app?vid=0b84e61d-62ba-4706-80f1-3a72823c8089"},"vehicle_type_id":"4","last_reported":1770560310,"current_range_meters":8000,"station_id":"ce4bhm92rcd13ifvqglg","pricing_plan_id":"cebpf4jnsgd1na2vs0mg"},{"bike_id":"867458d9-c09f-4165-b1af-e2013b3a197e","system_id":"levelo_inurba_marseille","lat":43.2464,"lon":5.389,"is_reserved":false,"is_disabled":false,"rental_uris":{"android":"levelo://app?vid=867458d9-c09f-4165-b1af-e2013b3a197e","ios":"levelo://app?vid=867458d9-c09f-4165-b1af-e2013b3a197e"},"vehicle_type_id":"4","last_reported":1770560310,"current_range_meters":8000,"station_id":"ce4bhg12rcd13ifvqf60","pricing_plan_id":"cebpf4jnsgd1na2vs0mg"},{"bike_id":"150fa605-1342-42d0-b038-c87938e3cafd","system_id":"levelo_inurba_marseille","lat":43.261986,"lon":5.379279,"is_reserved":false,"is_disabled":false,"rental_uris":{"android":"levelo://app?vid=150fa605-1342-42d0-b038-c87938e3cafd","ios":"levelo://app?vid=150fa605-1342-42d0-b038-c87938e3cafd"},"vehicle_type_id":"4","last_reported":1770560310,"current_range_meters":8000,"station_id":"ce4bhjp2rcd13ifvqg90","pricing_plan_id":"cebpf4jnsgd1na2vs0mg"},{"bike_id":"155a788c-3210-4e6a-b211-01617931334a","system_id":"levelo_inurba_marseille","lat":43.337444,"lon":5.374475,"is_reserved":false,"is_disabled":false,"rental_uris":{"android":"levelo://app?vid=155a788c-3210-4e6a-b211-01617931334a","ios":"levelo://app?vid=155a788c-3210-4e6a-b211-01617931334a"},"vehicle_type_id":"4","last_reported":1770560310,"current_range_meters":8000,"station_id":"","pricing_plan_id":"cebpf4jnsgd1na2vs0mg"},{"bike_id":"16ac9c64-e365-4645-8b05-04ee2f4337e9","system_id":"levelo_inurba_marseille","lat":43.23954,"lon":5.36652,"is_reserved":false,"is_disabled":false,"rental_uris":{"android":"levelo://app?vid=16ac9c64-e365-4645-8b05-04ee2f4337e9","ios":"levelo://app?vid=16ac9c64-e365-4645-8b05-04ee2f4337e9"},"vehicle_type_id":"4","last_reported":1770560310,"current_range_meters":8000,"station_id":"ce4bhi12rcd13ifvqfp0","pricing_plan_id":"cebpf4jnsgd1na2vs0mg"},{"bike_id":"364ea28f-7e20-4ad8-9bf1-69b2e8dad65e","system_id":"levelo_inurba_marseille","lat":43.28614,"lon":5.44327,"is_reserved":false,"is_disabled":false,"rental_uris":{"android":"levelo://app?vid=364ea28f-7e20-4ad8-9bf1-69b2e8dad65e","ios":"levelo://app?vid=364ea28f-7e20-4ad8-9bf1-69b2e8dad65e"},"vehicle_type_id":"4","last_reported":1770560310,"current_range_meters":8000,"station_id":"","pricing_plan_id":"cebpf4jnsgd1na2vs0mg"},{"bike_id":"71e48960-d629-4480-9c55-f9402a802000","system_id":"levelo_inurba_marseille","lat":43.2867,"lon":5.38734,"is_reserved":false,"is_disabled":false,"rental_uris":{"android":"levelo://app?vid=71e48960-d629-4480-9c55-f9402a802000","ios":"levelo://app?vid=71e48960-d629-4480-9c55-f9402a802000"},"vehicle_type_id":"4","last_reported":1770560310,"current_range_meters":8000,"station_id":"ce4bh492rcd13ifvqdug","pricing_plan_id":"cebpf4jnsgd1na2vs0mg"},{"bike_id":"dd24189e-0ca5-42b2-a25c-59b99b80cd71","system_id":"levelo_inurba_marseille","lat":43.24797,"lon":5.37402,"is_reserved":false,"is_disabled":false,"rental_uris":{"android":"levelo://app?vid=dd24189e-0ca5-42b2-a25c-59b99b80cd71","ios":"levelo://app?vid=dd24189e-0ca5-42b2-a25c-59b99b80cd71"},"vehicle_type_id":"4","last_reported":1770560310,"current_range_meters":8000,"station_id":"ce4bhgh2rcd13ifvqfb0","pricing_plan_id":"cebpf4jnsgd1na2vs0mg"},{"bike_id":"779ab762-12c7-4e4f-a5f9-1cd4487c21c9","system_id":"levelo_inurba_marseille","lat":43.321091,"lon":5.367808,"is_reserved":false,"is_disabled":false,"rental_uris":{"android":"levelo://app?vid=779ab762-12c7-4e4f-a5f9-1cd4487c21c9","ios":"levelo://app?vid=779ab762-12c7-4e4f-a5f9-1cd4487c21c9"},"vehicle_type_id":"4","last_reported":1770560310,"current_range_meters":8400,"station_id":"ce4bhrh2rcd13ifvqhug","pricing_plan_id":"cebpf4jnsgd1na2vs0mg"},{"bike_id":"ad20c1d2-258b-4db8-b56a-9ab6132ecf48","system_id":"levelo_inurba_marseille","lat":43.24503,"lon":5.42551,"is_reserved":false,"is_disabled":false,"rental_uris":{"android":"levelo://app?vid=ad20c1d2-258b-4db8-b56a-9ab6132ecf48","ios":"levelo://app?vid=ad20c1d2-258b-4db8-b56a-9ab6132ecf48"},"vehicle_type_id":"4","last_reported":1770560310,"current_range_meters":8400,"station_id":"st_d4a3vfp97mjs738cd8kg","pricing_plan_id":"cebpf4jnsgd1na2vs0mg"},{"bike_id":"cc837a8c-1989-4283-89cf-0ff96c2621a1","system_id":"levelo_inurba_marseille","lat":43.30163,"lon":5.38031,"is_reserved":false,"is_disabled":false,"rental_uris":{"android":"levelo://app?vid=cc837a8c-1989-4283-89cf-0ff96c2621a1","ios":"levelo://app?vid=cc837a8c-1989-4283-89cf-0ff96c2621a1"},"vehicle_type_id":"4","last_reported":1770560310,"current_range_meters":8400,"station_id":"","pricing_plan_id":"cebpf4jnsgd1na2vs0mg"},{"bike_id":"4b9bbde0-30cc-4c3d-973e-6947c0246c0b","system_id":"levelo_inurba_marseille","lat":43.2654,"lon":5.373,"is_reserved":false,"is_disabled":false,"rental_uris":{"android":"levelo://app?vid=4b9bbde0-30cc-4c3d-973e-6947c0246c0b","ios":"levelo://app?vid=4b9bbde0-30cc-4c3d-973e-6947c0246c0b"},"vehicle_type_id":"4","last_reported":1770560310,"current_range_meters":8400,"station_id":"ce4bhg12rcd13ifvqf70","pricing_plan_id":"cebpf4jnsgd1na2vs0mg"},{"bike_id":"f8354ddb-017a-4bf2-8668-a39598178e17","system_id":"levelo_inurba_marseille","lat":43.307355,"lon":5.424386,"is_reserved":false,"is_disabled":false,"rental_uris":{"android":"levelo://app?vid=f8354ddb-017a-4bf2-8668-a39598178e17","ios":"levelo://app?vid=f8354ddb-017a-4bf2-8668-a39598178e17"},"vehicle_type_id":"4","last_reported":1770560310,"current_range_meters":8400,"station_id":"st_cvj6ca6bvosntc0bfgr0","pricing_plan_id":"cebpf4jnsgd1na2vs0mg"},{"bike_id":"a5fe7b14-3ced-4d6c-aab3-f34baaf11509","system_id":"levelo_inurba_marseille","lat":43.29867,"lon":5.38893,"is_reserved":false,"is_disabled":true,"rental_uris":{"android":"levelo://app?vid=a5fe7b14-3ced-4d6c-aab3-f34baaf11509","ios":"levelo://app?vid=a5fe7b14-3ced-4d6c-aab3-f34baaf11509"},"vehicle_type_id":"4","last_reported":1770560310,"current_range_meters":8400,"station_id":"ce4bh392rcd13ifvqdl0","pricing_plan_id":"cebpf4jnsgd1na2vs0mg"},{"bike_id":"d71fd997-724b-4700-8f71-84b37168fbd9","system_id":"levelo_inurba_marseille","lat":43.257025,"lon":5.411156,"is_reserved":false,"is_disabled":false,"rental_uris":{"android":"levelo://app?vid=d71fd997-724b-4700-8f71-84b37168fbd9","ios":"levelo://app?vid=d71fd997-724b-4700-8f71-84b37168fbd9"},"vehicle_type_id":"4","last_reported":1770560310,"current_range_meters":8400,"station_id":"ce4bhkp2rcd13ifvqgd0","pricing_plan_id":"cebpf4jnsgd1na2vs0mg"},{"bike_id":"98e61b74-3ca5-466f-b460-5e4ff3753470","system_id":"levelo_inurba_marseille","lat":43.28854,"lon":5.358339,"is_reserved":false,"is_disabled":false,"rental_uris":{"android":"levelo://app?vid=98e61b74-3ca5-466f-b460-5e4ff3753470","ios":"levelo://app?vid=98e61b74-3ca5-466f-b460-5e4ff3753470"},"vehicle_type_id":"4","last_reported":1770560310,"current_range_meters":8400,"station_id":"ce4bhb12rcd13ifvqem0","pricing_plan_id":"cebpf4jnsgd1na2vs0mg"},{"bike_id":"131c8bc6-588e-4f5d-851b-303b7978f745","system_id":"levelo_inurba_marseille","lat":43.259418,"lon":5.409026,"is_reserved":false,"is_disabled":false,"rental_uris":{"android":"levelo://app?vid=131c8bc6-588e-4f5d-851b-303b7978f745","ios":"levelo://app?vid=131c8bc6-588e-4f5d-851b-303b7978f745"},"vehicle_type_id":"4","last_reported":1770560310,"current_range_meters":8400,"station_id":"ce4bhm92rcd13ifvqglg","pricing_plan_id":"cebpf4jnsgd1na2vs0mg"},{"bike_id":"347347fb-43cf-4034-a598-0f76fe077d02","system_id":"levelo_inurba_marseille","lat":43.31386,"lon":5.36682,"is_reserved":false,"is_disabled":false,"rental_uris":{"android":"levelo://app?vid=347347fb-43cf-4034-a598-0f76fe077d02","ios":"levelo://app?vid=347347fb-43cf-4034-a598-0f76fe077d02"},"vehicle_type_id":"4","last_reported":1770560310,"current_range_meters":8400,"station_id":"","pricing_plan_id":"cebpf4jnsgd1na2vs0mg"},{"bike_id":"d8ba07be-4909-4867-9013-61baab37ba2e","system_id":"levelo_inurba_marseille","lat":43.2256,"lon":5.41624,"is_reserved":false,"is_disabled":false,"rental_uris":{"android":"levelo://app?vid=d8ba07be-4909-4867-9013-61baab37ba2e","ios":"levelo://app?vid=d8ba07be-4909-4867-9013-61baab37ba2e"},"vehicle_type_id":"4","last_reported":1770560310,"current_range_meters":8400,"station_id":"st_d2o4gvlbi1j2169b742g","pricing_plan_id":"cebpf4jnsgd1na2vs0mg"},{"bike_id":"edc9c679-e0d1-4084-a3db-3f6b1a28aa12","system_id":"levelo_inurba_marseille","lat":43.28541,"lon":5.44094,"is_reserved":false,"is_disabled":false,"rental_uris":{"android":"levelo://app?vid=edc9c679-e0d1-4084-a3db-3f6b1a28aa12","ios":"levelo://app?vid=edc9c679-e0d1-4084-a3db-3f6b1a28aa12"},"vehicle_type_id":"4","last_reported":1770560310,"current_range_meters":8400,"station_id":"st_d3j3df2ikq2c7380ej80","pricing_plan_id":"cebpf4jnsgd1na2vs0mg"},{"bike_id":"317dad32-e91b-4bc3-9480-60cfd5be8e82","system_id":"levelo_inurba_marseille","lat":43.24661,"lon":5.38154,"is_reserved":false,"is_disabled":false,"rental_uris":{"android":"levelo://app?vid=317dad32-e91b-4bc3-9480-60cfd5be8e82","ios":"levelo://app?vid=317dad32-e91b-4bc3-9480-60cfd5be8e82"},"vehicle_type_id":"4","last_reported":1770560310,"current_range_meters":8400,"station_id":"ce4bhih2rcd13ifvqfr0","pricing_plan_id":"cebpf4jnsgd1na2vs0mg"},{"bike_id":"947e6bde-76bb-4a1b-a45f-3d4e18b32da9","system_id":"levelo_inurba_marseille","lat":43.277,"lon":5.38937,"is_reserved":false,"is_disabled":false,"rental_uris":{"android":"levelo://app?vid=947e6bde-76bb-4a1b-a45f-3d4e18b32da9","ios":"levelo://app?vid=947e6bde-76bb-4a1b-a45f-3d4e18b32da9"},"vehicle_type_id":"4","last_reported":1770560310,"current_range_meters":8800,"station_id":"","pricing_plan_id":"cebpf4jnsgd1na2vs0mg"},{"bike_id":"043ad4af-ef67-47b5-8a56-8e398eb4da8e","system_id":"levelo_inurba_marseille","lat":43.29822,"lon":5.38059,"is_reserved":false,"is_disabled":true,"rental_uris":{"android":"levelo://app?vid=043ad4af-ef67-47b5-8a56-8e398eb4da8e","ios":"levelo://app?vid=043ad4af-ef67-47b5-8a56-8e398eb4da8e"},"vehicle_type_id":"4","last_reported":1770560310,"current_range_meters":8800,"station_id":"ce4bgip2rcd13ifvqbb0","pricing_plan_id":"cebpf4jnsgd1na2vs0mg"},{"bike_id":"e02d2b38-58ae-453d-9693-7a6a850a6521","system_id":"levelo_inurba_marseille","lat":43.26203,"lon":5.3746,"is_reserved":false,"is_disabled":false,"rental_uris":{"android":"levelo://app?vid=e02d2b38-58ae-453d-9693-7a6a850a6521","ios":"levelo://app?vid=e02d2b38-58ae-453d-9693-7a6a850a6521"},"vehicle_type_id":"4","last_reported":1770560310,"current_range_meters":8800,"station_id":"ce4bhgp2rcd13ifvqfc0","pricing_plan_id":"cebpf4jnsgd1na2vs0mg"},{"bike_id":"854bd887-3ace-4da1-a2da-f33b17e6b3b4","system_id":"levelo_inurba_marseille","lat":43.27559,"lon":5.38428,"is_reserved":false,"is_disabled":false,"rental_uris":{"android":"levelo://app?vid=854bd887-3ace-4da1-a2da-f33b17e6b3b4","ios":"levelo://app?vid=854bd887-3ace-4da1-a2da-f33b17e6b3b4"},"vehicle_type_id":"4","last_reported":1770560310,"current_range_meters":8800,"station_id":"ce4bhh92rcd13ifvqfi0","pricing_plan_id":"cebpf4jnsgd1na2vs0mg"},{"bike_id":"a69c6d46-0f4b-4ef5-9649-768f405cc714","system_id":"levelo_inurba_marseille","lat":43.27058,"lon":5.38298,"is_reserved":false,"is_disabled":false,"rental_uris":{"android":"levelo://app?vid=a69c6d46-0f4b-4ef5-9649-768f405cc714","ios":"levelo://app?vid=a69c6d46-0f4b-4ef5-9649-768f405cc714"},"vehicle_type_id":"4","last_reported":1770560310,"current_range_meters":8800,"station_id":"st_d3n2fo6cfp8s73cte1j0","pricing_plan_id":"cebpf4jnsgd1na2vs0mg"},{"bike_id":"5458caae-ec74-44ec-a439-08a969898ef7","system_id":"levelo_inurba_marseille","lat":43.23166,"lon":5.43696,"is_reserved":false,"is_disabled":false,"rental_uris":{"android":"levelo://app?vid=5458caae-ec74-44ec-a439-08a969898ef7","ios":"levelo://app?vid=5458caae-ec74-44ec-a439-08a969898ef7"},"vehicle_type_id":"4","last_reported":1770560310,"current_range_meters":8800,"station_id":"ce4bhmp2rcd13ifvqgog","pricing_plan_id":"cebpf4jnsgd1na2vs0mg"},{"bike_id":"93d2f206-3fcb-4c57-9f72-142295498e9f","system_id":"levelo_inurba_marseille","lat":43.30896,"lon":5.37189,"is_reserved":false,"is_disabled":false,"rental_uris":{"android":"levelo://app?vid=93d2f206-3fcb-4c57-9f72-142295498e9f","ios":"levelo://app?vid=93d2f206-3fcb-4c57-9f72-142295498e9f"},"vehicle_type_id":"4","last_reported":1770560310,"current_range_meters":8800,"station_id":"ce4bguh2rcd13ifvqckg","pricing_plan_id":"cebpf4jnsgd1na2vs0mg"},{"bike_id":"79271155-1aff-4de8-a753-6006b8197aa8","system_id":"levelo_inurba_marseille","lat":43.24069,"lon":5.3774,"is_reserved":false,"is_disabled":false,"rental_uris":{"android":"levelo://app?vid=79271155-1aff-4de8-a753-6006b8197aa8","ios":"levelo://app?vid=79271155-1aff-4de8-a753-6006b8197aa8"},"vehicle_type_id":"4","last_reported":1770560310,"current_range_meters":8800,"station_id":"ce4bhnp2rcd13ifvqgvg","pricing_plan_id":"cebpf4jnsgd1na2vs0mg"},{"bike_id":"18193969-f4a0-4413-8fe1-fadaf0e35a4a","system_id":"levelo_inurba_marseille","lat":43.33532,"lon":5.37452,"is_reserved":false,"is_disabled":false,"rental_uris":{"android":"levelo://app?vid=18193969-f4a0-4413-8fe1-fadaf0e35a4a","ios":"levelo://app?vid=18193969-f4a0-4413-8fe1-fadaf0e35a4a"},"vehicle_type_id":"4","last_reported":1770560310,"current_range_meters":8800,"station_id":"st_d46tts09ee8s73dlu43g","pricing_plan_id":"cebpf4jnsgd1na2vs0mg"},{"bike_id":"be5ee9c8-83a0-47f1-aa70-8349319881b3","system_id":"levelo_inurba_marseille","lat":43.29812,"lon":5.44065,"is_reserved":false,"is_disabled":false,"rental_uris":{"android":"levelo://app?vid=be5ee9c8-83a0-47f1-aa70-8349319881b3","ios":"levelo://app?vid=be5ee9c8-83a0-47f1-aa70-8349319881b3"},"vehicle_type_id":"4","last_reported":1770560310,"current_range_meters":8800,"station_id":"st_d3jp68qikq2c7381ktn0","pricing_plan_id":"cebpf4jnsgd1na2vs0mg"},{"bike_id":"1494d073-a24e-432f-8548-47b75823e14d","system_id":"levelo_inurba_marseille","lat":43.24937,"lon":5.40489,"is_reserved":false,"is_disabled":false,"rental_uris":{"android":"levelo://app?vid=1494d073-a24e-432f-8548-47b75823e14d","ios":"levelo://app?vid=1494d073-a24e-432f-8548-47b75823e14d"},"vehicle_type_id":"4","last_reported":1770560310,"current_range_meters":8800,"station_id":"st_d2ngiaodas8pm72gd1h0","pricing_plan_id":"cebpf4jnsgd1na2vs0mg"},{"bike_id":"0c2c272e-d223-43a8-9f2f-3e8aef87ad89","system_id":"levelo_inurba_marseille","lat":43.275629,"lon":5.384192,"is_reserved":false,"is_disabled":false,"rental_uris":{"android":"levelo://app?vid=0c2c272e-d223-43a8-9f2f-3e8aef87ad89","ios":"levelo://app?vid=0c2c272e-d223-43a8-9f2f-3e8aef87ad89"},"vehicle_type_id":"4","last_reported":1770560310,"current_range_meters":8800,"station_id":"ce4bh0h2rcd13ifvqd60","pricing_plan_id":"cebpf4jnsgd1na2vs0mg"},{"bike_id":"55afc012-7d9e-494f-8ec6-1fffacfb0da4","system_id":"levelo_inurba_marseille","lat":43.26561,"lon":5.40308,"is_reserved":false,"is_disabled":false,"rental_uris":{"android":"levelo://app?vid=55afc012-7d9e-494f-8ec6-1fffacfb0da4","ios":"levelo://app?vid=55afc012-7d9e-494f-8ec6-1fffacfb0da4"},"vehicle_type_id":"4","last_reported":1770560310,"current_range_meters":8800,"station_id":"ce4bhmp2rcd13ifvqgng","pricing_plan_id":"cebpf4jnsgd1na2vs0mg"},{"bike_id":"315cf66a-d85d-4420-b0f7-0067dbd4c398","system_id":"levelo_inurba_marseille","lat":43.2621,"lon":5.37913,"is_reserved":false,"is_disabled":false,"rental_uris":{"android":"levelo://app?vid=315cf66a-d85d-4420-b0f7-0067dbd4c398","ios":"levelo://app?vid=315cf66a-d85d-4420-b0f7-0067dbd4c398"},"vehicle_type_id":"4","last_reported":1770560310,"current_range_meters":8800,"station_id":"ce4bhjp2rcd13ifvqg90","pricing_plan_id":"cebpf4jnsgd1na2vs0mg"},{"bike_id":"9cae2485-0afe-41f4-82ed-b4c440c27f3e","system_id":"levelo_inurba_marseille","lat":43.28557,"lon":5.39488,"is_reserved":false,"is_disabled":true,"rental_uris":{"android":"levelo://app?vid=9cae2485-0afe-41f4-82ed-b4c440c27f3e","ios":"levelo://app?vid=9cae2485-0afe-41f4-82ed-b4c440c27f3e"},"vehicle_type_id":"4","last_reported":1770560310,"current_range_meters":8800,"station_id":"ce4bh292rcd13ifvqdg0","pricing_plan_id":"cebpf4jnsgd1na2vs0mg"},{"bike_id":"53ffd820-7dfe-4416-9f1c-41399f6d763d","system_id":"levelo_inurba_marseille","lat":43.26567,"lon":5.37278,"is_reserved":false,"is_disabled":false,"rental_uris":{"android":"levelo://app?vid=53ffd820-7dfe-4416-9f1c-41399f6d763d","ios":"levelo://app?vid=53ffd820-7dfe-4416-9f1c-41399f6d763d"},"vehicle_type_id":"4","last_reported":1770560310,"current_range_meters":8800,"station_id":"ce4bhg12rcd13ifvqf70","pricing_plan_id":"cebpf4jnsgd1na2vs0mg"},{"bike_id":"6c572dc3-59b5-4477-8364-014f92953c24","system_id":"levelo_inurba_marseille","lat":43.24955,"lon":5.40488,"is_reserved":false,"is_disabled":false,"rental_uris":{"android":"levelo://app?vid=6c572dc3-59b5-4477-8364-014f92953c24","ios":"levelo://app?vid=6c572dc3-59b5-4477-8364-014f92953c24"},"vehicle_type_id":"4","last_reported":1770560310,"current_range_meters":8800,"station_id":"st_d2ngiaodas8pm72gd1h0","pricing_plan_id":"cebpf4jnsgd1na2vs0mg"},{"bike_id":"3045fa36-8af2-484c-8446-799c7e150898","system_id":"levelo_inurba_marseille","lat":43.21213,"lon":5.35045,"is_reserved":false,"is_disabled":false,"rental_uris":{"android":"levelo://app?vid=3045fa36-8af2-484c-8446-799c7e150898","ios":"levelo://app?vid=3045fa36-8af2-484c-8446-799c7e150898"},"vehicle_type_id":"4","last_reported":1770560310,"current_range_meters":8800,"station_id":"","pricing_plan_id":"cebpf4jnsgd1na2vs0mg"},{"bike_id":"f66f77ca-8e30-4250-91f1-d5277ae6b4a1","system_id":"levelo_inurba_marseille","lat":43.2465,"lon":5.38894,"is_reserved":false,"is_disabled":false,"rental_uris":{"android":"levelo://app?vid=f66f77ca-8e30-4250-91f1-d5277ae6b4a1","ios":"levelo://app?vid=f66f77ca-8e30-4250-91f1-d5277ae6b4a1"},"vehicle_type_id":"4","last_reported":1770560310,"current_range_meters":8800,"station_id":"ce4bhg12rcd13ifvqf60","pricing_plan_id":"cebpf4jnsgd1na2vs0mg"},{"bike_id":"1ea60dc0-7a32-4323-9458-3ce0044e2a51","system_id":"levelo_inurba_marseille","lat":43.33538,"lon":5.37474,"is_reserved":false,"is_disabled":false,"rental_uris":{"android":"levelo://app?vid=1ea60dc0-7a32-4323-9458-3ce0044e2a51","ios":"levelo://app?vid=1ea60dc0-7a32-4323-9458-3ce0044e2a51"},"vehicle_type_id":"4","last_reported":1770560310,"current_range_meters":8800,"station_id":"st_d46tts09ee8s73dlu43g","pricing_plan_id":"cebpf4jnsgd1na2vs0mg"},{"bike_id":"67e33727-019d-48a8-b29e-469ec9cfdd1d","system_id":"levelo_inurba_marseille","lat":43.30319,"lon":5.36883,"is_reserved":false,"is_disabled":false,"rental_uris":{"android":"levelo://app?vid=67e33727-019d-48a8-b29e-469ec9cfdd1d","ios":"levelo://app?vid=67e33727-019d-48a8-b29e-469ec9cfdd1d"},"vehicle_type_id":"4","last_reported":1770560310,"current_range_meters":8800,"station_id":"ce4bgqh2rcd13ifvqc5g","pricing_plan_id":"cebpf4jnsgd1na2vs0mg"},{"bike_id":"d96fa321-cc43-4d28-a99e-b49794bf7b3a","system_id":"levelo_inurba_marseille","lat":43.25942,"lon":5.409,"is_reserved":false,"is_disabled":false,"rental_uris":{"android":"levelo://app?vid=d96fa321-cc43-4d28-a99e-b49794bf7b3a","ios":"levelo://app?vid=d96fa321-cc43-4d28-a99e-b49794bf7b3a"},"vehicle_type_id":"4","last_reported":1770560310,"current_range_meters":8800,"station_id":"ce4bhm92rcd13ifvqglg","pricing_plan_id":"cebpf4jnsgd1na2vs0mg"},{"bike_id":"fcd7ffdf-e260-4375-9d23-653f14663ff7","system_id":"levelo_inurba_marseille","lat":43.29191,"lon":5.35803,"is_reserved":false,"is_disabled":false,"rental_uris":{"android":"levelo://app?vid=fcd7ffdf-e260-4375-9d23-653f14663ff7","ios":"levelo://app?vid=fcd7ffdf-e260-4375-9d23-653f14663ff7"},"vehicle_type_id":"4","last_reported":1770560310,"current_range_meters":9200,"station_id":"ce4bhb12rcd13ifvqel0","pricing_plan_id":"cebpf4jnsgd1na2vs0mg"},{"bike_id":"89a401c9-aac6-4f15-b6f7-f1e7fe1bc44c","system_id":"levelo_inurba_marseille","lat":43.30146,"lon":5.38083,"is_reserved":false,"is_disabled":false,"rental_uris":{"android":"levelo://app?vid=89a401c9-aac6-4f15-b6f7-f1e7fe1bc44c","ios":"levelo://app?vid=89a401c9-aac6-4f15-b6f7-f1e7fe1bc44c"},"vehicle_type_id":"4","last_reported":1770560310,"current_range_meters":9200,"station_id":"ce4bgjp2rcd13ifvqbh0","pricing_plan_id":"cebpf4jnsgd1na2vs0mg"},{"bike_id":"8132a45b-6e07-43bd-bcfa-94b9411ef35b","system_id":"levelo_inurba_marseille","lat":43.32354,"lon":5.36716,"is_reserved":false,"is_disabled":false,"rental_uris":{"android":"levelo://app?vid=8132a45b-6e07-43bd-bcfa-94b9411ef35b","ios":"levelo://app?vid=8132a45b-6e07-43bd-bcfa-94b9411ef35b"},"vehicle_type_id":"4","last_reported":1770560310,"current_range_meters":9200,"station_id":"ce4bhsh2rcd13ifvqi2g","pricing_plan_id":"cebpf4jnsgd1na2vs0mg"},{"bike_id":"5d1de9d4-2e99-430a-8dcb-f579bf7e4cec","system_id":"levelo_inurba_marseille","lat":43.335431,"lon":5.374626,"is_reserved":false,"is_disabled":false,"rental_uris":{"android":"levelo://app?vid=5d1de9d4-2e99-430a-8dcb-f579bf7e4cec","ios":"levelo://app?vid=5d1de9d4-2e99-430a-8dcb-f579bf7e4cec"},"vehicle_type_id":"4","last_reported":1770560310,"current_range_meters":9200,"station_id":"st_d46tts09ee8s73dlu43g","pricing_plan_id":"cebpf4jnsgd1na2vs0mg"},{"bike_id":"e78275eb-3967-43e3-847b-4f8f52237aae","system_id":"levelo_inurba_marseille","lat":43.30462,"lon":5.38907,"is_reserved":false,"is_disabled":true,"rental_uris":{"android":"levelo://app?vid=e78275eb-3967-43e3-847b-4f8f52237aae","ios":"levelo://app?vid=e78275eb-3967-43e3-847b-4f8f52237aae"},"vehicle_type_id":"4","last_reported":1770560310,"current_range_meters":9200,"station_id":"ce4bgk12rcd13ifvqbi0","pricing_plan_id":"cebpf4jnsgd1na2vs0mg"},{"bike_id":"3bd966db-14f2-485b-9928-c90e194f0deb","system_id":"levelo_inurba_marseille","lat":43.29033,"lon":5.38643,"is_reserved":false,"is_disabled":false,"rental_uris":{"android":"levelo://app?vid=3bd966db-14f2-485b-9928-c90e194f0deb","ios":"levelo://app?vid=3bd966db-14f2-485b-9928-c90e194f0deb"},"vehicle_type_id":"4","last_reported":1770560310,"current_range_meters":9200,"station_id":"ce4bh4p2rcd13ifvqe0g","pricing_plan_id":"cebpf4jnsgd1na2vs0mg"},{"bike_id":"1a9850e1-5d2c-4438-9e2f-49d6634f0424","system_id":"levelo_inurba_marseille","lat":43.26563,"lon":5.40314,"is_reserved":false,"is_disabled":false,"rental_uris":{"android":"levelo://app?vid=1a9850e1-5d2c-4438-9e2f-49d6634f0424","ios":"levelo://app?vid=1a9850e1-5d2c-4438-9e2f-49d6634f0424"},"vehicle_type_id":"4","last_reported":1770560310,"current_range_meters":9200,"station_id":"ce4bhmp2rcd13ifvqgng","pricing_plan_id":"cebpf4jnsgd1na2vs0mg"},{"bike_id":"b98629f8-ee0a-40bb-86a1-ad6537ba67bf","system_id":"levelo_inurba_marseille","lat":43.32474,"lon":5.36577,"is_reserved":false,"is_disabled":false,"rental_uris":{"android":"levelo://app?vid=b98629f8-ee0a-40bb-86a1-ad6537ba67bf","ios":"levelo://app?vid=b98629f8-ee0a-40bb-86a1-ad6537ba67bf"},"vehicle_type_id":"4","last_reported":1770560310,"current_range_meters":9200,"station_id":"ce4bhs12rcd13ifvqhvg","pricing_plan_id":"cebpf4jnsgd1na2vs0mg"},{"bike_id":"5152e4bb-a733-4da3-8922-84baad210459","system_id":"levelo_inurba_marseille","lat":43.284591,"lon":5.384288,"is_reserved":false,"is_disabled":false,"rental_uris":{"android":"levelo://app?vid=5152e4bb-a733-4da3-8922-84baad210459","ios":"levelo://app?vid=5152e4bb-a733-4da3-8922-84baad210459"},"vehicle_type_id":"4","last_reported":1770560310,"current_range_meters":9200,"station_id":"ce4bh512rcd13ifvqe3g","pricing_plan_id":"cebpf4jnsgd1na2vs0mg"},{"bike_id":"5f0b2116-3b49-4d83-b373-fa4282b8ba05","system_id":"levelo_inurba_marseille","lat":43.2861,"lon":5.35107,"is_reserved":false,"is_disabled":false,"rental_uris":{"android":"levelo://app?vid=5f0b2116-3b49-4d83-b373-fa4282b8ba05","ios":"levelo://app?vid=5f0b2116-3b49-4d83-b373-fa4282b8ba05"},"vehicle_type_id":"4","last_reported":1770560310,"current_range_meters":9600,"station_id":"ce4bhch2rcd13ifvqeug","pricing_plan_id":"cebpf4jnsgd1na2vs0mg"},{"bike_id":"21c74027-26d0-4521-8bcf-ad285a8653f3","system_id":"levelo_inurba_marseille","lat":43.29826,"lon":5.37656,"is_reserved":false,"is_disabled":false,"rental_uris":{"android":"levelo://app?vid=21c74027-26d0-4521-8bcf-ad285a8653f3","ios":"levelo://app?vid=21c74027-26d0-4521-8bcf-ad285a8653f3"},"vehicle_type_id":"4","last_reported":1770560310,"current_range_meters":9600,"station_id":"","pricing_plan_id":"cebpf4jnsgd1na2vs0mg"},{"bike_id":"d1bd6231-82a7-41df-aa86-7df66ec4525e","system_id":"levelo_inurba_marseille","lat":43.30168,"lon":5.38101,"is_reserved":false,"is_disabled":false,"rental_uris":{"android":"levelo://app?vid=d1bd6231-82a7-41df-aa86-7df66ec4525e","ios":"levelo://app?vid=d1bd6231-82a7-41df-aa86-7df66ec4525e"},"vehicle_type_id":"4","last_reported":1770560310,"current_range_meters":9600,"station_id":"ce4bgjp2rcd13ifvqbh0","pricing_plan_id":"cebpf4jnsgd1na2vs0mg"},{"bike_id":"996a510f-70dd-4518-939f-228af375066f","system_id":"levelo_inurba_marseille","lat":43.29826,"lon":5.44059,"is_reserved":false,"is_disabled":false,"rental_uris":{"android":"levelo://app?vid=996a510f-70dd-4518-939f-228af375066f","ios":"levelo://app?vid=996a510f-70dd-4518-939f-228af375066f"},"vehicle_type_id":"4","last_reported":1770560310,"current_range_meters":9600,"station_id":"st_d3jp68qikq2c7381ktn0","pricing_plan_id":"cebpf4jnsgd1na2vs0mg"},{"bike_id":"15d3ef54-e724-40dc-bb1e-d53e1a785c94","system_id":"levelo_inurba_marseille","lat":43.28614,"lon":5.3986,"is_reserved":false,"is_disabled":false,"rental_uris":{"android":"levelo://app?vid=15d3ef54-e724-40dc-bb1e-d53e1a785c94","ios":"levelo://app?vid=15d3ef54-e724-40dc-bb1e-d53e1a785c94"},"vehicle_type_id":"4","last_reported":1770560310,"current_range_meters":9600,"station_id":"st_d4a7ka997mjs738ck50g","pricing_plan_id":"cebpf4jnsgd1na2vs0mg"},{"bike_id":"5ef6ce00-1da8-4f35-b102-c6f89b410d36","system_id":"levelo_inurba_marseille","lat":43.26804,"lon":5.40268,"is_reserved":false,"is_disabled":false,"rental_uris":{"android":"levelo://app?vid=5ef6ce00-1da8-4f35-b102-c6f89b410d36","ios":"levelo://app?vid=5ef6ce00-1da8-4f35-b102-c6f89b410d36"},"vehicle_type_id":"4","last_reported":1770560310,"current_range_meters":9600,"station_id":"ce501612rcd8frsf0b60","pricing_plan_id":"cebpf4jnsgd1na2vs0mg"},{"bike_id":"d2010c61-f921-48a2-aa6f-3ea6273bb955","system_id":"levelo_inurba_marseille","lat":43.2319,"lon":5.35553,"is_reserved":false,"is_disabled":false,"rental_uris":{"android":"levelo://app?vid=d2010c61-f921-48a2-aa6f-3ea6273bb955","ios":"levelo://app?vid=d2010c61-f921-48a2-aa6f-3ea6273bb955"},"vehicle_type_id":"4","last_reported":1770560310,"current_range_meters":9600,"station_id":"ce4bhu92rcd13ifvqi70","pricing_plan_id":"cebpf4jnsgd1na2vs0mg"},{"bike_id":"a69d3aee-77c1-410d-a5bd-9dbc56f9521b","system_id":"levelo_inurba_marseille","lat":43.32356,"lon":5.36748,"is_reserved":false,"is_disabled":false,"rental_uris":{"android":"levelo://app?vid=a69d3aee-77c1-410d-a5bd-9dbc56f9521b","ios":"levelo://app?vid=a69d3aee-77c1-410d-a5bd-9dbc56f9521b"},"vehicle_type_id":"4","last_reported":1770560310,"current_range_meters":9600,"station_id":"ce4bhsh2rcd13ifvqi2g","pricing_plan_id":"cebpf4jnsgd1na2vs0mg"},{"bike_id":"2089e1d9-314f-4676-8364-32b5760ca1a1","system_id":"levelo_inurba_marseille","lat":43.284855,"lon":5.484049,"is_reserved":false,"is_disabled":false,"rental_uris":{"android":"levelo://app?vid=2089e1d9-314f-4676-8364-32b5760ca1a1","ios":"levelo://app?vid=2089e1d9-314f-4676-8364-32b5760ca1a1"},"vehicle_type_id":"4","last_reported":1770560310,"current_range_meters":9600,"station_id":"st_d3svhcjqgbts73a3dn0g","pricing_plan_id":"cebpf4jnsgd1na2vs0mg"},{"bike_id":"0f001d06-af3e-4233-8ae5-81f8f5c15947","system_id":"levelo_inurba_marseille","lat":43.26211,"lon":5.37924,"is_reserved":false,"is_disabled":false,"rental_uris":{"android":"levelo://app?vid=0f001d06-af3e-4233-8ae5-81f8f5c15947","ios":"levelo://app?vid=0f001d06-af3e-4233-8ae5-81f8f5c15947"},"vehicle_type_id":"4","last_reported":1770560310,"current_range_meters":9600,"station_id":"ce4bhjp2rcd13ifvqg90","pricing_plan_id":"cebpf4jnsgd1na2vs0mg"},{"bike_id":"5db8210b-fea5-4e7d-8212-139d2c0358d5","system_id":"levelo_inurba_marseille","lat":43.29865,"lon":5.36271,"is_reserved":false,"is_disabled":true,"rental_uris":{"android":"levelo://app?vid=5db8210b-fea5-4e7d-8212-139d2c0358d5","ios":"levelo://app?vid=5db8210b-fea5-4e7d-8212-139d2c0358d5"},"vehicle_type_id":"4","last_reported":1770560310,"current_range_meters":10000,"station_id":"ce4bgpp2rcd13ifvqc3g","pricing_plan_id":"cebpf4jnsgd1na2vs0mg"},{"bike_id":"801ad909-18b3-4ab0-977b-525cc98af4a6","system_id":"levelo_inurba_marseille","lat":43.25867,"lon":5.3991,"is_reserved":false,"is_disabled":false,"rental_uris":{"android":"levelo://app?vid=801ad909-18b3-4ab0-977b-525cc98af4a6","ios":"levelo://app?vid=801ad909-18b3-4ab0-977b-525cc98af4a6"},"vehicle_type_id":"4","last_reported":1770560310,"current_range_meters":10000,"station_id":"ce4bhl92rcd13ifvqghg","pricing_plan_id":"cebpf4jnsgd1na2vs0mg"},{"bike_id":"2a2e7824-3cdf-4155-b2b9-cd5c94f8108e","system_id":"levelo_inurba_marseille","lat":43.27576,"lon":5.38418,"is_reserved":false,"is_disabled":false,"rental_uris":{"android":"levelo://app?vid=2a2e7824-3cdf-4155-b2b9-cd5c94f8108e","ios":"levelo://app?vid=2a2e7824-3cdf-4155-b2b9-cd5c94f8108e"},"vehicle_type_id":"4","last_reported":1770560310,"current_range_meters":10000,"station_id":"ce4bhh92rcd13ifvqfi0","pricing_plan_id":"cebpf4jnsgd1na2vs0mg"},{"bike_id":"e93479fa-5f4e-4ed6-bc3c-756d32d4ca7c","system_id":"levelo_inurba_marseille","lat":43.30161,"lon":5.38079,"is_reserved":false,"is_disabled":false,"rental_uris":{"android":"levelo://app?vid=e93479fa-5f4e-4ed6-bc3c-756d32d4ca7c","ios":"levelo://app?vid=e93479fa-5f4e-4ed6-bc3c-756d32d4ca7c"},"vehicle_type_id":"4","last_reported":1770560310,"current_range_meters":10000,"station_id":"ce4bgjp2rcd13ifvqbh0","pricing_plan_id":"cebpf4jnsgd1na2vs0mg"},{"bike_id":"6718c760-57b4-4f5f-9c07-cadeec237be7","system_id":"levelo_inurba_marseille","lat":43.28175,"lon":5.42599,"is_reserved":false,"is_disabled":true,"rental_uris":{"android":"levelo://app?vid=6718c760-57b4-4f5f-9c07-cadeec237be7","ios":"levelo://app?vid=6718c760-57b4-4f5f-9c07-cadeec237be7"},"vehicle_type_id":"4","last_reported":1770560310,"current_range_meters":10000,"station_id":"ce4bhnh2rcd13ifvqgug","pricing_plan_id":"cebpf4jnsgd1na2vs0mg"},{"bike_id":"70c86266-7d75-4d8f-b386-4f0df72131e3","system_id":"levelo_inurba_marseille","lat":43.26488,"lon":5.39563,"is_reserved":false,"is_disabled":false,"rental_uris":{"android":"levelo://app?vid=70c86266-7d75-4d8f-b386-4f0df72131e3","ios":"levelo://app?vid=70c86266-7d75-4d8f-b386-4f0df72131e3"},"vehicle_type_id":"4","last_reported":1770560310,"current_range_meters":10000,"station_id":"ce4bhi12rcd13ifvqfq0","pricing_plan_id":"cebpf4jnsgd1na2vs0mg"},{"bike_id":"3bfbcaa6-9cc7-4f78-9525-559218f7d29d","system_id":"levelo_inurba_marseille","lat":43.248143,"lon":5.374619,"is_reserved":false,"is_disabled":false,"rental_uris":{"android":"levelo://app?vid=3bfbcaa6-9cc7-4f78-9525-559218f7d29d","ios":"levelo://app?vid=3bfbcaa6-9cc7-4f78-9525-559218f7d29d"},"vehicle_type_id":"4","last_reported":1770560310,"current_range_meters":10000,"station_id":"ce4bhgh2rcd13ifvqfb0","pricing_plan_id":"cebpf4jnsgd1na2vs0mg"},{"bike_id":"bca86a1c-1fc3-45f1-8c70-0ae6c3920830","system_id":"levelo_inurba_marseille","lat":43.29873,"lon":5.43677,"is_reserved":false,"is_disabled":false,"rental_uris":{"android":"levelo://app?vid=bca86a1c-1fc3-45f1-8c70-0ae6c3920830","ios":"levelo://app?vid=bca86a1c-1fc3-45f1-8c70-0ae6c3920830"},"vehicle_type_id":"4","last_reported":1770560310,"current_range_meters":10000,"station_id":"ce4bhpp2rcd13ifvqhfg","pricing_plan_id":"cebpf4jnsgd1na2vs0mg"},{"bike_id":"3b2f9b19-5c55-42a4-bbe9-548002b32179","system_id":"levelo_inurba_marseille","lat":43.2979,"lon":5.37096,"is_reserved":false,"is_disabled":false,"rental_uris":{"android":"levelo://app?vid=3b2f9b19-5c55-42a4-bbe9-548002b32179","ios":"levelo://app?vid=3b2f9b19-5c55-42a4-bbe9-548002b32179"},"vehicle_type_id":"4","last_reported":1770560310,"current_range_meters":10000,"station_id":"ce4bgop2rcd13ifvqc1g","pricing_plan_id":"cebpf4jnsgd1na2vs0mg"},{"bike_id":"d4c60cfc-6569-475a-a999-90023dab6245","system_id":"levelo_inurba_marseille","lat":43.33577,"lon":5.3745,"is_reserved":false,"is_disabled":false,"rental_uris":{"android":"levelo://app?vid=d4c60cfc-6569-475a-a999-90023dab6245","ios":"levelo://app?vid=d4c60cfc-6569-475a-a999-90023dab6245"},"vehicle_type_id":"4","last_reported":1770560310,"current_range_meters":10000,"station_id":"","pricing_plan_id":"cebpf4jnsgd1na2vs0mg"},{"bike_id":"397e4117-c8c6-4338-b1b9-2f2a88f81c1e","system_id":"levelo_inurba_marseille","lat":43.25575,"lon":5.38237,"is_reserved":false,"is_disabled":false,"rental_uris":{"android":"levelo://app?vid=397e4117-c8c6-4338-b1b9-2f2a88f81c1e","ios":"levelo://app?vid=397e4117-c8c6-4338-b1b9-2f2a88f81c1e"},"vehicle_type_id":"4","last_reported":1770560310,"current_range_meters":10000,"station_id":"ce4bhih2rcd13ifvqfs0","pricing_plan_id":"cebpf4jnsgd1na2vs0mg"},{"bike_id":"7fb77262-90b3-4d6c-938e-9eda296ba1ff","system_id":"levelo_inurba_marseille","lat":43.23378,"lon":5.4124,"is_reserved":false,"is_disabled":false,"rental_uris":{"android":"levelo://app?vid=7fb77262-90b3-4d6c-938e-9eda296ba1ff","ios":"levelo://app?vid=7fb77262-90b3-4d6c-938e-9eda296ba1ff"},"vehicle_type_id":"4","last_reported":1770560310,"current_range_meters":10000,"station_id":"","pricing_plan_id":"cebpf4jnsgd1na2vs0mg"},{"bike_id":"c383832c-f801-4ea2-afff-0353b46aa87e","system_id":"levelo_inurba_marseille","lat":43.25007,"lon":5.3892,"is_reserved":false,"is_disabled":false,"rental_uris":{"android":"levelo://app?vid=c383832c-f801-4ea2-afff-0353b46aa87e","ios":"levelo://app?vid=c383832c-f801-4ea2-afff-0353b46aa87e"},"vehicle_type_id":"4","last_reported":1770560310,"current_range_meters":10000,"station_id":"ce4bhgp2rcd13ifvqfd0","pricing_plan_id":"cebpf4jnsgd1na2vs0mg"},{"bike_id":"c89fc745-e314-444c-b63e-8a25d581c03c","system_id":"levelo_inurba_marseille","lat":43.26985,"lon":5.39873,"is_reserved":false,"is_disabled":false,"rental_uris":{"android":"levelo://app?vid=c89fc745-e314-444c-b63e-8a25d581c03c","ios":"levelo://app?vid=c89fc745-e314-444c-b63e-8a25d581c03c"},"vehicle_type_id":"4","last_reported":1770560310,"current_range_meters":10000,"station_id":"","pricing_plan_id":"cebpf4jnsgd1na2vs0mg"},{"bike_id":"68968516-d91c-4c16-8c2e-c365a7f74690","system_id":"levelo_inurba_marseille","lat":43.30491,"lon":5.41195,"is_reserved":false,"is_disabled":false,"rental_uris":{"android":"levelo://app?vid=68968516-d91c-4c16-8c2e-c365a7f74690","ios":"levelo://app?vid=68968516-d91c-4c16-8c2e-c365a7f74690"},"vehicle_type_id":"4","last_reported":1770560310,"current_range_meters":10000,"station_id":"","pricing_plan_id":"cebpf4jnsgd1na2vs0mg"},{"bike_id":"cc2e70b1-9418-450c-8618-294ac8da0925","system_id":"levelo_inurba_marseille","lat":43.299457,"lon":5.385154,"is_reserved":false,"is_disabled":false,"rental_uris":{"android":"levelo://app?vid=cc2e70b1-9418-450c-8618-294ac8da0925","ios":"levelo://app?vid=cc2e70b1-9418-450c-8618-294ac8da0925"},"vehicle_type_id":"4","last_reported":1770560310,"current_range_meters":10800,"station_id":"ce4bgj92rcd13ifvqbd0","pricing_plan_id":"cebpf4jnsgd1na2vs0mg"},{"bike_id":"a234b1e8-aa48-4506-a47a-890ecb54626b","system_id":"levelo_inurba_marseille","lat":43.24387,"lon":5.37068,"is_reserved":false,"is_disabled":false,"rental_uris":{"android":"levelo://app?vid=a234b1e8-aa48-4506-a47a-890ecb54626b","ios":"levelo://app?vid=a234b1e8-aa48-4506-a47a-890ecb54626b"},"vehicle_type_id":"4","last_reported":1770560310,"current_range_meters":10800,"station_id":"ce4bhhh2rcd13ifvqfk0","pricing_plan_id":"cebpf4jnsgd1na2vs0mg"},{"bike_id":"f5015cc4-4081-47f5-9b14-5ebe990bd23d","system_id":"levelo_inurba_marseille","lat":43.30156,"lon":5.38078,"is_reserved":false,"is_disabled":false,"rental_uris":{"android":"levelo://app?vid=f5015cc4-4081-47f5-9b14-5ebe990bd23d","ios":"levelo://app?vid=f5015cc4-4081-47f5-9b14-5ebe990bd23d"},"vehicle_type_id":"4","last_reported":1770560310,"current_range_meters":10800,"station_id":"ce4bgjp2rcd13ifvqbh0","pricing_plan_id":"cebpf4jnsgd1na2vs0mg"},{"bike_id":"d75d181c-97ed-4a21-95f7-f78c66ae671f","system_id":"levelo_inurba_marseille","lat":43.24074,"lon":5.37743,"is_reserved":false,"is_disabled":false,"rental_uris":{"android":"levelo://app?vid=d75d181c-97ed-4a21-95f7-f78c66ae671f","ios":"levelo://app?vid=d75d181c-97ed-4a21-95f7-f78c66ae671f"},"vehicle_type_id":"4","last_reported":1770560310,"current_range_meters":10800,"station_id":"ce4bhnp2rcd13ifvqgvg","pricing_plan_id":"cebpf4jnsgd1na2vs0mg"},{"bike_id":"d5cf5cdb-1430-48fc-8824-bc44ed778c7b","system_id":"levelo_inurba_marseille","lat":43.32278,"lon":5.38661,"is_reserved":false,"is_disabled":false,"rental_uris":{"android":"levelo://app?vid=d5cf5cdb-1430-48fc-8824-bc44ed778c7b","ios":"levelo://app?vid=d5cf5cdb-1430-48fc-8824-bc44ed778c7b"},"vehicle_type_id":"4","last_reported":1770560310,"current_range_meters":10800,"station_id":"","pricing_plan_id":"cebpf4jnsgd1na2vs0mg"},{"bike_id":"e4a0f913-c11d-44fe-9550-8902e8340c94","system_id":"levelo_inurba_marseille","lat":43.24817,"lon":5.37442,"is_reserved":false,"is_disabled":false,"rental_uris":{"android":"levelo://app?vid=e4a0f913-c11d-44fe-9550-8902e8340c94","ios":"levelo://app?vid=e4a0f913-c11d-44fe-9550-8902e8340c94"},"vehicle_type_id":"4","last_reported":1770560310,"current_range_meters":10800,"station_id":"ce4bhgh2rcd13ifvqfb0","pricing_plan_id":"cebpf4jnsgd1na2vs0mg"},{"bike_id":"118efdfa-fcd1-4aa4-b836-b300d0519548","system_id":"levelo_inurba_marseille","lat":43.29602,"lon":5.37728,"is_reserved":false,"is_disabled":true,"rental_uris":{"android":"levelo://app?vid=118efdfa-fcd1-4aa4-b836-b300d0519548","ios":"levelo://app?vid=118efdfa-fcd1-4aa4-b836-b300d0519548"},"vehicle_type_id":"4","last_reported":1770560310,"current_range_meters":10800,"station_id":"ce4bgi92rcd13ifvqb90","pricing_plan_id":"cebpf4jnsgd1na2vs0mg"},{"bike_id":"d9d882bd-1a28-48fd-b84c-a86e8f84ab0c","system_id":"levelo_inurba_marseille","lat":43.24655,"lon":5.43121,"is_reserved":false,"is_disabled":false,"rental_uris":{"android":"levelo://app?vid=d9d882bd-1a28-48fd-b84c-a86e8f84ab0c","ios":"levelo://app?vid=d9d882bd-1a28-48fd-b84c-a86e8f84ab0c"},"vehicle_type_id":"4","last_reported":1770560310,"current_range_meters":10800,"station_id":"st_d2m6c4gdas8pm72e190g","pricing_plan_id":"cebpf4jnsgd1na2vs0mg"},{"bike_id":"505c0388-808a-43fc-b871-774655d1eeb8","system_id":"levelo_inurba_marseille","lat":43.22562,"lon":5.41634,"is_reserved":false,"is_disabled":false,"rental_uris":{"android":"levelo://app?vid=505c0388-808a-43fc-b871-774655d1eeb8","ios":"levelo://app?vid=505c0388-808a-43fc-b871-774655d1eeb8"},"vehicle_type_id":"4","last_reported":1770560310,"current_range_meters":10800,"station_id":"st_d2o4gvlbi1j2169b742g","pricing_plan_id":"cebpf4jnsgd1na2vs0mg"},{"bike_id":"58382d36-7cb5-4d9a-81cf-d54827ddd44f","system_id":"levelo_inurba_marseille","lat":43.25573,"lon":5.38235,"is_reserved":false,"is_disabled":false,"rental_uris":{"android":"levelo://app?vid=58382d36-7cb5-4d9a-81cf-d54827ddd44f","ios":"levelo://app?vid=58382d36-7cb5-4d9a-81cf-d54827ddd44f"},"vehicle_type_id":"4","last_reported":1770560310,"current_range_meters":10800,"station_id":"ce4bhih2rcd13ifvqfs0","pricing_plan_id":"cebpf4jnsgd1na2vs0mg"},{"bike_id":"d9881866-8d8d-40b9-953d-bed8d3c31af8","system_id":"levelo_inurba_marseille","lat":43.24942,"lon":5.40515,"is_reserved":false,"is_disabled":false,"rental_uris":{"android":"levelo://app?vid=d9881866-8d8d-40b9-953d-bed8d3c31af8","ios":"levelo://app?vid=d9881866-8d8d-40b9-953d-bed8d3c31af8"},"vehicle_type_id":"4","last_reported":1770560310,"current_range_meters":10800,"station_id":"st_d2ngiaodas8pm72gd1h0","pricing_plan_id":"cebpf4jnsgd1na2vs0mg"},{"bike_id":"87a03171-e274-42c9-8301-2123e9d6174f","system_id":"levelo_inurba_marseille","lat":43.24632,"lon":5.4315,"is_reserved":false,"is_disabled":false,"rental_uris":{"android":"levelo://app?vid=87a03171-e274-42c9-8301-2123e9d6174f","ios":"levelo://app?vid=87a03171-e274-42c9-8301-2123e9d6174f"},"vehicle_type_id":"4","last_reported":1770560310,"current_range_meters":10800,"station_id":"st_d2m6c4gdas8pm72e190g","pricing_plan_id":"cebpf4jnsgd1na2vs0mg"},{"bike_id":"029ba993-6e5b-462a-a880-cdb083ac545c","system_id":"levelo_inurba_marseille","lat":43.28947,"lon":5.39617,"is_reserved":false,"is_disabled":false,"rental_uris":{"android":"levelo://app?vid=029ba993-6e5b-462a-a880-cdb083ac545c","ios":"levelo://app?vid=029ba993-6e5b-462a-a880-cdb083ac545c"},"vehicle_type_id":"4","last_reported":1770560310,"current_range_meters":10800,"station_id":"ce4bh3h2rcd13ifvqdn0","pricing_plan_id":"cebpf4jnsgd1na2vs0mg"},{"bike_id":"9b9f6127-b0b2-4e5d-88d2-e7c7ad333831","system_id":"levelo_inurba_marseille","lat":43.28461,"lon":5.40987,"is_reserved":false,"is_disabled":false,"rental_uris":{"android":"levelo://app?vid=9b9f6127-b0b2-4e5d-88d2-e7c7ad333831","ios":"levelo://app?vid=9b9f6127-b0b2-4e5d-88d2-e7c7ad333831"},"vehicle_type_id":"4","last_reported":1770560310,"current_range_meters":10800,"station_id":"","pricing_plan_id":"cebpf4jnsgd1na2vs0mg"},{"bike_id":"e57def88-bd31-4a22-8984-178400b968d2","system_id":"levelo_inurba_marseille","lat":43.29268,"lon":5.40907,"is_reserved":false,"is_disabled":true,"rental_uris":{"android":"levelo://app?vid=e57def88-bd31-4a22-8984-178400b968d2","ios":"levelo://app?vid=e57def88-bd31-4a22-8984-178400b968d2"},"vehicle_type_id":"4","last_reported":1770560310,"current_range_meters":10800,"station_id":"ce4bh192rcd13ifvqdc0","pricing_plan_id":"cebpf4jnsgd1na2vs0mg"},{"bike_id":"df66cdda-a68f-4cc1-bd22-da8e4bf9c5f0","system_id":"levelo_inurba_marseille","lat":43.270656,"lon":5.383028,"is_reserved":false,"is_disabled":false,"rental_uris":{"android":"levelo://app?vid=df66cdda-a68f-4cc1-bd22-da8e4bf9c5f0","ios":"levelo://app?vid=df66cdda-a68f-4cc1-bd22-da8e4bf9c5f0"},"vehicle_type_id":"4","last_reported":1770560310,"current_range_meters":10800,"station_id":"st_d3n2fo6cfp8s73cte1j0","pricing_plan_id":"cebpf4jnsgd1na2vs0mg"},{"bike_id":"01be7992-c62c-400e-89f6-fc94a9470e3e","system_id":"levelo_inurba_marseille","lat":43.23178,"lon":5.39992,"is_reserved":false,"is_disabled":false,"rental_uris":{"android":"levelo://app?vid=01be7992-c62c-400e-89f6-fc94a9470e3e","ios":"levelo://app?vid=01be7992-c62c-400e-89f6-fc94a9470e3e"},"vehicle_type_id":"4","last_reported":1770560310,"current_range_meters":10800,"station_id":"ce4bhn12rcd13ifvqgqg","pricing_plan_id":"cebpf4jnsgd1na2vs0mg"},{"bike_id":"ee0a6677-5059-4e6b-9cc8-a58f1076531a","system_id":"levelo_inurba_marseille","lat":43.27994,"lon":5.40022,"is_reserved":false,"is_disabled":false,"rental_uris":{"android":"levelo://app?vid=ee0a6677-5059-4e6b-9cc8-a58f1076531a","ios":"levelo://app?vid=ee0a6677-5059-4e6b-9cc8-a58f1076531a"},"vehicle_type_id":"4","last_reported":1770560310,"current_range_meters":11200,"station_id":"ce4bho92rcd13ifvqh4g","pricing_plan_id":"cebpf4jnsgd1na2vs0mg"},{"bike_id":"0a5d4d8a-103a-492e-b353-0f425bae7db9","system_id":"levelo_inurba_marseille","lat":43.2884,"lon":5.35842,"is_reserved":false,"is_disabled":false,"rental_uris":{"android":"levelo://app?vid=0a5d4d8a-103a-492e-b353-0f425bae7db9","ios":"levelo://app?vid=0a5d4d8a-103a-492e-b353-0f425bae7db9"},"vehicle_type_id":"4","last_reported":1770560310,"current_range_meters":11200,"station_id":"ce4bhb12rcd13ifvqem0","pricing_plan_id":"cebpf4jnsgd1na2vs0mg"},{"bike_id":"a71868ac-a6dc-4811-8e48-04e50c8cb490","system_id":"levelo_inurba_marseille","lat":43.22571,"lon":5.41624,"is_reserved":false,"is_disabled":false,"rental_uris":{"android":"levelo://app?vid=a71868ac-a6dc-4811-8e48-04e50c8cb490","ios":"levelo://app?vid=a71868ac-a6dc-4811-8e48-04e50c8cb490"},"vehicle_type_id":"4","last_reported":1770560310,"current_range_meters":11200,"station_id":"st_d2o4gvlbi1j2169b742g","pricing_plan_id":"cebpf4jnsgd1na2vs0mg"},{"bike_id":"e8fc607c-781d-4737-9795-21676c8ca4f7","system_id":"levelo_inurba_marseille","lat":43.33162,"lon":5.37671,"is_reserved":false,"is_disabled":false,"rental_uris":{"android":"levelo://app?vid=e8fc607c-781d-4737-9795-21676c8ca4f7","ios":"levelo://app?vid=e8fc607c-781d-4737-9795-21676c8ca4f7"},"vehicle_type_id":"4","last_reported":1770560310,"current_range_meters":11200,"station_id":"st_d46cu089ee8s73dldbu0","pricing_plan_id":"cebpf4jnsgd1na2vs0mg"},{"bike_id":"734b1314-2dd8-4f0d-bae3-329f7d396370","system_id":"levelo_inurba_marseille","lat":43.28684,"lon":5.38648,"is_reserved":false,"is_disabled":false,"rental_uris":{"android":"levelo://app?vid=734b1314-2dd8-4f0d-bae3-329f7d396370","ios":"levelo://app?vid=734b1314-2dd8-4f0d-bae3-329f7d396370"},"vehicle_type_id":"4","last_reported":1770560310,"current_range_meters":11200,"station_id":"ce4bh492rcd13ifvqdug","pricing_plan_id":"cebpf4jnsgd1na2vs0mg"},{"bike_id":"538c7e0d-dc0f-4815-a686-bd305e7c22f3","system_id":"levelo_inurba_marseille","lat":43.25348,"lon":5.42202,"is_reserved":false,"is_disabled":false,"rental_uris":{"android":"levelo://app?vid=538c7e0d-dc0f-4815-a686-bd305e7c22f3","ios":"levelo://app?vid=538c7e0d-dc0f-4815-a686-bd305e7c22f3"},"vehicle_type_id":"4","last_reported":1770560310,"current_range_meters":11200,"station_id":"st_d2m65c5bi1j21697t3ng","pricing_plan_id":"cebpf4jnsgd1na2vs0mg"},{"bike_id":"730e634a-a626-4663-8664-77448b01b783","system_id":"levelo_inurba_marseille","lat":43.27856,"lon":5.39186,"is_reserved":false,"is_disabled":false,"rental_uris":{"android":"levelo://app?vid=730e634a-a626-4663-8664-77448b01b783","ios":"levelo://app?vid=730e634a-a626-4663-8664-77448b01b783"},"vehicle_type_id":"4","last_reported":1770560310,"current_range_meters":11200,"station_id":"ce4bhjp2rcd13ifvqga0","pricing_plan_id":"cebpf4jnsgd1na2vs0mg"},{"bike_id":"c320dcee-8811-44e6-a710-152e2a7bda4f","system_id":"levelo_inurba_marseille","lat":43.3109,"lon":5.37161,"is_reserved":false,"is_disabled":false,"rental_uris":{"android":"levelo://app?vid=c320dcee-8811-44e6-a710-152e2a7bda4f","ios":"levelo://app?vid=c320dcee-8811-44e6-a710-152e2a7bda4f"},"vehicle_type_id":"4","last_reported":1770560310,"current_range_meters":11200,"station_id":"st_d4kl2rp97mjs73e7tdfg","pricing_plan_id":"cebpf4jnsgd1na2vs0mg"},{"bike_id":"f1aff942-1bee-44e9-89a3-7c96054e76e7","system_id":"levelo_inurba_marseille","lat":43.28099,"lon":5.37861,"is_reserved":false,"is_disabled":true,"rental_uris":{"android":"levelo://app?vid=f1aff942-1bee-44e9-89a3-7c96054e76e7","ios":"levelo://app?vid=f1aff942-1bee-44e9-89a3-7c96054e76e7"},"vehicle_type_id":"4","last_reported":1770560310,"current_range_meters":11200,"station_id":"ce4bha12rcd13ifvqee0","pricing_plan_id":"cebpf4jnsgd1na2vs0mg"},{"bike_id":"fc088830-7068-4887-9446-b781c9521d2c","system_id":"levelo_inurba_marseille","lat":43.30559,"lon":5.36526,"is_reserved":false,"is_disabled":false,"rental_uris":{"android":"levelo://app?vid=fc088830-7068-4887-9446-b781c9521d2c","ios":"levelo://app?vid=fc088830-7068-4887-9446-b781c9521d2c"},"vehicle_type_id":"4","last_reported":1770560310,"current_range_meters":11200,"station_id":"ce4bgs12rcd13ifvqcag","pricing_plan_id":"cebpf4jnsgd1na2vs0mg"},{"bike_id":"d653ed3a-f8af-441f-ad2d-cdc633785da3","system_id":"levelo_inurba_marseille","lat":43.25575,"lon":5.38233,"is_reserved":false,"is_disabled":false,"rental_uris":{"android":"levelo://app?vid=d653ed3a-f8af-441f-ad2d-cdc633785da3","ios":"levelo://app?vid=d653ed3a-f8af-441f-ad2d-cdc633785da3"},"vehicle_type_id":"4","last_reported":1770560310,"current_range_meters":11200,"station_id":"ce4bhih2rcd13ifvqfs0","pricing_plan_id":"cebpf4jnsgd1na2vs0mg"},{"bike_id":"0a9d1a2d-2992-4473-980a-18b97962fa5b","system_id":"levelo_inurba_marseille","lat":43.28605,"lon":5.39813,"is_reserved":false,"is_disabled":false,"rental_uris":{"android":"levelo://app?vid=0a9d1a2d-2992-4473-980a-18b97962fa5b","ios":"levelo://app?vid=0a9d1a2d-2992-4473-980a-18b97962fa5b"},"vehicle_type_id":"4","last_reported":1770560310,"current_range_meters":11200,"station_id":"st_d4a7ka997mjs738ck50g","pricing_plan_id":"cebpf4jnsgd1na2vs0mg"},{"bike_id":"fbf3496c-efb9-4683-bfa0-41f462345019","system_id":"levelo_inurba_marseille","lat":43.29209,"lon":5.3933,"is_reserved":false,"is_disabled":false,"rental_uris":{"android":"levelo://app?vid=fbf3496c-efb9-4683-bfa0-41f462345019","ios":"levelo://app?vid=fbf3496c-efb9-4683-bfa0-41f462345019"},"vehicle_type_id":"4","last_reported":1770560310,"current_range_meters":11200,"station_id":"ce4bh192rcd13ifvqdd0","pricing_plan_id":"cebpf4jnsgd1na2vs0mg"},{"bike_id":"28ef975c-b7f8-42cd-9f30-4c091e511cf0","system_id":"levelo_inurba_marseille","lat":43.2845,"lon":5.35879,"is_reserved":false,"is_disabled":false,"rental_uris":{"android":"levelo://app?vid=28ef975c-b7f8-42cd-9f30-4c091e511cf0","ios":"levelo://app?vid=28ef975c-b7f8-42cd-9f30-4c091e511cf0"},"vehicle_type_id":"4","last_reported":1770560310,"current_range_meters":11200,"station_id":"ce4bhah2rcd13ifvqei0","pricing_plan_id":"cebpf4jnsgd1na2vs0mg"},{"bike_id":"9bf1f7f0-1955-4fa1-87ae-b04bd56bef6e","system_id":"levelo_inurba_marseille","lat":43.26046,"lon":5.37535,"is_reserved":false,"is_disabled":false,"rental_uris":{"android":"levelo://app?vid=9bf1f7f0-1955-4fa1-87ae-b04bd56bef6e","ios":"levelo://app?vid=9bf1f7f0-1955-4fa1-87ae-b04bd56bef6e"},"vehicle_type_id":"4","last_reported":1770560310,"current_range_meters":11200,"station_id":"ce4bhgh2rcd13ifvqfa0","pricing_plan_id":"cebpf4jnsgd1na2vs0mg"},{"bike_id":"2670674c-f818-4de0-8996-ccd0d21a64a7","system_id":"levelo_inurba_marseille","lat":43.30847,"lon":5.374,"is_reserved":false,"is_disabled":false,"rental_uris":{"android":"levelo://app?vid=2670674c-f818-4de0-8996-ccd0d21a64a7","ios":"levelo://app?vid=2670674c-f818-4de0-8996-ccd0d21a64a7"},"vehicle_type_id":"4","last_reported":1770560310,"current_range_meters":11200,"station_id":"","pricing_plan_id":"cebpf4jnsgd1na2vs0mg"},{"bike_id":"2c6a8d98-8cd8-408a-b9be-31674cd6bf9b","system_id":"levelo_inurba_marseille","lat":43.23791,"lon":5.36619,"is_reserved":false,"is_disabled":false,"rental_uris":{"android":"levelo://app?vid=2c6a8d98-8cd8-408a-b9be-31674cd6bf9b","ios":"levelo://app?vid=2c6a8d98-8cd8-408a-b9be-31674cd6bf9b"},"vehicle_type_id":"4","last_reported":1770560310,"current_range_meters":11200,"station_id":"st_d3nk18o9ro0c73en2l3g","pricing_plan_id":"cebpf4jnsgd1na2vs0mg"},{"bike_id":"68344a54-110b-4619-938e-db8d4af619b3","system_id":"levelo_inurba_marseille","lat":43.32495,"lon":5.38291,"is_reserved":false,"is_disabled":false,"rental_uris":{"android":"levelo://app?vid=68344a54-110b-4619-938e-db8d4af619b3","ios":"levelo://app?vid=68344a54-110b-4619-938e-db8d4af619b3"},"vehicle_type_id":"4","last_reported":1770560310,"current_range_meters":11200,"station_id":"st_d4asgbiv49dc73anf9m0","pricing_plan_id":"cebpf4jnsgd1na2vs0mg"},{"bike_id":"d5addb83-4219-438b-b60b-764fcc4ac895","system_id":"levelo_inurba_marseille","lat":43.29582,"lon":5.36748,"is_reserved":false,"is_disabled":false,"rental_uris":{"android":"levelo://app?vid=d5addb83-4219-438b-b60b-764fcc4ac895","ios":"levelo://app?vid=d5addb83-4219-438b-b60b-764fcc4ac895"},"vehicle_type_id":"4","last_reported":1770560310,"current_range_meters":11600,"station_id":"ce4bgph2rcd13ifvqc2g","pricing_plan_id":"cebpf4jnsgd1na2vs0mg"},{"bike_id":"cb1a37bb-f72b-4d0f-8322-c67bce751582","system_id":"levelo_inurba_marseille","lat":43.32127,"lon":5.36749,"is_reserved":false,"is_disabled":false,"rental_uris":{"android":"levelo://app?vid=cb1a37bb-f72b-4d0f-8322-c67bce751582","ios":"levelo://app?vid=cb1a37bb-f72b-4d0f-8322-c67bce751582"},"vehicle_type_id":"4","last_reported":1770560310,"current_range_meters":11600,"station_id":"ce4bhrh2rcd13ifvqhug","pricing_plan_id":"cebpf4jnsgd1na2vs0mg"},{"bike_id":"32b82d17-3f62-425d-855e-3144b210c36e","system_id":"levelo_inurba_marseille","lat":43.27816,"lon":5.39229,"is_reserved":false,"is_disabled":false,"rental_uris":{"android":"levelo://app?vid=32b82d17-3f62-425d-855e-3144b210c36e","ios":"levelo://app?vid=32b82d17-3f62-425d-855e-3144b210c36e"},"vehicle_type_id":"4","last_reported":1770560310,"current_range_meters":11600,"station_id":"ce4bhjp2rcd13ifvqga0","pricing_plan_id":"cebpf4jnsgd1na2vs0mg"},{"bike_id":"c5fe4207-93eb-4828-b184-1c6452346618","system_id":"levelo_inurba_marseille","lat":43.25334,"lon":5.42166,"is_reserved":false,"is_disabled":false,"rental_uris":{"android":"levelo://app?vid=c5fe4207-93eb-4828-b184-1c6452346618","ios":"levelo://app?vid=c5fe4207-93eb-4828-b184-1c6452346618"},"vehicle_type_id":"4","last_reported":1770560310,"current_range_meters":11600,"station_id":"st_d2m65c5bi1j21697t3ng","pricing_plan_id":"cebpf4jnsgd1na2vs0mg"},