{"last_updated":1741363900,"ttl":60,"version":"2.2","data":{"bikes":[{"bike_id":"685ef42f-7825-4456-a941-68ec38a3b0e8","system_id":"levelo_inurba_marseille","lat":43.24545,"lon":5.39522,"is_reserved":false,"is_disabled":true,"rental_uris":{"android":"levelo://app?vid=685ef42f-7825-4456-a941-68ec38a3b0e8","ios":"levelo://app?vid=685ef42f-7825-4456-a941-68ec38a3b0e8"},"vehicle_type_id":"4","last_reported":1741363900,"current_range_meters":2800,"station_id":"ce4bhlp2rcd13ifvqgjg","pricing_plan_id":"cebpf4jnsgd1na2vs0mg"},{"bike_id":"5f6d7d65-4283-4a7c-b661-751dde21cc9b","system_id":"levelo_inurba_marseille","lat":43.28943,"lon":5.38405,"is_reserved":false,"is_disabled":false,"rental_uris":{"android":"levelo://app?vid=5f6d7d65-4283-4a7c-b661-751dde21cc9b","ios":"levelo://app?vid=5f6d7d65-4283-4a7c-b661-751dde21cc9b"},"vehicle_type_id":"4","last_reported":1741363900,"current_range_meters":2800,"station_id":"ce4bh612rcd13ifvqe6g","pricing_plan_id":"cebpf4jnsgd1na2vs0mg"},{"bike_id":"de754493-593d-484d-850a-eaba979f3d3f","system_id":"levelo_inurba_marseille","lat":43.27942,"lon":5.41046,"is_reserved":false,"is_disabled":false,"rental_uris":{"android":"levelo://app?vid=de754493-593d-484d-850a-eaba979f3d3f","ios":"levelo://app?vid=de754493-593d-484d-850a-eaba979f3d3f"},"vehicle_type_id":"4","last_reported":1741363900,"current_range_meters":2800,"station_id":"ce4bhnp2rcd13ifvqh0g","pricing_plan_id":"cebpf4jnsgd1na2vs0mg"},{"bike_id":"f28f7533-ea96-4565-b599-a29310aea5b6","system_id":"levelo_inurba_marseille","lat":43.304175,"lon":5.412747,"is_reserved":false,"is_disabled":false,"rental_uris":{"android":"levelo://app?vid=f28f7533-ea96-4565-b599-a29310aea5b6","ios":"levelo://app?vid=f28f7533-ea96-4565-b599-a29310aea5b6"},"vehicle_type_id":"4","last_reported":1741363900,"current_range_meters":2800,"station_id":"ce4bhop2rcd13ifvqh8g","pricing_plan_id":"cebpf4jnsgd1na2vs0mg"},{"bike_id":"0699b3fd-4978-43f5-ad49-e602e1d86634","system_id":"levelo_inurba_marseille","lat":43.30544,"lon":5.36552,"is_reserved":false,"is_disabled":false,"rental_uris":{"android":"levelo://app?vid=0699b3fd-4978-43f5-ad49-e602e1d86634","ios":"levelo://app?vid=0699b3fd-4978-43f5-ad49-e602e1d86634"},"vehicle_type_id":"4","last_reported":1741363900,"current_range_meters":3200,"station_id":"ce4bgs12rcd13ifvqcag","pricing_plan_id":"cebpf4jnsgd1na2vs0mg"},{"bike_id":"d681953c-5bb7-4948-bb51-8760e6c5a8fd","system_id":"levelo_inurba_marseille","lat":43.29421,"lon":5.38623,"is_reserved":false,"is_disabled":false,"rental_uris":{"android":"levelo://app?vid=d681953c-5bb7-4948-bb51-8760e6c5a8fd","ios":"levelo://app?vid=d681953c-5bb7-4948-bb51-8760e6c5a8fd"},"vehicle_type_id":"4","last_reported":1741363900,"current_range_meters":3200,"station_id":"ce4bh2h2rcd13ifvqdh0","pricing_plan_id":"cebpf4jnsgd1na2vs0mg"},{"bike_id":"e1a3d094-fd5a-4b0e-b3fd-06c39e7f4f48","system_id":"levelo_inurba_marseille","lat":43.32024,"lon":5.39,"is_reserved":false,"is_disabled":false,"rental_uris":{"android":"levelo://app?vid=e1a3d094-fd5a-4b0e-b3fd-06c39e7f4f48","ios":"levelo://app?vid=e1a3d094-fd5a-4b0e-b3fd-06c39e7f4f48"},"vehicle_type_id":"4","last_reported":1741363900,"current_range_meters":4000,"station_id":"","pricing_plan_id":"cebpf4jnsgd1na2vs0mg"},{"bike_id":"35a19be1-3532-4607-8f70-bb06ed7d7bbf","system_id":"levelo_inurba_marseille","lat":43.30208,"lon":5.39459,"is_reserved":false,"is_disabled":false,"rental_uris":{"android":"levelo://app?vid=35a19be1-3532-4607-8f70-bb06ed7d7bbf","ios":"levelo://app?vid=35a19be1-3532-4607-8f70-bb06ed7d7bbf"},"vehicle_type_id":"4","last_reported":1741363900,"current_range_meters":3200,"station_id":"ce4bh0p2rcd13ifvqd70","pricing_plan_id":"cebpf4jnsgd1na2vs0mg"},{"bike_id":"40e2e695-d552-4542-901f-9cd18e8de670","system_id":"levelo_inurba_marseille","lat":43.26691,"lon":5.38269,"is_reserved":false,"is_disabled":true,"rental_uris":{"android":"levelo://app?vid=40e2e695-d552-4542-901f-9cd18e8de670","ios":"levelo://app?vid=40e2e695-d552-4542-901f-9cd18e8de670"},"vehicle_type_id":"4","last_reported":1741363900,"current_range_meters":3200,"station_id":"ce4bhg92rcd13ifvqf90","pricing_plan_id":"cebpf4jnsgd1na2vs0mg"},{"bike_id":"b86c794b-40f0-4229-93e5-8a64d5edff51","system_id":"levelo_inurba_marseille","lat":43.31714,"lon":5.43711,"is_reserved":false,"is_disabled":false,"rental_uris":{"android":"levelo://app?vid=b86c794b-40f0-4229-93e5-8a64d5edff51","ios":"levelo://app?vid=b86c794b-40f0-4229-93e5-8a64d5edff51"},"vehicle_type_id":"4","last_reported":1741363900,"current_range_meters":3200,"station_id":"ce4bhp92rcd13ifvqhcg","pricing_plan_id":"cebpf4jnsgd1na2vs0mg"},{"bike_id":"84fd8a9d-d33c-4402-bbe4-001e62a7f660","system_id":"levelo_inurba_marseille","lat":43.26638,"lon":5.39825,"is_reserved":false,"is_disabled":false,"rental_uris":{"android":"levelo://app?vid=84fd8a9d-d33c-4402-bbe4-001e62a7f660","ios":"levelo://app?vid=84fd8a9d-d33c-4402-bbe4-001e62a7f660"},"vehicle_type_id":"4","last_reported":1741363900,"current_range_meters":4000,"station_id":"","pricing_plan_id":"cebpf4jnsgd1na2vs0mg"},{"bike_id":"5e68b84f-912e-42db-84c7-0b695de163d5","system_id":"levelo_inurba_marseille","lat":43.30904,"lon":5.3686,"is_reserved":false,"is_disabled":false,"rental_uris":{"android":"levelo://app?vid=5e68b84f-912e-42db-84c7-0b695de163d5","ios":"levelo://app?vid=5e68b84f-912e-42db-84c7-0b695de163d5"},"vehicle_type_id":"4","last_reported":1741363900,"current_range_meters":4000,"station_id":"ce4bgn92rcd13ifvqbvg","pricing_plan_id":"cebpf4jnsgd1na2vs0mg"},{"bike_id":"b397b4b1-d96d-4698-880c-c2a80a5c677b","system_id":"levelo_inurba_marseille","lat":43.30486,"lon":5.37903,"is_reserved":false,"is_disabled":false,"rental_uris":{"android":"levelo://app?vid=b397b4b1-d96d-4698-880c-c2a80a5c677b","ios":"levelo://app?vid=b397b4b1-d96d-4698-880c-c2a80a5c677b"},"vehicle_type_id":"4","last_reported":1741363900,"current_range_meters":4800,"station_id":"ce4bgup2rcd13ifvqcn0","pricing_plan_id":"cebpf4jnsgd1na2vs0mg"},{"bike_id":"d572b633-d5af-4df0-87b8-0a5b1819b02b","system_id":"levelo_inurba_marseille","lat":43.24186,"lon":5.39726,"is_reserved":false,"is_disabled":true,"rental_uris":{"android":"levelo://app?vid=d572b633-d5af-4df0-87b8-0a5b1819b02b","ios":"levelo://app?vid=d572b633-d5af-4df0-87b8-0a5b1819b02b"},"vehicle_type_id":"4","last_reported":1741363900,"current_range_meters":4400,"station_id":"ce4bhn12rcd13ifvqgpg","pricing_plan_id":"cebpf4jnsgd1na2vs0mg"},{"bike_id":"889d7428-72ab-4419-a062-e45cc2e946b0","system_id":"levelo_inurba_marseille","lat":43.31329,"lon":5.3969,"is_reserved":false,"is_disabled":false,"rental_uris":{"android":"levelo://app?vid=889d7428-72ab-4419-a062-e45cc2e946b0","ios":"levelo://app?vid=889d7428-72ab-4419-a062-e45cc2e946b0"},"vehicle_type_id":"4","last_reported":1741363900,"current_range_meters":4400,"station_id":"ce4bgvp2rcd13ifvqcu0","pricing_plan_id":"cebpf4jnsgd1na2vs0mg"},{"bike_id":"a841eaa6-52db-47d4-aaae-2d4f2da202c6","system_id":"levelo_inurba_marseille","lat":43.28612,"lon":5.37062,"is_reserved":false,"is_disabled":false,"rental_uris":{"android":"levelo://app?vid=a841eaa6-52db-47d4-aaae-2d4f2da202c6","ios":"levelo://app?vid=a841eaa6-52db-47d4-aaae-2d4f2da202c6"},"vehicle_type_id":"4","last_reported":1741363900,"current_range_meters":4400,"station_id":"ce4bht12rcd13ifvqi60","pricing_plan_id":"cebpf4jnsgd1na2vs0mg"},{"bike_id":"de10dad3-cc48-400a-922c-cca5bf1a3a20","system_id":"levelo_inurba_marseille","lat":43.29938,"lon":5.38831,"is_reserved":false,"is_disabled":true,"rental_uris":{"android":"levelo://app?vid=de10dad3-cc48-400a-922c-cca5bf1a3a20","ios":"levelo://app?vid=de10dad3-cc48-400a-922c-cca5bf1a3a20"},"vehicle_type_id":"4","last_reported":1741363900,"current_range_meters":4800,"station_id":"","pricing_plan_id":"cebpf4jnsgd1na2vs0mg"},{"bike_id":"72554fe5-af6a-47af-98f7-eb2ed316e0d0","system_id":"levelo_inurba_marseille","lat":43.29586,"lon":5.3674,"is_reserved":false,"is_disabled":false,"rental_uris":{"android":"levelo://app?vid=72554fe5-af6a-47af-98f7-eb2ed316e0d0","ios":"levelo://app?vid=72554fe5-af6a-47af-98f7-eb2ed316e0d0"},"vehicle_type_id":"4","last_reported":1741363900,"current_range_meters":4400,"station_id":"ce4bgph2rcd13ifvqc2g","pricing_plan_id":"cebpf4jnsgd1na2vs0mg"},{"bike_id":"a8c4fe9c-b2d9-45de-bb9b-89de5c6531f8","system_id":"levelo_inurba_marseille","lat":43.3032,"lon":5.36902,"is_reserved":false,"is_disabled":false,"rental_uris":{"android":"levelo://app?vid=a8c4fe9c-b2d9-45de-bb9b-89de5c6531f8","ios":"levelo://app?vid=a8c4fe9c-b2d9-45de-bb9b-89de5c6531f8"},"vehicle_type_id":"4","last_reported":1741363900,"current_range_meters":4800,"station_id":"ce4bgqh2rcd13ifvqc5g","pricing_plan_id":"cebpf4jnsgd1na2vs0mg"},{"bike_id":"c03de7ff-c91d-4a5d-9592-15d88d096184","system_id":"levelo_inurba_marseille","lat":43.30216,"lon":5.39474,"is_reserved":false,"is_disabled":false,"rental_uris":{"android":"levelo://app?vid=c03de7ff-c91d-4a5d-9592-15d88d096184","ios":"levelo://app?vid=c03de7ff-c91d-4a5d-9592-15d88d096184"},"vehicle_type_id":"4","last_reported":1741363900,"current_range_meters":4800,"station_id":"ce4bh0p2rcd13ifvqd70","pricing_plan_id":"cebpf4jnsgd1na2vs0mg"},{"bike_id":"1591649d-2d09-46cf-a04e-37c5757ab1bd","system_id":"levelo_inurba_marseille","lat":43.255041,"lon":5.376526,"is_reserved":false,"is_disabled":false,"rental_uris":{"android":"levelo://app?vid=1591649d-2d09-46cf-a04e-37c5757ab1bd","ios":"levelo://app?vid=1591649d-2d09-46cf-a04e-37c5757ab1bd"},"vehicle_type_id":"4","last_reported":1741363900,"current_range_meters":5600,"station_id":"ce4bhbp2rcd13ifvqerg","pricing_plan_id":"cebpf4jnsgd1na2vs0mg"},{"bike_id":"f927a9c8-5d84-472f-b8fd-88f2fc3bc3e6","system_id":"levelo_inurba_marseille","lat":43.29898,"lon":5.43653,"is_reserved":false,"is_disabled":false,"rental_uris":{"android":"levelo://app?vid=f927a9c8-5d84-472f-b8fd-88f2fc3bc3e6","ios":"levelo://app?vid=f927a9c8-5d84-472f-b8fd-88f2fc3bc3e6"},"vehicle_type_id":"4","last_reported":1741363900,"current_range_meters":5600,"station_id":"ce4bhpp2rcd13ifvqhfg","pricing_plan_id":"cebpf4jnsgd1na2vs0mg"},{"bike_id":"2b406840-fe01-4378-921b-a17b598158f5","system_id":"levelo_inurba_marseille","lat":43.29993,"lon":5.38469,"is_reserved":false,"is_disabled":false,"rental_uris":{"android":"levelo://app?vid=2b406840-fe01-4378-921b-a17b598158f5","ios":"levelo://app?vid=2b406840-fe01-4378-921b-a17b598158f5"},"vehicle_type_id":"4","last_reported":1741363900,"current_range_meters":5600,"station_id":"ce4bgj92rcd13ifvqbd0","pricing_plan_id":"cebpf4jnsgd1na2vs0mg"},{"bike_id":"75d5f681-d881-4f9e-80e2-e1ab71ef592c","system_id":"levelo_inurba_marseille","lat":43.29301,"lon":5.37455,"is_reserved":false,"is_disabled":false,"rental_uris":{"android":"levelo://app?vid=75d5f681-d881-4f9e-80e2-e1ab71ef592c","ios":"levelo://app?vid=75d5f681-d881-4f9e-80e2-e1ab71ef592c"},"vehicle_type_id":"4","last_reported":1741363900,"current_range_meters":5600,"station_id":"ce4bgi12rcd13ifvqb70","pricing_plan_id":"cebpf4jnsgd1na2vs0mg"},{"bike_id":"fcd7403f-4029-4f0e-880f-01735395651e","system_id":"levelo_inurba_marseille","lat":43.25092,"lon":5.39478,"is_reserved":false,"is_disabled":false,"rental_uris":{"android":"levelo://app?vid=fcd7403f-4029-4f0e-880f-01735395651e","ios":"levelo://app?vid=fcd7403f-4029-4f0e-880f-01735395651e"},"vehicle_type_id":"4","last_reported":1741363900,"current_range_meters":5600,"station_id":"ce4bhm12rcd13ifvqgkg","pricing_plan_id":"cebpf4jnsgd1na2vs0mg"},{"bike_id":"ae2e2837-8237-4d4f-aa75-5c0b1db70070","system_id":"levelo_inurba_marseille","lat":43.27907,"lon":5.4229,"is_reserved":false,"is_disabled":false,"rental_uris":{"android":"levelo://app?vid=ae2e2837-8237-4d4f-aa75-5c0b1db70070","ios":"levelo://app?vid=ae2e2837-8237-4d4f-aa75-5c0b1db70070"},"vehicle_type_id":"4","last_reported":1741363900,"current_range_meters":6000,"station_id":"","pricing_plan_id":"cebpf4jnsgd1na2vs0mg"},{"bike_id":"362ebcd7-4b57-4153-b638-acf3bd6b675c","system_id":"levelo_inurba_marseille","lat":43.26201,"lon":5.3793,"is_reserved":false,"is_disabled":false,"rental_uris":{"android":"levelo://app?vid=362ebcd7-4b57-4153-b638-acf3bd6b675c","ios":"levelo://app?vid=362ebcd7-4b57-4153-b638-acf3bd6b675c"},"vehicle_type_id":"4","last_reported":1741363900,"current_range_meters":6000,"station_id":"ce4bhjp2rcd13ifvqg90","pricing_plan_id":"cebpf4jnsgd1na2vs0mg"},{"bike_id":"87f1698c-e073-4c0a-bf0a-41c913c10c8b","system_id":"levelo_inurba_marseille","lat":43.30421,"lon":5.41291,"is_reserved":false,"is_disabled":false,"rental_uris":{"android":"levelo://app?vid=87f1698c-e073-4c0a-bf0a-41c913c10c8b","ios":"levelo://app?vid=87f1698c-e073-4c0a-bf0a-41c913c10c8b"},"vehicle_type_id":"4","last_reported":1741363900,"current_range_meters":5600,"station_id":"ce4bhop2rcd13ifvqh8g","pricing_plan_id":"cebpf4jnsgd1na2vs0mg"},{"bike_id":"ad8fd057-1d2f-4281-b7ce-877214c12129","system_id":"levelo_inurba_marseille","lat":43.290139,"lon":5.386621,"is_reserved":false,"is_disabled":false,"rental_uris":{"android":"levelo://app?vid=ad8fd057-1d2f-4281-b7ce-877214c12129","ios":"levelo://app?vid=ad8fd057-1d2f-4281-b7ce-877214c12129"},"vehicle_type_id":"4","last_reported":1741363900,"current_range_meters":6000,"station_id":"ce4bh4p2rcd13ifvqe0g","pricing_plan_id":"cebpf4jnsgd1na2vs0mg"},{"bike_id":"f88a6cd9-f001-46b4-8023-0ed8105ce083","system_id":"levelo_inurba_marseille","lat":43.28036,"lon":5.36946,"is_reserved":false,"is_disabled":false,"rental_uris":{"android":"levelo://app?vid=f88a6cd9-f001-46b4-8023-0ed8105ce083","ios":"levelo://app?vid=f88a6cd9-f001-46b4-8023-0ed8105ce083"},"vehicle_type_id":"4","last_reported":1741363900,"current_range_meters":6400,"station_id":"ce4bha12rcd13ifvqef0","pricing_plan_id":"cebpf4jnsgd1na2vs0mg"},{"bike_id":"23011a84-2a29-4ee5-a128-6d99b74d3d70","system_id":"levelo_inurba_marseille","lat":43.28034,"lon":5.36948,"is_reserved":false,"is_disabled":false,"rental_uris":{"android":"levelo://app?vid=23011a84-2a29-4ee5-a128-6d99b74d3d70","ios":"levelo://app?vid=23011a84-2a29-4ee5-a128-6d99b74d3d70"},"vehicle_type_id":"4","last_reported":1741363900,"current_range_meters":6400,"station_id":"ce4bha12rcd13ifvqef0","pricing_plan_id":"cebpf4jnsgd1na2vs0mg"},{"bike_id":"d93bdeca-d0ff-402c-a1ae-de5375476d11","system_id":"levelo_inurba_marseille","lat":43.282,"lon":5.4025,"is_reserved":false,"is_disabled":true,"rental_uris":{"android":"levelo://app?vid=d93bdeca-d0ff-402c-a1ae-de5375476d11","ios":"levelo://app?vid=d93bdeca-d0ff-402c-a1ae-de5375476d11"},"vehicle_type_id":"4","last_reported":1741363900,"current_range_meters":6400,"station_id":"","pricing_plan_id":"cebpf4jnsgd1na2vs0mg"},{"bike_id":"04393cbd-9b3d-4e29-8893-184a4c2c2c7f","system_id":"levelo_inurba_marseille","lat":43.28699,"lon":5.39973,"is_reserved":false,"is_disabled":true,"rental_uris":{"android":"levelo://app?vid=04393cbd-9b3d-4e29-8893-184a4c2c2c7f","ios":"levelo://app?vid=04393cbd-9b3d-4e29-8893-184a4c2c2c7f"},"vehicle_type_id":"4","last_reported":1741363900,"current_range_meters":6400,"station_id":"ce4bho92rcd13ifvqh3g","pricing_plan_id":"cebpf4jnsgd1na2vs0mg"},{"bike_id":"fd8863a3-bd02-4514-9565-5ab9378158be","system_id":"levelo_inurba_marseille","lat":43.32368,"lon":5.38886,"is_reserved":false,"is_disabled":false,"rental_uris":{"android":"levelo://app?vid=fd8863a3-bd02-4514-9565-5ab9378158be","ios":"levelo://app?vid=fd8863a3-bd02-4514-9565-5ab9378158be"},"vehicle_type_id":"4","last_reported":1741363900,"current_range_meters":6400,"station_id":"ce4bhqp2rcd13ifvqhog","pricing_plan_id":"cebpf4jnsgd1na2vs0mg"},{"bike_id":"7f1905bf-da4d-4f13-af14-c5d46804e585","system_id":"levelo_inurba_marseille","lat":43.23189,"lon":5.35549,"is_reserved":false,"is_disabled":false,"rental_uris":{"android":"levelo://app?vid=7f1905bf-da4d-4f13-af14-c5d46804e585","ios":"levelo://app?vid=7f1905bf-da4d-4f13-af14-c5d46804e585"},"vehicle_type_id":"4","last_reported":1741363900,"current_range_meters":6400,"station_id":"ce4bhu92rcd13ifvqi70","pricing_plan_id":"cebpf4jnsgd1na2vs0mg"},{"bike_id":"fa248d9b-fe69-4dba-899d-3e7b78890568","system_id":"levelo_inurba_marseille","lat":43.302266,"lon":5.39477,"is_reserved":false,"is_disabled":false,"rental_uris":{"android":"levelo://app?vid=fa248d9b-fe69-4dba-899d-3e7b78890568","ios":"levelo://app?vid=fa248d9b-fe69-4dba-899d-3e7b78890568"},"vehicle_type_id":"4","last_reported":1741363900,"current_range_meters":6400,"station_id":"ce4bh0p2rcd13ifvqd70","pricing_plan_id":"cebpf4jnsgd1na2vs0mg"},{"bike_id":"d97b34a5-4a9d-4d9c-b55f-b72c9be6ca47","system_id":"levelo_inurba_marseille","lat":43.25122,"lon":5.40356,"is_reserved":false,"is_disabled":true,"rental_uris":{"android":"levelo://app?vid=d97b34a5-4a9d-4d9c-b55f-b72c9be6ca47","ios":"levelo://app?vid=d97b34a5-4a9d-4d9c-b55f-b72c9be6ca47"},"vehicle_type_id":"4","last_reported":1741363900,"current_range_meters":6400,"station_id":"ce4bhlh2rcd13ifvqgig","pricing_plan_id":"cebpf4jnsgd1na2vs0mg"},{"bike_id":"81220ab9-fb8e-4638-a084-692a6595df85","system_id":"levelo_inurba_marseille","lat":43.26185,"lon":5.42075,"is_reserved":false,"is_disabled":false,"rental_uris":{"android":"levelo://app?vid=81220ab9-fb8e-4638-a084-692a6595df85","ios":"levelo://app?vid=81220ab9-fb8e-4638-a084-692a6595df85"},"vehicle_type_id":"4","last_reported":1741363900,"current_range_meters":6400,"station_id":"","pricing_plan_id":"cebpf4jnsgd1na2vs0mg"},{"bike_id":"9bfe4e82-241b-4620-b471-d226beb88b23","system_id":"levelo_inurba_marseille","lat":43.229309,"lon":5.353756,"is_reserved":false,"is_disabled":false,"rental_uris":{"android":"levelo://app?vid=9bfe4e82-241b-4620-b471-d226beb88b23","ios":"levelo://app?vid=9bfe4e82-241b-4620-b471-d226beb88b23"},"vehicle_type_id":"4","last_reported":1741363900,"current_range_meters":6400,"station_id":"cpo3532slgdg3j2ikp40","pricing_plan_id":"cebpf4jnsgd1na2vs0mg"},{"bike_id":"d83ee013-97ed-4153-8c56-d32f59a2fd11","system_id":"levelo_inurba_marseille","lat":43.28699,"lon":5.40002,"is_reserved":false,"is_disabled":false,"rental_uris":{"android":"levelo://app?vid=d83ee013-97ed-4153-8c56-d32f59a2fd11","ios":"levelo://app?vid=d83ee013-97ed-4153-8c56-d32f59a2fd11"},"vehicle_type_id":"4","last_reported":1741363900,"current_range_meters":6400,"station_id":"ce4bho92rcd13ifvqh3g","pricing_plan_id":"cebpf4jnsgd1na2vs0mg"},{"bike_id":"a210611e-25a2-4984-a3d4-98745440ced4","system_id":"levelo_inurba_marseille","lat":43.2904,"lon":5.37564,"is_reserved":false,"is_disabled":false,"rental_uris":{"android":"levelo://app?vid=a210611e-25a2-4984-a3d4-98745440ced4","ios":"levelo://app?vid=a210611e-25a2-4984-a3d4-98745440ced4"},"vehicle_type_id":"4","last_reported":1741363900,"current_range_meters":7200,"station_id":"ce4bh692rcd13ifvqe90","pricing_plan_id":"cebpf4jnsgd1na2vs0mg"},{"bike_id":"a9041e84-c417-4b8e-a4bb-4804d4bfab2b","system_id":"levelo_inurba_marseille","lat":43.27996,"lon":5.40022,"is_reserved":false,"is_disabled":false,"rental_uris":{"android":"levelo://app?vid=a9041e84-c417-4b8e-a4bb-4804d4bfab2b","ios":"levelo://app?vid=a9041e84-c417-4b8e-a4bb-4804d4bfab2b"},"vehicle_type_id":"4","last_reported":1741363900,"current_range_meters":4800,"station_id":"ce4bho92rcd13ifvqh4g","pricing_plan_id":"cebpf4jnsgd1na2vs0mg"},{"bike_id":"c5d9a748-fb84-4751-9008-dc4467d9ed9a","system_id":"levelo_inurba_marseille","lat":43.23177,"lon":5.35563,"is_reserved":false,"is_disabled":false,"rental_uris":{"android":"levelo://app?vid=c5d9a748-fb84-4751-9008-dc4467d9ed9a","ios":"levelo://app?vid=c5d9a748-fb84-4751-9008-dc4467d9ed9a"},"vehicle_type_id":"4","last_reported":1741363900,"current_range_meters":6800,"station_id":"ce4bhu92rcd13ifvqi70","pricing_plan_id":"cebpf4jnsgd1na2vs0mg"},{"bike_id":"715bb25f-f116-46e4-b7e8-33657ed4db64","system_id":"levelo_inurba_marseille","lat":43.30415,"lon":5.41281,"is_reserved":false,"is_disabled":false,"rental_uris":{"android":"levelo://app?vid=715bb25f-f116-46e4-b7e8-33657ed4db64","ios":"levelo://app?vid=715bb25f-f116-46e4-b7e8-33657ed4db64"},"vehicle_type_id":"4","last_reported":1741363900,"current_range_meters":6800,"station_id":"ce4bhop2rcd13ifvqh8g","pricing_plan_id":"cebpf4jnsgd1na2vs0mg"},{"bike_id":"f7273f6d-5b7f-4917-92a2-8d22247ba48d","system_id":"levelo_inurba_marseille","lat":43.320452,"lon":5.415744,"is_reserved":false,"is_disabled":false,"rental_uris":{"android":"levelo://app?vid=f7273f6d-5b7f-4917-92a2-8d22247ba48d","ios":"levelo://app?vid=f7273f6d-5b7f-4917-92a2-8d22247ba48d"},"vehicle_type_id":"4","last_reported":1741363900,"current_range_meters":7200,"station_id":"ce4bhq92rcd13ifvqhkg","pricing_plan_id":"cebpf4jnsgd1na2vs0mg"},{"bike_id":"1b34c58c-f011-43f3-baac-47c6cf7523c0","system_id":"levelo_inurba_marseille","lat":43.29891,"lon":5.43643,"is_reserved":false,"is_disabled":false,"rental_uris":{"android":"levelo://app?vid=1b34c58c-f011-43f3-baac-47c6cf7523c0","ios":"levelo://app?vid=1b34c58c-f011-43f3-baac-47c6cf7523c0"},"vehicle_type_id":"4","last_reported":1741363900,"current_range_meters":7200,"station_id":"ce4bhpp2rcd13ifvqhfg","pricing_plan_id":"cebpf4jnsgd1na2vs0mg"},{"bike_id":"62c7b076-e2d5-4b0e-a82b-50fd823ef533","system_id":"levelo_inurba_marseille","lat":43.2587,"lon":5.39897,"is_reserved":false,"is_disabled":false,"rental_uris":{"android":"levelo://app?vid=62c7b076-e2d5-4b0e-a82b-50fd823ef533","ios":"levelo://app?vid=62c7b076-e2d5-4b0e-a82b-50fd823ef533"},"vehicle_type_id":"4","last_reported":1741363900,"current_range_meters":7200,"station_id":"ce4bhl92rcd13ifvqghg","pricing_plan_id":"cebpf4jnsgd1na2vs0mg"},{"bike_id":"6ad08e8c-4148-4d17-b850-68364425b12d","system_id":"levelo_inurba_marseille","lat":43.29606,"lon":5.38101,"is_reserved":false,"is_disabled":false,"rental_uris":{"android":"levelo://app?vid=6ad08e8c-4148-4d17-b850-68364425b12d","ios":"levelo://app?vid=6ad08e8c-4148-4d17-b850-68364425b12d"},"vehicle_type_id":"4","last_reported":1741363900,"current_range_meters":7200,"station_id":"ce4bgl12rcd13ifvqbo0","pricing_plan_id":"cebpf4jnsgd1na2vs0mg"},{"bike_id":"773f49ff-15b9-41f3-a211-60830b718236","system_id":"levelo_inurba_marseille","lat":43.30224,"lon":5.39467,"is_reserved":false,"is_disabled":false,"rental_uris":{"android":"levelo://app?vid=773f49ff-15b9-41f3-a211-60830b718236","ios":"levelo://app?vid=773f49ff-15b9-41f3-a211-60830b718236"},"vehicle_type_id":"4","last_reported":1741363900,"current_range_meters":7200,"station_id":"ce4bh0p2rcd13ifvqd70","pricing_plan_id":"cebpf4jnsgd1na2vs0mg"},{"bike_id":"409f92d4-9dfe-4c03-9cff-bb4c4801cd15","system_id":"levelo_inurba_marseille","lat":43.26558,"lon":5.3728,"is_reserved":false,"is_disabled":false,"rental_uris":{"android":"levelo://app?vid=409f92d4-9dfe-4c03-9cff-bb4c4801cd15","ios":"levelo://app?vid=409f92d4-9dfe-4c03-9cff-bb4c4801cd15"},"vehicle_type_id":"4","last_reported":1741363900,"current_range_meters":7200,"station_id":"ce4bhg12rcd13ifvqf70","pricing_plan_id":"cebpf4jnsgd1na2vs0mg"},{"bike_id":"7a60d2cb-3bf0-404d-8573-df878562c632","system_id":"levelo_inurba_marseille","lat":43.26199,"lon":5.37936,"is_reserved":false,"is_disabled":false,"rental_uris":{"android":"levelo://app?vid=7a60d2cb-3bf0-404d-8573-df878562c632","ios":"levelo://app?vid=7a60d2cb-3bf0-404d-8573-df878562c632"},"vehicle_type_id":"4","last_reported":1741363900,"current_range_meters":7200,"station_id":"ce4bhjp2rcd13ifvqg90","pricing_plan_id":"cebpf4jnsgd1na2vs0mg"},{"bike_id":"24df224d-ffa5-472e-acc0-380979001d96","system_id":"levelo_inurba_marseille","lat":43.257216,"lon":5.411174,"is_reserved":false,"is_disabled":false,"rental_uris":{"android":"levelo://app?vid=24df224d-ffa5-472e-acc0-380979001d96","ios":"levelo://app?vid=24df224d-ffa5-472e-acc0-380979001d96"},"vehicle_type_id":"4","last_reported":1741363900,"current_range_meters":7200,"station_id":"ce4bhkp2rcd13ifvqgd0","pricing_plan_id":"cebpf4jnsgd1na2vs0mg"},{"bike_id":"40775674-8a01-427b-8ba0-4ea62bf3e199","system_id":"levelo_inurba_marseille","lat":43.30949,"lon":5.39029,"is_reserved":false,"is_disabled":false,"rental_uris":{"android":"levelo://app?vid=40775674-8a01-427b-8ba0-4ea62bf3e199","ios":"levelo://app?vid=40775674-8a01-427b-8ba0-4ea62bf3e199"},"vehicle_type_id":"4","last_reported":1741363900,"current_range_meters":7200,"station_id":"ce4bgup2rcd13ifvqco0","pricing_plan_id":"cebpf4jnsgd1na2vs0mg"},{"bike_id":"e2491ae8-47ff-4654-bb3e-f3df8af62457","system_id":"levelo_inurba_marseille","lat":43.24664,"lon":5.38166,"is_reserved":false,"is_disabled":false,"rental_uris":{"android":"levelo://app?vid=e2491ae8-47ff-4654-bb3e-f3df8af62457","ios":"levelo://app?vid=e2491ae8-47ff-4654-bb3e-f3df8af62457"},"vehicle_type_id":"4","last_reported":1741363900,"current_range_meters":6800,"station_id":"ce4bhih2rcd13ifvqfr0","pricing_plan_id":"cebpf4jnsgd1na2vs0mg"},{"bike_id":"6c7ece21-b627-4f74-8609-7383ffebc83d","system_id":"levelo_inurba_marseille","lat":43.27924,"lon":5.39552,"is_reserved":false,"is_disabled":false,"rental_uris":{"android":"levelo://app?vid=6c7ece21-b627-4f74-8609-7383ffebc83d","ios":"levelo://app?vid=6c7ece21-b627-4f74-8609-7383ffebc83d"},"vehicle_type_id":"4","last_reported":1741363900,"current_range_meters":7200,"station_id":"ce4bhf92rcd13ifvqf40","pricing_plan_id":"cebpf4jnsgd1na2vs0mg"},{"bike_id":"5ece6216-c140-461a-8332-f5b985568faf","system_id":"levelo_inurba_marseille","lat":43.2796,"lon":5.38711,"is_reserved":false,"is_disabled":true,"rental_uris":{"android":"levelo://app?vid=5ece6216-c140-461a-8332-f5b985568faf","ios":"levelo://app?vid=5ece6216-c140-461a-8332-f5b985568faf"},"vehicle_type_id":"4","last_reported":1741363900,"current_range_meters":7200,"station_id":"","pricing_plan_id":"cebpf4jnsgd1na2vs0mg"},{"bike_id":"bd8a503a-816a-49da-b6f5-a1c44252842c","system_id":"levelo_inurba_marseille","lat":43.28347,"lon":5.38106,"is_reserved":false,"is_disabled":false,"rental_uris":{"android":"levelo://app?vid=bd8a503a-816a-49da-b6f5-a1c44252842c","ios":"levelo://app?vid=bd8a503a-816a-49da-b6f5-a1c44252842c"},"vehicle_type_id":"4","last_reported":1741363900,"current_range_meters":8000,"station_id":"ce4bh412rcd13ifvqdr0","pricing_plan_id":"cebpf4jnsgd1na2vs0mg"},{"bike_id":"0dae4766-4951-4e10-804c-bb358d93e714","system_id":"levelo_inurba_marseille","lat":43.29622,"lon":5.37168,"is_reserved":false,"is_disabled":false,"rental_uris":{"android":"levelo://app?vid=0dae4766-4951-4e10-804c-bb358d93e714","ios":"levelo://app?vid=0dae4766-4951-4e10-804c-bb358d93e714"},"vehicle_type_id":"4","last_reported":1741363900,"current_range_meters":7200,"station_id":"ce4bgnh2rcd13ifvqc0g","pricing_plan_id":"cebpf4jnsgd1na2vs0mg"},{"bike_id":"e8754d79-bfdc-4138-9bcc-36395b8ec51f","system_id":"levelo_inurba_marseille","lat":43.30277,"lon":5.37692,"is_reserved":false,"is_disabled":false,"rental_uris":{"android":"levelo://app?vid=e8754d79-bfdc-4138-9bcc-36395b8ec51f","ios":"levelo://app?vid=e8754d79-bfdc-4138-9bcc-36395b8ec51f"},"vehicle_type_id":"4","last_reported":1741363900,"current_range_meters":8000,"station_id":"ce4bguh2rcd13ifvqcj0","pricing_plan_id":"cebpf4jnsgd1na2vs0mg"},{"bike_id":"143b74fc-ab7b-4910-8495-ffc1ad22971d","system_id":"levelo_inurba_marseille","lat":43.25015,"lon":5.38904,"is_reserved":false,"is_disabled":true,"rental_uris":{"android":"levelo://app?vid=143b74fc-ab7b-4910-8495-ffc1ad22971d","ios":"levelo://app?vid=143b74fc-ab7b-4910-8495-ffc1ad22971d"},"vehicle_type_id":"4","last_reported":1741363900,"current_range_meters":8000,"station_id":"ce4bhgp2rcd13ifvqfd0","pricing_plan_id":"cebpf4jnsgd1na2vs0mg"},{"bike_id":"663accf6-681a-4ca4-bd91-1c8e74411d3e","system_id":"levelo_inurba_marseille","lat":43.26587,"lon":5.37337,"is_reserved":false,"is_disabled":false,"rental_uris":{"android":"levelo://app?vid=663accf6-681a-4ca4-bd91-1c8e74411d3e","ios":"levelo://app?vid=663accf6-681a-4ca4-bd91-1c8e74411d3e"},"vehicle_type_id":"4","last_reported":1741363900,"current_range_meters":8000,"station_id":"ce4bhg12rcd13ifvqf70","pricing_plan_id":"cebpf4jnsgd1na2vs0mg"},{"bike_id":"357f6b0d-7429-4870-b5b1-c540923d954d","system_id":"levelo_inurba_marseille","lat":43.23068,"lon":5.35492,"is_reserved":false,"is_disabled":false,"rental_uris":{"android":"levelo://app?vid=357f6b0d-7429-4870-b5b1-c540923d954d","ios":"levelo://app?vid=357f6b0d-7429-4870-b5b1-c540923d954d"},"vehicle_type_id":"4","last_reported":1741363900,"current_range_meters":8000,"station_id":"cpo3342slgdg3j2ifvpg","pricing_plan_id":"cebpf4jnsgd1na2vs0mg"},{"bike_id":"b3efa482-ba88-41b4-9fa2-130aeb426a3b","system_id":"levelo_inurba_marseille","lat":43.28047,"lon":5.36933,"is_reserved":false,"is_disabled":false,"rental_uris":{"android":"levelo://app?vid=b3efa482-ba88-41b4-9fa2-130aeb426a3b","ios":"levelo://app?vid=b3efa482-ba88-41b4-9fa2-130aeb426a3b"},"vehicle_type_id":"4","last_reported":1741363900,"current_range_meters":8000,"station_id":"ce4bha12rcd13ifvqef0","pricing_plan_id":"cebpf4jnsgd1na2vs0mg"},{"bike_id":"6bdcb125-56c2-4c80-86ec-75c9b736d806","system_id":"levelo_inurba_marseille","lat":43.28088,"lon":5.39666,"is_reserved":false,"is_disabled":false,"rental_uris":{"android":"levelo://app?vid=6bdcb125-56c2-4c80-86ec-75c9b736d806","ios":"levelo://app?vid=6bdcb125-56c2-4c80-86ec-75c9b736d806"},"vehicle_type_id":"4","last_reported":1741363900,"current_range_meters":8400,"station_id":"ce4bho12rcd13ifvqh2g","pricing_plan_id":"cebpf4jnsgd1na2vs0mg"},{"bike_id":"80bd602e-fdb1-4f1c-b290-5e446abfb490","system_id":"levelo_inurba_marseille","lat":43.30477,"lon":5.37901,"is_reserved":false,"is_disabled":false,"rental_uris":{"android":"levelo://app?vid=80bd602e-fdb1-4f1c-b290-5e446abfb490","ios":"levelo://app?vid=80bd602e-fdb1-4f1c-b290-5e446abfb490"},"vehicle_type_id":"4","last_reported":1741363900,"current_range_meters":8400,"station_id":"ce4bgup2rcd13ifvqcn0","pricing_plan_id":"cebpf4jnsgd1na2vs0mg"},{"bike_id":"2cb7488e-355f-47c1-a7a2-4cf7f9cff488","system_id":"levelo_inurba_marseille","lat":43.26678,"lon":5.38275,"is_reserved":false,"is_disabled":false,"rental_uris":{"android":"levelo://app?vid=2cb7488e-355f-47c1-a7a2-4cf7f9cff488","ios":"levelo://app?vid=2cb7488e-355f-47c1-a7a2-4cf7f9cff488"},"vehicle_type_id":"4","last_reported":1741363900,"current_range_meters":8000,"station_id":"ce4bhg92rcd13ifvqf90","pricing_plan_id":"cebpf4jnsgd1na2vs0mg"},{"bike_id":"c5e4431e-f3ce-416b-aa92-deba23415ab5","system_id":"levelo_inurba_marseille","lat":43.29275,"lon":5.38435,"is_reserved":false,"is_disabled":false,"rental_uris":{"android":"levelo://app?vid=c5e4431e-f3ce-416b-aa92-deba23415ab5","ios":"levelo://app?vid=c5e4431e-f3ce-416b-aa92-deba23415ab5"},"vehicle_type_id":"4","last_reported":1741363900,"current_range_meters":1600,"station_id":"ce4bh692rcd13ifvqea0","pricing_plan_id":"cebpf4jnsgd1na2vs0mg"},{"bike_id":"0cfc1532-a40a-4f63-a018-01237dc26b0b","system_id":"levelo_inurba_marseille","lat":43.30286,"lon":5.37691,"is_reserved":false,"is_disabled":false,"rental_uris":{"android":"levelo://app?vid=0cfc1532-a40a-4f63-a018-01237dc26b0b","ios":"levelo://app?vid=0cfc1532-a40a-4f63-a018-01237dc26b0b"},"vehicle_type_id":"4","last_reported":1741363900,"current_range_meters":8400,"station_id":"ce4bguh2rcd13ifvqcj0","pricing_plan_id":"cebpf4jnsgd1na2vs0mg"},{"bike_id":"35130f87-b313-43ca-86df-0e44026654c1","system_id":"levelo_inurba_marseille","lat":43.30832,"lon":5.38028,"is_reserved":false,"is_disabled":false,"rental_uris":{"android":"levelo://app?vid=35130f87-b313-43ca-86df-0e44026654c1","ios":"levelo://app?vid=35130f87-b313-43ca-86df-0e44026654c1"},"vehicle_type_id":"4","last_reported":1741363900,"current_range_meters":8400,"station_id":"","pricing_plan_id":"cebpf4jnsgd1na2vs0mg"},{"bike_id":"0b64b369-3837-4584-ae55-06e57e68cdf0","system_id":"levelo_inurba_marseille","lat":43.31471,"lon":5.37105,"is_reserved":false,"is_disabled":false,"rental_uris":{"android":"levelo://app?vid=0b64b369-3837-4584-ae55-06e57e68cdf0","ios":"levelo://app?vid=0b64b369-3837-4584-ae55-06e57e68cdf0"},"vehicle_type_id":"4","last_reported":1741363900,"current_range_meters":8400,"station_id":"","pricing_plan_id":"cebpf4jnsgd1na2vs0mg"},{"bike_id":"c699a629-3b7f-4bdb-8ccf-37f391273a9e","system_id":"levelo_inurba_marseille","lat":43.2963,"lon":5.36251,"is_reserved":false,"is_disabled":false,"rental_uris":{"android":"levelo://app?vid=c699a629-3b7f-4bdb-8ccf-37f391273a9e","ios":"levelo://app?vid=c699a629-3b7f-4bdb-8ccf-37f391273a9e"},"vehicle_type_id":"4","last_reported":1741363900,"current_range_meters":8400,"station_id":"ce4bgnh2rcd13ifvqc0g","pricing_plan_id":"cebpf4jnsgd1na2vs0mg"},{"bike_id":"28437508-fa41-4054-b93c-b2fb98fbe78d","system_id":"levelo_inurba_marseille","lat":43.27915,"lon":5.37997,"is_reserved":false,"is_disabled":false,"rental_uris":{"android":"levelo://app?vid=28437508-fa41-4054-b93c-b2fb98fbe78d","ios":"levelo://app?vid=28437508-fa41-4054-b93c-b2fb98fbe78d"},"vehicle_type_id":"4","last_reported":1741363900,"current_range_meters":8800,"station_id":"ce4bhf92rcd13ifvqf50","pricing_plan_id":"cebpf4jnsgd1na2vs0mg"},{"bike_id":"f84dac07-aebc-4c91-86d5-a770501ab7d9","system_id":"levelo_inurba_marseille","lat":43.29523,"lon":5.39052,"is_reserved":false,"is_disabled":false,"rental_uris":{"android":"levelo://app?vid=f84dac07-aebc-4c91-86d5-a770501ab7d9","ios":"levelo://app?vid=f84dac07-aebc-4c91-86d5-a770501ab7d9"},"vehicle_type_id":"4","last_reported":1741363900,"current_range_meters":9200,"station_id":"ce4bh3p2rcd13ifvqdp0","pricing_plan_id":"cebpf4jnsgd1na2vs0mg"},{"bike_id":"477494cf-6752-4cdd-abc5-2e55f6cc9696","system_id":"levelo_inurba_marseille","lat":43.29555,"lon":5.42299,"is_reserved":false,"is_disabled":false,"rental_uris":{"android":"levelo://app?vid=477494cf-6752-4cdd-abc5-2e55f6cc9696","ios":"levelo://app?vid=477494cf-6752-4cdd-abc5-2e55f6cc9696"},"vehicle_type_id":"4","last_reported":1741363900,"current_range_meters":9200,"station_id":"ce4bhph2rcd13ifvqhdg","pricing_plan_id":"cebpf4jnsgd1na2vs0mg"},{"bike_id":"9fb15bbc-6129-456a-8ecd-abc814aa9019","system_id":"levelo_inurba_marseille","lat":43.30303,"lon":5.36899,"is_reserved":false,"is_disabled":false,"rental_uris":{"android":"levelo://app?vid=9fb15bbc-6129-456a-8ecd-abc814aa9019","ios":"levelo://app?vid=9fb15bbc-6129-456a-8ecd-abc814aa9019"},"vehicle_type_id":"4","last_reported":1741363900,"current_range_meters":9200,"station_id":"ce4bgqh2rcd13ifvqc5g","pricing_plan_id":"cebpf4jnsgd1na2vs0mg"},{"bike_id":"55f1a346-655d-4ceb-961f-e11c032b07e0","system_id":"levelo_inurba_marseille","lat":43.32693,"lon":5.40278,"is_reserved":false,"is_disabled":false,"rental_uris":{"android":"levelo://app?vid=55f1a346-655d-4ceb-961f-e11c032b07e0","ios":"levelo://app?vid=55f1a346-655d-4ceb-961f-e11c032b07e0"},"vehicle_type_id":"4","last_reported":1741363900,"current_range_meters":9200,"station_id":"","pricing_plan_id":"cebpf4jnsgd1na2vs0mg"},{"bike_id":"b9c3f4e5-7d55-4320-92cd-c5bc19b7823b","system_id":"levelo_inurba_marseille","lat":43.3022,"lon":5.39461,"is_reserved":false,"is_disabled":false,"rental_uris":{"android":"levelo://app?vid=b9c3f4e5-7d55-4320-92cd-c5bc19b7823b","ios":"levelo://app?vid=b9c3f4e5-7d55-4320-92cd-c5bc19b7823b"},"vehicle_type_id":"4","last_reported":1741363900,"current_range_meters":9200,"station_id":"ce4bh0p2rcd13ifvqd70","pricing_plan_id":"cebpf4jnsgd1na2vs0mg"},{"bike_id":"a8346857-aeb5-446d-a7c0-256440b8c5b2","system_id":"levelo_inurba_marseille","lat":43.27939,"lon":5.41046,"is_reserved":false,"is_disabled":false,"rental_uris":{"android":"levelo://app?vid=a8346857-aeb5-446d-a7c0-256440b8c5b2","ios":"levelo://app?vid=a8346857-aeb5-446d-a7c0-256440b8c5b2"},"vehicle_type_id":"4","last_reported":1741363900,"current_range_meters":9200,"station_id":"ce4bhnp2rcd13ifvqh0g","pricing_plan_id":"cebpf4jnsgd1na2vs0mg"},{"bike_id":"cb7034e9-8e83-4403-9dc4-341e021232d5","system_id":"levelo_inurba_marseille","lat":43.30537,"lon":5.36535,"is_reserved":false,"is_disabled":false,"rental_uris":{"android":"levelo://app?vid=cb7034e9-8e83-4403-9dc4-341e021232d5","ios":"levelo://app?vid=cb7034e9-8e83-4403-9dc4-341e021232d5"},"vehicle_type_id":"4","last_reported":1741363900,"current_range_meters":9200,"station_id":"ce4bgs12rcd13ifvqcag","pricing_plan_id":"cebpf4jnsgd1na2vs0mg"},{"bike_id":"fc16e489-8df8-4852-b050-f0db6735651e","system_id":"levelo_inurba_marseille","lat":43.29032,"lon":5.37568,"is_reserved":false,"is_disabled":false,"rental_uris":{"android":"levelo://app?vid=fc16e489-8df8-4852-b050-f0db6735651e","ios":"levelo://app?vid=fc16e489-8df8-4852-b050-f0db6735651e"},"vehicle_type_id":"4","last_reported":1741363900,"current_range_meters":9200,"station_id":"ce4bh692rcd13ifvqe90","pricing_plan_id":"cebpf4jnsgd1na2vs0mg"},{"bike_id":"3936df5a-4f8a-4b29-9452-e5a714f26a1f","system_id":"levelo_inurba_marseille","lat":43.30948,"lon":5.39037,"is_reserved":false,"is_disabled":false,"rental_uris":{"android":"levelo://app?vid=3936df5a-4f8a-4b29-9452-e5a714f26a1f","ios":"levelo://app?vid=3936df5a-4f8a-4b29-9452-e5a714f26a1f"},"vehicle_type_id":"4","last_reported":1741363900,"current_range_meters":9600,"station_id":"ce4bgup2rcd13ifvqco0","pricing_plan_id":"cebpf4jnsgd1na2vs0mg"},{"bike_id":"ff2b1ae2-6026-4b9f-8b82-6ff0930825ce","system_id":"levelo_inurba_marseille","lat":43.29417,"lon":5.38622,"is_reserved":false,"is_disabled":false,"rental_uris":{"android":"levelo://app?vid=ff2b1ae2-6026-4b9f-8b82-6ff0930825ce","ios":"levelo://app?vid=ff2b1ae2-6026-4b9f-8b82-6ff0930825ce"},"vehicle_type_id":"4","last_reported":1741363900,"current_range_meters":9600,"station_id":"ce4bh2h2rcd13ifvqdh0","pricing_plan_id":"cebpf4jnsgd1na2vs0mg"},{"bike_id":"022de85e-66c3-4b0c-8c37-17211cf6543b","system_id":"levelo_inurba_marseille","lat":43.2894,"lon":5.36637,"is_reserved":false,"is_disabled":false,"rental_uris":{"android":"levelo://app?vid=022de85e-66c3-4b0c-8c37-17211cf6543b","ios":"levelo://app?vid=022de85e-66c3-4b0c-8c37-17211cf6543b"},"vehicle_type_id":"4","last_reported":1741363900,"current_range_meters":9600,"station_id":"ce4bhap2rcd13ifvqek0","pricing_plan_id":"cebpf4jnsgd1na2vs0mg"},{"bike_id":"57a01e6f-5a1f-4372-ba4b-4f6ed5344b20","system_id":"levelo_inurba_marseille","lat":43.287,"lon":5.38622,"is_reserved":false,"is_disabled":false,"rental_uris":{"android":"levelo://app?vid=57a01e6f-5a1f-4372-ba4b-4f6ed5344b20","ios":"levelo://app?vid=57a01e6f-5a1f-4372-ba4b-4f6ed5344b20"},"vehicle_type_id":"4","last_reported":1741363900,"current_range_meters":10000,"station_id":"","pricing_plan_id":"cebpf4jnsgd1na2vs0mg"},{"bike_id":"a5e8b949-6fee-4e25-a095-3718d4f14aca","system_id":"levelo_inurba_marseille","lat":43.25107,"lon":5.40351,"is_reserved":false,"is_disabled":false,"rental_uris":{"android":"levelo://app?vid=a5e8b949-6fee-4e25-a095-3718d4f14aca","ios":"levelo://app?vid=a5e8b949-6fee-4e25-a095-3718d4f14aca"},"vehicle_type_id":"4","last_reported":1741363900,"current_range_meters":10000,"station_id":"ce4bhlh2rcd13ifvqgig","pricing_plan_id":"cebpf4jnsgd1na2vs0mg"},{"bike_id":"f5c67fed-fdbd-4e5e-a7ee-46dbf9eee184","system_id":"levelo_inurba_marseille","lat":43.29545,"lon":5.38534,"is_reserved":false,"is_disabled":false,"rental_uris":{"android":"levelo://app?vid=f5c67fed-fdbd-4e5e-a7ee-46dbf9eee184","ios":"levelo://app?vid=f5c67fed-fdbd-4e5e-a7ee-46dbf9eee184"},"vehicle_type_id":"4","last_reported":1741363900,"current_range_meters":10000,"station_id":"ce4bgih2rcd13ifvqba0","pricing_plan_id":"cebpf4jnsgd1na2vs0mg"},{"bike_id":"c2419b13-6acf-4a1a-94d3-fce4a790b79b","system_id":"levelo_inurba_marseille","lat":43.2846,"lon":5.35889,"is_reserved":false,"is_disabled":false,"rental_uris":{"android":"levelo://app?vid=c2419b13-6acf-4a1a-94d3-fce4a790b79b","ios":"levelo://app?vid=c2419b13-6acf-4a1a-94d3-fce4a790b79b"},"vehicle_type_id":"4","last_reported":1741363900,"current_range_meters":10000,"station_id":"ce4bhah2rcd13ifvqei0","pricing_plan_id":"cebpf4jnsgd1na2vs0mg"},{"bike_id":"e4b7e3ae-7116-4270-88a8-190c0075c866","system_id":"levelo_inurba_marseille","lat":43.32032,"lon":5.41537,"is_reserved":false,"is_disabled":false,"rental_uris":{"android":"levelo://app?vid=e4b7e3ae-7116-4270-88a8-190c0075c866","ios":"levelo://app?vid=e4b7e3ae-7116-4270-88a8-190c0075c866"},"vehicle_type_id":"4","last_reported":1741363900,"current_range_meters":10000,"station_id":"ce4bhq92rcd13ifvqhkg","pricing_plan_id":"cebpf4jnsgd1na2vs0mg"},{"bike_id":"91f3e5be-dc10-44ac-a244-9542f7f3f212","system_id":"levelo_inurba_marseille","lat":43.29871,"lon":5.39734,"is_reserved":false,"is_disabled":false,"rental_uris":{"android":"levelo://app?vid=91f3e5be-dc10-44ac-a244-9542f7f3f212","ios":"levelo://app?vid=91f3e5be-dc10-44ac-a244-9542f7f3f212"},"vehicle_type_id":"4","last_reported":1741363900,"current_range_meters":10000,"station_id":"ce4bh0h2rcd13ifvqd50","pricing_plan_id":"cebpf4jnsgd1na2vs0mg"},{"bike_id":"5f1eec44-2206-4aa7-8a95-95d30271e6a2","system_id":"levelo_inurba_marseille","lat":43.295227,"lon":5.390489,"is_reserved":false,"is_disabled":false,"rental_uris":{"android":"levelo://app?vid=5f1eec44-2206-4aa7-8a95-95d30271e6a2","ios":"levelo://app?vid=5f1eec44-2206-4aa7-8a95-95d30271e6a2"},"vehicle_type_id":"4","last_reported":1741363900,"current_range_meters":10000,"station_id":"ce4bh3p2rcd13ifvqdp0","pricing_plan_id":"cebpf4jnsgd1na2vs0mg"},{"bike_id":"f58bae01-5dc7-4881-ac16-7a99adc3aaa4","system_id":"levelo_inurba_marseille","lat":43.29716,"lon":5.36611,"is_reserved":false,"is_disabled":false,"rental_uris":{"android":"levelo://app?vid=f58bae01-5dc7-4881-ac16-7a99adc3aaa4","ios":"levelo://app?vid=f58bae01-5dc7-4881-ac16-7a99adc3aaa4"},"vehicle_type_id":"4","last_reported":1741363900,"current_range_meters":10000,"station_id":"ce4bgn12rcd13ifvqbt0","pricing_plan_id":"cebpf4jnsgd1na2vs0mg"},{"bike_id":"ac53c362-2988-448d-9887-74c49400ebb7","system_id":"levelo_inurba_marseille","lat":43.29292,"lon":5.37459,"is_reserved":false,"is_disabled":false,"rental_uris":{"android":"levelo://app?vid=ac53c362-2988-448d-9887-74c49400ebb7","ios":"levelo://app?vid=ac53c362-2988-448d-9887-74c49400ebb7"},"vehicle_type_id":"4","last_reported":1741363900,"current_range_meters":10000,"station_id":"ce4bgi12rcd13ifvqb70","pricing_plan_id":"cebpf4jnsgd1na2vs0mg"},{"bike_id":"5687486c-e43a-4305-bd43-5ce96ec29532","system_id":"levelo_inurba_marseille","lat":43.29891,"lon":5.3889,"is_reserved":false,"is_disabled":false,"rental_uris":{"android":"levelo://app?vid=5687486c-e43a-4305-bd43-5ce96ec29532","ios":"levelo://app?vid=5687486c-e43a-4305-bd43-5ce96ec29532"},"vehicle_type_id":"4","last_reported":1741363900,"current_range_meters":10000,"station_id":"ce4bh392rcd13ifvqdl0","pricing_plan_id":"cebpf4jnsgd1na2vs0mg"},{"bike_id":"42323b44-4776-4993-88db-08c90d643018","system_id":"levelo_inurba_marseille","lat":43.30097,"lon":5.3766,"is_reserved":false,"is_disabled":false,"rental_uris":{"android":"levelo://app?vid=42323b44-4776-4993-88db-08c90d643018","ios":"levelo://app?vid=42323b44-4776-4993-88db-08c90d643018"},"vehicle_type_id":"4","last_reported":1741363900,"current_range_meters":10000,"station_id":"","pricing_plan_id":"cebpf4jnsgd1na2vs0mg"},{"bike_id":"f6a9d99b-40e1-4313-955e-fe1045af5dfd","system_id":"levelo_inurba_marseille","lat":43.276467,"lon":5.53058,"is_reserved":false,"is_disabled":false,"rental_uris":{"android":"levelo://app?vid=f6a9d99b-40e1-4313-955e-fe1045af5dfd","ios":"levelo://app?vid=f6a9d99b-40e1-4313-955e-fe1045af5dfd"},"vehicle_type_id":"4","last_reported":1741363900,"current_range_meters":10000,"station_id":"","pricing_plan_id":"cebpf4jnsgd1na2vs0mg"},{"bike_id":"151bfddb-f446-4b86-b1e8-97aaf0f15dc6","system_id":"levelo_inurba_marseille","lat":43.28361,"lon":5.38647,"is_reserved":false,"is_disabled":false,"rental_uris":{"android":"levelo://app?vid=151bfddb-f446-4b86-b1e8-97aaf0f15dc6","ios":"levelo://app?vid=151bfddb-f446-4b86-b1e8-97aaf0f15dc6"},"vehicle_type_id":"4","last_reported":1741363900,"current_range_meters":10000,"station_id":"ce4bh492rcd13ifvqdvg","pricing_plan_id":"cebpf4jnsgd1na2vs0mg"},{"bike_id":"dedb2ec7-9fe1-4028-ae2c-08f446076d11","system_id":"levelo_inurba_marseille","lat":43.28002,"lon":5.41655,"is_reserved":false,"is_disabled":false,"rental_uris":{"android":"levelo://app?vid=dedb2ec7-9fe1-4028-ae2c-08f446076d11","ios":"levelo://app?vid=dedb2ec7-9fe1-4028-ae2c-08f446076d11"},"vehicle_type_id":"4","last_reported":1741363900,"current_range_meters":10800,"station_id":"ce4bho12rcd13ifvqh1g","pricing_plan_id":"cebpf4jnsgd1na2vs0mg"},{"bike_id":"a0558d86-7a90-4fbf-90f8-1fcc9895187b","system_id":"levelo_inurba_marseille","lat":43.25111,"lon":5.40318,"is_reserved":false,"is_disabled":false,"rental_uris":{"android":"levelo://app?vid=a0558d86-7a90-4fbf-90f8-1fcc9895187b","ios":"levelo://app?vid=a0558d86-7a90-4fbf-90f8-1fcc9895187b"},"vehicle_type_id":"4","last_reported":1741363900,"current_range_meters":10800,"station_id":"ce4bhlh2rcd13ifvqgig","pricing_plan_id":"cebpf4jnsgd1na2vs0mg"},{"bike_id":"6eb36d94-2a08-4129-9978-c104d9d30c63","system_id":"levelo_inurba_marseille","lat":43.26191,"lon":5.37454,"is_reserved":false,"is_disabled":false,"rental_uris":{"android":"levelo://app?vid=6eb36d94-2a08-4129-9978-c104d9d30c63","ios":"levelo://app?vid=6eb36d94-2a08-4129-9978-c104d9d30c63"},"vehicle_type_id":"4","last_reported":1741363900,"current_range_meters":10800,"station_id":"ce4bhgp2rcd13ifvqfc0","pricing_plan_id":"cebpf4jnsgd1na2vs0mg"},{"bike_id":"b2971004-47d0-411b-b905-385c5be5e48f","system_id":"levelo_inurba_marseille","lat":43.28697,"lon":5.38662,"is_reserved":false,"is_disabled":false,"rental_uris":{"android":"levelo://app?vid=b2971004-47d0-411b-b905-385c5be5e48f","ios":"levelo://app?vid=b2971004-47d0-411b-b905-385c5be5e48f"},"vehicle_type_id":"4","last_reported":1741363900,"current_range_meters":10800,"station_id":"ce4bh492rcd13ifvqdug","pricing_plan_id":"cebpf4jnsgd1na2vs0mg"},{"bike_id":"9da935d0-0941-44db-bb4f-7f7e582bd3d3","system_id":"levelo_inurba_marseille","lat":43.24165,"lon":5.36402,"is_reserved":false,"is_disabled":false,"rental_uris":{"android":"levelo://app?vid=9da935d0-0941-44db-bb4f-7f7e582bd3d3","ios":"levelo://app?vid=9da935d0-0941-44db-bb4f-7f7e582bd3d3"},"vehicle_type_id":"4","last_reported":1741363900,"current_range_meters":10800,"station_id":"cpo36qri1sfpv3e86is0","pricing_plan_id":"cebpf4jnsgd1na2vs0mg"},{"bike_id":"5a69a9bd-a80d-4ce4-b5c8-bec3b60b93e6","system_id":"levelo_inurba_marseille","lat":43.29001,"lon":5.36695,"is_reserved":false,"is_disabled":false,"rental_uris":{"android":"levelo://app?vid=5a69a9bd-a80d-4ce4-b5c8-bec3b60b93e6","ios":"levelo://app?vid=5a69a9bd-a80d-4ce4-b5c8-bec3b60b93e6"},"vehicle_type_id":"4","last_reported":1741363900,"current_range_meters":10800,"station_id":"","pricing_plan_id":"cebpf4jnsgd1na2vs0mg"},{"bike_id":"21ca33ea-7ad0-443d-a7af-31500b5c9392","system_id":"levelo_inurba_marseille","lat":43.28039,"lon":5.36935,"is_reserved":false,"is_disabled":false,"rental_uris":{"android":"levelo://app?vid=21ca33ea-7ad0-443d-a7af-31500b5c9392","ios":"levelo://app?vid=21ca33ea-7ad0-443d-a7af-31500b5c9392"},"vehicle_type_id":"4","last_reported":1741363900,"current_range_meters":10800,"station_id":"ce4bha12rcd13ifvqef0","pricing_plan_id":"cebpf4jnsgd1na2vs0mg"},{"bike_id":"75bdcf83-5140-440b-9e92-976e7b768fc9","system_id":"levelo_inurba_marseille","lat":43.29767,"lon":5.37014,"is_reserved":false,"is_disabled":false,"rental_uris":{"android":"levelo://app?vid=75bdcf83-5140-440b-9e92-976e7b768fc9","ios":"levelo://app?vid=75bdcf83-5140-440b-9e92-976e7b768fc9"},"vehicle_type_id":"4","last_reported":1741363900,"current_range_meters":8800,"station_id":"","pricing_plan_id":"cebpf4jnsgd1na2vs0mg"},{"bike_id":"daa48c53-c5de-46aa-94fc-655cbd710c8c","system_id":"levelo_inurba_marseille","lat":43.22935,"lon":5.35377,"is_reserved":false,"is_disabled":false,"rental_uris":{"android":"levelo://app?vid=daa48c53-c5de-46aa-94fc-655cbd710c8c","ios":"levelo://app?vid=daa48c53-c5de-46aa-94fc-655cbd710c8c"},"vehicle_type_id":"4","last_reported":1741363900,"current_range_meters":10800,"station_id":"cpo3532slgdg3j2ikp40","pricing_plan_id":"cebpf4jnsgd1na2vs0mg"},{"bike_id":"eab6c0ef-3102-4f23-870e-415eb646ced8","system_id":"levelo_inurba_marseille","lat":43.27212,"lon":5.39176,"is_reserved":false,"is_disabled":false,"rental_uris":{"android":"levelo://app?vid=eab6c0ef-3102-4f23-870e-415eb646ced8","ios":"levelo://app?vid=eab6c0ef-3102-4f23-870e-415eb646ced8"},"vehicle_type_id":"4","last_reported":1741363900,"current_range_meters":10800,"station_id":"ce4bhhp2rcd13ifvqfm0","pricing_plan_id":"cebpf4jnsgd1na2vs0mg"},{"bike_id":"3949e300-2dbd-4203-aa58-eef0b1b0c774","system_id":"levelo_inurba_marseille","lat":43.33776,"lon":5.37436,"is_reserved":false,"is_disabled":false,"rental_uris":{"android":"levelo://app?vid=3949e300-2dbd-4203-aa58-eef0b1b0c774","ios":"levelo://app?vid=3949e300-2dbd-4203-aa58-eef0b1b0c774"},"vehicle_type_id":"4","last_reported":1741363900,"current_range_meters":11200,"station_id":"","pricing_plan_id":"cebpf4jnsgd1na2vs0mg"},{"bike_id":"30485d7f-d50e-49ec-b700-68c8eb1a6277","system_id":"levelo_inurba_marseille","lat":43.27427,"lon":5.39417,"is_reserved":false,"is_disabled":false,"rental_uris":{"android":"levelo://app?vid=30485d7f-d50e-49ec-b700-68c8eb1a6277","ios":"levelo://app?vid=30485d7f-d50e-49ec-b700-68c8eb1a6277"},"vehicle_type_id":"4","last_reported":1741363900,"current_range_meters":10800,"station_id":"ce4bhdp2rcd13ifvqf20","pricing_plan_id":"cebpf4jnsgd1na2vs0mg"},{"bike_id":"ca8b15ad-3dbb-4e4f-9aa7-919b6ee9508a","system_id":"levelo_inurba_marseille","lat":43.27567,"lon":5.38421,"is_reserved":false,"is_disabled":false,"rental_uris":{"android":"levelo://app?vid=ca8b15ad-3dbb-4e4f-9aa7-919b6ee9508a","ios":"levelo://app?vid=ca8b15ad-3dbb-4e4f-9aa7-919b6ee9508a"},"vehicle_type_id":"4","last_reported":1741363900,"current_range_meters":11200,"station_id":"ce4bhh92rcd13ifvqfi0","pricing_plan_id":"cebpf4jnsgd1na2vs0mg"},{"bike_id":"db7cd95b-0159-457d-aa08-f78ad0493427","system_id":"levelo_inurba_marseille","lat":43.3236,"lon":5.38917,"is_reserved":false,"is_disabled":false,"rental_uris":{"android":"levelo://app?vid=db7cd95b-0159-457d-aa08-f78ad0493427","ios":"levelo://app?vid=db7cd95b-0159-457d-aa08-f78ad0493427"},"vehicle_type_id":"4","last_reported":1741363900,"current_range_meters":11600,"station_id":"ce4bhqp2rcd13ifvqhog","pricing_plan_id":"cebpf4jnsgd1na2vs0mg"},{"bike_id":"0c9e0938-d5bb-4dd8-ae97-fba63a470257","system_id":"levelo_inurba_marseille","lat":43.287,"lon":5.37384,"is_reserved":false,"is_disabled":false,"rental_uris":{"android":"levelo://app?vid=0c9e0938-d5bb-4dd8-ae97-fba63a470257","ios":"levelo://app?vid=0c9e0938-d5bb-4dd8-ae97-fba63a470257"},"vehicle_type_id":"4","last_reported":1741363900,"current_range_meters":11600,"station_id":"ce4bh3p2rcd13ifvqdq0","pricing_plan_id":"cebpf4jnsgd1na2vs0mg"},{"bike_id":"f479a6d1-3cb4-4f96-b97e-51428b8374e3","system_id":"levelo_inurba_marseille","lat":43.28471,"lon":5.35866,"is_reserved":false,"is_disabled":false,"rental_uris":{"android":"levelo://app?vid=f479a6d1-3cb4-4f96-b97e-51428b8374e3","ios":"levelo://app?vid=f479a6d1-3cb4-4f96-b97e-51428b8374e3"},"vehicle_type_id":"4","last_reported":1741363900,"current_range_meters":11200,"station_id":"ce4bhah2rcd13ifvqei0","pricing_plan_id":"cebpf4jnsgd1na2vs0mg"},{"bike_id":"79247c64-c9ad-45a4-8f6e-8000a37602c9","system_id":"levelo_inurba_marseille","lat":43.2606,"lon":5.39393,"is_reserved":false,"is_disabled":true,"rental_uris":{"android":"levelo://app?vid=79247c64-c9ad-45a4-8f6e-8000a37602c9","ios":"levelo://app?vid=79247c64-c9ad-45a4-8f6e-8000a37602c9"},"vehicle_type_id":"4","last_reported":1741363900,"current_range_meters":12000,"station_id":"ce4bhh92rcd13ifvqfj0","pricing_plan_id":"cebpf4jnsgd1na2vs0mg"},{"bike_id":"943d9b48-5446-41e3-b83c-e3f02be8ebef","system_id":"levelo_inurba_marseille","lat":43.30892,"lon":5.37168,"is_reserved":false,"is_disabled":false,"rental_uris":{"android":"levelo://app?vid=943d9b48-5446-41e3-b83c-e3f02be8ebef","ios":"levelo://app?vid=943d9b48-5446-41e3-b83c-e3f02be8ebef"},"vehicle_type_id":"4","last_reported":1741363900,"current_range_meters":12000,"station_id":"ce4bguh2rcd13ifvqckg","pricing_plan_id":"cebpf4jnsgd1na2vs0mg"},{"bike_id":"5160cb6f-1faf-40e9-afbd-4877daa42a4a","system_id":"levelo_inurba_marseille","lat":43.28735,"lon":5.3608,"is_reserved":false,"is_disabled":false,"rental_uris":{"android":"levelo://app?vid=5160cb6f-1faf-40e9-afbd-4877daa42a4a","ios":"levelo://app?vid=5160cb6f-1faf-40e9-afbd-4877daa42a4a"},"vehicle_type_id":"4","last_reported":1741363900,"current_range_meters":12000,"station_id":"cki0cbj6b192h4jlfktg","pricing_plan_id":"cebpf4jnsgd1na2vs0mg"},{"bike_id":"833fb410-6563-4ea0-8154-9ac8bf69a7e5","system_id":"levelo_inurba_marseille","lat":43.29973,"lon":5.3717,"is_reserved":false,"is_disabled":false,"rental_uris":{"android":"levelo://app?vid=833fb410-6563-4ea0-8154-9ac8bf69a7e5","ios":"levelo://app?vid=833fb410-6563-4ea0-8154-9ac8bf69a7e5"},"vehicle_type_id":"4","last_reported":1741363900,"current_range_meters":12000,"station_id":"ce4bgr92rcd13ifvqc7g","pricing_plan_id":"cebpf4jnsgd1na2vs0mg"},{"bike_id":"9c3f2636-c1e9-4085-8e62-5c37505521d7","system_id":"levelo_inurba_marseille","lat":43.27183,"lon":5.40991,"is_reserved":false,"is_disabled":false,"rental_uris":{"android":"levelo://app?vid=9c3f2636-c1e9-4085-8e62-5c37505521d7","ios":"levelo://app?vid=9c3f2636-c1e9-4085-8e62-5c37505521d7"},"vehicle_type_id":"4","last_reported":1741363900,"current_range_meters":12000,"station_id":"ce4bhl12rcd13ifvqgf0","pricing_plan_id":"cebpf4jnsgd1na2vs0mg"},{"bike_id":"e6472cf0-0ad7-491d-9b42-ba9a1b7210e2","system_id":"levelo_inurba_marseille","lat":43.29887,"lon":5.43658,"is_reserved":false,"is_disabled":false,"rental_uris":{"android":"levelo://app?vid=e6472cf0-0ad7-491d-9b42-ba9a1b7210e2","ios":"levelo://app?vid=e6472cf0-0ad7-491d-9b42-ba9a1b7210e2"},"vehicle_type_id":"4","last_reported":1741363900,"current_range_meters":12400,"station_id":"ce4bhpp2rcd13ifvqhfg","pricing_plan_id":"cebpf4jnsgd1na2vs0mg"},{"bike_id":"16a60255-29a6-4e10-9ee8-c18dfa61b2c7","system_id":"levelo_inurba_marseille","lat":43.28921,"lon":5.38406,"is_reserved":false,"is_disabled":false,"rental_uris":{"android":"levelo://app?vid=16a60255-29a6-4e10-9ee8-c18dfa61b2c7","ios":"levelo://app?vid=16a60255-29a6-4e10-9ee8-c18dfa61b2c7"},"vehicle_type_id":"4","last_reported":1741363900,"current_range_meters":12000,"station_id":"ce4bh612rcd13ifvqe6g","pricing_plan_id":"cebpf4jnsgd1na2vs0mg"},{"bike_id":"97896a03-529e-45c4-a198-85777a321b86","system_id":"levelo_inurba_marseille","lat":43.29006,"lon":5.35603,"is_reserved":false,"is_disabled":false,"rental_uris":{"android":"levelo://app?vid=97896a03-529e-45c4-a198-85777a321b86","ios":"levelo://app?vid=97896a03-529e-45c4-a198-85777a321b86"},"vehicle_type_id":"4","last_reported":1741363900,"current_range_meters":12400,"station_id":"ce4bhb92rcd13ifvqen0","pricing_plan_id":"cebpf4jnsgd1na2vs0mg"},{"bike_id":"aaef4c36-9408-4b19-a4a3-c528fd95c9c1","system_id":"levelo_inurba_marseille","lat":43.3031,"lon":5.39211,"is_reserved":false,"is_disabled":false,"rental_uris":{"android":"levelo://app?vid=aaef4c36-9408-4b19-a4a3-c528fd95c9c1","ios":"levelo://app?vid=aaef4c36-9408-4b19-a4a3-c528fd95c9c1"},"vehicle_type_id":"4","last_reported":1741363900,"current_range_meters":12400,"station_id":"ce4bgkh2rcd13ifvqbk0","pricing_plan_id":"cebpf4jnsgd1na2vs0mg"},{"bike_id":"99bc5722-6509-4c8d-b9ec-d8d4424bd12c","system_id":"levelo_inurba_marseille","lat":43.29906,"lon":5.37464,"is_reserved":false,"is_disabled":false,"rental_uris":{"android":"levelo://app?vid=99bc5722-6509-4c8d-b9ec-d8d4424bd12c","ios":"levelo://app?vid=99bc5722-6509-4c8d-b9ec-d8d4424bd12c"},"vehicle_type_id":"4","last_reported":1741363900,"current_range_meters":12400,"station_id":"ce4bgjh2rcd13ifvqbg0","pricing_plan_id":"cebpf4jnsgd1na2vs0mg"},{"bike_id":"032e9769-63b0-4464-aa31-0f20f3435793","system_id":"levelo_inurba_marseille","lat":43.28705,"lon":5.40003,"is_reserved":false,"is_disabled":false,"rental_uris":{"android":"levelo://app?vid=032e9769-63b0-4464-aa31-0f20f3435793","ios":"levelo://app?vid=032e9769-63b0-4464-aa31-0f20f3435793"},"vehicle_type_id":"4","last_reported":1741363900,"current_range_meters":12400,"station_id":"ce4bho92rcd13ifvqh3g","pricing_plan_id":"cebpf4jnsgd1na2vs0mg"},{"bike_id":"0e674cb4-f37d-4bd5-aaff-7ec953d386c6","system_id":"levelo_inurba_marseille","lat":43.24171,"lon":5.364,"is_reserved":false,"is_disabled":false,"rental_uris":{"android":"levelo://app?vid=0e674cb4-f37d-4bd5-aaff-7ec953d386c6","ios":"levelo://app?vid=0e674cb4-f37d-4bd5-aaff-7ec953d386c6"},"vehicle_type_id":"4","last_reported":1741363900,"current_range_meters":12400,"station_id":"cpo36qri1sfpv3e86is0","pricing_plan_id":"cebpf4jnsgd1na2vs0mg"},{"bike_id":"5c4a25bd-9063-4668-bd29-5c5a968254f1","system_id":"levelo_inurba_marseille","lat":43.28728,"lon":5.352111,"is_reserved":false,"is_disabled":false,"rental_uris":{"android":"levelo://app?vid=5c4a25bd-9063-4668-bd29-5c5a968254f1","ios":"levelo://app?vid=5c4a25bd-9063-4668-bd29-5c5a968254f1"},"vehicle_type_id":"4","last_reported":1741363900,"current_range_meters":12400,"station_id":"ce4bgkh2rcd13ifvqbk0","pricing_plan_id":"cebpf4jnsgd1na2vs0mg"},{"bike_id":"5ae34ec4-e296-4332-b5cd-53c5ad915a0e","system_id":"levelo_inurba_marseille","lat":43.26937,"lon":5.40246,"is_reserved":false,"is_disabled":false,"rental_uris":{"android":"levelo://app?vid=5ae34ec4-e296-4332-b5cd-53c5ad915a0e","ios":"levelo://app?vid=5ae34ec4-e296-4332-b5cd-53c5ad915a0e"},"vehicle_type_id":"4","last_reported":1741363900,"current_range_meters":12800,"station_id":"cjm6bp8fraef2m0cb0m0","pricing_plan_id":"cebpf4jnsgd1na2vs0mg"},{"bike_id":"3c94b931-3649-4c69-bf1c-99f8fd15e284","system_id":"levelo_inurba_marseille","lat":43.32454,"lon":5.36559,"is_reserved":false,"is_disabled":false,"rental_uris":{"android":"levelo://app?vid=3c94b931-3649-4c69-bf1c-99f8fd15e284","ios":"levelo://app?vid=3c94b931-3649-4c69-bf1c-99f8fd15e284"},"vehicle_type_id":"4","last_reported":1741363900,"current_range_meters":12800,"station_id":"ce4bhs12rcd13ifvqhvg","pricing_plan_id":"cebpf4jnsgd1na2vs0mg"},{"bike_id":"93ee5eb5-bc07-4fa4-84ef-fcef721c938d","system_id":"levelo_inurba_marseille","lat":43.28279,"lon":5.35074,"is_reserved":false,"is_disabled":false,"rental_uris":{"android":"levelo://app?vid=93ee5eb5-bc07-4fa4-84ef-fcef721c938d","ios":"levelo://app?vid=93ee5eb5-bc07-4fa4-84ef-fcef721c938d"},"vehicle_type_id":"4","last_reported":1741363900,"current_range_meters":12800,"station_id":"ce4bhbp2rcd13ifvqerg","pricing_plan_id":"cebpf4jnsgd1na2vs0mg"},{"bike_id":"b3fd98d3-61be-4c7b-9ba7-6bc47f1e1145","system_id":"levelo_inurba_marseille","lat":43.31119,"lon":5.37762,"is_reserved":false,"is_disabled":false,"rental_uris":{"android":"levelo://app?vid=b3fd98d3-61be-4c7b-9ba7-6bc47f1e1145","ios":"levelo://app?vid=b3fd98d3-61be-4c7b-9ba7-6bc47f1e1145"},"vehicle_type_id":"4","last_reported":1741363900,"current_range_meters":12800,"station_id":"ce4bgt92rcd13ifvqcg0","pricing_plan_id":"cebpf4jnsgd1na2vs0mg"},{"bike_id":"acaa1862-31d1-4f82-b1b6-219cdc90f1a0","system_id":"levelo_inurba_marseille","lat":43.30888,"lon":5.39651,"is_reserved":false,"is_disabled":false,"rental_uris":{"android":"levelo://app?vid=acaa1862-31d1-4f82-b1b6-219cdc90f1a0","ios":"levelo://app?vid=acaa1862-31d1-4f82-b1b6-219cdc90f1a0"},"vehicle_type_id":"4","last_reported":1741363900,"current_range_meters":12800,"station_id":"ce4bh012rcd13ifvqcv0","pricing_plan_id":"cebpf4jnsgd1na2vs0mg"},{"bike_id":"50feea13-29b0-4002-a663-854a5be8ae9e","system_id":"levelo_inurba_marseille","lat":43.2862,"lon":5.35099,"is_reserved":false,"is_disabled":false,"rental_uris":{"android":"levelo://app?vid=50feea13-29b0-4002-a663-854a5be8ae9e","ios":"levelo://app?vid=50feea13-29b0-4002-a663-854a5be8ae9e"},"vehicle_type_id":"4","last_reported":1741363900,"current_range_meters":13600,"station_id":"ce4bhch2rcd13ifvqeug","pricing_plan_id":"cebpf4jnsgd1na2vs0mg"},{"bike_id":"94e53314-eaac-497a-bded-92a2264f92b6","system_id":"levelo_inurba_marseille","lat":43.28465,"lon":5.359,"is_reserved":false,"is_disabled":false,"rental_uris":{"android":"levelo://app?vid=94e53314-eaac-497a-bded-92a2264f92b6","ios":"levelo://app?vid=94e53314-eaac-497a-bded-92a2264f92b6"},"vehicle_type_id":"4","last_reported":1741363900,"current_range_meters":13600,"station_id":"ce4bhah2rcd13ifvqei0","pricing_plan_id":"cebpf4jnsgd1na2vs0mg"},{"bike_id":"7372ba19-4949-453e-a20c-490c28817add","system_id":"levelo_inurba_marseille","lat":43.337811,"lon":5.374439,"is_reserved":false,"is_disabled":false,"rental_uris":{"android":"levelo://app?vid=7372ba19-4949-453e-a20c-490c28817add","ios":"levelo://app?vid=7372ba19-4949-453e-a20c-490c28817add"},"vehicle_type_id":"4","last_reported":1741363900,"current_range_meters":13600,"station_id":"","pricing_plan_id":"cebpf4jnsgd1na2vs0mg"},{"bike_id":"fd7938d0-6427-4c6d-b71e-646b176b8099","system_id":"levelo_inurba_marseille","lat":43.26545,"lon":5.37328,"is_reserved":false,"is_disabled":false,"rental_uris":{"android":"levelo://app?vid=fd7938d0-6427-4c6d-b71e-646b176b8099","ios":"levelo://app?vid=fd7938d0-6427-4c6d-b71e-646b176b8099"},"vehicle_type_id":"4","last_reported":1741363900,"current_range_meters":13600,"station_id":"ce4bhg12rcd13ifvqf70","pricing_plan_id":"cebpf4jnsgd1na2vs0mg"},{"bike_id":"dac09d9e-9ab6-4c54-8fe2-7fcfc9203869","system_id":"levelo_inurba_marseille","lat":43.26544,"lon":5.373,"is_reserved":false,"is_disabled":true,"rental_uris":{"android":"levelo://app?vid=dac09d9e-9ab6-4c54-8fe2-7fcfc9203869","ios":"levelo://app?vid=dac09d9e-9ab6-4c54-8fe2-7fcfc9203869"},"vehicle_type_id":"4","last_reported":1741363900,"current_range_meters":13600,"station_id":"ce4bhg12rcd13ifvqf70","pricing_plan_id":"cebpf4jnsgd1na2vs0mg"},{"bike_id":"5f01e5b3-b253-4a13-83ea-c08d1e4860b4","system_id":"levelo_inurba_marseille","lat":43.29003,"lon":5.35607,"is_reserved":false,"is_disabled":false,"rental_uris":{"android":"levelo://app?vid=5f01e5b3-b253-4a13-83ea-c08d1e4860b4","ios":"levelo://app?vid=5f01e5b3-b253-4a13-83ea-c08d1e4860b4"},"vehicle_type_id":"4","last_reported":1741363900,"current_range_meters":13600,"station_id":"ce4bhb92rcd13ifvqen0","pricing_plan_id":"cebpf4jnsgd1na2vs0mg"},{"bike_id":"23b54205-8642-4e6e-98c9-3f1fc38e5497","system_id":"levelo_inurba_marseille","lat":43.251072,"lon":5.403251,"is_reserved":false,"is_disabled":false,"rental_uris":{"android":"levelo://app?vid=23b54205-8642-4e6e-98c9-3f1fc38e5497","ios":"levelo://app?vid=23b54205-8642-4e6e-98c9-3f1fc38e5497"},"vehicle_type_id":"4","last_reported":1741363900,"current_range_meters":12800,"station_id":"cjm6bp8fraef2m0cb0m0","pricing_plan_id":"cebpf4jnsgd1na2vs0mg"},{"bike_id":"54954614-0ac5-41d2-8a16-307c508cf4e1","system_id":"levelo_inurba_marseille","lat":43.33019,"lon":5.39035,"is_reserved":false,"is_disabled":false,"rental_uris":{"android":"levelo://app?vid=54954614-0ac5-41d2-8a16-307c508cf4e1","ios":"levelo://app?vid=54954614-0ac5-41d2-8a16-307c508cf4e1"},"vehicle_type_id":"4","last_reported":1741363900,"current_range_meters":13600,"station_id":"ce4bhr92rcd13ifvqhrg","pricing_plan_id":"cebpf4jnsgd1na2vs0mg"},{"bike_id":"6b5ed41a-b047-49ed-b2eb-95dc3f5a273e","system_id":"levelo_inurba_marseille","lat":43.29916,"lon":5.39717,"is_reserved":false,"is_disabled":false,"rental_uris":{"android":"levelo://app?vid=6b5ed41a-b047-49ed-b2eb-95dc3f5a273e","ios":"levelo://app?vid=6b5ed41a-b047-49ed-b2eb-95dc3f5a273e"},"vehicle_type_id":"4","last_reported":1741363900,"current_range_meters":14000,"station_id":"","pricing_plan_id":"cebpf4jnsgd1na2vs0mg"},{"bike_id":"ca56f945-8b7e-44ff-8c48-3e0b263d9492","system_id":"levelo_inurba_marseille","lat":43.30887,"lon":5.36837,"is_reserved":false,"is_disabled":false,"rental_uris":{"android":"levelo://app?vid=ca56f945-8b7e-44ff-8c48-3e0b263d9492","ios":"levelo://app?vid=ca56f945-8b7e-44ff-8c48-3e0b263d9492"},"vehicle_type_id":"4","last_reported":1741363900,"current_range_meters":14000,"station_id":"ce4bgn92rcd13ifvqbvg","pricing_plan_id":"cebpf4jnsgd1na2vs0mg"},{"bike_id":"1d436b25-377a-4510-a512-81a728c83507","system_id":"levelo_inurba_marseille","lat":43.297699,"lon":5.371126,"is_reserved":false,"is_disabled":false,"rental_uris":{"android":"levelo://app?vid=1d436b25-377a-4510-a512-81a728c83507","ios":"levelo://app?vid=1d436b25-377a-4510-a512-81a728c83507"},"vehicle_type_id":"4","last_reported":1741363900,"current_range_meters":14000,"station_id":"ce4bgop2rcd13ifvqc1g","pricing_plan_id":"cebpf4jnsgd1na2vs0mg"},{"bike_id":"e524bcef-a391-41b2-bad2-673eae53ea51","system_id":"levelo_inurba_marseille","lat":43.31714,"lon":5.43707,"is_reserved":false,"is_disabled":false,"rental_uris":{"android":"levelo://app?vid=e524bcef-a391-41b2-bad2-673eae53ea51","ios":"levelo://app?vid=e524bcef-a391-41b2-bad2-673eae53ea51"},"vehicle_type_id":"4","last_reported":1741363900,"current_range_meters":14000,"station_id":"ce4bhp92rcd13ifvqhcg","pricing_plan_id":"cebpf4jnsgd1na2vs0mg"},{"bike_id":"42168c6f-35a5-43f2-8ef8-61a75051262d","system_id":"levelo_inurba_marseille","lat":43.28164,"lon":5.42617,"is_reserved":false,"is_disabled":true,"rental_uris":{"android":"levelo://app?vid=42168c6f-35a5-43f2-8ef8-61a75051262d","ios":"levelo://app?vid=42168c6f-35a5-43f2-8ef8-61a75051262d"},"vehicle_type_id":"4","last_reported":1741363900,"current_range_meters":14000,"station_id":"ce4bhnh2rcd13ifvqgug","pricing_plan_id":"cebpf4jnsgd1na2vs0mg"},{"bike_id":"686611a2-e927-4b19-a15b-c790570fe152","system_id":"levelo_inurba_marseille","lat":43.29254,"lon":5.37623,"is_reserved":false,"is_disabled":false,"rental_uris":{"android":"levelo://app?vid=686611a2-e927-4b19-a15b-c790570fe152","ios":"levelo://app?vid=686611a2-e927-4b19-a15b-c790570fe152"},"vehicle_type_id":"4","last_reported":1741363900,"current_range_meters":14000,"station_id":"ce4bgi12rcd13ifvqb80","pricing_plan_id":"cebpf4jnsgd1na2vs0mg"},{"bike_id":"faee5b0d-235a-4af3-813f-46f6d750e794","system_id":"levelo_inurba_marseille","lat":43.29596,"lon":5.38115,"is_reserved":false,"is_disabled":false,"rental_uris":{"android":"levelo://app?vid=faee5b0d-235a-4af3-813f-46f6d750e794","ios":"levelo://app?vid=faee5b0d-235a-4af3-813f-46f6d750e794"},"vehicle_type_id":"4","last_reported":1741363900,"current_range_meters":14000,"station_id":"ce4bgl12rcd13ifvqbo0","pricing_plan_id":"cebpf4jnsgd1na2vs0mg"},{"bike_id":"380b75d0-7d2b-4c4f-ba5d-66a8937dc32e","system_id":"levelo_inurba_marseille","lat":43.31168,"lon":5.38712,"is_reserved":false,"is_disabled":false,"rental_uris":{"android":"levelo://app?vid=380b75d0-7d2b-4c4f-ba5d-66a8937dc32e","ios":"levelo://app?vid=380b75d0-7d2b-4c4f-ba5d-66a8937dc32e"},"vehicle_type_id":"4","last_reported":1741363900,"current_range_meters":14000,"station_id":"ce4bgv12rcd13ifvqcp0","pricing_plan_id":"cebpf4jnsgd1na2vs0mg"},{"bike_id":"83a9c301-1c56-4583-8fe4-290de074998d","system_id":"levelo_inurba_marseille","lat":43.29523,"lon":5.39045,"is_reserved":false,"is_disabled":false,"rental_uris":{"android":"levelo://app?vid=83a9c301-1c56-4583-8fe4-290de074998d","ios":"levelo://app?vid=83a9c301-1c56-4583-8fe4-290de074998d"},"vehicle_type_id":"4","last_reported":1741363900,"current_range_meters":14000,"station_id":"ce4bh3p2rcd13ifvqdp0","pricing_plan_id":"cebpf4jnsgd1na2vs0mg"},{"bike_id":"0370dbce-1fc1-405f-9c03-ff3b5b08fa1a","system_id":"levelo_inurba_marseille","lat":43.28441,"lon":5.39203,"is_reserved":false,"is_disabled":false,"rental_uris":{"android":"levelo://app?vid=0370dbce-1fc1-405f-9c03-ff3b5b08fa1a","ios":"levelo://app?vid=0370dbce-1fc1-405f-9c03-ff3b5b08fa1a"},"vehicle_type_id":"4","last_reported":1741363900,"current_range_meters":14400,"station_id":"ce4bhoh2rcd13ifvqh5g","pricing_plan_id":"cebpf4jnsgd1na2vs0mg"},{"bike_id":"c7c9ecb8-77f9-4bcf-bc66-75fd38f25601","system_id":"levelo_inurba_marseille","lat":43.25724,"lon":5.41121,"is_reserved":false,"is_disabled":false,"rental_uris":{"android":"levelo://app?vid=c7c9ecb8-77f9-4bcf-bc66-75fd38f25601","ios":"levelo://app?vid=c7c9ecb8-77f9-4bcf-bc66-75fd38f25601"},"vehicle_type_id":"4","last_reported":1741363900,"current_range_meters":14400,"station_id":"ce4bhkp2rcd13ifvqgd0","pricing_plan_id":"cebpf4jnsgd1na2vs0mg"},{"bike_id":"117576de-ea7a-4e20-89ce-191a1398e64d","system_id":"levelo_inurba_marseille","lat":43.23189,"lon":5.39986,"is_reserved":false,"is_disabled":false,"rental_uris":{"android":"levelo://app?vid=117576de-ea7a-4e20-89ce-191a1398e64d","ios":"levelo://app?vid=117576de-ea7a-4e20-89ce-191a1398e64d"},"vehicle_type_id":"4","last_reported":1741363900,"current_range_meters":14400,"station_id":"ce4bhn12rcd13ifvqgqg","pricing_plan_id":"cebpf4jnsgd1na2vs0mg"},{"bike_id":"7e60b09d-959c-4d55-a820-f3270555724f","system_id":"levelo_inurba_marseille","lat":43.28615,"lon":5.35108,"is_reserved":false,"is_disabled":false,"rental_uris":{"android":"levelo://app?vid=7e60b09d-959c-4d55-a820-f3270555724f","ios":"levelo://app?vid=7e60b09d-959c-4d55-a820-f3270555724f"},"vehicle_type_id":"4","last_reported":1741363900,"current_range_meters":14400,"station_id":"ce4bhch2rcd13ifvqeug","pricing_plan_id":"cebpf4jnsgd1na2vs0mg"},{"bike_id":"db1c7047-7b9f-4b56-96ef-3b289cb537df","system_id":"levelo_inurba_marseille","lat":43.308244,"lon":5.374034,"is_reserved":false,"is_disabled":false,"rental_uris":{"android":"levelo://app?vid=db1c7047-7b9f-4b56-96ef-3b289cb537df","ios":"levelo://app?vid=db1c7047-7b9f-4b56-96ef-3b289cb537df"},"vehicle_type_id":"4","last_reported":1741363900,"current_range_meters":14400,"station_id":"","pricing_plan_id":"cebpf4jnsgd1na2vs0mg"},{"bike_id":"d7634fd4-db5a-42cb-9352-5e0673753cdd","system_id":"levelo_inurba_marseille","lat":43.28708,"lon":5.37382,"is_reserved":false,"is_disabled":false,"rental_uris":{"android":"levelo://app?vid=d7634fd4-db5a-42cb-9352-5e0673753cdd","ios":"levelo://app?vid=d7634fd4-db5a-42cb-9352-5e0673753cdd"},"vehicle_type_id":"4","last_reported":1741363900,"current_range_meters":14400,"station_id":"ce4bh3p2rcd13ifvqdq0","pricing_plan_id":"cebpf4jnsgd1na2vs0mg"},{"bike_id":"95482dba-5def-407c-9038-ef1c259c626d","system_id":"levelo_inurba_marseille","lat":43.28031,"lon":5.36949,"is_reserved":false,"is_disabled":false,"rental_uris":{"android":"levelo://app?vid=95482dba-5def-407c-9038-ef1c259c626d","ios":"levelo://app?vid=95482dba-5def-407c-9038-ef1c259c626d"},"vehicle_type_id":"4","last_reported":1741363900,"current_range_meters":16400,"station_id":"ce4bha12rcd13ifvqef0","pricing_plan_id":"cebpf4jnsgd1na2vs0mg"},{"bike_id":"66186287-2cb9-4ac4-8278-2f590c4536ea","system_id":"levelo_inurba_marseille","lat":43.33033,"lon":5.39038,"is_reserved":false,"is_disabled":false,"rental_uris":{"android":"levelo://app?vid=66186287-2cb9-4ac4-8278-2f590c4536ea","ios":"levelo://app?vid=66186287-2cb9-4ac4-8278-2f590c4536ea"},"vehicle_type_id":"4","last_reported":1741363900,"current_range_meters":14400,"station_id":"ce4bhr92rcd13ifvqhrg","pricing_plan_id":"cebpf4jnsgd1na2vs0mg"},{"bike_id":"35fafc3b-a85b-42a0-b92f-b944aa28ac1b","system_id":"levelo_inurba_marseille","lat":43.24662,"lon":5.38157,"is_reserved":false,"is_disabled":false,"rental_uris":{"android":"levelo://app?vid=35fafc3b-a85b-42a0-b92f-b944aa28ac1b","ios":"levelo://app?vid=35fafc3b-a85b-42a0-b92f-b944aa28ac1b"},"vehicle_type_id":"4","last_reported":1741363900,"current_range_meters":14800,"station_id":"ce4bhih2rcd13ifvqfr0","pricing_plan_id":"cebpf4jnsgd1na2vs0mg"},{"bike_id":"e7b8b524-8ddd-49cd-ba2e-909c5c611ff6","system_id":"levelo_inurba_marseille","lat":43.29281,"lon":5.40121,"is_reserved":false,"is_disabled":false,"rental_uris":{"android":"levelo://app?vid=e7b8b524-8ddd-49cd-ba2e-909c5c611ff6","ios":"levelo://app?vid=e7b8b524-8ddd-49cd-ba2e-909c5c611ff6"},"vehicle_type_id":"4","last_reported":1741363900,"current_range_meters":14800,"station_id":"ce4bh312rcd13ifvqdk0","pricing_plan_id":"cebpf4jnsgd1na2vs0mg"},{"bike_id":"9b8789be-c150-4679-b8ba-e1d5e4639da2","system_id":"levelo_inurba_marseille","lat":43.25699,"lon":5.4105,"is_reserved":false,"is_disabled":false,"rental_uris":{"android":"levelo://app?vid=9b8789be-c150-4679-b8ba-e1d5e4639da2","ios":"levelo://app?vid=9b8789be-c150-4679-b8ba-e1d5e4639da2"},"vehicle_type_id":"4","last_reported":1741363900,"current_range_meters":14800,"station_id":"ce4bhkp2rcd13ifvqgd0","pricing_plan_id":"cebpf4jnsgd1na2vs0mg"},{"bike_id":"fdbfca23-1719-4f76-a65d-3befe125dd16","system_id":"levelo_inurba_marseille","lat":43.29419,"lon":5.38637,"is_reserved":false,"is_disabled":false,"rental_uris":{"android":"levelo://app?vid=fdbfca23-1719-4f76-a65d-3befe125dd16","ios":"levelo://app?vid=fdbfca23-1719-4f76-a65d-3befe125dd16"},"vehicle_type_id":"4","last_reported":1741363900,"current_range_meters":14800,"station_id":"ce4bh2h2rcd13ifvqdh0","pricing_plan_id":"cebpf4jnsgd1na2vs0mg"},{"bike_id":"e2cd6983-8cde-465d-98ed-f029afbff2c4","system_id":"levelo_inurba_marseille","lat":43.25591,"lon":5.38229,"is_reserved":false,"is_disabled":false,"rental_uris":{"android":"levelo://app?vid=e2cd6983-8cde-465d-98ed-f029afbff2c4","ios":"levelo://app?vid=e2cd6983-8cde-465d-98ed-f029afbff2c4"},"vehicle_type_id":"4","last_reported":1741363900,"current_range_meters":14800,"station_id":"ce4bhih2rcd13ifvqfs0","pricing_plan_id":"cebpf4jnsgd1na2vs0mg"},{"bike_id":"d15888b3-84cd-42f5-8973-07174fa936f9","system_id":"levelo_inurba_marseille","lat":43.3149,"lon":5.37388,"is_reserved":false,"is_disabled":false,"rental_uris":{"android":"levelo://app?vid=d15888b3-84cd-42f5-8973-07174fa936f9","ios":"levelo://app?vid=d15888b3-84cd-42f5-8973-07174fa936f9"},"vehicle_type_id":"4","last_reported":1741363900,"current_range_meters":15200,"station_id":"","pricing_plan_id":"cebpf4jnsgd1na2vs0mg"},{"bike_id":"6782b118-bf7c-4d3e-863a-0e1ba9b4cd3b","system_id":"levelo_inurba_marseille","lat":43.31088,"lon":5.42425,"is_reserved":false,"is_disabled":false,"rental_uris":{"android":"levelo://app?vid=6782b118-bf7c-4d3e-863a-0e1ba9b4cd3b","ios":"levelo://app?vid=6782b118-bf7c-4d3e-863a-0e1ba9b4cd3b"},"vehicle_type_id":"4","last_reported":1741363900,"current_range_meters":15200,"station_id":"ce4bhp92rcd13ifvqhag","pricing_plan_id":"cebpf4jnsgd1na2vs0mg"},{"bike_id":"25db000e-d19c-4398-ae97-e9e1deee0744","system_id":"levelo_inurba_marseille","lat":43.29747,"lon":5.37116,"is_reserved":false,"is_disabled":false,"rental_uris":{"android":"levelo://app?vid=25db000e-d19c-4398-ae97-e9e1deee0744","ios":"levelo://app?vid=25db000e-d19c-4398-ae97-e9e1deee0744"},"vehicle_type_id":"4","last_reported":1741363900,"current_range_meters":16000,"station_id":"ce4bgop2rcd13ifvqc1g","pricing_plan_id":"cebpf4jnsgd1na2vs0mg"},{"bike_id":"19118caa-c0dd-4f48-99e0-5282b05076dd","system_id":"levelo_inurba_marseille","lat":43.29569,"lon":5.37508,"is_reserved":false,"is_disabled":false,"rental_uris":{"android":"levelo://app?vid=19118caa-c0dd-4f48-99e0-5282b05076dd","ios":"levelo://app?vid=19118caa-c0dd-4f48-99e0-5282b05076dd"},"vehicle_type_id":"4","last_reported":1741363900,"current_range_meters":16000,"station_id":"ce4bgh92rcd13ifvqb50","pricing_plan_id":"cebpf4jnsgd1na2vs0mg"},{"bike_id":"f44efeed-8acc-47b2-8bae-9ae0326e8d94","system_id":"levelo_inurba_marseille","lat":43.31517,"lon":5.37289,"is_reserved":false,"is_disabled":false,"rental_uris":{"android":"levelo://app?vid=f44efeed-8acc-47b2-8bae-9ae0326e8d94","ios":"levelo://app?vid=f44efeed-8acc-47b2-8bae-9ae0326e8d94"},"vehicle_type_id":"4","last_reported":1741363900,"current_range_meters":16000,"station_id":"ce4bgt12rcd13ifvqcd0","pricing_plan_id":"cebpf4jnsgd1na2vs0mg"},{"bike_id":"f44b7643-da48-4704-a15c-30e1b46c7cb3","system_id":"levelo_inurba_marseille","lat":43.3018,"lon":5.36634,"is_reserved":false,"is_disabled":false,"rental_uris":{"android":"levelo://app?vid=f44b7643-da48-4704-a15c-30e1b46c7cb3","ios":"levelo://app?vid=f44b7643-da48-4704-a15c-30e1b46c7cb3"},"vehicle_type_id":"4","last_reported":1741363900,"current_range_meters":16400,"station_id":"ce4bgrh2rcd13ifvqc8g","pricing_plan_id":"cebpf4jnsgd1na2vs0mg"},{"bike_id":"b2c2514d-58df-4080-9acc-0a3325c87525","system_id":"levelo_inurba_marseille","lat":43.323628,"lon":5.367585,"is_reserved":false,"is_disabled":false,"rental_uris":{"android":"levelo://app?vid=b2c2514d-58df-4080-9acc-0a3325c87525","ios":"levelo://app?vid=b2c2514d-58df-4080-9acc-0a3325c87525"},"vehicle_type_id":"4","last_reported":1741363900,"current_range_meters":16400,"station_id":"ce4bhsh2rcd13ifvqi2g","pricing_plan_id":"cebpf4jnsgd1na2vs0mg"},{"bike_id":"644e0161-f871-4784-b990-95d94e174e99","system_id":"levelo_inurba_marseille","lat":43.28284,"lon":5.35078,"is_reserved":false,"is_disabled":false,"rental_uris":{"android":"levelo://app?vid=644e0161-f871-4784-b990-95d94e174e99","ios":"levelo://app?vid=644e0161-f871-4784-b990-95d94e174e99"},"vehicle_type_id":"4","last_reported":1741363900,"current_range_meters":16400,"station_id":"ce4bhbp2rcd13ifvqerg","pricing_plan_id":"cebpf4jnsgd1na2vs0mg"},{"bike_id":"b961a577-4fb2-460d-8027-becebd773a61","system_id":"levelo_inurba_marseille","lat":43.28264,"lon":5.35067,"is_reserved":false,"is_disabled":false,"rental_uris":{"android":"levelo://app?vid=b961a577-4fb2-460d-8027-becebd773a61","ios":"levelo://app?vid=b961a577-4fb2-460d-8027-becebd773a61"},"vehicle_type_id":"4","last_reported":1741363900,"current_range_meters":16400,"station_id":"ce4bhbp2rcd13ifvqerg","pricing_plan_id":"cebpf4jnsgd1na2vs0mg"},{"bike_id":"388ea826-f5fa-4632-a530-45d13cc0a769","system_id":"levelo_inurba_marseille","lat":43.23194,"lon":5.39986,"is_reserved":false,"is_disabled":false,"rental_uris":{"android":"levelo://app?vid=388ea826-f5fa-4632-a530-45d13cc0a769","ios":"levelo://app?vid=388ea826-f5fa-4632-a530-45d13cc0a769"},"vehicle_type_id":"4","last_reported":1741363900,"current_range_meters":16400,"station_id":"ce4bhn12rcd13ifvqgqg","pricing_plan_id":"cebpf4jnsgd1na2vs0mg"},{"bike_id":"9f489e96-08fa-42c0-a795-f85282e22beb","system_id":"levelo_inurba_marseille","lat":43.23179,"lon":5.39987,"is_reserved":false,"is_disabled":false,"rental_uris":{"android":"levelo://app?vid=9f489e96-08fa-42c0-a795-f85282e22beb","ios":"levelo://app?vid=9f489e96-08fa-42c0-a795-f85282e22beb"},"vehicle_type_id":"4","last_reported":1741363900,"current_range_meters":16400,"station_id":"ce4bhn12rcd13ifvqgqg","pricing_plan_id":"cebpf4jnsgd1na2vs0mg"},{"bike_id":"a8c09f92-1535-487a-85c8-b62f09901bf8","system_id":"levelo_inurba_marseille","lat":43.30165,"lon":5.38076,"is_reserved":false,"is_disabled":false,"rental_uris":{"android":"levelo://app?vid=a8c09f92-1535-487a-85c8-b62f09901bf8","ios":"levelo://app?vid=a8c09f92-1535-487a-85c8-b62f09901bf8"},"vehicle_type_id":"4","last_reported":1741363900,"current_range_meters":16400,"station_id":"ce4bgjp2rcd13ifvqbh0","pricing_plan_id":"cebpf4jnsgd1na2vs0mg"},{"bike_id":"9b5da81f-1fc2-45d0-b076-8c8819f66084","system_id":"levelo_inurba_marseille","lat":43.28705,"lon":5.37391,"is_reserved":false,"is_disabled":false,"rental_uris":{"android":"levelo://app?vid=9b5da81f-1fc2-45d0-b076-8c8819f66084","ios":"levelo://app?vid=9b5da81f-1fc2-45d0-b076-8c8819f66084"},"vehicle_type_id":"4","last_reported":1741363900,"current_range_meters":16400,"station_id":"ce4bh3p2rcd13ifvqdq0","pricing_plan_id":"cebpf4jnsgd1na2vs0mg"},{"bike_id":"c050721b-9fa5-47cb-a181-77ccc46a0e4c","system_id":"levelo_inurba_marseille","lat":43.23181,"lon":5.39991,"is_reserved":false,"is_disabled":false,"rental_uris":{"android":"levelo://app?vid=c050721b-9fa5-47cb-a181-77ccc46a0e4c","ios":"levelo://app?vid=c050721b-9fa5-47cb-a181-77ccc46a0e4c"},"vehicle_type_id":"4","last_reported":1741363900,"current_range_meters":16400,"station_id":"ce4bhn12rcd13ifvqgqg","pricing_plan_id":"cebpf4jnsgd1na2vs0mg"},{"bike_id":"1491348d-0227-4b1d-a694-f0b9f3fe652a","system_id":"levelo_inurba_marseille","lat":43.30216,"lon":5.39462,"is_reserved":false,"is_disabled":false,"rental_uris":{"android":"levelo://app?vid=1491348d-0227-4b1d-a694-f0b9f3fe652a","ios":"levelo://app?vid=1491348d-0227-4b1d-a694-f0b9f3fe652a"},"vehicle_type_id":"4","last_reported":1741363900,"current_range_meters":16400,"station_id":"ce4bh0p2rcd13ifvqd70","pricing_plan_id":"cebpf4jnsgd1na2vs0mg"},{"bike_id":"efdf5618-5a1b-4643-8ad8-f3fa4a054efa","system_id":"levelo_inurba_marseille","lat":43.30217,"lon":5.39466,"is_reserved":false,"is_disabled":false,"rental_uris":{"android":"levelo://app?vid=efdf5618-5a1b-4643-8ad8-f3fa4a054efa","ios":"levelo://app?vid=efdf5618-5a1b-4643-8ad8-f3fa4a054efa"},"vehicle_type_id":"4","last_reported":1741363900,"current_range_meters":16800,"station_id":"ce4bh0p2rcd13ifvqd70","pricing_plan_id":"cebpf4jnsgd1na2vs0mg"},{"bike_id":"6c972548-8d32-4d6c-a79b-ffabbfe24be7","system_id":"levelo_inurba_marseille","lat":43.30863,"lon":5.39622,"is_reserved":false,"is_disabled":false,"rental_uris":{"android":"levelo://app?vid=6c972548-8d32-4d6c-a79b-ffabbfe24be7","ios":"levelo://app?vid=6c972548-8d32-4d6c-a79b-ffabbfe24be7"},"vehicle_type_id":"4","last_reported":1741363900,"current_range_meters":16800,"station_id":"","pricing_plan_id":"cebpf4jnsgd1na2vs0mg"},{"bike_id":"fbf804d7-6c73-46e9-abdb-acb74deb6dc4","system_id":"levelo_inurba_marseille","lat":43.23087,"lon":5.35487,"is_reserved":false,"is_disabled":false,"rental_uris":{"android":"levelo://app?vid=fbf804d7-6c73-46e9-abdb-acb74deb6dc4","ios":"levelo://app?vid=fbf804d7-6c73-46e9-abdb-acb74deb6dc4"},"vehicle_type_id":"4","last_reported":1741363900,"current_range_meters":16800,"station_id":"cpo3342slgdg3j2ifvpg","pricing_plan_id":"cebpf4jnsgd1na2vs0mg"},{"bike_id":"c33a8483-45d6-48b0-93b0-066c45377e7f","system_id":"levelo_inurba_marseille","lat":43.26212,"lon":5.37442,"is_reserved":false,"is_disabled":false,"rental_uris":{"android":"levelo://app?vid=c33a8483-45d6-48b0-93b0-066c45377e7f","ios":"levelo://app?vid=c33a8483-45d6-48b0-93b0-066c45377e7f"},"vehicle_type_id":"4","last_reported":1741363900,"current_range_meters":16800,"station_id":"ce4bhgp2rcd13ifvqfc0","pricing_plan_id":"cebpf4jnsgd1na2vs0mg"},{"bike_id":"15c9b495-b10f-4294-ad4e-0b6c5e2169d5","system_id":"levelo_inurba_marseille","lat":43.29228,"lon":5.36281,"is_reserved":false,"is_disabled":false,"rental_uris":{"android":"levelo://app?vid=15c9b495-b10f-4294-ad4e-0b6c5e2169d5","ios":"levelo://app?vid=15c9b495-b10f-4294-ad4e-0b6c5e2169d5"},"vehicle_type_id":"4","last_reported":1741363900,"current_range_meters":16400,"station_id":"ce4bha92rcd13ifvqeg0","pricing_plan_id":"cebpf4jnsgd1na2vs0mg"},{"bike_id":"7dac107e-d49e-474d-923c-dc817225f2dc","system_id":"levelo_inurba_marseille","lat":43.28922,"lon":5.384,"is_reserved":false,"is_disabled":false,"rental_uris":{"android":"levelo://app?vid=7dac107e-d49e-474d-923c-dc817225f2dc","ios":"levelo://app?vid=7dac107e-d49e-474d-923c-dc817225f2dc"},"vehicle_type_id":"4","last_reported":1741363900,"current_range_meters":16400,"station_id":"ce4bh612rcd13ifvqe6g","pricing_plan_id":"cebpf4jnsgd1na2vs0mg"},{"bike_id":"a9ca970c-48f3-4a15-9d9a-24ff27987db0","system_id":"levelo_inurba_marseille","lat":43.30594,"lon":5.37218,"is_reserved":false,"is_disabled":false,"rental_uris":{"android":"levelo://app?vid=a9ca970c-48f3-4a15-9d9a-24ff27987db0","ios":"levelo://app?vid=a9ca970c-48f3-4a15-9d9a-24ff27987db0"},"vehicle_type_id":"4","last_reported":1741363900,"current_range_meters":16800,"station_id":"ce4bgqh2rcd13ifvqc4g","pricing_plan_id":"cebpf4jnsgd1na2vs0mg"},{"bike_id":"1ff664cb-f378-4a6c-b3c1-b47ee25a2174","system_id":"levelo_inurba_marseille","lat":43.32365,"lon":5.38875,"is_reserved":false,"is_disabled":false,"rental_uris":{"android":"levelo://app?vid=1ff664cb-f378-4a6c-b3c1-b47ee25a2174","ios":"levelo://app?vid=1ff664cb-f378-4a6c-b3c1-b47ee25a2174"},"vehicle_type_id":"4","last_reported":1741363900,"current_range_meters":16800,"station_id":"ce4bhqp2rcd13ifvqhog","pricing_plan_id":"cebpf4jnsgd1na2vs0mg"},{"bike_id":"9ae481b0-fae2-4044-a516-044e80aacb99","system_id":"levelo_inurba_marseille","lat":43.29785,"lon":5.38128,"is_reserved":false,"is_disabled":false,"rental_uris":{"android":"levelo://app?vid=9ae481b0-fae2-4044-a516-044e80aacb99","ios":"levelo://app?vid=9ae481b0-fae2-4044-a516-044e80aacb99"},"vehicle_type_id":"4","last_reported":1741363900,"current_range_meters":16400,"station_id":"ce4bgip2rcd13ifvqbb0","pricing_plan_id":"cebpf4jnsgd1na2vs0mg"},{"bike_id":"c1c412b3-ae23-45ab-894a-fe5b494cc9e6","system_id":"levelo_inurba_marseille","lat":43.23187,"lon":5.35558,"is_reserved":false,"is_disabled":false,"rental_uris":{"android":"levelo://app?vid=c1c412b3-ae23-45ab-894a-fe5b494cc9e6","ios":"levelo://app?vid=c1c412b3-ae23-45ab-894a-fe5b494cc9e6"},"vehicle_type_id":"4","last_reported":1741363900,"current_range_meters":16800,"station_id":"ce4bhu92rcd13ifvqi70","pricing_plan_id":"cebpf4jnsgd1na2vs0mg"},{"bike_id":"6b2f2b30-55d7-41ec-a65a-eed15df8cd83","system_id":"levelo_inurba_marseille","lat":43.29603,"lon":5.3811,"is_reserved":false,"is_disabled":false,"rental_uris":{"android":"levelo://app?vid=6b2f2b30-55d7-41ec-a65a-eed15df8cd83","ios":"levelo://app?vid=6b2f2b30-55d7-41ec-a65a-eed15df8cd83"},"vehicle_type_id":"4","last_reported":1741363900,"current_range_meters":17200,"station_id":"ce4bgl12rcd13ifvqbo0","pricing_plan_id":"cebpf4jnsgd1na2vs0mg"},{"bike_id":"cbc52a4d-b1a3-4bdf-8ed7-d851e16ba8f2","system_id":"levelo_inurba_marseille","lat":43.27663,"lon":5.38913,"is_reserved":false,"is_disabled":true,"rental_uris":{"android":"levelo://app?vid=cbc52a4d-b1a3-4bdf-8ed7-d851e16ba8f2","ios":"levelo://app?vid=cbc52a4d-b1a3-4bdf-8ed7-d851e16ba8f2"},"vehicle_type_id":"4","last_reported":1741363900,"current_range_meters":17200,"station_id":"ce4bhi12rcd13ifvqfo0","pricing_plan_id":"cebpf4jnsgd1na2vs0mg"},{"bike_id":"eb2ba4ac-0ecc-4715-acbb-946420d2129d","system_id":"levelo_inurba_marseille","lat":43.2791,"lon":5.3542,"is_reserved":false,"is_disabled":false,"rental_uris":{"android":"levelo://app?vid=eb2ba4ac-0ecc-4715-acbb-946420d2129d","ios":"levelo://app?vid=eb2ba4ac-0ecc-4715-acbb-946420d2129d"},"vehicle_type_id":"4","last_reported":1741363900,"current_range_meters":17200,"station_id":"","pricing_plan_id":"cebpf4jnsgd1na2vs0mg"},{"bike_id":"74625157-3078-4b66-b80d-40234ec8f95e","system_id":"levelo_inurba_marseille","lat":43.29572,"lon":5.39974,"is_reserved":false,"is_disabled":false,"rental_uris":{"android":"levelo://app?vid=74625157-3078-4b66-b80d-40234ec8f95e","ios":"levelo://app?vid=74625157-3078-4b66-b80d-40234ec8f95e"},"vehicle_type_id":"4","last_reported":1741363900,"current_range_meters":16800,"station_id":"ce4bh312rcd13ifvqdj0","pricing_plan_id":"cebpf4jnsgd1na2vs0mg"},{"bike_id":"5176542c-f513-42dd-a3fc-645338932e56","system_id":"levelo_inurba_marseille","lat":43.28446,"lon":5.384663,"is_reserved":false,"is_disabled":false,"rental_uris":{"android":"levelo://app?vid=5176542c-f513-42dd-a3fc-645338932e56","ios":"levelo://app?vid=5176542c-f513-42dd-a3fc-645338932e56"},"vehicle_type_id":"4","last_reported":1741363900,"current_range_meters":17200,"station_id":"ce4bhf92rcd13ifvqf50","pricing_plan_id":"cebpf4jnsgd1na2vs0mg"},{"bike_id":"85bc4f34-4ba6-4708-bcb2-38da0f6d5955","system_id":"levelo_inurba_marseille","lat":43.28915,"lon":5.38401,"is_reserved":false,"is_disabled":false,"rental_uris":{"android":"levelo://app?vid=85bc4f34-4ba6-4708-bcb2-38da0f6d5955","ios":"levelo://app?vid=85bc4f34-4ba6-4708-bcb2-38da0f6d5955"},"vehicle_type_id":"4","last_reported":1741363900,"current_range_meters":17200,"station_id":"ce4bh612rcd13ifvqe6g","pricing_plan_id":"cebpf4jnsgd1na2vs0mg"},{"bike_id":"09c3463b-4b38-4307-9f2a-119aaf770843","system_id":"levelo_inurba_marseille","lat":43.31122,"lon":5.37785,"is_reserved":false,"is_disabled":false,"rental_uris":{"android":"levelo://app?vid=09c3463b-4b38-4307-9f2a-119aaf770843","ios":"levelo://app?vid=09c3463b-4b38-4307-9f2a-119aaf770843"},"vehicle_type_id":"4","last_reported":1741363900,"current_range_meters":17200,"station_id":"ce4bgt92rcd13ifvqcg0","pricing_plan_id":"cebpf4jnsgd1na2vs0mg"},{"bike_id":"568bfbbd-c86a-449f-9035-a07245a96fe8","system_id":"levelo_inurba_marseille","lat":43.24668,"lon":5.38163,"is_reserved":false,"is_disabled":false,"rental_uris":{"android":"levelo://app?vid=568bfbbd-c86a-449f-9035-a07245a96fe8","ios":"levelo://app?vid=568bfbbd-c86a-449f-9035-a07245a96fe8"},"vehicle_type_id":"4","last_reported":1741363900,"current_range_meters":17200,"station_id":"ce4bhih2rcd13ifvqfr0","pricing_plan_id":"cebpf4jnsgd1na2vs0mg"},{"bike_id":"9bf2778f-b0e3-4810-9875-df712790e8e3","system_id":"levelo_inurba_marseille","lat":43.29029,"lon":5.38626,"is_reserved":false,"is_disabled":false,"rental_uris":{"android":"levelo://app?vid=9bf2778f-b0e3-4810-9875-df712790e8e3","ios":"levelo://app?vid=9bf2778f-b0e3-4810-9875-df712790e8e3"},"vehicle_type_id":"4","last_reported":1741363900,"current_range_meters":17200,"station_id":"ce4bh4p2rcd13ifvqe0g","pricing_plan_id":"cebpf4jnsgd1na2vs0mg"},{"bike_id":"26bb0b54-3997-458c-9664-0e3dbee590f6","system_id":"levelo_inurba_marseille","lat":43.30537,"lon":5.36522,"is_reserved":false,"is_disabled":false,"rental_uris":{"android":"levelo://app?vid=26bb0b54-3997-458c-9664-0e3dbee590f6","ios":"levelo://app?vid=26bb0b54-3997-458c-9664-0e3dbee590f6"},"vehicle_type_id":"4","last_reported":1741363900,"current_range_meters":17200,"station_id":"ce4bgs12rcd13ifvqcag","pricing_plan_id":"cebpf4jnsgd1na2vs0mg"},{"bike_id":"acec10b3-2efb-460c-ac0e-5b5e6c8b291c","system_id":"levelo_inurba_marseille","lat":43.30538,"lon":5.36534,"is_reserved":false,"is_disabled":false,"rental_uris":{"android":"levelo://app?vid=acec10b3-2efb-460c-ac0e-5b5e6c8b291c","ios":"levelo://app?vid=acec10b3-2efb-460c-ac0e-5b5e6c8b291c"},"vehicle_type_id":"4","last_reported":1741363900,"current_range_meters":17200,"station_id":"ce4bgs12rcd13ifvqcag","pricing_plan_id":"cebpf4jnsgd1na2vs0mg"},{"bike_id":"c8db91a9-0591-4e2c-918e-99a9db29c968","system_id":"levelo_inurba_marseille","lat":43.289278,"lon":5.366398,"is_reserved":false,"is_disabled":false,"rental_uris":{"android":"levelo://app?vid=c8db91a9-0591-4e2c-918e-99a9db29c968","ios":"levelo://app?vid=c8db91a9-0591-4e2c-918e-99a9db29c968"},"vehicle_type_id":"4","last_reported":1741363900,"current_range_meters":16800,"station_id":"ce4bhap2rcd13ifvqek0","pricing_plan_id":"cebpf4jnsgd1na2vs0mg"},{"bike_id":"21a97c5e-42a1-42dc-8f0b-c09a56ace1b8","system_id":"levelo_inurba_marseille","lat":43.30384,"lon":5.42485,"is_reserved":false,"is_disabled":true,"rental_uris":{"android":"levelo://app?vid=21a97c5e-42a1-42dc-8f0b-c09a56ace1b8","ios":"levelo://app?vid=21a97c5e-42a1-42dc-8f0b-c09a56ace1b8"},"vehicle_type_id":"4","last_reported":1741363900,"current_range_meters":17200,"station_id":"","pricing_plan_id":"cebpf4jnsgd1na2vs0mg"},{"bike_id":"d88f2dd6-847b-4fe7-bb0a-70e06c66d756","system_id":"levelo_inurba_marseille","lat":43.28702,"lon":5.3738,"is_reserved":false,"is_disabled":false,"rental_uris":{"android":"levelo://app?vid=d88f2dd6-847b-4fe7-bb0a-70e06c66d756","ios":"levelo://app?vid=d88f2dd6-847b-4fe7-bb0a-70e06c66d756"},"vehicle_type_id":"4","last_reported":1741363900,"current_range_meters":17200,"station_id":"ce4bh3p2rcd13ifvqdq0","pricing_plan_id":"cebpf4jnsgd1na2vs0mg"},{"bike_id":"7c5e082d-6985-4e9c-9dfc-68e7d5e6542d","system_id":"levelo_inurba_marseille","lat":43.29718,"lon":5.366,"is_reserved":false,"is_disabled":false,"rental_uris":{"android":"levelo://app?vid=7c5e082d-6985-4e9c-9dfc-68e7d5e6542d","ios":"levelo://app?vid=7c5e082d-6985-4e9c-9dfc-68e7d5e6542d"},"vehicle_type_id":"4","last_reported":1741363900,"current_range_meters":17200,"station_id":"ce4bgn12rcd13ifvqbt0","pricing_plan_id":"cebpf4jnsgd1na2vs0mg"},{"bike_id":"4eeb472e-ab63-443b-a989-e78459516914","system_id":"levelo_inurba_marseille","lat":43.28618,"lon":5.35117,"is_reserved":false,"is_disabled":false,"rental_uris":{"android":"levelo://app?vid=4eeb472e-ab63-443b-a989-e78459516914","ios":"levelo://app?vid=4eeb472e-ab63-443b-a989-e78459516914"},"vehicle_type_id":"4","last_reported":1741363900,"current_range_meters":17600,"station_id":"ce4bhch2rcd13ifvqeug","pricing_plan_id":"cebpf4jnsgd1na2vs0mg"},{"bike_id":"9ad5802d-7dba-4b65-b21d-4e8eb8da3b61","system_id":"levelo_inurba_marseille","lat":43.30546,"lon":5.36546,"is_reserved":false,"is_disabled":false,"rental_uris":{"android":"levelo://app?vid=9ad5802d-7dba-4b65-b21d-4e8eb8da3b61","ios":"levelo://app?vid=9ad5802d-7dba-4b65-b21d-4e8eb8da3b61"},"vehicle_type_id":"4","last_reported":1741363900,"current_range_meters":17600,"station_id":"ce4bgs12rcd13ifvqcag","pricing_plan_id":"cebpf4jnsgd1na2vs0mg"},{"bike_id":"9d2ef195-a5f0-4f14-98bd-98aff7026e90","system_id":"levelo_inurba_marseille","lat":43.25871,"lon":5.39897,"is_reserved":false,"is_disabled":false,"rental_uris":{"android":"levelo://app?vid=9d2ef195-a5f0-4f14-98bd-98aff7026e90","ios":"levelo://app?vid=9d2ef195-a5f0-4f14-98bd-98aff7026e90"},"vehicle_type_id":"4","last_reported":1741363900,"current_range_meters":17200,"station_id":"ce4bhl92rcd13ifvqghg","pricing_plan_id":"cebpf4jnsgd1na2vs0mg"},{"bike_id":"97bbf4c2-4775-4db6-994e-7ea02ec06c82","system_id":"levelo_inurba_marseille","lat":43.28264,"lon":5.35061,"is_reserved":false,"is_disabled":false,"rental_uris":{"android":"levelo://app?vid=97bbf4c2-4775-4db6-994e-7ea02ec06c82","ios":"levelo://app?vid=97bbf4c2-4775-4db6-994e-7ea02ec06c82"},"vehicle_type_id":"4","last_reported":1741363900,"current_range_meters":18000,"station_id":"ce4bhbp2rcd13ifvqerg","pricing_plan_id":"cebpf4jnsgd1na2vs0mg"},{"bike_id":"2d03ad57-554c-40ad-88b1-4f79b808f169","system_id":"levelo_inurba_marseille","lat":43.28101,"lon":5.39671,"is_reserved":false,"is_disabled":false,"rental_uris":{"android":"levelo://app?vid=2d03ad57-554c-40ad-88b1-4f79b808f169","ios":"levelo://app?vid=2d03ad57-554c-40ad-88b1-4f79b808f169"},"vehicle_type_id":"4","last_reported":1741363900,"current_range_meters":18000,"station_id":"ce4bho12rcd13ifvqh2g","pricing_plan_id":"cebpf4jnsgd1na2vs0mg"},{"bike_id":"f10983dd-22d3-4f46-a2c6-006eac3e0c85","system_id":"levelo_inurba_marseille","lat":43.25082,"lon":5.39516,"is_reserved":false,"is_disabled":false,"rental_uris":{"android":"levelo://app?vid=f10983dd-22d3-4f46-a2c6-006eac3e0c85","ios":"levelo://app?vid=f10983dd-22d3-4f46-a2c6-006eac3e0c85"},"vehicle_type_id":"4","last_reported":1741363900,"current_range_meters":18000,"station_id":"ce4bhm12rcd13ifvqgkg","pricing_plan_id":"cebpf4jnsgd1na2vs0mg"},{"bike_id":"fff2fb49-8a32-4ba6-9643-c498285d63f4","system_id":"levelo_inurba_marseille","lat":43.28697,"lon":5.39984,"is_reserved":false,"is_disabled":false,"rental_uris":{"android":"levelo://app?vid=fff2fb49-8a32-4ba6-9643-c498285d63f4","ios":"levelo://app?vid=fff2fb49-8a32-4ba6-9643-c498285d63f4"},"vehicle_type_id":"4","last_reported":1741363900,"current_range_meters":18000,"station_id":"ce4bho92rcd13ifvqh3g","pricing_plan_id":"cebpf4jnsgd1na2vs0mg"},{"bike_id":"2b465a40-febf-4be8-834c-7f8787b6ab03","system_id":"levelo_inurba_marseille","lat":43.299855,"lon":5.413018,"is_reserved":false,"is_disabled":false,"rental_uris":{"android":"levelo://app?vid=2b465a40-febf-4be8-834c-7f8787b6ab03","ios":"levelo://app?vid=2b465a40-febf-4be8-834c-7f8787b6ab03"},"vehicle_type_id":"4","last_reported":1741363900,"current_range_meters":18000,"station_id":"ce4bhp12rcd13ifvqh9g","pricing_plan_id":"cebpf4jnsgd1na2vs0mg"},{"bike_id":"0a9bc1bd-e305-40d4-8852-5005300b12a0","system_id":"levelo_inurba_marseille","lat":43.22931,"lon":5.35369,"is_reserved":false,"is_disabled":false,"rental_uris":{"android":"levelo://app?vid=0a9bc1bd-e305-40d4-8852-5005300b12a0","ios":"levelo://app?vid=0a9bc1bd-e305-40d4-8852-5005300b12a0"},"vehicle_type_id":"4","last_reported":1741363900,"current_range_meters":18800,"station_id":"cpo3532slgdg3j2ikp40","pricing_plan_id":"cebpf4jnsgd1na2vs0mg"},{"bike_id":"9d5b824a-cc91-4fd5-8f4f-f20d4a403471","system_id":"levelo_inurba_marseille","lat":43.30535,"lon":5.36522,"is_reserved":false,"is_disabled":false,"rental_uris":{"android":"levelo://app?vid=9d5b824a-cc91-4fd5-8f4f-f20d4a403471","ios":"levelo://app?vid=9d5b824a-cc91-4fd5-8f4f-f20d4a403471"},"vehicle_type_id":"4","last_reported":1741363900,"current_range_meters":18800,"station_id":"ce4bgs12rcd13ifvqcag","pricing_plan_id":"cebpf4jnsgd1na2vs0mg"},{"bike_id":"d24b346f-5561-4a52-b1e2-b9350ca2ec99","system_id":"levelo_inurba_marseille","lat":43.2928,"lon":5.3843,"is_reserved":false,"is_disabled":false,"rental_uris":{"android":"levelo://app?vid=d24b346f-5561-4a52-b1e2-b9350ca2ec99","ios":"levelo://app?vid=d24b346f-5561-4a52-b1e2-b9350ca2ec99"},"vehicle_type_id":"4","last_reported":1741363900,"current_range_meters":18800,"station_id":"ce4bh692rcd13ifvqea0","pricing_plan_id":"cebpf4jnsgd1na2vs0mg"},{"bike_id":"cb47043e-2b36-4398-963d-22088496551a","system_id":"levelo_inurba_marseille","lat":43.31757,"lon":5.39014,"is_reserved":false,"is_disabled":false,"rental_uris":{"android":"levelo://app?vid=cb47043e-2b36-4398-963d-22088496551a","ios":"levelo://app?vid=cb47043e-2b36-4398-963d-22088496551a"},"vehicle_type_id":"4","last_reported":1741363900,"current_range_meters":18800,"station_id":"ce4bhqp2rcd13ifvqhng","pricing_plan_id":"cebpf4jnsgd1na2vs0mg"},{"bike_id":"c6cf0871-7d69-4a8c-a42f-24cd59e2b462","system_id":"levelo_inurba_marseille","lat":43.29628,"lon":5.37735,"is_reserved":false,"is_disabled":false,"rental_uris":{"android":"levelo://app?vid=c6cf0871-7d69-4a8c-a42f-24cd59e2b462","ios":"levelo://app?vid=c6cf0871-7d69-4a8c-a42f-24cd59e2b462"},"vehicle_type_id":"4","last_reported":1741363900,"current_range_meters":18800,"station_id":"ce4bgi92rcd13ifvqb90","pricing_plan_id":"cebpf4jnsgd1na2vs0mg"},{"bike_id":"adbc0e57-5262-481c-9937-1958946b9a14","system_id":"levelo_inurba_marseille","lat":43.3032,"lon":5.40426,"is_reserved":false,"is_disabled":false,"rental_uris":{"android":"levelo://app?vid=adbc0e57-5262-481c-9937-1958946b9a14","ios":"levelo://app?vid=adbc0e57-5262-481c-9937-1958946b9a14"},"vehicle_type_id":"4","last_reported":1741363900,"current_range_meters":18000,"station_id":"ce4bh012rcd13ifvqd10","pricing_plan_id":"cebpf4jnsgd1na2vs0mg"},{"bike_id":"55e6b3b6-fcd9-4111-ac95-054df0e34dbb","system_id":"levelo_inurba_marseille","lat":43.31327,"lon":5.39704,"is_reserved":false,"is_disabled":false,"rental_uris":{"android":"levelo://app?vid=55e6b3b6-fcd9-4111-ac95-054df0e34dbb","ios":"levelo://app?vid=55e6b3b6-fcd9-4111-ac95-054df0e34dbb"},"vehicle_type_id":"4","last_reported":1741363900,"current_range_meters":19200,"station_id":"ce4bgvp2rcd13ifvqcu0","pricing_plan_id":"cebpf4jnsgd1na2vs0mg"},{"bike_id":"65d2271a-97b5-4913-95aa-cf77a293f0eb","system_id":"levelo_inurba_marseille","lat":43.26029,"lon":5.37548,"is_reserved":false,"is_disabled":false,"rental_uris":{"android":"levelo://app?vid=65d2271a-97b5-4913-95aa-cf77a293f0eb","ios":"levelo://app?vid=65d2271a-97b5-4913-95aa-cf77a293f0eb"},"vehicle_type_id":"4","last_reported":1741363900,"current_range_meters":19200,"station_id":"ce4bhgh2rcd13ifvqfa0","pricing_plan_id":"cebpf4jnsgd1na2vs0mg"},{"bike_id":"bcdf98df-8d27-4828-8870-2c5bfb469a5a","system_id":"levelo_inurba_marseille","lat":43.280942,"lon":5.378413,"is_reserved":false,"is_disabled":true,"rental_uris":{"android":"levelo://app?vid=bcdf98df-8d27-4828-8870-2c5bfb469a5a","ios":"levelo://app?vid=bcdf98df-8d27-4828-8870-2c5bfb469a5a"},"vehicle_type_id":"4","last_reported":1741363900,"current_range_meters":19600,"station_id":"ce4bha12rcd13ifvqee0","pricing_plan_id":"cebpf4jnsgd1na2vs0mg"},{"bike_id":"47087830-8bde-4c12-ba0c-bc28866d455d","system_id":"levelo_inurba_marseille","lat":43.298973,"lon":5.365305,"is_reserved":false,"is_disabled":false,"rental_uris":{"android":"levelo://app?vid=47087830-8bde-4c12-ba0c-bc28866d455d","ios":"levelo://app?vid=47087830-8bde-4c12-ba0c-bc28866d455d"},"vehicle_type_id":"4","last_reported":1741363900,"current_range_meters":19600,"station_id":"ce4bgm92rcd13ifvqbr0","pricing_plan_id":"cebpf4jnsgd1na2vs0mg"},{"bike_id":"b97ed899-fd4e-4286-bb32-c9d7681f18fc","system_id":"levelo_inurba_marseille","lat":43.29898,"lon":5.38149,"is_reserved":false,"is_disabled":false,"rental_uris":{"android":"levelo://app?vid=b97ed899-fd4e-4286-bb32-c9d7681f18fc","ios":"levelo://app?vid=b97ed899-fd4e-4286-bb32-c9d7681f18fc"},"vehicle_type_id":"4","last_reported":1741363900,"current_range_meters":19600,"station_id":"ce4bgj12rcd13ifvqbc0","pricing_plan_id":"cebpf4jnsgd1na2vs0mg"},{"bike_id":"f05df3d8-2201-4e9c-a65b-68113f571145","system_id":"levelo_inurba_marseille","lat":43.29421,"lon":5.38621,"is_reserved":false,"is_disabled":false,"rental_uris":{"android":"levelo://app?vid=f05df3d8-2201-4e9c-a65b-68113f571145","ios":"levelo://app?vid=f05df3d8-2201-4e9c-a65b-68113f571145"},