{"last_updated":1753715590,"ttl":60,"version":"2.2","data":{"bikes":[{"bike_id":"8e878e8f-5d80-490d-b86c-324c23d42717","system_id":"levelo_inurba_marseille","lat":43.29179,"lon":5.40755,"is_reserved":false,"is_disabled":false,"rental_uris":{"android":"levelo://app?vid=8e878e8f-5d80-490d-b86c-324c23d42717","ios":"levelo://app?vid=8e878e8f-5d80-490d-b86c-324c23d42717"},"vehicle_type_id":"4","last_reported":1753715590,"current_range_meters":2800,"station_id":"","pricing_plan_id":"cebpf4jnsgd1na2vs0mg"},{"bike_id":"de99b14c-9afd-4bdd-bc56-50354c110c3d","system_id":"levelo_inurba_marseille","lat":43.25467,"lon":5.37687,"is_reserved":false,"is_disabled":true,"rental_uris":{"android":"levelo://app?vid=de99b14c-9afd-4bdd-bc56-50354c110c3d","ios":"levelo://app?vid=de99b14c-9afd-4bdd-bc56-50354c110c3d"},"vehicle_type_id":"4","last_reported":1753715590,"current_range_meters":3200,"station_id":"","pricing_plan_id":"cebpf4jnsgd1na2vs0mg"},{"bike_id":"11c4d494-c274-4dc8-b4cd-7fce6e00cd31","system_id":"levelo_inurba_marseille","lat":43.25828,"lon":5.39438,"is_reserved":false,"is_disabled":false,"rental_uris":{"android":"levelo://app?vid=11c4d494-c274-4dc8-b4cd-7fce6e00cd31","ios":"levelo://app?vid=11c4d494-c274-4dc8-b4cd-7fce6e00cd31"},"vehicle_type_id":"4","last_reported":1753715590,"current_range_meters":3200,"station_id":"ce4bhip2rcd13ifvqft0","pricing_plan_id":"cebpf4jnsgd1na2vs0mg"},{"bike_id":"7360ffbd-faa8-4ef2-8783-20da517a0d92","system_id":"levelo_inurba_marseille","lat":43.295197,"lon":5.390429,"is_reserved":false,"is_disabled":false,"rental_uris":{"android":"levelo://app?vid=7360ffbd-faa8-4ef2-8783-20da517a0d92","ios":"levelo://app?vid=7360ffbd-faa8-4ef2-8783-20da517a0d92"},"vehicle_type_id":"4","last_reported":1753715590,"current_range_meters":3600,"station_id":"ce4bh3p2rcd13ifvqdp0","pricing_plan_id":"cebpf4jnsgd1na2vs0mg"},{"bike_id":"1dee3501-cce5-4698-ab15-4bf2108026e7","system_id":"levelo_inurba_marseille","lat":43.31755,"lon":5.39015,"is_reserved":false,"is_disabled":false,"rental_uris":{"android":"levelo://app?vid=1dee3501-cce5-4698-ab15-4bf2108026e7","ios":"levelo://app?vid=1dee3501-cce5-4698-ab15-4bf2108026e7"},"vehicle_type_id":"4","last_reported":1753715590,"current_range_meters":4000,"station_id":"ce4bhqp2rcd13ifvqhng","pricing_plan_id":"cebpf4jnsgd1na2vs0mg"},{"bike_id":"042a8476-d3c4-476b-9557-f32c03e9d625","system_id":"levelo_inurba_marseille","lat":43.339507,"lon":5.357054,"is_reserved":false,"is_disabled":false,"rental_uris":{"android":"levelo://app?vid=042a8476-d3c4-476b-9557-f32c03e9d625","ios":"levelo://app?vid=042a8476-d3c4-476b-9557-f32c03e9d625"},"vehicle_type_id":"4","last_reported":1753715590,"current_range_meters":4400,"station_id":"","pricing_plan_id":"cebpf4jnsgd1na2vs0mg"},{"bike_id":"7e65c5ea-0429-45f5-a396-bd32e67f0744","system_id":"levelo_inurba_marseille","lat":43.33473,"lon":5.40048,"is_reserved":false,"is_disabled":false,"rental_uris":{"android":"levelo://app?vid=7e65c5ea-0429-45f5-a396-bd32e67f0744","ios":"levelo://app?vid=7e65c5ea-0429-45f5-a396-bd32e67f0744"},"vehicle_type_id":"4","last_reported":1753715590,"current_range_meters":5600,"station_id":"","pricing_plan_id":"cebpf4jnsgd1na2vs0mg"},{"bike_id":"afbdf100-447e-47e2-bcfb-6ec58b2806b5","system_id":"levelo_inurba_marseille","lat":43.29446,"lon":5.39742,"is_reserved":false,"is_disabled":false,"rental_uris":{"android":"levelo://app?vid=afbdf100-447e-47e2-bcfb-6ec58b2806b5","ios":"levelo://app?vid=afbdf100-447e-47e2-bcfb-6ec58b2806b5"},"vehicle_type_id":"4","last_reported":1753715590,"current_range_meters":6400,"station_id":"ce4bh3h2rcd13ifvqdo0","pricing_plan_id":"cebpf4jnsgd1na2vs0mg"},{"bike_id":"078f11b0-bb56-4df0-87db-0c5d635cc500","system_id":"levelo_inurba_marseille","lat":43.225057,"lon":5.347868,"is_reserved":false,"is_disabled":false,"rental_uris":{"android":"levelo://app?vid=078f11b0-bb56-4df0-87db-0c5d635cc500","ios":"levelo://app?vid=078f11b0-bb56-4df0-87db-0c5d635cc500"},"vehicle_type_id":"4","last_reported":1753715590,"current_range_meters":6800,"station_id":"st_cvj5dfep6f1abm77gieg","pricing_plan_id":"cebpf4jnsgd1na2vs0mg"},{"bike_id":"2dd6a324-3c28-4b95-b274-4bae9af12711","system_id":"levelo_inurba_marseille","lat":43.303765,"lon":5.424926,"is_reserved":false,"is_disabled":false,"rental_uris":{"android":"levelo://app?vid=2dd6a324-3c28-4b95-b274-4bae9af12711","ios":"levelo://app?vid=2dd6a324-3c28-4b95-b274-4bae9af12711"},"vehicle_type_id":"4","last_reported":1753715590,"current_range_meters":6800,"station_id":"ce4bhoh2rcd13ifvqh6g","pricing_plan_id":"cebpf4jnsgd1na2vs0mg"},{"bike_id":"f11d5c36-c7b9-4fc1-92df-c7e100615396","system_id":"levelo_inurba_marseille","lat":43.29546,"lon":5.42276,"is_reserved":false,"is_disabled":false,"rental_uris":{"android":"levelo://app?vid=f11d5c36-c7b9-4fc1-92df-c7e100615396","ios":"levelo://app?vid=f11d5c36-c7b9-4fc1-92df-c7e100615396"},"vehicle_type_id":"4","last_reported":1753715590,"current_range_meters":6800,"station_id":"ce4bhph2rcd13ifvqhdg","pricing_plan_id":"cebpf4jnsgd1na2vs0mg"},{"bike_id":"57d2148b-4900-48dc-9253-f8ca7d2e9d8a","system_id":"levelo_inurba_marseille","lat":43.303122,"lon":5.405017,"is_reserved":false,"is_disabled":false,"rental_uris":{"android":"levelo://app?vid=57d2148b-4900-48dc-9253-f8ca7d2e9d8a","ios":"levelo://app?vid=57d2148b-4900-48dc-9253-f8ca7d2e9d8a"},"vehicle_type_id":"4","last_reported":1753715590,"current_range_meters":7200,"station_id":"","pricing_plan_id":"cebpf4jnsgd1na2vs0mg"},{"bike_id":"156e744b-94c9-4be0-9dfd-d007398890ce","system_id":"levelo_inurba_marseille","lat":43.32348,"lon":5.36743,"is_reserved":false,"is_disabled":false,"rental_uris":{"android":"levelo://app?vid=156e744b-94c9-4be0-9dfd-d007398890ce","ios":"levelo://app?vid=156e744b-94c9-4be0-9dfd-d007398890ce"},"vehicle_type_id":"4","last_reported":1753715590,"current_range_meters":7200,"station_id":"ce4bhsh2rcd13ifvqi2g","pricing_plan_id":"cebpf4jnsgd1na2vs0mg"},{"bike_id":"cf9d44ea-b46f-40e3-a7ca-6b711f79604a","system_id":"levelo_inurba_marseille","lat":43.28413,"lon":5.34992,"is_reserved":false,"is_disabled":false,"rental_uris":{"android":"levelo://app?vid=cf9d44ea-b46f-40e3-a7ca-6b711f79604a","ios":"levelo://app?vid=cf9d44ea-b46f-40e3-a7ca-6b711f79604a"},"vehicle_type_id":"4","last_reported":1753715590,"current_range_meters":7200,"station_id":"ce4bhbh2rcd13ifvqepg","pricing_plan_id":"cebpf4jnsgd1na2vs0mg"},{"bike_id":"2cbed49e-df73-4b4c-866d-289272939107","system_id":"levelo_inurba_marseille","lat":43.28707,"lon":5.39973,"is_reserved":false,"is_disabled":false,"rental_uris":{"android":"levelo://app?vid=2cbed49e-df73-4b4c-866d-289272939107","ios":"levelo://app?vid=2cbed49e-df73-4b4c-866d-289272939107"},"vehicle_type_id":"4","last_reported":1753715590,"current_range_meters":7200,"station_id":"ce4bho92rcd13ifvqh3g","pricing_plan_id":"cebpf4jnsgd1na2vs0mg"},{"bike_id":"198a8a48-9082-408a-ac7c-20dca32fbf4e","system_id":"levelo_inurba_marseille","lat":43.32073,"lon":5.40922,"is_reserved":false,"is_disabled":false,"rental_uris":{"android":"levelo://app?vid=198a8a48-9082-408a-ac7c-20dca32fbf4e","ios":"levelo://app?vid=198a8a48-9082-408a-ac7c-20dca32fbf4e"},"vehicle_type_id":"4","last_reported":1753715590,"current_range_meters":7200,"station_id":"","pricing_plan_id":"cebpf4jnsgd1na2vs0mg"},{"bike_id":"56bf0055-e112-4078-b5aa-ffa4580277bd","system_id":"levelo_inurba_marseille","lat":43.31674,"lon":5.37802,"is_reserved":false,"is_disabled":false,"rental_uris":{"android":"levelo://app?vid=56bf0055-e112-4078-b5aa-ffa4580277bd","ios":"levelo://app?vid=56bf0055-e112-4078-b5aa-ffa4580277bd"},"vehicle_type_id":"4","last_reported":1753715590,"current_range_meters":8000,"station_id":"","pricing_plan_id":"cebpf4jnsgd1na2vs0mg"},{"bike_id":"72f93c33-849c-4495-a2c1-e547856751ff","system_id":"levelo_inurba_marseille","lat":43.240699,"lon":5.377616,"is_reserved":false,"is_disabled":false,"rental_uris":{"android":"levelo://app?vid=72f93c33-849c-4495-a2c1-e547856751ff","ios":"levelo://app?vid=72f93c33-849c-4495-a2c1-e547856751ff"},"vehicle_type_id":"4","last_reported":1753715590,"current_range_meters":8000,"station_id":"ce4bhnp2rcd13ifvqgvg","pricing_plan_id":"cebpf4jnsgd1na2vs0mg"},{"bike_id":"75260fd7-5030-4f8e-b553-75c4da7dcdd4","system_id":"levelo_inurba_marseille","lat":43.28614,"lon":5.35105,"is_reserved":false,"is_disabled":false,"rental_uris":{"android":"levelo://app?vid=75260fd7-5030-4f8e-b553-75c4da7dcdd4","ios":"levelo://app?vid=75260fd7-5030-4f8e-b553-75c4da7dcdd4"},"vehicle_type_id":"4","last_reported":1753715590,"current_range_meters":8400,"station_id":"ce4bhch2rcd13ifvqeug","pricing_plan_id":"cebpf4jnsgd1na2vs0mg"},{"bike_id":"ded45761-c46b-4789-b35d-9b9c1d097cae","system_id":"levelo_inurba_marseille","lat":43.232667,"lon":5.399746,"is_reserved":false,"is_disabled":false,"rental_uris":{"android":"levelo://app?vid=ded45761-c46b-4789-b35d-9b9c1d097cae","ios":"levelo://app?vid=ded45761-c46b-4789-b35d-9b9c1d097cae"},"vehicle_type_id":"4","last_reported":1753715590,"current_range_meters":8000,"station_id":"ce4bhn12rcd13ifvqgqg","pricing_plan_id":"cebpf4jnsgd1na2vs0mg"},{"bike_id":"f0fd3244-5646-489d-a521-fe37e1d8db6a","system_id":"levelo_inurba_marseille","lat":43.289271,"lon":5.384168,"is_reserved":false,"is_disabled":false,"rental_uris":{"android":"levelo://app?vid=f0fd3244-5646-489d-a521-fe37e1d8db6a","ios":"levelo://app?vid=f0fd3244-5646-489d-a521-fe37e1d8db6a"},"vehicle_type_id":"4","last_reported":1753715590,"current_range_meters":8000,"station_id":"ce4bh612rcd13ifvqe6g","pricing_plan_id":"cebpf4jnsgd1na2vs0mg"},{"bike_id":"67a07e98-5c19-4021-b8ac-5c112b973149","system_id":"levelo_inurba_marseille","lat":43.26196,"lon":5.37446,"is_reserved":false,"is_disabled":false,"rental_uris":{"android":"levelo://app?vid=67a07e98-5c19-4021-b8ac-5c112b973149","ios":"levelo://app?vid=67a07e98-5c19-4021-b8ac-5c112b973149"},"vehicle_type_id":"4","last_reported":1753715590,"current_range_meters":8400,"station_id":"ce4bhgp2rcd13ifvqfc0","pricing_plan_id":"cebpf4jnsgd1na2vs0mg"},{"bike_id":"da0dea9a-07a2-4249-aa7c-2489e28d40de","system_id":"levelo_inurba_marseille","lat":43.29658,"lon":5.36217,"is_reserved":false,"is_disabled":false,"rental_uris":{"android":"levelo://app?vid=da0dea9a-07a2-4249-aa7c-2489e28d40de","ios":"levelo://app?vid=da0dea9a-07a2-4249-aa7c-2489e28d40de"},"vehicle_type_id":"4","last_reported":1753715590,"current_range_meters":8800,"station_id":"","pricing_plan_id":"cebpf4jnsgd1na2vs0mg"},{"bike_id":"463e03fe-b9b0-4212-a764-9bd6d78e3c2e","system_id":"levelo_inurba_marseille","lat":43.31014,"lon":5.38137,"is_reserved":false,"is_disabled":false,"rental_uris":{"android":"levelo://app?vid=463e03fe-b9b0-4212-a764-9bd6d78e3c2e","ios":"levelo://app?vid=463e03fe-b9b0-4212-a764-9bd6d78e3c2e"},"vehicle_type_id":"4","last_reported":1753715590,"current_range_meters":8800,"station_id":"","pricing_plan_id":"cebpf4jnsgd1na2vs0mg"},{"bike_id":"11a04115-300b-44f5-9781-9e5fa3f7aeed","system_id":"levelo_inurba_marseille","lat":43.312187,"lon":5.368647,"is_reserved":false,"is_disabled":false,"rental_uris":{"android":"levelo://app?vid=11a04115-300b-44f5-9781-9e5fa3f7aeed","ios":"levelo://app?vid=11a04115-300b-44f5-9781-9e5fa3f7aeed"},"vehicle_type_id":"4","last_reported":1753715590,"current_range_meters":8800,"station_id":"ce4bgl92rcd13ifvqbq0","pricing_plan_id":"cebpf4jnsgd1na2vs0mg"},{"bike_id":"32fd29fc-6258-475e-a3c9-58131d9a7f07","system_id":"levelo_inurba_marseille","lat":43.31714,"lon":5.37739,"is_reserved":false,"is_disabled":false,"rental_uris":{"android":"levelo://app?vid=32fd29fc-6258-475e-a3c9-58131d9a7f07","ios":"levelo://app?vid=32fd29fc-6258-475e-a3c9-58131d9a7f07"},"vehicle_type_id":"4","last_reported":1753715590,"current_range_meters":8800,"station_id":"ce4bgth2rcd13ifvqch0","pricing_plan_id":"cebpf4jnsgd1na2vs0mg"},{"bike_id":"fdb6476a-35ea-4fc6-b7cc-f5f2e3a6d5e9","system_id":"levelo_inurba_marseille","lat":43.31224,"lon":5.36864,"is_reserved":false,"is_disabled":false,"rental_uris":{"android":"levelo://app?vid=fdb6476a-35ea-4fc6-b7cc-f5f2e3a6d5e9","ios":"levelo://app?vid=fdb6476a-35ea-4fc6-b7cc-f5f2e3a6d5e9"},"vehicle_type_id":"4","last_reported":1753715590,"current_range_meters":8800,"station_id":"ce4bgl92rcd13ifvqbq0","pricing_plan_id":"cebpf4jnsgd1na2vs0mg"},{"bike_id":"3944d5e0-bb74-4a30-8b20-9f27d836a318","system_id":"levelo_inurba_marseille","lat":43.29073,"lon":5.37178,"is_reserved":false,"is_disabled":false,"rental_uris":{"android":"levelo://app?vid=3944d5e0-bb74-4a30-8b20-9f27d836a318","ios":"levelo://app?vid=3944d5e0-bb74-4a30-8b20-9f27d836a318"},"vehicle_type_id":"4","last_reported":1753715590,"current_range_meters":8800,"station_id":"ce4bh5p2rcd13ifvqe4g","pricing_plan_id":"cebpf4jnsgd1na2vs0mg"},{"bike_id":"212cf19c-2fab-4b91-ad4c-9a388dc75c05","system_id":"levelo_inurba_marseille","lat":43.2844,"lon":5.39202,"is_reserved":false,"is_disabled":false,"rental_uris":{"android":"levelo://app?vid=212cf19c-2fab-4b91-ad4c-9a388dc75c05","ios":"levelo://app?vid=212cf19c-2fab-4b91-ad4c-9a388dc75c05"},"vehicle_type_id":"4","last_reported":1753715590,"current_range_meters":9200,"station_id":"ce4bhoh2rcd13ifvqh5g","pricing_plan_id":"cebpf4jnsgd1na2vs0mg"},{"bike_id":"d1ee7493-1c8a-469d-8c3c-eed7b0a6afe5","system_id":"levelo_inurba_marseille","lat":43.299683,"lon":5.386239,"is_reserved":false,"is_disabled":false,"rental_uris":{"android":"levelo://app?vid=d1ee7493-1c8a-469d-8c3c-eed7b0a6afe5","ios":"levelo://app?vid=d1ee7493-1c8a-469d-8c3c-eed7b0a6afe5"},"vehicle_type_id":"4","last_reported":1753715590,"current_range_meters":9600,"station_id":"","pricing_plan_id":"cebpf4jnsgd1na2vs0mg"},{"bike_id":"9f9242ff-b091-46d2-a23f-8d9e994ed164","system_id":"levelo_inurba_marseille","lat":43.296189,"lon":5.371704,"is_reserved":false,"is_disabled":false,"rental_uris":{"android":"levelo://app?vid=9f9242ff-b091-46d2-a23f-8d9e994ed164","ios":"levelo://app?vid=9f9242ff-b091-46d2-a23f-8d9e994ed164"},"vehicle_type_id":"4","last_reported":1753715590,"current_range_meters":9600,"station_id":"ce4bgnh2rcd13ifvqc0g","pricing_plan_id":"cebpf4jnsgd1na2vs0mg"},{"bike_id":"4f020d92-8765-4eac-adb3-6d0daf9ec32d","system_id":"levelo_inurba_marseille","lat":43.28432,"lon":5.35018,"is_reserved":false,"is_disabled":false,"rental_uris":{"android":"levelo://app?vid=4f020d92-8765-4eac-adb3-6d0daf9ec32d","ios":"levelo://app?vid=4f020d92-8765-4eac-adb3-6d0daf9ec32d"},"vehicle_type_id":"4","last_reported":1753715590,"current_range_meters":10000,"station_id":"ce4bhbh2rcd13ifvqepg","pricing_plan_id":"cebpf4jnsgd1na2vs0mg"},{"bike_id":"bf295fbf-1f72-4e1a-a8f1-f319bb5fd736","system_id":"levelo_inurba_marseille","lat":43.29314,"lon":5.37035,"is_reserved":false,"is_disabled":false,"rental_uris":{"android":"levelo://app?vid=bf295fbf-1f72-4e1a-a8f1-f319bb5fd736","ios":"levelo://app?vid=bf295fbf-1f72-4e1a-a8f1-f319bb5fd736"},"vehicle_type_id":"4","last_reported":1753715590,"current_range_meters":10000,"station_id":"","pricing_plan_id":"cebpf4jnsgd1na2vs0mg"},{"bike_id":"fb45cff3-08fa-4cc9-bf53-0d8295f6b8d1","system_id":"levelo_inurba_marseille","lat":43.27888,"lon":5.42819,"is_reserved":false,"is_disabled":false,"rental_uris":{"android":"levelo://app?vid=fb45cff3-08fa-4cc9-bf53-0d8295f6b8d1","ios":"levelo://app?vid=fb45cff3-08fa-4cc9-bf53-0d8295f6b8d1"},"vehicle_type_id":"4","last_reported":1753715590,"current_range_meters":10000,"station_id":"","pricing_plan_id":"cebpf4jnsgd1na2vs0mg"},{"bike_id":"05e10ef4-aa60-499a-8512-d22acb6239ad","system_id":"levelo_inurba_marseille","lat":43.30147,"lon":5.39879,"is_reserved":false,"is_disabled":false,"rental_uris":{"android":"levelo://app?vid=05e10ef4-aa60-499a-8512-d22acb6239ad","ios":"levelo://app?vid=05e10ef4-aa60-499a-8512-d22acb6239ad"},"vehicle_type_id":"4","last_reported":1753715590,"current_range_meters":10000,"station_id":"ce4bh0h2rcd13ifvqd40","pricing_plan_id":"cebpf4jnsgd1na2vs0mg"},{"bike_id":"eac438a9-250c-4f80-b97e-66e585adbfcf","system_id":"levelo_inurba_marseille","lat":43.22503,"lon":5.34782,"is_reserved":false,"is_disabled":false,"rental_uris":{"android":"levelo://app?vid=eac438a9-250c-4f80-b97e-66e585adbfcf","ios":"levelo://app?vid=eac438a9-250c-4f80-b97e-66e585adbfcf"},"vehicle_type_id":"4","last_reported":1753715590,"current_range_meters":10000,"station_id":"st_cvj5dfep6f1abm77gieg","pricing_plan_id":"cebpf4jnsgd1na2vs0mg"},{"bike_id":"da4fe611-7bde-4ea9-9466-4576a806c2c7","system_id":"levelo_inurba_marseille","lat":43.29869,"lon":5.38907,"is_reserved":false,"is_disabled":false,"rental_uris":{"android":"levelo://app?vid=da4fe611-7bde-4ea9-9466-4576a806c2c7","ios":"levelo://app?vid=da4fe611-7bde-4ea9-9466-4576a806c2c7"},"vehicle_type_id":"4","last_reported":1753715590,"current_range_meters":10000,"station_id":"ce4bh392rcd13ifvqdl0","pricing_plan_id":"cebpf4jnsgd1na2vs0mg"},{"bike_id":"b6a2ef0a-087f-4922-a543-d9c9fa1be6f5","system_id":"levelo_inurba_marseille","lat":43.30145,"lon":5.3742,"is_reserved":false,"is_disabled":false,"rental_uris":{"android":"levelo://app?vid=b6a2ef0a-087f-4922-a543-d9c9fa1be6f5","ios":"levelo://app?vid=b6a2ef0a-087f-4922-a543-d9c9fa1be6f5"},"vehicle_type_id":"4","last_reported":1753715590,"current_range_meters":10000,"station_id":"ce4bgs92rcd13ifvqcc0","pricing_plan_id":"cebpf4jnsgd1na2vs0mg"},{"bike_id":"8b194712-430e-4adb-ba49-e50d3f95d94a","system_id":"levelo_inurba_marseille","lat":43.27814,"lon":5.40712,"is_reserved":false,"is_disabled":false,"rental_uris":{"android":"levelo://app?vid=8b194712-430e-4adb-ba49-e50d3f95d94a","ios":"levelo://app?vid=8b194712-430e-4adb-ba49-e50d3f95d94a"},"vehicle_type_id":"4","last_reported":1753715590,"current_range_meters":10000,"station_id":"ce4bhnh2rcd13ifvqgtg","pricing_plan_id":"cebpf4jnsgd1na2vs0mg"},{"bike_id":"15a12343-51a6-4fa4-b0e9-50987badd4e7","system_id":"levelo_inurba_marseille","lat":43.29967,"lon":5.38494,"is_reserved":false,"is_disabled":false,"rental_uris":{"android":"levelo://app?vid=15a12343-51a6-4fa4-b0e9-50987badd4e7","ios":"levelo://app?vid=15a12343-51a6-4fa4-b0e9-50987badd4e7"},"vehicle_type_id":"4","last_reported":1753715590,"current_range_meters":11200,"station_id":"ce4bgj92rcd13ifvqbd0","pricing_plan_id":"cebpf4jnsgd1na2vs0mg"},{"bike_id":"5f3b4fd1-eae6-41fc-8eb7-bc8b29b63214","system_id":"levelo_inurba_marseille","lat":43.32364,"lon":5.36768,"is_reserved":false,"is_disabled":false,"rental_uris":{"android":"levelo://app?vid=5f3b4fd1-eae6-41fc-8eb7-bc8b29b63214","ios":"levelo://app?vid=5f3b4fd1-eae6-41fc-8eb7-bc8b29b63214"},"vehicle_type_id":"4","last_reported":1753715590,"current_range_meters":10800,"station_id":"ce4bhsh2rcd13ifvqi2g","pricing_plan_id":"cebpf4jnsgd1na2vs0mg"},{"bike_id":"b30d2e1a-5293-443b-8819-90074cbc1e40","system_id":"levelo_inurba_marseille","lat":43.323699,"lon":5.367148,"is_reserved":false,"is_disabled":false,"rental_uris":{"android":"levelo://app?vid=b30d2e1a-5293-443b-8819-90074cbc1e40","ios":"levelo://app?vid=b30d2e1a-5293-443b-8819-90074cbc1e40"},"vehicle_type_id":"4","last_reported":1753715590,"current_range_meters":10800,"station_id":"ce4bhsh2rcd13ifvqi2g","pricing_plan_id":"cebpf4jnsgd1na2vs0mg"},{"bike_id":"3152576e-d602-4c3f-980e-717f41aed773","system_id":"levelo_inurba_marseille","lat":43.33737,"lon":5.37465,"is_reserved":false,"is_disabled":false,"rental_uris":{"android":"levelo://app?vid=3152576e-d602-4c3f-980e-717f41aed773","ios":"levelo://app?vid=3152576e-d602-4c3f-980e-717f41aed773"},"vehicle_type_id":"4","last_reported":1753715590,"current_range_meters":10800,"station_id":"","pricing_plan_id":"cebpf4jnsgd1na2vs0mg"},{"bike_id":"6e74b277-13c0-4e20-8b53-6df3b893dc03","system_id":"levelo_inurba_marseille","lat":43.28614,"lon":5.37056,"is_reserved":false,"is_disabled":false,"rental_uris":{"android":"levelo://app?vid=6e74b277-13c0-4e20-8b53-6df3b893dc03","ios":"levelo://app?vid=6e74b277-13c0-4e20-8b53-6df3b893dc03"},"vehicle_type_id":"4","last_reported":1753715590,"current_range_meters":11200,"station_id":"ce4bht12rcd13ifvqi60","pricing_plan_id":"cebpf4jnsgd1na2vs0mg"},{"bike_id":"87d25c57-0e51-4d6d-b20a-9e79389a208e","system_id":"levelo_inurba_marseille","lat":43.31079,"lon":5.38353,"is_reserved":false,"is_disabled":false,"rental_uris":{"android":"levelo://app?vid=87d25c57-0e51-4d6d-b20a-9e79389a208e","ios":"levelo://app?vid=87d25c57-0e51-4d6d-b20a-9e79389a208e"},"vehicle_type_id":"4","last_reported":1753715590,"current_range_meters":11200,"station_id":"ce4bgv92rcd13ifvqcr0","pricing_plan_id":"cebpf4jnsgd1na2vs0mg"},{"bike_id":"feb40379-0815-4a68-aadb-305942f11d04","system_id":"levelo_inurba_marseille","lat":43.24958,"lon":5.389799,"is_reserved":false,"is_disabled":false,"rental_uris":{"android":"levelo://app?vid=feb40379-0815-4a68-aadb-305942f11d04","ios":"levelo://app?vid=feb40379-0815-4a68-aadb-305942f11d04"},"vehicle_type_id":"4","last_reported":1753715590,"current_range_meters":11200,"station_id":"","pricing_plan_id":"cebpf4jnsgd1na2vs0mg"},{"bike_id":"d3f67c92-3119-458d-b596-a8e6b6212869","system_id":"levelo_inurba_marseille","lat":43.29275,"lon":5.4012,"is_reserved":false,"is_disabled":false,"rental_uris":{"android":"levelo://app?vid=d3f67c92-3119-458d-b596-a8e6b6212869","ios":"levelo://app?vid=d3f67c92-3119-458d-b596-a8e6b6212869"},"vehicle_type_id":"4","last_reported":1753715590,"current_range_meters":11600,"station_id":"ce4bh312rcd13ifvqdk0","pricing_plan_id":"cebpf4jnsgd1na2vs0mg"},{"bike_id":"87a4d710-c859-4883-a056-db27db09862e","system_id":"levelo_inurba_marseille","lat":43.277585,"lon":5.355971,"is_reserved":false,"is_disabled":false,"rental_uris":{"android":"levelo://app?vid=87a4d710-c859-4883-a056-db27db09862e","ios":"levelo://app?vid=87a4d710-c859-4883-a056-db27db09862e"},"vehicle_type_id":"4","last_reported":1753715590,"current_range_meters":11600,"station_id":"","pricing_plan_id":"cebpf4jnsgd1na2vs0mg"},{"bike_id":"5137e5c8-fae9-4531-85b9-df7423feb303","system_id":"levelo_inurba_marseille","lat":43.33144,"lon":5.3891,"is_reserved":false,"is_disabled":false,"rental_uris":{"android":"levelo://app?vid=5137e5c8-fae9-4531-85b9-df7423feb303","ios":"levelo://app?vid=5137e5c8-fae9-4531-85b9-df7423feb303"},"vehicle_type_id":"4","last_reported":1753715590,"current_range_meters":11600,"station_id":"","pricing_plan_id":"cebpf4jnsgd1na2vs0mg"},{"bike_id":"401c2015-70c5-46a2-b239-39bc28a85f8a","system_id":"levelo_inurba_marseille","lat":43.28108,"lon":5.37833,"is_reserved":false,"is_disabled":false,"rental_uris":{"android":"levelo://app?vid=401c2015-70c5-46a2-b239-39bc28a85f8a","ios":"levelo://app?vid=401c2015-70c5-46a2-b239-39bc28a85f8a"},"vehicle_type_id":"4","last_reported":1753715590,"current_range_meters":12000,"station_id":"ce4bha12rcd13ifvqee0","pricing_plan_id":"cebpf4jnsgd1na2vs0mg"},{"bike_id":"e4e06ef8-f146-4c4a-81f1-91159188d094","system_id":"levelo_inurba_marseille","lat":43.25824,"lon":5.39433,"is_reserved":false,"is_disabled":false,"rental_uris":{"android":"levelo://app?vid=e4e06ef8-f146-4c4a-81f1-91159188d094","ios":"levelo://app?vid=e4e06ef8-f146-4c4a-81f1-91159188d094"},"vehicle_type_id":"4","last_reported":1753715590,"current_range_meters":12000,"station_id":"ce4bhip2rcd13ifvqft0","pricing_plan_id":"cebpf4jnsgd1na2vs0mg"},{"bike_id":"5763f1ce-e2d5-41ac-ab8d-9705a9b33a0f","system_id":"levelo_inurba_marseille","lat":43.3021,"lon":5.39463,"is_reserved":false,"is_disabled":false,"rental_uris":{"android":"levelo://app?vid=5763f1ce-e2d5-41ac-ab8d-9705a9b33a0f","ios":"levelo://app?vid=5763f1ce-e2d5-41ac-ab8d-9705a9b33a0f"},"vehicle_type_id":"4","last_reported":1753715590,"current_range_meters":12000,"station_id":"ce4bh0p2rcd13ifvqd70","pricing_plan_id":"cebpf4jnsgd1na2vs0mg"},{"bike_id":"b0562e78-62b2-42dc-bb1e-2da442cdc296","system_id":"levelo_inurba_marseille","lat":43.2862,"lon":5.35105,"is_reserved":false,"is_disabled":false,"rental_uris":{"android":"levelo://app?vid=b0562e78-62b2-42dc-bb1e-2da442cdc296","ios":"levelo://app?vid=b0562e78-62b2-42dc-bb1e-2da442cdc296"},"vehicle_type_id":"4","last_reported":1753715590,"current_range_meters":12000,"station_id":"ce4bhch2rcd13ifvqeug","pricing_plan_id":"cebpf4jnsgd1na2vs0mg"},{"bike_id":"22709049-0d39-445f-b228-d9eaa5759f44","system_id":"levelo_inurba_marseille","lat":43.28428,"lon":5.34983,"is_reserved":false,"is_disabled":false,"rental_uris":{"android":"levelo://app?vid=22709049-0d39-445f-b228-d9eaa5759f44","ios":"levelo://app?vid=22709049-0d39-445f-b228-d9eaa5759f44"},"vehicle_type_id":"4","last_reported":1753715590,"current_range_meters":12000,"station_id":"ce4bhbh2rcd13ifvqepg","pricing_plan_id":"cebpf4jnsgd1na2vs0mg"},{"bike_id":"dbd9da72-3f82-4d40-8b17-4f19461345ca","system_id":"levelo_inurba_marseille","lat":43.29871,"lon":5.38912,"is_reserved":false,"is_disabled":false,"rental_uris":{"android":"levelo://app?vid=dbd9da72-3f82-4d40-8b17-4f19461345ca","ios":"levelo://app?vid=dbd9da72-3f82-4d40-8b17-4f19461345ca"},"vehicle_type_id":"4","last_reported":1753715590,"current_range_meters":12000,"station_id":"ce4bh392rcd13ifvqdl0","pricing_plan_id":"cebpf4jnsgd1na2vs0mg"},{"bike_id":"1da59f31-ae48-4973-95fc-75064d18ea50","system_id":"levelo_inurba_marseille","lat":43.21747,"lon":5.34605,"is_reserved":false,"is_disabled":false,"rental_uris":{"android":"levelo://app?vid=1da59f31-ae48-4973-95fc-75064d18ea50","ios":"levelo://app?vid=1da59f31-ae48-4973-95fc-75064d18ea50"},"vehicle_type_id":"4","last_reported":1753715590,"current_range_meters":12000,"station_id":"st_cvj6r9ubvosntc0bgbag","pricing_plan_id":"cebpf4jnsgd1na2vs0mg"},{"bike_id":"6cc9b216-ec8b-41ba-a3e9-693129b2dfa4","system_id":"levelo_inurba_marseille","lat":43.28266,"lon":5.35062,"is_reserved":false,"is_disabled":false,"rental_uris":{"android":"levelo://app?vid=6cc9b216-ec8b-41ba-a3e9-693129b2dfa4","ios":"levelo://app?vid=6cc9b216-ec8b-41ba-a3e9-693129b2dfa4"},"vehicle_type_id":"4","last_reported":1753715590,"current_range_meters":11600,"station_id":"ce4bhbp2rcd13ifvqerg","pricing_plan_id":"cebpf4jnsgd1na2vs0mg"},{"bike_id":"8e37ef79-bd01-46c2-9d9e-3d3f7741a07a","system_id":"levelo_inurba_marseille","lat":43.297302,"lon":5.374166,"is_reserved":false,"is_disabled":false,"rental_uris":{"android":"levelo://app?vid=8e37ef79-bd01-46c2-9d9e-3d3f7741a07a","ios":"levelo://app?vid=8e37ef79-bd01-46c2-9d9e-3d3f7741a07a"},"vehicle_type_id":"4","last_reported":1753715590,"current_range_meters":12400,"station_id":"","pricing_plan_id":"cebpf4jnsgd1na2vs0mg"},{"bike_id":"b0db59fe-429d-4dbd-8854-6d638717de01","system_id":"levelo_inurba_marseille","lat":43.28279,"lon":5.35062,"is_reserved":false,"is_disabled":false,"rental_uris":{"android":"levelo://app?vid=b0db59fe-429d-4dbd-8854-6d638717de01","ios":"levelo://app?vid=b0db59fe-429d-4dbd-8854-6d638717de01"},"vehicle_type_id":"4","last_reported":1753715590,"current_range_meters":12400,"station_id":"ce4bhbp2rcd13ifvqerg","pricing_plan_id":"cebpf4jnsgd1na2vs0mg"},{"bike_id":"fe37b02a-66b4-4892-b272-afb6ce28f1be","system_id":"levelo_inurba_marseille","lat":43.30646,"lon":5.40101,"is_reserved":false,"is_disabled":false,"rental_uris":{"android":"levelo://app?vid=fe37b02a-66b4-4892-b272-afb6ce28f1be","ios":"levelo://app?vid=fe37b02a-66b4-4892-b272-afb6ce28f1be"},"vehicle_type_id":"4","last_reported":1753715590,"current_range_meters":12400,"station_id":"ce4bh112rcd13ifvqda0","pricing_plan_id":"cebpf4jnsgd1na2vs0mg"},{"bike_id":"7bbabe21-41fb-474d-b751-cfd2cc7ea973","system_id":"levelo_inurba_marseille","lat":43.2607,"lon":5.393962,"is_reserved":false,"is_disabled":false,"rental_uris":{"android":"levelo://app?vid=7bbabe21-41fb-474d-b751-cfd2cc7ea973","ios":"levelo://app?vid=7bbabe21-41fb-474d-b751-cfd2cc7ea973"},"vehicle_type_id":"4","last_reported":1753715590,"current_range_meters":12400,"station_id":"ce4bhh92rcd13ifvqfj0","pricing_plan_id":"cebpf4jnsgd1na2vs0mg"},{"bike_id":"df57ba1c-5b99-48c2-9c45-1b61c54c4e60","system_id":"levelo_inurba_marseille","lat":43.26555,"lon":5.37276,"is_reserved":false,"is_disabled":false,"rental_uris":{"android":"levelo://app?vid=df57ba1c-5b99-48c2-9c45-1b61c54c4e60","ios":"levelo://app?vid=df57ba1c-5b99-48c2-9c45-1b61c54c4e60"},"vehicle_type_id":"4","last_reported":1753715590,"current_range_meters":12400,"station_id":"ce4bhg12rcd13ifvqf70","pricing_plan_id":"cebpf4jnsgd1na2vs0mg"},{"bike_id":"878e43ee-a4d4-4fa1-9d58-5fcd6616d664","system_id":"levelo_inurba_marseille","lat":43.31354,"lon":5.36724,"is_reserved":false,"is_disabled":false,"rental_uris":{"android":"levelo://app?vid=878e43ee-a4d4-4fa1-9d58-5fcd6616d664","ios":"levelo://app?vid=878e43ee-a4d4-4fa1-9d58-5fcd6616d664"},"vehicle_type_id":"4","last_reported":1753715590,"current_range_meters":12400,"station_id":"ce4bgr92rcd13ifvqc6g","pricing_plan_id":"cebpf4jnsgd1na2vs0mg"},{"bike_id":"209c73e6-1f69-4d13-9fed-77cb46eecd05","system_id":"levelo_inurba_marseille","lat":43.34681,"lon":5.38065,"is_reserved":false,"is_disabled":false,"rental_uris":{"android":"levelo://app?vid=209c73e6-1f69-4d13-9fed-77cb46eecd05","ios":"levelo://app?vid=209c73e6-1f69-4d13-9fed-77cb46eecd05"},"vehicle_type_id":"4","last_reported":1753715590,"current_range_meters":12400,"station_id":"","pricing_plan_id":"cebpf4jnsgd1na2vs0mg"},{"bike_id":"b595b038-4356-445c-a56e-728cd5f722d0","system_id":"levelo_inurba_marseille","lat":43.31269,"lon":5.40167,"is_reserved":false,"is_disabled":false,"rental_uris":{"android":"levelo://app?vid=b595b038-4356-445c-a56e-728cd5f722d0","ios":"levelo://app?vid=b595b038-4356-445c-a56e-728cd5f722d0"},"vehicle_type_id":"4","last_reported":1753715590,"current_range_meters":12800,"station_id":"ce4bh092rcd13ifvqd30","pricing_plan_id":"cebpf4jnsgd1na2vs0mg"},{"bike_id":"0710cc23-964c-41f9-b259-8bd1211f7d6e","system_id":"levelo_inurba_marseille","lat":43.28625,"lon":5.35095,"is_reserved":false,"is_disabled":false,"rental_uris":{"android":"levelo://app?vid=0710cc23-964c-41f9-b259-8bd1211f7d6e","ios":"levelo://app?vid=0710cc23-964c-41f9-b259-8bd1211f7d6e"},"vehicle_type_id":"4","last_reported":1753715590,"current_range_meters":12800,"station_id":"ce4bhch2rcd13ifvqeug","pricing_plan_id":"cebpf4jnsgd1na2vs0mg"},{"bike_id":"9a53c405-7cae-4213-857e-35d22ee808a3","system_id":"levelo_inurba_marseille","lat":43.284108,"lon":5.349928,"is_reserved":false,"is_disabled":false,"rental_uris":{"android":"levelo://app?vid=9a53c405-7cae-4213-857e-35d22ee808a3","ios":"levelo://app?vid=9a53c405-7cae-4213-857e-35d22ee808a3"},"vehicle_type_id":"4","last_reported":1753715590,"current_range_meters":12800,"station_id":"ce4bhbh2rcd13ifvqepg","pricing_plan_id":"cebpf4jnsgd1na2vs0mg"},{"bike_id":"3d7bd2df-1620-4d2f-8a21-1ea51448f90e","system_id":"levelo_inurba_marseille","lat":43.28613,"lon":5.35102,"is_reserved":false,"is_disabled":false,"rental_uris":{"android":"levelo://app?vid=3d7bd2df-1620-4d2f-8a21-1ea51448f90e","ios":"levelo://app?vid=3d7bd2df-1620-4d2f-8a21-1ea51448f90e"},"vehicle_type_id":"4","last_reported":1753715590,"current_range_meters":12800,"station_id":"ce4bhch2rcd13ifvqeug","pricing_plan_id":"cebpf4jnsgd1na2vs0mg"},{"bike_id":"95dd70e4-879c-49e7-b318-a6c71b22a43e","system_id":"levelo_inurba_marseille","lat":43.2703,"lon":5.39295,"is_reserved":false,"is_disabled":false,"rental_uris":{"android":"levelo://app?vid=95dd70e4-879c-49e7-b318-a6c71b22a43e","ios":"levelo://app?vid=95dd70e4-879c-49e7-b318-a6c71b22a43e"},"vehicle_type_id":"4","last_reported":1753715590,"current_range_meters":12800,"station_id":"","pricing_plan_id":"cebpf4jnsgd1na2vs0mg"},{"bike_id":"3efe99ad-0b45-4c18-92ca-96f6cb43a670","system_id":"levelo_inurba_marseille","lat":43.32338,"lon":5.3671,"is_reserved":false,"is_disabled":true,"rental_uris":{"android":"levelo://app?vid=3efe99ad-0b45-4c18-92ca-96f6cb43a670","ios":"levelo://app?vid=3efe99ad-0b45-4c18-92ca-96f6cb43a670"},"vehicle_type_id":"4","last_reported":1753715590,"current_range_meters":12800,"station_id":"ce4bhsh2rcd13ifvqi2g","pricing_plan_id":"cebpf4jnsgd1na2vs0mg"},{"bike_id":"65e3db07-f188-422b-b687-3d06cfe2bcf8","system_id":"levelo_inurba_marseille","lat":43.28044,"lon":5.35017,"is_reserved":false,"is_disabled":false,"rental_uris":{"android":"levelo://app?vid=65e3db07-f188-422b-b687-3d06cfe2bcf8","ios":"levelo://app?vid=65e3db07-f188-422b-b687-3d06cfe2bcf8"},"vehicle_type_id":"4","last_reported":1753715590,"current_range_meters":12800,"station_id":"","pricing_plan_id":"cebpf4jnsgd1na2vs0mg"},{"bike_id":"84036e62-78c0-42e9-a5c2-ad3d3703bc8c","system_id":"levelo_inurba_marseille","lat":43.27956,"lon":5.41046,"is_reserved":false,"is_disabled":true,"rental_uris":{"android":"levelo://app?vid=84036e62-78c0-42e9-a5c2-ad3d3703bc8c","ios":"levelo://app?vid=84036e62-78c0-42e9-a5c2-ad3d3703bc8c"},"vehicle_type_id":"4","last_reported":1753715590,"current_range_meters":12800,"station_id":"ce4bhnp2rcd13ifvqh0g","pricing_plan_id":"cebpf4jnsgd1na2vs0mg"},{"bike_id":"da8a121b-dd93-4a31-8254-38a795a66238","system_id":"levelo_inurba_marseille","lat":43.24083,"lon":5.37761,"is_reserved":false,"is_disabled":false,"rental_uris":{"android":"levelo://app?vid=da8a121b-dd93-4a31-8254-38a795a66238","ios":"levelo://app?vid=da8a121b-dd93-4a31-8254-38a795a66238"},"vehicle_type_id":"4","last_reported":1753715590,"current_range_meters":12800,"station_id":"ce4bhnp2rcd13ifvqgvg","pricing_plan_id":"cebpf4jnsgd1na2vs0mg"},{"bike_id":"21890952-b0cc-40d0-9827-ca0139a8e529","system_id":"levelo_inurba_marseille","lat":43.292715,"lon":5.384244,"is_reserved":false,"is_disabled":false,"rental_uris":{"android":"levelo://app?vid=21890952-b0cc-40d0-9827-ca0139a8e529","ios":"levelo://app?vid=21890952-b0cc-40d0-9827-ca0139a8e529"},"vehicle_type_id":"4","last_reported":1753715590,"current_range_meters":12800,"station_id":"ce4bh692rcd13ifvqea0","pricing_plan_id":"cebpf4jnsgd1na2vs0mg"},{"bike_id":"149fbe11-3bce-47a0-b584-c7c7bd6bb12f","system_id":"levelo_inurba_marseille","lat":43.21627,"lon":5.34468,"is_reserved":false,"is_disabled":false,"rental_uris":{"android":"levelo://app?vid=149fbe11-3bce-47a0-b584-c7c7bd6bb12f","ios":"levelo://app?vid=149fbe11-3bce-47a0-b584-c7c7bd6bb12f"},"vehicle_type_id":"4","last_reported":1753715590,"current_range_meters":12800,"station_id":"","pricing_plan_id":"cebpf4jnsgd1na2vs0mg"},{"bike_id":"c85546d4-3ea8-44da-9c2d-e6b7bf575831","system_id":"levelo_inurba_marseille","lat":43.28412,"lon":5.34993,"is_reserved":false,"is_disabled":false,"rental_uris":{"android":"levelo://app?vid=c85546d4-3ea8-44da-9c2d-e6b7bf575831","ios":"levelo://app?vid=c85546d4-3ea8-44da-9c2d-e6b7bf575831"},"vehicle_type_id":"4","last_reported":1753715590,"current_range_meters":12800,"station_id":"ce4bhbh2rcd13ifvqepg","pricing_plan_id":"cebpf4jnsgd1na2vs0mg"},{"bike_id":"245ed088-6466-4e3a-b359-50434d1733cf","system_id":"levelo_inurba_marseille","lat":43.24166,"lon":5.3639,"is_reserved":false,"is_disabled":false,"rental_uris":{"android":"levelo://app?vid=245ed088-6466-4e3a-b359-50434d1733cf","ios":"levelo://app?vid=245ed088-6466-4e3a-b359-50434d1733cf"},"vehicle_type_id":"4","last_reported":1753715590,"current_range_meters":12800,"station_id":"cpo36qri1sfpv3e86is0","pricing_plan_id":"cebpf4jnsgd1na2vs0mg"},{"bike_id":"ba19fae0-44ee-437f-913a-8c915df8c368","system_id":"levelo_inurba_marseille","lat":43.28411,"lon":5.34994,"is_reserved":false,"is_disabled":false,"rental_uris":{"android":"levelo://app?vid=ba19fae0-44ee-437f-913a-8c915df8c368","ios":"levelo://app?vid=ba19fae0-44ee-437f-913a-8c915df8c368"},"vehicle_type_id":"4","last_reported":1753715590,"current_range_meters":12800,"station_id":"ce4bhbh2rcd13ifvqepg","pricing_plan_id":"cebpf4jnsgd1na2vs0mg"},{"bike_id":"465af1c6-94fa-401b-ad2c-153493985e44","system_id":"levelo_inurba_marseille","lat":43.3169,"lon":5.37826,"is_reserved":false,"is_disabled":false,"rental_uris":{"android":"levelo://app?vid=465af1c6-94fa-401b-ad2c-153493985e44","ios":"levelo://app?vid=465af1c6-94fa-401b-ad2c-153493985e44"},"vehicle_type_id":"4","last_reported":1753715590,"current_range_meters":12800,"station_id":"","pricing_plan_id":"cebpf4jnsgd1na2vs0mg"},{"bike_id":"266110fa-07e5-4b96-8173-d5b1a07b5e50","system_id":"levelo_inurba_marseille","lat":43.30357,"lon":5.41871,"is_reserved":false,"is_disabled":false,"rental_uris":{"android":"levelo://app?vid=266110fa-07e5-4b96-8173-d5b1a07b5e50","ios":"levelo://app?vid=266110fa-07e5-4b96-8173-d5b1a07b5e50"},"vehicle_type_id":"4","last_reported":1753715590,"current_range_meters":12800,"station_id":"ce4bhop2rcd13ifvqh7g","pricing_plan_id":"cebpf4jnsgd1na2vs0mg"},{"bike_id":"5bf3ed1a-1969-409f-8d81-292c7d10a407","system_id":"levelo_inurba_marseille","lat":43.32109,"lon":5.36775,"is_reserved":false,"is_disabled":false,"rental_uris":{"android":"levelo://app?vid=5bf3ed1a-1969-409f-8d81-292c7d10a407","ios":"levelo://app?vid=5bf3ed1a-1969-409f-8d81-292c7d10a407"},"vehicle_type_id":"4","last_reported":1753715590,"current_range_meters":13600,"station_id":"ce4bhrh2rcd13ifvqhug","pricing_plan_id":"cebpf4jnsgd1na2vs0mg"},{"bike_id":"bff33138-af8d-432a-b993-afe1fd8f42c1","system_id":"levelo_inurba_marseille","lat":43.31758,"lon":5.39018,"is_reserved":false,"is_disabled":false,"rental_uris":{"android":"levelo://app?vid=bff33138-af8d-432a-b993-afe1fd8f42c1","ios":"levelo://app?vid=bff33138-af8d-432a-b993-afe1fd8f42c1"},"vehicle_type_id":"4","last_reported":1753715590,"current_range_meters":13600,"station_id":"ce4bhqp2rcd13ifvqhng","pricing_plan_id":"cebpf4jnsgd1na2vs0mg"},{"bike_id":"db07f39e-aee3-4f54-a39b-d212974bfcc9","system_id":"levelo_inurba_marseille","lat":43.21755,"lon":5.34602,"is_reserved":false,"is_disabled":false,"rental_uris":{"android":"levelo://app?vid=db07f39e-aee3-4f54-a39b-d212974bfcc9","ios":"levelo://app?vid=db07f39e-aee3-4f54-a39b-d212974bfcc9"},"vehicle_type_id":"4","last_reported":1753715590,"current_range_meters":13600,"station_id":"st_cvj6r9ubvosntc0bgbag","pricing_plan_id":"cebpf4jnsgd1na2vs0mg"},{"bike_id":"d65a05e6-dbd8-4b76-bd3f-344bd8653c25","system_id":"levelo_inurba_marseille","lat":43.29626,"lon":5.37155,"is_reserved":false,"is_disabled":false,"rental_uris":{"android":"levelo://app?vid=d65a05e6-dbd8-4b76-bd3f-344bd8653c25","ios":"levelo://app?vid=d65a05e6-dbd8-4b76-bd3f-344bd8653c25"},"vehicle_type_id":"4","last_reported":1753715590,"current_range_meters":13600,"station_id":"ce4bgnh2rcd13ifvqc0g","pricing_plan_id":"cebpf4jnsgd1na2vs0mg"},{"bike_id":"8156ba1c-79d1-400d-96a0-33669bb7caeb","system_id":"levelo_inurba_marseille","lat":43.32593,"lon":5.41157,"is_reserved":false,"is_disabled":false,"rental_uris":{"android":"levelo://app?vid=8156ba1c-79d1-400d-96a0-33669bb7caeb","ios":"levelo://app?vid=8156ba1c-79d1-400d-96a0-33669bb7caeb"},"vehicle_type_id":"4","last_reported":1753715590,"current_range_meters":13600,"station_id":"","pricing_plan_id":"cebpf4jnsgd1na2vs0mg"},{"bike_id":"fa09af5c-344f-44ae-bf33-4c1a09fec048","system_id":"levelo_inurba_marseille","lat":43.29072,"lon":5.37167,"is_reserved":false,"is_disabled":false,"rental_uris":{"android":"levelo://app?vid=fa09af5c-344f-44ae-bf33-4c1a09fec048","ios":"levelo://app?vid=fa09af5c-344f-44ae-bf33-4c1a09fec048"},"vehicle_type_id":"4","last_reported":1753715590,"current_range_meters":12800,"station_id":"ce4bh5p2rcd13ifvqe4g","pricing_plan_id":"cebpf4jnsgd1na2vs0mg"},{"bike_id":"3dcc62af-b973-4873-bc5b-492583d89a6a","system_id":"levelo_inurba_marseille","lat":43.30307,"lon":5.36884,"is_reserved":false,"is_disabled":false,"rental_uris":{"android":"levelo://app?vid=3dcc62af-b973-4873-bc5b-492583d89a6a","ios":"levelo://app?vid=3dcc62af-b973-4873-bc5b-492583d89a6a"},"vehicle_type_id":"4","last_reported":1753715590,"current_range_meters":13600,"station_id":"ce4bgqh2rcd13ifvqc5g","pricing_plan_id":"cebpf4jnsgd1na2vs0mg"},{"bike_id":"b5bc7c4f-42ca-4f57-a975-008ed1c9ade5","system_id":"levelo_inurba_marseille","lat":43.292272,"lon":5.360526,"is_reserved":false,"is_disabled":false,"rental_uris":{"android":"levelo://app?vid=b5bc7c4f-42ca-4f57-a975-008ed1c9ade5","ios":"levelo://app?vid=b5bc7c4f-42ca-4f57-a975-008ed1c9ade5"},"vehicle_type_id":"4","last_reported":1753715590,"current_range_meters":14000,"station_id":"","pricing_plan_id":"cebpf4jnsgd1na2vs0mg"},{"bike_id":"485908b5-6cfb-4dfd-b9cb-93bed0988467","system_id":"levelo_inurba_marseille","lat":43.31707,"lon":5.37873,"is_reserved":false,"is_disabled":false,"rental_uris":{"android":"levelo://app?vid=485908b5-6cfb-4dfd-b9cb-93bed0988467","ios":"levelo://app?vid=485908b5-6cfb-4dfd-b9cb-93bed0988467"},"vehicle_type_id":"4","last_reported":1753715590,"current_range_meters":14000,"station_id":"ce4bgth2rcd13ifvqch0","pricing_plan_id":"cebpf4jnsgd1na2vs0mg"},{"bike_id":"d70613a2-027e-4ce6-8023-62349a7a4277","system_id":"levelo_inurba_marseille","lat":43.22515,"lon":5.34774,"is_reserved":false,"is_disabled":false,"rental_uris":{"android":"levelo://app?vid=d70613a2-027e-4ce6-8023-62349a7a4277","ios":"levelo://app?vid=d70613a2-027e-4ce6-8023-62349a7a4277"},"vehicle_type_id":"4","last_reported":1753715590,"current_range_meters":14000,"station_id":"st_cvj5dfep6f1abm77gieg","pricing_plan_id":"cebpf4jnsgd1na2vs0mg"},{"bike_id":"0849e39f-64f7-43b3-bee6-f94eb2ca799e","system_id":"levelo_inurba_marseille","lat":43.26728,"lon":5.38284,"is_reserved":false,"is_disabled":false,"rental_uris":{"android":"levelo://app?vid=0849e39f-64f7-43b3-bee6-f94eb2ca799e","ios":"levelo://app?vid=0849e39f-64f7-43b3-bee6-f94eb2ca799e"},"vehicle_type_id":"4","last_reported":1753715590,"current_range_meters":14000,"station_id":"","pricing_plan_id":"cebpf4jnsgd1na2vs0mg"},{"bike_id":"d03ebcd2-83e7-4ffd-bb1d-18fbff069a76","system_id":"levelo_inurba_marseille","lat":43.32539,"lon":5.41479,"is_reserved":false,"is_disabled":false,"rental_uris":{"android":"levelo://app?vid=d03ebcd2-83e7-4ffd-bb1d-18fbff069a76","ios":"levelo://app?vid=d03ebcd2-83e7-4ffd-bb1d-18fbff069a76"},"vehicle_type_id":"4","last_reported":1753715590,"current_range_meters":14000,"station_id":"ce4bhq12rcd13ifvqhhg","pricing_plan_id":"cebpf4jnsgd1na2vs0mg"},{"bike_id":"cc7c4e00-0232-444d-ba58-727403d89a90","system_id":"levelo_inurba_marseille","lat":43.31885,"lon":5.40732,"is_reserved":false,"is_disabled":false,"rental_uris":{"android":"levelo://app?vid=cc7c4e00-0232-444d-ba58-727403d89a90","ios":"levelo://app?vid=cc7c4e00-0232-444d-ba58-727403d89a90"},"vehicle_type_id":"4","last_reported":1753715590,"current_range_meters":14000,"station_id":"ce4bhq12rcd13ifvqhig","pricing_plan_id":"cebpf4jnsgd1na2vs0mg"},{"bike_id":"947cf9dd-0905-42a3-aafb-8e1c05b7ea7a","system_id":"levelo_inurba_marseille","lat":43.30836,"lon":5.38212,"is_reserved":false,"is_disabled":false,"rental_uris":{"android":"levelo://app?vid=947cf9dd-0905-42a3-aafb-8e1c05b7ea7a","ios":"levelo://app?vid=947cf9dd-0905-42a3-aafb-8e1c05b7ea7a"},"vehicle_type_id":"4","last_reported":1753715590,"current_range_meters":14000,"station_id":"","pricing_plan_id":"cebpf4jnsgd1na2vs0mg"},{"bike_id":"4a2a7ff3-8f0f-45ee-b6d8-e4b793244ecc","system_id":"levelo_inurba_marseille","lat":43.28298,"lon":5.35075,"is_reserved":false,"is_disabled":true,"rental_uris":{"android":"levelo://app?vid=4a2a7ff3-8f0f-45ee-b6d8-e4b793244ecc","ios":"levelo://app?vid=4a2a7ff3-8f0f-45ee-b6d8-e4b793244ecc"},"vehicle_type_id":"4","last_reported":1753715590,"current_range_meters":14000,"station_id":"ce4bhbp2rcd13ifvqerg","pricing_plan_id":"cebpf4jnsgd1na2vs0mg"},{"bike_id":"8d236500-a9be-4d7c-9e2b-49e87b7eb5d6","system_id":"levelo_inurba_marseille","lat":43.25584,"lon":5.38234,"is_reserved":false,"is_disabled":false,"rental_uris":{"android":"levelo://app?vid=8d236500-a9be-4d7c-9e2b-49e87b7eb5d6","ios":"levelo://app?vid=8d236500-a9be-4d7c-9e2b-49e87b7eb5d6"},"vehicle_type_id":"4","last_reported":1753715590,"current_range_meters":14400,"station_id":"ce4bhih2rcd13ifvqfs0","pricing_plan_id":"cebpf4jnsgd1na2vs0mg"},{"bike_id":"655c52db-a601-48df-b0bc-96a62f6ac9a0","system_id":"levelo_inurba_marseille","lat":43.30376,"lon":5.42492,"is_reserved":false,"is_disabled":false,"rental_uris":{"android":"levelo://app?vid=655c52db-a601-48df-b0bc-96a62f6ac9a0","ios":"levelo://app?vid=655c52db-a601-48df-b0bc-96a62f6ac9a0"},"vehicle_type_id":"4","last_reported":1753715590,"current_range_meters":14400,"station_id":"ce4bhoh2rcd13ifvqh6g","pricing_plan_id":"cebpf4jnsgd1na2vs0mg"},{"bike_id":"3dd2b2f9-64bc-4f1c-ad06-386f2ab19894","system_id":"levelo_inurba_marseille","lat":43.29756,"lon":5.36437,"is_reserved":false,"is_disabled":false,"rental_uris":{"android":"levelo://app?vid=3dd2b2f9-64bc-4f1c-ad06-386f2ab19894","ios":"levelo://app?vid=3dd2b2f9-64bc-4f1c-ad06-386f2ab19894"},"vehicle_type_id":"4","last_reported":1753715590,"current_range_meters":14400,"station_id":"","pricing_plan_id":"cebpf4jnsgd1na2vs0mg"},{"bike_id":"b27f09be-eafb-4baf-b243-35783955ab47","system_id":"levelo_inurba_marseille","lat":43.29269,"lon":5.38437,"is_reserved":false,"is_disabled":false,"rental_uris":{"android":"levelo://app?vid=b27f09be-eafb-4baf-b243-35783955ab47","ios":"levelo://app?vid=b27f09be-eafb-4baf-b243-35783955ab47"},"vehicle_type_id":"4","last_reported":1753715590,"current_range_meters":14400,"station_id":"ce4bh692rcd13ifvqea0","pricing_plan_id":"cebpf4jnsgd1na2vs0mg"},{"bike_id":"1ef24c9c-8eba-445d-aeec-e3e95a674ef1","system_id":"levelo_inurba_marseille","lat":43.287003,"lon":5.399907,"is_reserved":false,"is_disabled":false,"rental_uris":{"android":"levelo://app?vid=1ef24c9c-8eba-445d-aeec-e3e95a674ef1","ios":"levelo://app?vid=1ef24c9c-8eba-445d-aeec-e3e95a674ef1"},"vehicle_type_id":"4","last_reported":1753715590,"current_range_meters":14800,"station_id":"ce4bh392rcd13ifvqdm0","pricing_plan_id":"cebpf4jnsgd1na2vs0mg"},{"bike_id":"39e84eaa-0aa7-4cfc-bb97-928d6df75375","system_id":"levelo_inurba_marseille","lat":43.28717,"lon":5.3609,"is_reserved":false,"is_disabled":false,"rental_uris":{"android":"levelo://app?vid=39e84eaa-0aa7-4cfc-bb97-928d6df75375","ios":"levelo://app?vid=39e84eaa-0aa7-4cfc-bb97-928d6df75375"},"vehicle_type_id":"4","last_reported":1753715590,"current_range_meters":14800,"station_id":"cki0cbj6b192h4jlfktg","pricing_plan_id":"cebpf4jnsgd1na2vs0mg"},{"bike_id":"37e4af04-af1d-4924-a57a-e3b413d7e040","system_id":"levelo_inurba_marseille","lat":43.30935,"lon":5.40137,"is_reserved":false,"is_disabled":false,"rental_uris":{"android":"levelo://app?vid=37e4af04-af1d-4924-a57a-e3b413d7e040","ios":"levelo://app?vid=37e4af04-af1d-4924-a57a-e3b413d7e040"},"vehicle_type_id":"4","last_reported":1753715590,"current_range_meters":14800,"station_id":"ce4bgvp2rcd13ifvqct0","pricing_plan_id":"cebpf4jnsgd1na2vs0mg"},{"bike_id":"edb9fa8d-c676-48e0-b7a5-d0d3a19a7558","system_id":"levelo_inurba_marseille","lat":43.30554,"lon":5.36701,"is_reserved":false,"is_disabled":false,"rental_uris":{"android":"levelo://app?vid=edb9fa8d-c676-48e0-b7a5-d0d3a19a7558","ios":"levelo://app?vid=edb9fa8d-c676-48e0-b7a5-d0d3a19a7558"},"vehicle_type_id":"4","last_reported":1753715590,"current_range_meters":14800,"station_id":"ce4bgrp2rcd13ifvqc9g","pricing_plan_id":"cebpf4jnsgd1na2vs0mg"},{"bike_id":"90e2f2a5-166b-4b25-8c5e-b891a25598d5","system_id":"levelo_inurba_marseille","lat":43.23179,"lon":5.39986,"is_reserved":false,"is_disabled":false,"rental_uris":{"android":"levelo://app?vid=90e2f2a5-166b-4b25-8c5e-b891a25598d5","ios":"levelo://app?vid=90e2f2a5-166b-4b25-8c5e-b891a25598d5"},"vehicle_type_id":"4","last_reported":1753715590,"current_range_meters":14800,"station_id":"ce4bhn12rcd13ifvqgqg","pricing_plan_id":"cebpf4jnsgd1na2vs0mg"},{"bike_id":"d38cca04-520e-4ff5-bdc9-0ce7367850ae","system_id":"levelo_inurba_marseille","lat":43.30597,"lon":5.39364,"is_reserved":false,"is_disabled":false,"rental_uris":{"android":"levelo://app?vid=d38cca04-520e-4ff5-bdc9-0ce7367850ae","ios":"levelo://app?vid=d38cca04-520e-4ff5-bdc9-0ce7367850ae"},"vehicle_type_id":"4","last_reported":1753715590,"current_range_meters":14800,"station_id":"ce4bh0p2rcd13ifvqd80","pricing_plan_id":"cebpf4jnsgd1na2vs0mg"},{"bike_id":"c5d6c16c-667e-4c61-9e09-b5efae6e86bc","system_id":"levelo_inurba_marseille","lat":43.299079,"lon":5.43672,"is_reserved":false,"is_disabled":false,"rental_uris":{"android":"levelo://app?vid=c5d6c16c-667e-4c61-9e09-b5efae6e86bc","ios":"levelo://app?vid=c5d6c16c-667e-4c61-9e09-b5efae6e86bc"},"vehicle_type_id":"4","last_reported":1753715590,"current_range_meters":14800,"station_id":"ce4bhpp2rcd13ifvqhfg","pricing_plan_id":"cebpf4jnsgd1na2vs0mg"},{"bike_id":"06c8e7c3-48f3-4591-b772-dc3472b1bea3","system_id":"levelo_inurba_marseille","lat":43.29626,"lon":5.37738,"is_reserved":false,"is_disabled":false,"rental_uris":{"android":"levelo://app?vid=06c8e7c3-48f3-4591-b772-dc3472b1bea3","ios":"levelo://app?vid=06c8e7c3-48f3-4591-b772-dc3472b1bea3"},"vehicle_type_id":"4","last_reported":1753715590,"current_range_meters":14800,"station_id":"ce4bgi92rcd13ifvqb90","pricing_plan_id":"cebpf4jnsgd1na2vs0mg"},{"bike_id":"19687629-77e7-45e7-89d3-794744d37e38","system_id":"levelo_inurba_marseille","lat":43.225082,"lon":5.347774,"is_reserved":false,"is_disabled":false,"rental_uris":{"android":"levelo://app?vid=19687629-77e7-45e7-89d3-794744d37e38","ios":"levelo://app?vid=19687629-77e7-45e7-89d3-794744d37e38"},"vehicle_type_id":"4","last_reported":1753715590,"current_range_meters":14800,"station_id":"st_cvj5dfep6f1abm77gieg","pricing_plan_id":"cebpf4jnsgd1na2vs0mg"},{"bike_id":"11648341-5a9b-4630-b256-1b937e7ffd66","system_id":"levelo_inurba_marseille","lat":43.29275,"lon":5.3685,"is_reserved":false,"is_disabled":false,"rental_uris":{"android":"levelo://app?vid=11648341-5a9b-4630-b256-1b937e7ffd66","ios":"levelo://app?vid=11648341-5a9b-4630-b256-1b937e7ffd66"},"vehicle_type_id":"4","last_reported":1753715590,"current_range_meters":14800,"station_id":"","pricing_plan_id":"cebpf4jnsgd1na2vs0mg"},{"bike_id":"78fa9222-f066-47e3-99bd-31d348124e49","system_id":"levelo_inurba_marseille","lat":43.28459,"lon":5.35894,"is_reserved":false,"is_disabled":false,"rental_uris":{"android":"levelo://app?vid=78fa9222-f066-47e3-99bd-31d348124e49","ios":"levelo://app?vid=78fa9222-f066-47e3-99bd-31d348124e49"},"vehicle_type_id":"4","last_reported":1753715590,"current_range_meters":15200,"station_id":"ce4bhah2rcd13ifvqei0","pricing_plan_id":"cebpf4jnsgd1na2vs0mg"},{"bike_id":"8edfb6da-4d37-4fbe-98ee-ff2a69c994d8","system_id":"levelo_inurba_marseille","lat":43.26572,"lon":5.39025,"is_reserved":false,"is_disabled":false,"rental_uris":{"android":"levelo://app?vid=8edfb6da-4d37-4fbe-98ee-ff2a69c994d8","ios":"levelo://app?vid=8edfb6da-4d37-4fbe-98ee-ff2a69c994d8"},"vehicle_type_id":"4","last_reported":1753715590,"current_range_meters":15200,"station_id":"ce4bhe12rcd13ifvqf30","pricing_plan_id":"cebpf4jnsgd1na2vs0mg"},{"bike_id":"ca10e505-9082-45d9-95ae-43eaf170754a","system_id":"levelo_inurba_marseille","lat":43.23194,"lon":5.35555,"is_reserved":false,"is_disabled":false,"rental_uris":{"android":"levelo://app?vid=ca10e505-9082-45d9-95ae-43eaf170754a","ios":"levelo://app?vid=ca10e505-9082-45d9-95ae-43eaf170754a"},"vehicle_type_id":"4","last_reported":1753715590,"current_range_meters":15200,"station_id":"ce4bhu92rcd13ifvqi70","pricing_plan_id":"cebpf4jnsgd1na2vs0mg"},{"bike_id":"9d7a7401-8fd2-4973-ab8a-2865b284b93e","system_id":"levelo_inurba_marseille","lat":43.33031,"lon":5.39038,"is_reserved":false,"is_disabled":false,"rental_uris":{"android":"levelo://app?vid=9d7a7401-8fd2-4973-ab8a-2865b284b93e","ios":"levelo://app?vid=9d7a7401-8fd2-4973-ab8a-2865b284b93e"},"vehicle_type_id":"4","last_reported":1753715590,"current_range_meters":14800,"station_id":"ce4bhr92rcd13ifvqhrg","pricing_plan_id":"cebpf4jnsgd1na2vs0mg"},{"bike_id":"d4b0442d-37e3-4887-8827-87b59f4e9086","system_id":"levelo_inurba_marseille","lat":43.2977,"lon":5.38108,"is_reserved":false,"is_disabled":false,"rental_uris":{"android":"levelo://app?vid=d4b0442d-37e3-4887-8827-87b59f4e9086","ios":"levelo://app?vid=d4b0442d-37e3-4887-8827-87b59f4e9086"},"vehicle_type_id":"4","last_reported":1753715590,"current_range_meters":15200,"station_id":"","pricing_plan_id":"cebpf4jnsgd1na2vs0mg"},{"bike_id":"aafba76e-3da3-4ebb-9332-0bac111897c0","system_id":"levelo_inurba_marseille","lat":43.22923,"lon":5.353731,"is_reserved":false,"is_disabled":false,"rental_uris":{"android":"levelo://app?vid=aafba76e-3da3-4ebb-9332-0bac111897c0","ios":"levelo://app?vid=aafba76e-3da3-4ebb-9332-0bac111897c0"},"vehicle_type_id":"4","last_reported":1753715590,"current_range_meters":15200,"station_id":"cpo3532slgdg3j2ikp40","pricing_plan_id":"cebpf4jnsgd1na2vs0mg"},{"bike_id":"dce96d7f-b1fa-4db9-9105-5b590fdd69b7","system_id":"levelo_inurba_marseille","lat":43.299141,"lon":5.381515,"is_reserved":false,"is_disabled":false,"rental_uris":{"android":"levelo://app?vid=dce96d7f-b1fa-4db9-9105-5b590fdd69b7","ios":"levelo://app?vid=dce96d7f-b1fa-4db9-9105-5b590fdd69b7"},"vehicle_type_id":"4","last_reported":1753715590,"current_range_meters":15200,"station_id":"ce4bgj12rcd13ifvqbc0","pricing_plan_id":"cebpf4jnsgd1na2vs0mg"},{"bike_id":"e0ce0053-71c4-4b07-8b9e-379e7ce2bf22","system_id":"levelo_inurba_marseille","lat":43.30277,"lon":5.39794,"is_reserved":false,"is_disabled":false,"rental_uris":{"android":"levelo://app?vid=e0ce0053-71c4-4b07-8b9e-379e7ce2bf22","ios":"levelo://app?vid=e0ce0053-71c4-4b07-8b9e-379e7ce2bf22"},"vehicle_type_id":"4","last_reported":1753715590,"current_range_meters":15200,"station_id":"","pricing_plan_id":"cebpf4jnsgd1na2vs0mg"},{"bike_id":"2a3a9f20-00d1-4c95-a093-ba8e28724bc0","system_id":"levelo_inurba_marseille","lat":43.30659,"lon":5.37552,"is_reserved":false,"is_disabled":false,"rental_uris":{"android":"levelo://app?vid=2a3a9f20-00d1-4c95-a093-ba8e28724bc0","ios":"levelo://app?vid=2a3a9f20-00d1-4c95-a093-ba8e28724bc0"},"vehicle_type_id":"4","last_reported":1753715590,"current_range_meters":15200,"station_id":"","pricing_plan_id":"cebpf4jnsgd1na2vs0mg"},{"bike_id":"475afd4f-6bb1-4164-9e85-876c28333187","system_id":"levelo_inurba_marseille","lat":43.30431,"lon":5.38883,"is_reserved":false,"is_disabled":false,"rental_uris":{"android":"levelo://app?vid=475afd4f-6bb1-4164-9e85-876c28333187","ios":"levelo://app?vid=475afd4f-6bb1-4164-9e85-876c28333187"},"vehicle_type_id":"4","last_reported":1753715590,"current_range_meters":16000,"station_id":"ce4bgk12rcd13ifvqbi0","pricing_plan_id":"cebpf4jnsgd1na2vs0mg"},{"bike_id":"cd04a6ba-3b07-4587-89b3-3746f8de64c1","system_id":"levelo_inurba_marseille","lat":43.23154,"lon":5.43721,"is_reserved":false,"is_disabled":false,"rental_uris":{"android":"levelo://app?vid=cd04a6ba-3b07-4587-89b3-3746f8de64c1","ios":"levelo://app?vid=cd04a6ba-3b07-4587-89b3-3746f8de64c1"},"vehicle_type_id":"4","last_reported":1753715590,"current_range_meters":16000,"station_id":"ce4bhmp2rcd13ifvqgog","pricing_plan_id":"cebpf4jnsgd1na2vs0mg"},{"bike_id":"c13ce413-660f-4ff8-9547-d17d0704485e","system_id":"levelo_inurba_marseille","lat":43.21195,"lon":5.350792,"is_reserved":false,"is_disabled":false,"rental_uris":{"android":"levelo://app?vid=c13ce413-660f-4ff8-9547-d17d0704485e","ios":"levelo://app?vid=c13ce413-660f-4ff8-9547-d17d0704485e"},"vehicle_type_id":"4","last_reported":1753715590,"current_range_meters":16000,"station_id":"","pricing_plan_id":"cebpf4jnsgd1na2vs0mg"},{"bike_id":"3c6d990b-d853-4774-9e68-ab11c54c28bf","system_id":"levelo_inurba_marseille","lat":43.2835,"lon":5.35037,"is_reserved":false,"is_disabled":false,"rental_uris":{"android":"levelo://app?vid=3c6d990b-d853-4774-9e68-ab11c54c28bf","ios":"levelo://app?vid=3c6d990b-d853-4774-9e68-ab11c54c28bf"},"vehicle_type_id":"4","last_reported":1753715590,"current_range_meters":16000,"station_id":"ce4bhbp2rcd13ifvqerg","pricing_plan_id":"cebpf4jnsgd1na2vs0mg"},{"bike_id":"b7f3604e-0c97-42b5-a955-ced844ef81ba","system_id":"levelo_inurba_marseille","lat":43.30558,"lon":5.36549,"is_reserved":false,"is_disabled":false,"rental_uris":{"android":"levelo://app?vid=b7f3604e-0c97-42b5-a955-ced844ef81ba","ios":"levelo://app?vid=b7f3604e-0c97-42b5-a955-ced844ef81ba"},"vehicle_type_id":"4","last_reported":1753715590,"current_range_meters":15200,"station_id":"ce4bgs12rcd13ifvqcag","pricing_plan_id":"cebpf4jnsgd1na2vs0mg"},{"bike_id":"01abb6d1-2171-4502-a7fe-de8452ba3a00","system_id":"levelo_inurba_marseille","lat":43.29202,"lon":5.39319,"is_reserved":false,"is_disabled":false,"rental_uris":{"android":"levelo://app?vid=01abb6d1-2171-4502-a7fe-de8452ba3a00","ios":"levelo://app?vid=01abb6d1-2171-4502-a7fe-de8452ba3a00"},"vehicle_type_id":"4","last_reported":1753715590,"current_range_meters":16000,"station_id":"ce4bh192rcd13ifvqdd0","pricing_plan_id":"cebpf4jnsgd1na2vs0mg"},{"bike_id":"f297ecb0-f504-4ce2-a698-235b8f25b26b","system_id":"levelo_inurba_marseille","lat":43.24162,"lon":5.36411,"is_reserved":false,"is_disabled":false,"rental_uris":{"android":"levelo://app?vid=f297ecb0-f504-4ce2-a698-235b8f25b26b","ios":"levelo://app?vid=f297ecb0-f504-4ce2-a698-235b8f25b26b"},"vehicle_type_id":"4","last_reported":1753715590,"current_range_meters":16000,"station_id":"cpo36qri1sfpv3e86is0","pricing_plan_id":"cebpf4jnsgd1na2vs0mg"},{"bike_id":"52fa2f88-6678-4b0d-bdeb-77d5e9331688","system_id":"levelo_inurba_marseille","lat":43.21192,"lon":5.35058,"is_reserved":false,"is_disabled":false,"rental_uris":{"android":"levelo://app?vid=52fa2f88-6678-4b0d-bdeb-77d5e9331688","ios":"levelo://app?vid=52fa2f88-6678-4b0d-bdeb-77d5e9331688"},"vehicle_type_id":"4","last_reported":1753715590,"current_range_meters":16000,"station_id":"st_cvj6sg6p6f1abm77japg","pricing_plan_id":"cebpf4jnsgd1na2vs0mg"},{"bike_id":"0938e41e-f961-425a-8c0f-36baf4215fb9","system_id":"levelo_inurba_marseille","lat":43.27072,"lon":5.42206,"is_reserved":false,"is_disabled":false,"rental_uris":{"android":"levelo://app?vid=0938e41e-f961-425a-8c0f-36baf4215fb9","ios":"levelo://app?vid=0938e41e-f961-425a-8c0f-36baf4215fb9"},"vehicle_type_id":"4","last_reported":1753715590,"current_range_meters":16000,"station_id":"","pricing_plan_id":"cebpf4jnsgd1na2vs0mg"},{"bike_id":"9f131d93-19fb-4fae-8e0d-adbfdc719b6a","system_id":"levelo_inurba_marseille","lat":43.299145,"lon":5.380864,"is_reserved":false,"is_disabled":false,"rental_uris":{"android":"levelo://app?vid=9f131d93-19fb-4fae-8e0d-adbfdc719b6a","ios":"levelo://app?vid=9f131d93-19fb-4fae-8e0d-adbfdc719b6a"},"vehicle_type_id":"4","last_reported":1753715590,"current_range_meters":16400,"station_id":"","pricing_plan_id":"cebpf4jnsgd1na2vs0mg"},{"bike_id":"50214110-0893-497b-8a40-8b9bcb344c06","system_id":"levelo_inurba_marseille","lat":43.284085,"lon":5.349752,"is_reserved":false,"is_disabled":false,"rental_uris":{"android":"levelo://app?vid=50214110-0893-497b-8a40-8b9bcb344c06","ios":"levelo://app?vid=50214110-0893-497b-8a40-8b9bcb344c06"},"vehicle_type_id":"4","last_reported":1753715590,"current_range_meters":16400,"station_id":"ce4bhbh2rcd13ifvqepg","pricing_plan_id":"cebpf4jnsgd1na2vs0mg"},{"bike_id":"1d599ca9-96fe-4939-8af9-7954ed58ad38","system_id":"levelo_inurba_marseille","lat":43.23549,"lon":5.36017,"is_reserved":false,"is_disabled":false,"rental_uris":{"android":"levelo://app?vid=1d599ca9-96fe-4939-8af9-7954ed58ad38","ios":"levelo://app?vid=1d599ca9-96fe-4939-8af9-7954ed58ad38"},"vehicle_type_id":"4","last_reported":1753715590,"current_range_meters":16400,"station_id":"","pricing_plan_id":"cebpf4jnsgd1na2vs0mg"},{"bike_id":"d83c4d0a-f4a7-4c3c-b198-f78a8d9102c3","system_id":"levelo_inurba_marseille","lat":43.2484,"lon":5.37496,"is_reserved":false,"is_disabled":false,"rental_uris":{"android":"levelo://app?vid=d83c4d0a-f4a7-4c3c-b198-f78a8d9102c3","ios":"levelo://app?vid=d83c4d0a-f4a7-4c3c-b198-f78a8d9102c3"},"vehicle_type_id":"4","last_reported":1753715590,"current_range_meters":16400,"station_id":"","pricing_plan_id":"cebpf4jnsgd1na2vs0mg"},{"bike_id":"32826f34-8228-4d4b-815c-cc490d99eb72","system_id":"levelo_inurba_marseille","lat":43.22503,"lon":5.34773,"is_reserved":false,"is_disabled":false,"rental_uris":{"android":"levelo://app?vid=32826f34-8228-4d4b-815c-cc490d99eb72","ios":"levelo://app?vid=32826f34-8228-4d4b-815c-cc490d99eb72"},"vehicle_type_id":"4","last_reported":1753715590,"current_range_meters":16400,"station_id":"st_cvj5dfep6f1abm77gieg","pricing_plan_id":"cebpf4jnsgd1na2vs0mg"},{"bike_id":"dafe0574-978b-4a5e-8685-0b7cc94c06ec","system_id":"levelo_inurba_marseille","lat":43.30534,"lon":5.36544,"is_reserved":false,"is_disabled":false,"rental_uris":{"android":"levelo://app?vid=dafe0574-978b-4a5e-8685-0b7cc94c06ec","ios":"levelo://app?vid=dafe0574-978b-4a5e-8685-0b7cc94c06ec"},"vehicle_type_id":"4","last_reported":1753715590,"current_range_meters":16400,"station_id":"ce4bgs12rcd13ifvqcag","pricing_plan_id":"cebpf4jnsgd1na2vs0mg"},{"bike_id":"b97ffecd-6455-4c53-ac00-08f3870ed1f7","system_id":"levelo_inurba_marseille","lat":43.30046,"lon":5.37641,"is_reserved":false,"is_disabled":false,"rental_uris":{"android":"levelo://app?vid=b97ffecd-6455-4c53-ac00-08f3870ed1f7","ios":"levelo://app?vid=b97ffecd-6455-4c53-ac00-08f3870ed1f7"},"vehicle_type_id":"4","last_reported":1753715590,"current_range_meters":16400,"station_id":"","pricing_plan_id":"cebpf4jnsgd1na2vs0mg"},{"bike_id":"3341f0ea-e8e1-4960-b7e6-43f1d879c4c8","system_id":"levelo_inurba_marseille","lat":43.24161,"lon":5.36402,"is_reserved":false,"is_disabled":false,"rental_uris":{"android":"levelo://app?vid=3341f0ea-e8e1-4960-b7e6-43f1d879c4c8","ios":"levelo://app?vid=3341f0ea-e8e1-4960-b7e6-43f1d879c4c8"},"vehicle_type_id":"4","last_reported":1753715590,"current_range_meters":16400,"station_id":"cpo36qri1sfpv3e86is0","pricing_plan_id":"cebpf4jnsgd1na2vs0mg"},{"bike_id":"9b393da0-097c-4adc-a4aa-ed18005fec55","system_id":"levelo_inurba_marseille","lat":43.25723,"lon":5.41117,"is_reserved":false,"is_disabled":false,"rental_uris":{"android":"levelo://app?vid=9b393da0-097c-4adc-a4aa-ed18005fec55","ios":"levelo://app?vid=9b393da0-097c-4adc-a4aa-ed18005fec55"},"vehicle_type_id":"4","last_reported":1753715590,"current_range_meters":16400,"station_id":"ce4bhkp2rcd13ifvqgd0","pricing_plan_id":"cebpf4jnsgd1na2vs0mg"},{"bike_id":"7d0bc366-7472-4dec-a2f3-a1ab117a465c","system_id":"levelo_inurba_marseille","lat":43.32298,"lon":5.3827,"is_reserved":false,"is_disabled":false,"rental_uris":{"android":"levelo://app?vid=7d0bc366-7472-4dec-a2f3-a1ab117a465c","ios":"levelo://app?vid=7d0bc366-7472-4dec-a2f3-a1ab117a465c"},"vehicle_type_id":"4","last_reported":1753715590,"current_range_meters":16400,"station_id":"ce4bhr12rcd13ifvqhqg","pricing_plan_id":"cebpf4jnsgd1na2vs0mg"},{"bike_id":"650d6f69-c114-4a03-8447-8aab6f305061","system_id":"levelo_inurba_marseille","lat":43.28269,"lon":5.35076,"is_reserved":false,"is_disabled":false,"rental_uris":{"android":"levelo://app?vid=650d6f69-c114-4a03-8447-8aab6f305061","ios":"levelo://app?vid=650d6f69-c114-4a03-8447-8aab6f305061"},"vehicle_type_id":"4","last_reported":1753715590,"current_range_meters":16800,"station_id":"ce4bhbp2rcd13ifvqerg","pricing_plan_id":"cebpf4jnsgd1na2vs0mg"},{"bike_id":"a0814fc4-4ae8-48f5-99a3-1abb86999960","system_id":"levelo_inurba_marseille","lat":43.28414,"lon":5.349765,"is_reserved":false,"is_disabled":false,"rental_uris":{"android":"levelo://app?vid=a0814fc4-4ae8-48f5-99a3-1abb86999960","ios":"levelo://app?vid=a0814fc4-4ae8-48f5-99a3-1abb86999960"},"vehicle_type_id":"4","last_reported":1753715590,"current_range_meters":16800,"station_id":"ce4bhbh2rcd13ifvqepg","pricing_plan_id":"cebpf4jnsgd1na2vs0mg"},{"bike_id":"905576ef-66ce-426e-9600-566828c3b671","system_id":"levelo_inurba_marseille","lat":43.217352,"lon":5.346043,"is_reserved":false,"is_disabled":true,"rental_uris":{"android":"levelo://app?vid=905576ef-66ce-426e-9600-566828c3b671","ios":"levelo://app?vid=905576ef-66ce-426e-9600-566828c3b671"},"vehicle_type_id":"4","last_reported":1753715590,"current_range_meters":16800,"station_id":"","pricing_plan_id":"cebpf4jnsgd1na2vs0mg"},{"bike_id":"40523d3c-3186-4c9d-bf57-cc5e90987418","system_id":"levelo_inurba_marseille","lat":43.24663,"lon":5.38179,"is_reserved":false,"is_disabled":false,"rental_uris":{"android":"levelo://app?vid=40523d3c-3186-4c9d-bf57-cc5e90987418","ios":"levelo://app?vid=40523d3c-3186-4c9d-bf57-cc5e90987418"},"vehicle_type_id":"4","last_reported":1753715590,"current_range_meters":16800,"station_id":"ce4bhih2rcd13ifvqfr0","pricing_plan_id":"cebpf4jnsgd1na2vs0mg"},{"bike_id":"67b5cd53-992d-41ae-a413-a993585de71f","system_id":"levelo_inurba_marseille","lat":43.25727,"lon":5.41102,"is_reserved":false,"is_disabled":false,"rental_uris":{"android":"levelo://app?vid=67b5cd53-992d-41ae-a413-a993585de71f","ios":"levelo://app?vid=67b5cd53-992d-41ae-a413-a993585de71f"},"vehicle_type_id":"4","last_reported":1753715590,"current_range_meters":16800,"station_id":"ce4bhkp2rcd13ifvqgd0","pricing_plan_id":"cebpf4jnsgd1na2vs0mg"},{"bike_id":"f935bdfe-ce07-40e9-9f05-f13806b2bee8","system_id":"levelo_inurba_marseille","lat":43.22525,"lon":5.3476,"is_reserved":false,"is_disabled":false,"rental_uris":{"android":"levelo://app?vid=f935bdfe-ce07-40e9-9f05-f13806b2bee8","ios":"levelo://app?vid=f935bdfe-ce07-40e9-9f05-f13806b2bee8"},"vehicle_type_id":"4","last_reported":1753715590,"current_range_meters":16800,"station_id":"st_cvj5dfep6f1abm77gieg","pricing_plan_id":"cebpf4jnsgd1na2vs0mg"},{"bike_id":"4f0d56f5-e54c-465b-a15e-32b747ab0912","system_id":"levelo_inurba_marseille","lat":43.31693,"lon":5.40474,"is_reserved":false,"is_disabled":true,"rental_uris":{"android":"levelo://app?vid=4f0d56f5-e54c-465b-a15e-32b747ab0912","ios":"levelo://app?vid=4f0d56f5-e54c-465b-a15e-32b747ab0912"},"vehicle_type_id":"4","last_reported":1753715590,"current_range_meters":16800,"station_id":"ce4bh012rcd13ifvqd00","pricing_plan_id":"cebpf4jnsgd1na2vs0mg"},{"bike_id":"36555890-9c7b-405b-9637-5a7d09f0200d","system_id":"levelo_inurba_marseille","lat":43.32659,"lon":5.40993,"is_reserved":false,"is_disabled":false,"rental_uris":{"android":"levelo://app?vid=36555890-9c7b-405b-9637-5a7d09f0200d","ios":"levelo://app?vid=36555890-9c7b-405b-9637-5a7d09f0200d"},"vehicle_type_id":"4","last_reported":1753715590,"current_range_meters":16800,"station_id":"ce4bhpp2rcd13ifvqhgg","pricing_plan_id":"cebpf4jnsgd1na2vs0mg"},{"bike_id":"4bfaa48f-84dd-4da8-8f81-81b4a794ffc8","system_id":"levelo_inurba_marseille","lat":43.24398,"lon":5.37061,"is_reserved":false,"is_disabled":false,"rental_uris":{"android":"levelo://app?vid=4bfaa48f-84dd-4da8-8f81-81b4a794ffc8","ios":"levelo://app?vid=4bfaa48f-84dd-4da8-8f81-81b4a794ffc8"},"vehicle_type_id":"4","last_reported":1753715590,"current_range_meters":16800,"station_id":"ce4bhhh2rcd13ifvqfk0","pricing_plan_id":"cebpf4jnsgd1na2vs0mg"},{"bike_id":"01a8e307-f9de-4eb5-a307-55559ca42c36","system_id":"levelo_inurba_marseille","lat":43.22492,"lon":5.3475,"is_reserved":false,"is_disabled":false,"rental_uris":{"android":"levelo://app?vid=01a8e307-f9de-4eb5-a307-55559ca42c36","ios":"levelo://app?vid=01a8e307-f9de-4eb5-a307-55559ca42c36"},"vehicle_type_id":"4","last_reported":1753715590,"current_range_meters":16800,"station_id":"st_cvj5dfep6f1abm77gieg","pricing_plan_id":"cebpf4jnsgd1na2vs0mg"},{"bike_id":"f828b6a2-b5e3-49e5-b323-c517fa18ae20","system_id":"levelo_inurba_marseille","lat":43.28299,"lon":5.35045,"is_reserved":false,"is_disabled":false,"rental_uris":{"android":"levelo://app?vid=f828b6a2-b5e3-49e5-b323-c517fa18ae20","ios":"levelo://app?vid=f828b6a2-b5e3-49e5-b323-c517fa18ae20"},"vehicle_type_id":"4","last_reported":1753715590,"current_range_meters":16800,"station_id":"ce4bhbp2rcd13ifvqerg","pricing_plan_id":"cebpf4jnsgd1na2vs0mg"},{"bike_id":"973ef2de-34f9-401d-ba71-2f659455f24d","system_id":"levelo_inurba_marseille","lat":43.30542,"lon":5.38431,"is_reserved":false,"is_disabled":false,"rental_uris":{"android":"levelo://app?vid=973ef2de-34f9-401d-ba71-2f659455f24d","ios":"levelo://app?vid=973ef2de-34f9-401d-ba71-2f659455f24d"},"vehicle_type_id":"4","last_reported":1753715590,"current_range_meters":16800,"station_id":"ce4bgg92rcd13ifvqb30","pricing_plan_id":"cebpf4jnsgd1na2vs0mg"},{"bike_id":"d1d33d78-145a-4ede-9097-8d4193fea917","system_id":"levelo_inurba_marseille","lat":43.28312,"lon":5.35093,"is_reserved":false,"is_disabled":false,"rental_uris":{"android":"levelo://app?vid=d1d33d78-145a-4ede-9097-8d4193fea917","ios":"levelo://app?vid=d1d33d78-145a-4ede-9097-8d4193fea917"},"vehicle_type_id":"4","last_reported":1753715590,"current_range_meters":17200,"station_id":"","pricing_plan_id":"cebpf4jnsgd1na2vs0mg"},{"bike_id":"6a9a678b-f485-4168-848c-4a17e8795902","system_id":"levelo_inurba_marseille","lat":43.30439,"lon":5.39755,"is_reserved":false,"is_disabled":false,"rental_uris":{"android":"levelo://app?vid=6a9a678b-f485-4168-848c-4a17e8795902","ios":"levelo://app?vid=6a9a678b-f485-4168-848c-4a17e8795902"},"vehicle_type_id":"4","last_reported":1753715590,"current_range_meters":17200,"station_id":"ce4bh092rcd13ifvqd20","pricing_plan_id":"cebpf4jnsgd1na2vs0mg"},{"bike_id":"edc93c31-35c3-4bc5-aec7-fdf1428c4e79","system_id":"levelo_inurba_marseille","lat":43.26184,"lon":5.37445,"is_reserved":false,"is_disabled":false,"rental_uris":{"android":"levelo://app?vid=edc93c31-35c3-4bc5-aec7-fdf1428c4e79","ios":"levelo://app?vid=edc93c31-35c3-4bc5-aec7-fdf1428c4e79"},"vehicle_type_id":"4","last_reported":1753715590,"current_range_meters":17200,"station_id":"ce4bhgp2rcd13ifvqfc0","pricing_plan_id":"cebpf4jnsgd1na2vs0mg"},{"bike_id":"8f346c07-df4f-459b-ac59-d111eb9f0783","system_id":"levelo_inurba_marseille","lat":43.22508,"lon":5.3477,"is_reserved":false,"is_disabled":false,"rental_uris":{"android":"levelo://app?vid=8f346c07-df4f-459b-ac59-d111eb9f0783","ios":"levelo://app?vid=8f346c07-df4f-459b-ac59-d111eb9f0783"},"vehicle_type_id":"4","last_reported":1753715590,"current_range_meters":17200,"station_id":"st_cvj5dfep6f1abm77gieg","pricing_plan_id":"cebpf4jnsgd1na2vs0mg"},{"bike_id":"b4b08546-b5f3-4564-96d1-2f8cea3127aa","system_id":"levelo_inurba_marseille","lat":43.28265,"lon":5.35065,"is_reserved":false,"is_disabled":false,"rental_uris":{"android":"levelo://app?vid=b4b08546-b5f3-4564-96d1-2f8cea3127aa","ios":"levelo://app?vid=b4b08546-b5f3-4564-96d1-2f8cea3127aa"},"vehicle_type_id":"4","last_reported":1753715590,"current_range_meters":17200,"station_id":"ce4bhbp2rcd13ifvqerg","pricing_plan_id":"cebpf4jnsgd1na2vs0mg"},{"bike_id":"18d9d1bb-3481-4fe6-8e41-40913fa9f69c","system_id":"levelo_inurba_marseille","lat":43.24814,"lon":5.37456,"is_reserved":false,"is_disabled":false,"rental_uris":{"android":"levelo://app?vid=18d9d1bb-3481-4fe6-8e41-40913fa9f69c","ios":"levelo://app?vid=18d9d1bb-3481-4fe6-8e41-40913fa9f69c"},"vehicle_type_id":"4","last_reported":1753715590,"current_range_meters":17200,"station_id":"ce4bhgh2rcd13ifvqfb0","pricing_plan_id":"cebpf4jnsgd1na2vs0mg"},{"bike_id":"3a3aec01-dd53-45e3-8e65-394d3c37b757","system_id":"levelo_inurba_marseille","lat":43.28149,"lon":5.42636,"is_reserved":false,"is_disabled":false,"rental_uris":{"android":"levelo://app?vid=3a3aec01-dd53-45e3-8e65-394d3c37b757","ios":"levelo://app?vid=3a3aec01-dd53-45e3-8e65-394d3c37b757"},"vehicle_type_id":"4","last_reported":1753715590,"current_range_meters":17200,"station_id":"ce4bhnh2rcd13ifvqgug","pricing_plan_id":"cebpf4jnsgd1na2vs0mg"},{"bike_id":"4dadaadf-25a3-4542-a137-d01e69f0a668","system_id":"levelo_inurba_marseille","lat":43.29102,"lon":5.38141,"is_reserved":false,"is_disabled":false,"rental_uris":{"android":"levelo://app?vid=4dadaadf-25a3-4542-a137-d01e69f0a668","ios":"levelo://app?vid=4dadaadf-25a3-4542-a137-d01e69f0a668"},"vehicle_type_id":"4","last_reported":1753715590,"current_range_meters":17200,"station_id":"ce4bh512rcd13ifvqe2g","pricing_plan_id":"cebpf4jnsgd1na2vs0mg"},{"bike_id":"55416b65-0498-4fb1-983f-a6f803f21ea6","system_id":"levelo_inurba_marseille","lat":43.27619,"lon":5.36107,"is_reserved":false,"is_disabled":false,"rental_uris":{"android":"levelo://app?vid=55416b65-0498-4fb1-983f-a6f803f21ea6","ios":"levelo://app?vid=55416b65-0498-4fb1-983f-a6f803f21ea6"},"vehicle_type_id":"4","last_reported":1753715590,"current_range_meters":17200,"station_id":"ce4bgj92rcd13ifvqbe0","pricing_plan_id":"cebpf4jnsgd1na2vs0mg"},{"bike_id":"06d24496-c448-4f38-9136-8a8bbeabd961","system_id":"levelo_inurba_marseille","lat":43.21202,"lon":5.35109,"is_reserved":false,"is_disabled":false,"rental_uris":{"android":"levelo://app?vid=06d24496-c448-4f38-9136-8a8bbeabd961","ios":"levelo://app?vid=06d24496-c448-4f38-9136-8a8bbeabd961"},"vehicle_type_id":"4","last_reported":1753715590,"current_range_meters":17200,"station_id":"st_cvj6sg6p6f1abm77japg","pricing_plan_id":"cebpf4jnsgd1na2vs0mg"},{"bike_id":"50ddb991-132a-407b-b3f1-2adbe5e9db55","system_id":"levelo_inurba_marseille","lat":43.30935,"lon":5.40137,"is_reserved":false,"is_disabled":true,"rental_uris":{"android":"levelo://app?vid=50ddb991-132a-407b-b3f1-2adbe5e9db55","ios":"levelo://app?vid=50ddb991-132a-407b-b3f1-2adbe5e9db55"},"vehicle_type_id":"4","last_reported":1753715590,"current_range_meters":17600,"station_id":"ce4bgvp2rcd13ifvqct0","pricing_plan_id":"cebpf4jnsgd1na2vs0mg"},{"bike_id":"3707b99e-9906-407e-9656-84e77bdf057a","system_id":"levelo_inurba_marseille","lat":43.282593,"lon":5.350754,"is_reserved":false,"is_disabled":false,"rental_uris":{"android":"levelo://app?vid=3707b99e-9906-407e-9656-84e77bdf057a","ios":"levelo://app?vid=3707b99e-9906-407e-9656-84e77bdf057a"},"vehicle_type_id":"4","last_reported":1753715590,"current_range_meters":17600,"station_id":"ce4bhbp2rcd13ifvqerg","pricing_plan_id":"cebpf4jnsgd1na2vs0mg"},{"bike_id":"5409bec8-c448-46b8-83a2-2ad9980eb5cd","system_id":"levelo_inurba_marseille","lat":43.30131,"lon":5.3878,"is_reserved":false,"is_disabled":false,"rental_uris":{"android":"levelo://app?vid=5409bec8-c448-46b8-83a2-2ad9980eb5cd","ios":"levelo://app?vid=5409bec8-c448-46b8-83a2-2ad9980eb5cd"},"vehicle_type_id":"4","last_reported":1753715590,"current_range_meters":17600,"station_id":"ce4bghh2rcd13ifvqb60","pricing_plan_id":"cebpf4jnsgd1na2vs0mg"},{"bike_id":"d9994a40-4e43-42c7-94c7-297c15452c35","system_id":"levelo_inurba_marseille","lat":43.273978,"lon":5.362566,"is_reserved":false,"is_disabled":false,"rental_uris":{"android":"levelo://app?vid=d9994a40-4e43-42c7-94c7-297c15452c35","ios":"levelo://app?vid=d9994a40-4e43-42c7-94c7-297c15452c35"},"vehicle_type_id":"4","last_reported":1753715590,"current_range_meters":17600,"station_id":"ce4bhbh2rcd13ifvqeo0","pricing_plan_id":"cebpf4jnsgd1na2vs0mg"},{"bike_id":"cb415283-aab8-478f-94d3-a442972e8283","system_id":"levelo_inurba_marseille","lat":43.30151,"lon":5.39855,"is_reserved":false,"is_disabled":false,"rental_uris":{"android":"levelo://app?vid=cb415283-aab8-478f-94d3-a442972e8283","ios":"levelo://app?vid=cb415283-aab8-478f-94d3-a442972e8283"},"vehicle_type_id":"4","last_reported":1753715590,"current_range_meters":17600,"station_id":"ce4bh0h2rcd13ifvqd40","pricing_plan_id":"cebpf4jnsgd1na2vs0mg"},{"bike_id":"d2363d69-6548-4bfc-9a67-857c118440b8","system_id":"levelo_inurba_marseille","lat":43.29581,"lon":5.36745,"is_reserved":false,"is_disabled":false,"rental_uris":{"android":"levelo://app?vid=d2363d69-6548-4bfc-9a67-857c118440b8","ios":"levelo://app?vid=d2363d69-6548-4bfc-9a67-857c118440b8"},"vehicle_type_id":"4","last_reported":1753715590,"current_range_meters":17600,"station_id":"ce4bgph2rcd13ifvqc2g","pricing_plan_id":"cebpf4jnsgd1na2vs0mg"},{"bike_id":"b54439e9-1d0b-48e9-87c1-4f161a642159","system_id":"levelo_inurba_marseille","lat":43.28565,"lon":5.39494,"is_reserved":false,"is_disabled":false,"rental_uris":{"android":"levelo://app?vid=b54439e9-1d0b-48e9-87c1-4f161a642159","ios":"levelo://app?vid=b54439e9-1d0b-48e9-87c1-4f161a642159"},"vehicle_type_id":"4","last_reported":1753715590,"current_range_meters":17600,"station_id":"ce4bh292rcd13ifvqdg0","pricing_plan_id":"cebpf4jnsgd1na2vs0mg"},{"bike_id":"89ab8d10-79e7-44e3-9c2b-0f9a6fbbe938","system_id":"levelo_inurba_marseille","lat":43.24163,"lon":5.3971,"is_reserved":false,"is_disabled":false,"rental_uris":{"android":"levelo://app?vid=89ab8d10-79e7-44e3-9c2b-0f9a6fbbe938","ios":"levelo://app?vid=89ab8d10-79e7-44e3-9c2b-0f9a6fbbe938"},"vehicle_type_id":"4","last_reported":1753715590,"current_range_meters":17600,"station_id":"ce4bhn12rcd13ifvqgpg","pricing_plan_id":"cebpf4jnsgd1na2vs0mg"},{"bike_id":"69774c1b-7d9e-40fb-b8c3-efe73707ee39","system_id":"levelo_inurba_marseille","lat":43.28854,"lon":5.39303,"is_reserved":false,"is_disabled":false,"rental_uris":{"android":"levelo://app?vid=69774c1b-7d9e-40fb-b8c3-efe73707ee39","ios":"levelo://app?vid=69774c1b-7d9e-40fb-b8c3-efe73707ee39"},"vehicle_type_id":"4","last_reported":1753715590,"current_range_meters":17600,"station_id":"ce4bh2p2rcd13ifvqdi0","pricing_plan_id":"cebpf4jnsgd1na2vs0mg"},{"bike_id":"6cf040e0-fd08-4aa1-a0b3-071855bbbaaa","system_id":"levelo_inurba_marseille","lat":43.30415,"lon":5.4127,"is_reserved":false,"is_disabled":false,"rental_uris":{"android":"levelo://app?vid=6cf040e0-fd08-4aa1-a0b3-071855bbbaaa","ios":"levelo://app?vid=6cf040e0-fd08-4aa1-a0b3-071855bbbaaa"},"vehicle_type_id":"4","last_reported":1753715590,"current_range_meters":17200,"station_id":"ce4bhop2rcd13ifvqh8g","pricing_plan_id":"cebpf4jnsgd1na2vs0mg"},{"bike_id":"35c04ed3-3f32-4bf9-8a1e-9f2898086490","system_id":"levelo_inurba_marseille","lat":43.33748,"lon":5.37399,"is_reserved":false,"is_disabled":false,"rental_uris":{"android":"levelo://app?vid=35c04ed3-3f32-4bf9-8a1e-9f2898086490","ios":"levelo://app?vid=35c04ed3-3f32-4bf9-8a1e-9f2898086490"},"vehicle_type_id":"4","last_reported":1753715590,"current_range_meters":18000,"station_id":"","pricing_plan_id":"cebpf4jnsgd1na2vs0mg"},{"bike_id":"6f7ccb69-bf92-486d-92b3-1d25f0d6e17f","system_id":"levelo_inurba_marseille","lat":43.2622,"lon":5.37421,"is_reserved":false,"is_disabled":false,"rental_uris":{"android":"levelo://app?vid=6f7ccb69-bf92-486d-92b3-1d25f0d6e17f","ios":"levelo://app?vid=6f7ccb69-bf92-486d-92b3-1d25f0d6e17f"},"vehicle_type_id":"4","last_reported":1753715590,"current_range_meters":18000,"station_id":"","pricing_plan_id":"cebpf4jnsgd1na2vs0mg"},{"bike_id":"466ed295-6bec-43c6-8b11-8e96c2beac8d","system_id":"levelo_inurba_marseille","lat":43.225053,"lon":5.347853,"is_reserved":false,"is_disabled":false,"rental_uris":{"android":"levelo://app?vid=466ed295-6bec-43c6-8b11-8e96c2beac8d","ios":"levelo://app?vid=466ed295-6bec-43c6-8b11-8e96c2beac8d"},"vehicle_type_id":"4","last_reported":1753715590,"current_range_meters":18000,"station_id":"st_cvj5dfep6f1abm77gieg","pricing_plan_id":"cebpf4jnsgd1na2vs0mg"},{"bike_id":"5dfabdc2-b806-44aa-94b4-47dba92b8204","system_id":"levelo_inurba_marseille","lat":43.22929,"lon":5.35384,"is_reserved":false,"is_disabled":false,"rental_uris":{"android":"levelo://app?vid=5dfabdc2-b806-44aa-94b4-47dba92b8204","ios":"levelo://app?vid=5dfabdc2-b806-44aa-94b4-47dba92b8204"},"vehicle_type_id":"4","last_reported":1753715590,"current_range_meters":18000,"station_id":"cpo3532slgdg3j2ikp40","pricing_plan_id":"cebpf4jnsgd1na2vs0mg"},{"bike_id":"df3782ff-a19a-4761-8461-0233e2fa91dc","system_id":"levelo_inurba_marseille","lat":43.28231,"lon":5.35074,"is_reserved":false,"is_disabled":false,"rental_uris":{"android":"levelo://app?vid=df3782ff-a19a-4761-8461-0233e2fa91dc","ios":"levelo://app?vid=df3782ff-a19a-4761-8461-0233e2fa91dc"},"vehicle_type_id":"4","last_reported":1753715590,"current_range_meters":18000,"station_id":"","pricing_plan_id":"cebpf4jnsgd1na2vs0mg"},{"bike_id":"16554627-4900-4ea0-a270-217a9a6c79d3","system_id":"levelo_inurba_marseille","lat":43.230536,"lon":5.35496,"is_reserved":false,"is_disabled":false,"rental_uris":{"android":"levelo://app?vid=16554627-4900-4ea0-a270-217a9a6c79d3","ios":"levelo://app?vid=16554627-4900-4ea0-a270-217a9a6c79d3"},"vehicle_type_id":"4","last_reported":1753715590,"current_range_meters":18000,"station_id":"cpo3342slgdg3j2ifvpg","pricing_plan_id":"cebpf4jnsgd1na2vs0mg"},{"bike_id":"76e7a936-3a62-4629-afa4-2484c54ce5f0","system_id":"levelo_inurba_marseille","lat":43.3042,"lon":5.38887,"is_reserved":false,"is_disabled":false,"rental_uris":{"android":"levelo://app?vid=76e7a936-3a62-4629-afa4-2484c54ce5f0","ios":"levelo://app?vid=76e7a936-3a62-4629-afa4-2484c54ce5f0"},"vehicle_type_id":"4","last_reported":1753715590,"current_range_meters":18000,"station_id":"ce4bgk12rcd13ifvqbi0","pricing_plan_id":"cebpf4jnsgd1na2vs0mg"},{"bike_id":"9c573a58-6adb-4a48-a2e8-21f40f2444f0","system_id":"levelo_inurba_marseille","lat":43.24998,"lon":5.38937,"is_reserved":false,"is_disabled":false,"rental_uris":{"android":"levelo://app?vid=9c573a58-6adb-4a48-a2e8-21f40f2444f0","ios":"levelo://app?vid=9c573a58-6adb-4a48-a2e8-21f40f2444f0"},"vehicle_type_id":"4","last_reported":1753715590,"current_range_meters":18000,"station_id":"ce4bhgp2rcd13ifvqfd0","pricing_plan_id":"cebpf4jnsgd1na2vs0mg"},{"bike_id":"502a3faf-9256-4e55-b231-1bba5e4f06c1","system_id":"levelo_inurba_marseille","lat":43.23199,"lon":5.35551,"is_reserved":false,"is_disabled":false,"rental_uris":{"android":"levelo://app?vid=502a3faf-9256-4e55-b231-1bba5e4f06c1","ios":"levelo://app?vid=502a3faf-9256-4e55-b231-1bba5e4f06c1"},"vehicle_type_id":"4","last_reported":1753715590,"current_range_meters":18000,"station_id":"ce4bhu92rcd13ifvqi70","pricing_plan_id":"cebpf4jnsgd1na2vs0mg"},{"bike_id":"4dd49652-8888-4b7c-8d5b-34928a49b912","system_id":"levelo_inurba_marseille","lat":43.30202,"lon":5.39464,"is_reserved":false,"is_disabled":false,"rental_uris":{"android":"levelo://app?vid=4dd49652-8888-4b7c-8d5b-34928a49b912","ios":"levelo://app?vid=4dd49652-8888-4b7c-8d5b-34928a49b912"},"vehicle_type_id":"4","last_reported":1753715590,"current_range_meters":18000,"station_id":"ce4bh0p2rcd13ifvqd70","pricing_plan_id":"cebpf4jnsgd1na2vs0mg"},{"bike_id":"c11f4789-7d37-4722-9529-2b6d43a6d56c","system_id":"levelo_inurba_marseille","lat":43.281479,"lon":5.426437,"is_reserved":false,"is_disabled":true,"rental_uris":{"android":"levelo://app?vid=c11f4789-7d37-4722-9529-2b6d43a6d56c","ios":"levelo://app?vid=c11f4789-7d37-4722-9529-2b6d43a6d56c"},"vehicle_type_id":"4","last_reported":1753715590,"current_range_meters":18000,"station_id":"ce4bhnh2rcd13ifvqgug","pricing_plan_id":"cebpf4jnsgd1na2vs0mg"},{"bike_id":"1368f6ac-e5e2-487f-bc1e-c29da70c5c62","system_id":"levelo_inurba_marseille","lat":43.24644,"lon":5.38185,"is_reserved":false,"is_disabled":false,"rental_uris":{"android":"levelo://app?vid=1368f6ac-e5e2-487f-bc1e-c29da70c5c62","ios":"levelo://app?vid=1368f6ac-e5e2-487f-bc1e-c29da70c5c62"},"vehicle_type_id":"4","last_reported":1753715590,"current_range_meters":18000,"station_id":"ce4bhih2rcd13ifvqfr0","pricing_plan_id":"cebpf4jnsgd1na2vs0mg"},{"bike_id":"4f4f2bbf-99af-4537-8a90-e2b4f5a28529","system_id":"levelo_inurba_marseille","lat":43.29195,"lon":5.358,"is_reserved":false,"is_disabled":false,"rental_uris":{"android":"levelo://app?vid=4f4f2bbf-99af-4537-8a90-e2b4f5a28529","ios":"levelo://app?vid=4f4f2bbf-99af-4537-8a90-e2b4f5a28529"},"vehicle_type_id":"4","last_reported":1753715590,"current_range_meters":18000,"station_id":"ce4bhb12rcd13ifvqel0","pricing_plan_id":"cebpf4jnsgd1na2vs0mg"},{"bike_id":"75c073ec-9535-4d35-886a-7cda86424558","system_id":"levelo_inurba_marseille","lat":43.30102,"lon":5.39095,"is_reserved":false,"is_disabled":false,"rental_uris":{"android":"levelo://app?vid=75c073ec-9535-4d35-886a-7cda86424558","ios":"levelo://app?vid=75c073ec-9535-4d35-886a-7cda86424558"},"vehicle_type_id":"4","last_reported":1753715590,"current_range_meters":18000,"station_id":"ce4bh192rcd13ifvqdb0","pricing_plan_id":"cebpf4jnsgd1na2vs0mg"},{"bike_id":"f26efa5e-65eb-49c1-ac45-4876b46677f5","system_id":"levelo_inurba_marseille","lat":43.27152,"lon":5.4101,"is_reserved":false,"is_disabled":false,"rental_uris":{"android":"levelo://app?vid=f26efa5e-65eb-49c1-ac45-4876b46677f5","ios":"levelo://app?vid=f26efa5e-65eb-49c1-ac45-4876b46677f5"},"vehicle_type_id":"4","last_reported":1753715590,"current_range_meters":18000,"station_id":"ce4bhl12rcd13ifvqgf0","pricing_plan_id":"cebpf4jnsgd1na2vs0mg"},{"bike_id":"90d7df2a-251b-43b9-9339-5d650e173049","system_id":"levelo_inurba_marseille","lat":43.22933,"lon":5.35371,"is_reserved":false,"is_disabled":false,"rental_uris":{"android":"levelo://app?vid=90d7df2a-251b-43b9-9339-5d650e173049","ios":"levelo://app?vid=90d7df2a-251b-43b9-9339-5d650e173049"},"vehicle_type_id":"4","last_reported":1753715590,"current_range_meters":18000,"station_id":"cpo3532slgdg3j2ikp40","pricing_plan_id":"cebpf4jnsgd1na2vs0mg"},{"bike_id":"57927d23-89e7-4ddd-a64f-277b3ded0af3","system_id":"levelo_inurba_marseille","lat":43.240883,"lon":5.377367,"is_reserved":false,"is_disabled":false,"rental_uris":{"android":"levelo://app?vid=57927d23-89e7-4ddd-a64f-277b3ded0af3","ios":"levelo://app?vid=57927d23-89e7-4ddd-a64f-277b3ded0af3"},"vehicle_type_id":"4","last_reported":1753715590,"current_range_meters":18800,"station_id":"ce4bhnp2rcd13ifvqgvg","pricing_plan_id":"cebpf4jnsgd1na2vs0mg"},{"bike_id":"4ffc9d79-d56a-482d-b7d9-a5892348f435","system_id":"levelo_inurba_marseille","lat":43.2842,"lon":5.34992,"is_reserved":false,"is_disabled":false,"rental_uris":{"android":"levelo://app?vid=4ffc9d79-d56a-482d-b7d9-a5892348f435","ios":"levelo://app?vid=4ffc9d79-d56a-482d-b7d9-a5892348f435"},"vehicle_type_id":"4","last_reported":1753715590,"current_range_meters":18800,"station_id":"ce4bhbh2rcd13ifvqepg","pricing_plan_id":"cebpf4jnsgd1na2vs0mg"},{"bike_id":"994dad4e-8f9d-441e-a42b-d97ee299ca9b","system_id":"levelo_inurba_marseille","lat":43.26069,"lon":5.39405,"is_reserved":false,"is_disabled":false,"rental_uris":{"android":"levelo://app?vid=994dad4e-8f9d-441e-a42b-d97ee299ca9b","ios":"levelo://app?vid=994dad4e-8f9d-441e-a42b-d97ee299ca9b"},"vehicle_type_id":"4","last_reported":1753715590,"current_range_meters":18800,"station_id":"ce4bhh92rcd13ifvqfj0","pricing_plan_id":"cebpf4jnsgd1na2vs0mg"},{"bike_id":"68efbd5e-6bfe-4268-9858-269373a343e8","system_id":"levelo_inurba_marseille","lat":43.27157,"lon":5.41007,"is_reserved":false,"is_disabled":false,"rental_uris":{"android":"levelo://app?vid=68efbd5e-6bfe-4268-9858-269373a343e8","ios":"levelo://app?vid=68efbd5e-6bfe-4268-9858-269373a343e8"},"vehicle_type_id":"4","last_reported":1753715590,"current_range_meters":18800,"station_id":"ce4bhl12rcd13ifvqgf0","pricing_plan_id":"cebpf4jnsgd1na2vs0mg"},{"bike_id":"a2d94367-ef90-427f-aa43-ff700da09329","system_id":"levelo_inurba_marseille","lat":43.29627,"lon":5.37716,"is_reserved":false,"is_disabled":false,"rental_uris":{"android":"levelo://app?vid=a2d94367-ef90-427f-aa43-ff700da09329","ios":"levelo://app?vid=a2d94367-ef90-427f-aa43-ff700da09329"},"vehicle_type_id":"4","last_reported":1753715590,"current_range_meters":18800,"station_id":"ce4bgi92rcd13ifvqb90","pricing_plan_id":"cebpf4jnsgd1na2vs0mg"},{"bike_id":"62e54455-0cad-476e-836b-6efe5dee6c34","system_id":"levelo_inurba_marseille","lat":43.22509,"lon":5.34776,"is_reserved":false,"is_disabled":false,"rental_uris":{"android":"levelo://app?vid=62e54455-0cad-476e-836b-6efe5dee6c34","ios":"levelo://app?vid=62e54455-0cad-476e-836b-6efe5dee6c34"},"vehicle_type_id":"4","last_reported":1753715590,"current_range_meters":18800,"station_id":"st_cvj5dfep6f1abm77gieg","pricing_plan_id":"cebpf4jnsgd1na2vs0mg"},{"bike_id":"02eaeab2-c226-49bb-845d-3824353d3c83","system_id":"levelo_inurba_marseille","lat":43.28418,"lon":5.34991,"is_reserved":false,"is_disabled":false,"rental_uris":{"android":"levelo://app?vid=02eaeab2-c226-49bb-845d-3824353d3c83","ios":"levelo://app?vid=02eaeab2-c226-49bb-845d-3824353d3c83"},"vehicle_type_id":"4","last_reported":1753715590,"current_range_meters":18800,"station_id":"ce4bhbh2rcd13ifvqepg","pricing_plan_id":"cebpf4jnsgd1na2vs0mg"},{"bike_id":"9d23d8ed-2c62-41ba-9ffa-9de1fb0dfcda","system_id":"levelo_inurba_marseille","lat":43.305572,"lon":5.366989,"is_reserved":false,"is_disabled":false,"rental_uris":{"android":"levelo://app?vid=9d23d8ed-2c62-41ba-9ffa-9de1fb0dfcda","ios":"levelo://app?vid=9d23d8ed-2c62-41ba-9ffa-9de1fb0dfcda"},"vehicle_type_id":"4","last_reported":1753715590,"current_range_meters":18800,"station_id":"ce4bgrp2rcd13ifvqc9g","pricing_plan_id":"cebpf4jnsgd1na2vs0mg"},{"bike_id":"5d57ebcf-2331-4742-b553-56b444588875","system_id":"levelo_inurba_marseille","lat":43.26193,"lon":5.37464,"is_reserved":false,"is_disabled":false,"rental_uris":{"android":"levelo://app?vid=5d57ebcf-2331-4742-b553-56b444588875","ios":"levelo://app?vid=5d57ebcf-2331-4742-b553-56b444588875"},"vehicle_type_id":"4","last_reported":1753715590,"current_range_meters":19200,"station_id":"ce4bhgp2rcd13ifvqfc0","pricing_plan_id":"cebpf4jnsgd1na2vs0mg"},{"bike_id":"df59e2f2-ebcb-4b5d-884c-2c743fa57461","system_id":"levelo_inurba_marseille","lat":43.28626,"lon":5.35097,"is_reserved":false,"is_disabled":false,"rental_uris":{"android":"levelo://app?vid=df59e2f2-ebcb-4b5d-884c-2c743fa57461","ios":"levelo://app?vid=df59e2f2-ebcb-4b5d-884c-2c743fa57461"},"vehicle_type_id":"4","last_reported":1753715590,"current_range_meters":19200,"station_id":"ce4bhch2rcd13ifvqeug","pricing_plan_id":"cebpf4jnsgd1na2vs0mg"},{"bike_id":"f9c20eea-a0f1-4955-bf49-76fbfe296544","system_id":"levelo_inurba_marseille","lat":43.288667,"lon":5.358606,"is_reserved":false,"is_disabled":false,"rental_uris":{"android":"levelo://app?vid=f9c20eea-a0f1-4955-bf49-76fbfe296544","ios":"levelo://app?vid=f9c20eea-a0f1-4955-bf49-76fbfe296544"},"vehicle_type_id":"4","last_reported":1753715590,"current_range_meters":19200,"station_id":"ce4bhb12rcd13ifvqem0","pricing_plan_id":"cebpf4jnsgd1na2vs0mg"},{"bike_id":"8600117f-2868-4874-a87b-44da40a3eccd","system_id":"levelo_inurba_marseille","lat":43.22937,"lon":5.35385,"is_reserved":false,"is_disabled":false,"rental_uris":{"android":"levelo://app?vid=8600117f-2868-4874-a87b-44da40a3eccd","ios":"levelo://app?vid=8600117f-2868-4874-a87b-44da40a3eccd"},"vehicle_type_id":"4","last_reported":1753715590,"current_range_meters":19200,"station_id":"cpo3532slgdg3j2ikp40","pricing_plan_id":"cebpf4jnsgd1na2vs0mg"},{"bike_id":"fefa3347-c8a5-40f3-96ed-c0b076f500d2","system_id":"levelo_inurba_marseille","lat":43.3107,"lon":5.3836,"is_reserved":false,"is_disabled":false,"rental_uris":{"android":"levelo://app?vid=fefa3347-c8a5-40f3-96ed-c0b076f500d2","ios":"levelo://app?vid=fefa3347-c8a5-40f3-96ed-c0b076f500d2"},"vehicle_type_id":"4","last_reported":1753715590,"current_range_meters":19200,"station_id":"ce4bgv92rcd13ifvqcr0","pricing_plan_id":"cebpf4jnsgd1na2vs0mg"},{"bike_id":"786f1f35-9384-4efa-857b-0c2567a81f04","system_id":"levelo_inurba_marseille","lat":43.217453,"lon":5.346048,"is_reserved":false,"is_disabled":false,"rental_uris":{"android":"levelo://app?vid=786f1f35-9384-4efa-857b-0c2567a81f04","ios":"levelo://app?vid=786f1f35-9384-4efa-857b-0c2567a81f04"},"vehicle_type_id":"4","last_reported":1753715590,"current_range_meters":19200,"station_id":"st_cvj6r9ubvosntc0bgbag","pricing_plan_id":"cebpf4jnsgd1na2vs0mg"},{"bike_id":"d631db4c-775c-4d01-80d8-b1bfae159400","system_id":"levelo_inurba_marseille","lat":43.29266,"lon":5.37605,"is_reserved":false,"is_disabled":false,"rental_uris":{"android":"levelo://app?vid=d631db4c-775c-4d01-80d8-b1bfae159400","ios":"levelo://app?vid=d631db4c-775c-4d01-80d8-b1bfae159400"},"vehicle_type_id":"4","last_reported":1753715590,"current_range_meters":19200,"station_id":"ce4bgi12rcd13ifvqb80","pricing_plan_id":"cebpf4jnsgd1na2vs0mg"},{"bike_id":"6c27573a-70eb-426d-9fcc-d4c2072e7609","system_id":"levelo_inurba_marseille","lat":43.31255,"lon":5.36852,"is_reserved":false,"is_disabled":false,"rental_uris":{"android":"levelo://app?vid=6c27573a-70eb-426d-9fcc-d4c2072e7609","ios":"levelo://app?vid=6c27573a-70eb-426d-9fcc-d4c2072e7609"},"vehicle_type_id":"4","last_reported":1753715590,"current_range_meters":19200,"station_id":"ce4bgl92rcd13ifvqbq0","pricing_plan_id":"cebpf4jnsgd1na2vs0mg"},{"bike_id":"d8e6094c-0de7-412e-bab8-3969f4a35524","system_id":"levelo_inurba_marseille","lat":43.29847,"lon":5.37574,"is_reserved":false,"is_disabled":false,"rental_uris":{"android":"levelo://app?vid=d8e6094c-0de7-412e-bab8-3969f4a35524","ios":"levelo://app?vid=d8e6094c-0de7-412e-bab8-3969f4a35524"},"vehicle_type_id":"4","last_reported":1753715590,"current_range_meters":19200,"station_id":"","pricing_plan_id":"cebpf4jnsgd1na2vs0mg"},{"bike_id":"839cb358-c777-49a7-9b10-9da2596c35a1","system_id":"levelo_inurba_marseille","lat":43.33762,"lon":5.37481,"is_reserved":false,"is_disabled":false,"rental_uris":{"android":"levelo://app?vid=839cb358-c777-49a7-9b10-9da2596c35a1","ios":"levelo://app?vid=839cb358-c777-49a7-9b10-9da2596c35a1"},"vehicle_type_id":"4","last_reported":1753715590,"current_range_meters":19200,"station_id":"","pricing_plan_id":"cebpf4jnsgd1na2vs0mg"},{"bike_id":"0284b153-ed18-4aff-854a-398618bd67fc","system_id":"levelo_inurba_marseille","lat":43.28426,"lon":5.34992,"is_reserved":false,"is_disabled":false,"rental_uris":{"android":"levelo://app?vid=0284b153-ed18-4aff-854a-398618bd67fc","ios":"levelo://app?vid=0284b153-ed18-4aff-854a-398618bd67fc"},"vehicle_type_id":"4","last_reported":1753715590,"current_range_meters":19200,"station_id":"ce4bhbh2rcd13ifvqepg","pricing_plan_id":"cebpf4jnsgd1na2vs0mg"},{"bike_id":"6a572c23-a95b-4f4a-8a53-33876eff2ac0","system_id":"levelo_inurba_marseille","lat":43.27176,"lon":5.40991,"is_reserved":false,"is_disabled":false,"rental_uris":{"android":"levelo://app?vid=6a572c23-a95b-4f4a-8a53-33876eff2ac0","ios":"levelo://app?vid=6a572c23-a95b-4f4a-8a53-33876eff2ac0"},"vehicle_type_id":"4","last_reported":1753715590,"current_range_meters":19200,"station_id":"ce4bhl12rcd13ifvqgf0","pricing_plan_id":"cebpf4jnsgd1na2vs0mg"},{"bike_id":"fb0da103-f581-4cd6-9064-8760d225ee7a","system_id":"levelo_inurba_marseille","lat":43.30537,"lon":5.36537,"is_reserved":false,"is_disabled":false,"rental_uris":{"android":"levelo://app?vid=fb0da103-f581-4cd6-9064-8760d225ee7a","ios":"levelo://app?vid=fb0da103-f581-4cd6-9064-8760d225ee7a"},"vehicle_type_id":"4","last_reported":1753715590,"current_range_meters":19200,"station_id":"ce4bgs12rcd13ifvqcag","pricing_plan_id":"cebpf4jnsgd1na2vs0mg"},{"bike_id":"66a6957d-3fce-423e-adf3-3d803bae99d7","system_id":"levelo_inurba_marseille","lat":43.212016,"lon":5.350681,"is_reserved":false,"is_disabled":true,"rental_uris":{"android":"levelo://app?vid=66a6957d-3fce-423e-adf3-3d803bae99d7","ios":"levelo://app?vid=66a6957d-3fce-423e-adf3-3d803bae99d7"},"vehicle_type_id":"4","last_reported":1753715590,"current_range_meters":19600,"station_id":"st_cvj6sg6p6f1abm77japg","pricing_plan_id":"cebpf4jnsgd1na2vs0mg"},{"bike_id":"b7234136-bf62-4ef1-9964-a9c43529d354","system_id":"levelo_inurba_marseille","lat":43.31836,"lon":5.39406,"is_reserved":false,"is_disabled":false,"rental_uris":{"android":"levelo://app?vid=b7234136-bf62-4ef1-9964-a9c43529d354","ios":"levelo://app?vid=b7234136-bf62-4ef1-9964-a9c43529d354"},"vehicle_type_id":"4","last_reported":1753715590,"current_range_meters":19600,"station_id":"","pricing_plan_id":"cebpf4jnsgd1na2vs0mg"},{"bike_id":"aae291d8-46d6-4c11-a425-660535da1104","system_id":"levelo_inurba_marseille","lat":43.31327,"lon":5.39697,"is_reserved":false,"is_disabled":false,"rental_uris":{"android":"levelo://app?vid=aae291d8-46d6-4c11-a425-660535da1104","ios":"levelo://app?vid=aae291d8-46d6-4c11-a425-660535da1104"},"vehicle_type_id":"4","last_reported":1753715590,"current_range_meters":19600,"station_id":"ce4bgvp2rcd13ifvqcu0","pricing_plan_id":"cebpf4jnsgd1na2vs0mg"},{"bike_id":"b9f05217-6650-48e4-a95e-24cc81336eca","system_id":"levelo_inurba_marseille","lat":43.25726,"lon":5.41096,"is_reserved":false,"is_disabled":false,"rental_uris":{"android":"levelo://app?vid=b9f05217-6650-48e4-a95e-24cc81336eca","ios":"levelo://app?vid=b9f05217-6650-48e4-a95e-24cc81336eca"},"vehicle_type_id":"4","last_reported":1753715590,"current_range_meters":19600,"station_id":"ce4bhkp2rcd13ifvqgd0","pricing_plan_id":"cebpf4jnsgd1na2vs0mg"},{"bike_id":"916d71ca-a336-42aa-959e-dbe40ad42edb","system_id":"levelo_inurba_marseille","lat":43.24076,"lon":5.37746,"is_reserved":false,"is_disabled":false,"rental_uris":{"android":"levelo://app?vid=916d71ca-a336-42aa-959e-dbe40ad42edb","ios":"levelo://app?vid=916d71ca-a336-42aa-959e-dbe40ad42edb"},"vehicle_type_id":"4","last_reported":1753715590,"current_range_meters":19600,"station_id":"ce4bhnp2rcd13ifvqgvg","pricing_plan_id":"cebpf4jnsgd1na2vs0mg"},{"bike_id":"ef65f066-de96-432a-a3bf-b1b3ad0e62a1","system_id":"levelo_inurba_marseille","lat":43.32107,"lon":5.36763,"is_reserved":false,"is_disabled":false,"rental_uris":{"android":"levelo://app?vid=ef65f066-de96-432a-a3bf-b1b3ad0e62a1","ios":"levelo://app?vid=ef65f066-de96-432a-a3bf-b1b3ad0e62a1"},"vehicle_type_id":"4","last_reported":1753715590,"current_range_meters":19600,"station_id":"ce4bhrh2rcd13ifvqhug","pricing_plan_id":"cebpf4jnsgd1na2vs0mg"},{"bike_id":"d04f5f6f-9894-42ef-a48e-c7223c9346d9","system_id":"levelo_inurba_marseille","lat":43.31356,"lon":5.38503,"is_reserved":false,"is_disabled":true,"rental_uris":{"android":"levelo://app?vid=d04f5f6f-9894-42ef-a48e-c7223c9346d9","ios":"levelo://app?vid=d04f5f6f-9894-42ef-a48e-c7223c9346d9"},"vehicle_type_id":"4","last_reported":1753715590,"current_range_meters":19600,"station_id":"ce4bgt92rcd13ifvqcf0","pricing_plan_id":"cebpf4jnsgd1na2vs0mg"},{"bike_id":"c7d98475-4699-4e33-8d5d-e6977f4acdfa","system_id":"levelo_inurba_marseille","lat":43.29935,"lon":5.36551,"is_reserved":false,"is_disabled":false,"rental_uris":{"android":"levelo://app?vid=c7d98475-4699-4e33-8d5d-e6977f4acdfa","ios":"levelo://app?vid=c7d98475-4699-4e33-8d5d-e6977f4acdfa"},"vehicle_type_id":"4","last_reported":1753715590,"current_range_meters":20000,"station_id":"ce4bgm92rcd13ifvqbr0","pricing_plan_id":"cebpf4jnsgd1na2vs0mg"},{"bike_id":"a697ffec-452d-4fe8-a847-3a3842ca6cdc","system_id":"levelo_inurba_marseille","lat":43.31368,"lon":5.3675,"is_reserved":false,"is_disabled":false,"rental_uris":{"android":"levelo://app?vid=a697ffec-452d-4fe8-a847-3a3842ca6cdc","ios":"levelo://app?vid=a697ffec-452d-4fe8-a847-3a3842ca6cdc"},"vehicle_type_id":"4","last_reported":1753715590,"current_range_meters":20000,"station_id":"ce4bgr92rcd13ifvqc6g","pricing_plan_id":"cebpf4jnsgd1na2vs0mg"},{"bike_id":"83594cbf-1bdf-4b73-8b73-072b79cd9fe1","system_id":"levelo_inurba_marseille","lat":43.28421,"lon":5.34982,"is_reserved":false,"is_disabled":false,"rental_uris":{"android":"levelo://app?vid=83594cbf-1bdf-4b73-8b73-072b79cd9fe1","ios":"levelo://app?vid=83594cbf-1bdf-4b73-8b73-072b79cd9fe1"},"vehicle_type_id":"4","last_reported":1753715590,"current_range_meters":20400,"station_id":"ce4bhbh2rcd13ifvqepg","pricing_plan_id":"cebpf4jnsgd1na2vs0mg"},{"bike_id":"9f8a0838-9e24-4455-98b9-2d7a46970a62","system_id":"levelo_inurba_marseille","lat":43.25089,"lon":5.39523,"is_reserved":false,"is_disabled":false,"rental_uris":{"android":"levelo://app?vid=9f8a0838-9e24-4455-98b9-2d7a46970a62","ios":"levelo://app?vid=9f8a0838-9e24-4455-98b9-2d7a46970a62"},"vehicle_type_id":"4","last_reported":1753715590,"current_range_meters":20000,"station_id":"ce4bhm12rcd13ifvqgkg","pricing_plan_id":"cebpf4jnsgd1na2vs0mg"},{"bike_id":"d35fd982-0211-40de-9b31-cf78b5638bc2","system_id":"levelo_inurba_marseille","lat":43.29605,"lon":5.37151,"is_reserved":false,"is_disabled":false,"rental_uris":{"android":"levelo://app?vid=d35fd982-0211-40de-9b31-cf78b5638bc2","ios":"levelo://app?vid=d35fd982-0211-40de-9b31-cf78b5638bc2"},"vehicle_type_id":"4","last_reported":1753715590,"current_range_meters":19600,"station_id":"ce4bgnh2rcd13ifvqc0g","pricing_plan_id":"cebpf4jnsgd1na2vs0mg"},{"bike_id":"ff390187-2510-4182-8906-f51d862e8682","system_id":"levelo_inurba_marseille","lat":43.29205,"lon":5.39311,"is_reserved":false,"is_disabled":false,"rental_uris":{"android":"levelo://app?vid=ff390187-2510-4182-8906-f51d862e8682","ios":"levelo://app?vid=ff390187-2510-4182-8906-f51d862e8682"},"vehicle_type_id":"4","last_reported":1753715590,"current_range_meters":20000,"station_id":"ce4bh192rcd13ifvqdd0","pricing_plan_id":"cebpf4jnsgd1na2vs0mg"},{"bike_id":"bd73ac4a-d1b9-44d2-b30b-5d0eb284ba85","system_id":"levelo_inurba_marseille","lat":43.29843,"lon":5.36269,"is_reserved":false,"is_disabled":false,"rental_uris":{"android":"levelo://app?vid=bd73ac4a-d1b9-44d2-b30b-5d0eb284ba85","ios":"levelo://app?vid=bd73ac4a-d1b9-44d2-b30b-5d0eb284ba85"},"vehicle_type_id":"4","last_reported":1753715590,"current_range_meters":20400,"station_id":"ce4bgpp2rcd13ifvqc3g","pricing_plan_id":"cebpf4jnsgd1na2vs0mg"},