{"last_updated":1770646020,"ttl":60,"version":"2.2","data":{"bikes":[{"bike_id":"cb2de75c-6daa-4a4e-bbee-83853f0e755e","system_id":"levelo_inurba_marseille","lat":43.331695,"lon":5.376951,"is_reserved":false,"is_disabled":false,"rental_uris":{"android":"levelo://app?vid=cb2de75c-6daa-4a4e-bbee-83853f0e755e","ios":"levelo://app?vid=cb2de75c-6daa-4a4e-bbee-83853f0e755e"},"vehicle_type_id":"4","last_reported":1770646021,"current_range_meters":2800,"station_id":"st_d46cu089ee8s73dldbu0","pricing_plan_id":"cebpf4jnsgd1na2vs0mg"},{"bike_id":"c620e79b-7199-4607-a8a8-fb72ed4a1c27","system_id":"levelo_inurba_marseille","lat":43.28109,"lon":5.42647,"is_reserved":false,"is_disabled":false,"rental_uris":{"android":"levelo://app?vid=c620e79b-7199-4607-a8a8-fb72ed4a1c27","ios":"levelo://app?vid=c620e79b-7199-4607-a8a8-fb72ed4a1c27"},"vehicle_type_id":"4","last_reported":1770646021,"current_range_meters":2800,"station_id":"","pricing_plan_id":"cebpf4jnsgd1na2vs0mg"},{"bike_id":"d896e061-9356-46a7-8e21-9b23aa89cf4f","system_id":"levelo_inurba_marseille","lat":43.33545,"lon":5.37462,"is_reserved":false,"is_disabled":false,"rental_uris":{"android":"levelo://app?vid=d896e061-9356-46a7-8e21-9b23aa89cf4f","ios":"levelo://app?vid=d896e061-9356-46a7-8e21-9b23aa89cf4f"},"vehicle_type_id":"4","last_reported":1770646021,"current_range_meters":2800,"station_id":"st_d46tts09ee8s73dlu43g","pricing_plan_id":"cebpf4jnsgd1na2vs0mg"},{"bike_id":"1d68e91c-5ff1-4742-8484-e25582f0b78a","system_id":"levelo_inurba_marseille","lat":43.32479,"lon":5.36574,"is_reserved":false,"is_disabled":false,"rental_uris":{"android":"levelo://app?vid=1d68e91c-5ff1-4742-8484-e25582f0b78a","ios":"levelo://app?vid=1d68e91c-5ff1-4742-8484-e25582f0b78a"},"vehicle_type_id":"4","last_reported":1770646021,"current_range_meters":3200,"station_id":"ce4bhs12rcd13ifvqhvg","pricing_plan_id":"cebpf4jnsgd1na2vs0mg"},{"bike_id":"1efe1a19-fbf0-44a6-870c-a91345e7555b","system_id":"levelo_inurba_marseille","lat":43.337444,"lon":5.374475,"is_reserved":false,"is_disabled":false,"rental_uris":{"android":"levelo://app?vid=1efe1a19-fbf0-44a6-870c-a91345e7555b","ios":"levelo://app?vid=1efe1a19-fbf0-44a6-870c-a91345e7555b"},"vehicle_type_id":"4","last_reported":1770646021,"current_range_meters":3200,"station_id":"","pricing_plan_id":"cebpf4jnsgd1na2vs0mg"},{"bike_id":"f031ebdc-e7fd-4860-b35e-fca828d7b97e","system_id":"levelo_inurba_marseille","lat":43.32052,"lon":5.36767,"is_reserved":false,"is_disabled":false,"rental_uris":{"android":"levelo://app?vid=f031ebdc-e7fd-4860-b35e-fca828d7b97e","ios":"levelo://app?vid=f031ebdc-e7fd-4860-b35e-fca828d7b97e"},"vehicle_type_id":"4","last_reported":1770646021,"current_range_meters":3200,"station_id":"ce4bhrh2rcd13ifvqhug","pricing_plan_id":"cebpf4jnsgd1na2vs0mg"},{"bike_id":"d9c49242-2714-4c46-9072-ad91dfc1418d","system_id":"levelo_inurba_marseille","lat":43.31446,"lon":5.45344,"is_reserved":false,"is_disabled":false,"rental_uris":{"android":"levelo://app?vid=d9c49242-2714-4c46-9072-ad91dfc1418d","ios":"levelo://app?vid=d9c49242-2714-4c46-9072-ad91dfc1418d"},"vehicle_type_id":"4","last_reported":1770646021,"current_range_meters":3200,"station_id":"","pricing_plan_id":"cebpf4jnsgd1na2vs0mg"},{"bike_id":"3c012a0d-c8c5-4db9-a233-c6c01013dd9b","system_id":"levelo_inurba_marseille","lat":43.26197,"lon":5.37923,"is_reserved":false,"is_disabled":false,"rental_uris":{"android":"levelo://app?vid=3c012a0d-c8c5-4db9-a233-c6c01013dd9b","ios":"levelo://app?vid=3c012a0d-c8c5-4db9-a233-c6c01013dd9b"},"vehicle_type_id":"4","last_reported":1770646021,"current_range_meters":3200,"station_id":"ce4bhjp2rcd13ifvqg90","pricing_plan_id":"cebpf4jnsgd1na2vs0mg"},{"bike_id":"2ba86f51-47d8-4b39-916f-4632e35c2fd1","system_id":"levelo_inurba_marseille","lat":43.26221,"lon":5.37441,"is_reserved":false,"is_disabled":false,"rental_uris":{"android":"levelo://app?vid=2ba86f51-47d8-4b39-916f-4632e35c2fd1","ios":"levelo://app?vid=2ba86f51-47d8-4b39-916f-4632e35c2fd1"},"vehicle_type_id":"4","last_reported":1770646021,"current_range_meters":3200,"station_id":"ce4bhgp2rcd13ifvqfc0","pricing_plan_id":"cebpf4jnsgd1na2vs0mg"},{"bike_id":"7f1892e1-40fc-4269-b52f-5cba92982321","system_id":"levelo_inurba_marseille","lat":43.32664,"lon":5.40985,"is_reserved":false,"is_disabled":false,"rental_uris":{"android":"levelo://app?vid=7f1892e1-40fc-4269-b52f-5cba92982321","ios":"levelo://app?vid=7f1892e1-40fc-4269-b52f-5cba92982321"},"vehicle_type_id":"4","last_reported":1770646021,"current_range_meters":3600,"station_id":"ce4bhpp2rcd13ifvqhgg","pricing_plan_id":"cebpf4jnsgd1na2vs0mg"},{"bike_id":"2d6e9d99-4713-457e-a99f-276f2b7eea56","system_id":"levelo_inurba_marseille","lat":43.2762,"lon":5.36106,"is_reserved":false,"is_disabled":false,"rental_uris":{"android":"levelo://app?vid=2d6e9d99-4713-457e-a99f-276f2b7eea56","ios":"levelo://app?vid=2d6e9d99-4713-457e-a99f-276f2b7eea56"},"vehicle_type_id":"4","last_reported":1770646021,"current_range_meters":3600,"station_id":"ce4bgj92rcd13ifvqbe0","pricing_plan_id":"cebpf4jnsgd1na2vs0mg"},{"bike_id":"6f371e8d-e255-46a1-a738-a2709504dcca","system_id":"levelo_inurba_marseille","lat":43.28868,"lon":5.35833,"is_reserved":false,"is_disabled":false,"rental_uris":{"android":"levelo://app?vid=6f371e8d-e255-46a1-a738-a2709504dcca","ios":"levelo://app?vid=6f371e8d-e255-46a1-a738-a2709504dcca"},"vehicle_type_id":"4","last_reported":1770646021,"current_range_meters":3600,"station_id":"ce4bhb12rcd13ifvqem0","pricing_plan_id":"cebpf4jnsgd1na2vs0mg"},{"bike_id":"d11a96b1-4e2b-4359-bb16-e4c735512148","system_id":"levelo_inurba_marseille","lat":43.2981,"lon":5.44065,"is_reserved":false,"is_disabled":false,"rental_uris":{"android":"levelo://app?vid=d11a96b1-4e2b-4359-bb16-e4c735512148","ios":"levelo://app?vid=d11a96b1-4e2b-4359-bb16-e4c735512148"},"vehicle_type_id":"4","last_reported":1770646021,"current_range_meters":3600,"station_id":"st_d3jp68qikq2c7381ktn0","pricing_plan_id":"cebpf4jnsgd1na2vs0mg"},{"bike_id":"7234f890-6455-4b46-8576-820d2b9cf766","system_id":"levelo_inurba_marseille","lat":43.23155,"lon":5.43705,"is_reserved":false,"is_disabled":false,"rental_uris":{"android":"levelo://app?vid=7234f890-6455-4b46-8576-820d2b9cf766","ios":"levelo://app?vid=7234f890-6455-4b46-8576-820d2b9cf766"},"vehicle_type_id":"4","last_reported":1770646021,"current_range_meters":3600,"station_id":"ce4bhmp2rcd13ifvqgog","pricing_plan_id":"cebpf4jnsgd1na2vs0mg"},{"bike_id":"a2f08b7b-3148-4ae3-b1d5-0ad2ed6e132c","system_id":"levelo_inurba_marseille","lat":43.28629,"lon":5.44338,"is_reserved":false,"is_disabled":false,"rental_uris":{"android":"levelo://app?vid=a2f08b7b-3148-4ae3-b1d5-0ad2ed6e132c","ios":"levelo://app?vid=a2f08b7b-3148-4ae3-b1d5-0ad2ed6e132c"},"vehicle_type_id":"4","last_reported":1770646021,"current_range_meters":3600,"station_id":"","pricing_plan_id":"cebpf4jnsgd1na2vs0mg"},{"bike_id":"05280667-4306-4a3c-89fe-64debd7d10a7","system_id":"levelo_inurba_marseille","lat":43.25003,"lon":5.38928,"is_reserved":false,"is_disabled":false,"rental_uris":{"android":"levelo://app?vid=05280667-4306-4a3c-89fe-64debd7d10a7","ios":"levelo://app?vid=05280667-4306-4a3c-89fe-64debd7d10a7"},"vehicle_type_id":"4","last_reported":1770646021,"current_range_meters":3600,"station_id":"ce4bhgp2rcd13ifvqfd0","pricing_plan_id":"cebpf4jnsgd1na2vs0mg"},{"bike_id":"26290a84-dfe3-4568-9328-c0af54381933","system_id":"levelo_inurba_marseille","lat":43.312709,"lon":5.401729,"is_reserved":false,"is_disabled":false,"rental_uris":{"android":"levelo://app?vid=26290a84-dfe3-4568-9328-c0af54381933","ios":"levelo://app?vid=26290a84-dfe3-4568-9328-c0af54381933"},"vehicle_type_id":"4","last_reported":1770646021,"current_range_meters":3600,"station_id":"ce4bh092rcd13ifvqd30","pricing_plan_id":"cebpf4jnsgd1na2vs0mg"},{"bike_id":"62468bc0-7c46-4734-a9fc-6c79792208c6","system_id":"levelo_inurba_marseille","lat":43.275629,"lon":5.384192,"is_reserved":false,"is_disabled":false,"rental_uris":{"android":"levelo://app?vid=62468bc0-7c46-4734-a9fc-6c79792208c6","ios":"levelo://app?vid=62468bc0-7c46-4734-a9fc-6c79792208c6"},"vehicle_type_id":"4","last_reported":1770646021,"current_range_meters":4000,"station_id":"ce4bh0h2rcd13ifvqd60","pricing_plan_id":"cebpf4jnsgd1na2vs0mg"},{"bike_id":"4e0a07e2-eab4-405a-aa8e-b0ac7d29a001","system_id":"levelo_inurba_marseille","lat":43.26559,"lon":5.39002,"is_reserved":false,"is_disabled":false,"rental_uris":{"android":"levelo://app?vid=4e0a07e2-eab4-405a-aa8e-b0ac7d29a001","ios":"levelo://app?vid=4e0a07e2-eab4-405a-aa8e-b0ac7d29a001"},"vehicle_type_id":"4","last_reported":1770646021,"current_range_meters":4000,"station_id":"ce4bhe12rcd13ifvqf30","pricing_plan_id":"cebpf4jnsgd1na2vs0mg"},{"bike_id":"e1b1ed61-5b5e-4796-9d94-c31665b3025f","system_id":"levelo_inurba_marseille","lat":43.2407,"lon":5.37755,"is_reserved":false,"is_disabled":false,"rental_uris":{"android":"levelo://app?vid=e1b1ed61-5b5e-4796-9d94-c31665b3025f","ios":"levelo://app?vid=e1b1ed61-5b5e-4796-9d94-c31665b3025f"},"vehicle_type_id":"4","last_reported":1770646021,"current_range_meters":4400,"station_id":"ce4bhnp2rcd13ifvqgvg","pricing_plan_id":"cebpf4jnsgd1na2vs0mg"},{"bike_id":"d5242b4a-769b-48b8-8522-816e7c28d15b","system_id":"levelo_inurba_marseille","lat":43.262167,"lon":5.37446,"is_reserved":false,"is_disabled":false,"rental_uris":{"android":"levelo://app?vid=d5242b4a-769b-48b8-8522-816e7c28d15b","ios":"levelo://app?vid=d5242b4a-769b-48b8-8522-816e7c28d15b"},"vehicle_type_id":"4","last_reported":1770646021,"current_range_meters":4400,"station_id":"","pricing_plan_id":"cebpf4jnsgd1na2vs0mg"},{"bike_id":"77a82100-2277-4b58-9b15-14c337bb7326","system_id":"levelo_inurba_marseille","lat":43.31367,"lon":5.38487,"is_reserved":false,"is_disabled":false,"rental_uris":{"android":"levelo://app?vid=77a82100-2277-4b58-9b15-14c337bb7326","ios":"levelo://app?vid=77a82100-2277-4b58-9b15-14c337bb7326"},"vehicle_type_id":"4","last_reported":1770646021,"current_range_meters":4400,"station_id":"ce4bgt92rcd13ifvqcf0","pricing_plan_id":"cebpf4jnsgd1na2vs0mg"},{"bike_id":"ffcfb0a6-be0d-4d3d-b9ec-3a4698a83e7b","system_id":"levelo_inurba_marseille","lat":43.259444,"lon":5.409008,"is_reserved":false,"is_disabled":false,"rental_uris":{"android":"levelo://app?vid=ffcfb0a6-be0d-4d3d-b9ec-3a4698a83e7b","ios":"levelo://app?vid=ffcfb0a6-be0d-4d3d-b9ec-3a4698a83e7b"},"vehicle_type_id":"4","last_reported":1770646021,"current_range_meters":4400,"station_id":"ce4bhm92rcd13ifvqglg","pricing_plan_id":"cebpf4jnsgd1na2vs0mg"},{"bike_id":"cb4e831c-6025-4234-bd44-dc892f6a6133","system_id":"levelo_inurba_marseille","lat":43.26607,"lon":5.40324,"is_reserved":false,"is_disabled":false,"rental_uris":{"android":"levelo://app?vid=cb4e831c-6025-4234-bd44-dc892f6a6133","ios":"levelo://app?vid=cb4e831c-6025-4234-bd44-dc892f6a6133"},"vehicle_type_id":"4","last_reported":1770646021,"current_range_meters":4400,"station_id":"","pricing_plan_id":"cebpf4jnsgd1na2vs0mg"},{"bike_id":"ef6ce157-048a-4fc1-8f31-c823377f5d47","system_id":"levelo_inurba_marseille","lat":43.24964,"lon":5.40472,"is_reserved":false,"is_disabled":false,"rental_uris":{"android":"levelo://app?vid=ef6ce157-048a-4fc1-8f31-c823377f5d47","ios":"levelo://app?vid=ef6ce157-048a-4fc1-8f31-c823377f5d47"},"vehicle_type_id":"4","last_reported":1770646021,"current_range_meters":4400,"station_id":"st_d2ngiaodas8pm72gd1h0","pricing_plan_id":"cebpf4jnsgd1na2vs0mg"},{"bike_id":"c27e2e36-b3ca-4049-98c2-d6087e91009d","system_id":"levelo_inurba_marseille","lat":43.337444,"lon":5.374475,"is_reserved":false,"is_disabled":false,"rental_uris":{"android":"levelo://app?vid=c27e2e36-b3ca-4049-98c2-d6087e91009d","ios":"levelo://app?vid=c27e2e36-b3ca-4049-98c2-d6087e91009d"},"vehicle_type_id":"4","last_reported":1770646021,"current_range_meters":4400,"station_id":"","pricing_plan_id":"cebpf4jnsgd1na2vs0mg"},{"bike_id":"d756b69a-f89e-45e9-8367-cec99ad981ec","system_id":"levelo_inurba_marseille","lat":43.295827,"lon":5.399667,"is_reserved":false,"is_disabled":true,"rental_uris":{"android":"levelo://app?vid=d756b69a-f89e-45e9-8367-cec99ad981ec","ios":"levelo://app?vid=d756b69a-f89e-45e9-8367-cec99ad981ec"},"vehicle_type_id":"4","last_reported":1770646021,"current_range_meters":5600,"station_id":"ce4bh312rcd13ifvqdj0","pricing_plan_id":"cebpf4jnsgd1na2vs0mg"},{"bike_id":"fb42dd14-8842-4c1b-bf3c-4ce250e467ea","system_id":"levelo_inurba_marseille","lat":43.257181,"lon":5.411018,"is_reserved":false,"is_disabled":false,"rental_uris":{"android":"levelo://app?vid=fb42dd14-8842-4c1b-bf3c-4ce250e467ea","ios":"levelo://app?vid=fb42dd14-8842-4c1b-bf3c-4ce250e467ea"},"vehicle_type_id":"4","last_reported":1770646021,"current_range_meters":5600,"station_id":"ce4bhkp2rcd13ifvqgd0","pricing_plan_id":"cebpf4jnsgd1na2vs0mg"},{"bike_id":"7793efe0-796a-47b9-b395-f00d6d2ba2f3","system_id":"levelo_inurba_marseille","lat":43.335416,"lon":5.374644,"is_reserved":false,"is_disabled":false,"rental_uris":{"android":"levelo://app?vid=7793efe0-796a-47b9-b395-f00d6d2ba2f3","ios":"levelo://app?vid=7793efe0-796a-47b9-b395-f00d6d2ba2f3"},"vehicle_type_id":"4","last_reported":1770646021,"current_range_meters":5600,"station_id":"st_d46tts09ee8s73dlu43g","pricing_plan_id":"cebpf4jnsgd1na2vs0mg"},{"bike_id":"eb4c876b-88dd-43ec-8628-44a384f402f0","system_id":"levelo_inurba_marseille","lat":43.33542,"lon":5.3747,"is_reserved":false,"is_disabled":false,"rental_uris":{"android":"levelo://app?vid=eb4c876b-88dd-43ec-8628-44a384f402f0","ios":"levelo://app?vid=eb4c876b-88dd-43ec-8628-44a384f402f0"},"vehicle_type_id":"4","last_reported":1770646021,"current_range_meters":5600,"station_id":"st_d46tts09ee8s73dlu43g","pricing_plan_id":"cebpf4jnsgd1na2vs0mg"},{"bike_id":"4b6ae7cf-a20c-45bf-93e3-f78d3a6e7a98","system_id":"levelo_inurba_marseille","lat":43.259351,"lon":5.409076,"is_reserved":false,"is_disabled":false,"rental_uris":{"android":"levelo://app?vid=4b6ae7cf-a20c-45bf-93e3-f78d3a6e7a98","ios":"levelo://app?vid=4b6ae7cf-a20c-45bf-93e3-f78d3a6e7a98"},"vehicle_type_id":"4","last_reported":1770646021,"current_range_meters":5600,"station_id":"ce4bhm92rcd13ifvqglg","pricing_plan_id":"cebpf4jnsgd1na2vs0mg"},{"bike_id":"be382ca2-febf-471a-bdc7-d70595557476","system_id":"levelo_inurba_marseille","lat":43.30927,"lon":5.40138,"is_reserved":false,"is_disabled":false,"rental_uris":{"android":"levelo://app?vid=be382ca2-febf-471a-bdc7-d70595557476","ios":"levelo://app?vid=be382ca2-febf-471a-bdc7-d70595557476"},"vehicle_type_id":"4","last_reported":1770646021,"current_range_meters":5600,"station_id":"ce4bgvp2rcd13ifvqct0","pricing_plan_id":"cebpf4jnsgd1na2vs0mg"},{"bike_id":"f9c5614a-eafa-4d20-9f6c-0004b72335dc","system_id":"levelo_inurba_marseille","lat":43.28266,"lon":5.35066,"is_reserved":false,"is_disabled":false,"rental_uris":{"android":"levelo://app?vid=f9c5614a-eafa-4d20-9f6c-0004b72335dc","ios":"levelo://app?vid=f9c5614a-eafa-4d20-9f6c-0004b72335dc"},"vehicle_type_id":"4","last_reported":1770646021,"current_range_meters":5600,"station_id":"ce4bhbp2rcd13ifvqerg","pricing_plan_id":"cebpf4jnsgd1na2vs0mg"},{"bike_id":"54e729b3-f707-4cd2-b1ef-acae370fa9c3","system_id":"levelo_inurba_marseille","lat":43.28459,"lon":5.35886,"is_reserved":false,"is_disabled":false,"rental_uris":{"android":"levelo://app?vid=54e729b3-f707-4cd2-b1ef-acae370fa9c3","ios":"levelo://app?vid=54e729b3-f707-4cd2-b1ef-acae370fa9c3"},"vehicle_type_id":"4","last_reported":1770646021,"current_range_meters":5600,"station_id":"ce4bhah2rcd13ifvqei0","pricing_plan_id":"cebpf4jnsgd1na2vs0mg"},{"bike_id":"6e033c35-dbfc-4ffc-a036-eedd79c14d36","system_id":"levelo_inurba_marseille","lat":43.217498,"lon":5.346,"is_reserved":false,"is_disabled":true,"rental_uris":{"android":"levelo://app?vid=6e033c35-dbfc-4ffc-a036-eedd79c14d36","ios":"levelo://app?vid=6e033c35-dbfc-4ffc-a036-eedd79c14d36"},"vehicle_type_id":"4","last_reported":1770646021,"current_range_meters":5600,"station_id":"","pricing_plan_id":"cebpf4jnsgd1na2vs0mg"},{"bike_id":"7872a419-0e75-4eba-984f-6abb4985098a","system_id":"levelo_inurba_marseille","lat":43.28101,"lon":5.37834,"is_reserved":false,"is_disabled":false,"rental_uris":{"android":"levelo://app?vid=7872a419-0e75-4eba-984f-6abb4985098a","ios":"levelo://app?vid=7872a419-0e75-4eba-984f-6abb4985098a"},"vehicle_type_id":"4","last_reported":1770646021,"current_range_meters":5600,"station_id":"ce4bha12rcd13ifvqee0","pricing_plan_id":"cebpf4jnsgd1na2vs0mg"},{"bike_id":"6070d9c8-f586-42c4-a8e5-23dd60b7f933","system_id":"levelo_inurba_marseille","lat":43.27824,"lon":5.40706,"is_reserved":false,"is_disabled":false,"rental_uris":{"android":"levelo://app?vid=6070d9c8-f586-42c4-a8e5-23dd60b7f933","ios":"levelo://app?vid=6070d9c8-f586-42c4-a8e5-23dd60b7f933"},"vehicle_type_id":"4","last_reported":1770646021,"current_range_meters":6000,"station_id":"ce4bhnh2rcd13ifvqgtg","pricing_plan_id":"cebpf4jnsgd1na2vs0mg"},{"bike_id":"48e1f90a-b238-48a9-b5d1-cfcccf307ddc","system_id":"levelo_inurba_marseille","lat":43.26952,"lon":5.38631,"is_reserved":false,"is_disabled":false,"rental_uris":{"android":"levelo://app?vid=48e1f90a-b238-48a9-b5d1-cfcccf307ddc","ios":"levelo://app?vid=48e1f90a-b238-48a9-b5d1-cfcccf307ddc"},"vehicle_type_id":"4","last_reported":1770646021,"current_range_meters":6000,"station_id":"ce4bhh92rcd13ifvqfh0","pricing_plan_id":"cebpf4jnsgd1na2vs0mg"},{"bike_id":"70519adb-911c-4120-b6a7-3660c44ac45b","system_id":"levelo_inurba_marseille","lat":43.24736,"lon":5.39256,"is_reserved":false,"is_disabled":false,"rental_uris":{"android":"levelo://app?vid=70519adb-911c-4120-b6a7-3660c44ac45b","ios":"levelo://app?vid=70519adb-911c-4120-b6a7-3660c44ac45b"},"vehicle_type_id":"4","last_reported":1770646021,"current_range_meters":6000,"station_id":"","pricing_plan_id":"cebpf4jnsgd1na2vs0mg"},{"bike_id":"56f0f1b8-4d65-4c7c-9e62-4a24173c3789","system_id":"levelo_inurba_marseille","lat":43.25929,"lon":5.4091,"is_reserved":false,"is_disabled":false,"rental_uris":{"android":"levelo://app?vid=56f0f1b8-4d65-4c7c-9e62-4a24173c3789","ios":"levelo://app?vid=56f0f1b8-4d65-4c7c-9e62-4a24173c3789"},"vehicle_type_id":"4","last_reported":1770646021,"current_range_meters":6000,"station_id":"ce4bhm92rcd13ifvqglg","pricing_plan_id":"cebpf4jnsgd1na2vs0mg"},{"bike_id":"42d14ae0-b057-4881-a435-4d88ebb79611","system_id":"levelo_inurba_marseille","lat":43.26676,"lon":5.38276,"is_reserved":false,"is_disabled":false,"rental_uris":{"android":"levelo://app?vid=42d14ae0-b057-4881-a435-4d88ebb79611","ios":"levelo://app?vid=42d14ae0-b057-4881-a435-4d88ebb79611"},"vehicle_type_id":"4","last_reported":1770646021,"current_range_meters":6000,"station_id":"ce4bhg92rcd13ifvqf90","pricing_plan_id":"cebpf4jnsgd1na2vs0mg"},{"bike_id":"ac645712-adb7-427c-9a1d-bbc03b4ccac1","system_id":"levelo_inurba_marseille","lat":43.21192,"lon":5.3507,"is_reserved":false,"is_disabled":false,"rental_uris":{"android":"levelo://app?vid=ac645712-adb7-427c-9a1d-bbc03b4ccac1","ios":"levelo://app?vid=ac645712-adb7-427c-9a1d-bbc03b4ccac1"},"vehicle_type_id":"4","last_reported":1770646021,"current_range_meters":6000,"station_id":"st_cvj6sg6p6f1abm77japg","pricing_plan_id":"cebpf4jnsgd1na2vs0mg"},{"bike_id":"aa2bf0cd-9661-4d84-8b59-aed68b60696e","system_id":"levelo_inurba_marseille","lat":43.21746,"lon":5.34609,"is_reserved":false,"is_disabled":false,"rental_uris":{"android":"levelo://app?vid=aa2bf0cd-9661-4d84-8b59-aed68b60696e","ios":"levelo://app?vid=aa2bf0cd-9661-4d84-8b59-aed68b60696e"},"vehicle_type_id":"4","last_reported":1770646021,"current_range_meters":6000,"station_id":"","pricing_plan_id":"cebpf4jnsgd1na2vs0mg"},{"bike_id":"e71c6087-2ea8-4c2e-ad3f-1a34af808918","system_id":"levelo_inurba_marseille","lat":43.29189,"lon":5.3581,"is_reserved":false,"is_disabled":false,"rental_uris":{"android":"levelo://app?vid=e71c6087-2ea8-4c2e-ad3f-1a34af808918","ios":"levelo://app?vid=e71c6087-2ea8-4c2e-ad3f-1a34af808918"},"vehicle_type_id":"4","last_reported":1770646021,"current_range_meters":6000,"station_id":"ce4bhb12rcd13ifvqel0","pricing_plan_id":"cebpf4jnsgd1na2vs0mg"},{"bike_id":"4c1084d3-0348-48bc-a610-f24daa86db77","system_id":"levelo_inurba_marseille","lat":43.26366,"lon":5.41077,"is_reserved":false,"is_disabled":false,"rental_uris":{"android":"levelo://app?vid=4c1084d3-0348-48bc-a610-f24daa86db77","ios":"levelo://app?vid=4c1084d3-0348-48bc-a610-f24daa86db77"},"vehicle_type_id":"4","last_reported":1770646021,"current_range_meters":6000,"station_id":"st_d4e5ca6na9uc73bfl5fg","pricing_plan_id":"cebpf4jnsgd1na2vs0mg"},{"bike_id":"38822694-03b5-4411-90cf-e7187b3c9fda","system_id":"levelo_inurba_marseille","lat":43.25003,"lon":5.38932,"is_reserved":false,"is_disabled":false,"rental_uris":{"android":"levelo://app?vid=38822694-03b5-4411-90cf-e7187b3c9fda","ios":"levelo://app?vid=38822694-03b5-4411-90cf-e7187b3c9fda"},"vehicle_type_id":"4","last_reported":1770646021,"current_range_meters":6000,"station_id":"ce4bhgp2rcd13ifvqfd0","pricing_plan_id":"cebpf4jnsgd1na2vs0mg"},{"bike_id":"19d8982e-e70c-4b5b-98db-88bf29b75db0","system_id":"levelo_inurba_marseille","lat":43.27374,"lon":5.36253,"is_reserved":false,"is_disabled":false,"rental_uris":{"android":"levelo://app?vid=19d8982e-e70c-4b5b-98db-88bf29b75db0","ios":"levelo://app?vid=19d8982e-e70c-4b5b-98db-88bf29b75db0"},"vehicle_type_id":"4","last_reported":1770646021,"current_range_meters":6000,"station_id":"ce4bhbh2rcd13ifvqeo0","pricing_plan_id":"cebpf4jnsgd1na2vs0mg"},{"bike_id":"588c1167-06c4-4487-a3d7-0c793f8296e8","system_id":"levelo_inurba_marseille","lat":43.28937,"lon":5.36643,"is_reserved":false,"is_disabled":false,"rental_uris":{"android":"levelo://app?vid=588c1167-06c4-4487-a3d7-0c793f8296e8","ios":"levelo://app?vid=588c1167-06c4-4487-a3d7-0c793f8296e8"},"vehicle_type_id":"4","last_reported":1770646021,"current_range_meters":6400,"station_id":"ce4bhap2rcd13ifvqek0","pricing_plan_id":"cebpf4jnsgd1na2vs0mg"},{"bike_id":"5aba6095-7643-4143-8b09-182d2f94183c","system_id":"levelo_inurba_marseille","lat":43.2985,"lon":5.36256,"is_reserved":false,"is_disabled":false,"rental_uris":{"android":"levelo://app?vid=5aba6095-7643-4143-8b09-182d2f94183c","ios":"levelo://app?vid=5aba6095-7643-4143-8b09-182d2f94183c"},"vehicle_type_id":"4","last_reported":1770646021,"current_range_meters":6400,"station_id":"ce4bgpp2rcd13ifvqc3g","pricing_plan_id":"cebpf4jnsgd1na2vs0mg"},{"bike_id":"a5f7b14c-7bed-4ffe-9ed6-ae04eb384654","system_id":"levelo_inurba_marseille","lat":43.31273,"lon":5.40164,"is_reserved":false,"is_disabled":false,"rental_uris":{"android":"levelo://app?vid=a5f7b14c-7bed-4ffe-9ed6-ae04eb384654","ios":"levelo://app?vid=a5f7b14c-7bed-4ffe-9ed6-ae04eb384654"},"vehicle_type_id":"4","last_reported":1770646021,"current_range_meters":6400,"station_id":"ce4bh092rcd13ifvqd30","pricing_plan_id":"cebpf4jnsgd1na2vs0mg"},{"bike_id":"7df57d59-5da2-4ae2-884b-a7f5a856ffa9","system_id":"levelo_inurba_marseille","lat":43.3112,"lon":5.37766,"is_reserved":false,"is_disabled":false,"rental_uris":{"android":"levelo://app?vid=7df57d59-5da2-4ae2-884b-a7f5a856ffa9","ios":"levelo://app?vid=7df57d59-5da2-4ae2-884b-a7f5a856ffa9"},"vehicle_type_id":"4","last_reported":1770646021,"current_range_meters":6400,"station_id":"ce4bgt92rcd13ifvqcg0","pricing_plan_id":"cebpf4jnsgd1na2vs0mg"},{"bike_id":"8c139d21-9d12-4792-a44d-13109cee3e0a","system_id":"levelo_inurba_marseille","lat":43.27041,"lon":5.41996,"is_reserved":false,"is_disabled":false,"rental_uris":{"android":"levelo://app?vid=8c139d21-9d12-4792-a44d-13109cee3e0a","ios":"levelo://app?vid=8c139d21-9d12-4792-a44d-13109cee3e0a"},"vehicle_type_id":"4","last_reported":1770646021,"current_range_meters":6400,"station_id":"","pricing_plan_id":"cebpf4jnsgd1na2vs0mg"},{"bike_id":"74b7a720-3595-446c-bb4f-a4a46ae88586","system_id":"levelo_inurba_marseille","lat":43.28268,"lon":5.3509,"is_reserved":false,"is_disabled":false,"rental_uris":{"android":"levelo://app?vid=74b7a720-3595-446c-bb4f-a4a46ae88586","ios":"levelo://app?vid=74b7a720-3595-446c-bb4f-a4a46ae88586"},"vehicle_type_id":"4","last_reported":1770646021,"current_range_meters":6400,"station_id":"ce4bhbp2rcd13ifvqerg","pricing_plan_id":"cebpf4jnsgd1na2vs0mg"},{"bike_id":"94f5b9b6-0b84-4c33-bee4-4b7f3b57d974","system_id":"levelo_inurba_marseille","lat":43.24645,"lon":5.38114,"is_reserved":false,"is_disabled":false,"rental_uris":{"android":"levelo://app?vid=94f5b9b6-0b84-4c33-bee4-4b7f3b57d974","ios":"levelo://app?vid=94f5b9b6-0b84-4c33-bee4-4b7f3b57d974"},"vehicle_type_id":"4","last_reported":1770646021,"current_range_meters":6400,"station_id":"ce4bhih2rcd13ifvqfr0","pricing_plan_id":"cebpf4jnsgd1na2vs0mg"},{"bike_id":"3677d988-5978-44c4-82e7-a7994579bc69","system_id":"levelo_inurba_marseille","lat":43.28469,"lon":5.38416,"is_reserved":false,"is_disabled":true,"rental_uris":{"android":"levelo://app?vid=3677d988-5978-44c4-82e7-a7994579bc69","ios":"levelo://app?vid=3677d988-5978-44c4-82e7-a7994579bc69"},"vehicle_type_id":"4","last_reported":1770646021,"current_range_meters":6400,"station_id":"ce4bh512rcd13ifvqe3g","pricing_plan_id":"cebpf4jnsgd1na2vs0mg"},{"bike_id":"3a648550-61a0-4981-8963-906064980733","system_id":"levelo_inurba_marseille","lat":43.23159,"lon":5.43693,"is_reserved":false,"is_disabled":false,"rental_uris":{"android":"levelo://app?vid=3a648550-61a0-4981-8963-906064980733","ios":"levelo://app?vid=3a648550-61a0-4981-8963-906064980733"},"vehicle_type_id":"4","last_reported":1770646021,"current_range_meters":6800,"station_id":"ce4bhmp2rcd13ifvqgog","pricing_plan_id":"cebpf4jnsgd1na2vs0mg"},{"bike_id":"c84e4d83-04e3-449f-9895-86dc4df2d6fd","system_id":"levelo_inurba_marseille","lat":43.28279,"lon":5.39447,"is_reserved":false,"is_disabled":false,"rental_uris":{"android":"levelo://app?vid=c84e4d83-04e3-449f-9895-86dc4df2d6fd","ios":"levelo://app?vid=c84e4d83-04e3-449f-9895-86dc4df2d6fd"},"vehicle_type_id":"4","last_reported":1770646021,"current_range_meters":6800,"station_id":"","pricing_plan_id":"cebpf4jnsgd1na2vs0mg"},{"bike_id":"ea5b640c-f9cc-4437-aff2-20b9a17b6db1","system_id":"levelo_inurba_marseille","lat":43.259363,"lon":5.408984,"is_reserved":false,"is_disabled":false,"rental_uris":{"android":"levelo://app?vid=ea5b640c-f9cc-4437-aff2-20b9a17b6db1","ios":"levelo://app?vid=ea5b640c-f9cc-4437-aff2-20b9a17b6db1"},"vehicle_type_id":"4","last_reported":1770646021,"current_range_meters":6800,"station_id":"ce4bhm92rcd13ifvqglg","pricing_plan_id":"cebpf4jnsgd1na2vs0mg"},{"bike_id":"fc830711-c6c4-41fc-8c3c-a2ef4151426a","system_id":"levelo_inurba_marseille","lat":43.26801,"lon":5.40283,"is_reserved":false,"is_disabled":false,"rental_uris":{"android":"levelo://app?vid=fc830711-c6c4-41fc-8c3c-a2ef4151426a","ios":"levelo://app?vid=fc830711-c6c4-41fc-8c3c-a2ef4151426a"},"vehicle_type_id":"4","last_reported":1770646021,"current_range_meters":6800,"station_id":"ce501612rcd8frsf0b60","pricing_plan_id":"cebpf4jnsgd1na2vs0mg"},{"bike_id":"0e091d63-decd-4849-9cf3-dbb15ed71623","system_id":"levelo_inurba_marseille","lat":43.26217,"lon":5.37446,"is_reserved":false,"is_disabled":false,"rental_uris":{"android":"levelo://app?vid=0e091d63-decd-4849-9cf3-dbb15ed71623","ios":"levelo://app?vid=0e091d63-decd-4849-9cf3-dbb15ed71623"},"vehicle_type_id":"4","last_reported":1770646021,"current_range_meters":6800,"station_id":"ce4bhgp2rcd13ifvqfc0","pricing_plan_id":"cebpf4jnsgd1na2vs0mg"},{"bike_id":"d6ade2d9-547c-4e02-b658-0a97719f1b83","system_id":"levelo_inurba_marseille","lat":43.2419,"lon":5.39719,"is_reserved":false,"is_disabled":false,"rental_uris":{"android":"levelo://app?vid=d6ade2d9-547c-4e02-b658-0a97719f1b83","ios":"levelo://app?vid=d6ade2d9-547c-4e02-b658-0a97719f1b83"},"vehicle_type_id":"4","last_reported":1770646021,"current_range_meters":6800,"station_id":"ce4bhn12rcd13ifvqgpg","pricing_plan_id":"cebpf4jnsgd1na2vs0mg"},{"bike_id":"777f1f50-9ccf-46db-a1bf-cfe765ca1373","system_id":"levelo_inurba_marseille","lat":43.260668,"lon":5.393918,"is_reserved":false,"is_disabled":false,"rental_uris":{"android":"levelo://app?vid=777f1f50-9ccf-46db-a1bf-cfe765ca1373","ios":"levelo://app?vid=777f1f50-9ccf-46db-a1bf-cfe765ca1373"},"vehicle_type_id":"4","last_reported":1770646021,"current_range_meters":6800,"station_id":"ce4bhh92rcd13ifvqfj0","pricing_plan_id":"cebpf4jnsgd1na2vs0mg"},{"bike_id":"80c8928a-a2b0-465b-b10f-7184a08913ec","system_id":"levelo_inurba_marseille","lat":43.290021,"lon":5.356163,"is_reserved":false,"is_disabled":false,"rental_uris":{"android":"levelo://app?vid=80c8928a-a2b0-465b-b10f-7184a08913ec","ios":"levelo://app?vid=80c8928a-a2b0-465b-b10f-7184a08913ec"},"vehicle_type_id":"4","last_reported":1770646021,"current_range_meters":6800,"station_id":"ce4bh3p2rcd13ifvqdq0","pricing_plan_id":"cebpf4jnsgd1na2vs0mg"},{"bike_id":"f3573b32-a1f6-406b-8e19-a08eafd3553f","system_id":"levelo_inurba_marseille","lat":43.27501,"lon":5.42467,"is_reserved":false,"is_disabled":false,"rental_uris":{"android":"levelo://app?vid=f3573b32-a1f6-406b-8e19-a08eafd3553f","ios":"levelo://app?vid=f3573b32-a1f6-406b-8e19-a08eafd3553f"},"vehicle_type_id":"4","last_reported":1770646021,"current_range_meters":6800,"station_id":"ce4bhn92rcd13ifvqgrg","pricing_plan_id":"cebpf4jnsgd1na2vs0mg"},{"bike_id":"2a41a4e7-1277-4985-ba78-22bce5859488","system_id":"levelo_inurba_marseille","lat":43.25946,"lon":5.40897,"is_reserved":false,"is_disabled":false,"rental_uris":{"android":"levelo://app?vid=2a41a4e7-1277-4985-ba78-22bce5859488","ios":"levelo://app?vid=2a41a4e7-1277-4985-ba78-22bce5859488"},"vehicle_type_id":"4","last_reported":1770646021,"current_range_meters":6800,"station_id":"ce4bhm92rcd13ifvqglg","pricing_plan_id":"cebpf4jnsgd1na2vs0mg"},{"bike_id":"27c29ef9-6971-4a98-8030-2f3da3364f50","system_id":"levelo_inurba_marseille","lat":43.274935,"lon":5.424546,"is_reserved":false,"is_disabled":false,"rental_uris":{"android":"levelo://app?vid=27c29ef9-6971-4a98-8030-2f3da3364f50","ios":"levelo://app?vid=27c29ef9-6971-4a98-8030-2f3da3364f50"},"vehicle_type_id":"4","last_reported":1770646021,"current_range_meters":7200,"station_id":"ce4bhn92rcd13ifvqgrg","pricing_plan_id":"cebpf4jnsgd1na2vs0mg"},{"bike_id":"b65a7e72-9e74-4b3f-b167-e422d10fb3a2","system_id":"levelo_inurba_marseille","lat":43.29983,"lon":5.3852,"is_reserved":false,"is_disabled":false,"rental_uris":{"android":"levelo://app?vid=b65a7e72-9e74-4b3f-b167-e422d10fb3a2","ios":"levelo://app?vid=b65a7e72-9e74-4b3f-b167-e422d10fb3a2"},"vehicle_type_id":"4","last_reported":1770646021,"current_range_meters":7200,"station_id":"ce4bgj92rcd13ifvqbd0","pricing_plan_id":"cebpf4jnsgd1na2vs0mg"},{"bike_id":"8a594218-e71c-433b-ad55-634335b4688f","system_id":"levelo_inurba_marseille","lat":43.26785,"lon":5.39421,"is_reserved":false,"is_disabled":false,"rental_uris":{"android":"levelo://app?vid=8a594218-e71c-433b-ad55-634335b4688f","ios":"levelo://app?vid=8a594218-e71c-433b-ad55-634335b4688f"},"vehicle_type_id":"4","last_reported":1770646021,"current_range_meters":7200,"station_id":"ce4bhh12rcd13ifvqfg0","pricing_plan_id":"cebpf4jnsgd1na2vs0mg"},{"bike_id":"4a0376c9-1519-4bcd-be5f-0ba86200a48e","system_id":"levelo_inurba_marseille","lat":43.30142,"lon":5.37417,"is_reserved":false,"is_disabled":false,"rental_uris":{"android":"levelo://app?vid=4a0376c9-1519-4bcd-be5f-0ba86200a48e","ios":"levelo://app?vid=4a0376c9-1519-4bcd-be5f-0ba86200a48e"},"vehicle_type_id":"4","last_reported":1770646021,"current_range_meters":7200,"station_id":"ce4bgs92rcd13ifvqcc0","pricing_plan_id":"cebpf4jnsgd1na2vs0mg"},{"bike_id":"c0b6c3eb-4055-48c5-be4e-2f3633e2e95f","system_id":"levelo_inurba_marseille","lat":43.22565,"lon":5.41624,"is_reserved":false,"is_disabled":false,"rental_uris":{"android":"levelo://app?vid=c0b6c3eb-4055-48c5-be4e-2f3633e2e95f","ios":"levelo://app?vid=c0b6c3eb-4055-48c5-be4e-2f3633e2e95f"},"vehicle_type_id":"4","last_reported":1770646021,"current_range_meters":7200,"station_id":"st_d2o4gvlbi1j2169b742g","pricing_plan_id":"cebpf4jnsgd1na2vs0mg"},{"bike_id":"e2c3118e-ecc2-476a-9be9-aafebb10c1c9","system_id":"levelo_inurba_marseille","lat":43.24637,"lon":5.43146,"is_reserved":false,"is_disabled":false,"rental_uris":{"android":"levelo://app?vid=e2c3118e-ecc2-476a-9be9-aafebb10c1c9","ios":"levelo://app?vid=e2c3118e-ecc2-476a-9be9-aafebb10c1c9"},"vehicle_type_id":"4","last_reported":1770646021,"current_range_meters":7200,"station_id":"st_d2m6c4gdas8pm72e190g","pricing_plan_id":"cebpf4jnsgd1na2vs0mg"},{"bike_id":"0c19d373-6eb2-4333-8212-205e194a0e67","system_id":"levelo_inurba_marseille","lat":43.24389,"lon":5.37068,"is_reserved":false,"is_disabled":false,"rental_uris":{"android":"levelo://app?vid=0c19d373-6eb2-4333-8212-205e194a0e67","ios":"levelo://app?vid=0c19d373-6eb2-4333-8212-205e194a0e67"},"vehicle_type_id":"4","last_reported":1770646021,"current_range_meters":7200,"station_id":"ce4bhhh2rcd13ifvqfk0","pricing_plan_id":"cebpf4jnsgd1na2vs0mg"},{"bike_id":"6e043c13-5a31-4e0d-9658-13d292ba1363","system_id":"levelo_inurba_marseille","lat":43.262526,"lon":5.378742,"is_reserved":false,"is_disabled":false,"rental_uris":{"android":"levelo://app?vid=6e043c13-5a31-4e0d-9658-13d292ba1363","ios":"levelo://app?vid=6e043c13-5a31-4e0d-9658-13d292ba1363"},"vehicle_type_id":"4","last_reported":1770646021,"current_range_meters":7200,"station_id":"ce4bhjp2rcd13ifvqg90","pricing_plan_id":"cebpf4jnsgd1na2vs0mg"},{"bike_id":"7db17edc-530e-4382-b631-054f1405c7f7","system_id":"levelo_inurba_marseille","lat":43.27206,"lon":5.39184,"is_reserved":false,"is_disabled":false,"rental_uris":{"android":"levelo://app?vid=7db17edc-530e-4382-b631-054f1405c7f7","ios":"levelo://app?vid=7db17edc-530e-4382-b631-054f1405c7f7"},"vehicle_type_id":"4","last_reported":1770646021,"current_range_meters":7200,"station_id":"ce4bhhp2rcd13ifvqfm0","pricing_plan_id":"cebpf4jnsgd1na2vs0mg"},{"bike_id":"e1242b72-e1d7-481b-8195-5c5f6d9a0b11","system_id":"levelo_inurba_marseille","lat":43.24655,"lon":5.43126,"is_reserved":false,"is_disabled":false,"rental_uris":{"android":"levelo://app?vid=e1242b72-e1d7-481b-8195-5c5f6d9a0b11","ios":"levelo://app?vid=e1242b72-e1d7-481b-8195-5c5f6d9a0b11"},"vehicle_type_id":"4","last_reported":1770646021,"current_range_meters":7200,"station_id":"st_d2m6c4gdas8pm72e190g","pricing_plan_id":"cebpf4jnsgd1na2vs0mg"},{"bike_id":"d6aee196-cc92-4d64-b6e5-12dab2bf06f5","system_id":"levelo_inurba_marseille","lat":43.33543,"lon":5.374595,"is_reserved":false,"is_disabled":false,"rental_uris":{"android":"levelo://app?vid=d6aee196-cc92-4d64-b6e5-12dab2bf06f5","ios":"levelo://app?vid=d6aee196-cc92-4d64-b6e5-12dab2bf06f5"},"vehicle_type_id":"4","last_reported":1770646021,"current_range_meters":7200,"station_id":"st_d46tts09ee8s73dlu43g","pricing_plan_id":"cebpf4jnsgd1na2vs0mg"},{"bike_id":"06774131-bb31-42a2-8308-ad9d58cb5b6f","system_id":"levelo_inurba_marseille","lat":43.29368,"lon":5.37846,"is_reserved":false,"is_disabled":false,"rental_uris":{"android":"levelo://app?vid=06774131-bb31-42a2-8308-ad9d58cb5b6f","ios":"levelo://app?vid=06774131-bb31-42a2-8308-ad9d58cb5b6f"},"vehicle_type_id":"4","last_reported":1770646021,"current_range_meters":7200,"station_id":"ce4bgjh2rcd13ifvqbf0","pricing_plan_id":"cebpf4jnsgd1na2vs0mg"},{"bike_id":"d9dd74ac-36a1-4118-ba80-6d740c082c46","system_id":"levelo_inurba_marseille","lat":43.305558,"lon":5.367678,"is_reserved":false,"is_disabled":false,"rental_uris":{"android":"levelo://app?vid=d9dd74ac-36a1-4118-ba80-6d740c082c46","ios":"levelo://app?vid=d9dd74ac-36a1-4118-ba80-6d740c082c46"},"vehicle_type_id":"4","last_reported":1770646021,"current_range_meters":7200,"station_id":"ce4bgr92rcd13ifvqc6g","pricing_plan_id":"cebpf4jnsgd1na2vs0mg"},{"bike_id":"c5dad919-223c-42fc-b2f6-0990bc1115e0","system_id":"levelo_inurba_marseille","lat":43.28221,"lon":5.43025,"is_reserved":false,"is_disabled":false,"rental_uris":{"android":"levelo://app?vid=c5dad919-223c-42fc-b2f6-0990bc1115e0","ios":"levelo://app?vid=c5dad919-223c-42fc-b2f6-0990bc1115e0"},"vehicle_type_id":"4","last_reported":1770646021,"current_range_meters":7200,"station_id":"","pricing_plan_id":"cebpf4jnsgd1na2vs0mg"},{"bike_id":"d93cb781-a4cf-401e-ae8f-0b70955e0565","system_id":"levelo_inurba_marseille","lat":43.23139,"lon":5.43703,"is_reserved":false,"is_disabled":false,"rental_uris":{"android":"levelo://app?vid=d93cb781-a4cf-401e-ae8f-0b70955e0565","ios":"levelo://app?vid=d93cb781-a4cf-401e-ae8f-0b70955e0565"},"vehicle_type_id":"4","last_reported":1770646021,"current_range_meters":7200,"station_id":"ce4bhmp2rcd13ifvqgog","pricing_plan_id":"cebpf4jnsgd1na2vs0mg"},{"bike_id":"245f3a00-5ae9-48cf-b7da-8774ff9b41ba","system_id":"levelo_inurba_marseille","lat":43.284758,"lon":5.483949,"is_reserved":false,"is_disabled":false,"rental_uris":{"android":"levelo://app?vid=245f3a00-5ae9-48cf-b7da-8774ff9b41ba","ios":"levelo://app?vid=245f3a00-5ae9-48cf-b7da-8774ff9b41ba"},"vehicle_type_id":"4","last_reported":1770646021,"current_range_meters":8000,"station_id":"","pricing_plan_id":"cebpf4jnsgd1na2vs0mg"},{"bike_id":"3b51b137-b0f5-4720-8050-df6e6c8f19ea","system_id":"levelo_inurba_marseille","lat":43.25928,"lon":5.40888,"is_reserved":false,"is_disabled":false,"rental_uris":{"android":"levelo://app?vid=3b51b137-b0f5-4720-8050-df6e6c8f19ea","ios":"levelo://app?vid=3b51b137-b0f5-4720-8050-df6e6c8f19ea"},"vehicle_type_id":"4","last_reported":1770646021,"current_range_meters":8000,"station_id":"ce4bhm92rcd13ifvqglg","pricing_plan_id":"cebpf4jnsgd1na2vs0mg"},{"bike_id":"16a1688f-c2f5-4bf5-96dc-0466fbc0522d","system_id":"levelo_inurba_marseille","lat":43.27931,"lon":5.38698,"is_reserved":false,"is_disabled":false,"rental_uris":{"android":"levelo://app?vid=16a1688f-c2f5-4bf5-96dc-0466fbc0522d","ios":"levelo://app?vid=16a1688f-c2f5-4bf5-96dc-0466fbc0522d"},"vehicle_type_id":"4","last_reported":1770646021,"current_range_meters":8000,"station_id":"","pricing_plan_id":"cebpf4jnsgd1na2vs0mg"},{"bike_id":"7d59f1f1-2621-4853-91a8-34ee2eea3bf8","system_id":"levelo_inurba_marseille","lat":43.24392,"lon":5.37084,"is_reserved":false,"is_disabled":false,"rental_uris":{"android":"levelo://app?vid=7d59f1f1-2621-4853-91a8-34ee2eea3bf8","ios":"levelo://app?vid=7d59f1f1-2621-4853-91a8-34ee2eea3bf8"},"vehicle_type_id":"4","last_reported":1770646021,"current_range_meters":8000,"station_id":"ce4bhhh2rcd13ifvqfk0","pricing_plan_id":"cebpf4jnsgd1na2vs0mg"},{"bike_id":"ee503005-51ab-4ed7-97a6-291a49dda2a2","system_id":"levelo_inurba_marseille","lat":43.27968,"lon":5.38738,"is_reserved":false,"is_disabled":false,"rental_uris":{"android":"levelo://app?vid=ee503005-51ab-4ed7-97a6-291a49dda2a2","ios":"levelo://app?vid=ee503005-51ab-4ed7-97a6-291a49dda2a2"},"vehicle_type_id":"4","last_reported":1770646021,"current_range_meters":8000,"station_id":"ce4bhg12rcd13ifvqf80","pricing_plan_id":"cebpf4jnsgd1na2vs0mg"},{"bike_id":"db2e5c22-9f82-4c32-b356-f06e3f0ce6ed","system_id":"levelo_inurba_marseille","lat":43.24073,"lon":5.37698,"is_reserved":false,"is_disabled":false,"rental_uris":{"android":"levelo://app?vid=db2e5c22-9f82-4c32-b356-f06e3f0ce6ed","ios":"levelo://app?vid=db2e5c22-9f82-4c32-b356-f06e3f0ce6ed"},"vehicle_type_id":"4","last_reported":1770646021,"current_range_meters":8000,"station_id":"","pricing_plan_id":"cebpf4jnsgd1na2vs0mg"},{"bike_id":"fe6f8294-65ba-45f1-a4f6-c1ee0f12ef18","system_id":"levelo_inurba_marseille","lat":43.22571,"lon":5.41611,"is_reserved":false,"is_disabled":false,"rental_uris":{"android":"levelo://app?vid=fe6f8294-65ba-45f1-a4f6-c1ee0f12ef18","ios":"levelo://app?vid=fe6f8294-65ba-45f1-a4f6-c1ee0f12ef18"},"vehicle_type_id":"4","last_reported":1770646021,"current_range_meters":8000,"station_id":"st_d2o4gvlbi1j2169b742g","pricing_plan_id":"cebpf4jnsgd1na2vs0mg"},{"bike_id":"f13b8832-1f22-4cab-8f5d-b649a53f8630","system_id":"levelo_inurba_marseille","lat":43.283664,"lon":5.386215,"is_reserved":false,"is_disabled":false,"rental_uris":{"android":"levelo://app?vid=f13b8832-1f22-4cab-8f5d-b649a53f8630","ios":"levelo://app?vid=f13b8832-1f22-4cab-8f5d-b649a53f8630"},"vehicle_type_id":"4","last_reported":1770646021,"current_range_meters":8000,"station_id":"ce4bh492rcd13ifvqdvg","pricing_plan_id":"cebpf4jnsgd1na2vs0mg"},{"bike_id":"9698c60d-d86e-4dca-bf44-9776b34ffa52","system_id":"levelo_inurba_marseille","lat":43.266801,"lon":5.382728,"is_reserved":false,"is_disabled":false,"rental_uris":{"android":"levelo://app?vid=9698c60d-d86e-4dca-bf44-9776b34ffa52","ios":"levelo://app?vid=9698c60d-d86e-4dca-bf44-9776b34ffa52"},"vehicle_type_id":"4","last_reported":1770646021,"current_range_meters":8000,"station_id":"ce4bhg92rcd13ifvqf90","pricing_plan_id":"cebpf4jnsgd1na2vs0mg"},{"bike_id":"f1a9e62c-bfe0-42e4-ab84-82eb9e1c47d6","system_id":"levelo_inurba_marseille","lat":43.26691,"lon":5.38257,"is_reserved":false,"is_disabled":false,"rental_uris":{"android":"levelo://app?vid=f1a9e62c-bfe0-42e4-ab84-82eb9e1c47d6","ios":"levelo://app?vid=f1a9e62c-bfe0-42e4-ab84-82eb9e1c47d6"},"vehicle_type_id":"4","last_reported":1770646021,"current_range_meters":8000,"station_id":"ce4bhg92rcd13ifvqf90","pricing_plan_id":"cebpf4jnsgd1na2vs0mg"},{"bike_id":"e83d9e2f-7571-4d83-99bc-489b34ff4643","system_id":"levelo_inurba_marseille","lat":43.25341,"lon":5.42182,"is_reserved":false,"is_disabled":false,"rental_uris":{"android":"levelo://app?vid=e83d9e2f-7571-4d83-99bc-489b34ff4643","ios":"levelo://app?vid=e83d9e2f-7571-4d83-99bc-489b34ff4643"},"vehicle_type_id":"4","last_reported":1770646021,"current_range_meters":8000,"station_id":"st_d2m65c5bi1j21697t3ng","pricing_plan_id":"cebpf4jnsgd1na2vs0mg"},{"bike_id":"cf016afa-8583-400e-9a37-9cb1dbcd7006","system_id":"levelo_inurba_marseille","lat":43.31244,"lon":5.36842,"is_reserved":false,"is_disabled":false,"rental_uris":{"android":"levelo://app?vid=cf016afa-8583-400e-9a37-9cb1dbcd7006","ios":"levelo://app?vid=cf016afa-8583-400e-9a37-9cb1dbcd7006"},"vehicle_type_id":"4","last_reported":1770646021,"current_range_meters":8000,"station_id":"ce4bgl92rcd13ifvqbq0","pricing_plan_id":"cebpf4jnsgd1na2vs0mg"},{"bike_id":"15b58f47-748f-41df-af35-c90ad9f44241","system_id":"levelo_inurba_marseille","lat":43.31343,"lon":5.36725,"is_reserved":false,"is_disabled":false,"rental_uris":{"android":"levelo://app?vid=15b58f47-748f-41df-af35-c90ad9f44241","ios":"levelo://app?vid=15b58f47-748f-41df-af35-c90ad9f44241"},"vehicle_type_id":"4","last_reported":1770646021,"current_range_meters":8000,"station_id":"","pricing_plan_id":"cebpf4jnsgd1na2vs0mg"},{"bike_id":"91fdd7ab-d339-4963-8616-9757378509a7","system_id":"levelo_inurba_marseille","lat":43.2861,"lon":5.37067,"is_reserved":false,"is_disabled":false,"rental_uris":{"android":"levelo://app?vid=91fdd7ab-d339-4963-8616-9757378509a7","ios":"levelo://app?vid=91fdd7ab-d339-4963-8616-9757378509a7"},"vehicle_type_id":"4","last_reported":1770646021,"current_range_meters":8000,"station_id":"ce4bht12rcd13ifvqi60","pricing_plan_id":"cebpf4jnsgd1na2vs0mg"},{"bike_id":"4ed74a89-631e-4f3d-9ffb-104dbcec7ce5","system_id":"levelo_inurba_marseille","lat":43.279942,"lon":5.400096,"is_reserved":false,"is_disabled":false,"rental_uris":{"android":"levelo://app?vid=4ed74a89-631e-4f3d-9ffb-104dbcec7ce5","ios":"levelo://app?vid=4ed74a89-631e-4f3d-9ffb-104dbcec7ce5"},"vehicle_type_id":"4","last_reported":1770646021,"current_range_meters":8000,"station_id":"ce4bho92rcd13ifvqh4g","pricing_plan_id":"cebpf4jnsgd1na2vs0mg"},{"bike_id":"7e01f57b-ade8-4cc3-81c3-76e88fac1321","system_id":"levelo_inurba_marseille","lat":43.284675,"lon":5.484051,"is_reserved":false,"is_disabled":false,"rental_uris":{"android":"levelo://app?vid=7e01f57b-ade8-4cc3-81c3-76e88fac1321","ios":"levelo://app?vid=7e01f57b-ade8-4cc3-81c3-76e88fac1321"},"vehicle_type_id":"4","last_reported":1770646021,"current_range_meters":8000,"station_id":"st_d3svhcjqgbts73a3dn0g","pricing_plan_id":"cebpf4jnsgd1na2vs0mg"},{"bike_id":"40ca09fe-7866-480e-ac60-f7b7f539bb36","system_id":"levelo_inurba_marseille","lat":43.23406,"lon":5.41233,"is_reserved":false,"is_disabled":false,"rental_uris":{"android":"levelo://app?vid=40ca09fe-7866-480e-ac60-f7b7f539bb36","ios":"levelo://app?vid=40ca09fe-7866-480e-ac60-f7b7f539bb36"},"vehicle_type_id":"4","last_reported":1770646021,"current_range_meters":8000,"station_id":"","pricing_plan_id":"cebpf4jnsgd1na2vs0mg"},{"bike_id":"eb7b89f2-b5c9-4236-bac4-e69244d87b10","system_id":"levelo_inurba_marseille","lat":43.250077,"lon":5.389211,"is_reserved":false,"is_disabled":false,"rental_uris":{"android":"levelo://app?vid=eb7b89f2-b5c9-4236-bac4-e69244d87b10","ios":"levelo://app?vid=eb7b89f2-b5c9-4236-bac4-e69244d87b10"},"vehicle_type_id":"4","last_reported":1770646021,"current_range_meters":8000,"station_id":"ce4bhgp2rcd13ifvqfd0","pricing_plan_id":"cebpf4jnsgd1na2vs0mg"},{"bike_id":"9a0a4f5b-d5f2-4be0-a4fa-450256499716","system_id":"levelo_inurba_marseille","lat":43.27002,"lon":5.39894,"is_reserved":false,"is_disabled":false,"rental_uris":{"android":"levelo://app?vid=9a0a4f5b-d5f2-4be0-a4fa-450256499716","ios":"levelo://app?vid=9a0a4f5b-d5f2-4be0-a4fa-450256499716"},"vehicle_type_id":"4","last_reported":1770646021,"current_range_meters":8000,"station_id":"","pricing_plan_id":"cebpf4jnsgd1na2vs0mg"},{"bike_id":"54bd52e6-912c-41e4-90a6-85e5c05a7d3d","system_id":"levelo_inurba_marseille","lat":43.22577,"lon":5.41633,"is_reserved":false,"is_disabled":false,"rental_uris":{"android":"levelo://app?vid=54bd52e6-912c-41e4-90a6-85e5c05a7d3d","ios":"levelo://app?vid=54bd52e6-912c-41e4-90a6-85e5c05a7d3d"},"vehicle_type_id":"4","last_reported":1770646021,"current_range_meters":8400,"station_id":"st_d2o4gvlbi1j2169b742g","pricing_plan_id":"cebpf4jnsgd1na2vs0mg"},{"bike_id":"fd158031-c8ec-435b-b315-8360533800f5","system_id":"levelo_inurba_marseille","lat":43.26211,"lon":5.40473,"is_reserved":false,"is_disabled":true,"rental_uris":{"android":"levelo://app?vid=fd158031-c8ec-435b-b315-8360533800f5","ios":"levelo://app?vid=fd158031-c8ec-435b-b315-8360533800f5"},"vehicle_type_id":"4","last_reported":1770646021,"current_range_meters":8400,"station_id":"ce4bhmh2rcd13ifvqgmg","pricing_plan_id":"cebpf4jnsgd1na2vs0mg"},{"bike_id":"f23a5ea8-cccd-472e-abcc-91e4bbd449a7","system_id":"levelo_inurba_marseille","lat":43.30318,"lon":5.36909,"is_reserved":false,"is_disabled":true,"rental_uris":{"android":"levelo://app?vid=f23a5ea8-cccd-472e-abcc-91e4bbd449a7","ios":"levelo://app?vid=f23a5ea8-cccd-472e-abcc-91e4bbd449a7"},"vehicle_type_id":"4","last_reported":1770646021,"current_range_meters":8400,"station_id":"ce4bgqh2rcd13ifvqc5g","pricing_plan_id":"cebpf4jnsgd1na2vs0mg"},{"bike_id":"8d65ea59-159e-4e8e-8acb-244f43059bc9","system_id":"levelo_inurba_marseille","lat":43.24171,"lon":5.36396,"is_reserved":false,"is_disabled":false,"rental_uris":{"android":"levelo://app?vid=8d65ea59-159e-4e8e-8acb-244f43059bc9","ios":"levelo://app?vid=8d65ea59-159e-4e8e-8acb-244f43059bc9"},"vehicle_type_id":"4","last_reported":1770646021,"current_range_meters":8400,"station_id":"cpo36qri1sfpv3e86is0","pricing_plan_id":"cebpf4jnsgd1na2vs0mg"},{"bike_id":"d6e0f210-46b5-4d7e-8bfd-97815e82e64a","system_id":"levelo_inurba_marseille","lat":43.28653,"lon":5.36354,"is_reserved":false,"is_disabled":false,"rental_uris":{"android":"levelo://app?vid=d6e0f210-46b5-4d7e-8bfd-97815e82e64a","ios":"levelo://app?vid=d6e0f210-46b5-4d7e-8bfd-97815e82e64a"},"vehicle_type_id":"4","last_reported":1770646021,"current_range_meters":8400,"station_id":"ce4bhah2rcd13ifvqej0","pricing_plan_id":"cebpf4jnsgd1na2vs0mg"},{"bike_id":"d917330e-8029-461a-95c3-ed551a62a88f","system_id":"levelo_inurba_marseille","lat":43.22565,"lon":5.41641,"is_reserved":false,"is_disabled":false,"rental_uris":{"android":"levelo://app?vid=d917330e-8029-461a-95c3-ed551a62a88f","ios":"levelo://app?vid=d917330e-8029-461a-95c3-ed551a62a88f"},"vehicle_type_id":"4","last_reported":1770646021,"current_range_meters":8400,"station_id":"st_d2o4gvlbi1j2169b742g","pricing_plan_id":"cebpf4jnsgd1na2vs0mg"},{"bike_id":"83062ade-c076-467d-b125-720c7e101dca","system_id":"levelo_inurba_marseille","lat":43.29609,"lon":5.37715,"is_reserved":false,"is_disabled":true,"rental_uris":{"android":"levelo://app?vid=83062ade-c076-467d-b125-720c7e101dca","ios":"levelo://app?vid=83062ade-c076-467d-b125-720c7e101dca"},"vehicle_type_id":"4","last_reported":1770646021,"current_range_meters":8400,"station_id":"ce4bgi92rcd13ifvqb90","pricing_plan_id":"cebpf4jnsgd1na2vs0mg"},{"bike_id":"9fb181e0-356c-4fb2-b132-4ff9032543f8","system_id":"levelo_inurba_marseille","lat":43.28603,"lon":5.35114,"is_reserved":false,"is_disabled":false,"rental_uris":{"android":"levelo://app?vid=9fb181e0-356c-4fb2-b132-4ff9032543f8","ios":"levelo://app?vid=9fb181e0-356c-4fb2-b132-4ff9032543f8"},"vehicle_type_id":"4","last_reported":1770646021,"current_range_meters":8400,"station_id":"ce4bhch2rcd13ifvqeug","pricing_plan_id":"cebpf4jnsgd1na2vs0mg"},{"bike_id":"41f83291-7c13-4a3b-a1c5-9da21c4a0d6b","system_id":"levelo_inurba_marseille","lat":43.274938,"lon":5.424548,"is_reserved":false,"is_disabled":false,"rental_uris":{"android":"levelo://app?vid=41f83291-7c13-4a3b-a1c5-9da21c4a0d6b","ios":"levelo://app?vid=41f83291-7c13-4a3b-a1c5-9da21c4a0d6b"},"vehicle_type_id":"4","last_reported":1770646021,"current_range_meters":8400,"station_id":"ce4bhn92rcd13ifvqgrg","pricing_plan_id":"cebpf4jnsgd1na2vs0mg"},{"bike_id":"b3702246-4980-471f-be25-68b0a0c7bfa2","system_id":"levelo_inurba_marseille","lat":43.27908,"lon":5.39587,"is_reserved":false,"is_disabled":false,"rental_uris":{"android":"levelo://app?vid=b3702246-4980-471f-be25-68b0a0c7bfa2","ios":"levelo://app?vid=b3702246-4980-471f-be25-68b0a0c7bfa2"},"vehicle_type_id":"4","last_reported":1770646021,"current_range_meters":8400,"station_id":"ce4bhf92rcd13ifvqf40","pricing_plan_id":"cebpf4jnsgd1na2vs0mg"},{"bike_id":"24cc7bdb-5261-4fff-80e2-27bfd8421313","system_id":"levelo_inurba_marseille","lat":43.24074,"lon":5.3775,"is_reserved":false,"is_disabled":false,"rental_uris":{"android":"levelo://app?vid=24cc7bdb-5261-4fff-80e2-27bfd8421313","ios":"levelo://app?vid=24cc7bdb-5261-4fff-80e2-27bfd8421313"},"vehicle_type_id":"4","last_reported":1770646021,"current_range_meters":8400,"station_id":"ce4bhnp2rcd13ifvqgvg","pricing_plan_id":"cebpf4jnsgd1na2vs0mg"},{"bike_id":"8f91f29e-0897-43d8-a3cf-8b8240b92337","system_id":"levelo_inurba_marseille","lat":43.29908,"lon":5.43666,"is_reserved":false,"is_disabled":false,"rental_uris":{"android":"levelo://app?vid=8f91f29e-0897-43d8-a3cf-8b8240b92337","ios":"levelo://app?vid=8f91f29e-0897-43d8-a3cf-8b8240b92337"},"vehicle_type_id":"4","last_reported":1770646021,"current_range_meters":8400,"station_id":"ce4bhpp2rcd13ifvqhfg","pricing_plan_id":"cebpf4jnsgd1na2vs0mg"},{"bike_id":"f8c8c74c-aee3-4b52-a42f-cddfe270a480","system_id":"levelo_inurba_marseille","lat":43.257124,"lon":5.411136,"is_reserved":false,"is_disabled":false,"rental_uris":{"android":"levelo://app?vid=f8c8c74c-aee3-4b52-a42f-cddfe270a480","ios":"levelo://app?vid=f8c8c74c-aee3-4b52-a42f-cddfe270a480"},"vehicle_type_id":"4","last_reported":1770646021,"current_range_meters":8400,"station_id":"ce4bhkp2rcd13ifvqgd0","pricing_plan_id":"cebpf4jnsgd1na2vs0mg"},{"bike_id":"a36b6f8e-e657-434c-ae48-b869c309949f","system_id":"levelo_inurba_marseille","lat":43.285698,"lon":5.394943,"is_reserved":false,"is_disabled":true,"rental_uris":{"android":"levelo://app?vid=a36b6f8e-e657-434c-ae48-b869c309949f","ios":"levelo://app?vid=a36b6f8e-e657-434c-ae48-b869c309949f"},"vehicle_type_id":"4","last_reported":1770646021,"current_range_meters":8400,"station_id":"ce4bh292rcd13ifvqdg0","pricing_plan_id":"cebpf4jnsgd1na2vs0mg"},{"bike_id":"97baf141-ab6b-4a08-bebe-b0f0b4c42187","system_id":"levelo_inurba_marseille","lat":43.24177,"lon":5.36381,"is_reserved":false,"is_disabled":false,"rental_uris":{"android":"levelo://app?vid=97baf141-ab6b-4a08-bebe-b0f0b4c42187","ios":"levelo://app?vid=97baf141-ab6b-4a08-bebe-b0f0b4c42187"},"vehicle_type_id":"4","last_reported":1770646021,"current_range_meters":8400,"station_id":"cpo36qri1sfpv3e86is0","pricing_plan_id":"cebpf4jnsgd1na2vs0mg"},{"bike_id":"6e79fd0f-9e8e-4459-8240-57d4fd86c647","system_id":"levelo_inurba_marseille","lat":43.29776,"lon":5.38136,"is_reserved":false,"is_disabled":false,"rental_uris":{"android":"levelo://app?vid=6e79fd0f-9e8e-4459-8240-57d4fd86c647","ios":"levelo://app?vid=6e79fd0f-9e8e-4459-8240-57d4fd86c647"},"vehicle_type_id":"4","last_reported":1770646021,"current_range_meters":8400,"station_id":"ce4bgip2rcd13ifvqbb0","pricing_plan_id":"cebpf4jnsgd1na2vs0mg"},{"bike_id":"b6ef09ed-d357-4465-bd2f-ee587e4263cc","system_id":"levelo_inurba_marseille","lat":43.28452,"lon":5.41006,"is_reserved":false,"is_disabled":false,"rental_uris":{"android":"levelo://app?vid=b6ef09ed-d357-4465-bd2f-ee587e4263cc","ios":"levelo://app?vid=b6ef09ed-d357-4465-bd2f-ee587e4263cc"},"vehicle_type_id":"4","last_reported":1770646021,"current_range_meters":8400,"station_id":"","pricing_plan_id":"cebpf4jnsgd1na2vs0mg"},{"bike_id":"eab93a8a-5504-4a51-b4b2-4e2f94859117","system_id":"levelo_inurba_marseille","lat":43.27218,"lon":5.39174,"is_reserved":false,"is_disabled":false,"rental_uris":{"android":"levelo://app?vid=eab93a8a-5504-4a51-b4b2-4e2f94859117","ios":"levelo://app?vid=eab93a8a-5504-4a51-b4b2-4e2f94859117"},"vehicle_type_id":"4","last_reported":1770646021,"current_range_meters":8400,"station_id":"ce4bhhp2rcd13ifvqfm0","pricing_plan_id":"cebpf4jnsgd1na2vs0mg"},{"bike_id":"6316a440-6079-4cd7-8710-8e12c6c0a2b7","system_id":"levelo_inurba_marseille","lat":43.29898,"lon":5.43663,"is_reserved":false,"is_disabled":false,"rental_uris":{"android":"levelo://app?vid=6316a440-6079-4cd7-8710-8e12c6c0a2b7","ios":"levelo://app?vid=6316a440-6079-4cd7-8710-8e12c6c0a2b7"},"vehicle_type_id":"4","last_reported":1770646021,"current_range_meters":8400,"station_id":"ce4bhpp2rcd13ifvqhfg","pricing_plan_id":"cebpf4jnsgd1na2vs0mg"},{"bike_id":"af109b45-02d2-41f8-be4b-42b484fd3394","system_id":"levelo_inurba_marseille","lat":43.29911,"lon":5.43681,"is_reserved":false,"is_disabled":false,"rental_uris":{"android":"levelo://app?vid=af109b45-02d2-41f8-be4b-42b484fd3394","ios":"levelo://app?vid=af109b45-02d2-41f8-be4b-42b484fd3394"},"vehicle_type_id":"4","last_reported":1770646021,"current_range_meters":8400,"station_id":"ce4bhpp2rcd13ifvqhfg","pricing_plan_id":"cebpf4jnsgd1na2vs0mg"},{"bike_id":"9757f4c5-aeb4-450f-b44c-e38c5bf129d0","system_id":"levelo_inurba_marseille","lat":43.305365,"lon":5.367075,"is_reserved":false,"is_disabled":false,"rental_uris":{"android":"levelo://app?vid=9757f4c5-aeb4-450f-b44c-e38c5bf129d0","ios":"levelo://app?vid=9757f4c5-aeb4-450f-b44c-e38c5bf129d0"},"vehicle_type_id":"4","last_reported":1770646021,"current_range_meters":8400,"station_id":"ce4bgrp2rcd13ifvqc9g","pricing_plan_id":"cebpf4jnsgd1na2vs0mg"},{"bike_id":"eab405ca-0f7d-43bd-ad4b-10c554108ac0","system_id":"levelo_inurba_marseille","lat":43.27913,"lon":5.39587,"is_reserved":false,"is_disabled":false,"rental_uris":{"android":"levelo://app?vid=eab405ca-0f7d-43bd-ad4b-10c554108ac0","ios":"levelo://app?vid=eab405ca-0f7d-43bd-ad4b-10c554108ac0"},"vehicle_type_id":"4","last_reported":1770646021,"current_range_meters":8800,"station_id":"ce4bhf92rcd13ifvqf40","pricing_plan_id":"cebpf4jnsgd1na2vs0mg"},{"bike_id":"c41e4567-381e-42ec-b3d3-330aab008cbe","system_id":"levelo_inurba_marseille","lat":43.2848,"lon":5.38553,"is_reserved":false,"is_disabled":false,"rental_uris":{"android":"levelo://app?vid=c41e4567-381e-42ec-b3d3-330aab008cbe","ios":"levelo://app?vid=c41e4567-381e-42ec-b3d3-330aab008cbe"},"vehicle_type_id":"4","last_reported":1770646021,"current_range_meters":8800,"station_id":"ce4bh8p2rcd13ifvqeb0","pricing_plan_id":"cebpf4jnsgd1na2vs0mg"},{"bike_id":"a07cd24c-7e73-437e-917a-60bdbc1072fc","system_id":"levelo_inurba_marseille","lat":43.24459,"lon":5.37015,"is_reserved":false,"is_disabled":false,"rental_uris":{"android":"levelo://app?vid=a07cd24c-7e73-437e-917a-60bdbc1072fc","ios":"levelo://app?vid=a07cd24c-7e73-437e-917a-60bdbc1072fc"},"vehicle_type_id":"4","last_reported":1770646021,"current_range_meters":8800,"station_id":"ce4bhhh2rcd13ifvqfk0","pricing_plan_id":"cebpf4jnsgd1na2vs0mg"},{"bike_id":"0d435044-39b2-4402-857a-610b31675306","system_id":"levelo_inurba_marseille","lat":43.31075,"lon":5.3746,"is_reserved":false,"is_disabled":false,"rental_uris":{"android":"levelo://app?vid=0d435044-39b2-4402-857a-610b31675306","ios":"levelo://app?vid=0d435044-39b2-4402-857a-610b31675306"},"vehicle_type_id":"4","last_reported":1770646021,"current_range_meters":8800,"station_id":"","pricing_plan_id":"cebpf4jnsgd1na2vs0mg"},{"bike_id":"36ac8fb1-1e6b-4c04-8e8e-9441a471d5f6","system_id":"levelo_inurba_marseille","lat":43.28476,"lon":5.48396,"is_reserved":false,"is_disabled":false,"rental_uris":{"android":"levelo://app?vid=36ac8fb1-1e6b-4c04-8e8e-9441a471d5f6","ios":"levelo://app?vid=36ac8fb1-1e6b-4c04-8e8e-9441a471d5f6"},"vehicle_type_id":"4","last_reported":1770646021,"current_range_meters":8800,"station_id":"","pricing_plan_id":"cebpf4jnsgd1na2vs0mg"},{"bike_id":"d90864a0-3e39-4d6f-a6b9-5dcbde7b93cd","system_id":"levelo_inurba_marseille","lat":43.33168,"lon":5.37683,"is_reserved":false,"is_disabled":false,"rental_uris":{"android":"levelo://app?vid=d90864a0-3e39-4d6f-a6b9-5dcbde7b93cd","ios":"levelo://app?vid=d90864a0-3e39-4d6f-a6b9-5dcbde7b93cd"},"vehicle_type_id":"4","last_reported":1770646021,"current_range_meters":8800,"station_id":"st_d46cu089ee8s73dldbu0","pricing_plan_id":"cebpf4jnsgd1na2vs0mg"},{"bike_id":"738ace95-69b5-422f-91a8-940bb61d6675","system_id":"levelo_inurba_marseille","lat":43.32089,"lon":5.36791,"is_reserved":false,"is_disabled":false,"rental_uris":{"android":"levelo://app?vid=738ace95-69b5-422f-91a8-940bb61d6675","ios":"levelo://app?vid=738ace95-69b5-422f-91a8-940bb61d6675"},"vehicle_type_id":"4","last_reported":1770646021,"current_range_meters":8800,"station_id":"ce4bhrh2rcd13ifvqhug","pricing_plan_id":"cebpf4jnsgd1na2vs0mg"},{"bike_id":"8789a082-40b6-4b48-a7ba-4195da8e2f77","system_id":"levelo_inurba_marseille","lat":43.231448,"lon":5.437113,"is_reserved":false,"is_disabled":false,"rental_uris":{"android":"levelo://app?vid=8789a082-40b6-4b48-a7ba-4195da8e2f77","ios":"levelo://app?vid=8789a082-40b6-4b48-a7ba-4195da8e2f77"},"vehicle_type_id":"4","last_reported":1770646021,"current_range_meters":8800,"station_id":"ce4bhmp2rcd13ifvqgog","pricing_plan_id":"cebpf4jnsgd1na2vs0mg"},{"bike_id":"33d39168-43b4-4aa2-888d-aa4d04950579","system_id":"levelo_inurba_marseille","lat":43.25142,"lon":5.40285,"is_reserved":false,"is_disabled":false,"rental_uris":{"android":"levelo://app?vid=33d39168-43b4-4aa2-888d-aa4d04950579","ios":"levelo://app?vid=33d39168-43b4-4aa2-888d-aa4d04950579"},"vehicle_type_id":"4","last_reported":1770646021,"current_range_meters":8800,"station_id":"","pricing_plan_id":"cebpf4jnsgd1na2vs0mg"},{"bike_id":"56332bed-505b-4a0c-ae08-e6510dec8a0f","system_id":"levelo_inurba_marseille","lat":43.27916,"lon":5.39577,"is_reserved":false,"is_disabled":false,"rental_uris":{"android":"levelo://app?vid=56332bed-505b-4a0c-ae08-e6510dec8a0f","ios":"levelo://app?vid=56332bed-505b-4a0c-ae08-e6510dec8a0f"},"vehicle_type_id":"4","last_reported":1770646021,"current_range_meters":8800,"station_id":"ce4bhf92rcd13ifvqf40","pricing_plan_id":"cebpf4jnsgd1na2vs0mg"},{"bike_id":"88f0075a-4fe2-4763-bf2c-585ea83a418b","system_id":"levelo_inurba_marseille","lat":43.23157,"lon":5.43691,"is_reserved":false,"is_disabled":false,"rental_uris":{"android":"levelo://app?vid=88f0075a-4fe2-4763-bf2c-585ea83a418b","ios":"levelo://app?vid=88f0075a-4fe2-4763-bf2c-585ea83a418b"},"vehicle_type_id":"4","last_reported":1770646021,"current_range_meters":8800,"station_id":"ce4bhmp2rcd13ifvqgog","pricing_plan_id":"cebpf4jnsgd1na2vs0mg"},{"bike_id":"b1429378-b93e-4184-b373-85f0415c9919","system_id":"levelo_inurba_marseille","lat":43.24645,"lon":5.43133,"is_reserved":false,"is_disabled":false,"rental_uris":{"android":"levelo://app?vid=b1429378-b93e-4184-b373-85f0415c9919","ios":"levelo://app?vid=b1429378-b93e-4184-b373-85f0415c9919"},"vehicle_type_id":"4","last_reported":1770646021,"current_range_meters":8800,"station_id":"st_d2m6c4gdas8pm72e190g","pricing_plan_id":"cebpf4jnsgd1na2vs0mg"},{"bike_id":"e20506fc-81c8-45aa-af10-6b0aa01b93ce","system_id":"levelo_inurba_marseille","lat":43.25581,"lon":5.38226,"is_reserved":false,"is_disabled":false,"rental_uris":{"android":"levelo://app?vid=e20506fc-81c8-45aa-af10-6b0aa01b93ce","ios":"levelo://app?vid=e20506fc-81c8-45aa-af10-6b0aa01b93ce"},"vehicle_type_id":"4","last_reported":1770646021,"current_range_meters":8800,"station_id":"ce4bhih2rcd13ifvqfs0","pricing_plan_id":"cebpf4jnsgd1na2vs0mg"},{"bike_id":"0414b0a1-dca9-4243-ac3d-6a8032bd0604","system_id":"levelo_inurba_marseille","lat":43.24388,"lon":5.37044,"is_reserved":false,"is_disabled":false,"rental_uris":{"android":"levelo://app?vid=0414b0a1-dca9-4243-ac3d-6a8032bd0604","ios":"levelo://app?vid=0414b0a1-dca9-4243-ac3d-6a8032bd0604"},"vehicle_type_id":"4","last_reported":1770646021,"current_range_meters":8800,"station_id":"ce4bhhh2rcd13ifvqfk0","pricing_plan_id":"cebpf4jnsgd1na2vs0mg"},{"bike_id":"3f9e846e-e922-47fd-8c60-70dd3ce64fe5","system_id":"levelo_inurba_marseille","lat":43.23158,"lon":5.43703,"is_reserved":false,"is_disabled":false,"rental_uris":{"android":"levelo://app?vid=3f9e846e-e922-47fd-8c60-70dd3ce64fe5","ios":"levelo://app?vid=3f9e846e-e922-47fd-8c60-70dd3ce64fe5"},"vehicle_type_id":"4","last_reported":1770646021,"current_range_meters":8800,"station_id":"ce4bhmp2rcd13ifvqgog","pricing_plan_id":"cebpf4jnsgd1na2vs0mg"},{"bike_id":"3fb8be46-3da4-4cbd-856b-82da149d117d","system_id":"levelo_inurba_marseille","lat":43.296685,"lon":5.385486,"is_reserved":false,"is_disabled":false,"rental_uris":{"android":"levelo://app?vid=3fb8be46-3da4-4cbd-856b-82da149d117d","ios":"levelo://app?vid=3fb8be46-3da4-4cbd-856b-82da149d117d"},"vehicle_type_id":"4","last_reported":1770646021,"current_range_meters":8800,"station_id":"ce4bgih2rcd13ifvqba0","pricing_plan_id":"cebpf4jnsgd1na2vs0mg"},{"bike_id":"4240880d-88bf-48aa-91ea-700e773e4fa1","system_id":"levelo_inurba_marseille","lat":43.2558,"lon":5.38235,"is_reserved":false,"is_disabled":false,"rental_uris":{"android":"levelo://app?vid=4240880d-88bf-48aa-91ea-700e773e4fa1","ios":"levelo://app?vid=4240880d-88bf-48aa-91ea-700e773e4fa1"},"vehicle_type_id":"4","last_reported":1770646021,"current_range_meters":9200,"station_id":"ce4bhih2rcd13ifvqfs0","pricing_plan_id":"cebpf4jnsgd1na2vs0mg"},{"bike_id":"3d36a1e8-b3a9-4a2b-a808-7f3eaeffc795","system_id":"levelo_inurba_marseille","lat":43.29912,"lon":5.37469,"is_reserved":false,"is_disabled":false,"rental_uris":{"android":"levelo://app?vid=3d36a1e8-b3a9-4a2b-a808-7f3eaeffc795","ios":"levelo://app?vid=3d36a1e8-b3a9-4a2b-a808-7f3eaeffc795"},"vehicle_type_id":"4","last_reported":1770646021,"current_range_meters":9200,"station_id":"ce4bgjh2rcd13ifvqbg0","pricing_plan_id":"cebpf4jnsgd1na2vs0mg"},{"bike_id":"54368038-1aa5-4bac-a318-02c8e4c449fa","system_id":"levelo_inurba_marseille","lat":43.231561,"lon":5.436998,"is_reserved":false,"is_disabled":false,"rental_uris":{"android":"levelo://app?vid=54368038-1aa5-4bac-a318-02c8e4c449fa","ios":"levelo://app?vid=54368038-1aa5-4bac-a318-02c8e4c449fa"},"vehicle_type_id":"4","last_reported":1770646021,"current_range_meters":9200,"station_id":"ce4bhmp2rcd13ifvqgog","pricing_plan_id":"cebpf4jnsgd1na2vs0mg"},{"bike_id":"654a8c69-e34e-48fa-b792-a1983317de36","system_id":"levelo_inurba_marseille","lat":43.284704,"lon":5.484268,"is_reserved":false,"is_disabled":false,"rental_uris":{"android":"levelo://app?vid=654a8c69-e34e-48fa-b792-a1983317de36","ios":"levelo://app?vid=654a8c69-e34e-48fa-b792-a1983317de36"},"vehicle_type_id":"4","last_reported":1770646021,"current_range_meters":9200,"station_id":"","pricing_plan_id":"cebpf4jnsgd1na2vs0mg"},{"bike_id":"3a818be4-4055-46fc-9850-39b05c40ed87","system_id":"levelo_inurba_marseille","lat":43.28957,"lon":5.39602,"is_reserved":false,"is_disabled":false,"rental_uris":{"android":"levelo://app?vid=3a818be4-4055-46fc-9850-39b05c40ed87","ios":"levelo://app?vid=3a818be4-4055-46fc-9850-39b05c40ed87"},"vehicle_type_id":"4","last_reported":1770646021,"current_range_meters":9200,"station_id":"ce4bh3h2rcd13ifvqdn0","pricing_plan_id":"cebpf4jnsgd1na2vs0mg"},{"bike_id":"93b41eb8-b3d0-4983-8494-d4e140097072","system_id":"levelo_inurba_marseille","lat":43.29531,"lon":5.37514,"is_reserved":false,"is_disabled":false,"rental_uris":{"android":"levelo://app?vid=93b41eb8-b3d0-4983-8494-d4e140097072","ios":"levelo://app?vid=93b41eb8-b3d0-4983-8494-d4e140097072"},"vehicle_type_id":"4","last_reported":1770646021,"current_range_meters":9200,"station_id":"ce4bgkp2rcd13ifvqbmg","pricing_plan_id":"cebpf4jnsgd1na2vs0mg"},{"bike_id":"f1fc2053-4395-4376-9224-a3696af091bf","system_id":"levelo_inurba_marseille","lat":43.305563,"lon":5.365278,"is_reserved":false,"is_disabled":false,"rental_uris":{"android":"levelo://app?vid=f1fc2053-4395-4376-9224-a3696af091bf","ios":"levelo://app?vid=f1fc2053-4395-4376-9224-a3696af091bf"},"vehicle_type_id":"4","last_reported":1770646021,"current_range_meters":9200,"station_id":"ce4bgs12rcd13ifvqcag","pricing_plan_id":"cebpf4jnsgd1na2vs0mg"},{"bike_id":"05d628e9-781f-4f77-a9a7-087d759ed084","system_id":"levelo_inurba_marseille","lat":43.229271,"lon":5.353841,"is_reserved":false,"is_disabled":false,"rental_uris":{"android":"levelo://app?vid=05d628e9-781f-4f77-a9a7-087d759ed084","ios":"levelo://app?vid=05d628e9-781f-4f77-a9a7-087d759ed084"},"vehicle_type_id":"4","last_reported":1770646021,"current_range_meters":9200,"station_id":"cpo3532slgdg3j2ikp40","pricing_plan_id":"cebpf4jnsgd1na2vs0mg"},{"bike_id":"3b5567a6-efa3-498b-ad01-b9c12c6390c4","system_id":"levelo_inurba_marseille","lat":43.31721,"lon":5.42376,"is_reserved":false,"is_disabled":false,"rental_uris":{"android":"levelo://app?vid=3b5567a6-efa3-498b-ad01-b9c12c6390c4","ios":"levelo://app?vid=3b5567a6-efa3-498b-ad01-b9c12c6390c4"},"vehicle_type_id":"4","last_reported":1770646021,"current_range_meters":9200,"station_id":"ce4bhp92rcd13ifvqhbg","pricing_plan_id":"cebpf4jnsgd1na2vs0mg"},{"bike_id":"0f6c9d55-7af0-4c26-8d61-5bd11967943c","system_id":"levelo_inurba_marseille","lat":43.27497,"lon":5.42444,"is_reserved":false,"is_disabled":false,"rental_uris":{"android":"levelo://app?vid=0f6c9d55-7af0-4c26-8d61-5bd11967943c","ios":"levelo://app?vid=0f6c9d55-7af0-4c26-8d61-5bd11967943c"},"vehicle_type_id":"4","last_reported":1770646021,"current_range_meters":9200,"station_id":"ce4bhn92rcd13ifvqgrg","pricing_plan_id":"cebpf4jnsgd1na2vs0mg"},{"bike_id":"30513758-c61b-4fc7-a14e-4781c9806bbc","system_id":"levelo_inurba_marseille","lat":43.31725,"lon":5.42393,"is_reserved":false,"is_disabled":false,"rental_uris":{"android":"levelo://app?vid=30513758-c61b-4fc7-a14e-4781c9806bbc","ios":"levelo://app?vid=30513758-c61b-4fc7-a14e-4781c9806bbc"},"vehicle_type_id":"4","last_reported":1770646021,"current_range_meters":9200,"station_id":"ce4bhp92rcd13ifvqhbg","pricing_plan_id":"cebpf4jnsgd1na2vs0mg"},{"bike_id":"98fe643a-2789-4fb0-9cb9-57bbe23f949f","system_id":"levelo_inurba_marseille","lat":43.28475,"lon":5.48415,"is_reserved":false,"is_disabled":false,"rental_uris":{"android":"levelo://app?vid=98fe643a-2789-4fb0-9cb9-57bbe23f949f","ios":"levelo://app?vid=98fe643a-2789-4fb0-9cb9-57bbe23f949f"},"vehicle_type_id":"4","last_reported":1770646021,"current_range_meters":9200,"station_id":"st_d3svhcjqgbts73a3dn0g","pricing_plan_id":"cebpf4jnsgd1na2vs0mg"},{"bike_id":"f357099a-eee7-4675-86b1-b462e1ec4a73","system_id":"levelo_inurba_marseille","lat":43.30147,"lon":5.38082,"is_reserved":false,"is_disabled":false,"rental_uris":{"android":"levelo://app?vid=f357099a-eee7-4675-86b1-b462e1ec4a73","ios":"levelo://app?vid=f357099a-eee7-4675-86b1-b462e1ec4a73"},"vehicle_type_id":"4","last_reported":1770646021,"current_range_meters":9600,"station_id":"ce4bgjp2rcd13ifvqbh0","pricing_plan_id":"cebpf4jnsgd1na2vs0mg"},{"bike_id":"dcffb64c-9bea-40cd-a5fe-c7eeb8475cd8","system_id":"levelo_inurba_marseille","lat":43.30289,"lon":5.37698,"is_reserved":false,"is_disabled":true,"rental_uris":{"android":"levelo://app?vid=dcffb64c-9bea-40cd-a5fe-c7eeb8475cd8","ios":"levelo://app?vid=dcffb64c-9bea-40cd-a5fe-c7eeb8475cd8"},"vehicle_type_id":"4","last_reported":1770646021,"current_range_meters":9600,"station_id":"ce4bguh2rcd13ifvqcj0","pricing_plan_id":"cebpf4jnsgd1na2vs0mg"},{"bike_id":"c704a501-b920-4ba5-82ac-cf3939b9400d","system_id":"levelo_inurba_marseille","lat":43.31214,"lon":5.36887,"is_reserved":false,"is_disabled":false,"rental_uris":{"android":"levelo://app?vid=c704a501-b920-4ba5-82ac-cf3939b9400d","ios":"levelo://app?vid=c704a501-b920-4ba5-82ac-cf3939b9400d"},"vehicle_type_id":"4","last_reported":1770646021,"current_range_meters":9600,"station_id":"ce4bgl92rcd13ifvqbq0","pricing_plan_id":"cebpf4jnsgd1na2vs0mg"},{"bike_id":"eb988073-8fe7-4bb4-897d-222ac9bc4a1f","system_id":"levelo_inurba_marseille","lat":43.25871,"lon":5.39914,"is_reserved":false,"is_disabled":false,"rental_uris":{"android":"levelo://app?vid=eb988073-8fe7-4bb4-897d-222ac9bc4a1f","ios":"levelo://app?vid=eb988073-8fe7-4bb4-897d-222ac9bc4a1f"},"vehicle_type_id":"4","last_reported":1770646021,"current_range_meters":9600,"station_id":"ce4bhl92rcd13ifvqghg","pricing_plan_id":"cebpf4jnsgd1na2vs0mg"},{"bike_id":"85dd1ff3-48fb-473b-a6b8-2f438c995677","system_id":"levelo_inurba_marseille","lat":43.29897,"lon":5.43669,"is_reserved":false,"is_disabled":false,"rental_uris":{"android":"levelo://app?vid=85dd1ff3-48fb-473b-a6b8-2f438c995677","ios":"levelo://app?vid=85dd1ff3-48fb-473b-a6b8-2f438c995677"},"vehicle_type_id":"4","last_reported":1770646021,"current_range_meters":9600,"station_id":"ce4bhpp2rcd13ifvqhfg","pricing_plan_id":"cebpf4jnsgd1na2vs0mg"},{"bike_id":"5f7df976-2770-4b0d-bd16-1a5d3e4bd86a","system_id":"levelo_inurba_marseille","lat":43.26031,"lon":5.37543,"is_reserved":false,"is_disabled":false,"rental_uris":{"android":"levelo://app?vid=5f7df976-2770-4b0d-bd16-1a5d3e4bd86a","ios":"levelo://app?vid=5f7df976-2770-4b0d-bd16-1a5d3e4bd86a"},"vehicle_type_id":"4","last_reported":1770646021,"current_range_meters":9600,"station_id":"ce4bhgh2rcd13ifvqfa0","pricing_plan_id":"cebpf4jnsgd1na2vs0mg"},{"bike_id":"f62a384c-82ea-406f-b454-65dc89a8251e","system_id":"levelo_inurba_marseille","lat":43.27991,"lon":5.41105,"is_reserved":false,"is_disabled":false,"rental_uris":{"android":"levelo://app?vid=f62a384c-82ea-406f-b454-65dc89a8251e","ios":"levelo://app?vid=f62a384c-82ea-406f-b454-65dc89a8251e"},"vehicle_type_id":"4","last_reported":1770646021,"current_range_meters":9600,"station_id":"","pricing_plan_id":"cebpf4jnsgd1na2vs0mg"},{"bike_id":"6f387dae-813b-46d7-a64a-f5ba6a352621","system_id":"levelo_inurba_marseille","lat":43.26692,"lon":5.38265,"is_reserved":false,"is_disabled":false,"rental_uris":{"android":"levelo://app?vid=6f387dae-813b-46d7-a64a-f5ba6a352621","ios":"levelo://app?vid=6f387dae-813b-46d7-a64a-f5ba6a352621"},"vehicle_type_id":"4","last_reported":1770646021,"current_range_meters":9600,"station_id":"ce4bhg92rcd13ifvqf90","pricing_plan_id":"cebpf4jnsgd1na2vs0mg"},{"bike_id":"f9f3a8c9-2c06-4be5-865c-a0e963759728","system_id":"levelo_inurba_marseille","lat":43.30134,"lon":5.37424,"is_reserved":false,"is_disabled":false,"rental_uris":{"android":"levelo://app?vid=f9f3a8c9-2c06-4be5-865c-a0e963759728","ios":"levelo://app?vid=f9f3a8c9-2c06-4be5-865c-a0e963759728"},"vehicle_type_id":"4","last_reported":1770646021,"current_range_meters":9600,"station_id":"ce4bgs92rcd13ifvqcc0","pricing_plan_id":"cebpf4jnsgd1na2vs0mg"},{"bike_id":"f12f6f11-1feb-482e-8dc3-a79b8963e979","system_id":"levelo_inurba_marseille","lat":43.33551,"lon":5.37464,"is_reserved":false,"is_disabled":false,"rental_uris":{"android":"levelo://app?vid=f12f6f11-1feb-482e-8dc3-a79b8963e979","ios":"levelo://app?vid=f12f6f11-1feb-482e-8dc3-a79b8963e979"},"vehicle_type_id":"4","last_reported":1770646021,"current_range_meters":9600,"station_id":"st_d46tts09ee8s73dlu43g","pricing_plan_id":"cebpf4jnsgd1na2vs0mg"},{"bike_id":"65653ad0-a964-4762-8fd7-873f72cb3e9d","system_id":"levelo_inurba_marseille","lat":43.28722,"lon":5.37941,"is_reserved":false,"is_disabled":false,"rental_uris":{"android":"levelo://app?vid=65653ad0-a964-4762-8fd7-873f72cb3e9d","ios":"levelo://app?vid=65653ad0-a964-4762-8fd7-873f72cb3e9d"},"vehicle_type_id":"4","last_reported":1770646021,"current_range_meters":9600,"station_id":"ce4bh9p2rcd13ifvqec0","pricing_plan_id":"cebpf4jnsgd1na2vs0mg"},{"bike_id":"41489d1d-8f65-4acc-ad4a-a6a8dc9439fd","system_id":"levelo_inurba_marseille","lat":43.29418,"lon":5.41324,"is_reserved":false,"is_disabled":false,"rental_uris":{"android":"levelo://app?vid=41489d1d-8f65-4acc-ad4a-a6a8dc9439fd","ios":"levelo://app?vid=41489d1d-8f65-4acc-ad4a-a6a8dc9439fd"},"vehicle_type_id":"4","last_reported":1770646021,"current_range_meters":9600,"station_id":"","pricing_plan_id":"cebpf4jnsgd1na2vs0mg"},{"bike_id":"a948137a-4200-4a90-ae91-35161837f029","system_id":"levelo_inurba_marseille","lat":43.30618,"lon":5.37663,"is_reserved":false,"is_disabled":false,"rental_uris":{"android":"levelo://app?vid=a948137a-4200-4a90-ae91-35161837f029","ios":"levelo://app?vid=a948137a-4200-4a90-ae91-35161837f029"},"vehicle_type_id":"4","last_reported":1770646021,"current_range_meters":9600,"station_id":"","pricing_plan_id":"cebpf4jnsgd1na2vs0mg"},{"bike_id":"bfc07130-be47-4eef-8325-e33d6610d729","system_id":"levelo_inurba_marseille","lat":43.30124,"lon":5.4309,"is_reserved":false,"is_disabled":false,"rental_uris":{"android":"levelo://app?vid=bfc07130-be47-4eef-8325-e33d6610d729","ios":"levelo://app?vid=bfc07130-be47-4eef-8325-e33d6610d729"},"vehicle_type_id":"4","last_reported":1770646021,"current_range_meters":10000,"station_id":"st_d3js3co5814s73ftftug","pricing_plan_id":"cebpf4jnsgd1na2vs0mg"},{"bike_id":"3bb5e432-3a0e-46ff-8b11-39885e955a90","system_id":"levelo_inurba_marseille","lat":43.284196,"lon":5.349885,"is_reserved":false,"is_disabled":false,"rental_uris":{"android":"levelo://app?vid=3bb5e432-3a0e-46ff-8b11-39885e955a90","ios":"levelo://app?vid=3bb5e432-3a0e-46ff-8b11-39885e955a90"},"vehicle_type_id":"4","last_reported":1770646021,"current_range_meters":10000,"station_id":"ce4bhbh2rcd13ifvqepg","pricing_plan_id":"cebpf4jnsgd1na2vs0mg"},{"bike_id":"8ae17b81-0000-4570-ac79-fe68f254c27c","system_id":"levelo_inurba_marseille","lat":43.2962,"lon":5.37709,"is_reserved":false,"is_disabled":true,"rental_uris":{"android":"levelo://app?vid=8ae17b81-0000-4570-ac79-fe68f254c27c","ios":"levelo://app?vid=8ae17b81-0000-4570-ac79-fe68f254c27c"},"vehicle_type_id":"4","last_reported":1770646021,"current_range_meters":10000,"station_id":"ce4bgi92rcd13ifvqb90","pricing_plan_id":"cebpf4jnsgd1na2vs0mg"},{"bike_id":"81089c31-0f23-400c-91cf-65461521d37b","system_id":"levelo_inurba_marseille","lat":43.25844,"lon":5.3941,"is_reserved":false,"is_disabled":false,"rental_uris":{"android":"levelo://app?vid=81089c31-0f23-400c-91cf-65461521d37b","ios":"levelo://app?vid=81089c31-0f23-400c-91cf-65461521d37b"},"vehicle_type_id":"4","last_reported":1770646021,"current_range_meters":10000,"station_id":"ce4bhip2rcd13ifvqft0","pricing_plan_id":"cebpf4jnsgd1na2vs0mg"},{"bike_id":"807abd8a-e2df-4d93-9cd5-18acae347c66","system_id":"levelo_inurba_marseille","lat":43.25925,"lon":5.409,"is_reserved":false,"is_disabled":false,"rental_uris":{"android":"levelo://app?vid=807abd8a-e2df-4d93-9cd5-18acae347c66","ios":"levelo://app?vid=807abd8a-e2df-4d93-9cd5-18acae347c66"},"vehicle_type_id":"4","last_reported":1770646021,"current_range_meters":10000,"station_id":"ce4bhm92rcd13ifvqglg","pricing_plan_id":"cebpf4jnsgd1na2vs0mg"},{"bike_id":"30dcf271-c66c-4ee7-94a9-1e221751bad2","system_id":"levelo_inurba_marseille","lat":43.259275,"lon":5.409076,"is_reserved":false,"is_disabled":false,"rental_uris":{"android":"levelo://app?vid=30dcf271-c66c-4ee7-94a9-1e221751bad2","ios":"levelo://app?vid=30dcf271-c66c-4ee7-94a9-1e221751bad2"},"vehicle_type_id":"4","last_reported":1770646021,"current_range_meters":10000,"station_id":"ce4bhm92rcd13ifvqglg","pricing_plan_id":"cebpf4jnsgd1na2vs0mg"},{"bike_id":"652029fd-7389-40d5-a0bd-e85f7aa43d7c","system_id":"levelo_inurba_marseille","lat":43.22568,"lon":5.4162,"is_reserved":false,"is_disabled":false,"rental_uris":{"android":"levelo://app?vid=652029fd-7389-40d5-a0bd-e85f7aa43d7c","ios":"levelo://app?vid=652029fd-7389-40d5-a0bd-e85f7aa43d7c"},"vehicle_type_id":"4","last_reported":1770646021,"current_range_meters":10000,"station_id":"st_d2o4gvlbi1j2169b742g","pricing_plan_id":"cebpf4jnsgd1na2vs0mg"},{"bike_id":"ee213b40-802c-442b-9390-5e22834db5df","system_id":"levelo_inurba_marseille","lat":43.241711,"lon":5.363947,"is_reserved":false,"is_disabled":false,"rental_uris":{"android":"levelo://app?vid=ee213b40-802c-442b-9390-5e22834db5df","ios":"levelo://app?vid=ee213b40-802c-442b-9390-5e22834db5df"},"vehicle_type_id":"4","last_reported":1770646021,"current_range_meters":10000,"station_id":"cpo36qri1sfpv3e86is0","pricing_plan_id":"cebpf4jnsgd1na2vs0mg"},{"bike_id":"cc9d8b4e-9bda-47b4-8088-3f93b11014d1","system_id":"levelo_inurba_marseille","lat":43.25193,"lon":5.40705,"is_reserved":false,"is_disabled":false,"rental_uris":{"android":"levelo://app?vid=cc9d8b4e-9bda-47b4-8088-3f93b11014d1","ios":"levelo://app?vid=cc9d8b4e-9bda-47b4-8088-3f93b11014d1"},"vehicle_type_id":"4","last_reported":1770646021,"current_range_meters":10000,"station_id":"","pricing_plan_id":"cebpf4jnsgd1na2vs0mg"},{"bike_id":"46b69bcd-f35a-433e-b9f1-16ab03d0ac0e","system_id":"levelo_inurba_marseille","lat":43.25879,"lon":5.3988,"is_reserved":false,"is_disabled":false,"rental_uris":{"android":"levelo://app?vid=46b69bcd-f35a-433e-b9f1-16ab03d0ac0e","ios":"levelo://app?vid=46b69bcd-f35a-433e-b9f1-16ab03d0ac0e"},"vehicle_type_id":"4","last_reported":1770646021,"current_range_meters":10000,"station_id":"ce4bhl92rcd13ifvqghg","pricing_plan_id":"cebpf4jnsgd1na2vs0mg"},{"bike_id":"6da7b2c8-ded6-41b1-b326-7acbfdccc073","system_id":"levelo_inurba_marseille","lat":43.29649,"lon":5.38025,"is_reserved":false,"is_disabled":false,"rental_uris":{"android":"levelo://app?vid=6da7b2c8-ded6-41b1-b326-7acbfdccc073","ios":"levelo://app?vid=6da7b2c8-ded6-41b1-b326-7acbfdccc073"},"vehicle_type_id":"4","last_reported":1770646021,"current_range_meters":10000,"station_id":"","pricing_plan_id":"cebpf4jnsgd1na2vs0mg"},{"bike_id":"89446920-5bad-4011-b083-61088b42ddfa","system_id":"levelo_inurba_marseille","lat":43.2481,"lon":5.37461,"is_reserved":false,"is_disabled":false,"rental_uris":{"android":"levelo://app?vid=89446920-5bad-4011-b083-61088b42ddfa","ios":"levelo://app?vid=89446920-5bad-4011-b083-61088b42ddfa"},"vehicle_type_id":"4","last_reported":1770646021,"current_range_meters":10000,"station_id":"ce4bhgh2rcd13ifvqfb0","pricing_plan_id":"cebpf4jnsgd1na2vs0mg"},{"bike_id":"3f613fb8-4a1c-4997-ac2c-693b9c75a794","system_id":"levelo_inurba_marseille","lat":43.305572,"lon":5.366937,"is_reserved":false,"is_disabled":false,"rental_uris":{"android":"levelo://app?vid=3f613fb8-4a1c-4997-ac2c-693b9c75a794","ios":"levelo://app?vid=3f613fb8-4a1c-4997-ac2c-693b9c75a794"},"vehicle_type_id":"4","last_reported":1770646021,"current_range_meters":10000,"station_id":"","pricing_plan_id":"cebpf4jnsgd1na2vs0mg"},{"bike_id":"34b69f66-218a-4d1e-bb90-b20b5e8501be","system_id":"levelo_inurba_marseille","lat":43.28196,"lon":5.42752,"is_reserved":false,"is_disabled":false,"rental_uris":{"android":"levelo://app?vid=34b69f66-218a-4d1e-bb90-b20b5e8501be","ios":"levelo://app?vid=34b69f66-218a-4d1e-bb90-b20b5e8501be"},"vehicle_type_id":"4","last_reported":1770646021,"current_range_meters":10000,"station_id":"ce4bh0h2rcd13ifvqd60","pricing_plan_id":"cebpf4jnsgd1na2vs0mg"},{"bike_id":"f7b0f484-e963-4d32-89f2-46b010248b97","system_id":"levelo_inurba_marseille","lat":43.24179,"lon":5.39722,"is_reserved":false,"is_disabled":false,"rental_uris":{"android":"levelo://app?vid=f7b0f484-e963-4d32-89f2-46b010248b97","ios":"levelo://app?vid=f7b0f484-e963-4d32-89f2-46b010248b97"},"vehicle_type_id":"4","last_reported":1770646021,"current_range_meters":10000,"station_id":"ce4bhn12rcd13ifvqgpg","pricing_plan_id":"cebpf4jnsgd1na2vs0mg"},{"bike_id":"8421ab96-057e-4c56-8da9-39ca27ce7356","system_id":"levelo_inurba_marseille","lat":43.299625,"lon":5.413265,"is_reserved":false,"is_disabled":false,"rental_uris":{"android":"levelo://app?vid=8421ab96-057e-4c56-8da9-39ca27ce7356","ios":"levelo://app?vid=8421ab96-057e-4c56-8da9-39ca27ce7356"},"vehicle_type_id":"4","last_reported":1770646021,"current_range_meters":10000,"station_id":"ce4bhp12rcd13ifvqh9g","pricing_plan_id":"cebpf4jnsgd1na2vs0mg"},{"bike_id":"fbf2ee9c-6bb8-4094-8b37-53871d20f3ba","system_id":"levelo_inurba_marseille","lat":43.31343,"lon":5.36713,"is_reserved":false,"is_disabled":false,"rental_uris":{"android":"levelo://app?vid=fbf2ee9c-6bb8-4094-8b37-53871d20f3ba","ios":"levelo://app?vid=fbf2ee9c-6bb8-4094-8b37-53871d20f3ba"},"vehicle_type_id":"4","last_reported":1770646021,"current_range_meters":10000,"station_id":"ce4bgr92rcd13ifvqc6g","pricing_plan_id":"cebpf4jnsgd1na2vs0mg"},{"bike_id":"c067ca78-bad6-401b-90fb-e71f131a6d8e","system_id":"levelo_inurba_marseille","lat":43.244636,"lon":5.42544,"is_reserved":false,"is_disabled":false,"rental_uris":{"android":"levelo://app?vid=c067ca78-bad6-401b-90fb-e71f131a6d8e","ios":"levelo://app?vid=c067ca78-bad6-401b-90fb-e71f131a6d8e"},"vehicle_type_id":"4","last_reported":1770646021,"current_range_meters":10000,"station_id":"st_d4a3vfp97mjs738cd8kg","pricing_plan_id":"cebpf4jnsgd1na2vs0mg"},{"bike_id":"1d84a6a9-53dd-4546-9d02-4bb696d8451e","system_id":"levelo_inurba_marseille","lat":43.31704,"lon":5.3766,"is_reserved":false,"is_disabled":false,"rental_uris":{"android":"levelo://app?vid=1d84a6a9-53dd-4546-9d02-4bb696d8451e","ios":"levelo://app?vid=1d84a6a9-53dd-4546-9d02-4bb696d8451e"},"vehicle_type_id":"4","last_reported":1770646021,"current_range_meters":10000,"station_id":"","pricing_plan_id":"cebpf4jnsgd1na2vs0mg"},{"bike_id":"29dced35-e380-4021-a625-fb42f9a9138f","system_id":"levelo_inurba_marseille","lat":43.24383,"lon":5.37047,"is_reserved":false,"is_disabled":false,"rental_uris":{"android":"levelo://app?vid=29dced35-e380-4021-a625-fb42f9a9138f","ios":"levelo://app?vid=29dced35-e380-4021-a625-fb42f9a9138f"},"vehicle_type_id":"4","last_reported":1770646021,"current_range_meters":10800,"station_id":"ce4bhhh2rcd13ifvqfk0","pricing_plan_id":"cebpf4jnsgd1na2vs0mg"},{"bike_id":"05abb5d5-7a0f-4692-a6b6-119f614f1bb6","system_id":"levelo_inurba_marseille","lat":43.25577,"lon":5.38267,"is_reserved":false,"is_disabled":false,"rental_uris":{"android":"levelo://app?vid=05abb5d5-7a0f-4692-a6b6-119f614f1bb6","ios":"levelo://app?vid=05abb5d5-7a0f-4692-a6b6-119f614f1bb6"},"vehicle_type_id":"4","last_reported":1770646021,"current_range_meters":10800,"station_id":"ce4bhih2rcd13ifvqfs0","pricing_plan_id":"cebpf4jnsgd1na2vs0mg"},{"bike_id":"57dc7644-66c8-44b0-9f3a-22557ebdd062","system_id":"levelo_inurba_marseille","lat":43.28001,"lon":5.39997,"is_reserved":false,"is_disabled":false,"rental_uris":{"android":"levelo://app?vid=57dc7644-66c8-44b0-9f3a-22557ebdd062","ios":"levelo://app?vid=57dc7644-66c8-44b0-9f3a-22557ebdd062"},"vehicle_type_id":"4","last_reported":1770646021,"current_range_meters":10800,"station_id":"ce4bho92rcd13ifvqh4g","pricing_plan_id":"cebpf4jnsgd1na2vs0mg"},{"bike_id":"6aa6da6f-1976-49d0-ac99-282daecf7451","system_id":"levelo_inurba_marseille","lat":43.24056,"lon":5.37734,"is_reserved":false,"is_disabled":false,"rental_uris":{"android":"levelo://app?vid=6aa6da6f-1976-49d0-ac99-282daecf7451","ios":"levelo://app?vid=6aa6da6f-1976-49d0-ac99-282daecf7451"},"vehicle_type_id":"4","last_reported":1770646021,"current_range_meters":10800,"station_id":"ce4bhnp2rcd13ifvqgvg","pricing_plan_id":"cebpf4jnsgd1na2vs0mg"},{"bike_id":"a1a1e459-dc33-458a-a156-5735d4cb79a9","system_id":"levelo_inurba_marseille","lat":43.295618,"lon":5.422888,"is_reserved":false,"is_disabled":false,"rental_uris":{"android":"levelo://app?vid=a1a1e459-dc33-458a-a156-5735d4cb79a9","ios":"levelo://app?vid=a1a1e459-dc33-458a-a156-5735d4cb79a9"},"vehicle_type_id":"4","last_reported":1770646021,"current_range_meters":10800,"station_id":"ce4bhph2rcd13ifvqhdg","pricing_plan_id":"cebpf4jnsgd1na2vs0mg"},{"bike_id":"c11b48aa-5b4e-4ac0-bbcc-eafa246b4e92","system_id":"levelo_inurba_marseille","lat":43.27615,"lon":5.36109,"is_reserved":false,"is_disabled":false,"rental_uris":{"android":"levelo://app?vid=c11b48aa-5b4e-4ac0-bbcc-eafa246b4e92","ios":"levelo://app?vid=c11b48aa-5b4e-4ac0-bbcc-eafa246b4e92"},"vehicle_type_id":"4","last_reported":1770646021,"current_range_meters":10800,"station_id":"ce4bgj92rcd13ifvqbe0","pricing_plan_id":"cebpf4jnsgd1na2vs0mg"},{"bike_id":"ffbe3718-fb64-481b-bbfe-6664f18f61cb","system_id":"levelo_inurba_marseille","lat":43.246268,"lon":5.431465,"is_reserved":false,"is_disabled":false,"rental_uris":{"android":"levelo://app?vid=ffbe3718-fb64-481b-bbfe-6664f18f61cb","ios":"levelo://app?vid=ffbe3718-fb64-481b-bbfe-6664f18f61cb"},"vehicle_type_id":"4","last_reported":1770646021,"current_range_meters":10800,"station_id":"st_d2m6c4gdas8pm72e190g","pricing_plan_id":"cebpf4jnsgd1na2vs0mg"},{"bike_id":"c9e1dfab-a295-4c94-9182-c8e248585a23","system_id":"levelo_inurba_marseille","lat":43.26557,"lon":5.40333,"is_reserved":false,"is_disabled":false,"rental_uris":{"android":"levelo://app?vid=c9e1dfab-a295-4c94-9182-c8e248585a23","ios":"levelo://app?vid=c9e1dfab-a295-4c94-9182-c8e248585a23"},"vehicle_type_id":"4","last_reported":1770646021,"current_range_meters":10800,"station_id":"ce4bhmp2rcd13ifvqgng","pricing_plan_id":"cebpf4jnsgd1na2vs0mg"},{"bike_id":"5d86506f-f4ce-4e04-998c-995692a6b98c","system_id":"levelo_inurba_marseille","lat":43.21217,"lon":5.35067,"is_reserved":false,"is_disabled":false,"rental_uris":{"android":"levelo://app?vid=5d86506f-f4ce-4e04-998c-995692a6b98c","ios":"levelo://app?vid=5d86506f-f4ce-4e04-998c-995692a6b98c"},"vehicle_type_id":"4","last_reported":1770646021,"current_range_meters":10800,"station_id":"st_cvj6sg6p6f1abm77japg","pricing_plan_id":"cebpf4jnsgd1na2vs0mg"},{"bike_id":"723477fb-4930-45b4-87e1-e9bf605af36b","system_id":"levelo_inurba_marseille","lat":43.29787,"lon":5.38107,"is_reserved":false,"is_disabled":false,"rental_uris":{"android":"levelo://app?vid=723477fb-4930-45b4-87e1-e9bf605af36b","ios":"levelo://app?vid=723477fb-4930-45b4-87e1-e9bf605af36b"},"vehicle_type_id":"4","last_reported":1770646021,"current_range_meters":10800,"station_id":"ce4bgip2rcd13ifvqbb0","pricing_plan_id":"cebpf4jnsgd1na2vs0mg"},{"bike_id":"990e96c3-1411-40db-8c41-21f5095438bf","system_id":"levelo_inurba_marseille","lat":43.30602,"lon":5.36545,"is_reserved":false,"is_disabled":false,"rental_uris":{"android":"levelo://app?vid=990e96c3-1411-40db-8c41-21f5095438bf","ios":"levelo://app?vid=990e96c3-1411-40db-8c41-21f5095438bf"},"vehicle_type_id":"4","last_reported":1770646021,"current_range_meters":10800,"station_id":"ce4bgs12rcd13ifvqcag","pricing_plan_id":"cebpf4jnsgd1na2vs0mg"},{"bike_id":"fd26d1c5-b1c5-423d-91d3-56da6f563925","system_id":"levelo_inurba_marseille","lat":43.33148,"lon":5.3769,"is_reserved":false,"is_disabled":false,"rental_uris":{"android":"levelo://app?vid=fd26d1c5-b1c5-423d-91d3-56da6f563925","ios":"levelo://app?vid=fd26d1c5-b1c5-423d-91d3-56da6f563925"},"vehicle_type_id":"4","last_reported":1770646021,"current_range_meters":10800,"station_id":"st_d46cu089ee8s73dldbu0","pricing_plan_id":"cebpf4jnsgd1na2vs0mg"},{"bike_id":"b0577ca1-afa8-48fa-be5c-f4673c1a2294","system_id":"levelo_inurba_marseille","lat":43.27979,"lon":5.41307,"is_reserved":false,"is_disabled":false,"rental_uris":{"android":"levelo://app?vid=b0577ca1-afa8-48fa-be5c-f4673c1a2294","ios":"levelo://app?vid=b0577ca1-afa8-48fa-be5c-f4673c1a2294"},"vehicle_type_id":"4","last_reported":1770646021,"current_range_meters":10800,"station_id":"","pricing_plan_id":"cebpf4jnsgd1na2vs0mg"},{"bike_id":"33cadfea-9274-48f6-b714-87c32ba6ae20","system_id":"levelo_inurba_marseille","lat":43.28112,"lon":5.37841,"is_reserved":false,"is_disabled":false,"rental_uris":{"android":"levelo://app?vid=33cadfea-9274-48f6-b714-87c32ba6ae20","ios":"levelo://app?vid=33cadfea-9274-48f6-b714-87c32ba6ae20"},"vehicle_type_id":"4","last_reported":1770646021,"current_range_meters":10800,"station_id":"ce4bha12rcd13ifvqee0","pricing_plan_id":"cebpf4jnsgd1na2vs0mg"},{"bike_id":"22d8d839-db4c-4efa-bd5d-d78efaca55ca","system_id":"levelo_inurba_marseille","lat":43.25575,"lon":5.3824,"is_reserved":false,"is_disabled":false,"rental_uris":{"android":"levelo://app?vid=22d8d839-db4c-4efa-bd5d-d78efaca55ca","ios":"levelo://app?vid=22d8d839-db4c-4efa-bd5d-d78efaca55ca"},"vehicle_type_id":"4","last_reported":1770646021,"current_range_meters":10800,"station_id":"ce4bhih2rcd13ifvqfs0","pricing_plan_id":"cebpf4jnsgd1na2vs0mg"},{"bike_id":"534d0005-0d9d-4965-ae77-43e2af08857e","system_id":"levelo_inurba_marseille","lat":43.26359,"lon":5.41078,"is_reserved":false,"is_disabled":false,"rental_uris":{"android":"levelo://app?vid=534d0005-0d9d-4965-ae77-43e2af08857e","ios":"levelo://app?vid=534d0005-0d9d-4965-ae77-43e2af08857e"},"vehicle_type_id":"4","last_reported":1770646021,"current_range_meters":10800,"station_id":"st_d4e5ca6na9uc73bfl5fg","pricing_plan_id":"cebpf4jnsgd1na2vs0mg"},{"bike_id":"914bd365-2174-44e8-81f6-c3c68ba64874","system_id":"levelo_inurba_marseille","lat":43.23191,"lon":5.39977,"is_reserved":false,"is_disabled":false,"rental_uris":{"android":"levelo://app?vid=914bd365-2174-44e8-81f6-c3c68ba64874","ios":"levelo://app?vid=914bd365-2174-44e8-81f6-c3c68ba64874"},"vehicle_type_id":"4","last_reported":1770646021,"current_range_meters":10800,"station_id":"ce4bhn12rcd13ifvqgqg","pricing_plan_id":"cebpf4jnsgd1na2vs0mg"},{"bike_id":"08e4a71e-fd18-42f7-99a6-0fba09c7fecc","system_id":"levelo_inurba_marseille","lat":43.23151,"lon":5.4372,"is_reserved":false,"is_disabled":false,"rental_uris":{"android":"levelo://app?vid=08e4a71e-fd18-42f7-99a6-0fba09c7fecc","ios":"levelo://app?vid=08e4a71e-fd18-42f7-99a6-0fba09c7fecc"},"vehicle_type_id":"4","last_reported":1770646021,"current_range_meters":11200,"station_id":"ce4bhmp2rcd13ifvqgog","pricing_plan_id":"cebpf4jnsgd1na2vs0mg"},{"bike_id":"e0450db0-c8b3-4403-bc43-ed5a007877b8","system_id":"levelo_inurba_marseille","lat":43.24626,"lon":5.43147,"is_reserved":false,"is_disabled":false,"rental_uris":{"android":"levelo://app?vid=e0450db0-c8b3-4403-bc43-ed5a007877b8","ios":"levelo://app?vid=e0450db0-c8b3-4403-bc43-ed5a007877b8"},"vehicle_type_id":"4","last_reported":1770646021,"current_range_meters":11200,"station_id":"st_d2m6c4gdas8pm72e190g","pricing_plan_id":"cebpf4jnsgd1na2vs0mg"},{"bike_id":"50b635d3-0b93-40ca-af60-8fdd9b2f83d2","system_id":"levelo_inurba_marseille","lat":43.29789,"lon":5.38089,"is_reserved":false,"is_disabled":true,"rental_uris":{"android":"levelo://app?vid=50b635d3-0b93-40ca-af60-8fdd9b2f83d2","ios":"levelo://app?vid=50b635d3-0b93-40ca-af60-8fdd9b2f83d2"},"vehicle_type_id":"4","last_reported":1770646021,"current_range_meters":11200,"station_id":"ce4bgip2rcd13ifvqbb0","pricing_plan_id":"cebpf4jnsgd1na2vs0mg"},{"bike_id":"38370158-fe74-49c7-b2b0-0072e2c97500","system_id":"levelo_inurba_marseille","lat":43.22929,"lon":5.35387,"is_reserved":false,"is_disabled":false,"rental_uris":{"android":"levelo://app?vid=38370158-fe74-49c7-b2b0-0072e2c97500","ios":"levelo://app?vid=38370158-fe74-49c7-b2b0-0072e2c97500"},"vehicle_type_id":"4","last_reported":1770646021,"current_range_meters":11200,"station_id":"cpo3532slgdg3j2ikp40","pricing_plan_id":"cebpf4jnsgd1na2vs0mg"},{"bike_id":"2897a247-3dfa-4403-b3fd-3dafe9ade015","system_id":"levelo_inurba_marseille","lat":43.26962,"lon":5.38612,"is_reserved":false,"is_disabled":false,"rental_uris":{"android":"levelo://app?vid=2897a247-3dfa-4403-b3fd-3dafe9ade015","ios":"levelo://app?vid=2897a247-3dfa-4403-b3fd-3dafe9ade015"},"vehicle_type_id":"4","last_reported":1770646021,"current_range_meters":11200,"station_id":"ce4bhh92rcd13ifvqfh0","pricing_plan_id":"cebpf4jnsgd1na2vs0mg"},{"bike_id":"27267fc6-f735-4e4b-a5ed-432bd8592e5c","system_id":"levelo_inurba_marseille","lat":43.29595,"lon":5.37738,"is_reserved":false,"is_disabled":false,"rental_uris":{"android":"levelo://app?vid=27267fc6-f735-4e4b-a5ed-432bd8592e5c","ios":"levelo://app?vid=27267fc6-f735-4e4b-a5ed-432bd8592e5c"},"vehicle_type_id":"4","last_reported":1770646021,"current_range_meters":11200,"station_id":"ce4bgi92rcd13ifvqb90","pricing_plan_id":"cebpf4jnsgd1na2vs0mg"},{"bike_id":"f91f91e7-cb75-4d46-ab53-f570e2e26557","system_id":"levelo_inurba_marseille","lat":43.276621,"lon":5.381043,"is_reserved":false,"is_disabled":false,"rental_uris":{"android":"levelo://app?vid=f91f91e7-cb75-4d46-ab53-f570e2e26557","ios":"levelo://app?vid=f91f91e7-cb75-4d46-ab53-f570e2e26557"},"vehicle_type_id":"4","last_reported":1770646021,"current_range_meters":11200,"station_id":"","pricing_plan_id":"cebpf4jnsgd1na2vs0mg"},{"bike_id":"e0a327fc-57a1-4b06-bc34-ba65d3708571","system_id":"levelo_inurba_marseille","lat":43.2762,"lon":5.36101,"is_reserved":false,"is_disabled":false,"rental_uris":{"android":"levelo://app?vid=e0a327fc-57a1-4b06-bc34-ba65d3708571","ios":"levelo://app?vid=e0a327fc-57a1-4b06-bc34-ba65d3708571"},"vehicle_type_id":"4","last_reported":1770646021,"current_range_meters":11200,"station_id":"ce4bgj92rcd13ifvqbe0","pricing_plan_id":"cebpf4jnsgd1na2vs0mg"},{"bike_id":"4659f5f2-43a6-4213-b84f-184d5dec64b3","system_id":"levelo_inurba_marseille","lat":43.33547,"lon":5.3747,"is_reserved":false,"is_disabled":false,"rental_uris":{"android":"levelo://app?vid=4659f5f2-43a6-4213-b84f-184d5dec64b3","ios":"levelo://app?vid=4659f5f2-43a6-4213-b84f-184d5dec64b3"},"vehicle_type_id":"4","last_reported":1770646021,"current_range_meters":11600,"station_id":"st_d46tts09ee8s73dlu43g","pricing_plan_id":"cebpf4jnsgd1na2vs0mg"},{"bike_id":"61e7a56e-a3a9-4b6a-8720-cb799648adf1","system_id":"levelo_inurba_marseille","lat":43.30308,"lon":5.36903,"is_reserved":false,"is_disabled":false,"rental_uris":{"android":"levelo://app?vid=61e7a56e-a3a9-4b6a-8720-cb799648adf1","ios":"levelo://app?vid=61e7a56e-a3a9-4b6a-8720-cb799648adf1"},"vehicle_type_id":"4","last_reported":1770646021,"current_range_meters":11600,"station_id":"ce4bgqh2rcd13ifvqc5g","pricing_plan_id":"cebpf4jnsgd1na2vs0mg"},{"bike_id":"87056c0a-278d-470f-af70-99a4eb084f35","system_id":"levelo_inurba_marseille","lat":43.246309,"lon":5.431477,"is_reserved":false,"is_disabled":false,"rental_uris":{"android":"levelo://app?vid=87056c0a-278d-470f-af70-99a4eb084f35","ios":"levelo://app?vid=87056c0a-278d-470f-af70-99a4eb084f35"},"vehicle_type_id":"4","last_reported":1770646021,"current_range_meters":11600,"station_id":"st_d2m6c4gdas8pm72e190g","pricing_plan_id":"cebpf4jnsgd1na2vs0mg"},{"bike_id":"314cf606-959e-4bfc-a027-5525307a5cc4","system_id":"levelo_inurba_marseille","lat":43.24638,"lon":5.43141,"is_reserved":false,"is_disabled":false,"rental_uris":{"android":"levelo://app?vid=314cf606-959e-4bfc-a027-5525307a5cc4","ios":"levelo://app?vid=314cf606-959e-4bfc-a027-5525307a5cc4"},"vehicle_type_id":"4","last_reported":1770646021,"current_range_meters":11600,"station_id":"st_d2m6c4gdas8pm72e190g","pricing_plan_id":"cebpf4jnsgd1na2vs0mg"},{"bike_id":"4dd2886f-c5ff-429c-be5a-3c57aa6fcc8b","system_id":"levelo_inurba_marseille","lat":43.29971,"lon":5.38495,"is_reserved":false,"is_disabled":false,"rental_uris":{"android":"levelo://app?vid=4dd2886f-c5ff-429c-be5a-3c57aa6fcc8b","ios":"levelo://app?vid=4dd2886f-c5ff-429c-be5a-3c57aa6fcc8b"},"vehicle_type_id":"4","last_reported":1770646021,"current_range_meters":11600,"station_id":"ce4bgj92rcd13ifvqbd0","pricing_plan_id":"cebpf4jnsgd1na2vs0mg"},{"bike_id":"98f0713e-6402-4600-9353-a72594fc6185","system_id":"levelo_inurba_marseille","lat":43.246673,"lon":5.381555,"is_reserved":false,"is_disabled":false,"rental_uris":{"android":"levelo://app?vid=98f0713e-6402-4600-9353-a72594fc6185","ios":"levelo://app?vid=98f0713e-6402-4600-9353-a72594fc6185"},"vehicle_type_id":"4","last_reported":1770646021,"current_range_meters":11600,"station_id":"ce4bhih2rcd13ifvqfr0","pricing_plan_id":"cebpf4jnsgd1na2vs0mg"},{"bike_id":"e0e62f17-5475-416c-8879-ceaa3f1d92bf","system_id":"levelo_inurba_marseille","lat":43.24075,"lon":5.37748,"is_reserved":false,"is_disabled":false,"rental_uris":{"android":"levelo://app?vid=e0e62f17-5475-416c-8879-ceaa3f1d92bf","ios":"levelo://app?vid=e0e62f17-5475-416c-8879-ceaa3f1d92bf"},"vehicle_type_id":"4","last_reported":1770646021,"current_range_meters":11600,"station_id":"ce4bhnp2rcd13ifvqgvg","pricing_plan_id":"cebpf4jnsgd1na2vs0mg"},{"bike_id":"c10f2505-9e4a-4a64-bb88-28d589b6d241","system_id":"levelo_inurba_marseille","lat":43.31048,"lon":5.371746,"is_reserved":false,"is_disabled":false,"rental_uris":{"android":"levelo://app?vid=c10f2505-9e4a-4a64-bb88-28d589b6d241","ios":"levelo://app?vid=c10f2505-9e4a-4a64-bb88-28d589b6d241"},"vehicle_type_id":"4","last_reported":1770646021,"current_range_meters":12000,"station_id":"st_d4kl2rp97mjs73e7tdfg","pricing_plan_id":"cebpf4jnsgd1na2vs0mg"},{"bike_id":"4b32f1a6-f6c4-4276-8d7c-8c96c48cd9cc","system_id":"levelo_inurba_marseille","lat":43.30488,"lon":5.37886,"is_reserved":false,"is_disabled":false,"rental_uris":{"android":"levelo://app?vid=4b32f1a6-f6c4-4276-8d7c-8c96c48cd9cc","ios":"levelo://app?vid=4b32f1a6-f6c4-4276-8d7c-8c96c48cd9cc"},"vehicle_type_id":"4","last_reported":1770646021,"current_range_meters":12000,"station_id":"ce4bgup2rcd13ifvqcn0","pricing_plan_id":"cebpf4jnsgd1na2vs0mg"},{"bike_id":"73e4d159-f405-45cd-901e-4f0a1d5f4bb6","system_id":"levelo_inurba_marseille","lat":43.3355,"lon":5.37462,"is_reserved":false,"is_disabled":false,"rental_uris":{"android":"levelo://app?vid=73e4d159-f405-45cd-901e-4f0a1d5f4bb6","ios":"levelo://app?vid=73e4d159-f405-45cd-901e-4f0a1d5f4bb6"},"vehicle_type_id":"4","last_reported":1770646021,"current_range_meters":12000,"station_id":"st_d46tts09ee8s73dlu43g","pricing_plan_id":"cebpf4jnsgd1na2vs0mg"},{"bike_id":"099a3670-b2a1-4160-b591-e62ed1c00d67","system_id":"levelo_inurba_marseille","lat":43.28618,"lon":5.35106,"is_reserved":false,"is_disabled":false,"rental_uris":{"android":"levelo://app?vid=099a3670-b2a1-4160-b591-e62ed1c00d67","ios":"levelo://app?vid=099a3670-b2a1-4160-b591-e62ed1c00d67"},"vehicle_type_id":"4","last_reported":1770646021,"current_range_meters":12000,"station_id":"ce4bhch2rcd13ifvqeug","pricing_plan_id":"cebpf4jnsgd1na2vs0mg"},{"bike_id":"90540022-86ed-47d5-8a53-04e18bb7aa0e","system_id":"levelo_inurba_marseille","lat":43.30947,"lon":5.39049,"is_reserved":false,"is_disabled":false,"rental_uris":{"android":"levelo://app?vid=90540022-86ed-47d5-8a53-04e18bb7aa0e","ios":"levelo://app?vid=90540022-86ed-47d5-8a53-04e18bb7aa0e"},"vehicle_type_id":"4","last_reported":1770646021,"current_range_meters":12000,"station_id":"ce4bgup2rcd13ifvqco0","pricing_plan_id":"cebpf4jnsgd1na2vs0mg"},{"bike_id":"d52bdf5b-8ed5-44fc-80bd-7a7caed584fa","system_id":"levelo_inurba_marseille","lat":43.30564,"lon":5.36547,"is_reserved":false,"is_disabled":false,"rental_uris":{"android":"levelo://app?vid=d52bdf5b-8ed5-44fc-80bd-7a7caed584fa","ios":"levelo://app?vid=d52bdf5b-8ed5-44fc-80bd-7a7caed584fa"},"vehicle_type_id":"4","last_reported":1770646021,"current_range_meters":12000,"station_id":"ce4bgs12rcd13ifvqcag","pricing_plan_id":"cebpf4jnsgd1na2vs0mg"},{"bike_id":"92a6c27f-00a6-4c29-aaef-3324f9af0822","system_id":"levelo_inurba_marseille","lat":43.28277,"lon":5.35046,"is_reserved":false,"is_disabled":false,"rental_uris":{"android":"levelo://app?vid=92a6c27f-00a6-4c29-aaef-3324f9af0822","ios":"levelo://app?vid=92a6c27f-00a6-4c29-aaef-3324f9af0822"},"vehicle_type_id":"4","last_reported":1770646021,"current_range_meters":12000,"station_id":"ce4bhbp2rcd13ifvqerg","pricing_plan_id":"cebpf4jnsgd1na2vs0mg"},{"bike_id":"f7d61386-ba14-4fe1-b465-a4c96725b4e5","system_id":"levelo_inurba_marseille","lat":43.32487,"lon":5.36574,"is_reserved":false,"is_disabled":false,"rental_uris":{"android":"levelo://app?vid=f7d61386-ba14-4fe1-b465-a4c96725b4e5","ios":"levelo://app?vid=f7d61386-ba14-4fe1-b465-a4c96725b4e5"},"vehicle_type_id":"4","last_reported":1770646021,"current_range_meters":12000,"station_id":"ce4bhs12rcd13ifvqhvg","pricing_plan_id":"cebpf4jnsgd1na2vs0mg"},