{"last_updated":1752880233,"ttl":60,"version":"2.2","data":{"bikes":[{"bike_id":"53b742a7-31ae-4272-9bba-7740339e2a2f","system_id":"levelo_inurba_marseille","lat":43.33747,"lon":5.37463,"is_reserved":false,"is_disabled":false,"rental_uris":{"android":"levelo://app?vid=53b742a7-31ae-4272-9bba-7740339e2a2f","ios":"levelo://app?vid=53b742a7-31ae-4272-9bba-7740339e2a2f"},"vehicle_type_id":"1","last_reported":1752880233,"current_range_meters":18000,"station_id":"","pricing_plan_id":"cebpf4jnsgd1na2vs0mg"},{"bike_id":"82fec8e4-b7ed-4db3-82fe-bf1f13763d66","system_id":"levelo_inurba_marseille","lat":43.28264,"lon":5.35064,"is_reserved":false,"is_disabled":false,"rental_uris":{"android":"levelo://app?vid=82fec8e4-b7ed-4db3-82fe-bf1f13763d66","ios":"levelo://app?vid=82fec8e4-b7ed-4db3-82fe-bf1f13763d66"},"vehicle_type_id":"4","last_reported":1752880233,"current_range_meters":2800,"station_id":"ce4bhbp2rcd13ifvqerg","pricing_plan_id":"cebpf4jnsgd1na2vs0mg"},{"bike_id":"23a38567-1773-4d9f-883f-ed4396c8ff9a","system_id":"levelo_inurba_marseille","lat":43.26226,"lon":5.40449,"is_reserved":false,"is_disabled":false,"rental_uris":{"android":"levelo://app?vid=23a38567-1773-4d9f-883f-ed4396c8ff9a","ios":"levelo://app?vid=23a38567-1773-4d9f-883f-ed4396c8ff9a"},"vehicle_type_id":"4","last_reported":1752880233,"current_range_meters":2800,"station_id":"ce4bhmh2rcd13ifvqgmg","pricing_plan_id":"cebpf4jnsgd1na2vs0mg"},{"bike_id":"00ecada3-8577-4c51-98e2-f760bc2bb718","system_id":"levelo_inurba_marseille","lat":43.29409,"lon":5.43206,"is_reserved":false,"is_disabled":false,"rental_uris":{"android":"levelo://app?vid=00ecada3-8577-4c51-98e2-f760bc2bb718","ios":"levelo://app?vid=00ecada3-8577-4c51-98e2-f760bc2bb718"},"vehicle_type_id":"4","last_reported":1752880233,"current_range_meters":3200,"station_id":"","pricing_plan_id":"cebpf4jnsgd1na2vs0mg"},{"bike_id":"6d6c24f3-1aa8-42f5-8064-4e7c25e25148","system_id":"levelo_inurba_marseille","lat":43.28695,"lon":5.37377,"is_reserved":false,"is_disabled":false,"rental_uris":{"android":"levelo://app?vid=6d6c24f3-1aa8-42f5-8064-4e7c25e25148","ios":"levelo://app?vid=6d6c24f3-1aa8-42f5-8064-4e7c25e25148"},"vehicle_type_id":"4","last_reported":1752880233,"current_range_meters":3600,"station_id":"ce4bh3p2rcd13ifvqdq0","pricing_plan_id":"cebpf4jnsgd1na2vs0mg"},{"bike_id":"cf161601-953e-48d6-b1b0-6c14bf6d4c60","system_id":"levelo_inurba_marseille","lat":43.2816,"lon":5.38601,"is_reserved":false,"is_disabled":false,"rental_uris":{"android":"levelo://app?vid=cf161601-953e-48d6-b1b0-6c14bf6d4c60","ios":"levelo://app?vid=cf161601-953e-48d6-b1b0-6c14bf6d4c60"},"vehicle_type_id":"4","last_reported":1752880233,"current_range_meters":3600,"station_id":"","pricing_plan_id":"cebpf4jnsgd1na2vs0mg"},{"bike_id":"20e1cc30-ccbe-478e-bcb7-dc20e13576d1","system_id":"levelo_inurba_marseille","lat":43.28417,"lon":5.34988,"is_reserved":false,"is_disabled":true,"rental_uris":{"android":"levelo://app?vid=20e1cc30-ccbe-478e-bcb7-dc20e13576d1","ios":"levelo://app?vid=20e1cc30-ccbe-478e-bcb7-dc20e13576d1"},"vehicle_type_id":"4","last_reported":1752880233,"current_range_meters":4000,"station_id":"ce4bhbh2rcd13ifvqepg","pricing_plan_id":"cebpf4jnsgd1na2vs0mg"},{"bike_id":"e4bf260b-87a5-4881-8226-4056a5615b04","system_id":"levelo_inurba_marseille","lat":43.23965,"lon":5.36631,"is_reserved":false,"is_disabled":false,"rental_uris":{"android":"levelo://app?vid=e4bf260b-87a5-4881-8226-4056a5615b04","ios":"levelo://app?vid=e4bf260b-87a5-4881-8226-4056a5615b04"},"vehicle_type_id":"4","last_reported":1752880233,"current_range_meters":4000,"station_id":"ce4bhi12rcd13ifvqfp0","pricing_plan_id":"cebpf4jnsgd1na2vs0mg"},{"bike_id":"5a820c25-b558-4315-84e4-bd413c97b8aa","system_id":"levelo_inurba_marseille","lat":43.29556,"lon":5.42292,"is_reserved":false,"is_disabled":false,"rental_uris":{"android":"levelo://app?vid=5a820c25-b558-4315-84e4-bd413c97b8aa","ios":"levelo://app?vid=5a820c25-b558-4315-84e4-bd413c97b8aa"},"vehicle_type_id":"4","last_reported":1752880233,"current_range_meters":3600,"station_id":"ce4bhph2rcd13ifvqhdg","pricing_plan_id":"cebpf4jnsgd1na2vs0mg"},{"bike_id":"dec3c350-eba7-4850-bf88-4f472e41ec4e","system_id":"levelo_inurba_marseille","lat":43.315005,"lon":5.372979,"is_reserved":false,"is_disabled":false,"rental_uris":{"android":"levelo://app?vid=dec3c350-eba7-4850-bf88-4f472e41ec4e","ios":"levelo://app?vid=dec3c350-eba7-4850-bf88-4f472e41ec4e"},"vehicle_type_id":"4","last_reported":1752880233,"current_range_meters":4000,"station_id":"ce4bgt12rcd13ifvqcd0","pricing_plan_id":"cebpf4jnsgd1na2vs0mg"},{"bike_id":"9255257a-71eb-4bd2-be0b-e984b8ace01d","system_id":"levelo_inurba_marseille","lat":43.2848,"lon":5.38409,"is_reserved":false,"is_disabled":false,"rental_uris":{"android":"levelo://app?vid=9255257a-71eb-4bd2-be0b-e984b8ace01d","ios":"levelo://app?vid=9255257a-71eb-4bd2-be0b-e984b8ace01d"},"vehicle_type_id":"4","last_reported":1752880233,"current_range_meters":4800,"station_id":"ce4bh512rcd13ifvqe3g","pricing_plan_id":"cebpf4jnsgd1na2vs0mg"},{"bike_id":"200b9085-2b93-48be-9ca1-52d15b3d325c","system_id":"levelo_inurba_marseille","lat":43.34125,"lon":5.44366,"is_reserved":false,"is_disabled":false,"rental_uris":{"android":"levelo://app?vid=200b9085-2b93-48be-9ca1-52d15b3d325c","ios":"levelo://app?vid=200b9085-2b93-48be-9ca1-52d15b3d325c"},"vehicle_type_id":"4","last_reported":1752880233,"current_range_meters":5600,"station_id":"","pricing_plan_id":"cebpf4jnsgd1na2vs0mg"},{"bike_id":"0552ea12-01c1-4fc3-9631-ab4df8c50dde","system_id":"levelo_inurba_marseille","lat":43.22506,"lon":5.34783,"is_reserved":false,"is_disabled":false,"rental_uris":{"android":"levelo://app?vid=0552ea12-01c1-4fc3-9631-ab4df8c50dde","ios":"levelo://app?vid=0552ea12-01c1-4fc3-9631-ab4df8c50dde"},"vehicle_type_id":"4","last_reported":1752880233,"current_range_meters":5600,"station_id":"st_cvj5dfep6f1abm77gieg","pricing_plan_id":"cebpf4jnsgd1na2vs0mg"},{"bike_id":"75a21491-57a5-4198-a34e-94a9e7346b3b","system_id":"levelo_inurba_marseille","lat":43.297062,"lon":5.366019,"is_reserved":false,"is_disabled":true,"rental_uris":{"android":"levelo://app?vid=75a21491-57a5-4198-a34e-94a9e7346b3b","ios":"levelo://app?vid=75a21491-57a5-4198-a34e-94a9e7346b3b"},"vehicle_type_id":"4","last_reported":1752880233,"current_range_meters":6000,"station_id":"ce4bhh12rcd13ifvqff0","pricing_plan_id":"cebpf4jnsgd1na2vs0mg"},{"bike_id":"e95b1477-33a1-48a7-a021-3878a6895222","system_id":"levelo_inurba_marseille","lat":43.21749,"lon":5.34607,"is_reserved":false,"is_disabled":false,"rental_uris":{"android":"levelo://app?vid=e95b1477-33a1-48a7-a021-3878a6895222","ios":"levelo://app?vid=e95b1477-33a1-48a7-a021-3878a6895222"},"vehicle_type_id":"4","last_reported":1752880233,"current_range_meters":6000,"station_id":"st_cvj6r9ubvosntc0bgbag","pricing_plan_id":"cebpf4jnsgd1na2vs0mg"},{"bike_id":"411c9023-efd6-4473-aa82-a2dbf5dcc280","system_id":"levelo_inurba_marseille","lat":43.33837,"lon":5.38359,"is_reserved":false,"is_disabled":false,"rental_uris":{"android":"levelo://app?vid=411c9023-efd6-4473-aa82-a2dbf5dcc280","ios":"levelo://app?vid=411c9023-efd6-4473-aa82-a2dbf5dcc280"},"vehicle_type_id":"4","last_reported":1752880233,"current_range_meters":6400,"station_id":"","pricing_plan_id":"cebpf4jnsgd1na2vs0mg"},{"bike_id":"04d15a50-cb94-495c-969c-c09473f1fcda","system_id":"levelo_inurba_marseille","lat":43.296196,"lon":5.377039,"is_reserved":false,"is_disabled":true,"rental_uris":{"android":"levelo://app?vid=04d15a50-cb94-495c-969c-c09473f1fcda","ios":"levelo://app?vid=04d15a50-cb94-495c-969c-c09473f1fcda"},"vehicle_type_id":"4","last_reported":1752880233,"current_range_meters":6400,"station_id":"","pricing_plan_id":"cebpf4jnsgd1na2vs0mg"},{"bike_id":"999c3d38-4990-4f33-82c6-abc840460a29","system_id":"levelo_inurba_marseille","lat":43.29869,"lon":5.39736,"is_reserved":false,"is_disabled":false,"rental_uris":{"android":"levelo://app?vid=999c3d38-4990-4f33-82c6-abc840460a29","ios":"levelo://app?vid=999c3d38-4990-4f33-82c6-abc840460a29"},"vehicle_type_id":"4","last_reported":1752880233,"current_range_meters":6400,"station_id":"ce4bh0h2rcd13ifvqd50","pricing_plan_id":"cebpf4jnsgd1na2vs0mg"},{"bike_id":"37437322-8c8c-42de-b8fa-18f1317c54a8","system_id":"levelo_inurba_marseille","lat":43.23287,"lon":5.36812,"is_reserved":false,"is_disabled":false,"rental_uris":{"android":"levelo://app?vid=37437322-8c8c-42de-b8fa-18f1317c54a8","ios":"levelo://app?vid=37437322-8c8c-42de-b8fa-18f1317c54a8"},"vehicle_type_id":"4","last_reported":1752880233,"current_range_meters":6400,"station_id":"","pricing_plan_id":"cebpf4jnsgd1na2vs0mg"},{"bike_id":"3444bdc6-514a-4ba6-9650-f9073305e33d","system_id":"levelo_inurba_marseille","lat":43.29682,"lon":5.3698,"is_reserved":false,"is_disabled":false,"rental_uris":{"android":"levelo://app?vid=3444bdc6-514a-4ba6-9650-f9073305e33d","ios":"levelo://app?vid=3444bdc6-514a-4ba6-9650-f9073305e33d"},"vehicle_type_id":"4","last_reported":1752880233,"current_range_meters":6800,"station_id":"","pricing_plan_id":"cebpf4jnsgd1na2vs0mg"},{"bike_id":"fcb43646-13dd-4cea-b3e4-460cae3cbed7","system_id":"levelo_inurba_marseille","lat":43.22476,"lon":5.34827,"is_reserved":false,"is_disabled":false,"rental_uris":{"android":"levelo://app?vid=fcb43646-13dd-4cea-b3e4-460cae3cbed7","ios":"levelo://app?vid=fcb43646-13dd-4cea-b3e4-460cae3cbed7"},"vehicle_type_id":"4","last_reported":1752880233,"current_range_meters":6800,"station_id":"st_cvj5dfep6f1abm77gieg","pricing_plan_id":"cebpf4jnsgd1na2vs0mg"},{"bike_id":"555bc53e-5286-4fb6-9154-af42b3fd9792","system_id":"levelo_inurba_marseille","lat":43.30069,"lon":5.37286,"is_reserved":false,"is_disabled":false,"rental_uris":{"android":"levelo://app?vid=555bc53e-5286-4fb6-9154-af42b3fd9792","ios":"levelo://app?vid=555bc53e-5286-4fb6-9154-af42b3fd9792"},"vehicle_type_id":"4","last_reported":1752880233,"current_range_meters":6800,"station_id":"","pricing_plan_id":"cebpf4jnsgd1na2vs0mg"},{"bike_id":"d1b1ae6f-562f-42f0-a958-cbc912a1619d","system_id":"levelo_inurba_marseille","lat":43.27619,"lon":5.36105,"is_reserved":false,"is_disabled":true,"rental_uris":{"android":"levelo://app?vid=d1b1ae6f-562f-42f0-a958-cbc912a1619d","ios":"levelo://app?vid=d1b1ae6f-562f-42f0-a958-cbc912a1619d"},"vehicle_type_id":"4","last_reported":1752880233,"current_range_meters":6800,"station_id":"ce4bgj92rcd13ifvqbe0","pricing_plan_id":"cebpf4jnsgd1na2vs0mg"},{"bike_id":"28d27c17-e6ca-4cec-aec9-f1f6696b8a12","system_id":"levelo_inurba_marseille","lat":43.29944,"lon":5.43656,"is_reserved":false,"is_disabled":true,"rental_uris":{"android":"levelo://app?vid=28d27c17-e6ca-4cec-aec9-f1f6696b8a12","ios":"levelo://app?vid=28d27c17-e6ca-4cec-aec9-f1f6696b8a12"},"vehicle_type_id":"4","last_reported":1752880233,"current_range_meters":6800,"station_id":"","pricing_plan_id":"cebpf4jnsgd1na2vs0mg"},{"bike_id":"4c594cfe-2ee7-4729-bf86-dfc0339a0971","system_id":"levelo_inurba_marseille","lat":43.30305,"lon":5.39209,"is_reserved":false,"is_disabled":false,"rental_uris":{"android":"levelo://app?vid=4c594cfe-2ee7-4729-bf86-dfc0339a0971","ios":"levelo://app?vid=4c594cfe-2ee7-4729-bf86-dfc0339a0971"},"vehicle_type_id":"4","last_reported":1752880233,"current_range_meters":6400,"station_id":"ce4bgkh2rcd13ifvqbk0","pricing_plan_id":"cebpf4jnsgd1na2vs0mg"},{"bike_id":"4298709f-d90a-45df-8a57-9ba59538e3fc","system_id":"levelo_inurba_marseille","lat":43.2817,"lon":5.40731,"is_reserved":false,"is_disabled":false,"rental_uris":{"android":"levelo://app?vid=4298709f-d90a-45df-8a57-9ba59538e3fc","ios":"levelo://app?vid=4298709f-d90a-45df-8a57-9ba59538e3fc"},"vehicle_type_id":"4","last_reported":1752880233,"current_range_meters":7200,"station_id":"","pricing_plan_id":"cebpf4jnsgd1na2vs0mg"},{"bike_id":"12762a97-3f0f-4ef9-94c7-994e5060df5a","system_id":"levelo_inurba_marseille","lat":43.29956,"lon":5.38483,"is_reserved":false,"is_disabled":false,"rental_uris":{"android":"levelo://app?vid=12762a97-3f0f-4ef9-94c7-994e5060df5a","ios":"levelo://app?vid=12762a97-3f0f-4ef9-94c7-994e5060df5a"},"vehicle_type_id":"4","last_reported":1752880233,"current_range_meters":7200,"station_id":"ce4bgj92rcd13ifvqbd0","pricing_plan_id":"cebpf4jnsgd1na2vs0mg"},{"bike_id":"56d35fb4-c3fa-422a-a14b-9ed987a4f56f","system_id":"levelo_inurba_marseille","lat":43.24813,"lon":5.37428,"is_reserved":false,"is_disabled":true,"rental_uris":{"android":"levelo://app?vid=56d35fb4-c3fa-422a-a14b-9ed987a4f56f","ios":"levelo://app?vid=56d35fb4-c3fa-422a-a14b-9ed987a4f56f"},"vehicle_type_id":"4","last_reported":1752880233,"current_range_meters":8000,"station_id":"ce4bhgh2rcd13ifvqfb0","pricing_plan_id":"cebpf4jnsgd1na2vs0mg"},{"bike_id":"f897316b-05ba-46b0-b0d4-12469937bce4","system_id":"levelo_inurba_marseille","lat":43.33022,"lon":5.39049,"is_reserved":false,"is_disabled":false,"rental_uris":{"android":"levelo://app?vid=f897316b-05ba-46b0-b0d4-12469937bce4","ios":"levelo://app?vid=f897316b-05ba-46b0-b0d4-12469937bce4"},"vehicle_type_id":"4","last_reported":1752880233,"current_range_meters":8000,"station_id":"ce4bhr92rcd13ifvqhrg","pricing_plan_id":"cebpf4jnsgd1na2vs0mg"},{"bike_id":"cfab475d-a8f8-485f-9f20-b93205ca9ff8","system_id":"levelo_inurba_marseille","lat":43.28336,"lon":5.38101,"is_reserved":false,"is_disabled":false,"rental_uris":{"android":"levelo://app?vid=cfab475d-a8f8-485f-9f20-b93205ca9ff8","ios":"levelo://app?vid=cfab475d-a8f8-485f-9f20-b93205ca9ff8"},"vehicle_type_id":"4","last_reported":1752880233,"current_range_meters":8000,"station_id":"ce4bh412rcd13ifvqdr0","pricing_plan_id":"cebpf4jnsgd1na2vs0mg"},{"bike_id":"79e00cba-979b-4370-b320-7e4857db9893","system_id":"levelo_inurba_marseille","lat":43.33771,"lon":5.37447,"is_reserved":false,"is_disabled":false,"rental_uris":{"android":"levelo://app?vid=79e00cba-979b-4370-b320-7e4857db9893","ios":"levelo://app?vid=79e00cba-979b-4370-b320-7e4857db9893"},"vehicle_type_id":"4","last_reported":1752880233,"current_range_meters":8400,"station_id":"","pricing_plan_id":"cebpf4jnsgd1na2vs0mg"},{"bike_id":"c230b725-d41f-4ed5-a874-0ab4ebb3240e","system_id":"levelo_inurba_marseille","lat":43.29439,"lon":5.39757,"is_reserved":false,"is_disabled":false,"rental_uris":{"android":"levelo://app?vid=c230b725-d41f-4ed5-a874-0ab4ebb3240e","ios":"levelo://app?vid=c230b725-d41f-4ed5-a874-0ab4ebb3240e"},"vehicle_type_id":"4","last_reported":1752880233,"current_range_meters":8000,"station_id":"ce4bh3h2rcd13ifvqdo0","pricing_plan_id":"cebpf4jnsgd1na2vs0mg"},{"bike_id":"a8319aff-6485-4fd1-94a9-a438594b5b32","system_id":"levelo_inurba_marseille","lat":43.28709,"lon":5.3795,"is_reserved":false,"is_disabled":false,"rental_uris":{"android":"levelo://app?vid=a8319aff-6485-4fd1-94a9-a438594b5b32","ios":"levelo://app?vid=a8319aff-6485-4fd1-94a9-a438594b5b32"},"vehicle_type_id":"4","last_reported":1752880233,"current_range_meters":8400,"station_id":"ce4bh9p2rcd13ifvqec0","pricing_plan_id":"cebpf4jnsgd1na2vs0mg"},{"bike_id":"07f5ae19-0925-43ef-aab4-48ec58bc62b9","system_id":"levelo_inurba_marseille","lat":43.31479,"lon":5.37449,"is_reserved":false,"is_disabled":false,"rental_uris":{"android":"levelo://app?vid=07f5ae19-0925-43ef-aab4-48ec58bc62b9","ios":"levelo://app?vid=07f5ae19-0925-43ef-aab4-48ec58bc62b9"},"vehicle_type_id":"4","last_reported":1752880233,"current_range_meters":8400,"station_id":"","pricing_plan_id":"cebpf4jnsgd1na2vs0mg"},{"bike_id":"de87a538-d387-4c24-9696-fb1b951188eb","system_id":"levelo_inurba_marseille","lat":43.2694,"lon":5.40263,"is_reserved":false,"is_disabled":false,"rental_uris":{"android":"levelo://app?vid=de87a538-d387-4c24-9696-fb1b951188eb","ios":"levelo://app?vid=de87a538-d387-4c24-9696-fb1b951188eb"},"vehicle_type_id":"4","last_reported":1752880233,"current_range_meters":8400,"station_id":"cjm6bp8fraef2m0cb0m0","pricing_plan_id":"cebpf4jnsgd1na2vs0mg"},{"bike_id":"b29b4439-b50e-4dd9-8839-d0b59179f1e7","system_id":"levelo_inurba_marseille","lat":43.26961,"lon":5.38611,"is_reserved":false,"is_disabled":true,"rental_uris":{"android":"levelo://app?vid=b29b4439-b50e-4dd9-8839-d0b59179f1e7","ios":"levelo://app?vid=b29b4439-b50e-4dd9-8839-d0b59179f1e7"},"vehicle_type_id":"4","last_reported":1752880233,"current_range_meters":8800,"station_id":"ce4bhh92rcd13ifvqfh0","pricing_plan_id":"cebpf4jnsgd1na2vs0mg"},{"bike_id":"8a66b07f-1eed-424c-95bb-32b33b24cdca","system_id":"levelo_inurba_marseille","lat":43.28477,"lon":5.3842,"is_reserved":false,"is_disabled":false,"rental_uris":{"android":"levelo://app?vid=8a66b07f-1eed-424c-95bb-32b33b24cdca","ios":"levelo://app?vid=8a66b07f-1eed-424c-95bb-32b33b24cdca"},"vehicle_type_id":"4","last_reported":1752880233,"current_range_meters":8800,"station_id":"ce4bh512rcd13ifvqe3g","pricing_plan_id":"cebpf4jnsgd1na2vs0mg"},{"bike_id":"2ac93549-5c94-4228-8eea-782a21384d10","system_id":"levelo_inurba_marseille","lat":43.29634,"lon":5.37793,"is_reserved":false,"is_disabled":false,"rental_uris":{"android":"levelo://app?vid=2ac93549-5c94-4228-8eea-782a21384d10","ios":"levelo://app?vid=2ac93549-5c94-4228-8eea-782a21384d10"},"vehicle_type_id":"4","last_reported":1752880233,"current_range_meters":8800,"station_id":"","pricing_plan_id":"cebpf4jnsgd1na2vs0mg"},{"bike_id":"5c512656-cb55-4e17-89ea-c883f7f63553","system_id":"levelo_inurba_marseille","lat":43.21748,"lon":5.34607,"is_reserved":false,"is_disabled":true,"rental_uris":{"android":"levelo://app?vid=5c512656-cb55-4e17-89ea-c883f7f63553","ios":"levelo://app?vid=5c512656-cb55-4e17-89ea-c883f7f63553"},"vehicle_type_id":"4","last_reported":1752880233,"current_range_meters":8800,"station_id":"st_cvj6r9ubvosntc0bgbag","pricing_plan_id":"cebpf4jnsgd1na2vs0mg"},{"bike_id":"b567d0b2-9db4-49db-87ad-32402d28c307","system_id":"levelo_inurba_marseille","lat":43.23155,"lon":5.43722,"is_reserved":false,"is_disabled":false,"rental_uris":{"android":"levelo://app?vid=b567d0b2-9db4-49db-87ad-32402d28c307","ios":"levelo://app?vid=b567d0b2-9db4-49db-87ad-32402d28c307"},"vehicle_type_id":"4","last_reported":1752880233,"current_range_meters":8800,"station_id":"ce4bhmp2rcd13ifvqgog","pricing_plan_id":"cebpf4jnsgd1na2vs0mg"},{"bike_id":"da891840-0cec-4ccc-961c-48903736c6fa","system_id":"levelo_inurba_marseille","lat":43.31139,"lon":5.37692,"is_reserved":false,"is_disabled":false,"rental_uris":{"android":"levelo://app?vid=da891840-0cec-4ccc-961c-48903736c6fa","ios":"levelo://app?vid=da891840-0cec-4ccc-961c-48903736c6fa"},"vehicle_type_id":"4","last_reported":1752880233,"current_range_meters":9200,"station_id":"","pricing_plan_id":"cebpf4jnsgd1na2vs0mg"},{"bike_id":"a21af788-3543-4355-b87b-99d973fff7af","system_id":"levelo_inurba_marseille","lat":43.287003,"lon":5.39985,"is_reserved":false,"is_disabled":false,"rental_uris":{"android":"levelo://app?vid=a21af788-3543-4355-b87b-99d973fff7af","ios":"levelo://app?vid=a21af788-3543-4355-b87b-99d973fff7af"},"vehicle_type_id":"4","last_reported":1752880233,"current_range_meters":9200,"station_id":"ce4bho92rcd13ifvqh3g","pricing_plan_id":"cebpf4jnsgd1na2vs0mg"},{"bike_id":"8333e135-74e5-42e9-b49a-4694a2ab0908","system_id":"levelo_inurba_marseille","lat":43.31486,"lon":5.37309,"is_reserved":false,"is_disabled":false,"rental_uris":{"android":"levelo://app?vid=8333e135-74e5-42e9-b49a-4694a2ab0908","ios":"levelo://app?vid=8333e135-74e5-42e9-b49a-4694a2ab0908"},"vehicle_type_id":"4","last_reported":1752880233,"current_range_meters":9200,"station_id":"ce4bgt12rcd13ifvqcd0","pricing_plan_id":"cebpf4jnsgd1na2vs0mg"},{"bike_id":"e555b545-304c-4dce-8496-1643c0f2600e","system_id":"levelo_inurba_marseille","lat":43.337444,"lon":5.374475,"is_reserved":false,"is_disabled":false,"rental_uris":{"android":"levelo://app?vid=e555b545-304c-4dce-8496-1643c0f2600e","ios":"levelo://app?vid=e555b545-304c-4dce-8496-1643c0f2600e"},"vehicle_type_id":"4","last_reported":1752880233,"current_range_meters":9200,"station_id":"","pricing_plan_id":"cebpf4jnsgd1na2vs0mg"},{"bike_id":"8892924e-d57b-4876-a456-0984563689b5","system_id":"levelo_inurba_marseille","lat":43.28616,"lon":5.35105,"is_reserved":false,"is_disabled":false,"rental_uris":{"android":"levelo://app?vid=8892924e-d57b-4876-a456-0984563689b5","ios":"levelo://app?vid=8892924e-d57b-4876-a456-0984563689b5"},"vehicle_type_id":"4","last_reported":1752880233,"current_range_meters":9600,"station_id":"ce4bhch2rcd13ifvqeug","pricing_plan_id":"cebpf4jnsgd1na2vs0mg"},{"bike_id":"1f69d572-83ef-4987-9f64-9cf1ee3009af","system_id":"levelo_inurba_marseille","lat":43.27492,"lon":5.42455,"is_reserved":false,"is_disabled":false,"rental_uris":{"android":"levelo://app?vid=1f69d572-83ef-4987-9f64-9cf1ee3009af","ios":"levelo://app?vid=1f69d572-83ef-4987-9f64-9cf1ee3009af"},"vehicle_type_id":"4","last_reported":1752880233,"current_range_meters":9600,"station_id":"ce4bhn92rcd13ifvqgrg","pricing_plan_id":"cebpf4jnsgd1na2vs0mg"},{"bike_id":"35c5e64a-45e1-45dc-95df-b5b79c8c9e7a","system_id":"levelo_inurba_marseille","lat":43.295985,"lon":5.380875,"is_reserved":false,"is_disabled":false,"rental_uris":{"android":"levelo://app?vid=35c5e64a-45e1-45dc-95df-b5b79c8c9e7a","ios":"levelo://app?vid=35c5e64a-45e1-45dc-95df-b5b79c8c9e7a"},"vehicle_type_id":"4","last_reported":1752880233,"current_range_meters":9600,"station_id":"ce4bgl12rcd13ifvqbo0","pricing_plan_id":"cebpf4jnsgd1na2vs0mg"},{"bike_id":"537df271-1e3d-4ffc-ad70-ada379266803","system_id":"levelo_inurba_marseille","lat":43.21723,"lon":5.34583,"is_reserved":false,"is_disabled":false,"rental_uris":{"android":"levelo://app?vid=537df271-1e3d-4ffc-ad70-ada379266803","ios":"levelo://app?vid=537df271-1e3d-4ffc-ad70-ada379266803"},"vehicle_type_id":"4","last_reported":1752880233,"current_range_meters":10000,"station_id":"st_cvj6r9ubvosntc0bgbag","pricing_plan_id":"cebpf4jnsgd1na2vs0mg"},{"bike_id":"a198bfec-3db2-402f-a311-e1361c0d3e2b","system_id":"levelo_inurba_marseille","lat":43.28107,"lon":5.37851,"is_reserved":false,"is_disabled":false,"rental_uris":{"android":"levelo://app?vid=a198bfec-3db2-402f-a311-e1361c0d3e2b","ios":"levelo://app?vid=a198bfec-3db2-402f-a311-e1361c0d3e2b"},"vehicle_type_id":"4","last_reported":1752880233,"current_range_meters":10000,"station_id":"ce4bha12rcd13ifvqee0","pricing_plan_id":"cebpf4jnsgd1na2vs0mg"},{"bike_id":"b18457b6-b744-4542-873e-ebb7266cf94f","system_id":"levelo_inurba_marseille","lat":43.28605,"lon":5.37068,"is_reserved":false,"is_disabled":false,"rental_uris":{"android":"levelo://app?vid=b18457b6-b744-4542-873e-ebb7266cf94f","ios":"levelo://app?vid=b18457b6-b744-4542-873e-ebb7266cf94f"},"vehicle_type_id":"4","last_reported":1752880233,"current_range_meters":10000,"station_id":"ce4bht12rcd13ifvqi60","pricing_plan_id":"cebpf4jnsgd1na2vs0mg"},{"bike_id":"792c6d19-d2aa-43d0-ba46-67942c12daaa","system_id":"levelo_inurba_marseille","lat":43.2861,"lon":5.37067,"is_reserved":false,"is_disabled":false,"rental_uris":{"android":"levelo://app?vid=792c6d19-d2aa-43d0-ba46-67942c12daaa","ios":"levelo://app?vid=792c6d19-d2aa-43d0-ba46-67942c12daaa"},"vehicle_type_id":"4","last_reported":1752880233,"current_range_meters":10000,"station_id":"ce4bht12rcd13ifvqi60","pricing_plan_id":"cebpf4jnsgd1na2vs0mg"},{"bike_id":"521b5d7b-bedd-4857-9fd9-65a61ce95fa1","system_id":"levelo_inurba_marseille","lat":43.29579,"lon":5.36747,"is_reserved":false,"is_disabled":false,"rental_uris":{"android":"levelo://app?vid=521b5d7b-bedd-4857-9fd9-65a61ce95fa1","ios":"levelo://app?vid=521b5d7b-bedd-4857-9fd9-65a61ce95fa1"},"vehicle_type_id":"4","last_reported":1752880233,"current_range_meters":9600,"station_id":"ce4bgph2rcd13ifvqc2g","pricing_plan_id":"cebpf4jnsgd1na2vs0mg"},{"bike_id":"44bf74f9-0a90-4bf5-bc27-21dada9d010a","system_id":"levelo_inurba_marseille","lat":43.29175,"lon":5.39329,"is_reserved":false,"is_disabled":false,"rental_uris":{"android":"levelo://app?vid=44bf74f9-0a90-4bf5-bc27-21dada9d010a","ios":"levelo://app?vid=44bf74f9-0a90-4bf5-bc27-21dada9d010a"},"vehicle_type_id":"4","last_reported":1752880233,"current_range_meters":10800,"station_id":"ce4bh192rcd13ifvqdd0","pricing_plan_id":"cebpf4jnsgd1na2vs0mg"},{"bike_id":"24acb9a1-74ee-4907-b7e4-ab985796556b","system_id":"levelo_inurba_marseille","lat":43.31109,"lon":5.37766,"is_reserved":false,"is_disabled":false,"rental_uris":{"android":"levelo://app?vid=24acb9a1-74ee-4907-b7e4-ab985796556b","ios":"levelo://app?vid=24acb9a1-74ee-4907-b7e4-ab985796556b"},"vehicle_type_id":"4","last_reported":1752880233,"current_range_meters":10800,"station_id":"ce4bgt92rcd13ifvqcg0","pricing_plan_id":"cebpf4jnsgd1na2vs0mg"},{"bike_id":"2d95b47d-d06f-40a4-bb6e-c13e954e3c8f","system_id":"levelo_inurba_marseille","lat":43.27722,"lon":5.41411,"is_reserved":false,"is_disabled":false,"rental_uris":{"android":"levelo://app?vid=2d95b47d-d06f-40a4-bb6e-c13e954e3c8f","ios":"levelo://app?vid=2d95b47d-d06f-40a4-bb6e-c13e954e3c8f"},"vehicle_type_id":"4","last_reported":1752880233,"current_range_meters":10800,"station_id":"","pricing_plan_id":"cebpf4jnsgd1na2vs0mg"},{"bike_id":"010beabc-e898-4f36-9cbf-d2287e69157b","system_id":"levelo_inurba_marseille","lat":43.27807,"lon":5.39216,"is_reserved":false,"is_disabled":false,"rental_uris":{"android":"levelo://app?vid=010beabc-e898-4f36-9cbf-d2287e69157b","ios":"levelo://app?vid=010beabc-e898-4f36-9cbf-d2287e69157b"},"vehicle_type_id":"4","last_reported":1752880233,"current_range_meters":10800,"station_id":"","pricing_plan_id":"cebpf4jnsgd1na2vs0mg"},{"bike_id":"ece726c3-b512-4bfd-81ee-a3b6d1a7cb1d","system_id":"levelo_inurba_marseille","lat":43.32109,"lon":5.3677,"is_reserved":false,"is_disabled":false,"rental_uris":{"android":"levelo://app?vid=ece726c3-b512-4bfd-81ee-a3b6d1a7cb1d","ios":"levelo://app?vid=ece726c3-b512-4bfd-81ee-a3b6d1a7cb1d"},"vehicle_type_id":"4","last_reported":1752880233,"current_range_meters":10800,"station_id":"ce4bhrh2rcd13ifvqhug","pricing_plan_id":"cebpf4jnsgd1na2vs0mg"},{"bike_id":"ade6b85c-6a6c-4230-abc0-6dc967d7d481","system_id":"levelo_inurba_marseille","lat":43.29276,"lon":5.40159,"is_reserved":false,"is_disabled":false,"rental_uris":{"android":"levelo://app?vid=ade6b85c-6a6c-4230-abc0-6dc967d7d481","ios":"levelo://app?vid=ade6b85c-6a6c-4230-abc0-6dc967d7d481"},"vehicle_type_id":"4","last_reported":1752880233,"current_range_meters":10800,"station_id":"ce4bh312rcd13ifvqdk0","pricing_plan_id":"cebpf4jnsgd1na2vs0mg"},{"bike_id":"2f88eef4-0b12-467e-8b09-dc19c5289260","system_id":"levelo_inurba_marseille","lat":43.30298,"lon":5.36902,"is_reserved":false,"is_disabled":false,"rental_uris":{"android":"levelo://app?vid=2f88eef4-0b12-467e-8b09-dc19c5289260","ios":"levelo://app?vid=2f88eef4-0b12-467e-8b09-dc19c5289260"},"vehicle_type_id":"4","last_reported":1752880233,"current_range_meters":11200,"station_id":"ce4bgqh2rcd13ifvqc5g","pricing_plan_id":"cebpf4jnsgd1na2vs0mg"},{"bike_id":"b004baab-db70-453e-84a5-9312df4bd1d6","system_id":"levelo_inurba_marseille","lat":43.22508,"lon":5.34777,"is_reserved":false,"is_disabled":false,"rental_uris":{"android":"levelo://app?vid=b004baab-db70-453e-84a5-9312df4bd1d6","ios":"levelo://app?vid=b004baab-db70-453e-84a5-9312df4bd1d6"},"vehicle_type_id":"4","last_reported":1752880233,"current_range_meters":11200,"station_id":"st_cvj5dfep6f1abm77gieg","pricing_plan_id":"cebpf4jnsgd1na2vs0mg"},{"bike_id":"29c44405-5852-4d48-a871-a9bc5e60ce4b","system_id":"levelo_inurba_marseille","lat":43.286687,"lon":5.386547,"is_reserved":false,"is_disabled":true,"rental_uris":{"android":"levelo://app?vid=29c44405-5852-4d48-a871-a9bc5e60ce4b","ios":"levelo://app?vid=29c44405-5852-4d48-a871-a9bc5e60ce4b"},"vehicle_type_id":"4","last_reported":1752880233,"current_range_meters":11200,"station_id":"ce4bh492rcd13ifvqdug","pricing_plan_id":"cebpf4jnsgd1na2vs0mg"},{"bike_id":"6061dbff-7b35-4acc-ad32-6fbefd304293","system_id":"levelo_inurba_marseille","lat":43.25124,"lon":5.40316,"is_reserved":false,"is_disabled":false,"rental_uris":{"android":"levelo://app?vid=6061dbff-7b35-4acc-ad32-6fbefd304293","ios":"levelo://app?vid=6061dbff-7b35-4acc-ad32-6fbefd304293"},"vehicle_type_id":"4","last_reported":1752880233,"current_range_meters":10800,"station_id":"ce4bhlh2rcd13ifvqgig","pricing_plan_id":"cebpf4jnsgd1na2vs0mg"},{"bike_id":"ce7bd25b-5213-4881-a28b-f582e6a1d712","system_id":"levelo_inurba_marseille","lat":43.3134,"lon":5.36746,"is_reserved":false,"is_disabled":true,"rental_uris":{"android":"levelo://app?vid=ce7bd25b-5213-4881-a28b-f582e6a1d712","ios":"levelo://app?vid=ce7bd25b-5213-4881-a28b-f582e6a1d712"},"vehicle_type_id":"4","last_reported":1752880233,"current_range_meters":11200,"station_id":"ce4bgr92rcd13ifvqc6g","pricing_plan_id":"cebpf4jnsgd1na2vs0mg"},{"bike_id":"4dd02715-0aa1-486a-a4d8-01f96f8c7a72","system_id":"levelo_inurba_marseille","lat":43.28151,"lon":5.426373,"is_reserved":false,"is_disabled":false,"rental_uris":{"android":"levelo://app?vid=4dd02715-0aa1-486a-a4d8-01f96f8c7a72","ios":"levelo://app?vid=4dd02715-0aa1-486a-a4d8-01f96f8c7a72"},"vehicle_type_id":"4","last_reported":1752880233,"current_range_meters":11600,"station_id":"ce4bhnh2rcd13ifvqgug","pricing_plan_id":"cebpf4jnsgd1na2vs0mg"},{"bike_id":"5ac93e7c-286a-4c1e-b6c0-4e9963e5a9f8","system_id":"levelo_inurba_marseille","lat":43.2119,"lon":5.350719,"is_reserved":false,"is_disabled":false,"rental_uris":{"android":"levelo://app?vid=5ac93e7c-286a-4c1e-b6c0-4e9963e5a9f8","ios":"levelo://app?vid=5ac93e7c-286a-4c1e-b6c0-4e9963e5a9f8"},"vehicle_type_id":"4","last_reported":1752880233,"current_range_meters":11600,"station_id":"st_cvj6sg6p6f1abm77japg","pricing_plan_id":"cebpf4jnsgd1na2vs0mg"},{"bike_id":"c6db0f6a-96fe-4e1d-8ded-c2ef38c9bab4","system_id":"levelo_inurba_marseille","lat":43.305688,"lon":5.418387,"is_reserved":false,"is_disabled":true,"rental_uris":{"android":"levelo://app?vid=c6db0f6a-96fe-4e1d-8ded-c2ef38c9bab4","ios":"levelo://app?vid=c6db0f6a-96fe-4e1d-8ded-c2ef38c9bab4"},"vehicle_type_id":"4","last_reported":1752880233,"current_range_meters":12000,"station_id":"ce4bht12rcd13ifvqi60","pricing_plan_id":"cebpf4jnsgd1na2vs0mg"},{"bike_id":"44e3950e-1f4d-48c2-a783-f62e7f394407","system_id":"levelo_inurba_marseille","lat":43.32049,"lon":5.41551,"is_reserved":false,"is_disabled":false,"rental_uris":{"android":"levelo://app?vid=44e3950e-1f4d-48c2-a783-f62e7f394407","ios":"levelo://app?vid=44e3950e-1f4d-48c2-a783-f62e7f394407"},"vehicle_type_id":"4","last_reported":1752880233,"current_range_meters":12000,"station_id":"ce4bhq92rcd13ifvqhkg","pricing_plan_id":"cebpf4jnsgd1na2vs0mg"},{"bike_id":"fd5491f9-40f8-453d-a9e7-e7f270eeba7a","system_id":"levelo_inurba_marseille","lat":43.248,"lon":5.37457,"is_reserved":false,"is_disabled":true,"rental_uris":{"android":"levelo://app?vid=fd5491f9-40f8-453d-a9e7-e7f270eeba7a","ios":"levelo://app?vid=fd5491f9-40f8-453d-a9e7-e7f270eeba7a"},"vehicle_type_id":"4","last_reported":1752880233,"current_range_meters":12000,"station_id":"ce4bhgh2rcd13ifvqfb0","pricing_plan_id":"cebpf4jnsgd1na2vs0mg"},{"bike_id":"4607398c-5481-406b-ba58-548c4b76f331","system_id":"levelo_inurba_marseille","lat":43.271854,"lon":5.362776,"is_reserved":false,"is_disabled":false,"rental_uris":{"android":"levelo://app?vid=4607398c-5481-406b-ba58-548c4b76f331","ios":"levelo://app?vid=4607398c-5481-406b-ba58-548c4b76f331"},"vehicle_type_id":"4","last_reported":1752880233,"current_range_meters":12000,"station_id":"","pricing_plan_id":"cebpf4jnsgd1na2vs0mg"},{"bike_id":"35965273-4af4-457c-87a3-4f7523a4ce80","system_id":"levelo_inurba_marseille","lat":43.29,"lon":5.35614,"is_reserved":false,"is_disabled":true,"rental_uris":{"android":"levelo://app?vid=35965273-4af4-457c-87a3-4f7523a4ce80","ios":"levelo://app?vid=35965273-4af4-457c-87a3-4f7523a4ce80"},"vehicle_type_id":"4","last_reported":1752880233,"current_range_meters":12000,"station_id":"ce4bhb92rcd13ifvqen0","pricing_plan_id":"cebpf4jnsgd1na2vs0mg"},{"bike_id":"be60c88c-1453-4626-be80-200258f79626","system_id":"levelo_inurba_marseille","lat":43.231917,"lon":5.355495,"is_reserved":false,"is_disabled":false,"rental_uris":{"android":"levelo://app?vid=be60c88c-1453-4626-be80-200258f79626","ios":"levelo://app?vid=be60c88c-1453-4626-be80-200258f79626"},"vehicle_type_id":"4","last_reported":1752880233,"current_range_meters":12000,"station_id":"ce4bhu92rcd13ifvqi70","pricing_plan_id":"cebpf4jnsgd1na2vs0mg"},{"bike_id":"287e0ac8-da97-4c85-b9ee-064398354cd7","system_id":"levelo_inurba_marseille","lat":43.31118,"lon":5.37774,"is_reserved":false,"is_disabled":false,"rental_uris":{"android":"levelo://app?vid=287e0ac8-da97-4c85-b9ee-064398354cd7","ios":"levelo://app?vid=287e0ac8-da97-4c85-b9ee-064398354cd7"},"vehicle_type_id":"4","last_reported":1752880233,"current_range_meters":12000,"station_id":"ce4bgt92rcd13ifvqcg0","pricing_plan_id":"cebpf4jnsgd1na2vs0mg"},{"bike_id":"514a2618-38ad-417b-9509-3bafb6563917","system_id":"levelo_inurba_marseille","lat":43.28364,"lon":5.3863,"is_reserved":false,"is_disabled":false,"rental_uris":{"android":"levelo://app?vid=514a2618-38ad-417b-9509-3bafb6563917","ios":"levelo://app?vid=514a2618-38ad-417b-9509-3bafb6563917"},"vehicle_type_id":"4","last_reported":1752880233,"current_range_meters":12000,"station_id":"ce4bh492rcd13ifvqdvg","pricing_plan_id":"cebpf4jnsgd1na2vs0mg"},{"bike_id":"cfb52d04-9134-4c86-8269-771716b20f27","system_id":"levelo_inurba_marseille","lat":43.21194,"lon":5.35077,"is_reserved":false,"is_disabled":false,"rental_uris":{"android":"levelo://app?vid=cfb52d04-9134-4c86-8269-771716b20f27","ios":"levelo://app?vid=cfb52d04-9134-4c86-8269-771716b20f27"},"vehicle_type_id":"4","last_reported":1752880233,"current_range_meters":12400,"station_id":"st_cvj6sg6p6f1abm77japg","pricing_plan_id":"cebpf4jnsgd1na2vs0mg"},{"bike_id":"7e0aae74-f6d2-462d-b53d-75099732eba5","system_id":"levelo_inurba_marseille","lat":43.29528,"lon":5.39399,"is_reserved":false,"is_disabled":false,"rental_uris":{"android":"levelo://app?vid=7e0aae74-f6d2-462d-b53d-75099732eba5","ios":"levelo://app?vid=7e0aae74-f6d2-462d-b53d-75099732eba5"},"vehicle_type_id":"4","last_reported":1752880233,"current_range_meters":12800,"station_id":"ce4bh292rcd13ifvqdf0","pricing_plan_id":"cebpf4jnsgd1na2vs0mg"},{"bike_id":"9b58d54a-2602-4c00-b935-a9b429cafcdb","system_id":"levelo_inurba_marseille","lat":43.29873,"lon":5.39723,"is_reserved":false,"is_disabled":false,"rental_uris":{"android":"levelo://app?vid=9b58d54a-2602-4c00-b935-a9b429cafcdb","ios":"levelo://app?vid=9b58d54a-2602-4c00-b935-a9b429cafcdb"},"vehicle_type_id":"4","last_reported":1752880233,"current_range_meters":12800,"station_id":"ce4bh0h2rcd13ifvqd50","pricing_plan_id":"cebpf4jnsgd1na2vs0mg"},{"bike_id":"c3ac509c-e93b-452a-bc2a-82079aaa6a85","system_id":"levelo_inurba_marseille","lat":43.30598,"lon":5.40436,"is_reserved":false,"is_disabled":false,"rental_uris":{"android":"levelo://app?vid=c3ac509c-e93b-452a-bc2a-82079aaa6a85","ios":"levelo://app?vid=c3ac509c-e93b-452a-bc2a-82079aaa6a85"},"vehicle_type_id":"4","last_reported":1752880233,"current_range_meters":12800,"station_id":"","pricing_plan_id":"cebpf4jnsgd1na2vs0mg"},{"bike_id":"29cbae27-fcd7-44c8-bc3b-5541d49bf43f","system_id":"levelo_inurba_marseille","lat":43.28154,"lon":5.42642,"is_reserved":false,"is_disabled":false,"rental_uris":{"android":"levelo://app?vid=29cbae27-fcd7-44c8-bc3b-5541d49bf43f","ios":"levelo://app?vid=29cbae27-fcd7-44c8-bc3b-5541d49bf43f"},"vehicle_type_id":"4","last_reported":1752880233,"current_range_meters":12800,"station_id":"ce4bhnh2rcd13ifvqgug","pricing_plan_id":"cebpf4jnsgd1na2vs0mg"},{"bike_id":"0b250332-c99a-4726-ac2a-74deb04ffed3","system_id":"levelo_inurba_marseille","lat":43.279242,"lon":5.395712,"is_reserved":false,"is_disabled":true,"rental_uris":{"android":"levelo://app?vid=0b250332-c99a-4726-ac2a-74deb04ffed3","ios":"levelo://app?vid=0b250332-c99a-4726-ac2a-74deb04ffed3"},"vehicle_type_id":"4","last_reported":1752880233,"current_range_meters":12800,"station_id":"ce4bhf92rcd13ifvqf40","pricing_plan_id":"cebpf4jnsgd1na2vs0mg"},{"bike_id":"57a30f0b-84eb-4b98-8989-8d3c02b43bf0","system_id":"levelo_inurba_marseille","lat":43.28605,"lon":5.37081,"is_reserved":false,"is_disabled":false,"rental_uris":{"android":"levelo://app?vid=57a30f0b-84eb-4b98-8989-8d3c02b43bf0","ios":"levelo://app?vid=57a30f0b-84eb-4b98-8989-8d3c02b43bf0"},"vehicle_type_id":"4","last_reported":1752880233,"current_range_meters":12800,"station_id":"ce4bht12rcd13ifvqi60","pricing_plan_id":"cebpf4jnsgd1na2vs0mg"},{"bike_id":"69d3f137-4dd7-4a32-bc5c-571e1585d8bc","system_id":"levelo_inurba_marseille","lat":43.31714,"lon":5.37758,"is_reserved":false,"is_disabled":false,"rental_uris":{"android":"levelo://app?vid=69d3f137-4dd7-4a32-bc5c-571e1585d8bc","ios":"levelo://app?vid=69d3f137-4dd7-4a32-bc5c-571e1585d8bc"},"vehicle_type_id":"4","last_reported":1752880233,"current_range_meters":11200,"station_id":"ce4bgth2rcd13ifvqch0","pricing_plan_id":"cebpf4jnsgd1na2vs0mg"},{"bike_id":"b7fe52dd-f025-4212-9e78-19e7f6f09593","system_id":"levelo_inurba_marseille","lat":43.21156,"lon":5.35059,"is_reserved":false,"is_disabled":false,"rental_uris":{"android":"levelo://app?vid=b7fe52dd-f025-4212-9e78-19e7f6f09593","ios":"levelo://app?vid=b7fe52dd-f025-4212-9e78-19e7f6f09593"},"vehicle_type_id":"4","last_reported":1752880233,"current_range_meters":12800,"station_id":"st_cvj6sg6p6f1abm77japg","pricing_plan_id":"cebpf4jnsgd1na2vs0mg"},{"bike_id":"70a3940c-c40a-4ef4-8e48-8b68d4968bc7","system_id":"levelo_inurba_marseille","lat":43.23957,"lon":5.3663,"is_reserved":false,"is_disabled":true,"rental_uris":{"android":"levelo://app?vid=70a3940c-c40a-4ef4-8e48-8b68d4968bc7","ios":"levelo://app?vid=70a3940c-c40a-4ef4-8e48-8b68d4968bc7"},"vehicle_type_id":"4","last_reported":1752880233,"current_range_meters":13600,"station_id":"ce4bhi12rcd13ifvqfp0","pricing_plan_id":"cebpf4jnsgd1na2vs0mg"},{"bike_id":"c50a074c-aa80-4a16-bd32-c3dfb5ca56c3","system_id":"levelo_inurba_marseille","lat":43.29482,"lon":5.39176,"is_reserved":false,"is_disabled":false,"rental_uris":{"android":"levelo://app?vid=c50a074c-aa80-4a16-bd32-c3dfb5ca56c3","ios":"levelo://app?vid=c50a074c-aa80-4a16-bd32-c3dfb5ca56c3"},"vehicle_type_id":"4","last_reported":1752880233,"current_range_meters":13600,"station_id":"","pricing_plan_id":"cebpf4jnsgd1na2vs0mg"},{"bike_id":"5c4076b8-9986-49e6-8585-ff973d19b505","system_id":"levelo_inurba_marseille","lat":43.31369,"lon":5.38494,"is_reserved":false,"is_disabled":false,"rental_uris":{"android":"levelo://app?vid=5c4076b8-9986-49e6-8585-ff973d19b505","ios":"levelo://app?vid=5c4076b8-9986-49e6-8585-ff973d19b505"},"vehicle_type_id":"4","last_reported":1752880233,"current_range_meters":13600,"station_id":"ce4bgt92rcd13ifvqcf0","pricing_plan_id":"cebpf4jnsgd1na2vs0mg"},{"bike_id":"3ebc732e-f92a-48e3-a5ef-60ae7a769a8a","system_id":"levelo_inurba_marseille","lat":43.29715,"lon":5.37717,"is_reserved":false,"is_disabled":false,"rental_uris":{"android":"levelo://app?vid=3ebc732e-f92a-48e3-a5ef-60ae7a769a8a","ios":"levelo://app?vid=3ebc732e-f92a-48e3-a5ef-60ae7a769a8a"},"vehicle_type_id":"4","last_reported":1752880233,"current_range_meters":12800,"station_id":"ce4bgkh2rcd13ifvqbl0","pricing_plan_id":"cebpf4jnsgd1na2vs0mg"},{"bike_id":"a67156ae-789e-45f5-ab3f-ed7d95b24540","system_id":"levelo_inurba_marseille","lat":43.211911,"lon":5.350711,"is_reserved":false,"is_disabled":false,"rental_uris":{"android":"levelo://app?vid=a67156ae-789e-45f5-ab3f-ed7d95b24540","ios":"levelo://app?vid=a67156ae-789e-45f5-ab3f-ed7d95b24540"},"vehicle_type_id":"4","last_reported":1752880233,"current_range_meters":13600,"station_id":"st_cvj6sg6p6f1abm77japg","pricing_plan_id":"cebpf4jnsgd1na2vs0mg"},{"bike_id":"3814635e-c316-4110-8601-0b3bc41ad6bc","system_id":"levelo_inurba_marseille","lat":43.31123,"lon":5.37756,"is_reserved":false,"is_disabled":false,"rental_uris":{"android":"levelo://app?vid=3814635e-c316-4110-8601-0b3bc41ad6bc","ios":"levelo://app?vid=3814635e-c316-4110-8601-0b3bc41ad6bc"},"vehicle_type_id":"4","last_reported":1752880233,"current_range_meters":14000,"station_id":"ce4bgt92rcd13ifvqcg0","pricing_plan_id":"cebpf4jnsgd1na2vs0mg"},{"bike_id":"af6fdea6-c101-416b-877b-51604dc8b140","system_id":"levelo_inurba_marseille","lat":43.30323,"lon":5.40446,"is_reserved":false,"is_disabled":false,"rental_uris":{"android":"levelo://app?vid=af6fdea6-c101-416b-877b-51604dc8b140","ios":"levelo://app?vid=af6fdea6-c101-416b-877b-51604dc8b140"},"vehicle_type_id":"4","last_reported":1752880233,"current_range_meters":14000,"station_id":"ce4bh012rcd13ifvqd10","pricing_plan_id":"cebpf4jnsgd1na2vs0mg"},{"bike_id":"ac0ed4be-466c-4caa-b855-3c6bbe5a11b5","system_id":"levelo_inurba_marseille","lat":43.26753,"lon":5.37187,"is_reserved":false,"is_disabled":false,"rental_uris":{"android":"levelo://app?vid=ac0ed4be-466c-4caa-b855-3c6bbe5a11b5","ios":"levelo://app?vid=ac0ed4be-466c-4caa-b855-3c6bbe5a11b5"},"vehicle_type_id":"4","last_reported":1752880233,"current_range_meters":14000,"station_id":"","pricing_plan_id":"cebpf4jnsgd1na2vs0mg"},{"bike_id":"e571b882-1b31-481a-9f98-8ab8eeeef29c","system_id":"levelo_inurba_marseille","lat":43.286984,"lon":5.374004,"is_reserved":false,"is_disabled":false,"rental_uris":{"android":"levelo://app?vid=e571b882-1b31-481a-9f98-8ab8eeeef29c","ios":"levelo://app?vid=e571b882-1b31-481a-9f98-8ab8eeeef29c"},"vehicle_type_id":"4","last_reported":1752880233,"current_range_meters":14000,"station_id":"ce4bh3p2rcd13ifvqdq0","pricing_plan_id":"cebpf4jnsgd1na2vs0mg"},{"bike_id":"0dae2f6b-f1bd-438b-8bb0-cdbd38ad2295","system_id":"levelo_inurba_marseille","lat":43.317649,"lon":5.426208,"is_reserved":false,"is_disabled":false,"rental_uris":{"android":"levelo://app?vid=0dae2f6b-f1bd-438b-8bb0-cdbd38ad2295","ios":"levelo://app?vid=0dae2f6b-f1bd-438b-8bb0-cdbd38ad2295"},"vehicle_type_id":"4","last_reported":1752880233,"current_range_meters":14000,"station_id":"ce4bhp92rcd13ifvqhbg","pricing_plan_id":"cebpf4jnsgd1na2vs0mg"},{"bike_id":"edd0079d-996b-4ae3-9a31-d781f3a059ec","system_id":"levelo_inurba_marseille","lat":43.33786,"lon":5.37426,"is_reserved":false,"is_disabled":false,"rental_uris":{"android":"levelo://app?vid=edd0079d-996b-4ae3-9a31-d781f3a059ec","ios":"levelo://app?vid=edd0079d-996b-4ae3-9a31-d781f3a059ec"},"vehicle_type_id":"4","last_reported":1752880233,"current_range_meters":14000,"station_id":"","pricing_plan_id":"cebpf4jnsgd1na2vs0mg"},{"bike_id":"ec2b2fdf-c717-4d0d-a5a1-388d9260ccf0","system_id":"levelo_inurba_marseille","lat":43.28154,"lon":5.42644,"is_reserved":false,"is_disabled":false,"rental_uris":{"android":"levelo://app?vid=ec2b2fdf-c717-4d0d-a5a1-388d9260ccf0","ios":"levelo://app?vid=ec2b2fdf-c717-4d0d-a5a1-388d9260ccf0"},"vehicle_type_id":"4","last_reported":1752880233,"current_range_meters":14400,"station_id":"ce4bhnh2rcd13ifvqgug","pricing_plan_id":"cebpf4jnsgd1na2vs0mg"},{"bike_id":"5ed7e33c-75eb-4f80-9ced-f5eee5190af4","system_id":"levelo_inurba_marseille","lat":43.29562,"lon":5.42256,"is_reserved":false,"is_disabled":false,"rental_uris":{"android":"levelo://app?vid=5ed7e33c-75eb-4f80-9ced-f5eee5190af4","ios":"levelo://app?vid=5ed7e33c-75eb-4f80-9ced-f5eee5190af4"},"vehicle_type_id":"4","last_reported":1752880233,"current_range_meters":14400,"station_id":"ce4bhph2rcd13ifvqhdg","pricing_plan_id":"cebpf4jnsgd1na2vs0mg"},{"bike_id":"1dc34a01-2678-4e18-a488-204011082480","system_id":"levelo_inurba_marseille","lat":43.33622,"lon":5.41008,"is_reserved":false,"is_disabled":false,"rental_uris":{"android":"levelo://app?vid=1dc34a01-2678-4e18-a488-204011082480","ios":"levelo://app?vid=1dc34a01-2678-4e18-a488-204011082480"},"vehicle_type_id":"4","last_reported":1752880233,"current_range_meters":14400,"station_id":"ce4bhqh2rcd13ifvqhmg","pricing_plan_id":"cebpf4jnsgd1na2vs0mg"},{"bike_id":"0ffec689-ea73-4886-a8a8-e9075fc0366f","system_id":"levelo_inurba_marseille","lat":43.307284,"lon":5.424548,"is_reserved":false,"is_disabled":true,"rental_uris":{"android":"levelo://app?vid=0ffec689-ea73-4886-a8a8-e9075fc0366f","ios":"levelo://app?vid=0ffec689-ea73-4886-a8a8-e9075fc0366f"},"vehicle_type_id":"4","last_reported":1752880233,"current_range_meters":14400,"station_id":"st_cvj6ca6bvosntc0bfgr0","pricing_plan_id":"cebpf4jnsgd1na2vs0mg"},{"bike_id":"681cd0d0-b831-4718-9845-c51fdebb055e","system_id":"levelo_inurba_marseille","lat":43.29923,"lon":5.3746,"is_reserved":false,"is_disabled":false,"rental_uris":{"android":"levelo://app?vid=681cd0d0-b831-4718-9845-c51fdebb055e","ios":"levelo://app?vid=681cd0d0-b831-4718-9845-c51fdebb055e"},"vehicle_type_id":"4","last_reported":1752880233,"current_range_meters":14000,"station_id":"ce4bgjh2rcd13ifvqbg0","pricing_plan_id":"cebpf4jnsgd1na2vs0mg"},{"bike_id":"8e79a85b-71cd-44e2-9769-4ad285ff7c49","system_id":"levelo_inurba_marseille","lat":43.217469,"lon":5.346215,"is_reserved":false,"is_disabled":false,"rental_uris":{"android":"levelo://app?vid=8e79a85b-71cd-44e2-9769-4ad285ff7c49","ios":"levelo://app?vid=8e79a85b-71cd-44e2-9769-4ad285ff7c49"},"vehicle_type_id":"4","last_reported":1752880233,"current_range_meters":14400,"station_id":"st_cvj6r9ubvosntc0bgbag","pricing_plan_id":"cebpf4jnsgd1na2vs0mg"},{"bike_id":"9d26a0e8-52a9-4afd-8a23-859b3c0d8c1a","system_id":"levelo_inurba_marseille","lat":43.28708,"lon":5.39993,"is_reserved":false,"is_disabled":false,"rental_uris":{"android":"levelo://app?vid=9d26a0e8-52a9-4afd-8a23-859b3c0d8c1a","ios":"levelo://app?vid=9d26a0e8-52a9-4afd-8a23-859b3c0d8c1a"},"vehicle_type_id":"4","last_reported":1752880233,"current_range_meters":14400,"station_id":"ce4bho92rcd13ifvqh3g","pricing_plan_id":"cebpf4jnsgd1na2vs0mg"},{"bike_id":"2fd3d782-24a7-42a3-b248-8e69e5a88f8a","system_id":"levelo_inurba_marseille","lat":43.31681,"lon":5.40522,"is_reserved":false,"is_disabled":false,"rental_uris":{"android":"levelo://app?vid=2fd3d782-24a7-42a3-b248-8e69e5a88f8a","ios":"levelo://app?vid=2fd3d782-24a7-42a3-b248-8e69e5a88f8a"},"vehicle_type_id":"4","last_reported":1752880233,"current_range_meters":14400,"station_id":"ce4bh012rcd13ifvqd00","pricing_plan_id":"cebpf4jnsgd1na2vs0mg"},{"bike_id":"3dbe5912-b178-4d6a-b0a5-780c833ee7fa","system_id":"levelo_inurba_marseille","lat":43.29051,"lon":5.35582,"is_reserved":false,"is_disabled":false,"rental_uris":{"android":"levelo://app?vid=3dbe5912-b178-4d6a-b0a5-780c833ee7fa","ios":"levelo://app?vid=3dbe5912-b178-4d6a-b0a5-780c833ee7fa"},"vehicle_type_id":"4","last_reported":1752880233,"current_range_meters":14800,"station_id":"","pricing_plan_id":"cebpf4jnsgd1na2vs0mg"},{"bike_id":"ad304634-9a2a-4a85-8df4-3e8bc84ab0fb","system_id":"levelo_inurba_marseille","lat":43.30254,"lon":5.40077,"is_reserved":false,"is_disabled":false,"rental_uris":{"android":"levelo://app?vid=ad304634-9a2a-4a85-8df4-3e8bc84ab0fb","ios":"levelo://app?vid=ad304634-9a2a-4a85-8df4-3e8bc84ab0fb"},"vehicle_type_id":"4","last_reported":1752880233,"current_range_meters":14800,"station_id":"ce4bgvh2rcd13ifvqcs0","pricing_plan_id":"cebpf4jnsgd1na2vs0mg"},{"bike_id":"f0a743aa-cf31-40d6-a2da-4c347c01cabe","system_id":"levelo_inurba_marseille","lat":43.29579,"lon":5.36752,"is_reserved":false,"is_disabled":false,"rental_uris":{"android":"levelo://app?vid=f0a743aa-cf31-40d6-a2da-4c347c01cabe","ios":"levelo://app?vid=f0a743aa-cf31-40d6-a2da-4c347c01cabe"},"vehicle_type_id":"4","last_reported":1752880233,"current_range_meters":14400,"station_id":"ce4bgph2rcd13ifvqc2g","pricing_plan_id":"cebpf4jnsgd1na2vs0mg"},{"bike_id":"e3a07c16-1459-476d-926e-4b7b0c49fbb9","system_id":"levelo_inurba_marseille","lat":43.265507,"lon":5.372924,"is_reserved":false,"is_disabled":false,"rental_uris":{"android":"levelo://app?vid=e3a07c16-1459-476d-926e-4b7b0c49fbb9","ios":"levelo://app?vid=e3a07c16-1459-476d-926e-4b7b0c49fbb9"},"vehicle_type_id":"4","last_reported":1752880233,"current_range_meters":14800,"station_id":"ce4bhg12rcd13ifvqf70","pricing_plan_id":"cebpf4jnsgd1na2vs0mg"},{"bike_id":"08a94e68-7279-4c26-9ca7-7cd2e2f2fe4c","system_id":"levelo_inurba_marseille","lat":43.24171,"lon":5.3637,"is_reserved":false,"is_disabled":true,"rental_uris":{"android":"levelo://app?vid=08a94e68-7279-4c26-9ca7-7cd2e2f2fe4c","ios":"levelo://app?vid=08a94e68-7279-4c26-9ca7-7cd2e2f2fe4c"},"vehicle_type_id":"4","last_reported":1752880233,"current_range_meters":14800,"station_id":"cpo36qri1sfpv3e86is0","pricing_plan_id":"cebpf4jnsgd1na2vs0mg"},{"bike_id":"89388cd0-57f4-44ac-a107-97aed21ad33d","system_id":"levelo_inurba_marseille","lat":43.28717,"lon":5.37941,"is_reserved":false,"is_disabled":false,"rental_uris":{"android":"levelo://app?vid=89388cd0-57f4-44ac-a107-97aed21ad33d","ios":"levelo://app?vid=89388cd0-57f4-44ac-a107-97aed21ad33d"},"vehicle_type_id":"4","last_reported":1752880233,"current_range_meters":14800,"station_id":"ce4bh9p2rcd13ifvqec0","pricing_plan_id":"cebpf4jnsgd1na2vs0mg"},{"bike_id":"454aaeb2-199f-47fa-a9b0-a67206cd14cf","system_id":"levelo_inurba_marseille","lat":43.29383,"lon":5.38558,"is_reserved":false,"is_disabled":false,"rental_uris":{"android":"levelo://app?vid=454aaeb2-199f-47fa-a9b0-a67206cd14cf","ios":"levelo://app?vid=454aaeb2-199f-47fa-a9b0-a67206cd14cf"},"vehicle_type_id":"4","last_reported":1752880233,"current_range_meters":14800,"station_id":"","pricing_plan_id":"cebpf4jnsgd1na2vs0mg"},{"bike_id":"782021d6-37ef-4fe1-8e48-2f487b2e357c","system_id":"levelo_inurba_marseille","lat":43.2656,"lon":5.39043,"is_reserved":false,"is_disabled":false,"rental_uris":{"android":"levelo://app?vid=782021d6-37ef-4fe1-8e48-2f487b2e357c","ios":"levelo://app?vid=782021d6-37ef-4fe1-8e48-2f487b2e357c"},"vehicle_type_id":"4","last_reported":1752880233,"current_range_meters":14800,"station_id":"ce4bhe12rcd13ifvqf30","pricing_plan_id":"cebpf4jnsgd1na2vs0mg"},{"bike_id":"859628bb-a028-4272-a625-b9ebc6757b53","system_id":"levelo_inurba_marseille","lat":43.28702,"lon":5.37385,"is_reserved":false,"is_disabled":false,"rental_uris":{"android":"levelo://app?vid=859628bb-a028-4272-a625-b9ebc6757b53","ios":"levelo://app?vid=859628bb-a028-4272-a625-b9ebc6757b53"},"vehicle_type_id":"4","last_reported":1752880233,"current_range_meters":15200,"station_id":"ce4bh3p2rcd13ifvqdq0","pricing_plan_id":"cebpf4jnsgd1na2vs0mg"},{"bike_id":"66b835d3-4d3b-46cc-b87d-f568c8bdd416","system_id":"levelo_inurba_marseille","lat":43.29425,"lon":5.38591,"is_reserved":false,"is_disabled":false,"rental_uris":{"android":"levelo://app?vid=66b835d3-4d3b-46cc-b87d-f568c8bdd416","ios":"levelo://app?vid=66b835d3-4d3b-46cc-b87d-f568c8bdd416"},"vehicle_type_id":"4","last_reported":1752880233,"current_range_meters":15200,"station_id":"ce4bh2h2rcd13ifvqdh0","pricing_plan_id":"cebpf4jnsgd1na2vs0mg"},{"bike_id":"45536d09-a761-4003-b448-085ce4d52cfb","system_id":"levelo_inurba_marseille","lat":43.33612,"lon":5.41036,"is_reserved":false,"is_disabled":false,"rental_uris":{"android":"levelo://app?vid=45536d09-a761-4003-b448-085ce4d52cfb","ios":"levelo://app?vid=45536d09-a761-4003-b448-085ce4d52cfb"},"vehicle_type_id":"4","last_reported":1752880233,"current_range_meters":14800,"station_id":"ce4bhqh2rcd13ifvqhmg","pricing_plan_id":"cebpf4jnsgd1na2vs0mg"},{"bike_id":"11a10c3e-2518-452e-9534-fe8c7d8faf7f","system_id":"levelo_inurba_marseille","lat":43.24769,"lon":5.41194,"is_reserved":false,"is_disabled":false,"rental_uris":{"android":"levelo://app?vid=11a10c3e-2518-452e-9534-fe8c7d8faf7f","ios":"levelo://app?vid=11a10c3e-2518-452e-9534-fe8c7d8faf7f"},"vehicle_type_id":"4","last_reported":1752880233,"current_range_meters":15200,"station_id":"","pricing_plan_id":"cebpf4jnsgd1na2vs0mg"},{"bike_id":"262bba80-9a85-4074-97aa-225c3aedc3b7","system_id":"levelo_inurba_marseille","lat":43.30653,"lon":5.40103,"is_reserved":false,"is_disabled":true,"rental_uris":{"android":"levelo://app?vid=262bba80-9a85-4074-97aa-225c3aedc3b7","ios":"levelo://app?vid=262bba80-9a85-4074-97aa-225c3aedc3b7"},"vehicle_type_id":"4","last_reported":1752880233,"current_range_meters":15200,"station_id":"ce4bh112rcd13ifvqda0","pricing_plan_id":"cebpf4jnsgd1na2vs0mg"},{"bike_id":"3440effd-0c20-499a-8b33-630b70093c8c","system_id":"levelo_inurba_marseille","lat":43.28715,"lon":5.37937,"is_reserved":false,"is_disabled":false,"rental_uris":{"android":"levelo://app?vid=3440effd-0c20-499a-8b33-630b70093c8c","ios":"levelo://app?vid=3440effd-0c20-499a-8b33-630b70093c8c"},"vehicle_type_id":"4","last_reported":1752880233,"current_range_meters":15200,"station_id":"ce4bh9p2rcd13ifvqec0","pricing_plan_id":"cebpf4jnsgd1na2vs0mg"},{"bike_id":"1a794689-0399-4bd8-871c-778f85fe0438","system_id":"levelo_inurba_marseille","lat":43.27501,"lon":5.42457,"is_reserved":false,"is_disabled":false,"rental_uris":{"android":"levelo://app?vid=1a794689-0399-4bd8-871c-778f85fe0438","ios":"levelo://app?vid=1a794689-0399-4bd8-871c-778f85fe0438"},"vehicle_type_id":"4","last_reported":1752880233,"current_range_meters":15200,"station_id":"ce4bhn92rcd13ifvqgrg","pricing_plan_id":"cebpf4jnsgd1na2vs0mg"},{"bike_id":"31ce5e9c-04fe-46ac-8221-cc9c8885ab79","system_id":"levelo_inurba_marseille","lat":43.32334,"lon":5.4062,"is_reserved":false,"is_disabled":false,"rental_uris":{"android":"levelo://app?vid=31ce5e9c-04fe-46ac-8221-cc9c8885ab79","ios":"levelo://app?vid=31ce5e9c-04fe-46ac-8221-cc9c8885ab79"},"vehicle_type_id":"4","last_reported":1752880233,"current_range_meters":15200,"station_id":"ce4bhq92rcd13ifvqhjg","pricing_plan_id":"cebpf4jnsgd1na2vs0mg"},{"bike_id":"52c89ba3-24fd-4f63-9660-f947b4cece79","system_id":"levelo_inurba_marseille","lat":43.310656,"lon":5.37902,"is_reserved":false,"is_disabled":false,"rental_uris":{"android":"levelo://app?vid=52c89ba3-24fd-4f63-9660-f947b4cece79","ios":"levelo://app?vid=52c89ba3-24fd-4f63-9660-f947b4cece79"},"vehicle_type_id":"4","last_reported":1752880233,"current_range_meters":15200,"station_id":"","pricing_plan_id":"cebpf4jnsgd1na2vs0mg"},{"bike_id":"380d9762-7aa7-482d-9fc2-515ae61b009c","system_id":"levelo_inurba_marseille","lat":43.24074,"lon":5.37761,"is_reserved":false,"is_disabled":false,"rental_uris":{"android":"levelo://app?vid=380d9762-7aa7-482d-9fc2-515ae61b009c","ios":"levelo://app?vid=380d9762-7aa7-482d-9fc2-515ae61b009c"},"vehicle_type_id":"4","last_reported":1752880233,"current_range_meters":16000,"station_id":"ce4bhnp2rcd13ifvqgvg","pricing_plan_id":"cebpf4jnsgd1na2vs0mg"},{"bike_id":"e6ed5a81-2a33-4c37-a36e-2bb390f1a720","system_id":"levelo_inurba_marseille","lat":43.27595,"lon":5.36094,"is_reserved":false,"is_disabled":false,"rental_uris":{"android":"levelo://app?vid=e6ed5a81-2a33-4c37-a36e-2bb390f1a720","ios":"levelo://app?vid=e6ed5a81-2a33-4c37-a36e-2bb390f1a720"},"vehicle_type_id":"4","last_reported":1752880233,"current_range_meters":16000,"station_id":"ce4bgj92rcd13ifvqbe0","pricing_plan_id":"cebpf4jnsgd1na2vs0mg"},{"bike_id":"0e3e9a19-a32e-45e2-bce2-fa6c5fad95bf","system_id":"levelo_inurba_marseille","lat":43.31062,"lon":5.38348,"is_reserved":false,"is_disabled":false,"rental_uris":{"android":"levelo://app?vid=0e3e9a19-a32e-45e2-bce2-fa6c5fad95bf","ios":"levelo://app?vid=0e3e9a19-a32e-45e2-bce2-fa6c5fad95bf"},"vehicle_type_id":"4","last_reported":1752880233,"current_range_meters":16000,"station_id":"ce4bgv92rcd13ifvqcr0","pricing_plan_id":"cebpf4jnsgd1na2vs0mg"},{"bike_id":"bde5442b-2fd8-41b7-bd46-e8f10eead3f0","system_id":"levelo_inurba_marseille","lat":43.32337,"lon":5.40625,"is_reserved":false,"is_disabled":false,"rental_uris":{"android":"levelo://app?vid=bde5442b-2fd8-41b7-bd46-e8f10eead3f0","ios":"levelo://app?vid=bde5442b-2fd8-41b7-bd46-e8f10eead3f0"},"vehicle_type_id":"4","last_reported":1752880233,"current_range_meters":16000,"station_id":"ce4bhq92rcd13ifvqhjg","pricing_plan_id":"cebpf4jnsgd1na2vs0mg"},{"bike_id":"90f1924f-336d-4405-b5b1-03dcfd5afe7c","system_id":"levelo_inurba_marseille","lat":43.27838,"lon":5.38504,"is_reserved":false,"is_disabled":false,"rental_uris":{"android":"levelo://app?vid=90f1924f-336d-4405-b5b1-03dcfd5afe7c","ios":"levelo://app?vid=90f1924f-336d-4405-b5b1-03dcfd5afe7c"},"vehicle_type_id":"4","last_reported":1752880233,"current_range_meters":16000,"station_id":"","pricing_plan_id":"cebpf4jnsgd1na2vs0mg"},{"bike_id":"6db09128-6d4d-4eb5-b434-77aa98e2af7c","system_id":"levelo_inurba_marseille","lat":43.30293,"lon":5.3922,"is_reserved":false,"is_disabled":false,"rental_uris":{"android":"levelo://app?vid=6db09128-6d4d-4eb5-b434-77aa98e2af7c","ios":"levelo://app?vid=6db09128-6d4d-4eb5-b434-77aa98e2af7c"},"vehicle_type_id":"4","last_reported":1752880233,"current_range_meters":15200,"station_id":"ce4bgkh2rcd13ifvqbk0","pricing_plan_id":"cebpf4jnsgd1na2vs0mg"},{"bike_id":"6e7fdf49-e424-46c1-b02b-628c0ea0e41b","system_id":"levelo_inurba_marseille","lat":43.26192,"lon":5.37462,"is_reserved":false,"is_disabled":false,"rental_uris":{"android":"levelo://app?vid=6e7fdf49-e424-46c1-b02b-628c0ea0e41b","ios":"levelo://app?vid=6e7fdf49-e424-46c1-b02b-628c0ea0e41b"},"vehicle_type_id":"4","last_reported":1752880233,"current_range_meters":16000,"station_id":"ce4bhgp2rcd13ifvqfc0","pricing_plan_id":"cebpf4jnsgd1na2vs0mg"},{"bike_id":"0916292f-c60f-4ec2-a3c5-bb862cec8507","system_id":"levelo_inurba_marseille","lat":43.23199,"lon":5.35547,"is_reserved":false,"is_disabled":false,"rental_uris":{"android":"levelo://app?vid=0916292f-c60f-4ec2-a3c5-bb862cec8507","ios":"levelo://app?vid=0916292f-c60f-4ec2-a3c5-bb862cec8507"},"vehicle_type_id":"4","last_reported":1752880233,"current_range_meters":16000,"station_id":"ce4bhu92rcd13ifvqi70","pricing_plan_id":"cebpf4jnsgd1na2vs0mg"},{"bike_id":"72a3b625-bcde-4999-bcc0-77c2faefae2f","system_id":"levelo_inurba_marseille","lat":43.29527,"lon":5.38549,"is_reserved":false,"is_disabled":false,"rental_uris":{"android":"levelo://app?vid=72a3b625-bcde-4999-bcc0-77c2faefae2f","ios":"levelo://app?vid=72a3b625-bcde-4999-bcc0-77c2faefae2f"},"vehicle_type_id":"4","last_reported":1752880233,"current_range_meters":16000,"station_id":"ce4bgih2rcd13ifvqba0","pricing_plan_id":"cebpf4jnsgd1na2vs0mg"},{"bike_id":"94c07cb2-0943-4d24-99f2-97bdab47aa3f","system_id":"levelo_inurba_marseille","lat":43.337444,"lon":5.374475,"is_reserved":false,"is_disabled":false,"rental_uris":{"android":"levelo://app?vid=94c07cb2-0943-4d24-99f2-97bdab47aa3f","ios":"levelo://app?vid=94c07cb2-0943-4d24-99f2-97bdab47aa3f"},"vehicle_type_id":"4","last_reported":1752880233,"current_range_meters":16000,"station_id":"","pricing_plan_id":"cebpf4jnsgd1na2vs0mg"},{"bike_id":"7f02cd16-abf2-40a4-97c2-19dc0dd97d66","system_id":"levelo_inurba_marseille","lat":43.26225,"lon":5.4044,"is_reserved":false,"is_disabled":false,"rental_uris":{"android":"levelo://app?vid=7f02cd16-abf2-40a4-97c2-19dc0dd97d66","ios":"levelo://app?vid=7f02cd16-abf2-40a4-97c2-19dc0dd97d66"},"vehicle_type_id":"4","last_reported":1752880233,"current_range_meters":16400,"station_id":"ce4bhmh2rcd13ifvqgmg","pricing_plan_id":"cebpf4jnsgd1na2vs0mg"},{"bike_id":"afc91c81-7042-4270-a28e-07e325ae83c9","system_id":"levelo_inurba_marseille","lat":43.21196,"lon":5.35075,"is_reserved":false,"is_disabled":false,"rental_uris":{"android":"levelo://app?vid=afc91c81-7042-4270-a28e-07e325ae83c9","ios":"levelo://app?vid=afc91c81-7042-4270-a28e-07e325ae83c9"},"vehicle_type_id":"4","last_reported":1752880233,"current_range_meters":16400,"station_id":"st_cvj6sg6p6f1abm77japg","pricing_plan_id":"cebpf4jnsgd1na2vs0mg"},{"bike_id":"221a8f03-67cb-485b-8573-9abcf816d5d5","system_id":"levelo_inurba_marseille","lat":43.29868,"lon":5.39734,"is_reserved":false,"is_disabled":false,"rental_uris":{"android":"levelo://app?vid=221a8f03-67cb-485b-8573-9abcf816d5d5","ios":"levelo://app?vid=221a8f03-67cb-485b-8573-9abcf816d5d5"},"vehicle_type_id":"4","last_reported":1752880233,"current_range_meters":16400,"station_id":"","pricing_plan_id":"cebpf4jnsgd1na2vs0mg"},{"bike_id":"524a6576-8d33-4edc-a399-b075b65b725f","system_id":"levelo_inurba_marseille","lat":43.28676,"lon":5.38659,"is_reserved":false,"is_disabled":false,"rental_uris":{"android":"levelo://app?vid=524a6576-8d33-4edc-a399-b075b65b725f","ios":"levelo://app?vid=524a6576-8d33-4edc-a399-b075b65b725f"},"vehicle_type_id":"4","last_reported":1752880233,"current_range_meters":16400,"station_id":"ce4bh492rcd13ifvqdug","pricing_plan_id":"cebpf4jnsgd1na2vs0mg"},{"bike_id":"83a58fe8-eeff-4a92-856b-d25c4e809f7b","system_id":"levelo_inurba_marseille","lat":43.26031,"lon":5.37555,"is_reserved":false,"is_disabled":false,"rental_uris":{"android":"levelo://app?vid=83a58fe8-eeff-4a92-856b-d25c4e809f7b","ios":"levelo://app?vid=83a58fe8-eeff-4a92-856b-d25c4e809f7b"},"vehicle_type_id":"4","last_reported":1752880233,"current_range_meters":16400,"station_id":"ce4bhgh2rcd13ifvqfa0","pricing_plan_id":"cebpf4jnsgd1na2vs0mg"},{"bike_id":"1c65db9b-7e95-4eda-ac4e-54644c454b87","system_id":"levelo_inurba_marseille","lat":43.29592,"lon":5.381,"is_reserved":false,"is_disabled":false,"rental_uris":{"android":"levelo://app?vid=1c65db9b-7e95-4eda-ac4e-54644c454b87","ios":"levelo://app?vid=1c65db9b-7e95-4eda-ac4e-54644c454b87"},"vehicle_type_id":"4","last_reported":1752880233,"current_range_meters":16400,"station_id":"ce4bgl12rcd13ifvqbo0","pricing_plan_id":"cebpf4jnsgd1na2vs0mg"},{"bike_id":"552f10ae-ebe9-4a43-9161-2070e2842bf6","system_id":"levelo_inurba_marseille","lat":43.32328,"lon":5.40625,"is_reserved":false,"is_disabled":false,"rental_uris":{"android":"levelo://app?vid=552f10ae-ebe9-4a43-9161-2070e2842bf6","ios":"levelo://app?vid=552f10ae-ebe9-4a43-9161-2070e2842bf6"},"vehicle_type_id":"4","last_reported":1752880233,"current_range_meters":16400,"station_id":"ce4bhq92rcd13ifvqhjg","pricing_plan_id":"cebpf4jnsgd1na2vs0mg"},{"bike_id":"d5cf0ddb-4301-4e01-9253-a4393d968d0a","system_id":"levelo_inurba_marseille","lat":43.22508,"lon":5.34786,"is_reserved":false,"is_disabled":false,"rental_uris":{"android":"levelo://app?vid=d5cf0ddb-4301-4e01-9253-a4393d968d0a","ios":"levelo://app?vid=d5cf0ddb-4301-4e01-9253-a4393d968d0a"},"vehicle_type_id":"4","last_reported":1752880233,"current_range_meters":16800,"station_id":"st_cvj5dfep6f1abm77gieg","pricing_plan_id":"cebpf4jnsgd1na2vs0mg"},{"bike_id":"fff4d289-c22a-4360-81e4-7dd92b57f142","system_id":"levelo_inurba_marseille","lat":43.23195,"lon":5.35554,"is_reserved":false,"is_disabled":false,"rental_uris":{"android":"levelo://app?vid=fff4d289-c22a-4360-81e4-7dd92b57f142","ios":"levelo://app?vid=fff4d289-c22a-4360-81e4-7dd92b57f142"},"vehicle_type_id":"4","last_reported":1752880233,"current_range_meters":16800,"station_id":"ce4bhu92rcd13ifvqi70","pricing_plan_id":"cebpf4jnsgd1na2vs0mg"},{"bike_id":"9e944c0d-2dd7-4c1a-b131-d5121e0f348e","system_id":"levelo_inurba_marseille","lat":43.31068,"lon":5.38342,"is_reserved":false,"is_disabled":false,"rental_uris":{"android":"levelo://app?vid=9e944c0d-2dd7-4c1a-b131-d5121e0f348e","ios":"levelo://app?vid=9e944c0d-2dd7-4c1a-b131-d5121e0f348e"},"vehicle_type_id":"4","last_reported":1752880233,"current_range_meters":16800,"station_id":"ce4bgv92rcd13ifvqcr0","pricing_plan_id":"cebpf4jnsgd1na2vs0mg"},{"bike_id":"a2d76383-0d2d-400c-ba35-35dd456ac496","system_id":"levelo_inurba_marseille","lat":43.26468,"lon":5.39573,"is_reserved":false,"is_disabled":false,"rental_uris":{"android":"levelo://app?vid=a2d76383-0d2d-400c-ba35-35dd456ac496","ios":"levelo://app?vid=a2d76383-0d2d-400c-ba35-35dd456ac496"},"vehicle_type_id":"4","last_reported":1752880233,"current_range_meters":16800,"station_id":"ce4bhi12rcd13ifvqfq0","pricing_plan_id":"cebpf4jnsgd1na2vs0mg"},{"bike_id":"e7184304-2571-4324-a17d-f339f53cb33e","system_id":"levelo_inurba_marseille","lat":43.27928,"lon":5.41039,"is_reserved":false,"is_disabled":true,"rental_uris":{"android":"levelo://app?vid=e7184304-2571-4324-a17d-f339f53cb33e","ios":"levelo://app?vid=e7184304-2571-4324-a17d-f339f53cb33e"},"vehicle_type_id":"4","last_reported":1752880233,"current_range_meters":16800,"station_id":"ce4bhnp2rcd13ifvqh0g","pricing_plan_id":"cebpf4jnsgd1na2vs0mg"},{"bike_id":"b970126c-c1c3-439a-8880-44ad88bd90cf","system_id":"levelo_inurba_marseille","lat":43.32115,"lon":5.3677,"is_reserved":false,"is_disabled":false,"rental_uris":{"android":"levelo://app?vid=b970126c-c1c3-439a-8880-44ad88bd90cf","ios":"levelo://app?vid=b970126c-c1c3-439a-8880-44ad88bd90cf"},"vehicle_type_id":"4","last_reported":1752880233,"current_range_meters":16800,"station_id":"ce4bhrh2rcd13ifvqhug","pricing_plan_id":"cebpf4jnsgd1na2vs0mg"},{"bike_id":"cd5a9591-6e46-4776-8003-ff3824872e9f","system_id":"levelo_inurba_marseille","lat":43.29,"lon":5.35615,"is_reserved":false,"is_disabled":true,"rental_uris":{"android":"levelo://app?vid=cd5a9591-6e46-4776-8003-ff3824872e9f","ios":"levelo://app?vid=cd5a9591-6e46-4776-8003-ff3824872e9f"},"vehicle_type_id":"4","last_reported":1752880233,"current_range_meters":16800,"station_id":"ce4bhb92rcd13ifvqen0","pricing_plan_id":"cebpf4jnsgd1na2vs0mg"},{"bike_id":"7360b2c1-827d-4a45-ba07-948ef7d2fc35","system_id":"levelo_inurba_marseille","lat":43.229295,"lon":5.353761,"is_reserved":false,"is_disabled":false,"rental_uris":{"android":"levelo://app?vid=7360b2c1-827d-4a45-ba07-948ef7d2fc35","ios":"levelo://app?vid=7360b2c1-827d-4a45-ba07-948ef7d2fc35"},"vehicle_type_id":"4","last_reported":1752880233,"current_range_meters":16800,"station_id":"","pricing_plan_id":"cebpf4jnsgd1na2vs0mg"},{"bike_id":"0bd1c369-58ad-4872-b48a-611756bac434","system_id":"levelo_inurba_marseille","lat":43.29526,"lon":5.3854,"is_reserved":false,"is_disabled":false,"rental_uris":{"android":"levelo://app?vid=0bd1c369-58ad-4872-b48a-611756bac434","ios":"levelo://app?vid=0bd1c369-58ad-4872-b48a-611756bac434"},"vehicle_type_id":"4","last_reported":1752880233,"current_range_meters":16800,"station_id":"ce4bgih2rcd13ifvqba0","pricing_plan_id":"cebpf4jnsgd1na2vs0mg"},{"bike_id":"6f18ab1b-0c74-47b1-bed8-837677176207","system_id":"levelo_inurba_marseille","lat":43.31454,"lon":5.40323,"is_reserved":false,"is_disabled":false,"rental_uris":{"android":"levelo://app?vid=6f18ab1b-0c74-47b1-bed8-837677176207","ios":"levelo://app?vid=6f18ab1b-0c74-47b1-bed8-837677176207"},"vehicle_type_id":"4","last_reported":1752880233,"current_range_meters":17200,"station_id":"","pricing_plan_id":"cebpf4jnsgd1na2vs0mg"},{"bike_id":"96579d04-b9e9-484c-9b9a-af500e5e8552","system_id":"levelo_inurba_marseille","lat":43.3268,"lon":5.36394,"is_reserved":false,"is_disabled":false,"rental_uris":{"android":"levelo://app?vid=96579d04-b9e9-484c-9b9a-af500e5e8552","ios":"levelo://app?vid=96579d04-b9e9-484c-9b9a-af500e5e8552"},"vehicle_type_id":"4","last_reported":1752880233,"current_range_meters":16800,"station_id":"","pricing_plan_id":"cebpf4jnsgd1na2vs0mg"},{"bike_id":"b7f96c45-a300-4f35-b4a9-3c09c88cf0cd","system_id":"levelo_inurba_marseille","lat":43.29512,"lon":5.39038,"is_reserved":false,"is_disabled":false,"rental_uris":{"android":"levelo://app?vid=b7f96c45-a300-4f35-b4a9-3c09c88cf0cd","ios":"levelo://app?vid=b7f96c45-a300-4f35-b4a9-3c09c88cf0cd"},"vehicle_type_id":"4","last_reported":1752880233,"current_range_meters":16800,"station_id":"ce4bh3p2rcd13ifvqdp0","pricing_plan_id":"cebpf4jnsgd1na2vs0mg"},{"bike_id":"9805b6be-e321-4a0a-8e9d-cc6a3a4a94bc","system_id":"levelo_inurba_marseille","lat":43.28725,"lon":5.40023,"is_reserved":false,"is_disabled":false,"rental_uris":{"android":"levelo://app?vid=9805b6be-e321-4a0a-8e9d-cc6a3a4a94bc","ios":"levelo://app?vid=9805b6be-e321-4a0a-8e9d-cc6a3a4a94bc"},"vehicle_type_id":"4","last_reported":1752880233,"current_range_meters":16800,"station_id":"ce4bho92rcd13ifvqh3g","pricing_plan_id":"cebpf4jnsgd1na2vs0mg"},{"bike_id":"f9f7ee83-39ae-4757-8ebe-f558eef3800a","system_id":"levelo_inurba_marseille","lat":43.28467,"lon":5.35887,"is_reserved":false,"is_disabled":false,"rental_uris":{"android":"levelo://app?vid=f9f7ee83-39ae-4757-8ebe-f558eef3800a","ios":"levelo://app?vid=f9f7ee83-39ae-4757-8ebe-f558eef3800a"},"vehicle_type_id":"4","last_reported":1752880233,"current_range_meters":17200,"station_id":"ce4bhah2rcd13ifvqei0","pricing_plan_id":"cebpf4jnsgd1na2vs0mg"},{"bike_id":"c8e10a84-8673-4319-8137-00e890df4628","system_id":"levelo_inurba_marseille","lat":43.29788,"lon":5.39337,"is_reserved":false,"is_disabled":false,"rental_uris":{"android":"levelo://app?vid=c8e10a84-8673-4319-8137-00e890df4628","ios":"levelo://app?vid=c8e10a84-8673-4319-8137-00e890df4628"},"vehicle_type_id":"4","last_reported":1752880233,"current_range_meters":17200,"station_id":"chh1huq6cuj3fo74tm60","pricing_plan_id":"cebpf4jnsgd1na2vs0mg"},{"bike_id":"468b083c-3762-4d9d-9df7-37fee0d08873","system_id":"levelo_inurba_marseille","lat":43.31398,"lon":5.38515,"is_reserved":false,"is_disabled":false,"rental_uris":{"android":"levelo://app?vid=468b083c-3762-4d9d-9df7-37fee0d08873","ios":"levelo://app?vid=468b083c-3762-4d9d-9df7-37fee0d08873"},"vehicle_type_id":"4","last_reported":1752880233,"current_range_meters":17200,"station_id":"","pricing_plan_id":"cebpf4jnsgd1na2vs0mg"},{"bike_id":"cb7b541b-4aa0-476b-ac1b-c83b6acaa65d","system_id":"levelo_inurba_marseille","lat":43.24156,"lon":5.36404,"is_reserved":false,"is_disabled":false,"rental_uris":{"android":"levelo://app?vid=cb7b541b-4aa0-476b-ac1b-c83b6acaa65d","ios":"levelo://app?vid=cb7b541b-4aa0-476b-ac1b-c83b6acaa65d"},"vehicle_type_id":"4","last_reported":1752880233,"current_range_meters":17200,"station_id":"cpo36qri1sfpv3e86is0","pricing_plan_id":"cebpf4jnsgd1na2vs0mg"},{"bike_id":"2e73ca94-9293-404b-9207-03d0f48ea2b6","system_id":"levelo_inurba_marseille","lat":43.29872,"lon":5.39736,"is_reserved":false,"is_disabled":false,"rental_uris":{"android":"levelo://app?vid=2e73ca94-9293-404b-9207-03d0f48ea2b6","ios":"levelo://app?vid=2e73ca94-9293-404b-9207-03d0f48ea2b6"},"vehicle_type_id":"4","last_reported":1752880233,"current_range_meters":17200,"station_id":"ce4bh0h2rcd13ifvqd50","pricing_plan_id":"cebpf4jnsgd1na2vs0mg"},{"bike_id":"b8434eb2-ee50-4c0a-a41d-ac7f4412fe04","system_id":"levelo_inurba_marseille","lat":43.28942,"lon":5.38391,"is_reserved":false,"is_disabled":false,"rental_uris":{"android":"levelo://app?vid=b8434eb2-ee50-4c0a-a41d-ac7f4412fe04","ios":"levelo://app?vid=b8434eb2-ee50-4c0a-a41d-ac7f4412fe04"},"vehicle_type_id":"4","last_reported":1752880233,"current_range_meters":17200,"station_id":"ce4bh612rcd13ifvqe6g","pricing_plan_id":"cebpf4jnsgd1na2vs0mg"},{"bike_id":"681466f0-b3ed-4f33-8427-279f0d403529","system_id":"levelo_inurba_marseille","lat":43.255766,"lon":5.382357,"is_reserved":false,"is_disabled":false,"rental_uris":{"android":"levelo://app?vid=681466f0-b3ed-4f33-8427-279f0d403529","ios":"levelo://app?vid=681466f0-b3ed-4f33-8427-279f0d403529"},"vehicle_type_id":"4","last_reported":1752880233,"current_range_meters":17200,"station_id":"ce4bhih2rcd13ifvqfs0","pricing_plan_id":"cebpf4jnsgd1na2vs0mg"},{"bike_id":"63544c20-a54b-4b9a-8d7a-43dd4c48cc49","system_id":"levelo_inurba_marseille","lat":43.28103,"lon":5.37839,"is_reserved":false,"is_disabled":false,"rental_uris":{"android":"levelo://app?vid=63544c20-a54b-4b9a-8d7a-43dd4c48cc49","ios":"levelo://app?vid=63544c20-a54b-4b9a-8d7a-43dd4c48cc49"},"vehicle_type_id":"4","last_reported":1752880233,"current_range_meters":17200,"station_id":"ce4bha12rcd13ifvqee0","pricing_plan_id":"cebpf4jnsgd1na2vs0mg"},{"bike_id":"94384395-6746-44d0-8207-c06965f79dc0","system_id":"levelo_inurba_marseille","lat":43.33565,"lon":5.40991,"is_reserved":false,"is_disabled":false,"rental_uris":{"android":"levelo://app?vid=94384395-6746-44d0-8207-c06965f79dc0","ios":"levelo://app?vid=94384395-6746-44d0-8207-c06965f79dc0"},"vehicle_type_id":"4","last_reported":1752880233,"current_range_meters":17200,"station_id":"","pricing_plan_id":"cebpf4jnsgd1na2vs0mg"},{"bike_id":"9eee562f-c74b-4c1a-8fa0-1792764207de","system_id":"levelo_inurba_marseille","lat":43.25498,"lon":5.37652,"is_reserved":false,"is_disabled":true,"rental_uris":{"android":"levelo://app?vid=9eee562f-c74b-4c1a-8fa0-1792764207de","ios":"levelo://app?vid=9eee562f-c74b-4c1a-8fa0-1792764207de"},"vehicle_type_id":"4","last_reported":1752880233,"current_range_meters":17600,"station_id":"ce4bhh12rcd13ifvqff0","pricing_plan_id":"cebpf4jnsgd1na2vs0mg"},{"bike_id":"11342935-5a92-4c88-b8f2-92ebce078e64","system_id":"levelo_inurba_marseille","lat":43.29536,"lon":5.38546,"is_reserved":false,"is_disabled":false,"rental_uris":{"android":"levelo://app?vid=11342935-5a92-4c88-b8f2-92ebce078e64","ios":"levelo://app?vid=11342935-5a92-4c88-b8f2-92ebce078e64"},"vehicle_type_id":"4","last_reported":1752880233,"current_range_meters":17600,"station_id":"ce4bgih2rcd13ifvqba0","pricing_plan_id":"cebpf4jnsgd1na2vs0mg"},{"bike_id":"d1e9c72e-7489-4052-b944-813b64bc55b4","system_id":"levelo_inurba_marseille","lat":43.31596,"lon":5.38962,"is_reserved":false,"is_disabled":false,"rental_uris":{"android":"levelo://app?vid=d1e9c72e-7489-4052-b944-813b64bc55b4","ios":"levelo://app?vid=d1e9c72e-7489-4052-b944-813b64bc55b4"},"vehicle_type_id":"4","last_reported":1752880233,"current_range_meters":17600,"station_id":"","pricing_plan_id":"cebpf4jnsgd1na2vs0mg"},{"bike_id":"25c5ff19-fef2-474f-83a9-cf6aee639b65","system_id":"levelo_inurba_marseille","lat":43.24809,"lon":5.37457,"is_reserved":false,"is_disabled":false,"rental_uris":{"android":"levelo://app?vid=25c5ff19-fef2-474f-83a9-cf6aee639b65","ios":"levelo://app?vid=25c5ff19-fef2-474f-83a9-cf6aee639b65"},"vehicle_type_id":"4","last_reported":1752880233,"current_range_meters":17600,"station_id":"ce4bhgh2rcd13ifvqfb0","pricing_plan_id":"cebpf4jnsgd1na2vs0mg"},{"bike_id":"e8861550-e2bc-4fc8-b491-0e63a2940858","system_id":"levelo_inurba_marseille","lat":43.32659,"lon":5.4099,"is_reserved":false,"is_disabled":false,"rental_uris":{"android":"levelo://app?vid=e8861550-e2bc-4fc8-b491-0e63a2940858","ios":"levelo://app?vid=e8861550-e2bc-4fc8-b491-0e63a2940858"},"vehicle_type_id":"4","last_reported":1752880233,"current_range_meters":17600,"station_id":"ce4bhpp2rcd13ifvqhgg","pricing_plan_id":"cebpf4jnsgd1na2vs0mg"},{"bike_id":"b5d9ad6d-e11e-44d7-8049-22d1b0858342","system_id":"levelo_inurba_marseille","lat":43.295211,"lon":5.390503,"is_reserved":false,"is_disabled":false,"rental_uris":{"android":"levelo://app?vid=b5d9ad6d-e11e-44d7-8049-22d1b0858342","ios":"levelo://app?vid=b5d9ad6d-e11e-44d7-8049-22d1b0858342"},"vehicle_type_id":"4","last_reported":1752880233,"current_range_meters":18000,"station_id":"ce4bh3p2rcd13ifvqdp0","pricing_plan_id":"cebpf4jnsgd1na2vs0mg"},{"bike_id":"6a157030-de0e-43bf-b121-1c326a6250da","system_id":"levelo_inurba_marseille","lat":43.30311,"lon":5.40458,"is_reserved":false,"is_disabled":false,"rental_uris":{"android":"levelo://app?vid=6a157030-de0e-43bf-b121-1c326a6250da","ios":"levelo://app?vid=6a157030-de0e-43bf-b121-1c326a6250da"},"vehicle_type_id":"4","last_reported":1752880233,"current_range_meters":18000,"station_id":"ce4bh012rcd13ifvqd10","pricing_plan_id":"cebpf4jnsgd1na2vs0mg"},{"bike_id":"dfa94b84-ac88-4a7a-be31-a75037d5303f","system_id":"levelo_inurba_marseille","lat":43.28677,"lon":5.39978,"is_reserved":false,"is_disabled":false,"rental_uris":{"android":"levelo://app?vid=dfa94b84-ac88-4a7a-be31-a75037d5303f","ios":"levelo://app?vid=dfa94b84-ac88-4a7a-be31-a75037d5303f"},"vehicle_type_id":"4","last_reported":1752880233,"current_range_meters":18000,"station_id":"ce4bho92rcd13ifvqh3g","pricing_plan_id":"cebpf4jnsgd1na2vs0mg"},{"bike_id":"273ae268-2e80-4418-9375-377a4be791b2","system_id":"levelo_inurba_marseille","lat":43.29285,"lon":5.40116,"is_reserved":false,"is_disabled":false,"rental_uris":{"android":"levelo://app?vid=273ae268-2e80-4418-9375-377a4be791b2","ios":"levelo://app?vid=273ae268-2e80-4418-9375-377a4be791b2"},"vehicle_type_id":"4","last_reported":1752880233,"current_range_meters":17600,"station_id":"ce4bh312rcd13ifvqdk0","pricing_plan_id":"cebpf4jnsgd1na2vs0mg"},{"bike_id":"807e2e95-8001-494f-a5a4-46d06f839b21","system_id":"levelo_inurba_marseille","lat":43.29877,"lon":5.39725,"is_reserved":false,"is_disabled":false,"rental_uris":{"android":"levelo://app?vid=807e2e95-8001-494f-a5a4-46d06f839b21","ios":"levelo://app?vid=807e2e95-8001-494f-a5a4-46d06f839b21"},"vehicle_type_id":"4","last_reported":1752880233,"current_range_meters":18000,"station_id":"ce4bh0h2rcd13ifvqd50","pricing_plan_id":"cebpf4jnsgd1na2vs0mg"},{"bike_id":"909ff96a-76aa-4e1c-b682-b3361ada4793","system_id":"levelo_inurba_marseille","lat":43.24073,"lon":5.37761,"is_reserved":false,"is_disabled":false,"rental_uris":{"android":"levelo://app?vid=909ff96a-76aa-4e1c-b682-b3361ada4793","ios":"levelo://app?vid=909ff96a-76aa-4e1c-b682-b3361ada4793"},"vehicle_type_id":"4","last_reported":1752880233,"current_range_meters":18000,"station_id":"ce4bhnp2rcd13ifvqgvg","pricing_plan_id":"cebpf4jnsgd1na2vs0mg"},{"bike_id":"f4d50b9f-67c5-4a4e-82cd-5fb34bc9ddef","system_id":"levelo_inurba_marseille","lat":43.25464,"lon":5.38217,"is_reserved":false,"is_disabled":false,"rental_uris":{"android":"levelo://app?vid=f4d50b9f-67c5-4a4e-82cd-5fb34bc9ddef","ios":"levelo://app?vid=f4d50b9f-67c5-4a4e-82cd-5fb34bc9ddef"},"vehicle_type_id":"4","last_reported":1752880233,"current_range_meters":18000,"station_id":"","pricing_plan_id":"cebpf4jnsgd1na2vs0mg"},{"bike_id":"ae514fe1-85ea-4b12-b065-9e5a24663928","system_id":"levelo_inurba_marseille","lat":43.211907,"lon":5.350736,"is_reserved":false,"is_disabled":false,"rental_uris":{"android":"levelo://app?vid=ae514fe1-85ea-4b12-b065-9e5a24663928","ios":"levelo://app?vid=ae514fe1-85ea-4b12-b065-9e5a24663928"},"vehicle_type_id":"4","last_reported":1752880233,"current_range_meters":18000,"station_id":"st_cvj6sg6p6f1abm77japg","pricing_plan_id":"cebpf4jnsgd1na2vs0mg"},{"bike_id":"fdbeb289-adb3-4e25-b0dd-c635efbe92b2","system_id":"levelo_inurba_marseille","lat":43.31685,"lon":5.40483,"is_reserved":false,"is_disabled":false,"rental_uris":{"android":"levelo://app?vid=fdbeb289-adb3-4e25-b0dd-c635efbe92b2","ios":"levelo://app?vid=fdbeb289-adb3-4e25-b0dd-c635efbe92b2"},"vehicle_type_id":"4","last_reported":1752880233,"current_range_meters":18000,"station_id":"ce4bh012rcd13ifvqd00","pricing_plan_id":"cebpf4jnsgd1na2vs0mg"},{"bike_id":"b22b912d-c2aa-4638-b821-9588263e410c","system_id":"levelo_inurba_marseille","lat":43.32359,"lon":5.38901,"is_reserved":false,"is_disabled":false,"rental_uris":{"android":"levelo://app?vid=b22b912d-c2aa-4638-b821-9588263e410c","ios":"levelo://app?vid=b22b912d-c2aa-4638-b821-9588263e410c"},"vehicle_type_id":"4","last_reported":1752880233,"current_range_meters":18000,"station_id":"ce4bhqp2rcd13ifvqhog","pricing_plan_id":"cebpf4jnsgd1na2vs0mg"},{"bike_id":"5de510b7-74a7-44d9-b827-3f81b08075ae","system_id":"levelo_inurba_marseille","lat":43.296273,"lon":5.405984,"is_reserved":false,"is_disabled":false,"rental_uris":{"android":"levelo://app?vid=5de510b7-74a7-44d9-b827-3f81b08075ae","ios":"levelo://app?vid=5de510b7-74a7-44d9-b827-3f81b08075ae"},"vehicle_type_id":"4","last_reported":1752880233,"current_range_meters":18000,"station_id":"","pricing_plan_id":"cebpf4jnsgd1na2vs0mg"},{"bike_id":"c563397a-8e95-43de-9482-c447bf9c775e","system_id":"levelo_inurba_marseille","lat":43.29326,"lon":5.41173,"is_reserved":false,"is_disabled":false,"rental_uris":{"android":"levelo://app?vid=c563397a-8e95-43de-9482-c447bf9c775e","ios":"levelo://app?vid=c563397a-8e95-43de-9482-c447bf9c775e"},"vehicle_type_id":"4","last_reported":1752880233,"current_range_meters":18000,"station_id":"","pricing_plan_id":"cebpf4jnsgd1na2vs0mg"},{"bike_id":"195b209b-19a7-4b7e-bcff-bc621acd7640","system_id":"levelo_inurba_marseille","lat":43.279981,"lon":5.400141,"is_reserved":false,"is_disabled":false,"rental_uris":{"android":"levelo://app?vid=195b209b-19a7-4b7e-bcff-bc621acd7640","ios":"levelo://app?vid=195b209b-19a7-4b7e-bcff-bc621acd7640"},"vehicle_type_id":"4","last_reported":1752880233,"current_range_meters":18000,"station_id":"ce4bho92rcd13ifvqh4g","pricing_plan_id":"cebpf4jnsgd1na2vs0mg"},{"bike_id":"9eb19af1-3ac3-436d-805d-794abdcba832","system_id":"levelo_inurba_marseille","lat":43.23188,"lon":5.35545,"is_reserved":false,"is_disabled":false,"rental_uris":{"android":"levelo://app?vid=9eb19af1-3ac3-436d-805d-794abdcba832","ios":"levelo://app?vid=9eb19af1-3ac3-436d-805d-794abdcba832"},"vehicle_type_id":"4","last_reported":1752880233,"current_range_meters":18800,"station_id":"ce4bhu92rcd13ifvqi70","pricing_plan_id":"cebpf4jnsgd1na2vs0mg"},{"bike_id":"80f3c3c1-9233-4909-a859-482a08409132","system_id":"levelo_inurba_marseille","lat":43.29969,"lon":5.38497,"is_reserved":false,"is_disabled":false,"rental_uris":{"android":"levelo://app?vid=80f3c3c1-9233-4909-a859-482a08409132","ios":"levelo://app?vid=80f3c3c1-9233-4909-a859-482a08409132"},"vehicle_type_id":"4","last_reported":1752880233,"current_range_meters":18800,"station_id":"ce4bgj92rcd13ifvqbd0","pricing_plan_id":"cebpf4jnsgd1na2vs0mg"},{"bike_id":"b1ada478-a2e8-487c-a85a-740af8cfc031","system_id":"levelo_inurba_marseille","lat":43.26558,"lon":5.37292,"is_reserved":false,"is_disabled":false,"rental_uris":{"android":"levelo://app?vid=b1ada478-a2e8-487c-a85a-740af8cfc031","ios":"levelo://app?vid=b1ada478-a2e8-487c-a85a-740af8cfc031"},"vehicle_type_id":"4","last_reported":1752880233,"current_range_meters":18800,"station_id":"ce4bhg12rcd13ifvqf70","pricing_plan_id":"cebpf4jnsgd1na2vs0mg"},{"bike_id":"45dea0eb-918d-49f1-8341-001e35c226f0","system_id":"levelo_inurba_marseille","lat":43.211928,"lon":5.350866,"is_reserved":false,"is_disabled":false,"rental_uris":{"android":"levelo://app?vid=45dea0eb-918d-49f1-8341-001e35c226f0","ios":"levelo://app?vid=45dea0eb-918d-49f1-8341-001e35c226f0"},"vehicle_type_id":"4","last_reported":1752880233,"current_range_meters":18800,"station_id":"st_cvj6sg6p6f1abm77japg","pricing_plan_id":"cebpf4jnsgd1na2vs0mg"},{"bike_id":"4a2af6fb-f040-4dff-9ff5-d70c4f952e83","system_id":"levelo_inurba_marseille","lat":43.31511,"lon":5.37308,"is_reserved":false,"is_disabled":true,"rental_uris":{"android":"levelo://app?vid=4a2af6fb-f040-4dff-9ff5-d70c4f952e83","ios":"levelo://app?vid=4a2af6fb-f040-4dff-9ff5-d70c4f952e83"},"vehicle_type_id":"4","last_reported":1752880233,"current_range_meters":18800,"station_id":"ce4bgt12rcd13ifvqcd0","pricing_plan_id":"cebpf4jnsgd1na2vs0mg"},{"bike_id":"863ff14f-99c4-4119-81c8-9db5c196840c","system_id":"levelo_inurba_marseille","lat":43.280857,"lon":5.396801,"is_reserved":false,"is_disabled":false,"rental_uris":{"android":"levelo://app?vid=863ff14f-99c4-4119-81c8-9db5c196840c","ios":"levelo://app?vid=863ff14f-99c4-4119-81c8-9db5c196840c"},"vehicle_type_id":"4","last_reported":1752880233,"current_range_meters":18800,"station_id":"ce4bho12rcd13ifvqh2g","pricing_plan_id":"cebpf4jnsgd1na2vs0mg"},{"bike_id":"c8b4fa10-98a4-46b1-b21a-a4559bac1692","system_id":"levelo_inurba_marseille","lat":43.30792,"lon":5.38169,"is_reserved":false,"is_disabled":false,"rental_uris":{"android":"levelo://app?vid=c8b4fa10-98a4-46b1-b21a-a4559bac1692","ios":"levelo://app?vid=c8b4fa10-98a4-46b1-b21a-a4559bac1692"},"vehicle_type_id":"4","last_reported":1752880233,"current_range_meters":18000,"station_id":"ce4bgt12rcd13ifvqce0","pricing_plan_id":"cebpf4jnsgd1na2vs0mg"},{"bike_id":"19294ff6-3995-4603-9d99-733afb04fb97","system_id":"levelo_inurba_marseille","lat":43.24391,"lon":5.37073,"is_reserved":false,"is_disabled":false,"rental_uris":{"android":"levelo://app?vid=19294ff6-3995-4603-9d99-733afb04fb97","ios":"levelo://app?vid=19294ff6-3995-4603-9d99-733afb04fb97"},"vehicle_type_id":"4","last_reported":1752880233,"current_range_meters":18800,"station_id":"ce4bhhh2rcd13ifvqfk0","pricing_plan_id":"cebpf4jnsgd1na2vs0mg"},{"bike_id":"a0e6de25-53a6-4e2c-ba56-d0c89144a59d","system_id":"levelo_inurba_marseille","lat":43.31092,"lon":5.3778,"is_reserved":false,"is_disabled":false,"rental_uris":{"android":"levelo://app?vid=a0e6de25-53a6-4e2c-ba56-d0c89144a59d","ios":"levelo://app?vid=a0e6de25-53a6-4e2c-ba56-d0c89144a59d"},"vehicle_type_id":"4","last_reported":1752880233,"current_range_meters":18800,"station_id":"ce4bgt92rcd13ifvqcg0","pricing_plan_id":"cebpf4jnsgd1na2vs0mg"},{"bike_id":"44e89ad7-16a2-4910-805f-061f2aee5ab7","system_id":"levelo_inurba_marseille","lat":43.23178,"lon":5.35554,"is_reserved":false,"is_disabled":false,"rental_uris":{"android":"levelo://app?vid=44e89ad7-16a2-4910-805f-061f2aee5ab7","ios":"levelo://app?vid=44e89ad7-16a2-4910-805f-061f2aee5ab7"},"vehicle_type_id":"4","last_reported":1752880233,"current_range_meters":18800,"station_id":"ce4bhu92rcd13ifvqi70","pricing_plan_id":"cebpf4jnsgd1na2vs0mg"},{"bike_id":"d87b5f27-b6a2-43b4-bd7c-1d4eb75e9ee5","system_id":"levelo_inurba_marseille","lat":43.29221,"lon":5.3607,"is_reserved":false,"is_disabled":false,"rental_uris":{"android":"levelo://app?vid=d87b5f27-b6a2-43b4-bd7c-1d4eb75e9ee5","ios":"levelo://app?vid=d87b5f27-b6a2-43b4-bd7c-1d4eb75e9ee5"},"vehicle_type_id":"4","last_reported":1752880233,"current_range_meters":18800,"station_id":"ce4bhbh2rcd13ifvqeqg","pricing_plan_id":"cebpf4jnsgd1na2vs0mg"},{"bike_id":"476b9d68-b82a-49d6-b328-73fe9b3366ca","system_id":"levelo_inurba_marseille","lat":43.2623,"lon":5.40454,"is_reserved":false,"is_disabled":false,"rental_uris":{"android":"levelo://app?vid=476b9d68-b82a-49d6-b328-73fe9b3366ca","ios":"levelo://app?vid=476b9d68-b82a-49d6-b328-73fe9b3366ca"},"vehicle_type_id":"4","last_reported":1752880233,"current_range_meters":18800,"station_id":"ce4bhmh2rcd13ifvqgmg","pricing_plan_id":"cebpf4jnsgd1na2vs0mg"},{"bike_id":"f19e1191-a499-43e5-aa16-7ca6394ef18a","system_id":"levelo_inurba_marseille","lat":43.30308,"lon":5.36898,"is_reserved":false,"is_disabled":false,"rental_uris":{"android":"levelo://app?vid=f19e1191-a499-43e5-aa16-7ca6394ef18a","ios":"levelo://app?vid=f19e1191-a499-43e5-aa16-7ca6394ef18a"},"vehicle_type_id":"4","last_reported":1752880233,"current_range_meters":18800,"station_id":"ce4bgqh2rcd13ifvqc5g","pricing_plan_id":"cebpf4jnsgd1na2vs0mg"},{"bike_id":"3b8fa8a7-26fc-4aab-bee1-b8a56cdc1d43","system_id":"levelo_inurba_marseille","lat":43.28691,"lon":5.39993,"is_reserved":false,"is_disabled":true,"rental_uris":{"android":"levelo://app?vid=3b8fa8a7-26fc-4aab-bee1-b8a56cdc1d43","ios":"levelo://app?vid=3b8fa8a7-26fc-4aab-bee1-b8a56cdc1d43"},"vehicle_type_id":"4","last_reported":1752880233,"current_range_meters":18800,"station_id":"ce4bho92rcd13ifvqh3g","pricing_plan_id":"cebpf4jnsgd1na2vs0mg"},{"bike_id":"9f00b516-2e6c-49ff-b45a-2a85d3e69abf","system_id":"levelo_inurba_marseille","lat":43.29254,"lon":5.39139,"is_reserved":false,"is_disabled":false,"rental_uris":{"android":"levelo://app?vid=9f00b516-2e6c-49ff-b45a-2a85d3e69abf","ios":"levelo://app?vid=9f00b516-2e6c-49ff-b45a-2a85d3e69abf"},"vehicle_type_id":"4","last_reported":1752880233,"current_range_meters":19200,"station_id":"","pricing_plan_id":"cebpf4jnsgd1na2vs0mg"},{"bike_id":"25c61d91-92f9-47bc-ba2a-34ec5d0a2e05","system_id":"levelo_inurba_marseille","lat":43.2293,"lon":5.3537,"is_reserved":false,"is_disabled":false,"rental_uris":{"android":"levelo://app?vid=25c61d91-92f9-47bc-ba2a-34ec5d0a2e05","ios":"levelo://app?vid=25c61d91-92f9-47bc-ba2a-34ec5d0a2e05"},"vehicle_type_id":"4","last_reported":1752880233,"current_range_meters":19200,"station_id":"cpo3532slgdg3j2ikp40","pricing_plan_id":"cebpf4jnsgd1na2vs0mg"},{"bike_id":"0ac9b427-819d-4139-8162-77866abdf07d","system_id":"levelo_inurba_marseille","lat":43.24662,"lon":5.38872,"is_reserved":false,"is_disabled":false,"rental_uris":{"android":"levelo://app?vid=0ac9b427-819d-4139-8162-77866abdf07d","ios":"levelo://app?vid=0ac9b427-819d-4139-8162-77866abdf07d"},"vehicle_type_id":"4","last_reported":1752880233,"current_range_meters":19200,"station_id":"ce4bhg12rcd13ifvqf60","pricing_plan_id":"cebpf4jnsgd1na2vs0mg"},{"bike_id":"f7ce773e-15f5-44bc-a617-fbb6272e7314","system_id":"levelo_inurba_marseille","lat":43.295354,"lon":5.385466,"is_reserved":false,"is_disabled":false,"rental_uris":{"android":"levelo://app?vid=f7ce773e-15f5-44bc-a617-fbb6272e7314","ios":"levelo://app?vid=f7ce773e-15f5-44bc-a617-fbb6272e7314"},"vehicle_type_id":"4","last_reported":1752880233,"current_range_meters":19200,"station_id":"ce4bgih2rcd13ifvqba0","pricing_plan_id":"cebpf4jnsgd1na2vs0mg"},{"bike_id":"a168d389-ea1d-4756-ad9b-cf73a31ab442","system_id":"levelo_inurba_marseille","lat":43.288747,"lon":5.400098,"is_reserved":false,"is_disabled":false,"rental_uris":{"android":"levelo://app?vid=a168d389-ea1d-4756-ad9b-cf73a31ab442","ios":"levelo://app?vid=a168d389-ea1d-4756-ad9b-cf73a31ab442"},"vehicle_type_id":"4","last_reported":1752880233,"current_range_meters":19200,"station_id":"","pricing_plan_id":"cebpf4jnsgd1na2vs0mg"},{"bike_id":"733c402f-6bbd-4ff7-9cc1-681ba0e2f489","system_id":"levelo_inurba_marseille","lat":43.330352,"lon":5.390462,"is_reserved":false,"is_disabled":false,"rental_uris":{"android":"levelo://app?vid=733c402f-6bbd-4ff7-9cc1-681ba0e2f489","ios":"levelo://app?vid=733c402f-6bbd-4ff7-9cc1-681ba0e2f489"},"vehicle_type_id":"4","last_reported":1752880233,"current_range_meters":19200,"station_id":"ce4bhr92rcd13ifvqhrg","pricing_plan_id":"cebpf4jnsgd1na2vs0mg"},{"bike_id":"783cc84a-a041-4bdd-8002-c343b62c1731","system_id":"levelo_inurba_marseille","lat":43.2923,"lon":5.3606,"is_reserved":false,"is_disabled":true,"rental_uris":{"android":"levelo://app?vid=783cc84a-a041-4bdd-8002-c343b62c1731","ios":"levelo://app?vid=783cc84a-a041-4bdd-8002-c343b62c1731"},"vehicle_type_id":"4","last_reported":1752880233,"current_range_meters":19200,"station_id":"ce4bhbh2rcd13ifvqeqg","pricing_plan_id":"cebpf4jnsgd1na2vs0mg"},{"bike_id":"c980ea55-5d99-431d-a4ce-7b472b46c909","system_id":"levelo_inurba_marseille","lat":43.28926,"lon":5.38398,"is_reserved":false,"is_disabled":false,"rental_uris":{"android":"levelo://app?vid=c980ea55-5d99-431d-a4ce-7b472b46c909","ios":"levelo://app?vid=c980ea55-5d99-431d-a4ce-7b472b46c909"},"vehicle_type_id":"4","last_reported":1752880233,"current_range_meters":19200,"station_id":"ce4bh612rcd13ifvqe6g","pricing_plan_id":"cebpf4jnsgd1na2vs0mg"},{"bike_id":"5a570911-22d0-41b1-a776-0fe138c4bdc4","system_id":"levelo_inurba_marseille","lat":43.21193,"lon":5.35073,"is_reserved":false,"is_disabled":false,"rental_uris":{"android":"levelo://app?vid=5a570911-22d0-41b1-a776-0fe138c4bdc4","ios":"levelo://app?vid=5a570911-22d0-41b1-a776-0fe138c4bdc4"},"vehicle_type_id":"4","last_reported":1752880233,"current_range_meters":19200,"station_id":"st_cvj6sg6p6f1abm77japg","pricing_plan_id":"cebpf4jnsgd1na2vs0mg"},{"bike_id":"7592d3b0-727d-4107-ba81-a2966cdc2b34","system_id":"levelo_inurba_marseille","lat":43.2621,"lon":5.40449,"is_reserved":false,"is_disabled":false,"rental_uris":{"android":"levelo://app?vid=7592d3b0-727d-4107-ba81-a2966cdc2b34","ios":"levelo://app?vid=7592d3b0-727d-4107-ba81-a2966cdc2b34"},"vehicle_type_id":"4","last_reported":1752880233,"current_range_meters":19200,"station_id":"ce4bhmh2rcd13ifvqgmg","pricing_plan_id":"cebpf4jnsgd1na2vs0mg"},{"bike_id":"3f2a30cf-771f-4eab-ae6a-ba63928efc37","system_id":"levelo_inurba_marseille","lat":43.29505,"lon":5.39053,"is_reserved":false,"is_disabled":false,"rental_uris":{"android":"levelo://app?vid=3f2a30cf-771f-4eab-ae6a-ba63928efc37","ios":"levelo://app?vid=3f2a30cf-771f-4eab-ae6a-ba63928efc37"},"vehicle_type_id":"4","last_reported":1752880233,"current_range_meters":19200,"station_id":"ce4bh3p2rcd13ifvqdp0","pricing_plan_id":"cebpf4jnsgd1na2vs0mg"},{"bike_id":"244c6fd2-9095-4465-b9e1-342bf07e544e","system_id":"levelo_inurba_marseille","lat":43.284407,"lon":5.392051,"is_reserved":false,"is_disabled":false,"rental_uris":{"android":"levelo://app?vid=244c6fd2-9095-4465-b9e1-342bf07e544e","ios":"levelo://app?vid=244c6fd2-9095-4465-b9e1-342bf07e544e"},"vehicle_type_id":"4","last_reported":1752880233,"current_range_meters":19200,"station_id":"ce4bhoh2rcd13ifvqh5g","pricing_plan_id":"cebpf4jnsgd1na2vs0mg"},{"bike_id":"f64d4495-c6c3-4047-b421-2e9c29951567","system_id":"levelo_inurba_marseille","lat":43.225118,"lon":5.347875,"is_reserved":false,"is_disabled":false,"rental_uris":{"android":"levelo://app?vid=f64d4495-c6c3-4047-b421-2e9c29951567","ios":"levelo://app?vid=f64d4495-c6c3-4047-b421-2e9c29951567"},"vehicle_type_id":"4","last_reported":1752880233,"current_range_meters":19600,"station_id":"st_cvj5dfep6f1abm77gieg","pricing_plan_id":"cebpf4jnsgd1na2vs0mg"},{"bike_id":"c278e639-b9a4-41fa-a8c3-35fe6ef73050","system_id":"levelo_inurba_marseille","lat":43.28928,"lon":5.384,"is_reserved":false,"is_disabled":false,"rental_uris":{"android":"levelo://app?vid=c278e639-b9a4-41fa-a8c3-35fe6ef73050","ios":"levelo://app?vid=c278e639-b9a4-41fa-a8c3-35fe6ef73050"},"vehicle_type_id":"4","last_reported":1752880233,"current_range_meters":19600,"station_id":"ce4bh612rcd13ifvqe6g","pricing_plan_id":"cebpf4jnsgd1na2vs0mg"},{"bike_id":"ed8fbac9-e5c7-4f6f-8094-8714434b7733","system_id":"levelo_inurba_marseille","lat":43.31116,"lon":5.37764,"is_reserved":false,"is_disabled":false,"rental_uris":{"android":"levelo://app?vid=ed8fbac9-e5c7-4f6f-8094-8714434b7733","ios":"levelo://app?vid=ed8fbac9-e5c7-4f6f-8094-8714434b7733"},"vehicle_type_id":"4","last_reported":1752880233,"current_range_meters":19600,"station_id":"ce4bgt92rcd13ifvqcg0","pricing_plan_id":"cebpf4jnsgd1na2vs0mg"},{"bike_id":"2060869b-d87e-4c30-8864-6b1d75522919","system_id":"levelo_inurba_marseille","lat":43.29889,"lon":5.43667,"is_reserved":false,"is_disabled":false,"rental_uris":{"android":"levelo://app?vid=2060869b-d87e-4c30-8864-6b1d75522919","ios":"levelo://app?vid=2060869b-d87e-4c30-8864-6b1d75522919"},"vehicle_type_id":"4","last_reported":1752880233,"current_range_meters":19600,"station_id":"ce4bhpp2rcd13ifvqhfg","pricing_plan_id":"cebpf4jnsgd1na2vs0mg"},{"bike_id":"6ce013e4-9666-492d-a25c-bf4863da39dd","system_id":"levelo_inurba_marseille","lat":43.31381,"lon":5.38518,"is_reserved":false,"is_disabled":false,"rental_uris":{"android":"levelo://app?vid=6ce013e4-9666-492d-a25c-bf4863da39dd","ios":"levelo://app?vid=6ce013e4-9666-492d-a25c-bf4863da39dd"},"vehicle_type_id":"4","last_reported":1752880233,"current_range_meters":19600,"station_id":"ce4bgt92rcd13ifvqcf0","pricing_plan_id":"cebpf4jnsgd1na2vs0mg"},{"bike_id":"cc991239-5a8a-4449-ab32-15640a8a5829","system_id":"levelo_inurba_marseille","lat":43.306458,"lon":5.40084,"is_reserved":false,"is_disabled":false,"rental_uris":{"android":"levelo://app?vid=cc991239-5a8a-4449-ab32-15640a8a5829","ios":"levelo://app?vid=cc991239-5a8a-4449-ab32-15640a8a5829"},"vehicle_type_id":"4","last_reported":1752880233,"current_range_meters":19200,"station_id":"ce4bh112rcd13ifvqda0","pricing_plan_id":"cebpf4jnsgd1na2vs0mg"},{"bike_id":"b2d8de19-5228-47c5-a04d-d8664c46de68","system_id":"levelo_inurba_marseille","lat":43.22929,"lon":5.35369,"is_reserved":false,"is_disabled":false,"rental_uris":{"android":"levelo://app?vid=b2d8de19-5228-47c5-a04d-d8664c46de68","ios":"levelo://app?vid=b2d8de19-5228-47c5-a04d-d8664c46de68"},"vehicle_type_id":"4","last_reported":1752880233,"current_range_meters":19600,"station_id":"cpo3532slgdg3j2ikp40","pricing_plan_id":"cebpf4jnsgd1na2vs0mg"},{"bike_id":"636add70-8724-48bf-aad9-09ddc751df36","system_id":"levelo_inurba_marseille","lat":43.22926,"lon":5.35379,"is_reserved":false,"is_disabled":false,"rental_uris":{"android":"levelo://app?vid=636add70-8724-48bf-aad9-09ddc751df36","ios":"levelo://app?vid=636add70-8724-48bf-aad9-09ddc751df36"},"vehicle_type_id":"4","last_reported":1752880233,"current_range_meters":19600,"station_id":"cpo3532slgdg3j2ikp40","pricing_plan_id":"cebpf4jnsgd1na2vs0mg"},{"bike_id":"2c77e1be-20d4-428a-b875-bc5d532780db","system_id":"levelo_inurba_marseille","lat":43.28994,"lon":5.35612,"is_reserved":false,"is_disabled":true,"rental_uris":{"android":"levelo://app?vid=2c77e1be-20d4-428a-b875-bc5d532780db","ios":"levelo://app?vid=2c77e1be-20d4-428a-b875-bc5d532780db"},"vehicle_type_id":"4","last_reported":1752880233,"current_range_meters":19600,"station_id":"ce4bhb92rcd13ifvqen0","pricing_plan_id":"cebpf4jnsgd1na2vs0mg"},{"bike_id":"08da0d30-ab14-4c99-870a-907b7e4e9b04","system_id":"levelo_inurba_marseille","lat":43.28637,"lon":5.35065,"is_reserved":false,"is_disabled":false,"rental_uris":{"android":"levelo://app?vid=08da0d30-ab14-4c99-870a-907b7e4e9b04","ios":"levelo://app?vid=08da0d30-ab14-4c99-870a-907b7e4e9b04"},"vehicle_type_id":"4","last_reported":1752880233,"current_range_meters":19600,"station_id":"ce4bhch2rcd13ifvqeug","pricing_plan_id":"cebpf4jnsgd1na2vs0mg"},{"bike_id":"10eab293-d963-46d8-bf07-69713ceade0c","system_id":"levelo_inurba_marseille","lat":43.24386,"lon":5.3706,"is_reserved":false,"is_disabled":true,"rental_uris":{"android":"levelo://app?vid=10eab293-d963-46d8-bf07-69713ceade0c","ios":"levelo://app?vid=10eab293-d963-46d8-bf07-69713ceade0c"},"vehicle_type_id":"4","last_reported":1752880233,"current_range_meters":19600,"station_id":"ce4bhhh2rcd13ifvqfk0","pricing_plan_id":"cebpf4jnsgd1na2vs0mg"},{"bike_id":"ea37c249-bc61-4eea-862b-e2e11472cda2","system_id":"levelo_inurba_marseille","lat":43.29262,"lon":5.36855,"is_reserved":false,"is_disabled":true,"rental_uris":{"android":"levelo://app?vid=ea37c249-bc61-4eea-862b-e2e11472cda2","ios":"levelo://app?vid=ea37c249-bc61-4eea-862b-e2e11472cda2"},"vehicle_type_id":"4","last_reported":1752880233,"current_range_meters":19600,"station_id":"ce4bhbp2rcd13ifvqesg","pricing_plan_id":"cebpf4jnsgd1na2vs0mg"},{"bike_id":"c247a315-8f67-416e-aa26-98ff1bbcb2d5","system_id":"levelo_inurba_marseille","lat":43.28481,"lon":5.38428,"is_reserved":false,"is_disabled":false,"rental_uris":{"android":"levelo://app?vid=c247a315-8f67-416e-aa26-98ff1bbcb2d5","ios":"levelo://app?vid=c247a315-8f67-416e-aa26-98ff1bbcb2d5"},"vehicle_type_id":"4","last_reported":1752880233,"current_range_meters":19600,"station_id":"ce4bh512rcd13ifvqe3g","pricing_plan_id":"cebpf4jnsgd1na2vs0mg"},{"bike_id":"af001624-0106-479f-8721-10e760f2c741","system_id":"levelo_inurba_marseille","lat":43.31362,"lon":5.38491,"is_reserved":false,"is_disabled":false,"rental_uris":{"android":"levelo://app?vid=af001624-0106-479f-8721-10e760f2c741","ios":"levelo://app?vid=af001624-0106-479f-8721-10e760f2c741"},"vehicle_type_id":"4","last_reported":1752880233,"current_range_meters":20000,"station_id":"ce4bgt92rcd13ifvqcf0","pricing_plan_id":"cebpf4jnsgd1na2vs0mg"},{"bike_id":"a9e515c6-e404-48d8-ba44-34379896575d","system_id":"levelo_inurba_marseille","lat":43.29521,"lon":5.38539,"is_reserved":false,"is_disabled":false,"rental_uris":{"android":"levelo://app?vid=a9e515c6-e404-48d8-ba44-34379896575d","ios":"levelo://app?vid=a9e515c6-e404-48d8-ba44-34379896575d"},"vehicle_type_id":"4","last_reported":1752880233,"current_range_meters":20000,"station_id":"ce4bgih2rcd13ifvqba0","pricing_plan_id":"cebpf4jnsgd1na2vs0mg"},{"bike_id":"ed9d4706-6b04-468d-b2f9-13b3682a9e72","system_id":"levelo_inurba_marseille","lat":43.24168,"lon":5.36394,"is_reserved":false,"is_disabled":false,"rental_uris":{"android":"levelo://app?vid=ed9d4706-6b04-468d-b2f9-13b3682a9e72","ios":"levelo://app?vid=ed9d4706-6b04-468d-b2f9-13b3682a9e72"},"vehicle_type_id":"4","last_reported":1752880233,"current_range_meters":20000,"station_id":"cpo36qri1sfpv3e86is0","pricing_plan_id":"cebpf4jnsgd1na2vs0mg"},{"bike_id":"7f138cca-1d39-4e69-92fc-ce0fd44d8f90","system_id":"levelo_inurba_marseille","lat":43.262118,"lon":5.375857,"is_reserved":false,"is_disabled":false,"rental_uris":{"android":"levelo://app?vid=7f138cca-1d39-4e69-92fc-ce0fd44d8f90","ios":"levelo://app?vid=7f138cca-1d39-4e69-92fc-ce0fd44d8f90"},"vehicle_type_id":"4","last_reported":1752880233,"current_range_meters":20000,"station_id":"","pricing_plan_id":"cebpf4jnsgd1na2vs0mg"},{"bike_id":"948cc778-4b52-43d4-bd05-9525cc0c3471","system_id":"levelo_inurba_marseille","lat":43.28082,"lon":5.39291,"is_reserved":false,"is_disabled":false,"rental_uris":{"android":"levelo://app?vid=948cc778-4b52-43d4-bd05-9525cc0c3471","ios":"levelo://app?vid=948cc778-4b52-43d4-bd05-9525cc0c3471"},"vehicle_type_id":"4","last_reported":1752880233,"current_range_meters":20000,"station_id":"","pricing_plan_id":"cebpf4jnsgd1na2vs0mg"},{"bike_id":"f734d1ab-e95f-49df-a640-db407264fdd1","system_id":"levelo_inurba_marseille","lat":43.295329,"lon":5.375022,"is_reserved":false,"is_disabled":true,"rental_uris":{"android":"levelo://app?vid=f734d1ab-e95f-49df-a640-db407264fdd1","ios":"levelo://app?vid=f734d1ab-e95f-49df-a640-db407264fdd1"},"vehicle_type_id":"4","last_reported":1752880233,"current_range_meters":20000,"station_id":"ce4bgkp2rcd13ifvqbmg","pricing_plan_id":"cebpf4jnsgd1na2vs0mg"},