{"last_updated":1781382329,"ttl":60,"version":"2.2","data":{"bikes":[{"bike_id":"ec12d144-24c8-4071-abf6-197e520eae96","system_id":"levelo_inurba_marseille","lat":43.337444,"lon":5.374475,"is_reserved":false,"is_disabled":false,"rental_uris":{"android":"levelo://app?vid=ec12d144-24c8-4071-abf6-197e520eae96","ios":"levelo://app?vid=ec12d144-24c8-4071-abf6-197e520eae96"},"vehicle_type_id":"4","last_reported":1781382330,"current_range_meters":0,"station_id":"","pricing_plan_id":"cebpf4jnsgd1na2vs0mg"},{"bike_id":"2a4c4b0f-0d3a-454e-afe4-969c188f43ec","system_id":"levelo_inurba_marseille","lat":43.298874,"lon":5.389083,"is_reserved":false,"is_disabled":false,"rental_uris":{"android":"levelo://app?vid=2a4c4b0f-0d3a-454e-afe4-969c188f43ec","ios":"levelo://app?vid=2a4c4b0f-0d3a-454e-afe4-969c188f43ec"},"vehicle_type_id":"4","last_reported":1781382330,"current_range_meters":2800,"station_id":"ce4bh392rcd13ifvqdl0","pricing_plan_id":"cebpf4jnsgd1na2vs0mg"},{"bike_id":"ed1b9f19-bb22-4c71-9922-52664961ae26","system_id":"levelo_inurba_marseille","lat":43.26363,"lon":5.41067,"is_reserved":false,"is_disabled":false,"rental_uris":{"android":"levelo://app?vid=ed1b9f19-bb22-4c71-9922-52664961ae26","ios":"levelo://app?vid=ed1b9f19-bb22-4c71-9922-52664961ae26"},"vehicle_type_id":"4","last_reported":1781382330,"current_range_meters":2800,"station_id":"st_d4e5ca6na9uc73bfl5fg","pricing_plan_id":"cebpf4jnsgd1na2vs0mg"},{"bike_id":"44577758-9781-4e26-a98a-6f13509dbbf8","system_id":"levelo_inurba_marseille","lat":43.33731,"lon":5.39182,"is_reserved":false,"is_disabled":false,"rental_uris":{"android":"levelo://app?vid=44577758-9781-4e26-a98a-6f13509dbbf8","ios":"levelo://app?vid=44577758-9781-4e26-a98a-6f13509dbbf8"},"vehicle_type_id":"4","last_reported":1781382330,"current_range_meters":2800,"station_id":"ce4bhr92rcd13ifvqhsg","pricing_plan_id":"cebpf4jnsgd1na2vs0mg"},{"bike_id":"b13ec47b-e2da-4c3a-a2b7-75c43d4d1dfc","system_id":"levelo_inurba_marseille","lat":43.24812,"lon":5.37459,"is_reserved":false,"is_disabled":false,"rental_uris":{"android":"levelo://app?vid=b13ec47b-e2da-4c3a-a2b7-75c43d4d1dfc","ios":"levelo://app?vid=b13ec47b-e2da-4c3a-a2b7-75c43d4d1dfc"},"vehicle_type_id":"4","last_reported":1781382330,"current_range_meters":2800,"station_id":"ce4bhgh2rcd13ifvqfb0","pricing_plan_id":"cebpf4jnsgd1na2vs0mg"},{"bike_id":"7dfc02d3-cfe7-40d3-9fa1-45b19f4ad190","system_id":"levelo_inurba_marseille","lat":43.26695,"lon":5.38276,"is_reserved":false,"is_disabled":false,"rental_uris":{"android":"levelo://app?vid=7dfc02d3-cfe7-40d3-9fa1-45b19f4ad190","ios":"levelo://app?vid=7dfc02d3-cfe7-40d3-9fa1-45b19f4ad190"},"vehicle_type_id":"4","last_reported":1781382330,"current_range_meters":2800,"station_id":"ce4bhg92rcd13ifvqf90","pricing_plan_id":"cebpf4jnsgd1na2vs0mg"},{"bike_id":"62cb9f80-f52d-479b-aa69-147ac6385587","system_id":"levelo_inurba_marseille","lat":43.31374,"lon":5.38521,"is_reserved":false,"is_disabled":false,"rental_uris":{"android":"levelo://app?vid=62cb9f80-f52d-479b-aa69-147ac6385587","ios":"levelo://app?vid=62cb9f80-f52d-479b-aa69-147ac6385587"},"vehicle_type_id":"4","last_reported":1781382330,"current_range_meters":2800,"station_id":"ce4bgt92rcd13ifvqcf0","pricing_plan_id":"cebpf4jnsgd1na2vs0mg"},{"bike_id":"52717982-f051-4cc0-9a11-92846337fb78","system_id":"levelo_inurba_marseille","lat":43.30476,"lon":5.39336,"is_reserved":false,"is_disabled":false,"rental_uris":{"android":"levelo://app?vid=52717982-f051-4cc0-9a11-92846337fb78","ios":"levelo://app?vid=52717982-f051-4cc0-9a11-92846337fb78"},"vehicle_type_id":"4","last_reported":1781382330,"current_range_meters":2800,"station_id":"","pricing_plan_id":"cebpf4jnsgd1na2vs0mg"},{"bike_id":"459952f5-55f8-43e7-b3ad-b9d83a8b249e","system_id":"levelo_inurba_marseille","lat":43.24612,"lon":5.41712,"is_reserved":false,"is_disabled":false,"rental_uris":{"android":"levelo://app?vid=459952f5-55f8-43e7-b3ad-b9d83a8b249e","ios":"levelo://app?vid=459952f5-55f8-43e7-b3ad-b9d83a8b249e"},"vehicle_type_id":"4","last_reported":1781382330,"current_range_meters":2800,"station_id":"","pricing_plan_id":"cebpf4jnsgd1na2vs0mg"},{"bike_id":"314bd59d-abc3-40b7-9916-3279d88b1da4","system_id":"levelo_inurba_marseille","lat":43.26557,"lon":5.37285,"is_reserved":false,"is_disabled":true,"rental_uris":{"android":"levelo://app?vid=314bd59d-abc3-40b7-9916-3279d88b1da4","ios":"levelo://app?vid=314bd59d-abc3-40b7-9916-3279d88b1da4"},"vehicle_type_id":"4","last_reported":1781382330,"current_range_meters":2800,"station_id":"ce4bhg12rcd13ifvqf70","pricing_plan_id":"cebpf4jnsgd1na2vs0mg"},{"bike_id":"a921a687-4f8b-4d1b-a254-2ddeeeaf8a37","system_id":"levelo_inurba_marseille","lat":43.24213,"lon":5.3709,"is_reserved":false,"is_disabled":false,"rental_uris":{"android":"levelo://app?vid=a921a687-4f8b-4d1b-a254-2ddeeeaf8a37","ios":"levelo://app?vid=a921a687-4f8b-4d1b-a254-2ddeeeaf8a37"},"vehicle_type_id":"4","last_reported":1781382330,"current_range_meters":2800,"station_id":"","pricing_plan_id":"cebpf4jnsgd1na2vs0mg"},{"bike_id":"0d77b0d4-f5c0-4b3b-b9fc-7041e3b654e3","system_id":"levelo_inurba_marseille","lat":43.28697,"lon":5.38673,"is_reserved":false,"is_disabled":true,"rental_uris":{"android":"levelo://app?vid=0d77b0d4-f5c0-4b3b-b9fc-7041e3b654e3","ios":"levelo://app?vid=0d77b0d4-f5c0-4b3b-b9fc-7041e3b654e3"},"vehicle_type_id":"4","last_reported":1781382330,"current_range_meters":2800,"station_id":"ce4bh492rcd13ifvqdug","pricing_plan_id":"cebpf4jnsgd1na2vs0mg"},{"bike_id":"a0d2ac5f-fff6-43f6-831d-dfa81e9c3981","system_id":"levelo_inurba_marseille","lat":43.29587,"lon":5.36417,"is_reserved":false,"is_disabled":false,"rental_uris":{"android":"levelo://app?vid=a0d2ac5f-fff6-43f6-831d-dfa81e9c3981","ios":"levelo://app?vid=a0d2ac5f-fff6-43f6-831d-dfa81e9c3981"},"vehicle_type_id":"4","last_reported":1781382330,"current_range_meters":2800,"station_id":"","pricing_plan_id":"cebpf4jnsgd1na2vs0mg"},{"bike_id":"8ad71d5a-bd2c-44eb-81cb-423e6b7d7736","system_id":"levelo_inurba_marseille","lat":43.23887,"lon":5.37462,"is_reserved":false,"is_disabled":false,"rental_uris":{"android":"levelo://app?vid=8ad71d5a-bd2c-44eb-81cb-423e6b7d7736","ios":"levelo://app?vid=8ad71d5a-bd2c-44eb-81cb-423e6b7d7736"},"vehicle_type_id":"4","last_reported":1781382330,"current_range_meters":2800,"station_id":"st_d6sm7csbq4hs73f8fpjg","pricing_plan_id":"cebpf4jnsgd1na2vs0mg"},{"bike_id":"a97b1785-d44a-4f07-9988-e80dd9573fdc","system_id":"levelo_inurba_marseille","lat":43.23784,"lon":5.3661,"is_reserved":false,"is_disabled":false,"rental_uris":{"android":"levelo://app?vid=a97b1785-d44a-4f07-9988-e80dd9573fdc","ios":"levelo://app?vid=a97b1785-d44a-4f07-9988-e80dd9573fdc"},"vehicle_type_id":"4","last_reported":1781382330,"current_range_meters":2800,"station_id":"st_d3nk18o9ro0c73en2l3g","pricing_plan_id":"cebpf4jnsgd1na2vs0mg"},{"bike_id":"f6c5cd24-c50e-406d-9da3-9f703728b262","system_id":"levelo_inurba_marseille","lat":43.22924,"lon":5.35366,"is_reserved":false,"is_disabled":false,"rental_uris":{"android":"levelo://app?vid=f6c5cd24-c50e-406d-9da3-9f703728b262","ios":"levelo://app?vid=f6c5cd24-c50e-406d-9da3-9f703728b262"},"vehicle_type_id":"4","last_reported":1781382330,"current_range_meters":2800,"station_id":"cpo3532slgdg3j2ikp40","pricing_plan_id":"cebpf4jnsgd1na2vs0mg"},{"bike_id":"8a9f3474-1ba5-4fc3-b4e6-1d2f8579f9d1","system_id":"levelo_inurba_marseille","lat":43.26561,"lon":5.39005,"is_reserved":false,"is_disabled":true,"rental_uris":{"android":"levelo://app?vid=8a9f3474-1ba5-4fc3-b4e6-1d2f8579f9d1","ios":"levelo://app?vid=8a9f3474-1ba5-4fc3-b4e6-1d2f8579f9d1"},"vehicle_type_id":"4","last_reported":1781382330,"current_range_meters":2800,"station_id":"ce4bhe12rcd13ifvqf30","pricing_plan_id":"cebpf4jnsgd1na2vs0mg"},{"bike_id":"fb2a1f7d-f7e9-4d12-bb3c-32e8cd55f82d","system_id":"levelo_inurba_marseille","lat":43.29068,"lon":5.4426,"is_reserved":false,"is_disabled":false,"rental_uris":{"android":"levelo://app?vid=fb2a1f7d-f7e9-4d12-bb3c-32e8cd55f82d","ios":"levelo://app?vid=fb2a1f7d-f7e9-4d12-bb3c-32e8cd55f82d"},"vehicle_type_id":"4","last_reported":1781382330,"current_range_meters":2800,"station_id":"","pricing_plan_id":"cebpf4jnsgd1na2vs0mg"},{"bike_id":"78fc2c99-761e-44e5-840c-c2a8938be8c6","system_id":"levelo_inurba_marseille","lat":43.255783,"lon":5.382238,"is_reserved":false,"is_disabled":false,"rental_uris":{"android":"levelo://app?vid=78fc2c99-761e-44e5-840c-c2a8938be8c6","ios":"levelo://app?vid=78fc2c99-761e-44e5-840c-c2a8938be8c6"},"vehicle_type_id":"4","last_reported":1781382330,"current_range_meters":2800,"station_id":"ce4bhih2rcd13ifvqfs0","pricing_plan_id":"cebpf4jnsgd1na2vs0mg"},{"bike_id":"9c7d3294-66e2-4e50-8786-d21f28fa7a72","system_id":"levelo_inurba_marseille","lat":43.26207,"lon":5.37445,"is_reserved":false,"is_disabled":false,"rental_uris":{"android":"levelo://app?vid=9c7d3294-66e2-4e50-8786-d21f28fa7a72","ios":"levelo://app?vid=9c7d3294-66e2-4e50-8786-d21f28fa7a72"},"vehicle_type_id":"4","last_reported":1781382330,"current_range_meters":2800,"station_id":"ce4bhgp2rcd13ifvqfc0","pricing_plan_id":"cebpf4jnsgd1na2vs0mg"},{"bike_id":"13b51c80-0c05-4a8a-9295-2af243aa5da2","system_id":"levelo_inurba_marseille","lat":43.301357,"lon":5.387911,"is_reserved":false,"is_disabled":false,"rental_uris":{"android":"levelo://app?vid=13b51c80-0c05-4a8a-9295-2af243aa5da2","ios":"levelo://app?vid=13b51c80-0c05-4a8a-9295-2af243aa5da2"},"vehicle_type_id":"4","last_reported":1781382330,"current_range_meters":2800,"station_id":"ce4bghh2rcd13ifvqb60","pricing_plan_id":"cebpf4jnsgd1na2vs0mg"},{"bike_id":"8acd7999-529f-4383-a738-85442bba2534","system_id":"levelo_inurba_marseille","lat":43.263378,"lon":5.378187,"is_reserved":false,"is_disabled":false,"rental_uris":{"android":"levelo://app?vid=8acd7999-529f-4383-a738-85442bba2534","ios":"levelo://app?vid=8acd7999-529f-4383-a738-85442bba2534"},"vehicle_type_id":"4","last_reported":1781382330,"current_range_meters":2800,"station_id":"st_d163nis0mtpqnht9uue0","pricing_plan_id":"cebpf4jnsgd1na2vs0mg"},{"bike_id":"9baebc47-9a21-445a-b575-5e8cc4ed7549","system_id":"levelo_inurba_marseille","lat":43.28476,"lon":5.48394,"is_reserved":false,"is_disabled":false,"rental_uris":{"android":"levelo://app?vid=9baebc47-9a21-445a-b575-5e8cc4ed7549","ios":"levelo://app?vid=9baebc47-9a21-445a-b575-5e8cc4ed7549"},"vehicle_type_id":"4","last_reported":1781382330,"current_range_meters":2800,"station_id":"st_d3svhcjqgbts73a3dn0g","pricing_plan_id":"cebpf4jnsgd1na2vs0mg"},{"bike_id":"7717390a-9f55-4678-b2a5-ba0a73b8a548","system_id":"levelo_inurba_marseille","lat":43.31588,"lon":5.36961,"is_reserved":false,"is_disabled":false,"rental_uris":{"android":"levelo://app?vid=7717390a-9f55-4678-b2a5-ba0a73b8a548","ios":"levelo://app?vid=7717390a-9f55-4678-b2a5-ba0a73b8a548"},"vehicle_type_id":"4","last_reported":1781382330,"current_range_meters":2800,"station_id":"","pricing_plan_id":"cebpf4jnsgd1na2vs0mg"},{"bike_id":"6118c1f2-e559-4313-b78b-2acde880b574","system_id":"levelo_inurba_marseille","lat":43.25827,"lon":5.39431,"is_reserved":false,"is_disabled":false,"rental_uris":{"android":"levelo://app?vid=6118c1f2-e559-4313-b78b-2acde880b574","ios":"levelo://app?vid=6118c1f2-e559-4313-b78b-2acde880b574"},"vehicle_type_id":"4","last_reported":1781382330,"current_range_meters":2800,"station_id":"ce4bhip2rcd13ifvqft0","pricing_plan_id":"cebpf4jnsgd1na2vs0mg"},{"bike_id":"a1f49648-b59d-44f3-81ec-65ff760537ac","system_id":"levelo_inurba_marseille","lat":43.24185,"lon":5.39729,"is_reserved":false,"is_disabled":false,"rental_uris":{"android":"levelo://app?vid=a1f49648-b59d-44f3-81ec-65ff760537ac","ios":"levelo://app?vid=a1f49648-b59d-44f3-81ec-65ff760537ac"},"vehicle_type_id":"4","last_reported":1781382330,"current_range_meters":3200,"station_id":"ce4bhn12rcd13ifvqgpg","pricing_plan_id":"cebpf4jnsgd1na2vs0mg"},{"bike_id":"ff144ad8-1853-42cb-ab9d-78b610e03f53","system_id":"levelo_inurba_marseille","lat":43.26356,"lon":5.37825,"is_reserved":false,"is_disabled":false,"rental_uris":{"android":"levelo://app?vid=ff144ad8-1853-42cb-ab9d-78b610e03f53","ios":"levelo://app?vid=ff144ad8-1853-42cb-ab9d-78b610e03f53"},"vehicle_type_id":"4","last_reported":1781382330,"current_range_meters":3200,"station_id":"st_d163nis0mtpqnht9uue0","pricing_plan_id":"cebpf4jnsgd1na2vs0mg"},{"bike_id":"f312a474-3688-43e4-8515-a784a5c48528","system_id":"levelo_inurba_marseille","lat":43.21186,"lon":5.35073,"is_reserved":false,"is_disabled":true,"rental_uris":{"android":"levelo://app?vid=f312a474-3688-43e4-8515-a784a5c48528","ios":"levelo://app?vid=f312a474-3688-43e4-8515-a784a5c48528"},"vehicle_type_id":"4","last_reported":1781382330,"current_range_meters":3200,"station_id":"st_cvj6sg6p6f1abm77japg","pricing_plan_id":"cebpf4jnsgd1na2vs0mg"},{"bike_id":"db825a5e-3256-426b-a46f-1f919ceba07d","system_id":"levelo_inurba_marseille","lat":43.27959,"lon":5.38738,"is_reserved":false,"is_disabled":false,"rental_uris":{"android":"levelo://app?vid=db825a5e-3256-426b-a46f-1f919ceba07d","ios":"levelo://app?vid=db825a5e-3256-426b-a46f-1f919ceba07d"},"vehicle_type_id":"4","last_reported":1781382330,"current_range_meters":3200,"station_id":"ce4bhg12rcd13ifvqf80","pricing_plan_id":"cebpf4jnsgd1na2vs0mg"},{"bike_id":"292d1165-7f01-41ef-b796-d2155aaeaaf9","system_id":"levelo_inurba_marseille","lat":43.30952,"lon":5.39051,"is_reserved":false,"is_disabled":false,"rental_uris":{"android":"levelo://app?vid=292d1165-7f01-41ef-b796-d2155aaeaaf9","ios":"levelo://app?vid=292d1165-7f01-41ef-b796-d2155aaeaaf9"},"vehicle_type_id":"4","last_reported":1781382330,"current_range_meters":3200,"station_id":"ce4bgup2rcd13ifvqco0","pricing_plan_id":"cebpf4jnsgd1na2vs0mg"},{"bike_id":"747ab781-1649-4587-9bb8-5ab071378af6","system_id":"levelo_inurba_marseille","lat":43.2847,"lon":5.38409,"is_reserved":false,"is_disabled":false,"rental_uris":{"android":"levelo://app?vid=747ab781-1649-4587-9bb8-5ab071378af6","ios":"levelo://app?vid=747ab781-1649-4587-9bb8-5ab071378af6"},"vehicle_type_id":"4","last_reported":1781382330,"current_range_meters":3200,"station_id":"ce4bh512rcd13ifvqe3g","pricing_plan_id":"cebpf4jnsgd1na2vs0mg"},{"bike_id":"cd6209c5-f5a8-47ac-ada3-8020e4be9262","system_id":"levelo_inurba_marseille","lat":43.26347,"lon":5.3782,"is_reserved":false,"is_disabled":false,"rental_uris":{"android":"levelo://app?vid=cd6209c5-f5a8-47ac-ada3-8020e4be9262","ios":"levelo://app?vid=cd6209c5-f5a8-47ac-ada3-8020e4be9262"},"vehicle_type_id":"4","last_reported":1781382330,"current_range_meters":3200,"station_id":"st_d163nis0mtpqnht9uue0","pricing_plan_id":"cebpf4jnsgd1na2vs0mg"},{"bike_id":"1b5dd99b-38ad-44f7-95c5-1e51cf6530d6","system_id":"levelo_inurba_marseille","lat":43.26999,"lon":5.36531,"is_reserved":false,"is_disabled":false,"rental_uris":{"android":"levelo://app?vid=1b5dd99b-38ad-44f7-95c5-1e51cf6530d6","ios":"levelo://app?vid=1b5dd99b-38ad-44f7-95c5-1e51cf6530d6"},"vehicle_type_id":"4","last_reported":1781382330,"current_range_meters":3200,"station_id":"","pricing_plan_id":"cebpf4jnsgd1na2vs0mg"},{"bike_id":"9e0f36c3-3683-4ca6-860d-982bbc91c309","system_id":"levelo_inurba_marseille","lat":43.2921,"lon":5.39316,"is_reserved":false,"is_disabled":true,"rental_uris":{"android":"levelo://app?vid=9e0f36c3-3683-4ca6-860d-982bbc91c309","ios":"levelo://app?vid=9e0f36c3-3683-4ca6-860d-982bbc91c309"},"vehicle_type_id":"4","last_reported":1781382330,"current_range_meters":3200,"station_id":"ce4bh192rcd13ifvqdd0","pricing_plan_id":"cebpf4jnsgd1na2vs0mg"},{"bike_id":"91a32b21-43a3-4e04-853b-365ab2766497","system_id":"levelo_inurba_marseille","lat":43.280376,"lon":5.369444,"is_reserved":false,"is_disabled":false,"rental_uris":{"android":"levelo://app?vid=91a32b21-43a3-4e04-853b-365ab2766497","ios":"levelo://app?vid=91a32b21-43a3-4e04-853b-365ab2766497"},"vehicle_type_id":"4","last_reported":1781382330,"current_range_meters":3200,"station_id":"ce4bha12rcd13ifvqef0","pricing_plan_id":"cebpf4jnsgd1na2vs0mg"},{"bike_id":"42a905a3-9604-448c-8db2-f789ea17e4f9","system_id":"levelo_inurba_marseille","lat":43.30941,"lon":5.40123,"is_reserved":false,"is_disabled":false,"rental_uris":{"android":"levelo://app?vid=42a905a3-9604-448c-8db2-f789ea17e4f9","ios":"levelo://app?vid=42a905a3-9604-448c-8db2-f789ea17e4f9"},"vehicle_type_id":"4","last_reported":1781382330,"current_range_meters":3200,"station_id":"ce4bgvp2rcd13ifvqct0","pricing_plan_id":"cebpf4jnsgd1na2vs0mg"},{"bike_id":"04feefed-a789-405c-b85c-b266d1fd8466","system_id":"levelo_inurba_marseille","lat":43.29274,"lon":5.38415,"is_reserved":false,"is_disabled":false,"rental_uris":{"android":"levelo://app?vid=04feefed-a789-405c-b85c-b266d1fd8466","ios":"levelo://app?vid=04feefed-a789-405c-b85c-b266d1fd8466"},"vehicle_type_id":"4","last_reported":1781382330,"current_range_meters":3200,"station_id":"ce4bh692rcd13ifvqea0","pricing_plan_id":"cebpf4jnsgd1na2vs0mg"},{"bike_id":"3ad5ca29-b324-46cd-9685-27812e512042","system_id":"levelo_inurba_marseille","lat":43.29023,"lon":5.3814,"is_reserved":false,"is_disabled":false,"rental_uris":{"android":"levelo://app?vid=3ad5ca29-b324-46cd-9685-27812e512042","ios":"levelo://app?vid=3ad5ca29-b324-46cd-9685-27812e512042"},"vehicle_type_id":"4","last_reported":1781382330,"current_range_meters":3200,"station_id":"ce4bh4p2rcd13ifvqe1g","pricing_plan_id":"cebpf4jnsgd1na2vs0mg"},{"bike_id":"5acae808-defe-4e81-8bde-da94fed931d3","system_id":"levelo_inurba_marseille","lat":43.299055,"lon":5.436774,"is_reserved":false,"is_disabled":false,"rental_uris":{"android":"levelo://app?vid=5acae808-defe-4e81-8bde-da94fed931d3","ios":"levelo://app?vid=5acae808-defe-4e81-8bde-da94fed931d3"},"vehicle_type_id":"4","last_reported":1781382330,"current_range_meters":3200,"station_id":"ce4bhpp2rcd13ifvqhfg","pricing_plan_id":"cebpf4jnsgd1na2vs0mg"},{"bike_id":"942f7a31-2052-4256-a18b-0225bc34cfa6","system_id":"levelo_inurba_marseille","lat":43.26336,"lon":5.378258,"is_reserved":false,"is_disabled":false,"rental_uris":{"android":"levelo://app?vid=942f7a31-2052-4256-a18b-0225bc34cfa6","ios":"levelo://app?vid=942f7a31-2052-4256-a18b-0225bc34cfa6"},"vehicle_type_id":"4","last_reported":1781382330,"current_range_meters":3200,"station_id":"ce4bhgp2rcd13ifvqfc0","pricing_plan_id":"cebpf4jnsgd1na2vs0mg"},{"bike_id":"8c9669fa-ccdd-484b-9183-2daa2ca137e8","system_id":"levelo_inurba_marseille","lat":43.263437,"lon":5.378252,"is_reserved":false,"is_disabled":false,"rental_uris":{"android":"levelo://app?vid=8c9669fa-ccdd-484b-9183-2daa2ca137e8","ios":"levelo://app?vid=8c9669fa-ccdd-484b-9183-2daa2ca137e8"},"vehicle_type_id":"4","last_reported":1781382330,"current_range_meters":3200,"station_id":"st_d163nis0mtpqnht9uue0","pricing_plan_id":"cebpf4jnsgd1na2vs0mg"},{"bike_id":"0633c0b2-cd61-4107-9084-a3953fc3765a","system_id":"levelo_inurba_marseille","lat":43.29244,"lon":5.37604,"is_reserved":false,"is_disabled":true,"rental_uris":{"android":"levelo://app?vid=0633c0b2-cd61-4107-9084-a3953fc3765a","ios":"levelo://app?vid=0633c0b2-cd61-4107-9084-a3953fc3765a"},"vehicle_type_id":"4","last_reported":1781382330,"current_range_meters":3600,"station_id":"ce4bgi12rcd13ifvqb80","pricing_plan_id":"cebpf4jnsgd1na2vs0mg"},{"bike_id":"ce964bc3-89b6-42db-8e08-6f90553153d2","system_id":"levelo_inurba_marseille","lat":43.29595,"lon":5.38094,"is_reserved":false,"is_disabled":false,"rental_uris":{"android":"levelo://app?vid=ce964bc3-89b6-42db-8e08-6f90553153d2","ios":"levelo://app?vid=ce964bc3-89b6-42db-8e08-6f90553153d2"},"vehicle_type_id":"4","last_reported":1781382330,"current_range_meters":3600,"station_id":"ce4bgl12rcd13ifvqbo0","pricing_plan_id":"cebpf4jnsgd1na2vs0mg"},{"bike_id":"6a27404a-fd45-46ef-b0c6-d19df52b0472","system_id":"levelo_inurba_marseille","lat":43.30063,"lon":5.37763,"is_reserved":false,"is_disabled":false,"rental_uris":{"android":"levelo://app?vid=6a27404a-fd45-46ef-b0c6-d19df52b0472","ios":"levelo://app?vid=6a27404a-fd45-46ef-b0c6-d19df52b0472"},"vehicle_type_id":"4","last_reported":1781382330,"current_range_meters":3600,"station_id":"","pricing_plan_id":"cebpf4jnsgd1na2vs0mg"},{"bike_id":"a88c18f7-a05b-424b-a2e6-87c48e40dd60","system_id":"levelo_inurba_marseille","lat":43.23885,"lon":5.3747,"is_reserved":false,"is_disabled":true,"rental_uris":{"android":"levelo://app?vid=a88c18f7-a05b-424b-a2e6-87c48e40dd60","ios":"levelo://app?vid=a88c18f7-a05b-424b-a2e6-87c48e40dd60"},"vehicle_type_id":"4","last_reported":1781382330,"current_range_meters":3600,"station_id":"st_d6sm7csbq4hs73f8fpjg","pricing_plan_id":"cebpf4jnsgd1na2vs0mg"},{"bike_id":"dd4b3638-2de8-4cc9-a76e-669b0598f25e","system_id":"levelo_inurba_marseille","lat":43.32288,"lon":5.38279,"is_reserved":false,"is_disabled":false,"rental_uris":{"android":"levelo://app?vid=dd4b3638-2de8-4cc9-a76e-669b0598f25e","ios":"levelo://app?vid=dd4b3638-2de8-4cc9-a76e-669b0598f25e"},"vehicle_type_id":"4","last_reported":1781382330,"current_range_meters":3600,"station_id":"ce4bhr12rcd13ifvqhqg","pricing_plan_id":"cebpf4jnsgd1na2vs0mg"},{"bike_id":"98c0a183-7ee6-4b0b-b809-46c8824508e7","system_id":"levelo_inurba_marseille","lat":43.2962,"lon":5.41883,"is_reserved":false,"is_disabled":false,"rental_uris":{"android":"levelo://app?vid=98c0a183-7ee6-4b0b-b809-46c8824508e7","ios":"levelo://app?vid=98c0a183-7ee6-4b0b-b809-46c8824508e7"},"vehicle_type_id":"4","last_reported":1781382330,"current_range_meters":3600,"station_id":"","pricing_plan_id":"cebpf4jnsgd1na2vs0mg"},{"bike_id":"61abc050-794c-43f3-96ae-15565612cd1b","system_id":"levelo_inurba_marseille","lat":43.28702,"lon":5.46667,"is_reserved":false,"is_disabled":false,"rental_uris":{"android":"levelo://app?vid=61abc050-794c-43f3-96ae-15565612cd1b","ios":"levelo://app?vid=61abc050-794c-43f3-96ae-15565612cd1b"},"vehicle_type_id":"4","last_reported":1781382330,"current_range_meters":3600,"station_id":"st_d6tc3vkotcvc738tfjhg","pricing_plan_id":"cebpf4jnsgd1na2vs0mg"},{"bike_id":"40331548-b44e-4f82-9abe-fed343e427de","system_id":"levelo_inurba_marseille","lat":43.2635,"lon":5.3782,"is_reserved":false,"is_disabled":false,"rental_uris":{"android":"levelo://app?vid=40331548-b44e-4f82-9abe-fed343e427de","ios":"levelo://app?vid=40331548-b44e-4f82-9abe-fed343e427de"},"vehicle_type_id":"4","last_reported":1781382330,"current_range_meters":3600,"station_id":"st_d163nis0mtpqnht9uue0","pricing_plan_id":"cebpf4jnsgd1na2vs0mg"},{"bike_id":"7bf6aea3-b6b7-4a23-9f60-b150cc23b36a","system_id":"levelo_inurba_marseille","lat":43.26032,"lon":5.37549,"is_reserved":false,"is_disabled":false,"rental_uris":{"android":"levelo://app?vid=7bf6aea3-b6b7-4a23-9f60-b150cc23b36a","ios":"levelo://app?vid=7bf6aea3-b6b7-4a23-9f60-b150cc23b36a"},"vehicle_type_id":"4","last_reported":1781382330,"current_range_meters":3600,"station_id":"ce4bhgh2rcd13ifvqfa0","pricing_plan_id":"cebpf4jnsgd1na2vs0mg"},{"bike_id":"1f4cf7cf-98e2-40ce-8e0b-c74ae682295d","system_id":"levelo_inurba_marseille","lat":43.26244,"lon":5.38766,"is_reserved":false,"is_disabled":false,"rental_uris":{"android":"levelo://app?vid=1f4cf7cf-98e2-40ce-8e0b-c74ae682295d","ios":"levelo://app?vid=1f4cf7cf-98e2-40ce-8e0b-c74ae682295d"},"vehicle_type_id":"4","last_reported":1781382330,"current_range_meters":3600,"station_id":"st_d8gjfg747rts73coq3b0","pricing_plan_id":"cebpf4jnsgd1na2vs0mg"},{"bike_id":"bcf1acbc-96ea-4d66-9319-085f9b03fd4a","system_id":"levelo_inurba_marseille","lat":43.29372,"lon":5.378547,"is_reserved":false,"is_disabled":false,"rental_uris":{"android":"levelo://app?vid=bcf1acbc-96ea-4d66-9319-085f9b03fd4a","ios":"levelo://app?vid=bcf1acbc-96ea-4d66-9319-085f9b03fd4a"},"vehicle_type_id":"4","last_reported":1781382330,"current_range_meters":3600,"station_id":"ce4bgjh2rcd13ifvqbf0","pricing_plan_id":"cebpf4jnsgd1na2vs0mg"},{"bike_id":"e6a05f18-e75c-47b6-8e84-506a85469b8f","system_id":"levelo_inurba_marseille","lat":43.26359,"lon":5.37821,"is_reserved":false,"is_disabled":false,"rental_uris":{"android":"levelo://app?vid=e6a05f18-e75c-47b6-8e84-506a85469b8f","ios":"levelo://app?vid=e6a05f18-e75c-47b6-8e84-506a85469b8f"},"vehicle_type_id":"4","last_reported":1781382330,"current_range_meters":3600,"station_id":"st_d163nis0mtpqnht9uue0","pricing_plan_id":"cebpf4jnsgd1na2vs0mg"},{"bike_id":"e37613eb-2b80-45f6-8be7-6bbc2d17cf64","system_id":"levelo_inurba_marseille","lat":43.24808,"lon":5.37435,"is_reserved":false,"is_disabled":true,"rental_uris":{"android":"levelo://app?vid=e37613eb-2b80-45f6-8be7-6bbc2d17cf64","ios":"levelo://app?vid=e37613eb-2b80-45f6-8be7-6bbc2d17cf64"},"vehicle_type_id":"4","last_reported":1781382330,"current_range_meters":3600,"station_id":"ce4bhgh2rcd13ifvqfb0","pricing_plan_id":"cebpf4jnsgd1na2vs0mg"},{"bike_id":"eda98293-5c91-4dae-89c6-486a45b00f60","system_id":"levelo_inurba_marseille","lat":43.23272,"lon":5.40099,"is_reserved":false,"is_disabled":false,"rental_uris":{"android":"levelo://app?vid=eda98293-5c91-4dae-89c6-486a45b00f60","ios":"levelo://app?vid=eda98293-5c91-4dae-89c6-486a45b00f60"},"vehicle_type_id":"4","last_reported":1781382330,"current_range_meters":3600,"station_id":"","pricing_plan_id":"cebpf4jnsgd1na2vs0mg"},{"bike_id":"cf5f1ea4-0e45-4ba0-8787-c8293c34937e","system_id":"levelo_inurba_marseille","lat":43.26364,"lon":5.41085,"is_reserved":false,"is_disabled":false,"rental_uris":{"android":"levelo://app?vid=cf5f1ea4-0e45-4ba0-8787-c8293c34937e","ios":"levelo://app?vid=cf5f1ea4-0e45-4ba0-8787-c8293c34937e"},"vehicle_type_id":"4","last_reported":1781382330,"current_range_meters":3600,"station_id":"st_d4e5ca6na9uc73bfl5fg","pricing_plan_id":"cebpf4jnsgd1na2vs0mg"},{"bike_id":"77a3e5cd-10a1-4b18-bd77-e146c62f220c","system_id":"levelo_inurba_marseille","lat":43.28003,"lon":5.37518,"is_reserved":false,"is_disabled":false,"rental_uris":{"android":"levelo://app?vid=77a3e5cd-10a1-4b18-bd77-e146c62f220c","ios":"levelo://app?vid=77a3e5cd-10a1-4b18-bd77-e146c62f220c"},"vehicle_type_id":"4","last_reported":1781382330,"current_range_meters":3600,"station_id":"","pricing_plan_id":"cebpf4jnsgd1na2vs0mg"},{"bike_id":"9f069751-295a-496b-b19c-281f4491a5fd","system_id":"levelo_inurba_marseille","lat":43.35052,"lon":5.35044,"is_reserved":false,"is_disabled":false,"rental_uris":{"android":"levelo://app?vid=9f069751-295a-496b-b19c-281f4491a5fd","ios":"levelo://app?vid=9f069751-295a-496b-b19c-281f4491a5fd"},"vehicle_type_id":"4","last_reported":1781382330,"current_range_meters":4000,"station_id":"","pricing_plan_id":"cebpf4jnsgd1na2vs0mg"},{"bike_id":"35725721-aacd-48c4-989e-cdc17e9d3bbe","system_id":"levelo_inurba_marseille","lat":43.23889,"lon":5.37462,"is_reserved":false,"is_disabled":false,"rental_uris":{"android":"levelo://app?vid=35725721-aacd-48c4-989e-cdc17e9d3bbe","ios":"levelo://app?vid=35725721-aacd-48c4-989e-cdc17e9d3bbe"},"vehicle_type_id":"4","last_reported":1781382330,"current_range_meters":4000,"station_id":"st_d6sm7csbq4hs73f8fpjg","pricing_plan_id":"cebpf4jnsgd1na2vs0mg"},{"bike_id":"1c2ef152-9632-42ad-be32-9cbea9645d01","system_id":"levelo_inurba_marseille","lat":43.25411,"lon":5.37621,"is_reserved":false,"is_disabled":false,"rental_uris":{"android":"levelo://app?vid=1c2ef152-9632-42ad-be32-9cbea9645d01","ios":"levelo://app?vid=1c2ef152-9632-42ad-be32-9cbea9645d01"},"vehicle_type_id":"4","last_reported":1781382330,"current_range_meters":4000,"station_id":"","pricing_plan_id":"cebpf4jnsgd1na2vs0mg"},{"bike_id":"3e16236a-b1a7-4f74-90d7-ef9461349247","system_id":"levelo_inurba_marseille","lat":43.260254,"lon":5.375511,"is_reserved":false,"is_disabled":false,"rental_uris":{"android":"levelo://app?vid=3e16236a-b1a7-4f74-90d7-ef9461349247","ios":"levelo://app?vid=3e16236a-b1a7-4f74-90d7-ef9461349247"},"vehicle_type_id":"4","last_reported":1781382330,"current_range_meters":4000,"station_id":"ce4bhgh2rcd13ifvqfa0","pricing_plan_id":"cebpf4jnsgd1na2vs0mg"},{"bike_id":"41ea6779-9979-4cd2-a1a1-bea99fc99dc3","system_id":"levelo_inurba_marseille","lat":43.30217,"lon":5.39505,"is_reserved":false,"is_disabled":true,"rental_uris":{"android":"levelo://app?vid=41ea6779-9979-4cd2-a1a1-bea99fc99dc3","ios":"levelo://app?vid=41ea6779-9979-4cd2-a1a1-bea99fc99dc3"},"vehicle_type_id":"4","last_reported":1781382330,"current_range_meters":4000,"station_id":"ce4bh0p2rcd13ifvqd70","pricing_plan_id":"cebpf4jnsgd1na2vs0mg"},{"bike_id":"4a601d84-ccd4-423d-a231-177d97fa6ea8","system_id":"levelo_inurba_marseille","lat":43.255793,"lon":5.382413,"is_reserved":false,"is_disabled":false,"rental_uris":{"android":"levelo://app?vid=4a601d84-ccd4-423d-a231-177d97fa6ea8","ios":"levelo://app?vid=4a601d84-ccd4-423d-a231-177d97fa6ea8"},"vehicle_type_id":"4","last_reported":1781382330,"current_range_meters":4000,"station_id":"ce4bhih2rcd13ifvqfs0","pricing_plan_id":"cebpf4jnsgd1na2vs0mg"},{"bike_id":"35565049-90de-4fb4-b35d-e9c548924e41","system_id":"levelo_inurba_marseille","lat":43.2679,"lon":5.39414,"is_reserved":false,"is_disabled":true,"rental_uris":{"android":"levelo://app?vid=35565049-90de-4fb4-b35d-e9c548924e41","ios":"levelo://app?vid=35565049-90de-4fb4-b35d-e9c548924e41"},"vehicle_type_id":"4","last_reported":1781382330,"current_range_meters":4000,"station_id":"ce4bhh12rcd13ifvqfg0","pricing_plan_id":"cebpf4jnsgd1na2vs0mg"},{"bike_id":"44368fe8-42bc-4d15-af49-3e8cdb900dbb","system_id":"levelo_inurba_marseille","lat":43.32492,"lon":5.38294,"is_reserved":false,"is_disabled":false,"rental_uris":{"android":"levelo://app?vid=44368fe8-42bc-4d15-af49-3e8cdb900dbb","ios":"levelo://app?vid=44368fe8-42bc-4d15-af49-3e8cdb900dbb"},"vehicle_type_id":"4","last_reported":1781382330,"current_range_meters":4000,"station_id":"st_d4asgbiv49dc73anf9m0","pricing_plan_id":"cebpf4jnsgd1na2vs0mg"},{"bike_id":"67eab827-ed39-45e0-8930-3403642933ee","system_id":"levelo_inurba_marseille","lat":43.29485,"lon":5.43315,"is_reserved":false,"is_disabled":false,"rental_uris":{"android":"levelo://app?vid=67eab827-ed39-45e0-8930-3403642933ee","ios":"levelo://app?vid=67eab827-ed39-45e0-8930-3403642933ee"},"vehicle_type_id":"4","last_reported":1781382330,"current_range_meters":4000,"station_id":"st_d3j5ugp08ojc73fj9d10","pricing_plan_id":"cebpf4jnsgd1na2vs0mg"},{"bike_id":"1625d25d-0aae-4e8f-bda7-815f82406869","system_id":"levelo_inurba_marseille","lat":43.299268,"lon":5.413193,"is_reserved":false,"is_disabled":true,"rental_uris":{"android":"levelo://app?vid=1625d25d-0aae-4e8f-bda7-815f82406869","ios":"levelo://app?vid=1625d25d-0aae-4e8f-bda7-815f82406869"},"vehicle_type_id":"4","last_reported":1781382330,"current_range_meters":4000,"station_id":"","pricing_plan_id":"cebpf4jnsgd1na2vs0mg"},{"bike_id":"e9928c56-313a-4969-ab2c-0f3f1652603e","system_id":"levelo_inurba_marseille","lat":43.23778,"lon":5.36624,"is_reserved":false,"is_disabled":false,"rental_uris":{"android":"levelo://app?vid=e9928c56-313a-4969-ab2c-0f3f1652603e","ios":"levelo://app?vid=e9928c56-313a-4969-ab2c-0f3f1652603e"},"vehicle_type_id":"4","last_reported":1781382330,"current_range_meters":4000,"station_id":"st_d3nk18o9ro0c73en2l3g","pricing_plan_id":"cebpf4jnsgd1na2vs0mg"},{"bike_id":"01974ce9-2ce7-4184-9698-03768bec9bb4","system_id":"levelo_inurba_marseille","lat":43.28682,"lon":5.46646,"is_reserved":false,"is_disabled":false,"rental_uris":{"android":"levelo://app?vid=01974ce9-2ce7-4184-9698-03768bec9bb4","ios":"levelo://app?vid=01974ce9-2ce7-4184-9698-03768bec9bb4"},"vehicle_type_id":"4","last_reported":1781382330,"current_range_meters":4000,"station_id":"st_d6tc3vkotcvc738tfjhg","pricing_plan_id":"cebpf4jnsgd1na2vs0mg"},{"bike_id":"292ba82b-0dab-46c1-b4a2-48a52268ff1c","system_id":"levelo_inurba_marseille","lat":43.26563,"lon":5.39001,"is_reserved":false,"is_disabled":true,"rental_uris":{"android":"levelo://app?vid=292ba82b-0dab-46c1-b4a2-48a52268ff1c","ios":"levelo://app?vid=292ba82b-0dab-46c1-b4a2-48a52268ff1c"},"vehicle_type_id":"4","last_reported":1781382330,"current_range_meters":4000,"station_id":"ce4bhe12rcd13ifvqf30","pricing_plan_id":"cebpf4jnsgd1na2vs0mg"},{"bike_id":"90311992-2c71-40b7-b72d-4527bda93cb3","system_id":"levelo_inurba_marseille","lat":43.27902,"lon":5.38011,"is_reserved":false,"is_disabled":false,"rental_uris":{"android":"levelo://app?vid=90311992-2c71-40b7-b72d-4527bda93cb3","ios":"levelo://app?vid=90311992-2c71-40b7-b72d-4527bda93cb3"},"vehicle_type_id":"4","last_reported":1781382330,"current_range_meters":4000,"station_id":"ce4bhf92rcd13ifvqf50","pricing_plan_id":"cebpf4jnsgd1na2vs0mg"},{"bike_id":"2da49bc2-114e-4776-8539-fc7b31b58185","system_id":"levelo_inurba_marseille","lat":43.31238,"lon":5.36832,"is_reserved":false,"is_disabled":false,"rental_uris":{"android":"levelo://app?vid=2da49bc2-114e-4776-8539-fc7b31b58185","ios":"levelo://app?vid=2da49bc2-114e-4776-8539-fc7b31b58185"},"vehicle_type_id":"4","last_reported":1781382330,"current_range_meters":4000,"station_id":"ce4bgl92rcd13ifvqbq0","pricing_plan_id":"cebpf4jnsgd1na2vs0mg"},{"bike_id":"db8c5b68-a2ae-4ccd-8b82-df47b61ade41","system_id":"levelo_inurba_marseille","lat":43.2464,"lon":5.37975,"is_reserved":false,"is_disabled":false,"rental_uris":{"android":"levelo://app?vid=db8c5b68-a2ae-4ccd-8b82-df47b61ade41","ios":"levelo://app?vid=db8c5b68-a2ae-4ccd-8b82-df47b61ade41"},"vehicle_type_id":"4","last_reported":1781382330,"current_range_meters":4000,"station_id":"","pricing_plan_id":"cebpf4jnsgd1na2vs0mg"},{"bike_id":"c8ac402a-38f1-4e85-814c-a2b196b01e33","system_id":"levelo_inurba_marseille","lat":43.28572,"lon":5.39496,"is_reserved":false,"is_disabled":false,"rental_uris":{"android":"levelo://app?vid=c8ac402a-38f1-4e85-814c-a2b196b01e33","ios":"levelo://app?vid=c8ac402a-38f1-4e85-814c-a2b196b01e33"},"vehicle_type_id":"4","last_reported":1781382330,"current_range_meters":4000,"station_id":"ce4bh292rcd13ifvqdg0","pricing_plan_id":"cebpf4jnsgd1na2vs0mg"},{"bike_id":"6edf579f-78f6-4a80-8faa-35bdd39ec8f9","system_id":"levelo_inurba_marseille","lat":43.30533,"lon":5.36545,"is_reserved":false,"is_disabled":false,"rental_uris":{"android":"levelo://app?vid=6edf579f-78f6-4a80-8faa-35bdd39ec8f9","ios":"levelo://app?vid=6edf579f-78f6-4a80-8faa-35bdd39ec8f9"},"vehicle_type_id":"4","last_reported":1781382330,"current_range_meters":4400,"station_id":"ce4bgs12rcd13ifvqcag","pricing_plan_id":"cebpf4jnsgd1na2vs0mg"},{"bike_id":"1b760e79-fb80-4912-b575-4daac73842eb","system_id":"levelo_inurba_marseille","lat":43.255843,"lon":5.382241,"is_reserved":false,"is_disabled":false,"rental_uris":{"android":"levelo://app?vid=1b760e79-fb80-4912-b575-4daac73842eb","ios":"levelo://app?vid=1b760e79-fb80-4912-b575-4daac73842eb"},"vehicle_type_id":"4","last_reported":1781382330,"current_range_meters":4400,"station_id":"ce4bhih2rcd13ifvqfs0","pricing_plan_id":"cebpf4jnsgd1na2vs0mg"},{"bike_id":"a4974e1f-f79f-4da7-8cbc-b633eb3232d0","system_id":"levelo_inurba_marseille","lat":43.29598,"lon":5.38073,"is_reserved":false,"is_disabled":false,"rental_uris":{"android":"levelo://app?vid=a4974e1f-f79f-4da7-8cbc-b633eb3232d0","ios":"levelo://app?vid=a4974e1f-f79f-4da7-8cbc-b633eb3232d0"},"vehicle_type_id":"4","last_reported":1781382330,"current_range_meters":4400,"station_id":"ce4bgl12rcd13ifvqbo0","pricing_plan_id":"cebpf4jnsgd1na2vs0mg"},{"bike_id":"84922035-8b7a-40e7-99b5-1ee6a926de30","system_id":"levelo_inurba_marseille","lat":43.29043,"lon":5.36933,"is_reserved":false,"is_disabled":false,"rental_uris":{"android":"levelo://app?vid=84922035-8b7a-40e7-99b5-1ee6a926de30","ios":"levelo://app?vid=84922035-8b7a-40e7-99b5-1ee6a926de30"},"vehicle_type_id":"4","last_reported":1781382330,"current_range_meters":4400,"station_id":"","pricing_plan_id":"cebpf4jnsgd1na2vs0mg"},{"bike_id":"cdcc5aa4-f345-4ac7-9e38-4873c58f14fc","system_id":"levelo_inurba_marseille","lat":43.30944,"lon":5.39035,"is_reserved":false,"is_disabled":false,"rental_uris":{"android":"levelo://app?vid=cdcc5aa4-f345-4ac7-9e38-4873c58f14fc","ios":"levelo://app?vid=cdcc5aa4-f345-4ac7-9e38-4873c58f14fc"},"vehicle_type_id":"4","last_reported":1781382330,"current_range_meters":4400,"station_id":"ce4bgup2rcd13ifvqco0","pricing_plan_id":"cebpf4jnsgd1na2vs0mg"},{"bike_id":"2d8a047b-0411-40fc-a69f-3169f78c4ee9","system_id":"levelo_inurba_marseille","lat":43.32362,"lon":5.36756,"is_reserved":false,"is_disabled":false,"rental_uris":{"android":"levelo://app?vid=2d8a047b-0411-40fc-a69f-3169f78c4ee9","ios":"levelo://app?vid=2d8a047b-0411-40fc-a69f-3169f78c4ee9"},"vehicle_type_id":"4","last_reported":1781382330,"current_range_meters":4400,"station_id":"ce4bhsh2rcd13ifvqi2g","pricing_plan_id":"cebpf4jnsgd1na2vs0mg"},{"bike_id":"fae9e422-64fd-48b6-a83b-e62363853497","system_id":"levelo_inurba_marseille","lat":43.30098,"lon":5.38286,"is_reserved":false,"is_disabled":false,"rental_uris":{"android":"levelo://app?vid=fae9e422-64fd-48b6-a83b-e62363853497","ios":"levelo://app?vid=fae9e422-64fd-48b6-a83b-e62363853497"},"vehicle_type_id":"4","last_reported":1781382330,"current_range_meters":4400,"station_id":"","pricing_plan_id":"cebpf4jnsgd1na2vs0mg"},{"bike_id":"abb500d4-9db3-49c1-855d-09267fc106f9","system_id":"levelo_inurba_marseille","lat":43.24807,"lon":5.37434,"is_reserved":false,"is_disabled":false,"rental_uris":{"android":"levelo://app?vid=abb500d4-9db3-49c1-855d-09267fc106f9","ios":"levelo://app?vid=abb500d4-9db3-49c1-855d-09267fc106f9"},"vehicle_type_id":"4","last_reported":1781382330,"current_range_meters":4400,"station_id":"ce4bhgh2rcd13ifvqfb0","pricing_plan_id":"cebpf4jnsgd1na2vs0mg"},{"bike_id":"76d45bba-2651-47ae-ab33-3fbfbf70f2bd","system_id":"levelo_inurba_marseille","lat":43.29627,"lon":5.40596,"is_reserved":false,"is_disabled":false,"rental_uris":{"android":"levelo://app?vid=76d45bba-2651-47ae-ab33-3fbfbf70f2bd","ios":"levelo://app?vid=76d45bba-2651-47ae-ab33-3fbfbf70f2bd"},"vehicle_type_id":"4","last_reported":1781382330,"current_range_meters":4400,"station_id":"ce4bh0h2rcd13ifvqd60","pricing_plan_id":"cebpf4jnsgd1na2vs0mg"},{"bike_id":"7118e032-169a-4b65-9aa8-f820c507c554","system_id":"levelo_inurba_marseille","lat":43.284,"lon":5.37552,"is_reserved":false,"is_disabled":false,"rental_uris":{"android":"levelo://app?vid=7118e032-169a-4b65-9aa8-f820c507c554","ios":"levelo://app?vid=7118e032-169a-4b65-9aa8-f820c507c554"},"vehicle_type_id":"4","last_reported":1781382330,"current_range_meters":4400,"station_id":"ce4bh412rcd13ifvqds0","pricing_plan_id":"cebpf4jnsgd1na2vs0mg"},{"bike_id":"521a3a42-fce6-4db8-a48e-6826976c55af","system_id":"levelo_inurba_marseille","lat":43.31658,"lon":5.42397,"is_reserved":false,"is_disabled":false,"rental_uris":{"android":"levelo://app?vid=521a3a42-fce6-4db8-a48e-6826976c55af","ios":"levelo://app?vid=521a3a42-fce6-4db8-a48e-6826976c55af"},"vehicle_type_id":"4","last_reported":1781382330,"current_range_meters":4400,"station_id":"","pricing_plan_id":"cebpf4jnsgd1na2vs0mg"},{"bike_id":"626cb758-6f24-46c0-b417-f4560003d4cd","system_id":"levelo_inurba_marseille","lat":43.26211,"lon":5.37441,"is_reserved":false,"is_disabled":false,"rental_uris":{"android":"levelo://app?vid=626cb758-6f24-46c0-b417-f4560003d4cd","ios":"levelo://app?vid=626cb758-6f24-46c0-b417-f4560003d4cd"},"vehicle_type_id":"4","last_reported":1781382330,"current_range_meters":4400,"station_id":"ce4bhgp2rcd13ifvqfc0","pricing_plan_id":"cebpf4jnsgd1na2vs0mg"},{"bike_id":"7d037c9f-8c21-4bf9-a0a5-564b835baaa9","system_id":"levelo_inurba_marseille","lat":43.26708,"lon":5.38214,"is_reserved":false,"is_disabled":true,"rental_uris":{"android":"levelo://app?vid=7d037c9f-8c21-4bf9-a0a5-564b835baaa9","ios":"levelo://app?vid=7d037c9f-8c21-4bf9-a0a5-564b835baaa9"},"vehicle_type_id":"4","last_reported":1781382330,"current_range_meters":4400,"station_id":"","pricing_plan_id":"cebpf4jnsgd1na2vs0mg"},{"bike_id":"5f68454a-3f46-4716-98ea-a07b68026da7","system_id":"levelo_inurba_marseille","lat":43.30091,"lon":5.37749,"is_reserved":false,"is_disabled":false,"rental_uris":{"android":"levelo://app?vid=5f68454a-3f46-4716-98ea-a07b68026da7","ios":"levelo://app?vid=5f68454a-3f46-4716-98ea-a07b68026da7"},"vehicle_type_id":"4","last_reported":1781382330,"current_range_meters":4400,"station_id":"","pricing_plan_id":"cebpf4jnsgd1na2vs0mg"},{"bike_id":"5245b8db-6377-46b1-b931-155a581da557","system_id":"levelo_inurba_marseille","lat":43.27807,"lon":5.40706,"is_reserved":false,"is_disabled":false,"rental_uris":{"android":"levelo://app?vid=5245b8db-6377-46b1-b931-155a581da557","ios":"levelo://app?vid=5245b8db-6377-46b1-b931-155a581da557"},"vehicle_type_id":"4","last_reported":1781382330,"current_range_meters":4400,"station_id":"ce4bhnh2rcd13ifvqgtg","pricing_plan_id":"cebpf4jnsgd1na2vs0mg"},{"bike_id":"bd6fa762-e644-446a-abf7-290f25ca3f95","system_id":"levelo_inurba_marseille","lat":43.262193,"lon":5.374553,"is_reserved":false,"is_disabled":false,"rental_uris":{"android":"levelo://app?vid=bd6fa762-e644-446a-abf7-290f25ca3f95","ios":"levelo://app?vid=bd6fa762-e644-446a-abf7-290f25ca3f95"},"vehicle_type_id":"4","last_reported":1781382330,"current_range_meters":4400,"station_id":"ce4bhgp2rcd13ifvqfc0","pricing_plan_id":"cebpf4jnsgd1na2vs0mg"},{"bike_id":"5f189998-b2b6-4e38-b849-68910c9a3d84","system_id":"levelo_inurba_marseille","lat":43.317514,"lon":5.39012,"is_reserved":false,"is_disabled":false,"rental_uris":{"android":"levelo://app?vid=5f189998-b2b6-4e38-b849-68910c9a3d84","ios":"levelo://app?vid=5f189998-b2b6-4e38-b849-68910c9a3d84"},"vehicle_type_id":"4","last_reported":1781382330,"current_range_meters":4400,"station_id":"","pricing_plan_id":"cebpf4jnsgd1na2vs0mg"},{"bike_id":"b00d8bd0-800e-45a7-ac0f-43138ef8f6fe","system_id":"levelo_inurba_marseille","lat":43.267797,"lon":5.394175,"is_reserved":false,"is_disabled":true,"rental_uris":{"android":"levelo://app?vid=b00d8bd0-800e-45a7-ac0f-43138ef8f6fe","ios":"levelo://app?vid=b00d8bd0-800e-45a7-ac0f-43138ef8f6fe"},"vehicle_type_id":"4","last_reported":1781382330,"current_range_meters":4400,"station_id":"ce4bhh12rcd13ifvqfg0","pricing_plan_id":"cebpf4jnsgd1na2vs0mg"},{"bike_id":"fbb70f78-4c55-479f-8eb8-eb310b462ab3","system_id":"levelo_inurba_marseille","lat":43.29974,"lon":5.38484,"is_reserved":false,"is_disabled":false,"rental_uris":{"android":"levelo://app?vid=fbb70f78-4c55-479f-8eb8-eb310b462ab3","ios":"levelo://app?vid=fbb70f78-4c55-479f-8eb8-eb310b462ab3"},"vehicle_type_id":"4","last_reported":1781382330,"current_range_meters":4400,"station_id":"ce4bgj92rcd13ifvqbd0","pricing_plan_id":"cebpf4jnsgd1na2vs0mg"},{"bike_id":"59534949-88e2-4962-b4ad-3849394cf47c","system_id":"levelo_inurba_marseille","lat":43.29036,"lon":5.38629,"is_reserved":false,"is_disabled":false,"rental_uris":{"android":"levelo://app?vid=59534949-88e2-4962-b4ad-3849394cf47c","ios":"levelo://app?vid=59534949-88e2-4962-b4ad-3849394cf47c"},"vehicle_type_id":"4","last_reported":1781382330,"current_range_meters":4400,"station_id":"ce4bh4p2rcd13ifvqe0g","pricing_plan_id":"cebpf4jnsgd1na2vs0mg"},{"bike_id":"437e3ba7-ea12-4e88-a20f-de0ed79ac149","system_id":"levelo_inurba_marseille","lat":43.24091,"lon":5.37742,"is_reserved":false,"is_disabled":true,"rental_uris":{"android":"levelo://app?vid=437e3ba7-ea12-4e88-a20f-de0ed79ac149","ios":"levelo://app?vid=437e3ba7-ea12-4e88-a20f-de0ed79ac149"},"vehicle_type_id":"4","last_reported":1781382330,"current_range_meters":4400,"station_id":"ce4bhnp2rcd13ifvqgvg","pricing_plan_id":"cebpf4jnsgd1na2vs0mg"},{"bike_id":"2fa6d77b-257a-4418-a639-9aa2c6997455","system_id":"levelo_inurba_marseille","lat":43.28488,"lon":5.38429,"is_reserved":false,"is_disabled":false,"rental_uris":{"android":"levelo://app?vid=2fa6d77b-257a-4418-a639-9aa2c6997455","ios":"levelo://app?vid=2fa6d77b-257a-4418-a639-9aa2c6997455"},"vehicle_type_id":"4","last_reported":1781382330,"current_range_meters":4400,"station_id":"ce4bh512rcd13ifvqe3g","pricing_plan_id":"cebpf4jnsgd1na2vs0mg"},{"bike_id":"6db0e189-20d1-4d92-ab9f-a2ad8e479225","system_id":"levelo_inurba_marseille","lat":43.29272,"lon":5.35559,"is_reserved":false,"is_disabled":false,"rental_uris":{"android":"levelo://app?vid=6db0e189-20d1-4d92-ab9f-a2ad8e479225","ios":"levelo://app?vid=6db0e189-20d1-4d92-ab9f-a2ad8e479225"},"vehicle_type_id":"4","last_reported":1781382330,"current_range_meters":4400,"station_id":"","pricing_plan_id":"cebpf4jnsgd1na2vs0mg"},{"bike_id":"d0328725-f32a-4a6f-a0f4-fda94998ad6b","system_id":"levelo_inurba_marseille","lat":43.25495,"lon":5.37654,"is_reserved":false,"is_disabled":false,"rental_uris":{"android":"levelo://app?vid=d0328725-f32a-4a6f-a0f4-fda94998ad6b","ios":"levelo://app?vid=d0328725-f32a-4a6f-a0f4-fda94998ad6b"},"vehicle_type_id":"4","last_reported":1781382330,"current_range_meters":4400,"station_id":"ce4bhh12rcd13ifvqff0","pricing_plan_id":"cebpf4jnsgd1na2vs0mg"},{"bike_id":"86b4821b-066f-4af7-9341-601c3120669c","system_id":"levelo_inurba_marseille","lat":43.26239,"lon":5.38772,"is_reserved":false,"is_disabled":false,"rental_uris":{"android":"levelo://app?vid=86b4821b-066f-4af7-9341-601c3120669c","ios":"levelo://app?vid=86b4821b-066f-4af7-9341-601c3120669c"},"vehicle_type_id":"4","last_reported":1781382330,"current_range_meters":4800,"station_id":"st_d8gjfg747rts73coq3b0","pricing_plan_id":"cebpf4jnsgd1na2vs0mg"},{"bike_id":"1143b491-b9a7-493a-9f0e-4e9053638adc","system_id":"levelo_inurba_marseille","lat":43.25496,"lon":5.37646,"is_reserved":false,"is_disabled":false,"rental_uris":{"android":"levelo://app?vid=1143b491-b9a7-493a-9f0e-4e9053638adc","ios":"levelo://app?vid=1143b491-b9a7-493a-9f0e-4e9053638adc"},"vehicle_type_id":"4","last_reported":1781382330,"current_range_meters":4800,"station_id":"ce4bhh12rcd13ifvqff0","pricing_plan_id":"cebpf4jnsgd1na2vs0mg"},{"bike_id":"b9d1843a-d85f-480b-9e0d-ac8e9afe5d9f","system_id":"levelo_inurba_marseille","lat":43.337444,"lon":5.374475,"is_reserved":false,"is_disabled":false,"rental_uris":{"android":"levelo://app?vid=b9d1843a-d85f-480b-9e0d-ac8e9afe5d9f","ios":"levelo://app?vid=b9d1843a-d85f-480b-9e0d-ac8e9afe5d9f"},"vehicle_type_id":"4","last_reported":1781382330,"current_range_meters":4800,"station_id":"","pricing_plan_id":"cebpf4jnsgd1na2vs0mg"},{"bike_id":"de34cc43-9c18-41de-a3e9-5ab17a96e097","system_id":"levelo_inurba_marseille","lat":43.2979,"lon":5.3811,"is_reserved":false,"is_disabled":true,"rental_uris":{"android":"levelo://app?vid=de34cc43-9c18-41de-a3e9-5ab17a96e097","ios":"levelo://app?vid=de34cc43-9c18-41de-a3e9-5ab17a96e097"},"vehicle_type_id":"4","last_reported":1781382330,"current_range_meters":4800,"station_id":"ce4bgip2rcd13ifvqbb0","pricing_plan_id":"cebpf4jnsgd1na2vs0mg"},{"bike_id":"ac3358ce-481e-4fda-9f9b-670be68b265e","system_id":"levelo_inurba_marseille","lat":43.31475,"lon":5.40208,"is_reserved":false,"is_disabled":false,"rental_uris":{"android":"levelo://app?vid=ac3358ce-481e-4fda-9f9b-670be68b265e","ios":"levelo://app?vid=ac3358ce-481e-4fda-9f9b-670be68b265e"},"vehicle_type_id":"4","last_reported":1781382330,"current_range_meters":4800,"station_id":"","pricing_plan_id":"cebpf4jnsgd1na2vs0mg"},{"bike_id":"a303e4db-b9ba-4d63-9eff-f7e5a8e536c2","system_id":"levelo_inurba_marseille","lat":43.28048,"lon":5.40922,"is_reserved":false,"is_disabled":false,"rental_uris":{"android":"levelo://app?vid=a303e4db-b9ba-4d63-9eff-f7e5a8e536c2","ios":"levelo://app?vid=a303e4db-b9ba-4d63-9eff-f7e5a8e536c2"},"vehicle_type_id":"4","last_reported":1781382330,"current_range_meters":4800,"station_id":"","pricing_plan_id":"cebpf4jnsgd1na2vs0mg"},{"bike_id":"234a7f53-89f3-49d1-8805-1eb416beb577","system_id":"levelo_inurba_marseille","lat":43.29267,"lon":5.38419,"is_reserved":false,"is_disabled":false,"rental_uris":{"android":"levelo://app?vid=234a7f53-89f3-49d1-8805-1eb416beb577","ios":"levelo://app?vid=234a7f53-89f3-49d1-8805-1eb416beb577"},"vehicle_type_id":"4","last_reported":1781382330,"current_range_meters":4800,"station_id":"ce4bh692rcd13ifvqea0","pricing_plan_id":"cebpf4jnsgd1na2vs0mg"},{"bike_id":"4b84cc20-93d9-4e85-811a-ba432f50bc38","system_id":"levelo_inurba_marseille","lat":43.26187,"lon":5.38083,"is_reserved":false,"is_disabled":false,"rental_uris":{"android":"levelo://app?vid=4b84cc20-93d9-4e85-811a-ba432f50bc38","ios":"levelo://app?vid=4b84cc20-93d9-4e85-811a-ba432f50bc38"},"vehicle_type_id":"4","last_reported":1781382330,"current_range_meters":4800,"station_id":"","pricing_plan_id":"cebpf4jnsgd1na2vs0mg"},{"bike_id":"1604ce63-55c7-46ac-bdbb-dd37aeac50f3","system_id":"levelo_inurba_marseille","lat":43.26052,"lon":5.39406,"is_reserved":false,"is_disabled":false,"rental_uris":{"android":"levelo://app?vid=1604ce63-55c7-46ac-bdbb-dd37aeac50f3","ios":"levelo://app?vid=1604ce63-55c7-46ac-bdbb-dd37aeac50f3"},"vehicle_type_id":"4","last_reported":1781382330,"current_range_meters":4800,"station_id":"ce4bhh92rcd13ifvqfj0","pricing_plan_id":"cebpf4jnsgd1na2vs0mg"},{"bike_id":"70074e2a-94c4-4bb0-bbca-a24f4105eb9f","system_id":"levelo_inurba_marseille","lat":43.29089,"lon":5.38399,"is_reserved":false,"is_disabled":false,"rental_uris":{"android":"levelo://app?vid=70074e2a-94c4-4bb0-bbca-a24f4105eb9f","ios":"levelo://app?vid=70074e2a-94c4-4bb0-bbca-a24f4105eb9f"},"vehicle_type_id":"4","last_reported":1781382330,"current_range_meters":4800,"station_id":"","pricing_plan_id":"cebpf4jnsgd1na2vs0mg"},{"bike_id":"ae35a900-7b76-4ffe-aed1-c8ce5e1dd98a","system_id":"levelo_inurba_marseille","lat":43.25082,"lon":5.39513,"is_reserved":false,"is_disabled":false,"rental_uris":{"android":"levelo://app?vid=ae35a900-7b76-4ffe-aed1-c8ce5e1dd98a","ios":"levelo://app?vid=ae35a900-7b76-4ffe-aed1-c8ce5e1dd98a"},"vehicle_type_id":"4","last_reported":1781382330,"current_range_meters":4800,"station_id":"ce4bhm12rcd13ifvqgkg","pricing_plan_id":"cebpf4jnsgd1na2vs0mg"},{"bike_id":"dd642cd4-21e5-4e97-885f-8917ed7d336e","system_id":"levelo_inurba_marseille","lat":43.21746,"lon":5.34605,"is_reserved":false,"is_disabled":false,"rental_uris":{"android":"levelo://app?vid=dd642cd4-21e5-4e97-885f-8917ed7d336e","ios":"levelo://app?vid=dd642cd4-21e5-4e97-885f-8917ed7d336e"},"vehicle_type_id":"4","last_reported":1781382330,"current_range_meters":4800,"station_id":"st_cvj6r9ubvosntc0bgbag","pricing_plan_id":"cebpf4jnsgd1na2vs0mg"},{"bike_id":"44c94aa1-6d43-4de1-bf1f-52b0672a538b","system_id":"levelo_inurba_marseille","lat":43.26356,"lon":5.37809,"is_reserved":false,"is_disabled":false,"rental_uris":{"android":"levelo://app?vid=44c94aa1-6d43-4de1-bf1f-52b0672a538b","ios":"levelo://app?vid=44c94aa1-6d43-4de1-bf1f-52b0672a538b"},"vehicle_type_id":"4","last_reported":1781382330,"current_range_meters":4800,"station_id":"","pricing_plan_id":"cebpf4jnsgd1na2vs0mg"},{"bike_id":"8f5b297e-a101-4dac-9b10-8764ca019902","system_id":"levelo_inurba_marseille","lat":43.313634,"lon":5.38489,"is_reserved":false,"is_disabled":true,"rental_uris":{"android":"levelo://app?vid=8f5b297e-a101-4dac-9b10-8764ca019902","ios":"levelo://app?vid=8f5b297e-a101-4dac-9b10-8764ca019902"},"vehicle_type_id":"4","last_reported":1781382330,"current_range_meters":4800,"station_id":"","pricing_plan_id":"cebpf4jnsgd1na2vs0mg"},{"bike_id":"b0e1c627-e366-414e-b921-4572a58307db","system_id":"levelo_inurba_marseille","lat":43.28602,"lon":5.35116,"is_reserved":false,"is_disabled":true,"rental_uris":{"android":"levelo://app?vid=b0e1c627-e366-414e-b921-4572a58307db","ios":"levelo://app?vid=b0e1c627-e366-414e-b921-4572a58307db"},"vehicle_type_id":"4","last_reported":1781382330,"current_range_meters":4800,"station_id":"ce4bhch2rcd13ifvqeug","pricing_plan_id":"cebpf4jnsgd1na2vs0mg"},{"bike_id":"af0fa59a-8ba5-42df-88ae-66bf3d82d292","system_id":"levelo_inurba_marseille","lat":43.24956,"lon":5.40475,"is_reserved":false,"is_disabled":false,"rental_uris":{"android":"levelo://app?vid=af0fa59a-8ba5-42df-88ae-66bf3d82d292","ios":"levelo://app?vid=af0fa59a-8ba5-42df-88ae-66bf3d82d292"},"vehicle_type_id":"4","last_reported":1781382330,"current_range_meters":4800,"station_id":"st_d2ngiaodas8pm72gd1h0","pricing_plan_id":"cebpf4jnsgd1na2vs0mg"},{"bike_id":"bf740f93-dcae-45bd-8189-93f0bf5977b3","system_id":"levelo_inurba_marseille","lat":43.22549,"lon":5.41643,"is_reserved":false,"is_disabled":false,"rental_uris":{"android":"levelo://app?vid=bf740f93-dcae-45bd-8189-93f0bf5977b3","ios":"levelo://app?vid=bf740f93-dcae-45bd-8189-93f0bf5977b3"},"vehicle_type_id":"4","last_reported":1781382330,"current_range_meters":4800,"station_id":"st_d2o4gvlbi1j2169b742g","pricing_plan_id":"cebpf4jnsgd1na2vs0mg"},{"bike_id":"85c669e0-7f32-4596-873a-878e48055f74","system_id":"levelo_inurba_marseille","lat":43.24804,"lon":5.37451,"is_reserved":false,"is_disabled":false,"rental_uris":{"android":"levelo://app?vid=85c669e0-7f32-4596-873a-878e48055f74","ios":"levelo://app?vid=85c669e0-7f32-4596-873a-878e48055f74"},"vehicle_type_id":"4","last_reported":1781382330,"current_range_meters":4800,"station_id":"ce4bhgh2rcd13ifvqfb0","pricing_plan_id":"cebpf4jnsgd1na2vs0mg"},{"bike_id":"502be65e-7cd6-413d-96be-2158d1ce5bc6","system_id":"levelo_inurba_marseille","lat":43.29033,"lon":5.38647,"is_reserved":false,"is_disabled":false,"rental_uris":{"android":"levelo://app?vid=502be65e-7cd6-413d-96be-2158d1ce5bc6","ios":"levelo://app?vid=502be65e-7cd6-413d-96be-2158d1ce5bc6"},"vehicle_type_id":"4","last_reported":1781382330,"current_range_meters":4800,"station_id":"ce4bh4p2rcd13ifvqe0g","pricing_plan_id":"cebpf4jnsgd1na2vs0mg"},{"bike_id":"fe131b0b-1ef9-4416-9fb2-6e419e6feba9","system_id":"levelo_inurba_marseille","lat":43.24367,"lon":5.37123,"is_reserved":false,"is_disabled":true,"rental_uris":{"android":"levelo://app?vid=fe131b0b-1ef9-4416-9fb2-6e419e6feba9","ios":"levelo://app?vid=fe131b0b-1ef9-4416-9fb2-6e419e6feba9"},"vehicle_type_id":"4","last_reported":1781382330,"current_range_meters":4800,"station_id":"ce4bhhh2rcd13ifvqfk0","pricing_plan_id":"cebpf4jnsgd1na2vs0mg"},{"bike_id":"afe91aba-8f25-471e-b9ca-461419a0abc3","system_id":"levelo_inurba_marseille","lat":43.27051,"lon":5.40267,"is_reserved":false,"is_disabled":false,"rental_uris":{"android":"levelo://app?vid=afe91aba-8f25-471e-b9ca-461419a0abc3","ios":"levelo://app?vid=afe91aba-8f25-471e-b9ca-461419a0abc3"},"vehicle_type_id":"4","last_reported":1781382330,"current_range_meters":4800,"station_id":"ce4bhk92rcd13ifvqgc0","pricing_plan_id":"cebpf4jnsgd1na2vs0mg"},{"bike_id":"0a71f412-36be-4694-9adc-7fef2b7fa966","system_id":"levelo_inurba_marseille","lat":43.28946,"lon":5.36604,"is_reserved":false,"is_disabled":true,"rental_uris":{"android":"levelo://app?vid=0a71f412-36be-4694-9adc-7fef2b7fa966","ios":"levelo://app?vid=0a71f412-36be-4694-9adc-7fef2b7fa966"},"vehicle_type_id":"4","last_reported":1781382330,"current_range_meters":4800,"station_id":"ce4bhap2rcd13ifvqek0","pricing_plan_id":"cebpf4jnsgd1na2vs0mg"},{"bike_id":"62b86990-4202-4b71-b4ef-b66f9b4ab487","system_id":"levelo_inurba_marseille","lat":43.27182,"lon":5.40975,"is_reserved":false,"is_disabled":false,"rental_uris":{"android":"levelo://app?vid=62b86990-4202-4b71-b4ef-b66f9b4ab487","ios":"levelo://app?vid=62b86990-4202-4b71-b4ef-b66f9b4ab487"},"vehicle_type_id":"4","last_reported":1781382330,"current_range_meters":5600,"station_id":"ce4bhl12rcd13ifvqgf0","pricing_plan_id":"cebpf4jnsgd1na2vs0mg"},{"bike_id":"e0a4acaa-b62c-4970-818b-fd1170d95561","system_id":"levelo_inurba_marseille","lat":43.26211,"lon":5.37441,"is_reserved":false,"is_disabled":false,"rental_uris":{"android":"levelo://app?vid=e0a4acaa-b62c-4970-818b-fd1170d95561","ios":"levelo://app?vid=e0a4acaa-b62c-4970-818b-fd1170d95561"},"vehicle_type_id":"4","last_reported":1781382330,"current_range_meters":5600,"station_id":"ce4bhgp2rcd13ifvqfc0","pricing_plan_id":"cebpf4jnsgd1na2vs0mg"},{"bike_id":"60ef35b5-2df4-436e-b925-da19a11c6328","system_id":"levelo_inurba_marseille","lat":43.32105,"lon":5.36765,"is_reserved":false,"is_disabled":false,"rental_uris":{"android":"levelo://app?vid=60ef35b5-2df4-436e-b925-da19a11c6328","ios":"levelo://app?vid=60ef35b5-2df4-436e-b925-da19a11c6328"},"vehicle_type_id":"4","last_reported":1781382330,"current_range_meters":5600,"station_id":"ce4bhrh2rcd13ifvqhug","pricing_plan_id":"cebpf4jnsgd1na2vs0mg"},{"bike_id":"d90e7aca-9b96-45d7-8c82-5368a16a48c7","system_id":"levelo_inurba_marseille","lat":43.314963,"lon":5.373121,"is_reserved":false,"is_disabled":false,"rental_uris":{"android":"levelo://app?vid=d90e7aca-9b96-45d7-8c82-5368a16a48c7","ios":"levelo://app?vid=d90e7aca-9b96-45d7-8c82-5368a16a48c7"},"vehicle_type_id":"4","last_reported":1781382330,"current_range_meters":5600,"station_id":"ce4bgt12rcd13ifvqcd0","pricing_plan_id":"cebpf4jnsgd1na2vs0mg"},{"bike_id":"bf601120-2f22-4bcd-8556-91c5f1ccc8b1","system_id":"levelo_inurba_marseille","lat":43.31405,"lon":5.38113,"is_reserved":false,"is_disabled":false,"rental_uris":{"android":"levelo://app?vid=bf601120-2f22-4bcd-8556-91c5f1ccc8b1","ios":"levelo://app?vid=bf601120-2f22-4bcd-8556-91c5f1ccc8b1"},"vehicle_type_id":"4","last_reported":1781382330,"current_range_meters":5600,"station_id":"","pricing_plan_id":"cebpf4jnsgd1na2vs0mg"},{"bike_id":"a9be34b3-7af7-48b3-85d3-4d6cad2bd612","system_id":"levelo_inurba_marseille","lat":43.2926,"lon":5.40911,"is_reserved":false,"is_disabled":false,"rental_uris":{"android":"levelo://app?vid=a9be34b3-7af7-48b3-85d3-4d6cad2bd612","ios":"levelo://app?vid=a9be34b3-7af7-48b3-85d3-4d6cad2bd612"},"vehicle_type_id":"4","last_reported":1781382330,"current_range_meters":5600,"station_id":"ce4bh192rcd13ifvqdc0","pricing_plan_id":"cebpf4jnsgd1na2vs0mg"},{"bike_id":"5b5ea2fb-3ba8-4c10-841c-ca34891a615c","system_id":"levelo_inurba_marseille","lat":43.29338,"lon":5.36392,"is_reserved":false,"is_disabled":false,"rental_uris":{"android":"levelo://app?vid=5b5ea2fb-3ba8-4c10-841c-ca34891a615c","ios":"levelo://app?vid=5b5ea2fb-3ba8-4c10-841c-ca34891a615c"},"vehicle_type_id":"4","last_reported":1781382330,"current_range_meters":5600,"station_id":"","pricing_plan_id":"cebpf4jnsgd1na2vs0mg"},{"bike_id":"47c3a402-19ac-4baa-a881-b541967288d0","system_id":"levelo_inurba_marseille","lat":43.26349,"lon":5.37833,"is_reserved":false,"is_disabled":false,"rental_uris":{"android":"levelo://app?vid=47c3a402-19ac-4baa-a881-b541967288d0","ios":"levelo://app?vid=47c3a402-19ac-4baa-a881-b541967288d0"},"vehicle_type_id":"4","last_reported":1781382330,"current_range_meters":5600,"station_id":"st_d163nis0mtpqnht9uue0","pricing_plan_id":"cebpf4jnsgd1na2vs0mg"},{"bike_id":"be004f60-661b-45b9-a00d-02d877da6c38","system_id":"levelo_inurba_marseille","lat":43.25376,"lon":5.4228,"is_reserved":false,"is_disabled":false,"rental_uris":{"android":"levelo://app?vid=be004f60-661b-45b9-a00d-02d877da6c38","ios":"levelo://app?vid=be004f60-661b-45b9-a00d-02d877da6c38"},"vehicle_type_id":"4","last_reported":1781382330,"current_range_meters":5600,"station_id":"","pricing_plan_id":"cebpf4jnsgd1na2vs0mg"},{"bike_id":"529bb8b4-7ecd-4503-843b-1199345b3c86","system_id":"levelo_inurba_marseille","lat":43.270584,"lon":5.402595,"is_reserved":false,"is_disabled":false,"rental_uris":{"android":"levelo://app?vid=529bb8b4-7ecd-4503-843b-1199345b3c86","ios":"levelo://app?vid=529bb8b4-7ecd-4503-843b-1199345b3c86"},"vehicle_type_id":"4","last_reported":1781382330,"current_range_meters":5600,"station_id":"ce4bhk92rcd13ifvqgc0","pricing_plan_id":"cebpf4jnsgd1na2vs0mg"},{"bike_id":"e946dae2-a9db-4a74-9c6e-805b3abf5a48","system_id":"levelo_inurba_marseille","lat":43.25749,"lon":5.38232,"is_reserved":false,"is_disabled":false,"rental_uris":{"android":"levelo://app?vid=e946dae2-a9db-4a74-9c6e-805b3abf5a48","ios":"levelo://app?vid=e946dae2-a9db-4a74-9c6e-805b3abf5a48"},"vehicle_type_id":"4","last_reported":1781382330,"current_range_meters":5600,"station_id":"","pricing_plan_id":"cebpf4jnsgd1na2vs0mg"},{"bike_id":"d40de561-7307-41ce-9fd9-699a8fa0c762","system_id":"levelo_inurba_marseille","lat":43.31991,"lon":5.38137,"is_reserved":false,"is_disabled":false,"rental_uris":{"android":"levelo://app?vid=d40de561-7307-41ce-9fd9-699a8fa0c762","ios":"levelo://app?vid=d40de561-7307-41ce-9fd9-699a8fa0c762"},"vehicle_type_id":"4","last_reported":1781382330,"current_range_meters":5600,"station_id":"ce4bhr12rcd13ifvqhpg","pricing_plan_id":"cebpf4jnsgd1na2vs0mg"},{"bike_id":"f9914c76-6280-4a7e-95a9-117a0072dc8e","system_id":"levelo_inurba_marseille","lat":43.24548,"lon":5.39514,"is_reserved":false,"is_disabled":false,"rental_uris":{"android":"levelo://app?vid=f9914c76-6280-4a7e-95a9-117a0072dc8e","ios":"levelo://app?vid=f9914c76-6280-4a7e-95a9-117a0072dc8e"},"vehicle_type_id":"4","last_reported":1781382330,"current_range_meters":5600,"station_id":"ce4bhlp2rcd13ifvqgjg","pricing_plan_id":"cebpf4jnsgd1na2vs0mg"},{"bike_id":"74f7660a-9096-4feb-beb3-160be45c0ab9","system_id":"levelo_inurba_marseille","lat":43.2551,"lon":5.41645,"is_reserved":false,"is_disabled":false,"rental_uris":{"android":"levelo://app?vid=74f7660a-9096-4feb-beb3-160be45c0ab9","ios":"levelo://app?vid=74f7660a-9096-4feb-beb3-160be45c0ab9"},"vehicle_type_id":"4","last_reported":1781382330,"current_range_meters":5600,"station_id":"","pricing_plan_id":"cebpf4jnsgd1na2vs0mg"},{"bike_id":"7ccc7f12-af86-44d0-8fb1-4b619c940297","system_id":"levelo_inurba_marseille","lat":43.26205,"lon":5.374495,"is_reserved":false,"is_disabled":false,"rental_uris":{"android":"levelo://app?vid=7ccc7f12-af86-44d0-8fb1-4b619c940297","ios":"levelo://app?vid=7ccc7f12-af86-44d0-8fb1-4b619c940297"},"vehicle_type_id":"4","last_reported":1781382330,"current_range_meters":5600,"station_id":"ce4bhgp2rcd13ifvqfc0","pricing_plan_id":"cebpf4jnsgd1na2vs0mg"},{"bike_id":"c6555d54-519a-459c-a7d8-0f5386f527ae","system_id":"levelo_inurba_marseille","lat":43.29721,"lon":5.37404,"is_reserved":false,"is_disabled":false,"rental_uris":{"android":"levelo://app?vid=c6555d54-519a-459c-a7d8-0f5386f527ae","ios":"levelo://app?vid=c6555d54-519a-459c-a7d8-0f5386f527ae"},"vehicle_type_id":"4","last_reported":1781382330,"current_range_meters":5600,"station_id":"","pricing_plan_id":"cebpf4jnsgd1na2vs0mg"},{"bike_id":"56c6581f-b173-4ad0-a879-90f3eca1cb90","system_id":"levelo_inurba_marseille","lat":43.27643,"lon":5.36092,"is_reserved":false,"is_disabled":false,"rental_uris":{"android":"levelo://app?vid=56c6581f-b173-4ad0-a879-90f3eca1cb90","ios":"levelo://app?vid=56c6581f-b173-4ad0-a879-90f3eca1cb90"},"vehicle_type_id":"4","last_reported":1781382330,"current_range_meters":5600,"station_id":"ce4bgj92rcd13ifvqbe0","pricing_plan_id":"cebpf4jnsgd1na2vs0mg"},{"bike_id":"e85eacf2-df37-4560-92c7-59f7e311147c","system_id":"levelo_inurba_marseille","lat":43.2558,"lon":5.38236,"is_reserved":false,"is_disabled":false,"rental_uris":{"android":"levelo://app?vid=e85eacf2-df37-4560-92c7-59f7e311147c","ios":"levelo://app?vid=e85eacf2-df37-4560-92c7-59f7e311147c"},"vehicle_type_id":"4","last_reported":1781382330,"current_range_meters":5600,"station_id":"ce4bhih2rcd13ifvqfs0","pricing_plan_id":"cebpf4jnsgd1na2vs0mg"},{"bike_id":"8e220ecf-bf2e-4209-bd0b-74b77f772687","system_id":"levelo_inurba_marseille","lat":43.29972,"lon":5.38477,"is_reserved":false,"is_disabled":true,"rental_uris":{"android":"levelo://app?vid=8e220ecf-bf2e-4209-bd0b-74b77f772687","ios":"levelo://app?vid=8e220ecf-bf2e-4209-bd0b-74b77f772687"},"vehicle_type_id":"4","last_reported":1781382330,"current_range_meters":5600,"station_id":"ce4bgj92rcd13ifvqbd0","pricing_plan_id":"cebpf4jnsgd1na2vs0mg"},{"bike_id":"043401e2-c997-4930-abb9-5eb2e05ebf2e","system_id":"levelo_inurba_marseille","lat":43.29787,"lon":5.38117,"is_reserved":false,"is_disabled":false,"rental_uris":{"android":"levelo://app?vid=043401e2-c997-4930-abb9-5eb2e05ebf2e","ios":"levelo://app?vid=043401e2-c997-4930-abb9-5eb2e05ebf2e"},"vehicle_type_id":"4","last_reported":1781382330,"current_range_meters":5600,"station_id":"ce4bgip2rcd13ifvqbb0","pricing_plan_id":"cebpf4jnsgd1na2vs0mg"},{"bike_id":"1b6a2b76-8e4c-45cf-97dc-6423eee85429","system_id":"levelo_inurba_marseille","lat":43.24951,"lon":5.40496,"is_reserved":false,"is_disabled":false,"rental_uris":{"android":"levelo://app?vid=1b6a2b76-8e4c-45cf-97dc-6423eee85429","ios":"levelo://app?vid=1b6a2b76-8e4c-45cf-97dc-6423eee85429"},"vehicle_type_id":"4","last_reported":1781382330,"current_range_meters":5600,"station_id":"st_d2ngiaodas8pm72gd1h0","pricing_plan_id":"cebpf4jnsgd1na2vs0mg"},{"bike_id":"eb274e9d-6990-4113-8c77-43786f58701d","system_id":"levelo_inurba_marseille","lat":43.27848,"lon":5.39198,"is_reserved":false,"is_disabled":false,"rental_uris":{"android":"levelo://app?vid=eb274e9d-6990-4113-8c77-43786f58701d","ios":"levelo://app?vid=eb274e9d-6990-4113-8c77-43786f58701d"},"vehicle_type_id":"4","last_reported":1781382330,"current_range_meters":5600,"station_id":"ce4bhjp2rcd13ifvqga0","pricing_plan_id":"cebpf4jnsgd1na2vs0mg"},{"bike_id":"a4367c49-3ad9-4e5d-b890-d24a763f0a44","system_id":"levelo_inurba_marseille","lat":43.28822,"lon":5.42767,"is_reserved":false,"is_disabled":false,"rental_uris":{"android":"levelo://app?vid=a4367c49-3ad9-4e5d-b890-d24a763f0a44","ios":"levelo://app?vid=a4367c49-3ad9-4e5d-b890-d24a763f0a44"},"vehicle_type_id":"4","last_reported":1781382330,"current_range_meters":5600,"station_id":"","pricing_plan_id":"cebpf4jnsgd1na2vs0mg"},{"bike_id":"4be62f42-1cee-4fee-9e89-1c1d49dd4c9d","system_id":"levelo_inurba_marseille","lat":43.284595,"lon":5.358824,"is_reserved":false,"is_disabled":false,"rental_uris":{"android":"levelo://app?vid=4be62f42-1cee-4fee-9e89-1c1d49dd4c9d","ios":"levelo://app?vid=4be62f42-1cee-4fee-9e89-1c1d49dd4c9d"},"vehicle_type_id":"4","last_reported":1781382330,"current_range_meters":5600,"station_id":"ce4bhah2rcd13ifvqei0","pricing_plan_id":"cebpf4jnsgd1na2vs0mg"},{"bike_id":"59abd848-b938-4706-8b9d-aa54cd5d850e","system_id":"levelo_inurba_marseille","lat":43.28262,"lon":5.3507,"is_reserved":false,"is_disabled":true,"rental_uris":{"android":"levelo://app?vid=59abd848-b938-4706-8b9d-aa54cd5d850e","ios":"levelo://app?vid=59abd848-b938-4706-8b9d-aa54cd5d850e"},"vehicle_type_id":"4","last_reported":1781382330,"current_range_meters":5600,"station_id":"ce4bhbp2rcd13ifvqerg","pricing_plan_id":"cebpf4jnsgd1na2vs0mg"},{"bike_id":"45469403-b2c5-4518-9427-6181c2421365","system_id":"levelo_inurba_marseille","lat":43.22553,"lon":5.34803,"is_reserved":false,"is_disabled":false,"rental_uris":{"android":"levelo://app?vid=45469403-b2c5-4518-9427-6181c2421365","ios":"levelo://app?vid=45469403-b2c5-4518-9427-6181c2421365"},"vehicle_type_id":"4","last_reported":1781382330,"current_range_meters":5600,"station_id":"st_cvj5dfep6f1abm77gieg","pricing_plan_id":"cebpf4jnsgd1na2vs0mg"},{"bike_id":"5215f856-46a9-476f-933a-7b736a4a324f","system_id":"levelo_inurba_marseille","lat":43.28233,"lon":5.37365,"is_reserved":false,"is_disabled":false,"rental_uris":{"android":"levelo://app?vid=5215f856-46a9-476f-933a-7b736a4a324f","ios":"levelo://app?vid=5215f856-46a9-476f-933a-7b736a4a324f"},"vehicle_type_id":"4","last_reported":1781382330,"current_range_meters":6000,"station_id":"","pricing_plan_id":"cebpf4jnsgd1na2vs0mg"},{"bike_id":"589d39c3-c5d3-4771-9a3e-f5ca7e8ced1c","system_id":"levelo_inurba_marseille","lat":43.26358,"lon":5.37817,"is_reserved":false,"is_disabled":false,"rental_uris":{"android":"levelo://app?vid=589d39c3-c5d3-4771-9a3e-f5ca7e8ced1c","ios":"levelo://app?vid=589d39c3-c5d3-4771-9a3e-f5ca7e8ced1c"},"vehicle_type_id":"4","last_reported":1781382330,"current_range_meters":6000,"station_id":"st_d163nis0mtpqnht9uue0","pricing_plan_id":"cebpf4jnsgd1na2vs0mg"},{"bike_id":"c175211b-3da4-46cc-a60f-4967a28b1b76","system_id":"levelo_inurba_marseille","lat":43.33001,"lon":5.3749,"is_reserved":false,"is_disabled":false,"rental_uris":{"android":"levelo://app?vid=c175211b-3da4-46cc-a60f-4967a28b1b76","ios":"levelo://app?vid=c175211b-3da4-46cc-a60f-4967a28b1b76"},"vehicle_type_id":"4","last_reported":1781382330,"current_range_meters":6000,"station_id":"","pricing_plan_id":"cebpf4jnsgd1na2vs0mg"},{"bike_id":"c565d4a1-b70e-4dc2-b86d-d9ab428460af","system_id":"levelo_inurba_marseille","lat":43.27903,"lon":5.38014,"is_reserved":false,"is_disabled":false,"rental_uris":{"android":"levelo://app?vid=c565d4a1-b70e-4dc2-b86d-d9ab428460af","ios":"levelo://app?vid=c565d4a1-b70e-4dc2-b86d-d9ab428460af"},"vehicle_type_id":"4","last_reported":1781382330,"current_range_meters":6000,"station_id":"ce4bhf92rcd13ifvqf50","pricing_plan_id":"cebpf4jnsgd1na2vs0mg"},{"bike_id":"d2af5be2-8988-401b-9ba7-ce6f44f94617","system_id":"levelo_inurba_marseille","lat":43.26346,"lon":5.37831,"is_reserved":false,"is_disabled":false,"rental_uris":{"android":"levelo://app?vid=d2af5be2-8988-401b-9ba7-ce6f44f94617","ios":"levelo://app?vid=d2af5be2-8988-401b-9ba7-ce6f44f94617"},"vehicle_type_id":"4","last_reported":1781382330,"current_range_meters":6000,"station_id":"st_d163nis0mtpqnht9uue0","pricing_plan_id":"cebpf4jnsgd1na2vs0mg"},{"bike_id":"99448977-a81f-4c7a-83ee-d729f05f8dde","system_id":"levelo_inurba_marseille","lat":43.28443,"lon":5.39169,"is_reserved":false,"is_disabled":false,"rental_uris":{"android":"levelo://app?vid=99448977-a81f-4c7a-83ee-d729f05f8dde","ios":"levelo://app?vid=99448977-a81f-4c7a-83ee-d729f05f8dde"},"vehicle_type_id":"4","last_reported":1781382330,"current_range_meters":6000,"station_id":"ce4bhoh2rcd13ifvqh5g","pricing_plan_id":"cebpf4jnsgd1na2vs0mg"},{"bike_id":"f3939ca8-61fd-461c-bdae-e809440b2b79","system_id":"levelo_inurba_marseille","lat":43.24663,"lon":5.38152,"is_reserved":false,"is_disabled":false,"rental_uris":{"android":"levelo://app?vid=f3939ca8-61fd-461c-bdae-e809440b2b79","ios":"levelo://app?vid=f3939ca8-61fd-461c-bdae-e809440b2b79"},"vehicle_type_id":"4","last_reported":1781382330,"current_range_meters":6000,"station_id":"ce4bhih2rcd13ifvqfr0","pricing_plan_id":"cebpf4jnsgd1na2vs0mg"},{"bike_id":"57151b92-1913-410e-aca7-2d3e4d22f33e","system_id":"levelo_inurba_marseille","lat":43.30943,"lon":5.39035,"is_reserved":false,"is_disabled":false,"rental_uris":{"android":"levelo://app?vid=57151b92-1913-410e-aca7-2d3e4d22f33e","ios":"levelo://app?vid=57151b92-1913-410e-aca7-2d3e4d22f33e"},"vehicle_type_id":"4","last_reported":1781382330,"current_range_meters":6000,"station_id":"ce4bgup2rcd13ifvqco0","pricing_plan_id":"cebpf4jnsgd1na2vs0mg"},{"bike_id":"2e296511-deb4-43a9-83f0-81592d7a3463","system_id":"levelo_inurba_marseille","lat":43.33196,"lon":5.37715,"is_reserved":false,"is_disabled":false,"rental_uris":{"android":"levelo://app?vid=2e296511-deb4-43a9-83f0-81592d7a3463","ios":"levelo://app?vid=2e296511-deb4-43a9-83f0-81592d7a3463"},"vehicle_type_id":"4","last_reported":1781382330,"current_range_meters":6000,"station_id":"","pricing_plan_id":"cebpf4jnsgd1na2vs0mg"},{"bike_id":"b75b860e-f642-4d57-ae10-a57f8b9673f2","system_id":"levelo_inurba_marseille","lat":43.26232,"lon":5.38779,"is_reserved":false,"is_disabled":false,"rental_uris":{"android":"levelo://app?vid=b75b860e-f642-4d57-ae10-a57f8b9673f2","ios":"levelo://app?vid=b75b860e-f642-4d57-ae10-a57f8b9673f2"},"vehicle_type_id":"4","last_reported":1781382330,"current_range_meters":6000,"station_id":"st_d8gjfg747rts73coq3b0","pricing_plan_id":"cebpf4jnsgd1na2vs0mg"},{"bike_id":"aa4d4832-791f-46b6-b904-76b96512b7a5","system_id":"levelo_inurba_marseille","lat":43.29595,"lon":5.43992,"is_reserved":false,"is_disabled":false,"rental_uris":{"android":"levelo://app?vid=aa4d4832-791f-46b6-b904-76b96512b7a5","ios":"levelo://app?vid=aa4d4832-791f-46b6-b904-76b96512b7a5"},"vehicle_type_id":"4","last_reported":1781382330,"current_range_meters":6000,"station_id":"","pricing_plan_id":"cebpf4jnsgd1na2vs0mg"},{"bike_id":"61150d0b-fbbc-4934-8689-c3c66447e97f","system_id":"levelo_inurba_marseille","lat":43.29968,"lon":5.38496,"is_reserved":false,"is_disabled":false,"rental_uris":{"android":"levelo://app?vid=61150d0b-fbbc-4934-8689-c3c66447e97f","ios":"levelo://app?vid=61150d0b-fbbc-4934-8689-c3c66447e97f"},"vehicle_type_id":"4","last_reported":1781382330,"current_range_meters":6000,"station_id":"ce4bgj92rcd13ifvqbd0","pricing_plan_id":"cebpf4jnsgd1na2vs0mg"},{"bike_id":"132661cb-9d8a-4df2-82e1-13b15034cf8f","system_id":"levelo_inurba_marseille","lat":43.29258,"lon":5.38438,"is_reserved":false,"is_disabled":true,"rental_uris":{"android":"levelo://app?vid=132661cb-9d8a-4df2-82e1-13b15034cf8f","ios":"levelo://app?vid=132661cb-9d8a-4df2-82e1-13b15034cf8f"},"vehicle_type_id":"4","last_reported":1781382330,"current_range_meters":6000,"station_id":"ce4bh692rcd13ifvqea0","pricing_plan_id":"cebpf4jnsgd1na2vs0mg"},{"bike_id":"3431c704-991e-4545-8eec-fa15e92ea294","system_id":"levelo_inurba_marseille","lat":43.31454,"lon":5.37394,"is_reserved":false,"is_disabled":true,"rental_uris":{"android":"levelo://app?vid=3431c704-991e-4545-8eec-fa15e92ea294","ios":"levelo://app?vid=3431c704-991e-4545-8eec-fa15e92ea294"},"vehicle_type_id":"4","last_reported":1781382330,"current_range_meters":6000,"station_id":"","pricing_plan_id":"cebpf4jnsgd1na2vs0mg"},{"bike_id":"12326527-aa04-43ed-8122-fab62005bcac","system_id":"levelo_inurba_marseille","lat":43.2738,"lon":5.36257,"is_reserved":false,"is_disabled":true,"rental_uris":{"android":"levelo://app?vid=12326527-aa04-43ed-8122-fab62005bcac","ios":"levelo://app?vid=12326527-aa04-43ed-8122-fab62005bcac"},"vehicle_type_id":"4","last_reported":1781382330,"current_range_meters":6000,"station_id":"ce4bhbh2rcd13ifvqeo0","pricing_plan_id":"cebpf4jnsgd1na2vs0mg"},{"bike_id":"7dec2f24-9675-4d74-8437-f5decc8f3922","system_id":"levelo_inurba_marseille","lat":43.26193,"lon":5.3743,"is_reserved":false,"is_disabled":false,"rental_uris":{"android":"levelo://app?vid=7dec2f24-9675-4d74-8437-f5decc8f3922","ios":"levelo://app?vid=7dec2f24-9675-4d74-8437-f5decc8f3922"},"vehicle_type_id":"4","last_reported":1781382330,"current_range_meters":6000,"station_id":"ce4bhgp2rcd13ifvqfc0","pricing_plan_id":"cebpf4jnsgd1na2vs0mg"},{"bike_id":"fdc2f588-e9f9-4d5d-92c3-be1d373f5b1f","system_id":"levelo_inurba_marseille","lat":43.29286,"lon":5.36834,"is_reserved":false,"is_disabled":true,"rental_uris":{"android":"levelo://app?vid=fdc2f588-e9f9-4d5d-92c3-be1d373f5b1f","ios":"levelo://app?vid=fdc2f588-e9f9-4d5d-92c3-be1d373f5b1f"},"vehicle_type_id":"4","last_reported":1781382330,"current_range_meters":6000,"station_id":"ce4bhbp2rcd13ifvqesg","pricing_plan_id":"cebpf4jnsgd1na2vs0mg"},{"bike_id":"3203cca6-69a8-424a-bf02-b169bd2825a3","system_id":"levelo_inurba_marseille","lat":43.26683,"lon":5.38266,"is_reserved":false,"is_disabled":false,"rental_uris":{"android":"levelo://app?vid=3203cca6-69a8-424a-bf02-b169bd2825a3","ios":"levelo://app?vid=3203cca6-69a8-424a-bf02-b169bd2825a3"},"vehicle_type_id":"4","last_reported":1781382330,"current_range_meters":6000,"station_id":"ce4bhg92rcd13ifvqf90","pricing_plan_id":"cebpf4jnsgd1na2vs0mg"},{"bike_id":"ce7cc1d7-3776-44e0-8dd2-28d27eaab140","system_id":"levelo_inurba_marseille","lat":43.21759,"lon":5.34592,"is_reserved":false,"is_disabled":false,"rental_uris":{"android":"levelo://app?vid=ce7cc1d7-3776-44e0-8dd2-28d27eaab140","ios":"levelo://app?vid=ce7cc1d7-3776-44e0-8dd2-28d27eaab140"},"vehicle_type_id":"4","last_reported":1781382330,"current_range_meters":6000,"station_id":"st_cvj6r9ubvosntc0bgbag","pricing_plan_id":"cebpf4jnsgd1na2vs0mg"},{"bike_id":"e4d86a05-2db3-434f-a83e-222b4c27c368","system_id":"levelo_inurba_marseille","lat":43.25102,"lon":5.39494,"is_reserved":false,"is_disabled":false,"rental_uris":{"android":"levelo://app?vid=e4d86a05-2db3-434f-a83e-222b4c27c368","ios":"levelo://app?vid=e4d86a05-2db3-434f-a83e-222b4c27c368"},"vehicle_type_id":"4","last_reported":1781382330,"current_range_meters":6000,"station_id":"ce4bhm12rcd13ifvqgkg","pricing_plan_id":"cebpf4jnsgd1na2vs0mg"},{"bike_id":"3d41d590-46bf-4903-8489-6a5dfbeed357","system_id":"levelo_inurba_marseille","lat":43.2509,"lon":5.39522,"is_reserved":false,"is_disabled":false,"rental_uris":{"android":"levelo://app?vid=3d41d590-46bf-4903-8489-6a5dfbeed357","ios":"levelo://app?vid=3d41d590-46bf-4903-8489-6a5dfbeed357"},"vehicle_type_id":"4","last_reported":1781382330,"current_range_meters":6000,"station_id":"ce4bhm12rcd13ifvqgkg","pricing_plan_id":"cebpf4jnsgd1na2vs0mg"},{"bike_id":"6fb07b35-b88f-45ae-9e9e-ceed1b219374","system_id":"levelo_inurba_marseille","lat":43.32502,"lon":5.36572,"is_reserved":false,"is_disabled":true,"rental_uris":{"android":"levelo://app?vid=6fb07b35-b88f-45ae-9e9e-ceed1b219374","ios":"levelo://app?vid=6fb07b35-b88f-45ae-9e9e-ceed1b219374"},"vehicle_type_id":"4","last_reported":1781382330,"current_range_meters":6000,"station_id":"ce4bhs12rcd13ifvqhvg","pricing_plan_id":"cebpf4jnsgd1na2vs0mg"},{"bike_id":"3ac38b3a-df68-4ddb-8be7-f5ce5af56eb3","system_id":"levelo_inurba_marseille","lat":43.28997,"lon":5.35624,"is_reserved":false,"is_disabled":true,"rental_uris":{"android":"levelo://app?vid=3ac38b3a-df68-4ddb-8be7-f5ce5af56eb3","ios":"levelo://app?vid=3ac38b3a-df68-4ddb-8be7-f5ce5af56eb3"},"vehicle_type_id":"4","last_reported":1781382330,"current_range_meters":6000,"station_id":"ce4bhb92rcd13ifvqen0","pricing_plan_id":"cebpf4jnsgd1na2vs0mg"},{"bike_id":"2f8ae2cb-f159-4c6d-a338-36fb261f79f4","system_id":"levelo_inurba_marseille","lat":43.30943,"lon":5.39026,"is_reserved":false,"is_disabled":false,"rental_uris":{"android":"levelo://app?vid=2f8ae2cb-f159-4c6d-a338-36fb261f79f4","ios":"levelo://app?vid=2f8ae2cb-f159-4c6d-a338-36fb261f79f4"},"vehicle_type_id":"4","last_reported":1781382330,"current_range_meters":6000,"station_id":"ce4bgup2rcd13ifvqco0","pricing_plan_id":"cebpf4jnsgd1na2vs0mg"},{"bike_id":"e5777fcd-75b6-4167-93ec-f3dfb9895090","system_id":"levelo_inurba_marseille","lat":43.21746,"lon":5.34589,"is_reserved":false,"is_disabled":false,"rental_uris":{"android":"levelo://app?vid=e5777fcd-75b6-4167-93ec-f3dfb9895090","ios":"levelo://app?vid=e5777fcd-75b6-4167-93ec-f3dfb9895090"},"vehicle_type_id":"4","last_reported":1781382330,"current_range_meters":6000,"station_id":"st_cvj6r9ubvosntc0bgbag","pricing_plan_id":"cebpf4jnsgd1na2vs0mg"},{"bike_id":"ef048e93-3c21-4aea-ad20-87c8427753a3","system_id":"levelo_inurba_marseille","lat":43.28887,"lon":5.42526,"is_reserved":false,"is_disabled":false,"rental_uris":{"android":"levelo://app?vid=ef048e93-3c21-4aea-ad20-87c8427753a3","ios":"levelo://app?vid=ef048e93-3c21-4aea-ad20-87c8427753a3"},"vehicle_type_id":"4","last_reported":1781382330,"current_range_meters":6000,"station_id":"st_d3b462108ojc7389ooeg","pricing_plan_id":"cebpf4jnsgd1na2vs0mg"},{"bike_id":"85275367-90a8-4872-87c5-84a96c26cd45","system_id":"levelo_inurba_marseille","lat":43.26498,"lon":5.39533,"is_reserved":false,"is_disabled":false,"rental_uris":{"android":"levelo://app?vid=85275367-90a8-4872-87c5-84a96c26cd45","ios":"levelo://app?vid=85275367-90a8-4872-87c5-84a96c26cd45"},"vehicle_type_id":"4","last_reported":1781382330,"current_range_meters":6000,"station_id":"ce4bhi12rcd13ifvqfq0","pricing_plan_id":"cebpf4jnsgd1na2vs0mg"},{"bike_id":"3fbb2764-0b12-4e74-8368-49daf4025050","system_id":"levelo_inurba_marseille","lat":43.29277,"lon":5.38451,"is_reserved":false,"is_disabled":false,"rental_uris":{"android":"levelo://app?vid=3fbb2764-0b12-4e74-8368-49daf4025050","ios":"levelo://app?vid=3fbb2764-0b12-4e74-8368-49daf4025050"},"vehicle_type_id":"4","last_reported":1781382330,"current_range_meters":6000,"station_id":"ce4bh692rcd13ifvqea0","pricing_plan_id":"cebpf4jnsgd1na2vs0mg"},{"bike_id":"58636ab8-7a37-4b70-93e5-e54816efa03f","system_id":"levelo_inurba_marseille","lat":43.2397,"lon":5.36623,"is_reserved":false,"is_disabled":false,"rental_uris":{"android":"levelo://app?vid=58636ab8-7a37-4b70-93e5-e54816efa03f","ios":"levelo://app?vid=58636ab8-7a37-4b70-93e5-e54816efa03f"},"vehicle_type_id":"4","last_reported":1781382330,"current_range_meters":6000,"station_id":"ce4bhi12rcd13ifvqfp0","pricing_plan_id":"cebpf4jnsgd1na2vs0mg"},{"bike_id":"40cb0155-c556-484f-915b-b738bc0d2ea4","system_id":"levelo_inurba_marseille","lat":43.21225,"lon":5.35028,"is_reserved":false,"is_disabled":false,"rental_uris":{"android":"levelo://app?vid=40cb0155-c556-484f-915b-b738bc0d2ea4","ios":"levelo://app?vid=40cb0155-c556-484f-915b-b738bc0d2ea4"},"vehicle_type_id":"4","last_reported":1781382330,"current_range_meters":6000,"station_id":"","pricing_plan_id":"cebpf4jnsgd1na2vs0mg"},{"bike_id":"6953920f-b677-47e7-a090-a2a61cbe65cf","system_id":"levelo_inurba_marseille","lat":43.26213,"lon":5.37446,"is_reserved":false,"is_disabled":false,"rental_uris":{"android":"levelo://app?vid=6953920f-b677-47e7-a090-a2a61cbe65cf","ios":"levelo://app?vid=6953920f-b677-47e7-a090-a2a61cbe65cf"},"vehicle_type_id":"4","last_reported":1781382330,"current_range_meters":6000,"station_id":"ce4bhgp2rcd13ifvqfc0","pricing_plan_id":"cebpf4jnsgd1na2vs0mg"},{"bike_id":"5bc53581-ac65-49e4-b56b-f1ece78f0664","system_id":"levelo_inurba_marseille","lat":43.26685,"lon":5.38268,"is_reserved":false,"is_disabled":true,"rental_uris":{"android":"levelo://app?vid=5bc53581-ac65-49e4-b56b-f1ece78f0664","ios":"levelo://app?vid=5bc53581-ac65-49e4-b56b-f1ece78f0664"},"vehicle_type_id":"4","last_reported":1781382330,"current_range_meters":6000,"station_id":"ce4bhg92rcd13ifvqf90","pricing_plan_id":"cebpf4jnsgd1na2vs0mg"},{"bike_id":"7750fed4-d122-41f8-ad9e-d930d3ad1cf1","system_id":"levelo_inurba_marseille","lat":43.27289,"lon":5.4008,"is_reserved":false,"is_disabled":false,"rental_uris":{"android":"levelo://app?vid=7750fed4-d122-41f8-ad9e-d930d3ad1cf1","ios":"levelo://app?vid=7750fed4-d122-41f8-ad9e-d930d3ad1cf1"},"vehicle_type_id":"4","last_reported":1781382330,"current_range_meters":6400,"station_id":"","pricing_plan_id":"cebpf4jnsgd1na2vs0mg"},{"bike_id":"fb851432-7f50-40d8-a638-14ab67673efe","system_id":"levelo_inurba_marseille","lat":43.299143,"lon":5.374686,"is_reserved":false,"is_disabled":false,"rental_uris":{"android":"levelo://app?vid=fb851432-7f50-40d8-a638-14ab67673efe","ios":"levelo://app?vid=fb851432-7f50-40d8-a638-14ab67673efe"},"vehicle_type_id":"4","last_reported":1781382330,"current_range_meters":6400,"station_id":"ce4bgjh2rcd13ifvqbg0","pricing_plan_id":"cebpf4jnsgd1na2vs0mg"},{"bike_id":"b4ddb4bb-298f-4b01-b8c9-57ea086af77e","system_id":"levelo_inurba_marseille","lat":43.314902,"lon":5.373112,"is_reserved":false,"is_disabled":false,"rental_uris":{"android":"levelo://app?vid=b4ddb4bb-298f-4b01-b8c9-57ea086af77e","ios":"levelo://app?vid=b4ddb4bb-298f-4b01-b8c9-57ea086af77e"},"vehicle_type_id":"4","last_reported":1781382330,"current_range_meters":6400,"station_id":"ce4bgt12rcd13ifvqcd0","pricing_plan_id":"cebpf4jnsgd1na2vs0mg"},{"bike_id":"42f60c57-f92b-40c3-be48-424ec79581aa","system_id":"levelo_inurba_marseille","lat":43.29967,"lon":5.38487,"is_reserved":false,"is_disabled":false,"rental_uris":{"android":"levelo://app?vid=42f60c57-f92b-40c3-be48-424ec79581aa","ios":"levelo://app?vid=42f60c57-f92b-40c3-be48-424ec79581aa"},"vehicle_type_id":"4","last_reported":1781382330,"current_range_meters":6400,"station_id":"ce4bgj92rcd13ifvqbd0","pricing_plan_id":"cebpf4jnsgd1na2vs0mg"},{"bike_id":"1c6ec17f-2ff8-41f3-8499-51a9b77fe4b5","system_id":"levelo_inurba_marseille","lat":43.26024,"lon":5.37552,"is_reserved":false,"is_disabled":false,"rental_uris":{"android":"levelo://app?vid=1c6ec17f-2ff8-41f3-8499-51a9b77fe4b5","ios":"levelo://app?vid=1c6ec17f-2ff8-41f3-8499-51a9b77fe4b5"},"vehicle_type_id":"4","last_reported":1781382330,"current_range_meters":6400,"station_id":"ce4bhgh2rcd13ifvqfa0","pricing_plan_id":"cebpf4jnsgd1na2vs0mg"},{"bike_id":"1be84025-d267-4515-957c-91dae421ff6c","system_id":"levelo_inurba_marseille","lat":43.2669,"lon":5.38234,"is_reserved":false,"is_disabled":false,"rental_uris":{"android":"levelo://app?vid=1be84025-d267-4515-957c-91dae421ff6c","ios":"levelo://app?vid=1be84025-d267-4515-957c-91dae421ff6c"},"vehicle_type_id":"4","last_reported":1781382330,"current_range_meters":6400,"station_id":"ce4bhg92rcd13ifvqf90","pricing_plan_id":"cebpf4jnsgd1na2vs0mg"},{"bike_id":"c43c92bc-16e7-4616-8292-b9ed941fbd42","system_id":"levelo_inurba_marseille","lat":43.22561,"lon":5.4163,"is_reserved":false,"is_disabled":false,"rental_uris":{"android":"levelo://app?vid=c43c92bc-16e7-4616-8292-b9ed941fbd42","ios":"levelo://app?vid=c43c92bc-16e7-4616-8292-b9ed941fbd42"},"vehicle_type_id":"4","last_reported":1781382330,"current_range_meters":6400,"station_id":"st_d2o4gvlbi1j2169b742g","pricing_plan_id":"cebpf4jnsgd1na2vs0mg"},{"bike_id":"dc3e3e35-560a-41ac-8b92-c31e5b3f3434","system_id":"levelo_inurba_marseille","lat":43.26696,"lon":5.39278,"is_reserved":false,"is_disabled":false,"rental_uris":{"android":"levelo://app?vid=dc3e3e35-560a-41ac-8b92-c31e5b3f3434","ios":"levelo://app?vid=dc3e3e35-560a-41ac-8b92-c31e5b3f3434"},"vehicle_type_id":"4","last_reported":1781382330,"current_range_meters":6400,"station_id":"","pricing_plan_id":"cebpf4jnsgd1na2vs0mg"},{"bike_id":"9ed8b04a-08d5-4e2e-b7eb-ab00fbde3158","system_id":"levelo_inurba_marseille","lat":43.29022,"lon":5.38629,"is_reserved":false,"is_disabled":false,"rental_uris":{"android":"levelo://app?vid=9ed8b04a-08d5-4e2e-b7eb-ab00fbde3158","ios":"levelo://app?vid=9ed8b04a-08d5-4e2e-b7eb-ab00fbde3158"},"vehicle_type_id":"4","last_reported":1781382330,"current_range_meters":6400,"station_id":"ce4bh4p2rcd13ifvqe0g","pricing_plan_id":"cebpf4jnsgd1na2vs0mg"},{"bike_id":"c643205b-14b6-4fe3-855b-64bdff8573b4","system_id":"levelo_inurba_marseille","lat":43.24813,"lon":5.37451,"is_reserved":false,"is_disabled":false,"rental_uris":{"android":"levelo://app?vid=c643205b-14b6-4fe3-855b-64bdff8573b4","ios":"levelo://app?vid=c643205b-14b6-4fe3-855b-64bdff8573b4"},"vehicle_type_id":"4","last_reported":1781382330,"current_range_meters":6400,"station_id":"ce4bhgh2rcd13ifvqfb0","pricing_plan_id":"cebpf4jnsgd1na2vs0mg"},{"bike_id":"2f670b32-ad4b-4a3d-bdcc-ee68edab020e","system_id":"levelo_inurba_marseille","lat":43.2622,"lon":5.3747,"is_reserved":false,"is_disabled":false,"rental_uris":{"android":"levelo://app?vid=2f670b32-ad4b-4a3d-bdcc-ee68edab020e","ios":"levelo://app?vid=2f670b32-ad4b-4a3d-bdcc-ee68edab020e"},"vehicle_type_id":"4","last_reported":1781382330,"current_range_meters":6400,"station_id":"ce4bhgp2rcd13ifvqfc0","pricing_plan_id":"cebpf4jnsgd1na2vs0mg"},{"bike_id":"afb5d1d0-d6d3-4837-84c1-73b8786a322a","system_id":"levelo_inurba_marseille","lat":43.26685,"lon":5.3827,"is_reserved":false,"is_disabled":false,"rental_uris":{"android":"levelo://app?vid=afb5d1d0-d6d3-4837-84c1-73b8786a322a","ios":"levelo://app?vid=afb5d1d0-d6d3-4837-84c1-73b8786a322a"},"vehicle_type_id":"4","last_reported":1781382330,"current_range_meters":6400,"station_id":"ce4bhg92rcd13ifvqf90","pricing_plan_id":"cebpf4jnsgd1na2vs0mg"},{"bike_id":"61acdcff-76d7-4bb2-a256-e2ec611550e8","system_id":"levelo_inurba_marseille","lat":43.26559,"lon":5.39011,"is_reserved":false,"is_disabled":true,"rental_uris":{"android":"levelo://app?vid=61acdcff-76d7-4bb2-a256-e2ec611550e8","ios":"levelo://app?vid=61acdcff-76d7-4bb2-a256-e2ec611550e8"},"vehicle_type_id":"4","last_reported":1781382330,"current_range_meters":6400,"station_id":"ce4bhe12rcd13ifvqf30","pricing_plan_id":"cebpf4jnsgd1na2vs0mg"},{"bike_id":"418bc5b3-59f7-4656-96a2-6db965f1b268","system_id":"levelo_inurba_marseille","lat":43.290345,"lon":5.386482,"is_reserved":false,"is_disabled":false,"rental_uris":{"android":"levelo://app?vid=418bc5b3-59f7-4656-96a2-6db965f1b268","ios":"levelo://app?vid=418bc5b3-59f7-4656-96a2-6db965f1b268"},"vehicle_type_id":"4","last_reported":1781382330,"current_range_meters":6400,"station_id":"ce4bh4p2rcd13ifvqe0g","pricing_plan_id":"cebpf4jnsgd1na2vs0mg"},{"bike_id":"9f7e286d-df47-4a23-8345-afc5f204f1c6","system_id":"levelo_inurba_marseille","lat":43.30944,"lon":5.39038,"is_reserved":false,"is_disabled":false,"rental_uris":{"android":"levelo://app?vid=9f7e286d-df47-4a23-8345-afc5f204f1c6","ios":"levelo://app?vid=9f7e286d-df47-4a23-8345-afc5f204f1c6"},"vehicle_type_id":"4","last_reported":1781382330,"current_range_meters":6400,"station_id":"ce4bgup2rcd13ifvqco0","pricing_plan_id":"cebpf4jnsgd1na2vs0mg"},{"bike_id":"fbc74104-ebcb-46ad-a7d5-2fb49aa59270","system_id":"levelo_inurba_marseille","lat":43.237619,"lon":5.366148,"is_reserved":false,"is_disabled":false,"rental_uris":{"android":"levelo://app?vid=fbc74104-ebcb-46ad-a7d5-2fb49aa59270","ios":"levelo://app?vid=fbc74104-ebcb-46ad-a7d5-2fb49aa59270"},"vehicle_type_id":"4","last_reported":1781382330,"current_range_meters":6400,"station_id":"st_d3nk18o9ro0c73en2l3g","pricing_plan_id":"cebpf4jnsgd1na2vs0mg"},{"bike_id":"dbd3bdc5-4538-4f24-86f3-9d743ada8e11","system_id":"levelo_inurba_marseille","lat":43.26035,"lon":5.37536,"is_reserved":false,"is_disabled":false,"rental_uris":{"android":"levelo://app?vid=dbd3bdc5-4538-4f24-86f3-9d743ada8e11","ios":"levelo://app?vid=dbd3bdc5-4538-4f24-86f3-9d743ada8e11"},"vehicle_type_id":"4","last_reported":1781382330,"current_range_meters":6400,"station_id":"ce4bhgh2rcd13ifvqfa0","pricing_plan_id":"cebpf4jnsgd1na2vs0mg"},{"bike_id":"3f683387-f7ec-4b9f-9801-ff63896077b4","system_id":"levelo_inurba_marseille","lat":43.2395,"lon":5.36539,"is_reserved":false,"is_disabled":false,"rental_uris":{"android":"levelo://app?vid=3f683387-f7ec-4b9f-9801-ff63896077b4","ios":"levelo://app?vid=3f683387-f7ec-4b9f-9801-ff63896077b4"},"vehicle_type_id":"4","last_reported":1781382330,"current_range_meters":6400,"station_id":"","pricing_plan_id":"cebpf4jnsgd1na2vs0mg"},{"bike_id":"a36de390-ab30-4051-83e7-ebdfb57a2738","system_id":"levelo_inurba_marseille","lat":43.30945,"lon":5.3903,"is_reserved":false,"is_disabled":false,"rental_uris":{"android":"levelo://app?vid=a36de390-ab30-4051-83e7-ebdfb57a2738","ios":"levelo://app?vid=a36de390-ab30-4051-83e7-ebdfb57a2738"},"vehicle_type_id":"4","last_reported":1781382330,"current_range_meters":6400,"station_id":"ce4bgup2rcd13ifvqco0","pricing_plan_id":"cebpf4jnsgd1na2vs0mg"},{"bike_id":"95fa7e89-477c-497d-868e-1ebd42d72e63","system_id":"levelo_inurba_marseille","lat":43.26343,"lon":5.37817,"is_reserved":false,"is_disabled":false,"rental_uris":{"android":"levelo://app?vid=95fa7e89-477c-497d-868e-1ebd42d72e63","ios":"levelo://app?vid=95fa7e89-477c-497d-868e-1ebd42d72e63"},"vehicle_type_id":"4","last_reported":1781382330,"current_range_meters":6400,"station_id":"st_d163nis0mtpqnht9uue0","pricing_plan_id":"cebpf4jnsgd1na2vs0mg"},{"bike_id":"b098a38c-1b05-46ae-a570-65f6d38b50eb","system_id":"levelo_inurba_marseille","lat":43.28027,"lon":5.36954,"is_reserved":false,"is_disabled":false,"rental_uris":{"android":"levelo://app?vid=b098a38c-1b05-46ae-a570-65f6d38b50eb","ios":"levelo://app?vid=b098a38c-1b05-46ae-a570-65f6d38b50eb"},"vehicle_type_id":"4","last_reported":1781382330,"current_range_meters":6400,"station_id":"ce4bha12rcd13ifvqef0","pricing_plan_id":"cebpf4jnsgd1na2vs0mg"},{"bike_id":"7d57ab03-6493-474e-9052-837e45c3ffee","system_id":"levelo_inurba_marseille","lat":43.22536,"lon":5.34837,"is_reserved":false,"is_disabled":false,"rental_uris":{"android":"levelo://app?vid=7d57ab03-6493-474e-9052-837e45c3ffee","ios":"levelo://app?vid=7d57ab03-6493-474e-9052-837e45c3ffee"},"vehicle_type_id":"4","last_reported":1781382330,"current_range_meters":6400,"station_id":"st_cvj5dfep6f1abm77gieg","pricing_plan_id":"cebpf4jnsgd1na2vs0mg"},{"bike_id":"9f0be29b-c3fc-43d2-88d9-7ef79e23fe90","system_id":"levelo_inurba_marseille","lat":43.24544,"lon":5.39523,"is_reserved":false,"is_disabled":false,"rental_uris":{"android":"levelo://app?vid=9f0be29b-c3fc-43d2-88d9-7ef79e23fe90","ios":"levelo://app?vid=9f0be29b-c3fc-43d2-88d9-7ef79e23fe90"},"vehicle_type_id":"4","last_reported":1781382330,"current_range_meters":6800,"station_id":"ce4bhlp2rcd13ifvqgjg","pricing_plan_id":"cebpf4jnsgd1na2vs0mg"},{"bike_id":"cf0c68e9-108f-4cb2-8999-26e59936ff8c","system_id":"levelo_inurba_marseille","lat":43.23063,"lon":5.35484,"is_reserved":false,"is_disabled":false,"rental_uris":{"android":"levelo://app?vid=cf0c68e9-108f-4cb2-8999-26e59936ff8c","ios":"levelo://app?vid=cf0c68e9-108f-4cb2-8999-26e59936ff8c"},"vehicle_type_id":"4","last_reported":1781382330,"current_range_meters":6800,"station_id":"cpo3342slgdg3j2ifvpg","pricing_plan_id":"cebpf4jnsgd1na2vs0mg"},{"bike_id":"da49f8bf-ac47-4f75-a9fc-b5a0f8173bc6","system_id":"levelo_inurba_marseille","lat":43.28457,"lon":5.35884,"is_reserved":false,"is_disabled":true,"rental_uris":{"android":"levelo://app?vid=da49f8bf-ac47-4f75-a9fc-b5a0f8173bc6","ios":"levelo://app?vid=da49f8bf-ac47-4f75-a9fc-b5a0f8173bc6"},"vehicle_type_id":"4","last_reported":1781382330,"current_range_meters":6800,"station_id":"ce4bhah2rcd13ifvqei0","pricing_plan_id":"cebpf4jnsgd1na2vs0mg"},{"bike_id":"3b9d8ae6-81df-4178-a3ea-190d04eda226","system_id":"levelo_inurba_marseille","lat":43.26568,"lon":5.40318,"is_reserved":false,"is_disabled":false,"rental_uris":{"android":"levelo://app?vid=3b9d8ae6-81df-4178-a3ea-190d04eda226","ios":"levelo://app?vid=3b9d8ae6-81df-4178-a3ea-190d04eda226"},"vehicle_type_id":"4","last_reported":1781382330,"current_range_meters":6800,"station_id":"ce4bhmp2rcd13ifvqgng","pricing_plan_id":"cebpf4jnsgd1na2vs0mg"},{"bike_id":"195f1d1e-36bb-48d2-9a0b-ee215f42c586","system_id":"levelo_inurba_marseille","lat":43.24468,"lon":5.42534,"is_reserved":false,"is_disabled":false,"rental_uris":{"android":"levelo://app?vid=195f1d1e-36bb-48d2-9a0b-ee215f42c586","ios":"levelo://app?vid=195f1d1e-36bb-48d2-9a0b-ee215f42c586"},"vehicle_type_id":"4","last_reported":1781382330,"current_range_meters":6800,"station_id":"st_d4a3vfp97mjs738cd8kg","pricing_plan_id":"cebpf4jnsgd1na2vs0mg"},{"bike_id":"fca4716d-363f-4061-9268-5fdf2b190705","system_id":"levelo_inurba_marseille","lat":43.281035,"lon":5.367145,"is_reserved":false,"is_disabled":true,"rental_uris":{"android":"levelo://app?vid=fca4716d-363f-4061-9268-5fdf2b190705","ios":"levelo://app?vid=fca4716d-363f-4061-9268-5fdf2b190705"},"vehicle_type_id":"4","last_reported":1781382330,"current_range_meters":6800,"station_id":"ce4bhgp2rcd13ifvqfc0","pricing_plan_id":"cebpf4jnsgd1na2vs0mg"},{"bike_id":"2d5036af-f9df-45c6-97e4-648868345309","system_id":"levelo_inurba_marseille","lat":43.32994,"lon":5.37474,"is_reserved":false,"is_disabled":false,"rental_uris":{"android":"levelo://app?vid=2d5036af-f9df-45c6-97e4-648868345309","ios":"levelo://app?vid=2d5036af-f9df-45c6-97e4-648868345309"},"vehicle_type_id":"4","last_reported":1781382330,"current_range_meters":6800,"station_id":"","pricing_plan_id":"cebpf4jnsgd1na2vs0mg"},{"bike_id":"ec7ff123-2191-49c9-b4f8-c9b1016b4d1d","system_id":"levelo_inurba_marseille","lat":43.33515,"lon":5.37439,"is_reserved":false,"is_disabled":false,"rental_uris":{"android":"levelo://app?vid=ec7ff123-2191-49c9-b4f8-c9b1016b4d1d","ios":"levelo://app?vid=ec7ff123-2191-49c9-b4f8-c9b1016b4d1d"},"vehicle_type_id":"4","last_reported":1781382330,"current_range_meters":6800,"station_id":"","pricing_plan_id":"cebpf4jnsgd1na2vs0mg"},{"bike_id":"3964cfec-2447-4c38-a9ab-5ebac4f72b6e","system_id":"levelo_inurba_marseille","lat":43.23196,"lon":5.35559,"is_reserved":false,"is_disabled":false,"rental_uris":{"android":"levelo://app?vid=3964cfec-2447-4c38-a9ab-5ebac4f72b6e","ios":"levelo://app?vid=3964cfec-2447-4c38-a9ab-5ebac4f72b6e"},"vehicle_type_id":"4","last_reported":1781382330,"current_range_meters":6800,"station_id":"ce4bhu92rcd13ifvqi70","pricing_plan_id":"cebpf4jnsgd1na2vs0mg"},{"bike_id":"e91d4c37-49e1-4eb2-811e-d4c855f1b23c","system_id":"levelo_inurba_marseille","lat":43.31715,"lon":5.37716,"is_reserved":false,"is_disabled":false,"rental_uris":{"android":"levelo://app?vid=e91d4c37-49e1-4eb2-811e-d4c855f1b23c","ios":"levelo://app?vid=e91d4c37-49e1-4eb2-811e-d4c855f1b23c"},"vehicle_type_id":"4","last_reported":1781382330,"current_range_meters":6800,"station_id":"ce4bgth2rcd13ifvqch0","pricing_plan_id":"cebpf4jnsgd1na2vs0mg"},{"bike_id":"c893c662-3213-4917-b8d9-3a3bddf3a6d7","system_id":"levelo_inurba_marseille","lat":43.31366,"lon":5.38551,"is_reserved":false,"is_disabled":false,"rental_uris":{"android":"levelo://app?vid=c893c662-3213-4917-b8d9-3a3bddf3a6d7","ios":"levelo://app?vid=c893c662-3213-4917-b8d9-3a3bddf3a6d7"},"vehicle_type_id":"4","last_reported":1781382330,"current_range_meters":6800,"station_id":"","pricing_plan_id":"cebpf4jnsgd1na2vs0mg"},{"bike_id":"7911489c-d669-48c8-806a-ae5df483f8c3","system_id":"levelo_inurba_marseille","lat":43.26243,"lon":5.38759,"is_reserved":false,"is_disabled":false,"rental_uris":{"android":"levelo://app?vid=7911489c-d669-48c8-806a-ae5df483f8c3","ios":"levelo://app?vid=7911489c-d669-48c8-806a-ae5df483f8c3"},"vehicle_type_id":"4","last_reported":1781382330,"current_range_meters":6800,"station_id":"st_d8gjfg747rts73coq3b0","pricing_plan_id":"cebpf4jnsgd1na2vs0mg"},{"bike_id":"bc29c7d4-6340-4889-a3eb-b6e9d10cec6e","system_id":"levelo_inurba_marseille","lat":43.26031,"lon":5.3756,"is_reserved":false,"is_disabled":false,"rental_uris":{"android":"levelo://app?vid=bc29c7d4-6340-4889-a3eb-b6e9d10cec6e","ios":"levelo://app?vid=bc29c7d4-6340-4889-a3eb-b6e9d10cec6e"},"vehicle_type_id":"4","last_reported":1781382330,"current_range_meters":6800,"station_id":"ce4bhgh2rcd13ifvqfa0","pricing_plan_id":"cebpf4jnsgd1na2vs0mg"},{"bike_id":"bbffc1db-a414-40cf-a59e-778686fc93d1","system_id":"levelo_inurba_marseille","lat":43.22564,"lon":5.41616,"is_reserved":false,"is_disabled":false,"rental_uris":{"android":"levelo://app?vid=bbffc1db-a414-40cf-a59e-778686fc93d1","ios":"levelo://app?vid=bbffc1db-a414-40cf-a59e-778686fc93d1"},"vehicle_type_id":"4","last_reported":1781382330,"current_range_meters":6800,"station_id":"st_d2o4gvlbi1j2169b742g","pricing_plan_id":"cebpf4jnsgd1na2vs0mg"},{"bike_id":"4663d608-ce4a-4591-bdff-adf362e53481","system_id":"levelo_inurba_marseille","lat":43.26205,"lon":5.37451,"is_reserved":false,"is_disabled":false,"rental_uris":{"android":"levelo://app?vid=4663d608-ce4a-4591-bdff-adf362e53481","ios":"levelo://app?vid=4663d608-ce4a-4591-bdff-adf362e53481"},"vehicle_type_id":"4","last_reported":1781382330,"current_range_meters":6800,"station_id":"ce4bhgp2rcd13ifvqfc0","pricing_plan_id":"cebpf4jnsgd1na2vs0mg"},{"bike_id":"c114e69d-383c-4b2b-8d78-15befd4bcf89","system_id":"levelo_inurba_marseille","lat":43.26208,"lon":5.37429,"is_reserved":false,"is_disabled":false,"rental_uris":{"android":"levelo://app?vid=c114e69d-383c-4b2b-8d78-15befd4bcf89","ios":"levelo://app?vid=c114e69d-383c-4b2b-8d78-15befd4bcf89"},"vehicle_type_id":"4","last_reported":1781382330,"current_range_meters":6800,"station_id":"ce4bhgp2rcd13ifvqfc0","pricing_plan_id":"cebpf4jnsgd1na2vs0mg"},{"bike_id":"cf11dd40-b113-45d9-8d41-8d04b849c2c4","system_id":"levelo_inurba_marseille","lat":43.2911,"lon":5.42776,"is_reserved":false,"is_disabled":false,"rental_uris":{"android":"levelo://app?vid=cf11dd40-b113-45d9-8d41-8d04b849c2c4","ios":"levelo://app?vid=cf11dd40-b113-45d9-8d41-8d04b849c2c4"},"vehicle_type_id":"4","last_reported":1781382330,"current_range_meters":6800,"station_id":"","pricing_plan_id":"cebpf4jnsgd1na2vs0mg"},{"bike_id":"0ad1df7f-ecb3-4ac8-a6fb-74f09b3f38a3","system_id":"levelo_inurba_marseille","lat":43.2872,"lon":5.39909,"is_reserved":false,"is_disabled":false,"rental_uris":{"android":"levelo://app?vid=0ad1df7f-ecb3-4ac8-a6fb-74f09b3f38a3","ios":"levelo://app?vid=0ad1df7f-ecb3-4ac8-a6fb-74f09b3f38a3"},"vehicle_type_id":"4","last_reported":1781382330,"current_range_meters":6800,"station_id":"ce4bho92rcd13ifvqh3g","pricing_plan_id":"cebpf4jnsgd1na2vs0mg"},{"bike_id":"9a234ee4-189a-4927-904a-c6f72c9e5bbf","system_id":"levelo_inurba_marseille","lat":43.28476,"lon":5.38375,"is_reserved":false,"is_disabled":true,"rental_uris":{"android":"levelo://app?vid=9a234ee4-189a-4927-904a-c6f72c9e5bbf","ios":"levelo://app?vid=9a234ee4-189a-4927-904a-c6f72c9e5bbf"},"vehicle_type_id":"4","last_reported":1781382330,"current_range_meters":6800,"station_id":"ce4bh512rcd13ifvqe3g","pricing_plan_id":"cebpf4jnsgd1na2vs0mg"},{"bike_id":"56c77742-199f-430c-a69a-0657472af381","system_id":"levelo_inurba_marseille","lat":43.26023,"lon":5.37556,"is_reserved":false,"is_disabled":false,"rental_uris":{"android":"levelo://app?vid=56c77742-199f-430c-a69a-0657472af381","ios":"levelo://app?vid=56c77742-199f-430c-a69a-0657472af381"},"vehicle_type_id":"4","last_reported":1781382330,"current_range_meters":6800,"station_id":"ce4bhgh2rcd13ifvqfa0","pricing_plan_id":"cebpf4jnsgd1na2vs0mg"},{"bike_id":"d9df716e-04c3-410e-a684-88b6b88fa6c5","system_id":"levelo_inurba_marseille","lat":43.24383,"lon":5.37079,"is_reserved":false,"is_disabled":true,"rental_uris":{"android":"levelo://app?vid=d9df716e-04c3-410e-a684-88b6b88fa6c5","ios":"levelo://app?vid=d9df716e-04c3-410e-a684-88b6b88fa6c5"},"vehicle_type_id":"4","last_reported":1781382330,"current_range_meters":6800,"station_id":"ce4bhhh2rcd13ifvqfk0","pricing_plan_id":"cebpf4jnsgd1na2vs0mg"},