{"last_updated":1730974195,"ttl":60,"version":"2.2","data":{"bikes":[{"bike_id":"5e89496f-7131-4633-ad8c-10a7e2afc839","system_id":"levelo_inurba_marseille","lat":43.24077,"lon":5.37742,"is_reserved":false,"is_disabled":false,"rental_uris":{"android":"levelo://app?vid=5e89496f-7131-4633-ad8c-10a7e2afc839","ios":"levelo://app?vid=5e89496f-7131-4633-ad8c-10a7e2afc839"},"vehicle_type_id":"4","last_reported":1730974195,"current_range_meters":24400,"station_id":"ce4bhnp2rcd13ifvqgvg","pricing_plan_id":"cebpf4jnsgd1na2vs0mg"},{"bike_id":"56c9d16b-3f66-42ca-801c-c2409dc00d5f","system_id":"levelo_inurba_marseille","lat":43.26942,"lon":5.38907,"is_reserved":false,"is_disabled":false,"rental_uris":{"android":"levelo://app?vid=56c9d16b-3f66-42ca-801c-c2409dc00d5f","ios":"levelo://app?vid=56c9d16b-3f66-42ca-801c-c2409dc00d5f"},"vehicle_type_id":"4","last_reported":1730974195,"current_range_meters":19200,"station_id":"ce4bhhh2rcd13ifvqfl0","pricing_plan_id":"cebpf4jnsgd1na2vs0mg"},{"bike_id":"e90f1580-5d4d-469d-b145-7e4bccb78e6f","system_id":"levelo_inurba_marseille","lat":43.29372,"lon":5.37846,"is_reserved":false,"is_disabled":false,"rental_uris":{"android":"levelo://app?vid=e90f1580-5d4d-469d-b145-7e4bccb78e6f","ios":"levelo://app?vid=e90f1580-5d4d-469d-b145-7e4bccb78e6f"},"vehicle_type_id":"4","last_reported":1730974195,"current_range_meters":2000,"station_id":"ce4bgjh2rcd13ifvqbf0","pricing_plan_id":"cebpf4jnsgd1na2vs0mg"},{"bike_id":"36da81ad-0e02-4ae5-aa74-842712164d86","system_id":"levelo_inurba_marseille","lat":43.23154,"lon":5.43707,"is_reserved":false,"is_disabled":false,"rental_uris":{"android":"levelo://app?vid=36da81ad-0e02-4ae5-aa74-842712164d86","ios":"levelo://app?vid=36da81ad-0e02-4ae5-aa74-842712164d86"},"vehicle_type_id":"4","last_reported":1730974195,"current_range_meters":25200,"station_id":"ce4bhmp2rcd13ifvqgog","pricing_plan_id":"cebpf4jnsgd1na2vs0mg"},{"bike_id":"e8bcca23-42a0-4423-8a65-a75ab12e9cb1","system_id":"levelo_inurba_marseille","lat":43.29579,"lon":5.36745,"is_reserved":false,"is_disabled":false,"rental_uris":{"android":"levelo://app?vid=e8bcca23-42a0-4423-8a65-a75ab12e9cb1","ios":"levelo://app?vid=e8bcca23-42a0-4423-8a65-a75ab12e9cb1"},"vehicle_type_id":"4","last_reported":1730974195,"current_range_meters":36000,"station_id":"ce4bgph2rcd13ifvqc2g","pricing_plan_id":"cebpf4jnsgd1na2vs0mg"},{"bike_id":"a57490d6-1b5f-4a0d-b4b7-f79ba049a52c","system_id":"levelo_inurba_marseille","lat":43.33607,"lon":5.41031,"is_reserved":false,"is_disabled":false,"rental_uris":{"android":"levelo://app?vid=a57490d6-1b5f-4a0d-b4b7-f79ba049a52c","ios":"levelo://app?vid=a57490d6-1b5f-4a0d-b4b7-f79ba049a52c"},"vehicle_type_id":"4","last_reported":1730974195,"current_range_meters":7200,"station_id":"ce4bhqh2rcd13ifvqhmg","pricing_plan_id":"cebpf4jnsgd1na2vs0mg"},{"bike_id":"89fcc22b-3b36-48e2-ac96-c2750f26667c","system_id":"levelo_inurba_marseille","lat":43.27678,"lon":5.38903,"is_reserved":false,"is_disabled":false,"rental_uris":{"android":"levelo://app?vid=89fcc22b-3b36-48e2-ac96-c2750f26667c","ios":"levelo://app?vid=89fcc22b-3b36-48e2-ac96-c2750f26667c"},"vehicle_type_id":"4","last_reported":1730974195,"current_range_meters":39200,"station_id":"ce4bhi12rcd13ifvqfo0","pricing_plan_id":"cebpf4jnsgd1na2vs0mg"},{"bike_id":"9936c4b5-e664-4ce8-bd71-98b6c16a721b","system_id":"levelo_inurba_marseille","lat":43.24178,"lon":5.39728,"is_reserved":false,"is_disabled":false,"rental_uris":{"android":"levelo://app?vid=9936c4b5-e664-4ce8-bd71-98b6c16a721b","ios":"levelo://app?vid=9936c4b5-e664-4ce8-bd71-98b6c16a721b"},"vehicle_type_id":"4","last_reported":1730974195,"current_range_meters":39200,"station_id":"ce4bhn12rcd13ifvqgpg","pricing_plan_id":"cebpf4jnsgd1na2vs0mg"},{"bike_id":"14b1e13b-b00b-49e3-ada0-f9a9a5ca4439","system_id":"levelo_inurba_marseille","lat":43.30957,"lon":5.39046,"is_reserved":false,"is_disabled":false,"rental_uris":{"android":"levelo://app?vid=14b1e13b-b00b-49e3-ada0-f9a9a5ca4439","ios":"levelo://app?vid=14b1e13b-b00b-49e3-ada0-f9a9a5ca4439"},"vehicle_type_id":"4","last_reported":1730974195,"current_range_meters":24000,"station_id":"ce4bgup2rcd13ifvqco0","pricing_plan_id":"cebpf4jnsgd1na2vs0mg"},{"bike_id":"52c6c0a9-2cd5-43a6-b522-a933d2b99414","system_id":"levelo_inurba_marseille","lat":43.30136,"lon":5.37421,"is_reserved":false,"is_disabled":false,"rental_uris":{"android":"levelo://app?vid=52c6c0a9-2cd5-43a6-b522-a933d2b99414","ios":"levelo://app?vid=52c6c0a9-2cd5-43a6-b522-a933d2b99414"},"vehicle_type_id":"4","last_reported":1730974195,"current_range_meters":19200,"station_id":"ce4bgs92rcd13ifvqcc0","pricing_plan_id":"cebpf4jnsgd1na2vs0mg"},{"bike_id":"797b978a-f324-47e3-84c4-76070de1eba9","system_id":"levelo_inurba_marseille","lat":43.26684,"lon":5.38274,"is_reserved":false,"is_disabled":false,"rental_uris":{"android":"levelo://app?vid=797b978a-f324-47e3-84c4-76070de1eba9","ios":"levelo://app?vid=797b978a-f324-47e3-84c4-76070de1eba9"},"vehicle_type_id":"4","last_reported":1730974195,"current_range_meters":40000,"station_id":"ce4bhg92rcd13ifvqf90","pricing_plan_id":"cebpf4jnsgd1na2vs0mg"},{"bike_id":"9d861ab1-c90a-48a1-b671-9f184311c54b","system_id":"levelo_inurba_marseille","lat":43.3111,"lon":5.37772,"is_reserved":false,"is_disabled":false,"rental_uris":{"android":"levelo://app?vid=9d861ab1-c90a-48a1-b671-9f184311c54b","ios":"levelo://app?vid=9d861ab1-c90a-48a1-b671-9f184311c54b"},"vehicle_type_id":"4","last_reported":1730974195,"current_range_meters":26800,"station_id":"ce4bgt92rcd13ifvqcg0","pricing_plan_id":"cebpf4jnsgd1na2vs0mg"},{"bike_id":"ea8b2df2-7d1b-484c-ae1e-b8e5bc91615a","system_id":"levelo_inurba_marseille","lat":43.28931,"lon":5.36637,"is_reserved":false,"is_disabled":false,"rental_uris":{"android":"levelo://app?vid=ea8b2df2-7d1b-484c-ae1e-b8e5bc91615a","ios":"levelo://app?vid=ea8b2df2-7d1b-484c-ae1e-b8e5bc91615a"},"vehicle_type_id":"4","last_reported":1730974195,"current_range_meters":38800,"station_id":"ce4bhap2rcd13ifvqek0","pricing_plan_id":"cebpf4jnsgd1na2vs0mg"},{"bike_id":"30758d5d-54e2-4e4f-8129-b6d871655d0b","system_id":"levelo_inurba_marseille","lat":43.30532,"lon":5.36531,"is_reserved":false,"is_disabled":false,"rental_uris":{"android":"levelo://app?vid=30758d5d-54e2-4e4f-8129-b6d871655d0b","ios":"levelo://app?vid=30758d5d-54e2-4e4f-8129-b6d871655d0b"},"vehicle_type_id":"4","last_reported":1730974195,"current_range_meters":14400,"station_id":"ce4bgs12rcd13ifvqcag","pricing_plan_id":"cebpf4jnsgd1na2vs0mg"},{"bike_id":"b2116663-67b9-426e-a75d-ed0e97e6dcbc","system_id":"levelo_inurba_marseille","lat":43.29635,"lon":5.37166,"is_reserved":false,"is_disabled":false,"rental_uris":{"android":"levelo://app?vid=b2116663-67b9-426e-a75d-ed0e97e6dcbc","ios":"levelo://app?vid=b2116663-67b9-426e-a75d-ed0e97e6dcbc"},"vehicle_type_id":"4","last_reported":1730974195,"current_range_meters":38400,"station_id":"ce4bgnh2rcd13ifvqc0g","pricing_plan_id":"cebpf4jnsgd1na2vs0mg"},{"bike_id":"f76ca3d1-7479-4f54-a458-de8a62d3c3f9","system_id":"levelo_inurba_marseille","lat":43.26955,"lon":5.38628,"is_reserved":false,"is_disabled":false,"rental_uris":{"android":"levelo://app?vid=f76ca3d1-7479-4f54-a458-de8a62d3c3f9","ios":"levelo://app?vid=f76ca3d1-7479-4f54-a458-de8a62d3c3f9"},"vehicle_type_id":"4","last_reported":1730974195,"current_range_meters":39200,"station_id":"ce4bhh92rcd13ifvqfh0","pricing_plan_id":"cebpf4jnsgd1na2vs0mg"},{"bike_id":"f9acb5cb-136c-47ec-89cd-c14384acbcdf","system_id":"levelo_inurba_marseille","lat":43.31685,"lon":5.40474,"is_reserved":false,"is_disabled":false,"rental_uris":{"android":"levelo://app?vid=f9acb5cb-136c-47ec-89cd-c14384acbcdf","ios":"levelo://app?vid=f9acb5cb-136c-47ec-89cd-c14384acbcdf"},"vehicle_type_id":"4","last_reported":1730974195,"current_range_meters":35200,"station_id":"ce4bh012rcd13ifvqd00","pricing_plan_id":"cebpf4jnsgd1na2vs0mg"},{"bike_id":"1510aaa8-e4b4-4ded-be09-698b6b03d511","system_id":"levelo_inurba_marseille","lat":43.231523,"lon":5.437091,"is_reserved":false,"is_disabled":false,"rental_uris":{"android":"levelo://app?vid=1510aaa8-e4b4-4ded-be09-698b6b03d511","ios":"levelo://app?vid=1510aaa8-e4b4-4ded-be09-698b6b03d511"},"vehicle_type_id":"4","last_reported":1730974195,"current_range_meters":17200,"station_id":"ce4bhmp2rcd13ifvqgog","pricing_plan_id":"cebpf4jnsgd1na2vs0mg"},{"bike_id":"30e2e302-bc85-415d-88bf-b8ac787f3ca1","system_id":"levelo_inurba_marseille","lat":43.26793,"lon":5.39419,"is_reserved":false,"is_disabled":false,"rental_uris":{"android":"levelo://app?vid=30e2e302-bc85-415d-88bf-b8ac787f3ca1","ios":"levelo://app?vid=30e2e302-bc85-415d-88bf-b8ac787f3ca1"},"vehicle_type_id":"4","last_reported":1730974195,"current_range_meters":22800,"station_id":"ce4bhh12rcd13ifvqfg0","pricing_plan_id":"cebpf4jnsgd1na2vs0mg"},{"bike_id":"434fe81b-9da2-49ed-aaee-dc29ee107415","system_id":"levelo_inurba_marseille","lat":43.23968,"lon":5.36626,"is_reserved":false,"is_disabled":false,"rental_uris":{"android":"levelo://app?vid=434fe81b-9da2-49ed-aaee-dc29ee107415","ios":"levelo://app?vid=434fe81b-9da2-49ed-aaee-dc29ee107415"},"vehicle_type_id":"4","last_reported":1730974195,"current_range_meters":24800,"station_id":"ce4bhi12rcd13ifvqfp0","pricing_plan_id":"cebpf4jnsgd1na2vs0mg"},{"bike_id":"44135612-fabe-4db6-b769-98ffa02d00e4","system_id":"levelo_inurba_marseille","lat":43.32292,"lon":5.38269,"is_reserved":false,"is_disabled":false,"rental_uris":{"android":"levelo://app?vid=44135612-fabe-4db6-b769-98ffa02d00e4","ios":"levelo://app?vid=44135612-fabe-4db6-b769-98ffa02d00e4"},"vehicle_type_id":"4","last_reported":1730974195,"current_range_meters":39200,"station_id":"ce4bhr12rcd13ifvqhqg","pricing_plan_id":"cebpf4jnsgd1na2vs0mg"},{"bike_id":"5022586d-8bd5-4aa1-8a15-d41923bb3f71","system_id":"levelo_inurba_marseille","lat":43.28148,"lon":5.4265,"is_reserved":false,"is_disabled":false,"rental_uris":{"android":"levelo://app?vid=5022586d-8bd5-4aa1-8a15-d41923bb3f71","ios":"levelo://app?vid=5022586d-8bd5-4aa1-8a15-d41923bb3f71"},"vehicle_type_id":"4","last_reported":1730974195,"current_range_meters":24000,"station_id":"ce4bhnh2rcd13ifvqgug","pricing_plan_id":"cebpf4jnsgd1na2vs0mg"},{"bike_id":"2b398445-cb15-4b76-9a3b-3525b6875e69","system_id":"levelo_inurba_marseille","lat":43.29041,"lon":5.37561,"is_reserved":false,"is_disabled":false,"rental_uris":{"android":"levelo://app?vid=2b398445-cb15-4b76-9a3b-3525b6875e69","ios":"levelo://app?vid=2b398445-cb15-4b76-9a3b-3525b6875e69"},"vehicle_type_id":"4","last_reported":1730974195,"current_range_meters":12000,"station_id":"ce4bh692rcd13ifvqe90","pricing_plan_id":"cebpf4jnsgd1na2vs0mg"},{"bike_id":"81a73e1e-df8e-4923-a10d-61f139a542d3","system_id":"levelo_inurba_marseille","lat":43.28029,"lon":5.36954,"is_reserved":false,"is_disabled":false,"rental_uris":{"android":"levelo://app?vid=81a73e1e-df8e-4923-a10d-61f139a542d3","ios":"levelo://app?vid=81a73e1e-df8e-4923-a10d-61f139a542d3"},"vehicle_type_id":"4","last_reported":1730974195,"current_range_meters":13600,"station_id":"ce4bha12rcd13ifvqef0","pricing_plan_id":"cebpf4jnsgd1na2vs0mg"},{"bike_id":"0c55efbc-edf0-4334-8397-5442eb2fa90f","system_id":"levelo_inurba_marseille","lat":43.29527,"lon":5.3751,"is_reserved":false,"is_disabled":false,"rental_uris":{"android":"levelo://app?vid=0c55efbc-edf0-4334-8397-5442eb2fa90f","ios":"levelo://app?vid=0c55efbc-edf0-4334-8397-5442eb2fa90f"},"vehicle_type_id":"4","last_reported":1730974195,"current_range_meters":10800,"station_id":"ce4bgkp2rcd13ifvqbmg","pricing_plan_id":"cebpf4jnsgd1na2vs0mg"},{"bike_id":"35c658cd-6772-420c-87ce-ba3ed9431cb0","system_id":"levelo_inurba_marseille","lat":43.30536,"lon":5.36545,"is_reserved":false,"is_disabled":false,"rental_uris":{"android":"levelo://app?vid=35c658cd-6772-420c-87ce-ba3ed9431cb0","ios":"levelo://app?vid=35c658cd-6772-420c-87ce-ba3ed9431cb0"},"vehicle_type_id":"4","last_reported":1730974195,"current_range_meters":29600,"station_id":"ce4bgs12rcd13ifvqcag","pricing_plan_id":"cebpf4jnsgd1na2vs0mg"},{"bike_id":"67ba8cc7-f0b1-4219-bdfc-228a2faebbf6","system_id":"levelo_inurba_marseille","lat":43.29029,"lon":5.38131,"is_reserved":false,"is_disabled":false,"rental_uris":{"android":"levelo://app?vid=67ba8cc7-f0b1-4219-bdfc-228a2faebbf6","ios":"levelo://app?vid=67ba8cc7-f0b1-4219-bdfc-228a2faebbf6"},"vehicle_type_id":"4","last_reported":1730974195,"current_range_meters":22800,"station_id":"ce4bh4p2rcd13ifvqe1g","pricing_plan_id":"cebpf4jnsgd1na2vs0mg"},{"bike_id":"e09faba5-1f84-4cad-b9da-00906b4635a5","system_id":"levelo_inurba_marseille","lat":43.26945,"lon":5.38631,"is_reserved":false,"is_disabled":false,"rental_uris":{"android":"levelo://app?vid=e09faba5-1f84-4cad-b9da-00906b4635a5","ios":"levelo://app?vid=e09faba5-1f84-4cad-b9da-00906b4635a5"},"vehicle_type_id":"4","last_reported":1730974195,"current_range_meters":30800,"station_id":"ce4bhh92rcd13ifvqfh0","pricing_plan_id":"cebpf4jnsgd1na2vs0mg"},{"bike_id":"8c5a44a9-3c2e-43d4-b389-d40244c9d287","system_id":"levelo_inurba_marseille","lat":43.29572,"lon":5.39984,"is_reserved":false,"is_disabled":false,"rental_uris":{"android":"levelo://app?vid=8c5a44a9-3c2e-43d4-b389-d40244c9d287","ios":"levelo://app?vid=8c5a44a9-3c2e-43d4-b389-d40244c9d287"},"vehicle_type_id":"4","last_reported":1730974195,"current_range_meters":10000,"station_id":"ce4bh312rcd13ifvqdj0","pricing_plan_id":"cebpf4jnsgd1na2vs0mg"},{"bike_id":"8c894b72-68ed-4925-b417-f67a0bb96441","system_id":"levelo_inurba_marseille","lat":43.33609,"lon":5.41024,"is_reserved":false,"is_disabled":false,"rental_uris":{"android":"levelo://app?vid=8c894b72-68ed-4925-b417-f67a0bb96441","ios":"levelo://app?vid=8c894b72-68ed-4925-b417-f67a0bb96441"},"vehicle_type_id":"4","last_reported":1730974195,"current_range_meters":20000,"station_id":"ce4bhqh2rcd13ifvqhmg","pricing_plan_id":"cebpf4jnsgd1na2vs0mg"},{"bike_id":"4df27c33-5d2b-4c1c-a7b3-9c8543269d96","system_id":"levelo_inurba_marseille","lat":43.30463,"lon":5.37909,"is_reserved":false,"is_disabled":false,"rental_uris":{"android":"levelo://app?vid=4df27c33-5d2b-4c1c-a7b3-9c8543269d96","ios":"levelo://app?vid=4df27c33-5d2b-4c1c-a7b3-9c8543269d96"},"vehicle_type_id":"4","last_reported":1730974195,"current_range_meters":29600,"station_id":"ce4bgup2rcd13ifvqcn0","pricing_plan_id":"cebpf4jnsgd1na2vs0mg"},{"bike_id":"684b6b7f-8c0a-4c45-8072-c20ab2dd084c","system_id":"levelo_inurba_marseille","lat":43.30926,"lon":5.40135,"is_reserved":false,"is_disabled":false,"rental_uris":{"android":"levelo://app?vid=684b6b7f-8c0a-4c45-8072-c20ab2dd084c","ios":"levelo://app?vid=684b6b7f-8c0a-4c45-8072-c20ab2dd084c"},"vehicle_type_id":"4","last_reported":1730974195,"current_range_meters":7200,"station_id":"ce4bgvp2rcd13ifvqct0","pricing_plan_id":"cebpf4jnsgd1na2vs0mg"},{"bike_id":"8a401a8a-30f9-4643-ad63-74116d1b600f","system_id":"levelo_inurba_marseille","lat":43.3249,"lon":5.36569,"is_reserved":false,"is_disabled":false,"rental_uris":{"android":"levelo://app?vid=8a401a8a-30f9-4643-ad63-74116d1b600f","ios":"levelo://app?vid=8a401a8a-30f9-4643-ad63-74116d1b600f"},"vehicle_type_id":"4","last_reported":1730974195,"current_range_meters":36800,"station_id":"ce4bhs12rcd13ifvqhvg","pricing_plan_id":"cebpf4jnsgd1na2vs0mg"},{"bike_id":"5e3f8faf-ce94-4e09-ac7a-a71098158d8a","system_id":"levelo_inurba_marseille","lat":43.2695,"lon":5.38624,"is_reserved":false,"is_disabled":false,"rental_uris":{"android":"levelo://app?vid=5e3f8faf-ce94-4e09-ac7a-a71098158d8a","ios":"levelo://app?vid=5e3f8faf-ce94-4e09-ac7a-a71098158d8a"},"vehicle_type_id":"4","last_reported":1730974195,"current_range_meters":39200,"station_id":"ce4bhh92rcd13ifvqfh0","pricing_plan_id":"cebpf4jnsgd1na2vs0mg"},{"bike_id":"80fd1b2c-7f62-4fcf-b77d-a13e135f8991","system_id":"levelo_inurba_marseille","lat":43.33606,"lon":5.41036,"is_reserved":false,"is_disabled":false,"rental_uris":{"android":"levelo://app?vid=80fd1b2c-7f62-4fcf-b77d-a13e135f8991","ios":"levelo://app?vid=80fd1b2c-7f62-4fcf-b77d-a13e135f8991"},"vehicle_type_id":"4","last_reported":1730974195,"current_range_meters":17200,"station_id":"ce4bhqh2rcd13ifvqhmg","pricing_plan_id":"cebpf4jnsgd1na2vs0mg"},{"bike_id":"b8e81aad-c873-4bd9-9b6c-6e86356fee69","system_id":"levelo_inurba_marseille","lat":43.30139,"lon":5.38787,"is_reserved":false,"is_disabled":false,"rental_uris":{"android":"levelo://app?vid=b8e81aad-c873-4bd9-9b6c-6e86356fee69","ios":"levelo://app?vid=b8e81aad-c873-4bd9-9b6c-6e86356fee69"},"vehicle_type_id":"4","last_reported":1730974195,"current_range_meters":28400,"station_id":"ce4bghh2rcd13ifvqb60","pricing_plan_id":"cebpf4jnsgd1na2vs0mg"},{"bike_id":"c40b294e-5bc0-411a-af24-e0675d161212","system_id":"levelo_inurba_marseille","lat":43.31494,"lon":5.37308,"is_reserved":false,"is_disabled":false,"rental_uris":{"android":"levelo://app?vid=c40b294e-5bc0-411a-af24-e0675d161212","ios":"levelo://app?vid=c40b294e-5bc0-411a-af24-e0675d161212"},"vehicle_type_id":"4","last_reported":1730974195,"current_range_meters":26800,"station_id":"ce4bgt12rcd13ifvqcd0","pricing_plan_id":"cebpf4jnsgd1na2vs0mg"},{"bike_id":"794c21bb-2dc9-433c-bf5d-8d6b934201ad","system_id":"levelo_inurba_marseille","lat":43.2408,"lon":5.37754,"is_reserved":false,"is_disabled":false,"rental_uris":{"android":"levelo://app?vid=794c21bb-2dc9-433c-bf5d-8d6b934201ad","ios":"levelo://app?vid=794c21bb-2dc9-433c-bf5d-8d6b934201ad"},"vehicle_type_id":"4","last_reported":1730974195,"current_range_meters":25600,"station_id":"ce4bhnp2rcd13ifvqgvg","pricing_plan_id":"cebpf4jnsgd1na2vs0mg"},{"bike_id":"44561281-b3cf-462d-af9a-8106b45d6d01","system_id":"levelo_inurba_marseille","lat":43.29723,"lon":5.37683,"is_reserved":false,"is_disabled":false,"rental_uris":{"android":"levelo://app?vid=44561281-b3cf-462d-af9a-8106b45d6d01","ios":"levelo://app?vid=44561281-b3cf-462d-af9a-8106b45d6d01"},"vehicle_type_id":"4","last_reported":1730974195,"current_range_meters":39200,"station_id":"ce4bgkh2rcd13ifvqbl0","pricing_plan_id":"cebpf4jnsgd1na2vs0mg"},{"bike_id":"958d9970-45c2-4c78-bf21-7a472f91687b","system_id":"levelo_inurba_marseille","lat":43.26555,"lon":5.39025,"is_reserved":false,"is_disabled":false,"rental_uris":{"android":"levelo://app?vid=958d9970-45c2-4c78-bf21-7a472f91687b","ios":"levelo://app?vid=958d9970-45c2-4c78-bf21-7a472f91687b"},"vehicle_type_id":"4","last_reported":1730974195,"current_range_meters":38000,"station_id":"ce4bhe12rcd13ifvqf30","pricing_plan_id":"cebpf4jnsgd1na2vs0mg"},{"bike_id":"5c2c4b0d-1089-4b75-9b31-1fcbc67917c9","system_id":"levelo_inurba_marseille","lat":43.29557,"lon":5.42293,"is_reserved":false,"is_disabled":false,"rental_uris":{"android":"levelo://app?vid=5c2c4b0d-1089-4b75-9b31-1fcbc67917c9","ios":"levelo://app?vid=5c2c4b0d-1089-4b75-9b31-1fcbc67917c9"},"vehicle_type_id":"4","last_reported":1730974195,"current_range_meters":34000,"station_id":"ce4bhph2rcd13ifvqhdg","pricing_plan_id":"cebpf4jnsgd1na2vs0mg"},{"bike_id":"2980a31f-a1dd-48be-9110-67be48ef088b","system_id":"levelo_inurba_marseille","lat":43.29505,"lon":5.3751,"is_reserved":false,"is_disabled":false,"rental_uris":{"android":"levelo://app?vid=2980a31f-a1dd-48be-9110-67be48ef088b","ios":"levelo://app?vid=2980a31f-a1dd-48be-9110-67be48ef088b"},"vehicle_type_id":"4","last_reported":1730974195,"current_range_meters":10000,"station_id":"ce4bgkp2rcd13ifvqbmg","pricing_plan_id":"cebpf4jnsgd1na2vs0mg"},{"bike_id":"08da7afd-bce2-4857-b4c4-ce3ab04a9605","system_id":"levelo_inurba_marseille","lat":43.25934,"lon":5.40915,"is_reserved":false,"is_disabled":false,"rental_uris":{"android":"levelo://app?vid=08da7afd-bce2-4857-b4c4-ce3ab04a9605","ios":"levelo://app?vid=08da7afd-bce2-4857-b4c4-ce3ab04a9605"},"vehicle_type_id":"4","last_reported":1730974195,"current_range_meters":36800,"station_id":"ce4bhm92rcd13ifvqglg","pricing_plan_id":"cebpf4jnsgd1na2vs0mg"},{"bike_id":"08f92521-0bfb-4a85-9556-944f8cfa70ca","system_id":"levelo_inurba_marseille","lat":43.30153,"lon":5.38077,"is_reserved":false,"is_disabled":false,"rental_uris":{"android":"levelo://app?vid=08f92521-0bfb-4a85-9556-944f8cfa70ca","ios":"levelo://app?vid=08f92521-0bfb-4a85-9556-944f8cfa70ca"},"vehicle_type_id":"4","last_reported":1730974195,"current_range_meters":26800,"station_id":"ce4bgjp2rcd13ifvqbh0","pricing_plan_id":"cebpf4jnsgd1na2vs0mg"},{"bike_id":"b4acb205-fefb-4ff0-a0f5-e0b7a0a1fe0d","system_id":"levelo_inurba_marseille","lat":43.27994,"lon":5.41661,"is_reserved":false,"is_disabled":false,"rental_uris":{"android":"levelo://app?vid=b4acb205-fefb-4ff0-a0f5-e0b7a0a1fe0d","ios":"levelo://app?vid=b4acb205-fefb-4ff0-a0f5-e0b7a0a1fe0d"},"vehicle_type_id":"4","last_reported":1730974195,"current_range_meters":30400,"station_id":"ce4bho12rcd13ifvqh1g","pricing_plan_id":"cebpf4jnsgd1na2vs0mg"},{"bike_id":"ccda7fc9-1fd3-4c2e-9926-323959f5fad4","system_id":"levelo_inurba_marseille","lat":43.26193,"lon":5.37451,"is_reserved":false,"is_disabled":false,"rental_uris":{"android":"levelo://app?vid=ccda7fc9-1fd3-4c2e-9926-323959f5fad4","ios":"levelo://app?vid=ccda7fc9-1fd3-4c2e-9926-323959f5fad4"},"vehicle_type_id":"4","last_reported":1730974195,"current_range_meters":32800,"station_id":"ce4bhgp2rcd13ifvqfc0","pricing_plan_id":"cebpf4jnsgd1na2vs0mg"},{"bike_id":"148a05b0-5e9b-4a2d-af89-c42d1ba92550","system_id":"levelo_inurba_marseille","lat":43.28034,"lon":5.36948,"is_reserved":false,"is_disabled":false,"rental_uris":{"android":"levelo://app?vid=148a05b0-5e9b-4a2d-af89-c42d1ba92550","ios":"levelo://app?vid=148a05b0-5e9b-4a2d-af89-c42d1ba92550"},"vehicle_type_id":"4","last_reported":1730974195,"current_range_meters":28000,"station_id":"ce4bha12rcd13ifvqef0","pricing_plan_id":"cebpf4jnsgd1na2vs0mg"},{"bike_id":"70d67e8b-cf90-41d7-a359-ddc74e8f5edf","system_id":"levelo_inurba_marseille","lat":43.2593,"lon":5.40913,"is_reserved":false,"is_disabled":false,"rental_uris":{"android":"levelo://app?vid=70d67e8b-cf90-41d7-a359-ddc74e8f5edf","ios":"levelo://app?vid=70d67e8b-cf90-41d7-a359-ddc74e8f5edf"},"vehicle_type_id":"4","last_reported":1730974195,"current_range_meters":16800,"station_id":"ce4bhm92rcd13ifvqglg","pricing_plan_id":"cebpf4jnsgd1na2vs0mg"},{"bike_id":"76af8b3d-9a84-4e55-b4f5-30a2c29789a2","system_id":"levelo_inurba_marseille","lat":43.24085,"lon":5.37742,"is_reserved":false,"is_disabled":false,"rental_uris":{"android":"levelo://app?vid=76af8b3d-9a84-4e55-b4f5-30a2c29789a2","ios":"levelo://app?vid=76af8b3d-9a84-4e55-b4f5-30a2c29789a2"},"vehicle_type_id":"4","last_reported":1730974195,"current_range_meters":28000,"station_id":"ce4bhnp2rcd13ifvqgvg","pricing_plan_id":"cebpf4jnsgd1na2vs0mg"},{"bike_id":"d6012cce-4213-4913-a5ff-a23b071f00be","system_id":"levelo_inurba_marseille","lat":43.29618,"lon":5.37152,"is_reserved":false,"is_disabled":false,"rental_uris":{"android":"levelo://app?vid=d6012cce-4213-4913-a5ff-a23b071f00be","ios":"levelo://app?vid=d6012cce-4213-4913-a5ff-a23b071f00be"},"vehicle_type_id":"4","last_reported":1730974195,"current_range_meters":10800,"station_id":"ce4bgnh2rcd13ifvqc0g","pricing_plan_id":"cebpf4jnsgd1na2vs0mg"},{"bike_id":"efe92105-4d2a-4aaa-bfb1-ef29a0ae18f6","system_id":"levelo_inurba_marseille","lat":43.2952,"lon":5.3751,"is_reserved":false,"is_disabled":false,"rental_uris":{"android":"levelo://app?vid=efe92105-4d2a-4aaa-bfb1-ef29a0ae18f6","ios":"levelo://app?vid=efe92105-4d2a-4aaa-bfb1-ef29a0ae18f6"},"vehicle_type_id":"4","last_reported":1730974195,"current_range_meters":39200,"station_id":"ce4bgkp2rcd13ifvqbmg","pricing_plan_id":"cebpf4jnsgd1na2vs0mg"},{"bike_id":"bbde159d-771c-477e-9cb9-0b5767d2e088","system_id":"levelo_inurba_marseille","lat":43.31487,"lon":5.37309,"is_reserved":false,"is_disabled":false,"rental_uris":{"android":"levelo://app?vid=bbde159d-771c-477e-9cb9-0b5767d2e088","ios":"levelo://app?vid=bbde159d-771c-477e-9cb9-0b5767d2e088"},"vehicle_type_id":"4","last_reported":1730974195,"current_range_meters":12400,"station_id":"ce4bgt12rcd13ifvqcd0","pricing_plan_id":"cebpf4jnsgd1na2vs0mg"},{"bike_id":"00aa69ff-b7b5-43ab-88d6-bc3a69e44915","system_id":"levelo_inurba_marseille","lat":43.278381,"lon":5.387514,"is_reserved":false,"is_disabled":false,"rental_uris":{"android":"levelo://app?vid=00aa69ff-b7b5-43ab-88d6-bc3a69e44915","ios":"levelo://app?vid=00aa69ff-b7b5-43ab-88d6-bc3a69e44915"},"vehicle_type_id":"4","last_reported":1730974195,"current_range_meters":4000,"station_id":"ce4bhi12rcd13ifvqfo0","pricing_plan_id":"cebpf4jnsgd1na2vs0mg"},{"bike_id":"be381f3f-5dc1-4e1c-823e-89aac21b78e7","system_id":"levelo_inurba_marseille","lat":43.30084,"lon":5.39075,"is_reserved":false,"is_disabled":false,"rental_uris":{"android":"levelo://app?vid=be381f3f-5dc1-4e1c-823e-89aac21b78e7","ios":"levelo://app?vid=be381f3f-5dc1-4e1c-823e-89aac21b78e7"},"vehicle_type_id":"4","last_reported":1730974195,"current_range_meters":26800,"station_id":"ce4bh192rcd13ifvqdb0","pricing_plan_id":"cebpf4jnsgd1na2vs0mg"},{"bike_id":"fa0b7a65-cee1-4d2a-a04c-01c31bf50672","system_id":"levelo_inurba_marseille","lat":43.24162,"lon":5.36395,"is_reserved":false,"is_disabled":false,"rental_uris":{"android":"levelo://app?vid=fa0b7a65-cee1-4d2a-a04c-01c31bf50672","ios":"levelo://app?vid=fa0b7a65-cee1-4d2a-a04c-01c31bf50672"},"vehicle_type_id":"4","last_reported":1730974195,"current_range_meters":24400,"station_id":"cpo36qri1sfpv3e86is0","pricing_plan_id":"cebpf4jnsgd1na2vs0mg"},{"bike_id":"42d7fa01-6c71-4599-94a5-4874f8427d87","system_id":"levelo_inurba_marseille","lat":43.2696,"lon":5.38622,"is_reserved":false,"is_disabled":false,"rental_uris":{"android":"levelo://app?vid=42d7fa01-6c71-4599-94a5-4874f8427d87","ios":"levelo://app?vid=42d7fa01-6c71-4599-94a5-4874f8427d87"},"vehicle_type_id":"4","last_reported":1730974195,"current_range_meters":38800,"station_id":"ce4bhh92rcd13ifvqfh0","pricing_plan_id":"cebpf4jnsgd1na2vs0mg"},{"bike_id":"89dcfce5-01c9-4f6d-8f60-bd3d8a5fcb9f","system_id":"levelo_inurba_marseille","lat":43.29279,"lon":5.40118,"is_reserved":false,"is_disabled":false,"rental_uris":{"android":"levelo://app?vid=89dcfce5-01c9-4f6d-8f60-bd3d8a5fcb9f","ios":"levelo://app?vid=89dcfce5-01c9-4f6d-8f60-bd3d8a5fcb9f"},"vehicle_type_id":"4","last_reported":1730974195,"current_range_meters":36800,"station_id":"ce4bh312rcd13ifvqdk0","pricing_plan_id":"cebpf4jnsgd1na2vs0mg"},{"bike_id":"5f71bbbc-b440-48b7-a743-bb6bda19f0ba","system_id":"levelo_inurba_marseille","lat":43.27492,"lon":5.42451,"is_reserved":false,"is_disabled":false,"rental_uris":{"android":"levelo://app?vid=5f71bbbc-b440-48b7-a743-bb6bda19f0ba","ios":"levelo://app?vid=5f71bbbc-b440-48b7-a743-bb6bda19f0ba"},"vehicle_type_id":"4","last_reported":1730974195,"current_range_meters":8000,"station_id":"ce4bhn92rcd13ifvqgrg","pricing_plan_id":"cebpf4jnsgd1na2vs0mg"},{"bike_id":"d4af6305-eb93-4cc2-bee8-a2c155b4ed5b","system_id":"levelo_inurba_marseille","lat":43.29002,"lon":5.35607,"is_reserved":false,"is_disabled":false,"rental_uris":{"android":"levelo://app?vid=d4af6305-eb93-4cc2-bee8-a2c155b4ed5b","ios":"levelo://app?vid=d4af6305-eb93-4cc2-bee8-a2c155b4ed5b"},"vehicle_type_id":"4","last_reported":1730974195,"current_range_meters":39200,"station_id":"ce4bhb92rcd13ifvqen0","pricing_plan_id":"cebpf4jnsgd1na2vs0mg"},{"bike_id":"5205fbf7-8d59-4be8-bf69-1e6422de7447","system_id":"levelo_inurba_marseille","lat":43.30905,"lon":5.36853,"is_reserved":false,"is_disabled":false,"rental_uris":{"android":"levelo://app?vid=5205fbf7-8d59-4be8-bf69-1e6422de7447","ios":"levelo://app?vid=5205fbf7-8d59-4be8-bf69-1e6422de7447"},"vehicle_type_id":"4","last_reported":1730974195,"current_range_meters":8000,"station_id":"ce4bgn92rcd13ifvqbvg","pricing_plan_id":"cebpf4jnsgd1na2vs0mg"},{"bike_id":"cb0ff2cc-ff1a-49a6-b8fb-f55be74a223d","system_id":"levelo_inurba_marseille","lat":43.30555,"lon":5.36532,"is_reserved":false,"is_disabled":false,"rental_uris":{"android":"levelo://app?vid=cb0ff2cc-ff1a-49a6-b8fb-f55be74a223d","ios":"levelo://app?vid=cb0ff2cc-ff1a-49a6-b8fb-f55be74a223d"},"vehicle_type_id":"4","last_reported":1730974195,"current_range_meters":31200,"station_id":"ce4bgs12rcd13ifvqcag","pricing_plan_id":"cebpf4jnsgd1na2vs0mg"},{"bike_id":"b75daa89-0c95-4b8b-8d68-6bdb06ed8283","system_id":"levelo_inurba_marseille","lat":43.33606,"lon":5.41031,"is_reserved":false,"is_disabled":false,"rental_uris":{"android":"levelo://app?vid=b75daa89-0c95-4b8b-8d68-6bdb06ed8283","ios":"levelo://app?vid=b75daa89-0c95-4b8b-8d68-6bdb06ed8283"},"vehicle_type_id":"4","last_reported":1730974195,"current_range_meters":19200,"station_id":"ce4bhqh2rcd13ifvqhmg","pricing_plan_id":"cebpf4jnsgd1na2vs0mg"},{"bike_id":"317e22fd-8472-4da8-8656-66e026a126d6","system_id":"levelo_inurba_marseille","lat":43.24074,"lon":5.37755,"is_reserved":false,"is_disabled":false,"rental_uris":{"android":"levelo://app?vid=317e22fd-8472-4da8-8656-66e026a126d6","ios":"levelo://app?vid=317e22fd-8472-4da8-8656-66e026a126d6"},"vehicle_type_id":"4","last_reported":1730974195,"current_range_meters":36000,"station_id":"ce4bhnp2rcd13ifvqgvg","pricing_plan_id":"cebpf4jnsgd1na2vs0mg"},{"bike_id":"4f4d40a6-2618-4162-9943-9d193f6b4eee","system_id":"levelo_inurba_marseille","lat":43.29366,"lon":5.3785,"is_reserved":false,"is_disabled":false,"rental_uris":{"android":"levelo://app?vid=4f4d40a6-2618-4162-9943-9d193f6b4eee","ios":"levelo://app?vid=4f4d40a6-2618-4162-9943-9d193f6b4eee"},"vehicle_type_id":"4","last_reported":1730974195,"current_range_meters":39200,"station_id":"ce4bgjh2rcd13ifvqbf0","pricing_plan_id":"cebpf4jnsgd1na2vs0mg"},{"bike_id":"ea3d6eef-507a-4895-b66d-41354eebe112","system_id":"levelo_inurba_marseille","lat":43.27214,"lon":5.39181,"is_reserved":false,"is_disabled":false,"rental_uris":{"android":"levelo://app?vid=ea3d6eef-507a-4895-b66d-41354eebe112","ios":"levelo://app?vid=ea3d6eef-507a-4895-b66d-41354eebe112"},"vehicle_type_id":"4","last_reported":1730974195,"current_range_meters":10000,"station_id":"ce4bhhp2rcd13ifvqfm0","pricing_plan_id":"cebpf4jnsgd1na2vs0mg"},{"bike_id":"471928a2-4c16-47c1-aed3-b6043ef455be","system_id":"levelo_inurba_marseille","lat":43.29592,"lon":5.38109,"is_reserved":false,"is_disabled":false,"rental_uris":{"android":"levelo://app?vid=471928a2-4c16-47c1-aed3-b6043ef455be","ios":"levelo://app?vid=471928a2-4c16-47c1-aed3-b6043ef455be"},"vehicle_type_id":"4","last_reported":1730974195,"current_range_meters":8800,"station_id":"ce4bgl12rcd13ifvqbo0","pricing_plan_id":"cebpf4jnsgd1na2vs0mg"},{"bike_id":"73ddab19-f3bf-49d8-9a14-da51e0ed8f6c","system_id":"levelo_inurba_marseille","lat":43.23144,"lon":5.4372,"is_reserved":false,"is_disabled":false,"rental_uris":{"android":"levelo://app?vid=73ddab19-f3bf-49d8-9a14-da51e0ed8f6c","ios":"levelo://app?vid=73ddab19-f3bf-49d8-9a14-da51e0ed8f6c"},"vehicle_type_id":"4","last_reported":1730974195,"current_range_meters":39200,"station_id":"ce4bhmp2rcd13ifvqgog","pricing_plan_id":"cebpf4jnsgd1na2vs0mg"},{"bike_id":"d1eef8ed-8492-4f33-b593-cbb9c4965d77","system_id":"levelo_inurba_marseille","lat":43.275,"lon":5.4245,"is_reserved":false,"is_disabled":false,"rental_uris":{"android":"levelo://app?vid=d1eef8ed-8492-4f33-b593-cbb9c4965d77","ios":"levelo://app?vid=d1eef8ed-8492-4f33-b593-cbb9c4965d77"},"vehicle_type_id":"4","last_reported":1730974195,"current_range_meters":31200,"station_id":"ce4bhn92rcd13ifvqgrg","pricing_plan_id":"cebpf4jnsgd1na2vs0mg"},{"bike_id":"9c28fa27-515a-43d3-b027-cf7351df511e","system_id":"levelo_inurba_marseille","lat":43.29705,"lon":5.37696,"is_reserved":false,"is_disabled":false,"rental_uris":{"android":"levelo://app?vid=9c28fa27-515a-43d3-b027-cf7351df511e","ios":"levelo://app?vid=9c28fa27-515a-43d3-b027-cf7351df511e"},"vehicle_type_id":"4","last_reported":1730974195,"current_range_meters":33200,"station_id":"ce4bgkh2rcd13ifvqbl0","pricing_plan_id":"cebpf4jnsgd1na2vs0mg"},{"bike_id":"b3cfe5b9-3e84-4f44-9e4e-ba4fa07f2071","system_id":"levelo_inurba_marseille","lat":43.24071,"lon":5.37758,"is_reserved":false,"is_disabled":false,"rental_uris":{"android":"levelo://app?vid=b3cfe5b9-3e84-4f44-9e4e-ba4fa07f2071","ios":"levelo://app?vid=b3cfe5b9-3e84-4f44-9e4e-ba4fa07f2071"},"vehicle_type_id":"4","last_reported":1730974195,"current_range_meters":33600,"station_id":"ce4bhnp2rcd13ifvqgvg","pricing_plan_id":"cebpf4jnsgd1na2vs0mg"},{"bike_id":"9d696f74-b98f-4b00-9f07-06ed4abe3915","system_id":"levelo_inurba_marseille","lat":43.24081,"lon":5.37748,"is_reserved":false,"is_disabled":false,"rental_uris":{"android":"levelo://app?vid=9d696f74-b98f-4b00-9f07-06ed4abe3915","ios":"levelo://app?vid=9d696f74-b98f-4b00-9f07-06ed4abe3915"},"vehicle_type_id":"4","last_reported":1730974195,"current_range_meters":33200,"station_id":"ce4bhnp2rcd13ifvqgvg","pricing_plan_id":"cebpf4jnsgd1na2vs0mg"},{"bike_id":"19645b45-8dc5-44dd-9eea-afb63875c101","system_id":"levelo_inurba_marseille","lat":43.31715,"lon":5.37744,"is_reserved":false,"is_disabled":false,"rental_uris":{"android":"levelo://app?vid=19645b45-8dc5-44dd-9eea-afb63875c101","ios":"levelo://app?vid=19645b45-8dc5-44dd-9eea-afb63875c101"},"vehicle_type_id":"4","last_reported":1730974195,"current_range_meters":21600,"station_id":"ce4bgth2rcd13ifvqch0","pricing_plan_id":"cebpf4jnsgd1na2vs0mg"},{"bike_id":"b5ab3cce-171f-4768-826f-37879f0a2854","system_id":"levelo_inurba_marseille","lat":43.24068,"lon":5.37757,"is_reserved":false,"is_disabled":false,"rental_uris":{"android":"levelo://app?vid=b5ab3cce-171f-4768-826f-37879f0a2854","ios":"levelo://app?vid=b5ab3cce-171f-4768-826f-37879f0a2854"},"vehicle_type_id":"4","last_reported":1730974195,"current_range_meters":32800,"station_id":"ce4bhnp2rcd13ifvqgvg","pricing_plan_id":"cebpf4jnsgd1na2vs0mg"},{"bike_id":"605d4e9e-fbdb-4b92-83ae-fd538c3fa3db","system_id":"levelo_inurba_marseille","lat":43.24073,"lon":5.37758,"is_reserved":false,"is_disabled":false,"rental_uris":{"android":"levelo://app?vid=605d4e9e-fbdb-4b92-83ae-fd538c3fa3db","ios":"levelo://app?vid=605d4e9e-fbdb-4b92-83ae-fd538c3fa3db"},"vehicle_type_id":"4","last_reported":1730974195,"current_range_meters":10800,"station_id":"ce4bhnp2rcd13ifvqgvg","pricing_plan_id":"cebpf4jnsgd1na2vs0mg"},{"bike_id":"cef8e3ab-38be-4eca-a2b6-05bb441c24b9","system_id":"levelo_inurba_marseille","lat":43.29585,"lon":5.36732,"is_reserved":false,"is_disabled":false,"rental_uris":{"android":"levelo://app?vid=cef8e3ab-38be-4eca-a2b6-05bb441c24b9","ios":"levelo://app?vid=cef8e3ab-38be-4eca-a2b6-05bb441c24b9"},"vehicle_type_id":"4","last_reported":1730974195,"current_range_meters":34800,"station_id":"ce4bgph2rcd13ifvqc2g","pricing_plan_id":"cebpf4jnsgd1na2vs0mg"},{"bike_id":"2c943a5b-2683-45f2-a740-258d4646045b","system_id":"levelo_inurba_marseille","lat":43.29706,"lon":5.37692,"is_reserved":false,"is_disabled":false,"rental_uris":{"android":"levelo://app?vid=2c943a5b-2683-45f2-a740-258d4646045b","ios":"levelo://app?vid=2c943a5b-2683-45f2-a740-258d4646045b"},"vehicle_type_id":"4","last_reported":1730974195,"current_range_meters":24800,"station_id":"ce4bgkh2rcd13ifvqbl0","pricing_plan_id":"cebpf4jnsgd1na2vs0mg"},{"bike_id":"4df686f7-8cdc-4be1-bac7-404bbaea22b8","system_id":"levelo_inurba_marseille","lat":43.23968,"lon":5.36631,"is_reserved":false,"is_disabled":false,"rental_uris":{"android":"levelo://app?vid=4df686f7-8cdc-4be1-bac7-404bbaea22b8","ios":"levelo://app?vid=4df686f7-8cdc-4be1-bac7-404bbaea22b8"},"vehicle_type_id":"4","last_reported":1730974195,"current_range_meters":23200,"station_id":"ce4bhi12rcd13ifvqfp0","pricing_plan_id":"cebpf4jnsgd1na2vs0mg"},{"bike_id":"4bab1dea-4fd2-4a9b-a80a-2ef71cd727ad","system_id":"levelo_inurba_marseille","lat":43.24082,"lon":5.37741,"is_reserved":false,"is_disabled":false,"rental_uris":{"android":"levelo://app?vid=4bab1dea-4fd2-4a9b-a80a-2ef71cd727ad","ios":"levelo://app?vid=4bab1dea-4fd2-4a9b-a80a-2ef71cd727ad"},"vehicle_type_id":"4","last_reported":1730974195,"current_range_meters":17600,"station_id":"ce4bhnp2rcd13ifvqgvg","pricing_plan_id":"cebpf4jnsgd1na2vs0mg"},{"bike_id":"e2f62a7a-4a87-4252-a97d-2b736d23e924","system_id":"levelo_inurba_marseille","lat":43.29917,"lon":5.37468,"is_reserved":false,"is_disabled":false,"rental_uris":{"android":"levelo://app?vid=e2f62a7a-4a87-4252-a97d-2b736d23e924","ios":"levelo://app?vid=e2f62a7a-4a87-4252-a97d-2b736d23e924"},"vehicle_type_id":"4","last_reported":1730974195,"current_range_meters":28800,"station_id":"ce4bgjh2rcd13ifvqbg0","pricing_plan_id":"cebpf4jnsgd1na2vs0mg"},{"bike_id":"e3ee10fb-8b83-41c1-b250-bb9136e88156","system_id":"levelo_inurba_marseille","lat":43.24081,"lon":5.3774,"is_reserved":false,"is_disabled":false,"rental_uris":{"android":"levelo://app?vid=e3ee10fb-8b83-41c1-b250-bb9136e88156","ios":"levelo://app?vid=e3ee10fb-8b83-41c1-b250-bb9136e88156"},"vehicle_type_id":"4","last_reported":1730974195,"current_range_meters":21600,"station_id":"ce4bhnp2rcd13ifvqgvg","pricing_plan_id":"cebpf4jnsgd1na2vs0mg"},{"bike_id":"be2379f1-2fee-4126-8b97-3ac71858d97d","system_id":"levelo_inurba_marseille","lat":43.27818,"lon":5.40713,"is_reserved":false,"is_disabled":false,"rental_uris":{"android":"levelo://app?vid=be2379f1-2fee-4126-8b97-3ac71858d97d","ios":"levelo://app?vid=be2379f1-2fee-4126-8b97-3ac71858d97d"},"vehicle_type_id":"4","last_reported":1730974195,"current_range_meters":32400,"station_id":"ce4bhnh2rcd13ifvqgtg","pricing_plan_id":"cebpf4jnsgd1na2vs0mg"},{"bike_id":"4edc2bdb-b0f2-47d3-805d-a10bd27ee0a9","system_id":"levelo_inurba_marseille","lat":43.29797,"lon":5.38096,"is_reserved":false,"is_disabled":false,"rental_uris":{"android":"levelo://app?vid=4edc2bdb-b0f2-47d3-805d-a10bd27ee0a9","ios":"levelo://app?vid=4edc2bdb-b0f2-47d3-805d-a10bd27ee0a9"},"vehicle_type_id":"4","last_reported":1730974195,"current_range_meters":10800,"station_id":"ce4bgip2rcd13ifvqbb0","pricing_plan_id":"cebpf4jnsgd1na2vs0mg"},{"bike_id":"77cbd3d7-f87c-41c7-9ee2-ce007afab03c","system_id":"levelo_inurba_marseille","lat":43.31096,"lon":5.42444,"is_reserved":false,"is_disabled":false,"rental_uris":{"android":"levelo://app?vid=77cbd3d7-f87c-41c7-9ee2-ce007afab03c","ios":"levelo://app?vid=77cbd3d7-f87c-41c7-9ee2-ce007afab03c"},"vehicle_type_id":"4","last_reported":1730974195,"current_range_meters":30400,"station_id":"ce4bhp92rcd13ifvqhag","pricing_plan_id":"cebpf4jnsgd1na2vs0mg"},{"bike_id":"b0a90dc9-62f4-4afc-a7f7-e2037fc95ad6","system_id":"levelo_inurba_marseille","lat":43.2749,"lon":5.42452,"is_reserved":false,"is_disabled":false,"rental_uris":{"android":"levelo://app?vid=b0a90dc9-62f4-4afc-a7f7-e2037fc95ad6","ios":"levelo://app?vid=b0a90dc9-62f4-4afc-a7f7-e2037fc95ad6"},"vehicle_type_id":"4","last_reported":1730974195,"current_range_meters":32000,"station_id":"ce4bhn92rcd13ifvqgrg","pricing_plan_id":"cebpf4jnsgd1na2vs0mg"},{"bike_id":"cc4d879f-6f03-4377-b3d2-e6d5cabf60e2","system_id":"levelo_inurba_marseille","lat":43.30093,"lon":5.39073,"is_reserved":false,"is_disabled":false,"rental_uris":{"android":"levelo://app?vid=cc4d879f-6f03-4377-b3d2-e6d5cabf60e2","ios":"levelo://app?vid=cc4d879f-6f03-4377-b3d2-e6d5cabf60e2"},"vehicle_type_id":"4","last_reported":1730974195,"current_range_meters":36000,"station_id":"ce4bh192rcd13ifvqdb0","pricing_plan_id":"cebpf4jnsgd1na2vs0mg"},{"bike_id":"718ccc46-6b9e-49da-8eac-c88aaf7f1726","system_id":"levelo_inurba_marseille","lat":43.29373,"lon":5.37825,"is_reserved":false,"is_disabled":false,"rental_uris":{"android":"levelo://app?vid=718ccc46-6b9e-49da-8eac-c88aaf7f1726","ios":"levelo://app?vid=718ccc46-6b9e-49da-8eac-c88aaf7f1726"},"vehicle_type_id":"4","last_reported":1730974195,"current_range_meters":14400,"station_id":"ce4bh4p2rcd13ifvqe0g","pricing_plan_id":"cebpf4jnsgd1na2vs0mg"},{"bike_id":"1ebcb894-33c0-4978-a2f6-3f53cef6cbb5","system_id":"levelo_inurba_marseille","lat":43.29713,"lon":5.37697,"is_reserved":false,"is_disabled":false,"rental_uris":{"android":"levelo://app?vid=1ebcb894-33c0-4978-a2f6-3f53cef6cbb5","ios":"levelo://app?vid=1ebcb894-33c0-4978-a2f6-3f53cef6cbb5"},"vehicle_type_id":"4","last_reported":1730974195,"current_range_meters":38800,"station_id":"ce4bgkh2rcd13ifvqbl0","pricing_plan_id":"cebpf4jnsgd1na2vs0mg"},{"bike_id":"79582731-c85c-44df-9358-c2952f2edf19","system_id":"levelo_inurba_marseille","lat":43.26685,"lon":5.38269,"is_reserved":false,"is_disabled":false,"rental_uris":{"android":"levelo://app?vid=79582731-c85c-44df-9358-c2952f2edf19","ios":"levelo://app?vid=79582731-c85c-44df-9358-c2952f2edf19"},"vehicle_type_id":"4","last_reported":1730974195,"current_range_meters":18800,"station_id":"ce4bhg92rcd13ifvqf90","pricing_plan_id":"cebpf4jnsgd1na2vs0mg"},{"bike_id":"ba650f25-9f11-45ae-8f78-5e7a6d5d3816","system_id":"levelo_inurba_marseille","lat":43.30604,"lon":5.39355,"is_reserved":false,"is_disabled":false,"rental_uris":{"android":"levelo://app?vid=ba650f25-9f11-45ae-8f78-5e7a6d5d3816","ios":"levelo://app?vid=ba650f25-9f11-45ae-8f78-5e7a6d5d3816"},"vehicle_type_id":"4","last_reported":1730974195,"current_range_meters":38000,"station_id":"ce4bh0p2rcd13ifvqd80","pricing_plan_id":"cebpf4jnsgd1na2vs0mg"},{"bike_id":"e41e5be4-c508-4d61-b847-98292c01416f","system_id":"levelo_inurba_marseille","lat":43.24076,"lon":5.37739,"is_reserved":false,"is_disabled":false,"rental_uris":{"android":"levelo://app?vid=e41e5be4-c508-4d61-b847-98292c01416f","ios":"levelo://app?vid=e41e5be4-c508-4d61-b847-98292c01416f"},"vehicle_type_id":"4","last_reported":1730974195,"current_range_meters":33600,"station_id":"ce4bhnp2rcd13ifvqgvg","pricing_plan_id":"cebpf4jnsgd1na2vs0mg"},{"bike_id":"4a4eea3a-9e6d-46e9-b2a6-4e45c36b74db","system_id":"levelo_inurba_marseille","lat":43.29002,"lon":5.35604,"is_reserved":false,"is_disabled":false,"rental_uris":{"android":"levelo://app?vid=4a4eea3a-9e6d-46e9-b2a6-4e45c36b74db","ios":"levelo://app?vid=4a4eea3a-9e6d-46e9-b2a6-4e45c36b74db"},"vehicle_type_id":"4","last_reported":1730974195,"current_range_meters":38000,"station_id":"ce4bhb92rcd13ifvqen0","pricing_plan_id":"cebpf4jnsgd1na2vs0mg"},{"bike_id":"f1461fba-e0b0-44e4-977f-acc0ddb99640","system_id":"levelo_inurba_marseille","lat":43.27812,"lon":5.40716,"is_reserved":false,"is_disabled":false,"rental_uris":{"android":"levelo://app?vid=f1461fba-e0b0-44e4-977f-acc0ddb99640","ios":"levelo://app?vid=f1461fba-e0b0-44e4-977f-acc0ddb99640"},"vehicle_type_id":"4","last_reported":1730974195,"current_range_meters":36800,"station_id":"ce4bhnh2rcd13ifvqgtg","pricing_plan_id":"cebpf4jnsgd1na2vs0mg"},{"bike_id":"dfdcdfb7-6179-4cdc-b4c4-a6f9385b4747","system_id":"levelo_inurba_marseille","lat":43.29842,"lon":5.36267,"is_reserved":false,"is_disabled":false,"rental_uris":{"android":"levelo://app?vid=dfdcdfb7-6179-4cdc-b4c4-a6f9385b4747","ios":"levelo://app?vid=dfdcdfb7-6179-4cdc-b4c4-a6f9385b4747"},"vehicle_type_id":"4","last_reported":1730974195,"current_range_meters":40000,"station_id":"ce4bgpp2rcd13ifvqc3g","pricing_plan_id":"cebpf4jnsgd1na2vs0mg"},{"bike_id":"56724e01-9843-478f-9957-90072d770c6c","system_id":"levelo_inurba_marseille","lat":43.23191,"lon":5.35556,"is_reserved":false,"is_disabled":false,"rental_uris":{"android":"levelo://app?vid=56724e01-9843-478f-9957-90072d770c6c","ios":"levelo://app?vid=56724e01-9843-478f-9957-90072d770c6c"},"vehicle_type_id":"4","last_reported":1730974195,"current_range_meters":10800,"station_id":"ce4bhu92rcd13ifvqi70","pricing_plan_id":"cebpf4jnsgd1na2vs0mg"},{"bike_id":"2133dfbe-49e8-4189-a0e7-2637129ed1cc","system_id":"levelo_inurba_marseille","lat":43.30153,"lon":5.38084,"is_reserved":false,"is_disabled":false,"rental_uris":{"android":"levelo://app?vid=2133dfbe-49e8-4189-a0e7-2637129ed1cc","ios":"levelo://app?vid=2133dfbe-49e8-4189-a0e7-2637129ed1cc"},"vehicle_type_id":"4","last_reported":1730974195,"current_range_meters":14000,"station_id":"ce4bgjp2rcd13ifvqbh0","pricing_plan_id":"cebpf4jnsgd1na2vs0mg"},{"bike_id":"cde33d01-4fdf-4588-9993-50576e545d63","system_id":"levelo_inurba_marseille","lat":43.29899,"lon":5.43668,"is_reserved":false,"is_disabled":false,"rental_uris":{"android":"levelo://app?vid=cde33d01-4fdf-4588-9993-50576e545d63","ios":"levelo://app?vid=cde33d01-4fdf-4588-9993-50576e545d63"},"vehicle_type_id":"4","last_reported":1730974195,"current_range_meters":34000,"station_id":"ce4bhpp2rcd13ifvqhfg","pricing_plan_id":"cebpf4jnsgd1na2vs0mg"},{"bike_id":"2d8b68fb-751e-47e9-91bb-88255a591234","system_id":"levelo_inurba_marseille","lat":43.27309,"lon":5.39078,"is_reserved":false,"is_disabled":false,"rental_uris":{"android":"levelo://app?vid=2d8b68fb-751e-47e9-91bb-88255a591234","ios":"levelo://app?vid=2d8b68fb-751e-47e9-91bb-88255a591234"},"vehicle_type_id":"4","last_reported":1730974195,"current_range_meters":13600,"station_id":"ce4bhgp2rcd13ifvqfe0","pricing_plan_id":"cebpf4jnsgd1na2vs0mg"},{"bike_id":"76d3aa03-bda5-4c48-ac3f-ae5cd34f6412","system_id":"levelo_inurba_marseille","lat":43.25866,"lon":5.39897,"is_reserved":false,"is_disabled":false,"rental_uris":{"android":"levelo://app?vid=76d3aa03-bda5-4c48-ac3f-ae5cd34f6412","ios":"levelo://app?vid=76d3aa03-bda5-4c48-ac3f-ae5cd34f6412"},"vehicle_type_id":"4","last_reported":1730974195,"current_range_meters":36800,"station_id":"ce4bhl92rcd13ifvqghg","pricing_plan_id":"cebpf4jnsgd1na2vs0mg"},{"bike_id":"d09face9-b25e-4f84-b6d4-bf15b02a82b0","system_id":"levelo_inurba_marseille","lat":43.29681,"lon":5.37293,"is_reserved":false,"is_disabled":false,"rental_uris":{"android":"levelo://app?vid=d09face9-b25e-4f84-b6d4-bf15b02a82b0","ios":"levelo://app?vid=d09face9-b25e-4f84-b6d4-bf15b02a82b0"},"vehicle_type_id":"4","last_reported":1730974195,"current_range_meters":12400,"station_id":"ce4bgk12rcd13ifvqbj0","pricing_plan_id":"cebpf4jnsgd1na2vs0mg"},{"bike_id":"34634ce2-f8c9-4afd-9d91-a815c55201fd","system_id":"levelo_inurba_marseille","lat":43.28424,"lon":5.40927,"is_reserved":false,"is_disabled":false,"rental_uris":{"android":"levelo://app?vid=34634ce2-f8c9-4afd-9d91-a815c55201fd","ios":"levelo://app?vid=34634ce2-f8c9-4afd-9d91-a815c55201fd"},"vehicle_type_id":"4","last_reported":1730974195,"current_range_meters":26000,"station_id":"","pricing_plan_id":"cebpf4jnsgd1na2vs0mg"},{"bike_id":"5eed7c4f-166a-423f-b11f-87a3edace396","system_id":"levelo_inurba_marseille","lat":43.25937,"lon":5.409,"is_reserved":false,"is_disabled":false,"rental_uris":{"android":"levelo://app?vid=5eed7c4f-166a-423f-b11f-87a3edace396","ios":"levelo://app?vid=5eed7c4f-166a-423f-b11f-87a3edace396"},"vehicle_type_id":"4","last_reported":1730974195,"current_range_meters":6800,"station_id":"ce4bhm92rcd13ifvqglg","pricing_plan_id":"cebpf4jnsgd1na2vs0mg"},{"bike_id":"9a009869-464e-4389-bd6a-31c28f578102","system_id":"levelo_inurba_marseille","lat":43.24079,"lon":5.37758,"is_reserved":false,"is_disabled":false,"rental_uris":{"android":"levelo://app?vid=9a009869-464e-4389-bd6a-31c28f578102","ios":"levelo://app?vid=9a009869-464e-4389-bd6a-31c28f578102"},"vehicle_type_id":"4","last_reported":1730974195,"current_range_meters":16400,"station_id":"ce4bhnp2rcd13ifvqgvg","pricing_plan_id":"cebpf4jnsgd1na2vs0mg"},{"bike_id":"17d047ef-61a6-4711-8df1-edd46f045f8e","system_id":"levelo_inurba_marseille","lat":43.30951,"lon":5.39044,"is_reserved":false,"is_disabled":false,"rental_uris":{"android":"levelo://app?vid=17d047ef-61a6-4711-8df1-edd46f045f8e","ios":"levelo://app?vid=17d047ef-61a6-4711-8df1-edd46f045f8e"},"vehicle_type_id":"4","last_reported":1730974195,"current_range_meters":31200,"station_id":"ce4bgup2rcd13ifvqco0","pricing_plan_id":"cebpf4jnsgd1na2vs0mg"},{"bike_id":"2a5992b4-b17a-495f-bcf6-36f9512085d5","system_id":"levelo_inurba_marseille","lat":43.3091,"lon":5.36851,"is_reserved":false,"is_disabled":false,"rental_uris":{"android":"levelo://app?vid=2a5992b4-b17a-495f-bcf6-36f9512085d5","ios":"levelo://app?vid=2a5992b4-b17a-495f-bcf6-36f9512085d5"},"vehicle_type_id":"4","last_reported":1730974195,"current_range_meters":38800,"station_id":"ce4bgn92rcd13ifvqbvg","pricing_plan_id":"cebpf4jnsgd1na2vs0mg"},{"bike_id":"405fbb19-944e-475a-84fc-00c7bf7a0103","system_id":"levelo_inurba_marseille","lat":43.2695,"lon":5.38634,"is_reserved":false,"is_disabled":false,"rental_uris":{"android":"levelo://app?vid=405fbb19-944e-475a-84fc-00c7bf7a0103","ios":"levelo://app?vid=405fbb19-944e-475a-84fc-00c7bf7a0103"},"vehicle_type_id":"4","last_reported":1730974195,"current_range_meters":8800,"station_id":"ce4bhh92rcd13ifvqfh0","pricing_plan_id":"cebpf4jnsgd1na2vs0mg"},{"bike_id":"276447a7-14a2-4231-8395-2b7dddabb608","system_id":"levelo_inurba_marseille","lat":43.2922,"lon":5.39338,"is_reserved":false,"is_disabled":false,"rental_uris":{"android":"levelo://app?vid=276447a7-14a2-4231-8395-2b7dddabb608","ios":"levelo://app?vid=276447a7-14a2-4231-8395-2b7dddabb608"},"vehicle_type_id":"4","last_reported":1730974195,"current_range_meters":33600,"station_id":"ce4bh192rcd13ifvqdd0","pricing_plan_id":"cebpf4jnsgd1na2vs0mg"},{"bike_id":"5174ae6b-73b7-4eb9-b82e-9c61c1f78ce8","system_id":"levelo_inurba_marseille","lat":43.3123,"lon":5.40617,"is_reserved":false,"is_disabled":false,"rental_uris":{"android":"levelo://app?vid=5174ae6b-73b7-4eb9-b82e-9c61c1f78ce8","ios":"levelo://app?vid=5174ae6b-73b7-4eb9-b82e-9c61c1f78ce8"},"vehicle_type_id":"4","last_reported":1730974195,"current_range_meters":17600,"station_id":"","pricing_plan_id":"cebpf4jnsgd1na2vs0mg"},{"bike_id":"6b42a713-24aa-457b-ae50-adbb0538cfbc","system_id":"levelo_inurba_marseille","lat":43.24674,"lon":5.38167,"is_reserved":false,"is_disabled":false,"rental_uris":{"android":"levelo://app?vid=6b42a713-24aa-457b-ae50-adbb0538cfbc","ios":"levelo://app?vid=6b42a713-24aa-457b-ae50-adbb0538cfbc"},"vehicle_type_id":"4","last_reported":1730974195,"current_range_meters":28400,"station_id":"ce4bhih2rcd13ifvqfr0","pricing_plan_id":"cebpf4jnsgd1na2vs0mg"},{"bike_id":"63e2c238-4362-42f9-b3e2-f038c4a1d015","system_id":"levelo_inurba_marseille","lat":43.32482,"lon":5.36557,"is_reserved":false,"is_disabled":false,"rental_uris":{"android":"levelo://app?vid=63e2c238-4362-42f9-b3e2-f038c4a1d015","ios":"levelo://app?vid=63e2c238-4362-42f9-b3e2-f038c4a1d015"},"vehicle_type_id":"4","last_reported":1730974195,"current_range_meters":32400,"station_id":"ce4bhs12rcd13ifvqhvg","pricing_plan_id":"cebpf4jnsgd1na2vs0mg"},{"bike_id":"d85d608a-305e-4359-a902-0f8122cf9538","system_id":"levelo_inurba_marseille","lat":43.2721,"lon":5.39182,"is_reserved":false,"is_disabled":false,"rental_uris":{"android":"levelo://app?vid=d85d608a-305e-4359-a902-0f8122cf9538","ios":"levelo://app?vid=d85d608a-305e-4359-a902-0f8122cf9538"},"vehicle_type_id":"4","last_reported":1730974195,"current_range_meters":22000,"station_id":"ce4bhhp2rcd13ifvqfm0","pricing_plan_id":"cebpf4jnsgd1na2vs0mg"},{"bike_id":"560b8690-a84c-4e4a-80ef-4792530d5f11","system_id":"levelo_inurba_marseille","lat":43.30295,"lon":5.37705,"is_reserved":false,"is_disabled":false,"rental_uris":{"android":"levelo://app?vid=560b8690-a84c-4e4a-80ef-4792530d5f11","ios":"levelo://app?vid=560b8690-a84c-4e4a-80ef-4792530d5f11"},"vehicle_type_id":"4","last_reported":1730974195,"current_range_meters":37600,"station_id":"ce4bguh2rcd13ifvqcj0","pricing_plan_id":"cebpf4jnsgd1na2vs0mg"},{"bike_id":"c3e27800-3ee3-4406-99ec-fa9ce1dee0ca","system_id":"levelo_inurba_marseille","lat":43.30541,"lon":5.36529,"is_reserved":false,"is_disabled":false,"rental_uris":{"android":"levelo://app?vid=c3e27800-3ee3-4406-99ec-fa9ce1dee0ca","ios":"levelo://app?vid=c3e27800-3ee3-4406-99ec-fa9ce1dee0ca"},"vehicle_type_id":"4","last_reported":1730974195,"current_range_meters":39200,"station_id":"ce4bgs12rcd13ifvqcag","pricing_plan_id":"cebpf4jnsgd1na2vs0mg"},{"bike_id":"e3f9c656-6a4a-4fab-af65-170ed69a600b","system_id":"levelo_inurba_marseille","lat":43.25002,"lon":5.38923,"is_reserved":false,"is_disabled":false,"rental_uris":{"android":"levelo://app?vid=e3f9c656-6a4a-4fab-af65-170ed69a600b","ios":"levelo://app?vid=e3f9c656-6a4a-4fab-af65-170ed69a600b"},"vehicle_type_id":"4","last_reported":1730974195,"current_range_meters":12400,"station_id":"ce4bhgp2rcd13ifvqfd0","pricing_plan_id":"cebpf4jnsgd1na2vs0mg"},{"bike_id":"76733292-6685-4127-a6aa-dc0a61b373d8","system_id":"levelo_inurba_marseille","lat":43.23155,"lon":5.43711,"is_reserved":false,"is_disabled":false,"rental_uris":{"android":"levelo://app?vid=76733292-6685-4127-a6aa-dc0a61b373d8","ios":"levelo://app?vid=76733292-6685-4127-a6aa-dc0a61b373d8"},"vehicle_type_id":"4","last_reported":1730974195,"current_range_meters":37600,"station_id":"ce4bhmp2rcd13ifvqgog","pricing_plan_id":"cebpf4jnsgd1na2vs0mg"},{"bike_id":"5835d75b-8767-4dbb-8bb5-638950863aa4","system_id":"levelo_inurba_marseille","lat":43.31887,"lon":5.407353,"is_reserved":false,"is_disabled":false,"rental_uris":{"android":"levelo://app?vid=5835d75b-8767-4dbb-8bb5-638950863aa4","ios":"levelo://app?vid=5835d75b-8767-4dbb-8bb5-638950863aa4"},"vehicle_type_id":"4","last_reported":1730974195,"current_range_meters":39200,"station_id":"ce4bhq12rcd13ifvqhig","pricing_plan_id":"cebpf4jnsgd1na2vs0mg"},{"bike_id":"4425573e-d73c-4468-ae36-c95cd2911915","system_id":"levelo_inurba_marseille","lat":43.30152,"lon":5.38078,"is_reserved":false,"is_disabled":false,"rental_uris":{"android":"levelo://app?vid=4425573e-d73c-4468-ae36-c95cd2911915","ios":"levelo://app?vid=4425573e-d73c-4468-ae36-c95cd2911915"},"vehicle_type_id":"4","last_reported":1730974195,"current_range_meters":31200,"station_id":"ce4bgjp2rcd13ifvqbh0","pricing_plan_id":"cebpf4jnsgd1na2vs0mg"},{"bike_id":"f8c6675d-73de-4a34-922d-834f71491b73","system_id":"levelo_inurba_marseille","lat":43.29797,"lon":5.38092,"is_reserved":false,"is_disabled":false,"rental_uris":{"android":"levelo://app?vid=f8c6675d-73de-4a34-922d-834f71491b73","ios":"levelo://app?vid=f8c6675d-73de-4a34-922d-834f71491b73"},"vehicle_type_id":"4","last_reported":1730974195,"current_range_meters":5600,"station_id":"ce4bgip2rcd13ifvqbb0","pricing_plan_id":"cebpf4jnsgd1na2vs0mg"},{"bike_id":"0cd17c10-d65a-4ac8-8ed6-24e276d755ed","system_id":"levelo_inurba_marseille","lat":43.24068,"lon":5.37762,"is_reserved":false,"is_disabled":false,"rental_uris":{"android":"levelo://app?vid=0cd17c10-d65a-4ac8-8ed6-24e276d755ed","ios":"levelo://app?vid=0cd17c10-d65a-4ac8-8ed6-24e276d755ed"},"vehicle_type_id":"4","last_reported":1730974195,"current_range_meters":20800,"station_id":"ce4bhnp2rcd13ifvqgvg","pricing_plan_id":"cebpf4jnsgd1na2vs0mg"},{"bike_id":"6462d677-37fa-43ff-a0e4-eee43074de0a","system_id":"levelo_inurba_marseille","lat":43.26061,"lon":5.3939,"is_reserved":false,"is_disabled":false,"rental_uris":{"android":"levelo://app?vid=6462d677-37fa-43ff-a0e4-eee43074de0a","ios":"levelo://app?vid=6462d677-37fa-43ff-a0e4-eee43074de0a"},"vehicle_type_id":"4","last_reported":1730974195,"current_range_meters":39200,"station_id":"ce4bhh92rcd13ifvqfj0","pricing_plan_id":"cebpf4jnsgd1na2vs0mg"},{"bike_id":"cac8307b-b8e5-4e87-8f44-46de5e8f6fdd","system_id":"levelo_inurba_marseille","lat":43.29556,"lon":5.4228,"is_reserved":false,"is_disabled":false,"rental_uris":{"android":"levelo://app?vid=cac8307b-b8e5-4e87-8f44-46de5e8f6fdd","ios":"levelo://app?vid=cac8307b-b8e5-4e87-8f44-46de5e8f6fdd"},"vehicle_type_id":"4","last_reported":1730974195,"current_range_meters":28800,"station_id":"ce4bhph2rcd13ifvqhdg","pricing_plan_id":"cebpf4jnsgd1na2vs0mg"},{"bike_id":"167213ef-1f2e-4c37-90a6-0a3b5e442073","system_id":"levelo_inurba_marseille","lat":43.3016,"lon":5.38086,"is_reserved":false,"is_disabled":false,"rental_uris":{"android":"levelo://app?vid=167213ef-1f2e-4c37-90a6-0a3b5e442073","ios":"levelo://app?vid=167213ef-1f2e-4c37-90a6-0a3b5e442073"},"vehicle_type_id":"4","last_reported":1730974195,"current_range_meters":35600,"station_id":"ce4bgjp2rcd13ifvqbh0","pricing_plan_id":"cebpf4jnsgd1na2vs0mg"},{"bike_id":"9298a827-044f-420d-b706-5813e4371d61","system_id":"levelo_inurba_marseille","lat":43.31496,"lon":5.37304,"is_reserved":false,"is_disabled":false,"rental_uris":{"android":"levelo://app?vid=9298a827-044f-420d-b706-5813e4371d61","ios":"levelo://app?vid=9298a827-044f-420d-b706-5813e4371d61"},"vehicle_type_id":"4","last_reported":1730974195,"current_range_meters":29600,"station_id":"ce4bgt12rcd13ifvqcd0","pricing_plan_id":"cebpf4jnsgd1na2vs0mg"},{"bike_id":"2b15cfd0-fa9c-4c17-9466-54a6b266456a","system_id":"levelo_inurba_marseille","lat":43.29838,"lon":5.36267,"is_reserved":false,"is_disabled":false,"rental_uris":{"android":"levelo://app?vid=2b15cfd0-fa9c-4c17-9466-54a6b266456a","ios":"levelo://app?vid=2b15cfd0-fa9c-4c17-9466-54a6b266456a"},"vehicle_type_id":"4","last_reported":1730974195,"current_range_meters":37600,"station_id":"ce4bgpp2rcd13ifvqc3g","pricing_plan_id":"cebpf4jnsgd1na2vs0mg"},{"bike_id":"56c14c33-2f49-48ae-9a36-8d0346ec2c04","system_id":"levelo_inurba_marseille","lat":43.23148,"lon":5.43712,"is_reserved":false,"is_disabled":false,"rental_uris":{"android":"levelo://app?vid=56c14c33-2f49-48ae-9a36-8d0346ec2c04","ios":"levelo://app?vid=56c14c33-2f49-48ae-9a36-8d0346ec2c04"},"vehicle_type_id":"4","last_reported":1730974195,"current_range_meters":18000,"station_id":"ce4bhmp2rcd13ifvqgog","pricing_plan_id":"cebpf4jnsgd1na2vs0mg"},{"bike_id":"228a5cdf-78e1-4005-966e-2dd2b27b8d5c","system_id":"levelo_inurba_marseille","lat":43.30244,"lon":5.40085,"is_reserved":false,"is_disabled":false,"rental_uris":{"android":"levelo://app?vid=228a5cdf-78e1-4005-966e-2dd2b27b8d5c","ios":"levelo://app?vid=228a5cdf-78e1-4005-966e-2dd2b27b8d5c"},"vehicle_type_id":"4","last_reported":1730974195,"current_range_meters":36000,"station_id":"ce4bgvh2rcd13ifvqcs0","pricing_plan_id":"cebpf4jnsgd1na2vs0mg"},{"bike_id":"f9b51361-1f59-4e32-8790-218894731a9c","system_id":"levelo_inurba_marseille","lat":43.23958,"lon":5.36633,"is_reserved":false,"is_disabled":false,"rental_uris":{"android":"levelo://app?vid=f9b51361-1f59-4e32-8790-218894731a9c","ios":"levelo://app?vid=f9b51361-1f59-4e32-8790-218894731a9c"},"vehicle_type_id":"4","last_reported":1730974195,"current_range_meters":28000,"station_id":"ce4bhi12rcd13ifvqfp0","pricing_plan_id":"cebpf4jnsgd1na2vs0mg"},{"bike_id":"8596a87d-bde6-4a5a-a36c-7472ade19640","system_id":"levelo_inurba_marseille","lat":43.24078,"lon":5.37753,"is_reserved":false,"is_disabled":false,"rental_uris":{"android":"levelo://app?vid=8596a87d-bde6-4a5a-a36c-7472ade19640","ios":"levelo://app?vid=8596a87d-bde6-4a5a-a36c-7472ade19640"},"vehicle_type_id":"4","last_reported":1730974195,"current_range_meters":26000,"station_id":"ce4bhnp2rcd13ifvqgvg","pricing_plan_id":"cebpf4jnsgd1na2vs0mg"},{"bike_id":"e307d60c-0ad5-438f-b4e6-0643eb043b02","system_id":"levelo_inurba_marseille","lat":43.29602,"lon":5.38099,"is_reserved":false,"is_disabled":false,"rental_uris":{"android":"levelo://app?vid=e307d60c-0ad5-438f-b4e6-0643eb043b02","ios":"levelo://app?vid=e307d60c-0ad5-438f-b4e6-0643eb043b02"},"vehicle_type_id":"4","last_reported":1730974195,"current_range_meters":36800,"station_id":"ce4bgl12rcd13ifvqbo0","pricing_plan_id":"cebpf4jnsgd1na2vs0mg"},{"bike_id":"2295466f-6d34-487a-b48f-cf671520587f","system_id":"levelo_inurba_marseille","lat":43.29309,"lon":5.37179,"is_reserved":false,"is_disabled":false,"rental_uris":{"android":"levelo://app?vid=2295466f-6d34-487a-b48f-cf671520587f","ios":"levelo://app?vid=2295466f-6d34-487a-b48f-cf671520587f"},"vehicle_type_id":"4","last_reported":1730974195,"current_range_meters":30400,"station_id":"ce4bgh92rcd13ifvqb40","pricing_plan_id":"cebpf4jnsgd1na2vs0mg"},{"bike_id":"c0b2f46d-da55-4266-9cea-33571636a597","system_id":"levelo_inurba_marseille","lat":43.30538,"lon":5.3842,"is_reserved":false,"is_disabled":false,"rental_uris":{"android":"levelo://app?vid=c0b2f46d-da55-4266-9cea-33571636a597","ios":"levelo://app?vid=c0b2f46d-da55-4266-9cea-33571636a597"},"vehicle_type_id":"4","last_reported":1730974195,"current_range_meters":27600,"station_id":"ce4bgg92rcd13ifvqb30","pricing_plan_id":"cebpf4jnsgd1na2vs0mg"},{"bike_id":"adea7c1a-b20c-4638-a315-c9c7a0bb031d","system_id":"levelo_inurba_marseille","lat":43.29031,"lon":5.38158,"is_reserved":false,"is_disabled":false,"rental_uris":{"android":"levelo://app?vid=adea7c1a-b20c-4638-a315-c9c7a0bb031d","ios":"levelo://app?vid=adea7c1a-b20c-4638-a315-c9c7a0bb031d"},"vehicle_type_id":"4","last_reported":1730974195,"current_range_meters":18800,"station_id":"ce4bh4p2rcd13ifvqe1g","pricing_plan_id":"cebpf4jnsgd1na2vs0mg"},{"bike_id":"6db28662-ce69-418c-bf18-91733453ace9","system_id":"levelo_inurba_marseille","lat":43.23966,"lon":5.36631,"is_reserved":false,"is_disabled":false,"rental_uris":{"android":"levelo://app?vid=6db28662-ce69-418c-bf18-91733453ace9","ios":"levelo://app?vid=6db28662-ce69-418c-bf18-91733453ace9"},"vehicle_type_id":"4","last_reported":1730974195,"current_range_meters":4400,"station_id":"ce4bhi12rcd13ifvqfp0","pricing_plan_id":"cebpf4jnsgd1na2vs0mg"},{"bike_id":"f1ad7c23-e05c-484a-acc5-cd06e9e0272c","system_id":"levelo_inurba_marseille","lat":43.26206,"lon":5.37446,"is_reserved":false,"is_disabled":false,"rental_uris":{"android":"levelo://app?vid=f1ad7c23-e05c-484a-acc5-cd06e9e0272c","ios":"levelo://app?vid=f1ad7c23-e05c-484a-acc5-cd06e9e0272c"},"vehicle_type_id":"4","last_reported":1730974195,"current_range_meters":34800,"station_id":"ce4bhgp2rcd13ifvqfc0","pricing_plan_id":"cebpf4jnsgd1na2vs0mg"},{"bike_id":"73579928-e2e7-4f6c-b2ab-d967c3bfe602","system_id":"levelo_inurba_marseille","lat":43.30535,"lon":5.36531,"is_reserved":false,"is_disabled":false,"rental_uris":{"android":"levelo://app?vid=73579928-e2e7-4f6c-b2ab-d967c3bfe602","ios":"levelo://app?vid=73579928-e2e7-4f6c-b2ab-d967c3bfe602"},"vehicle_type_id":"4","last_reported":1730974195,"current_range_meters":8000,"station_id":"ce4bgs12rcd13ifvqcag","pricing_plan_id":"cebpf4jnsgd1na2vs0mg"},{"bike_id":"21b37299-84e4-4b5b-8bf6-49ee4ecf921e","system_id":"levelo_inurba_marseille","lat":43.2397,"lon":5.36627,"is_reserved":false,"is_disabled":false,"rental_uris":{"android":"levelo://app?vid=21b37299-84e4-4b5b-8bf6-49ee4ecf921e","ios":"levelo://app?vid=21b37299-84e4-4b5b-8bf6-49ee4ecf921e"},"vehicle_type_id":"4","last_reported":1730974195,"current_range_meters":40000,"station_id":"ce4bhi12rcd13ifvqfp0","pricing_plan_id":"cebpf4jnsgd1na2vs0mg"},{"bike_id":"4b67932a-96ea-49e1-9ff9-d70abe287a8e","system_id":"levelo_inurba_marseille","lat":43.29914,"lon":5.37467,"is_reserved":false,"is_disabled":false,"rental_uris":{"android":"levelo://app?vid=4b67932a-96ea-49e1-9ff9-d70abe287a8e","ios":"levelo://app?vid=4b67932a-96ea-49e1-9ff9-d70abe287a8e"},"vehicle_type_id":"4","last_reported":1730974195,"current_range_meters":28400,"station_id":"ce4bgjh2rcd13ifvqbg0","pricing_plan_id":"cebpf4jnsgd1na2vs0mg"},{"bike_id":"4e5d727a-7c34-44b8-af94-45a54b88c1cc","system_id":"levelo_inurba_marseille","lat":43.33722,"lon":5.39176,"is_reserved":false,"is_disabled":false,"rental_uris":{"android":"levelo://app?vid=4e5d727a-7c34-44b8-af94-45a54b88c1cc","ios":"levelo://app?vid=4e5d727a-7c34-44b8-af94-45a54b88c1cc"},"vehicle_type_id":"4","last_reported":1730974195,"current_range_meters":39200,"station_id":"ce4bhr92rcd13ifvqhsg","pricing_plan_id":"cebpf4jnsgd1na2vs0mg"},{"bike_id":"dfcca87b-f330-4212-bbd0-d4f21e5f05a1","system_id":"levelo_inurba_marseille","lat":43.26948,"lon":5.38629,"is_reserved":false,"is_disabled":false,"rental_uris":{"android":"levelo://app?vid=dfcca87b-f330-4212-bbd0-d4f21e5f05a1","ios":"levelo://app?vid=dfcca87b-f330-4212-bbd0-d4f21e5f05a1"},"vehicle_type_id":"4","last_reported":1730974195,"current_range_meters":38400,"station_id":"ce4bhh92rcd13ifvqfh0","pricing_plan_id":"cebpf4jnsgd1na2vs0mg"},{"bike_id":"9dbc2a84-3e67-47b1-bfa4-370aec843996","system_id":"levelo_inurba_marseille","lat":43.2757,"lon":5.38416,"is_reserved":false,"is_disabled":false,"rental_uris":{"android":"levelo://app?vid=9dbc2a84-3e67-47b1-bfa4-370aec843996","ios":"levelo://app?vid=9dbc2a84-3e67-47b1-bfa4-370aec843996"},"vehicle_type_id":"4","last_reported":1730974195,"current_range_meters":21600,"station_id":"ce4bhh92rcd13ifvqfi0","pricing_plan_id":"cebpf4jnsgd1na2vs0mg"},{"bike_id":"5063d9ae-a48b-495d-a1b3-6fba6ad945ff","system_id":"levelo_inurba_marseille","lat":43.24075,"lon":5.3775,"is_reserved":false,"is_disabled":false,"rental_uris":{"android":"levelo://app?vid=5063d9ae-a48b-495d-a1b3-6fba6ad945ff","ios":"levelo://app?vid=5063d9ae-a48b-495d-a1b3-6fba6ad945ff"},"vehicle_type_id":"4","last_reported":1730974195,"current_range_meters":24000,"station_id":"ce4bhnp2rcd13ifvqgvg","pricing_plan_id":"cebpf4jnsgd1na2vs0mg"},{"bike_id":"8130fdfb-9eed-4242-adb2-fb0a802ac6d5","system_id":"levelo_inurba_marseille","lat":43.29002,"lon":5.35614,"is_reserved":false,"is_disabled":false,"rental_uris":{"android":"levelo://app?vid=8130fdfb-9eed-4242-adb2-fb0a802ac6d5","ios":"levelo://app?vid=8130fdfb-9eed-4242-adb2-fb0a802ac6d5"},"vehicle_type_id":"4","last_reported":1730974195,"current_range_meters":40000,"station_id":"ce4bhb92rcd13ifvqen0","pricing_plan_id":"cebpf4jnsgd1na2vs0mg"},{"bike_id":"fbdcd95a-9188-481a-a4b6-1e36a34b36b3","system_id":"levelo_inurba_marseille","lat":43.30948,"lon":5.39039,"is_reserved":false,"is_disabled":false,"rental_uris":{"android":"levelo://app?vid=fbdcd95a-9188-481a-a4b6-1e36a34b36b3","ios":"levelo://app?vid=fbdcd95a-9188-481a-a4b6-1e36a34b36b3"},"vehicle_type_id":"4","last_reported":1730974195,"current_range_meters":30800,"station_id":"ce4bgup2rcd13ifvqco0","pricing_plan_id":"cebpf4jnsgd1na2vs0mg"},{"bike_id":"1a734c82-dcc8-4d3d-a318-7fd63d2ec81e","system_id":"levelo_inurba_marseille","lat":43.32288,"lon":5.3827,"is_reserved":false,"is_disabled":false,"rental_uris":{"android":"levelo://app?vid=1a734c82-dcc8-4d3d-a318-7fd63d2ec81e","ios":"levelo://app?vid=1a734c82-dcc8-4d3d-a318-7fd63d2ec81e"},"vehicle_type_id":"4","last_reported":1730974195,"current_range_meters":38000,"station_id":"ce4bhr12rcd13ifvqhqg","pricing_plan_id":"cebpf4jnsgd1na2vs0mg"},{"bike_id":"de1b5200-eaca-4f20-acca-492b493d2a48","system_id":"levelo_inurba_marseille","lat":43.28418,"lon":5.37505,"is_reserved":false,"is_disabled":false,"rental_uris":{"android":"levelo://app?vid=de1b5200-eaca-4f20-acca-492b493d2a48","ios":"levelo://app?vid=de1b5200-eaca-4f20-acca-492b493d2a48"},"vehicle_type_id":"4","last_reported":1730974195,"current_range_meters":38800,"station_id":"ce4bh412rcd13ifvqds0","pricing_plan_id":"cebpf4jnsgd1na2vs0mg"},{"bike_id":"033ac3ce-1cbb-4f25-892d-f05610b58f62","system_id":"levelo_inurba_marseille","lat":43.32341,"lon":5.40618,"is_reserved":false,"is_disabled":false,"rental_uris":{"android":"levelo://app?vid=033ac3ce-1cbb-4f25-892d-f05610b58f62","ios":"levelo://app?vid=033ac3ce-1cbb-4f25-892d-f05610b58f62"},"vehicle_type_id":"4","last_reported":1730974195,"current_range_meters":37600,"station_id":"ce4bhq92rcd13ifvqhjg","pricing_plan_id":"cebpf4jnsgd1na2vs0mg"},{"bike_id":"0474bd5c-c1e3-4ca1-b3a1-d140689e0d18","system_id":"levelo_inurba_marseille","lat":43.30912,"lon":5.36844,"is_reserved":false,"is_disabled":false,"rental_uris":{"android":"levelo://app?vid=0474bd5c-c1e3-4ca1-b3a1-d140689e0d18","ios":"levelo://app?vid=0474bd5c-c1e3-4ca1-b3a1-d140689e0d18"},"vehicle_type_id":"4","last_reported":1730974195,"current_range_meters":27600,"station_id":"ce4bgn92rcd13ifvqbvg","pricing_plan_id":"cebpf4jnsgd1na2vs0mg"},{"bike_id":"87b95e7e-e341-47d0-a0b5-f8b5d667bb4f","system_id":"levelo_inurba_marseille","lat":43.24076,"lon":5.37757,"is_reserved":false,"is_disabled":false,"rental_uris":{"android":"levelo://app?vid=87b95e7e-e341-47d0-a0b5-f8b5d667bb4f","ios":"levelo://app?vid=87b95e7e-e341-47d0-a0b5-f8b5d667bb4f"},"vehicle_type_id":"4","last_reported":1730974195,"current_range_meters":37600,"station_id":"ce4bhnp2rcd13ifvqgvg","pricing_plan_id":"cebpf4jnsgd1na2vs0mg"},{"bike_id":"1bbef353-e3df-4577-b96a-6e0a1c30f852","system_id":"levelo_inurba_marseille","lat":43.30531,"lon":5.36725,"is_reserved":false,"is_disabled":false,"rental_uris":{"android":"levelo://app?vid=1bbef353-e3df-4577-b96a-6e0a1c30f852","ios":"levelo://app?vid=1bbef353-e3df-4577-b96a-6e0a1c30f852"},"vehicle_type_id":"4","last_reported":1730974195,"current_range_meters":8400,"station_id":"ce4bgrp2rcd13ifvqc9g","pricing_plan_id":"cebpf4jnsgd1na2vs0mg"},{"bike_id":"4bddc708-4984-40cb-8b8a-b12640293d38","system_id":"levelo_inurba_marseille","lat":43.2781,"lon":5.40715,"is_reserved":false,"is_disabled":false,"rental_uris":{"android":"levelo://app?vid=4bddc708-4984-40cb-8b8a-b12640293d38","ios":"levelo://app?vid=4bddc708-4984-40cb-8b8a-b12640293d38"},"vehicle_type_id":"4","last_reported":1730974195,"current_range_meters":35200,"station_id":"ce4bhnh2rcd13ifvqgtg","pricing_plan_id":"cebpf4jnsgd1na2vs0mg"},{"bike_id":"1087f887-e632-4220-b28b-5649f8a81025","system_id":"levelo_inurba_marseille","lat":43.24077,"lon":5.37756,"is_reserved":false,"is_disabled":false,"rental_uris":{"android":"levelo://app?vid=1087f887-e632-4220-b28b-5649f8a81025","ios":"levelo://app?vid=1087f887-e632-4220-b28b-5649f8a81025"},"vehicle_type_id":"4","last_reported":1730974195,"current_range_meters":39200,"station_id":"ce4bhnp2rcd13ifvqgvg","pricing_plan_id":"cebpf4jnsgd1na2vs0mg"},{"bike_id":"b4da8b7e-fffd-40f2-bc9b-f5d79362ab9b","system_id":"levelo_inurba_marseille","lat":43.31999,"lon":5.38168,"is_reserved":false,"is_disabled":false,"rental_uris":{"android":"levelo://app?vid=b4da8b7e-fffd-40f2-bc9b-f5d79362ab9b","ios":"levelo://app?vid=b4da8b7e-fffd-40f2-bc9b-f5d79362ab9b"},"vehicle_type_id":"4","last_reported":1730974195,"current_range_meters":28800,"station_id":"ce4bhr12rcd13ifvqhpg","pricing_plan_id":"cebpf4jnsgd1na2vs0mg"},{"bike_id":"e831571d-8c71-447f-8264-0d693a5bfc98","system_id":"levelo_inurba_marseille","lat":43.30155,"lon":5.38086,"is_reserved":false,"is_disabled":false,"rental_uris":{"android":"levelo://app?vid=e831571d-8c71-447f-8264-0d693a5bfc98","ios":"levelo://app?vid=e831571d-8c71-447f-8264-0d693a5bfc98"},"vehicle_type_id":"4","last_reported":1730974195,"current_range_meters":36400,"station_id":"ce4bgjp2rcd13ifvqbh0","pricing_plan_id":"cebpf4jnsgd1na2vs0mg"},{"bike_id":"b3efa261-435a-4d71-be02-67992b1c969c","system_id":"levelo_inurba_marseille","lat":43.30148,"lon":5.38078,"is_reserved":false,"is_disabled":false,"rental_uris":{"android":"levelo://app?vid=b3efa261-435a-4d71-be02-67992b1c969c","ios":"levelo://app?vid=b3efa261-435a-4d71-be02-67992b1c969c"},"vehicle_type_id":"4","last_reported":1730974195,"current_range_meters":12400,"station_id":"ce4bgjp2rcd13ifvqbh0","pricing_plan_id":"cebpf4jnsgd1na2vs0mg"},{"bike_id":"96bbe4b9-c3df-4eb3-8e8f-0dd163426af7","system_id":"levelo_inurba_marseille","lat":43.27494,"lon":5.4245,"is_reserved":false,"is_disabled":false,"rental_uris":{"android":"levelo://app?vid=96bbe4b9-c3df-4eb3-8e8f-0dd163426af7","ios":"levelo://app?vid=96bbe4b9-c3df-4eb3-8e8f-0dd163426af7"},"vehicle_type_id":"4","last_reported":1730974195,"current_range_meters":31200,"station_id":"ce4bhn92rcd13ifvqgrg","pricing_plan_id":"cebpf4jnsgd1na2vs0mg"},{"bike_id":"c4cc972e-7a14-46d5-a623-3df8ede326b1","system_id":"levelo_inurba_marseille","lat":43.29678,"lon":5.37284,"is_reserved":false,"is_disabled":false,"rental_uris":{"android":"levelo://app?vid=c4cc972e-7a14-46d5-a623-3df8ede326b1","ios":"levelo://app?vid=c4cc972e-7a14-46d5-a623-3df8ede326b1"},"vehicle_type_id":"4","last_reported":1730974195,"current_range_meters":39200,"station_id":"ce4bgk12rcd13ifvqbj0","pricing_plan_id":"cebpf4jnsgd1na2vs0mg"},{"bike_id":"52af7a3b-ddda-465a-a3b9-5cc6f08e1552","system_id":"levelo_inurba_marseille","lat":43.24169,"lon":5.36392,"is_reserved":false,"is_disabled":false,"rental_uris":{"android":"levelo://app?vid=52af7a3b-ddda-465a-a3b9-5cc6f08e1552","ios":"levelo://app?vid=52af7a3b-ddda-465a-a3b9-5cc6f08e1552"},"vehicle_type_id":"4","last_reported":1730974195,"current_range_meters":16000,"station_id":"cpo36qri1sfpv3e86is0","pricing_plan_id":"cebpf4jnsgd1na2vs0mg"},{"bike_id":"a594f9b5-12bd-477c-843b-c8beaeecd285","system_id":"levelo_inurba_marseille","lat":43.32487,"lon":5.36566,"is_reserved":false,"is_disabled":false,"rental_uris":{"android":"levelo://app?vid=a594f9b5-12bd-477c-843b-c8beaeecd285","ios":"levelo://app?vid=a594f9b5-12bd-477c-843b-c8beaeecd285"},"vehicle_type_id":"4","last_reported":1730974195,"current_range_meters":12400,"station_id":"ce4bhs12rcd13ifvqhvg","pricing_plan_id":"cebpf4jnsgd1na2vs0mg"},{"bike_id":"93552b89-0cf0-4b36-8377-89d18d7f612e","system_id":"levelo_inurba_marseille","lat":43.33023,"lon":5.39035,"is_reserved":false,"is_disabled":false,"rental_uris":{"android":"levelo://app?vid=93552b89-0cf0-4b36-8377-89d18d7f612e","ios":"levelo://app?vid=93552b89-0cf0-4b36-8377-89d18d7f612e"},"vehicle_type_id":"4","last_reported":1730974195,"current_range_meters":28800,"station_id":"ce4bhr92rcd13ifvqhrg","pricing_plan_id":"cebpf4jnsgd1na2vs0mg"},{"bike_id":"186d9995-4644-4dc9-ab30-10648929078f","system_id":"levelo_inurba_marseille","lat":43.30534,"lon":5.38426,"is_reserved":false,"is_disabled":false,"rental_uris":{"android":"levelo://app?vid=186d9995-4644-4dc9-ab30-10648929078f","ios":"levelo://app?vid=186d9995-4644-4dc9-ab30-10648929078f"},"vehicle_type_id":"4","last_reported":1730974195,"current_range_meters":28800,"station_id":"ce4bgg92rcd13ifvqb30","pricing_plan_id":"cebpf4jnsgd1na2vs0mg"},{"bike_id":"9bdc17b9-a84e-437b-a63b-d20105b448c0","system_id":"levelo_inurba_marseille","lat":43.30279,"lon":5.37703,"is_reserved":false,"is_disabled":false,"rental_uris":{"android":"levelo://app?vid=9bdc17b9-a84e-437b-a63b-d20105b448c0","ios":"levelo://app?vid=9bdc17b9-a84e-437b-a63b-d20105b448c0"},"vehicle_type_id":"4","last_reported":1730974195,"current_range_meters":17200,"station_id":"ce4bguh2rcd13ifvqcj0","pricing_plan_id":"cebpf4jnsgd1na2vs0mg"},{"bike_id":"aa6c4e54-f81e-488c-9667-cf5130ecbd4a","system_id":"levelo_inurba_marseille","lat":43.2885,"lon":5.39298,"is_reserved":false,"is_disabled":false,"rental_uris":{"android":"levelo://app?vid=aa6c4e54-f81e-488c-9667-cf5130ecbd4a","ios":"levelo://app?vid=aa6c4e54-f81e-488c-9667-cf5130ecbd4a"},"vehicle_type_id":"4","last_reported":1730974195,"current_range_meters":6000,"station_id":"ce4bh2p2rcd13ifvqdi0","pricing_plan_id":"cebpf4jnsgd1na2vs0mg"},{"bike_id":"3f4fc512-c09e-425c-8600-f50abb41362b","system_id":"levelo_inurba_marseille","lat":43.27494,"lon":5.42452,"is_reserved":false,"is_disabled":false,"rental_uris":{"android":"levelo://app?vid=3f4fc512-c09e-425c-8600-f50abb41362b","ios":"levelo://app?vid=3f4fc512-c09e-425c-8600-f50abb41362b"},"vehicle_type_id":"4","last_reported":1730974195,"current_range_meters":32400,"station_id":"ce4bhn92rcd13ifvqgrg","pricing_plan_id":"cebpf4jnsgd1na2vs0mg"},{"bike_id":"c7fc4189-56da-464b-bfe9-b0cb63a7fcb2","system_id":"levelo_inurba_marseille","lat":43.25002,"lon":5.38922,"is_reserved":false,"is_disabled":false,"rental_uris":{"android":"levelo://app?vid=c7fc4189-56da-464b-bfe9-b0cb63a7fcb2","ios":"levelo://app?vid=c7fc4189-56da-464b-bfe9-b0cb63a7fcb2"},"vehicle_type_id":"4","last_reported":1730974195,"current_range_meters":2800,"station_id":"ce4bhgp2rcd13ifvqfd0","pricing_plan_id":"cebpf4jnsgd1na2vs0mg"},{"bike_id":"7242439d-b360-46d9-b773-c2f9d1e8402f","system_id":"levelo_inurba_marseille","lat":43.30544,"lon":5.38417,"is_reserved":false,"is_disabled":false,"rental_uris":{"android":"levelo://app?vid=7242439d-b360-46d9-b773-c2f9d1e8402f","ios":"levelo://app?vid=7242439d-b360-46d9-b773-c2f9d1e8402f"},"vehicle_type_id":"4","last_reported":1730974195,"current_range_meters":38800,"station_id":"ce4bgg92rcd13ifvqb30","pricing_plan_id":"cebpf4jnsgd1na2vs0mg"},{"bike_id":"7fc1ba3d-c517-4a2d-bf56-a37ac8039de0","system_id":"levelo_inurba_marseille","lat":43.30122,"lon":5.38808,"is_reserved":false,"is_disabled":false,"rental_uris":{"android":"levelo://app?vid=7fc1ba3d-c517-4a2d-bf56-a37ac8039de0","ios":"levelo://app?vid=7fc1ba3d-c517-4a2d-bf56-a37ac8039de0"},"vehicle_type_id":"4","last_reported":1730974195,"current_range_meters":10800,"station_id":"ce4bghh2rcd13ifvqb60","pricing_plan_id":"cebpf4jnsgd1na2vs0mg"},{"bike_id":"22b5768f-1b65-4e9d-9c4a-033c2af45c58","system_id":"levelo_inurba_marseille","lat":43.32541,"lon":5.41439,"is_reserved":false,"is_disabled":false,"rental_uris":{"android":"levelo://app?vid=22b5768f-1b65-4e9d-9c4a-033c2af45c58","ios":"levelo://app?vid=22b5768f-1b65-4e9d-9c4a-033c2af45c58"},"vehicle_type_id":"4","last_reported":1730974195,"current_range_meters":27600,"station_id":"ce4bhq12rcd13ifvqhhg","pricing_plan_id":"cebpf4jnsgd1na2vs0mg"},{"bike_id":"bed4004a-21ef-45fd-9bd7-62af360c69bf","system_id":"levelo_inurba_marseille","lat":43.24087,"lon":5.37744,"is_reserved":false,"is_disabled":false,"rental_uris":{"android":"levelo://app?vid=bed4004a-21ef-45fd-9bd7-62af360c69bf","ios":"levelo://app?vid=bed4004a-21ef-45fd-9bd7-62af360c69bf"},"vehicle_type_id":"4","last_reported":1730974195,"current_range_meters":30000,"station_id":"ce4bhnp2rcd13ifvqgvg","pricing_plan_id":"cebpf4jnsgd1na2vs0mg"},{"bike_id":"1471260f-3ca4-4822-b303-9e17b1b61439","system_id":"levelo_inurba_marseille","lat":43.24661,"lon":5.38162,"is_reserved":false,"is_disabled":false,"rental_uris":{"android":"levelo://app?vid=1471260f-3ca4-4822-b303-9e17b1b61439","ios":"levelo://app?vid=1471260f-3ca4-4822-b303-9e17b1b61439"},"vehicle_type_id":"4","last_reported":1730974195,"current_range_meters":28000,"station_id":"ce4bhih2rcd13ifvqfr0","pricing_plan_id":"cebpf4jnsgd1na2vs0mg"},{"bike_id":"cdd64da5-123d-44db-8157-5473e1626676","system_id":"levelo_inurba_marseille","lat":43.29586,"lon":5.36743,"is_reserved":false,"is_disabled":false,"rental_uris":{"android":"levelo://app?vid=cdd64da5-123d-44db-8157-5473e1626676","ios":"levelo://app?vid=cdd64da5-123d-44db-8157-5473e1626676"},"vehicle_type_id":"4","last_reported":1730974195,"current_range_meters":35600,"station_id":"ce4bgph2rcd13ifvqc2g","pricing_plan_id":"cebpf4jnsgd1na2vs0mg"},{"bike_id":"77af12fd-a4ee-44a2-8ef2-2159aea89f44","system_id":"levelo_inurba_marseille","lat":43.30914,"lon":5.36859,"is_reserved":false,"is_disabled":false,"rental_uris":{"android":"levelo://app?vid=77af12fd-a4ee-44a2-8ef2-2159aea89f44","ios":"levelo://app?vid=77af12fd-a4ee-44a2-8ef2-2159aea89f44"},"vehicle_type_id":"4","last_reported":1730974195,"current_range_meters":38800,"station_id":"ce4bgn92rcd13ifvqbvg","pricing_plan_id":"cebpf4jnsgd1na2vs0mg"},{"bike_id":"b7af5fe1-1ffc-4983-a28e-5e881777edc3","system_id":"levelo_inurba_marseille","lat":43.25929,"lon":5.40909,"is_reserved":false,"is_disabled":false,"rental_uris":{"android":"levelo://app?vid=b7af5fe1-1ffc-4983-a28e-5e881777edc3","ios":"levelo://app?vid=b7af5fe1-1ffc-4983-a28e-5e881777edc3"},"vehicle_type_id":"4","last_reported":1730974195,"current_range_meters":17200,"station_id":"ce4bhm92rcd13ifvqglg","pricing_plan_id":"cebpf4jnsgd1na2vs0mg"},{"bike_id":"b06a619c-12e8-4944-96c5-4c2d890dbd0e","system_id":"levelo_inurba_marseille","lat":43.24073,"lon":5.3776,"is_reserved":false,"is_disabled":false,"rental_uris":{"android":"levelo://app?vid=b06a619c-12e8-4944-96c5-4c2d890dbd0e","ios":"levelo://app?vid=b06a619c-12e8-4944-96c5-4c2d890dbd0e"},"vehicle_type_id":"4","last_reported":1730974195,"current_range_meters":38800,"station_id":"ce4bhnp2rcd13ifvqgvg","pricing_plan_id":"cebpf4jnsgd1na2vs0mg"},{"bike_id":"31370be7-bd9c-4a97-a16e-8d6a5ceded68","system_id":"levelo_inurba_marseille","lat":43.3135,"lon":5.36703,"is_reserved":false,"is_disabled":false,"rental_uris":{"android":"levelo://app?vid=31370be7-bd9c-4a97-a16e-8d6a5ceded68","ios":"levelo://app?vid=31370be7-bd9c-4a97-a16e-8d6a5ceded68"},"vehicle_type_id":"4","last_reported":1730974195,"current_range_meters":30800,"station_id":"ce4bgr92rcd13ifvqc6g","pricing_plan_id":"cebpf4jnsgd1na2vs0mg"},{"bike_id":"26ee007d-c521-4271-a726-fe0c9aeca07e","system_id":"levelo_inurba_marseille","lat":43.33109,"lon":5.38214,"is_reserved":false,"is_disabled":false,"rental_uris":{"android":"levelo://app?vid=26ee007d-c521-4271-a726-fe0c9aeca07e","ios":"levelo://app?vid=26ee007d-c521-4271-a726-fe0c9aeca07e"},"vehicle_type_id":"4","last_reported":1730974195,"current_range_meters":8800,"station_id":"","pricing_plan_id":"cebpf4jnsgd1na2vs0mg"},{"bike_id":"fd017144-7f58-4195-ae2f-e49c1a8bb899","system_id":"levelo_inurba_marseille","lat":43.30138,"lon":5.38071,"is_reserved":false,"is_disabled":false,"rental_uris":{"android":"levelo://app?vid=fd017144-7f58-4195-ae2f-e49c1a8bb899","ios":"levelo://app?vid=fd017144-7f58-4195-ae2f-e49c1a8bb899"},"vehicle_type_id":"4","last_reported":1730974195,"current_range_meters":38800,"station_id":"ce4bgjp2rcd13ifvqbh0","pricing_plan_id":"cebpf4jnsgd1na2vs0mg"},{"bike_id":"204274af-cd8a-4fdc-9355-8da6a2c5b5a8","system_id":"levelo_inurba_marseille","lat":43.3091,"lon":5.36848,"is_reserved":false,"is_disabled":false,"rental_uris":{"android":"levelo://app?vid=204274af-cd8a-4fdc-9355-8da6a2c5b5a8","ios":"levelo://app?vid=204274af-cd8a-4fdc-9355-8da6a2c5b5a8"},"vehicle_type_id":"4","last_reported":1730974195,"current_range_meters":36400,"station_id":"ce4bgn92rcd13ifvqbvg","pricing_plan_id":"cebpf4jnsgd1na2vs0mg"},{"bike_id":"9a051584-f017-4218-b64d-678148e018f7","system_id":"levelo_inurba_marseille","lat":43.262127,"lon":5.3744,"is_reserved":false,"is_disabled":false,"rental_uris":{"android":"levelo://app?vid=9a051584-f017-4218-b64d-678148e018f7","ios":"levelo://app?vid=9a051584-f017-4218-b64d-678148e018f7"},"vehicle_type_id":"4","last_reported":1730974195,"current_range_meters":33600,"station_id":"ce4bhgp2rcd13ifvqfc0","pricing_plan_id":"cebpf4jnsgd1na2vs0mg"},{"bike_id":"2638165b-8793-4731-9967-635f58988f93","system_id":"levelo_inurba_marseille","lat":43.28488,"lon":5.38548,"is_reserved":false,"is_disabled":false,"rental_uris":{"android":"levelo://app?vid=2638165b-8793-4731-9967-635f58988f93","ios":"levelo://app?vid=2638165b-8793-4731-9967-635f58988f93"},"vehicle_type_id":"4","last_reported":1730974195,"current_range_meters":16400,"station_id":"ce4bh8p2rcd13ifvqeb0","pricing_plan_id":"cebpf4jnsgd1na2vs0mg"},{"bike_id":"11a8f5d3-adeb-4770-97f1-d4c26d4fa85f","system_id":"levelo_inurba_marseille","lat":43.30956,"lon":5.39045,"is_reserved":false,"is_disabled":false,"rental_uris":{"android":"levelo://app?vid=11a8f5d3-adeb-4770-97f1-d4c26d4fa85f","ios":"levelo://app?vid=11a8f5d3-adeb-4770-97f1-d4c26d4fa85f"},"vehicle_type_id":"4","last_reported":1730974195,"current_range_meters":15200,"station_id":"ce4bgup2rcd13ifvqco0","pricing_plan_id":"cebpf4jnsgd1na2vs0mg"},{"bike_id":"53f02478-3cd1-477c-b3ef-64a19d63ee0f","system_id":"levelo_inurba_marseille","lat":43.29027,"lon":5.39979,"is_reserved":false,"is_disabled":false,"rental_uris":{"android":"levelo://app?vid=53f02478-3cd1-477c-b3ef-64a19d63ee0f","ios":"levelo://app?vid=53f02478-3cd1-477c-b3ef-64a19d63ee0f"},"vehicle_type_id":"4","last_reported":1730974195,"current_range_meters":23200,"station_id":"ce4bhb92rcd13ifvqen0","pricing_plan_id":"cebpf4jnsgd1na2vs0mg"},{"bike_id":"f078b7bb-d872-4e7e-8ce2-23f60b593547","system_id":"levelo_inurba_marseille","lat":43.26191,"lon":5.37446,"is_reserved":false,"is_disabled":false,"rental_uris":{"android":"levelo://app?vid=f078b7bb-d872-4e7e-8ce2-23f60b593547","ios":"levelo://app?vid=f078b7bb-d872-4e7e-8ce2-23f60b593547"},"vehicle_type_id":"4","last_reported":1730974195,"current_range_meters":36800,"station_id":"ce4bhgp2rcd13ifvqfc0","pricing_plan_id":"cebpf4jnsgd1na2vs0mg"},{"bike_id":"63679012-d0a0-44a9-a805-20815a46a99d","system_id":"levelo_inurba_marseille","lat":43.30775,"lon":5.40003,"is_reserved":false,"is_disabled":false,"rental_uris":{"android":"levelo://app?vid=63679012-d0a0-44a9-a805-20815a46a99d","ios":"levelo://app?vid=63679012-d0a0-44a9-a805-20815a46a99d"},"vehicle_type_id":"4","last_reported":1730974195,"current_range_meters":8800,"station_id":"","pricing_plan_id":"cebpf4jnsgd1na2vs0mg"},{"bike_id":"6cc359d5-7298-4810-a818-d4e6e28ea14a","system_id":"levelo_inurba_marseille","lat":43.30953,"lon":5.39052,"is_reserved":false,"is_disabled":false,"rental_uris":{"android":"levelo://app?vid=6cc359d5-7298-4810-a818-d4e6e28ea14a","ios":"levelo://app?vid=6cc359d5-7298-4810-a818-d4e6e28ea14a"},"vehicle_type_id":"4","last_reported":1730974195,"current_range_meters":32000,"station_id":"ce4bgup2rcd13ifvqco0","pricing_plan_id":"cebpf4jnsgd1na2vs0mg"},{"bike_id":"777b3eaa-30f9-4a1e-a4ff-060381cb7f7c","system_id":"levelo_inurba_marseille","lat":43.29032,"lon":5.3998,"is_reserved":false,"is_disabled":false,"rental_uris":{"android":"levelo://app?vid=777b3eaa-30f9-4a1e-a4ff-060381cb7f7c","ios":"levelo://app?vid=777b3eaa-30f9-4a1e-a4ff-060381cb7f7c"},"vehicle_type_id":"4","last_reported":1730974195,"current_range_meters":28400,"station_id":"ce4bh392rcd13ifvqdm0","pricing_plan_id":"cebpf4jnsgd1na2vs0mg"},{"bike_id":"250456d8-8281-463a-b832-040560d88517","system_id":"levelo_inurba_marseille","lat":43.31487,"lon":5.37292,"is_reserved":false,"is_disabled":false,"rental_uris":{"android":"levelo://app?vid=250456d8-8281-463a-b832-040560d88517","ios":"levelo://app?vid=250456d8-8281-463a-b832-040560d88517"},"vehicle_type_id":"4","last_reported":1730974195,"current_range_meters":10000,"station_id":"ce4bgt12rcd13ifvqcd0","pricing_plan_id":"cebpf4jnsgd1na2vs0mg"},{"bike_id":"4a48fe7d-f793-40d9-8626-fc6fdc928655","system_id":"levelo_inurba_marseille","lat":43.25564,"lon":5.38252,"is_reserved":false,"is_disabled":false,"rental_uris":{"android":"levelo://app?vid=4a48fe7d-f793-40d9-8626-fc6fdc928655","ios":"levelo://app?vid=4a48fe7d-f793-40d9-8626-fc6fdc928655"},"vehicle_type_id":"4","last_reported":1730974195,"current_range_meters":10800,"station_id":"ce4bhih2rcd13ifvqfs0","pricing_plan_id":"cebpf4jnsgd1na2vs0mg"},{"bike_id":"e85f3b62-23da-4b30-abf5-71efbbbbb7de","system_id":"levelo_inurba_marseille","lat":43.30544,"lon":5.36703,"is_reserved":false,"is_disabled":false,"rental_uris":{"android":"levelo://app?vid=e85f3b62-23da-4b30-abf5-71efbbbbb7de","ios":"levelo://app?vid=e85f3b62-23da-4b30-abf5-71efbbbbb7de"},"vehicle_type_id":"4","last_reported":1730974195,"current_range_meters":32400,"station_id":"ce4bgrp2rcd13ifvqc9g","pricing_plan_id":"cebpf4jnsgd1na2vs0mg"},{"bike_id":"f19e21fc-3fb8-4be5-8aae-3b3f9019566c","system_id":"levelo_inurba_marseille","lat":43.305513,"lon":5.365368,"is_reserved":false,"is_disabled":false,"rental_uris":{"android":"levelo://app?vid=f19e21fc-3fb8-4be5-8aae-3b3f9019566c","ios":"levelo://app?vid=f19e21fc-3fb8-4be5-8aae-3b3f9019566c"},"vehicle_type_id":"4","last_reported":1730974195,"current_range_meters":24000,"station_id":"ce4bgs12rcd13ifvqcag","pricing_plan_id":"cebpf4jnsgd1na2vs0mg"},{"bike_id":"0562544a-b79d-473e-a168-4b06e39e4c5b","system_id":"levelo_inurba_marseille","lat":43.32478,"lon":5.36567,"is_reserved":false,"is_disabled":false,"rental_uris":{"android":"levelo://app?vid=0562544a-b79d-473e-a168-4b06e39e4c5b","ios":"levelo://app?vid=0562544a-b79d-473e-a168-4b06e39e4c5b"},"vehicle_type_id":"4","last_reported":1730974195,"current_range_meters":32400,"station_id":"ce4bhs12rcd13ifvqhvg","pricing_plan_id":"cebpf4jnsgd1na2vs0mg"},{"bike_id":"b4dc184c-616b-4303-b2a5-59ff1fad6f23","system_id":"levelo_inurba_marseille","lat":43.25818,"lon":5.39435,"is_reserved":false,"is_disabled":false,"rental_uris":{"android":"levelo://app?vid=b4dc184c-616b-4303-b2a5-59ff1fad6f23","ios":"levelo://app?vid=b4dc184c-616b-4303-b2a5-59ff1fad6f23"},"vehicle_type_id":"4","last_reported":1730974195,"current_range_meters":36400,"station_id":"ce4bhip2rcd13ifvqft0","pricing_plan_id":"cebpf4jnsgd1na2vs0mg"},{"bike_id":"bc81bcc6-d6a4-412b-9f95-c321ede61946","system_id":"levelo_inurba_marseille","lat":43.31162,"lon":5.38715,"is_reserved":false,"is_disabled":false,"rental_uris":{"android":"levelo://app?vid=bc81bcc6-d6a4-412b-9f95-c321ede61946","ios":"levelo://app?vid=bc81bcc6-d6a4-412b-9f95-c321ede61946"},"vehicle_type_id":"4","last_reported":1730974195,"current_range_meters":38000,"station_id":"ce4bgv12rcd13ifvqcp0","pricing_plan_id":"cebpf4jnsgd1na2vs0mg"},{"bike_id":"78ef9c13-ac49-450f-9deb-b3e2970839eb","system_id":"levelo_inurba_marseille","lat":43.30885,"lon":5.39636,"is_reserved":false,"is_disabled":false,"rental_uris":{"android":"levelo://app?vid=78ef9c13-ac49-450f-9deb-b3e2970839eb","ios":"levelo://app?vid=78ef9c13-ac49-450f-9deb-b3e2970839eb"},"vehicle_type_id":"4","last_reported":1730974195,"current_range_meters":24800,"station_id":"ce4bh012rcd13ifvqcv0","pricing_plan_id":"cebpf4jnsgd1na2vs0mg"},{"bike_id":"efb8c82e-0a63-43b5-9e35-c8464196a634","system_id":"levelo_inurba_marseille","lat":43.28847,"lon":5.3586,"is_reserved":false,"is_disabled":false,"rental_uris":{"android":"levelo://app?vid=efb8c82e-0a63-43b5-9e35-c8464196a634","ios":"levelo://app?vid=efb8c82e-0a63-43b5-9e35-c8464196a634"},"vehicle_type_id":"4","last_reported":1730974195,"current_range_meters":27600,"station_id":"ce4bhb12rcd13ifvqem0","pricing_plan_id":"cebpf4jnsgd1na2vs0mg"},{"bike_id":"afb1f26c-6a37-442a-9588-088ed0a731a1","system_id":"levelo_inurba_marseille","lat":43.24074,"lon":5.37754,"is_reserved":false,"is_disabled":false,"rental_uris":{"android":"levelo://app?vid=afb1f26c-6a37-442a-9588-088ed0a731a1","ios":"levelo://app?vid=afb1f26c-6a37-442a-9588-088ed0a731a1"},"vehicle_type_id":"4","last_reported":1730974195,"current_range_meters":36800,"station_id":"ce4bhnp2rcd13ifvqgvg","pricing_plan_id":"cebpf4jnsgd1na2vs0mg"},{"bike_id":"944a28a0-ffb8-4660-a285-de6a3c52f9d5","system_id":"levelo_inurba_marseille","lat":43.259362,"lon":5.409163,"is_reserved":false,"is_disabled":false,"rental_uris":{"android":"levelo://app?vid=944a28a0-ffb8-4660-a285-de6a3c52f9d5","ios":"levelo://app?vid=944a28a0-ffb8-4660-a285-de6a3c52f9d5"},"vehicle_type_id":"4","last_reported":1730974195,"current_range_meters":8400,"station_id":"ce4bhm92rcd13ifvqglg","pricing_plan_id":"cebpf4jnsgd1na2vs0mg"},{"bike_id":"a5df532e-10e3-446a-adac-0a1d77087d3d","system_id":"levelo_inurba_marseille","lat":43.23157,"lon":5.43702,"is_reserved":false,"is_disabled":false,"rental_uris":{"android":"levelo://app?vid=a5df532e-10e3-446a-adac-0a1d77087d3d","ios":"levelo://app?vid=a5df532e-10e3-446a-adac-0a1d77087d3d"},"vehicle_type_id":"4","last_reported":1730974195,"current_range_meters":16800,"station_id":"ce4bhmp2rcd13ifvqgog","pricing_plan_id":"cebpf4jnsgd1na2vs0mg"},{"bike_id":"12f83d46-5599-4659-bee2-8d96df1e73dc","system_id":"levelo_inurba_marseille","lat":43.30948,"lon":5.36832,"is_reserved":false,"is_disabled":false,"rental_uris":{"android":"levelo://app?vid=12f83d46-5599-4659-bee2-8d96df1e73dc","ios":"levelo://app?vid=12f83d46-5599-4659-bee2-8d96df1e73dc"},"vehicle_type_id":"4","last_reported":1730974195,"current_range_meters":33600,"station_id":"ce4bgn92rcd13ifvqbvg","pricing_plan_id":"cebpf4jnsgd1na2vs0mg"},{"bike_id":"9c3169c5-7306-4ddc-9f15-d6bb8c9cdea4","system_id":"levelo_inurba_marseille","lat":43.27487,"lon":5.42455,"is_reserved":false,"is_disabled":false,"rental_uris":{"android":"levelo://app?vid=9c3169c5-7306-4ddc-9f15-d6bb8c9cdea4","ios":"levelo://app?vid=9c3169c5-7306-4ddc-9f15-d6bb8c9cdea4"},"vehicle_type_id":"4","last_reported":1730974195,"current_range_meters":28800,"station_id":"ce4bhn92rcd13ifvqgrg","pricing_plan_id":"cebpf4jnsgd1na2vs0mg"},{"bike_id":"5b7a8496-2838-448b-a6a1-ddaacd062721","system_id":"levelo_inurba_marseille","lat":43.30129,"lon":5.388,"is_reserved":false,"is_disabled":false,"rental_uris":{"android":"levelo://app?vid=5b7a8496-2838-448b-a6a1-ddaacd062721","ios":"levelo://app?vid=5b7a8496-2838-448b-a6a1-ddaacd062721"},"vehicle_type_id":"4","last_reported":1730974195,"current_range_meters":5600,"station_id":"ce4bghh2rcd13ifvqb60","pricing_plan_id":"cebpf4jnsgd1na2vs0mg"},{"bike_id":"745864c2-39c8-45dd-8b55-da9cbe50a5d3","system_id":"levelo_inurba_marseille","lat":43.29503,"lon":5.37511,"is_reserved":false,"is_disabled":false,"rental_uris":{"android":"levelo://app?vid=745864c2-39c8-45dd-8b55-da9cbe50a5d3","ios":"levelo://app?vid=745864c2-39c8-45dd-8b55-da9cbe50a5d3"},"vehicle_type_id":"4","last_reported":1730974195,"current_range_meters":27600,"station_id":"ce4bgkp2rcd13ifvqbmg","pricing_plan_id":"cebpf4jnsgd1na2vs0mg"},{"bike_id":"4450272b-34bc-4703-ac02-8e79cf5992c2","system_id":"levelo_inurba_marseille","lat":43.30138,"lon":5.37434,"is_reserved":false,"is_disabled":false,"rental_uris":{"android":"levelo://app?vid=4450272b-34bc-4703-ac02-8e79cf5992c2","ios":"levelo://app?vid=4450272b-34bc-4703-ac02-8e79cf5992c2"},"vehicle_type_id":"4","last_reported":1730974195,"current_range_meters":39200,"station_id":"ce4bgs92rcd13ifvqcc0","pricing_plan_id":"cebpf4jnsgd1na2vs0mg"},{"bike_id":"d21bbe6d-d864-4100-abd8-39933a2f1023","system_id":"levelo_inurba_marseille","lat":43.2749,"lon":5.42457,"is_reserved":false,"is_disabled":false,"rental_uris":{"android":"levelo://app?vid=d21bbe6d-d864-4100-abd8-39933a2f1023","ios":"levelo://app?vid=d21bbe6d-d864-4100-abd8-39933a2f1023"},"vehicle_type_id":"4","last_reported":1730974195,"current_range_meters":30000,"station_id":"ce4bhn92rcd13ifvqgrg","pricing_plan_id":"cebpf4jnsgd1na2vs0mg"},{"bike_id":"e515691d-d98d-4888-9403-5b499e32b57d","system_id":"levelo_inurba_marseille","lat":43.28,"lon":5.40009,"is_reserved":false,"is_disabled":false,"rental_uris":{"android":"levelo://app?vid=e515691d-d98d-4888-9403-5b499e32b57d","ios":"levelo://app?vid=e515691d-d98d-4888-9403-5b499e32b57d"},"vehicle_type_id":"4","last_reported":1730974195,"current_range_meters":14400,"station_id":"ce4bho92rcd13ifvqh4g","pricing_plan_id":"cebpf4jnsgd1na2vs0mg"},{"bike_id":"eefc89dd-333c-4a70-99a3-43178ccdaa1f","system_id":"levelo_inurba_marseille","lat":43.32542,"lon":5.41451,"is_reserved":false,"is_disabled":false,"rental_uris":{"android":"levelo://app?vid=eefc89dd-333c-4a70-99a3-43178ccdaa1f","ios":"levelo://app?vid=eefc89dd-333c-4a70-99a3-43178ccdaa1f"},"vehicle_type_id":"4","last_reported":1730974195,"current_range_meters":3200,"station_id":"ce4bhq12rcd13ifvqhhg","pricing_plan_id":"cebpf4jnsgd1na2vs0mg"},{"bike_id":"a7fe8658-621f-4421-856b-2dece2715328","system_id":"levelo_inurba_marseille","lat":43.30145,"lon":5.38088,"is_reserved":false,"is_disabled":false,"rental_uris":{"android":"levelo://app?vid=a7fe8658-621f-4421-856b-2dece2715328","ios":"levelo://app?vid=a7fe8658-621f-4421-856b-2dece2715328"},"vehicle_type_id":"4","last_reported":1730974195,"current_range_meters":10000,"station_id":"ce4bgjp2rcd13ifvqbh0","pricing_plan_id":"cebpf4jnsgd1na2vs0mg"},{"bike_id":"e9ab03f6-f854-4fe1-8951-fbb0e2362720","system_id":"levelo_inurba_marseille","lat":43.27677,"lon":5.3888,"is_reserved":false,"is_disabled":false,"rental_uris":{"android":"levelo://app?vid=e9ab03f6-f854-4fe1-8951-fbb0e2362720","ios":"levelo://app?vid=e9ab03f6-f854-4fe1-8951-fbb0e2362720"},"vehicle_type_id":"4","last_reported":1730974195,"current_range_meters":30400,"station_id":"ce4bhi12rcd13ifvqfo0","pricing_plan_id":"cebpf4jnsgd1na2vs0mg"},{"bike_id":"2a1c1d39-a3ee-45b7-8182-d06c16353596","system_id":"levelo_inurba_marseille","lat":43.30318,"lon":5.369,"is_reserved":false,"is_disabled":false,"rental_uris":{"android":"levelo://app?vid=2a1c1d39-a3ee-45b7-8182-d06c16353596","ios":"levelo://app?vid=2a1c1d39-a3ee-45b7-8182-d06c16353596"},"vehicle_type_id":"4","last_reported":1730974195,"current_range_meters":24400,"station_id":"ce4bgqh2rcd13ifvqc5g","pricing_plan_id":"cebpf4jnsgd1na2vs0mg"},{"bike_id":"f760c769-a977-42f0-aa7a-08d894e86072","system_id":"levelo_inurba_marseille","lat":43.280426,"lon":5.40067,"is_reserved":false,"is_disabled":false,"rental_uris":{"android":"levelo://app?vid=f760c769-a977-42f0-aa7a-08d894e86072","ios":"levelo://app?vid=f760c769-a977-42f0-aa7a-08d894e86072"},"vehicle_type_id":"4","last_reported":1730974195,"current_range_meters":38400,"station_id":"ce4bhl12rcd13ifvqgf0","pricing_plan_id":"cebpf4jnsgd1na2vs0mg"},{"bike_id":"1ed4b874-bdae-43c6-98a8-b3cf65705ae8","system_id":"levelo_inurba_marseille","lat":43.23151,"lon":5.43724,"is_reserved":false,"is_disabled":false,"rental_uris":{"android":"levelo://app?vid=1ed4b874-bdae-43c6-98a8-b3cf65705ae8","ios":"levelo://app?vid=1ed4b874-bdae-43c6-98a8-b3cf65705ae8"},"vehicle_type_id":"4","last_reported":1730974195,"current_range_meters":17200,"station_id":"ce4bhmp2rcd13ifvqgog","pricing_plan_id":"cebpf4jnsgd1na2vs0mg"},{"bike_id":"e20375dc-67ae-4f48-b315-a0346c2bd81d","system_id":"levelo_inurba_marseille","lat":43.30786,"lon":5.37651,"is_reserved":false,"is_disabled":false,"rental_uris":{"android":"levelo://app?vid=e20375dc-67ae-4f48-b315-a0346c2bd81d","ios":"levelo://app?vid=e20375dc-67ae-4f48-b315-a0346c2bd81d"},"vehicle_type_id":"4","last_reported":1730974195,"current_range_meters":24400,"station_id":"ce4bgv92rcd13ifvqcq0","pricing_plan_id":"cebpf4jnsgd1na2vs0mg"},{"bike_id":"9a242017-b2b8-4871-b084-3d4890f99b1c","system_id":"levelo_inurba_marseille","lat":43.31278,"lon":5.40168,"is_reserved":false,"is_disabled":false,"rental_uris":{"android":"levelo://app?vid=9a242017-b2b8-4871-b084-3d4890f99b1c","ios":"levelo://app?vid=9a242017-b2b8-4871-b084-3d4890f99b1c"},"vehicle_type_id":"4","last_reported":1730974195,"current_range_meters":20400,"station_id":"ce4bh092rcd13ifvqd30","pricing_plan_id":"cebpf4jnsgd1na2vs0mg"},{"bike_id":"4c829936-88e3-46be-a0f5-9f2bfe0c60d6","system_id":"levelo_inurba_marseille","lat":43.30306,"lon":5.36894,"is_reserved":false,"is_disabled":false,"rental_uris":{"android":"levelo://app?vid=4c829936-88e3-46be-a0f5-9f2bfe0c60d6","ios":"levelo://app?vid=4c829936-88e3-46be-a0f5-9f2bfe0c60d6"},"vehicle_type_id":"4","last_reported":1730974195,"current_range_meters":36800,"station_id":"ce4bgqh2rcd13ifvqc5g","pricing_plan_id":"cebpf4jnsgd1na2vs0mg"},{"bike_id":"54a8a8ed-3d6a-419f-bc5c-d9876d2adfd4","system_id":"levelo_inurba_marseille","lat":43.29567,"lon":5.3753,"is_reserved":false,"is_disabled":false,"rental_uris":{"android":"levelo://app?vid=54a8a8ed-3d6a-419f-bc5c-d9876d2adfd4","ios":"levelo://app?vid=54a8a8ed-3d6a-419f-bc5c-d9876d2adfd4"},"vehicle_type_id":"4","last_reported":1730974195,"current_range_meters":35200,"station_id":"ce4bgh92rcd13ifvqb50","pricing_plan_id":"cebpf4jnsgd1na2vs0mg"},{"bike_id":"263685c3-225f-4033-b252-e91414e0d28c","system_id":"levelo_inurba_marseille","lat":43.31349,"lon":5.36707,"is_reserved":false,"is_disabled":false,"rental_uris":{"android":"levelo://app?vid=263685c3-225f-4033-b252-e91414e0d28c","ios":"levelo://app?vid=263685c3-225f-4033-b252-e91414e0d28c"},"vehicle_type_id":"4","last_reported":1730974195,"current_range_meters":27200,"station_id":"ce4bgr92rcd13ifvqc6g","pricing_plan_id":"cebpf4jnsgd1na2vs0mg"},{"bike_id":"f3618dde-db99-40c6-9fce-dee9a0bce454","system_id":"levelo_inurba_marseille","lat":43.30919,"lon":5.36847,"is_reserved":false,"is_disabled":false,"rental_uris":{"android":"levelo://app?vid=f3618dde-db99-40c6-9fce-dee9a0bce454","ios":"levelo://app?vid=f3618dde-db99-40c6-9fce-dee9a0bce454"},"vehicle_type_id":"4","last_reported":1730974195,"current_range_meters":39200,"station_id":"ce4bgn92rcd13ifvqbvg","pricing_plan_id":"cebpf4jnsgd1na2vs0mg"},{"bike_id":"d3e54780-ddfb-432e-bfd3-55d19e8c43c8","system_id":"levelo_inurba_marseille","lat":43.31756,"lon":5.390254,"is_reserved":false,"is_disabled":false,"rental_uris":{"android":"levelo://app?vid=d3e54780-ddfb-432e-bfd3-55d19e8c43c8","ios":"levelo://app?vid=d3e54780-ddfb-432e-bfd3-55d19e8c43c8"},"vehicle_type_id":"4","last_reported":1730974195,"current_range_meters":32400,"station_id":"ce4bhqp2rcd13ifvqhng","pricing_plan_id":"cebpf4jnsgd1na2vs0mg"},{"bike_id":"ea07b9f2-66f7-4ddb-9f66-7fc3b6b785d5","system_id":"levelo_inurba_marseille","lat":43.30799,"lon":5.43522,"is_reserved":false,"is_disabled":false,"rental_uris":{"android":"levelo://app?vid=ea07b9f2-66f7-4ddb-9f66-7fc3b6b785d5","ios":"levelo://app?vid=ea07b9f2-66f7-4ddb-9f66-7fc3b6b785d5"},"vehicle_type_id":"4","last_reported":1730974195,"current_range_meters":30000,"station_id":"ce4bhph2rcd13ifvqheg","pricing_plan_id":"cebpf4jnsgd1na2vs0mg"},{"bike_id":"386b049a-cefe-4bcc-98f0-285da91e027d","system_id":"levelo_inurba_marseille","lat":43.29366,"lon":5.37836,"is_reserved":false,"is_disabled":false,"rental_uris":{"android":"levelo://app?vid=386b049a-cefe-4bcc-98f0-285da91e027d","ios":"levelo://app?vid=386b049a-cefe-4bcc-98f0-285da91e027d"},"vehicle_type_id":"4","last_reported":1730974195,"current_range_meters":39200,"station_id":"ce4bgjh2rcd13ifvqbf0","pricing_plan_id":"cebpf4jnsgd1na2vs0mg"},{"bike_id":"91c12d34-8db0-4920-b828-bc91b4612ed0","system_id":"levelo_inurba_marseille","lat":43.23149,"lon":5.43708,"is_reserved":false,"is_disabled":false,"rental_uris":{"android":"levelo://app?vid=91c12d34-8db0-4920-b828-bc91b4612ed0","ios":"levelo://app?vid=91c12d34-8db0-4920-b828-bc91b4612ed0"},