{"last_updated":1741740530,"ttl":60,"version":"2.2","data":{"bikes":[{"bike_id":"4db736b9-68d3-4f2a-9431-002ce7a44183","system_id":"levelo_inurba_marseille","lat":43.23169,"lon":5.43736,"is_reserved":false,"is_disabled":false,"rental_uris":{"android":"levelo://app?vid=4db736b9-68d3-4f2a-9431-002ce7a44183","ios":"levelo://app?vid=4db736b9-68d3-4f2a-9431-002ce7a44183"},"vehicle_type_id":"4","last_reported":1741740531,"current_range_meters":2800,"station_id":"ce4bhmp2rcd13ifvqgog","pricing_plan_id":"cebpf4jnsgd1na2vs0mg"},{"bike_id":"d3f91f22-7ed5-4876-8ee7-65c967f221fb","system_id":"levelo_inurba_marseille","lat":43.31331,"lon":5.37073,"is_reserved":false,"is_disabled":false,"rental_uris":{"android":"levelo://app?vid=d3f91f22-7ed5-4876-8ee7-65c967f221fb","ios":"levelo://app?vid=d3f91f22-7ed5-4876-8ee7-65c967f221fb"},"vehicle_type_id":"4","last_reported":1741740531,"current_range_meters":3200,"station_id":"","pricing_plan_id":"cebpf4jnsgd1na2vs0mg"},{"bike_id":"1044bd90-4df9-4109-8dd9-f8ad277760aa","system_id":"levelo_inurba_marseille","lat":43.29577,"lon":5.39976,"is_reserved":false,"is_disabled":false,"rental_uris":{"android":"levelo://app?vid=1044bd90-4df9-4109-8dd9-f8ad277760aa","ios":"levelo://app?vid=1044bd90-4df9-4109-8dd9-f8ad277760aa"},"vehicle_type_id":"4","last_reported":1741740531,"current_range_meters":3600,"station_id":"ce4bh312rcd13ifvqdj0","pricing_plan_id":"cebpf4jnsgd1na2vs0mg"},{"bike_id":"36a83dc7-2da9-4fd8-9caf-ab5acfefbac5","system_id":"levelo_inurba_marseille","lat":43.25712,"lon":5.41102,"is_reserved":false,"is_disabled":false,"rental_uris":{"android":"levelo://app?vid=36a83dc7-2da9-4fd8-9caf-ab5acfefbac5","ios":"levelo://app?vid=36a83dc7-2da9-4fd8-9caf-ab5acfefbac5"},"vehicle_type_id":"4","last_reported":1741740531,"current_range_meters":3600,"station_id":"ce4bhkp2rcd13ifvqgd0","pricing_plan_id":"cebpf4jnsgd1na2vs0mg"},{"bike_id":"a234da5b-0188-48a4-b35c-d7a4b5636e62","system_id":"levelo_inurba_marseille","lat":43.30264,"lon":5.40045,"is_reserved":false,"is_disabled":false,"rental_uris":{"android":"levelo://app?vid=a234da5b-0188-48a4-b35c-d7a4b5636e62","ios":"levelo://app?vid=a234da5b-0188-48a4-b35c-d7a4b5636e62"},"vehicle_type_id":"4","last_reported":1741740531,"current_range_meters":4400,"station_id":"ce4bgvh2rcd13ifvqcs0","pricing_plan_id":"cebpf4jnsgd1na2vs0mg"},{"bike_id":"dc42e161-3661-4fd6-b581-259d0f327bf6","system_id":"levelo_inurba_marseille","lat":43.2318,"lon":5.39985,"is_reserved":false,"is_disabled":false,"rental_uris":{"android":"levelo://app?vid=dc42e161-3661-4fd6-b581-259d0f327bf6","ios":"levelo://app?vid=dc42e161-3661-4fd6-b581-259d0f327bf6"},"vehicle_type_id":"4","last_reported":1741740531,"current_range_meters":5600,"station_id":"ce4bhn12rcd13ifvqgqg","pricing_plan_id":"cebpf4jnsgd1na2vs0mg"},{"bike_id":"b71f0815-9355-4dad-be71-b0aed315a63a","system_id":"levelo_inurba_marseille","lat":43.30534,"lon":5.37239,"is_reserved":false,"is_disabled":false,"rental_uris":{"android":"levelo://app?vid=b71f0815-9355-4dad-be71-b0aed315a63a","ios":"levelo://app?vid=b71f0815-9355-4dad-be71-b0aed315a63a"},"vehicle_type_id":"4","last_reported":1741740531,"current_range_meters":5600,"station_id":"ce4bgqh2rcd13ifvqc4g","pricing_plan_id":"cebpf4jnsgd1na2vs0mg"},{"bike_id":"6b42988a-de91-4a30-b407-bb1347588844","system_id":"levelo_inurba_marseille","lat":43.27822,"lon":5.40707,"is_reserved":false,"is_disabled":false,"rental_uris":{"android":"levelo://app?vid=6b42988a-de91-4a30-b407-bb1347588844","ios":"levelo://app?vid=6b42988a-de91-4a30-b407-bb1347588844"},"vehicle_type_id":"4","last_reported":1741740531,"current_range_meters":6000,"station_id":"ce4bhnh2rcd13ifvqgtg","pricing_plan_id":"cebpf4jnsgd1na2vs0mg"},{"bike_id":"03690356-08e9-4ea7-b9a3-8e88bf471e93","system_id":"levelo_inurba_marseille","lat":43.337444,"lon":5.374475,"is_reserved":false,"is_disabled":false,"rental_uris":{"android":"levelo://app?vid=03690356-08e9-4ea7-b9a3-8e88bf471e93","ios":"levelo://app?vid=03690356-08e9-4ea7-b9a3-8e88bf471e93"},"vehicle_type_id":"4","last_reported":1741740531,"current_range_meters":6000,"station_id":"","pricing_plan_id":"cebpf4jnsgd1na2vs0mg"},{"bike_id":"eedda6f3-e03e-496f-9bd0-de31bfd30ce3","system_id":"levelo_inurba_marseille","lat":43.278176,"lon":5.407133,"is_reserved":false,"is_disabled":false,"rental_uris":{"android":"levelo://app?vid=eedda6f3-e03e-496f-9bd0-de31bfd30ce3","ios":"levelo://app?vid=eedda6f3-e03e-496f-9bd0-de31bfd30ce3"},"vehicle_type_id":"4","last_reported":1741740531,"current_range_meters":6400,"station_id":"ce4bhnh2rcd13ifvqgtg","pricing_plan_id":"cebpf4jnsgd1na2vs0mg"},{"bike_id":"c86d68f5-55ee-4a68-ba82-758fa1373f1d","system_id":"levelo_inurba_marseille","lat":43.31708,"lon":5.43701,"is_reserved":false,"is_disabled":false,"rental_uris":{"android":"levelo://app?vid=c86d68f5-55ee-4a68-ba82-758fa1373f1d","ios":"levelo://app?vid=c86d68f5-55ee-4a68-ba82-758fa1373f1d"},"vehicle_type_id":"4","last_reported":1741740531,"current_range_meters":6400,"station_id":"ce4bhp92rcd13ifvqhcg","pricing_plan_id":"cebpf4jnsgd1na2vs0mg"},{"bike_id":"4ba6d13c-4fd2-4892-98a5-70997d35b452","system_id":"levelo_inurba_marseille","lat":43.307861,"lon":5.381881,"is_reserved":false,"is_disabled":false,"rental_uris":{"android":"levelo://app?vid=4ba6d13c-4fd2-4892-98a5-70997d35b452","ios":"levelo://app?vid=4ba6d13c-4fd2-4892-98a5-70997d35b452"},"vehicle_type_id":"4","last_reported":1741740531,"current_range_meters":6400,"station_id":"ce4bgt12rcd13ifvqce0","pricing_plan_id":"cebpf4jnsgd1na2vs0mg"},{"bike_id":"e20c2a9f-c574-4ef6-8adb-dedbec8114e7","system_id":"levelo_inurba_marseille","lat":43.27909,"lon":5.39591,"is_reserved":false,"is_disabled":false,"rental_uris":{"android":"levelo://app?vid=e20c2a9f-c574-4ef6-8adb-dedbec8114e7","ios":"levelo://app?vid=e20c2a9f-c574-4ef6-8adb-dedbec8114e7"},"vehicle_type_id":"4","last_reported":1741740531,"current_range_meters":6400,"station_id":"ce4bhf92rcd13ifvqf40","pricing_plan_id":"cebpf4jnsgd1na2vs0mg"},{"bike_id":"cbd6f8ee-d91a-4c06-a50f-8aefa40d8ceb","system_id":"levelo_inurba_marseille","lat":43.29904,"lon":5.43689,"is_reserved":false,"is_disabled":false,"rental_uris":{"android":"levelo://app?vid=cbd6f8ee-d91a-4c06-a50f-8aefa40d8ceb","ios":"levelo://app?vid=cbd6f8ee-d91a-4c06-a50f-8aefa40d8ceb"},"vehicle_type_id":"4","last_reported":1741740531,"current_range_meters":6800,"station_id":"ce4bhpp2rcd13ifvqhfg","pricing_plan_id":"cebpf4jnsgd1na2vs0mg"},{"bike_id":"bc670505-14bd-4e28-a0b6-0bd164067c70","system_id":"levelo_inurba_marseille","lat":43.27983,"lon":5.41668,"is_reserved":false,"is_disabled":false,"rental_uris":{"android":"levelo://app?vid=bc670505-14bd-4e28-a0b6-0bd164067c70","ios":"levelo://app?vid=bc670505-14bd-4e28-a0b6-0bd164067c70"},"vehicle_type_id":"4","last_reported":1741740531,"current_range_meters":6800,"station_id":"ce4bho12rcd13ifvqh1g","pricing_plan_id":"cebpf4jnsgd1na2vs0mg"},{"bike_id":"09bbb690-af86-458c-bbad-70d10e2033ee","system_id":"levelo_inurba_marseille","lat":43.23068,"lon":5.35485,"is_reserved":false,"is_disabled":false,"rental_uris":{"android":"levelo://app?vid=09bbb690-af86-458c-bbad-70d10e2033ee","ios":"levelo://app?vid=09bbb690-af86-458c-bbad-70d10e2033ee"},"vehicle_type_id":"4","last_reported":1741740531,"current_range_meters":6800,"station_id":"cpo3342slgdg3j2ifvpg","pricing_plan_id":"cebpf4jnsgd1na2vs0mg"},{"bike_id":"0b6a8ca9-e9ca-4293-a06b-55f5dcadb99b","system_id":"levelo_inurba_marseille","lat":43.28131,"lon":5.44591,"is_reserved":false,"is_disabled":false,"rental_uris":{"android":"levelo://app?vid=0b6a8ca9-e9ca-4293-a06b-55f5dcadb99b","ios":"levelo://app?vid=0b6a8ca9-e9ca-4293-a06b-55f5dcadb99b"},"vehicle_type_id":"4","last_reported":1741740531,"current_range_meters":7200,"station_id":"","pricing_plan_id":"cebpf4jnsgd1na2vs0mg"},{"bike_id":"7ff20641-cc3f-4027-be6a-71b585b28ee2","system_id":"levelo_inurba_marseille","lat":43.25391,"lon":5.4185,"is_reserved":false,"is_disabled":false,"rental_uris":{"android":"levelo://app?vid=7ff20641-cc3f-4027-be6a-71b585b28ee2","ios":"levelo://app?vid=7ff20641-cc3f-4027-be6a-71b585b28ee2"},"vehicle_type_id":"4","last_reported":1741740531,"current_range_meters":7200,"station_id":"","pricing_plan_id":"cebpf4jnsgd1na2vs0mg"},{"bike_id":"2129e361-5aff-4286-bb3b-f380feda8bad","system_id":"levelo_inurba_marseille","lat":43.32344,"lon":5.40623,"is_reserved":false,"is_disabled":false,"rental_uris":{"android":"levelo://app?vid=2129e361-5aff-4286-bb3b-f380feda8bad","ios":"levelo://app?vid=2129e361-5aff-4286-bb3b-f380feda8bad"},"vehicle_type_id":"4","last_reported":1741740531,"current_range_meters":7200,"station_id":"ce4bhq92rcd13ifvqhjg","pricing_plan_id":"cebpf4jnsgd1na2vs0mg"},{"bike_id":"9919f138-0ca1-45a0-bca5-0755917d4808","system_id":"levelo_inurba_marseille","lat":43.26226,"lon":5.40462,"is_reserved":false,"is_disabled":false,"rental_uris":{"android":"levelo://app?vid=9919f138-0ca1-45a0-bca5-0755917d4808","ios":"levelo://app?vid=9919f138-0ca1-45a0-bca5-0755917d4808"},"vehicle_type_id":"4","last_reported":1741740531,"current_range_meters":7200,"station_id":"ce4bhmh2rcd13ifvqgmg","pricing_plan_id":"cebpf4jnsgd1na2vs0mg"},{"bike_id":"6ee5dbe8-ada0-423e-a56f-8c12f2eecf7a","system_id":"levelo_inurba_marseille","lat":43.27827,"lon":5.40728,"is_reserved":false,"is_disabled":false,"rental_uris":{"android":"levelo://app?vid=6ee5dbe8-ada0-423e-a56f-8c12f2eecf7a","ios":"levelo://app?vid=6ee5dbe8-ada0-423e-a56f-8c12f2eecf7a"},"vehicle_type_id":"4","last_reported":1741740531,"current_range_meters":7200,"station_id":"ce4bhnh2rcd13ifvqgtg","pricing_plan_id":"cebpf4jnsgd1na2vs0mg"},{"bike_id":"bf2feb02-4272-4476-92f9-9420844c4078","system_id":"levelo_inurba_marseille","lat":43.311696,"lon":5.375942,"is_reserved":false,"is_disabled":false,"rental_uris":{"android":"levelo://app?vid=bf2feb02-4272-4476-92f9-9420844c4078","ios":"levelo://app?vid=bf2feb02-4272-4476-92f9-9420844c4078"},"vehicle_type_id":"4","last_reported":1741740531,"current_range_meters":7200,"station_id":"","pricing_plan_id":"cebpf4jnsgd1na2vs0mg"},{"bike_id":"80771939-f406-42f7-81c5-33180fd8a338","system_id":"levelo_inurba_marseille","lat":43.23191,"lon":5.35548,"is_reserved":false,"is_disabled":false,"rental_uris":{"android":"levelo://app?vid=80771939-f406-42f7-81c5-33180fd8a338","ios":"levelo://app?vid=80771939-f406-42f7-81c5-33180fd8a338"},"vehicle_type_id":"4","last_reported":1741740531,"current_range_meters":7200,"station_id":"ce4bhu92rcd13ifvqi70","pricing_plan_id":"cebpf4jnsgd1na2vs0mg"},{"bike_id":"74a1feae-7826-497c-8902-71de67cbde10","system_id":"levelo_inurba_marseille","lat":43.295669,"lon":5.399685,"is_reserved":false,"is_disabled":true,"rental_uris":{"android":"levelo://app?vid=74a1feae-7826-497c-8902-71de67cbde10","ios":"levelo://app?vid=74a1feae-7826-497c-8902-71de67cbde10"},"vehicle_type_id":"4","last_reported":1741740531,"current_range_meters":8000,"station_id":"ce4bh312rcd13ifvqdj0","pricing_plan_id":"cebpf4jnsgd1na2vs0mg"},{"bike_id":"a6907114-91e5-4406-958d-4b895c3084d0","system_id":"levelo_inurba_marseille","lat":43.29891,"lon":5.43665,"is_reserved":false,"is_disabled":true,"rental_uris":{"android":"levelo://app?vid=a6907114-91e5-4406-958d-4b895c3084d0","ios":"levelo://app?vid=a6907114-91e5-4406-958d-4b895c3084d0"},"vehicle_type_id":"4","last_reported":1741740531,"current_range_meters":8000,"station_id":"ce4bhpp2rcd13ifvqhfg","pricing_plan_id":"cebpf4jnsgd1na2vs0mg"},{"bike_id":"81796f00-29cc-476e-8ca7-4df9a9c9a825","system_id":"levelo_inurba_marseille","lat":43.30981,"lon":5.51129,"is_reserved":false,"is_disabled":true,"rental_uris":{"android":"levelo://app?vid=81796f00-29cc-476e-8ca7-4df9a9c9a825","ios":"levelo://app?vid=81796f00-29cc-476e-8ca7-4df9a9c9a825"},"vehicle_type_id":"4","last_reported":1741740531,"current_range_meters":8000,"station_id":"","pricing_plan_id":"cebpf4jnsgd1na2vs0mg"},{"bike_id":"b9680ac6-d12e-4a12-9dd8-1396db5e067b","system_id":"levelo_inurba_marseille","lat":43.23159,"lon":5.43701,"is_reserved":false,"is_disabled":false,"rental_uris":{"android":"levelo://app?vid=b9680ac6-d12e-4a12-9dd8-1396db5e067b","ios":"levelo://app?vid=b9680ac6-d12e-4a12-9dd8-1396db5e067b"},"vehicle_type_id":"4","last_reported":1741740531,"current_range_meters":8400,"station_id":"ce4bhmp2rcd13ifvqgog","pricing_plan_id":"cebpf4jnsgd1na2vs0mg"},{"bike_id":"9b75f73b-4e4f-4d50-8655-4ca7749a5646","system_id":"levelo_inurba_marseille","lat":43.27839,"lon":5.4073,"is_reserved":false,"is_disabled":false,"rental_uris":{"android":"levelo://app?vid=9b75f73b-4e4f-4d50-8655-4ca7749a5646","ios":"levelo://app?vid=9b75f73b-4e4f-4d50-8655-4ca7749a5646"},"vehicle_type_id":"4","last_reported":1741740531,"current_range_meters":8400,"station_id":"ce4bhnh2rcd13ifvqgtg","pricing_plan_id":"cebpf4jnsgd1na2vs0mg"},{"bike_id":"0c715c8c-ce6e-4b41-99be-57845c764907","system_id":"levelo_inurba_marseille","lat":43.23168,"lon":5.39979,"is_reserved":false,"is_disabled":false,"rental_uris":{"android":"levelo://app?vid=0c715c8c-ce6e-4b41-99be-57845c764907","ios":"levelo://app?vid=0c715c8c-ce6e-4b41-99be-57845c764907"},"vehicle_type_id":"4","last_reported":1741740531,"current_range_meters":8400,"station_id":"ce4bhn12rcd13ifvqgqg","pricing_plan_id":"cebpf4jnsgd1na2vs0mg"},{"bike_id":"c835eee2-01bf-4ff1-a164-4c90e0a065d9","system_id":"levelo_inurba_marseille","lat":43.25016,"lon":5.38931,"is_reserved":false,"is_disabled":false,"rental_uris":{"android":"levelo://app?vid=c835eee2-01bf-4ff1-a164-4c90e0a065d9","ios":"levelo://app?vid=c835eee2-01bf-4ff1-a164-4c90e0a065d9"},"vehicle_type_id":"4","last_reported":1741740531,"current_range_meters":8400,"station_id":"ce4bhgp2rcd13ifvqfd0","pricing_plan_id":"cebpf4jnsgd1na2vs0mg"},{"bike_id":"05388ace-665a-4114-a828-939b708a2589","system_id":"levelo_inurba_marseille","lat":43.23182,"lon":5.39973,"is_reserved":false,"is_disabled":false,"rental_uris":{"android":"levelo://app?vid=05388ace-665a-4114-a828-939b708a2589","ios":"levelo://app?vid=05388ace-665a-4114-a828-939b708a2589"},"vehicle_type_id":"4","last_reported":1741740531,"current_range_meters":8400,"station_id":"ce4bhn12rcd13ifvqgqg","pricing_plan_id":"cebpf4jnsgd1na2vs0mg"},{"bike_id":"58d1b5b3-d322-4418-97d0-3066ec3d9afc","system_id":"levelo_inurba_marseille","lat":43.231968,"lon":5.355459,"is_reserved":false,"is_disabled":false,"rental_uris":{"android":"levelo://app?vid=58d1b5b3-d322-4418-97d0-3066ec3d9afc","ios":"levelo://app?vid=58d1b5b3-d322-4418-97d0-3066ec3d9afc"},"vehicle_type_id":"4","last_reported":1741740531,"current_range_meters":8400,"station_id":"ce4bhu92rcd13ifvqi70","pricing_plan_id":"cebpf4jnsgd1na2vs0mg"},{"bike_id":"4ea10b8e-e5c6-475e-bfdd-86a26a7a3772","system_id":"levelo_inurba_marseille","lat":43.2782,"lon":5.40731,"is_reserved":false,"is_disabled":false,"rental_uris":{"android":"levelo://app?vid=4ea10b8e-e5c6-475e-bfdd-86a26a7a3772","ios":"levelo://app?vid=4ea10b8e-e5c6-475e-bfdd-86a26a7a3772"},"vehicle_type_id":"4","last_reported":1741740531,"current_range_meters":8800,"station_id":"ce4bhnh2rcd13ifvqgtg","pricing_plan_id":"cebpf4jnsgd1na2vs0mg"},{"bike_id":"e6e16592-91b3-43fd-bc23-f2ea9270d7c9","system_id":"levelo_inurba_marseille","lat":43.27064,"lon":5.402487,"is_reserved":false,"is_disabled":false,"rental_uris":{"android":"levelo://app?vid=e6e16592-91b3-43fd-bc23-f2ea9270d7c9","ios":"levelo://app?vid=e6e16592-91b3-43fd-bc23-f2ea9270d7c9"},"vehicle_type_id":"4","last_reported":1741740531,"current_range_meters":8800,"station_id":"ce4bhk92rcd13ifvqgc0","pricing_plan_id":"cebpf4jnsgd1na2vs0mg"},{"bike_id":"bfe76b26-4cce-4a8d-8e2e-190cbae21f24","system_id":"levelo_inurba_marseille","lat":43.27178,"lon":5.40989,"is_reserved":false,"is_disabled":false,"rental_uris":{"android":"levelo://app?vid=bfe76b26-4cce-4a8d-8e2e-190cbae21f24","ios":"levelo://app?vid=bfe76b26-4cce-4a8d-8e2e-190cbae21f24"},"vehicle_type_id":"4","last_reported":1741740531,"current_range_meters":8800,"station_id":"ce4bhl12rcd13ifvqgf0","pricing_plan_id":"cebpf4jnsgd1na2vs0mg"},{"bike_id":"de556102-02af-4b01-aec2-b6b6bb0d1b66","system_id":"levelo_inurba_marseille","lat":43.309532,"lon":5.390244,"is_reserved":false,"is_disabled":false,"rental_uris":{"android":"levelo://app?vid=de556102-02af-4b01-aec2-b6b6bb0d1b66","ios":"levelo://app?vid=de556102-02af-4b01-aec2-b6b6bb0d1b66"},"vehicle_type_id":"4","last_reported":1741740531,"current_range_meters":8800,"station_id":"ce4bgup2rcd13ifvqco0","pricing_plan_id":"cebpf4jnsgd1na2vs0mg"},{"bike_id":"f640465e-8c9e-425a-8e36-08d8d5201bf6","system_id":"levelo_inurba_marseille","lat":43.23187,"lon":5.35542,"is_reserved":false,"is_disabled":false,"rental_uris":{"android":"levelo://app?vid=f640465e-8c9e-425a-8e36-08d8d5201bf6","ios":"levelo://app?vid=f640465e-8c9e-425a-8e36-08d8d5201bf6"},"vehicle_type_id":"4","last_reported":1741740531,"current_range_meters":8800,"station_id":"ce4bhu92rcd13ifvqi70","pricing_plan_id":"cebpf4jnsgd1na2vs0mg"},{"bike_id":"2b2b213a-823d-4eb7-868e-97146b595f37","system_id":"levelo_inurba_marseille","lat":43.24544,"lon":5.39535,"is_reserved":false,"is_disabled":false,"rental_uris":{"android":"levelo://app?vid=2b2b213a-823d-4eb7-868e-97146b595f37","ios":"levelo://app?vid=2b2b213a-823d-4eb7-868e-97146b595f37"},"vehicle_type_id":"4","last_reported":1741740531,"current_range_meters":8800,"station_id":"ce4bhlp2rcd13ifvqgjg","pricing_plan_id":"cebpf4jnsgd1na2vs0mg"},{"bike_id":"cc5bf6b5-a7b1-49e7-be38-b0feae43fbce","system_id":"levelo_inurba_marseille","lat":43.284714,"lon":5.358841,"is_reserved":false,"is_disabled":false,"rental_uris":{"android":"levelo://app?vid=cc5bf6b5-a7b1-49e7-be38-b0feae43fbce","ios":"levelo://app?vid=cc5bf6b5-a7b1-49e7-be38-b0feae43fbce"},"vehicle_type_id":"4","last_reported":1741740531,"current_range_meters":9200,"station_id":"ce4bhah2rcd13ifvqei0","pricing_plan_id":"cebpf4jnsgd1na2vs0mg"},{"bike_id":"b1860054-f330-4590-b940-dc06652da5c8","system_id":"levelo_inurba_marseille","lat":43.26202,"lon":5.37447,"is_reserved":false,"is_disabled":false,"rental_uris":{"android":"levelo://app?vid=b1860054-f330-4590-b940-dc06652da5c8","ios":"levelo://app?vid=b1860054-f330-4590-b940-dc06652da5c8"},"vehicle_type_id":"4","last_reported":1741740531,"current_range_meters":9200,"station_id":"ce4bhgp2rcd13ifvqfc0","pricing_plan_id":"cebpf4jnsgd1na2vs0mg"},{"bike_id":"3da17b7f-bdcd-478f-8d6c-637f30892be3","system_id":"levelo_inurba_marseille","lat":43.27916,"lon":5.39581,"is_reserved":false,"is_disabled":false,"rental_uris":{"android":"levelo://app?vid=3da17b7f-bdcd-478f-8d6c-637f30892be3","ios":"levelo://app?vid=3da17b7f-bdcd-478f-8d6c-637f30892be3"},"vehicle_type_id":"4","last_reported":1741740531,"current_range_meters":9200,"station_id":"ce4bhf92rcd13ifvqf40","pricing_plan_id":"cebpf4jnsgd1na2vs0mg"},{"bike_id":"9219bd7b-8404-4edb-81c5-245886222e49","system_id":"levelo_inurba_marseille","lat":43.28722,"lon":5.37385,"is_reserved":false,"is_disabled":false,"rental_uris":{"android":"levelo://app?vid=9219bd7b-8404-4edb-81c5-245886222e49","ios":"levelo://app?vid=9219bd7b-8404-4edb-81c5-245886222e49"},"vehicle_type_id":"4","last_reported":1741740531,"current_range_meters":9200,"station_id":"ce4bh3p2rcd13ifvqdq0","pricing_plan_id":"cebpf4jnsgd1na2vs0mg"},{"bike_id":"9ec64716-6862-4183-9db4-377cd6d09a43","system_id":"levelo_inurba_marseille","lat":43.29194,"lon":5.35799,"is_reserved":false,"is_disabled":false,"rental_uris":{"android":"levelo://app?vid=9ec64716-6862-4183-9db4-377cd6d09a43","ios":"levelo://app?vid=9ec64716-6862-4183-9db4-377cd6d09a43"},"vehicle_type_id":"4","last_reported":1741740531,"current_range_meters":9200,"station_id":"ce4bhb12rcd13ifvqel0","pricing_plan_id":"cebpf4jnsgd1na2vs0mg"},{"bike_id":"241d79a7-8164-4ee5-8d3f-2565e2e0b3e8","system_id":"levelo_inurba_marseille","lat":43.31381,"lon":5.37972,"is_reserved":false,"is_disabled":false,"rental_uris":{"android":"levelo://app?vid=241d79a7-8164-4ee5-8d3f-2565e2e0b3e8","ios":"levelo://app?vid=241d79a7-8164-4ee5-8d3f-2565e2e0b3e8"},"vehicle_type_id":"4","last_reported":1741740531,"current_range_meters":9200,"station_id":"","pricing_plan_id":"cebpf4jnsgd1na2vs0mg"},{"bike_id":"28970cae-917c-4e7f-9009-0998c9001c6f","system_id":"levelo_inurba_marseille","lat":43.28704,"lon":5.37376,"is_reserved":false,"is_disabled":false,"rental_uris":{"android":"levelo://app?vid=28970cae-917c-4e7f-9009-0998c9001c6f","ios":"levelo://app?vid=28970cae-917c-4e7f-9009-0998c9001c6f"},"vehicle_type_id":"4","last_reported":1741740531,"current_range_meters":9200,"station_id":"ce4bh3p2rcd13ifvqdq0","pricing_plan_id":"cebpf4jnsgd1na2vs0mg"},{"bike_id":"1f1e40e5-e0ef-4bfc-b150-d825cd6d5113","system_id":"levelo_inurba_marseille","lat":43.31076,"lon":5.38352,"is_reserved":false,"is_disabled":false,"rental_uris":{"android":"levelo://app?vid=1f1e40e5-e0ef-4bfc-b150-d825cd6d5113","ios":"levelo://app?vid=1f1e40e5-e0ef-4bfc-b150-d825cd6d5113"},"vehicle_type_id":"4","last_reported":1741740531,"current_range_meters":8800,"station_id":"ce4bgv92rcd13ifvqcr0","pricing_plan_id":"cebpf4jnsgd1na2vs0mg"},{"bike_id":"35d14ac2-0aa0-441d-91f1-9a78f17d8273","system_id":"levelo_inurba_marseille","lat":43.29613,"lon":5.38104,"is_reserved":false,"is_disabled":false,"rental_uris":{"android":"levelo://app?vid=35d14ac2-0aa0-441d-91f1-9a78f17d8273","ios":"levelo://app?vid=35d14ac2-0aa0-441d-91f1-9a78f17d8273"},"vehicle_type_id":"4","last_reported":1741740531,"current_range_meters":9200,"station_id":"ce4bgl12rcd13ifvqbo0","pricing_plan_id":"cebpf4jnsgd1na2vs0mg"},{"bike_id":"415e7a31-245d-4ead-9f33-dad092a04302","system_id":"levelo_inurba_marseille","lat":43.23059,"lon":5.35484,"is_reserved":false,"is_disabled":false,"rental_uris":{"android":"levelo://app?vid=415e7a31-245d-4ead-9f33-dad092a04302","ios":"levelo://app?vid=415e7a31-245d-4ead-9f33-dad092a04302"},"vehicle_type_id":"4","last_reported":1741740531,"current_range_meters":9600,"station_id":"cpo3342slgdg3j2ifvpg","pricing_plan_id":"cebpf4jnsgd1na2vs0mg"},{"bike_id":"60ee13cf-44a1-4e0e-9eb6-02f69d58169e","system_id":"levelo_inurba_marseille","lat":43.31377,"lon":5.38485,"is_reserved":false,"is_disabled":false,"rental_uris":{"android":"levelo://app?vid=60ee13cf-44a1-4e0e-9eb6-02f69d58169e","ios":"levelo://app?vid=60ee13cf-44a1-4e0e-9eb6-02f69d58169e"},"vehicle_type_id":"4","last_reported":1741740531,"current_range_meters":9600,"station_id":"ce4bgt92rcd13ifvqcf0","pricing_plan_id":"cebpf4jnsgd1na2vs0mg"},{"bike_id":"9acab34d-76c9-4fd5-bed6-0265a89df8bb","system_id":"levelo_inurba_marseille","lat":43.25734,"lon":5.41113,"is_reserved":false,"is_disabled":false,"rental_uris":{"android":"levelo://app?vid=9acab34d-76c9-4fd5-bed6-0265a89df8bb","ios":"levelo://app?vid=9acab34d-76c9-4fd5-bed6-0265a89df8bb"},"vehicle_type_id":"4","last_reported":1741740531,"current_range_meters":9600,"station_id":"ce4bhkp2rcd13ifvqgd0","pricing_plan_id":"cebpf4jnsgd1na2vs0mg"},{"bike_id":"8f36d88f-9188-4659-bc5d-ae5c7216d1ae","system_id":"levelo_inurba_marseille","lat":43.23186,"lon":5.39977,"is_reserved":false,"is_disabled":false,"rental_uris":{"android":"levelo://app?vid=8f36d88f-9188-4659-bc5d-ae5c7216d1ae","ios":"levelo://app?vid=8f36d88f-9188-4659-bc5d-ae5c7216d1ae"},"vehicle_type_id":"4","last_reported":1741740531,"current_range_meters":9600,"station_id":"ce4bhn12rcd13ifvqgqg","pricing_plan_id":"cebpf4jnsgd1na2vs0mg"},{"bike_id":"30a3a008-7160-4279-8740-ac0a8591383d","system_id":"levelo_inurba_marseille","lat":43.24544,"lon":5.39528,"is_reserved":false,"is_disabled":false,"rental_uris":{"android":"levelo://app?vid=30a3a008-7160-4279-8740-ac0a8591383d","ios":"levelo://app?vid=30a3a008-7160-4279-8740-ac0a8591383d"},"vehicle_type_id":"4","last_reported":1741740531,"current_range_meters":9600,"station_id":"ce4bhlp2rcd13ifvqgjg","pricing_plan_id":"cebpf4jnsgd1na2vs0mg"},{"bike_id":"530a533a-e2f4-4a77-accb-cf20c71b4586","system_id":"levelo_inurba_marseille","lat":43.2319,"lon":5.39981,"is_reserved":false,"is_disabled":false,"rental_uris":{"android":"levelo://app?vid=530a533a-e2f4-4a77-accb-cf20c71b4586","ios":"levelo://app?vid=530a533a-e2f4-4a77-accb-cf20c71b4586"},"vehicle_type_id":"4","last_reported":1741740531,"current_range_meters":9600,"station_id":"ce4bhn12rcd13ifvqgqg","pricing_plan_id":"cebpf4jnsgd1na2vs0mg"},{"bike_id":"c6825682-54ea-4db3-9437-5e9594505c22","system_id":"levelo_inurba_marseille","lat":43.29867,"lon":5.39735,"is_reserved":false,"is_disabled":false,"rental_uris":{"android":"levelo://app?vid=c6825682-54ea-4db3-9437-5e9594505c22","ios":"levelo://app?vid=c6825682-54ea-4db3-9437-5e9594505c22"},"vehicle_type_id":"4","last_reported":1741740531,"current_range_meters":10000,"station_id":"ce4bh0h2rcd13ifvqd50","pricing_plan_id":"cebpf4jnsgd1na2vs0mg"},{"bike_id":"40c2f6f1-6a22-4cf4-b92f-8918c6fa9a5c","system_id":"levelo_inurba_marseille","lat":43.3064,"lon":5.40082,"is_reserved":false,"is_disabled":false,"rental_uris":{"android":"levelo://app?vid=40c2f6f1-6a22-4cf4-b92f-8918c6fa9a5c","ios":"levelo://app?vid=40c2f6f1-6a22-4cf4-b92f-8918c6fa9a5c"},"vehicle_type_id":"4","last_reported":1741740531,"current_range_meters":10000,"station_id":"ce4bh112rcd13ifvqda0","pricing_plan_id":"cebpf4jnsgd1na2vs0mg"},{"bike_id":"e0882758-540a-4ac9-8b1c-c6cbff85ff33","system_id":"levelo_inurba_marseille","lat":43.29884,"lon":5.39736,"is_reserved":false,"is_disabled":false,"rental_uris":{"android":"levelo://app?vid=e0882758-540a-4ac9-8b1c-c6cbff85ff33","ios":"levelo://app?vid=e0882758-540a-4ac9-8b1c-c6cbff85ff33"},"vehicle_type_id":"4","last_reported":1741740531,"current_range_meters":10000,"station_id":"ce4bh0h2rcd13ifvqd50","pricing_plan_id":"cebpf4jnsgd1na2vs0mg"},{"bike_id":"1e383331-4cf9-4f27-840c-e013f13c25d8","system_id":"levelo_inurba_marseille","lat":43.23181,"lon":5.3999,"is_reserved":false,"is_disabled":false,"rental_uris":{"android":"levelo://app?vid=1e383331-4cf9-4f27-840c-e013f13c25d8","ios":"levelo://app?vid=1e383331-4cf9-4f27-840c-e013f13c25d8"},"vehicle_type_id":"4","last_reported":1741740531,"current_range_meters":10000,"station_id":"ce4bhn12rcd13ifvqgqg","pricing_plan_id":"cebpf4jnsgd1na2vs0mg"},{"bike_id":"5b87402a-c5e5-44b0-af97-fe924e9a5c40","system_id":"levelo_inurba_marseille","lat":43.251,"lon":5.40293,"is_reserved":false,"is_disabled":false,"rental_uris":{"android":"levelo://app?vid=5b87402a-c5e5-44b0-af97-fe924e9a5c40","ios":"levelo://app?vid=5b87402a-c5e5-44b0-af97-fe924e9a5c40"},"vehicle_type_id":"4","last_reported":1741740531,"current_range_meters":10000,"station_id":"ce4bhlh2rcd13ifvqgig","pricing_plan_id":"cebpf4jnsgd1na2vs0mg"},{"bike_id":"28c4d59e-e5ea-4620-a059-b9d5882a5e9f","system_id":"levelo_inurba_marseille","lat":43.24166,"lon":5.3641,"is_reserved":false,"is_disabled":false,"rental_uris":{"android":"levelo://app?vid=28c4d59e-e5ea-4620-a059-b9d5882a5e9f","ios":"levelo://app?vid=28c4d59e-e5ea-4620-a059-b9d5882a5e9f"},"vehicle_type_id":"4","last_reported":1741740531,"current_range_meters":10000,"station_id":"cpo36qri1sfpv3e86is0","pricing_plan_id":"cebpf4jnsgd1na2vs0mg"},{"bike_id":"29a2eadf-a51e-4030-aaa6-2edfad4c2148","system_id":"levelo_inurba_marseille","lat":43.284657,"lon":5.358784,"is_reserved":false,"is_disabled":false,"rental_uris":{"android":"levelo://app?vid=29a2eadf-a51e-4030-aaa6-2edfad4c2148","ios":"levelo://app?vid=29a2eadf-a51e-4030-aaa6-2edfad4c2148"},"vehicle_type_id":"4","last_reported":1741740531,"current_range_meters":10000,"station_id":"ce4bhah2rcd13ifvqei0","pricing_plan_id":"cebpf4jnsgd1na2vs0mg"},{"bike_id":"ebdc0adc-86d4-4882-8983-2d6c86413625","system_id":"levelo_inurba_marseille","lat":43.23151,"lon":5.43707,"is_reserved":false,"is_disabled":false,"rental_uris":{"android":"levelo://app?vid=ebdc0adc-86d4-4882-8983-2d6c86413625","ios":"levelo://app?vid=ebdc0adc-86d4-4882-8983-2d6c86413625"},"vehicle_type_id":"4","last_reported":1741740531,"current_range_meters":10000,"station_id":"ce4bhmp2rcd13ifvqgog","pricing_plan_id":"cebpf4jnsgd1na2vs0mg"},{"bike_id":"20c1e358-1c7f-4912-9588-5a74dcb84090","system_id":"levelo_inurba_marseille","lat":43.25004,"lon":5.38925,"is_reserved":false,"is_disabled":false,"rental_uris":{"android":"levelo://app?vid=20c1e358-1c7f-4912-9588-5a74dcb84090","ios":"levelo://app?vid=20c1e358-1c7f-4912-9588-5a74dcb84090"},"vehicle_type_id":"4","last_reported":1741740531,"current_range_meters":10000,"station_id":"ce4bhgp2rcd13ifvqfd0","pricing_plan_id":"cebpf4jnsgd1na2vs0mg"},{"bike_id":"4cce856f-8450-4187-bdbb-5105bd596b02","system_id":"levelo_inurba_marseille","lat":43.28621,"lon":5.35108,"is_reserved":false,"is_disabled":false,"rental_uris":{"android":"levelo://app?vid=4cce856f-8450-4187-bdbb-5105bd596b02","ios":"levelo://app?vid=4cce856f-8450-4187-bdbb-5105bd596b02"},"vehicle_type_id":"4","last_reported":1741740531,"current_range_meters":10000,"station_id":"ce4bhch2rcd13ifvqeug","pricing_plan_id":"cebpf4jnsgd1na2vs0mg"},{"bike_id":"e684ff0d-ffbb-4303-9c2e-1cebf7f952f3","system_id":"levelo_inurba_marseille","lat":43.26566,"lon":5.38989,"is_reserved":false,"is_disabled":false,"rental_uris":{"android":"levelo://app?vid=e684ff0d-ffbb-4303-9c2e-1cebf7f952f3","ios":"levelo://app?vid=e684ff0d-ffbb-4303-9c2e-1cebf7f952f3"},"vehicle_type_id":"4","last_reported":1741740531,"current_range_meters":10800,"station_id":"ce4bhe12rcd13ifvqf30","pricing_plan_id":"cebpf4jnsgd1na2vs0mg"},{"bike_id":"72ab2c75-5587-494f-826f-81e3a01ecd70","system_id":"levelo_inurba_marseille","lat":43.22924,"lon":5.35359,"is_reserved":false,"is_disabled":false,"rental_uris":{"android":"levelo://app?vid=72ab2c75-5587-494f-826f-81e3a01ecd70","ios":"levelo://app?vid=72ab2c75-5587-494f-826f-81e3a01ecd70"},"vehicle_type_id":"4","last_reported":1741740531,"current_range_meters":10800,"station_id":"cpo3532slgdg3j2ikp40","pricing_plan_id":"cebpf4jnsgd1na2vs0mg"},{"bike_id":"17b5189d-f1ef-443b-9bfb-9b86eaeb7cf2","system_id":"levelo_inurba_marseille","lat":43.27931,"lon":5.44219,"is_reserved":false,"is_disabled":false,"rental_uris":{"android":"levelo://app?vid=17b5189d-f1ef-443b-9bfb-9b86eaeb7cf2","ios":"levelo://app?vid=17b5189d-f1ef-443b-9bfb-9b86eaeb7cf2"},"vehicle_type_id":"4","last_reported":1741740531,"current_range_meters":10800,"station_id":"","pricing_plan_id":"cebpf4jnsgd1na2vs0mg"},{"bike_id":"9880b3b3-4334-44f1-88d3-e581c8981652","system_id":"levelo_inurba_marseille","lat":43.27059,"lon":5.40266,"is_reserved":false,"is_disabled":false,"rental_uris":{"android":"levelo://app?vid=9880b3b3-4334-44f1-88d3-e581c8981652","ios":"levelo://app?vid=9880b3b3-4334-44f1-88d3-e581c8981652"},"vehicle_type_id":"4","last_reported":1741740531,"current_range_meters":10800,"station_id":"ce4bhk92rcd13ifvqgc0","pricing_plan_id":"cebpf4jnsgd1na2vs0mg"},{"bike_id":"47fa1a31-5bb3-4522-abd9-b87b4a821178","system_id":"levelo_inurba_marseille","lat":43.278249,"lon":5.407126,"is_reserved":false,"is_disabled":false,"rental_uris":{"android":"levelo://app?vid=47fa1a31-5bb3-4522-abd9-b87b4a821178","ios":"levelo://app?vid=47fa1a31-5bb3-4522-abd9-b87b4a821178"},"vehicle_type_id":"4","last_reported":1741740531,"current_range_meters":10800,"station_id":"ce4bhnh2rcd13ifvqgtg","pricing_plan_id":"cebpf4jnsgd1na2vs0mg"},{"bike_id":"a16a390d-04f2-47dc-b847-388635707bb5","system_id":"levelo_inurba_marseille","lat":43.28463,"lon":5.35892,"is_reserved":false,"is_disabled":false,"rental_uris":{"android":"levelo://app?vid=a16a390d-04f2-47dc-b847-388635707bb5","ios":"levelo://app?vid=a16a390d-04f2-47dc-b847-388635707bb5"},"vehicle_type_id":"4","last_reported":1741740531,"current_range_meters":10800,"station_id":"ce4bhah2rcd13ifvqei0","pricing_plan_id":"cebpf4jnsgd1na2vs0mg"},{"bike_id":"9776d519-3376-4f51-aaa3-2da63911d7cc","system_id":"levelo_inurba_marseille","lat":43.25068,"lon":5.39522,"is_reserved":false,"is_disabled":false,"rental_uris":{"android":"levelo://app?vid=9776d519-3376-4f51-aaa3-2da63911d7cc","ios":"levelo://app?vid=9776d519-3376-4f51-aaa3-2da63911d7cc"},"vehicle_type_id":"4","last_reported":1741740531,"current_range_meters":10800,"station_id":"ce4bhm12rcd13ifvqgkg","pricing_plan_id":"cebpf4jnsgd1na2vs0mg"},{"bike_id":"2931d81f-abb3-45b8-9224-dc3fce2fae31","system_id":"levelo_inurba_marseille","lat":43.323664,"lon":5.367536,"is_reserved":false,"is_disabled":false,"rental_uris":{"android":"levelo://app?vid=2931d81f-abb3-45b8-9224-dc3fce2fae31","ios":"levelo://app?vid=2931d81f-abb3-45b8-9224-dc3fce2fae31"},"vehicle_type_id":"4","last_reported":1741740531,"current_range_meters":10800,"station_id":"ce4bhsh2rcd13ifvqi2g","pricing_plan_id":"cebpf4jnsgd1na2vs0mg"},{"bike_id":"6dbc2ff1-1ae4-45fb-b93d-35febfe98195","system_id":"levelo_inurba_marseille","lat":43.25385,"lon":5.41845,"is_reserved":false,"is_disabled":false,"rental_uris":{"android":"levelo://app?vid=6dbc2ff1-1ae4-45fb-b93d-35febfe98195","ios":"levelo://app?vid=6dbc2ff1-1ae4-45fb-b93d-35febfe98195"},"vehicle_type_id":"4","last_reported":1741740531,"current_range_meters":10800,"station_id":"","pricing_plan_id":"cebpf4jnsgd1na2vs0mg"},{"bike_id":"4ed08569-f31f-403d-9538-514ea77c4734","system_id":"levelo_inurba_marseille","lat":43.25117,"lon":5.4034,"is_reserved":false,"is_disabled":false,"rental_uris":{"android":"levelo://app?vid=4ed08569-f31f-403d-9538-514ea77c4734","ios":"levelo://app?vid=4ed08569-f31f-403d-9538-514ea77c4734"},"vehicle_type_id":"4","last_reported":1741740531,"current_range_meters":10800,"station_id":"ce4bhlh2rcd13ifvqgig","pricing_plan_id":"cebpf4jnsgd1na2vs0mg"},{"bike_id":"d81463af-23d2-425d-9a90-68fbd18c5253","system_id":"levelo_inurba_marseille","lat":43.30652,"lon":5.40064,"is_reserved":false,"is_disabled":false,"rental_uris":{"android":"levelo://app?vid=d81463af-23d2-425d-9a90-68fbd18c5253","ios":"levelo://app?vid=d81463af-23d2-425d-9a90-68fbd18c5253"},"vehicle_type_id":"4","last_reported":1741740531,"current_range_meters":10800,"station_id":"ce4bh112rcd13ifvqda0","pricing_plan_id":"cebpf4jnsgd1na2vs0mg"},{"bike_id":"0117055b-abaa-4782-a83e-c23d24cb8a2e","system_id":"levelo_inurba_marseille","lat":43.24647,"lon":5.38906,"is_reserved":false,"is_disabled":false,"rental_uris":{"android":"levelo://app?vid=0117055b-abaa-4782-a83e-c23d24cb8a2e","ios":"levelo://app?vid=0117055b-abaa-4782-a83e-c23d24cb8a2e"},"vehicle_type_id":"4","last_reported":1741740531,"current_range_meters":10800,"station_id":"ce4bhg12rcd13ifvqf60","pricing_plan_id":"cebpf4jnsgd1na2vs0mg"},{"bike_id":"3a80f0ac-e2ae-4fd8-8cb1-e4c5969a14d7","system_id":"levelo_inurba_marseille","lat":43.28688,"lon":5.37734,"is_reserved":false,"is_disabled":false,"rental_uris":{"android":"levelo://app?vid=3a80f0ac-e2ae-4fd8-8cb1-e4c5969a14d7","ios":"levelo://app?vid=3a80f0ac-e2ae-4fd8-8cb1-e4c5969a14d7"},"vehicle_type_id":"4","last_reported":1741740531,"current_range_meters":10800,"station_id":"","pricing_plan_id":"cebpf4jnsgd1na2vs0mg"},{"bike_id":"911410d1-afe8-40dc-a6fe-68902720787a","system_id":"levelo_inurba_marseille","lat":43.306482,"lon":5.400776,"is_reserved":false,"is_disabled":false,"rental_uris":{"android":"levelo://app?vid=911410d1-afe8-40dc-a6fe-68902720787a","ios":"levelo://app?vid=911410d1-afe8-40dc-a6fe-68902720787a"},"vehicle_type_id":"4","last_reported":1741740531,"current_range_meters":11200,"station_id":"ce4bh112rcd13ifvqda0","pricing_plan_id":"cebpf4jnsgd1na2vs0mg"},{"bike_id":"a5490b0d-6778-4c0c-960c-3aa0b15c8435","system_id":"levelo_inurba_marseille","lat":43.31084,"lon":5.37871,"is_reserved":false,"is_disabled":false,"rental_uris":{"android":"levelo://app?vid=a5490b0d-6778-4c0c-960c-3aa0b15c8435","ios":"levelo://app?vid=a5490b0d-6778-4c0c-960c-3aa0b15c8435"},"vehicle_type_id":"4","last_reported":1741740531,"current_range_meters":11200,"station_id":"","pricing_plan_id":"cebpf4jnsgd1na2vs0mg"},{"bike_id":"9294a26b-c088-4208-917f-c73e3c4f5f46","system_id":"levelo_inurba_marseille","lat":43.30378,"lon":5.40758,"is_reserved":false,"is_disabled":false,"rental_uris":{"android":"levelo://app?vid=9294a26b-c088-4208-917f-c73e3c4f5f46","ios":"levelo://app?vid=9294a26b-c088-4208-917f-c73e3c4f5f46"},"vehicle_type_id":"4","last_reported":1741740531,"current_range_meters":11200,"station_id":"","pricing_plan_id":"cebpf4jnsgd1na2vs0mg"},{"bike_id":"abdd7c22-1834-4dd2-b900-f96e12ac3e71","system_id":"levelo_inurba_marseille","lat":43.30341,"lon":5.40429,"is_reserved":false,"is_disabled":false,"rental_uris":{"android":"levelo://app?vid=abdd7c22-1834-4dd2-b900-f96e12ac3e71","ios":"levelo://app?vid=abdd7c22-1834-4dd2-b900-f96e12ac3e71"},"vehicle_type_id":"4","last_reported":1741740531,"current_range_meters":11200,"station_id":"ce4bh012rcd13ifvqd10","pricing_plan_id":"cebpf4jnsgd1na2vs0mg"},{"bike_id":"1db51981-97cb-4524-901f-28266a6ea665","system_id":"levelo_inurba_marseille","lat":43.25088,"lon":5.39514,"is_reserved":false,"is_disabled":false,"rental_uris":{"android":"levelo://app?vid=1db51981-97cb-4524-901f-28266a6ea665","ios":"levelo://app?vid=1db51981-97cb-4524-901f-28266a6ea665"},"vehicle_type_id":"4","last_reported":1741740531,"current_range_meters":11200,"station_id":"ce4bhm12rcd13ifvqgkg","pricing_plan_id":"cebpf4jnsgd1na2vs0mg"},{"bike_id":"c1fdf776-5ff6-4f38-96ad-d3bee4a7cebb","system_id":"levelo_inurba_marseille","lat":43.23164,"lon":5.43718,"is_reserved":false,"is_disabled":false,"rental_uris":{"android":"levelo://app?vid=c1fdf776-5ff6-4f38-96ad-d3bee4a7cebb","ios":"levelo://app?vid=c1fdf776-5ff6-4f38-96ad-d3bee4a7cebb"},"vehicle_type_id":"4","last_reported":1741740531,"current_range_meters":11200,"station_id":"ce4bhmp2rcd13ifvqgog","pricing_plan_id":"cebpf4jnsgd1na2vs0mg"},{"bike_id":"511a478b-16c6-4549-a89d-177a4b1ec633","system_id":"levelo_inurba_marseille","lat":43.26555,"lon":5.37316,"is_reserved":false,"is_disabled":false,"rental_uris":{"android":"levelo://app?vid=511a478b-16c6-4549-a89d-177a4b1ec633","ios":"levelo://app?vid=511a478b-16c6-4549-a89d-177a4b1ec633"},"vehicle_type_id":"4","last_reported":1741740531,"current_range_meters":11200,"station_id":"ce4bhg12rcd13ifvqf70","pricing_plan_id":"cebpf4jnsgd1na2vs0mg"},{"bike_id":"1367ee21-f885-443e-a917-a6142cabd2a8","system_id":"levelo_inurba_marseille","lat":43.3008,"lon":5.39076,"is_reserved":false,"is_disabled":false,"rental_uris":{"android":"levelo://app?vid=1367ee21-f885-443e-a917-a6142cabd2a8","ios":"levelo://app?vid=1367ee21-f885-443e-a917-a6142cabd2a8"},"vehicle_type_id":"4","last_reported":1741740531,"current_range_meters":11600,"station_id":"ce4bh192rcd13ifvqdb0","pricing_plan_id":"cebpf4jnsgd1na2vs0mg"},{"bike_id":"8dee66dd-a753-4e90-9df0-a75f60b0d66f","system_id":"levelo_inurba_marseille","lat":43.28571,"lon":5.42482,"is_reserved":false,"is_disabled":false,"rental_uris":{"android":"levelo://app?vid=8dee66dd-a753-4e90-9df0-a75f60b0d66f","ios":"levelo://app?vid=8dee66dd-a753-4e90-9df0-a75f60b0d66f"},"vehicle_type_id":"4","last_reported":1741740531,"current_range_meters":11600,"station_id":"","pricing_plan_id":"cebpf4jnsgd1na2vs0mg"},{"bike_id":"03fcef79-f017-4d15-a10d-891c5cd96db2","system_id":"levelo_inurba_marseille","lat":43.23059,"lon":5.35486,"is_reserved":false,"is_disabled":false,"rental_uris":{"android":"levelo://app?vid=03fcef79-f017-4d15-a10d-891c5cd96db2","ios":"levelo://app?vid=03fcef79-f017-4d15-a10d-891c5cd96db2"},"vehicle_type_id":"4","last_reported":1741740531,"current_range_meters":12000,"station_id":"cpo3342slgdg3j2ifvpg","pricing_plan_id":"cebpf4jnsgd1na2vs0mg"},{"bike_id":"f829a819-671e-4b71-9c22-56c5f8047725","system_id":"levelo_inurba_marseille","lat":43.32374,"lon":5.36769,"is_reserved":false,"is_disabled":false,"rental_uris":{"android":"levelo://app?vid=f829a819-671e-4b71-9c22-56c5f8047725","ios":"levelo://app?vid=f829a819-671e-4b71-9c22-56c5f8047725"},"vehicle_type_id":"4","last_reported":1741740531,"current_range_meters":12000,"station_id":"ce4bhsh2rcd13ifvqi2g","pricing_plan_id":"cebpf4jnsgd1na2vs0mg"},{"bike_id":"28ddcdf4-024a-4f42-80ff-fb3bac3f5f61","system_id":"levelo_inurba_marseille","lat":43.24157,"lon":5.3641,"is_reserved":false,"is_disabled":false,"rental_uris":{"android":"levelo://app?vid=28ddcdf4-024a-4f42-80ff-fb3bac3f5f61","ios":"levelo://app?vid=28ddcdf4-024a-4f42-80ff-fb3bac3f5f61"},"vehicle_type_id":"4","last_reported":1741740531,"current_range_meters":12400,"station_id":"cpo36qri1sfpv3e86is0","pricing_plan_id":"cebpf4jnsgd1na2vs0mg"},{"bike_id":"d4031ff3-7df8-4153-b5c5-c6dcddcb0625","system_id":"levelo_inurba_marseille","lat":43.245513,"lon":5.395378,"is_reserved":false,"is_disabled":false,"rental_uris":{"android":"levelo://app?vid=d4031ff3-7df8-4153-b5c5-c6dcddcb0625","ios":"levelo://app?vid=d4031ff3-7df8-4153-b5c5-c6dcddcb0625"},"vehicle_type_id":"4","last_reported":1741740531,"current_range_meters":12400,"station_id":"ce4bhlp2rcd13ifvqgjg","pricing_plan_id":"cebpf4jnsgd1na2vs0mg"},{"bike_id":"24956a52-0069-414c-ad2b-b044caf5b758","system_id":"levelo_inurba_marseille","lat":43.31531,"lon":5.38057,"is_reserved":false,"is_disabled":false,"rental_uris":{"android":"levelo://app?vid=24956a52-0069-414c-ad2b-b044caf5b758","ios":"levelo://app?vid=24956a52-0069-414c-ad2b-b044caf5b758"},"vehicle_type_id":"4","last_reported":1741740531,"current_range_meters":12400,"station_id":"ce4bhsp2rcd13ifvqi50","pricing_plan_id":"cebpf4jnsgd1na2vs0mg"},{"bike_id":"9eca0c55-9588-4933-b640-fc7e14124246","system_id":"levelo_inurba_marseille","lat":43.24073,"lon":5.37764,"is_reserved":false,"is_disabled":false,"rental_uris":{"android":"levelo://app?vid=9eca0c55-9588-4933-b640-fc7e14124246","ios":"levelo://app?vid=9eca0c55-9588-4933-b640-fc7e14124246"},"vehicle_type_id":"4","last_reported":1741740531,"current_range_meters":12400,"station_id":"ce4bhnp2rcd13ifvqgvg","pricing_plan_id":"cebpf4jnsgd1na2vs0mg"},{"bike_id":"f64f7f97-f208-4f9e-b029-0dc19800f0e1","system_id":"levelo_inurba_marseille","lat":43.28736,"lon":5.36083,"is_reserved":false,"is_disabled":false,"rental_uris":{"android":"levelo://app?vid=f64f7f97-f208-4f9e-b029-0dc19800f0e1","ios":"levelo://app?vid=f64f7f97-f208-4f9e-b029-0dc19800f0e1"},"vehicle_type_id":"4","last_reported":1741740531,"current_range_meters":12400,"station_id":"cki0cbj6b192h4jlfktg","pricing_plan_id":"cebpf4jnsgd1na2vs0mg"},{"bike_id":"64f19cfe-fa0e-49a5-a3a3-3f05a48ee894","system_id":"levelo_inurba_marseille","lat":43.29877,"lon":5.39734,"is_reserved":false,"is_disabled":false,"rental_uris":{"android":"levelo://app?vid=64f19cfe-fa0e-49a5-a3a3-3f05a48ee894","ios":"levelo://app?vid=64f19cfe-fa0e-49a5-a3a3-3f05a48ee894"},"vehicle_type_id":"4","last_reported":1741740531,"current_range_meters":12800,"station_id":"ce4bh0h2rcd13ifvqd50","pricing_plan_id":"cebpf4jnsgd1na2vs0mg"},{"bike_id":"a4a48685-89ff-40d9-8887-3bc1ac03d06f","system_id":"levelo_inurba_marseille","lat":43.31322,"lon":5.39696,"is_reserved":false,"is_disabled":false,"rental_uris":{"android":"levelo://app?vid=a4a48685-89ff-40d9-8887-3bc1ac03d06f","ios":"levelo://app?vid=a4a48685-89ff-40d9-8887-3bc1ac03d06f"},"vehicle_type_id":"4","last_reported":1741740531,"current_range_meters":12800,"station_id":"ce4bgvp2rcd13ifvqcu0","pricing_plan_id":"cebpf4jnsgd1na2vs0mg"},{"bike_id":"5c5ffe12-3ddb-4960-8a56-0acd278f18d2","system_id":"levelo_inurba_marseille","lat":43.28412,"lon":5.37522,"is_reserved":false,"is_disabled":false,"rental_uris":{"android":"levelo://app?vid=5c5ffe12-3ddb-4960-8a56-0acd278f18d2","ios":"levelo://app?vid=5c5ffe12-3ddb-4960-8a56-0acd278f18d2"},"vehicle_type_id":"4","last_reported":1741740531,"current_range_meters":12800,"station_id":"ce4bh412rcd13ifvqds0","pricing_plan_id":"cebpf4jnsgd1na2vs0mg"},{"bike_id":"8679fefc-1bde-44f4-9f91-6230b417411b","system_id":"levelo_inurba_marseille","lat":43.311156,"lon":5.377688,"is_reserved":false,"is_disabled":false,"rental_uris":{"android":"levelo://app?vid=8679fefc-1bde-44f4-9f91-6230b417411b","ios":"levelo://app?vid=8679fefc-1bde-44f4-9f91-6230b417411b"},"vehicle_type_id":"4","last_reported":1741740531,"current_range_meters":12800,"station_id":"ce4bgt92rcd13ifvqcg0","pricing_plan_id":"cebpf4jnsgd1na2vs0mg"},{"bike_id":"5317488a-5edb-4d42-8bda-9a2f0e18d100","system_id":"levelo_inurba_marseille","lat":43.26216,"lon":5.40471,"is_reserved":false,"is_disabled":false,"rental_uris":{"android":"levelo://app?vid=5317488a-5edb-4d42-8bda-9a2f0e18d100","ios":"levelo://app?vid=5317488a-5edb-4d42-8bda-9a2f0e18d100"},"vehicle_type_id":"4","last_reported":1741740531,"current_range_meters":12800,"station_id":"ce4bhmh2rcd13ifvqgmg","pricing_plan_id":"cebpf4jnsgd1na2vs0mg"},{"bike_id":"92574190-5672-42af-956f-546c757a93c5","system_id":"levelo_inurba_marseille","lat":43.29185,"lon":5.39308,"is_reserved":false,"is_disabled":false,"rental_uris":{"android":"levelo://app?vid=92574190-5672-42af-956f-546c757a93c5","ios":"levelo://app?vid=92574190-5672-42af-956f-546c757a93c5"},"vehicle_type_id":"4","last_reported":1741740531,"current_range_meters":12800,"station_id":"ce4bh192rcd13ifvqdd0","pricing_plan_id":"cebpf4jnsgd1na2vs0mg"},{"bike_id":"1ed1a68a-1459-44c6-8baf-85fcda1e78ae","system_id":"levelo_inurba_marseille","lat":43.24388,"lon":5.37057,"is_reserved":false,"is_disabled":false,"rental_uris":{"android":"levelo://app?vid=1ed1a68a-1459-44c6-8baf-85fcda1e78ae","ios":"levelo://app?vid=1ed1a68a-1459-44c6-8baf-85fcda1e78ae"},"vehicle_type_id":"4","last_reported":1741740531,"current_range_meters":13600,"station_id":"ce4bhhh2rcd13ifvqfk0","pricing_plan_id":"cebpf4jnsgd1na2vs0mg"},{"bike_id":"65ab0346-837e-4ad8-8d4d-c6c7ffee11b5","system_id":"levelo_inurba_marseille","lat":43.33373,"lon":5.39985,"is_reserved":false,"is_disabled":false,"rental_uris":{"android":"levelo://app?vid=65ab0346-837e-4ad8-8d4d-c6c7ffee11b5","ios":"levelo://app?vid=65ab0346-837e-4ad8-8d4d-c6c7ffee11b5"},"vehicle_type_id":"4","last_reported":1741740531,"current_range_meters":13600,"station_id":"","pricing_plan_id":"cebpf4jnsgd1na2vs0mg"},{"bike_id":"51bb4d06-8f06-4c81-9967-3f775de2b65e","system_id":"levelo_inurba_marseille","lat":43.24177,"lon":5.36418,"is_reserved":false,"is_disabled":false,"rental_uris":{"android":"levelo://app?vid=51bb4d06-8f06-4c81-9967-3f775de2b65e","ios":"levelo://app?vid=51bb4d06-8f06-4c81-9967-3f775de2b65e"},"vehicle_type_id":"4","last_reported":1741740531,"current_range_meters":13600,"station_id":"cpo36qri1sfpv3e86is0","pricing_plan_id":"cebpf4jnsgd1na2vs0mg"},{"bike_id":"0eecd69f-4814-4099-9308-41706ca678d7","system_id":"levelo_inurba_marseille","lat":43.29926,"lon":5.36525,"is_reserved":false,"is_disabled":false,"rental_uris":{"android":"levelo://app?vid=0eecd69f-4814-4099-9308-41706ca678d7","ios":"levelo://app?vid=0eecd69f-4814-4099-9308-41706ca678d7"},"vehicle_type_id":"4","last_reported":1741740531,"current_range_meters":13600,"station_id":"ce4bgm92rcd13ifvqbr0","pricing_plan_id":"cebpf4jnsgd1na2vs0mg"},{"bike_id":"ec5d08ce-934d-49b5-9a73-c20b44942d11","system_id":"levelo_inurba_marseille","lat":43.3146,"lon":5.37667,"is_reserved":false,"is_disabled":false,"rental_uris":{"android":"levelo://app?vid=ec5d08ce-934d-49b5-9a73-c20b44942d11","ios":"levelo://app?vid=ec5d08ce-934d-49b5-9a73-c20b44942d11"},"vehicle_type_id":"4","last_reported":1741740531,"current_range_meters":13600,"station_id":"","pricing_plan_id":"cebpf4jnsgd1na2vs0mg"},{"bike_id":"25937fb7-9dcc-40e4-8919-d293a5121ca0","system_id":"levelo_inurba_marseille","lat":43.28691,"lon":5.37876,"is_reserved":false,"is_disabled":false,"rental_uris":{"android":"levelo://app?vid=25937fb7-9dcc-40e4-8919-d293a5121ca0","ios":"levelo://app?vid=25937fb7-9dcc-40e4-8919-d293a5121ca0"},"vehicle_type_id":"4","last_reported":1741740531,"current_range_meters":13600,"station_id":"","pricing_plan_id":"cebpf4jnsgd1na2vs0mg"},{"bike_id":"3625279b-25e7-49d3-b66b-f53893cb8168","system_id":"levelo_inurba_marseille","lat":43.2979,"lon":5.39341,"is_reserved":false,"is_disabled":false,"rental_uris":{"android":"levelo://app?vid=3625279b-25e7-49d3-b66b-f53893cb8168","ios":"levelo://app?vid=3625279b-25e7-49d3-b66b-f53893cb8168"},"vehicle_type_id":"4","last_reported":1741740531,"current_range_meters":13600,"station_id":"chh1huq6cuj3fo74tm60","pricing_plan_id":"cebpf4jnsgd1na2vs0mg"},{"bike_id":"e43965ac-e7ae-4bd5-83eb-e739780c4a0c","system_id":"levelo_inurba_marseille","lat":43.298876,"lon":5.397401,"is_reserved":false,"is_disabled":false,"rental_uris":{"android":"levelo://app?vid=e43965ac-e7ae-4bd5-83eb-e739780c4a0c","ios":"levelo://app?vid=e43965ac-e7ae-4bd5-83eb-e739780c4a0c"},"vehicle_type_id":"4","last_reported":1741740531,"current_range_meters":13600,"station_id":"ce4bh0h2rcd13ifvqd50","pricing_plan_id":"cebpf4jnsgd1na2vs0mg"},{"bike_id":"94b1f88e-5cc7-4943-b5f7-3365383a6319","system_id":"levelo_inurba_marseille","lat":43.23194,"lon":5.40009,"is_reserved":false,"is_disabled":false,"rental_uris":{"android":"levelo://app?vid=94b1f88e-5cc7-4943-b5f7-3365383a6319","ios":"levelo://app?vid=94b1f88e-5cc7-4943-b5f7-3365383a6319"},"vehicle_type_id":"4","last_reported":1741740531,"current_range_meters":13600,"station_id":"ce4bhn12rcd13ifvqgqg","pricing_plan_id":"cebpf4jnsgd1na2vs0mg"},{"bike_id":"a4ce6389-69c8-41eb-a2cb-27e113df5153","system_id":"levelo_inurba_marseille","lat":43.28624,"lon":5.35094,"is_reserved":false,"is_disabled":false,"rental_uris":{"android":"levelo://app?vid=a4ce6389-69c8-41eb-a2cb-27e113df5153","ios":"levelo://app?vid=a4ce6389-69c8-41eb-a2cb-27e113df5153"},"vehicle_type_id":"4","last_reported":1741740531,"current_range_meters":14000,"station_id":"ce4bhch2rcd13ifvqeug","pricing_plan_id":"cebpf4jnsgd1na2vs0mg"},{"bike_id":"0a6985ed-b84c-4033-8e3e-05aa091718f5","system_id":"levelo_inurba_marseille","lat":43.29869,"lon":5.39726,"is_reserved":false,"is_disabled":false,"rental_uris":{"android":"levelo://app?vid=0a6985ed-b84c-4033-8e3e-05aa091718f5","ios":"levelo://app?vid=0a6985ed-b84c-4033-8e3e-05aa091718f5"},"vehicle_type_id":"4","last_reported":1741740531,"current_range_meters":14000,"station_id":"ce4bh0h2rcd13ifvqd50","pricing_plan_id":"cebpf4jnsgd1na2vs0mg"},{"bike_id":"d34c486a-1f4c-4633-aedb-8d2096ade05a","system_id":"levelo_inurba_marseille","lat":43.30794,"lon":5.43512,"is_reserved":false,"is_disabled":false,"rental_uris":{"android":"levelo://app?vid=d34c486a-1f4c-4633-aedb-8d2096ade05a","ios":"levelo://app?vid=d34c486a-1f4c-4633-aedb-8d2096ade05a"},"vehicle_type_id":"4","last_reported":1741740531,"current_range_meters":14000,"station_id":"ce4bhph2rcd13ifvqheg","pricing_plan_id":"cebpf4jnsgd1na2vs0mg"},{"bike_id":"72ef060e-701d-411b-82cc-c5cdc866782e","system_id":"levelo_inurba_marseille","lat":43.29534,"lon":5.39394,"is_reserved":false,"is_disabled":false,"rental_uris":{"android":"levelo://app?vid=72ef060e-701d-411b-82cc-c5cdc866782e","ios":"levelo://app?vid=72ef060e-701d-411b-82cc-c5cdc866782e"},"vehicle_type_id":"4","last_reported":1741740531,"current_range_meters":14000,"station_id":"ce4bh292rcd13ifvqdf0","pricing_plan_id":"cebpf4jnsgd1na2vs0mg"},{"bike_id":"650759ca-b2b7-4d25-ac4d-176e3a1808d7","system_id":"levelo_inurba_marseille","lat":43.308864,"lon":5.396466,"is_reserved":false,"is_disabled":false,"rental_uris":{"android":"levelo://app?vid=650759ca-b2b7-4d25-ac4d-176e3a1808d7","ios":"levelo://app?vid=650759ca-b2b7-4d25-ac4d-176e3a1808d7"},"vehicle_type_id":"4","last_reported":1741740531,"current_range_meters":14400,"station_id":"ce4bh012rcd13ifvqcv0","pricing_plan_id":"cebpf4jnsgd1na2vs0mg"},{"bike_id":"ff9bb893-c65e-4520-b0fc-7663b20e53c9","system_id":"levelo_inurba_marseille","lat":43.3133,"lon":5.39703,"is_reserved":false,"is_disabled":false,"rental_uris":{"android":"levelo://app?vid=ff9bb893-c65e-4520-b0fc-7663b20e53c9","ios":"levelo://app?vid=ff9bb893-c65e-4520-b0fc-7663b20e53c9"},"vehicle_type_id":"4","last_reported":1741740531,"current_range_meters":14000,"station_id":"ce4bgvp2rcd13ifvqcu0","pricing_plan_id":"cebpf4jnsgd1na2vs0mg"},{"bike_id":"03ee20f8-e9ba-4062-94fb-9c7d4ce9c7eb","system_id":"levelo_inurba_marseille","lat":43.30439,"lon":5.38895,"is_reserved":false,"is_disabled":false,"rental_uris":{"android":"levelo://app?vid=03ee20f8-e9ba-4062-94fb-9c7d4ce9c7eb","ios":"levelo://app?vid=03ee20f8-e9ba-4062-94fb-9c7d4ce9c7eb"},"vehicle_type_id":"4","last_reported":1741740531,"current_range_meters":14000,"station_id":"ce4bgk12rcd13ifvqbi0","pricing_plan_id":"cebpf4jnsgd1na2vs0mg"},{"bike_id":"0a995a9a-6122-4f4b-b298-a8b06cbca7e2","system_id":"levelo_inurba_marseille","lat":43.25021,"lon":5.38918,"is_reserved":false,"is_disabled":false,"rental_uris":{"android":"levelo://app?vid=0a995a9a-6122-4f4b-b298-a8b06cbca7e2","ios":"levelo://app?vid=0a995a9a-6122-4f4b-b298-a8b06cbca7e2"},"vehicle_type_id":"4","last_reported":1741740531,"current_range_meters":14400,"station_id":"ce4bhgp2rcd13ifvqfd0","pricing_plan_id":"cebpf4jnsgd1na2vs0mg"},{"bike_id":"5001835a-f062-4f1f-9657-2927ff12f535","system_id":"levelo_inurba_marseille","lat":43.302985,"lon":5.39207,"is_reserved":false,"is_disabled":false,"rental_uris":{"android":"levelo://app?vid=5001835a-f062-4f1f-9657-2927ff12f535","ios":"levelo://app?vid=5001835a-f062-4f1f-9657-2927ff12f535"},"vehicle_type_id":"4","last_reported":1741740531,"current_range_meters":14400,"station_id":"ce4bgkh2rcd13ifvqbk0","pricing_plan_id":"cebpf4jnsgd1na2vs0mg"},{"bike_id":"6dbc9b4a-c5a1-4dbf-a00f-5bb7462d2694","system_id":"levelo_inurba_marseille","lat":43.28094,"lon":5.39839,"is_reserved":false,"is_disabled":false,"rental_uris":{"android":"levelo://app?vid=6dbc9b4a-c5a1-4dbf-a00f-5bb7462d2694","ios":"levelo://app?vid=6dbc9b4a-c5a1-4dbf-a00f-5bb7462d2694"},"vehicle_type_id":"4","last_reported":1741740531,"current_range_meters":14400,"station_id":"","pricing_plan_id":"cebpf4jnsgd1na2vs0mg"},{"bike_id":"dcc1ab31-4eab-4a4e-a9ab-4fad30575bdb","system_id":"levelo_inurba_marseille","lat":43.3015,"lon":5.37408,"is_reserved":false,"is_disabled":true,"rental_uris":{"android":"levelo://app?vid=dcc1ab31-4eab-4a4e-a9ab-4fad30575bdb","ios":"levelo://app?vid=dcc1ab31-4eab-4a4e-a9ab-4fad30575bdb"},"vehicle_type_id":"4","last_reported":1741740531,"current_range_meters":14400,"station_id":"ce4bgs92rcd13ifvqcc0","pricing_plan_id":"cebpf4jnsgd1na2vs0mg"},{"bike_id":"2f8ecfaf-2a87-4f10-80ec-10a7eb94a1da","system_id":"levelo_inurba_marseille","lat":43.31541,"lon":5.38002,"is_reserved":false,"is_disabled":false,"rental_uris":{"android":"levelo://app?vid=2f8ecfaf-2a87-4f10-80ec-10a7eb94a1da","ios":"levelo://app?vid=2f8ecfaf-2a87-4f10-80ec-10a7eb94a1da"},"vehicle_type_id":"4","last_reported":1741740531,"current_range_meters":14400,"station_id":"ce4bhsp2rcd13ifvqi50","pricing_plan_id":"cebpf4jnsgd1na2vs0mg"},{"bike_id":"b44022d5-a3c8-45f9-9984-eaba76929c7b","system_id":"levelo_inurba_marseille","lat":43.278128,"lon":5.407229,"is_reserved":false,"is_disabled":false,"rental_uris":{"android":"levelo://app?vid=b44022d5-a3c8-45f9-9984-eaba76929c7b","ios":"levelo://app?vid=b44022d5-a3c8-45f9-9984-eaba76929c7b"},"vehicle_type_id":"4","last_reported":1741740531,"current_range_meters":14400,"station_id":"ce4bhnh2rcd13ifvqgtg","pricing_plan_id":"cebpf4jnsgd1na2vs0mg"},{"bike_id":"1c01fe38-675a-4c3e-b644-6a5a34f3201c","system_id":"levelo_inurba_marseille","lat":43.28452,"lon":5.35888,"is_reserved":false,"is_disabled":false,"rental_uris":{"android":"levelo://app?vid=1c01fe38-675a-4c3e-b644-6a5a34f3201c","ios":"levelo://app?vid=1c01fe38-675a-4c3e-b644-6a5a34f3201c"},"vehicle_type_id":"4","last_reported":1741740531,"current_range_meters":14400,"station_id":"ce4bhah2rcd13ifvqei0","pricing_plan_id":"cebpf4jnsgd1na2vs0mg"},{"bike_id":"45345445-a78a-493f-a730-c619602e3241","system_id":"levelo_inurba_marseille","lat":43.25607,"lon":5.3855,"is_reserved":false,"is_disabled":false,"rental_uris":{"android":"levelo://app?vid=45345445-a78a-493f-a730-c619602e3241","ios":"levelo://app?vid=45345445-a78a-493f-a730-c619602e3241"},"vehicle_type_id":"4","last_reported":1741740531,"current_range_meters":14400,"station_id":"","pricing_plan_id":"cebpf4jnsgd1na2vs0mg"},{"bike_id":"dd153a6c-747c-417a-b9f0-af3a21bc6ff5","system_id":"levelo_inurba_marseille","lat":43.30294,"lon":5.39199,"is_reserved":false,"is_disabled":false,"rental_uris":{"android":"levelo://app?vid=dd153a6c-747c-417a-b9f0-af3a21bc6ff5","ios":"levelo://app?vid=dd153a6c-747c-417a-b9f0-af3a21bc6ff5"},"vehicle_type_id":"4","last_reported":1741740531,"current_range_meters":14800,"station_id":"ce4bgkh2rcd13ifvqbk0","pricing_plan_id":"cebpf4jnsgd1na2vs0mg"},{"bike_id":"08f34757-7587-43ff-ba1a-0b5407084b2c","system_id":"levelo_inurba_marseille","lat":43.3026,"lon":5.40064,"is_reserved":false,"is_disabled":false,"rental_uris":{"android":"levelo://app?vid=08f34757-7587-43ff-ba1a-0b5407084b2c","ios":"levelo://app?vid=08f34757-7587-43ff-ba1a-0b5407084b2c"},"vehicle_type_id":"4","last_reported":1741740531,"current_range_meters":14800,"station_id":"ce4bgvh2rcd13ifvqcs0","pricing_plan_id":"cebpf4jnsgd1na2vs0mg"},{"bike_id":"8c80fec3-0ced-456e-afb4-12e117658f5c","system_id":"levelo_inurba_marseille","lat":43.29874,"lon":5.38906,"is_reserved":false,"is_disabled":false,"rental_uris":{"android":"levelo://app?vid=8c80fec3-0ced-456e-afb4-12e117658f5c","ios":"levelo://app?vid=8c80fec3-0ced-456e-afb4-12e117658f5c"},"vehicle_type_id":"4","last_reported":1741740531,"current_range_meters":14800,"station_id":"ce4bh392rcd13ifvqdl0","pricing_plan_id":"cebpf4jnsgd1na2vs0mg"},{"bike_id":"cb2e12cc-fc61-45c5-8187-32dd51aea61e","system_id":"levelo_inurba_marseille","lat":43.2509,"lon":5.39524,"is_reserved":false,"is_disabled":false,"rental_uris":{"android":"levelo://app?vid=cb2e12cc-fc61-45c5-8187-32dd51aea61e","ios":"levelo://app?vid=cb2e12cc-fc61-45c5-8187-32dd51aea61e"},"vehicle_type_id":"4","last_reported":1741740531,"current_range_meters":14800,"station_id":"ce4bhm12rcd13ifvqgkg","pricing_plan_id":"cebpf4jnsgd1na2vs0mg"},{"bike_id":"185dd92f-5ca3-4784-9453-5f8185d1714c","system_id":"levelo_inurba_marseille","lat":43.3132,"lon":5.39687,"is_reserved":false,"is_disabled":false,"rental_uris":{"android":"levelo://app?vid=185dd92f-5ca3-4784-9453-5f8185d1714c","ios":"levelo://app?vid=185dd92f-5ca3-4784-9453-5f8185d1714c"},"vehicle_type_id":"4","last_reported":1741740531,"current_range_meters":14800,"station_id":"ce4bgvp2rcd13ifvqcu0","pricing_plan_id":"cebpf4jnsgd1na2vs0mg"},{"bike_id":"200c1668-b403-444f-a98b-38324d934d8b","system_id":"levelo_inurba_marseille","lat":43.31541,"lon":5.37999,"is_reserved":false,"is_disabled":false,"rental_uris":{"android":"levelo://app?vid=200c1668-b403-444f-a98b-38324d934d8b","ios":"levelo://app?vid=200c1668-b403-444f-a98b-38324d934d8b"},"vehicle_type_id":"4","last_reported":1741740531,"current_range_meters":14800,"station_id":"ce4bhsp2rcd13ifvqi50","pricing_plan_id":"cebpf4jnsgd1na2vs0mg"},{"bike_id":"bd4f393d-c78e-4515-afb5-df2dec73c5d0","system_id":"levelo_inurba_marseille","lat":43.305402,"lon":5.365407,"is_reserved":false,"is_disabled":false,"rental_uris":{"android":"levelo://app?vid=bd4f393d-c78e-4515-afb5-df2dec73c5d0","ios":"levelo://app?vid=bd4f393d-c78e-4515-afb5-df2dec73c5d0"},"vehicle_type_id":"4","last_reported":1741740531,"current_range_meters":14800,"station_id":"ce4bgs12rcd13ifvqcag","pricing_plan_id":"cebpf4jnsgd1na2vs0mg"},{"bike_id":"90c19d0c-ef69-4351-973f-1f233f8cc14d","system_id":"levelo_inurba_marseille","lat":43.279907,"lon":5.416629,"is_reserved":false,"is_disabled":false,"rental_uris":{"android":"levelo://app?vid=90c19d0c-ef69-4351-973f-1f233f8cc14d","ios":"levelo://app?vid=90c19d0c-ef69-4351-973f-1f233f8cc14d"},"vehicle_type_id":"4","last_reported":1741740531,"current_range_meters":15200,"station_id":"ce4bho12rcd13ifvqh1g","pricing_plan_id":"cebpf4jnsgd1na2vs0mg"},{"bike_id":"fb55f9d1-18dc-4569-919c-3c5a2e705317","system_id":"levelo_inurba_marseille","lat":43.32485,"lon":5.36601,"is_reserved":false,"is_disabled":false,"rental_uris":{"android":"levelo://app?vid=fb55f9d1-18dc-4569-919c-3c5a2e705317","ios":"levelo://app?vid=fb55f9d1-18dc-4569-919c-3c5a2e705317"},"vehicle_type_id":"4","last_reported":1741740531,"current_range_meters":15200,"station_id":"ce4bhs12rcd13ifvqhvg","pricing_plan_id":"cebpf4jnsgd1na2vs0mg"},{"bike_id":"070482fa-08e5-4c92-86a2-963e7a8b42c4","system_id":"levelo_inurba_marseille","lat":43.31073,"lon":5.38356,"is_reserved":false,"is_disabled":false,"rental_uris":{"android":"levelo://app?vid=070482fa-08e5-4c92-86a2-963e7a8b42c4","ios":"levelo://app?vid=070482fa-08e5-4c92-86a2-963e7a8b42c4"},"vehicle_type_id":"4","last_reported":1741740531,"current_range_meters":15200,"station_id":"ce4bgv92rcd13ifvqcr0","pricing_plan_id":"cebpf4jnsgd1na2vs0mg"},{"bike_id":"26094f51-add7-49b6-a571-d06192a82129","system_id":"levelo_inurba_marseille","lat":43.28419,"lon":5.34964,"is_reserved":false,"is_disabled":false,"rental_uris":{"android":"levelo://app?vid=26094f51-add7-49b6-a571-d06192a82129","ios":"levelo://app?vid=26094f51-add7-49b6-a571-d06192a82129"},"vehicle_type_id":"4","last_reported":1741740531,"current_range_meters":15200,"station_id":"ce4bhbh2rcd13ifvqepg","pricing_plan_id":"cebpf4jnsgd1na2vs0mg"},{"bike_id":"bc37931e-6cb1-4309-b727-49bc8606128d","system_id":"levelo_inurba_marseille","lat":43.25575,"lon":5.38237,"is_reserved":false,"is_disabled":false,"rental_uris":{"android":"levelo://app?vid=bc37931e-6cb1-4309-b727-49bc8606128d","ios":"levelo://app?vid=bc37931e-6cb1-4309-b727-49bc8606128d"},"vehicle_type_id":"4","last_reported":1741740531,"current_range_meters":16000,"station_id":"ce4bhih2rcd13ifvqfs0","pricing_plan_id":"cebpf4jnsgd1na2vs0mg"},{"bike_id":"c7ba3a1f-e796-485e-b043-dfa30283a58d","system_id":"levelo_inurba_marseille","lat":43.28466,"lon":5.35886,"is_reserved":false,"is_disabled":false,"rental_uris":{"android":"levelo://app?vid=c7ba3a1f-e796-485e-b043-dfa30283a58d","ios":"levelo://app?vid=c7ba3a1f-e796-485e-b043-dfa30283a58d"},"vehicle_type_id":"4","last_reported":1741740531,"current_range_meters":16000,"station_id":"ce4bhah2rcd13ifvqei0","pricing_plan_id":"cebpf4jnsgd1na2vs0mg"},{"bike_id":"2292d452-080d-44d7-bf0a-d0e9cf6f1d25","system_id":"levelo_inurba_marseille","lat":43.27993,"lon":5.40027,"is_reserved":false,"is_disabled":false,"rental_uris":{"android":"levelo://app?vid=2292d452-080d-44d7-bf0a-d0e9cf6f1d25","ios":"levelo://app?vid=2292d452-080d-44d7-bf0a-d0e9cf6f1d25"},"vehicle_type_id":"4","last_reported":1741740531,"current_range_meters":16000,"station_id":"ce4bho92rcd13ifvqh4g","pricing_plan_id":"cebpf4jnsgd1na2vs0mg"},{"bike_id":"75491172-ce32-4687-b51d-86c400ad53c1","system_id":"levelo_inurba_marseille","lat":43.28614,"lon":5.35105,"is_reserved":false,"is_disabled":false,"rental_uris":{"android":"levelo://app?vid=75491172-ce32-4687-b51d-86c400ad53c1","ios":"levelo://app?vid=75491172-ce32-4687-b51d-86c400ad53c1"},"vehicle_type_id":"4","last_reported":1741740531,"current_range_meters":16000,"station_id":"ce4bhch2rcd13ifvqeug","pricing_plan_id":"cebpf4jnsgd1na2vs0mg"},{"bike_id":"a6eae47d-d54f-4268-999c-afd97cccda57","system_id":"levelo_inurba_marseille","lat":43.303105,"lon":5.404455,"is_reserved":false,"is_disabled":false,"rental_uris":{"android":"levelo://app?vid=a6eae47d-d54f-4268-999c-afd97cccda57","ios":"levelo://app?vid=a6eae47d-d54f-4268-999c-afd97cccda57"},"vehicle_type_id":"4","last_reported":1741740531,"current_range_meters":16000,"station_id":"ce4bh012rcd13ifvqd10","pricing_plan_id":"cebpf4jnsgd1na2vs0mg"},{"bike_id":"3c064ea7-786f-4dae-aefa-124ae3f3490a","system_id":"levelo_inurba_marseille","lat":43.28405,"lon":5.37519,"is_reserved":false,"is_disabled":false,"rental_uris":{"android":"levelo://app?vid=3c064ea7-786f-4dae-aefa-124ae3f3490a","ios":"levelo://app?vid=3c064ea7-786f-4dae-aefa-124ae3f3490a"},"vehicle_type_id":"4","last_reported":1741740531,"current_range_meters":16000,"station_id":"ce4bh412rcd13ifvqds0","pricing_plan_id":"cebpf4jnsgd1na2vs0mg"},{"bike_id":"507abd02-8c10-470e-b802-dadd3ef21f5c","system_id":"levelo_inurba_marseille","lat":43.28079,"lon":5.39643,"is_reserved":false,"is_disabled":false,"rental_uris":{"android":"levelo://app?vid=507abd02-8c10-470e-b802-dadd3ef21f5c","ios":"levelo://app?vid=507abd02-8c10-470e-b802-dadd3ef21f5c"},"vehicle_type_id":"4","last_reported":1741740531,"current_range_meters":16000,"station_id":"ce4bho12rcd13ifvqh2g","pricing_plan_id":"cebpf4jnsgd1na2vs0mg"},{"bike_id":"d22081e9-52c1-4ded-b6da-bade3b935ab2","system_id":"levelo_inurba_marseille","lat":43.26543,"lon":5.37305,"is_reserved":false,"is_disabled":false,"rental_uris":{"android":"levelo://app?vid=d22081e9-52c1-4ded-b6da-bade3b935ab2","ios":"levelo://app?vid=d22081e9-52c1-4ded-b6da-bade3b935ab2"},"vehicle_type_id":"4","last_reported":1741740531,"current_range_meters":16000,"station_id":"ce4bhg12rcd13ifvqf70","pricing_plan_id":"cebpf4jnsgd1na2vs0mg"},{"bike_id":"a5502eed-dac4-4ea9-87e0-fe659cec6f6c","system_id":"levelo_inurba_marseille","lat":43.30549,"lon":5.3653,"is_reserved":false,"is_disabled":true,"rental_uris":{"android":"levelo://app?vid=a5502eed-dac4-4ea9-87e0-fe659cec6f6c","ios":"levelo://app?vid=a5502eed-dac4-4ea9-87e0-fe659cec6f6c"},"vehicle_type_id":"4","last_reported":1741740531,"current_range_meters":16000,"station_id":"ce4bgs12rcd13ifvqcag","pricing_plan_id":"cebpf4jnsgd1na2vs0mg"},{"bike_id":"eb1ba1b6-2e87-45ed-8cf3-925b9709627f","system_id":"levelo_inurba_marseille","lat":43.29353,"lon":5.39281,"is_reserved":false,"is_disabled":false,"rental_uris":{"android":"levelo://app?vid=eb1ba1b6-2e87-45ed-8cf3-925b9709627f","ios":"levelo://app?vid=eb1ba1b6-2e87-45ed-8cf3-925b9709627f"},"vehicle_type_id":"4","last_reported":1741740531,"current_range_meters":16400,"station_id":"ce4bh3p2rcd13ifvqdp0","pricing_plan_id":"cebpf4jnsgd1na2vs0mg"},{"bike_id":"f21ed247-8aac-4e46-b1ff-04c532241b5e","system_id":"levelo_inurba_marseille","lat":43.28854,"lon":5.35842,"is_reserved":false,"is_disabled":false,"rental_uris":{"android":"levelo://app?vid=f21ed247-8aac-4e46-b1ff-04c532241b5e","ios":"levelo://app?vid=f21ed247-8aac-4e46-b1ff-04c532241b5e"},"vehicle_type_id":"4","last_reported":1741740531,"current_range_meters":16400,"station_id":"ce4bhb12rcd13ifvqem0","pricing_plan_id":"cebpf4jnsgd1na2vs0mg"},{"bike_id":"3f68a372-cf2e-46ed-acb9-c395b0b783e3","system_id":"levelo_inurba_marseille","lat":43.32353,"lon":5.38274,"is_reserved":false,"is_disabled":false,"rental_uris":{"android":"levelo://app?vid=3f68a372-cf2e-46ed-acb9-c395b0b783e3","ios":"levelo://app?vid=3f68a372-cf2e-46ed-acb9-c395b0b783e3"},"vehicle_type_id":"4","last_reported":1741740531,"current_range_meters":16400,"station_id":"ce4bhr12rcd13ifvqhqg","pricing_plan_id":"cebpf4jnsgd1na2vs0mg"},{"bike_id":"e7e88df6-f1ca-46bb-bd71-ae3d4a6f7eeb","system_id":"levelo_inurba_marseille","lat":43.29936,"lon":5.37467,"is_reserved":false,"is_disabled":false,"rental_uris":{"android":"levelo://app?vid=e7e88df6-f1ca-46bb-bd71-ae3d4a6f7eeb","ios":"levelo://app?vid=e7e88df6-f1ca-46bb-bd71-ae3d4a6f7eeb"},"vehicle_type_id":"4","last_reported":1741740531,"current_range_meters":16400,"station_id":"ce4bgjh2rcd13ifvqbg0","pricing_plan_id":"cebpf4jnsgd1na2vs0mg"},{"bike_id":"e0718395-0e2e-4a7a-a474-5a05d3f79c13","system_id":"levelo_inurba_marseille","lat":43.28426,"lon":5.37547,"is_reserved":false,"is_disabled":false,"rental_uris":{"android":"levelo://app?vid=e0718395-0e2e-4a7a-a474-5a05d3f79c13","ios":"levelo://app?vid=e0718395-0e2e-4a7a-a474-5a05d3f79c13"},"vehicle_type_id":"4","last_reported":1741740531,"current_range_meters":16400,"station_id":"ce4bh412rcd13ifvqds0","pricing_plan_id":"cebpf4jnsgd1na2vs0mg"},{"bike_id":"47000039-4034-4ec5-a69e-eabf345d8859","system_id":"levelo_inurba_marseille","lat":43.27947,"lon":5.41041,"is_reserved":false,"is_disabled":false,"rental_uris":{"android":"levelo://app?vid=47000039-4034-4ec5-a69e-eabf345d8859","ios":"levelo://app?vid=47000039-4034-4ec5-a69e-eabf345d8859"},"vehicle_type_id":"4","last_reported":1741740531,"current_range_meters":16400,"station_id":"ce4bhnp2rcd13ifvqh0g","pricing_plan_id":"cebpf4jnsgd1na2vs0mg"},{"bike_id":"4c607265-c996-4d9b-81fd-daa80dd99e32","system_id":"levelo_inurba_marseille","lat":43.28782,"lon":5.38427,"is_reserved":false,"is_disabled":false,"rental_uris":{"android":"levelo://app?vid=4c607265-c996-4d9b-81fd-daa80dd99e32","ios":"levelo://app?vid=4c607265-c996-4d9b-81fd-daa80dd99e32"},"vehicle_type_id":"4","last_reported":1741740531,"current_range_meters":16400,"station_id":"","pricing_plan_id":"cebpf4jnsgd1na2vs0mg"},{"bike_id":"8cb98100-8339-480d-872a-e2c4b7cea00c","system_id":"levelo_inurba_marseille","lat":43.28098,"lon":5.39859,"is_reserved":false,"is_disabled":false,"rental_uris":{"android":"levelo://app?vid=8cb98100-8339-480d-872a-e2c4b7cea00c","ios":"levelo://app?vid=8cb98100-8339-480d-872a-e2c4b7cea00c"},"vehicle_type_id":"4","last_reported":1741740531,"current_range_meters":16400,"station_id":"","pricing_plan_id":"cebpf4jnsgd1na2vs0mg"},{"bike_id":"633047bc-fa74-400a-9960-59c8644c8efa","system_id":"levelo_inurba_marseille","lat":43.25112,"lon":5.40333,"is_reserved":false,"is_disabled":false,"rental_uris":{"android":"levelo://app?vid=633047bc-fa74-400a-9960-59c8644c8efa","ios":"levelo://app?vid=633047bc-fa74-400a-9960-59c8644c8efa"},"vehicle_type_id":"4","last_reported":1741740531,"current_range_meters":16400,"station_id":"ce4bhlh2rcd13ifvqgig","pricing_plan_id":"cebpf4jnsgd1na2vs0mg"},{"bike_id":"da6524f2-f16e-4803-b1a9-e95c2bfa1c00","system_id":"levelo_inurba_marseille","lat":43.31494,"lon":5.37298,"is_reserved":false,"is_disabled":false,"rental_uris":{"android":"levelo://app?vid=da6524f2-f16e-4803-b1a9-e95c2bfa1c00","ios":"levelo://app?vid=da6524f2-f16e-4803-b1a9-e95c2bfa1c00"},"vehicle_type_id":"4","last_reported":1741740531,"current_range_meters":16400,"station_id":"ce4bgt12rcd13ifvqcd0","pricing_plan_id":"cebpf4jnsgd1na2vs0mg"},{"bike_id":"6788ac72-97ba-4670-850c-82f03a027689","system_id":"levelo_inurba_marseille","lat":43.2509,"lon":5.39519,"is_reserved":false,"is_disabled":false,"rental_uris":{"android":"levelo://app?vid=6788ac72-97ba-4670-850c-82f03a027689","ios":"levelo://app?vid=6788ac72-97ba-4670-850c-82f03a027689"},"vehicle_type_id":"4","last_reported":1741740531,"current_range_meters":16400,"station_id":"ce4bhm12rcd13ifvqgkg","pricing_plan_id":"cebpf4jnsgd1na2vs0mg"},{"bike_id":"5098b74d-30cd-48d2-995b-36cd20bb0411","system_id":"levelo_inurba_marseille","lat":43.2782,"lon":5.40725,"is_reserved":false,"is_disabled":false,"rental_uris":{"android":"levelo://app?vid=5098b74d-30cd-48d2-995b-36cd20bb0411","ios":"levelo://app?vid=5098b74d-30cd-48d2-995b-36cd20bb0411"},"vehicle_type_id":"4","last_reported":1741740531,"current_range_meters":16800,"station_id":"ce4bhnh2rcd13ifvqgtg","pricing_plan_id":"cebpf4jnsgd1na2vs0mg"},{"bike_id":"6f4c9526-e882-40d0-bbc5-c3775986ec76","system_id":"levelo_inurba_marseille","lat":43.24069,"lon":5.3776,"is_reserved":false,"is_disabled":false,"rental_uris":{"android":"levelo://app?vid=6f4c9526-e882-40d0-bbc5-c3775986ec76","ios":"levelo://app?vid=6f4c9526-e882-40d0-bbc5-c3775986ec76"},"vehicle_type_id":"4","last_reported":1741740531,"current_range_meters":16800,"station_id":"ce4bhnp2rcd13ifvqgvg","pricing_plan_id":"cebpf4jnsgd1na2vs0mg"},{"bike_id":"460a645a-9708-478c-880d-e7ab23e7b60e","system_id":"levelo_inurba_marseille","lat":43.298,"lon":5.38101,"is_reserved":false,"is_disabled":false,"rental_uris":{"android":"levelo://app?vid=460a645a-9708-478c-880d-e7ab23e7b60e","ios":"levelo://app?vid=460a645a-9708-478c-880d-e7ab23e7b60e"},"vehicle_type_id":"4","last_reported":1741740531,"current_range_meters":16800,"station_id":"ce4bgip2rcd13ifvqbb0","pricing_plan_id":"cebpf4jnsgd1na2vs0mg"},{"bike_id":"8f9b40e6-3022-4d5a-81fb-521deed6b1c4","system_id":"levelo_inurba_marseille","lat":43.31332,"lon":5.397,"is_reserved":false,"is_disabled":false,"rental_uris":{"android":"levelo://app?vid=8f9b40e6-3022-4d5a-81fb-521deed6b1c4","ios":"levelo://app?vid=8f9b40e6-3022-4d5a-81fb-521deed6b1c4"},"vehicle_type_id":"4","last_reported":1741740531,"current_range_meters":16800,"station_id":"ce4bgvp2rcd13ifvqcu0","pricing_plan_id":"cebpf4jnsgd1na2vs0mg"},{"bike_id":"75b57c73-f61d-43f4-b4e7-af7a50dc2f3d","system_id":"levelo_inurba_marseille","lat":43.29874,"lon":5.38908,"is_reserved":false,"is_disabled":false,"rental_uris":{"android":"levelo://app?vid=75b57c73-f61d-43f4-b4e7-af7a50dc2f3d","ios":"levelo://app?vid=75b57c73-f61d-43f4-b4e7-af7a50dc2f3d"},"vehicle_type_id":"4","last_reported":1741740531,"current_range_meters":16800,"station_id":"ce4bh392rcd13ifvqdl0","pricing_plan_id":"cebpf4jnsgd1na2vs0mg"},{"bike_id":"9582fe28-f1d6-4bd6-9ab7-3c2f8c3be60b","system_id":"levelo_inurba_marseille","lat":43.286958,"lon":5.374003,"is_reserved":false,"is_disabled":false,"rental_uris":{"android":"levelo://app?vid=9582fe28-f1d6-4bd6-9ab7-3c2f8c3be60b","ios":"levelo://app?vid=9582fe28-f1d6-4bd6-9ab7-3c2f8c3be60b"},"vehicle_type_id":"4","last_reported":1741740531,"current_range_meters":16800,"station_id":"ce4bh3p2rcd13ifvqdq0","pricing_plan_id":"cebpf4jnsgd1na2vs0mg"},{"bike_id":"868f56a8-092f-4fb5-97a5-fed5075995ad","system_id":"levelo_inurba_marseille","lat":43.28448,"lon":5.39191,"is_reserved":false,"is_disabled":false,"rental_uris":{"android":"levelo://app?vid=868f56a8-092f-4fb5-97a5-fed5075995ad","ios":"levelo://app?vid=868f56a8-092f-4fb5-97a5-fed5075995ad"},"vehicle_type_id":"4","last_reported":1741740531,"current_range_meters":16800,"station_id":"ce4bhoh2rcd13ifvqh5g","pricing_plan_id":"cebpf4jnsgd1na2vs0mg"},{"bike_id":"d3ac1ba6-6349-4d47-99e4-9f85d3ef1aa5","system_id":"levelo_inurba_marseille","lat":43.28497,"lon":5.36873,"is_reserved":false,"is_disabled":false,"rental_uris":{"android":"levelo://app?vid=d3ac1ba6-6349-4d47-99e4-9f85d3ef1aa5","ios":"levelo://app?vid=d3ac1ba6-6349-4d47-99e4-9f85d3ef1aa5"},"vehicle_type_id":"4","last_reported":1741740531,"current_range_meters":17200,"station_id":"","pricing_plan_id":"cebpf4jnsgd1na2vs0mg"},{"bike_id":"f25e917e-90a7-41ae-b274-659ef20e923e","system_id":"levelo_inurba_marseille","lat":43.31114,"lon":5.37778,"is_reserved":false,"is_disabled":false,"rental_uris":{"android":"levelo://app?vid=f25e917e-90a7-41ae-b274-659ef20e923e","ios":"levelo://app?vid=f25e917e-90a7-41ae-b274-659ef20e923e"},"vehicle_type_id":"4","last_reported":1741740531,"current_range_meters":17200,"station_id":"ce4bgt92rcd13ifvqcg0","pricing_plan_id":"cebpf4jnsgd1na2vs0mg"},{"bike_id":"5e36b6b8-6e77-45ed-9597-025342e46c0b","system_id":"levelo_inurba_marseille","lat":43.25499,"lon":5.37651,"is_reserved":false,"is_disabled":false,"rental_uris":{"android":"levelo://app?vid=5e36b6b8-6e77-45ed-9597-025342e46c0b","ios":"levelo://app?vid=5e36b6b8-6e77-45ed-9597-025342e46c0b"},"vehicle_type_id":"4","last_reported":1741740531,"current_range_meters":17200,"station_id":"ce4bhh12rcd13ifvqff0","pricing_plan_id":"cebpf4jnsgd1na2vs0mg"},{"bike_id":"36b29f5f-334f-4f9c-ac09-792384643ad2","system_id":"levelo_inurba_marseille","lat":43.30885,"lon":5.39628,"is_reserved":false,"is_disabled":false,"rental_uris":{"android":"levelo://app?vid=36b29f5f-334f-4f9c-ac09-792384643ad2","ios":"levelo://app?vid=36b29f5f-334f-4f9c-ac09-792384643ad2"},"vehicle_type_id":"4","last_reported":1741740531,"current_range_meters":17200,"station_id":"ce4bh012rcd13ifvqcv0","pricing_plan_id":"cebpf4jnsgd1na2vs0mg"},{"bike_id":"86394c4c-de42-4a92-abd3-69db83f47f6e","system_id":"levelo_inurba_marseille","lat":43.28702,"lon":5.37393,"is_reserved":false,"is_disabled":false,"rental_uris":{"android":"levelo://app?vid=86394c4c-de42-4a92-abd3-69db83f47f6e","ios":"levelo://app?vid=86394c4c-de42-4a92-abd3-69db83f47f6e"},"vehicle_type_id":"4","last_reported":1741740531,"current_range_meters":17200,"station_id":"ce4bh3p2rcd13ifvqdq0","pricing_plan_id":"cebpf4jnsgd1na2vs0mg"},{"bike_id":"d1a4bc6a-254f-475e-a802-bb168c37ebc9","system_id":"levelo_inurba_marseille","lat":43.28851,"lon":5.3586,"is_reserved":false,"is_disabled":false,"rental_uris":{"android":"levelo://app?vid=d1a4bc6a-254f-475e-a802-bb168c37ebc9","ios":"levelo://app?vid=d1a4bc6a-254f-475e-a802-bb168c37ebc9"},"vehicle_type_id":"4","last_reported":1741740531,"current_range_meters":17200,"station_id":"ce4bhb12rcd13ifvqem0","pricing_plan_id":"cebpf4jnsgd1na2vs0mg"},{"bike_id":"824822a6-4f18-4999-a206-69f8e174637e","system_id":"levelo_inurba_marseille","lat":43.29711,"lon":5.36606,"is_reserved":false,"is_disabled":false,"rental_uris":{"android":"levelo://app?vid=824822a6-4f18-4999-a206-69f8e174637e","ios":"levelo://app?vid=824822a6-4f18-4999-a206-69f8e174637e"},"vehicle_type_id":"4","last_reported":1741740531,"current_range_meters":17200,"station_id":"ce4bgn12rcd13ifvqbt0","pricing_plan_id":"cebpf4jnsgd1na2vs0mg"},{"bike_id":"60989bcd-879d-4d5a-9853-63001bd03b4b","system_id":"levelo_inurba_marseille","lat":43.28039,"lon":5.36937,"is_reserved":false,"is_disabled":false,"rental_uris":{"android":"levelo://app?vid=60989bcd-879d-4d5a-9853-63001bd03b4b","ios":"levelo://app?vid=60989bcd-879d-4d5a-9853-63001bd03b4b"},"vehicle_type_id":"4","last_reported":1741740531,"current_range_meters":17200,"station_id":"ce4bha12rcd13ifvqef0","pricing_plan_id":"cebpf4jnsgd1na2vs0mg"},{"bike_id":"9ee3b534-911c-448d-bb36-2434c5536575","system_id":"levelo_inurba_marseille","lat":43.24566,"lon":5.39537,"is_reserved":false,"is_disabled":false,"rental_uris":{"android":"levelo://app?vid=9ee3b534-911c-448d-bb36-2434c5536575","ios":"levelo://app?vid=9ee3b534-911c-448d-bb36-2434c5536575"},"vehicle_type_id":"4","last_reported":1741740531,"current_range_meters":17600,"station_id":"ce4bhlp2rcd13ifvqgjg","pricing_plan_id":"cebpf4jnsgd1na2vs0mg"},{"bike_id":"5e010522-ee63-447e-9bd0-e4572fe6d490","system_id":"levelo_inurba_marseille","lat":43.29597,"lon":5.36921,"is_reserved":false,"is_disabled":false,"rental_uris":{"android":"levelo://app?vid=5e010522-ee63-447e-9bd0-e4572fe6d490","ios":"levelo://app?vid=5e010522-ee63-447e-9bd0-e4572fe6d490"},"vehicle_type_id":"4","last_reported":1741740531,"current_range_meters":17600,"station_id":"","pricing_plan_id":"cebpf4jnsgd1na2vs0mg"},{"bike_id":"9751c831-7708-47fb-9ff2-8b6a1b38c4d7","system_id":"levelo_inurba_marseille","lat":43.25855,"lon":5.39908,"is_reserved":false,"is_disabled":false,"rental_uris":{"android":"levelo://app?vid=9751c831-7708-47fb-9ff2-8b6a1b38c4d7","ios":"levelo://app?vid=9751c831-7708-47fb-9ff2-8b6a1b38c4d7"},"vehicle_type_id":"4","last_reported":1741740531,"current_range_meters":17600,"station_id":"ce4bhl92rcd13ifvqghg","pricing_plan_id":"cebpf4jnsgd1na2vs0mg"},{"bike_id":"767777a5-da95-40bd-8eee-9ed105870134","system_id":"levelo_inurba_marseille","lat":43.30552,"lon":5.372,"is_reserved":false,"is_disabled":false,"rental_uris":{"android":"levelo://app?vid=767777a5-da95-40bd-8eee-9ed105870134","ios":"levelo://app?vid=767777a5-da95-40bd-8eee-9ed105870134"},"vehicle_type_id":"4","last_reported":1741740531,"current_range_meters":17600,"station_id":"ce4bgqh2rcd13ifvqc4g","pricing_plan_id":"cebpf4jnsgd1na2vs0mg"},{"bike_id":"40f01558-976f-40a5-a87f-d967d7fcf512","system_id":"levelo_inurba_marseille","lat":43.2919,"lon":5.39311,"is_reserved":false,"is_disabled":false,"rental_uris":{"android":"levelo://app?vid=40f01558-976f-40a5-a87f-d967d7fcf512","ios":"levelo://app?vid=40f01558-976f-40a5-a87f-d967d7fcf512"},"vehicle_type_id":"4","last_reported":1741740531,"current_range_meters":18000,"station_id":"ce4bh192rcd13ifvqdd0","pricing_plan_id":"cebpf4jnsgd1na2vs0mg"},{"bike_id":"635cf8b9-5c45-49cb-883c-596bc1b85a9e","system_id":"levelo_inurba_marseille","lat":43.2873,"lon":5.3793,"is_reserved":false,"is_disabled":false,"rental_uris":{"android":"levelo://app?vid=635cf8b9-5c45-49cb-883c-596bc1b85a9e","ios":"levelo://app?vid=635cf8b9-5c45-49cb-883c-596bc1b85a9e"},"vehicle_type_id":"4","last_reported":1741740531,"current_range_meters":18000,"station_id":"ce4bh9p2rcd13ifvqec0","pricing_plan_id":"cebpf4jnsgd1na2vs0mg"},{"bike_id":"b479f388-c785-4947-8169-e12f78c8d169","system_id":"levelo_inurba_marseille","lat":43.23186,"lon":5.3998,"is_reserved":false,"is_disabled":false,"rental_uris":{"android":"levelo://app?vid=b479f388-c785-4947-8169-e12f78c8d169","ios":"levelo://app?vid=b479f388-c785-4947-8169-e12f78c8d169"},"vehicle_type_id":"4","last_reported":1741740531,"current_range_meters":18000,"station_id":"ce4bhn12rcd13ifvqgqg","pricing_plan_id":"cebpf4jnsgd1na2vs0mg"},{"bike_id":"99461914-1cf4-49f8-9004-31bbab81a716","system_id":"levelo_inurba_marseille","lat":43.29527,"lon":5.39047,"is_reserved":false,"is_disabled":false,"rental_uris":{"android":"levelo://app?vid=99461914-1cf4-49f8-9004-31bbab81a716","ios":"levelo://app?vid=99461914-1cf4-49f8-9004-31bbab81a716"},"vehicle_type_id":"4","last_reported":1741740531,"current_range_meters":18000,"station_id":"ce4bh3p2rcd13ifvqdp0","pricing_plan_id":"cebpf4jnsgd1na2vs0mg"},{"bike_id":"d1235ce3-1007-4d2d-9e28-ea39398a63a8","system_id":"levelo_inurba_marseille","lat":43.23204,"lon":5.35547,"is_reserved":false,"is_disabled":false,"rental_uris":{"android":"levelo://app?vid=d1235ce3-1007-4d2d-9e28-ea39398a63a8","ios":"levelo://app?vid=d1235ce3-1007-4d2d-9e28-ea39398a63a8"},"vehicle_type_id":"4","last_reported":1741740531,"current_range_meters":18000,"station_id":"ce4bhu92rcd13ifvqi70","pricing_plan_id":"cebpf4jnsgd1na2vs0mg"},{"bike_id":"02c75b80-091e-4d58-9433-73502e13aa94","system_id":"levelo_inurba_marseille","lat":43.28693,"lon":5.39969,"is_reserved":false,"is_disabled":false,"rental_uris":{"android":"levelo://app?vid=02c75b80-091e-4d58-9433-73502e13aa94","ios":"levelo://app?vid=02c75b80-091e-4d58-9433-73502e13aa94"},"vehicle_type_id":"4","last_reported":1741740531,"current_range_meters":18000,"station_id":"ce4bho92rcd13ifvqh3g","pricing_plan_id":"cebpf4jnsgd1na2vs0mg"},{"bike_id":"bdf4b3e7-bdf2-445a-8a03-46e4164568b5","system_id":"levelo_inurba_marseille","lat":43.230618,"lon":5.35494,"is_reserved":false,"is_disabled":false,"rental_uris":{"android":"levelo://app?vid=bdf4b3e7-bdf2-445a-8a03-46e4164568b5","ios":"levelo://app?vid=bdf4b3e7-bdf2-445a-8a03-46e4164568b5"},"vehicle_type_id":"4","last_reported":1741740531,"current_range_meters":18000,"station_id":"cpo3342slgdg3j2ifvpg","pricing_plan_id":"cebpf4jnsgd1na2vs0mg"},{"bike_id":"0118782e-a9be-4c57-a3c6-f989e8d3b9bf","system_id":"levelo_inurba_marseille","lat":43.241754,"lon":5.397298,"is_reserved":false,"is_disabled":false,"rental_uris":{"android":"levelo://app?vid=0118782e-a9be-4c57-a3c6-f989e8d3b9bf","ios":"levelo://app?vid=0118782e-a9be-4c57-a3c6-f989e8d3b9bf"},"vehicle_type_id":"4","last_reported":1741740531,"current_range_meters":18000,"station_id":"ce4bhn12rcd13ifvqgpg","pricing_plan_id":"cebpf4jnsgd1na2vs0mg"},{"bike_id":"ca762409-3e9b-49eb-b311-18b138aaa95f","system_id":"levelo_inurba_marseille","lat":43.33744,"lon":5.3919,"is_reserved":false,"is_disabled":false,"rental_uris":{"android":"levelo://app?vid=ca762409-3e9b-49eb-b311-18b138aaa95f","ios":"levelo://app?vid=ca762409-3e9b-49eb-b311-18b138aaa95f"},"vehicle_type_id":"4","last_reported":1741740531,"current_range_meters":18000,"station_id":"ce4bhr92rcd13ifvqhsg","pricing_plan_id":"cebpf4jnsgd1na2vs0mg"},{"bike_id":"02dbad42-9cac-4176-8e3a-d08d3cd72544","system_id":"levelo_inurba_marseille","lat":43.25731,"lon":5.41105,"is_reserved":false,"is_disabled":false,"rental_uris":{"android":"levelo://app?vid=02dbad42-9cac-4176-8e3a-d08d3cd72544","ios":"levelo://app?vid=02dbad42-9cac-4176-8e3a-d08d3cd72544"},"vehicle_type_id":"4","last_reported":1741740531,"current_range_meters":18000,"station_id":"ce4bhkp2rcd13ifvqgd0","pricing_plan_id":"cebpf4jnsgd1na2vs0mg"},{"bike_id":"59a7a8bd-e0fa-414a-8289-2e7b78727b4e","system_id":"levelo_inurba_marseille","lat":43.30926,"lon":5.40152,"is_reserved":false,"is_disabled":false,"rental_uris":{"android":"levelo://app?vid=59a7a8bd-e0fa-414a-8289-2e7b78727b4e","ios":"levelo://app?vid=59a7a8bd-e0fa-414a-8289-2e7b78727b4e"},"vehicle_type_id":"4","last_reported":1741740531,"current_range_meters":18000,"station_id":"ce4bgvp2rcd13ifvqct0","pricing_plan_id":"cebpf4jnsgd1na2vs0mg"},{"bike_id":"c8f5a7aa-328f-49c1-a785-9624fa888d07","system_id":"levelo_inurba_marseille","lat":43.25008,"lon":5.38917,"is_reserved":false,"is_disabled":false,"rental_uris":{"android":"levelo://app?vid=c8f5a7aa-328f-49c1-a785-9624fa888d07","ios":"levelo://app?vid=c8f5a7aa-328f-49c1-a785-9624fa888d07"},"vehicle_type_id":"4","last_reported":1741740531,"current_range_meters":18000,"station_id":"ce4bhgp2rcd13ifvqfd0","pricing_plan_id":"cebpf4jnsgd1na2vs0mg"},{"bike_id":"10e54f68-e2bd-471f-a9dd-0c6fec63a260","system_id":"levelo_inurba_marseille","lat":43.29192,"lon":5.39325,"is_reserved":false,"is_disabled":false,"rental_uris":{"android":"levelo://app?vid=10e54f68-e2bd-471f-a9dd-0c6fec63a260","ios":"levelo://app?vid=10e54f68-e2bd-471f-a9dd-0c6fec63a260"},"vehicle_type_id":"4","last_reported":1741740531,"current_range_meters":18000,"station_id":"ce4bh192rcd13ifvqdd0","pricing_plan_id":"cebpf4jnsgd1na2vs0mg"},{"bike_id":"67651cb6-eb38-489f-8577-95647d302da8","system_id":"levelo_inurba_marseille","lat":43.28449,"lon":5.37486,"is_reserved":false,"is_disabled":false,"rental_uris":{"android":"levelo://app?vid=67651cb6-eb38-489f-8577-95647d302da8","ios":"levelo://app?vid=67651cb6-eb38-489f-8577-95647d302da8"},"vehicle_type_id":"4","last_reported":1741740531,"current_range_meters":18000,"station_id":"","pricing_plan_id":"cebpf4jnsgd1na2vs0mg"},{"bike_id":"c1ad6348-8b72-4449-a9bf-7358ce8f874c","system_id":"levelo_inurba_marseille","lat":43.28043,"lon":5.36941,"is_reserved":false,"is_disabled":false,"rental_uris":{"android":"levelo://app?vid=c1ad6348-8b72-4449-a9bf-7358ce8f874c","ios":"levelo://app?vid=c1ad6348-8b72-4449-a9bf-7358ce8f874c"},"vehicle_type_id":"4","last_reported":1741740531,"current_range_meters":18000,"station_id":"ce4bha12rcd13ifvqef0","pricing_plan_id":"cebpf4jnsgd1na2vs0mg"},{"bike_id":"a2186c47-58dd-4a97-8263-27bedd20279e","system_id":"levelo_inurba_marseille","lat":43.30322,"lon":5.40446,"is_reserved":false,"is_disabled":false,"rental_uris":{"android":"levelo://app?vid=a2186c47-58dd-4a97-8263-27bedd20279e","ios":"levelo://app?vid=a2186c47-58dd-4a97-8263-27bedd20279e"},"vehicle_type_id":"4","last_reported":1741740531,"current_range_meters":18800,"station_id":"ce4bh012rcd13ifvqd10","pricing_plan_id":"cebpf4jnsgd1na2vs0mg"},{"bike_id":"94b30f95-19e8-4b24-809a-d279976d82ea","system_id":"levelo_inurba_marseille","lat":43.31362,"lon":5.39649,"is_reserved":false,"is_disabled":false,"rental_uris":{"android":"levelo://app?vid=94b30f95-19e8-4b24-809a-d279976d82ea","ios":"levelo://app?vid=94b30f95-19e8-4b24-809a-d279976d82ea"},"vehicle_type_id":"4","last_reported":1741740531,"current_range_meters":18800,"station_id":"ce4bgvp2rcd13ifvqcu0","pricing_plan_id":"cebpf4jnsgd1na2vs0mg"},{"bike_id":"40553fcb-a61f-45e6-a77e-1d5c9691fcbb","system_id":"levelo_inurba_marseille","lat":43.29926,"lon":5.36524,"is_reserved":false,"is_disabled":false,"rental_uris":{"android":"levelo://app?vid=40553fcb-a61f-45e6-a77e-1d5c9691fcbb","ios":"levelo://app?vid=40553fcb-a61f-45e6-a77e-1d5c9691fcbb"},"vehicle_type_id":"4","last_reported":1741740531,"current_range_meters":18800,"station_id":"ce4bgm92rcd13ifvqbr0","pricing_plan_id":"cebpf4jnsgd1na2vs0mg"},{"bike_id":"22216196-8d47-46b8-93e8-8b63b4d8d893","system_id":"levelo_inurba_marseille","lat":43.2845,"lon":5.35885,"is_reserved":false,"is_disabled":false,"rental_uris":{"android":"levelo://app?vid=22216196-8d47-46b8-93e8-8b63b4d8d893","ios":"levelo://app?vid=22216196-8d47-46b8-93e8-8b63b4d8d893"},"vehicle_type_id":"4","last_reported":1741740531,"current_range_meters":18800,"station_id":"ce4bhah2rcd13ifvqei0","pricing_plan_id":"cebpf4jnsgd1na2vs0mg"},{"bike_id":"894adb72-eba3-4c31-be33-a34cdb918fbd","system_id":"levelo_inurba_marseille","lat":43.2572,"lon":5.4111,"is_reserved":false,"is_disabled":false,"rental_uris":{"android":"levelo://app?vid=894adb72-eba3-4c31-be33-a34cdb918fbd","ios":"levelo://app?vid=894adb72-eba3-4c31-be33-a34cdb918fbd"},"vehicle_type_id":"4","last_reported":1741740531,"current_range_meters":18800,"station_id":"ce4bhkp2rcd13ifvqgd0","pricing_plan_id":"cebpf4jnsgd1na2vs0mg"},{"bike_id":"affac7fc-ee39-45cf-a915-6dfbe4031fd8","system_id":"levelo_inurba_marseille","lat":43.311681,"lon":5.38734,"is_reserved":false,"is_disabled":false,"rental_uris":{"android":"levelo://app?vid=affac7fc-ee39-45cf-a915-6dfbe4031fd8","ios":"levelo://app?vid=affac7fc-ee39-45cf-a915-6dfbe4031fd8"},"vehicle_type_id":"4","last_reported":1741740531,"current_range_meters":18800,"station_id":"ce4bh312rcd13ifvqdk0","pricing_plan_id":"cebpf4jnsgd1na2vs0mg"},{"bike_id":"addb6636-a45e-4be0-a32d-beda4d92e7a8","system_id":"levelo_inurba_marseille","lat":43.29198,"lon":5.35801,"is_reserved":false,"is_disabled":false,"rental_uris":{"android":"levelo://app?vid=addb6636-a45e-4be0-a32d-beda4d92e7a8","ios":"levelo://app?vid=addb6636-a45e-4be0-a32d-beda4d92e7a8"},"vehicle_type_id":"4","last_reported":1741740531,"current_range_meters":18800,"station_id":"ce4bhb12rcd13ifvqel0","pricing_plan_id":"cebpf4jnsgd1na2vs0mg"},{"bike_id":"d635fc4e-d0d5-48cd-9305-906594fe2b69","system_id":"levelo_inurba_marseille","lat":43.299412,"lon":5.365367,"is_reserved":false,"is_disabled":false,"rental_uris":{"android":"levelo://app?vid=d635fc4e-d0d5-48cd-9305-906594fe2b69","ios":"levelo://app?vid=d635fc4e-d0d5-48cd-9305-906594fe2b69"},"vehicle_type_id":"4","last_reported":1741740531,"current_range_meters":18800,"station_id":"ce4bgm92rcd13ifvqbr0","pricing_plan_id":"cebpf4jnsgd1na2vs0mg"},{"bike_id":"96114f57-f074-443d-9ee4-282b0360c01e","system_id":"levelo_inurba_marseille","lat":43.28736,"lon":5.3792,"is_reserved":false,"is_disabled":false,"rental_uris":{"android":"levelo://app?vid=96114f57-f074-443d-9ee4-282b0360c01e","ios":"levelo://app?vid=96114f57-f074-443d-9ee4-282b0360c01e"},"vehicle_type_id":"4","last_reported":1741740531,"current_range_meters":18800,"station_id":"ce4bh9p2rcd13ifvqec0","pricing_plan_id":"cebpf4jnsgd1na2vs0mg"},{"bike_id":"6f8a817b-9683-40fa-bfa4-b740fec02c70","system_id":"levelo_inurba_marseille","lat":43.25003,"lon":5.38916,"is_reserved":false,"is_disabled":false,"rental_uris":{"android":"levelo://app?vid=6f8a817b-9683-40fa-bfa4-b740fec02c70","ios":"levelo://app?vid=6f8a817b-9683-40fa-bfa4-b740fec02c70"},"vehicle_type_id":"4","last_reported":1741740531,"current_range_meters":18800,"station_id":"ce4bhgp2rcd13ifvqfd0","pricing_plan_id":"cebpf4jnsgd1na2vs0mg"},{"bike_id":"256e7937-a0a5-4a0f-8ec5-f0a87507d519","system_id":"levelo_inurba_marseille","lat":43.29198,"lon":5.39305,"is_reserved":false,"is_disabled":false,"rental_uris":{"android":"levelo://app?vid=256e7937-a0a5-4a0f-8ec5-f0a87507d519","ios":"levelo://app?vid=256e7937-a0a5-4a0f-8ec5-f0a87507d519"},"vehicle_type_id":"4","last_reported":1741740531,"current_range_meters":18800,"station_id":"ce4bh192rcd13ifvqdd0","pricing_plan_id":"cebpf4jnsgd1na2vs0mg"},{"bike_id":"82a0bebc-1cb5-4e3b-886e-b2c84f24c21e","system_id":"levelo_inurba_marseille","lat":43.286979,"lon":5.374014,"is_reserved":false,"is_disabled":true,"rental_uris":{"android":"levelo://app?vid=82a0bebc-1cb5-4e3b-886e-b2c84f24c21e","ios":"levelo://app?vid=82a0bebc-1cb5-4e3b-886e-b2c84f24c21e"},"vehicle_type_id":"4","last_reported":1741740531,"current_range_meters":18800,"station_id":"ce4bh3p2rcd13ifvqdq0","pricing_plan_id":"cebpf4jnsgd1na2vs0mg"},{"bike_id":"79188852-e2f4-48d2-93f4-f8afcacb7c4f","system_id":"levelo_inurba_marseille","lat":43.23965,"lon":5.36634,"is_reserved":false,"is_disabled":false,"rental_uris":{"android":"levelo://app?vid=79188852-e2f4-48d2-93f4-f8afcacb7c4f","ios":"levelo://app?vid=79188852-e2f4-48d2-93f4-f8afcacb7c4f"},"vehicle_type_id":"4","last_reported":1741740531,"current_range_meters":19200,"station_id":"ce4bhi12rcd13ifvqfp0","pricing_plan_id":"cebpf4jnsgd1na2vs0mg"},{"bike_id":"88a46a3d-588a-48ff-b03c-e77bfa623c6e","system_id":"levelo_inurba_marseille","lat":43.28447,"lon":5.39183,"is_reserved":false,"is_disabled":false,"rental_uris":{"android":"levelo://app?vid=88a46a3d-588a-48ff-b03c-e77bfa623c6e","ios":"levelo://app?vid=88a46a3d-588a-48ff-b03c-e77bfa623c6e"},"vehicle_type_id":"4","last_reported":1741740531,"current_range_meters":19200,"station_id":"ce4bhoh2rcd13ifvqh5g","pricing_plan_id":"cebpf4jnsgd1na2vs0mg"},{"bike_id":"8e47142e-ed90-42b4-bff6-b644ca967486","system_id":"levelo_inurba_marseille","lat":43.31242,"lon":5.36875,"is_reserved":false,"is_disabled":false,"rental_uris":{"android":"levelo://app?vid=8e47142e-ed90-42b4-bff6-b644ca967486","ios":"levelo://app?vid=8e47142e-ed90-42b4-bff6-b644ca967486"},"vehicle_type_id":"4","last_reported":1741740531,"current_range_meters":19200,"station_id":"ce4bgl92rcd13ifvqbq0","pricing_plan_id":"cebpf4jnsgd1na2vs0mg"},{"bike_id":"629e2e79-711d-453d-8fd1-704b61dc8cad","system_id":"levelo_inurba_marseille","lat":43.28424,"lon":5.3755,"is_reserved":false,"is_disabled":false,"rental_uris":{"android":"levelo://app?vid=629e2e79-711d-453d-8fd1-704b61dc8cad","ios":"levelo://app?vid=629e2e79-711d-453d-8fd1-704b61dc8cad"},"vehicle_type_id":"4","last_reported":1741740531,"current_range_meters":19200,"station_id":"ce4bh412rcd13ifvqds0","pricing_plan_id":"cebpf4jnsgd1na2vs0mg"},{"bike_id":"e85e7281-8ded-4f9f-9074-cd43c73f5f32","system_id":"levelo_inurba_marseille","lat":43.31315,"lon":5.37338,"is_reserved":false,"is_disabled":false,"rental_uris":{"android":"levelo://app?vid=e85e7281-8ded-4f9f-9074-cd43c73f5f32","ios":"levelo://app?vid=e85e7281-8ded-4f9f-9074-cd43c73f5f32"},"vehicle_type_id":"4","last_reported":1741740531,"current_range_meters":19200,"station_id":"","pricing_plan_id":"cebpf4jnsgd1na2vs0mg"},{"bike_id":"4f01afe6-a3ad-48ff-acf2-b47a05bcc407","system_id":"levelo_inurba_marseille","lat":43.32353,"lon":5.40602,"is_reserved":false,"is_disabled":false,"rental_uris":{"android":"levelo://app?vid=4f01afe6-a3ad-48ff-acf2-b47a05bcc407","ios":"levelo://app?vid=4f01afe6-a3ad-48ff-acf2-b47a05bcc407"},"vehicle_type_id":"4","last_reported":1741740531,"current_range_meters":19200,"station_id":"ce4bhq92rcd13ifvqhjg","pricing_plan_id":"cebpf4jnsgd1na2vs0mg"},{"bike_id":"1da33f08-9904-4fdf-85db-340d32eb71ef","system_id":"levelo_inurba_marseille","lat":43.27824,"lon":5.39211,"is_reserved":false,"is_disabled":false,"rental_uris":{"android":"levelo://app?vid=1da33f08-9904-4fdf-85db-340d32eb71ef","ios":"levelo://app?vid=1da33f08-9904-4fdf-85db-340d32eb71ef"},"vehicle_type_id":"4","last_reported":1741740531,"current_range_meters":19200,"station_id":"ce4bhjp2rcd13ifvqga0","pricing_plan_id":"cebpf4jnsgd1na2vs0mg"},{"bike_id":"f550acae-a478-493d-8418-eb4ab17dc323","system_id":"levelo_inurba_marseille","lat":43.25039,"lon":5.38946,"is_reserved":false,"is_disabled":false,"rental_uris":{"android":"levelo://app?vid=f550acae-a478-493d-8418-eb4ab17dc323","ios":"levelo://app?vid=f550acae-a478-493d-8418-eb4ab17dc323"},"vehicle_type_id":"4","last_reported":1741740531,"current_range_meters":19200,"station_id":"ce4bhgp2rcd13ifvqfd0","pricing_plan_id":"cebpf4jnsgd1na2vs0mg"},{"bike_id":"cefa473e-a97a-4a96-a483-db5a16038982","system_id":"levelo_inurba_marseille","lat":43.260572,"lon":5.393996,"is_reserved":false,"is_disabled":false,"rental_uris":{"android":"levelo://app?vid=cefa473e-a97a-4a96-a483-db5a16038982","ios":"levelo://app?vid=cefa473e-a97a-4a96-a483-db5a16038982"},"vehicle_type_id":"4","last_reported":1741740531,"current_range_meters":19200,"station_id":"ce4bhh92rcd13ifvqfj0","pricing_plan_id":"cebpf4jnsgd1na2vs0mg"},{"bike_id":"7954de04-d526-479e-9e26-232e0225840f","system_id":"levelo_inurba_marseille","lat":43.30659,"lon":5.4009,"is_reserved":false,"is_disabled":false,"rental_uris":{"android":"levelo://app?vid=7954de04-d526-479e-9e26-232e0225840f","ios":"levelo://app?vid=7954de04-d526-479e-9e26-232e0225840f"},"vehicle_type_id":"4","last_reported":1741740531,"current_range_meters":19200,"station_id":"ce4bh112rcd13ifvqda0","pricing_plan_id":"cebpf4jnsgd1na2vs0mg"},{"bike_id":"74a5c364-bf0f-4f41-a546-644d038d28a3","system_id":"levelo_inurba_marseille","lat":43.26571,"lon":5.39012,"is_reserved":false,"is_disabled":true,"rental_uris":{"android":"levelo://app?vid=74a5c364-bf0f-4f41-a546-644d038d28a3","ios":"levelo://app?vid=74a5c364-bf0f-4f41-a546-644d038d28a3"},"vehicle_type_id":"4","last_reported":1741740531,"current_range_meters":19200,"station_id":"ce4bhe12rcd13ifvqf30","pricing_plan_id":"cebpf4jnsgd1na2vs0mg"},{"bike_id":"41e33428-4955-4272-889c-a2aef7fec7f0","system_id":"levelo_inurba_marseille","lat":43.30416,"lon":5.412835,"is_reserved":false,"is_disabled":false,"rental_uris":{"android":"levelo://app?vid=41e33428-4955-4272-889c-a2aef7fec7f0","ios":"levelo://app?vid=41e33428-4955-4272-889c-a2aef7fec7f0"},"vehicle_type_id":"4","last_reported":1741740531,"current_range_meters":19600,"station_id":"ce4bhop2rcd13ifvqh8g","pricing_plan_id":"cebpf4jnsgd1na2vs0mg"},{"bike_id":"fa79c586-ddc0-44f8-bcff-a30051995ba6","system_id":"levelo_inurba_marseille","lat":43.31529,"lon":5.38036,"is_reserved":false,"is_disabled":false,"rental_uris":{"android":"levelo://app?vid=fa79c586-ddc0-44f8-bcff-a30051995ba6","ios":"levelo://app?vid=fa79c586-ddc0-44f8-bcff-a30051995ba6"},"vehicle_type_id":"4","last_reported":1741740531,"current_range_meters":19600,"station_id":"ce4bhsp2rcd13ifvqi50","pricing_plan_id":"cebpf4jnsgd1na2vs0mg"},{"bike_id":"59b6b5f1-f99a-4e59-8551-ed055f001bc2","system_id":"levelo_inurba_marseille","lat":43.28937,"lon":5.38439,"is_reserved":false,"is_disabled":false,"rental_uris":{"android":"levelo://app?vid=59b6b5f1-f99a-4e59-8551-ed055f001bc2","ios":"levelo://app?vid=59b6b5f1-f99a-4e59-8551-ed055f001bc2"},"vehicle_type_id":"4","last_reported":1741740531,"current_range_meters":19600,"station_id":"ce4bh612rcd13ifvqe6g","pricing_plan_id":"cebpf4jnsgd1na2vs0mg"},{"bike_id":"6b15bebf-98c5-4d63-aca6-7b3045fbebab","system_id":"levelo_inurba_marseille","lat":43.26227,"lon":5.40461,"is_reserved":false,"is_disabled":false,"rental_uris":{"android":"levelo://app?vid=6b15bebf-98c5-4d63-aca6-7b3045fbebab","ios":"levelo://app?vid=6b15bebf-98c5-4d63-aca6-7b3045fbebab"},"vehicle_type_id":"4","last_reported":1741740531,"current_range_meters":19600,"station_id":"ce4bhmh2rcd13ifvqgmg","pricing_plan_id":"cebpf4jnsgd1na2vs0mg"},{"bike_id":"f8ebc8f4-8e5f-428c-9ca0-2dc5e34c7a14","system_id":"levelo_inurba_marseille","lat":43.30804,"lon":5.43522,"is_reserved":false,"is_disabled":false,"rental_uris":{"android":"levelo://app?vid=f8ebc8f4-8e5f-428c-9ca0-2dc5e34c7a14","ios":"levelo://app?vid=f8ebc8f4-8e5f-428c-9ca0-2dc5e34c7a14"},"vehicle_type_id":"4","last_reported":1741740531,"current_range_meters":20000,"station_id":"ce4bhph2rcd13ifvqheg","pricing_plan_id":"cebpf4jnsgd1na2vs0mg"},{"bike_id":"73e296ad-1bc1-4bf7-a748-801ff598fed6","system_id":"levelo_inurba_marseille","lat":43.28697,"lon":5.37414,"is_reserved":false,"is_disabled":false,"rental_uris":{"android":"levelo://app?vid=73e296ad-1bc1-4bf7-a748-801ff598fed6","ios":"levelo://app?vid=73e296ad-1bc1-4bf7-a748-801ff598fed6"},"vehicle_type_id":"4","last_reported":1741740531,"current_range_meters":20000,"station_id":"ce4bh3p2rcd13ifvqdq0","pricing_plan_id":"cebpf4jnsgd1na2vs0mg"},{"bike_id":"1695b8bd-c10e-4d8d-8845-ee404ec2bfa2","system_id":"levelo_inurba_marseille","lat":43.286971,"lon":5.373962,"is_reserved":false,"is_disabled":false,"rental_uris":{"android":"levelo://app?vid=1695b8bd-c10e-4d8d-8845-ee404ec2bfa2","ios":"levelo://app?vid=1695b8bd-c10e-4d8d-8845-ee404ec2bfa2"},"vehicle_type_id":"4","last_reported":1741740531,"current_range_meters":20000,"station_id":"ce4bh3p2rcd13ifvqdq0","pricing_plan_id":"cebpf4jnsgd1na2vs0mg"},{"bike_id":"2c542a09-e66b-400a-a635-ed3442b0a9f5","system_id":"levelo_inurba_marseille","lat":43.237977,"lon":5.3837,"is_reserved":false,"is_disabled":false,"rental_uris":{"android":"levelo://app?vid=2c542a09-e66b-400a-a635-ed3442b0a9f5","ios":"levelo://app?vid=2c542a09-e66b-400a-a635-ed3442b0a9f5"},"vehicle_type_id":"4","last_reported":1741740531,"current_range_meters":20000,"station_id":"ce4bhi12rcd13ifvqfp0","pricing_plan_id":"cebpf4jnsgd1na2vs0mg"},{"bike_id":"e403288d-b468-4ea8-b33d-644efb4c82c2","system_id":"levelo_inurba_marseille","lat":43.27843,"lon":5.40728,"is_reserved":false,"is_disabled":false,"rental_uris":{"android":"levelo://app?vid=e403288d-b468-4ea8-b33d-644efb4c82c2","ios":"levelo://app?vid=e403288d-b468-4ea8-b33d-644efb4c82c2"},"vehicle_type_id":"4","last_reported":1741740531,"current_range_meters":20000,"station_id":"ce4bhnh2rcd13ifvqgtg","pricing_plan_id":"cebpf4jnsgd1na2vs0mg"},{"bike_id":"aeaf2c4d-79fd-4d5a-8f4d-25b5a6575fc4","system_id":"levelo_inurba_marseille","lat":43.29865,"lon":5.39732,"is_reserved":false,"is_disabled":false,"rental_uris":{"android":"levelo://app?vid=aeaf2c4d-79fd-4d5a-8f4d-25b5a6575fc4","ios":"levelo://app?vid=aeaf2c4d-79fd-4d5a-8f4d-25b5a6575fc4"},