{"last_updated":1741349886,"ttl":60,"version":"2.2","data":{"bikes":[{"bike_id":"09ce9210-4d35-4310-98fa-4de1c26e3db4","system_id":"levelo_inurba_marseille","lat":43.28837,"lon":5.40038,"is_reserved":false,"is_disabled":true,"rental_uris":{"android":"levelo://app?vid=09ce9210-4d35-4310-98fa-4de1c26e3db4","ios":"levelo://app?vid=09ce9210-4d35-4310-98fa-4de1c26e3db4"},"vehicle_type_id":"4","last_reported":1741349886,"current_range_meters":2800,"station_id":"","pricing_plan_id":"cebpf4jnsgd1na2vs0mg"},{"bike_id":"91cee499-2289-4d6c-b21b-c7f1ee6ecf3d","system_id":"levelo_inurba_marseille","lat":43.27805,"lon":5.40712,"is_reserved":false,"is_disabled":true,"rental_uris":{"android":"levelo://app?vid=91cee499-2289-4d6c-b21b-c7f1ee6ecf3d","ios":"levelo://app?vid=91cee499-2289-4d6c-b21b-c7f1ee6ecf3d"},"vehicle_type_id":"4","last_reported":1741349886,"current_range_meters":2800,"station_id":"ce4bhnh2rcd13ifvqgtg","pricing_plan_id":"cebpf4jnsgd1na2vs0mg"},{"bike_id":"9f904d77-20e0-44f2-abc6-d44fc29892f4","system_id":"levelo_inurba_marseille","lat":43.29967,"lon":5.38492,"is_reserved":false,"is_disabled":false,"rental_uris":{"android":"levelo://app?vid=9f904d77-20e0-44f2-abc6-d44fc29892f4","ios":"levelo://app?vid=9f904d77-20e0-44f2-abc6-d44fc29892f4"},"vehicle_type_id":"4","last_reported":1741349886,"current_range_meters":2800,"station_id":"ce4bgj92rcd13ifvqbd0","pricing_plan_id":"cebpf4jnsgd1na2vs0mg"},{"bike_id":"2652e13a-eb4c-4c7a-8d1d-53631bad2d42","system_id":"levelo_inurba_marseille","lat":43.24804,"lon":5.37458,"is_reserved":false,"is_disabled":false,"rental_uris":{"android":"levelo://app?vid=2652e13a-eb4c-4c7a-8d1d-53631bad2d42","ios":"levelo://app?vid=2652e13a-eb4c-4c7a-8d1d-53631bad2d42"},"vehicle_type_id":"4","last_reported":1741349886,"current_range_meters":3200,"station_id":"ce4bhgh2rcd13ifvqfb0","pricing_plan_id":"cebpf4jnsgd1na2vs0mg"},{"bike_id":"f28f7533-ea96-4565-b599-a29310aea5b6","system_id":"levelo_inurba_marseille","lat":43.30418,"lon":5.41276,"is_reserved":false,"is_disabled":false,"rental_uris":{"android":"levelo://app?vid=f28f7533-ea96-4565-b599-a29310aea5b6","ios":"levelo://app?vid=f28f7533-ea96-4565-b599-a29310aea5b6"},"vehicle_type_id":"4","last_reported":1741349886,"current_range_meters":3200,"station_id":"ce4bhop2rcd13ifvqh8g","pricing_plan_id":"cebpf4jnsgd1na2vs0mg"},{"bike_id":"52329d8f-fabd-46e1-acd1-0bf5ca9f273f","system_id":"levelo_inurba_marseille","lat":43.30562,"lon":5.36536,"is_reserved":false,"is_disabled":false,"rental_uris":{"android":"levelo://app?vid=52329d8f-fabd-46e1-acd1-0bf5ca9f273f","ios":"levelo://app?vid=52329d8f-fabd-46e1-acd1-0bf5ca9f273f"},"vehicle_type_id":"4","last_reported":1741349886,"current_range_meters":3200,"station_id":"ce4bgs12rcd13ifvqcag","pricing_plan_id":"cebpf4jnsgd1na2vs0mg"},{"bike_id":"53b8b23f-f935-460c-a373-ab182518cd3d","system_id":"levelo_inurba_marseille","lat":43.2781,"lon":5.40713,"is_reserved":false,"is_disabled":false,"rental_uris":{"android":"levelo://app?vid=53b8b23f-f935-460c-a373-ab182518cd3d","ios":"levelo://app?vid=53b8b23f-f935-460c-a373-ab182518cd3d"},"vehicle_type_id":"4","last_reported":1741349886,"current_range_meters":3200,"station_id":"ce4bhnh2rcd13ifvqgtg","pricing_plan_id":"cebpf4jnsgd1na2vs0mg"},{"bike_id":"5e2a7c49-ce3c-4fd6-8ee4-35572445cd82","system_id":"levelo_inurba_marseille","lat":43.28152,"lon":5.42639,"is_reserved":false,"is_disabled":false,"rental_uris":{"android":"levelo://app?vid=5e2a7c49-ce3c-4fd6-8ee4-35572445cd82","ios":"levelo://app?vid=5e2a7c49-ce3c-4fd6-8ee4-35572445cd82"},"vehicle_type_id":"4","last_reported":1741349886,"current_range_meters":3200,"station_id":"ce4bhnh2rcd13ifvqgug","pricing_plan_id":"cebpf4jnsgd1na2vs0mg"},{"bike_id":"d2a5955c-a29a-48df-938e-0690b4b287b9","system_id":"levelo_inurba_marseille","lat":43.24174,"lon":5.39731,"is_reserved":false,"is_disabled":false,"rental_uris":{"android":"levelo://app?vid=d2a5955c-a29a-48df-938e-0690b4b287b9","ios":"levelo://app?vid=d2a5955c-a29a-48df-938e-0690b4b287b9"},"vehicle_type_id":"4","last_reported":1741349886,"current_range_meters":3200,"station_id":"ce4bhn12rcd13ifvqgpg","pricing_plan_id":"cebpf4jnsgd1na2vs0mg"},{"bike_id":"c674af45-8d24-44a3-93a8-c06d3eada928","system_id":"levelo_inurba_marseille","lat":43.265595,"lon":5.39025,"is_reserved":false,"is_disabled":false,"rental_uris":{"android":"levelo://app?vid=c674af45-8d24-44a3-93a8-c06d3eada928","ios":"levelo://app?vid=c674af45-8d24-44a3-93a8-c06d3eada928"},"vehicle_type_id":"4","last_reported":1741349886,"current_range_meters":3600,"station_id":"ce4bha12rcd13ifvqef0","pricing_plan_id":"cebpf4jnsgd1na2vs0mg"},{"bike_id":"feb0f1e4-8daa-4169-9c60-dbb8b1521e48","system_id":"levelo_inurba_marseille","lat":43.32481,"lon":5.36563,"is_reserved":false,"is_disabled":false,"rental_uris":{"android":"levelo://app?vid=feb0f1e4-8daa-4169-9c60-dbb8b1521e48","ios":"levelo://app?vid=feb0f1e4-8daa-4169-9c60-dbb8b1521e48"},"vehicle_type_id":"4","last_reported":1741349886,"current_range_meters":3600,"station_id":"ce4bhs12rcd13ifvqhvg","pricing_plan_id":"cebpf4jnsgd1na2vs0mg"},{"bike_id":"de754493-593d-484d-850a-eaba979f3d3f","system_id":"levelo_inurba_marseille","lat":43.27928,"lon":5.41047,"is_reserved":false,"is_disabled":true,"rental_uris":{"android":"levelo://app?vid=de754493-593d-484d-850a-eaba979f3d3f","ios":"levelo://app?vid=de754493-593d-484d-850a-eaba979f3d3f"},"vehicle_type_id":"4","last_reported":1741349886,"current_range_meters":3600,"station_id":"ce4bhnp2rcd13ifvqh0g","pricing_plan_id":"cebpf4jnsgd1na2vs0mg"},{"bike_id":"ee5fd40c-136e-4bbd-87f6-f7d14f6644ad","system_id":"levelo_inurba_marseille","lat":43.30311,"lon":5.36916,"is_reserved":false,"is_disabled":false,"rental_uris":{"android":"levelo://app?vid=ee5fd40c-136e-4bbd-87f6-f7d14f6644ad","ios":"levelo://app?vid=ee5fd40c-136e-4bbd-87f6-f7d14f6644ad"},"vehicle_type_id":"4","last_reported":1741349886,"current_range_meters":3600,"station_id":"ce4bgqh2rcd13ifvqc5g","pricing_plan_id":"cebpf4jnsgd1na2vs0mg"},{"bike_id":"add02cb5-619b-4c17-a064-7e7574d3571e","system_id":"levelo_inurba_marseille","lat":43.28367,"lon":5.38634,"is_reserved":false,"is_disabled":false,"rental_uris":{"android":"levelo://app?vid=add02cb5-619b-4c17-a064-7e7574d3571e","ios":"levelo://app?vid=add02cb5-619b-4c17-a064-7e7574d3571e"},"vehicle_type_id":"4","last_reported":1741349886,"current_range_meters":3600,"station_id":"ce4bh492rcd13ifvqdvg","pricing_plan_id":"cebpf4jnsgd1na2vs0mg"},{"bike_id":"8fa00bbd-ad3b-49cb-91e7-e40dcce26d1a","system_id":"levelo_inurba_marseille","lat":43.25,"lon":5.38924,"is_reserved":false,"is_disabled":false,"rental_uris":{"android":"levelo://app?vid=8fa00bbd-ad3b-49cb-91e7-e40dcce26d1a","ios":"levelo://app?vid=8fa00bbd-ad3b-49cb-91e7-e40dcce26d1a"},"vehicle_type_id":"4","last_reported":1741349886,"current_range_meters":4000,"station_id":"ce4bhgp2rcd13ifvqfd0","pricing_plan_id":"cebpf4jnsgd1na2vs0mg"},{"bike_id":"01583749-d5a5-450f-aaf7-b1a430e6f576","system_id":"levelo_inurba_marseille","lat":43.29574,"lon":5.37505,"is_reserved":false,"is_disabled":false,"rental_uris":{"android":"levelo://app?vid=01583749-d5a5-450f-aaf7-b1a430e6f576","ios":"levelo://app?vid=01583749-d5a5-450f-aaf7-b1a430e6f576"},"vehicle_type_id":"4","last_reported":1741349886,"current_range_meters":4000,"station_id":"ce4bgh92rcd13ifvqb50","pricing_plan_id":"cebpf4jnsgd1na2vs0mg"},{"bike_id":"e250cde6-3198-4b40-ada5-dd4629e64a0f","system_id":"levelo_inurba_marseille","lat":43.28355,"lon":5.3863,"is_reserved":false,"is_disabled":false,"rental_uris":{"android":"levelo://app?vid=e250cde6-3198-4b40-ada5-dd4629e64a0f","ios":"levelo://app?vid=e250cde6-3198-4b40-ada5-dd4629e64a0f"},"vehicle_type_id":"4","last_reported":1741349886,"current_range_meters":4000,"station_id":"ce4bh492rcd13ifvqdvg","pricing_plan_id":"cebpf4jnsgd1na2vs0mg"},{"bike_id":"14829976-69b1-45fa-bf17-55d2e8e82951","system_id":"levelo_inurba_marseille","lat":43.28425,"lon":5.3499,"is_reserved":false,"is_disabled":true,"rental_uris":{"android":"levelo://app?vid=14829976-69b1-45fa-bf17-55d2e8e82951","ios":"levelo://app?vid=14829976-69b1-45fa-bf17-55d2e8e82951"},"vehicle_type_id":"4","last_reported":1741349886,"current_range_meters":4000,"station_id":"ce4bhbh2rcd13ifvqepg","pricing_plan_id":"cebpf4jnsgd1na2vs0mg"},{"bike_id":"a72664b0-7211-4e96-ada8-385e425dde51","system_id":"levelo_inurba_marseille","lat":43.27665,"lon":5.38868,"is_reserved":false,"is_disabled":false,"rental_uris":{"android":"levelo://app?vid=a72664b0-7211-4e96-ada8-385e425dde51","ios":"levelo://app?vid=a72664b0-7211-4e96-ada8-385e425dde51"},"vehicle_type_id":"4","last_reported":1741349886,"current_range_meters":4400,"station_id":"ce4bhi12rcd13ifvqfo0","pricing_plan_id":"cebpf4jnsgd1na2vs0mg"},{"bike_id":"60ca2d11-e6af-45ee-8186-84d398205c2c","system_id":"levelo_inurba_marseille","lat":43.26196,"lon":5.37935,"is_reserved":false,"is_disabled":false,"rental_uris":{"android":"levelo://app?vid=60ca2d11-e6af-45ee-8186-84d398205c2c","ios":"levelo://app?vid=60ca2d11-e6af-45ee-8186-84d398205c2c"},"vehicle_type_id":"4","last_reported":1741349886,"current_range_meters":4400,"station_id":"ce4bhjp2rcd13ifvqg90","pricing_plan_id":"cebpf4jnsgd1na2vs0mg"},{"bike_id":"e8afa1e9-d134-48c2-bad9-fdfcd97b5dd0","system_id":"levelo_inurba_marseille","lat":43.27691,"lon":5.408039,"is_reserved":false,"is_disabled":false,"rental_uris":{"android":"levelo://app?vid=e8afa1e9-d134-48c2-bad9-fdfcd97b5dd0","ios":"levelo://app?vid=e8afa1e9-d134-48c2-bad9-fdfcd97b5dd0"},"vehicle_type_id":"4","last_reported":1741349886,"current_range_meters":4800,"station_id":"ce4bgrp2rcd13ifvqc9g","pricing_plan_id":"cebpf4jnsgd1na2vs0mg"},{"bike_id":"40e2e695-d552-4542-901f-9cd18e8de670","system_id":"levelo_inurba_marseille","lat":43.26698,"lon":5.38264,"is_reserved":false,"is_disabled":true,"rental_uris":{"android":"levelo://app?vid=40e2e695-d552-4542-901f-9cd18e8de670","ios":"levelo://app?vid=40e2e695-d552-4542-901f-9cd18e8de670"},"vehicle_type_id":"4","last_reported":1741349886,"current_range_meters":4800,"station_id":"ce4bhg92rcd13ifvqf90","pricing_plan_id":"cebpf4jnsgd1na2vs0mg"},{"bike_id":"da486377-b8f0-4fbb-93a1-8fb18a437f75","system_id":"levelo_inurba_marseille","lat":43.29098,"lon":5.38154,"is_reserved":false,"is_disabled":true,"rental_uris":{"android":"levelo://app?vid=da486377-b8f0-4fbb-93a1-8fb18a437f75","ios":"levelo://app?vid=da486377-b8f0-4fbb-93a1-8fb18a437f75"},"vehicle_type_id":"4","last_reported":1741349886,"current_range_meters":4800,"station_id":"ce4bh512rcd13ifvqe2g","pricing_plan_id":"cebpf4jnsgd1na2vs0mg"},{"bike_id":"e0c0bec3-454a-410d-a60f-3aed516ec149","system_id":"levelo_inurba_marseille","lat":43.23201,"lon":5.35556,"is_reserved":false,"is_disabled":false,"rental_uris":{"android":"levelo://app?vid=e0c0bec3-454a-410d-a60f-3aed516ec149","ios":"levelo://app?vid=e0c0bec3-454a-410d-a60f-3aed516ec149"},"vehicle_type_id":"4","last_reported":1741349886,"current_range_meters":5600,"station_id":"ce4bhu92rcd13ifvqi70","pricing_plan_id":"cebpf4jnsgd1na2vs0mg"},{"bike_id":"de10dad3-cc48-400a-922c-cca5bf1a3a20","system_id":"levelo_inurba_marseille","lat":43.29938,"lon":5.38831,"is_reserved":false,"is_disabled":true,"rental_uris":{"android":"levelo://app?vid=de10dad3-cc48-400a-922c-cca5bf1a3a20","ios":"levelo://app?vid=de10dad3-cc48-400a-922c-cca5bf1a3a20"},"vehicle_type_id":"4","last_reported":1741349886,"current_range_meters":6000,"station_id":"","pricing_plan_id":"cebpf4jnsgd1na2vs0mg"},{"bike_id":"d572b633-d5af-4df0-87b8-0a5b1819b02b","system_id":"levelo_inurba_marseille","lat":43.24157,"lon":5.39723,"is_reserved":false,"is_disabled":true,"rental_uris":{"android":"levelo://app?vid=d572b633-d5af-4df0-87b8-0a5b1819b02b","ios":"levelo://app?vid=d572b633-d5af-4df0-87b8-0a5b1819b02b"},"vehicle_type_id":"4","last_reported":1741349886,"current_range_meters":6000,"station_id":"ce4bhn12rcd13ifvqgpg","pricing_plan_id":"cebpf4jnsgd1na2vs0mg"},{"bike_id":"bd50512d-f901-4cae-86cc-8a342d2e524e","system_id":"levelo_inurba_marseille","lat":43.24075,"lon":5.37753,"is_reserved":false,"is_disabled":false,"rental_uris":{"android":"levelo://app?vid=bd50512d-f901-4cae-86cc-8a342d2e524e","ios":"levelo://app?vid=bd50512d-f901-4cae-86cc-8a342d2e524e"},"vehicle_type_id":"4","last_reported":1741349886,"current_range_meters":6400,"station_id":"ce4bhnp2rcd13ifvqgvg","pricing_plan_id":"cebpf4jnsgd1na2vs0mg"},{"bike_id":"0d33dccf-1372-4df6-9416-eeb9f17b8b78","system_id":"levelo_inurba_marseille","lat":43.24081,"lon":5.37756,"is_reserved":false,"is_disabled":false,"rental_uris":{"android":"levelo://app?vid=0d33dccf-1372-4df6-9416-eeb9f17b8b78","ios":"levelo://app?vid=0d33dccf-1372-4df6-9416-eeb9f17b8b78"},"vehicle_type_id":"4","last_reported":1741349886,"current_range_meters":6400,"station_id":"ce4bhnp2rcd13ifvqgvg","pricing_plan_id":"cebpf4jnsgd1na2vs0mg"},{"bike_id":"c0c47341-625e-4ef2-ba2f-5e525ff9942e","system_id":"levelo_inurba_marseille","lat":43.292595,"lon":5.376045,"is_reserved":false,"is_disabled":false,"rental_uris":{"android":"levelo://app?vid=c0c47341-625e-4ef2-ba2f-5e525ff9942e","ios":"levelo://app?vid=c0c47341-625e-4ef2-ba2f-5e525ff9942e"},"vehicle_type_id":"4","last_reported":1741349886,"current_range_meters":6400,"station_id":"ce4bgi12rcd13ifvqb80","pricing_plan_id":"cebpf4jnsgd1na2vs0mg"},{"bike_id":"4151bf1b-ed9b-48c0-aef8-a0cbf5bebc29","system_id":"levelo_inurba_marseille","lat":43.29265,"lon":5.40101,"is_reserved":false,"is_disabled":false,"rental_uris":{"android":"levelo://app?vid=4151bf1b-ed9b-48c0-aef8-a0cbf5bebc29","ios":"levelo://app?vid=4151bf1b-ed9b-48c0-aef8-a0cbf5bebc29"},"vehicle_type_id":"4","last_reported":1741349886,"current_range_meters":6400,"station_id":"ce4bh312rcd13ifvqdk0","pricing_plan_id":"cebpf4jnsgd1na2vs0mg"},{"bike_id":"db65588d-d9c3-4993-926d-70523c5c6858","system_id":"levelo_inurba_marseille","lat":43.24072,"lon":5.37757,"is_reserved":false,"is_disabled":false,"rental_uris":{"android":"levelo://app?vid=db65588d-d9c3-4993-926d-70523c5c6858","ios":"levelo://app?vid=db65588d-d9c3-4993-926d-70523c5c6858"},"vehicle_type_id":"4","last_reported":1741349886,"current_range_meters":6400,"station_id":"ce4bhnp2rcd13ifvqgvg","pricing_plan_id":"cebpf4jnsgd1na2vs0mg"},{"bike_id":"becf68ce-a67f-4047-9d56-5e9de454bd70","system_id":"levelo_inurba_marseille","lat":43.27813,"lon":5.40717,"is_reserved":false,"is_disabled":false,"rental_uris":{"android":"levelo://app?vid=becf68ce-a67f-4047-9d56-5e9de454bd70","ios":"levelo://app?vid=becf68ce-a67f-4047-9d56-5e9de454bd70"},"vehicle_type_id":"4","last_reported":1741349886,"current_range_meters":6800,"station_id":"ce4bhnh2rcd13ifvqgtg","pricing_plan_id":"cebpf4jnsgd1na2vs0mg"},{"bike_id":"465f52e1-7913-485e-9568-2affdbe453c7","system_id":"levelo_inurba_marseille","lat":43.27826,"lon":5.40697,"is_reserved":false,"is_disabled":true,"rental_uris":{"android":"levelo://app?vid=465f52e1-7913-485e-9568-2affdbe453c7","ios":"levelo://app?vid=465f52e1-7913-485e-9568-2affdbe453c7"},"vehicle_type_id":"4","last_reported":1741349886,"current_range_meters":6800,"station_id":"ce4bhnh2rcd13ifvqgtg","pricing_plan_id":"cebpf4jnsgd1na2vs0mg"},{"bike_id":"f927a9c8-5d84-472f-b8fd-88f2fc3bc3e6","system_id":"levelo_inurba_marseille","lat":43.298984,"lon":5.43656,"is_reserved":false,"is_disabled":false,"rental_uris":{"android":"levelo://app?vid=f927a9c8-5d84-472f-b8fd-88f2fc3bc3e6","ios":"levelo://app?vid=f927a9c8-5d84-472f-b8fd-88f2fc3bc3e6"},"vehicle_type_id":"4","last_reported":1741349886,"current_range_meters":6800,"station_id":"ce4bhpp2rcd13ifvqhfg","pricing_plan_id":"cebpf4jnsgd1na2vs0mg"},{"bike_id":"7f1905bf-da4d-4f13-af14-c5d46804e585","system_id":"levelo_inurba_marseille","lat":43.23176,"lon":5.35541,"is_reserved":false,"is_disabled":false,"rental_uris":{"android":"levelo://app?vid=7f1905bf-da4d-4f13-af14-c5d46804e585","ios":"levelo://app?vid=7f1905bf-da4d-4f13-af14-c5d46804e585"},"vehicle_type_id":"4","last_reported":1741349886,"current_range_meters":6800,"station_id":"ce4bhu92rcd13ifvqi70","pricing_plan_id":"cebpf4jnsgd1na2vs0mg"},{"bike_id":"d97b34a5-4a9d-4d9c-b55f-b72c9be6ca47","system_id":"levelo_inurba_marseille","lat":43.25103,"lon":5.40345,"is_reserved":false,"is_disabled":true,"rental_uris":{"android":"levelo://app?vid=d97b34a5-4a9d-4d9c-b55f-b72c9be6ca47","ios":"levelo://app?vid=d97b34a5-4a9d-4d9c-b55f-b72c9be6ca47"},"vehicle_type_id":"4","last_reported":1741349886,"current_range_meters":6800,"station_id":"ce4bhlh2rcd13ifvqgig","pricing_plan_id":"cebpf4jnsgd1na2vs0mg"},{"bike_id":"81220ab9-fb8e-4638-a084-692a6595df85","system_id":"levelo_inurba_marseille","lat":43.26188,"lon":5.42064,"is_reserved":false,"is_disabled":false,"rental_uris":{"android":"levelo://app?vid=81220ab9-fb8e-4638-a084-692a6595df85","ios":"levelo://app?vid=81220ab9-fb8e-4638-a084-692a6595df85"},"vehicle_type_id":"4","last_reported":1741349886,"current_range_meters":6800,"station_id":"","pricing_plan_id":"cebpf4jnsgd1na2vs0mg"},{"bike_id":"d5ac10d6-3893-456c-a18a-474ac4fe64a7","system_id":"levelo_inurba_marseille","lat":43.30149,"lon":5.38758,"is_reserved":false,"is_disabled":false,"rental_uris":{"android":"levelo://app?vid=d5ac10d6-3893-456c-a18a-474ac4fe64a7","ios":"levelo://app?vid=d5ac10d6-3893-456c-a18a-474ac4fe64a7"},"vehicle_type_id":"4","last_reported":1741349886,"current_range_meters":6800,"station_id":"ce4bghh2rcd13ifvqb60","pricing_plan_id":"cebpf4jnsgd1na2vs0mg"},{"bike_id":"9bfe4e82-241b-4620-b471-d226beb88b23","system_id":"levelo_inurba_marseille","lat":43.22913,"lon":5.35355,"is_reserved":false,"is_disabled":false,"rental_uris":{"android":"levelo://app?vid=9bfe4e82-241b-4620-b471-d226beb88b23","ios":"levelo://app?vid=9bfe4e82-241b-4620-b471-d226beb88b23"},"vehicle_type_id":"4","last_reported":1741349886,"current_range_meters":6800,"station_id":"cpo3532slgdg3j2ikp40","pricing_plan_id":"cebpf4jnsgd1na2vs0mg"},{"bike_id":"2860da57-3e4a-4079-8e9b-e79c52a22a2e","system_id":"levelo_inurba_marseille","lat":43.2782,"lon":5.407,"is_reserved":false,"is_disabled":false,"rental_uris":{"android":"levelo://app?vid=2860da57-3e4a-4079-8e9b-e79c52a22a2e","ios":"levelo://app?vid=2860da57-3e4a-4079-8e9b-e79c52a22a2e"},"vehicle_type_id":"4","last_reported":1741349886,"current_range_meters":6800,"station_id":"ce4bhnh2rcd13ifvqgtg","pricing_plan_id":"cebpf4jnsgd1na2vs0mg"},{"bike_id":"c262f8cf-6400-4efd-af91-c8aabadab203","system_id":"levelo_inurba_marseille","lat":43.23188,"lon":5.39985,"is_reserved":false,"is_disabled":false,"rental_uris":{"android":"levelo://app?vid=c262f8cf-6400-4efd-af91-c8aabadab203","ios":"levelo://app?vid=c262f8cf-6400-4efd-af91-c8aabadab203"},"vehicle_type_id":"4","last_reported":1741349886,"current_range_meters":7200,"station_id":"ce4bhn12rcd13ifvqgqg","pricing_plan_id":"cebpf4jnsgd1na2vs0mg"},{"bike_id":"373181b1-e21f-4b56-97a2-669a5770348f","system_id":"levelo_inurba_marseille","lat":43.27373,"lon":5.36255,"is_reserved":false,"is_disabled":false,"rental_uris":{"android":"levelo://app?vid=373181b1-e21f-4b56-97a2-669a5770348f","ios":"levelo://app?vid=373181b1-e21f-4b56-97a2-669a5770348f"},"vehicle_type_id":"4","last_reported":1741349886,"current_range_meters":7200,"station_id":"ce4bhbh2rcd13ifvqeo0","pricing_plan_id":"cebpf4jnsgd1na2vs0mg"},{"bike_id":"c21883ed-f667-46de-8631-54b26d361233","system_id":"levelo_inurba_marseille","lat":43.32041,"lon":5.41547,"is_reserved":false,"is_disabled":false,"rental_uris":{"android":"levelo://app?vid=c21883ed-f667-46de-8631-54b26d361233","ios":"levelo://app?vid=c21883ed-f667-46de-8631-54b26d361233"},"vehicle_type_id":"4","last_reported":1741349886,"current_range_meters":7200,"station_id":"ce4bhq92rcd13ifvqhkg","pricing_plan_id":"cebpf4jnsgd1na2vs0mg"},{"bike_id":"3c5e0350-07a6-4d3d-b526-00ffb41b6d3e","system_id":"levelo_inurba_marseille","lat":43.27952,"lon":5.41048,"is_reserved":false,"is_disabled":false,"rental_uris":{"android":"levelo://app?vid=3c5e0350-07a6-4d3d-b526-00ffb41b6d3e","ios":"levelo://app?vid=3c5e0350-07a6-4d3d-b526-00ffb41b6d3e"},"vehicle_type_id":"4","last_reported":1741349886,"current_range_meters":7200,"station_id":"ce4bhnp2rcd13ifvqh0g","pricing_plan_id":"cebpf4jnsgd1na2vs0mg"},{"bike_id":"e0073ce4-86f8-4860-89ab-2ac2cd430558","system_id":"levelo_inurba_marseille","lat":43.27971,"lon":5.38712,"is_reserved":false,"is_disabled":false,"rental_uris":{"android":"levelo://app?vid=e0073ce4-86f8-4860-89ab-2ac2cd430558","ios":"levelo://app?vid=e0073ce4-86f8-4860-89ab-2ac2cd430558"},"vehicle_type_id":"4","last_reported":1741349886,"current_range_meters":7200,"station_id":"ce4bhg12rcd13ifvqf80","pricing_plan_id":"cebpf4jnsgd1na2vs0mg"},{"bike_id":"915b7735-4cab-40c5-9411-3076bdbf4c7d","system_id":"levelo_inurba_marseille","lat":43.299023,"lon":5.436454,"is_reserved":false,"is_disabled":true,"rental_uris":{"android":"levelo://app?vid=915b7735-4cab-40c5-9411-3076bdbf4c7d","ios":"levelo://app?vid=915b7735-4cab-40c5-9411-3076bdbf4c7d"},"vehicle_type_id":"4","last_reported":1741349886,"current_range_meters":7200,"station_id":"ce4bhpp2rcd13ifvqhfg","pricing_plan_id":"cebpf4jnsgd1na2vs0mg"},{"bike_id":"c5d9a748-fb84-4751-9008-dc4467d9ed9a","system_id":"levelo_inurba_marseille","lat":43.23203,"lon":5.35556,"is_reserved":false,"is_disabled":false,"rental_uris":{"android":"levelo://app?vid=c5d9a748-fb84-4751-9008-dc4467d9ed9a","ios":"levelo://app?vid=c5d9a748-fb84-4751-9008-dc4467d9ed9a"},"vehicle_type_id":"4","last_reported":1741349886,"current_range_meters":7200,"station_id":"ce4bhu92rcd13ifvqi70","pricing_plan_id":"cebpf4jnsgd1na2vs0mg"},{"bike_id":"32d1f900-0344-4b56-aaa5-564d19ec802c","system_id":"levelo_inurba_marseille","lat":43.27938,"lon":5.41042,"is_reserved":false,"is_disabled":false,"rental_uris":{"android":"levelo://app?vid=32d1f900-0344-4b56-aaa5-564d19ec802c","ios":"levelo://app?vid=32d1f900-0344-4b56-aaa5-564d19ec802c"},"vehicle_type_id":"4","last_reported":1741349886,"current_range_meters":7200,"station_id":"ce4bhnp2rcd13ifvqh0g","pricing_plan_id":"cebpf4jnsgd1na2vs0mg"},{"bike_id":"cfad0bf5-a99b-4347-bf1a-370f0c59a9c4","system_id":"levelo_inurba_marseille","lat":43.27813,"lon":5.40708,"is_reserved":false,"is_disabled":false,"rental_uris":{"android":"levelo://app?vid=cfad0bf5-a99b-4347-bf1a-370f0c59a9c4","ios":"levelo://app?vid=cfad0bf5-a99b-4347-bf1a-370f0c59a9c4"},"vehicle_type_id":"4","last_reported":1741349886,"current_range_meters":7200,"station_id":"ce4bhnh2rcd13ifvqgtg","pricing_plan_id":"cebpf4jnsgd1na2vs0mg"},{"bike_id":"858c50df-ffa3-4ac3-a680-aba957e8944e","system_id":"levelo_inurba_marseille","lat":43.29893,"lon":5.43655,"is_reserved":false,"is_disabled":false,"rental_uris":{"android":"levelo://app?vid=858c50df-ffa3-4ac3-a680-aba957e8944e","ios":"levelo://app?vid=858c50df-ffa3-4ac3-a680-aba957e8944e"},"vehicle_type_id":"4","last_reported":1741349886,"current_range_meters":7200,"station_id":"ce4bhpp2rcd13ifvqhfg","pricing_plan_id":"cebpf4jnsgd1na2vs0mg"},{"bike_id":"1b34c58c-f011-43f3-baac-47c6cf7523c0","system_id":"levelo_inurba_marseille","lat":43.29899,"lon":5.43666,"is_reserved":false,"is_disabled":false,"rental_uris":{"android":"levelo://app?vid=1b34c58c-f011-43f3-baac-47c6cf7523c0","ios":"levelo://app?vid=1b34c58c-f011-43f3-baac-47c6cf7523c0"},"vehicle_type_id":"4","last_reported":1741349886,"current_range_meters":8000,"station_id":"ce4bhpp2rcd13ifvqhfg","pricing_plan_id":"cebpf4jnsgd1na2vs0mg"},{"bike_id":"d325d838-f1e3-4178-bf12-b739cd4e0c3a","system_id":"levelo_inurba_marseille","lat":43.30953,"lon":5.39021,"is_reserved":false,"is_disabled":true,"rental_uris":{"android":"levelo://app?vid=d325d838-f1e3-4178-bf12-b739cd4e0c3a","ios":"levelo://app?vid=d325d838-f1e3-4178-bf12-b739cd4e0c3a"},"vehicle_type_id":"4","last_reported":1741349886,"current_range_meters":8000,"station_id":"ce4bgup2rcd13ifvqco0","pricing_plan_id":"cebpf4jnsgd1na2vs0mg"},{"bike_id":"c25abbab-247a-41bd-b13a-f36a44dd1d43","system_id":"levelo_inurba_marseille","lat":43.27808,"lon":5.40707,"is_reserved":false,"is_disabled":false,"rental_uris":{"android":"levelo://app?vid=c25abbab-247a-41bd-b13a-f36a44dd1d43","ios":"levelo://app?vid=c25abbab-247a-41bd-b13a-f36a44dd1d43"},"vehicle_type_id":"4","last_reported":1741349886,"current_range_meters":8000,"station_id":"ce4bhnh2rcd13ifvqgtg","pricing_plan_id":"cebpf4jnsgd1na2vs0mg"},{"bike_id":"8bd9a3aa-9ed7-4767-950e-49cb76039219","system_id":"levelo_inurba_marseille","lat":43.30556,"lon":5.36537,"is_reserved":false,"is_disabled":false,"rental_uris":{"android":"levelo://app?vid=8bd9a3aa-9ed7-4767-950e-49cb76039219","ios":"levelo://app?vid=8bd9a3aa-9ed7-4767-950e-49cb76039219"},"vehicle_type_id":"4","last_reported":1741349886,"current_range_meters":8000,"station_id":"ce4bgs12rcd13ifvqcag","pricing_plan_id":"cebpf4jnsgd1na2vs0mg"},{"bike_id":"34d3115c-34a8-4c4a-990d-e2a70819b3e5","system_id":"levelo_inurba_marseille","lat":43.281525,"lon":5.426467,"is_reserved":false,"is_disabled":false,"rental_uris":{"android":"levelo://app?vid=34d3115c-34a8-4c4a-990d-e2a70819b3e5","ios":"levelo://app?vid=34d3115c-34a8-4c4a-990d-e2a70819b3e5"},"vehicle_type_id":"4","last_reported":1741349886,"current_range_meters":8000,"station_id":"ce4bhnh2rcd13ifvqgug","pricing_plan_id":"cebpf4jnsgd1na2vs0mg"},{"bike_id":"484f17bc-2a99-4d45-a9b9-614e75e026f7","system_id":"levelo_inurba_marseille","lat":43.27816,"lon":5.40697,"is_reserved":false,"is_disabled":false,"rental_uris":{"android":"levelo://app?vid=484f17bc-2a99-4d45-a9b9-614e75e026f7","ios":"levelo://app?vid=484f17bc-2a99-4d45-a9b9-614e75e026f7"},"vehicle_type_id":"4","last_reported":1741349886,"current_range_meters":8000,"station_id":"ce4bhnh2rcd13ifvqgtg","pricing_plan_id":"cebpf4jnsgd1na2vs0mg"},{"bike_id":"651068a3-bff5-4aa4-bafe-de2f2377d643","system_id":"levelo_inurba_marseille","lat":43.25716,"lon":5.41107,"is_reserved":false,"is_disabled":false,"rental_uris":{"android":"levelo://app?vid=651068a3-bff5-4aa4-bafe-de2f2377d643","ios":"levelo://app?vid=651068a3-bff5-4aa4-bafe-de2f2377d643"},"vehicle_type_id":"4","last_reported":1741349886,"current_range_meters":8000,"station_id":"ce4bhkp2rcd13ifvqgd0","pricing_plan_id":"cebpf4jnsgd1na2vs0mg"},{"bike_id":"83fa4c24-3906-4ff8-a868-b6cccc7b003d","system_id":"levelo_inurba_marseille","lat":43.28479,"lon":5.36906,"is_reserved":false,"is_disabled":false,"rental_uris":{"android":"levelo://app?vid=83fa4c24-3906-4ff8-a868-b6cccc7b003d","ios":"levelo://app?vid=83fa4c24-3906-4ff8-a868-b6cccc7b003d"},"vehicle_type_id":"4","last_reported":1741349886,"current_range_meters":8000,"station_id":"","pricing_plan_id":"cebpf4jnsgd1na2vs0mg"},{"bike_id":"847a5dac-e8fd-44b4-ac18-4d6e30c019a9","system_id":"levelo_inurba_marseille","lat":43.27328,"lon":5.39067,"is_reserved":false,"is_disabled":true,"rental_uris":{"android":"levelo://app?vid=847a5dac-e8fd-44b4-ac18-4d6e30c019a9","ios":"levelo://app?vid=847a5dac-e8fd-44b4-ac18-4d6e30c019a9"},"vehicle_type_id":"4","last_reported":1741349886,"current_range_meters":8000,"station_id":"ce4bhgp2rcd13ifvqfe0","pricing_plan_id":"cebpf4jnsgd1na2vs0mg"},{"bike_id":"a67e0f76-569f-41a3-9478-efaf4f81ba58","system_id":"levelo_inurba_marseille","lat":43.32362,"lon":5.38891,"is_reserved":false,"is_disabled":false,"rental_uris":{"android":"levelo://app?vid=a67e0f76-569f-41a3-9478-efaf4f81ba58","ios":"levelo://app?vid=a67e0f76-569f-41a3-9478-efaf4f81ba58"},"vehicle_type_id":"4","last_reported":1741349886,"current_range_meters":8400,"station_id":"ce4bhqp2rcd13ifvqhog","pricing_plan_id":"cebpf4jnsgd1na2vs0mg"},{"bike_id":"76e073c2-3ef7-4290-a30d-7890e83464bc","system_id":"levelo_inurba_marseille","lat":43.29417,"lon":5.38616,"is_reserved":false,"is_disabled":false,"rental_uris":{"android":"levelo://app?vid=76e073c2-3ef7-4290-a30d-7890e83464bc","ios":"levelo://app?vid=76e073c2-3ef7-4290-a30d-7890e83464bc"},"vehicle_type_id":"4","last_reported":1741349886,"current_range_meters":8400,"station_id":"ce4bh2h2rcd13ifvqdh0","pricing_plan_id":"cebpf4jnsgd1na2vs0mg"},{"bike_id":"7ad96960-c26d-4d04-9492-5023429321e7","system_id":"levelo_inurba_marseille","lat":43.27808,"lon":5.40713,"is_reserved":false,"is_disabled":false,"rental_uris":{"android":"levelo://app?vid=7ad96960-c26d-4d04-9492-5023429321e7","ios":"levelo://app?vid=7ad96960-c26d-4d04-9492-5023429321e7"},"vehicle_type_id":"4","last_reported":1741349886,"current_range_meters":8400,"station_id":"ce4bhnh2rcd13ifvqgtg","pricing_plan_id":"cebpf4jnsgd1na2vs0mg"},{"bike_id":"143b74fc-ab7b-4910-8495-ffc1ad22971d","system_id":"levelo_inurba_marseille","lat":43.250104,"lon":5.389203,"is_reserved":false,"is_disabled":true,"rental_uris":{"android":"levelo://app?vid=143b74fc-ab7b-4910-8495-ffc1ad22971d","ios":"levelo://app?vid=143b74fc-ab7b-4910-8495-ffc1ad22971d"},"vehicle_type_id":"4","last_reported":1741349886,"current_range_meters":8400,"station_id":"ce4bhgp2rcd13ifvqfd0","pricing_plan_id":"cebpf4jnsgd1na2vs0mg"},{"bike_id":"b7bc0161-fd2f-4b1a-8df2-8f22a2242cbd","system_id":"levelo_inurba_marseille","lat":43.265492,"lon":5.37286,"is_reserved":false,"is_disabled":false,"rental_uris":{"android":"levelo://app?vid=b7bc0161-fd2f-4b1a-8df2-8f22a2242cbd","ios":"levelo://app?vid=b7bc0161-fd2f-4b1a-8df2-8f22a2242cbd"},"vehicle_type_id":"4","last_reported":1741349886,"current_range_meters":8400,"station_id":"ce4bhg12rcd13ifvqf70","pricing_plan_id":"cebpf4jnsgd1na2vs0mg"},{"bike_id":"717b9a9a-84b4-4def-8ba1-b4e7fe3c666b","system_id":"levelo_inurba_marseille","lat":43.28675,"lon":5.38667,"is_reserved":false,"is_disabled":false,"rental_uris":{"android":"levelo://app?vid=717b9a9a-84b4-4def-8ba1-b4e7fe3c666b","ios":"levelo://app?vid=717b9a9a-84b4-4def-8ba1-b4e7fe3c666b"},"vehicle_type_id":"4","last_reported":1741349886,"current_range_meters":8400,"station_id":"ce4bh492rcd13ifvqdug","pricing_plan_id":"cebpf4jnsgd1na2vs0mg"},{"bike_id":"fdde8103-1f2a-4455-bcfa-e1d74ecb0194","system_id":"levelo_inurba_marseille","lat":43.27823,"lon":5.40722,"is_reserved":false,"is_disabled":false,"rental_uris":{"android":"levelo://app?vid=fdde8103-1f2a-4455-bcfa-e1d74ecb0194","ios":"levelo://app?vid=fdde8103-1f2a-4455-bcfa-e1d74ecb0194"},"vehicle_type_id":"4","last_reported":1741349886,"current_range_meters":8400,"station_id":"ce4bhnh2rcd13ifvqgtg","pricing_plan_id":"cebpf4jnsgd1na2vs0mg"},{"bike_id":"e9f7d157-0e7a-4fa3-aa48-b91932e9c096","system_id":"levelo_inurba_marseille","lat":43.30596,"lon":5.39361,"is_reserved":false,"is_disabled":false,"rental_uris":{"android":"levelo://app?vid=e9f7d157-0e7a-4fa3-aa48-b91932e9c096","ios":"levelo://app?vid=e9f7d157-0e7a-4fa3-aa48-b91932e9c096"},"vehicle_type_id":"4","last_reported":1741349886,"current_range_meters":8400,"station_id":"ce4bh0p2rcd13ifvqd80","pricing_plan_id":"cebpf4jnsgd1na2vs0mg"},{"bike_id":"357f6b0d-7429-4870-b5b1-c540923d954d","system_id":"levelo_inurba_marseille","lat":43.23062,"lon":5.35478,"is_reserved":false,"is_disabled":false,"rental_uris":{"android":"levelo://app?vid=357f6b0d-7429-4870-b5b1-c540923d954d","ios":"levelo://app?vid=357f6b0d-7429-4870-b5b1-c540923d954d"},"vehicle_type_id":"4","last_reported":1741349886,"current_range_meters":8400,"station_id":"cpo3342slgdg3j2ifvpg","pricing_plan_id":"cebpf4jnsgd1na2vs0mg"},{"bike_id":"3a6e6097-c535-4538-aa63-24dce7511bb2","system_id":"levelo_inurba_marseille","lat":43.26037,"lon":5.37554,"is_reserved":false,"is_disabled":false,"rental_uris":{"android":"levelo://app?vid=3a6e6097-c535-4538-aa63-24dce7511bb2","ios":"levelo://app?vid=3a6e6097-c535-4538-aa63-24dce7511bb2"},"vehicle_type_id":"4","last_reported":1741349886,"current_range_meters":8400,"station_id":"ce4bhgh2rcd13ifvqfa0","pricing_plan_id":"cebpf4jnsgd1na2vs0mg"},{"bike_id":"111b45a4-cef3-41ae-bc0e-a96b16949298","system_id":"levelo_inurba_marseille","lat":43.28482,"lon":5.38413,"is_reserved":false,"is_disabled":false,"rental_uris":{"android":"levelo://app?vid=111b45a4-cef3-41ae-bc0e-a96b16949298","ios":"levelo://app?vid=111b45a4-cef3-41ae-bc0e-a96b16949298"},"vehicle_type_id":"4","last_reported":1741349886,"current_range_meters":8400,"station_id":"ce4bh512rcd13ifvqe3g","pricing_plan_id":"cebpf4jnsgd1na2vs0mg"},{"bike_id":"4fc59b32-4bfa-4d77-a7ce-e2b6e44a9472","system_id":"levelo_inurba_marseille","lat":43.32649,"lon":5.40995,"is_reserved":false,"is_disabled":false,"rental_uris":{"android":"levelo://app?vid=4fc59b32-4bfa-4d77-a7ce-e2b6e44a9472","ios":"levelo://app?vid=4fc59b32-4bfa-4d77-a7ce-e2b6e44a9472"},"vehicle_type_id":"4","last_reported":1741349886,"current_range_meters":8800,"station_id":"ce4bhpp2rcd13ifvqhgg","pricing_plan_id":"cebpf4jnsgd1na2vs0mg"},{"bike_id":"e1d769e4-11f2-4d18-9030-8795575f90b3","system_id":"levelo_inurba_marseille","lat":43.29015,"lon":5.38626,"is_reserved":false,"is_disabled":false,"rental_uris":{"android":"levelo://app?vid=e1d769e4-11f2-4d18-9030-8795575f90b3","ios":"levelo://app?vid=e1d769e4-11f2-4d18-9030-8795575f90b3"},"vehicle_type_id":"4","last_reported":1741349886,"current_range_meters":8800,"station_id":"ce4bh4p2rcd13ifvqe0g","pricing_plan_id":"cebpf4jnsgd1na2vs0mg"},{"bike_id":"2d340159-37c8-41dc-a62f-ca06729e55bc","system_id":"levelo_inurba_marseille","lat":43.32364,"lon":5.36765,"is_reserved":false,"is_disabled":false,"rental_uris":{"android":"levelo://app?vid=2d340159-37c8-41dc-a62f-ca06729e55bc","ios":"levelo://app?vid=2d340159-37c8-41dc-a62f-ca06729e55bc"},"vehicle_type_id":"4","last_reported":1741349886,"current_range_meters":8800,"station_id":"ce4bhsh2rcd13ifvqi2g","pricing_plan_id":"cebpf4jnsgd1na2vs0mg"},{"bike_id":"43d80879-61e1-487c-9f47-df90f30e417d","system_id":"levelo_inurba_marseille","lat":43.27896,"lon":5.38001,"is_reserved":false,"is_disabled":false,"rental_uris":{"android":"levelo://app?vid=43d80879-61e1-487c-9f47-df90f30e417d","ios":"levelo://app?vid=43d80879-61e1-487c-9f47-df90f30e417d"},"vehicle_type_id":"4","last_reported":1741349886,"current_range_meters":8800,"station_id":"ce4bhf92rcd13ifvqf50","pricing_plan_id":"cebpf4jnsgd1na2vs0mg"},{"bike_id":"35130f87-b313-43ca-86df-0e44026654c1","system_id":"levelo_inurba_marseille","lat":43.30978,"lon":5.36997,"is_reserved":false,"is_disabled":false,"rental_uris":{"android":"levelo://app?vid=35130f87-b313-43ca-86df-0e44026654c1","ios":"levelo://app?vid=35130f87-b313-43ca-86df-0e44026654c1"},"vehicle_type_id":"4","last_reported":1741349886,"current_range_meters":8800,"station_id":"","pricing_plan_id":"cebpf4jnsgd1na2vs0mg"},{"bike_id":"638544ac-6b40-416a-81cd-a10d0a289428","system_id":"levelo_inurba_marseille","lat":43.31323,"lon":5.39696,"is_reserved":false,"is_disabled":false,"rental_uris":{"android":"levelo://app?vid=638544ac-6b40-416a-81cd-a10d0a289428","ios":"levelo://app?vid=638544ac-6b40-416a-81cd-a10d0a289428"},"vehicle_type_id":"4","last_reported":1741349886,"current_range_meters":8400,"station_id":"ce4bgvp2rcd13ifvqcu0","pricing_plan_id":"cebpf4jnsgd1na2vs0mg"},{"bike_id":"b8774bbb-99d8-4ec6-a60d-b2918c50c6c9","system_id":"levelo_inurba_marseille","lat":43.29524,"lon":5.38537,"is_reserved":false,"is_disabled":false,"rental_uris":{"android":"levelo://app?vid=b8774bbb-99d8-4ec6-a60d-b2918c50c6c9","ios":"levelo://app?vid=b8774bbb-99d8-4ec6-a60d-b2918c50c6c9"},"vehicle_type_id":"4","last_reported":1741349886,"current_range_meters":8800,"station_id":"ce4bgih2rcd13ifvqba0","pricing_plan_id":"cebpf4jnsgd1na2vs0mg"},{"bike_id":"eb2be782-58bb-44cd-8eda-be42eb157610","system_id":"levelo_inurba_marseille","lat":43.24166,"lon":5.39733,"is_reserved":false,"is_disabled":false,"rental_uris":{"android":"levelo://app?vid=eb2be782-58bb-44cd-8eda-be42eb157610","ios":"levelo://app?vid=eb2be782-58bb-44cd-8eda-be42eb157610"},"vehicle_type_id":"4","last_reported":1741349886,"current_range_meters":9200,"station_id":"ce4bhn12rcd13ifvqgpg","pricing_plan_id":"cebpf4jnsgd1na2vs0mg"},{"bike_id":"f7ef532d-eb7f-4231-90b7-882c24cccfb9","system_id":"levelo_inurba_marseille","lat":43.27812,"lon":5.40714,"is_reserved":false,"is_disabled":false,"rental_uris":{"android":"levelo://app?vid=f7ef532d-eb7f-4231-90b7-882c24cccfb9","ios":"levelo://app?vid=f7ef532d-eb7f-4231-90b7-882c24cccfb9"},"vehicle_type_id":"4","last_reported":1741349886,"current_range_meters":9200,"station_id":"ce4bhnh2rcd13ifvqgtg","pricing_plan_id":"cebpf4jnsgd1na2vs0mg"},{"bike_id":"9a95a560-5413-48f1-8625-b30eb8fa3c35","system_id":"levelo_inurba_marseille","lat":43.32655,"lon":5.40995,"is_reserved":false,"is_disabled":false,"rental_uris":{"android":"levelo://app?vid=9a95a560-5413-48f1-8625-b30eb8fa3c35","ios":"levelo://app?vid=9a95a560-5413-48f1-8625-b30eb8fa3c35"},"vehicle_type_id":"4","last_reported":1741349886,"current_range_meters":9200,"station_id":"ce4bhpp2rcd13ifvqhgg","pricing_plan_id":"cebpf4jnsgd1na2vs0mg"},{"bike_id":"b444b4f7-472b-4982-bcbe-58c889f54890","system_id":"levelo_inurba_marseille","lat":43.31488,"lon":5.37307,"is_reserved":false,"is_disabled":false,"rental_uris":{"android":"levelo://app?vid=b444b4f7-472b-4982-bcbe-58c889f54890","ios":"levelo://app?vid=b444b4f7-472b-4982-bcbe-58c889f54890"},"vehicle_type_id":"4","last_reported":1741349886,"current_range_meters":9200,"station_id":"ce4bgt12rcd13ifvqcd0","pricing_plan_id":"cebpf4jnsgd1na2vs0mg"},{"bike_id":"8aef80f6-d63a-4d5b-a709-5382d05dd4df","system_id":"levelo_inurba_marseille","lat":43.24797,"lon":5.37463,"is_reserved":false,"is_disabled":false,"rental_uris":{"android":"levelo://app?vid=8aef80f6-d63a-4d5b-a709-5382d05dd4df","ios":"levelo://app?vid=8aef80f6-d63a-4d5b-a709-5382d05dd4df"},"vehicle_type_id":"4","last_reported":1741349886,"current_range_meters":9200,"station_id":"ce4bhgh2rcd13ifvqfb0","pricing_plan_id":"cebpf4jnsgd1na2vs0mg"},{"bike_id":"f35f85ec-b3f3-4d4e-875e-448b6d99a993","system_id":"levelo_inurba_marseille","lat":43.27206,"lon":5.39172,"is_reserved":false,"is_disabled":false,"rental_uris":{"android":"levelo://app?vid=f35f85ec-b3f3-4d4e-875e-448b6d99a993","ios":"levelo://app?vid=f35f85ec-b3f3-4d4e-875e-448b6d99a993"},"vehicle_type_id":"4","last_reported":1741349886,"current_range_meters":9200,"station_id":"ce4bhhp2rcd13ifvqfm0","pricing_plan_id":"cebpf4jnsgd1na2vs0mg"},{"bike_id":"001e7834-4069-4feb-8637-8e85f0cacc90","system_id":"levelo_inurba_marseille","lat":43.24672,"lon":5.38153,"is_reserved":false,"is_disabled":false,"rental_uris":{"android":"levelo://app?vid=001e7834-4069-4feb-8637-8e85f0cacc90","ios":"levelo://app?vid=001e7834-4069-4feb-8637-8e85f0cacc90"},"vehicle_type_id":"4","last_reported":1741349886,"current_range_meters":9200,"station_id":"ce4bhih2rcd13ifvqfr0","pricing_plan_id":"cebpf4jnsgd1na2vs0mg"},{"bike_id":"28437508-fa41-4054-b93c-b2fb98fbe78d","system_id":"levelo_inurba_marseille","lat":43.27901,"lon":5.37998,"is_reserved":false,"is_disabled":false,"rental_uris":{"android":"levelo://app?vid=28437508-fa41-4054-b93c-b2fb98fbe78d","ios":"levelo://app?vid=28437508-fa41-4054-b93c-b2fb98fbe78d"},"vehicle_type_id":"4","last_reported":1741349886,"current_range_meters":9200,"station_id":"ce4bhf92rcd13ifvqf50","pricing_plan_id":"cebpf4jnsgd1na2vs0mg"},{"bike_id":"d8633e5b-9cfb-404d-a25c-e95914fe5365","system_id":"levelo_inurba_marseille","lat":43.30137,"lon":5.39885,"is_reserved":false,"is_disabled":false,"rental_uris":{"android":"levelo://app?vid=d8633e5b-9cfb-404d-a25c-e95914fe5365","ios":"levelo://app?vid=d8633e5b-9cfb-404d-a25c-e95914fe5365"},"vehicle_type_id":"4","last_reported":1741349886,"current_range_meters":9200,"station_id":"ce4bh0h2rcd13ifvqd40","pricing_plan_id":"cebpf4jnsgd1na2vs0mg"},{"bike_id":"f920a6ef-f0bd-4ed5-a63d-fc440a8642f5","system_id":"levelo_inurba_marseille","lat":43.25937,"lon":5.40897,"is_reserved":false,"is_disabled":false,"rental_uris":{"android":"levelo://app?vid=f920a6ef-f0bd-4ed5-a63d-fc440a8642f5","ios":"levelo://app?vid=f920a6ef-f0bd-4ed5-a63d-fc440a8642f5"},"vehicle_type_id":"4","last_reported":1741349886,"current_range_meters":9600,"station_id":"ce4bhm92rcd13ifvqglg","pricing_plan_id":"cebpf4jnsgd1na2vs0mg"},{"bike_id":"3c7a46d2-444a-4f49-9c30-f2d710357d3f","system_id":"levelo_inurba_marseille","lat":43.23187,"lon":5.40005,"is_reserved":false,"is_disabled":false,"rental_uris":{"android":"levelo://app?vid=3c7a46d2-444a-4f49-9c30-f2d710357d3f","ios":"levelo://app?vid=3c7a46d2-444a-4f49-9c30-f2d710357d3f"},"vehicle_type_id":"4","last_reported":1741349886,"current_range_meters":9600,"station_id":"ce4bhn12rcd13ifvqgqg","pricing_plan_id":"cebpf4jnsgd1na2vs0mg"},{"bike_id":"56db0908-ef01-44f7-b403-cea5d6e769c0","system_id":"levelo_inurba_marseille","lat":43.26204,"lon":5.37426,"is_reserved":false,"is_disabled":false,"rental_uris":{"android":"levelo://app?vid=56db0908-ef01-44f7-b403-cea5d6e769c0","ios":"levelo://app?vid=56db0908-ef01-44f7-b403-cea5d6e769c0"},"vehicle_type_id":"4","last_reported":1741349886,"current_range_meters":9600,"station_id":"ce4bhgp2rcd13ifvqfc0","pricing_plan_id":"cebpf4jnsgd1na2vs0mg"},{"bike_id":"f45a4db5-56fd-4954-92bb-9c7c50c5d7a6","system_id":"levelo_inurba_marseille","lat":43.25922,"lon":5.40903,"is_reserved":false,"is_disabled":false,"rental_uris":{"android":"levelo://app?vid=f45a4db5-56fd-4954-92bb-9c7c50c5d7a6","ios":"levelo://app?vid=f45a4db5-56fd-4954-92bb-9c7c50c5d7a6"},"vehicle_type_id":"4","last_reported":1741349886,"current_range_meters":9600,"station_id":"ce4bhm92rcd13ifvqglg","pricing_plan_id":"cebpf4jnsgd1na2vs0mg"},{"bike_id":"c60e6676-2738-45db-9d7d-8a984ca0c09b","system_id":"levelo_inurba_marseille","lat":43.32363,"lon":5.38888,"is_reserved":false,"is_disabled":false,"rental_uris":{"android":"levelo://app?vid=c60e6676-2738-45db-9d7d-8a984ca0c09b","ios":"levelo://app?vid=c60e6676-2738-45db-9d7d-8a984ca0c09b"},"vehicle_type_id":"4","last_reported":1741349886,"current_range_meters":9600,"station_id":"ce4bhqp2rcd13ifvqhog","pricing_plan_id":"cebpf4jnsgd1na2vs0mg"},{"bike_id":"5598ef7e-a2c9-484b-9b14-04256dd6e08e","system_id":"levelo_inurba_marseille","lat":43.238976,"lon":5.362614,"is_reserved":false,"is_disabled":false,"rental_uris":{"android":"levelo://app?vid=5598ef7e-a2c9-484b-9b14-04256dd6e08e","ios":"levelo://app?vid=5598ef7e-a2c9-484b-9b14-04256dd6e08e"},"vehicle_type_id":"4","last_reported":1741349886,"current_range_meters":10000,"station_id":"ce4bhu92rcd13ifvqi70","pricing_plan_id":"cebpf4jnsgd1na2vs0mg"},{"bike_id":"a7e8bc7d-4983-4763-86bc-9b1548214877","system_id":"levelo_inurba_marseille","lat":43.30537,"lon":5.36689,"is_reserved":false,"is_disabled":false,"rental_uris":{"android":"levelo://app?vid=a7e8bc7d-4983-4763-86bc-9b1548214877","ios":"levelo://app?vid=a7e8bc7d-4983-4763-86bc-9b1548214877"},"vehicle_type_id":"4","last_reported":1741349886,"current_range_meters":10000,"station_id":"ce4bgrp2rcd13ifvqc9g","pricing_plan_id":"cebpf4jnsgd1na2vs0mg"},{"bike_id":"2dafe4c3-4c28-4c90-a34e-a2cb09c1c316","system_id":"levelo_inurba_marseille","lat":43.3057,"lon":5.36552,"is_reserved":false,"is_disabled":false,"rental_uris":{"android":"levelo://app?vid=2dafe4c3-4c28-4c90-a34e-a2cb09c1c316","ios":"levelo://app?vid=2dafe4c3-4c28-4c90-a34e-a2cb09c1c316"},"vehicle_type_id":"4","last_reported":1741349886,"current_range_meters":10000,"station_id":"ce4bgs12rcd13ifvqcag","pricing_plan_id":"cebpf4jnsgd1na2vs0mg"},{"bike_id":"eafe4b69-377a-4367-8094-acec75bf48d4","system_id":"levelo_inurba_marseille","lat":43.31075,"lon":5.38354,"is_reserved":false,"is_disabled":false,"rental_uris":{"android":"levelo://app?vid=eafe4b69-377a-4367-8094-acec75bf48d4","ios":"levelo://app?vid=eafe4b69-377a-4367-8094-acec75bf48d4"},"vehicle_type_id":"4","last_reported":1741349886,"current_range_meters":10000,"station_id":"ce4bgv92rcd13ifvqcr0","pricing_plan_id":"cebpf4jnsgd1na2vs0mg"},{"bike_id":"7d0d9fda-5dc4-4563-9068-0542f4d74115","system_id":"levelo_inurba_marseille","lat":43.27494,"lon":5.4245,"is_reserved":false,"is_disabled":false,"rental_uris":{"android":"levelo://app?vid=7d0d9fda-5dc4-4563-9068-0542f4d74115","ios":"levelo://app?vid=7d0d9fda-5dc4-4563-9068-0542f4d74115"},"vehicle_type_id":"4","last_reported":1741349886,"current_range_meters":9600,"station_id":"ce4bhn92rcd13ifvqgrg","pricing_plan_id":"cebpf4jnsgd1na2vs0mg"},{"bike_id":"8e1e3cb9-ac24-4e18-8822-8340f11790ea","system_id":"levelo_inurba_marseille","lat":43.29421,"lon":5.38609,"is_reserved":false,"is_disabled":false,"rental_uris":{"android":"levelo://app?vid=8e1e3cb9-ac24-4e18-8822-8340f11790ea","ios":"levelo://app?vid=8e1e3cb9-ac24-4e18-8822-8340f11790ea"},"vehicle_type_id":"4","last_reported":1741349886,"current_range_meters":10000,"station_id":"ce4bh2h2rcd13ifvqdh0","pricing_plan_id":"cebpf4jnsgd1na2vs0mg"},{"bike_id":"79bac43d-1e84-42a0-9859-8f97931b5e63","system_id":"levelo_inurba_marseille","lat":43.29538,"lon":5.38551,"is_reserved":false,"is_disabled":false,"rental_uris":{"android":"levelo://app?vid=79bac43d-1e84-42a0-9859-8f97931b5e63","ios":"levelo://app?vid=79bac43d-1e84-42a0-9859-8f97931b5e63"},"vehicle_type_id":"4","last_reported":1741349886,"current_range_meters":10800,"station_id":"ce4bgih2rcd13ifvqba0","pricing_plan_id":"cebpf4jnsgd1na2vs0mg"},{"bike_id":"10a6ed70-33a4-4079-a133-998f1e0e536e","system_id":"levelo_inurba_marseille","lat":43.283421,"lon":5.381016,"is_reserved":false,"is_disabled":false,"rental_uris":{"android":"levelo://app?vid=10a6ed70-33a4-4079-a133-998f1e0e536e","ios":"levelo://app?vid=10a6ed70-33a4-4079-a133-998f1e0e536e"},"vehicle_type_id":"4","last_reported":1741349886,"current_range_meters":9600,"station_id":"ce4bh412rcd13ifvqdr0","pricing_plan_id":"cebpf4jnsgd1na2vs0mg"},{"bike_id":"6523d5ef-570d-4396-a60b-322e8edec8da","system_id":"levelo_inurba_marseille","lat":43.29961,"lon":5.38501,"is_reserved":false,"is_disabled":false,"rental_uris":{"android":"levelo://app?vid=6523d5ef-570d-4396-a60b-322e8edec8da","ios":"levelo://app?vid=6523d5ef-570d-4396-a60b-322e8edec8da"},"vehicle_type_id":"4","last_reported":1741349886,"current_range_meters":10000,"station_id":"ce4bgj92rcd13ifvqbd0","pricing_plan_id":"cebpf4jnsgd1na2vs0mg"},{"bike_id":"c486ac80-4022-486b-925b-91231391bf5f","system_id":"levelo_inurba_marseille","lat":43.29096,"lon":5.38134,"is_reserved":false,"is_disabled":false,"rental_uris":{"android":"levelo://app?vid=c486ac80-4022-486b-925b-91231391bf5f","ios":"levelo://app?vid=c486ac80-4022-486b-925b-91231391bf5f"},"vehicle_type_id":"4","last_reported":1741349886,"current_range_meters":10800,"station_id":"ce4bh512rcd13ifvqe2g","pricing_plan_id":"cebpf4jnsgd1na2vs0mg"},{"bike_id":"4db82391-0c03-46c7-b305-ff7f8cf9027b","system_id":"levelo_inurba_marseille","lat":43.24388,"lon":5.37062,"is_reserved":false,"is_disabled":false,"rental_uris":{"android":"levelo://app?vid=4db82391-0c03-46c7-b305-ff7f8cf9027b","ios":"levelo://app?vid=4db82391-0c03-46c7-b305-ff7f8cf9027b"},"vehicle_type_id":"4","last_reported":1741349886,"current_range_meters":10800,"station_id":"ce4bhhh2rcd13ifvqfk0","pricing_plan_id":"cebpf4jnsgd1na2vs0mg"},{"bike_id":"928aef88-15b8-425e-bc98-e917a7558c07","system_id":"levelo_inurba_marseille","lat":43.29433,"lon":5.39756,"is_reserved":false,"is_disabled":true,"rental_uris":{"android":"levelo://app?vid=928aef88-15b8-425e-bc98-e917a7558c07","ios":"levelo://app?vid=928aef88-15b8-425e-bc98-e917a7558c07"},"vehicle_type_id":"4","last_reported":1741349886,"current_range_meters":10800,"station_id":"ce4bh3h2rcd13ifvqdo0","pricing_plan_id":"cebpf4jnsgd1na2vs0mg"},{"bike_id":"e720a8f2-51c4-45e0-ad35-8fb04937bbc4","system_id":"levelo_inurba_marseille","lat":43.2794,"lon":5.41039,"is_reserved":false,"is_disabled":false,"rental_uris":{"android":"levelo://app?vid=e720a8f2-51c4-45e0-ad35-8fb04937bbc4","ios":"levelo://app?vid=e720a8f2-51c4-45e0-ad35-8fb04937bbc4"},"vehicle_type_id":"4","last_reported":1741349886,"current_range_meters":10800,"station_id":"ce4bhnp2rcd13ifvqh0g","pricing_plan_id":"cebpf4jnsgd1na2vs0mg"},{"bike_id":"73116d37-8876-4d6b-8ee0-e4caf675c6b7","system_id":"levelo_inurba_marseille","lat":43.27812,"lon":5.40717,"is_reserved":false,"is_disabled":false,"rental_uris":{"android":"levelo://app?vid=73116d37-8876-4d6b-8ee0-e4caf675c6b7","ios":"levelo://app?vid=73116d37-8876-4d6b-8ee0-e4caf675c6b7"},"vehicle_type_id":"4","last_reported":1741349886,"current_range_meters":10800,"station_id":"ce4bhnh2rcd13ifvqgtg","pricing_plan_id":"cebpf4jnsgd1na2vs0mg"},{"bike_id":"42323b44-4776-4993-88db-08c90d643018","system_id":"levelo_inurba_marseille","lat":43.30069,"lon":5.37664,"is_reserved":false,"is_disabled":false,"rental_uris":{"android":"levelo://app?vid=42323b44-4776-4993-88db-08c90d643018","ios":"levelo://app?vid=42323b44-4776-4993-88db-08c90d643018"},"vehicle_type_id":"4","last_reported":1741349886,"current_range_meters":10800,"station_id":"","pricing_plan_id":"cebpf4jnsgd1na2vs0mg"},{"bike_id":"389ff1ff-a973-45be-8e7d-45650219f880","system_id":"levelo_inurba_marseille","lat":43.27813,"lon":5.40715,"is_reserved":false,"is_disabled":false,"rental_uris":{"android":"levelo://app?vid=389ff1ff-a973-45be-8e7d-45650219f880","ios":"levelo://app?vid=389ff1ff-a973-45be-8e7d-45650219f880"},"vehicle_type_id":"4","last_reported":1741349886,"current_range_meters":11200,"station_id":"ce4bhnh2rcd13ifvqgtg","pricing_plan_id":"cebpf4jnsgd1na2vs0mg"},{"bike_id":"4ecec15e-51a9-464b-a6c3-43511ce6977f","system_id":"levelo_inurba_marseille","lat":43.27815,"lon":5.40702,"is_reserved":false,"is_disabled":false,"rental_uris":{"android":"levelo://app?vid=4ecec15e-51a9-464b-a6c3-43511ce6977f","ios":"levelo://app?vid=4ecec15e-51a9-464b-a6c3-43511ce6977f"},"vehicle_type_id":"4","last_reported":1741349886,"current_range_meters":11200,"station_id":"ce4bhnh2rcd13ifvqgtg","pricing_plan_id":"cebpf4jnsgd1na2vs0mg"},{"bike_id":"6a1366c1-41ed-4dda-b62f-b12cda709bc4","system_id":"levelo_inurba_marseille","lat":43.32359,"lon":5.3888,"is_reserved":false,"is_disabled":false,"rental_uris":{"android":"levelo://app?vid=6a1366c1-41ed-4dda-b62f-b12cda709bc4","ios":"levelo://app?vid=6a1366c1-41ed-4dda-b62f-b12cda709bc4"},"vehicle_type_id":"4","last_reported":1741349886,"current_range_meters":11200,"station_id":"ce4bhqp2rcd13ifvqhog","pricing_plan_id":"cebpf4jnsgd1na2vs0mg"},{"bike_id":"295d6f15-8c2f-4e24-bbc3-8947dd2bbbb9","system_id":"levelo_inurba_marseille","lat":43.2619,"lon":5.37446,"is_reserved":false,"is_disabled":false,"rental_uris":{"android":"levelo://app?vid=295d6f15-8c2f-4e24-bbc3-8947dd2bbbb9","ios":"levelo://app?vid=295d6f15-8c2f-4e24-bbc3-8947dd2bbbb9"},"vehicle_type_id":"4","last_reported":1741349886,"current_range_meters":11200,"station_id":"ce4bhgp2rcd13ifvqfc0","pricing_plan_id":"cebpf4jnsgd1na2vs0mg"},{"bike_id":"55f1a346-655d-4ceb-961f-e11c032b07e0","system_id":"levelo_inurba_marseille","lat":43.32672,"lon":5.40297,"is_reserved":false,"is_disabled":false,"rental_uris":{"android":"levelo://app?vid=55f1a346-655d-4ceb-961f-e11c032b07e0","ios":"levelo://app?vid=55f1a346-655d-4ceb-961f-e11c032b07e0"},"vehicle_type_id":"4","last_reported":1741349886,"current_range_meters":11200,"station_id":"","pricing_plan_id":"cebpf4jnsgd1na2vs0mg"},{"bike_id":"5ba22cb2-6d7a-4a0c-92d4-89adcbc8752e","system_id":"levelo_inurba_marseille","lat":43.24995,"lon":5.38926,"is_reserved":false,"is_disabled":true,"rental_uris":{"android":"levelo://app?vid=5ba22cb2-6d7a-4a0c-92d4-89adcbc8752e","ios":"levelo://app?vid=5ba22cb2-6d7a-4a0c-92d4-89adcbc8752e"},"vehicle_type_id":"4","last_reported":1741349886,"current_range_meters":11200,"station_id":"ce4bhgp2rcd13ifvqfd0","pricing_plan_id":"cebpf4jnsgd1na2vs0mg"},{"bike_id":"21ca33ea-7ad0-443d-a7af-31500b5c9392","system_id":"levelo_inurba_marseille","lat":43.28035,"lon":5.36943,"is_reserved":false,"is_disabled":false,"rental_uris":{"android":"levelo://app?vid=21ca33ea-7ad0-443d-a7af-31500b5c9392","ios":"levelo://app?vid=21ca33ea-7ad0-443d-a7af-31500b5c9392"},"vehicle_type_id":"4","last_reported":1741349886,"current_range_meters":11200,"station_id":"ce4bha12rcd13ifvqef0","pricing_plan_id":"cebpf4jnsgd1na2vs0mg"},{"bike_id":"ce22c40d-4046-45ad-b85a-7642f17c11db","system_id":"levelo_inurba_marseille","lat":43.28,"lon":5.40012,"is_reserved":false,"is_disabled":false,"rental_uris":{"android":"levelo://app?vid=ce22c40d-4046-45ad-b85a-7642f17c11db","ios":"levelo://app?vid=ce22c40d-4046-45ad-b85a-7642f17c11db"},"vehicle_type_id":"4","last_reported":1741349886,"current_range_meters":11200,"station_id":"ce4bho92rcd13ifvqh4g","pricing_plan_id":"cebpf4jnsgd1na2vs0mg"},{"bike_id":"daa48c53-c5de-46aa-94fc-655cbd710c8c","system_id":"levelo_inurba_marseille","lat":43.22941,"lon":5.35382,"is_reserved":false,"is_disabled":false,"rental_uris":{"android":"levelo://app?vid=daa48c53-c5de-46aa-94fc-655cbd710c8c","ios":"levelo://app?vid=daa48c53-c5de-46aa-94fc-655cbd710c8c"},"vehicle_type_id":"4","last_reported":1741349886,"current_range_meters":11200,"station_id":"cpo3532slgdg3j2ikp40","pricing_plan_id":"cebpf4jnsgd1na2vs0mg"},{"bike_id":"cc0acfa9-eeb1-4d77-b997-82125640144f","system_id":"levelo_inurba_marseille","lat":43.23131,"lon":5.43705,"is_reserved":false,"is_disabled":false,"rental_uris":{"android":"levelo://app?vid=cc0acfa9-eeb1-4d77-b997-82125640144f","ios":"levelo://app?vid=cc0acfa9-eeb1-4d77-b997-82125640144f"},"vehicle_type_id":"4","last_reported":1741349886,"current_range_meters":11600,"station_id":"ce4bhmp2rcd13ifvqgog","pricing_plan_id":"cebpf4jnsgd1na2vs0mg"},{"bike_id":"35d71c51-62e1-4b47-a07f-91a25d187c38","system_id":"levelo_inurba_marseille","lat":43.27207,"lon":5.39181,"is_reserved":false,"is_disabled":false,"rental_uris":{"android":"levelo://app?vid=35d71c51-62e1-4b47-a07f-91a25d187c38","ios":"levelo://app?vid=35d71c51-62e1-4b47-a07f-91a25d187c38"},"vehicle_type_id":"4","last_reported":1741349886,"current_range_meters":11600,"station_id":"ce4bhhp2rcd13ifvqfm0","pricing_plan_id":"cebpf4jnsgd1na2vs0mg"},{"bike_id":"0a5cac2f-0649-45aa-9691-573c36bba114","system_id":"levelo_inurba_marseille","lat":43.30136,"lon":5.38762,"is_reserved":false,"is_disabled":false,"rental_uris":{"android":"levelo://app?vid=0a5cac2f-0649-45aa-9691-573c36bba114","ios":"levelo://app?vid=0a5cac2f-0649-45aa-9691-573c36bba114"},"vehicle_type_id":"4","last_reported":1741349886,"current_range_meters":11200,"station_id":"ce4bghh2rcd13ifvqb60","pricing_plan_id":"cebpf4jnsgd1na2vs0mg"},{"bike_id":"707f7ab7-3329-4bbe-a15e-b7a9d9e721c7","system_id":"levelo_inurba_marseille","lat":43.31255,"lon":5.36899,"is_reserved":false,"is_disabled":false,"rental_uris":{"android":"levelo://app?vid=707f7ab7-3329-4bbe-a15e-b7a9d9e721c7","ios":"levelo://app?vid=707f7ab7-3329-4bbe-a15e-b7a9d9e721c7"},"vehicle_type_id":"4","last_reported":1741349886,"current_range_meters":11600,"station_id":"ce4bgl92rcd13ifvqbq0","pricing_plan_id":"cebpf4jnsgd1na2vs0mg"},{"bike_id":"245799ce-847c-45ed-8581-93b7a424d0df","system_id":"levelo_inurba_marseille","lat":43.2501,"lon":5.38939,"is_reserved":false,"is_disabled":false,"rental_uris":{"android":"levelo://app?vid=245799ce-847c-45ed-8581-93b7a424d0df","ios":"levelo://app?vid=245799ce-847c-45ed-8581-93b7a424d0df"},"vehicle_type_id":"4","last_reported":1741349886,"current_range_meters":12000,"station_id":"ce4bhgp2rcd13ifvqfd0","pricing_plan_id":"cebpf4jnsgd1na2vs0mg"},{"bike_id":"ee777724-2f73-494f-bf61-dac0c8b99ef2","system_id":"levelo_inurba_marseille","lat":43.29417,"lon":5.38622,"is_reserved":false,"is_disabled":false,"rental_uris":{"android":"levelo://app?vid=ee777724-2f73-494f-bf61-dac0c8b99ef2","ios":"levelo://app?vid=ee777724-2f73-494f-bf61-dac0c8b99ef2"},"vehicle_type_id":"4","last_reported":1741349886,"current_range_meters":11600,"station_id":"ce4bh2h2rcd13ifvqdh0","pricing_plan_id":"cebpf4jnsgd1na2vs0mg"},{"bike_id":"52f8fb82-ddb3-4634-bc24-c394e2aa5462","system_id":"levelo_inurba_marseille","lat":43.30304,"lon":5.36906,"is_reserved":false,"is_disabled":false,"rental_uris":{"android":"levelo://app?vid=52f8fb82-ddb3-4634-bc24-c394e2aa5462","ios":"levelo://app?vid=52f8fb82-ddb3-4634-bc24-c394e2aa5462"},"vehicle_type_id":"4","last_reported":1741349886,"current_range_meters":12000,"station_id":"ce4bgqh2rcd13ifvqc5g","pricing_plan_id":"cebpf4jnsgd1na2vs0mg"},{"bike_id":"065a6c82-6cd5-4e20-bca7-0972d5bafe58","system_id":"levelo_inurba_marseille","lat":43.24076,"lon":5.37755,"is_reserved":false,"is_disabled":false,"rental_uris":{"android":"levelo://app?vid=065a6c82-6cd5-4e20-bca7-0972d5bafe58","ios":"levelo://app?vid=065a6c82-6cd5-4e20-bca7-0972d5bafe58"},"vehicle_type_id":"4","last_reported":1741349886,"current_range_meters":12000,"station_id":"ce4bhnp2rcd13ifvqgvg","pricing_plan_id":"cebpf4jnsgd1na2vs0mg"},{"bike_id":"3949e300-2dbd-4203-aa58-eef0b1b0c774","system_id":"levelo_inurba_marseille","lat":43.33781,"lon":5.37429,"is_reserved":false,"is_disabled":false,"rental_uris":{"android":"levelo://app?vid=3949e300-2dbd-4203-aa58-eef0b1b0c774","ios":"levelo://app?vid=3949e300-2dbd-4203-aa58-eef0b1b0c774"},"vehicle_type_id":"4","last_reported":1741349886,"current_range_meters":12000,"station_id":"","pricing_plan_id":"cebpf4jnsgd1na2vs0mg"},{"bike_id":"e79dc040-4a1d-4ad1-bf6c-8396f32051ce","system_id":"levelo_inurba_marseille","lat":43.28147,"lon":5.42634,"is_reserved":false,"is_disabled":false,"rental_uris":{"android":"levelo://app?vid=e79dc040-4a1d-4ad1-bf6c-8396f32051ce","ios":"levelo://app?vid=e79dc040-4a1d-4ad1-bf6c-8396f32051ce"},"vehicle_type_id":"4","last_reported":1741349886,"current_range_meters":12000,"station_id":"ce4bhnh2rcd13ifvqgug","pricing_plan_id":"cebpf4jnsgd1na2vs0mg"},{"bike_id":"a798769a-1315-41cd-8151-fc154c0ee497","system_id":"levelo_inurba_marseille","lat":43.27809,"lon":5.40696,"is_reserved":false,"is_disabled":false,"rental_uris":{"android":"levelo://app?vid=a798769a-1315-41cd-8151-fc154c0ee497","ios":"levelo://app?vid=a798769a-1315-41cd-8151-fc154c0ee497"},"vehicle_type_id":"4","last_reported":1741349886,"current_range_meters":12000,"station_id":"ce4bhnh2rcd13ifvqgtg","pricing_plan_id":"cebpf4jnsgd1na2vs0mg"},{"bike_id":"2da197ac-57ed-4f4f-b0f6-cc89ef5c1c68","system_id":"levelo_inurba_marseille","lat":43.262,"lon":5.37921,"is_reserved":false,"is_disabled":false,"rental_uris":{"android":"levelo://app?vid=2da197ac-57ed-4f4f-b0f6-cc89ef5c1c68","ios":"levelo://app?vid=2da197ac-57ed-4f4f-b0f6-cc89ef5c1c68"},"vehicle_type_id":"4","last_reported":1741349886,"current_range_meters":12000,"station_id":"ce4bhjp2rcd13ifvqg90","pricing_plan_id":"cebpf4jnsgd1na2vs0mg"},{"bike_id":"310a32f5-d6c5-4f2b-aae9-192f35ead86f","system_id":"levelo_inurba_marseille","lat":43.30601,"lon":5.37224,"is_reserved":false,"is_disabled":false,"rental_uris":{"android":"levelo://app?vid=310a32f5-d6c5-4f2b-aae9-192f35ead86f","ios":"levelo://app?vid=310a32f5-d6c5-4f2b-aae9-192f35ead86f"},"vehicle_type_id":"4","last_reported":1741349886,"current_range_meters":12000,"station_id":"ce4bgqh2rcd13ifvqc4g","pricing_plan_id":"cebpf4jnsgd1na2vs0mg"},{"bike_id":"a689a555-e94a-422f-b657-e0bd05faad1f","system_id":"levelo_inurba_marseille","lat":43.29419,"lon":5.38621,"is_reserved":false,"is_disabled":false,"rental_uris":{"android":"levelo://app?vid=a689a555-e94a-422f-b657-e0bd05faad1f","ios":"levelo://app?vid=a689a555-e94a-422f-b657-e0bd05faad1f"},"vehicle_type_id":"4","last_reported":1741349886,"current_range_meters":12400,"station_id":"ce4bh2h2rcd13ifvqdh0","pricing_plan_id":"cebpf4jnsgd1na2vs0mg"},{"bike_id":"00cab53e-c5c3-43b1-a491-2c38efeecd93","system_id":"levelo_inurba_marseille","lat":43.24995,"lon":5.38936,"is_reserved":false,"is_disabled":false,"rental_uris":{"android":"levelo://app?vid=00cab53e-c5c3-43b1-a491-2c38efeecd93","ios":"levelo://app?vid=00cab53e-c5c3-43b1-a491-2c38efeecd93"},"vehicle_type_id":"4","last_reported":1741349886,"current_range_meters":12400,"station_id":"ce4bhgp2rcd13ifvqfd0","pricing_plan_id":"cebpf4jnsgd1na2vs0mg"},{"bike_id":"c7142b39-6a3a-4518-b69d-5d6d7c3c7fbd","system_id":"levelo_inurba_marseille","lat":43.30295,"lon":5.39212,"is_reserved":false,"is_disabled":false,"rental_uris":{"android":"levelo://app?vid=c7142b39-6a3a-4518-b69d-5d6d7c3c7fbd","ios":"levelo://app?vid=c7142b39-6a3a-4518-b69d-5d6d7c3c7fbd"},"vehicle_type_id":"4","last_reported":1741349886,"current_range_meters":12400,"station_id":"ce4bgkh2rcd13ifvqbk0","pricing_plan_id":"cebpf4jnsgd1na2vs0mg"},{"bike_id":"6152b505-bdaa-4154-9904-8e28b1c35e0b","system_id":"levelo_inurba_marseille","lat":43.27814,"lon":5.40703,"is_reserved":false,"is_disabled":false,"rental_uris":{"android":"levelo://app?vid=6152b505-bdaa-4154-9904-8e28b1c35e0b","ios":"levelo://app?vid=6152b505-bdaa-4154-9904-8e28b1c35e0b"},"vehicle_type_id":"4","last_reported":1741349886,"current_range_meters":12400,"station_id":"ce4bhnh2rcd13ifvqgtg","pricing_plan_id":"cebpf4jnsgd1na2vs0mg"},{"bike_id":"9c3f2636-c1e9-4085-8e62-5c37505521d7","system_id":"levelo_inurba_marseille","lat":43.27171,"lon":5.40992,"is_reserved":false,"is_disabled":false,"rental_uris":{"android":"levelo://app?vid=9c3f2636-c1e9-4085-8e62-5c37505521d7","ios":"levelo://app?vid=9c3f2636-c1e9-4085-8e62-5c37505521d7"},"vehicle_type_id":"4","last_reported":1741349886,"current_range_meters":12400,"station_id":"ce4bhl12rcd13ifvqgf0","pricing_plan_id":"cebpf4jnsgd1na2vs0mg"},{"bike_id":"6d7e0450-89ad-4e81-9f4f-61db2e3e009a","system_id":"levelo_inurba_marseille","lat":43.298981,"lon":5.436713,"is_reserved":false,"is_disabled":false,"rental_uris":{"android":"levelo://app?vid=6d7e0450-89ad-4e81-9f4f-61db2e3e009a","ios":"levelo://app?vid=6d7e0450-89ad-4e81-9f4f-61db2e3e009a"},"vehicle_type_id":"4","last_reported":1741349886,"current_range_meters":12800,"station_id":"ce4bhpp2rcd13ifvqhfg","pricing_plan_id":"cebpf4jnsgd1na2vs0mg"},{"bike_id":"e18c8237-8332-41a1-869c-a48d33bb9be4","system_id":"levelo_inurba_marseille","lat":43.27173,"lon":5.40989,"is_reserved":false,"is_disabled":false,"rental_uris":{"android":"levelo://app?vid=e18c8237-8332-41a1-869c-a48d33bb9be4","ios":"levelo://app?vid=e18c8237-8332-41a1-869c-a48d33bb9be4"},"vehicle_type_id":"4","last_reported":1741349886,"current_range_meters":12800,"station_id":"ce4bhl12rcd13ifvqgf0","pricing_plan_id":"cebpf4jnsgd1na2vs0mg"},{"bike_id":"9efbff90-6380-4e58-8359-a0c4a1eca8c5","system_id":"levelo_inurba_marseille","lat":43.32354,"lon":5.38882,"is_reserved":false,"is_disabled":false,"rental_uris":{"android":"levelo://app?vid=9efbff90-6380-4e58-8359-a0c4a1eca8c5","ios":"levelo://app?vid=9efbff90-6380-4e58-8359-a0c4a1eca8c5"},"vehicle_type_id":"4","last_reported":1741349886,"current_range_meters":12800,"station_id":"ce4bhqp2rcd13ifvqhog","pricing_plan_id":"cebpf4jnsgd1na2vs0mg"},{"bike_id":"93cdc0af-5a33-4ffc-8249-ab4457fa8bb2","system_id":"levelo_inurba_marseille","lat":43.29876,"lon":5.38907,"is_reserved":false,"is_disabled":false,"rental_uris":{"android":"levelo://app?vid=93cdc0af-5a33-4ffc-8249-ab4457fa8bb2","ios":"levelo://app?vid=93cdc0af-5a33-4ffc-8249-ab4457fa8bb2"},"vehicle_type_id":"4","last_reported":1741349886,"current_range_meters":12800,"station_id":"ce4bh392rcd13ifvqdl0","pricing_plan_id":"cebpf4jnsgd1na2vs0mg"},{"bike_id":"60677f9e-8913-49fc-afeb-29ac2f91a289","system_id":"levelo_inurba_marseille","lat":43.27811,"lon":5.40715,"is_reserved":false,"is_disabled":false,"rental_uris":{"android":"levelo://app?vid=60677f9e-8913-49fc-afeb-29ac2f91a289","ios":"levelo://app?vid=60677f9e-8913-49fc-afeb-29ac2f91a289"},"vehicle_type_id":"4","last_reported":1741349886,"current_range_meters":12800,"station_id":"ce4bhnh2rcd13ifvqgtg","pricing_plan_id":"cebpf4jnsgd1na2vs0mg"},{"bike_id":"e4cc3cc5-352f-4798-abab-6fc026d83157","system_id":"levelo_inurba_marseille","lat":43.29159,"lon":5.37141,"is_reserved":false,"is_disabled":false,"rental_uris":{"android":"levelo://app?vid=e4cc3cc5-352f-4798-abab-6fc026d83157","ios":"levelo://app?vid=e4cc3cc5-352f-4798-abab-6fc026d83157"},"vehicle_type_id":"4","last_reported":1741349886,"current_range_meters":12800,"station_id":"ce4bha92rcd13ifvqeh0","pricing_plan_id":"cebpf4jnsgd1na2vs0mg"},{"bike_id":"470ce45f-62c0-4713-ba7f-88e0f7e38546","system_id":"levelo_inurba_marseille","lat":43.30566,"lon":5.36542,"is_reserved":false,"is_disabled":false,"rental_uris":{"android":"levelo://app?vid=470ce45f-62c0-4713-ba7f-88e0f7e38546","ios":"levelo://app?vid=470ce45f-62c0-4713-ba7f-88e0f7e38546"},"vehicle_type_id":"4","last_reported":1741349886,"current_range_meters":12800,"station_id":"ce4bgs12rcd13ifvqcag","pricing_plan_id":"cebpf4jnsgd1na2vs0mg"},{"bike_id":"e6472cf0-0ad7-491d-9b42-ba9a1b7210e2","system_id":"levelo_inurba_marseille","lat":43.298961,"lon":5.436718,"is_reserved":false,"is_disabled":false,"rental_uris":{"android":"levelo://app?vid=e6472cf0-0ad7-491d-9b42-ba9a1b7210e2","ios":"levelo://app?vid=e6472cf0-0ad7-491d-9b42-ba9a1b7210e2"},"vehicle_type_id":"4","last_reported":1741349886,"current_range_meters":13600,"station_id":"ce4bhpp2rcd13ifvqhfg","pricing_plan_id":"cebpf4jnsgd1na2vs0mg"},{"bike_id":"3f6ede2e-fcd8-4edf-837d-f645b20f596a","system_id":"levelo_inurba_marseille","lat":43.25493,"lon":5.37648,"is_reserved":false,"is_disabled":false,"rental_uris":{"android":"levelo://app?vid=3f6ede2e-fcd8-4edf-837d-f645b20f596a","ios":"levelo://app?vid=3f6ede2e-fcd8-4edf-837d-f645b20f596a"},"vehicle_type_id":"4","last_reported":1741349886,"current_range_meters":13600,"station_id":"ce4bhh12rcd13ifvqff0","pricing_plan_id":"cebpf4jnsgd1na2vs0mg"},{"bike_id":"79247c64-c9ad-45a4-8f6e-8000a37602c9","system_id":"levelo_inurba_marseille","lat":43.26057,"lon":5.39395,"is_reserved":false,"is_disabled":true,"rental_uris":{"android":"levelo://app?vid=79247c64-c9ad-45a4-8f6e-8000a37602c9","ios":"levelo://app?vid=79247c64-c9ad-45a4-8f6e-8000a37602c9"},"vehicle_type_id":"4","last_reported":1741349886,"current_range_meters":13600,"station_id":"ce4bhh92rcd13ifvqfj0","pricing_plan_id":"cebpf4jnsgd1na2vs0mg"},{"bike_id":"f712bee7-5d3e-4271-b909-d1f56337b578","system_id":"levelo_inurba_marseille","lat":43.296,"lon":5.38094,"is_reserved":false,"is_disabled":false,"rental_uris":{"android":"levelo://app?vid=f712bee7-5d3e-4271-b909-d1f56337b578","ios":"levelo://app?vid=f712bee7-5d3e-4271-b909-d1f56337b578"},"vehicle_type_id":"4","last_reported":1741349886,"current_range_meters":13600,"station_id":"ce4bgl12rcd13ifvqbo0","pricing_plan_id":"cebpf4jnsgd1na2vs0mg"},{"bike_id":"6dc172cc-bafc-4383-897b-623fe4e9d3d1","system_id":"levelo_inurba_marseille","lat":43.30593,"lon":5.366,"is_reserved":false,"is_disabled":false,"rental_uris":{"android":"levelo://app?vid=6dc172cc-bafc-4383-897b-623fe4e9d3d1","ios":"levelo://app?vid=6dc172cc-bafc-4383-897b-623fe4e9d3d1"},"vehicle_type_id":"4","last_reported":1741349886,"current_range_meters":13600,"station_id":"ce4bgs12rcd13ifvqcag","pricing_plan_id":"cebpf4jnsgd1na2vs0mg"},{"bike_id":"8817142b-6943-47ef-955d-8d2427a8955d","system_id":"levelo_inurba_marseille","lat":43.31312,"lon":5.39682,"is_reserved":false,"is_disabled":false,"rental_uris":{"android":"levelo://app?vid=8817142b-6943-47ef-955d-8d2427a8955d","ios":"levelo://app?vid=8817142b-6943-47ef-955d-8d2427a8955d"},"vehicle_type_id":"4","last_reported":1741349886,"current_range_meters":13600,"station_id":"ce4bgvp2rcd13ifvqcu0","pricing_plan_id":"cebpf4jnsgd1na2vs0mg"},{"bike_id":"d4fb8032-8005-4ddc-af86-c25cd5e9510b","system_id":"levelo_inurba_marseille","lat":43.22927,"lon":5.35376,"is_reserved":false,"is_disabled":false,"rental_uris":{"android":"levelo://app?vid=d4fb8032-8005-4ddc-af86-c25cd5e9510b","ios":"levelo://app?vid=d4fb8032-8005-4ddc-af86-c25cd5e9510b"},"vehicle_type_id":"4","last_reported":1741349886,"current_range_meters":13600,"station_id":"cpo3532slgdg3j2ikp40","pricing_plan_id":"cebpf4jnsgd1na2vs0mg"},{"bike_id":"8f030caa-a56c-445e-a45e-4a84467e463f","system_id":"levelo_inurba_marseille","lat":43.23182,"lon":5.39975,"is_reserved":false,"is_disabled":false,"rental_uris":{"android":"levelo://app?vid=8f030caa-a56c-445e-a45e-4a84467e463f","ios":"levelo://app?vid=8f030caa-a56c-445e-a45e-4a84467e463f"},"vehicle_type_id":"4","last_reported":1741349886,"current_range_meters":14000,"station_id":"ce4bhn12rcd13ifvqgqg","pricing_plan_id":"cebpf4jnsgd1na2vs0mg"},{"bike_id":"3c94b931-3649-4c69-bf1c-99f8fd15e284","system_id":"levelo_inurba_marseille","lat":43.32489,"lon":5.36577,"is_reserved":false,"is_disabled":false,"rental_uris":{"android":"levelo://app?vid=3c94b931-3649-4c69-bf1c-99f8fd15e284","ios":"levelo://app?vid=3c94b931-3649-4c69-bf1c-99f8fd15e284"},"vehicle_type_id":"4","last_reported":1741349886,"current_range_meters":14000,"station_id":"ce4bhs12rcd13ifvqhvg","pricing_plan_id":"cebpf4jnsgd1na2vs0mg"},{"bike_id":"93ee5eb5-bc07-4fa4-84ef-fcef721c938d","system_id":"levelo_inurba_marseille","lat":43.28275,"lon":5.35074,"is_reserved":false,"is_disabled":true,"rental_uris":{"android":"levelo://app?vid=93ee5eb5-bc07-4fa4-84ef-fcef721c938d","ios":"levelo://app?vid=93ee5eb5-bc07-4fa4-84ef-fcef721c938d"},"vehicle_type_id":"4","last_reported":1741349886,"current_range_meters":14000,"station_id":"ce4bhbp2rcd13ifvqerg","pricing_plan_id":"cebpf4jnsgd1na2vs0mg"},{"bike_id":"c80f38a9-5fee-47bf-b7c1-6013180df327","system_id":"levelo_inurba_marseille","lat":43.29529,"lon":5.38534,"is_reserved":false,"is_disabled":false,"rental_uris":{"android":"levelo://app?vid=c80f38a9-5fee-47bf-b7c1-6013180df327","ios":"levelo://app?vid=c80f38a9-5fee-47bf-b7c1-6013180df327"},"vehicle_type_id":"4","last_reported":1741349886,"current_range_meters":14000,"station_id":"ce4bgih2rcd13ifvqba0","pricing_plan_id":"cebpf4jnsgd1na2vs0mg"},{"bike_id":"49885c56-d236-47c4-b91d-5648e04cc54e","system_id":"levelo_inurba_marseille","lat":43.29887,"lon":5.43661,"is_reserved":false,"is_disabled":false,"rental_uris":{"android":"levelo://app?vid=49885c56-d236-47c4-b91d-5648e04cc54e","ios":"levelo://app?vid=49885c56-d236-47c4-b91d-5648e04cc54e"},"vehicle_type_id":"4","last_reported":1741349886,"current_range_meters":14000,"station_id":"ce4bhpp2rcd13ifvqhfg","pricing_plan_id":"cebpf4jnsgd1na2vs0mg"},{"bike_id":"0e674cb4-f37d-4bd5-aaff-7ec953d386c6","system_id":"levelo_inurba_marseille","lat":43.24167,"lon":5.36392,"is_reserved":false,"is_disabled":false,"rental_uris":{"android":"levelo://app?vid=0e674cb4-f37d-4bd5-aaff-7ec953d386c6","ios":"levelo://app?vid=0e674cb4-f37d-4bd5-aaff-7ec953d386c6"},"vehicle_type_id":"4","last_reported":1741349886,"current_range_meters":14000,"station_id":"cpo36qri1sfpv3e86is0","pricing_plan_id":"cebpf4jnsgd1na2vs0mg"},{"bike_id":"f680706c-3b95-4d1c-a572-030943f8a715","system_id":"levelo_inurba_marseille","lat":43.29047,"lon":5.39963,"is_reserved":false,"is_disabled":false,"rental_uris":{"android":"levelo://app?vid=f680706c-3b95-4d1c-a572-030943f8a715","ios":"levelo://app?vid=f680706c-3b95-4d1c-a572-030943f8a715"},"vehicle_type_id":"4","last_reported":1741349886,"current_range_meters":13600,"station_id":"ce4bh392rcd13ifvqdm0","pricing_plan_id":"cebpf4jnsgd1na2vs0mg"},{"bike_id":"7372ba19-4949-453e-a20c-490c28817add","system_id":"levelo_inurba_marseille","lat":43.33793,"lon":5.37429,"is_reserved":false,"is_disabled":false,"rental_uris":{"android":"levelo://app?vid=7372ba19-4949-453e-a20c-490c28817add","ios":"levelo://app?vid=7372ba19-4949-453e-a20c-490c28817add"},"vehicle_type_id":"4","last_reported":1741349886,"current_range_meters":14400,"station_id":"","pricing_plan_id":"cebpf4jnsgd1na2vs0mg"},{"bike_id":"e5bd083b-52b4-43bf-966c-79c02a712ef5","system_id":"levelo_inurba_marseille","lat":43.29023,"lon":5.38641,"is_reserved":false,"is_disabled":false,"rental_uris":{"android":"levelo://app?vid=e5bd083b-52b4-43bf-966c-79c02a712ef5","ios":"levelo://app?vid=e5bd083b-52b4-43bf-966c-79c02a712ef5"},"vehicle_type_id":"4","last_reported":1741349886,"current_range_meters":14400,"station_id":"ce4bh4p2rcd13ifvqe0g","pricing_plan_id":"cebpf4jnsgd1na2vs0mg"},{"bike_id":"6ae77951-a909-4dfa-a933-35324bca41b7","system_id":"levelo_inurba_marseille","lat":43.24996,"lon":5.38917,"is_reserved":false,"is_disabled":false,"rental_uris":{"android":"levelo://app?vid=6ae77951-a909-4dfa-a933-35324bca41b7","ios":"levelo://app?vid=6ae77951-a909-4dfa-a933-35324bca41b7"},"vehicle_type_id":"4","last_reported":1741349886,"current_range_meters":14400,"station_id":"ce4bhgp2rcd13ifvqfd0","pricing_plan_id":"cebpf4jnsgd1na2vs0mg"},{"bike_id":"0c75f000-99a6-413a-839e-f6217c010427","system_id":"levelo_inurba_marseille","lat":43.291,"lon":5.375498,"is_reserved":false,"is_disabled":false,"rental_uris":{"android":"levelo://app?vid=0c75f000-99a6-413a-839e-f6217c010427","ios":"levelo://app?vid=0c75f000-99a6-413a-839e-f6217c010427"},"vehicle_type_id":"4","last_reported":1741349886,"current_range_meters":14400,"station_id":"ce4bh692rcd13ifvqe90","pricing_plan_id":"cebpf4jnsgd1na2vs0mg"},{"bike_id":"dac09d9e-9ab6-4c54-8fe2-7fcfc9203869","system_id":"levelo_inurba_marseille","lat":43.26551,"lon":5.37303,"is_reserved":false,"is_disabled":true,"rental_uris":{"android":"levelo://app?vid=dac09d9e-9ab6-4c54-8fe2-7fcfc9203869","ios":"levelo://app?vid=dac09d9e-9ab6-4c54-8fe2-7fcfc9203869"},"vehicle_type_id":"4","last_reported":1741349886,"current_range_meters":14400,"station_id":"ce4bhg12rcd13ifvqf70","pricing_plan_id":"cebpf4jnsgd1na2vs0mg"},{"bike_id":"264d3d19-ffb6-4f5b-92f2-70c0ba6bf915","system_id":"levelo_inurba_marseille","lat":43.26567,"lon":5.37301,"is_reserved":false,"is_disabled":false,"rental_uris":{"android":"levelo://app?vid=264d3d19-ffb6-4f5b-92f2-70c0ba6bf915","ios":"levelo://app?vid=264d3d19-ffb6-4f5b-92f2-70c0ba6bf915"},"vehicle_type_id":"4","last_reported":1741349886,"current_range_meters":14400,"station_id":"ce4bhg12rcd13ifvqf70","pricing_plan_id":"cebpf4jnsgd1na2vs0mg"},{"bike_id":"ac4e37af-1ba4-43ce-aa86-7cd5e40775ae","system_id":"levelo_inurba_marseille","lat":43.29548,"lon":5.42285,"is_reserved":false,"is_disabled":true,"rental_uris":{"android":"levelo://app?vid=ac4e37af-1ba4-43ce-aa86-7cd5e40775ae","ios":"levelo://app?vid=ac4e37af-1ba4-43ce-aa86-7cd5e40775ae"},"vehicle_type_id":"4","last_reported":1741349886,"current_range_meters":14400,"station_id":"ce4bhph2rcd13ifvqhdg","pricing_plan_id":"cebpf4jnsgd1na2vs0mg"},{"bike_id":"ad9a8406-e1b8-4c43-83e7-6ca47ad1435f","system_id":"levelo_inurba_marseille","lat":43.25,"lon":5.38927,"is_reserved":false,"is_disabled":false,"rental_uris":{"android":"levelo://app?vid=ad9a8406-e1b8-4c43-83e7-6ca47ad1435f","ios":"levelo://app?vid=ad9a8406-e1b8-4c43-83e7-6ca47ad1435f"},"vehicle_type_id":"4","last_reported":1741349886,"current_range_meters":14400,"station_id":"ce4bhgp2rcd13ifvqfd0","pricing_plan_id":"cebpf4jnsgd1na2vs0mg"},{"bike_id":"3cfbd2cc-45dc-4dba-aa1c-35993999b0b3","system_id":"levelo_inurba_marseille","lat":43.24804,"lon":5.37461,"is_reserved":false,"is_disabled":false,"rental_uris":{"android":"levelo://app?vid=3cfbd2cc-45dc-4dba-aa1c-35993999b0b3","ios":"levelo://app?vid=3cfbd2cc-45dc-4dba-aa1c-35993999b0b3"},"vehicle_type_id":"4","last_reported":1741349886,"current_range_meters":14400,"station_id":"ce4bhgh2rcd13ifvqfb0","pricing_plan_id":"cebpf4jnsgd1na2vs0mg"},{"bike_id":"61914667-0cbd-4812-9dee-18b366bc466b","system_id":"levelo_inurba_marseille","lat":43.29269,"lon":5.38437,"is_reserved":false,"is_disabled":false,"rental_uris":{"android":"levelo://app?vid=61914667-0cbd-4812-9dee-18b366bc466b","ios":"levelo://app?vid=61914667-0cbd-4812-9dee-18b366bc466b"},"vehicle_type_id":"4","last_reported":1741349886,"current_range_meters":14800,"station_id":"ce4bh692rcd13ifvqea0","pricing_plan_id":"cebpf4jnsgd1na2vs0mg"},{"bike_id":"e524bcef-a391-41b2-bad2-673eae53ea51","system_id":"levelo_inurba_marseille","lat":43.31708,"lon":5.437,"is_reserved":false,"is_disabled":false,"rental_uris":{"android":"levelo://app?vid=e524bcef-a391-41b2-bad2-673eae53ea51","ios":"levelo://app?vid=e524bcef-a391-41b2-bad2-673eae53ea51"},"vehicle_type_id":"4","last_reported":1741349886,"current_range_meters":14800,"station_id":"ce4bhp92rcd13ifvqhcg","pricing_plan_id":"cebpf4jnsgd1na2vs0mg"},{"bike_id":"6cd6d088-e643-4074-bcc6-20ecb59d787e","system_id":"levelo_inurba_marseille","lat":43.28362,"lon":5.38639,"is_reserved":false,"is_disabled":false,"rental_uris":{"android":"levelo://app?vid=6cd6d088-e643-4074-bcc6-20ecb59d787e","ios":"levelo://app?vid=6cd6d088-e643-4074-bcc6-20ecb59d787e"},"vehicle_type_id":"4","last_reported":1741349886,"current_range_meters":14400,"station_id":"ce4bh492rcd13ifvqdvg","pricing_plan_id":"cebpf4jnsgd1na2vs0mg"},{"bike_id":"5f47fa5d-5e6a-44db-be9e-707cd96dc80a","system_id":"levelo_inurba_marseille","lat":43.30884,"lon":5.39654,"is_reserved":false,"is_disabled":false,"rental_uris":{"android":"levelo://app?vid=5f47fa5d-5e6a-44db-be9e-707cd96dc80a","ios":"levelo://app?vid=5f47fa5d-5e6a-44db-be9e-707cd96dc80a"},"vehicle_type_id":"4","last_reported":1741349886,"current_range_meters":14400,"station_id":"ce4bh012rcd13ifvqcv0","pricing_plan_id":"cebpf4jnsgd1na2vs0mg"},{"bike_id":"774026a5-9fc8-4fae-9ff9-5683c7e9ae78","system_id":"levelo_inurba_marseille","lat":43.25006,"lon":5.389193,"is_reserved":false,"is_disabled":true,"rental_uris":{"android":"levelo://app?vid=774026a5-9fc8-4fae-9ff9-5683c7e9ae78","ios":"levelo://app?vid=774026a5-9fc8-4fae-9ff9-5683c7e9ae78"},"vehicle_type_id":"4","last_reported":1741349886,"current_range_meters":14800,"station_id":"ce4bhgp2rcd13ifvqfd0","pricing_plan_id":"cebpf4jnsgd1na2vs0mg"},{"bike_id":"eee029b7-d748-4d2f-9f6c-cdbbf920a57b","system_id":"levelo_inurba_marseille","lat":43.29275,"lon":5.40137,"is_reserved":false,"is_disabled":false,"rental_uris":{"android":"levelo://app?vid=eee029b7-d748-4d2f-9f6c-cdbbf920a57b","ios":"levelo://app?vid=eee029b7-d748-4d2f-9f6c-cdbbf920a57b"},"vehicle_type_id":"4","last_reported":1741349886,"current_range_meters":14800,"station_id":"ce4bh312rcd13ifvqdk0","pricing_plan_id":"cebpf4jnsgd1na2vs0mg"},{"bike_id":"97d1125e-23bd-4986-a8c2-161949a8b183","system_id":"levelo_inurba_marseille","lat":43.30549,"lon":5.36512,"is_reserved":false,"is_disabled":false,"rental_uris":{"android":"levelo://app?vid=97d1125e-23bd-4986-a8c2-161949a8b183","ios":"levelo://app?vid=97d1125e-23bd-4986-a8c2-161949a8b183"},"vehicle_type_id":"4","last_reported":1741349886,"current_range_meters":15200,"station_id":"ce4bgs12rcd13ifvqcag","pricing_plan_id":"cebpf4jnsgd1na2vs0mg"},{"bike_id":"13e36046-c735-458e-923c-c342274b73f2","system_id":"levelo_inurba_marseille","lat":43.29839,"lon":5.36267,"is_reserved":false,"is_disabled":false,"rental_uris":{"android":"levelo://app?vid=13e36046-c735-458e-923c-c342274b73f2","ios":"levelo://app?vid=13e36046-c735-458e-923c-c342274b73f2"},"vehicle_type_id":"4","last_reported":1741349886,"current_range_meters":14800,"station_id":"ce4bgpp2rcd13ifvqc3g","pricing_plan_id":"cebpf4jnsgd1na2vs0mg"},{"bike_id":"42168c6f-35a5-43f2-8ef8-61a75051262d","system_id":"levelo_inurba_marseille","lat":43.2816,"lon":5.42619,"is_reserved":false,"is_disabled":true,"rental_uris":{"android":"levelo://app?vid=42168c6f-35a5-43f2-8ef8-61a75051262d","ios":"levelo://app?vid=42168c6f-35a5-43f2-8ef8-61a75051262d"},"vehicle_type_id":"4","last_reported":1741349886,"current_range_meters":15200,"station_id":"ce4bhnh2rcd13ifvqgug","pricing_plan_id":"cebpf4jnsgd1na2vs0mg"},{"bike_id":"e70e7e5d-d815-4184-ab82-f538d2266f95","system_id":"levelo_inurba_marseille","lat":43.30594,"lon":5.39366,"is_reserved":false,"is_disabled":false,"rental_uris":{"android":"levelo://app?vid=e70e7e5d-d815-4184-ab82-f538d2266f95","ios":"levelo://app?vid=e70e7e5d-d815-4184-ab82-f538d2266f95"},"vehicle_type_id":"4","last_reported":1741349886,"current_range_meters":15200,"station_id":"ce4bh0p2rcd13ifvqd80","pricing_plan_id":"cebpf4jnsgd1na2vs0mg"},{"bike_id":"2284b6ba-656a-472a-a792-b5fc4beec92b","system_id":"levelo_inurba_marseille","lat":43.28103,"lon":5.37832,"is_reserved":false,"is_disabled":false,"rental_uris":{"android":"levelo://app?vid=2284b6ba-656a-472a-a792-b5fc4beec92b","ios":"levelo://app?vid=2284b6ba-656a-472a-a792-b5fc4beec92b"},"vehicle_type_id":"4","last_reported":1741349886,"current_range_meters":15200,"station_id":"ce4bha12rcd13ifvqee0","pricing_plan_id":"cebpf4jnsgd1na2vs0mg"},{"bike_id":"9bbad9d5-b70d-44c4-a43a-3f9228c68d4f","system_id":"levelo_inurba_marseille","lat":43.30599,"lon":5.39359,"is_reserved":false,"is_disabled":false,"rental_uris":{"android":"levelo://app?vid=9bbad9d5-b70d-44c4-a43a-3f9228c68d4f","ios":"levelo://app?vid=9bbad9d5-b70d-44c4-a43a-3f9228c68d4f"},"vehicle_type_id":"4","last_reported":1741349886,"current_range_meters":15200,"station_id":"ce4bh0p2rcd13ifvqd80","pricing_plan_id":"cebpf4jnsgd1na2vs0mg"},{"bike_id":"5ab2001e-22b6-4441-9cbe-2789bb8f2209","system_id":"levelo_inurba_marseille","lat":43.33606,"lon":5.40983,"is_reserved":false,"is_disabled":false,"rental_uris":{"android":"levelo://app?vid=5ab2001e-22b6-4441-9cbe-2789bb8f2209","ios":"levelo://app?vid=5ab2001e-22b6-4441-9cbe-2789bb8f2209"},"vehicle_type_id":"4","last_reported":1741349886,"current_range_meters":15200,"station_id":"ce4bhqh2rcd13ifvqhmg","pricing_plan_id":"cebpf4jnsgd1na2vs0mg"},{"bike_id":"a3423933-7c1c-44bd-b3f5-b08218cd432e","system_id":"levelo_inurba_marseille","lat":43.29641,"lon":5.38028,"is_reserved":false,"is_disabled":false,"rental_uris":{"android":"levelo://app?vid=a3423933-7c1c-44bd-b3f5-b08218cd432e","ios":"levelo://app?vid=a3423933-7c1c-44bd-b3f5-b08218cd432e"},"vehicle_type_id":"4","last_reported":1741349886,"current_range_meters":15200,"station_id":"ce4bgs92rcd13ifvqcc0","pricing_plan_id":"cebpf4jnsgd1na2vs0mg"},{"bike_id":"1bda7261-0965-4c4d-9d7a-a9a32ad3f5a6","system_id":"levelo_inurba_marseille","lat":43.2318,"lon":5.39987,"is_reserved":false,"is_disabled":false,"rental_uris":{"android":"levelo://app?vid=1bda7261-0965-4c4d-9d7a-a9a32ad3f5a6","ios":"levelo://app?vid=1bda7261-0965-4c4d-9d7a-a9a32ad3f5a6"},"vehicle_type_id":"4","last_reported":1741349886,"current_range_meters":15200,"station_id":"ce4bhn12rcd13ifvqgqg","pricing_plan_id":"cebpf4jnsgd1na2vs0mg"},{"bike_id":"39cc23f2-73d1-42bc-86c2-587e8e77686d","system_id":"levelo_inurba_marseille","lat":43.30537,"lon":5.367,"is_reserved":false,"is_disabled":false,"rental_uris":{"android":"levelo://app?vid=39cc23f2-73d1-42bc-86c2-587e8e77686d","ios":"levelo://app?vid=39cc23f2-73d1-42bc-86c2-587e8e77686d"},"vehicle_type_id":"4","last_reported":1741349886,"current_range_meters":15200,"station_id":"ce4bgrp2rcd13ifvqc9g","pricing_plan_id":"cebpf4jnsgd1na2vs0mg"},{"bike_id":"4e595f12-8b21-4fed-90f5-e68e9dad07f6","system_id":"levelo_inurba_marseille","lat":43.27815,"lon":5.40721,"is_reserved":false,"is_disabled":false,"rental_uris":{"android":"levelo://app?vid=4e595f12-8b21-4fed-90f5-e68e9dad07f6","ios":"levelo://app?vid=4e595f12-8b21-4fed-90f5-e68e9dad07f6"},"vehicle_type_id":"4","last_reported":1741349886,"current_range_meters":16000,"station_id":"ce4bhnh2rcd13ifvqgtg","pricing_plan_id":"cebpf4jnsgd1na2vs0mg"},{"bike_id":"37c795b7-c172-41a1-a38f-2f25494fb3e3","system_id":"levelo_inurba_marseille","lat":43.25928,"lon":5.40921,"is_reserved":false,"is_disabled":false,"rental_uris":{"android":"levelo://app?vid=37c795b7-c172-41a1-a38f-2f25494fb3e3","ios":"levelo://app?vid=37c795b7-c172-41a1-a38f-2f25494fb3e3"},"vehicle_type_id":"4","last_reported":1741349886,"current_range_meters":16000,"station_id":"ce4bhm92rcd13ifvqglg","pricing_plan_id":"cebpf4jnsgd1na2vs0mg"},{"bike_id":"9549c9cd-8dc8-432e-921c-30c40bbeff95","system_id":"levelo_inurba_marseille","lat":43.29287,"lon":5.37447,"is_reserved":false,"is_disabled":false,"rental_uris":{"android":"levelo://app?vid=9549c9cd-8dc8-432e-921c-30c40bbeff95","ios":"levelo://app?vid=9549c9cd-8dc8-432e-921c-30c40bbeff95"},"vehicle_type_id":"4","last_reported":1741349886,"current_range_meters":16000,"station_id":"ce4bgi12rcd13ifvqb70","pricing_plan_id":"cebpf4jnsgd1na2vs0mg"},{"bike_id":"f8ee3c12-40d2-4e44-bc5c-d22488d3e808","system_id":"levelo_inurba_marseille","lat":43.30536,"lon":5.36702,"is_reserved":false,"is_disabled":false,"rental_uris":{"android":"levelo://app?vid=f8ee3c12-40d2-4e44-bc5c-d22488d3e808","ios":"levelo://app?vid=f8ee3c12-40d2-4e44-bc5c-d22488d3e808"},"vehicle_type_id":"4","last_reported":1741349886,"current_range_meters":16000,"station_id":"ce4bgrp2rcd13ifvqc9g","pricing_plan_id":"cebpf4jnsgd1na2vs0mg"},{"bike_id":"db1c7047-7b9f-4b56-96ef-3b289cb537df","system_id":"levelo_inurba_marseille","lat":43.30824,"lon":5.37395,"is_reserved":false,"is_disabled":false,"rental_uris":{"android":"levelo://app?vid=db1c7047-7b9f-4b56-96ef-3b289cb537df","ios":"levelo://app?vid=db1c7047-7b9f-4b56-96ef-3b289cb537df"},"vehicle_type_id":"4","last_reported":1741349886,"current_range_meters":16000,"station_id":"","pricing_plan_id":"cebpf4jnsgd1na2vs0mg"},{"bike_id":"b1d03295-5a4c-4b8b-ad8e-3dbefaa793f2","system_id":"levelo_inurba_marseille","lat":43.23196,"lon":5.35557,"is_reserved":false,"is_disabled":false,"rental_uris":{"android":"levelo://app?vid=b1d03295-5a4c-4b8b-ad8e-3dbefaa793f2","ios":"levelo://app?vid=b1d03295-5a4c-4b8b-ad8e-3dbefaa793f2"},"vehicle_type_id":"4","last_reported":1741349886,"current_range_meters":16000,"station_id":"ce4bhu92rcd13ifvqi70","pricing_plan_id":"cebpf4jnsgd1na2vs0mg"},{"bike_id":"6185d4a7-bda3-4f43-8ceb-50d0d6dc7b46","system_id":"levelo_inurba_marseille","lat":43.30607,"lon":5.372266,"is_reserved":false,"is_disabled":false,"rental_uris":{"android":"levelo://app?vid=6185d4a7-bda3-4f43-8ceb-50d0d6dc7b46","ios":"levelo://app?vid=6185d4a7-bda3-4f43-8ceb-50d0d6dc7b46"},"vehicle_type_id":"4","last_reported":1741349886,"current_range_meters":16000,"station_id":"ce4bgqh2rcd13ifvqc4g","pricing_plan_id":"cebpf4jnsgd1na2vs0mg"},{"bike_id":"f94dd7e6-d3e1-4f00-99ba-d58a6047268b","system_id":"levelo_inurba_marseille","lat":43.29026,"lon":5.39964,"is_reserved":false,"is_disabled":false,"rental_uris":{"android":"levelo://app?vid=f94dd7e6-d3e1-4f00-99ba-d58a6047268b","ios":"levelo://app?vid=f94dd7e6-d3e1-4f00-99ba-d58a6047268b"},"vehicle_type_id":"4","last_reported":1741349886,"current_range_meters":16000,"station_id":"ce4bh392rcd13ifvqdm0","pricing_plan_id":"cebpf4jnsgd1na2vs0mg"},{"bike_id":"f1d0f1a4-0aa4-47ce-a552-25253830c549","system_id":"levelo_inurba_marseille","lat":43.297759,"lon":5.393424,"is_reserved":false,"is_disabled":false,"rental_uris":{"android":"levelo://app?vid=f1d0f1a4-0aa4-47ce-a552-25253830c549","ios":"levelo://app?vid=f1d0f1a4-0aa4-47ce-a552-25253830c549"},"vehicle_type_id":"4","last_reported":1741349886,"current_range_meters":16000,"station_id":"chh1huq6cuj3fo74tm60","pricing_plan_id":"cebpf4jnsgd1na2vs0mg"},{"bike_id":"bde30f3f-a693-4ade-8091-62a0d1ad9df2","system_id":"levelo_inurba_marseille","lat":43.3089,"lon":5.37199,"is_reserved":false,"is_disabled":false,"rental_uris":{"android":"levelo://app?vid=bde30f3f-a693-4ade-8091-62a0d1ad9df2","ios":"levelo://app?vid=bde30f3f-a693-4ade-8091-62a0d1ad9df2"},"vehicle_type_id":"4","last_reported":1741349886,"current_range_meters":16400,"station_id":"ce4bguh2rcd13ifvqckg","pricing_plan_id":"cebpf4jnsgd1na2vs0mg"},{"bike_id":"523dd7c5-08de-4faa-af09-359a3efdba9c","system_id":"levelo_inurba_marseille","lat":43.24174,"lon":5.39729,"is_reserved":false,"is_disabled":false,"rental_uris":{"android":"levelo://app?vid=523dd7c5-08de-4faa-af09-359a3efdba9c","ios":"levelo://app?vid=523dd7c5-08de-4faa-af09-359a3efdba9c"},"vehicle_type_id":"4","last_reported":1741349886,"current_range_meters":16400,"station_id":"ce4bhn12rcd13ifvqgpg","pricing_plan_id":"cebpf4jnsgd1na2vs0mg"},{"bike_id":"5cb798e3-98de-4166-8d2c-49277835f231","system_id":"levelo_inurba_marseille","lat":43.28103,"lon":5.3784,"is_reserved":false,"is_disabled":false,"rental_uris":{"android":"levelo://app?vid=5cb798e3-98de-4166-8d2c-49277835f231","ios":"levelo://app?vid=5cb798e3-98de-4166-8d2c-49277835f231"},"vehicle_type_id":"4","last_reported":1741349886,"current_range_meters":16400,"station_id":"ce4bha12rcd13ifvqee0","pricing_plan_id":"cebpf4jnsgd1na2vs0mg"},{"bike_id":"d50933ed-a36c-4ca2-97b3-c89b31d8199d","system_id":"levelo_inurba_marseille","lat":43.28568,"lon":5.39497,"is_reserved":false,"is_disabled":true,"rental_uris":{"android":"levelo://app?vid=d50933ed-a36c-4ca2-97b3-c89b31d8199d","ios":"levelo://app?vid=d50933ed-a36c-4ca2-97b3-c89b31d8199d"},"vehicle_type_id":"4","last_reported":1741349886,"current_range_meters":16400,"station_id":"ce4bh292rcd13ifvqdg0","pricing_plan_id":"cebpf4jnsgd1na2vs0mg"},{"bike_id":"e6a6578a-0758-4e9d-ada5-5334a9480b65","system_id":"levelo_inurba_marseille","lat":43.30545,"lon":5.36716,"is_reserved":false,"is_disabled":false,"rental_uris":{"android":"levelo://app?vid=e6a6578a-0758-4e9d-ada5-5334a9480b65","ios":"levelo://app?vid=e6a6578a-0758-4e9d-ada5-5334a9480b65"},"vehicle_type_id":"4","last_reported":1741349886,"current_range_meters":16400,"station_id":"ce4bgrp2rcd13ifvqc9g","pricing_plan_id":"cebpf4jnsgd1na2vs0mg"},{"bike_id":"25db000e-d19c-4398-ae97-e9e1deee0744","system_id":"levelo_inurba_marseille","lat":43.29763,"lon":5.37137,"is_reserved":false,"is_disabled":false,"rental_uris":{"android":"levelo://app?vid=25db000e-d19c-4398-ae97-e9e1deee0744","ios":"levelo://app?vid=25db000e-d19c-4398-ae97-e9e1deee0744"},"vehicle_type_id":"4","last_reported":1741349886,"current_range_meters":16400,"station_id":"ce4bgop2rcd13ifvqc1g","pricing_plan_id":"cebpf4jnsgd1na2vs0mg"},{"bike_id":"34fca5e7-8353-4d68-89e6-b1d671353da7","system_id":"levelo_inurba_marseille","lat":43.32366,"lon":5.38876,"is_reserved":false,"is_disabled":false,"rental_uris":{"android":"levelo://app?vid=34fca5e7-8353-4d68-89e6-b1d671353da7","ios":"levelo://app?vid=34fca5e7-8353-4d68-89e6-b1d671353da7"},"vehicle_type_id":"4","last_reported":1741349886,"current_range_meters":16400,"station_id":"ce4bhqp2rcd13ifvqhog","pricing_plan_id":"cebpf4jnsgd1na2vs0mg"},{"bike_id":"9b8789be-c150-4679-b8ba-e1d5e4639da2","system_id":"levelo_inurba_marseille","lat":43.25709,"lon":5.41116,"is_reserved":false,"is_disabled":false,"rental_uris":{"android":"levelo://app?vid=9b8789be-c150-4679-b8ba-e1d5e4639da2","ios":"levelo://app?vid=9b8789be-c150-4679-b8ba-e1d5e4639da2"},"vehicle_type_id":"4","last_reported":1741349886,"current_range_meters":16400,"station_id":"ce4bhkp2rcd13ifvqgd0","pricing_plan_id":"cebpf4jnsgd1na2vs0mg"},{"bike_id":"948c29ab-75e2-429f-9e01-a4b11841505d","system_id":"levelo_inurba_marseille","lat":43.24999,"lon":5.38938,"is_reserved":false,"is_disabled":true,"rental_uris":{"android":"levelo://app?vid=948c29ab-75e2-429f-9e01-a4b11841505d","ios":"levelo://app?vid=948c29ab-75e2-429f-9e01-a4b11841505d"},"vehicle_type_id":"4","last_reported":1741349886,"current_range_meters":16400,"station_id":"ce4bhgp2rcd13ifvqfd0","pricing_plan_id":"cebpf4jnsgd1na2vs0mg"},{"bike_id":"c4c723cb-a07b-4be7-9352-175d996d4f95","system_id":"levelo_inurba_marseille","lat":43.27943,"lon":5.41047,"is_reserved":false,"is_disabled":false,"rental_uris":{"android":"levelo://app?vid=c4c723cb-a07b-4be7-9352-175d996d4f95","ios":"levelo://app?vid=c4c723cb-a07b-4be7-9352-175d996d4f95"},"vehicle_type_id":"4","last_reported":1741349886,"current_range_meters":16400,"station_id":"ce4bhnp2rcd13ifvqh0g","pricing_plan_id":"cebpf4jnsgd1na2vs0mg"},{"bike_id":"f44efeed-8acc-47b2-8bae-9ae0326e8d94","system_id":"levelo_inurba_marseille","lat":43.31499,"lon":5.37296,"is_reserved":false,"is_disabled":false,"rental_uris":{"android":"levelo://app?vid=f44efeed-8acc-47b2-8bae-9ae0326e8d94","ios":"levelo://app?vid=f44efeed-8acc-47b2-8bae-9ae0326e8d94"},"vehicle_type_id":"4","last_reported":1741349886,"current_range_meters":16400,"station_id":"ce4bgt12rcd13ifvqcd0","pricing_plan_id":"cebpf4jnsgd1na2vs0mg"},{"bike_id":"6289d18d-1ee6-4e6d-b2a7-62931e64a1a6","system_id":"levelo_inurba_marseille","lat":43.28566,"lon":5.39498,"is_reserved":false,"is_disabled":false,"rental_uris":{"android":"levelo://app?vid=6289d18d-1ee6-4e6d-b2a7-62931e64a1a6","ios":"levelo://app?vid=6289d18d-1ee6-4e6d-b2a7-62931e64a1a6"},"vehicle_type_id":"4","last_reported":1741349886,"current_range_meters":16400,"station_id":"ce4bh292rcd13ifvqdg0","pricing_plan_id":"cebpf4jnsgd1na2vs0mg"},{"bike_id":"b2c2514d-58df-4080-9acc-0a3325c87525","system_id":"levelo_inurba_marseille","lat":43.32362,"lon":5.36759,"is_reserved":false,"is_disabled":false,"rental_uris":{"android":"levelo://app?vid=b2c2514d-58df-4080-9acc-0a3325c87525","ios":"levelo://app?vid=b2c2514d-58df-4080-9acc-0a3325c87525"},"vehicle_type_id":"4","last_reported":1741349886,"current_range_meters":16800,"station_id":"ce4bhsh2rcd13ifvqi2g","pricing_plan_id":"cebpf4jnsgd1na2vs0mg"},{"bike_id":"b3396cf1-cb41-4f4a-b122-20d8f5cdfb96","system_id":"levelo_inurba_marseille","lat":43.24071,"lon":5.37765,"is_reserved":false,"is_disabled":false,"rental_uris":{"android":"levelo://app?vid=b3396cf1-cb41-4f4a-b122-20d8f5cdfb96","ios":"levelo://app?vid=b3396cf1-cb41-4f4a-b122-20d8f5cdfb96"},"vehicle_type_id":"4","last_reported":1741349886,"current_range_meters":16800,"station_id":"ce4bhnp2rcd13ifvqgvg","pricing_plan_id":"cebpf4jnsgd1na2vs0mg"},{"bike_id":"d83c38c0-bdda-4f34-84bf-1f587c36abf6","system_id":"levelo_inurba_marseille","lat":43.30255,"lon":5.40048,"is_reserved":false,"is_disabled":false,"rental_uris":{"android":"levelo://app?vid=d83c38c0-bdda-4f34-84bf-1f587c36abf6","ios":"levelo://app?vid=d83c38c0-bdda-4f34-84bf-1f587c36abf6"},"vehicle_type_id":"4","last_reported":1741349886,"current_range_meters":16800,"station_id":"ce4bgvh2rcd13ifvqcs0","pricing_plan_id":"cebpf4jnsgd1na2vs0mg"},{"bike_id":"a312a22a-95bb-43bd-9c44-f3018f0992d1","system_id":"levelo_inurba_marseille","lat":43.294806,"lon":5.392095,"is_reserved":false,"is_disabled":false,"rental_uris":{"android":"levelo://app?vid=a312a22a-95bb-43bd-9c44-f3018f0992d1","ios":"levelo://app?vid=a312a22a-95bb-43bd-9c44-f3018f0992d1"},"vehicle_type_id":"4","last_reported":1741349886,"current_range_meters":16800,"station_id":"ce4bh292rcd13ifvqdf0","pricing_plan_id":"cebpf4jnsgd1na2vs0mg"},{"bike_id":"d59a87b5-2ea4-411c-9793-0ae525ff9906","system_id":"levelo_inurba_marseille","lat":43.28855,"lon":5.35859,"is_reserved":false,"is_disabled":false,"rental_uris":{"android":"levelo://app?vid=d59a87b5-2ea4-411c-9793-0ae525ff9906","ios":"levelo://app?vid=d59a87b5-2ea4-411c-9793-0ae525ff9906"},"vehicle_type_id":"4","last_reported":1741349886,"current_range_meters":16400,"station_id":"ce4bhb12rcd13ifvqem0","pricing_plan_id":"cebpf4jnsgd1na2vs0mg"},{"bike_id":"68b7b3d3-4712-40ba-ac7c-1cba28ee7424","system_id":"levelo_inurba_marseille","lat":43.3249,"lon":5.36569,"is_reserved":false,"is_disabled":false,"rental_uris":{"android":"levelo://app?vid=68b7b3d3-4712-40ba-ac7c-1cba28ee7424","ios":"levelo://app?vid=68b7b3d3-4712-40ba-ac7c-1cba28ee7424"},"vehicle_type_id":"4","last_reported":1741349886,"current_range_meters":16800,"station_id":"ce4bhs12rcd13ifvqhvg","pricing_plan_id":"cebpf4jnsgd1na2vs0mg"},{"bike_id":"4308d444-33bb-4bf9-811e-f09a15764954","system_id":"levelo_inurba_marseille","lat":43.28407,"lon":5.37514,"is_reserved":false,"is_disabled":false,"rental_uris":{"android":"levelo://app?vid=4308d444-33bb-4bf9-811e-f09a15764954","ios":"levelo://app?vid=4308d444-33bb-4bf9-811e-f09a15764954"},"vehicle_type_id":"4","last_reported":1741349886,"current_range_meters":17200,"station_id":"ce4bh412rcd13ifvqds0","pricing_plan_id":"cebpf4jnsgd1na2vs0mg"},{"bike_id":"f704f443-7ef5-414b-a50c-d39a84c2a1e2","system_id":"levelo_inurba_marseille","lat":43.30871,"lon":5.37799,"is_reserved":false,"is_disabled":false,"rental_uris":{"android":"levelo://app?vid=f704f443-7ef5-414b-a50c-d39a84c2a1e2","ios":"levelo://app?vid=f704f443-7ef5-414b-a50c-d39a84c2a1e2"},"vehicle_type_id":"4","last_reported":1741349886,"current_range_meters":17200,"station_id":"","pricing_plan_id":"cebpf4jnsgd1na2vs0mg"},{"bike_id":"eced3725-eadb-4091-bac5-af56a7a64ea1","system_id":"levelo_inurba_marseille","lat":43.29617,"lon":5.37719,"is_reserved":false,"is_disabled":false,"rental_uris":{"android":"levelo://app?vid=eced3725-eadb-4091-bac5-af56a7a64ea1","ios":"levelo://app?vid=eced3725-eadb-4091-bac5-af56a7a64ea1"},"vehicle_type_id":"4","last_reported":1741349886,"current_range_meters":16800,"station_id":"ce4bgi92rcd13ifvqb90","pricing_plan_id":"cebpf4jnsgd1na2vs0mg"},{"bike_id":"56d97939-7e08-42a3-a5f3-fcbf3eebc02e","system_id":"levelo_inurba_marseille","lat":43.248,"lon":5.37454,"is_reserved":false,"is_disabled":false,"rental_uris":{"android":"levelo://app?vid=56d97939-7e08-42a3-a5f3-fcbf3eebc02e","ios":"levelo://app?vid=56d97939-7e08-42a3-a5f3-fcbf3eebc02e"},"vehicle_type_id":"4","last_reported":1741349886,"current_range_meters":17200,"station_id":"ce4bhgh2rcd13ifvqfb0","pricing_plan_id":"cebpf4jnsgd1na2vs0mg"},{"bike_id":"7f194869-ce2f-48fd-9284-98305c75847f","system_id":"levelo_inurba_marseille","lat":43.29274,"lon":5.40112,"is_reserved":false,"is_disabled":false,"rental_uris":{"android":"levelo://app?vid=7f194869-ce2f-48fd-9284-98305c75847f","ios":"levelo://app?vid=7f194869-ce2f-48fd-9284-98305c75847f"},"vehicle_type_id":"4","last_reported":1741349886,"current_range_meters":17200,"station_id":"ce4bh312rcd13ifvqdk0","pricing_plan_id":"cebpf4jnsgd1na2vs0mg"},{"bike_id":"388ea826-f5fa-4632-a530-45d13cc0a769","system_id":"levelo_inurba_marseille","lat":43.23203,"lon":5.39985,"is_reserved":false,"is_disabled":false,"rental_uris":{"android":"levelo://app?vid=388ea826-f5fa-4632-a530-45d13cc0a769","ios":"levelo://app?vid=388ea826-f5fa-4632-a530-45d13cc0a769"},"vehicle_type_id":"4","last_reported":1741349886,"current_range_meters":17200,"station_id":"ce4bhn12rcd13ifvqgqg","pricing_plan_id":"cebpf4jnsgd1na2vs0mg"},{"bike_id":"1ff664cb-f378-4a6c-b3c1-b47ee25a2174","system_id":"levelo_inurba_marseille","lat":43.32368,"lon":5.38876,"is_reserved":false,"is_disabled":false,"rental_uris":{"android":"levelo://app?vid=1ff664cb-f378-4a6c-b3c1-b47ee25a2174","ios":"levelo://app?vid=1ff664cb-f378-4a6c-b3c1-b47ee25a2174"},"vehicle_type_id":"4","last_reported":1741349886,"current_range_meters":17200,"station_id":"ce4bhqp2rcd13ifvqhog","pricing_plan_id":"cebpf4jnsgd1na2vs0mg"},{"bike_id":"b074c098-105a-483f-9325-0896897af1e3","system_id":"levelo_inurba_marseille","lat":43.23175,"lon":5.3999,"is_reserved":false,"is_disabled":false,"rental_uris":{"android":"levelo://app?vid=b074c098-105a-483f-9325-0896897af1e3","ios":"levelo://app?vid=b074c098-105a-483f-9325-0896897af1e3"},"vehicle_type_id":"4","last_reported":1741349886,"current_range_meters":17200,"station_id":"ce4bhn12rcd13ifvqgqg","pricing_plan_id":"cebpf4jnsgd1na2vs0mg"},{"bike_id":"48d9fe3c-c832-4176-91ca-aa42c020c83e","system_id":"levelo_inurba_marseille","lat":43.24657,"lon":5.3815,"is_reserved":false,"is_disabled":false,"rental_uris":{"android":"levelo://app?vid=48d9fe3c-c832-4176-91ca-aa42c020c83e","ios":"levelo://app?vid=48d9fe3c-c832-4176-91ca-aa42c020c83e"},"vehicle_type_id":"4","last_reported":1741349886,"current_range_meters":17200,"station_id":"ce4bhih2rcd13ifvqfr0","pricing_plan_id":"cebpf4jnsgd1na2vs0mg"},{"bike_id":"e7eecb6c-aac4-4dc0-bc93-3ae7881ab617","system_id":"levelo_inurba_marseille","lat":43.28562,"lon":5.39488,"is_reserved":false,"is_disabled":false,"rental_uris":{"android":"levelo://app?vid=e7eecb6c-aac4-4dc0-bc93-3ae7881ab617","ios":"levelo://app?vid=e7eecb6c-aac4-4dc0-bc93-3ae7881ab617"},"vehicle_type_id":"4","last_reported":1741349886,"current_range_meters":17200,"station_id":"ce4bh292rcd13ifvqdg0","pricing_plan_id":"cebpf4jnsgd1na2vs0mg"},{"bike_id":"2f5766d9-d938-4315-b6d0-8a2f648c1d44","system_id":"levelo_inurba_marseille","lat":43.30593,"lon":5.39351,"is_reserved":false,"is_disabled":false,"rental_uris":{"android":"levelo://app?vid=2f5766d9-d938-4315-b6d0-8a2f648c1d44","ios":"levelo://app?vid=2f5766d9-d938-4315-b6d0-8a2f648c1d44"},"vehicle_type_id":"4","last_reported":1741349886,"current_range_meters":17600,"station_id":"ce4bh0p2rcd13ifvqd80","pricing_plan_id":"cebpf4jnsgd1na2vs0mg"},{"bike_id":"263e4824-aff2-427a-979a-d6af47c55b17","system_id":"levelo_inurba_marseille","lat":43.32044,"lon":5.41543,"is_reserved":false,"is_disabled":false,"rental_uris":{"android":"levelo://app?vid=263e4824-aff2-427a-979a-d6af47c55b17","ios":"levelo://app?vid=263e4824-aff2-427a-979a-d6af47c55b17"},"vehicle_type_id":"4","last_reported":1741349886,"current_range_meters":17200,"station_id":"ce4bhq92rcd13ifvqhkg","pricing_plan_id":"cebpf4jnsgd1na2vs0mg"},{"bike_id":"1b281161-3ce7-46c8-8b94-b9137c4a63ce","system_id":"levelo_inurba_marseille","lat":43.29582,"lon":5.37517,"is_reserved":false,"is_disabled":false,"rental_uris":{"android":"levelo://app?vid=1b281161-3ce7-46c8-8b94-b9137c4a63ce","ios":"levelo://app?vid=1b281161-3ce7-46c8-8b94-b9137c4a63ce"},"vehicle_type_id":"4","last_reported":1741349886,"current_range_meters":17600,"station_id":"ce4bgh92rcd13ifvqb50","pricing_plan_id":"cebpf4jnsgd1na2vs0mg"},