{"last_updated":1743128449,"ttl":60,"version":"2.2","data":{"bikes":[{"bike_id":"5e187ad1-bb14-42e5-8f54-b13a2f1781e9","system_id":"levelo_inurba_marseille","lat":43.29247,"lon":5.38434,"is_reserved":false,"is_disabled":true,"rental_uris":{"android":"levelo://app?vid=5e187ad1-bb14-42e5-8f54-b13a2f1781e9","ios":"levelo://app?vid=5e187ad1-bb14-42e5-8f54-b13a2f1781e9"},"vehicle_type_id":"4","last_reported":1743128449,"current_range_meters":2800,"station_id":"ce4bh692rcd13ifvqea0","pricing_plan_id":"cebpf4jnsgd1na2vs0mg"},{"bike_id":"a3e6f248-b75b-40dc-9ce0-a569e7377691","system_id":"levelo_inurba_marseille","lat":43.259296,"lon":5.408985,"is_reserved":false,"is_disabled":true,"rental_uris":{"android":"levelo://app?vid=a3e6f248-b75b-40dc-9ce0-a569e7377691","ios":"levelo://app?vid=a3e6f248-b75b-40dc-9ce0-a569e7377691"},"vehicle_type_id":"4","last_reported":1743128449,"current_range_meters":2800,"station_id":"ce4bhm92rcd13ifvqglg","pricing_plan_id":"cebpf4jnsgd1na2vs0mg"},{"bike_id":"634c433d-3db3-4fd8-8be9-8b653dae530e","system_id":"levelo_inurba_marseille","lat":43.28661,"lon":5.38663,"is_reserved":false,"is_disabled":true,"rental_uris":{"android":"levelo://app?vid=634c433d-3db3-4fd8-8be9-8b653dae530e","ios":"levelo://app?vid=634c433d-3db3-4fd8-8be9-8b653dae530e"},"vehicle_type_id":"4","last_reported":1743128449,"current_range_meters":2800,"station_id":"ce4bh492rcd13ifvqdug","pricing_plan_id":"cebpf4jnsgd1na2vs0mg"},{"bike_id":"1dd765a9-64b4-439c-a196-df55419cc971","system_id":"levelo_inurba_marseille","lat":43.24164,"lon":5.36391,"is_reserved":false,"is_disabled":false,"rental_uris":{"android":"levelo://app?vid=1dd765a9-64b4-439c-a196-df55419cc971","ios":"levelo://app?vid=1dd765a9-64b4-439c-a196-df55419cc971"},"vehicle_type_id":"4","last_reported":1743128449,"current_range_meters":3200,"station_id":"cpo36qri1sfpv3e86is0","pricing_plan_id":"cebpf4jnsgd1na2vs0mg"},{"bike_id":"524f1196-3ba6-4f11-b9cd-1c10781086a1","system_id":"levelo_inurba_marseille","lat":43.25015,"lon":5.38925,"is_reserved":false,"is_disabled":false,"rental_uris":{"android":"levelo://app?vid=524f1196-3ba6-4f11-b9cd-1c10781086a1","ios":"levelo://app?vid=524f1196-3ba6-4f11-b9cd-1c10781086a1"},"vehicle_type_id":"4","last_reported":1743128449,"current_range_meters":3200,"station_id":"ce4bhgp2rcd13ifvqfd0","pricing_plan_id":"cebpf4jnsgd1na2vs0mg"},{"bike_id":"147fe4f3-e29b-44a3-8da9-e46dcd3ae5a0","system_id":"levelo_inurba_marseille","lat":43.28278,"lon":5.35083,"is_reserved":false,"is_disabled":false,"rental_uris":{"android":"levelo://app?vid=147fe4f3-e29b-44a3-8da9-e46dcd3ae5a0","ios":"levelo://app?vid=147fe4f3-e29b-44a3-8da9-e46dcd3ae5a0"},"vehicle_type_id":"4","last_reported":1743128449,"current_range_meters":3600,"station_id":"ce4bhbp2rcd13ifvqerg","pricing_plan_id":"cebpf4jnsgd1na2vs0mg"},{"bike_id":"12361615-4d37-4f0e-96cc-944b90494721","system_id":"levelo_inurba_marseille","lat":43.26222,"lon":5.40431,"is_reserved":false,"is_disabled":false,"rental_uris":{"android":"levelo://app?vid=12361615-4d37-4f0e-96cc-944b90494721","ios":"levelo://app?vid=12361615-4d37-4f0e-96cc-944b90494721"},"vehicle_type_id":"4","last_reported":1743128449,"current_range_meters":4000,"station_id":"ce4bhmh2rcd13ifvqgmg","pricing_plan_id":"cebpf4jnsgd1na2vs0mg"},{"bike_id":"745db27b-7d09-42e9-857e-1a3c13cd5302","system_id":"levelo_inurba_marseille","lat":43.23194,"lon":5.35545,"is_reserved":false,"is_disabled":false,"rental_uris":{"android":"levelo://app?vid=745db27b-7d09-42e9-857e-1a3c13cd5302","ios":"levelo://app?vid=745db27b-7d09-42e9-857e-1a3c13cd5302"},"vehicle_type_id":"4","last_reported":1743128449,"current_range_meters":4400,"station_id":"ce4bhu92rcd13ifvqi70","pricing_plan_id":"cebpf4jnsgd1na2vs0mg"},{"bike_id":"b23a18f8-619d-4580-8b65-a001e546f2de","system_id":"levelo_inurba_marseille","lat":43.30368,"lon":5.41889,"is_reserved":false,"is_disabled":true,"rental_uris":{"android":"levelo://app?vid=b23a18f8-619d-4580-8b65-a001e546f2de","ios":"levelo://app?vid=b23a18f8-619d-4580-8b65-a001e546f2de"},"vehicle_type_id":"4","last_reported":1743128449,"current_range_meters":4400,"station_id":"ce4bhop2rcd13ifvqh7g","pricing_plan_id":"cebpf4jnsgd1na2vs0mg"},{"bike_id":"0a66299f-ae8e-48e0-af7a-343db9bc16e9","system_id":"levelo_inurba_marseille","lat":43.286831,"lon":5.399919,"is_reserved":false,"is_disabled":false,"rental_uris":{"android":"levelo://app?vid=0a66299f-ae8e-48e0-af7a-343db9bc16e9","ios":"levelo://app?vid=0a66299f-ae8e-48e0-af7a-343db9bc16e9"},"vehicle_type_id":"4","last_reported":1743128449,"current_range_meters":4400,"station_id":"","pricing_plan_id":"cebpf4jnsgd1na2vs0mg"},{"bike_id":"85d0fa0c-b5b9-41cd-ba43-951901672dab","system_id":"levelo_inurba_marseille","lat":43.25586,"lon":5.38992,"is_reserved":false,"is_disabled":false,"rental_uris":{"android":"levelo://app?vid=85d0fa0c-b5b9-41cd-ba43-951901672dab","ios":"levelo://app?vid=85d0fa0c-b5b9-41cd-ba43-951901672dab"},"vehicle_type_id":"4","last_reported":1743128449,"current_range_meters":4400,"station_id":"","pricing_plan_id":"cebpf4jnsgd1na2vs0mg"},{"bike_id":"9b0db4f1-c6a1-4ca7-86c5-ec1daffe0ea2","system_id":"levelo_inurba_marseille","lat":43.25086,"lon":5.39507,"is_reserved":false,"is_disabled":false,"rental_uris":{"android":"levelo://app?vid=9b0db4f1-c6a1-4ca7-86c5-ec1daffe0ea2","ios":"levelo://app?vid=9b0db4f1-c6a1-4ca7-86c5-ec1daffe0ea2"},"vehicle_type_id":"4","last_reported":1743128449,"current_range_meters":4400,"station_id":"ce4bhm12rcd13ifvqgkg","pricing_plan_id":"cebpf4jnsgd1na2vs0mg"},{"bike_id":"e62e2f35-f797-4cb0-b8cd-a8d619e448fc","system_id":"levelo_inurba_marseille","lat":43.28706,"lon":5.39976,"is_reserved":false,"is_disabled":false,"rental_uris":{"android":"levelo://app?vid=e62e2f35-f797-4cb0-b8cd-a8d619e448fc","ios":"levelo://app?vid=e62e2f35-f797-4cb0-b8cd-a8d619e448fc"},"vehicle_type_id":"4","last_reported":1743128449,"current_range_meters":4800,"station_id":"ce4bho92rcd13ifvqh3g","pricing_plan_id":"cebpf4jnsgd1na2vs0mg"},{"bike_id":"99efc1f2-d62d-419c-a0db-cfaadfa06cd6","system_id":"levelo_inurba_marseille","lat":43.23185,"lon":5.39985,"is_reserved":false,"is_disabled":false,"rental_uris":{"android":"levelo://app?vid=99efc1f2-d62d-419c-a0db-cfaadfa06cd6","ios":"levelo://app?vid=99efc1f2-d62d-419c-a0db-cfaadfa06cd6"},"vehicle_type_id":"4","last_reported":1743128449,"current_range_meters":4800,"station_id":"ce4bhn12rcd13ifvqgqg","pricing_plan_id":"cebpf4jnsgd1na2vs0mg"},{"bike_id":"6165ca97-d152-4535-bb35-dd51f65c8b56","system_id":"levelo_inurba_marseille","lat":43.278254,"lon":5.407084,"is_reserved":false,"is_disabled":false,"rental_uris":{"android":"levelo://app?vid=6165ca97-d152-4535-bb35-dd51f65c8b56","ios":"levelo://app?vid=6165ca97-d152-4535-bb35-dd51f65c8b56"},"vehicle_type_id":"4","last_reported":1743128449,"current_range_meters":5600,"station_id":"ce4bhnh2rcd13ifvqgtg","pricing_plan_id":"cebpf4jnsgd1na2vs0mg"},{"bike_id":"18cf2e35-ced7-456c-9cdf-6c3d31d9091d","system_id":"levelo_inurba_marseille","lat":43.23207,"lon":5.35545,"is_reserved":false,"is_disabled":false,"rental_uris":{"android":"levelo://app?vid=18cf2e35-ced7-456c-9cdf-6c3d31d9091d","ios":"levelo://app?vid=18cf2e35-ced7-456c-9cdf-6c3d31d9091d"},"vehicle_type_id":"4","last_reported":1743128449,"current_range_meters":5600,"station_id":"ce4bhu92rcd13ifvqi70","pricing_plan_id":"cebpf4jnsgd1na2vs0mg"},{"bike_id":"c752cc87-456e-4134-9a44-62eff5dadbd0","system_id":"levelo_inurba_marseille","lat":43.27809,"lon":5.40724,"is_reserved":false,"is_disabled":false,"rental_uris":{"android":"levelo://app?vid=c752cc87-456e-4134-9a44-62eff5dadbd0","ios":"levelo://app?vid=c752cc87-456e-4134-9a44-62eff5dadbd0"},"vehicle_type_id":"4","last_reported":1743128449,"current_range_meters":5600,"station_id":"ce4bhnh2rcd13ifvqgtg","pricing_plan_id":"cebpf4jnsgd1na2vs0mg"},{"bike_id":"84a7a785-5392-42bc-8088-fb903bcc7f5c","system_id":"levelo_inurba_marseille","lat":43.230686,"lon":5.354903,"is_reserved":false,"is_disabled":false,"rental_uris":{"android":"levelo://app?vid=84a7a785-5392-42bc-8088-fb903bcc7f5c","ios":"levelo://app?vid=84a7a785-5392-42bc-8088-fb903bcc7f5c"},"vehicle_type_id":"4","last_reported":1743128449,"current_range_meters":5600,"station_id":"cpo3342slgdg3j2ifvpg","pricing_plan_id":"cebpf4jnsgd1na2vs0mg"},{"bike_id":"dc8ccdc9-a018-4504-b0a9-676297905591","system_id":"levelo_inurba_marseille","lat":43.2929,"lon":5.36982,"is_reserved":false,"is_disabled":false,"rental_uris":{"android":"levelo://app?vid=dc8ccdc9-a018-4504-b0a9-676297905591","ios":"levelo://app?vid=dc8ccdc9-a018-4504-b0a9-676297905591"},"vehicle_type_id":"4","last_reported":1743128449,"current_range_meters":5600,"station_id":"","pricing_plan_id":"cebpf4jnsgd1na2vs0mg"},{"bike_id":"a2cca4d0-900f-4d24-81a4-a34f6c38f996","system_id":"levelo_inurba_marseille","lat":43.26952,"lon":5.40261,"is_reserved":false,"is_disabled":false,"rental_uris":{"android":"levelo://app?vid=a2cca4d0-900f-4d24-81a4-a34f6c38f996","ios":"levelo://app?vid=a2cca4d0-900f-4d24-81a4-a34f6c38f996"},"vehicle_type_id":"4","last_reported":1743128449,"current_range_meters":6000,"station_id":"cjm6bp8fraef2m0cb0m0","pricing_plan_id":"cebpf4jnsgd1na2vs0mg"},{"bike_id":"3c5b9de9-2126-4391-ae19-7c9396efc28b","system_id":"levelo_inurba_marseille","lat":43.25573,"lon":5.38237,"is_reserved":false,"is_disabled":false,"rental_uris":{"android":"levelo://app?vid=3c5b9de9-2126-4391-ae19-7c9396efc28b","ios":"levelo://app?vid=3c5b9de9-2126-4391-ae19-7c9396efc28b"},"vehicle_type_id":"4","last_reported":1743128449,"current_range_meters":6000,"station_id":"ce4bhih2rcd13ifvqfs0","pricing_plan_id":"cebpf4jnsgd1na2vs0mg"},{"bike_id":"c91985f1-ed63-4953-a4ca-7162692cc38a","system_id":"levelo_inurba_marseille","lat":43.295131,"lon":5.393959,"is_reserved":false,"is_disabled":false,"rental_uris":{"android":"levelo://app?vid=c91985f1-ed63-4953-a4ca-7162692cc38a","ios":"levelo://app?vid=c91985f1-ed63-4953-a4ca-7162692cc38a"},"vehicle_type_id":"4","last_reported":1743128449,"current_range_meters":6000,"station_id":"ce4bh292rcd13ifvqdf0","pricing_plan_id":"cebpf4jnsgd1na2vs0mg"},{"bike_id":"5fbb8541-57ed-40e4-a4a5-1acbcf038d1c","system_id":"levelo_inurba_marseille","lat":43.30194,"lon":5.39469,"is_reserved":false,"is_disabled":false,"rental_uris":{"android":"levelo://app?vid=5fbb8541-57ed-40e4-a4a5-1acbcf038d1c","ios":"levelo://app?vid=5fbb8541-57ed-40e4-a4a5-1acbcf038d1c"},"vehicle_type_id":"4","last_reported":1743128449,"current_range_meters":6400,"station_id":"ce4bh0p2rcd13ifvqd70","pricing_plan_id":"cebpf4jnsgd1na2vs0mg"},{"bike_id":"dd5783c6-158d-4cbc-b771-8d0cc786b4bb","system_id":"levelo_inurba_marseille","lat":43.26548,"lon":5.3901,"is_reserved":false,"is_disabled":false,"rental_uris":{"android":"levelo://app?vid=dd5783c6-158d-4cbc-b771-8d0cc786b4bb","ios":"levelo://app?vid=dd5783c6-158d-4cbc-b771-8d0cc786b4bb"},"vehicle_type_id":"4","last_reported":1743128449,"current_range_meters":6400,"station_id":"ce4bhe12rcd13ifvqf30","pricing_plan_id":"cebpf4jnsgd1na2vs0mg"},{"bike_id":"3a5e18ad-6a23-4442-9c34-19c7bd17a17e","system_id":"levelo_inurba_marseille","lat":43.22923,"lon":5.3538,"is_reserved":false,"is_disabled":false,"rental_uris":{"android":"levelo://app?vid=3a5e18ad-6a23-4442-9c34-19c7bd17a17e","ios":"levelo://app?vid=3a5e18ad-6a23-4442-9c34-19c7bd17a17e"},"vehicle_type_id":"4","last_reported":1743128449,"current_range_meters":6400,"station_id":"cpo3532slgdg3j2ikp40","pricing_plan_id":"cebpf4jnsgd1na2vs0mg"},{"bike_id":"1b876d6c-62d8-4868-9c6d-7a787cd07989","system_id":"levelo_inurba_marseille","lat":43.28722,"lon":5.39983,"is_reserved":false,"is_disabled":false,"rental_uris":{"android":"levelo://app?vid=1b876d6c-62d8-4868-9c6d-7a787cd07989","ios":"levelo://app?vid=1b876d6c-62d8-4868-9c6d-7a787cd07989"},"vehicle_type_id":"4","last_reported":1743128449,"current_range_meters":6400,"station_id":"ce4bho92rcd13ifvqh3g","pricing_plan_id":"cebpf4jnsgd1na2vs0mg"},{"bike_id":"7c51a4c9-2cdb-4e5e-90c0-c53106b402d0","system_id":"levelo_inurba_marseille","lat":43.30317,"lon":5.40437,"is_reserved":false,"is_disabled":false,"rental_uris":{"android":"levelo://app?vid=7c51a4c9-2cdb-4e5e-90c0-c53106b402d0","ios":"levelo://app?vid=7c51a4c9-2cdb-4e5e-90c0-c53106b402d0"},"vehicle_type_id":"4","last_reported":1743128449,"current_range_meters":6400,"station_id":"ce4bh012rcd13ifvqd10","pricing_plan_id":"cebpf4jnsgd1na2vs0mg"},{"bike_id":"59009851-2119-4c01-80a5-64ff1d563987","system_id":"levelo_inurba_marseille","lat":43.30936,"lon":5.40149,"is_reserved":false,"is_disabled":false,"rental_uris":{"android":"levelo://app?vid=59009851-2119-4c01-80a5-64ff1d563987","ios":"levelo://app?vid=59009851-2119-4c01-80a5-64ff1d563987"},"vehicle_type_id":"4","last_reported":1743128449,"current_range_meters":6400,"station_id":"ce4bgvp2rcd13ifvqct0","pricing_plan_id":"cebpf4jnsgd1na2vs0mg"},{"bike_id":"bf8f689d-9d07-4902-b5ae-7d4e985b967a","system_id":"levelo_inurba_marseille","lat":43.29532,"lon":5.39037,"is_reserved":false,"is_disabled":true,"rental_uris":{"android":"levelo://app?vid=bf8f689d-9d07-4902-b5ae-7d4e985b967a","ios":"levelo://app?vid=bf8f689d-9d07-4902-b5ae-7d4e985b967a"},"vehicle_type_id":"4","last_reported":1743128449,"current_range_meters":6400,"station_id":"ce4bh3p2rcd13ifvqdp0","pricing_plan_id":"cebpf4jnsgd1na2vs0mg"},{"bike_id":"e53a1eb8-e926-4f74-b3ac-c2f1945803ef","system_id":"levelo_inurba_marseille","lat":43.28074,"lon":5.39621,"is_reserved":false,"is_disabled":true,"rental_uris":{"android":"levelo://app?vid=e53a1eb8-e926-4f74-b3ac-c2f1945803ef","ios":"levelo://app?vid=e53a1eb8-e926-4f74-b3ac-c2f1945803ef"},"vehicle_type_id":"4","last_reported":1743128449,"current_range_meters":6800,"station_id":"ce4bho12rcd13ifvqh2g","pricing_plan_id":"cebpf4jnsgd1na2vs0mg"},{"bike_id":"72407b9c-71b7-4feb-83e9-97e5f2a36163","system_id":"levelo_inurba_marseille","lat":43.24169,"lon":5.36396,"is_reserved":false,"is_disabled":false,"rental_uris":{"android":"levelo://app?vid=72407b9c-71b7-4feb-83e9-97e5f2a36163","ios":"levelo://app?vid=72407b9c-71b7-4feb-83e9-97e5f2a36163"},"vehicle_type_id":"4","last_reported":1743128449,"current_range_meters":6800,"station_id":"cpo36qri1sfpv3e86is0","pricing_plan_id":"cebpf4jnsgd1na2vs0mg"},{"bike_id":"0e173472-5a4b-4021-b0c5-dd55f1f57390","system_id":"levelo_inurba_marseille","lat":43.25094,"lon":5.39514,"is_reserved":false,"is_disabled":false,"rental_uris":{"android":"levelo://app?vid=0e173472-5a4b-4021-b0c5-dd55f1f57390","ios":"levelo://app?vid=0e173472-5a4b-4021-b0c5-dd55f1f57390"},"vehicle_type_id":"4","last_reported":1743128449,"current_range_meters":6800,"station_id":"ce4bhm12rcd13ifvqgkg","pricing_plan_id":"cebpf4jnsgd1na2vs0mg"},{"bike_id":"7909fddf-cb14-45c3-8c06-c79cce207a3a","system_id":"levelo_inurba_marseille","lat":43.25672,"lon":5.39729,"is_reserved":false,"is_disabled":false,"rental_uris":{"android":"levelo://app?vid=7909fddf-cb14-45c3-8c06-c79cce207a3a","ios":"levelo://app?vid=7909fddf-cb14-45c3-8c06-c79cce207a3a"},"vehicle_type_id":"4","last_reported":1743128449,"current_range_meters":6800,"station_id":"","pricing_plan_id":"cebpf4jnsgd1na2vs0mg"},{"bike_id":"a4d800e4-39bc-4da7-938b-6d70bc0258cd","system_id":"levelo_inurba_marseille","lat":43.28464,"lon":5.35885,"is_reserved":false,"is_disabled":false,"rental_uris":{"android":"levelo://app?vid=a4d800e4-39bc-4da7-938b-6d70bc0258cd","ios":"levelo://app?vid=a4d800e4-39bc-4da7-938b-6d70bc0258cd"},"vehicle_type_id":"4","last_reported":1743128449,"current_range_meters":6800,"station_id":"ce4bhah2rcd13ifvqei0","pricing_plan_id":"cebpf4jnsgd1na2vs0mg"},{"bike_id":"da11e873-8731-4153-a3ab-5e5a7f846d22","system_id":"levelo_inurba_marseille","lat":43.28704,"lon":5.39987,"is_reserved":false,"is_disabled":false,"rental_uris":{"android":"levelo://app?vid=da11e873-8731-4153-a3ab-5e5a7f846d22","ios":"levelo://app?vid=da11e873-8731-4153-a3ab-5e5a7f846d22"},"vehicle_type_id":"4","last_reported":1743128449,"current_range_meters":6800,"station_id":"ce4bho92rcd13ifvqh3g","pricing_plan_id":"cebpf4jnsgd1na2vs0mg"},{"bike_id":"40046afd-c6aa-43ea-88bd-183a4d2ec61c","system_id":"levelo_inurba_marseille","lat":43.31605,"lon":5.41661,"is_reserved":false,"is_disabled":false,"rental_uris":{"android":"levelo://app?vid=40046afd-c6aa-43ea-88bd-183a4d2ec61c","ios":"levelo://app?vid=40046afd-c6aa-43ea-88bd-183a4d2ec61c"},"vehicle_type_id":"4","last_reported":1743128449,"current_range_meters":7200,"station_id":"","pricing_plan_id":"cebpf4jnsgd1na2vs0mg"},{"bike_id":"4ea2dc4a-53b8-4d21-b056-faf850ab7b24","system_id":"levelo_inurba_marseille","lat":43.29571,"lon":5.42306,"is_reserved":false,"is_disabled":false,"rental_uris":{"android":"levelo://app?vid=4ea2dc4a-53b8-4d21-b056-faf850ab7b24","ios":"levelo://app?vid=4ea2dc4a-53b8-4d21-b056-faf850ab7b24"},"vehicle_type_id":"4","last_reported":1743128449,"current_range_meters":7200,"station_id":"ce4bhph2rcd13ifvqhdg","pricing_plan_id":"cebpf4jnsgd1na2vs0mg"},{"bike_id":"67372431-a0a3-4e95-b53b-6e36bdd9f44f","system_id":"levelo_inurba_marseille","lat":43.31495,"lon":5.3731,"is_reserved":false,"is_disabled":false,"rental_uris":{"android":"levelo://app?vid=67372431-a0a3-4e95-b53b-6e36bdd9f44f","ios":"levelo://app?vid=67372431-a0a3-4e95-b53b-6e36bdd9f44f"},"vehicle_type_id":"4","last_reported":1743128449,"current_range_meters":7200,"station_id":"ce4bgt12rcd13ifvqcd0","pricing_plan_id":"cebpf4jnsgd1na2vs0mg"},{"bike_id":"24317519-3c75-4115-b3e2-f1c0b1afe224","system_id":"levelo_inurba_marseille","lat":43.27914,"lon":5.39595,"is_reserved":false,"is_disabled":false,"rental_uris":{"android":"levelo://app?vid=24317519-3c75-4115-b3e2-f1c0b1afe224","ios":"levelo://app?vid=24317519-3c75-4115-b3e2-f1c0b1afe224"},"vehicle_type_id":"4","last_reported":1743128449,"current_range_meters":7200,"station_id":"ce4bhf92rcd13ifvqf40","pricing_plan_id":"cebpf4jnsgd1na2vs0mg"},{"bike_id":"2e013db2-c4bf-4ece-9b86-255ce2c33732","system_id":"levelo_inurba_marseille","lat":43.27817,"lon":5.40716,"is_reserved":false,"is_disabled":false,"rental_uris":{"android":"levelo://app?vid=2e013db2-c4bf-4ece-9b86-255ce2c33732","ios":"levelo://app?vid=2e013db2-c4bf-4ece-9b86-255ce2c33732"},"vehicle_type_id":"4","last_reported":1743128449,"current_range_meters":7200,"station_id":"ce4bhnh2rcd13ifvqgtg","pricing_plan_id":"cebpf4jnsgd1na2vs0mg"},{"bike_id":"5c6fd83b-ada2-4000-b9ac-f78b80d149eb","system_id":"levelo_inurba_marseille","lat":43.30314,"lon":5.40429,"is_reserved":false,"is_disabled":false,"rental_uris":{"android":"levelo://app?vid=5c6fd83b-ada2-4000-b9ac-f78b80d149eb","ios":"levelo://app?vid=5c6fd83b-ada2-4000-b9ac-f78b80d149eb"},"vehicle_type_id":"4","last_reported":1743128449,"current_range_meters":7200,"station_id":"ce4bh012rcd13ifvqd10","pricing_plan_id":"cebpf4jnsgd1na2vs0mg"},{"bike_id":"46c92c67-a9e1-4996-b4c8-2976ff580333","system_id":"levelo_inurba_marseille","lat":43.24082,"lon":5.37747,"is_reserved":false,"is_disabled":false,"rental_uris":{"android":"levelo://app?vid=46c92c67-a9e1-4996-b4c8-2976ff580333","ios":"levelo://app?vid=46c92c67-a9e1-4996-b4c8-2976ff580333"},"vehicle_type_id":"4","last_reported":1743128449,"current_range_meters":7200,"station_id":"ce4bhnp2rcd13ifvqgvg","pricing_plan_id":"cebpf4jnsgd1na2vs0mg"},{"bike_id":"169d7fcf-280d-4645-acdf-db059c46d533","system_id":"levelo_inurba_marseille","lat":43.23971,"lon":5.3664,"is_reserved":false,"is_disabled":false,"rental_uris":{"android":"levelo://app?vid=169d7fcf-280d-4645-acdf-db059c46d533","ios":"levelo://app?vid=169d7fcf-280d-4645-acdf-db059c46d533"},"vehicle_type_id":"4","last_reported":1743128449,"current_range_meters":7200,"station_id":"ce4bhi12rcd13ifvqfp0","pricing_plan_id":"cebpf4jnsgd1na2vs0mg"},{"bike_id":"61aebee5-66c7-4c27-9cb3-fcca8ef32f9b","system_id":"levelo_inurba_marseille","lat":43.27083,"lon":5.4226,"is_reserved":false,"is_disabled":false,"rental_uris":{"android":"levelo://app?vid=61aebee5-66c7-4c27-9cb3-fcca8ef32f9b","ios":"levelo://app?vid=61aebee5-66c7-4c27-9cb3-fcca8ef32f9b"},"vehicle_type_id":"4","last_reported":1743128449,"current_range_meters":8000,"station_id":"ce4bhk92rcd13ifvqgb0","pricing_plan_id":"cebpf4jnsgd1na2vs0mg"},{"bike_id":"8ae2ded4-c19d-4977-964e-3fd3f050cf20","system_id":"levelo_inurba_marseille","lat":43.29979,"lon":5.37175,"is_reserved":false,"is_disabled":false,"rental_uris":{"android":"levelo://app?vid=8ae2ded4-c19d-4977-964e-3fd3f050cf20","ios":"levelo://app?vid=8ae2ded4-c19d-4977-964e-3fd3f050cf20"},"vehicle_type_id":"4","last_reported":1743128449,"current_range_meters":8000,"station_id":"ce4bgr92rcd13ifvqc7g","pricing_plan_id":"cebpf4jnsgd1na2vs0mg"},{"bike_id":"102b4a68-b003-44dd-a55c-3cf7a81794eb","system_id":"levelo_inurba_marseille","lat":43.28001,"lon":5.40011,"is_reserved":false,"is_disabled":false,"rental_uris":{"android":"levelo://app?vid=102b4a68-b003-44dd-a55c-3cf7a81794eb","ios":"levelo://app?vid=102b4a68-b003-44dd-a55c-3cf7a81794eb"},"vehicle_type_id":"4","last_reported":1743128449,"current_range_meters":8000,"station_id":"ce4bho92rcd13ifvqh4g","pricing_plan_id":"cebpf4jnsgd1na2vs0mg"},{"bike_id":"af69edf2-4482-4ac5-b909-0d583a382cae","system_id":"levelo_inurba_marseille","lat":43.28456,"lon":5.35875,"is_reserved":false,"is_disabled":false,"rental_uris":{"android":"levelo://app?vid=af69edf2-4482-4ac5-b909-0d583a382cae","ios":"levelo://app?vid=af69edf2-4482-4ac5-b909-0d583a382cae"},"vehicle_type_id":"4","last_reported":1743128449,"current_range_meters":8000,"station_id":"ce4bhah2rcd13ifvqei0","pricing_plan_id":"cebpf4jnsgd1na2vs0mg"},{"bike_id":"de523b40-8361-4fbc-92e6-b8178b0420b3","system_id":"levelo_inurba_marseille","lat":43.28616,"lon":5.35104,"is_reserved":false,"is_disabled":false,"rental_uris":{"android":"levelo://app?vid=de523b40-8361-4fbc-92e6-b8178b0420b3","ios":"levelo://app?vid=de523b40-8361-4fbc-92e6-b8178b0420b3"},"vehicle_type_id":"4","last_reported":1743128449,"current_range_meters":8000,"station_id":"ce4bhch2rcd13ifvqeug","pricing_plan_id":"cebpf4jnsgd1na2vs0mg"},{"bike_id":"b692cfb6-c9c0-405d-8e0a-61268b620404","system_id":"levelo_inurba_marseille","lat":43.29257,"lon":5.38427,"is_reserved":false,"is_disabled":true,"rental_uris":{"android":"levelo://app?vid=b692cfb6-c9c0-405d-8e0a-61268b620404","ios":"levelo://app?vid=b692cfb6-c9c0-405d-8e0a-61268b620404"},"vehicle_type_id":"4","last_reported":1743128449,"current_range_meters":8000,"station_id":"ce4bh692rcd13ifvqea0","pricing_plan_id":"cebpf4jnsgd1na2vs0mg"},{"bike_id":"e110c135-ffaa-4ee4-bb95-b2c04dc26dca","system_id":"levelo_inurba_marseille","lat":43.30796,"lon":5.43523,"is_reserved":false,"is_disabled":false,"rental_uris":{"android":"levelo://app?vid=e110c135-ffaa-4ee4-bb95-b2c04dc26dca","ios":"levelo://app?vid=e110c135-ffaa-4ee4-bb95-b2c04dc26dca"},"vehicle_type_id":"4","last_reported":1743128449,"current_range_meters":8000,"station_id":"ce4bhph2rcd13ifvqheg","pricing_plan_id":"cebpf4jnsgd1na2vs0mg"},{"bike_id":"c18155db-65c7-4d5a-8c5b-923eb75c675d","system_id":"levelo_inurba_marseille","lat":43.32107,"lon":5.36771,"is_reserved":false,"is_disabled":false,"rental_uris":{"android":"levelo://app?vid=c18155db-65c7-4d5a-8c5b-923eb75c675d","ios":"levelo://app?vid=c18155db-65c7-4d5a-8c5b-923eb75c675d"},"vehicle_type_id":"4","last_reported":1743128449,"current_range_meters":8000,"station_id":"ce4bhrh2rcd13ifvqhug","pricing_plan_id":"cebpf4jnsgd1na2vs0mg"},{"bike_id":"638c8e6b-6bbe-4946-a05d-753bcac50810","system_id":"levelo_inurba_marseille","lat":43.28082,"lon":5.39663,"is_reserved":false,"is_disabled":false,"rental_uris":{"android":"levelo://app?vid=638c8e6b-6bbe-4946-a05d-753bcac50810","ios":"levelo://app?vid=638c8e6b-6bbe-4946-a05d-753bcac50810"},"vehicle_type_id":"4","last_reported":1743128449,"current_range_meters":8000,"station_id":"ce4bho12rcd13ifvqh2g","pricing_plan_id":"cebpf4jnsgd1na2vs0mg"},{"bike_id":"d4d5963a-cb27-46de-9f1c-185490377ac1","system_id":"levelo_inurba_marseille","lat":43.31338,"lon":5.39691,"is_reserved":false,"is_disabled":false,"rental_uris":{"android":"levelo://app?vid=d4d5963a-cb27-46de-9f1c-185490377ac1","ios":"levelo://app?vid=d4d5963a-cb27-46de-9f1c-185490377ac1"},"vehicle_type_id":"4","last_reported":1743128449,"current_range_meters":8400,"station_id":"ce4bgvp2rcd13ifvqcu0","pricing_plan_id":"cebpf4jnsgd1na2vs0mg"},{"bike_id":"918a58ed-e860-41ef-bd73-9cdbd97e19d1","system_id":"levelo_inurba_marseille","lat":43.24079,"lon":5.37745,"is_reserved":false,"is_disabled":false,"rental_uris":{"android":"levelo://app?vid=918a58ed-e860-41ef-bd73-9cdbd97e19d1","ios":"levelo://app?vid=918a58ed-e860-41ef-bd73-9cdbd97e19d1"},"vehicle_type_id":"4","last_reported":1743128449,"current_range_meters":8400,"station_id":"ce4bhnp2rcd13ifvqgvg","pricing_plan_id":"cebpf4jnsgd1na2vs0mg"},{"bike_id":"e8230e4e-d9a7-46c2-83b0-eec450bbd0c3","system_id":"levelo_inurba_marseille","lat":43.28728,"lon":5.36089,"is_reserved":false,"is_disabled":false,"rental_uris":{"android":"levelo://app?vid=e8230e4e-d9a7-46c2-83b0-eec450bbd0c3","ios":"levelo://app?vid=e8230e4e-d9a7-46c2-83b0-eec450bbd0c3"},"vehicle_type_id":"4","last_reported":1743128449,"current_range_meters":8400,"station_id":"cki0cbj6b192h4jlfktg","pricing_plan_id":"cebpf4jnsgd1na2vs0mg"},{"bike_id":"2079e143-15fb-4fca-b428-1dcdbd2da2aa","system_id":"levelo_inurba_marseille","lat":43.27811,"lon":5.40706,"is_reserved":false,"is_disabled":false,"rental_uris":{"android":"levelo://app?vid=2079e143-15fb-4fca-b428-1dcdbd2da2aa","ios":"levelo://app?vid=2079e143-15fb-4fca-b428-1dcdbd2da2aa"},"vehicle_type_id":"4","last_reported":1743128449,"current_range_meters":8400,"station_id":"ce4bhnh2rcd13ifvqgtg","pricing_plan_id":"cebpf4jnsgd1na2vs0mg"},{"bike_id":"30cd612a-8cb0-4fab-9e3a-cd08e9fc22b5","system_id":"levelo_inurba_marseille","lat":43.29516,"lon":5.39379,"is_reserved":false,"is_disabled":true,"rental_uris":{"android":"levelo://app?vid=30cd612a-8cb0-4fab-9e3a-cd08e9fc22b5","ios":"levelo://app?vid=30cd612a-8cb0-4fab-9e3a-cd08e9fc22b5"},"vehicle_type_id":"4","last_reported":1743128449,"current_range_meters":8400,"station_id":"ce4bh292rcd13ifvqdf0","pricing_plan_id":"cebpf4jnsgd1na2vs0mg"},{"bike_id":"370669e1-a28f-4d18-9e7c-43dfbbad498e","system_id":"levelo_inurba_marseille","lat":43.241731,"lon":5.39733,"is_reserved":false,"is_disabled":false,"rental_uris":{"android":"levelo://app?vid=370669e1-a28f-4d18-9e7c-43dfbbad498e","ios":"levelo://app?vid=370669e1-a28f-4d18-9e7c-43dfbbad498e"},"vehicle_type_id":"4","last_reported":1743128449,"current_range_meters":8400,"station_id":"ce4bhn12rcd13ifvqgpg","pricing_plan_id":"cebpf4jnsgd1na2vs0mg"},{"bike_id":"0d268bc8-088b-4f54-90a0-0d14ccc60ae3","system_id":"levelo_inurba_marseille","lat":43.29303,"lon":5.37454,"is_reserved":false,"is_disabled":true,"rental_uris":{"android":"levelo://app?vid=0d268bc8-088b-4f54-90a0-0d14ccc60ae3","ios":"levelo://app?vid=0d268bc8-088b-4f54-90a0-0d14ccc60ae3"},"vehicle_type_id":"4","last_reported":1743128449,"current_range_meters":8400,"station_id":"ce4bgi12rcd13ifvqb70","pricing_plan_id":"cebpf4jnsgd1na2vs0mg"},{"bike_id":"c5d17eb8-cde1-49a3-9672-ac8d8cf34632","system_id":"levelo_inurba_marseille","lat":43.33428,"lon":5.39984,"is_reserved":false,"is_disabled":false,"rental_uris":{"android":"levelo://app?vid=c5d17eb8-cde1-49a3-9672-ac8d8cf34632","ios":"levelo://app?vid=c5d17eb8-cde1-49a3-9672-ac8d8cf34632"},"vehicle_type_id":"4","last_reported":1743128449,"current_range_meters":8400,"station_id":"","pricing_plan_id":"cebpf4jnsgd1na2vs0mg"},{"bike_id":"87c956d3-f221-4ed3-ae86-04fa68654cdc","system_id":"levelo_inurba_marseille","lat":43.28951,"lon":5.36391,"is_reserved":false,"is_disabled":false,"rental_uris":{"android":"levelo://app?vid=87c956d3-f221-4ed3-ae86-04fa68654cdc","ios":"levelo://app?vid=87c956d3-f221-4ed3-ae86-04fa68654cdc"},"vehicle_type_id":"4","last_reported":1743128449,"current_range_meters":8400,"station_id":"ce4bhc92rcd13ifvqetg","pricing_plan_id":"cebpf4jnsgd1na2vs0mg"},{"bike_id":"a8cb7b4b-8bee-4b66-88cc-bdc18306d3c8","system_id":"levelo_inurba_marseille","lat":43.27943,"lon":5.41029,"is_reserved":false,"is_disabled":false,"rental_uris":{"android":"levelo://app?vid=a8cb7b4b-8bee-4b66-88cc-bdc18306d3c8","ios":"levelo://app?vid=a8cb7b4b-8bee-4b66-88cc-bdc18306d3c8"},"vehicle_type_id":"4","last_reported":1743128449,"current_range_meters":8400,"station_id":"ce4bhnp2rcd13ifvqh0g","pricing_plan_id":"cebpf4jnsgd1na2vs0mg"},{"bike_id":"3a9bdcca-abab-46db-a40a-336182c98f57","system_id":"levelo_inurba_marseille","lat":43.27835,"lon":5.40685,"is_reserved":false,"is_disabled":false,"rental_uris":{"android":"levelo://app?vid=3a9bdcca-abab-46db-a40a-336182c98f57","ios":"levelo://app?vid=3a9bdcca-abab-46db-a40a-336182c98f57"},"vehicle_type_id":"4","last_reported":1743128449,"current_range_meters":8800,"station_id":"ce4bhnh2rcd13ifvqgtg","pricing_plan_id":"cebpf4jnsgd1na2vs0mg"},{"bike_id":"ff4019a9-dd1d-4915-9c87-9b475eaf143c","system_id":"levelo_inurba_marseille","lat":43.28045,"lon":5.3695,"is_reserved":false,"is_disabled":false,"rental_uris":{"android":"levelo://app?vid=ff4019a9-dd1d-4915-9c87-9b475eaf143c","ios":"levelo://app?vid=ff4019a9-dd1d-4915-9c87-9b475eaf143c"},"vehicle_type_id":"4","last_reported":1743128449,"current_range_meters":8800,"station_id":"ce4bha12rcd13ifvqef0","pricing_plan_id":"cebpf4jnsgd1na2vs0mg"},{"bike_id":"09a227f9-e81f-4ae4-8d74-65daf422601e","system_id":"levelo_inurba_marseille","lat":43.24814,"lon":5.37459,"is_reserved":false,"is_disabled":false,"rental_uris":{"android":"levelo://app?vid=09a227f9-e81f-4ae4-8d74-65daf422601e","ios":"levelo://app?vid=09a227f9-e81f-4ae4-8d74-65daf422601e"},"vehicle_type_id":"4","last_reported":1743128449,"current_range_meters":8800,"station_id":"ce4bhgh2rcd13ifvqfb0","pricing_plan_id":"cebpf4jnsgd1na2vs0mg"},{"bike_id":"e5047771-2082-4dba-9477-d8725027152d","system_id":"levelo_inurba_marseille","lat":43.25445,"lon":5.41866,"is_reserved":false,"is_disabled":false,"rental_uris":{"android":"levelo://app?vid=e5047771-2082-4dba-9477-d8725027152d","ios":"levelo://app?vid=e5047771-2082-4dba-9477-d8725027152d"},"vehicle_type_id":"4","last_reported":1743128449,"current_range_meters":8800,"station_id":"","pricing_plan_id":"cebpf4jnsgd1na2vs0mg"},{"bike_id":"d46ff930-e785-44f9-bf74-2f9202a8045b","system_id":"levelo_inurba_marseille","lat":43.28835,"lon":5.35855,"is_reserved":false,"is_disabled":false,"rental_uris":{"android":"levelo://app?vid=d46ff930-e785-44f9-bf74-2f9202a8045b","ios":"levelo://app?vid=d46ff930-e785-44f9-bf74-2f9202a8045b"},"vehicle_type_id":"4","last_reported":1743128449,"current_range_meters":8800,"station_id":"ce4bhb12rcd13ifvqem0","pricing_plan_id":"cebpf4jnsgd1na2vs0mg"},{"bike_id":"0ac88cdf-dd3a-494f-aaa5-2b24d1ce393f","system_id":"levelo_inurba_marseille","lat":43.23193,"lon":5.35573,"is_reserved":false,"is_disabled":false,"rental_uris":{"android":"levelo://app?vid=0ac88cdf-dd3a-494f-aaa5-2b24d1ce393f","ios":"levelo://app?vid=0ac88cdf-dd3a-494f-aaa5-2b24d1ce393f"},"vehicle_type_id":"4","last_reported":1743128449,"current_range_meters":8800,"station_id":"ce4bhu92rcd13ifvqi70","pricing_plan_id":"cebpf4jnsgd1na2vs0mg"},{"bike_id":"1fc1e0ea-eb84-4932-b41d-f9a6da82e3dd","system_id":"levelo_inurba_marseille","lat":43.330318,"lon":5.39044,"is_reserved":false,"is_disabled":false,"rental_uris":{"android":"levelo://app?vid=1fc1e0ea-eb84-4932-b41d-f9a6da82e3dd","ios":"levelo://app?vid=1fc1e0ea-eb84-4932-b41d-f9a6da82e3dd"},"vehicle_type_id":"4","last_reported":1743128449,"current_range_meters":8800,"station_id":"ce4bhr92rcd13ifvqhrg","pricing_plan_id":"cebpf4jnsgd1na2vs0mg"},{"bike_id":"df4005cc-2ad7-4306-b907-c6fbbda4a916","system_id":"levelo_inurba_marseille","lat":43.28649,"lon":5.36356,"is_reserved":false,"is_disabled":false,"rental_uris":{"android":"levelo://app?vid=df4005cc-2ad7-4306-b907-c6fbbda4a916","ios":"levelo://app?vid=df4005cc-2ad7-4306-b907-c6fbbda4a916"},"vehicle_type_id":"4","last_reported":1743128449,"current_range_meters":8800,"station_id":"ce4bhah2rcd13ifvqej0","pricing_plan_id":"cebpf4jnsgd1na2vs0mg"},{"bike_id":"fc8e8371-f4e9-4721-bc19-563801e389dc","system_id":"levelo_inurba_marseille","lat":43.337444,"lon":5.374475,"is_reserved":false,"is_disabled":false,"rental_uris":{"android":"levelo://app?vid=fc8e8371-f4e9-4721-bc19-563801e389dc","ios":"levelo://app?vid=fc8e8371-f4e9-4721-bc19-563801e389dc"},"vehicle_type_id":"4","last_reported":1743128449,"current_range_meters":8800,"station_id":"","pricing_plan_id":"cebpf4jnsgd1na2vs0mg"},{"bike_id":"653b8eba-a23a-45fe-87c3-6a270637d839","system_id":"levelo_inurba_marseille","lat":43.30309,"lon":5.40435,"is_reserved":false,"is_disabled":false,"rental_uris":{"android":"levelo://app?vid=653b8eba-a23a-45fe-87c3-6a270637d839","ios":"levelo://app?vid=653b8eba-a23a-45fe-87c3-6a270637d839"},"vehicle_type_id":"4","last_reported":1743128449,"current_range_meters":9200,"station_id":"ce4bh012rcd13ifvqd10","pricing_plan_id":"cebpf4jnsgd1na2vs0mg"},{"bike_id":"b6277294-9c97-4bd2-bb72-519bd900d431","system_id":"levelo_inurba_marseille","lat":43.29301,"lon":5.37443,"is_reserved":false,"is_disabled":true,"rental_uris":{"android":"levelo://app?vid=b6277294-9c97-4bd2-bb72-519bd900d431","ios":"levelo://app?vid=b6277294-9c97-4bd2-bb72-519bd900d431"},"vehicle_type_id":"4","last_reported":1743128449,"current_range_meters":9200,"station_id":"ce4bgi12rcd13ifvqb70","pricing_plan_id":"cebpf4jnsgd1na2vs0mg"},{"bike_id":"cc0a66da-20f9-44b3-a3bd-e1d2c0474fa7","system_id":"levelo_inurba_marseille","lat":43.24643,"lon":5.38913,"is_reserved":false,"is_disabled":false,"rental_uris":{"android":"levelo://app?vid=cc0a66da-20f9-44b3-a3bd-e1d2c0474fa7","ios":"levelo://app?vid=cc0a66da-20f9-44b3-a3bd-e1d2c0474fa7"},"vehicle_type_id":"4","last_reported":1743128449,"current_range_meters":9200,"station_id":"ce4bhg12rcd13ifvqf60","pricing_plan_id":"cebpf4jnsgd1na2vs0mg"},{"bike_id":"3696bc51-8c25-4c56-b61d-dcce493da387","system_id":"levelo_inurba_marseille","lat":43.303179,"lon":5.404369,"is_reserved":false,"is_disabled":false,"rental_uris":{"android":"levelo://app?vid=3696bc51-8c25-4c56-b61d-dcce493da387","ios":"levelo://app?vid=3696bc51-8c25-4c56-b61d-dcce493da387"},"vehicle_type_id":"4","last_reported":1743128449,"current_range_meters":9200,"station_id":"ce4bh012rcd13ifvqd10","pricing_plan_id":"cebpf4jnsgd1na2vs0mg"},{"bike_id":"ec940620-2a09-4eae-aace-1a0a72b62180","system_id":"levelo_inurba_marseille","lat":43.3028,"lon":5.40081,"is_reserved":false,"is_disabled":false,"rental_uris":{"android":"levelo://app?vid=ec940620-2a09-4eae-aace-1a0a72b62180","ios":"levelo://app?vid=ec940620-2a09-4eae-aace-1a0a72b62180"},"vehicle_type_id":"4","last_reported":1743128449,"current_range_meters":9200,"station_id":"ce4bgvh2rcd13ifvqcs0","pricing_plan_id":"cebpf4jnsgd1na2vs0mg"},{"bike_id":"a8ed19fc-d86c-48c2-bfe0-33f8fd6b1c33","system_id":"levelo_inurba_marseille","lat":43.28038,"lon":5.36959,"is_reserved":false,"is_disabled":false,"rental_uris":{"android":"levelo://app?vid=a8ed19fc-d86c-48c2-bfe0-33f8fd6b1c33","ios":"levelo://app?vid=a8ed19fc-d86c-48c2-bfe0-33f8fd6b1c33"},"vehicle_type_id":"4","last_reported":1743128449,"current_range_meters":9200,"station_id":"ce4bha12rcd13ifvqef0","pricing_plan_id":"cebpf4jnsgd1na2vs0mg"},{"bike_id":"5a7f605c-2a74-4026-82f7-f55a72384599","system_id":"levelo_inurba_marseille","lat":43.28729,"lon":5.3608,"is_reserved":false,"is_disabled":false,"rental_uris":{"android":"levelo://app?vid=5a7f605c-2a74-4026-82f7-f55a72384599","ios":"levelo://app?vid=5a7f605c-2a74-4026-82f7-f55a72384599"},"vehicle_type_id":"4","last_reported":1743128449,"current_range_meters":9200,"station_id":"cki0cbj6b192h4jlfktg","pricing_plan_id":"cebpf4jnsgd1na2vs0mg"},{"bike_id":"19221227-42ec-4f4b-8f04-42a0818e22f5","system_id":"levelo_inurba_marseille","lat":43.321068,"lon":5.367731,"is_reserved":false,"is_disabled":false,"rental_uris":{"android":"levelo://app?vid=19221227-42ec-4f4b-8f04-42a0818e22f5","ios":"levelo://app?vid=19221227-42ec-4f4b-8f04-42a0818e22f5"},"vehicle_type_id":"4","last_reported":1743128449,"current_range_meters":9200,"station_id":"ce4bhrh2rcd13ifvqhug","pricing_plan_id":"cebpf4jnsgd1na2vs0mg"},{"bike_id":"64f0ea86-1180-4755-95e1-3cbc9c8d4cf5","system_id":"levelo_inurba_marseille","lat":43.33009,"lon":5.43853,"is_reserved":false,"is_disabled":true,"rental_uris":{"android":"levelo://app?vid=64f0ea86-1180-4755-95e1-3cbc9c8d4cf5","ios":"levelo://app?vid=64f0ea86-1180-4755-95e1-3cbc9c8d4cf5"},"vehicle_type_id":"4","last_reported":1743128449,"current_range_meters":9200,"station_id":"","pricing_plan_id":"cebpf4jnsgd1na2vs0mg"},{"bike_id":"039e06cd-a88f-474e-9b34-6e28e3e4565e","system_id":"levelo_inurba_marseille","lat":43.28406,"lon":5.37515,"is_reserved":false,"is_disabled":false,"rental_uris":{"android":"levelo://app?vid=039e06cd-a88f-474e-9b34-6e28e3e4565e","ios":"levelo://app?vid=039e06cd-a88f-474e-9b34-6e28e3e4565e"},"vehicle_type_id":"4","last_reported":1743128449,"current_range_meters":9200,"station_id":"ce4bh412rcd13ifvqds0","pricing_plan_id":"cebpf4jnsgd1na2vs0mg"},{"bike_id":"17ad65fb-68d1-4f5a-8936-4a8b650acc48","system_id":"levelo_inurba_marseille","lat":43.29283,"lon":5.40111,"is_reserved":false,"is_disabled":false,"rental_uris":{"android":"levelo://app?vid=17ad65fb-68d1-4f5a-8936-4a8b650acc48","ios":"levelo://app?vid=17ad65fb-68d1-4f5a-8936-4a8b650acc48"},"vehicle_type_id":"4","last_reported":1743128449,"current_range_meters":9200,"station_id":"ce4bh312rcd13ifvqdk0","pricing_plan_id":"cebpf4jnsgd1na2vs0mg"},{"bike_id":"bc3f138a-3af0-4b4e-9b07-2d2a8e540795","system_id":"levelo_inurba_marseille","lat":43.26505,"lon":5.39546,"is_reserved":false,"is_disabled":true,"rental_uris":{"android":"levelo://app?vid=bc3f138a-3af0-4b4e-9b07-2d2a8e540795","ios":"levelo://app?vid=bc3f138a-3af0-4b4e-9b07-2d2a8e540795"},"vehicle_type_id":"4","last_reported":1743128449,"current_range_meters":9600,"station_id":"ce4bhi12rcd13ifvqfq0","pricing_plan_id":"cebpf4jnsgd1na2vs0mg"},{"bike_id":"25c93242-72e6-4525-aea7-7d96e2cd1825","system_id":"levelo_inurba_marseille","lat":43.33058,"lon":5.40807,"is_reserved":false,"is_disabled":false,"rental_uris":{"android":"levelo://app?vid=25c93242-72e6-4525-aea7-7d96e2cd1825","ios":"levelo://app?vid=25c93242-72e6-4525-aea7-7d96e2cd1825"},"vehicle_type_id":"4","last_reported":1743128449,"current_range_meters":9600,"station_id":"","pricing_plan_id":"cebpf4jnsgd1na2vs0mg"},{"bike_id":"1144b78b-ff9c-4536-8a7b-4358a021ccd4","system_id":"levelo_inurba_marseille","lat":43.32366,"lon":5.38885,"is_reserved":false,"is_disabled":false,"rental_uris":{"android":"levelo://app?vid=1144b78b-ff9c-4536-8a7b-4358a021ccd4","ios":"levelo://app?vid=1144b78b-ff9c-4536-8a7b-4358a021ccd4"},"vehicle_type_id":"4","last_reported":1743128449,"current_range_meters":9600,"station_id":"ce4bhqp2rcd13ifvqhog","pricing_plan_id":"cebpf4jnsgd1na2vs0mg"},{"bike_id":"eb993723-35b5-4171-a0c3-8265760301bc","system_id":"levelo_inurba_marseille","lat":43.29792,"lon":5.39336,"is_reserved":false,"is_disabled":false,"rental_uris":{"android":"levelo://app?vid=eb993723-35b5-4171-a0c3-8265760301bc","ios":"levelo://app?vid=eb993723-35b5-4171-a0c3-8265760301bc"},"vehicle_type_id":"4","last_reported":1743128449,"current_range_meters":9600,"station_id":"chh1huq6cuj3fo74tm60","pricing_plan_id":"cebpf4jnsgd1na2vs0mg"},{"bike_id":"2bedb86a-2cb2-4440-9de1-d77c0174ff1c","system_id":"levelo_inurba_marseille","lat":43.30644,"lon":5.40069,"is_reserved":false,"is_disabled":false,"rental_uris":{"android":"levelo://app?vid=2bedb86a-2cb2-4440-9de1-d77c0174ff1c","ios":"levelo://app?vid=2bedb86a-2cb2-4440-9de1-d77c0174ff1c"},"vehicle_type_id":"4","last_reported":1743128449,"current_range_meters":9600,"station_id":"ce4bh112rcd13ifvqda0","pricing_plan_id":"cebpf4jnsgd1na2vs0mg"},{"bike_id":"2afc13ca-19ca-4a36-868b-f0456f981754","system_id":"levelo_inurba_marseille","lat":43.27508,"lon":5.42451,"is_reserved":false,"is_disabled":false,"rental_uris":{"android":"levelo://app?vid=2afc13ca-19ca-4a36-868b-f0456f981754","ios":"levelo://app?vid=2afc13ca-19ca-4a36-868b-f0456f981754"},"vehicle_type_id":"4","last_reported":1743128449,"current_range_meters":9600,"station_id":"ce4bhn92rcd13ifvqgrg","pricing_plan_id":"cebpf4jnsgd1na2vs0mg"},{"bike_id":"97598caa-f881-4c11-b13b-ad62623fc261","system_id":"levelo_inurba_marseille","lat":43.28085,"lon":5.39648,"is_reserved":false,"is_disabled":false,"rental_uris":{"android":"levelo://app?vid=97598caa-f881-4c11-b13b-ad62623fc261","ios":"levelo://app?vid=97598caa-f881-4c11-b13b-ad62623fc261"},"vehicle_type_id":"4","last_reported":1743128449,"current_range_meters":9600,"station_id":"ce4bho12rcd13ifvqh2g","pricing_plan_id":"cebpf4jnsgd1na2vs0mg"},{"bike_id":"eb3cf403-8b3f-4893-9f27-c4512d6833f5","system_id":"levelo_inurba_marseille","lat":43.29788,"lon":5.39339,"is_reserved":false,"is_disabled":false,"rental_uris":{"android":"levelo://app?vid=eb3cf403-8b3f-4893-9f27-c4512d6833f5","ios":"levelo://app?vid=eb3cf403-8b3f-4893-9f27-c4512d6833f5"},"vehicle_type_id":"4","last_reported":1743128449,"current_range_meters":10000,"station_id":"chh1huq6cuj3fo74tm60","pricing_plan_id":"cebpf4jnsgd1na2vs0mg"},{"bike_id":"813634ed-e21d-4b9e-88e8-aa8b87581eb3","system_id":"levelo_inurba_marseille","lat":43.32111,"lon":5.36773,"is_reserved":false,"is_disabled":false,"rental_uris":{"android":"levelo://app?vid=813634ed-e21d-4b9e-88e8-aa8b87581eb3","ios":"levelo://app?vid=813634ed-e21d-4b9e-88e8-aa8b87581eb3"},"vehicle_type_id":"4","last_reported":1743128449,"current_range_meters":10000,"station_id":"ce4bhrh2rcd13ifvqhug","pricing_plan_id":"cebpf4jnsgd1na2vs0mg"},{"bike_id":"f00e0bf1-e77c-4752-8f1b-63a2e565cf51","system_id":"levelo_inurba_marseille","lat":43.27972,"lon":5.38748,"is_reserved":false,"is_disabled":true,"rental_uris":{"android":"levelo://app?vid=f00e0bf1-e77c-4752-8f1b-63a2e565cf51","ios":"levelo://app?vid=f00e0bf1-e77c-4752-8f1b-63a2e565cf51"},"vehicle_type_id":"4","last_reported":1743128449,"current_range_meters":10000,"station_id":"ce4bhg12rcd13ifvqf80","pricing_plan_id":"cebpf4jnsgd1na2vs0mg"},{"bike_id":"74d27e6b-e3c6-45b6-9eb1-918c740be7b3","system_id":"levelo_inurba_marseille","lat":43.29282,"lon":5.40143,"is_reserved":false,"is_disabled":false,"rental_uris":{"android":"levelo://app?vid=74d27e6b-e3c6-45b6-9eb1-918c740be7b3","ios":"levelo://app?vid=74d27e6b-e3c6-45b6-9eb1-918c740be7b3"},"vehicle_type_id":"4","last_reported":1743128449,"current_range_meters":10000,"station_id":"ce4bh312rcd13ifvqdk0","pricing_plan_id":"cebpf4jnsgd1na2vs0mg"},{"bike_id":"4c732124-8b69-4726-a111-e3a8d012a4e3","system_id":"levelo_inurba_marseille","lat":43.30317,"lon":5.4044,"is_reserved":false,"is_disabled":false,"rental_uris":{"android":"levelo://app?vid=4c732124-8b69-4726-a111-e3a8d012a4e3","ios":"levelo://app?vid=4c732124-8b69-4726-a111-e3a8d012a4e3"},"vehicle_type_id":"4","last_reported":1743128449,"current_range_meters":10000,"station_id":"ce4bh012rcd13ifvqd10","pricing_plan_id":"cebpf4jnsgd1na2vs0mg"},{"bike_id":"b1d443ea-0a9b-45b3-b54b-ee844688df1f","system_id":"levelo_inurba_marseille","lat":43.23186,"lon":5.39975,"is_reserved":false,"is_disabled":false,"rental_uris":{"android":"levelo://app?vid=b1d443ea-0a9b-45b3-b54b-ee844688df1f","ios":"levelo://app?vid=b1d443ea-0a9b-45b3-b54b-ee844688df1f"},"vehicle_type_id":"4","last_reported":1743128449,"current_range_meters":10000,"station_id":"ce4bhn12rcd13ifvqgqg","pricing_plan_id":"cebpf4jnsgd1na2vs0mg"},{"bike_id":"e29d1a2b-35d0-4d6b-9e81-558cc174acf3","system_id":"levelo_inurba_marseille","lat":43.25715,"lon":5.41123,"is_reserved":false,"is_disabled":false,"rental_uris":{"android":"levelo://app?vid=e29d1a2b-35d0-4d6b-9e81-558cc174acf3","ios":"levelo://app?vid=e29d1a2b-35d0-4d6b-9e81-558cc174acf3"},"vehicle_type_id":"4","last_reported":1743128449,"current_range_meters":10000,"station_id":"ce4bhkp2rcd13ifvqgd0","pricing_plan_id":"cebpf4jnsgd1na2vs0mg"},{"bike_id":"34805b4a-ac2d-4367-961b-5651d4251865","system_id":"levelo_inurba_marseille","lat":43.28719,"lon":5.39972,"is_reserved":false,"is_disabled":false,"rental_uris":{"android":"levelo://app?vid=34805b4a-ac2d-4367-961b-5651d4251865","ios":"levelo://app?vid=34805b4a-ac2d-4367-961b-5651d4251865"},"vehicle_type_id":"4","last_reported":1743128449,"current_range_meters":10000,"station_id":"ce4bho92rcd13ifvqh3g","pricing_plan_id":"cebpf4jnsgd1na2vs0mg"},{"bike_id":"e39f0277-8842-447f-8838-fb2880aa78ea","system_id":"levelo_inurba_marseille","lat":43.28932,"lon":5.36629,"is_reserved":false,"is_disabled":false,"rental_uris":{"android":"levelo://app?vid=e39f0277-8842-447f-8838-fb2880aa78ea","ios":"levelo://app?vid=e39f0277-8842-447f-8838-fb2880aa78ea"},"vehicle_type_id":"4","last_reported":1743128449,"current_range_meters":10000,"station_id":"ce4bhap2rcd13ifvqek0","pricing_plan_id":"cebpf4jnsgd1na2vs0mg"},{"bike_id":"e8d201f1-9aa9-4ae6-a427-58a645e166df","system_id":"levelo_inurba_marseille","lat":43.298753,"lon":5.397323,"is_reserved":false,"is_disabled":false,"rental_uris":{"android":"levelo://app?vid=e8d201f1-9aa9-4ae6-a427-58a645e166df","ios":"levelo://app?vid=e8d201f1-9aa9-4ae6-a427-58a645e166df"},"vehicle_type_id":"4","last_reported":1743128449,"current_range_meters":10000,"station_id":"ce4bh0h2rcd13ifvqd50","pricing_plan_id":"cebpf4jnsgd1na2vs0mg"},{"bike_id":"cbf7177e-6e28-4340-bbb6-69b4f76d24c6","system_id":"levelo_inurba_marseille","lat":43.30333,"lon":5.40441,"is_reserved":false,"is_disabled":false,"rental_uris":{"android":"levelo://app?vid=cbf7177e-6e28-4340-bbb6-69b4f76d24c6","ios":"levelo://app?vid=cbf7177e-6e28-4340-bbb6-69b4f76d24c6"},"vehicle_type_id":"4","last_reported":1743128449,"current_range_meters":10800,"station_id":"ce4bh012rcd13ifvqd10","pricing_plan_id":"cebpf4jnsgd1na2vs0mg"},{"bike_id":"cfed900d-e17f-46a7-9847-c8d921508ac3","system_id":"levelo_inurba_marseille","lat":43.23969,"lon":5.36634,"is_reserved":false,"is_disabled":false,"rental_uris":{"android":"levelo://app?vid=cfed900d-e17f-46a7-9847-c8d921508ac3","ios":"levelo://app?vid=cfed900d-e17f-46a7-9847-c8d921508ac3"},"vehicle_type_id":"4","last_reported":1743128449,"current_range_meters":10800,"station_id":"ce4bhi12rcd13ifvqfp0","pricing_plan_id":"cebpf4jnsgd1na2vs0mg"},{"bike_id":"2e919ca5-ce98-4c47-a9d7-66e6ab7584e4","system_id":"levelo_inurba_marseille","lat":43.32117,"lon":5.36773,"is_reserved":false,"is_disabled":false,"rental_uris":{"android":"levelo://app?vid=2e919ca5-ce98-4c47-a9d7-66e6ab7584e4","ios":"levelo://app?vid=2e919ca5-ce98-4c47-a9d7-66e6ab7584e4"},"vehicle_type_id":"4","last_reported":1743128449,"current_range_meters":10800,"station_id":"ce4bhrh2rcd13ifvqhug","pricing_plan_id":"cebpf4jnsgd1na2vs0mg"},{"bike_id":"3e058c99-2d25-4554-8d4d-6f99ec285bba","system_id":"levelo_inurba_marseille","lat":43.29261,"lon":5.40918,"is_reserved":false,"is_disabled":false,"rental_uris":{"android":"levelo://app?vid=3e058c99-2d25-4554-8d4d-6f99ec285bba","ios":"levelo://app?vid=3e058c99-2d25-4554-8d4d-6f99ec285bba"},"vehicle_type_id":"4","last_reported":1743128449,"current_range_meters":10800,"station_id":"ce4bh192rcd13ifvqdc0","pricing_plan_id":"cebpf4jnsgd1na2vs0mg"},{"bike_id":"5a193ba4-1e21-479f-bd65-c3dcbd16b945","system_id":"levelo_inurba_marseille","lat":43.30873,"lon":5.39642,"is_reserved":false,"is_disabled":false,"rental_uris":{"android":"levelo://app?vid=5a193ba4-1e21-479f-bd65-c3dcbd16b945","ios":"levelo://app?vid=5a193ba4-1e21-479f-bd65-c3dcbd16b945"},"vehicle_type_id":"4","last_reported":1743128449,"current_range_meters":10800,"station_id":"ce4bh012rcd13ifvqcv0","pricing_plan_id":"cebpf4jnsgd1na2vs0mg"},{"bike_id":"d75f9f5e-4772-4de2-8f78-058b650907ab","system_id":"levelo_inurba_marseille","lat":43.24161,"lon":5.36395,"is_reserved":false,"is_disabled":false,"rental_uris":{"android":"levelo://app?vid=d75f9f5e-4772-4de2-8f78-058b650907ab","ios":"levelo://app?vid=d75f9f5e-4772-4de2-8f78-058b650907ab"},"vehicle_type_id":"4","last_reported":1743128449,"current_range_meters":10800,"station_id":"cpo36qri1sfpv3e86is0","pricing_plan_id":"cebpf4jnsgd1na2vs0mg"},{"bike_id":"34d07891-8c02-4c2b-a31e-e054161d5fa3","system_id":"levelo_inurba_marseille","lat":43.28416,"lon":5.37513,"is_reserved":false,"is_disabled":false,"rental_uris":{"android":"levelo://app?vid=34d07891-8c02-4c2b-a31e-e054161d5fa3","ios":"levelo://app?vid=34d07891-8c02-4c2b-a31e-e054161d5fa3"},"vehicle_type_id":"4","last_reported":1743128449,"current_range_meters":10800,"station_id":"ce4bh412rcd13ifvqds0","pricing_plan_id":"cebpf4jnsgd1na2vs0mg"},{"bike_id":"1b1aa963-5d87-46c9-8b5b-1a666c786917","system_id":"levelo_inurba_marseille","lat":43.255804,"lon":5.382369,"is_reserved":false,"is_disabled":false,"rental_uris":{"android":"levelo://app?vid=1b1aa963-5d87-46c9-8b5b-1a666c786917","ios":"levelo://app?vid=1b1aa963-5d87-46c9-8b5b-1a666c786917"},"vehicle_type_id":"4","last_reported":1743128449,"current_range_meters":10800,"station_id":"ce4bhih2rcd13ifvqfs0","pricing_plan_id":"cebpf4jnsgd1na2vs0mg"},{"bike_id":"9802cb48-7f22-49fb-842b-2f89200f6272","system_id":"levelo_inurba_marseille","lat":43.33011,"lon":5.39031,"is_reserved":false,"is_disabled":false,"rental_uris":{"android":"levelo://app?vid=9802cb48-7f22-49fb-842b-2f89200f6272","ios":"levelo://app?vid=9802cb48-7f22-49fb-842b-2f89200f6272"},"vehicle_type_id":"4","last_reported":1743128449,"current_range_meters":10800,"station_id":"ce4bhr92rcd13ifvqhrg","pricing_plan_id":"cebpf4jnsgd1na2vs0mg"},{"bike_id":"bfa018d7-4766-430e-8a9d-9b17e9a65a71","system_id":"levelo_inurba_marseille","lat":43.25088,"lon":5.39523,"is_reserved":false,"is_disabled":false,"rental_uris":{"android":"levelo://app?vid=bfa018d7-4766-430e-8a9d-9b17e9a65a71","ios":"levelo://app?vid=bfa018d7-4766-430e-8a9d-9b17e9a65a71"},"vehicle_type_id":"4","last_reported":1743128449,"current_range_meters":10800,"station_id":"ce4bhm12rcd13ifvqgkg","pricing_plan_id":"cebpf4jnsgd1na2vs0mg"},{"bike_id":"79b5379a-18da-4725-b435-578361f4f572","system_id":"levelo_inurba_marseille","lat":43.288515,"lon":5.39315,"is_reserved":false,"is_disabled":false,"rental_uris":{"android":"levelo://app?vid=79b5379a-18da-4725-b435-578361f4f572","ios":"levelo://app?vid=79b5379a-18da-4725-b435-578361f4f572"},"vehicle_type_id":"4","last_reported":1743128449,"current_range_meters":10800,"station_id":"ce4bh2p2rcd13ifvqdi0","pricing_plan_id":"cebpf4jnsgd1na2vs0mg"},{"bike_id":"308affa0-f7e4-4e9c-992c-6abe90a252dc","system_id":"levelo_inurba_marseille","lat":43.3064,"lon":5.40079,"is_reserved":false,"is_disabled":false,"rental_uris":{"android":"levelo://app?vid=308affa0-f7e4-4e9c-992c-6abe90a252dc","ios":"levelo://app?vid=308affa0-f7e4-4e9c-992c-6abe90a252dc"},"vehicle_type_id":"4","last_reported":1743128449,"current_range_meters":10800,"station_id":"ce4bh112rcd13ifvqda0","pricing_plan_id":"cebpf4jnsgd1na2vs0mg"},{"bike_id":"c11a4eb9-648f-4fa7-aefc-e342d02ebe0d","system_id":"levelo_inurba_marseille","lat":43.2872,"lon":5.36064,"is_reserved":false,"is_disabled":false,"rental_uris":{"android":"levelo://app?vid=c11a4eb9-648f-4fa7-aefc-e342d02ebe0d","ios":"levelo://app?vid=c11a4eb9-648f-4fa7-aefc-e342d02ebe0d"},"vehicle_type_id":"4","last_reported":1743128449,"current_range_meters":11200,"station_id":"cki0cbj6b192h4jlfktg","pricing_plan_id":"cebpf4jnsgd1na2vs0mg"},{"bike_id":"21df7ecd-9789-4647-b3d9-f06ca6714059","system_id":"levelo_inurba_marseille","lat":43.28928,"lon":5.36628,"is_reserved":false,"is_disabled":false,"rental_uris":{"android":"levelo://app?vid=21df7ecd-9789-4647-b3d9-f06ca6714059","ios":"levelo://app?vid=21df7ecd-9789-4647-b3d9-f06ca6714059"},"vehicle_type_id":"4","last_reported":1743128449,"current_range_meters":11200,"station_id":"ce4bhap2rcd13ifvqek0","pricing_plan_id":"cebpf4jnsgd1na2vs0mg"},{"bike_id":"4a42ca1e-41e4-4233-a4bb-a180f04564d6","system_id":"levelo_inurba_marseille","lat":43.29175,"lon":5.37155,"is_reserved":false,"is_disabled":true,"rental_uris":{"android":"levelo://app?vid=4a42ca1e-41e4-4233-a4bb-a180f04564d6","ios":"levelo://app?vid=4a42ca1e-41e4-4233-a4bb-a180f04564d6"},"vehicle_type_id":"4","last_reported":1743128449,"current_range_meters":11200,"station_id":"ce4bha92rcd13ifvqeh0","pricing_plan_id":"cebpf4jnsgd1na2vs0mg"},{"bike_id":"750acb47-3839-45d4-9ebf-94614116eb76","system_id":"levelo_inurba_marseille","lat":43.28347,"lon":5.38086,"is_reserved":false,"is_disabled":false,"rental_uris":{"android":"levelo://app?vid=750acb47-3839-45d4-9ebf-94614116eb76","ios":"levelo://app?vid=750acb47-3839-45d4-9ebf-94614116eb76"},"vehicle_type_id":"4","last_reported":1743128449,"current_range_meters":11200,"station_id":"ce4bh412rcd13ifvqdr0","pricing_plan_id":"cebpf4jnsgd1na2vs0mg"},{"bike_id":"ed3f340d-7b56-49a7-952a-c79c8daa5f0f","system_id":"levelo_inurba_marseille","lat":43.30127,"lon":5.38783,"is_reserved":false,"is_disabled":true,"rental_uris":{"android":"levelo://app?vid=ed3f340d-7b56-49a7-952a-c79c8daa5f0f","ios":"levelo://app?vid=ed3f340d-7b56-49a7-952a-c79c8daa5f0f"},"vehicle_type_id":"4","last_reported":1743128449,"current_range_meters":11200,"station_id":"ce4bghh2rcd13ifvqb60","pricing_plan_id":"cebpf4jnsgd1na2vs0mg"},{"bike_id":"3c4fd66e-3c94-485d-83d0-4718eb89e82d","system_id":"levelo_inurba_marseille","lat":43.30144,"lon":5.39862,"is_reserved":false,"is_disabled":false,"rental_uris":{"android":"levelo://app?vid=3c4fd66e-3c94-485d-83d0-4718eb89e82d","ios":"levelo://app?vid=3c4fd66e-3c94-485d-83d0-4718eb89e82d"},"vehicle_type_id":"4","last_reported":1743128449,"current_range_meters":11200,"station_id":"ce4bh0h2rcd13ifvqd40","pricing_plan_id":"cebpf4jnsgd1na2vs0mg"},{"bike_id":"74bb3be4-214a-4907-a0a6-cb5edcf13a83","system_id":"levelo_inurba_marseille","lat":43.29716,"lon":5.36597,"is_reserved":false,"is_disabled":true,"rental_uris":{"android":"levelo://app?vid=74bb3be4-214a-4907-a0a6-cb5edcf13a83","ios":"levelo://app?vid=74bb3be4-214a-4907-a0a6-cb5edcf13a83"},"vehicle_type_id":"4","last_reported":1743128449,"current_range_meters":11200,"station_id":"ce4bgn12rcd13ifvqbt0","pricing_plan_id":"cebpf4jnsgd1na2vs0mg"},{"bike_id":"1c14bf9c-ada4-4a36-8853-740a1a2c000a","system_id":"levelo_inurba_marseille","lat":43.231913,"lon":5.355622,"is_reserved":false,"is_disabled":false,"rental_uris":{"android":"levelo://app?vid=1c14bf9c-ada4-4a36-8853-740a1a2c000a","ios":"levelo://app?vid=1c14bf9c-ada4-4a36-8853-740a1a2c000a"},"vehicle_type_id":"4","last_reported":1743128449,"current_range_meters":11200,"station_id":"ce4bhu92rcd13ifvqi70","pricing_plan_id":"cebpf4jnsgd1na2vs0mg"},{"bike_id":"e40a1280-38e7-4f68-874d-33a9044a1031","system_id":"levelo_inurba_marseille","lat":43.30639,"lon":5.40085,"is_reserved":false,"is_disabled":false,"rental_uris":{"android":"levelo://app?vid=e40a1280-38e7-4f68-874d-33a9044a1031","ios":"levelo://app?vid=e40a1280-38e7-4f68-874d-33a9044a1031"},"vehicle_type_id":"4","last_reported":1743128449,"current_range_meters":11600,"station_id":"ce4bh112rcd13ifvqda0","pricing_plan_id":"cebpf4jnsgd1na2vs0mg"},{"bike_id":"7cdf40e9-5bfc-47d5-b577-41d7c0c94acd","system_id":"levelo_inurba_marseille","lat":43.302523,"lon":5.400776,"is_reserved":false,"is_disabled":false,"rental_uris":{"android":"levelo://app?vid=7cdf40e9-5bfc-47d5-b577-41d7c0c94acd","ios":"levelo://app?vid=7cdf40e9-5bfc-47d5-b577-41d7c0c94acd"},"vehicle_type_id":"4","last_reported":1743128449,"current_range_meters":11600,"station_id":"ce4bgvh2rcd13ifvqcs0","pricing_plan_id":"cebpf4jnsgd1na2vs0mg"},{"bike_id":"49e90f0c-ba45-43d0-83d1-ddc86e90ad77","system_id":"levelo_inurba_marseille","lat":43.289497,"lon":5.383799,"is_reserved":false,"is_disabled":false,"rental_uris":{"android":"levelo://app?vid=49e90f0c-ba45-43d0-83d1-ddc86e90ad77","ios":"levelo://app?vid=49e90f0c-ba45-43d0-83d1-ddc86e90ad77"},"vehicle_type_id":"4","last_reported":1743128449,"current_range_meters":11600,"station_id":"ce4bgi92rcd13ifvqb90","pricing_plan_id":"cebpf4jnsgd1na2vs0mg"},{"bike_id":"b5579148-8a30-4e60-90d0-d97503335830","system_id":"levelo_inurba_marseille","lat":43.24063,"lon":5.37758,"is_reserved":false,"is_disabled":false,"rental_uris":{"android":"levelo://app?vid=b5579148-8a30-4e60-90d0-d97503335830","ios":"levelo://app?vid=b5579148-8a30-4e60-90d0-d97503335830"},"vehicle_type_id":"4","last_reported":1743128449,"current_range_meters":11600,"station_id":"ce4bhnp2rcd13ifvqgvg","pricing_plan_id":"cebpf4jnsgd1na2vs0mg"},{"bike_id":"1265d3a0-46d6-4ded-9c3a-391d97180c1b","system_id":"levelo_inurba_marseille","lat":43.31767,"lon":5.38991,"is_reserved":false,"is_disabled":false,"rental_uris":{"android":"levelo://app?vid=1265d3a0-46d6-4ded-9c3a-391d97180c1b","ios":"levelo://app?vid=1265d3a0-46d6-4ded-9c3a-391d97180c1b"},"vehicle_type_id":"4","last_reported":1743128449,"current_range_meters":12000,"station_id":"ce4bhqp2rcd13ifvqhng","pricing_plan_id":"cebpf4jnsgd1na2vs0mg"},{"bike_id":"0d275473-88fa-4856-9e77-62617f945d08","system_id":"levelo_inurba_marseille","lat":43.287171,"lon":5.379383,"is_reserved":false,"is_disabled":false,"rental_uris":{"android":"levelo://app?vid=0d275473-88fa-4856-9e77-62617f945d08","ios":"levelo://app?vid=0d275473-88fa-4856-9e77-62617f945d08"},"vehicle_type_id":"4","last_reported":1743128449,"current_range_meters":11600,"station_id":"ce4bh9p2rcd13ifvqec0","pricing_plan_id":"cebpf4jnsgd1na2vs0mg"},{"bike_id":"4f38e468-4f96-4507-9d29-f031ca6c463c","system_id":"levelo_inurba_marseille","lat":43.27901,"lon":5.37995,"is_reserved":false,"is_disabled":false,"rental_uris":{"android":"levelo://app?vid=4f38e468-4f96-4507-9d29-f031ca6c463c","ios":"levelo://app?vid=4f38e468-4f96-4507-9d29-f031ca6c463c"},"vehicle_type_id":"4","last_reported":1743128449,"current_range_meters":12000,"station_id":"ce4bhf92rcd13ifvqf50","pricing_plan_id":"cebpf4jnsgd1na2vs0mg"},{"bike_id":"0f1f83e7-db71-4d69-bca1-763d2105909b","system_id":"levelo_inurba_marseille","lat":43.30326,"lon":5.40428,"is_reserved":false,"is_disabled":false,"rental_uris":{"android":"levelo://app?vid=0f1f83e7-db71-4d69-bca1-763d2105909b","ios":"levelo://app?vid=0f1f83e7-db71-4d69-bca1-763d2105909b"},"vehicle_type_id":"4","last_reported":1743128449,"current_range_meters":12000,"station_id":"ce4bh012rcd13ifvqd10","pricing_plan_id":"cebpf4jnsgd1na2vs0mg"},{"bike_id":"ff3c1f83-137f-4504-ac9d-326f0bc71bb2","system_id":"levelo_inurba_marseille","lat":43.2893,"lon":5.36628,"is_reserved":false,"is_disabled":false,"rental_uris":{"android":"levelo://app?vid=ff3c1f83-137f-4504-ac9d-326f0bc71bb2","ios":"levelo://app?vid=ff3c1f83-137f-4504-ac9d-326f0bc71bb2"},"vehicle_type_id":"4","last_reported":1743128449,"current_range_meters":12000,"station_id":"ce4bhap2rcd13ifvqek0","pricing_plan_id":"cebpf4jnsgd1na2vs0mg"},{"bike_id":"f4e5bf40-21e3-4962-9b82-6bdd533ef0ec","system_id":"levelo_inurba_marseille","lat":43.24654,"lon":5.38891,"is_reserved":false,"is_disabled":false,"rental_uris":{"android":"levelo://app?vid=f4e5bf40-21e3-4962-9b82-6bdd533ef0ec","ios":"levelo://app?vid=f4e5bf40-21e3-4962-9b82-6bdd533ef0ec"},"vehicle_type_id":"4","last_reported":1743128449,"current_range_meters":12000,"station_id":"ce4bhg12rcd13ifvqf60","pricing_plan_id":"cebpf4jnsgd1na2vs0mg"},{"bike_id":"9b6b02c7-cfb4-40b4-829c-2e3a58d88e4d","system_id":"levelo_inurba_marseille","lat":43.29794,"lon":5.39343,"is_reserved":false,"is_disabled":false,"rental_uris":{"android":"levelo://app?vid=9b6b02c7-cfb4-40b4-829c-2e3a58d88e4d","ios":"levelo://app?vid=9b6b02c7-cfb4-40b4-829c-2e3a58d88e4d"},"vehicle_type_id":"4","last_reported":1743128449,"current_range_meters":12000,"station_id":"chh1huq6cuj3fo74tm60","pricing_plan_id":"cebpf4jnsgd1na2vs0mg"},{"bike_id":"767b3de5-c408-4bff-92a2-6b38b23a008d","system_id":"levelo_inurba_marseille","lat":43.29521,"lon":5.38919,"is_reserved":false,"is_disabled":false,"rental_uris":{"android":"levelo://app?vid=767b3de5-c408-4bff-92a2-6b38b23a008d","ios":"levelo://app?vid=767b3de5-c408-4bff-92a2-6b38b23a008d"},"vehicle_type_id":"4","last_reported":1743128449,"current_range_meters":12000,"station_id":"","pricing_plan_id":"cebpf4jnsgd1na2vs0mg"},{"bike_id":"c5b747b8-0a33-4be6-a6c0-180ceea5e00d","system_id":"levelo_inurba_marseille","lat":43.280796,"lon":5.396557,"is_reserved":false,"is_disabled":true,"rental_uris":{"android":"levelo://app?vid=c5b747b8-0a33-4be6-a6c0-180ceea5e00d","ios":"levelo://app?vid=c5b747b8-0a33-4be6-a6c0-180ceea5e00d"},"vehicle_type_id":"4","last_reported":1743128449,"current_range_meters":12000,"station_id":"ce4bho12rcd13ifvqh2g","pricing_plan_id":"cebpf4jnsgd1na2vs0mg"},{"bike_id":"a9108b2d-3767-4909-a20b-64076bd66645","system_id":"levelo_inurba_marseille","lat":43.28039,"lon":5.36948,"is_reserved":false,"is_disabled":false,"rental_uris":{"android":"levelo://app?vid=a9108b2d-3767-4909-a20b-64076bd66645","ios":"levelo://app?vid=a9108b2d-3767-4909-a20b-64076bd66645"},"vehicle_type_id":"4","last_reported":1743128449,"current_range_meters":12400,"station_id":"ce4bha12rcd13ifvqef0","pricing_plan_id":"cebpf4jnsgd1na2vs0mg"},{"bike_id":"ac5c8581-8b1d-4bb3-a75d-36c5fd98dff0","system_id":"levelo_inurba_marseille","lat":43.26953,"lon":5.386357,"is_reserved":false,"is_disabled":false,"rental_uris":{"android":"levelo://app?vid=ac5c8581-8b1d-4bb3-a75d-36c5fd98dff0","ios":"levelo://app?vid=ac5c8581-8b1d-4bb3-a75d-36c5fd98dff0"},"vehicle_type_id":"4","last_reported":1743128449,"current_range_meters":12400,"station_id":"ce4bhh92rcd13ifvqfh0","pricing_plan_id":"cebpf4jnsgd1na2vs0mg"},{"bike_id":"41c8f584-3d5c-4c75-a49d-9825c44163e4","system_id":"levelo_inurba_marseille","lat":43.292525,"lon":5.409055,"is_reserved":false,"is_disabled":false,"rental_uris":{"android":"levelo://app?vid=41c8f584-3d5c-4c75-a49d-9825c44163e4","ios":"levelo://app?vid=41c8f584-3d5c-4c75-a49d-9825c44163e4"},"vehicle_type_id":"4","last_reported":1743128449,"current_range_meters":12400,"station_id":"ce4bh192rcd13ifvqdc0","pricing_plan_id":"cebpf4jnsgd1na2vs0mg"},{"bike_id":"f43662ee-c720-4d57-a460-0de05ea9047c","system_id":"levelo_inurba_marseille","lat":43.32358,"lon":5.38877,"is_reserved":false,"is_disabled":false,"rental_uris":{"android":"levelo://app?vid=f43662ee-c720-4d57-a460-0de05ea9047c","ios":"levelo://app?vid=f43662ee-c720-4d57-a460-0de05ea9047c"},"vehicle_type_id":"4","last_reported":1743128449,"current_range_meters":12400,"station_id":"ce4bhqp2rcd13ifvqhog","pricing_plan_id":"cebpf4jnsgd1na2vs0mg"},{"bike_id":"6018f228-b321-41b9-9d12-4b704446d546","system_id":"levelo_inurba_marseille","lat":43.29254,"lon":5.40913,"is_reserved":false,"is_disabled":false,"rental_uris":{"android":"levelo://app?vid=6018f228-b321-41b9-9d12-4b704446d546","ios":"levelo://app?vid=6018f228-b321-41b9-9d12-4b704446d546"},"vehicle_type_id":"4","last_reported":1743128449,"current_range_meters":12400,"station_id":"ce4bh192rcd13ifvqdc0","pricing_plan_id":"cebpf4jnsgd1na2vs0mg"},{"bike_id":"62feeb8e-b2cc-48d6-9f73-3dd1b580c165","system_id":"levelo_inurba_marseille","lat":43.25121,"lon":5.40314,"is_reserved":false,"is_disabled":false,"rental_uris":{"android":"levelo://app?vid=62feeb8e-b2cc-48d6-9f73-3dd1b580c165","ios":"levelo://app?vid=62feeb8e-b2cc-48d6-9f73-3dd1b580c165"},"vehicle_type_id":"4","last_reported":1743128449,"current_range_meters":12800,"station_id":"ce4bhlh2rcd13ifvqgig","pricing_plan_id":"cebpf4jnsgd1na2vs0mg"},{"bike_id":"3fbcdfd8-5176-471d-aa84-e8e20bb4418e","system_id":"levelo_inurba_marseille","lat":43.32096,"lon":5.36774,"is_reserved":false,"is_disabled":false,"rental_uris":{"android":"levelo://app?vid=3fbcdfd8-5176-471d-aa84-e8e20bb4418e","ios":"levelo://app?vid=3fbcdfd8-5176-471d-aa84-e8e20bb4418e"},"vehicle_type_id":"4","last_reported":1743128449,"current_range_meters":12800,"station_id":"ce4bhrh2rcd13ifvqhug","pricing_plan_id":"cebpf4jnsgd1na2vs0mg"},{"bike_id":"213522d2-34be-42dc-a861-71dacdd3d79c","system_id":"levelo_inurba_marseille","lat":43.2509,"lon":5.40323,"is_reserved":false,"is_disabled":false,"rental_uris":{"android":"levelo://app?vid=213522d2-34be-42dc-a861-71dacdd3d79c","ios":"levelo://app?vid=213522d2-34be-42dc-a861-71dacdd3d79c"},"vehicle_type_id":"4","last_reported":1743128449,"current_range_meters":12800,"station_id":"ce4bhlh2rcd13ifvqgig","pricing_plan_id":"cebpf4jnsgd1na2vs0mg"},{"bike_id":"889389b5-737f-4fa1-9dd2-71f9cb4ea254","system_id":"levelo_inurba_marseille","lat":43.2793,"lon":5.39568,"is_reserved":false,"is_disabled":false,"rental_uris":{"android":"levelo://app?vid=889389b5-737f-4fa1-9dd2-71f9cb4ea254","ios":"levelo://app?vid=889389b5-737f-4fa1-9dd2-71f9cb4ea254"},"vehicle_type_id":"4","last_reported":1743128449,"current_range_meters":12800,"station_id":"ce4bhf92rcd13ifvqf40","pricing_plan_id":"cebpf4jnsgd1na2vs0mg"},{"bike_id":"17528684-6b69-4d69-9207-c397671db103","system_id":"levelo_inurba_marseille","lat":43.28938,"lon":5.36622,"is_reserved":false,"is_disabled":false,"rental_uris":{"android":"levelo://app?vid=17528684-6b69-4d69-9207-c397671db103","ios":"levelo://app?vid=17528684-6b69-4d69-9207-c397671db103"},"vehicle_type_id":"4","last_reported":1743128449,"current_range_meters":12800,"station_id":"ce4bhap2rcd13ifvqek0","pricing_plan_id":"cebpf4jnsgd1na2vs0mg"},{"bike_id":"aeee719e-56c9-4414-9561-e5b2a78b28a9","system_id":"levelo_inurba_marseille","lat":43.25083,"lon":5.3951,"is_reserved":false,"is_disabled":false,"rental_uris":{"android":"levelo://app?vid=aeee719e-56c9-4414-9561-e5b2a78b28a9","ios":"levelo://app?vid=aeee719e-56c9-4414-9561-e5b2a78b28a9"},"vehicle_type_id":"4","last_reported":1743128449,"current_range_meters":12800,"station_id":"ce4bhm12rcd13ifvqgkg","pricing_plan_id":"cebpf4jnsgd1na2vs0mg"},{"bike_id":"7655d9b7-ab68-4d9e-ba5f-6243a4ea0a8a","system_id":"levelo_inurba_marseille","lat":43.25108,"lon":5.40321,"is_reserved":false,"is_disabled":false,"rental_uris":{"android":"levelo://app?vid=7655d9b7-ab68-4d9e-ba5f-6243a4ea0a8a","ios":"levelo://app?vid=7655d9b7-ab68-4d9e-ba5f-6243a4ea0a8a"},"vehicle_type_id":"4","last_reported":1743128449,"current_range_meters":12800,"station_id":"ce4bhlh2rcd13ifvqgig","pricing_plan_id":"cebpf4jnsgd1na2vs0mg"},{"bike_id":"855fd122-c3f8-4a4e-a851-cb10801b8791","system_id":"levelo_inurba_marseille","lat":43.30886,"lon":5.39648,"is_reserved":false,"is_disabled":false,"rental_uris":{"android":"levelo://app?vid=855fd122-c3f8-4a4e-a851-cb10801b8791","ios":"levelo://app?vid=855fd122-c3f8-4a4e-a851-cb10801b8791"},"vehicle_type_id":"4","last_reported":1743128449,"current_range_meters":12800,"station_id":"ce4bh012rcd13ifvqcv0","pricing_plan_id":"cebpf4jnsgd1na2vs0mg"},{"bike_id":"d8688447-b8ce-4bc0-9571-24215d635277","system_id":"levelo_inurba_marseille","lat":43.28466,"lon":5.35896,"is_reserved":false,"is_disabled":false,"rental_uris":{"android":"levelo://app?vid=d8688447-b8ce-4bc0-9571-24215d635277","ios":"levelo://app?vid=d8688447-b8ce-4bc0-9571-24215d635277"},"vehicle_type_id":"4","last_reported":1743128449,"current_range_meters":12800,"station_id":"ce4bhah2rcd13ifvqei0","pricing_plan_id":"cebpf4jnsgd1na2vs0mg"},{"bike_id":"ac776cf5-d9af-47cc-83cc-cf37e00c8684","system_id":"levelo_inurba_marseille","lat":43.30301,"lon":5.40249,"is_reserved":false,"is_disabled":false,"rental_uris":{"android":"levelo://app?vid=ac776cf5-d9af-47cc-83cc-cf37e00c8684","ios":"levelo://app?vid=ac776cf5-d9af-47cc-83cc-cf37e00c8684"},"vehicle_type_id":"4","last_reported":1743128449,"current_range_meters":12800,"station_id":"","pricing_plan_id":"cebpf4jnsgd1na2vs0mg"},{"bike_id":"cea38d8c-f3ab-4e30-9c93-859813b3fc71","system_id":"levelo_inurba_marseille","lat":43.2756,"lon":5.38422,"is_reserved":false,"is_disabled":false,"rental_uris":{"android":"levelo://app?vid=cea38d8c-f3ab-4e30-9c93-859813b3fc71","ios":"levelo://app?vid=cea38d8c-f3ab-4e30-9c93-859813b3fc71"},"vehicle_type_id":"4","last_reported":1743128449,"current_range_meters":13600,"station_id":"ce4bhh92rcd13ifvqfi0","pricing_plan_id":"cebpf4jnsgd1na2vs0mg"},{"bike_id":"0ddc3ef9-c9ca-479a-8b28-e2773a58874a","system_id":"levelo_inurba_marseille","lat":43.2841,"lon":5.37514,"is_reserved":false,"is_disabled":false,"rental_uris":{"android":"levelo://app?vid=0ddc3ef9-c9ca-479a-8b28-e2773a58874a","ios":"levelo://app?vid=0ddc3ef9-c9ca-479a-8b28-e2773a58874a"},"vehicle_type_id":"4","last_reported":1743128449,"current_range_meters":13600,"station_id":"ce4bh412rcd13ifvqds0","pricing_plan_id":"cebpf4jnsgd1na2vs0mg"},{"bike_id":"6cbddcc1-9609-4503-9874-4b78c26df24e","system_id":"levelo_inurba_marseille","lat":43.32089,"lon":5.36797,"is_reserved":false,"is_disabled":false,"rental_uris":{"android":"levelo://app?vid=6cbddcc1-9609-4503-9874-4b78c26df24e","ios":"levelo://app?vid=6cbddcc1-9609-4503-9874-4b78c26df24e"},"vehicle_type_id":"4","last_reported":1743128449,"current_range_meters":13600,"station_id":"ce4bhrh2rcd13ifvqhug","pricing_plan_id":"cebpf4jnsgd1na2vs0mg"},{"bike_id":"68e9fc26-8998-4bf7-8da8-af47209f9b7c","system_id":"levelo_inurba_marseille","lat":43.3211,"lon":5.36787,"is_reserved":false,"is_disabled":false,"rental_uris":{"android":"levelo://app?vid=68e9fc26-8998-4bf7-8da8-af47209f9b7c","ios":"levelo://app?vid=68e9fc26-8998-4bf7-8da8-af47209f9b7c"},"vehicle_type_id":"4","last_reported":1743128449,"current_range_meters":13600,"station_id":"ce4bhrh2rcd13ifvqhug","pricing_plan_id":"cebpf4jnsgd1na2vs0mg"},{"bike_id":"520692e3-de93-4ca9-8fdd-f1dbe2f2a471","system_id":"levelo_inurba_marseille","lat":43.29505,"lon":5.39405,"is_reserved":false,"is_disabled":false,"rental_uris":{"android":"levelo://app?vid=520692e3-de93-4ca9-8fdd-f1dbe2f2a471","ios":"levelo://app?vid=520692e3-de93-4ca9-8fdd-f1dbe2f2a471"},"vehicle_type_id":"4","last_reported":1743128449,"current_range_meters":13600,"station_id":"ce4bh292rcd13ifvqdf0","pricing_plan_id":"cebpf4jnsgd1na2vs0mg"},{"bike_id":"6d249512-c4ef-4c94-abf5-52cc6421d62a","system_id":"levelo_inurba_marseille","lat":43.28083,"lon":5.3966,"is_reserved":false,"is_disabled":false,"rental_uris":{"android":"levelo://app?vid=6d249512-c4ef-4c94-abf5-52cc6421d62a","ios":"levelo://app?vid=6d249512-c4ef-4c94-abf5-52cc6421d62a"},"vehicle_type_id":"4","last_reported":1743128449,"current_range_meters":13600,"station_id":"ce4bho12rcd13ifvqh2g","pricing_plan_id":"cebpf4jnsgd1na2vs0mg"},{"bike_id":"c137871e-a58c-4f51-8021-faf24fe0f355","system_id":"levelo_inurba_marseille","lat":43.28727,"lon":5.36078,"is_reserved":false,"is_disabled":false,"rental_uris":{"android":"levelo://app?vid=c137871e-a58c-4f51-8021-faf24fe0f355","ios":"levelo://app?vid=c137871e-a58c-4f51-8021-faf24fe0f355"},"vehicle_type_id":"4","last_reported":1743128449,"current_range_meters":13600,"station_id":"cki0cbj6b192h4jlfktg","pricing_plan_id":"cebpf4jnsgd1na2vs0mg"},{"bike_id":"794262a6-2812-48d9-b7fa-f2c9665d76e2","system_id":"levelo_inurba_marseille","lat":43.28457,"lon":5.35881,"is_reserved":false,"is_disabled":false,"rental_uris":{"android":"levelo://app?vid=794262a6-2812-48d9-b7fa-f2c9665d76e2","ios":"levelo://app?vid=794262a6-2812-48d9-b7fa-f2c9665d76e2"},"vehicle_type_id":"4","last_reported":1743128449,"current_range_meters":13600,"station_id":"ce4bhah2rcd13ifvqei0","pricing_plan_id":"cebpf4jnsgd1na2vs0mg"},{"bike_id":"c527ac51-4362-4d1f-b9e1-306c1ebece74","system_id":"levelo_inurba_marseille","lat":43.29898,"lon":5.43677,"is_reserved":false,"is_disabled":false,"rental_uris":{"android":"levelo://app?vid=c527ac51-4362-4d1f-b9e1-306c1ebece74","ios":"levelo://app?vid=c527ac51-4362-4d1f-b9e1-306c1ebece74"},"vehicle_type_id":"4","last_reported":1743128449,"current_range_meters":14000,"station_id":"ce4bhpp2rcd13ifvqhfg","pricing_plan_id":"cebpf4jnsgd1na2vs0mg"},{"bike_id":"ab79c7bb-1730-4a4c-b7ca-6d520982e325","system_id":"levelo_inurba_marseille","lat":43.2408,"lon":5.37726,"is_reserved":false,"is_disabled":false,"rental_uris":{"android":"levelo://app?vid=ab79c7bb-1730-4a4c-b7ca-6d520982e325","ios":"levelo://app?vid=ab79c7bb-1730-4a4c-b7ca-6d520982e325"},"vehicle_type_id":"4","last_reported":1743128449,"current_range_meters":14000,"station_id":"ce4bhnp2rcd13ifvqgvg","pricing_plan_id":"cebpf4jnsgd1na2vs0mg"},{"bike_id":"d7dfb900-e1fc-4b30-a420-5f0b81aeabc6","system_id":"levelo_inurba_marseille","lat":43.28458,"lon":5.35878,"is_reserved":false,"is_disabled":false,"rental_uris":{"android":"levelo://app?vid=d7dfb900-e1fc-4b30-a420-5f0b81aeabc6","ios":"levelo://app?vid=d7dfb900-e1fc-4b30-a420-5f0b81aeabc6"},"vehicle_type_id":"4","last_reported":1743128449,"current_range_meters":14000,"station_id":"ce4bhah2rcd13ifvqei0","pricing_plan_id":"cebpf4jnsgd1na2vs0mg"},{"bike_id":"6082a6d8-29f3-4441-bd82-d0f95ead75d7","system_id":"levelo_inurba_marseille","lat":43.23189,"lon":5.35563,"is_reserved":false,"is_disabled":false,"rental_uris":{"android":"levelo://app?vid=6082a6d8-29f3-4441-bd82-d0f95ead75d7","ios":"levelo://app?vid=6082a6d8-29f3-4441-bd82-d0f95ead75d7"},"vehicle_type_id":"4","last_reported":1743128449,"current_range_meters":14000,"station_id":"ce4bhu92rcd13ifvqi70","pricing_plan_id":"cebpf4jnsgd1na2vs0mg"},{"bike_id":"5d39d3fc-59cf-4938-b87b-b1a101e5f6b0","system_id":"levelo_inurba_marseille","lat":43.31169,"lon":5.38679,"is_reserved":false,"is_disabled":false,"rental_uris":{"android":"levelo://app?vid=5d39d3fc-59cf-4938-b87b-b1a101e5f6b0","ios":"levelo://app?vid=5d39d3fc-59cf-4938-b87b-b1a101e5f6b0"},"vehicle_type_id":"4","last_reported":1743128449,"current_range_meters":14000,"station_id":"ce4bgv12rcd13ifvqcp0","pricing_plan_id":"cebpf4jnsgd1na2vs0mg"},{"bike_id":"8170275f-440c-41fd-a526-a4772bf7b5b2","system_id":"levelo_inurba_marseille","lat":43.2841,"lon":5.37509,"is_reserved":false,"is_disabled":false,"rental_uris":{"android":"levelo://app?vid=8170275f-440c-41fd-a526-a4772bf7b5b2","ios":"levelo://app?vid=8170275f-440c-41fd-a526-a4772bf7b5b2"},"vehicle_type_id":"4","last_reported":1743128449,"current_range_meters":14000,"station_id":"ce4bh412rcd13ifvqds0","pricing_plan_id":"cebpf4jnsgd1na2vs0mg"},{"bike_id":"929922ae-6aab-4bc3-af6d-7b28fbdb57ee","system_id":"levelo_inurba_marseille","lat":43.28454,"lon":5.35884,"is_reserved":false,"is_disabled":false,"rental_uris":{"android":"levelo://app?vid=929922ae-6aab-4bc3-af6d-7b28fbdb57ee","ios":"levelo://app?vid=929922ae-6aab-4bc3-af6d-7b28fbdb57ee"},"vehicle_type_id":"4","last_reported":1743128449,"current_range_meters":14000,"station_id":"ce4bhah2rcd13ifvqei0","pricing_plan_id":"cebpf4jnsgd1na2vs0mg"},{"bike_id":"65c86302-8ef0-46f4-ab6e-bac7149a2865","system_id":"levelo_inurba_marseille","lat":43.321086,"lon":5.36772,"is_reserved":false,"is_disabled":false,"rental_uris":{"android":"levelo://app?vid=65c86302-8ef0-46f4-ab6e-bac7149a2865","ios":"levelo://app?vid=65c86302-8ef0-46f4-ab6e-bac7149a2865"},"vehicle_type_id":"4","last_reported":1743128449,"current_range_meters":14000,"station_id":"ce4bhrh2rcd13ifvqhug","pricing_plan_id":"cebpf4jnsgd1na2vs0mg"},{"bike_id":"58643b71-d571-418b-bdee-cb649d06c3ca","system_id":"levelo_inurba_marseille","lat":43.29026,"lon":5.39983,"is_reserved":false,"is_disabled":false,"rental_uris":{"android":"levelo://app?vid=58643b71-d571-418b-bdee-cb649d06c3ca","ios":"levelo://app?vid=58643b71-d571-418b-bdee-cb649d06c3ca"},"vehicle_type_id":"4","last_reported":1743128449,"current_range_meters":14000,"station_id":"ce4bh392rcd13ifvqdm0","pricing_plan_id":"cebpf4jnsgd1na2vs0mg"},{"bike_id":"b1c6b5eb-b3e3-44e4-ab47-ce04ca5e2364","system_id":"levelo_inurba_marseille","lat":43.24179,"lon":5.39708,"is_reserved":false,"is_disabled":true,"rental_uris":{"android":"levelo://app?vid=b1c6b5eb-b3e3-44e4-ab47-ce04ca5e2364","ios":"levelo://app?vid=b1c6b5eb-b3e3-44e4-ab47-ce04ca5e2364"},"vehicle_type_id":"4","last_reported":1743128449,"current_range_meters":14400,"station_id":"ce4bhn12rcd13ifvqgpg","pricing_plan_id":"cebpf4jnsgd1na2vs0mg"},{"bike_id":"c6f209dd-967d-4602-baf0-976ad69db6db","system_id":"levelo_inurba_marseille","lat":43.29785,"lon":5.39337,"is_reserved":false,"is_disabled":false,"rental_uris":{"android":"levelo://app?vid=c6f209dd-967d-4602-baf0-976ad69db6db","ios":"levelo://app?vid=c6f209dd-967d-4602-baf0-976ad69db6db"},"vehicle_type_id":"4","last_reported":1743128449,"current_range_meters":14400,"station_id":"chh1huq6cuj3fo74tm60","pricing_plan_id":"cebpf4jnsgd1na2vs0mg"},{"bike_id":"fb348b09-6abb-47a4-a266-91f2eeaee291","system_id":"levelo_inurba_marseille","lat":43.32107,"lon":5.36773,"is_reserved":false,"is_disabled":false,"rental_uris":{"android":"levelo://app?vid=fb348b09-6abb-47a4-a266-91f2eeaee291","ios":"levelo://app?vid=fb348b09-6abb-47a4-a266-91f2eeaee291"},"vehicle_type_id":"4","last_reported":1743128449,"current_range_meters":14400,"station_id":"ce4bhrh2rcd13ifvqhug","pricing_plan_id":"cebpf4jnsgd1na2vs0mg"},{"bike_id":"da72873e-97f6-4c40-b521-506e54769144","system_id":"levelo_inurba_marseille","lat":43.27826,"lon":5.4072,"is_reserved":false,"is_disabled":false,"rental_uris":{"android":"levelo://app?vid=da72873e-97f6-4c40-b521-506e54769144","ios":"levelo://app?vid=da72873e-97f6-4c40-b521-506e54769144"},"vehicle_type_id":"4","last_reported":1743128449,"current_range_meters":14400,"station_id":"ce4bhnh2rcd13ifvqgtg","pricing_plan_id":"cebpf4jnsgd1na2vs0mg"},{"bike_id":"aed2caaf-e63e-4d9f-9fab-effd4b56045d","system_id":"levelo_inurba_marseille","lat":43.26215,"lon":5.40463,"is_reserved":false,"is_disabled":false,"rental_uris":{"android":"levelo://app?vid=aed2caaf-e63e-4d9f-9fab-effd4b56045d","ios":"levelo://app?vid=aed2caaf-e63e-4d9f-9fab-effd4b56045d"},"vehicle_type_id":"4","last_reported":1743128449,"current_range_meters":14400,"station_id":"ce4bhmh2rcd13ifvqgmg","pricing_plan_id":"cebpf4jnsgd1na2vs0mg"},{"bike_id":"9462a91b-8b4b-430a-ac7a-4612f1bebb31","system_id":"levelo_inurba_marseille","lat":43.291,"lon":5.38146,"is_reserved":false,"is_disabled":true,"rental_uris":{"android":"levelo://app?vid=9462a91b-8b4b-430a-ac7a-4612f1bebb31","ios":"levelo://app?vid=9462a91b-8b4b-430a-ac7a-4612f1bebb31"},"vehicle_type_id":"4","last_reported":1743128449,"current_range_meters":14400,"station_id":"ce4bh512rcd13ifvqe2g","pricing_plan_id":"cebpf4jnsgd1na2vs0mg"},{"bike_id":"11cb49bf-37c4-40a2-8859-7646c0dddb51","system_id":"levelo_inurba_marseille","lat":43.278128,"lon":5.407136,"is_reserved":false,"is_disabled":false,"rental_uris":{"android":"levelo://app?vid=11cb49bf-37c4-40a2-8859-7646c0dddb51","ios":"levelo://app?vid=11cb49bf-37c4-40a2-8859-7646c0dddb51"},"vehicle_type_id":"4","last_reported":1743128449,"current_range_meters":14400,"station_id":"ce4bhnh2rcd13ifvqgtg","pricing_plan_id":"cebpf4jnsgd1na2vs0mg"},{"bike_id":"2f59b69a-8d79-4aff-a569-a4f4f097dd47","system_id":"levelo_inurba_marseille","lat":43.26568,"lon":5.39004,"is_reserved":false,"is_disabled":false,"rental_uris":{"android":"levelo://app?vid=2f59b69a-8d79-4aff-a569-a4f4f097dd47","ios":"levelo://app?vid=2f59b69a-8d79-4aff-a569-a4f4f097dd47"},"vehicle_type_id":"4","last_reported":1743128449,"current_range_meters":14800,"station_id":"ce4bhe12rcd13ifvqf30","pricing_plan_id":"cebpf4jnsgd1na2vs0mg"},{"bike_id":"ca7e0dc1-95b1-41ee-bfb6-6f7d653c8926","system_id":"levelo_inurba_marseille","lat":43.30368,"lon":5.37516,"is_reserved":false,"is_disabled":false,"rental_uris":{"android":"levelo://app?vid=ca7e0dc1-95b1-41ee-bfb6-6f7d653c8926","ios":"levelo://app?vid=ca7e0dc1-95b1-41ee-bfb6-6f7d653c8926"},"vehicle_type_id":"4","last_reported":1743128449,"current_range_meters":14800,"station_id":"","pricing_plan_id":"cebpf4jnsgd1na2vs0mg"},{"bike_id":"52d3653b-04a8-4ed6-bc62-5cef2a068b3e","system_id":"levelo_inurba_marseille","lat":43.29024,"lon":5.39985,"is_reserved":false,"is_disabled":false,"rental_uris":{"android":"levelo://app?vid=52d3653b-04a8-4ed6-bc62-5cef2a068b3e","ios":"levelo://app?vid=52d3653b-04a8-4ed6-bc62-5cef2a068b3e"},"vehicle_type_id":"4","last_reported":1743128449,"current_range_meters":14800,"station_id":"ce4bh392rcd13ifvqdm0","pricing_plan_id":"cebpf4jnsgd1na2vs0mg"},{"bike_id":"c41db25c-a59a-40c1-a49c-f477cbeba5a7","system_id":"levelo_inurba_marseille","lat":43.2808,"lon":5.39662,"is_reserved":false,"is_disabled":false,"rental_uris":{"android":"levelo://app?vid=c41db25c-a59a-40c1-a49c-f477cbeba5a7","ios":"levelo://app?vid=c41db25c-a59a-40c1-a49c-f477cbeba5a7"},"vehicle_type_id":"4","last_reported":1743128449,"current_range_meters":14800,"station_id":"ce4bho12rcd13ifvqh2g","pricing_plan_id":"cebpf4jnsgd1na2vs0mg"},{"bike_id":"7f9d4433-4e2b-4ff0-b944-2dadd6027623","system_id":"levelo_inurba_marseille","lat":43.321049,"lon":5.367749,"is_reserved":false,"is_disabled":false,"rental_uris":{"android":"levelo://app?vid=7f9d4433-4e2b-4ff0-b944-2dadd6027623","ios":"levelo://app?vid=7f9d4433-4e2b-4ff0-b944-2dadd6027623"},"vehicle_type_id":"4","last_reported":1743128449,"current_range_meters":14800,"station_id":"ce4bhrh2rcd13ifvqhug","pricing_plan_id":"cebpf4jnsgd1na2vs0mg"},{"bike_id":"c6c8fb31-86de-4758-859b-e74b70125ab7","system_id":"levelo_inurba_marseille","lat":43.3211,"lon":5.36788,"is_reserved":false,"is_disabled":false,"rental_uris":{"android":"levelo://app?vid=c6c8fb31-86de-4758-859b-e74b70125ab7","ios":"levelo://app?vid=c6c8fb31-86de-4758-859b-e74b70125ab7"},"vehicle_type_id":"4","last_reported":1743128449,"current_range_meters":14800,"station_id":"ce4bhrh2rcd13ifvqhug","pricing_plan_id":"cebpf4jnsgd1na2vs0mg"},{"bike_id":"62a65bab-dee1-4ec8-be58-569b3ad661eb","system_id":"levelo_inurba_marseille","lat":43.2902,"lon":5.38644,"is_reserved":false,"is_disabled":false,"rental_uris":{"android":"levelo://app?vid=62a65bab-dee1-4ec8-be58-569b3ad661eb","ios":"levelo://app?vid=62a65bab-dee1-4ec8-be58-569b3ad661eb"},"vehicle_type_id":"4","last_reported":1743128449,"current_range_meters":14800,"station_id":"ce4bh4p2rcd13ifvqe0g","pricing_plan_id":"cebpf4jnsgd1na2vs0mg"},{"bike_id":"3a0adc3f-14d3-4b98-b1d3-b422e23c387a","system_id":"levelo_inurba_marseille","lat":43.30797,"lon":5.43518,"is_reserved":false,"is_disabled":false,"rental_uris":{"android":"levelo://app?vid=3a0adc3f-14d3-4b98-b1d3-b422e23c387a","ios":"levelo://app?vid=3a0adc3f-14d3-4b98-b1d3-b422e23c387a"},"vehicle_type_id":"4","last_reported":1743128449,"current_range_meters":15200,"station_id":"ce4bhph2rcd13ifvqheg","pricing_plan_id":"cebpf4jnsgd1na2vs0mg"},{"bike_id":"533fc0f8-9ab2-49c1-9c64-12c6aaef63a8","system_id":"levelo_inurba_marseille","lat":43.30202,"lon":5.39471,"is_reserved":false,"is_disabled":false,"rental_uris":{"android":"levelo://app?vid=533fc0f8-9ab2-49c1-9c64-12c6aaef63a8","ios":"levelo://app?vid=533fc0f8-9ab2-49c1-9c64-12c6aaef63a8"},"vehicle_type_id":"4","last_reported":1743128449,"current_range_meters":15200,"station_id":"ce4bh0p2rcd13ifvqd70","pricing_plan_id":"cebpf4jnsgd1na2vs0mg"},{"bike_id":"4fa73ed0-42fd-47ee-b5d8-d68fd4392e6c","system_id":"levelo_inurba_marseille","lat":43.26194,"lon":5.42069,"is_reserved":false,"is_disabled":false,"rental_uris":{"android":"levelo://app?vid=4fa73ed0-42fd-47ee-b5d8-d68fd4392e6c","ios":"levelo://app?vid=4fa73ed0-42fd-47ee-b5d8-d68fd4392e6c"},"vehicle_type_id":"4","last_reported":1743128449,"current_range_meters":15200,"station_id":"","pricing_plan_id":"cebpf4jnsgd1na2vs0mg"},{"bike_id":"22dfe4d3-9632-4fa5-b85e-eb8bf7a33a75","system_id":"levelo_inurba_marseille","lat":43.28704,"lon":5.37936,"is_reserved":false,"is_disabled":false,"rental_uris":{"android":"levelo://app?vid=22dfe4d3-9632-4fa5-b85e-eb8bf7a33a75","ios":"levelo://app?vid=22dfe4d3-9632-4fa5-b85e-eb8bf7a33a75"},"vehicle_type_id":"4","last_reported":1743128449,"current_range_meters":15200,"station_id":"ce4bh9p2rcd13ifvqec0","pricing_plan_id":"cebpf4jnsgd1na2vs0mg"},{"bike_id":"93ce7381-ad02-44d3-9870-8973b4f82d45","system_id":"levelo_inurba_marseille","lat":43.27973,"lon":5.387,"is_reserved":false,"is_disabled":false,"rental_uris":{"android":"levelo://app?vid=93ce7381-ad02-44d3-9870-8973b4f82d45","ios":"levelo://app?vid=93ce7381-ad02-44d3-9870-8973b4f82d45"},"vehicle_type_id":"4","last_reported":1743128449,"current_range_meters":15200,"station_id":"","pricing_plan_id":"cebpf4jnsgd1na2vs0mg"},{"bike_id":"1b733ee8-1894-4dc9-ba19-4de13a195823","system_id":"levelo_inurba_marseille","lat":43.24631,"lon":5.38921,"is_reserved":false,"is_disabled":false,"rental_uris":{"android":"levelo://app?vid=1b733ee8-1894-4dc9-ba19-4de13a195823","ios":"levelo://app?vid=1b733ee8-1894-4dc9-ba19-4de13a195823"},"vehicle_type_id":"4","last_reported":1743128449,"current_range_meters":15200,"station_id":"ce4bhg12rcd13ifvqf60","pricing_plan_id":"cebpf4jnsgd1na2vs0mg"},{"bike_id":"3dc4f6d9-7eab-4008-be97-1f5eaa8a8e7e","system_id":"levelo_inurba_marseille","lat":43.28461,"lon":5.35877,"is_reserved":false,"is_disabled":false,"rental_uris":{"android":"levelo://app?vid=3dc4f6d9-7eab-4008-be97-1f5eaa8a8e7e","ios":"levelo://app?vid=3dc4f6d9-7eab-4008-be97-1f5eaa8a8e7e"},"vehicle_type_id":"4","last_reported":1743128449,"current_range_meters":15200,"station_id":"ce4bhah2rcd13ifvqei0","pricing_plan_id":"cebpf4jnsgd1na2vs0mg"},{"bike_id":"0ba287f6-e97b-4d23-8414-6d14b26e6d32","system_id":"levelo_inurba_marseille","lat":43.32368,"lon":5.36761,"is_reserved":false,"is_disabled":false,"rental_uris":{"android":"levelo://app?vid=0ba287f6-e97b-4d23-8414-6d14b26e6d32","ios":"levelo://app?vid=0ba287f6-e97b-4d23-8414-6d14b26e6d32"},"vehicle_type_id":"4","last_reported":1743128449,"current_range_meters":15200,"station_id":"ce4bhsh2rcd13ifvqi2g","pricing_plan_id":"cebpf4jnsgd1na2vs0mg"},{"bike_id":"a84b3a51-eb20-4937-b0a4-5b7394b04845","system_id":"levelo_inurba_marseille","lat":43.29805,"lon":5.40417,"is_reserved":false,"is_disabled":false,"rental_uris":{"android":"levelo://app?vid=a84b3a51-eb20-4937-b0a4-5b7394b04845","ios":"levelo://app?vid=a84b3a51-eb20-4937-b0a4-5b7394b04845"},"vehicle_type_id":"4","last_reported":1743128449,"current_range_meters":16000,"station_id":"ce4bh112rcd13ifvqd90","pricing_plan_id":"cebpf4jnsgd1na2vs0mg"},{"bike_id":"c14b619a-d8da-4bbf-846f-02b7c7eb6274","system_id":"levelo_inurba_marseille","lat":43.32113,"lon":5.3678,"is_reserved":false,"is_disabled":false,"rental_uris":{"android":"levelo://app?vid=c14b619a-d8da-4bbf-846f-02b7c7eb6274","ios":"levelo://app?vid=c14b619a-d8da-4bbf-846f-02b7c7eb6274"},"vehicle_type_id":"4","last_reported":1743128449,"current_range_meters":16000,"station_id":"ce4bhrh2rcd13ifvqhug","pricing_plan_id":"cebpf4jnsgd1na2vs0mg"},{"bike_id":"049b7bbb-7a3b-4e40-a718-7b80fbcdd5fc","system_id":"levelo_inurba_marseille","lat":43.28941,"lon":5.36412,"is_reserved":false,"is_disabled":false,"rental_uris":{"android":"levelo://app?vid=049b7bbb-7a3b-4e40-a718-7b80fbcdd5fc","ios":"levelo://app?vid=049b7bbb-7a3b-4e40-a718-7b80fbcdd5fc"},"vehicle_type_id":"4","last_reported":1743128449,"current_range_meters":16000,"station_id":"ce4bhc92rcd13ifvqetg","pricing_plan_id":"cebpf4jnsgd1na2vs0mg"},{"bike_id":"cc1dff8f-9801-41ad-94af-3016b7e1ec09","system_id":"levelo_inurba_marseille","lat":43.30523,"lon":5.38401,"is_reserved":false,"is_disabled":false,"rental_uris":{"android":"levelo://app?vid=cc1dff8f-9801-41ad-94af-3016b7e1ec09","ios":"levelo://app?vid=cc1dff8f-9801-41ad-94af-3016b7e1ec09"},"vehicle_type_id":"4","last_reported":1743128449,"current_range_meters":16000,"station_id":"ce4bgg92rcd13ifvqb30","pricing_plan_id":"cebpf4jnsgd1na2vs0mg"},{"bike_id":"7c5937cd-9b8a-4a66-b604-3a6cb98744b3","system_id":"levelo_inurba_marseille","lat":43.28156,"lon":5.42643,"is_reserved":false,"is_disabled":false,"rental_uris":{"android":"levelo://app?vid=7c5937cd-9b8a-4a66-b604-3a6cb98744b3","ios":"levelo://app?vid=7c5937cd-9b8a-4a66-b604-3a6cb98744b3"},"vehicle_type_id":"4","last_reported":1743128449,"current_range_meters":16000,"station_id":"ce4bhnh2rcd13ifvqgug","pricing_plan_id":"cebpf4jnsgd1na2vs0mg"},{"bike_id":"9492c0b3-582b-414f-8ce3-8444d654aada","system_id":"levelo_inurba_marseille","lat":43.26588,"lon":5.38999,"is_reserved":false,"is_disabled":false,"rental_uris":{"android":"levelo://app?vid=9492c0b3-582b-414f-8ce3-8444d654aada","ios":"levelo://app?vid=9492c0b3-582b-414f-8ce3-8444d654aada"},"vehicle_type_id":"4","last_reported":1743128449,"current_range_meters":16000,"station_id":"ce4bhe12rcd13ifvqf30","pricing_plan_id":"cebpf4jnsgd1na2vs0mg"},{"bike_id":"b67d25d2-bc54-4416-bef3-cd0fe519ec82","system_id":"levelo_inurba_marseille","lat":43.28674,"lon":5.36326,"is_reserved":false,"is_disabled":false,"rental_uris":{"android":"levelo://app?vid=b67d25d2-bc54-4416-bef3-cd0fe519ec82","ios":"levelo://app?vid=b67d25d2-bc54-4416-bef3-cd0fe519ec82"},"vehicle_type_id":"4","last_reported":1743128449,"current_range_meters":16000,"station_id":"ce4bhah2rcd13ifvqej0","pricing_plan_id":"cebpf4jnsgd1na2vs0mg"},{"bike_id":"c7b1e734-8645-46e3-a8aa-254b2cea6dc5","system_id":"levelo_inurba_marseille","lat":43.30238,"lon":5.40039,"is_reserved":false,"is_disabled":false,"rental_uris":{"android":"levelo://app?vid=c7b1e734-8645-46e3-a8aa-254b2cea6dc5","ios":"levelo://app?vid=c7b1e734-8645-46e3-a8aa-254b2cea6dc5"},"vehicle_type_id":"4","last_reported":1743128449,"current_range_meters":16000,"station_id":"","pricing_plan_id":"cebpf4jnsgd1na2vs0mg"},{"bike_id":"2069114f-a483-4b58-b6e7-fe6695da5f18","system_id":"levelo_inurba_marseille","lat":43.28543,"lon":5.39986,"is_reserved":false,"is_disabled":false,"rental_uris":{"android":"levelo://app?vid=2069114f-a483-4b58-b6e7-fe6695da5f18","ios":"levelo://app?vid=2069114f-a483-4b58-b6e7-fe6695da5f18"},"vehicle_type_id":"4","last_reported":1743128449,"current_range_meters":16000,"station_id":"","pricing_plan_id":"cebpf4jnsgd1na2vs0mg"},{"bike_id":"fbf4b0ad-74a9-45ec-b0fd-6f3edbe73caf","system_id":"levelo_inurba_marseille","lat":43.28706,"lon":5.374,"is_reserved":false,"is_disabled":false,"rental_uris":{"android":"levelo://app?vid=fbf4b0ad-74a9-45ec-b0fd-6f3edbe73caf","ios":"levelo://app?vid=fbf4b0ad-74a9-45ec-b0fd-6f3edbe73caf"},"vehicle_type_id":"4","last_reported":1743128449,"current_range_meters":16000,"station_id":"ce4bh3p2rcd13ifvqdq0","pricing_plan_id":"cebpf4jnsgd1na2vs0mg"},{"bike_id":"938b6d80-c940-4a47-9dbc-f24cc0f9aea7","system_id":"levelo_inurba_marseille","lat":43.23965,"lon":5.36631,"is_reserved":false,"is_disabled":false,"rental_uris":{"android":"levelo://app?vid=938b6d80-c940-4a47-9dbc-f24cc0f9aea7","ios":"levelo://app?vid=938b6d80-c940-4a47-9dbc-f24cc0f9aea7"},"vehicle_type_id":"4","last_reported":1743128449,"current_range_meters":16000,"station_id":"ce4bhi12rcd13ifvqfp0","pricing_plan_id":"cebpf4jnsgd1na2vs0mg"},{"bike_id":"779fa261-e80b-46f4-9153-c79496d603e2","system_id":"levelo_inurba_marseille","lat":43.27075,"lon":5.42309,"is_reserved":false,"is_disabled":false,"rental_uris":{"android":"levelo://app?vid=779fa261-e80b-46f4-9153-c79496d603e2","ios":"levelo://app?vid=779fa261-e80b-46f4-9153-c79496d603e2"},"vehicle_type_id":"4","last_reported":1743128449,"current_range_meters":16000,"station_id":"ce4bhk92rcd13ifvqgb0","pricing_plan_id":"cebpf4jnsgd1na2vs0mg"},{"bike_id":"983c4c9f-ee1a-4d13-8ce7-bfd36c479f46","system_id":"levelo_inurba_marseille","lat":43.24165,"lon":5.36394,"is_reserved":false,"is_disabled":false,"rental_uris":{"android":"levelo://app?vid=983c4c9f-ee1a-4d13-8ce7-bfd36c479f46","ios":"levelo://app?vid=983c4c9f-ee1a-4d13-8ce7-bfd36c479f46"},"vehicle_type_id":"4","last_reported":1743128449,"current_range_meters":16400,"station_id":"cpo36qri1sfpv3e86is0","pricing_plan_id":"cebpf4jnsgd1na2vs0mg"},{"bike_id":"57c03374-e2e3-466b-a358-3b7ab41c163e","system_id":"levelo_inurba_marseille","lat":43.30415,"lon":5.41285,"is_reserved":false,"is_disabled":false,"rental_uris":{"android":"levelo://app?vid=57c03374-e2e3-466b-a358-3b7ab41c163e","ios":"levelo://app?vid=57c03374-e2e3-466b-a358-3b7ab41c163e"},"vehicle_type_id":"4","last_reported":1743128449,"current_range_meters":16400,"station_id":"ce4bhop2rcd13ifvqh8g","pricing_plan_id":"cebpf4jnsgd1na2vs0mg"},{"bike_id":"212c8e98-dbd0-430f-965c-a5211ae16902","system_id":"levelo_inurba_marseille","lat":43.250899,"lon":5.395143,"is_reserved":false,"is_disabled":false,"rental_uris":{"android":"levelo://app?vid=212c8e98-dbd0-430f-965c-a5211ae16902","ios":"levelo://app?vid=212c8e98-dbd0-430f-965c-a5211ae16902"},"vehicle_type_id":"4","last_reported":1743128449,"current_range_meters":16400,"station_id":"ce4bhm12rcd13ifvqgkg","pricing_plan_id":"cebpf4jnsgd1na2vs0mg"},{"bike_id":"a81ae25c-5bbc-499b-9e68-1b1ad7365b0f","system_id":"levelo_inurba_marseille","lat":43.25724,"lon":5.41096,"is_reserved":false,"is_disabled":false,"rental_uris":{"android":"levelo://app?vid=a81ae25c-5bbc-499b-9e68-1b1ad7365b0f","ios":"levelo://app?vid=a81ae25c-5bbc-499b-9e68-1b1ad7365b0f"},"vehicle_type_id":"4","last_reported":1743128449,"current_range_meters":16400,"station_id":"ce4bhkp2rcd13ifvqgd0","pricing_plan_id":"cebpf4jnsgd1na2vs0mg"},{"bike_id":"400afa6a-7d96-4c52-abe3-6f9f2d9c0f2b","system_id":"levelo_inurba_marseille","lat":43.28482,"lon":5.35862,"is_reserved":false,"is_disabled":false,"rental_uris":{"android":"levelo://app?vid=400afa6a-7d96-4c52-abe3-6f9f2d9c0f2b","ios":"levelo://app?vid=400afa6a-7d96-4c52-abe3-6f9f2d9c0f2b"},"vehicle_type_id":"4","last_reported":1743128449,"current_range_meters":16400,"station_id":"ce4bhah2rcd13ifvqei0","pricing_plan_id":"cebpf4jnsgd1na2vs0mg"},{"bike_id":"39e0c735-b50e-4953-acd7-8896ed9a5331","system_id":"levelo_inurba_marseille","lat":43.29281,"lon":5.40119,"is_reserved":false,"is_disabled":false,"rental_uris":{"android":"levelo://app?vid=39e0c735-b50e-4953-acd7-8896ed9a5331","ios":"levelo://app?vid=39e0c735-b50e-4953-acd7-8896ed9a5331"},"vehicle_type_id":"4","last_reported":1743128449,"current_range_meters":16400,"station_id":"ce4bh312rcd13ifvqdk0","pricing_plan_id":"cebpf4jnsgd1na2vs0mg"},{"bike_id":"279b8783-93c4-4dcd-a0fc-1fcf498bef1d","system_id":"levelo_inurba_marseille","lat":43.28463,"lon":5.35887,"is_reserved":false,"is_disabled":false,"rental_uris":{"android":"levelo://app?vid=279b8783-93c4-4dcd-a0fc-1fcf498bef1d","ios":"levelo://app?vid=279b8783-93c4-4dcd-a0fc-1fcf498bef1d"},"vehicle_type_id":"4","last_reported":1743128449,"current_range_meters":16400,"station_id":"ce4bhah2rcd13ifvqei0","pricing_plan_id":"cebpf4jnsgd1na2vs0mg"},{"bike_id":"68b97121-2d41-494f-a12c-e34770fcd1f1","system_id":"levelo_inurba_marseille","lat":43.23183,"lon":5.39968,"is_reserved":false,"is_disabled":false,"rental_uris":{"android":"levelo://app?vid=68b97121-2d41-494f-a12c-e34770fcd1f1","ios":"levelo://app?vid=68b97121-2d41-494f-a12c-e34770fcd1f1"},"vehicle_type_id":"4","last_reported":1743128449,"current_range_meters":16400,"station_id":"ce4bhn12rcd13ifvqgqg","pricing_plan_id":"cebpf4jnsgd1na2vs0mg"},{"bike_id":"e8be0c7f-0b06-4d18-a0a5-7b0d358f3498","system_id":"levelo_inurba_marseille","lat":43.29019,"lon":5.38641,"is_reserved":false,"is_disabled":true,"rental_uris":{"android":"levelo://app?vid=e8be0c7f-0b06-4d18-a0a5-7b0d358f3498","ios":"levelo://app?vid=e8be0c7f-0b06-4d18-a0a5-7b0d358f3498"},"vehicle_type_id":"4","last_reported":1743128449,"current_range_meters":16400,"station_id":"ce4bh4p2rcd13ifvqe0g","pricing_plan_id":"cebpf4jnsgd1na2vs0mg"},{"bike_id":"a5d79401-d37b-4866-afa7-15b041f466cb","system_id":"levelo_inurba_marseille","lat":43.25575,"lon":5.38216,"is_reserved":false,"is_disabled":false,"rental_uris":{"android":"levelo://app?vid=a5d79401-d37b-4866-afa7-15b041f466cb","ios":"levelo://app?vid=a5d79401-d37b-4866-afa7-15b041f466cb"},"vehicle_type_id":"4","last_reported":1743128449,"current_range_meters":16400,"station_id":"ce4bhih2rcd13ifvqfs0","pricing_plan_id":"cebpf4jnsgd1na2vs0mg"},{"bike_id":"a656bb2f-0e29-48ef-b7bd-90efaa415020","system_id":"levelo_inurba_marseille","lat":43.28727,"lon":5.36059,"is_reserved":false,"is_disabled":false,"rental_uris":{"android":"levelo://app?vid=a656bb2f-0e29-48ef-b7bd-90efaa415020","ios":"levelo://app?vid=a656bb2f-0e29-48ef-b7bd-90efaa415020"},"vehicle_type_id":"4","last_reported":1743128449,"current_range_meters":16800,"station_id":"cki0cbj6b192h4jlfktg","pricing_plan_id":"cebpf4jnsgd1na2vs0mg"},{"bike_id":"501fb644-bbff-457c-915c-b5eb64a37c74","system_id":"levelo_inurba_marseille","lat":43.29541,"lon":5.38531,"is_reserved":false,"is_disabled":true,"rental_uris":{"android":"levelo://app?vid=501fb644-bbff-457c-915c-b5eb64a37c74","ios":"levelo://app?vid=501fb644-bbff-457c-915c-b5eb64a37c74"},"vehicle_type_id":"4","last_reported":1743128449,"current_range_meters":16800,"station_id":"ce4bgih2rcd13ifvqba0","pricing_plan_id":"cebpf4jnsgd1na2vs0mg"},{"bike_id":"bc05f46e-3b1b-4f63-9088-0043cf8cc2b8","system_id":"levelo_inurba_marseille","lat":43.28104,"lon":5.37837,"is_reserved":false,"is_disabled":false,"rental_uris":{"android":"levelo://app?vid=bc05f46e-3b1b-4f63-9088-0043cf8cc2b8","ios":"levelo://app?vid=bc05f46e-3b1b-4f63-9088-0043cf8cc2b8"},"vehicle_type_id":"4","last_reported":1743128449,"current_range_meters":16800,"station_id":"ce4bha12rcd13ifvqee0","pricing_plan_id":"cebpf4jnsgd1na2vs0mg"},{"bike_id":"091ab900-0ca6-4e1d-b46b-ed2e59d60ea1","system_id":"levelo_inurba_marseille","lat":43.30886,"lon":5.39629,"is_reserved":false,"is_disabled":false,"rental_uris":{"android":"levelo://app?vid=091ab900-0ca6-4e1d-b46b-ed2e59d60ea1","ios":"levelo://app?vid=091ab900-0ca6-4e1d-b46b-ed2e59d60ea1"},"vehicle_type_id":"4","last_reported":1743128449,"current_range_meters":16800,"station_id":"ce4bh012rcd13ifvqcv0","pricing_plan_id":"cebpf4jnsgd1na2vs0mg"},{"bike_id":"8c531e37-3d59-4d79-8b8b-7c00aba59100","system_id":"levelo_inurba_marseille","lat":43.30298,"lon":5.39205,"is_reserved":false,"is_disabled":false,"rental_uris":{"android":"levelo://app?vid=8c531e37-3d59-4d79-8b8b-7c00aba59100","ios":"levelo://app?vid=8c531e37-3d59-4d79-8b8b-7c00aba59100"},"vehicle_type_id":"4","last_reported":1743128449,"current_range_meters":16800,"station_id":"ce4bgkh2rcd13ifvqbk0","pricing_plan_id":"cebpf4jnsgd1na2vs0mg"},{"bike_id":"9a3370e1-65df-4273-82f7-33f8903ab482","system_id":"levelo_inurba_marseille","lat":43.311718,"lon":5.387152,"is_reserved":false,"is_disabled":false,"rental_uris":{"android":"levelo://app?vid=9a3370e1-65df-4273-82f7-33f8903ab482","ios":"levelo://app?vid=9a3370e1-65df-4273-82f7-33f8903ab482"},"vehicle_type_id":"4","last_reported":1743128449,"current_range_meters":16800,"station_id":"ce4bgv12rcd13ifvqcp0","pricing_plan_id":"cebpf4jnsgd1na2vs0mg"},{"bike_id":"fcdf51d5-5003-402a-a3fa-5a56da5837da","system_id":"levelo_inurba_marseille","lat":43.27948,"lon":5.41039,"is_reserved":false,"is_disabled":true,"rental_uris":{"android":"levelo://app?vid=fcdf51d5-5003-402a-a3fa-5a56da5837da","ios":"levelo://app?vid=fcdf51d5-5003-402a-a3fa-5a56da5837da"},"vehicle_type_id":"4","last_reported":1743128449,"current_range_meters":16800,"station_id":"ce4bhnp2rcd13ifvqh0g","pricing_plan_id":"cebpf4jnsgd1na2vs0mg"},{"bike_id":"9f2583cf-461d-4d57-8c37-99ef1e89cade","system_id":"levelo_inurba_marseille","lat":43.232002,"lon":5.355512,"is_reserved":false,"is_disabled":false,"rental_uris":{"android":"levelo://app?vid=9f2583cf-461d-4d57-8c37-99ef1e89cade","ios":"levelo://app?vid=9f2583cf-461d-4d57-8c37-99ef1e89cade"},"vehicle_type_id":"4","last_reported":1743128449,"current_range_meters":16800,"station_id":"ce4bhu92rcd13ifvqi70","pricing_plan_id":"cebpf4jnsgd1na2vs0mg"},{"bike_id":"d8e71509-21f5-4412-ba30-dad894aff0b6","system_id":"levelo_inurba_marseille","lat":43.32287,"lon":5.38263,"is_reserved":false,"is_disabled":false,"rental_uris":{"android":"levelo://app?vid=d8e71509-21f5-4412-ba30-dad894aff0b6","ios":"levelo://app?vid=d8e71509-21f5-4412-ba30-dad894aff0b6"},"vehicle_type_id":"4","last_reported":1743128449,"current_range_meters":16800,"station_id":"ce4bhr12rcd13ifvqhqg","pricing_plan_id":"cebpf4jnsgd1na2vs0mg"},{"bike_id":"261d4ffc-0dae-4abc-8ed7-8c4a439b4b9a","system_id":"levelo_inurba_marseille","lat":43.27946,"lon":5.41039,"is_reserved":false,"is_disabled":false,"rental_uris":{"android":"levelo://app?vid=261d4ffc-0dae-4abc-8ed7-8c4a439b4b9a","ios":"levelo://app?vid=261d4ffc-0dae-4abc-8ed7-8c4a439b4b9a"},"vehicle_type_id":"4","last_reported":1743128449,"current_range_meters":17200,"station_id":"ce4bhnp2rcd13ifvqh0g","pricing_plan_id":"cebpf4jnsgd1na2vs0mg"},{"bike_id":"b6edc753-ccc4-49a4-9d27-48ea36860170","system_id":"levelo_inurba_marseille","lat":43.28429,"lon":5.37499,"is_reserved":false,"is_disabled":false,"rental_uris":{"android":"levelo://app?vid=b6edc753-ccc4-49a4-9d27-48ea36860170","ios":"levelo://app?vid=b6edc753-ccc4-49a4-9d27-48ea36860170"},"vehicle_type_id":"4","last_reported":1743128449,"current_range_meters":17200,"station_id":"ce4bh412rcd13ifvqds0","pricing_plan_id":"cebpf4jnsgd1na2vs0mg"},