{"last_updated":1729354225,"ttl":60,"version":"2.2","data":{"bikes":[{"bike_id":"df571d81-b0eb-4e78-b384-753eced4b1c8","system_id":"levelo_inurba_marseille","lat":43.30152,"lon":5.38091,"is_reserved":false,"is_disabled":false,"rental_uris":{"android":"levelo://app?vid=df571d81-b0eb-4e78-b384-753eced4b1c8","ios":"levelo://app?vid=df571d81-b0eb-4e78-b384-753eced4b1c8"},"vehicle_type_id":"4","last_reported":1729354225,"current_range_meters":38000,"station_id":"ce4bgjp2rcd13ifvqbh0","pricing_plan_id":"cebpf4jnsgd1na2vs0mg"},{"bike_id":"0707f5f0-f68d-459f-8e71-5cba2961efc7","system_id":"levelo_inurba_marseille","lat":43.30116,"lon":5.39885,"is_reserved":false,"is_disabled":false,"rental_uris":{"android":"levelo://app?vid=0707f5f0-f68d-459f-8e71-5cba2961efc7","ios":"levelo://app?vid=0707f5f0-f68d-459f-8e71-5cba2961efc7"},"vehicle_type_id":"4","last_reported":1729354225,"current_range_meters":22400,"station_id":"ce4bh0h2rcd13ifvqd40","pricing_plan_id":"cebpf4jnsgd1na2vs0mg"},{"bike_id":"a468dcd8-5992-472e-826c-1808f19c61bf","system_id":"levelo_inurba_marseille","lat":43.28854,"lon":5.35848,"is_reserved":false,"is_disabled":false,"rental_uris":{"android":"levelo://app?vid=a468dcd8-5992-472e-826c-1808f19c61bf","ios":"levelo://app?vid=a468dcd8-5992-472e-826c-1808f19c61bf"},"vehicle_type_id":"4","last_reported":1729354225,"current_range_meters":3200,"station_id":"ce4bhb12rcd13ifvqem0","pricing_plan_id":"cebpf4jnsgd1na2vs0mg"},{"bike_id":"803b3a99-4fe8-49f7-8811-c02aea6fd3f0","system_id":"levelo_inurba_marseille","lat":43.29631,"lon":5.40598,"is_reserved":false,"is_disabled":false,"rental_uris":{"android":"levelo://app?vid=803b3a99-4fe8-49f7-8811-c02aea6fd3f0","ios":"levelo://app?vid=803b3a99-4fe8-49f7-8811-c02aea6fd3f0"},"vehicle_type_id":"4","last_reported":1729354225,"current_range_meters":6400,"station_id":"ce4bh0h2rcd13ifvqd60","pricing_plan_id":"cebpf4jnsgd1na2vs0mg"},{"bike_id":"5f30f2c9-0bc0-4a63-b707-a7b149731991","system_id":"levelo_inurba_marseille","lat":43.30298,"lon":5.39223,"is_reserved":false,"is_disabled":false,"rental_uris":{"android":"levelo://app?vid=5f30f2c9-0bc0-4a63-b707-a7b149731991","ios":"levelo://app?vid=5f30f2c9-0bc0-4a63-b707-a7b149731991"},"vehicle_type_id":"4","last_reported":1729354225,"current_range_meters":25600,"station_id":"ce4bgkh2rcd13ifvqbk0","pricing_plan_id":"cebpf4jnsgd1na2vs0mg"},{"bike_id":"e0879c3f-10eb-4d3b-8053-605cb1c6310c","system_id":"levelo_inurba_marseille","lat":43.26068,"lon":5.39395,"is_reserved":false,"is_disabled":false,"rental_uris":{"android":"levelo://app?vid=e0879c3f-10eb-4d3b-8053-605cb1c6310c","ios":"levelo://app?vid=e0879c3f-10eb-4d3b-8053-605cb1c6310c"},"vehicle_type_id":"4","last_reported":1729354225,"current_range_meters":26000,"station_id":"ce4bhh92rcd13ifvqfj0","pricing_plan_id":"cebpf4jnsgd1na2vs0mg"},{"bike_id":"68e0f71b-94e5-4b1a-af3a-3a5d6dd6818e","system_id":"levelo_inurba_marseille","lat":43.30948,"lon":5.39026,"is_reserved":false,"is_disabled":false,"rental_uris":{"android":"levelo://app?vid=68e0f71b-94e5-4b1a-af3a-3a5d6dd6818e","ios":"levelo://app?vid=68e0f71b-94e5-4b1a-af3a-3a5d6dd6818e"},"vehicle_type_id":"4","last_reported":1729354225,"current_range_meters":3600,"station_id":"ce4bgup2rcd13ifvqco0","pricing_plan_id":"cebpf4jnsgd1na2vs0mg"},{"bike_id":"93335803-2860-4ec2-a6c6-f709f055ba83","system_id":"levelo_inurba_marseille","lat":43.32491,"lon":5.3658,"is_reserved":false,"is_disabled":false,"rental_uris":{"android":"levelo://app?vid=93335803-2860-4ec2-a6c6-f709f055ba83","ios":"levelo://app?vid=93335803-2860-4ec2-a6c6-f709f055ba83"},"vehicle_type_id":"4","last_reported":1729354225,"current_range_meters":20400,"station_id":"ce4bhs12rcd13ifvqhvg","pricing_plan_id":"cebpf4jnsgd1na2vs0mg"},{"bike_id":"d102d6bf-c3a3-44d9-980d-bd12ea3ed52c","system_id":"levelo_inurba_marseille","lat":43.30144,"lon":5.38081,"is_reserved":false,"is_disabled":false,"rental_uris":{"android":"levelo://app?vid=d102d6bf-c3a3-44d9-980d-bd12ea3ed52c","ios":"levelo://app?vid=d102d6bf-c3a3-44d9-980d-bd12ea3ed52c"},"vehicle_type_id":"4","last_reported":1729354225,"current_range_meters":22800,"station_id":"ce4bgjp2rcd13ifvqbh0","pricing_plan_id":"cebpf4jnsgd1na2vs0mg"},{"bike_id":"c6c79552-aca8-47eb-9108-1a52318586f9","system_id":"levelo_inurba_marseille","lat":43.28412,"lon":5.34984,"is_reserved":false,"is_disabled":false,"rental_uris":{"android":"levelo://app?vid=c6c79552-aca8-47eb-9108-1a52318586f9","ios":"levelo://app?vid=c6c79552-aca8-47eb-9108-1a52318586f9"},"vehicle_type_id":"4","last_reported":1729354225,"current_range_meters":28400,"station_id":"ce4bhbh2rcd13ifvqepg","pricing_plan_id":"cebpf4jnsgd1na2vs0mg"},{"bike_id":"420cca5c-f7e3-44c4-a7ca-f8fb83b20b15","system_id":"levelo_inurba_marseille","lat":43.290161,"lon":5.381278,"is_reserved":false,"is_disabled":false,"rental_uris":{"android":"levelo://app?vid=420cca5c-f7e3-44c4-a7ca-f8fb83b20b15","ios":"levelo://app?vid=420cca5c-f7e3-44c4-a7ca-f8fb83b20b15"},"vehicle_type_id":"4","last_reported":1729354225,"current_range_meters":8000,"station_id":"ce4bh4p2rcd13ifvqe1g","pricing_plan_id":"cebpf4jnsgd1na2vs0mg"},{"bike_id":"2088df41-93f6-4db1-ada3-3d4a0cf76162","system_id":"levelo_inurba_marseille","lat":43.2893,"lon":5.36643,"is_reserved":false,"is_disabled":false,"rental_uris":{"android":"levelo://app?vid=2088df41-93f6-4db1-ada3-3d4a0cf76162","ios":"levelo://app?vid=2088df41-93f6-4db1-ada3-3d4a0cf76162"},"vehicle_type_id":"4","last_reported":1729354225,"current_range_meters":22400,"station_id":"ce4bhap2rcd13ifvqek0","pricing_plan_id":"cebpf4jnsgd1na2vs0mg"},{"bike_id":"6891761b-2808-46f1-8da8-e04dddee791a","system_id":"levelo_inurba_marseille","lat":43.28247,"lon":5.351,"is_reserved":false,"is_disabled":false,"rental_uris":{"android":"levelo://app?vid=6891761b-2808-46f1-8da8-e04dddee791a","ios":"levelo://app?vid=6891761b-2808-46f1-8da8-e04dddee791a"},"vehicle_type_id":"4","last_reported":1729354225,"current_range_meters":20800,"station_id":"ce4bhbp2rcd13ifvqerg","pricing_plan_id":"cebpf4jnsgd1na2vs0mg"},{"bike_id":"61a04cb9-be4f-4cf5-b789-0758f7c54444","system_id":"levelo_inurba_marseille","lat":43.23191,"lon":5.35559,"is_reserved":false,"is_disabled":false,"rental_uris":{"android":"levelo://app?vid=61a04cb9-be4f-4cf5-b789-0758f7c54444","ios":"levelo://app?vid=61a04cb9-be4f-4cf5-b789-0758f7c54444"},"vehicle_type_id":"4","last_reported":1729354225,"current_range_meters":18000,"station_id":"ce4bhu92rcd13ifvqi70","pricing_plan_id":"cebpf4jnsgd1na2vs0mg"},{"bike_id":"ad694542-9a36-4b9e-9fd8-527bc44386bc","system_id":"levelo_inurba_marseille","lat":43.307892,"lon":5.381441,"is_reserved":false,"is_disabled":false,"rental_uris":{"android":"levelo://app?vid=ad694542-9a36-4b9e-9fd8-527bc44386bc","ios":"levelo://app?vid=ad694542-9a36-4b9e-9fd8-527bc44386bc"},"vehicle_type_id":"4","last_reported":1729354225,"current_range_meters":19200,"station_id":"ce4bgt12rcd13ifvqce0","pricing_plan_id":"cebpf4jnsgd1na2vs0mg"},{"bike_id":"409264d0-1441-4f4a-8a2d-fcd2e2ae9281","system_id":"levelo_inurba_marseille","lat":43.28155,"lon":5.42645,"is_reserved":false,"is_disabled":false,"rental_uris":{"android":"levelo://app?vid=409264d0-1441-4f4a-8a2d-fcd2e2ae9281","ios":"levelo://app?vid=409264d0-1441-4f4a-8a2d-fcd2e2ae9281"},"vehicle_type_id":"4","last_reported":1729354225,"current_range_meters":37600,"station_id":"ce4bhnh2rcd13ifvqgug","pricing_plan_id":"cebpf4jnsgd1na2vs0mg"},{"bike_id":"542b7332-7a29-4bda-906b-3e0f117a711e","system_id":"levelo_inurba_marseille","lat":43.22929,"lon":5.35378,"is_reserved":false,"is_disabled":false,"rental_uris":{"android":"levelo://app?vid=542b7332-7a29-4bda-906b-3e0f117a711e","ios":"levelo://app?vid=542b7332-7a29-4bda-906b-3e0f117a711e"},"vehicle_type_id":"4","last_reported":1729354225,"current_range_meters":25200,"station_id":"cpo3532slgdg3j2ikp40","pricing_plan_id":"cebpf4jnsgd1na2vs0mg"},{"bike_id":"c746da30-0175-4c63-8cc4-f4d0284e8127","system_id":"levelo_inurba_marseille","lat":43.23971,"lon":5.36635,"is_reserved":false,"is_disabled":false,"rental_uris":{"android":"levelo://app?vid=c746da30-0175-4c63-8cc4-f4d0284e8127","ios":"levelo://app?vid=c746da30-0175-4c63-8cc4-f4d0284e8127"},"vehicle_type_id":"4","last_reported":1729354225,"current_range_meters":15200,"station_id":"ce4bhi12rcd13ifvqfp0","pricing_plan_id":"cebpf4jnsgd1na2vs0mg"},{"bike_id":"0d23aaf7-7627-4d8c-976d-91967311ea1a","system_id":"levelo_inurba_marseille","lat":43.26565,"lon":5.3901,"is_reserved":false,"is_disabled":false,"rental_uris":{"android":"levelo://app?vid=0d23aaf7-7627-4d8c-976d-91967311ea1a","ios":"levelo://app?vid=0d23aaf7-7627-4d8c-976d-91967311ea1a"},"vehicle_type_id":"4","last_reported":1729354225,"current_range_meters":28000,"station_id":"ce4bhe12rcd13ifvqf30","pricing_plan_id":"cebpf4jnsgd1na2vs0mg"},{"bike_id":"385f4e36-0212-4a4a-942c-4d7b7d29615d","system_id":"levelo_inurba_marseille","lat":43.26679,"lon":5.38272,"is_reserved":false,"is_disabled":false,"rental_uris":{"android":"levelo://app?vid=385f4e36-0212-4a4a-942c-4d7b7d29615d","ios":"levelo://app?vid=385f4e36-0212-4a4a-942c-4d7b7d29615d"},"vehicle_type_id":"4","last_reported":1729354225,"current_range_meters":16400,"station_id":"ce4bhg92rcd13ifvqf90","pricing_plan_id":"cebpf4jnsgd1na2vs0mg"},{"bike_id":"d0572c30-13bf-4746-a29b-111549056bfa","system_id":"levelo_inurba_marseille","lat":43.25939,"lon":5.40908,"is_reserved":false,"is_disabled":false,"rental_uris":{"android":"levelo://app?vid=d0572c30-13bf-4746-a29b-111549056bfa","ios":"levelo://app?vid=d0572c30-13bf-4746-a29b-111549056bfa"},"vehicle_type_id":"4","last_reported":1729354225,"current_range_meters":12000,"station_id":"ce4bhm92rcd13ifvqglg","pricing_plan_id":"cebpf4jnsgd1na2vs0mg"},{"bike_id":"fc6e513b-da81-4d34-a427-493e42edd768","system_id":"levelo_inurba_marseille","lat":43.29527,"lon":5.39241,"is_reserved":false,"is_disabled":false,"rental_uris":{"android":"levelo://app?vid=fc6e513b-da81-4d34-a427-493e42edd768","ios":"levelo://app?vid=fc6e513b-da81-4d34-a427-493e42edd768"},"vehicle_type_id":"4","last_reported":1729354225,"current_range_meters":20800,"station_id":"","pricing_plan_id":"cebpf4jnsgd1na2vs0mg"},{"bike_id":"ecb85f99-17b9-4bf1-829c-0f61a2cf1ee6","system_id":"levelo_inurba_marseille","lat":43.27975,"lon":5.4168,"is_reserved":false,"is_disabled":false,"rental_uris":{"android":"levelo://app?vid=ecb85f99-17b9-4bf1-829c-0f61a2cf1ee6","ios":"levelo://app?vid=ecb85f99-17b9-4bf1-829c-0f61a2cf1ee6"},"vehicle_type_id":"4","last_reported":1729354225,"current_range_meters":16000,"station_id":"ce4bho12rcd13ifvqh1g","pricing_plan_id":"cebpf4jnsgd1na2vs0mg"},{"bike_id":"7f26f699-f709-4cca-85c3-8a1c2af5646e","system_id":"levelo_inurba_marseille","lat":43.30145,"lon":5.38078,"is_reserved":false,"is_disabled":false,"rental_uris":{"android":"levelo://app?vid=7f26f699-f709-4cca-85c3-8a1c2af5646e","ios":"levelo://app?vid=7f26f699-f709-4cca-85c3-8a1c2af5646e"},"vehicle_type_id":"4","last_reported":1729354225,"current_range_meters":16400,"station_id":"ce4bgjp2rcd13ifvqbh0","pricing_plan_id":"cebpf4jnsgd1na2vs0mg"},{"bike_id":"f30e5bb2-e070-4b31-8b6f-805306d443a1","system_id":"levelo_inurba_marseille","lat":43.24074,"lon":5.3776,"is_reserved":false,"is_disabled":false,"rental_uris":{"android":"levelo://app?vid=f30e5bb2-e070-4b31-8b6f-805306d443a1","ios":"levelo://app?vid=f30e5bb2-e070-4b31-8b6f-805306d443a1"},"vehicle_type_id":"4","last_reported":1729354225,"current_range_meters":38800,"station_id":"ce4bhnp2rcd13ifvqgvg","pricing_plan_id":"cebpf4jnsgd1na2vs0mg"},{"bike_id":"57dd0012-e7c2-43e3-90a1-087125ac63fa","system_id":"levelo_inurba_marseille","lat":43.33753,"lon":5.37454,"is_reserved":false,"is_disabled":false,"rental_uris":{"android":"levelo://app?vid=57dd0012-e7c2-43e3-90a1-087125ac63fa","ios":"levelo://app?vid=57dd0012-e7c2-43e3-90a1-087125ac63fa"},"vehicle_type_id":"4","last_reported":1729354225,"current_range_meters":38800,"station_id":"","pricing_plan_id":"cebpf4jnsgd1na2vs0mg"},{"bike_id":"ff8326c0-87d7-481f-ba90-62fb7fe1bfa2","system_id":"levelo_inurba_marseille","lat":43.25004,"lon":5.38934,"is_reserved":false,"is_disabled":false,"rental_uris":{"android":"levelo://app?vid=ff8326c0-87d7-481f-ba90-62fb7fe1bfa2","ios":"levelo://app?vid=ff8326c0-87d7-481f-ba90-62fb7fe1bfa2"},"vehicle_type_id":"4","last_reported":1729354225,"current_range_meters":32800,"station_id":"ce4bhgp2rcd13ifvqfd0","pricing_plan_id":"cebpf4jnsgd1na2vs0mg"},{"bike_id":"a7551cd3-eeb0-4b46-9496-737020a18aeb","system_id":"levelo_inurba_marseille","lat":43.28266,"lon":5.35083,"is_reserved":false,"is_disabled":false,"rental_uris":{"android":"levelo://app?vid=a7551cd3-eeb0-4b46-9496-737020a18aeb","ios":"levelo://app?vid=a7551cd3-eeb0-4b46-9496-737020a18aeb"},"vehicle_type_id":"4","last_reported":1729354225,"current_range_meters":38000,"station_id":"ce4bhbp2rcd13ifvqerg","pricing_plan_id":"cebpf4jnsgd1na2vs0mg"},{"bike_id":"9755f4e0-8354-4cd2-a672-0e5c29ec1e3f","system_id":"levelo_inurba_marseille","lat":43.22935,"lon":5.35384,"is_reserved":false,"is_disabled":false,"rental_uris":{"android":"levelo://app?vid=9755f4e0-8354-4cd2-a672-0e5c29ec1e3f","ios":"levelo://app?vid=9755f4e0-8354-4cd2-a672-0e5c29ec1e3f"},"vehicle_type_id":"4","last_reported":1729354225,"current_range_meters":36800,"station_id":"cpo3532slgdg3j2ikp40","pricing_plan_id":"cebpf4jnsgd1na2vs0mg"},{"bike_id":"e9cac722-cb5a-4d38-9492-8cf828e387a3","system_id":"levelo_inurba_marseille","lat":43.23192,"lon":5.39996,"is_reserved":false,"is_disabled":false,"rental_uris":{"android":"levelo://app?vid=e9cac722-cb5a-4d38-9492-8cf828e387a3","ios":"levelo://app?vid=e9cac722-cb5a-4d38-9492-8cf828e387a3"},"vehicle_type_id":"4","last_reported":1729354225,"current_range_meters":2800,"station_id":"ce4bhn12rcd13ifvqgqg","pricing_plan_id":"cebpf4jnsgd1na2vs0mg"},{"bike_id":"99cd4968-b286-4d9c-a5a1-b5098a68dde0","system_id":"levelo_inurba_marseille","lat":43.29008,"lon":5.35625,"is_reserved":false,"is_disabled":false,"rental_uris":{"android":"levelo://app?vid=99cd4968-b286-4d9c-a5a1-b5098a68dde0","ios":"levelo://app?vid=99cd4968-b286-4d9c-a5a1-b5098a68dde0"},"vehicle_type_id":"4","last_reported":1729354225,"current_range_meters":1600,"station_id":"ce4bhb92rcd13ifvqen0","pricing_plan_id":"cebpf4jnsgd1na2vs0mg"},{"bike_id":"3d7546d0-4dba-4212-88c9-dfe9a2032237","system_id":"levelo_inurba_marseille","lat":43.24168,"lon":5.36393,"is_reserved":false,"is_disabled":false,"rental_uris":{"android":"levelo://app?vid=3d7546d0-4dba-4212-88c9-dfe9a2032237","ios":"levelo://app?vid=3d7546d0-4dba-4212-88c9-dfe9a2032237"},"vehicle_type_id":"4","last_reported":1729354225,"current_range_meters":32400,"station_id":"cpo36qri1sfpv3e86is0","pricing_plan_id":"cebpf4jnsgd1na2vs0mg"},{"bike_id":"32ce68a3-3fc7-4257-974f-ab657619c295","system_id":"levelo_inurba_marseille","lat":43.3375,"lon":5.37458,"is_reserved":false,"is_disabled":false,"rental_uris":{"android":"levelo://app?vid=32ce68a3-3fc7-4257-974f-ab657619c295","ios":"levelo://app?vid=32ce68a3-3fc7-4257-974f-ab657619c295"},"vehicle_type_id":"4","last_reported":1729354225,"current_range_meters":3200,"station_id":"","pricing_plan_id":"cebpf4jnsgd1na2vs0mg"},{"bike_id":"b0b64ee6-8ddc-4fec-b765-aac86d1344b7","system_id":"levelo_inurba_marseille","lat":43.28421,"lon":5.3498,"is_reserved":false,"is_disabled":false,"rental_uris":{"android":"levelo://app?vid=b0b64ee6-8ddc-4fec-b765-aac86d1344b7","ios":"levelo://app?vid=b0b64ee6-8ddc-4fec-b765-aac86d1344b7"},"vehicle_type_id":"4","last_reported":1729354225,"current_range_meters":2000,"station_id":"ce4bhbh2rcd13ifvqepg","pricing_plan_id":"cebpf4jnsgd1na2vs0mg"},{"bike_id":"57d712d1-479e-4be4-88f8-0f1651212744","system_id":"levelo_inurba_marseille","lat":43.24814,"lon":5.3746,"is_reserved":false,"is_disabled":false,"rental_uris":{"android":"levelo://app?vid=57d712d1-479e-4be4-88f8-0f1651212744","ios":"levelo://app?vid=57d712d1-479e-4be4-88f8-0f1651212744"},"vehicle_type_id":"4","last_reported":1729354225,"current_range_meters":9600,"station_id":"ce4bhgh2rcd13ifvqfb0","pricing_plan_id":"cebpf4jnsgd1na2vs0mg"},{"bike_id":"319e285c-82b5-439b-a7b4-0550bf15a6bf","system_id":"levelo_inurba_marseille","lat":43.24995,"lon":5.38937,"is_reserved":false,"is_disabled":false,"rental_uris":{"android":"levelo://app?vid=319e285c-82b5-439b-a7b4-0550bf15a6bf","ios":"levelo://app?vid=319e285c-82b5-439b-a7b4-0550bf15a6bf"},"vehicle_type_id":"4","last_reported":1729354225,"current_range_meters":26800,"station_id":"ce4bhgp2rcd13ifvqfd0","pricing_plan_id":"cebpf4jnsgd1na2vs0mg"},{"bike_id":"56314795-88f2-443d-93e4-521154b479d1","system_id":"levelo_inurba_marseille","lat":43.295105,"lon":5.385935,"is_reserved":false,"is_disabled":false,"rental_uris":{"android":"levelo://app?vid=56314795-88f2-443d-93e4-521154b479d1","ios":"levelo://app?vid=56314795-88f2-443d-93e4-521154b479d1"},"vehicle_type_id":"4","last_reported":1729354225,"current_range_meters":8800,"station_id":"ce4bgih2rcd13ifvqba0","pricing_plan_id":"cebpf4jnsgd1na2vs0mg"},{"bike_id":"750cea38-d673-4488-8c71-bef6e158e8cf","system_id":"levelo_inurba_marseille","lat":43.2835,"lon":5.38113,"is_reserved":false,"is_disabled":false,"rental_uris":{"android":"levelo://app?vid=750cea38-d673-4488-8c71-bef6e158e8cf","ios":"levelo://app?vid=750cea38-d673-4488-8c71-bef6e158e8cf"},"vehicle_type_id":"4","last_reported":1729354225,"current_range_meters":3200,"station_id":"ce4bh412rcd13ifvqdr0","pricing_plan_id":"cebpf4jnsgd1na2vs0mg"},{"bike_id":"6108753a-d407-4ecd-9d6d-fc34bd183135","system_id":"levelo_inurba_marseille","lat":43.33607,"lon":5.41039,"is_reserved":false,"is_disabled":false,"rental_uris":{"android":"levelo://app?vid=6108753a-d407-4ecd-9d6d-fc34bd183135","ios":"levelo://app?vid=6108753a-d407-4ecd-9d6d-fc34bd183135"},"vehicle_type_id":"4","last_reported":1729354225,"current_range_meters":16800,"station_id":"ce4bhqh2rcd13ifvqhmg","pricing_plan_id":"cebpf4jnsgd1na2vs0mg"},{"bike_id":"3de14d87-cf5b-4c57-be52-1dce2417597a","system_id":"levelo_inurba_marseille","lat":43.29882,"lon":5.38904,"is_reserved":false,"is_disabled":false,"rental_uris":{"android":"levelo://app?vid=3de14d87-cf5b-4c57-be52-1dce2417597a","ios":"levelo://app?vid=3de14d87-cf5b-4c57-be52-1dce2417597a"},"vehicle_type_id":"4","last_reported":1729354225,"current_range_meters":4000,"station_id":"ce4bh392rcd13ifvqdl0","pricing_plan_id":"cebpf4jnsgd1na2vs0mg"},{"bike_id":"5ad45944-f1a9-4659-baa9-60cfd8843656","system_id":"levelo_inurba_marseille","lat":43.2319,"lon":5.35556,"is_reserved":false,"is_disabled":false,"rental_uris":{"android":"levelo://app?vid=5ad45944-f1a9-4659-baa9-60cfd8843656","ios":"levelo://app?vid=5ad45944-f1a9-4659-baa9-60cfd8843656"},"vehicle_type_id":"4","last_reported":1729354225,"current_range_meters":6400,"station_id":"ce4bhu92rcd13ifvqi70","pricing_plan_id":"cebpf4jnsgd1na2vs0mg"},{"bike_id":"bc5c602d-04be-4835-8b59-db6148bc88d9","system_id":"levelo_inurba_marseille","lat":43.32485,"lon":5.36591,"is_reserved":false,"is_disabled":false,"rental_uris":{"android":"levelo://app?vid=bc5c602d-04be-4835-8b59-db6148bc88d9","ios":"levelo://app?vid=bc5c602d-04be-4835-8b59-db6148bc88d9"},"vehicle_type_id":"4","last_reported":1729354225,"current_range_meters":35600,"station_id":"ce4bhs12rcd13ifvqhvg","pricing_plan_id":"cebpf4jnsgd1na2vs0mg"},{"bike_id":"cfe78fd2-5ebc-40fb-858b-89aa9fc29771","system_id":"levelo_inurba_marseille","lat":43.2941,"lon":5.37808,"is_reserved":false,"is_disabled":false,"rental_uris":{"android":"levelo://app?vid=cfe78fd2-5ebc-40fb-858b-89aa9fc29771","ios":"levelo://app?vid=cfe78fd2-5ebc-40fb-858b-89aa9fc29771"},"vehicle_type_id":"4","last_reported":1729354225,"current_range_meters":19200,"station_id":"","pricing_plan_id":"cebpf4jnsgd1na2vs0mg"},{"bike_id":"fce56a43-24a2-46c2-b63b-01add27b8ab6","system_id":"levelo_inurba_marseille","lat":43.25645,"lon":5.38231,"is_reserved":false,"is_disabled":false,"rental_uris":{"android":"levelo://app?vid=fce56a43-24a2-46c2-b63b-01add27b8ab6","ios":"levelo://app?vid=fce56a43-24a2-46c2-b63b-01add27b8ab6"},"vehicle_type_id":"4","last_reported":1729354225,"current_range_meters":33600,"station_id":"","pricing_plan_id":"cebpf4jnsgd1na2vs0mg"},{"bike_id":"3b539b95-4118-4a64-9102-60cfaf6ad6d7","system_id":"levelo_inurba_marseille","lat":43.26191,"lon":5.37452,"is_reserved":false,"is_disabled":false,"rental_uris":{"android":"levelo://app?vid=3b539b95-4118-4a64-9102-60cfaf6ad6d7","ios":"levelo://app?vid=3b539b95-4118-4a64-9102-60cfaf6ad6d7"},"vehicle_type_id":"4","last_reported":1729354225,"current_range_meters":24000,"station_id":"ce4bhgp2rcd13ifvqfc0","pricing_plan_id":"cebpf4jnsgd1na2vs0mg"},{"bike_id":"cc200779-b0ab-472e-8e4c-a492949d5888","system_id":"levelo_inurba_marseille","lat":43.28152,"lon":5.42647,"is_reserved":false,"is_disabled":false,"rental_uris":{"android":"levelo://app?vid=cc200779-b0ab-472e-8e4c-a492949d5888","ios":"levelo://app?vid=cc200779-b0ab-472e-8e4c-a492949d5888"},"vehicle_type_id":"4","last_reported":1729354225,"current_range_meters":14800,"station_id":"ce4bhnh2rcd13ifvqgug","pricing_plan_id":"cebpf4jnsgd1na2vs0mg"},{"bike_id":"357033b5-d0c5-4873-8f1e-29dbc9a09d7f","system_id":"levelo_inurba_marseille","lat":43.30212,"lon":5.39457,"is_reserved":false,"is_disabled":false,"rental_uris":{"android":"levelo://app?vid=357033b5-d0c5-4873-8f1e-29dbc9a09d7f","ios":"levelo://app?vid=357033b5-d0c5-4873-8f1e-29dbc9a09d7f"},"vehicle_type_id":"4","last_reported":1729354225,"current_range_meters":2800,"station_id":"ce4bh0p2rcd13ifvqd70","pricing_plan_id":"cebpf4jnsgd1na2vs0mg"},{"bike_id":"65f6ea2f-0f7c-4ea7-bd5c-d0c53dd4885f","system_id":"levelo_inurba_marseille","lat":43.30587,"lon":5.3936,"is_reserved":false,"is_disabled":false,"rental_uris":{"android":"levelo://app?vid=65f6ea2f-0f7c-4ea7-bd5c-d0c53dd4885f","ios":"levelo://app?vid=65f6ea2f-0f7c-4ea7-bd5c-d0c53dd4885f"},"vehicle_type_id":"4","last_reported":1729354225,"current_range_meters":27600,"station_id":"ce4bh0p2rcd13ifvqd80","pricing_plan_id":"cebpf4jnsgd1na2vs0mg"},{"bike_id":"22d4bb12-d9cb-4524-8b56-432c4e684dc2","system_id":"levelo_inurba_marseille","lat":43.24082,"lon":5.37761,"is_reserved":false,"is_disabled":false,"rental_uris":{"android":"levelo://app?vid=22d4bb12-d9cb-4524-8b56-432c4e684dc2","ios":"levelo://app?vid=22d4bb12-d9cb-4524-8b56-432c4e684dc2"},"vehicle_type_id":"4","last_reported":1729354225,"current_range_meters":25600,"station_id":"ce4bhnp2rcd13ifvqgvg","pricing_plan_id":"cebpf4jnsgd1na2vs0mg"},{"bike_id":"dc0cb757-587a-44c3-a7d9-c08214c3665c","system_id":"levelo_inurba_marseille","lat":43.30531,"lon":5.36712,"is_reserved":false,"is_disabled":false,"rental_uris":{"android":"levelo://app?vid=dc0cb757-587a-44c3-a7d9-c08214c3665c","ios":"levelo://app?vid=dc0cb757-587a-44c3-a7d9-c08214c3665c"},"vehicle_type_id":"4","last_reported":1729354225,"current_range_meters":24000,"station_id":"ce4bgrp2rcd13ifvqc9g","pricing_plan_id":"cebpf4jnsgd1na2vs0mg"},{"bike_id":"23adad89-5a89-41b9-99b0-274d795261e2","system_id":"levelo_inurba_marseille","lat":43.31694,"lon":5.4047,"is_reserved":false,"is_disabled":false,"rental_uris":{"android":"levelo://app?vid=23adad89-5a89-41b9-99b0-274d795261e2","ios":"levelo://app?vid=23adad89-5a89-41b9-99b0-274d795261e2"},"vehicle_type_id":"4","last_reported":1729354225,"current_range_meters":8000,"station_id":"ce4bh012rcd13ifvqd00","pricing_plan_id":"cebpf4jnsgd1na2vs0mg"},{"bike_id":"04a31866-8258-46a7-a323-e831501edd3c","system_id":"levelo_inurba_marseille","lat":43.31994,"lon":5.38172,"is_reserved":false,"is_disabled":false,"rental_uris":{"android":"levelo://app?vid=04a31866-8258-46a7-a323-e831501edd3c","ios":"levelo://app?vid=04a31866-8258-46a7-a323-e831501edd3c"},"vehicle_type_id":"4","last_reported":1729354225,"current_range_meters":18000,"station_id":"ce4bhr12rcd13ifvqhpg","pricing_plan_id":"cebpf4jnsgd1na2vs0mg"},{"bike_id":"c8eb9abe-0207-4678-b95f-d3bfcabfe422","system_id":"levelo_inurba_marseille","lat":43.27564,"lon":5.38421,"is_reserved":false,"is_disabled":false,"rental_uris":{"android":"levelo://app?vid=c8eb9abe-0207-4678-b95f-d3bfcabfe422","ios":"levelo://app?vid=c8eb9abe-0207-4678-b95f-d3bfcabfe422"},"vehicle_type_id":"4","last_reported":1729354225,"current_range_meters":8400,"station_id":"ce4bhh92rcd13ifvqfi0","pricing_plan_id":"cebpf4jnsgd1na2vs0mg"},{"bike_id":"79aea3e0-5129-469c-9b16-29b3e1c242e9","system_id":"levelo_inurba_marseille","lat":43.25001,"lon":5.38926,"is_reserved":false,"is_disabled":false,"rental_uris":{"android":"levelo://app?vid=79aea3e0-5129-469c-9b16-29b3e1c242e9","ios":"levelo://app?vid=79aea3e0-5129-469c-9b16-29b3e1c242e9"},"vehicle_type_id":"4","last_reported":1729354225,"current_range_meters":16400,"station_id":"ce4bhgp2rcd13ifvqfd0","pricing_plan_id":"cebpf4jnsgd1na2vs0mg"},{"bike_id":"47b0677d-f1ea-44b9-ad27-95f55e4f3816","system_id":"levelo_inurba_marseille","lat":43.23959,"lon":5.36635,"is_reserved":false,"is_disabled":false,"rental_uris":{"android":"levelo://app?vid=47b0677d-f1ea-44b9-ad27-95f55e4f3816","ios":"levelo://app?vid=47b0677d-f1ea-44b9-ad27-95f55e4f3816"},"vehicle_type_id":"4","last_reported":1729354225,"current_range_meters":38800,"station_id":"ce4bhi12rcd13ifvqfp0","pricing_plan_id":"cebpf4jnsgd1na2vs0mg"},{"bike_id":"d5a73f08-e8b7-4e63-b89b-b681cf883c08","system_id":"levelo_inurba_marseille","lat":43.27898,"lon":5.38018,"is_reserved":false,"is_disabled":false,"rental_uris":{"android":"levelo://app?vid=d5a73f08-e8b7-4e63-b89b-b681cf883c08","ios":"levelo://app?vid=d5a73f08-e8b7-4e63-b89b-b681cf883c08"},"vehicle_type_id":"4","last_reported":1729354225,"current_range_meters":38800,"station_id":"ce4bhf92rcd13ifvqf50","pricing_plan_id":"cebpf4jnsgd1na2vs0mg"},{"bike_id":"1bba75f7-c184-4605-97df-5402a8e1b19a","system_id":"levelo_inurba_marseille","lat":43.29784,"lon":5.37096,"is_reserved":false,"is_disabled":false,"rental_uris":{"android":"levelo://app?vid=1bba75f7-c184-4605-97df-5402a8e1b19a","ios":"levelo://app?vid=1bba75f7-c184-4605-97df-5402a8e1b19a"},"vehicle_type_id":"4","last_reported":1729354225,"current_range_meters":8400,"station_id":"ce4bgop2rcd13ifvqc1g","pricing_plan_id":"cebpf4jnsgd1na2vs0mg"},{"bike_id":"2399c1cf-4061-4d1d-88cf-88b7a15f067d","system_id":"levelo_inurba_marseille","lat":43.296458,"lon":5.376903,"is_reserved":false,"is_disabled":false,"rental_uris":{"android":"levelo://app?vid=2399c1cf-4061-4d1d-88cf-88b7a15f067d","ios":"levelo://app?vid=2399c1cf-4061-4d1d-88cf-88b7a15f067d"},"vehicle_type_id":"4","last_reported":1729354225,"current_range_meters":8400,"station_id":"ce4bgi92rcd13ifvqb90","pricing_plan_id":"cebpf4jnsgd1na2vs0mg"},{"bike_id":"907d90e2-7e08-4846-bbc2-01977b54a9bd","system_id":"levelo_inurba_marseille","lat":43.24166,"lon":5.36396,"is_reserved":false,"is_disabled":false,"rental_uris":{"android":"levelo://app?vid=907d90e2-7e08-4846-bbc2-01977b54a9bd","ios":"levelo://app?vid=907d90e2-7e08-4846-bbc2-01977b54a9bd"},"vehicle_type_id":"4","last_reported":1729354225,"current_range_meters":12800,"station_id":"cpo36qri1sfpv3e86is0","pricing_plan_id":"cebpf4jnsgd1na2vs0mg"},{"bike_id":"38cbab92-43e0-49dc-9fbc-a583dad8100c","system_id":"levelo_inurba_marseille","lat":43.26557,"lon":5.37285,"is_reserved":false,"is_disabled":false,"rental_uris":{"android":"levelo://app?vid=38cbab92-43e0-49dc-9fbc-a583dad8100c","ios":"levelo://app?vid=38cbab92-43e0-49dc-9fbc-a583dad8100c"},"vehicle_type_id":"4","last_reported":1729354225,"current_range_meters":17200,"station_id":"ce4bhg12rcd13ifvqf70","pricing_plan_id":"cebpf4jnsgd1na2vs0mg"},{"bike_id":"3478858e-fa73-405b-ae22-acb3873a5264","system_id":"levelo_inurba_marseille","lat":43.26678,"lon":5.38273,"is_reserved":false,"is_disabled":false,"rental_uris":{"android":"levelo://app?vid=3478858e-fa73-405b-ae22-acb3873a5264","ios":"levelo://app?vid=3478858e-fa73-405b-ae22-acb3873a5264"},"vehicle_type_id":"4","last_reported":1729354225,"current_range_meters":18000,"station_id":"ce4bhg92rcd13ifvqf90","pricing_plan_id":"cebpf4jnsgd1na2vs0mg"},{"bike_id":"fcea1037-48b4-4a32-90e2-23057969705d","system_id":"levelo_inurba_marseille","lat":43.24666,"lon":5.38171,"is_reserved":false,"is_disabled":false,"rental_uris":{"android":"levelo://app?vid=fcea1037-48b4-4a32-90e2-23057969705d","ios":"levelo://app?vid=fcea1037-48b4-4a32-90e2-23057969705d"},"vehicle_type_id":"4","last_reported":1729354225,"current_range_meters":8800,"station_id":"ce4bhih2rcd13ifvqfr0","pricing_plan_id":"cebpf4jnsgd1na2vs0mg"},{"bike_id":"9ed66892-1d5d-44f2-a0fb-41e18ceaf1f8","system_id":"levelo_inurba_marseille","lat":43.229309,"lon":5.353769,"is_reserved":false,"is_disabled":false,"rental_uris":{"android":"levelo://app?vid=9ed66892-1d5d-44f2-a0fb-41e18ceaf1f8","ios":"levelo://app?vid=9ed66892-1d5d-44f2-a0fb-41e18ceaf1f8"},"vehicle_type_id":"4","last_reported":1729354225,"current_range_meters":37600,"station_id":"cpo3532slgdg3j2ikp40","pricing_plan_id":"cebpf4jnsgd1na2vs0mg"},{"bike_id":"736911a5-a572-4e03-8646-2b5d300225a0","system_id":"levelo_inurba_marseille","lat":43.302979,"lon":5.368964,"is_reserved":false,"is_disabled":false,"rental_uris":{"android":"levelo://app?vid=736911a5-a572-4e03-8646-2b5d300225a0","ios":"levelo://app?vid=736911a5-a572-4e03-8646-2b5d300225a0"},"vehicle_type_id":"4","last_reported":1729354225,"current_range_meters":38000,"station_id":"ce4bgqh2rcd13ifvqc5g","pricing_plan_id":"cebpf4jnsgd1na2vs0mg"},{"bike_id":"69107c76-ccea-461d-bfa6-7be0381ddf18","system_id":"levelo_inurba_marseille","lat":43.2649,"lon":5.3955,"is_reserved":false,"is_disabled":false,"rental_uris":{"android":"levelo://app?vid=69107c76-ccea-461d-bfa6-7be0381ddf18","ios":"levelo://app?vid=69107c76-ccea-461d-bfa6-7be0381ddf18"},"vehicle_type_id":"4","last_reported":1729354225,"current_range_meters":27600,"station_id":"ce4bhi12rcd13ifvqfq0","pricing_plan_id":"cebpf4jnsgd1na2vs0mg"},{"bike_id":"2140b6a3-5118-4150-823e-9225aeb56201","system_id":"levelo_inurba_marseille","lat":43.23195,"lon":5.355463,"is_reserved":false,"is_disabled":false,"rental_uris":{"android":"levelo://app?vid=2140b6a3-5118-4150-823e-9225aeb56201","ios":"levelo://app?vid=2140b6a3-5118-4150-823e-9225aeb56201"},"vehicle_type_id":"4","last_reported":1729354225,"current_range_meters":27200,"station_id":"ce4bhu92rcd13ifvqi70","pricing_plan_id":"cebpf4jnsgd1na2vs0mg"},{"bike_id":"e5a92413-8203-4510-9493-7ad6a23b16e2","system_id":"levelo_inurba_marseille","lat":43.29533,"lon":5.39396,"is_reserved":false,"is_disabled":false,"rental_uris":{"android":"levelo://app?vid=e5a92413-8203-4510-9493-7ad6a23b16e2","ios":"levelo://app?vid=e5a92413-8203-4510-9493-7ad6a23b16e2"},"vehicle_type_id":"4","last_reported":1729354225,"current_range_meters":4800,"station_id":"ce4bh292rcd13ifvqdf0","pricing_plan_id":"cebpf4jnsgd1na2vs0mg"},{"bike_id":"3f877b21-c502-4006-bc25-c84a89c12ea0","system_id":"levelo_inurba_marseille","lat":43.29789,"lon":5.38097,"is_reserved":false,"is_disabled":false,"rental_uris":{"android":"levelo://app?vid=3f877b21-c502-4006-bc25-c84a89c12ea0","ios":"levelo://app?vid=3f877b21-c502-4006-bc25-c84a89c12ea0"},"vehicle_type_id":"4","last_reported":1729354225,"current_range_meters":22000,"station_id":"ce4bgip2rcd13ifvqbb0","pricing_plan_id":"cebpf4jnsgd1na2vs0mg"},{"bike_id":"6e706dcb-6e41-41b6-a172-73765c66fdaa","system_id":"levelo_inurba_marseille","lat":43.26248,"lon":5.37591,"is_reserved":false,"is_disabled":false,"rental_uris":{"android":"levelo://app?vid=6e706dcb-6e41-41b6-a172-73765c66fdaa","ios":"levelo://app?vid=6e706dcb-6e41-41b6-a172-73765c66fdaa"},"vehicle_type_id":"4","last_reported":1729354225,"current_range_meters":37600,"station_id":"ce4bhhp2rcd13ifvqfm0","pricing_plan_id":"cebpf4jnsgd1na2vs0mg"},{"bike_id":"cea20865-a325-49e9-99fe-ec0443e3e109","system_id":"levelo_inurba_marseille","lat":43.29944,"lon":5.37148,"is_reserved":false,"is_disabled":false,"rental_uris":{"android":"levelo://app?vid=cea20865-a325-49e9-99fe-ec0443e3e109","ios":"levelo://app?vid=cea20865-a325-49e9-99fe-ec0443e3e109"},"vehicle_type_id":"4","last_reported":1729354225,"current_range_meters":38400,"station_id":"ce4bgop2rcd13ifvqc1g","pricing_plan_id":"cebpf4jnsgd1na2vs0mg"},{"bike_id":"108e55e7-a39c-45f5-9822-2027f5b78e62","system_id":"levelo_inurba_marseille","lat":43.30317,"lon":5.39214,"is_reserved":false,"is_disabled":false,"rental_uris":{"android":"levelo://app?vid=108e55e7-a39c-45f5-9822-2027f5b78e62","ios":"levelo://app?vid=108e55e7-a39c-45f5-9822-2027f5b78e62"},"vehicle_type_id":"4","last_reported":1729354225,"current_range_meters":2800,"station_id":"ce4bgkh2rcd13ifvqbk0","pricing_plan_id":"cebpf4jnsgd1na2vs0mg"},{"bike_id":"7772d39f-5e28-445c-af91-069b0cf63793","system_id":"levelo_inurba_marseille","lat":43.33765,"lon":5.37438,"is_reserved":false,"is_disabled":false,"rental_uris":{"android":"levelo://app?vid=7772d39f-5e28-445c-af91-069b0cf63793","ios":"levelo://app?vid=7772d39f-5e28-445c-af91-069b0cf63793"},"vehicle_type_id":"4","last_reported":1729354225,"current_range_meters":8400,"station_id":"","pricing_plan_id":"cebpf4jnsgd1na2vs0mg"},{"bike_id":"f2e7cfcd-cee3-4d79-bbe2-8d7c26012253","system_id":"levelo_inurba_marseille","lat":43.23064,"lon":5.35495,"is_reserved":false,"is_disabled":false,"rental_uris":{"android":"levelo://app?vid=f2e7cfcd-cee3-4d79-bbe2-8d7c26012253","ios":"levelo://app?vid=f2e7cfcd-cee3-4d79-bbe2-8d7c26012253"},"vehicle_type_id":"4","last_reported":1729354225,"current_range_meters":2800,"station_id":"cpo3342slgdg3j2ifvpg","pricing_plan_id":"cebpf4jnsgd1na2vs0mg"},{"bike_id":"63cc1028-f35d-4bc2-8319-d56f7c6910a3","system_id":"levelo_inurba_marseille","lat":43.33025,"lon":5.39041,"is_reserved":false,"is_disabled":false,"rental_uris":{"android":"levelo://app?vid=63cc1028-f35d-4bc2-8319-d56f7c6910a3","ios":"levelo://app?vid=63cc1028-f35d-4bc2-8319-d56f7c6910a3"},"vehicle_type_id":"4","last_reported":1729354225,"current_range_meters":37600,"station_id":"ce4bhr92rcd13ifvqhrg","pricing_plan_id":"cebpf4jnsgd1na2vs0mg"},{"bike_id":"3213665e-989c-4d22-9f5a-31c8522597dd","system_id":"levelo_inurba_marseille","lat":43.296,"lon":5.36142,"is_reserved":false,"is_disabled":false,"rental_uris":{"android":"levelo://app?vid=3213665e-989c-4d22-9f5a-31c8522597dd","ios":"levelo://app?vid=3213665e-989c-4d22-9f5a-31c8522597dd"},"vehicle_type_id":"4","last_reported":1729354225,"current_range_meters":18800,"station_id":"","pricing_plan_id":"cebpf4jnsgd1na2vs0mg"},{"bike_id":"e5ea2ec8-5d92-4d19-96b8-45c3d4452852","system_id":"levelo_inurba_marseille","lat":43.293793,"lon":5.373031,"is_reserved":false,"is_disabled":false,"rental_uris":{"android":"levelo://app?vid=e5ea2ec8-5d92-4d19-96b8-45c3d4452852","ios":"levelo://app?vid=e5ea2ec8-5d92-4d19-96b8-45c3d4452852"},"vehicle_type_id":"4","last_reported":1729354225,"current_range_meters":33200,"station_id":"ce4bgrp2rcd13ifvqc9g","pricing_plan_id":"cebpf4jnsgd1na2vs0mg"},{"bike_id":"57b209a6-076f-4fe9-9e50-8d35d1d4533f","system_id":"levelo_inurba_marseille","lat":43.28153,"lon":5.42646,"is_reserved":false,"is_disabled":false,"rental_uris":{"android":"levelo://app?vid=57b209a6-076f-4fe9-9e50-8d35d1d4533f","ios":"levelo://app?vid=57b209a6-076f-4fe9-9e50-8d35d1d4533f"},"vehicle_type_id":"4","last_reported":1729354225,"current_range_meters":38800,"station_id":"ce4bhnh2rcd13ifvqgug","pricing_plan_id":"cebpf4jnsgd1na2vs0mg"},{"bike_id":"efcc85e4-85df-461a-8f80-ec41faa3bc07","system_id":"levelo_inurba_marseille","lat":43.292565,"lon":5.408891,"is_reserved":false,"is_disabled":false,"rental_uris":{"android":"levelo://app?vid=efcc85e4-85df-461a-8f80-ec41faa3bc07","ios":"levelo://app?vid=efcc85e4-85df-461a-8f80-ec41faa3bc07"},"vehicle_type_id":"4","last_reported":1729354225,"current_range_meters":38800,"station_id":"ce4bh192rcd13ifvqdc0","pricing_plan_id":"cebpf4jnsgd1na2vs0mg"},{"bike_id":"85978b2d-96a1-4496-a15d-3917a97b0613","system_id":"levelo_inurba_marseille","lat":43.32309,"lon":5.37432,"is_reserved":false,"is_disabled":false,"rental_uris":{"android":"levelo://app?vid=85978b2d-96a1-4496-a15d-3917a97b0613","ios":"levelo://app?vid=85978b2d-96a1-4496-a15d-3917a97b0613"},"vehicle_type_id":"4","last_reported":1729354225,"current_range_meters":37600,"station_id":"","pricing_plan_id":"cebpf4jnsgd1na2vs0mg"},{"bike_id":"6a1e31b6-d029-4b53-901f-4bdc7b2141ad","system_id":"levelo_inurba_marseille","lat":43.33026,"lon":5.39036,"is_reserved":false,"is_disabled":false,"rental_uris":{"android":"levelo://app?vid=6a1e31b6-d029-4b53-901f-4bdc7b2141ad","ios":"levelo://app?vid=6a1e31b6-d029-4b53-901f-4bdc7b2141ad"},"vehicle_type_id":"4","last_reported":1729354225,"current_range_meters":24000,"station_id":"ce4bhr92rcd13ifvqhrg","pricing_plan_id":"cebpf4jnsgd1na2vs0mg"},{"bike_id":"e78b617d-375d-43c8-adb3-6f4b45c69c54","system_id":"levelo_inurba_marseille","lat":43.28155,"lon":5.42644,"is_reserved":false,"is_disabled":false,"rental_uris":{"android":"levelo://app?vid=e78b617d-375d-43c8-adb3-6f4b45c69c54","ios":"levelo://app?vid=e78b617d-375d-43c8-adb3-6f4b45c69c54"},"vehicle_type_id":"4","last_reported":1729354225,"current_range_meters":14000,"station_id":"ce4bhnh2rcd13ifvqgug","pricing_plan_id":"cebpf4jnsgd1na2vs0mg"},{"bike_id":"34256a3b-88e4-407f-9dee-2f9f678f3388","system_id":"levelo_inurba_marseille","lat":43.28423,"lon":5.34988,"is_reserved":false,"is_disabled":false,"rental_uris":{"android":"levelo://app?vid=34256a3b-88e4-407f-9dee-2f9f678f3388","ios":"levelo://app?vid=34256a3b-88e4-407f-9dee-2f9f678f3388"},"vehicle_type_id":"4","last_reported":1729354225,"current_range_meters":28400,"station_id":"ce4bhbh2rcd13ifvqepg","pricing_plan_id":"cebpf4jnsgd1na2vs0mg"},{"bike_id":"8036df7a-3809-44aa-b0fb-6ae7e73509e7","system_id":"levelo_inurba_marseille","lat":43.29622,"lon":5.37168,"is_reserved":false,"is_disabled":false,"rental_uris":{"android":"levelo://app?vid=8036df7a-3809-44aa-b0fb-6ae7e73509e7","ios":"levelo://app?vid=8036df7a-3809-44aa-b0fb-6ae7e73509e7"},"vehicle_type_id":"4","last_reported":1729354225,"current_range_meters":0,"station_id":"ce4bgnh2rcd13ifvqc0g","pricing_plan_id":"cebpf4jnsgd1na2vs0mg"},{"bike_id":"62679cc5-0d2d-4ace-abc4-366c100478ff","system_id":"levelo_inurba_marseille","lat":43.31708,"lon":5.43706,"is_reserved":false,"is_disabled":false,"rental_uris":{"android":"levelo://app?vid=62679cc5-0d2d-4ace-abc4-366c100478ff","ios":"levelo://app?vid=62679cc5-0d2d-4ace-abc4-366c100478ff"},"vehicle_type_id":"4","last_reported":1729354225,"current_range_meters":38800,"station_id":"ce4bhp92rcd13ifvqhcg","pricing_plan_id":"cebpf4jnsgd1na2vs0mg"},{"bike_id":"2075d8e1-9e04-450e-85cd-cdedb5b38038","system_id":"levelo_inurba_marseille","lat":43.27994,"lon":5.4166,"is_reserved":false,"is_disabled":false,"rental_uris":{"android":"levelo://app?vid=2075d8e1-9e04-450e-85cd-cdedb5b38038","ios":"levelo://app?vid=2075d8e1-9e04-450e-85cd-cdedb5b38038"},"vehicle_type_id":"4","last_reported":1729354225,"current_range_meters":34000,"station_id":"ce4bho12rcd13ifvqh1g","pricing_plan_id":"cebpf4jnsgd1na2vs0mg"},{"bike_id":"a18f3d2c-b612-48ae-aa5e-0ae72f60649b","system_id":"levelo_inurba_marseille","lat":43.28417,"lon":5.34983,"is_reserved":false,"is_disabled":false,"rental_uris":{"android":"levelo://app?vid=a18f3d2c-b612-48ae-aa5e-0ae72f60649b","ios":"levelo://app?vid=a18f3d2c-b612-48ae-aa5e-0ae72f60649b"},"vehicle_type_id":"4","last_reported":1729354225,"current_range_meters":28000,"station_id":"ce4bhbh2rcd13ifvqepg","pricing_plan_id":"cebpf4jnsgd1na2vs0mg"},{"bike_id":"8775fe56-7a31-4c54-a95c-ccfb769e5012","system_id":"levelo_inurba_marseille","lat":43.28849,"lon":5.39309,"is_reserved":false,"is_disabled":false,"rental_uris":{"android":"levelo://app?vid=8775fe56-7a31-4c54-a95c-ccfb769e5012","ios":"levelo://app?vid=8775fe56-7a31-4c54-a95c-ccfb769e5012"},"vehicle_type_id":"4","last_reported":1729354225,"current_range_meters":1600,"station_id":"ce4bh2p2rcd13ifvqdi0","pricing_plan_id":"cebpf4jnsgd1na2vs0mg"},{"bike_id":"5b28be2f-cc82-4704-8fab-d09bc8dbc62e","system_id":"levelo_inurba_marseille","lat":43.24858,"lon":5.38857,"is_reserved":false,"is_disabled":false,"rental_uris":{"android":"levelo://app?vid=5b28be2f-cc82-4704-8fab-d09bc8dbc62e","ios":"levelo://app?vid=5b28be2f-cc82-4704-8fab-d09bc8dbc62e"},"vehicle_type_id":"4","last_reported":1729354225,"current_range_meters":18800,"station_id":"","pricing_plan_id":"cebpf4jnsgd1na2vs0mg"},{"bike_id":"067193b3-5c80-4bd0-bba0-f83eb46c9371","system_id":"levelo_inurba_marseille","lat":43.23195,"lon":5.35556,"is_reserved":false,"is_disabled":false,"rental_uris":{"android":"levelo://app?vid=067193b3-5c80-4bd0-bba0-f83eb46c9371","ios":"levelo://app?vid=067193b3-5c80-4bd0-bba0-f83eb46c9371"},"vehicle_type_id":"4","last_reported":1729354225,"current_range_meters":32400,"station_id":"ce4bhu92rcd13ifvqi70","pricing_plan_id":"cebpf4jnsgd1na2vs0mg"},{"bike_id":"b1a2c6e6-7b52-4910-af67-0edd71c1da54","system_id":"levelo_inurba_marseille","lat":43.284252,"lon":5.349988,"is_reserved":false,"is_disabled":false,"rental_uris":{"android":"levelo://app?vid=b1a2c6e6-7b52-4910-af67-0edd71c1da54","ios":"levelo://app?vid=b1a2c6e6-7b52-4910-af67-0edd71c1da54"},"vehicle_type_id":"4","last_reported":1729354225,"current_range_meters":12000,"station_id":"ce4bhbh2rcd13ifvqepg","pricing_plan_id":"cebpf4jnsgd1na2vs0mg"},{"bike_id":"71507bf5-9363-41e8-8c70-98eb5ce3e184","system_id":"levelo_inurba_marseille","lat":43.22933,"lon":5.35378,"is_reserved":false,"is_disabled":false,"rental_uris":{"android":"levelo://app?vid=71507bf5-9363-41e8-8c70-98eb5ce3e184","ios":"levelo://app?vid=71507bf5-9363-41e8-8c70-98eb5ce3e184"},"vehicle_type_id":"4","last_reported":1729354225,"current_range_meters":4400,"station_id":"cpo3532slgdg3j2ikp40","pricing_plan_id":"cebpf4jnsgd1na2vs0mg"},{"bike_id":"24083e1a-e2ca-470a-b7e4-341eb5d41c4b","system_id":"levelo_inurba_marseille","lat":43.33025,"lon":5.39038,"is_reserved":false,"is_disabled":false,"rental_uris":{"android":"levelo://app?vid=24083e1a-e2ca-470a-b7e4-341eb5d41c4b","ios":"levelo://app?vid=24083e1a-e2ca-470a-b7e4-341eb5d41c4b"},"vehicle_type_id":"4","last_reported":1729354225,"current_range_meters":11200,"station_id":"ce4bhr92rcd13ifvqhrg","pricing_plan_id":"cebpf4jnsgd1na2vs0mg"},{"bike_id":"a50da574-03c5-475b-b6c5-e3885a5b2ef0","system_id":"levelo_inurba_marseille","lat":43.28152,"lon":5.42635,"is_reserved":false,"is_disabled":false,"rental_uris":{"android":"levelo://app?vid=a50da574-03c5-475b-b6c5-e3885a5b2ef0","ios":"levelo://app?vid=a50da574-03c5-475b-b6c5-e3885a5b2ef0"},"vehicle_type_id":"4","last_reported":1729354225,"current_range_meters":22800,"station_id":"ce4bhnh2rcd13ifvqgug","pricing_plan_id":"cebpf4jnsgd1na2vs0mg"},{"bike_id":"fac9a3a2-2dd0-4efd-afd6-73cc4f4edd9a","system_id":"levelo_inurba_marseille","lat":43.248138,"lon":5.374691,"is_reserved":false,"is_disabled":false,"rental_uris":{"android":"levelo://app?vid=fac9a3a2-2dd0-4efd-afd6-73cc4f4edd9a","ios":"levelo://app?vid=fac9a3a2-2dd0-4efd-afd6-73cc4f4edd9a"},"vehicle_type_id":"4","last_reported":1729354225,"current_range_meters":38800,"station_id":"ce4bhgh2rcd13ifvqfb0","pricing_plan_id":"cebpf4jnsgd1na2vs0mg"},{"bike_id":"9ac5467e-abb7-43e8-bfd0-5f99bf847545","system_id":"levelo_inurba_marseille","lat":43.29534,"lon":5.38544,"is_reserved":false,"is_disabled":false,"rental_uris":{"android":"levelo://app?vid=9ac5467e-abb7-43e8-bfd0-5f99bf847545","ios":"levelo://app?vid=9ac5467e-abb7-43e8-bfd0-5f99bf847545"},"vehicle_type_id":"4","last_reported":1729354225,"current_range_meters":24400,"station_id":"ce4bgih2rcd13ifvqba0","pricing_plan_id":"cebpf4jnsgd1na2vs0mg"},{"bike_id":"221fdca8-1f6d-4c5b-b6b7-0f8686ea7ada","system_id":"levelo_inurba_marseille","lat":43.292,"lon":5.35815,"is_reserved":false,"is_disabled":false,"rental_uris":{"android":"levelo://app?vid=221fdca8-1f6d-4c5b-b6b7-0f8686ea7ada","ios":"levelo://app?vid=221fdca8-1f6d-4c5b-b6b7-0f8686ea7ada"},"vehicle_type_id":"4","last_reported":1729354225,"current_range_meters":38800,"station_id":"ce4bhb12rcd13ifvqel0","pricing_plan_id":"cebpf4jnsgd1na2vs0mg"},{"bike_id":"3e00493d-cff4-4fb6-8459-0f88e6834aca","system_id":"levelo_inurba_marseille","lat":43.26495,"lon":5.39551,"is_reserved":false,"is_disabled":false,"rental_uris":{"android":"levelo://app?vid=3e00493d-cff4-4fb6-8459-0f88e6834aca","ios":"levelo://app?vid=3e00493d-cff4-4fb6-8459-0f88e6834aca"},"vehicle_type_id":"4","last_reported":1729354225,"current_range_meters":34000,"station_id":"ce4bhi12rcd13ifvqfq0","pricing_plan_id":"cebpf4jnsgd1na2vs0mg"},{"bike_id":"b54731ed-8b30-4656-83a1-52be65e7533b","system_id":"levelo_inurba_marseille","lat":43.30139,"lon":5.39858,"is_reserved":false,"is_disabled":false,"rental_uris":{"android":"levelo://app?vid=b54731ed-8b30-4656-83a1-52be65e7533b","ios":"levelo://app?vid=b54731ed-8b30-4656-83a1-52be65e7533b"},"vehicle_type_id":"4","last_reported":1729354225,"current_range_meters":34800,"station_id":"ce4bh0h2rcd13ifvqd40","pricing_plan_id":"cebpf4jnsgd1na2vs0mg"},{"bike_id":"4e75b40e-a7bf-4b9a-887d-11ce9440a48e","system_id":"levelo_inurba_marseille","lat":43.24082,"lon":5.37747,"is_reserved":false,"is_disabled":false,"rental_uris":{"android":"levelo://app?vid=4e75b40e-a7bf-4b9a-887d-11ce9440a48e","ios":"levelo://app?vid=4e75b40e-a7bf-4b9a-887d-11ce9440a48e"},"vehicle_type_id":"4","last_reported":1729354225,"current_range_meters":34800,"station_id":"ce4bhnp2rcd13ifvqgvg","pricing_plan_id":"cebpf4jnsgd1na2vs0mg"},{"bike_id":"f2c99d8f-2c6c-4673-83c3-9b204275d3a2","system_id":"levelo_inurba_marseille","lat":43.23962,"lon":5.36644,"is_reserved":false,"is_disabled":false,"rental_uris":{"android":"levelo://app?vid=f2c99d8f-2c6c-4673-83c3-9b204275d3a2","ios":"levelo://app?vid=f2c99d8f-2c6c-4673-83c3-9b204275d3a2"},"vehicle_type_id":"4","last_reported":1729354225,"current_range_meters":12800,"station_id":"ce4bhi12rcd13ifvqfp0","pricing_plan_id":"cebpf4jnsgd1na2vs0mg"},{"bike_id":"be2bbaa1-f672-4dc8-a1c0-85466066b76d","system_id":"levelo_inurba_marseille","lat":43.2319,"lon":5.35559,"is_reserved":false,"is_disabled":false,"rental_uris":{"android":"levelo://app?vid=be2bbaa1-f672-4dc8-a1c0-85466066b76d","ios":"levelo://app?vid=be2bbaa1-f672-4dc8-a1c0-85466066b76d"},"vehicle_type_id":"4","last_reported":1729354225,"current_range_meters":23200,"station_id":"ce4bhu92rcd13ifvqi70","pricing_plan_id":"cebpf4jnsgd1na2vs0mg"},{"bike_id":"0ca61beb-790c-496b-8efa-f5725b722b3f","system_id":"levelo_inurba_marseille","lat":43.32189,"lon":5.38082,"is_reserved":false,"is_disabled":false,"rental_uris":{"android":"levelo://app?vid=0ca61beb-790c-496b-8efa-f5725b722b3f","ios":"levelo://app?vid=0ca61beb-790c-496b-8efa-f5725b722b3f"},"vehicle_type_id":"4","last_reported":1729354225,"current_range_meters":10800,"station_id":"","pricing_plan_id":"cebpf4jnsgd1na2vs0mg"},{"bike_id":"a6b67c1e-a665-4735-a508-cdac533460e6","system_id":"levelo_inurba_marseille","lat":43.29626,"lon":5.37719,"is_reserved":false,"is_disabled":false,"rental_uris":{"android":"levelo://app?vid=a6b67c1e-a665-4735-a508-cdac533460e6","ios":"levelo://app?vid=a6b67c1e-a665-4735-a508-cdac533460e6"},"vehicle_type_id":"4","last_reported":1729354225,"current_range_meters":38000,"station_id":"ce4bgi92rcd13ifvqb90","pricing_plan_id":"cebpf4jnsgd1na2vs0mg"},{"bike_id":"30a767c3-474c-484f-a661-b8db9490c19e","system_id":"levelo_inurba_marseille","lat":43.274979,"lon":5.42445,"is_reserved":false,"is_disabled":false,"rental_uris":{"android":"levelo://app?vid=30a767c3-474c-484f-a661-b8db9490c19e","ios":"levelo://app?vid=30a767c3-474c-484f-a661-b8db9490c19e"},"vehicle_type_id":"4","last_reported":1729354225,"current_range_meters":28000,"station_id":"ce4bhn92rcd13ifvqgrg","pricing_plan_id":"cebpf4jnsgd1na2vs0mg"},{"bike_id":"b3e964b1-e94c-4054-b5ce-54627364fa06","system_id":"levelo_inurba_marseille","lat":43.2827,"lon":5.35087,"is_reserved":false,"is_disabled":false,"rental_uris":{"android":"levelo://app?vid=b3e964b1-e94c-4054-b5ce-54627364fa06","ios":"levelo://app?vid=b3e964b1-e94c-4054-b5ce-54627364fa06"},"vehicle_type_id":"4","last_reported":1729354225,"current_range_meters":13600,"station_id":"ce4bhbp2rcd13ifvqerg","pricing_plan_id":"cebpf4jnsgd1na2vs0mg"},{"bike_id":"653344d8-2cf3-46ef-845c-7a41bd4051bc","system_id":"levelo_inurba_marseille","lat":43.28158,"lon":5.42645,"is_reserved":false,"is_disabled":false,"rental_uris":{"android":"levelo://app?vid=653344d8-2cf3-46ef-845c-7a41bd4051bc","ios":"levelo://app?vid=653344d8-2cf3-46ef-845c-7a41bd4051bc"},"vehicle_type_id":"4","last_reported":1729354225,"current_range_meters":19200,"station_id":"ce4bhnh2rcd13ifvqgug","pricing_plan_id":"cebpf4jnsgd1na2vs0mg"},{"bike_id":"f5df8698-89a2-4352-b647-97a90a9a132b","system_id":"levelo_inurba_marseille","lat":43.29847,"lon":5.36278,"is_reserved":false,"is_disabled":false,"rental_uris":{"android":"levelo://app?vid=f5df8698-89a2-4352-b647-97a90a9a132b","ios":"levelo://app?vid=f5df8698-89a2-4352-b647-97a90a9a132b"},"vehicle_type_id":"4","last_reported":1729354225,"current_range_meters":18800,"station_id":"ce4bhb12rcd13ifvqel0","pricing_plan_id":"cebpf4jnsgd1na2vs0mg"},{"bike_id":"85e86b24-d850-437c-af8b-39c40d10d70d","system_id":"levelo_inurba_marseille","lat":43.31716,"lon":5.43699,"is_reserved":false,"is_disabled":false,"rental_uris":{"android":"levelo://app?vid=85e86b24-d850-437c-af8b-39c40d10d70d","ios":"levelo://app?vid=85e86b24-d850-437c-af8b-39c40d10d70d"},"vehicle_type_id":"4","last_reported":1729354225,"current_range_meters":16800,"station_id":"ce4bhp92rcd13ifvqhcg","pricing_plan_id":"cebpf4jnsgd1na2vs0mg"},{"bike_id":"a9d80141-cb04-4f88-bcc5-9763572e3517","system_id":"levelo_inurba_marseille","lat":43.232,"lon":5.35546,"is_reserved":false,"is_disabled":false,"rental_uris":{"android":"levelo://app?vid=a9d80141-cb04-4f88-bcc5-9763572e3517","ios":"levelo://app?vid=a9d80141-cb04-4f88-bcc5-9763572e3517"},"vehicle_type_id":"4","last_reported":1729354225,"current_range_meters":24000,"station_id":"ce4bhu92rcd13ifvqi70","pricing_plan_id":"cebpf4jnsgd1na2vs0mg"},{"bike_id":"6bb6eaea-6464-4250-8b65-6f9c52c53a3f","system_id":"levelo_inurba_marseille","lat":43.31726,"lon":5.42407,"is_reserved":false,"is_disabled":false,"rental_uris":{"android":"levelo://app?vid=6bb6eaea-6464-4250-8b65-6f9c52c53a3f","ios":"levelo://app?vid=6bb6eaea-6464-4250-8b65-6f9c52c53a3f"},"vehicle_type_id":"4","last_reported":1729354225,"current_range_meters":37600,"station_id":"ce4bhp92rcd13ifvqhbg","pricing_plan_id":"cebpf4jnsgd1na2vs0mg"},{"bike_id":"36a0cdb0-c033-4f9e-9fd4-1910a5064b1c","system_id":"levelo_inurba_marseille","lat":43.2827,"lon":5.35077,"is_reserved":false,"is_disabled":false,"rental_uris":{"android":"levelo://app?vid=36a0cdb0-c033-4f9e-9fd4-1910a5064b1c","ios":"levelo://app?vid=36a0cdb0-c033-4f9e-9fd4-1910a5064b1c"},"vehicle_type_id":"4","last_reported":1729354225,"current_range_meters":26800,"station_id":"ce4bhbp2rcd13ifvqerg","pricing_plan_id":"cebpf4jnsgd1na2vs0mg"},{"bike_id":"c9bf36b3-0190-480f-9d47-ca55ed1ea5cb","system_id":"levelo_inurba_marseille","lat":43.3214,"lon":5.37015,"is_reserved":false,"is_disabled":false,"rental_uris":{"android":"levelo://app?vid=c9bf36b3-0190-480f-9d47-ca55ed1ea5cb","ios":"levelo://app?vid=c9bf36b3-0190-480f-9d47-ca55ed1ea5cb"},"vehicle_type_id":"4","last_reported":1729354225,"current_range_meters":23200,"station_id":"","pricing_plan_id":"cebpf4jnsgd1na2vs0mg"},{"bike_id":"a143e650-0cfe-4d42-bb40-5fd1075a4f52","system_id":"levelo_inurba_marseille","lat":43.23195,"lon":5.39991,"is_reserved":false,"is_disabled":false,"rental_uris":{"android":"levelo://app?vid=a143e650-0cfe-4d42-bb40-5fd1075a4f52","ios":"levelo://app?vid=a143e650-0cfe-4d42-bb40-5fd1075a4f52"},"vehicle_type_id":"4","last_reported":1729354225,"current_range_meters":10800,"station_id":"ce4bhn12rcd13ifvqgqg","pricing_plan_id":"cebpf4jnsgd1na2vs0mg"},{"bike_id":"2c474e23-fdac-4e19-971c-a8865e64d765","system_id":"levelo_inurba_marseille","lat":43.28264,"lon":5.35072,"is_reserved":false,"is_disabled":false,"rental_uris":{"android":"levelo://app?vid=2c474e23-fdac-4e19-971c-a8865e64d765","ios":"levelo://app?vid=2c474e23-fdac-4e19-971c-a8865e64d765"},"vehicle_type_id":"4","last_reported":1729354225,"current_range_meters":24400,"station_id":"ce4bhbp2rcd13ifvqerg","pricing_plan_id":"cebpf4jnsgd1na2vs0mg"},{"bike_id":"f98151b4-98c4-4992-8560-492a90360e34","system_id":"levelo_inurba_marseille","lat":43.279055,"lon":5.380129,"is_reserved":false,"is_disabled":false,"rental_uris":{"android":"levelo://app?vid=f98151b4-98c4-4992-8560-492a90360e34","ios":"levelo://app?vid=f98151b4-98c4-4992-8560-492a90360e34"},"vehicle_type_id":"4","last_reported":1729354225,"current_range_meters":6400,"station_id":"ce4bhf92rcd13ifvqf50","pricing_plan_id":"cebpf4jnsgd1na2vs0mg"},{"bike_id":"fb9d1be7-3829-4e55-b93f-4a9547b4f6e9","system_id":"levelo_inurba_marseille","lat":43.2907,"lon":5.38758,"is_reserved":false,"is_disabled":false,"rental_uris":{"android":"levelo://app?vid=fb9d1be7-3829-4e55-b93f-4a9547b4f6e9","ios":"levelo://app?vid=fb9d1be7-3829-4e55-b93f-4a9547b4f6e9"},"vehicle_type_id":"4","last_reported":1729354225,"current_range_meters":6800,"station_id":"ce4bh4p2rcd13ifvqe0g","pricing_plan_id":"cebpf4jnsgd1na2vs0mg"},{"bike_id":"67a3bce6-6e39-4d02-8a4f-f28412bc5eb0","system_id":"levelo_inurba_marseille","lat":43.30794,"lon":5.43529,"is_reserved":false,"is_disabled":false,"rental_uris":{"android":"levelo://app?vid=67a3bce6-6e39-4d02-8a4f-f28412bc5eb0","ios":"levelo://app?vid=67a3bce6-6e39-4d02-8a4f-f28412bc5eb0"},"vehicle_type_id":"4","last_reported":1729354225,"current_range_meters":38800,"station_id":"ce4bhph2rcd13ifvqheg","pricing_plan_id":"cebpf4jnsgd1na2vs0mg"},{"bike_id":"a7aea0df-c7ce-439f-813a-b71c43ca758f","system_id":"levelo_inurba_marseille","lat":43.28045,"lon":5.36934,"is_reserved":false,"is_disabled":false,"rental_uris":{"android":"levelo://app?vid=a7aea0df-c7ce-439f-813a-b71c43ca758f","ios":"levelo://app?vid=a7aea0df-c7ce-439f-813a-b71c43ca758f"},"vehicle_type_id":"4","last_reported":1729354225,"current_range_meters":26000,"station_id":"ce4bha12rcd13ifvqef0","pricing_plan_id":"cebpf4jnsgd1na2vs0mg"},{"bike_id":"ef9c8e8a-1611-47d0-9040-86581a83e7cd","system_id":"levelo_inurba_marseille","lat":43.25579,"lon":5.38242,"is_reserved":false,"is_disabled":false,"rental_uris":{"android":"levelo://app?vid=ef9c8e8a-1611-47d0-9040-86581a83e7cd","ios":"levelo://app?vid=ef9c8e8a-1611-47d0-9040-86581a83e7cd"},"vehicle_type_id":"4","last_reported":1729354225,"current_range_meters":24400,"station_id":"ce4bhih2rcd13ifvqfs0","pricing_plan_id":"cebpf4jnsgd1na2vs0mg"},{"bike_id":"8a61b0d3-96ba-49fc-af75-dd8176297036","system_id":"levelo_inurba_marseille","lat":43.23958,"lon":5.36637,"is_reserved":false,"is_disabled":false,"rental_uris":{"android":"levelo://app?vid=8a61b0d3-96ba-49fc-af75-dd8176297036","ios":"levelo://app?vid=8a61b0d3-96ba-49fc-af75-dd8176297036"},"vehicle_type_id":"4","last_reported":1729354225,"current_range_meters":14800,"station_id":"ce4bhi12rcd13ifvqfp0","pricing_plan_id":"cebpf4jnsgd1na2vs0mg"},{"bike_id":"bda92c51-eede-4a1b-8ee1-b4721e0565ad","system_id":"levelo_inurba_marseille","lat":43.31716,"lon":5.43704,"is_reserved":false,"is_disabled":false,"rental_uris":{"android":"levelo://app?vid=bda92c51-eede-4a1b-8ee1-b4721e0565ad","ios":"levelo://app?vid=bda92c51-eede-4a1b-8ee1-b4721e0565ad"},"vehicle_type_id":"4","last_reported":1729354225,"current_range_meters":3600,"station_id":"ce4bhp92rcd13ifvqhcg","pricing_plan_id":"cebpf4jnsgd1na2vs0mg"},{"bike_id":"b655f0e5-9f54-4337-9f8f-e40c329da075","system_id":"levelo_inurba_marseille","lat":43.293261,"lon":5.375054,"is_reserved":false,"is_disabled":false,"rental_uris":{"android":"levelo://app?vid=b655f0e5-9f54-4337-9f8f-e40c329da075","ios":"levelo://app?vid=b655f0e5-9f54-4337-9f8f-e40c329da075"},"vehicle_type_id":"4","last_reported":1729354225,"current_range_meters":6400,"station_id":"ce4bgi12rcd13ifvqb70","pricing_plan_id":"cebpf4jnsgd1na2vs0mg"},{"bike_id":"5cc7e9b9-85de-46d0-81b3-f6bf8d219e67","system_id":"levelo_inurba_marseille","lat":43.24087,"lon":5.37759,"is_reserved":false,"is_disabled":false,"rental_uris":{"android":"levelo://app?vid=5cc7e9b9-85de-46d0-81b3-f6bf8d219e67","ios":"levelo://app?vid=5cc7e9b9-85de-46d0-81b3-f6bf8d219e67"},"vehicle_type_id":"4","last_reported":1729354225,"current_range_meters":38800,"station_id":"ce4bhnp2rcd13ifvqgvg","pricing_plan_id":"cebpf4jnsgd1na2vs0mg"},{"bike_id":"7b8f967f-c2b6-43e0-bada-17343d9a6f11","system_id":"levelo_inurba_marseille","lat":43.2827,"lon":5.35075,"is_reserved":false,"is_disabled":false,"rental_uris":{"android":"levelo://app?vid=7b8f967f-c2b6-43e0-bada-17343d9a6f11","ios":"levelo://app?vid=7b8f967f-c2b6-43e0-bada-17343d9a6f11"},"vehicle_type_id":"4","last_reported":1729354225,"current_range_meters":38800,"station_id":"ce4bhbp2rcd13ifvqerg","pricing_plan_id":"cebpf4jnsgd1na2vs0mg"},{"bike_id":"2701fda0-8b47-422d-ab4d-8af5a2075b0c","system_id":"levelo_inurba_marseille","lat":43.23054,"lon":5.35495,"is_reserved":false,"is_disabled":false,"rental_uris":{"android":"levelo://app?vid=2701fda0-8b47-422d-ab4d-8af5a2075b0c","ios":"levelo://app?vid=2701fda0-8b47-422d-ab4d-8af5a2075b0c"},"vehicle_type_id":"4","last_reported":1729354225,"current_range_meters":8800,"station_id":"cpo3342slgdg3j2ifvpg","pricing_plan_id":"cebpf4jnsgd1na2vs0mg"},{"bike_id":"ddcac861-3a1a-4cdf-8d91-8c0ebd2a878d","system_id":"levelo_inurba_marseille","lat":43.28268,"lon":5.35071,"is_reserved":false,"is_disabled":false,"rental_uris":{"android":"levelo://app?vid=ddcac861-3a1a-4cdf-8d91-8c0ebd2a878d","ios":"levelo://app?vid=ddcac861-3a1a-4cdf-8d91-8c0ebd2a878d"},"vehicle_type_id":"4","last_reported":1729354225,"current_range_meters":32800,"station_id":"ce4bhbp2rcd13ifvqerg","pricing_plan_id":"cebpf4jnsgd1na2vs0mg"},{"bike_id":"9b78167b-ae5a-47c9-9d1b-58b45505fd1c","system_id":"levelo_inurba_marseille","lat":43.24168,"lon":5.36401,"is_reserved":false,"is_disabled":false,"rental_uris":{"android":"levelo://app?vid=9b78167b-ae5a-47c9-9d1b-58b45505fd1c","ios":"levelo://app?vid=9b78167b-ae5a-47c9-9d1b-58b45505fd1c"},"vehicle_type_id":"4","last_reported":1729354225,"current_range_meters":35200,"station_id":"cpo36qri1sfpv3e86is0","pricing_plan_id":"cebpf4jnsgd1na2vs0mg"},{"bike_id":"3d45c4a4-3252-4838-a2d1-b43f0bf65575","system_id":"levelo_inurba_marseille","lat":43.28417,"lon":5.3498,"is_reserved":false,"is_disabled":false,"rental_uris":{"android":"levelo://app?vid=3d45c4a4-3252-4838-a2d1-b43f0bf65575","ios":"levelo://app?vid=3d45c4a4-3252-4838-a2d1-b43f0bf65575"},"vehicle_type_id":"4","last_reported":1729354225,"current_range_meters":38800,"station_id":"ce4bhbh2rcd13ifvqepg","pricing_plan_id":"cebpf4jnsgd1na2vs0mg"},{"bike_id":"96c45d21-03ea-46ea-afa5-0c108eeb81d1","system_id":"levelo_inurba_marseille","lat":43.24994,"lon":5.38949,"is_reserved":false,"is_disabled":false,"rental_uris":{"android":"levelo://app?vid=96c45d21-03ea-46ea-afa5-0c108eeb81d1","ios":"levelo://app?vid=96c45d21-03ea-46ea-afa5-0c108eeb81d1"},"vehicle_type_id":"4","last_reported":1729354225,"current_range_meters":3200,"station_id":"ce4bhgp2rcd13ifvqfd0","pricing_plan_id":"cebpf4jnsgd1na2vs0mg"},{"bike_id":"18aad1e5-8b31-401a-a4ab-955a02c881ee","system_id":"levelo_inurba_marseille","lat":43.2572,"lon":5.41112,"is_reserved":false,"is_disabled":false,"rental_uris":{"android":"levelo://app?vid=18aad1e5-8b31-401a-a4ab-955a02c881ee","ios":"levelo://app?vid=18aad1e5-8b31-401a-a4ab-955a02c881ee"},"vehicle_type_id":"4","last_reported":1729354225,"current_range_meters":36800,"station_id":"ce4bhkp2rcd13ifvqgd0","pricing_plan_id":"cebpf4jnsgd1na2vs0mg"},{"bike_id":"c8fa6f39-e07d-463d-8d01-7ccf9e86f944","system_id":"levelo_inurba_marseille","lat":43.23195,"lon":5.35547,"is_reserved":false,"is_disabled":false,"rental_uris":{"android":"levelo://app?vid=c8fa6f39-e07d-463d-8d01-7ccf9e86f944","ios":"levelo://app?vid=c8fa6f39-e07d-463d-8d01-7ccf9e86f944"},"vehicle_type_id":"4","last_reported":1729354225,"current_range_meters":16800,"station_id":"ce4bhu92rcd13ifvqi70","pricing_plan_id":"cebpf4jnsgd1na2vs0mg"},{"bike_id":"f3927227-20e4-467e-9099-77adb973b4ac","system_id":"levelo_inurba_marseille","lat":43.28938,"lon":5.36397,"is_reserved":false,"is_disabled":false,"rental_uris":{"android":"levelo://app?vid=f3927227-20e4-467e-9099-77adb973b4ac","ios":"levelo://app?vid=f3927227-20e4-467e-9099-77adb973b4ac"},"vehicle_type_id":"4","last_reported":1729354225,"current_range_meters":36800,"station_id":"ce4bhc92rcd13ifvqetg","pricing_plan_id":"cebpf4jnsgd1na2vs0mg"},{"bike_id":"54223c06-469a-4362-9d64-f6bc8552edc2","system_id":"levelo_inurba_marseille","lat":43.23968,"lon":5.36629,"is_reserved":false,"is_disabled":false,"rental_uris":{"android":"levelo://app?vid=54223c06-469a-4362-9d64-f6bc8552edc2","ios":"levelo://app?vid=54223c06-469a-4362-9d64-f6bc8552edc2"},"vehicle_type_id":"4","last_reported":1729354225,"current_range_meters":25600,"station_id":"ce4bhi12rcd13ifvqfp0","pricing_plan_id":"cebpf4jnsgd1na2vs0mg"},{"bike_id":"2e21cad6-8347-4a4e-afa1-8ae3080c28ab","system_id":"levelo_inurba_marseille","lat":43.285737,"lon":5.394965,"is_reserved":false,"is_disabled":false,"rental_uris":{"android":"levelo://app?vid=2e21cad6-8347-4a4e-afa1-8ae3080c28ab","ios":"levelo://app?vid=2e21cad6-8347-4a4e-afa1-8ae3080c28ab"},"vehicle_type_id":"4","last_reported":1729354225,"current_range_meters":35200,"station_id":"ce4bh292rcd13ifvqdg0","pricing_plan_id":"cebpf4jnsgd1na2vs0mg"},{"bike_id":"9ddc834f-178f-4449-9ace-cc030825c257","system_id":"levelo_inurba_marseille","lat":43.31694,"lon":5.40467,"is_reserved":false,"is_disabled":false,"rental_uris":{"android":"levelo://app?vid=9ddc834f-178f-4449-9ace-cc030825c257","ios":"levelo://app?vid=9ddc834f-178f-4449-9ace-cc030825c257"},"vehicle_type_id":"4","last_reported":1729354225,"current_range_meters":21600,"station_id":"ce4bh012rcd13ifvqd00","pricing_plan_id":"cebpf4jnsgd1na2vs0mg"},{"bike_id":"3985c534-8a9b-4aec-a085-67efed99babd","system_id":"levelo_inurba_marseille","lat":43.311762,"lon":5.387161,"is_reserved":false,"is_disabled":false,"rental_uris":{"android":"levelo://app?vid=3985c534-8a9b-4aec-a085-67efed99babd","ios":"levelo://app?vid=3985c534-8a9b-4aec-a085-67efed99babd"},"vehicle_type_id":"4","last_reported":1729354225,"current_range_meters":19600,"station_id":"ce4bh3h2rcd13ifvqdo0","pricing_plan_id":"cebpf4jnsgd1na2vs0mg"},{"bike_id":"28efc296-0a2a-4fd3-bc1c-764d3761cba9","system_id":"levelo_inurba_marseille","lat":43.29293,"lon":5.37462,"is_reserved":false,"is_disabled":false,"rental_uris":{"android":"levelo://app?vid=28efc296-0a2a-4fd3-bc1c-764d3761cba9","ios":"levelo://app?vid=28efc296-0a2a-4fd3-bc1c-764d3761cba9"},"vehicle_type_id":"4","last_reported":1729354225,"current_range_meters":36800,"station_id":"ce4bgi12rcd13ifvqb70","pricing_plan_id":"cebpf4jnsgd1na2vs0mg"},{"bike_id":"ec752a96-54a2-4300-9e68-5f6351635d6d","system_id":"levelo_inurba_marseille","lat":43.26563,"lon":5.39012,"is_reserved":false,"is_disabled":false,"rental_uris":{"android":"levelo://app?vid=ec752a96-54a2-4300-9e68-5f6351635d6d","ios":"levelo://app?vid=ec752a96-54a2-4300-9e68-5f6351635d6d"},"vehicle_type_id":"4","last_reported":1729354225,"current_range_meters":29600,"station_id":"ce4bhe12rcd13ifvqf30","pricing_plan_id":"cebpf4jnsgd1na2vs0mg"},{"bike_id":"a19310e2-aca2-465e-ae41-ce8a907953cc","system_id":"levelo_inurba_marseille","lat":43.23194,"lon":5.35553,"is_reserved":false,"is_disabled":false,"rental_uris":{"android":"levelo://app?vid=a19310e2-aca2-465e-ae41-ce8a907953cc","ios":"levelo://app?vid=a19310e2-aca2-465e-ae41-ce8a907953cc"},"vehicle_type_id":"4","last_reported":1729354225,"current_range_meters":17600,"station_id":"ce4bhu92rcd13ifvqi70","pricing_plan_id":"cebpf4jnsgd1na2vs0mg"},{"bike_id":"9a9aff43-b745-498f-bdcf-e42161eee17f","system_id":"levelo_inurba_marseille","lat":43.23195,"lon":5.35555,"is_reserved":false,"is_disabled":false,"rental_uris":{"android":"levelo://app?vid=9a9aff43-b745-498f-bdcf-e42161eee17f","ios":"levelo://app?vid=9a9aff43-b745-498f-bdcf-e42161eee17f"},"vehicle_type_id":"4","last_reported":1729354225,"current_range_meters":30400,"station_id":"ce4bhu92rcd13ifvqi70","pricing_plan_id":"cebpf4jnsgd1na2vs0mg"},{"bike_id":"0120576e-b1f8-4cc7-9e30-ce8cf8a6a97f","system_id":"levelo_inurba_marseille","lat":43.2985,"lon":5.36284,"is_reserved":false,"is_disabled":false,"rental_uris":{"android":"levelo://app?vid=0120576e-b1f8-4cc7-9e30-ce8cf8a6a97f","ios":"levelo://app?vid=0120576e-b1f8-4cc7-9e30-ce8cf8a6a97f"},"vehicle_type_id":"4","last_reported":1729354225,"current_range_meters":30000,"station_id":"ce4bgpp2rcd13ifvqc3g","pricing_plan_id":"cebpf4jnsgd1na2vs0mg"},{"bike_id":"075b2f64-b7cc-4060-bc48-efbc8b5aa798","system_id":"levelo_inurba_marseille","lat":43.28422,"lon":5.34989,"is_reserved":false,"is_disabled":false,"rental_uris":{"android":"levelo://app?vid=075b2f64-b7cc-4060-bc48-efbc8b5aa798","ios":"levelo://app?vid=075b2f64-b7cc-4060-bc48-efbc8b5aa798"},"vehicle_type_id":"4","last_reported":1729354225,"current_range_meters":31200,"station_id":"ce4bhbh2rcd13ifvqepg","pricing_plan_id":"cebpf4jnsgd1na2vs0mg"},{"bike_id":"8779a9e7-be1d-4078-a566-2a3c8864eeeb","system_id":"levelo_inurba_marseille","lat":43.3171,"lon":5.43709,"is_reserved":false,"is_disabled":false,"rental_uris":{"android":"levelo://app?vid=8779a9e7-be1d-4078-a566-2a3c8864eeeb","ios":"levelo://app?vid=8779a9e7-be1d-4078-a566-2a3c8864eeeb"},"vehicle_type_id":"4","last_reported":1729354225,"current_range_meters":32400,"station_id":"ce4bhp92rcd13ifvqhcg","pricing_plan_id":"cebpf4jnsgd1na2vs0mg"},{"bike_id":"636a7083-32bd-48d9-a27a-7a6ebb70df79","system_id":"levelo_inurba_marseille","lat":43.28034,"lon":5.36941,"is_reserved":false,"is_disabled":false,"rental_uris":{"android":"levelo://app?vid=636a7083-32bd-48d9-a27a-7a6ebb70df79","ios":"levelo://app?vid=636a7083-32bd-48d9-a27a-7a6ebb70df79"},"vehicle_type_id":"4","last_reported":1729354225,"current_range_meters":10800,"station_id":"ce4bha12rcd13ifvqef0","pricing_plan_id":"cebpf4jnsgd1na2vs0mg"},{"bike_id":"c9119563-5a43-4cfa-8596-4f328fa40aa4","system_id":"levelo_inurba_marseille","lat":43.2319,"lon":5.35564,"is_reserved":false,"is_disabled":false,"rental_uris":{"android":"levelo://app?vid=c9119563-5a43-4cfa-8596-4f328fa40aa4","ios":"levelo://app?vid=c9119563-5a43-4cfa-8596-4f328fa40aa4"},"vehicle_type_id":"4","last_reported":1729354225,"current_range_meters":10000,"station_id":"ce4bhu92rcd13ifvqi70","pricing_plan_id":"cebpf4jnsgd1na2vs0mg"},{"bike_id":"bfdb596e-d219-402a-acce-2f63b4000804","system_id":"levelo_inurba_marseille","lat":43.25,"lon":5.38919,"is_reserved":false,"is_disabled":false,"rental_uris":{"android":"levelo://app?vid=bfdb596e-d219-402a-acce-2f63b4000804","ios":"levelo://app?vid=bfdb596e-d219-402a-acce-2f63b4000804"},"vehicle_type_id":"4","last_reported":1729354225,"current_range_meters":11200,"station_id":"ce4bhgp2rcd13ifvqfd0","pricing_plan_id":"cebpf4jnsgd1na2vs0mg"},{"bike_id":"6193ffa3-dbad-4338-8ce7-50575f746bbb","system_id":"levelo_inurba_marseille","lat":43.31686,"lon":5.40473,"is_reserved":false,"is_disabled":false,"rental_uris":{"android":"levelo://app?vid=6193ffa3-dbad-4338-8ce7-50575f746bbb","ios":"levelo://app?vid=6193ffa3-dbad-4338-8ce7-50575f746bbb"},"vehicle_type_id":"4","last_reported":1729354225,"current_range_meters":35200,"station_id":"ce4bh012rcd13ifvqd00","pricing_plan_id":"cebpf4jnsgd1na2vs0mg"},{"bike_id":"46aaa56d-170f-4e00-9425-201c79d5498a","system_id":"levelo_inurba_marseille","lat":43.25585,"lon":5.38225,"is_reserved":false,"is_disabled":false,"rental_uris":{"android":"levelo://app?vid=46aaa56d-170f-4e00-9425-201c79d5498a","ios":"levelo://app?vid=46aaa56d-170f-4e00-9425-201c79d5498a"},"vehicle_type_id":"4","last_reported":1729354225,"current_range_meters":10000,"station_id":"ce4bhih2rcd13ifvqfs0","pricing_plan_id":"cebpf4jnsgd1na2vs0mg"},{"bike_id":"14b27a36-624f-4f79-b8b4-112397e45b24","system_id":"levelo_inurba_marseille","lat":43.30541,"lon":5.36558,"is_reserved":false,"is_disabled":false,"rental_uris":{"android":"levelo://app?vid=14b27a36-624f-4f79-b8b4-112397e45b24","ios":"levelo://app?vid=14b27a36-624f-4f79-b8b4-112397e45b24"},"vehicle_type_id":"4","last_reported":1729354225,"current_range_meters":31200,"station_id":"ce4bgs12rcd13ifvqcag","pricing_plan_id":"cebpf4jnsgd1na2vs0mg"},{"bike_id":"4c450a08-4fc7-4134-ae68-762a3852ef0e","system_id":"levelo_inurba_marseille","lat":43.28254,"lon":5.3507,"is_reserved":false,"is_disabled":false,"rental_uris":{"android":"levelo://app?vid=4c450a08-4fc7-4134-ae68-762a3852ef0e","ios":"levelo://app?vid=4c450a08-4fc7-4134-ae68-762a3852ef0e"},"vehicle_type_id":"4","last_reported":1729354225,"current_range_meters":10000,"station_id":"ce4bhbp2rcd13ifvqerg","pricing_plan_id":"cebpf4jnsgd1na2vs0mg"},{"bike_id":"6cdd7997-333d-465c-a415-fe39597b4870","system_id":"levelo_inurba_marseille","lat":43.23962,"lon":5.36635,"is_reserved":false,"is_disabled":false,"rental_uris":{"android":"levelo://app?vid=6cdd7997-333d-465c-a415-fe39597b4870","ios":"levelo://app?vid=6cdd7997-333d-465c-a415-fe39597b4870"},"vehicle_type_id":"4","last_reported":1729354225,"current_range_meters":12000,"station_id":"ce4bhi12rcd13ifvqfp0","pricing_plan_id":"cebpf4jnsgd1na2vs0mg"},{"bike_id":"d20262c8-4239-4244-8d3e-c29521b401a0","system_id":"levelo_inurba_marseille","lat":43.23966,"lon":5.36633,"is_reserved":false,"is_disabled":false,"rental_uris":{"android":"levelo://app?vid=d20262c8-4239-4244-8d3e-c29521b401a0","ios":"levelo://app?vid=d20262c8-4239-4244-8d3e-c29521b401a0"},"vehicle_type_id":"4","last_reported":1729354225,"current_range_meters":3600,"station_id":"ce4bhi12rcd13ifvqfp0","pricing_plan_id":"cebpf4jnsgd1na2vs0mg"},{"bike_id":"038e87f8-cf5d-4918-8cc0-4dab7327d4e3","system_id":"levelo_inurba_marseille","lat":43.26568,"lon":5.39009,"is_reserved":false,"is_disabled":false,"rental_uris":{"android":"levelo://app?vid=038e87f8-cf5d-4918-8cc0-4dab7327d4e3","ios":"levelo://app?vid=038e87f8-cf5d-4918-8cc0-4dab7327d4e3"},"vehicle_type_id":"4","last_reported":1729354225,"current_range_meters":22800,"station_id":"ce4bhe12rcd13ifvqf30","pricing_plan_id":"cebpf4jnsgd1na2vs0mg"},{"bike_id":"5b7a1f6a-23fc-42f1-be78-007b3c78ae3f","system_id":"levelo_inurba_marseille","lat":43.295197,"lon":5.390413,"is_reserved":false,"is_disabled":false,"rental_uris":{"android":"levelo://app?vid=5b7a1f6a-23fc-42f1-be78-007b3c78ae3f","ios":"levelo://app?vid=5b7a1f6a-23fc-42f1-be78-007b3c78ae3f"},"vehicle_type_id":"4","last_reported":1729354225,"current_range_meters":28400,"station_id":"ce4bh3p2rcd13ifvqdp0","pricing_plan_id":"cebpf4jnsgd1na2vs0mg"},{"bike_id":"0893ee7d-4de8-4b0d-8167-11d4eee93ae3","system_id":"levelo_inurba_marseille","lat":43.31118,"lon":5.3777,"is_reserved":false,"is_disabled":false,"rental_uris":{"android":"levelo://app?vid=0893ee7d-4de8-4b0d-8167-11d4eee93ae3","ios":"levelo://app?vid=0893ee7d-4de8-4b0d-8167-11d4eee93ae3"},"vehicle_type_id":"4","last_reported":1729354225,"current_range_meters":26000,"station_id":"ce4bgt92rcd13ifvqcg0","pricing_plan_id":"cebpf4jnsgd1na2vs0mg"},{"bike_id":"01ee0c14-5a43-4aba-8c14-dfdb0cd99e1b","system_id":"levelo_inurba_marseille","lat":43.25083,"lon":5.39527,"is_reserved":false,"is_disabled":false,"rental_uris":{"android":"levelo://app?vid=01ee0c14-5a43-4aba-8c14-dfdb0cd99e1b","ios":"levelo://app?vid=01ee0c14-5a43-4aba-8c14-dfdb0cd99e1b"},"vehicle_type_id":"4","last_reported":1729354225,"current_range_meters":5600,"station_id":"ce4bhm12rcd13ifvqgkg","pricing_plan_id":"cebpf4jnsgd1na2vs0mg"},{"bike_id":"91a00572-9d9c-4529-8336-1c9e96a2703f","system_id":"levelo_inurba_marseille","lat":43.25095,"lon":5.39522,"is_reserved":false,"is_disabled":false,"rental_uris":{"android":"levelo://app?vid=91a00572-9d9c-4529-8336-1c9e96a2703f","ios":"levelo://app?vid=91a00572-9d9c-4529-8336-1c9e96a2703f"},"vehicle_type_id":"4","last_reported":1729354225,"current_range_meters":26800,"station_id":"ce4bhm12rcd13ifvqgkg","pricing_plan_id":"cebpf4jnsgd1na2vs0mg"},{"bike_id":"06371849-6978-4d56-8e33-981eae044ffe","system_id":"levelo_inurba_marseille","lat":43.28421,"lon":5.34981,"is_reserved":false,"is_disabled":false,"rental_uris":{"android":"levelo://app?vid=06371849-6978-4d56-8e33-981eae044ffe","ios":"levelo://app?vid=06371849-6978-4d56-8e33-981eae044ffe"},"vehicle_type_id":"4","last_reported":1729354225,"current_range_meters":23200,"station_id":"ce4bhbh2rcd13ifvqepg","pricing_plan_id":"cebpf4jnsgd1na2vs0mg"},{"bike_id":"964a684b-e7cb-482c-893d-dab03d02f20d","system_id":"levelo_inurba_marseille","lat":43.23963,"lon":5.36641,"is_reserved":false,"is_disabled":false,"rental_uris":{"android":"levelo://app?vid=964a684b-e7cb-482c-893d-dab03d02f20d","ios":"levelo://app?vid=964a684b-e7cb-482c-893d-dab03d02f20d"},"vehicle_type_id":"4","last_reported":1729354225,"current_range_meters":16000,"station_id":"ce4bhi12rcd13ifvqfp0","pricing_plan_id":"cebpf4jnsgd1na2vs0mg"},{"bike_id":"dcd8aadc-f0db-4af0-8cf6-0112d8dc99b8","system_id":"levelo_inurba_marseille","lat":43.25084,"lon":5.39521,"is_reserved":false,"is_disabled":false,"rental_uris":{"android":"levelo://app?vid=dcd8aadc-f0db-4af0-8cf6-0112d8dc99b8","ios":"levelo://app?vid=dcd8aadc-f0db-4af0-8cf6-0112d8dc99b8"},"vehicle_type_id":"4","last_reported":1729354225,"current_range_meters":6800,"station_id":"ce4bhm12rcd13ifvqgkg","pricing_plan_id":"cebpf4jnsgd1na2vs0mg"},{"bike_id":"92989e3e-37c8-4b6d-970e-22e72e334b87","system_id":"levelo_inurba_marseille","lat":43.24068,"lon":5.3776,"is_reserved":false,"is_disabled":false,"rental_uris":{"android":"levelo://app?vid=92989e3e-37c8-4b6d-970e-22e72e334b87","ios":"levelo://app?vid=92989e3e-37c8-4b6d-970e-22e72e334b87"},"vehicle_type_id":"4","last_reported":1729354225,"current_range_meters":11200,"station_id":"ce4bhnp2rcd13ifvqgvg","pricing_plan_id":"cebpf4jnsgd1na2vs0mg"},{"bike_id":"4698a96d-8697-41b9-8592-80cc1575ae6b","system_id":"levelo_inurba_marseille","lat":43.2847,"lon":5.38421,"is_reserved":false,"is_disabled":false,"rental_uris":{"android":"levelo://app?vid=4698a96d-8697-41b9-8592-80cc1575ae6b","ios":"levelo://app?vid=4698a96d-8697-41b9-8592-80cc1575ae6b"},"vehicle_type_id":"4","last_reported":1729354225,"current_range_meters":20000,"station_id":"ce4bh512rcd13ifvqe3g","pricing_plan_id":"cebpf4jnsgd1na2vs0mg"},{"bike_id":"c61834e5-ab0c-4e12-b32f-eb9d3c1af5fe","system_id":"levelo_inurba_marseille","lat":43.23967,"lon":5.36628,"is_reserved":false,"is_disabled":false,"rental_uris":{"android":"levelo://app?vid=c61834e5-ab0c-4e12-b32f-eb9d3c1af5fe","ios":"levelo://app?vid=c61834e5-ab0c-4e12-b32f-eb9d3c1af5fe"},"vehicle_type_id":"4","last_reported":1729354225,"current_range_meters":20800,"station_id":"ce4bhi12rcd13ifvqfp0","pricing_plan_id":"cebpf4jnsgd1na2vs0mg"},{"bike_id":"d5de3a8b-9ecf-47f5-b579-ec173a4a8ff9","system_id":"levelo_inurba_marseille","lat":43.28465,"lon":5.38421,"is_reserved":false,"is_disabled":false,"rental_uris":{"android":"levelo://app?vid=d5de3a8b-9ecf-47f5-b579-ec173a4a8ff9","ios":"levelo://app?vid=d5de3a8b-9ecf-47f5-b579-ec173a4a8ff9"},"vehicle_type_id":"4","last_reported":1729354225,"current_range_meters":4400,"station_id":"ce4bh512rcd13ifvqe3g","pricing_plan_id":"cebpf4jnsgd1na2vs0mg"},{"bike_id":"a53b9bb2-ac9e-4118-9bd2-89fd710d471e","system_id":"levelo_inurba_marseille","lat":43.28415,"lon":5.34975,"is_reserved":false,"is_disabled":false,"rental_uris":{"android":"levelo://app?vid=a53b9bb2-ac9e-4118-9bd2-89fd710d471e","ios":"levelo://app?vid=a53b9bb2-ac9e-4118-9bd2-89fd710d471e"},"vehicle_type_id":"4","last_reported":1729354225,"current_range_meters":33200,"station_id":"ce4bhbh2rcd13ifvqepg","pricing_plan_id":"cebpf4jnsgd1na2vs0mg"},{"bike_id":"d8efc19c-2990-47f7-9dad-741cdea74e5b","system_id":"levelo_inurba_marseille","lat":43.28416,"lon":5.3499,"is_reserved":false,"is_disabled":false,"rental_uris":{"android":"levelo://app?vid=d8efc19c-2990-47f7-9dad-741cdea74e5b","ios":"levelo://app?vid=d8efc19c-2990-47f7-9dad-741cdea74e5b"},"vehicle_type_id":"4","last_reported":1729354225,"current_range_meters":38800,"station_id":"ce4bhbh2rcd13ifvqepg","pricing_plan_id":"cebpf4jnsgd1na2vs0mg"},{"bike_id":"329136aa-07f5-4f25-9455-64cdd338572b","system_id":"levelo_inurba_marseille","lat":43.28154,"lon":5.42644,"is_reserved":false,"is_disabled":false,"rental_uris":{"android":"levelo://app?vid=329136aa-07f5-4f25-9455-64cdd338572b","ios":"levelo://app?vid=329136aa-07f5-4f25-9455-64cdd338572b"},"vehicle_type_id":"4","last_reported":1729354225,"current_range_meters":38400,"station_id":"ce4bhnh2rcd13ifvqgug","pricing_plan_id":"cebpf4jnsgd1na2vs0mg"},{"bike_id":"62ac2d64-1b43-4cf5-bad5-8919280fd5f6","system_id":"levelo_inurba_marseille","lat":43.28041,"lon":5.36946,"is_reserved":false,"is_disabled":false,"rental_uris":{"android":"levelo://app?vid=62ac2d64-1b43-4cf5-bad5-8919280fd5f6","ios":"levelo://app?vid=62ac2d64-1b43-4cf5-bad5-8919280fd5f6"},"vehicle_type_id":"4","last_reported":1729354225,"current_range_meters":4000,"station_id":"ce4bha12rcd13ifvqef0","pricing_plan_id":"cebpf4jnsgd1na2vs0mg"},{"bike_id":"74fdfb54-1930-4756-a0b8-9d0566e42c09","system_id":"levelo_inurba_marseille","lat":43.32107,"lon":5.36772,"is_reserved":false,"is_disabled":false,"rental_uris":{"android":"levelo://app?vid=74fdfb54-1930-4756-a0b8-9d0566e42c09","ios":"levelo://app?vid=74fdfb54-1930-4756-a0b8-9d0566e42c09"},"vehicle_type_id":"4","last_reported":1729354225,"current_range_meters":30000,"station_id":"ce4bhrh2rcd13ifvqhug","pricing_plan_id":"cebpf4jnsgd1na2vs0mg"},{"bike_id":"b0a94a22-d5f7-4549-b1fe-18d08d34f60e","system_id":"levelo_inurba_marseille","lat":43.25004,"lon":5.38926,"is_reserved":false,"is_disabled":false,"rental_uris":{"android":"levelo://app?vid=b0a94a22-d5f7-4549-b1fe-18d08d34f60e","ios":"levelo://app?vid=b0a94a22-d5f7-4549-b1fe-18d08d34f60e"},"vehicle_type_id":"4","last_reported":1729354225,"current_range_meters":12400,"station_id":"ce4bhgp2rcd13ifvqfd0","pricing_plan_id":"cebpf4jnsgd1na2vs0mg"},{"bike_id":"9d40e33f-9e46-4f7b-a172-ac51f99950bd","system_id":"levelo_inurba_marseille","lat":43.24169,"lon":5.36407,"is_reserved":false,"is_disabled":false,"rental_uris":{"android":"levelo://app?vid=9d40e33f-9e46-4f7b-a172-ac51f99950bd","ios":"levelo://app?vid=9d40e33f-9e46-4f7b-a172-ac51f99950bd"},"vehicle_type_id":"4","last_reported":1729354225,"current_range_meters":16400,"station_id":"cpo36qri1sfpv3e86is0","pricing_plan_id":"cebpf4jnsgd1na2vs0mg"},{"bike_id":"373022c6-0c5e-4ab5-a096-0f5e1d5769b4","system_id":"levelo_inurba_marseille","lat":43.25202,"lon":5.37345,"is_reserved":false,"is_disabled":false,"rental_uris":{"android":"levelo://app?vid=373022c6-0c5e-4ab5-a096-0f5e1d5769b4","ios":"levelo://app?vid=373022c6-0c5e-4ab5-a096-0f5e1d5769b4"},"vehicle_type_id":"4","last_reported":1729354225,"current_range_meters":8000,"station_id":"","pricing_plan_id":"cebpf4jnsgd1na2vs0mg"},{"bike_id":"996b68ea-a3b8-48c9-9cf2-f66df1d63882","system_id":"levelo_inurba_marseille","lat":43.23193,"lon":5.35548,"is_reserved":false,"is_disabled":false,"rental_uris":{"android":"levelo://app?vid=996b68ea-a3b8-48c9-9cf2-f66df1d63882","ios":"levelo://app?vid=996b68ea-a3b8-48c9-9cf2-f66df1d63882"},"vehicle_type_id":"4","last_reported":1729354225,"current_range_meters":17200,"station_id":"ce4bhu92rcd13ifvqi70","pricing_plan_id":"cebpf4jnsgd1na2vs0mg"},{"bike_id":"b410a588-8c01-4abc-9107-e4106e6264ab","system_id":"levelo_inurba_marseille","lat":43.23965,"lon":5.36636,"is_reserved":false,"is_disabled":false,"rental_uris":{"android":"levelo://app?vid=b410a588-8c01-4abc-9107-e4106e6264ab","ios":"levelo://app?vid=b410a588-8c01-4abc-9107-e4106e6264ab"},"vehicle_type_id":"4","last_reported":1729354225,"current_range_meters":12400,"station_id":"ce4bhi12rcd13ifvqfp0","pricing_plan_id":"cebpf4jnsgd1na2vs0mg"},{"bike_id":"b9146419-893e-4896-b86c-0c5cb180b315","system_id":"levelo_inurba_marseille","lat":43.30136,"lon":5.39848,"is_reserved":false,"is_disabled":false,"rental_uris":{"android":"levelo://app?vid=b9146419-893e-4896-b86c-0c5cb180b315","ios":"levelo://app?vid=b9146419-893e-4896-b86c-0c5cb180b315"},"vehicle_type_id":"4","last_reported":1729354225,"current_range_meters":14400,"station_id":"ce4bh0h2rcd13ifvqd40","pricing_plan_id":"cebpf4jnsgd1na2vs0mg"},{"bike_id":"8b5462c5-482a-4fd2-880c-62753f825d94","system_id":"levelo_inurba_marseille","lat":43.28415,"lon":5.34979,"is_reserved":false,"is_disabled":false,"rental_uris":{"android":"levelo://app?vid=8b5462c5-482a-4fd2-880c-62753f825d94","ios":"levelo://app?vid=8b5462c5-482a-4fd2-880c-62753f825d94"},"vehicle_type_id":"4","last_reported":1729354225,"current_range_meters":16400,"station_id":"ce4bhbh2rcd13ifvqepg","pricing_plan_id":"cebpf4jnsgd1na2vs0mg"},{"bike_id":"b915f077-0d1a-43fc-86d7-d54c787b59a2","system_id":"levelo_inurba_marseille","lat":43.24291,"lon":5.43837,"is_reserved":false,"is_disabled":false,"rental_uris":{"android":"levelo://app?vid=b915f077-0d1a-43fc-86d7-d54c787b59a2","ios":"levelo://app?vid=b915f077-0d1a-43fc-86d7-d54c787b59a2"},"vehicle_type_id":"4","last_reported":1729354225,"current_range_meters":22000,"station_id":"","pricing_plan_id":"cebpf4jnsgd1na2vs0mg"},{"bike_id":"474d5c64-4154-4ae7-b02e-9a105d79c6fa","system_id":"levelo_inurba_marseille","lat":43.23967,"lon":5.36627,"is_reserved":false,"is_disabled":false,"rental_uris":{"android":"levelo://app?vid=474d5c64-4154-4ae7-b02e-9a105d79c6fa","ios":"levelo://app?vid=474d5c64-4154-4ae7-b02e-9a105d79c6fa"},"vehicle_type_id":"4","last_reported":1729354225,"current_range_meters":17200,"station_id":"ce4bhi12rcd13ifvqfp0","pricing_plan_id":"cebpf4jnsgd1na2vs0mg"},{"bike_id":"5ab28f64-b09d-4eab-afd6-5c5c3ef99438","system_id":"levelo_inurba_marseille","lat":43.27678,"lon":5.38873,"is_reserved":false,"is_disabled":false,"rental_uris":{"android":"levelo://app?vid=5ab28f64-b09d-4eab-afd6-5c5c3ef99438","ios":"levelo://app?vid=5ab28f64-b09d-4eab-afd6-5c5c3ef99438"},"vehicle_type_id":"4","last_reported":1729354225,"current_range_meters":36400,"station_id":"ce4bhi12rcd13ifvqfo0","pricing_plan_id":"cebpf4jnsgd1na2vs0mg"},{"bike_id":"e34d4a4f-9333-4b9a-8e59-c2e265d82b22","system_id":"levelo_inurba_marseille","lat":43.32478,"lon":5.36572,"is_reserved":false,"is_disabled":false,"rental_uris":{"android":"levelo://app?vid=e34d4a4f-9333-4b9a-8e59-c2e265d82b22","ios":"levelo://app?vid=e34d4a4f-9333-4b9a-8e59-c2e265d82b22"},"vehicle_type_id":"4","last_reported":1729354225,"current_range_meters":25600,"station_id":"ce4bhs12rcd13ifvqhvg","pricing_plan_id":"cebpf4jnsgd1na2vs0mg"},{"bike_id":"10043710-214a-4f72-9a40-465f82eb0b5f","system_id":"levelo_inurba_marseille","lat":43.26061,"lon":5.39401,"is_reserved":false,"is_disabled":false,"rental_uris":{"android":"levelo://app?vid=10043710-214a-4f72-9a40-465f82eb0b5f","ios":"levelo://app?vid=10043710-214a-4f72-9a40-465f82eb0b5f"},"vehicle_type_id":"4","last_reported":1729354225,"current_range_meters":11200,"station_id":"ce4bhh92rcd13ifvqfj0","pricing_plan_id":"cebpf4jnsgd1na2vs0mg"},{"bike_id":"741712f0-e2f7-44fa-9e96-3e9644514369","system_id":"levelo_inurba_marseille","lat":43.29851,"lon":5.36288,"is_reserved":false,"is_disabled":false,"rental_uris":{"android":"levelo://app?vid=741712f0-e2f7-44fa-9e96-3e9644514369","ios":"levelo://app?vid=741712f0-e2f7-44fa-9e96-3e9644514369"},"vehicle_type_id":"4","last_reported":1729354225,"current_range_meters":38800,"station_id":"ce4bgpp2rcd13ifvqc3g","pricing_plan_id":"cebpf4jnsgd1na2vs0mg"},{"bike_id":"cf8bfc6c-eae3-443f-b86f-69e936da0d62","system_id":"levelo_inurba_marseille","lat":43.31713,"lon":5.4371,"is_reserved":false,"is_disabled":false,"rental_uris":{"android":"levelo://app?vid=cf8bfc6c-eae3-443f-b86f-69e936da0d62","ios":"levelo://app?vid=cf8bfc6c-eae3-443f-b86f-69e936da0d62"},"vehicle_type_id":"4","last_reported":1729354225,"current_range_meters":34800,"station_id":"ce4bhp92rcd13ifvqhcg","pricing_plan_id":"cebpf4jnsgd1na2vs0mg"},{"bike_id":"640c5a9a-fa7a-4cb2-95d1-5526413d3030","system_id":"levelo_inurba_marseille","lat":43.31897,"lon":5.40744,"is_reserved":false,"is_disabled":false,"rental_uris":{"android":"levelo://app?vid=640c5a9a-fa7a-4cb2-95d1-5526413d3030","ios":"levelo://app?vid=640c5a9a-fa7a-4cb2-95d1-5526413d3030"},"vehicle_type_id":"4","last_reported":1729354225,"current_range_meters":29600,"station_id":"ce4bhq12rcd13ifvqhig","pricing_plan_id":"cebpf4jnsgd1na2vs0mg"},{"bike_id":"5069148c-ca0c-4a06-87ef-dd33099f2c5e","system_id":"levelo_inurba_marseille","lat":43.23196,"lon":5.35556,"is_reserved":false,"is_disabled":false,"rental_uris":{"android":"levelo://app?vid=5069148c-ca0c-4a06-87ef-dd33099f2c5e","ios":"levelo://app?vid=5069148c-ca0c-4a06-87ef-dd33099f2c5e"},"vehicle_type_id":"4","last_reported":1729354225,"current_range_meters":33600,"station_id":"ce4bhu92rcd13ifvqi70","pricing_plan_id":"cebpf4jnsgd1na2vs0mg"},{"bike_id":"93595e57-a154-4583-9e7f-62f81dac7f47","system_id":"levelo_inurba_marseille","lat":43.24967,"lon":5.40074,"is_reserved":false,"is_disabled":false,"rental_uris":{"android":"levelo://app?vid=93595e57-a154-4583-9e7f-62f81dac7f47","ios":"levelo://app?vid=93595e57-a154-4583-9e7f-62f81dac7f47"},"vehicle_type_id":"4","last_reported":1729354225,"current_range_meters":23200,"station_id":"","pricing_plan_id":"cebpf4jnsgd1na2vs0mg"},{"bike_id":"4eefa1ec-0d89-406a-9ba6-ab04341864b0","system_id":"levelo_inurba_marseille","lat":43.23199,"lon":5.35545,"is_reserved":false,"is_disabled":false,"rental_uris":{"android":"levelo://app?vid=4eefa1ec-0d89-406a-9ba6-ab04341864b0","ios":"levelo://app?vid=4eefa1ec-0d89-406a-9ba6-ab04341864b0"},"vehicle_type_id":"4","last_reported":1729354225,"current_range_meters":38800,"station_id":"ce4bhu92rcd13ifvqi70","pricing_plan_id":"cebpf4jnsgd1na2vs0mg"},{"bike_id":"3e9c5cbb-ad70-4e32-8d84-9f77e3e64c1b","system_id":"levelo_inurba_marseille","lat":43.28159,"lon":5.426461,"is_reserved":false,"is_disabled":false,"rental_uris":{"android":"levelo://app?vid=3e9c5cbb-ad70-4e32-8d84-9f77e3e64c1b","ios":"levelo://app?vid=3e9c5cbb-ad70-4e32-8d84-9f77e3e64c1b"},"vehicle_type_id":"4","last_reported":1729354225,"current_range_meters":10800,"station_id":"ce4bhnh2rcd13ifvqgug","pricing_plan_id":"cebpf4jnsgd1na2vs0mg"},{"bike_id":"cb2af64a-a726-4f7a-84e2-1e4a14a773db","system_id":"levelo_inurba_marseille","lat":43.26955,"lon":5.38635,"is_reserved":false,"is_disabled":false,"rental_uris":{"android":"levelo://app?vid=cb2af64a-a726-4f7a-84e2-1e4a14a773db","ios":"levelo://app?vid=cb2af64a-a726-4f7a-84e2-1e4a14a773db"},"vehicle_type_id":"4","last_reported":1729354225,"current_range_meters":8400,"station_id":"ce4bhh92rcd13ifvqfh0","pricing_plan_id":"cebpf4jnsgd1na2vs0mg"},{"bike_id":"c74f8d1c-63fc-48fd-9234-b5b526017357","system_id":"levelo_inurba_marseille","lat":43.23187,"lon":5.35567,"is_reserved":false,"is_disabled":false,"rental_uris":{"android":"levelo://app?vid=c74f8d1c-63fc-48fd-9234-b5b526017357","ios":"levelo://app?vid=c74f8d1c-63fc-48fd-9234-b5b526017357"},"vehicle_type_id":"4","last_reported":1729354225,"current_range_meters":17200,"station_id":"ce4bhu92rcd13ifvqi70","pricing_plan_id":"cebpf4jnsgd1na2vs0mg"},{"bike_id":"25a38485-5d2a-4cf7-945f-0c8a76ea9829","system_id":"levelo_inurba_marseille","lat":43.28422,"lon":5.34981,"is_reserved":false,"is_disabled":false,"rental_uris":{"android":"levelo://app?vid=25a38485-5d2a-4cf7-945f-0c8a76ea9829","ios":"levelo://app?vid=25a38485-5d2a-4cf7-945f-0c8a76ea9829"},"vehicle_type_id":"4","last_reported":1729354225,"current_range_meters":38800,"station_id":"ce4bhbh2rcd13ifvqepg","pricing_plan_id":"cebpf4jnsgd1na2vs0mg"},{"bike_id":"b777ec19-20bd-4c95-aea4-439cacf1e904","system_id":"levelo_inurba_marseille","lat":43.25092,"lon":5.39529,"is_reserved":false,"is_disabled":false,"rental_uris":{"android":"levelo://app?vid=b777ec19-20bd-4c95-aea4-439cacf1e904","ios":"levelo://app?vid=b777ec19-20bd-4c95-aea4-439cacf1e904"},"vehicle_type_id":"4","last_reported":1729354225,"current_range_meters":36000,"station_id":"ce4bhm12rcd13ifvqgkg","pricing_plan_id":"cebpf4jnsgd1na2vs0mg"},{"bike_id":"41869ff3-584d-4d29-a28d-8b126301d28c","system_id":"levelo_inurba_marseille","lat":43.23196,"lon":5.35553,"is_reserved":false,"is_disabled":false,"rental_uris":{"android":"levelo://app?vid=41869ff3-584d-4d29-a28d-8b126301d28c","ios":"levelo://app?vid=41869ff3-584d-4d29-a28d-8b126301d28c"},"vehicle_type_id":"4","last_reported":1729354225,"current_range_meters":23200,"station_id":"ce4bhu92rcd13ifvqi70","pricing_plan_id":"cebpf4jnsgd1na2vs0mg"},{"bike_id":"4035e4c7-ae21-48a8-bf57-8a8082c4c822","system_id":"levelo_inurba_marseille","lat":43.27424,"lon":5.3942,"is_reserved":false,"is_disabled":false,"rental_uris":{"android":"levelo://app?vid=4035e4c7-ae21-48a8-bf57-8a8082c4c822","ios":"levelo://app?vid=4035e4c7-ae21-48a8-bf57-8a8082c4c822"},"vehicle_type_id":"4","last_reported":1729354225,"current_range_meters":25200,"station_id":"ce4bhdp2rcd13ifvqf20","pricing_plan_id":"cebpf4jnsgd1na2vs0mg"},{"bike_id":"60e1dbec-cd76-4199-b682-57d8c9691bcf","system_id":"levelo_inurba_marseille","lat":43.24997,"lon":5.38937,"is_reserved":false,"is_disabled":false,"rental_uris":{"android":"levelo://app?vid=60e1dbec-cd76-4199-b682-57d8c9691bcf","ios":"levelo://app?vid=60e1dbec-cd76-4199-b682-57d8c9691bcf"},"vehicle_type_id":"4","last_reported":1729354225,"current_range_meters":2800,"station_id":"ce4bhgp2rcd13ifvqfd0","pricing_plan_id":"cebpf4jnsgd1na2vs0mg"},{"bike_id":"deac4754-e99a-439f-8188-0db65f20691e","system_id":"levelo_inurba_marseille","lat":43.23189,"lon":5.35561,"is_reserved":false,"is_disabled":false,"rental_uris":{"android":"levelo://app?vid=deac4754-e99a-439f-8188-0db65f20691e","ios":"levelo://app?vid=deac4754-e99a-439f-8188-0db65f20691e"},"vehicle_type_id":"4","last_reported":1729354225,"current_range_meters":34000,"station_id":"ce4bhu92rcd13ifvqi70","pricing_plan_id":"cebpf4jnsgd1na2vs0mg"},{"bike_id":"0cc42005-ab42-43c8-b0ae-6f193ad769ef","system_id":"levelo_inurba_marseille","lat":43.28859,"lon":5.35854,"is_reserved":false,"is_disabled":false,"rental_uris":{"android":"levelo://app?vid=0cc42005-ab42-43c8-b0ae-6f193ad769ef","ios":"levelo://app?vid=0cc42005-ab42-43c8-b0ae-6f193ad769ef"},"vehicle_type_id":"4","last_reported":1729354225,"current_range_meters":19600,"station_id":"ce4bhb12rcd13ifvqem0","pricing_plan_id":"cebpf4jnsgd1na2vs0mg"},{"bike_id":"d6709b6e-c855-466d-9f21-a115886a020f","system_id":"levelo_inurba_marseille","lat":43.24654,"lon":5.38905,"is_reserved":false,"is_disabled":false,"rental_uris":{"android":"levelo://app?vid=d6709b6e-c855-466d-9f21-a115886a020f","ios":"levelo://app?vid=d6709b6e-c855-466d-9f21-a115886a020f"},"vehicle_type_id":"4","last_reported":1729354225,"current_range_meters":26800,"station_id":"ce4bhg12rcd13ifvqf60","pricing_plan_id":"cebpf4jnsgd1na2vs0mg"},{"bike_id":"034e1a54-943d-4d7b-a3d7-502d620fc793","system_id":"levelo_inurba_marseille","lat":43.31225,"lon":5.36855,"is_reserved":false,"is_disabled":false,"rental_uris":{"android":"levelo://app?vid=034e1a54-943d-4d7b-a3d7-502d620fc793","ios":"levelo://app?vid=034e1a54-943d-4d7b-a3d7-502d620fc793"},"vehicle_type_id":"4","last_reported":1729354225,"current_range_meters":2000,"station_id":"ce4bgl92rcd13ifvqbq0","pricing_plan_id":"cebpf4jnsgd1na2vs0mg"},{"bike_id":"acefab1e-a852-4a3a-b3c3-81769f8dc48d","system_id":"levelo_inurba_marseille","lat":43.2408,"lon":5.37763,"is_reserved":false,"is_disabled":false,"rental_uris":{"android":"levelo://app?vid=acefab1e-a852-4a3a-b3c3-81769f8dc48d","ios":"levelo://app?vid=acefab1e-a852-4a3a-b3c3-81769f8dc48d"},"vehicle_type_id":"4","last_reported":1729354225,"current_range_meters":22800,"station_id":"ce4bhnp2rcd13ifvqgvg","pricing_plan_id":"cebpf4jnsgd1na2vs0mg"},{"bike_id":"00f518e8-e848-4bd8-ba98-67d53eeeb673","system_id":"levelo_inurba_marseille","lat":43.23963,"lon":5.36632,"is_reserved":false,"is_disabled":false,"rental_uris":{"android":"levelo://app?vid=00f518e8-e848-4bd8-ba98-67d53eeeb673","ios":"levelo://app?vid=00f518e8-e848-4bd8-ba98-67d53eeeb673"},"vehicle_type_id":"4","last_reported":1729354225,"current_range_meters":16400,"station_id":"ce4bhi12rcd13ifvqfp0","pricing_plan_id":"cebpf4jnsgd1na2vs0mg"},{"bike_id":"31ae3773-3dce-4b8f-8c49-ce0d71db38e0","system_id":"levelo_inurba_marseille","lat":43.28154,"lon":5.42639,"is_reserved":false,"is_disabled":false,"rental_uris":{"android":"levelo://app?vid=31ae3773-3dce-4b8f-8c49-ce0d71db38e0","ios":"levelo://app?vid=31ae3773-3dce-4b8f-8c49-ce0d71db38e0"},"vehicle_type_id":"4","last_reported":1729354225,"current_range_meters":27600,"station_id":"ce4bhnh2rcd13ifvqgug","pricing_plan_id":"cebpf4jnsgd1na2vs0mg"},{"bike_id":"35bb9783-383e-4489-b11a-326a4e68c226","system_id":"levelo_inurba_marseille","lat":43.28264,"lon":5.35077,"is_reserved":false,"is_disabled":false,"rental_uris":{"android":"levelo://app?vid=35bb9783-383e-4489-b11a-326a4e68c226","ios":"levelo://app?vid=35bb9783-383e-4489-b11a-326a4e68c226"},"vehicle_type_id":"4","last_reported":1729354225,"current_range_meters":14800,"station_id":"ce4bhbp2rcd13ifvqerg","pricing_plan_id":"cebpf4jnsgd1na2vs0mg"},{"bike_id":"d7f75d8e-858a-4414-bd07-03cb69c65a29","system_id":"levelo_inurba_marseille","lat":43.26567,"lon":5.39013,"is_reserved":false,"is_disabled":false,"rental_uris":{"android":"levelo://app?vid=d7f75d8e-858a-4414-bd07-03cb69c65a29","ios":"levelo://app?vid=d7f75d8e-858a-4414-bd07-03cb69c65a29"},"vehicle_type_id":"4","last_reported":1729354225,"current_range_meters":13600,"station_id":"ce4bhe12rcd13ifvqf30","pricing_plan_id":"cebpf4jnsgd1na2vs0mg"},{"bike_id":"f33bdb76-6b91-4925-8f4e-aefb017dfa02","system_id":"levelo_inurba_marseille","lat":43.29603,"lon":5.38107,"is_reserved":false,"is_disabled":false,"rental_uris":{"android":"levelo://app?vid=f33bdb76-6b91-4925-8f4e-aefb017dfa02","ios":"levelo://app?vid=f33bdb76-6b91-4925-8f4e-aefb017dfa02"},"vehicle_type_id":"4","last_reported":1729354225,"current_range_meters":32400,"station_id":"ce4bgl12rcd13ifvqbo0","pricing_plan_id":"cebpf4jnsgd1na2vs0mg"},{"bike_id":"b9559d0a-9fe7-458a-9eeb-e542d6db6a15","system_id":"levelo_inurba_marseille","lat":43.241881,"lon":5.39759,"is_reserved":false,"is_disabled":false,"rental_uris":{"android":"levelo://app?vid=b9559d0a-9fe7-458a-9eeb-e542d6db6a15","ios":"levelo://app?vid=b9559d0a-9fe7-458a-9eeb-e542d6db6a15"},"vehicle_type_id":"4","last_reported":1729354225,"current_range_meters":36800,"station_id":"ce4bhn12rcd13ifvqgpg","pricing_plan_id":"cebpf4jnsgd1na2vs0mg"},{"bike_id":"cde96c1b-9ef5-4fb3-8611-8fa04beaf897","system_id":"levelo_inurba_marseille","lat":43.26211,"lon":5.37441,"is_reserved":false,"is_disabled":false,"rental_uris":{"android":"levelo://app?vid=cde96c1b-9ef5-4fb3-8611-8fa04beaf897","ios":"levelo://app?vid=cde96c1b-9ef5-4fb3-8611-8fa04beaf897"},"vehicle_type_id":"4","last_reported":1729354225,"current_range_meters":31200,"station_id":"ce4bhgp2rcd13ifvqfc0","pricing_plan_id":"cebpf4jnsgd1na2vs0mg"},{"bike_id":"05596c44-26c6-451e-b002-ae8c82108903","system_id":"levelo_inurba_marseille","lat":43.303253,"lon":5.37924,"is_reserved":false,"is_disabled":false,"rental_uris":{"android":"levelo://app?vid=05596c44-26c6-451e-b002-ae8c82108903","ios":"levelo://app?vid=05596c44-26c6-451e-b002-ae8c82108903"},"vehicle_type_id":"4","last_reported":1729354225,"current_range_meters":24400,"station_id":"ce4bgup2rcd13ifvqcn0","pricing_plan_id":"cebpf4jnsgd1na2vs0mg"},{"bike_id":"fc5a8a0a-7f12-4f35-8477-0754793fa104","system_id":"levelo_inurba_marseille","lat":43.29975,"lon":5.37182,"is_reserved":false,"is_disabled":false,"rental_uris":{"android":"levelo://app?vid=fc5a8a0a-7f12-4f35-8477-0754793fa104","ios":"levelo://app?vid=fc5a8a0a-7f12-4f35-8477-0754793fa104"},"vehicle_type_id":"4","last_reported":1729354225,"current_range_meters":25600,"station_id":"ce4bgr92rcd13ifvqc7g","pricing_plan_id":"cebpf4jnsgd1na2vs0mg"},{"bike_id":"4d066589-d7f7-444d-87bf-eb705d2285d0","system_id":"levelo_inurba_marseille","lat":43.23199,"lon":5.3556,"is_reserved":false,"is_disabled":false,"rental_uris":{"android":"levelo://app?vid=4d066589-d7f7-444d-87bf-eb705d2285d0","ios":"levelo://app?vid=4d066589-d7f7-444d-87bf-eb705d2285d0"},"vehicle_type_id":"4","last_reported":1729354225,"current_range_meters":25600,"station_id":"ce4bhu92rcd13ifvqi70","pricing_plan_id":"cebpf4jnsgd1na2vs0mg"},{"bike_id":"661866b7-e5df-4fe9-854f-5779b7d54200","system_id":"levelo_inurba_marseille","lat":43.2558,"lon":5.38241,"is_reserved":false,"is_disabled":false,"rental_uris":{"android":"levelo://app?vid=661866b7-e5df-4fe9-854f-5779b7d54200","ios":"levelo://app?vid=661866b7-e5df-4fe9-854f-5779b7d54200"},"vehicle_type_id":"4","last_reported":1729354225,"current_range_meters":38400,"station_id":"ce4bhih2rcd13ifvqfs0","pricing_plan_id":"cebpf4jnsgd1na2vs0mg"},{"bike_id":"76f780b4-e8c0-4fa6-ac11-d86ac55e35ea","system_id":"levelo_inurba_marseille","lat":43.30801,"lon":5.38142,"is_reserved":false,"is_disabled":false,"rental_uris":{"android":"levelo://app?vid=76f780b4-e8c0-4fa6-ac11-d86ac55e35ea","ios":"levelo://app?vid=76f780b4-e8c0-4fa6-ac11-d86ac55e35ea"},"vehicle_type_id":"4","last_reported":1729354225,"current_range_meters":28000,"station_id":"ce4bgt12rcd13ifvqce0","pricing_plan_id":"cebpf4jnsgd1na2vs0mg"},{"bike_id":"4b91f4fc-09ad-4172-a3f5-35430ada7017","system_id":"levelo_inurba_marseille","lat":43.32109,"lon":5.36776,"is_reserved":false,"is_disabled":false,"rental_uris":{"android":"levelo://app?vid=4b91f4fc-09ad-4172-a3f5-35430ada7017","ios":"levelo://app?vid=4b91f4fc-09ad-4172-a3f5-35430ada7017"},"vehicle_type_id":"4","last_reported":1729354225,"current_range_meters":36000,"station_id":"ce4bhrh2rcd13ifvqhug","pricing_plan_id":"cebpf4jnsgd1na2vs0mg"},{"bike_id":"304276c9-eff5-474f-ae17-353fe971b0b6","system_id":"levelo_inurba_marseille","lat":43.27969,"lon":5.38743,"is_reserved":false,"is_disabled":false,"rental_uris":{"android":"levelo://app?vid=304276c9-eff5-474f-ae17-353fe971b0b6","ios":"levelo://app?vid=304276c9-eff5-474f-ae17-353fe971b0b6"},"vehicle_type_id":"4","last_reported":1729354225,"current_range_meters":6800,"station_id":"ce4bhg12rcd13ifvqf80","pricing_plan_id":"cebpf4jnsgd1na2vs0mg"},{"bike_id":"c9e24e4f-155c-4f5b-9350-a0989392251c","system_id":"levelo_inurba_marseille","lat":43.31719,"lon":5.42403,"is_reserved":false,"is_disabled":false,"rental_uris":{"android":"levelo://app?vid=c9e24e4f-155c-4f5b-9350-a0989392251c","ios":"levelo://app?vid=c9e24e4f-155c-4f5b-9350-a0989392251c"},"vehicle_type_id":"4","last_reported":1729354225,"current_range_meters":19600,"station_id":"ce4bhp92rcd13ifvqhbg","pricing_plan_id":"cebpf4jnsgd1na2vs0mg"},{"bike_id":"b6c5e7ba-c7d7-4f79-9c1c-2151cff0a1ae","system_id":"levelo_inurba_marseille","lat":43.28157,"lon":5.42643,"is_reserved":false,"is_disabled":false,"rental_uris":{"android":"levelo://app?vid=b6c5e7ba-c7d7-4f79-9c1c-2151cff0a1ae","ios":"levelo://app?vid=b6c5e7ba-c7d7-4f79-9c1c-2151cff0a1ae"},"vehicle_type_id":"4","last_reported":1729354225,"current_range_meters":29600,"station_id":"ce4bhnh2rcd13ifvqgug","pricing_plan_id":"cebpf4jnsgd1na2vs0mg"},{"bike_id":"fc503919-be51-43c4-a9a3-ac8ad253290f","system_id":"levelo_inurba_marseille","lat":43.31706,"lon":5.3775,"is_reserved":false,"is_disabled":false,"rental_uris":{"android":"levelo://app?vid=fc503919-be51-43c4-a9a3-ac8ad253290f","ios":"levelo://app?vid=fc503919-be51-43c4-a9a3-ac8ad253290f"},"vehicle_type_id":"4","last_reported":1729354225,"current_range_meters":16400,"station_id":"ce4bgth2rcd13ifvqch0","pricing_plan_id":"cebpf4jnsgd1na2vs0mg"},{"bike_id":"f50638f4-9b4f-4943-84e5-3d0aa7fcd4f4","system_id":"levelo_inurba_marseille","lat":43.32139,"lon":5.37465,"is_reserved":false,"is_disabled":false,"rental_uris":{"android":"levelo://app?vid=f50638f4-9b4f-4943-84e5-3d0aa7fcd4f4","ios":"levelo://app?vid=f50638f4-9b4f-4943-84e5-3d0aa7fcd4f4"},"vehicle_type_id":"4","last_reported":1729354225,"current_range_meters":36000,"station_id":"","pricing_plan_id":"cebpf4jnsgd1na2vs0mg"},{"bike_id":"bfd312f9-53a9-4e00-938c-841424c0f351","system_id":"levelo_inurba_marseille","lat":43.28859,"lon":5.35857,"is_reserved":false,"is_disabled":false,"rental_uris":{"android":"levelo://app?vid=bfd312f9-53a9-4e00-938c-841424c0f351","ios":"levelo://app?vid=bfd312f9-53a9-4e00-938c-841424c0f351"},"vehicle_type_id":"4","last_reported":1729354225,"current_range_meters":10800,"station_id":"ce4bhb12rcd13ifvqem0","pricing_plan_id":"cebpf4jnsgd1na2vs0mg"},