{"last_updated":1699823125,"ttl":30,"version":"2.2","data":{"bikes":[{"bike_id":"1a38e6de-b4eb-410c-a6e8-b5cb0d336d07","system_id":"levelo_inurba_marseille","lat":43.312239,"lon":5.368562,"is_reserved":false,"is_disabled":false,"rental_uris":{"android":"levelo://app?vid=1a38e6de-b4eb-410c-a6e8-b5cb0d336d07","ios":"levelo://app?vid=1a38e6de-b4eb-410c-a6e8-b5cb0d336d07"},"vehicle_type_id":"4","last_reported":1699823125,"current_range_meters":5200,"station_id":"ce4bgl92rcd13ifvqbq0","pricing_plan_id":"free"},{"bike_id":"72400630-41d1-430a-9d82-8ca429c0f94c","system_id":"levelo_inurba_marseille","lat":43.309076,"lon":5.368465,"is_reserved":false,"is_disabled":false,"rental_uris":{"android":"levelo://app?vid=72400630-41d1-430a-9d82-8ca429c0f94c","ios":"levelo://app?vid=72400630-41d1-430a-9d82-8ca429c0f94c"},"vehicle_type_id":"4","last_reported":1699823125,"current_range_meters":27600,"station_id":"ce4bgn92rcd13ifvqbvg","pricing_plan_id":"free"},{"bike_id":"d439c5eb-75db-4b72-a8ee-6b5dd0eb1c9f","system_id":"levelo_inurba_marseille","lat":43.314811,"lon":5.373103,"is_reserved":false,"is_disabled":false,"rental_uris":{"android":"levelo://app?vid=d439c5eb-75db-4b72-a8ee-6b5dd0eb1c9f","ios":"levelo://app?vid=d439c5eb-75db-4b72-a8ee-6b5dd0eb1c9f"},"vehicle_type_id":"4","last_reported":1699823125,"current_range_meters":2800,"station_id":"ce4bgt12rcd13ifvqcd0","pricing_plan_id":"free"},{"bike_id":"7e880a81-e5d4-40c8-97e9-61b383c6b4e9","system_id":"levelo_inurba_marseille","lat":43.314811,"lon":5.373103,"is_reserved":false,"is_disabled":false,"rental_uris":{"android":"levelo://app?vid=7e880a81-e5d4-40c8-97e9-61b383c6b4e9","ios":"levelo://app?vid=7e880a81-e5d4-40c8-97e9-61b383c6b4e9"},"vehicle_type_id":"4","last_reported":1699823125,"current_range_meters":30000,"station_id":"ce4bgt12rcd13ifvqcd0","pricing_plan_id":"free"},{"bike_id":"99e86685-13e6-4242-abb5-481ed0c1aed5","system_id":"levelo_inurba_marseille","lat":43.30898,"lon":5.371919,"is_reserved":false,"is_disabled":false,"rental_uris":{"android":"levelo://app?vid=99e86685-13e6-4242-abb5-481ed0c1aed5","ios":"levelo://app?vid=99e86685-13e6-4242-abb5-481ed0c1aed5"},"vehicle_type_id":"4","last_reported":1699823125,"current_range_meters":25600,"station_id":"ce4bguh2rcd13ifvqckg","pricing_plan_id":"free"},{"bike_id":"76b359af-c20b-45d0-a1df-78f4c9a6553a","system_id":"levelo_inurba_marseille","lat":43.30536,"lon":5.36529,"is_reserved":false,"is_disabled":false,"rental_uris":{"android":"levelo://app?vid=76b359af-c20b-45d0-a1df-78f4c9a6553a","ios":"levelo://app?vid=76b359af-c20b-45d0-a1df-78f4c9a6553a"},"vehicle_type_id":"4","last_reported":1699823125,"current_range_meters":13200,"station_id":"ce4bgs12rcd13ifvqcag","pricing_plan_id":"free"},{"bike_id":"786935dc-de29-4830-81dc-3de65a5ddca7","system_id":"levelo_inurba_marseille","lat":43.31118,"lon":5.37762,"is_reserved":false,"is_disabled":false,"rental_uris":{"android":"levelo://app?vid=786935dc-de29-4830-81dc-3de65a5ddca7","ios":"levelo://app?vid=786935dc-de29-4830-81dc-3de65a5ddca7"},"vehicle_type_id":"4","last_reported":1699823125,"current_range_meters":2000,"station_id":"ce4bgt92rcd13ifvqcg0","pricing_plan_id":"free"},{"bike_id":"94e79493-8c4c-4e07-a39c-cd707957cdea","system_id":"levelo_inurba_marseille","lat":43.307945,"lon":5.376487,"is_reserved":false,"is_disabled":false,"rental_uris":{"android":"levelo://app?vid=94e79493-8c4c-4e07-a39c-cd707957cdea","ios":"levelo://app?vid=94e79493-8c4c-4e07-a39c-cd707957cdea"},"vehicle_type_id":"4","last_reported":1699823125,"current_range_meters":24400,"station_id":"ce4bgv92rcd13ifvqcq0","pricing_plan_id":"free"},{"bike_id":"dc4d17e7-95f2-4d89-b47b-8eafd85d4d27","system_id":"levelo_inurba_marseille","lat":43.307945,"lon":5.376487,"is_reserved":false,"is_disabled":false,"rental_uris":{"android":"levelo://app?vid=dc4d17e7-95f2-4d89-b47b-8eafd85d4d27","ios":"levelo://app?vid=dc4d17e7-95f2-4d89-b47b-8eafd85d4d27"},"vehicle_type_id":"4","last_reported":1699823125,"current_range_meters":11200,"station_id":"ce4bgv92rcd13ifvqcq0","pricing_plan_id":"free"},{"bike_id":"6469169e-b572-4d4c-93c7-5e09b70b6fd1","system_id":"levelo_inurba_marseille","lat":43.307945,"lon":5.376487,"is_reserved":false,"is_disabled":false,"rental_uris":{"android":"levelo://app?vid=6469169e-b572-4d4c-93c7-5e09b70b6fd1","ios":"levelo://app?vid=6469169e-b572-4d4c-93c7-5e09b70b6fd1"},"vehicle_type_id":"4","last_reported":1699823125,"current_range_meters":4000,"station_id":"ce4bgv92rcd13ifvqcq0","pricing_plan_id":"free"},{"bike_id":"57053367-5328-4d78-8951-737f56b37ed9","system_id":"levelo_inurba_marseille","lat":43.319924,"lon":5.373389,"is_reserved":false,"is_disabled":false,"rental_uris":{"android":"levelo://app?vid=57053367-5328-4d78-8951-737f56b37ed9","ios":"levelo://app?vid=57053367-5328-4d78-8951-737f56b37ed9"},"vehicle_type_id":"4","last_reported":1699823125,"current_range_meters":13600,"station_id":"","pricing_plan_id":"free"},{"bike_id":"9159ac0f-cfcd-4036-88ad-8a6cce2504cd","system_id":"levelo_inurba_marseille","lat":43.302975,"lon":5.369018,"is_reserved":false,"is_disabled":false,"rental_uris":{"android":"levelo://app?vid=9159ac0f-cfcd-4036-88ad-8a6cce2504cd","ios":"levelo://app?vid=9159ac0f-cfcd-4036-88ad-8a6cce2504cd"},"vehicle_type_id":"4","last_reported":1699823125,"current_range_meters":22000,"station_id":"ce4bgqh2rcd13ifvqc5g","pricing_plan_id":"free"},{"bike_id":"0fffc26d-ad28-4d18-8b7a-692662a0aded","system_id":"levelo_inurba_marseille","lat":43.315313,"lon":5.3804,"is_reserved":false,"is_disabled":false,"rental_uris":{"android":"levelo://app?vid=0fffc26d-ad28-4d18-8b7a-692662a0aded","ios":"levelo://app?vid=0fffc26d-ad28-4d18-8b7a-692662a0aded"},"vehicle_type_id":"4","last_reported":1699823125,"current_range_meters":4800,"station_id":"ce4bhsp2rcd13ifvqi50","pricing_plan_id":"free"},{"bike_id":"e0674c52-253d-4f5e-a7ef-abe85625cb41","system_id":"levelo_inurba_marseille","lat":43.301939,"lon":5.366286,"is_reserved":false,"is_disabled":false,"rental_uris":{"android":"levelo://app?vid=e0674c52-253d-4f5e-a7ef-abe85625cb41","ios":"levelo://app?vid=e0674c52-253d-4f5e-a7ef-abe85625cb41"},"vehicle_type_id":"4","last_reported":1699823125,"current_range_meters":26000,"station_id":"ce4bgrh2rcd13ifvqc8g","pricing_plan_id":"free"},{"bike_id":"a26a672c-8f86-40f5-9e8e-9856cf399a24","system_id":"levelo_inurba_marseille","lat":43.308012,"lon":5.381511,"is_reserved":false,"is_disabled":false,"rental_uris":{"android":"levelo://app?vid=a26a672c-8f86-40f5-9e8e-9856cf399a24","ios":"levelo://app?vid=a26a672c-8f86-40f5-9e8e-9856cf399a24"},"vehicle_type_id":"4","last_reported":1699823125,"current_range_meters":21200,"station_id":"ce4bgt12rcd13ifvqce0","pricing_plan_id":"free"},{"bike_id":"68e1e078-f9f6-4102-9fda-4edb81a96347","system_id":"levelo_inurba_marseille","lat":43.304606,"lon":5.379026,"is_reserved":false,"is_disabled":false,"rental_uris":{"android":"levelo://app?vid=68e1e078-f9f6-4102-9fda-4edb81a96347","ios":"levelo://app?vid=68e1e078-f9f6-4102-9fda-4edb81a96347"},"vehicle_type_id":"4","last_reported":1699823125,"current_range_meters":0,"station_id":"ce4bgup2rcd13ifvqcn0","pricing_plan_id":"free"},{"bike_id":"3fb4984a-6013-4ebb-8773-c308071699ec","system_id":"levelo_inurba_marseille","lat":43.32474,"lon":5.36559,"is_reserved":false,"is_disabled":false,"rental_uris":{"android":"levelo://app?vid=3fb4984a-6013-4ebb-8773-c308071699ec","ios":"levelo://app?vid=3fb4984a-6013-4ebb-8773-c308071699ec"},"vehicle_type_id":"4","last_reported":1699823125,"current_range_meters":20000,"station_id":"ce4bhs12rcd13ifvqhvg","pricing_plan_id":"free"},{"bike_id":"3819deec-fe3d-41c7-8346-2b107cb07054","system_id":"levelo_inurba_marseille","lat":43.315237,"lon":5.383797,"is_reserved":false,"is_disabled":false,"rental_uris":{"android":"levelo://app?vid=3819deec-fe3d-41c7-8346-2b107cb07054","ios":"levelo://app?vid=3819deec-fe3d-41c7-8346-2b107cb07054"},"vehicle_type_id":"4","last_reported":1699823125,"current_range_meters":0,"station_id":"","pricing_plan_id":"free"},{"bike_id":"69166d53-ec8e-4a0a-864c-7a29f7650dd8","system_id":"levelo_inurba_marseille","lat":43.321099,"lon":5.380065,"is_reserved":false,"is_disabled":false,"rental_uris":{"android":"levelo://app?vid=69166d53-ec8e-4a0a-864c-7a29f7650dd8","ios":"levelo://app?vid=69166d53-ec8e-4a0a-864c-7a29f7650dd8"},"vehicle_type_id":"4","last_reported":1699823125,"current_range_meters":12800,"station_id":"","pricing_plan_id":"free"},{"bike_id":"cbc1afb7-f33e-480e-bd23-3a85578bc30d","system_id":"levelo_inurba_marseille","lat":43.3199,"lon":5.38156,"is_reserved":false,"is_disabled":false,"rental_uris":{"android":"levelo://app?vid=cbc1afb7-f33e-480e-bd23-3a85578bc30d","ios":"levelo://app?vid=cbc1afb7-f33e-480e-bd23-3a85578bc30d"},"vehicle_type_id":"4","last_reported":1699823125,"current_range_meters":16800,"station_id":"ce4bhr12rcd13ifvqhpg","pricing_plan_id":"free"},{"bike_id":"13d78257-2559-4a10-97b8-aaa7032179bc","system_id":"levelo_inurba_marseille","lat":43.319975,"lon":5.381519,"is_reserved":false,"is_disabled":false,"rental_uris":{"android":"levelo://app?vid=13d78257-2559-4a10-97b8-aaa7032179bc","ios":"levelo://app?vid=13d78257-2559-4a10-97b8-aaa7032179bc"},"vehicle_type_id":"4","last_reported":1699823125,"current_range_meters":0,"station_id":"","pricing_plan_id":"free"},{"bike_id":"3ebc842a-cb95-4cc1-b823-82514d1705d9","system_id":"levelo_inurba_marseille","lat":43.319966,"lon":5.381545,"is_reserved":false,"is_disabled":false,"rental_uris":{"android":"levelo://app?vid=3ebc842a-cb95-4cc1-b823-82514d1705d9","ios":"levelo://app?vid=3ebc842a-cb95-4cc1-b823-82514d1705d9"},"vehicle_type_id":"4","last_reported":1699823125,"current_range_meters":4800,"station_id":"ce4bhr12rcd13ifvqhpg","pricing_plan_id":"free"},{"bike_id":"a26541db-e513-42d2-b3a4-8fe4db1c97c5","system_id":"levelo_inurba_marseille","lat":43.31991,"lon":5.38169,"is_reserved":false,"is_disabled":false,"rental_uris":{"android":"levelo://app?vid=a26541db-e513-42d2-b3a4-8fe4db1c97c5","ios":"levelo://app?vid=a26541db-e513-42d2-b3a4-8fe4db1c97c5"},"vehicle_type_id":"4","last_reported":1699823125,"current_range_meters":8800,"station_id":"ce4bhr12rcd13ifvqhpg","pricing_plan_id":"free"},{"bike_id":"a38ad7eb-f3a5-4222-9c1e-04f49ae1337a","system_id":"levelo_inurba_marseille","lat":43.32001,"lon":5.38166,"is_reserved":false,"is_disabled":false,"rental_uris":{"android":"levelo://app?vid=a38ad7eb-f3a5-4222-9c1e-04f49ae1337a","ios":"levelo://app?vid=a38ad7eb-f3a5-4222-9c1e-04f49ae1337a"},"vehicle_type_id":"4","last_reported":1699823125,"current_range_meters":21200,"station_id":"ce4bhr12rcd13ifvqhpg","pricing_plan_id":"free"},{"bike_id":"53d3f7c6-61b5-4687-b899-0009dde1d985","system_id":"levelo_inurba_marseille","lat":43.32606,"lon":5.37506,"is_reserved":false,"is_disabled":false,"rental_uris":{"android":"levelo://app?vid=53d3f7c6-61b5-4687-b899-0009dde1d985","ios":"levelo://app?vid=53d3f7c6-61b5-4687-b899-0009dde1d985"},"vehicle_type_id":"4","last_reported":1699823125,"current_range_meters":5200,"station_id":"","pricing_plan_id":"free"},{"bike_id":"90a6cda6-ce5c-4e65-bd16-d0f2f495fa60","system_id":"levelo_inurba_marseille","lat":43.32688,"lon":5.36178,"is_reserved":false,"is_disabled":false,"rental_uris":{"android":"levelo://app?vid=90a6cda6-ce5c-4e65-bd16-d0f2f495fa60","ios":"levelo://app?vid=90a6cda6-ce5c-4e65-bd16-d0f2f495fa60"},"vehicle_type_id":"4","last_reported":1699823125,"current_range_meters":17600,"station_id":"","pricing_plan_id":"free"},{"bike_id":"74856dc7-2a28-47f1-aee2-c130d267f007","system_id":"levelo_inurba_marseille","lat":43.31163,"lon":5.38709,"is_reserved":false,"is_disabled":false,"rental_uris":{"android":"levelo://app?vid=74856dc7-2a28-47f1-aee2-c130d267f007","ios":"levelo://app?vid=74856dc7-2a28-47f1-aee2-c130d267f007"},"vehicle_type_id":"4","last_reported":1699823125,"current_range_meters":2400,"station_id":"ce4bgv12rcd13ifvqcp0","pricing_plan_id":"free"},{"bike_id":"8950f55a-e75d-4fac-9a7c-f529bc0580a5","system_id":"levelo_inurba_marseille","lat":43.320464,"lon":5.384144,"is_reserved":false,"is_disabled":false,"rental_uris":{"android":"levelo://app?vid=8950f55a-e75d-4fac-9a7c-f529bc0580a5","ios":"levelo://app?vid=8950f55a-e75d-4fac-9a7c-f529bc0580a5"},"vehicle_type_id":"4","last_reported":1699823125,"current_range_meters":8000,"station_id":"","pricing_plan_id":"free"},{"bike_id":"b55171a9-64bf-4107-ac3a-e3ce88edd6e8","system_id":"levelo_inurba_marseille","lat":43.322872,"lon":5.382756,"is_reserved":false,"is_disabled":false,"rental_uris":{"android":"levelo://app?vid=b55171a9-64bf-4107-ac3a-e3ce88edd6e8","ios":"levelo://app?vid=b55171a9-64bf-4107-ac3a-e3ce88edd6e8"},"vehicle_type_id":"4","last_reported":1699823125,"current_range_meters":31200,"station_id":"ce4bhr12rcd13ifvqhqg","pricing_plan_id":"free"},{"bike_id":"c8c4f75f-0852-499c-a4b4-1b04b6f5dd47","system_id":"levelo_inurba_marseille","lat":43.322872,"lon":5.382756,"is_reserved":false,"is_disabled":false,"rental_uris":{"android":"levelo://app?vid=c8c4f75f-0852-499c-a4b4-1b04b6f5dd47","ios":"levelo://app?vid=c8c4f75f-0852-499c-a4b4-1b04b6f5dd47"},"vehicle_type_id":"4","last_reported":1699823125,"current_range_meters":18400,"station_id":"ce4bhr12rcd13ifvqhqg","pricing_plan_id":"free"},{"bike_id":"ae335c2e-bf77-4e54-90f9-eb8725aa58bf","system_id":"levelo_inurba_marseille","lat":43.328246,"lon":5.366947,"is_reserved":false,"is_disabled":false,"rental_uris":{"android":"levelo://app?vid=ae335c2e-bf77-4e54-90f9-eb8725aa58bf","ios":"levelo://app?vid=ae335c2e-bf77-4e54-90f9-eb8725aa58bf"},"vehicle_type_id":"4","last_reported":1699823125,"current_range_meters":18000,"station_id":"ce4bhs92rcd13ifvqi0g","pricing_plan_id":"free"},{"bike_id":"8ea3526a-c988-40ce-bc15-be0b171d079a","system_id":"levelo_inurba_marseille","lat":43.32829,"lon":5.36683,"is_reserved":false,"is_disabled":false,"rental_uris":{"android":"levelo://app?vid=8ea3526a-c988-40ce-bc15-be0b171d079a","ios":"levelo://app?vid=8ea3526a-c988-40ce-bc15-be0b171d079a"},"vehicle_type_id":"4","last_reported":1699823125,"current_range_meters":800,"station_id":"ce4bhs92rcd13ifvqi0g","pricing_plan_id":"free"},{"bike_id":"0bcc107b-5afb-45ba-8703-7708a9cd9772","system_id":"levelo_inurba_marseille","lat":43.297163,"lon":5.365866,"is_reserved":false,"is_disabled":false,"rental_uris":{"android":"levelo://app?vid=0bcc107b-5afb-45ba-8703-7708a9cd9772","ios":"levelo://app?vid=0bcc107b-5afb-45ba-8703-7708a9cd9772"},"vehicle_type_id":"4","last_reported":1699823125,"current_range_meters":28800,"station_id":"ce4bgn12rcd13ifvqbt0","pricing_plan_id":"free"},{"bike_id":"9caec048-a3aa-428b-9d1e-66ad6c2d8e58","system_id":"levelo_inurba_marseille","lat":43.32146,"lon":5.38605,"is_reserved":false,"is_disabled":false,"rental_uris":{"android":"levelo://app?vid=9caec048-a3aa-428b-9d1e-66ad6c2d8e58","ios":"levelo://app?vid=9caec048-a3aa-428b-9d1e-66ad6c2d8e58"},"vehicle_type_id":"4","last_reported":1699823125,"current_range_meters":19600,"station_id":"","pricing_plan_id":"free"},{"bike_id":"f0812d0f-256a-478f-9681-2e0e9d074993","system_id":"levelo_inurba_marseille","lat":43.29601,"lon":5.36819,"is_reserved":false,"is_disabled":false,"rental_uris":{"android":"levelo://app?vid=f0812d0f-256a-478f-9681-2e0e9d074993","ios":"levelo://app?vid=f0812d0f-256a-478f-9681-2e0e9d074993"},"vehicle_type_id":"4","last_reported":1699823125,"current_range_meters":26400,"station_id":"","pricing_plan_id":"free"},{"bike_id":"d447991a-59b4-4778-a190-7d2b0920a414","system_id":"levelo_inurba_marseille","lat":43.32215,"lon":5.38613,"is_reserved":false,"is_disabled":false,"rental_uris":{"android":"levelo://app?vid=d447991a-59b4-4778-a190-7d2b0920a414","ios":"levelo://app?vid=d447991a-59b4-4778-a190-7d2b0920a414"},"vehicle_type_id":"4","last_reported":1699823125,"current_range_meters":15600,"station_id":"","pricing_plan_id":"free"},{"bike_id":"408e1bba-ac1b-479c-ad30-32026784c873","system_id":"levelo_inurba_marseille","lat":43.2966,"lon":5.37463,"is_reserved":false,"is_disabled":false,"rental_uris":{"android":"levelo://app?vid=408e1bba-ac1b-479c-ad30-32026784c873","ios":"levelo://app?vid=408e1bba-ac1b-479c-ad30-32026784c873"},"vehicle_type_id":"4","last_reported":1699823125,"current_range_meters":10400,"station_id":"","pricing_plan_id":"free"},{"bike_id":"16b2af9c-867e-41ac-be82-1e66b9b65b60","system_id":"levelo_inurba_marseille","lat":43.30947,"lon":5.390367,"is_reserved":false,"is_disabled":false,"rental_uris":{"android":"levelo://app?vid=16b2af9c-867e-41ac-be82-1e66b9b65b60","ios":"levelo://app?vid=16b2af9c-867e-41ac-be82-1e66b9b65b60"},"vehicle_type_id":"4","last_reported":1699823125,"current_range_meters":30000,"station_id":"ce4bgup2rcd13ifvqco0","pricing_plan_id":"free"},{"bike_id":"33ad3c0f-66bd-47e3-9410-0e87927f2751","system_id":"levelo_inurba_marseille","lat":43.309589,"lon":5.390258,"is_reserved":false,"is_disabled":false,"rental_uris":{"android":"levelo://app?vid=33ad3c0f-66bd-47e3-9410-0e87927f2751","ios":"levelo://app?vid=33ad3c0f-66bd-47e3-9410-0e87927f2751"},"vehicle_type_id":"4","last_reported":1699823125,"current_range_meters":19200,"station_id":"ce4bgup2rcd13ifvqco0","pricing_plan_id":"free"},{"bike_id":"1651f8c9-0d65-42be-94b1-12a534f58ffa","system_id":"levelo_inurba_marseille","lat":43.30958,"lon":5.39055,"is_reserved":false,"is_disabled":false,"rental_uris":{"android":"levelo://app?vid=1651f8c9-0d65-42be-94b1-12a534f58ffa","ios":"levelo://app?vid=1651f8c9-0d65-42be-94b1-12a534f58ffa"},"vehicle_type_id":"4","last_reported":1699823125,"current_range_meters":15600,"station_id":"ce4bgup2rcd13ifvqco0","pricing_plan_id":"free"},{"bike_id":"feff7d8e-9456-4b4b-b917-4f91bb23e023","system_id":"levelo_inurba_marseille","lat":43.3175,"lon":5.39022,"is_reserved":false,"is_disabled":false,"rental_uris":{"android":"levelo://app?vid=feff7d8e-9456-4b4b-b917-4f91bb23e023","ios":"levelo://app?vid=feff7d8e-9456-4b4b-b917-4f91bb23e023"},"vehicle_type_id":"4","last_reported":1699823125,"current_range_meters":13600,"station_id":"","pricing_plan_id":"free"},{"bike_id":"25e9ad11-2f09-46b8-a1d8-ae6074d48f39","system_id":"levelo_inurba_marseille","lat":43.3176,"lon":5.39019,"is_reserved":false,"is_disabled":false,"rental_uris":{"android":"levelo://app?vid=25e9ad11-2f09-46b8-a1d8-ae6074d48f39","ios":"levelo://app?vid=25e9ad11-2f09-46b8-a1d8-ae6074d48f39"},"vehicle_type_id":"4","last_reported":1699823125,"current_range_meters":0,"station_id":"ce4bhqp2rcd13ifvqhng","pricing_plan_id":"free"},{"bike_id":"7005197d-6f66-4370-9b35-2b46d4d24ef1","system_id":"levelo_inurba_marseille","lat":43.295748,"lon":5.37522,"is_reserved":false,"is_disabled":false,"rental_uris":{"android":"levelo://app?vid=7005197d-6f66-4370-9b35-2b46d4d24ef1","ios":"levelo://app?vid=7005197d-6f66-4370-9b35-2b46d4d24ef1"},"vehicle_type_id":"4","last_reported":1699823125,"current_range_meters":2000,"station_id":"ce4bgh92rcd13ifvqb50","pricing_plan_id":"free"},{"bike_id":"d8c453ed-ac65-4a68-9ceb-363ac1df8725","system_id":"levelo_inurba_marseille","lat":43.30892,"lon":5.39144,"is_reserved":false,"is_disabled":false,"rental_uris":{"android":"levelo://app?vid=d8c453ed-ac65-4a68-9ceb-363ac1df8725","ios":"levelo://app?vid=d8c453ed-ac65-4a68-9ceb-363ac1df8725"},"vehicle_type_id":"4","last_reported":1699823125,"current_range_meters":24400,"station_id":"ce4bgup2rcd13ifvqco0","pricing_plan_id":"free"},{"bike_id":"e6af167d-38b9-4a17-8ded-ac386898dc8d","system_id":"levelo_inurba_marseille","lat":43.32367,"lon":5.388836,"is_reserved":false,"is_disabled":false,"rental_uris":{"android":"levelo://app?vid=e6af167d-38b9-4a17-8ded-ac386898dc8d","ios":"levelo://app?vid=e6af167d-38b9-4a17-8ded-ac386898dc8d"},"vehicle_type_id":"4","last_reported":1699823125,"current_range_meters":12800,"station_id":"ce4bhqp2rcd13ifvqhog","pricing_plan_id":"free"},{"bike_id":"67c4022e-75f7-4029-bdab-a44b2e813270","system_id":"levelo_inurba_marseille","lat":43.32367,"lon":5.388836,"is_reserved":false,"is_disabled":false,"rental_uris":{"android":"levelo://app?vid=67c4022e-75f7-4029-bdab-a44b2e813270","ios":"levelo://app?vid=67c4022e-75f7-4029-bdab-a44b2e813270"},"vehicle_type_id":"4","last_reported":1699823125,"current_range_meters":10400,"station_id":"ce4bhqp2rcd13ifvqhog","pricing_plan_id":"free"},{"bike_id":"0cec3280-8020-4fe6-b3c2-421f6a966032","system_id":"levelo_inurba_marseille","lat":43.298037,"lon":5.381066,"is_reserved":false,"is_disabled":false,"rental_uris":{"android":"levelo://app?vid=0cec3280-8020-4fe6-b3c2-421f6a966032","ios":"levelo://app?vid=0cec3280-8020-4fe6-b3c2-421f6a966032"},"vehicle_type_id":"4","last_reported":1699823125,"current_range_meters":30000,"station_id":"ce4bgip2rcd13ifvqbb0","pricing_plan_id":"free"},{"bike_id":"7028d156-d54f-4277-856a-1bd0de2d0eb1","system_id":"levelo_inurba_marseille","lat":43.293259,"lon":5.371586,"is_reserved":false,"is_disabled":false,"rental_uris":{"android":"levelo://app?vid=7028d156-d54f-4277-856a-1bd0de2d0eb1","ios":"levelo://app?vid=7028d156-d54f-4277-856a-1bd0de2d0eb1"},"vehicle_type_id":"4","last_reported":1699823125,"current_range_meters":26400,"station_id":"ce4bgh92rcd13ifvqb40","pricing_plan_id":"free"},{"bike_id":"1f2edeec-835f-4188-b75a-b19c37bb1dac","system_id":"levelo_inurba_marseille","lat":43.30109,"lon":5.3894,"is_reserved":false,"is_disabled":false,"rental_uris":{"android":"levelo://app?vid=1f2edeec-835f-4188-b75a-b19c37bb1dac","ios":"levelo://app?vid=1f2edeec-835f-4188-b75a-b19c37bb1dac"},"vehicle_type_id":"4","last_reported":1699823125,"current_range_meters":0,"station_id":"","pricing_plan_id":"free"},{"bike_id":"6965bc4e-057a-46ab-beef-e9d9e5a8763f","system_id":"levelo_inurba_marseille","lat":43.306005,"lon":5.393615,"is_reserved":false,"is_disabled":false,"rental_uris":{"android":"levelo://app?vid=6965bc4e-057a-46ab-beef-e9d9e5a8763f","ios":"levelo://app?vid=6965bc4e-057a-46ab-beef-e9d9e5a8763f"},"vehicle_type_id":"4","last_reported":1699823125,"current_range_meters":10000,"station_id":"ce4bh0p2rcd13ifvqd80","pricing_plan_id":"free"},{"bike_id":"17860dab-5621-483e-b559-f7b4215fcb72","system_id":"levelo_inurba_marseille","lat":43.302992,"lon":5.392136,"is_reserved":false,"is_disabled":false,"rental_uris":{"android":"levelo://app?vid=17860dab-5621-483e-b559-f7b4215fcb72","ios":"levelo://app?vid=17860dab-5621-483e-b559-f7b4215fcb72"},"vehicle_type_id":"4","last_reported":1699823125,"current_range_meters":30400,"station_id":"ce4bgkh2rcd13ifvqbk0","pricing_plan_id":"free"},{"bike_id":"a5ecedcb-ee36-400e-8633-91b7b20bbb61","system_id":"levelo_inurba_marseille","lat":43.298764,"lon":5.388973,"is_reserved":false,"is_disabled":false,"rental_uris":{"android":"levelo://app?vid=a5ecedcb-ee36-400e-8633-91b7b20bbb61","ios":"levelo://app?vid=a5ecedcb-ee36-400e-8633-91b7b20bbb61"},"vehicle_type_id":"4","last_reported":1699823125,"current_range_meters":10800,"station_id":"ce4bh392rcd13ifvqdl0","pricing_plan_id":"free"},{"bike_id":"527fa83c-b585-41e5-b8cf-6a29ce429942","system_id":"levelo_inurba_marseille","lat":43.31135,"lon":5.39612,"is_reserved":false,"is_disabled":false,"rental_uris":{"android":"levelo://app?vid=527fa83c-b585-41e5-b8cf-6a29ce429942","ios":"levelo://app?vid=527fa83c-b585-41e5-b8cf-6a29ce429942"},"vehicle_type_id":"4","last_reported":1699823125,"current_range_meters":25600,"station_id":"","pricing_plan_id":"free"},{"bike_id":"f05efe8a-6d59-4ed4-ab39-f82390363452","system_id":"levelo_inurba_marseille","lat":43.309038,"lon":5.396546,"is_reserved":false,"is_disabled":false,"rental_uris":{"android":"levelo://app?vid=f05efe8a-6d59-4ed4-ab39-f82390363452","ios":"levelo://app?vid=f05efe8a-6d59-4ed4-ab39-f82390363452"},"vehicle_type_id":"4","last_reported":1699823125,"current_range_meters":2400,"station_id":"ce4bh012rcd13ifvqcv0","pricing_plan_id":"free"},{"bike_id":"142e436f-b697-414e-b1bb-1674e7330970","system_id":"levelo_inurba_marseille","lat":43.291994,"lon":5.357886,"is_reserved":false,"is_disabled":false,"rental_uris":{"android":"levelo://app?vid=142e436f-b697-414e-b1bb-1674e7330970","ios":"levelo://app?vid=142e436f-b697-414e-b1bb-1674e7330970"},"vehicle_type_id":"4","last_reported":1699823125,"current_range_meters":26000,"station_id":"ce4bhb12rcd13ifvqel0","pricing_plan_id":"free"},{"bike_id":"89849ba4-7b3e-4920-a529-7883f46a9205","system_id":"levelo_inurba_marseille","lat":43.291994,"lon":5.357886,"is_reserved":false,"is_disabled":false,"rental_uris":{"android":"levelo://app?vid=89849ba4-7b3e-4920-a529-7883f46a9205","ios":"levelo://app?vid=89849ba4-7b3e-4920-a529-7883f46a9205"},"vehicle_type_id":"4","last_reported":1699823125,"current_range_meters":11600,"station_id":"ce4bhb12rcd13ifvqel0","pricing_plan_id":"free"},{"bike_id":"7d3bd82a-f758-421a-83f0-54e30872289c","system_id":"levelo_inurba_marseille","lat":43.3133,"lon":5.39693,"is_reserved":false,"is_disabled":false,"rental_uris":{"android":"levelo://app?vid=7d3bd82a-f758-421a-83f0-54e30872289c","ios":"levelo://app?vid=7d3bd82a-f758-421a-83f0-54e30872289c"},"vehicle_type_id":"4","last_reported":1699823125,"current_range_meters":0,"station_id":"ce4bgvp2rcd13ifvqcu0","pricing_plan_id":"free"},{"bike_id":"6e2d17b6-fc54-4585-985f-8c52808cffcd","system_id":"levelo_inurba_marseille","lat":43.313291,"lon":5.396838,"is_reserved":false,"is_disabled":false,"rental_uris":{"android":"levelo://app?vid=6e2d17b6-fc54-4585-985f-8c52808cffcd","ios":"levelo://app?vid=6e2d17b6-fc54-4585-985f-8c52808cffcd"},"vehicle_type_id":"4","last_reported":1699823125,"current_range_meters":2000,"station_id":"ce4bgvp2rcd13ifvqcu0","pricing_plan_id":"free"},{"bike_id":"6119537c-7ed5-4afe-a587-edac36af6bf3","system_id":"levelo_inurba_marseille","lat":43.31324,"lon":5.39697,"is_reserved":false,"is_disabled":false,"rental_uris":{"android":"levelo://app?vid=6119537c-7ed5-4afe-a587-edac36af6bf3","ios":"levelo://app?vid=6119537c-7ed5-4afe-a587-edac36af6bf3"},"vehicle_type_id":"4","last_reported":1699823125,"current_range_meters":16000,"station_id":"ce4bgvp2rcd13ifvqcu0","pricing_plan_id":"free"},{"bike_id":"e7f91c10-7a8d-4974-b91a-b7deeaf60253","system_id":"levelo_inurba_marseille","lat":43.309038,"lon":5.396546,"is_reserved":false,"is_disabled":false,"rental_uris":{"android":"levelo://app?vid=e7f91c10-7a8d-4974-b91a-b7deeaf60253","ios":"levelo://app?vid=e7f91c10-7a8d-4974-b91a-b7deeaf60253"},"vehicle_type_id":"4","last_reported":1699823125,"current_range_meters":5600,"station_id":"ce4bh012rcd13ifvqcv0","pricing_plan_id":"free"},{"bike_id":"b39d24c6-4dec-4ffb-86b9-c2128151223b","system_id":"levelo_inurba_marseille","lat":43.309038,"lon":5.396546,"is_reserved":false,"is_disabled":false,"rental_uris":{"android":"levelo://app?vid=b39d24c6-4dec-4ffb-86b9-c2128151223b","ios":"levelo://app?vid=b39d24c6-4dec-4ffb-86b9-c2128151223b"},"vehicle_type_id":"4","last_reported":1699823125,"current_range_meters":6000,"station_id":"ce4bh012rcd13ifvqcv0","pricing_plan_id":"free"},{"bike_id":"0c68512e-4e98-438a-991c-a994957f75d7","system_id":"levelo_inurba_marseille","lat":43.31328,"lon":5.39702,"is_reserved":false,"is_disabled":false,"rental_uris":{"android":"levelo://app?vid=0c68512e-4e98-438a-991c-a994957f75d7","ios":"levelo://app?vid=0c68512e-4e98-438a-991c-a994957f75d7"},"vehicle_type_id":"4","last_reported":1699823125,"current_range_meters":800,"station_id":"ce4bgvp2rcd13ifvqcu0","pricing_plan_id":"free"},{"bike_id":"c961464a-f7b1-4b66-b99c-2834fb8aaf4e","system_id":"levelo_inurba_marseille","lat":43.31329,"lon":5.39702,"is_reserved":false,"is_disabled":false,"rental_uris":{"android":"levelo://app?vid=c961464a-f7b1-4b66-b99c-2834fb8aaf4e","ios":"levelo://app?vid=c961464a-f7b1-4b66-b99c-2834fb8aaf4e"},"vehicle_type_id":"4","last_reported":1699823125,"current_range_meters":0,"station_id":"ce4bgvp2rcd13ifvqcu0","pricing_plan_id":"free"},{"bike_id":"0d0024eb-ac5e-406c-8c38-a3eb9b487406","system_id":"levelo_inurba_marseille","lat":43.309038,"lon":5.396546,"is_reserved":false,"is_disabled":false,"rental_uris":{"android":"levelo://app?vid=0d0024eb-ac5e-406c-8c38-a3eb9b487406","ios":"levelo://app?vid=0d0024eb-ac5e-406c-8c38-a3eb9b487406"},"vehicle_type_id":"4","last_reported":1699823125,"current_range_meters":7600,"station_id":"ce4bh012rcd13ifvqcv0","pricing_plan_id":"free"},{"bike_id":"6370caa5-e576-4746-89c1-f37ef447de8e","system_id":"levelo_inurba_marseille","lat":43.290779,"lon":5.371482,"is_reserved":false,"is_disabled":false,"rental_uris":{"android":"levelo://app?vid=6370caa5-e576-4746-89c1-f37ef447de8e","ios":"levelo://app?vid=6370caa5-e576-4746-89c1-f37ef447de8e"},"vehicle_type_id":"4","last_reported":1699823125,"current_range_meters":17200,"station_id":"ce4bh5p2rcd13ifvqe4g","pricing_plan_id":"free"},{"bike_id":"4448b0cd-b0fa-411f-88e8-730e3f0fd7c3","system_id":"levelo_inurba_marseille","lat":43.29064,"lon":5.35917,"is_reserved":false,"is_disabled":false,"rental_uris":{"android":"levelo://app?vid=4448b0cd-b0fa-411f-88e8-730e3f0fd7c3","ios":"levelo://app?vid=4448b0cd-b0fa-411f-88e8-730e3f0fd7c3"},"vehicle_type_id":"4","last_reported":1699823125,"current_range_meters":28400,"station_id":"ce4bha92rcd13ifvqeg0","pricing_plan_id":"free"},{"bike_id":"8cbf28e6-fce6-4673-9fdb-2e3023222f04","system_id":"levelo_inurba_marseille","lat":43.290631,"lon":5.359244,"is_reserved":false,"is_disabled":false,"rental_uris":{"android":"levelo://app?vid=8cbf28e6-fce6-4673-9fdb-2e3023222f04","ios":"levelo://app?vid=8cbf28e6-fce6-4673-9fdb-2e3023222f04"},"vehicle_type_id":"4","last_reported":1699823125,"current_range_meters":8400,"station_id":"ce4bha92rcd13ifvqeg0","pricing_plan_id":"free"},{"bike_id":"c6e752a1-f770-41d3-a1dc-11f02e704399","system_id":"levelo_inurba_marseille","lat":43.29036,"lon":5.37574,"is_reserved":false,"is_disabled":false,"rental_uris":{"android":"levelo://app?vid=c6e752a1-f770-41d3-a1dc-11f02e704399","ios":"levelo://app?vid=c6e752a1-f770-41d3-a1dc-11f02e704399"},"vehicle_type_id":"4","last_reported":1699823125,"current_range_meters":0,"station_id":"ce4bh692rcd13ifvqe90","pricing_plan_id":"free"},{"bike_id":"7ba44fbd-b35e-432a-99da-b9d8b81d2741","system_id":"levelo_inurba_marseille","lat":43.29033,"lon":5.37576,"is_reserved":false,"is_disabled":false,"rental_uris":{"android":"levelo://app?vid=7ba44fbd-b35e-432a-99da-b9d8b81d2741","ios":"levelo://app?vid=7ba44fbd-b35e-432a-99da-b9d8b81d2741"},"vehicle_type_id":"4","last_reported":1699823125,"current_range_meters":20800,"station_id":"ce4bh692rcd13ifvqe90","pricing_plan_id":"free"},{"bike_id":"843601c7-fce6-4000-8f5e-b8b0b0c5adf2","system_id":"levelo_inurba_marseille","lat":43.290327,"lon":5.375711,"is_reserved":false,"is_disabled":false,"rental_uris":{"android":"levelo://app?vid=843601c7-fce6-4000-8f5e-b8b0b0c5adf2","ios":"levelo://app?vid=843601c7-fce6-4000-8f5e-b8b0b0c5adf2"},"vehicle_type_id":"4","last_reported":1699823125,"current_range_meters":30400,"station_id":"ce4bh692rcd13ifvqe90","pricing_plan_id":"free"},{"bike_id":"1d857d9a-56f5-4944-b8ea-8685292f7020","system_id":"levelo_inurba_marseille","lat":43.289184,"lon":5.366408,"is_reserved":false,"is_disabled":false,"rental_uris":{"android":"levelo://app?vid=1d857d9a-56f5-4944-b8ea-8685292f7020","ios":"levelo://app?vid=1d857d9a-56f5-4944-b8ea-8685292f7020"},"vehicle_type_id":"4","last_reported":1699823125,"current_range_meters":9600,"station_id":"ce4bhap2rcd13ifvqek0","pricing_plan_id":"free"},{"bike_id":"059c82a6-3f3d-4019-8da8-df59909e471e","system_id":"levelo_inurba_marseille","lat":43.28936,"lon":5.36632,"is_reserved":false,"is_disabled":false,"rental_uris":{"android":"levelo://app?vid=059c82a6-3f3d-4019-8da8-df59909e471e","ios":"levelo://app?vid=059c82a6-3f3d-4019-8da8-df59909e471e"},"vehicle_type_id":"4","last_reported":1699823125,"current_range_meters":2800,"station_id":"ce4bhap2rcd13ifvqek0","pricing_plan_id":"free"},{"bike_id":"00653aeb-d72b-483e-8717-4307b45252ea","system_id":"levelo_inurba_marseille","lat":43.289468,"lon":5.363719,"is_reserved":false,"is_disabled":false,"rental_uris":{"android":"levelo://app?vid=00653aeb-d72b-483e-8717-4307b45252ea","ios":"levelo://app?vid=00653aeb-d72b-483e-8717-4307b45252ea"},"vehicle_type_id":"4","last_reported":1699823125,"current_range_meters":21200,"station_id":"ce4bhc92rcd13ifvqetg","pricing_plan_id":"free"},{"bike_id":"e138888a-f437-4dbe-abaa-5b74b230a60c","system_id":"levelo_inurba_marseille","lat":43.297088,"lon":5.391555,"is_reserved":false,"is_disabled":false,"rental_uris":{"android":"levelo://app?vid=e138888a-f437-4dbe-abaa-5b74b230a60c","ios":"levelo://app?vid=e138888a-f437-4dbe-abaa-5b74b230a60c"},"vehicle_type_id":"4","last_reported":1699823125,"current_range_meters":14000,"station_id":"","pricing_plan_id":"free"},{"bike_id":"901adf09-6076-41bb-bbbf-2da95f4776e3","system_id":"levelo_inurba_marseille","lat":43.290103,"lon":5.356114,"is_reserved":false,"is_disabled":false,"rental_uris":{"android":"levelo://app?vid=901adf09-6076-41bb-bbbf-2da95f4776e3","ios":"levelo://app?vid=901adf09-6076-41bb-bbbf-2da95f4776e3"},"vehicle_type_id":"4","last_reported":1699823125,"current_range_meters":29600,"station_id":"ce4bhb92rcd13ifvqen0","pricing_plan_id":"free"},{"bike_id":"4f1fe4e9-7c09-4e9a-9b08-7fc3ce515189","system_id":"levelo_inurba_marseille","lat":43.29778,"lon":5.39332,"is_reserved":false,"is_disabled":false,"rental_uris":{"android":"levelo://app?vid=4f1fe4e9-7c09-4e9a-9b08-7fc3ce515189","ios":"levelo://app?vid=4f1fe4e9-7c09-4e9a-9b08-7fc3ce515189"},"vehicle_type_id":"4","last_reported":1699823125,"current_range_meters":7200,"station_id":"chh1huq6cuj3fo74tm60","pricing_plan_id":"free"},{"bike_id":"7a1356b5-2437-4bfa-bb34-cf55b7f00bb1","system_id":"levelo_inurba_marseille","lat":43.33063,"lon":5.39051,"is_reserved":false,"is_disabled":false,"rental_uris":{"android":"levelo://app?vid=7a1356b5-2437-4bfa-bb34-cf55b7f00bb1","ios":"levelo://app?vid=7a1356b5-2437-4bfa-bb34-cf55b7f00bb1"},"vehicle_type_id":"4","last_reported":1699823125,"current_range_meters":9600,"station_id":"","pricing_plan_id":"free"},{"bike_id":"5600f2f7-0eec-47e9-aee5-107b08e8dfd2","system_id":"levelo_inurba_marseille","lat":43.28843,"lon":5.35847,"is_reserved":false,"is_disabled":false,"rental_uris":{"android":"levelo://app?vid=5600f2f7-0eec-47e9-aee5-107b08e8dfd2","ios":"levelo://app?vid=5600f2f7-0eec-47e9-aee5-107b08e8dfd2"},"vehicle_type_id":"4","last_reported":1699823125,"current_range_meters":15600,"station_id":"ce4bhb12rcd13ifvqem0","pricing_plan_id":"free"},{"bike_id":"de4810f1-44b8-4dc7-9016-d374836346f7","system_id":"levelo_inurba_marseille","lat":43.30926,"lon":5.40143,"is_reserved":false,"is_disabled":false,"rental_uris":{"android":"levelo://app?vid=de4810f1-44b8-4dc7-9016-d374836346f7","ios":"levelo://app?vid=de4810f1-44b8-4dc7-9016-d374836346f7"},"vehicle_type_id":"4","last_reported":1699823125,"current_range_meters":0,"station_id":"ce4bgvp2rcd13ifvqct0","pricing_plan_id":"free"},{"bike_id":"c6b68585-5252-4b14-9835-29bc2d5dec2f","system_id":"levelo_inurba_marseille","lat":43.30931,"lon":5.40148,"is_reserved":false,"is_disabled":false,"rental_uris":{"android":"levelo://app?vid=c6b68585-5252-4b14-9835-29bc2d5dec2f","ios":"levelo://app?vid=c6b68585-5252-4b14-9835-29bc2d5dec2f"},"vehicle_type_id":"4","last_reported":1699823125,"current_range_meters":13200,"station_id":"ce4bgvp2rcd13ifvqct0","pricing_plan_id":"free"},{"bike_id":"cd1a5ab7-9a5c-496b-b9fb-b859466a9c8a","system_id":"levelo_inurba_marseille","lat":43.301117,"lon":5.398795,"is_reserved":false,"is_disabled":false,"rental_uris":{"android":"levelo://app?vid=cd1a5ab7-9a5c-496b-b9fb-b859466a9c8a","ios":"levelo://app?vid=cd1a5ab7-9a5c-496b-b9fb-b859466a9c8a"},"vehicle_type_id":"4","last_reported":1699823125,"current_range_meters":2400,"station_id":"ce4bh0h2rcd13ifvqd40","pricing_plan_id":"free"},{"bike_id":"53e1caf4-f494-4c68-bdbe-8af0dd39152d","system_id":"levelo_inurba_marseille","lat":43.3014,"lon":5.39869,"is_reserved":false,"is_disabled":false,"rental_uris":{"android":"levelo://app?vid=53e1caf4-f494-4c68-bdbe-8af0dd39152d","ios":"levelo://app?vid=53e1caf4-f494-4c68-bdbe-8af0dd39152d"},"vehicle_type_id":"4","last_reported":1699823125,"current_range_meters":10800,"station_id":"ce4bh0h2rcd13ifvqd40","pricing_plan_id":"free"},{"bike_id":"743f3bc5-43c9-45a3-8965-b67b169c6c30","system_id":"levelo_inurba_marseille","lat":43.30513,"lon":5.40077,"is_reserved":false,"is_disabled":false,"rental_uris":{"android":"levelo://app?vid=743f3bc5-43c9-45a3-8965-b67b169c6c30","ios":"levelo://app?vid=743f3bc5-43c9-45a3-8965-b67b169c6c30"},"vehicle_type_id":"4","last_reported":1699823125,"current_range_meters":6000,"station_id":"","pricing_plan_id":"free"},{"bike_id":"388db035-208e-43fb-9237-9b5aac08acb4","system_id":"levelo_inurba_marseille","lat":43.28727,"lon":5.36078,"is_reserved":false,"is_disabled":false,"rental_uris":{"android":"levelo://app?vid=388db035-208e-43fb-9237-9b5aac08acb4","ios":"levelo://app?vid=388db035-208e-43fb-9237-9b5aac08acb4"},"vehicle_type_id":"4","last_reported":1699823125,"current_range_meters":17200,"station_id":"cki0cbj6b192h4jlfktg","pricing_plan_id":"free"},{"bike_id":"7b9e1fe5-8357-4247-9592-1a0cc2f38e11","system_id":"levelo_inurba_marseille","lat":43.28727,"lon":5.36078,"is_reserved":false,"is_disabled":false,"rental_uris":{"android":"levelo://app?vid=7b9e1fe5-8357-4247-9592-1a0cc2f38e11","ios":"levelo://app?vid=7b9e1fe5-8357-4247-9592-1a0cc2f38e11"},"vehicle_type_id":"4","last_reported":1699823125,"current_range_meters":27200,"station_id":"cki0cbj6b192h4jlfktg","pricing_plan_id":"free"},{"bike_id":"9a58da6d-b8d5-40db-ac24-7f7388dbc137","system_id":"levelo_inurba_marseille","lat":43.298681,"lon":5.397225,"is_reserved":false,"is_disabled":false,"rental_uris":{"android":"levelo://app?vid=9a58da6d-b8d5-40db-ac24-7f7388dbc137","ios":"levelo://app?vid=9a58da6d-b8d5-40db-ac24-7f7388dbc137"},"vehicle_type_id":"4","last_reported":1699823125,"current_range_meters":13600,"station_id":"ce4bh0h2rcd13ifvqd50","pricing_plan_id":"free"},{"bike_id":"e6635629-8d19-482c-9490-93fe8eb553bc","system_id":"levelo_inurba_marseille","lat":43.298681,"lon":5.397225,"is_reserved":false,"is_disabled":false,"rental_uris":{"android":"levelo://app?vid=e6635629-8d19-482c-9490-93fe8eb553bc","ios":"levelo://app?vid=e6635629-8d19-482c-9490-93fe8eb553bc"},"vehicle_type_id":"4","last_reported":1699823125,"current_range_meters":14400,"station_id":"ce4bh0h2rcd13ifvqd50","pricing_plan_id":"free"},{"bike_id":"0a7055ef-8856-4612-a991-f016f0c4c524","system_id":"levelo_inurba_marseille","lat":43.298681,"lon":5.397225,"is_reserved":false,"is_disabled":false,"rental_uris":{"android":"levelo://app?vid=0a7055ef-8856-4612-a991-f016f0c4c524","ios":"levelo://app?vid=0a7055ef-8856-4612-a991-f016f0c4c524"},"vehicle_type_id":"4","last_reported":1699823125,"current_range_meters":19600,"station_id":"ce4bh0h2rcd13ifvqd50","pricing_plan_id":"free"},{"bike_id":"b3fb6b7d-e705-4254-a905-bb34510e1d9b","system_id":"levelo_inurba_marseille","lat":43.286593,"lon":5.363346,"is_reserved":false,"is_disabled":false,"rental_uris":{"android":"levelo://app?vid=b3fb6b7d-e705-4254-a905-bb34510e1d9b","ios":"levelo://app?vid=b3fb6b7d-e705-4254-a905-bb34510e1d9b"},"vehicle_type_id":"4","last_reported":1699823125,"current_range_meters":16400,"station_id":"ce4bhah2rcd13ifvqej0","pricing_plan_id":"free"},{"bike_id":"cb38f85c-8434-4c47-8a81-1c772b53aec8","system_id":"levelo_inurba_marseille","lat":43.286593,"lon":5.363346,"is_reserved":false,"is_disabled":false,"rental_uris":{"android":"levelo://app?vid=cb38f85c-8434-4c47-8a81-1c772b53aec8","ios":"levelo://app?vid=cb38f85c-8434-4c47-8a81-1c772b53aec8"},"vehicle_type_id":"4","last_reported":1699823125,"current_range_meters":22000,"station_id":"ce4bhah2rcd13ifvqej0","pricing_plan_id":"free"},{"bike_id":"10cce94c-3924-4d3a-b7dd-eeaa9a063960","system_id":"levelo_inurba_marseille","lat":43.286593,"lon":5.363346,"is_reserved":false,"is_disabled":false,"rental_uris":{"android":"levelo://app?vid=10cce94c-3924-4d3a-b7dd-eeaa9a063960","ios":"levelo://app?vid=10cce94c-3924-4d3a-b7dd-eeaa9a063960"},"vehicle_type_id":"4","last_reported":1699823125,"current_range_meters":12400,"station_id":"ce4bhah2rcd13ifvqej0","pricing_plan_id":"free"},{"bike_id":"c953b67a-ef6b-4a2a-b9bf-82b3dfd517ff","system_id":"levelo_inurba_marseille","lat":43.286983,"lon":5.373877,"is_reserved":false,"is_disabled":false,"rental_uris":{"android":"levelo://app?vid=c953b67a-ef6b-4a2a-b9bf-82b3dfd517ff","ios":"levelo://app?vid=c953b67a-ef6b-4a2a-b9bf-82b3dfd517ff"},"vehicle_type_id":"4","last_reported":1699823125,"current_range_meters":0,"station_id":"ce4bh3p2rcd13ifvqdq0","pricing_plan_id":"free"},{"bike_id":"3e4f52d5-aaf8-4a7c-8310-3b860c5d2c72","system_id":"levelo_inurba_marseille","lat":43.295194,"lon":5.39397,"is_reserved":false,"is_disabled":false,"rental_uris":{"android":"levelo://app?vid=3e4f52d5-aaf8-4a7c-8310-3b860c5d2c72","ios":"levelo://app?vid=3e4f52d5-aaf8-4a7c-8310-3b860c5d2c72"},"vehicle_type_id":"4","last_reported":1699823125,"current_range_meters":19600,"station_id":"ce4bh292rcd13ifvqdf0","pricing_plan_id":"free"},{"bike_id":"ce04f103-f867-4d77-b0ae-c48f7fa3695a","system_id":"levelo_inurba_marseille","lat":43.289307,"lon":5.38406,"is_reserved":false,"is_disabled":false,"rental_uris":{"android":"levelo://app?vid=ce04f103-f867-4d77-b0ae-c48f7fa3695a","ios":"levelo://app?vid=ce04f103-f867-4d77-b0ae-c48f7fa3695a"},"vehicle_type_id":"4","last_reported":1699823125,"current_range_meters":6000,"station_id":"ce4bh612rcd13ifvqe6g","pricing_plan_id":"free"},{"bike_id":"eabf133b-85a4-48a5-8d41-2bdcac4ac496","system_id":"levelo_inurba_marseille","lat":43.289307,"lon":5.38406,"is_reserved":false,"is_disabled":false,"rental_uris":{"android":"levelo://app?vid=eabf133b-85a4-48a5-8d41-2bdcac4ac496","ios":"levelo://app?vid=eabf133b-85a4-48a5-8d41-2bdcac4ac496"},"vehicle_type_id":"4","last_reported":1699823125,"current_range_meters":27600,"station_id":"ce4bh612rcd13ifvqe6g","pricing_plan_id":"free"},{"bike_id":"8bfd62bc-6c33-4d8c-a253-ea79ee2a829e","system_id":"levelo_inurba_marseille","lat":43.302759,"lon":5.400793,"is_reserved":false,"is_disabled":false,"rental_uris":{"android":"levelo://app?vid=8bfd62bc-6c33-4d8c-a253-ea79ee2a829e","ios":"levelo://app?vid=8bfd62bc-6c33-4d8c-a253-ea79ee2a829e"},"vehicle_type_id":"4","last_reported":1699823125,"current_range_meters":18800,"station_id":"ce4bgvh2rcd13ifvqcs0","pricing_plan_id":"free"},{"bike_id":"1719f67c-1f8f-411d-9c23-b7888ccf61c8","system_id":"levelo_inurba_marseille","lat":43.302759,"lon":5.400793,"is_reserved":false,"is_disabled":false,"rental_uris":{"android":"levelo://app?vid=1719f67c-1f8f-411d-9c23-b7888ccf61c8","ios":"levelo://app?vid=1719f67c-1f8f-411d-9c23-b7888ccf61c8"},"vehicle_type_id":"4","last_reported":1699823125,"current_range_meters":31600,"station_id":"ce4bgvh2rcd13ifvqcs0","pricing_plan_id":"free"},{"bike_id":"35227aa4-e441-4c4b-8dfb-a38a0e1180e2","system_id":"levelo_inurba_marseille","lat":43.302413,"lon":5.400835,"is_reserved":false,"is_disabled":false,"rental_uris":{"android":"levelo://app?vid=35227aa4-e441-4c4b-8dfb-a38a0e1180e2","ios":"levelo://app?vid=35227aa4-e441-4c4b-8dfb-a38a0e1180e2"},"vehicle_type_id":"4","last_reported":1699823125,"current_range_meters":20000,"station_id":"ce4bgvh2rcd13ifvqcs0","pricing_plan_id":"free"},{"bike_id":"ac278fd8-7ac9-4d3c-a3f0-cf9dd4503e7c","system_id":"levelo_inurba_marseille","lat":43.28576,"lon":5.371364,"is_reserved":false,"is_disabled":false,"rental_uris":{"android":"levelo://app?vid=ac278fd8-7ac9-4d3c-a3f0-cf9dd4503e7c","ios":"levelo://app?vid=ac278fd8-7ac9-4d3c-a3f0-cf9dd4503e7c"},"vehicle_type_id":"4","last_reported":1699823125,"current_range_meters":28400,"station_id":"","pricing_plan_id":"free"},{"bike_id":"b631772a-6856-4dcd-80e8-7fc650467073","system_id":"levelo_inurba_marseille","lat":43.29459,"lon":5.39565,"is_reserved":false,"is_disabled":false,"rental_uris":{"android":"levelo://app?vid=b631772a-6856-4dcd-80e8-7fc650467073","ios":"levelo://app?vid=b631772a-6856-4dcd-80e8-7fc650467073"},"vehicle_type_id":"4","last_reported":1699823125,"current_range_meters":23600,"station_id":"","pricing_plan_id":"free"},{"bike_id":"e57449c2-d088-47cf-8bf2-271593713c89","system_id":"levelo_inurba_marseille","lat":43.328576,"lon":5.398841,"is_reserved":false,"is_disabled":false,"rental_uris":{"android":"levelo://app?vid=e57449c2-d088-47cf-8bf2-271593713c89","ios":"levelo://app?vid=e57449c2-d088-47cf-8bf2-271593713c89"},"vehicle_type_id":"4","last_reported":1699823125,"current_range_meters":3200,"station_id":"","pricing_plan_id":"free"},{"bike_id":"90b918d8-a14c-427b-9637-65ba994a69fe","system_id":"levelo_inurba_marseille","lat":43.28462,"lon":5.35887,"is_reserved":false,"is_disabled":false,"rental_uris":{"android":"levelo://app?vid=90b918d8-a14c-427b-9637-65ba994a69fe","ios":"levelo://app?vid=90b918d8-a14c-427b-9637-65ba994a69fe"},"vehicle_type_id":"4","last_reported":1699823125,"current_range_meters":0,"station_id":"ce4bhah2rcd13ifvqei0","pricing_plan_id":"free"},{"bike_id":"f11b95c5-b933-47dd-b4d7-2c04a0d27b3d","system_id":"levelo_inurba_marseille","lat":43.284534,"lon":5.358662,"is_reserved":false,"is_disabled":false,"rental_uris":{"android":"levelo://app?vid=f11b95c5-b933-47dd-b4d7-2c04a0d27b3d","ios":"levelo://app?vid=f11b95c5-b933-47dd-b4d7-2c04a0d27b3d"},"vehicle_type_id":"4","last_reported":1699823125,"current_range_meters":22800,"station_id":"ce4bhah2rcd13ifvqei0","pricing_plan_id":"free"},{"bike_id":"2dc7e356-a684-4d2d-867f-d7ade3c73103","system_id":"levelo_inurba_marseille","lat":43.294314,"lon":5.397498,"is_reserved":false,"is_disabled":false,"rental_uris":{"android":"levelo://app?vid=2dc7e356-a684-4d2d-867f-d7ade3c73103","ios":"levelo://app?vid=2dc7e356-a684-4d2d-867f-d7ade3c73103"},"vehicle_type_id":"4","last_reported":1699823125,"current_range_meters":29200,"station_id":"ce4bh3h2rcd13ifvqdo0","pricing_plan_id":"free"},{"bike_id":"ebf92485-87ac-4ba0-9225-0962da063551","system_id":"levelo_inurba_marseille","lat":43.283998,"lon":5.375062,"is_reserved":false,"is_disabled":false,"rental_uris":{"android":"levelo://app?vid=ebf92485-87ac-4ba0-9225-0962da063551","ios":"levelo://app?vid=ebf92485-87ac-4ba0-9225-0962da063551"},"vehicle_type_id":"4","last_reported":1699823125,"current_range_meters":0,"station_id":"ce4bh412rcd13ifvqds0","pricing_plan_id":"free"},{"bike_id":"49c95025-159f-4107-abfe-96e2e1ccb0e4","system_id":"levelo_inurba_marseille","lat":43.295713,"lon":5.399639,"is_reserved":false,"is_disabled":false,"rental_uris":{"android":"levelo://app?vid=49c95025-159f-4107-abfe-96e2e1ccb0e4","ios":"levelo://app?vid=49c95025-159f-4107-abfe-96e2e1ccb0e4"},"vehicle_type_id":"4","last_reported":1699823125,"current_range_meters":18800,"station_id":"ce4bh312rcd13ifvqdj0","pricing_plan_id":"free"},{"bike_id":"d441eac5-d35f-4273-abba-7349abd46003","system_id":"levelo_inurba_marseille","lat":43.286595,"lon":5.386795,"is_reserved":false,"is_disabled":false,"rental_uris":{"android":"levelo://app?vid=d441eac5-d35f-4273-abba-7349abd46003","ios":"levelo://app?vid=d441eac5-d35f-4273-abba-7349abd46003"},"vehicle_type_id":"4","last_reported":1699823125,"current_range_meters":15600,"station_id":"ce4bh492rcd13ifvqdug","pricing_plan_id":"free"},{"bike_id":"dc766dd3-ecb8-4e6f-bff7-267eceaf8abe","system_id":"levelo_inurba_marseille","lat":43.319179,"lon":5.407725,"is_reserved":false,"is_disabled":false,"rental_uris":{"android":"levelo://app?vid=dc766dd3-ecb8-4e6f-bff7-267eceaf8abe","ios":"levelo://app?vid=dc766dd3-ecb8-4e6f-bff7-267eceaf8abe"},"vehicle_type_id":"4","last_reported":1699823125,"current_range_meters":25600,"station_id":"ce4bhq12rcd13ifvqhig","pricing_plan_id":"free"},{"bike_id":"5691b5b7-067a-4422-9f0c-a6907daf74a4","system_id":"levelo_inurba_marseille","lat":43.34194,"lon":5.35718,"is_reserved":false,"is_disabled":false,"rental_uris":{"android":"levelo://app?vid=5691b5b7-067a-4422-9f0c-a6907daf74a4","ios":"levelo://app?vid=5691b5b7-067a-4422-9f0c-a6907daf74a4"},"vehicle_type_id":"4","last_reported":1699823125,"current_range_meters":4400,"station_id":"","pricing_plan_id":"free"},{"bike_id":"030625bd-f8ba-4389-9944-df2973894a22","system_id":"levelo_inurba_marseille","lat":43.325731,"lon":5.404186,"is_reserved":false,"is_disabled":false,"rental_uris":{"android":"levelo://app?vid=030625bd-f8ba-4389-9944-df2973894a22","ios":"levelo://app?vid=030625bd-f8ba-4389-9944-df2973894a22"},"vehicle_type_id":"4","last_reported":1699823125,"current_range_meters":0,"station_id":"","pricing_plan_id":"free"},{"bike_id":"4503e5ea-1820-454f-823b-2b17deb58659","system_id":"levelo_inurba_marseille","lat":43.323464,"lon":5.406297,"is_reserved":false,"is_disabled":false,"rental_uris":{"android":"levelo://app?vid=4503e5ea-1820-454f-823b-2b17deb58659","ios":"levelo://app?vid=4503e5ea-1820-454f-823b-2b17deb58659"},"vehicle_type_id":"4","last_reported":1699823125,"current_range_meters":11200,"station_id":"ce4bhq92rcd13ifvqhjg","pricing_plan_id":"free"},{"bike_id":"a05047e5-9b4a-4382-be6d-9fe45326345f","system_id":"levelo_inurba_marseille","lat":43.323464,"lon":5.406297,"is_reserved":false,"is_disabled":false,"rental_uris":{"android":"levelo://app?vid=a05047e5-9b4a-4382-be6d-9fe45326345f","ios":"levelo://app?vid=a05047e5-9b4a-4382-be6d-9fe45326345f"},"vehicle_type_id":"4","last_reported":1699823125,"current_range_meters":14000,"station_id":"ce4bhq92rcd13ifvqhjg","pricing_plan_id":"free"},{"bike_id":"fd4453ca-443e-40fb-8cb1-027f379fdf21","system_id":"levelo_inurba_marseille","lat":43.33717,"lon":5.391857,"is_reserved":false,"is_disabled":false,"rental_uris":{"android":"levelo://app?vid=fd4453ca-443e-40fb-8cb1-027f379fdf21","ios":"levelo://app?vid=fd4453ca-443e-40fb-8cb1-027f379fdf21"},"vehicle_type_id":"4","last_reported":1699823125,"current_range_meters":31200,"station_id":"ce4bhr92rcd13ifvqhsg","pricing_plan_id":"free"},{"bike_id":"dcdaa1e1-4909-46b4-8da4-f2b0beba29ce","system_id":"levelo_inurba_marseille","lat":43.323464,"lon":5.406297,"is_reserved":false,"is_disabled":false,"rental_uris":{"android":"levelo://app?vid=dcdaa1e1-4909-46b4-8da4-f2b0beba29ce","ios":"levelo://app?vid=dcdaa1e1-4909-46b4-8da4-f2b0beba29ce"},"vehicle_type_id":"4","last_reported":1699823125,"current_range_meters":0,"station_id":"ce4bhq92rcd13ifvqhjg","pricing_plan_id":"free"},{"bike_id":"6be23060-1692-4ac1-9f98-95bdac6f72ad","system_id":"levelo_inurba_marseille","lat":43.33717,"lon":5.391857,"is_reserved":false,"is_disabled":false,"rental_uris":{"android":"levelo://app?vid=6be23060-1692-4ac1-9f98-95bdac6f72ad","ios":"levelo://app?vid=6be23060-1692-4ac1-9f98-95bdac6f72ad"},"vehicle_type_id":"4","last_reported":1699823125,"current_range_meters":27600,"station_id":"ce4bhr92rcd13ifvqhsg","pricing_plan_id":"free"},{"bike_id":"8c5ce13e-934e-4217-bf0e-aa236d0f49df","system_id":"levelo_inurba_marseille","lat":43.284787,"lon":5.384116,"is_reserved":false,"is_disabled":false,"rental_uris":{"android":"levelo://app?vid=8c5ce13e-934e-4217-bf0e-aa236d0f49df","ios":"levelo://app?vid=8c5ce13e-934e-4217-bf0e-aa236d0f49df"},"vehicle_type_id":"4","last_reported":1699823125,"current_range_meters":9600,"station_id":"ce4bh512rcd13ifvqe3g","pricing_plan_id":"free"},{"bike_id":"6352f6b7-67f1-4973-8487-fe3ac4baac29","system_id":"levelo_inurba_marseille","lat":43.284793,"lon":5.384119,"is_reserved":false,"is_disabled":false,"rental_uris":{"android":"levelo://app?vid=6352f6b7-67f1-4973-8487-fe3ac4baac29","ios":"levelo://app?vid=6352f6b7-67f1-4973-8487-fe3ac4baac29"},"vehicle_type_id":"4","last_reported":1699823125,"current_range_meters":26000,"station_id":"ce4bh512rcd13ifvqe3g","pricing_plan_id":"free"},{"bike_id":"bb22b86a-3638-48ea-9f46-810176dd70ed","system_id":"levelo_inurba_marseille","lat":43.288501,"lon":5.393087,"is_reserved":false,"is_disabled":false,"rental_uris":{"android":"levelo://app?vid=bb22b86a-3638-48ea-9f46-810176dd70ed","ios":"levelo://app?vid=bb22b86a-3638-48ea-9f46-810176dd70ed"},"vehicle_type_id":"4","last_reported":1699823125,"current_range_meters":12400,"station_id":"ce4bh2p2rcd13ifvqdi0","pricing_plan_id":"free"},{"bike_id":"694cc18d-6823-481a-9d09-67d990c2d197","system_id":"levelo_inurba_marseille","lat":43.324289,"lon":5.407562,"is_reserved":false,"is_disabled":false,"rental_uris":{"android":"levelo://app?vid=694cc18d-6823-481a-9d09-67d990c2d197","ios":"levelo://app?vid=694cc18d-6823-481a-9d09-67d990c2d197"},"vehicle_type_id":"4","last_reported":1699823125,"current_range_meters":0,"station_id":"","pricing_plan_id":"free"},{"bike_id":"4113cb75-6335-4b6e-a193-8aef67b706b6","system_id":"levelo_inurba_marseille","lat":43.292724,"lon":5.401131,"is_reserved":false,"is_disabled":false,"rental_uris":{"android":"levelo://app?vid=4113cb75-6335-4b6e-a193-8aef67b706b6","ios":"levelo://app?vid=4113cb75-6335-4b6e-a193-8aef67b706b6"},"vehicle_type_id":"4","last_reported":1699823125,"current_range_meters":2800,"station_id":"ce4bh312rcd13ifvqdk0","pricing_plan_id":"free"},{"bike_id":"f3a65a6a-315a-40f9-a597-bb658bb39fda","system_id":"levelo_inurba_marseille","lat":43.292724,"lon":5.401131,"is_reserved":false,"is_disabled":false,"rental_uris":{"android":"levelo://app?vid=f3a65a6a-315a-40f9-a597-bb658bb39fda","ios":"levelo://app?vid=f3a65a6a-315a-40f9-a597-bb658bb39fda"},"vehicle_type_id":"4","last_reported":1699823125,"current_range_meters":22400,"station_id":"ce4bh312rcd13ifvqdk0","pricing_plan_id":"free"},{"bike_id":"3c1d2216-dc25-4ca9-9467-a8aa53c1dc34","system_id":"levelo_inurba_marseille","lat":43.33811,"lon":5.3939,"is_reserved":false,"is_disabled":false,"rental_uris":{"android":"levelo://app?vid=3c1d2216-dc25-4ca9-9467-a8aa53c1dc34","ios":"levelo://app?vid=3c1d2216-dc25-4ca9-9467-a8aa53c1dc34"},"vehicle_type_id":"4","last_reported":1699823125,"current_range_meters":29200,"station_id":"","pricing_plan_id":"free"},{"bike_id":"5fb434d3-b6ec-4c66-b1dc-c7b4facf614c","system_id":"levelo_inurba_marseille","lat":43.28039,"lon":5.369297,"is_reserved":false,"is_disabled":false,"rental_uris":{"android":"levelo://app?vid=5fb434d3-b6ec-4c66-b1dc-c7b4facf614c","ios":"levelo://app?vid=5fb434d3-b6ec-4c66-b1dc-c7b4facf614c"},"vehicle_type_id":"4","last_reported":1699823125,"current_range_meters":4800,"station_id":"ce4bha12rcd13ifvqef0","pricing_plan_id":"free"},{"bike_id":"3e7a424f-7a9c-4abb-9809-b22b7112b800","system_id":"levelo_inurba_marseille","lat":43.28039,"lon":5.369297,"is_reserved":false,"is_disabled":false,"rental_uris":{"android":"levelo://app?vid=3e7a424f-7a9c-4abb-9809-b22b7112b800","ios":"levelo://app?vid=3e7a424f-7a9c-4abb-9809-b22b7112b800"},"vehicle_type_id":"4","last_reported":1699823125,"current_range_meters":26800,"station_id":"ce4bha12rcd13ifvqef0","pricing_plan_id":"free"},{"bike_id":"8a5a8df1-cd7b-4a4f-b199-c40e777058ca","system_id":"levelo_inurba_marseille","lat":43.281044,"lon":5.378308,"is_reserved":false,"is_disabled":false,"rental_uris":{"android":"levelo://app?vid=8a5a8df1-cd7b-4a4f-b199-c40e777058ca","ios":"levelo://app?vid=8a5a8df1-cd7b-4a4f-b199-c40e777058ca"},"vehicle_type_id":"4","last_reported":1699823125,"current_range_meters":16800,"station_id":"ce4bha12rcd13ifvqee0","pricing_plan_id":"free"},{"bike_id":"bf1dda2b-9dd4-4250-8f81-b890a4710215","system_id":"levelo_inurba_marseille","lat":43.281044,"lon":5.378308,"is_reserved":false,"is_disabled":false,"rental_uris":{"android":"levelo://app?vid=bf1dda2b-9dd4-4250-8f81-b890a4710215","ios":"levelo://app?vid=bf1dda2b-9dd4-4250-8f81-b890a4710215"},"vehicle_type_id":"4","last_reported":1699823125,"current_range_meters":31200,"station_id":"ce4bha12rcd13ifvqee0","pricing_plan_id":"free"},{"bike_id":"2d817461-c69a-4cbd-b707-0e4b76b807f8","system_id":"levelo_inurba_marseille","lat":43.281044,"lon":5.378308,"is_reserved":false,"is_disabled":false,"rental_uris":{"android":"levelo://app?vid=2d817461-c69a-4cbd-b707-0e4b76b807f8","ios":"levelo://app?vid=2d817461-c69a-4cbd-b707-0e4b76b807f8"},"vehicle_type_id":"4","last_reported":1699823125,"current_range_meters":32000,"station_id":"ce4bha12rcd13ifvqee0","pricing_plan_id":"free"},{"bike_id":"a559ba1a-05cd-4557-a27a-cbe021c6385a","system_id":"levelo_inurba_marseille","lat":43.281044,"lon":5.378308,"is_reserved":false,"is_disabled":false,"rental_uris":{"android":"levelo://app?vid=a559ba1a-05cd-4557-a27a-cbe021c6385a","ios":"levelo://app?vid=a559ba1a-05cd-4557-a27a-cbe021c6385a"},"vehicle_type_id":"4","last_reported":1699823125,"current_range_meters":31200,"station_id":"ce4bha12rcd13ifvqee0","pricing_plan_id":"free"},{"bike_id":"da922573-24f7-4078-8272-7eba38f186de","system_id":"levelo_inurba_marseille","lat":43.281044,"lon":5.378308,"is_reserved":false,"is_disabled":false,"rental_uris":{"android":"levelo://app?vid=da922573-24f7-4078-8272-7eba38f186de","ios":"levelo://app?vid=da922573-24f7-4078-8272-7eba38f186de"},"vehicle_type_id":"4","last_reported":1699823125,"current_range_meters":9200,"station_id":"ce4bha12rcd13ifvqee0","pricing_plan_id":"free"},{"bike_id":"6b970edb-45c5-4b4e-a41c-b02ebb4e1eb4","system_id":"levelo_inurba_marseille","lat":43.281044,"lon":5.378308,"is_reserved":false,"is_disabled":false,"rental_uris":{"android":"levelo://app?vid=6b970edb-45c5-4b4e-a41c-b02ebb4e1eb4","ios":"levelo://app?vid=6b970edb-45c5-4b4e-a41c-b02ebb4e1eb4"},"vehicle_type_id":"4","last_reported":1699823125,"current_range_meters":2400,"station_id":"ce4bha12rcd13ifvqee0","pricing_plan_id":"free"},{"bike_id":"968cdb68-baef-456e-9abc-c82351a48936","system_id":"levelo_inurba_marseille","lat":43.296263,"lon":5.40601,"is_reserved":false,"is_disabled":false,"rental_uris":{"android":"levelo://app?vid=968cdb68-baef-456e-9abc-c82351a48936","ios":"levelo://app?vid=968cdb68-baef-456e-9abc-c82351a48936"},"vehicle_type_id":"4","last_reported":1699823125,"current_range_meters":12800,"station_id":"ce4bh0h2rcd13ifvqd60","pricing_plan_id":"free"},{"bike_id":"3c27eeae-e3cc-44c1-a46f-78f53a923e78","system_id":"levelo_inurba_marseille","lat":43.281044,"lon":5.378308,"is_reserved":false,"is_disabled":false,"rental_uris":{"android":"levelo://app?vid=3c27eeae-e3cc-44c1-a46f-78f53a923e78","ios":"levelo://app?vid=3c27eeae-e3cc-44c1-a46f-78f53a923e78"},"vehicle_type_id":"4","last_reported":1699823125,"current_range_meters":28000,"station_id":"ce4bha12rcd13ifvqee0","pricing_plan_id":"free"},{"bike_id":"90556e0c-957f-463f-a467-f770fa4f97d7","system_id":"levelo_inurba_marseille","lat":43.28096,"lon":5.37848,"is_reserved":false,"is_disabled":false,"rental_uris":{"android":"levelo://app?vid=90556e0c-957f-463f-a467-f770fa4f97d7","ios":"levelo://app?vid=90556e0c-957f-463f-a467-f770fa4f97d7"},"vehicle_type_id":"4","last_reported":1699823125,"current_range_meters":31200,"station_id":"ce4bha12rcd13ifvqee0","pricing_plan_id":"free"},{"bike_id":"2d93e3ad-4f91-4709-9f87-d447ebb78ec3","system_id":"levelo_inurba_marseille","lat":43.281044,"lon":5.378308,"is_reserved":false,"is_disabled":false,"rental_uris":{"android":"levelo://app?vid=2d93e3ad-4f91-4709-9f87-d447ebb78ec3","ios":"levelo://app?vid=2d93e3ad-4f91-4709-9f87-d447ebb78ec3"},"vehicle_type_id":"4","last_reported":1699823125,"current_range_meters":31200,"station_id":"ce4bha12rcd13ifvqee0","pricing_plan_id":"free"},{"bike_id":"c5269fde-c094-4163-a2ac-a6350e774e3c","system_id":"levelo_inurba_marseille","lat":43.323447,"lon":5.41003,"is_reserved":false,"is_disabled":false,"rental_uris":{"android":"levelo://app?vid=c5269fde-c094-4163-a2ac-a6350e774e3c","ios":"levelo://app?vid=c5269fde-c094-4163-a2ac-a6350e774e3c"},"vehicle_type_id":"4","last_reported":1699823125,"current_range_meters":400,"station_id":"","pricing_plan_id":"free"},{"bike_id":"5f800b2e-4fa7-442b-a1af-385e3d6c3002","system_id":"levelo_inurba_marseille","lat":43.284462,"lon":5.392121,"is_reserved":false,"is_disabled":false,"rental_uris":{"android":"levelo://app?vid=5f800b2e-4fa7-442b-a1af-385e3d6c3002","ios":"levelo://app?vid=5f800b2e-4fa7-442b-a1af-385e3d6c3002"},"vehicle_type_id":"4","last_reported":1699823125,"current_range_meters":27200,"station_id":"ce4bhoh2rcd13ifvqh5g","pricing_plan_id":"free"},{"bike_id":"ccf9b17e-2fb6-47d5-b5cb-73ea08fcb6e5","system_id":"levelo_inurba_marseille","lat":43.28575,"lon":5.39498,"is_reserved":false,"is_disabled":false,"rental_uris":{"android":"levelo://app?vid=ccf9b17e-2fb6-47d5-b5cb-73ea08fcb6e5","ios":"levelo://app?vid=ccf9b17e-2fb6-47d5-b5cb-73ea08fcb6e5"},"vehicle_type_id":"4","last_reported":1699823125,"current_range_meters":22800,"station_id":"ce4bh292rcd13ifvqdg0","pricing_plan_id":"free"},{"bike_id":"20b426ae-780d-4a0d-961a-6415c1d2d1a5","system_id":"levelo_inurba_marseille","lat":43.28486,"lon":5.39419,"is_reserved":false,"is_disabled":false,"rental_uris":{"android":"levelo://app?vid=20b426ae-780d-4a0d-961a-6415c1d2d1a5","ios":"levelo://app?vid=20b426ae-780d-4a0d-961a-6415c1d2d1a5"},"vehicle_type_id":"4","last_reported":1699823125,"current_range_meters":0,"station_id":"","pricing_plan_id":"free"},{"bike_id":"01427365-16f3-447e-8b08-58a53891ee73","system_id":"levelo_inurba_marseille","lat":43.304188,"lon":5.412904,"is_reserved":false,"is_disabled":false,"rental_uris":{"android":"levelo://app?vid=01427365-16f3-447e-8b08-58a53891ee73","ios":"levelo://app?vid=01427365-16f3-447e-8b08-58a53891ee73"},"vehicle_type_id":"4","last_reported":1699823125,"current_range_meters":800,"station_id":"ce4bhop2rcd13ifvqh8g","pricing_plan_id":"free"},{"bike_id":"44f87d45-4c30-4be0-a61d-c795b7b0ad56","system_id":"levelo_inurba_marseille","lat":43.304188,"lon":5.412904,"is_reserved":false,"is_disabled":false,"rental_uris":{"android":"levelo://app?vid=44f87d45-4c30-4be0-a61d-c795b7b0ad56","ios":"levelo://app?vid=44f87d45-4c30-4be0-a61d-c795b7b0ad56"},"vehicle_type_id":"4","last_reported":1699823125,"current_range_meters":0,"station_id":"ce4bhop2rcd13ifvqh8g","pricing_plan_id":"free"},{"bike_id":"167f5626-01ee-4d32-b651-78683a377263","system_id":"levelo_inurba_marseille","lat":43.279087,"lon":5.380114,"is_reserved":false,"is_disabled":false,"rental_uris":{"android":"levelo://app?vid=167f5626-01ee-4d32-b651-78683a377263","ios":"levelo://app?vid=167f5626-01ee-4d32-b651-78683a377263"},"vehicle_type_id":"4","last_reported":1699823125,"current_range_meters":10000,"station_id":"ce4bhf92rcd13ifvqf50","pricing_plan_id":"free"},{"bike_id":"d5b58df5-dd27-495f-b02a-c98573273f18","system_id":"levelo_inurba_marseille","lat":43.27903,"lon":5.38014,"is_reserved":false,"is_disabled":false,"rental_uris":{"android":"levelo://app?vid=d5b58df5-dd27-495f-b02a-c98573273f18","ios":"levelo://app?vid=d5b58df5-dd27-495f-b02a-c98573273f18"},"vehicle_type_id":"4","last_reported":1699823125,"current_range_meters":7200,"station_id":"ce4bhf92rcd13ifvqf50","pricing_plan_id":"free"},{"bike_id":"13021e19-1e9e-401d-86fc-f8ab91519eda","system_id":"levelo_inurba_marseille","lat":43.287154,"lon":5.399979,"is_reserved":false,"is_disabled":false,"rental_uris":{"android":"levelo://app?vid=13021e19-1e9e-401d-86fc-f8ab91519eda","ios":"levelo://app?vid=13021e19-1e9e-401d-86fc-f8ab91519eda"},"vehicle_type_id":"4","last_reported":1699823125,"current_range_meters":12000,"station_id":"ce4bho92rcd13ifvqh3g","pricing_plan_id":"free"},{"bike_id":"feca28d2-7019-4e39-96be-d7938cc29597","system_id":"levelo_inurba_marseille","lat":43.32435,"lon":5.4137,"is_reserved":false,"is_disabled":false,"rental_uris":{"android":"levelo://app?vid=feca28d2-7019-4e39-96be-d7938cc29597","ios":"levelo://app?vid=feca28d2-7019-4e39-96be-d7938cc29597"},"vehicle_type_id":"4","last_reported":1699823125,"current_range_meters":16400,"station_id":"","pricing_plan_id":"free"},{"bike_id":"877ab32d-1e62-4bcb-85d7-f962e0a119c5","system_id":"levelo_inurba_marseille","lat":43.279742,"lon":5.38744,"is_reserved":false,"is_disabled":false,"rental_uris":{"android":"levelo://app?vid=877ab32d-1e62-4bcb-85d7-f962e0a119c5","ios":"levelo://app?vid=877ab32d-1e62-4bcb-85d7-f962e0a119c5"},"vehicle_type_id":"4","last_reported":1699823125,"current_range_meters":31200,"station_id":"ce4bhg12rcd13ifvqf80","pricing_plan_id":"free"},{"bike_id":"15988bd8-c593-4766-a448-17b9550bf979","system_id":"levelo_inurba_marseille","lat":43.299579,"lon":5.413255,"is_reserved":false,"is_disabled":false,"rental_uris":{"android":"levelo://app?vid=15988bd8-c593-4766-a448-17b9550bf979","ios":"levelo://app?vid=15988bd8-c593-4766-a448-17b9550bf979"},"vehicle_type_id":"4","last_reported":1699823125,"current_range_meters":30000,"station_id":"ce4bhp12rcd13ifvqh9g","pricing_plan_id":"free"},{"bike_id":"53059404-70ba-4fa4-8212-a7639c29202a","system_id":"levelo_inurba_marseille","lat":43.299577,"lon":5.413277,"is_reserved":false,"is_disabled":false,"rental_uris":{"android":"levelo://app?vid=53059404-70ba-4fa4-8212-a7639c29202a","ios":"levelo://app?vid=53059404-70ba-4fa4-8212-a7639c29202a"},"vehicle_type_id":"4","last_reported":1699823125,"current_range_meters":29200,"station_id":"ce4bhp12rcd13ifvqh9g","pricing_plan_id":"free"},{"bike_id":"ff18391b-c06b-480d-b998-51332e928800","system_id":"levelo_inurba_marseille","lat":43.279742,"lon":5.38744,"is_reserved":false,"is_disabled":false,"rental_uris":{"android":"levelo://app?vid=ff18391b-c06b-480d-b998-51332e928800","ios":"levelo://app?vid=ff18391b-c06b-480d-b998-51332e928800"},"vehicle_type_id":"4","last_reported":1699823125,"current_range_meters":29200,"station_id":"ce4bhg12rcd13ifvqf80","pricing_plan_id":"free"},{"bike_id":"22af7a98-e53f-486d-ae1c-b0437af23ee0","system_id":"levelo_inurba_marseille","lat":43.279742,"lon":5.38744,"is_reserved":false,"is_disabled":false,"rental_uris":{"android":"levelo://app?vid=22af7a98-e53f-486d-ae1c-b0437af23ee0","ios":"levelo://app?vid=22af7a98-e53f-486d-ae1c-b0437af23ee0"},"vehicle_type_id":"4","last_reported":1699823125,"current_range_meters":31600,"station_id":"ce4bhg12rcd13ifvqf80","pricing_plan_id":"free"},{"bike_id":"5d2c6e43-016f-434c-8709-19ca55415589","system_id":"levelo_inurba_marseille","lat":43.279742,"lon":5.38744,"is_reserved":false,"is_disabled":false,"rental_uris":{"android":"levelo://app?vid=5d2c6e43-016f-434c-8709-19ca55415589","ios":"levelo://app?vid=5d2c6e43-016f-434c-8709-19ca55415589"},"vehicle_type_id":"4","last_reported":1699823125,"current_range_meters":13600,"station_id":"ce4bhg12rcd13ifvqf80","pricing_plan_id":"free"},{"bike_id":"fed9c799-7f53-43fb-947e-d7b392ceca56","system_id":"levelo_inurba_marseille","lat":43.320295,"lon":5.415756,"is_reserved":false,"is_disabled":false,"rental_uris":{"android":"levelo://app?vid=fed9c799-7f53-43fb-947e-d7b392ceca56","ios":"levelo://app?vid=fed9c799-7f53-43fb-947e-d7b392ceca56"},"vehicle_type_id":"4","last_reported":1699823125,"current_range_meters":0,"station_id":"ce4bhq92rcd13ifvqhkg","pricing_plan_id":"free"},{"bike_id":"ce45912e-5cd9-4a80-8e9a-3bfbd3d1b2f3","system_id":"levelo_inurba_marseille","lat":43.292569,"lon":5.409107,"is_reserved":false,"is_disabled":false,"rental_uris":{"android":"levelo://app?vid=ce45912e-5cd9-4a80-8e9a-3bfbd3d1b2f3","ios":"levelo://app?vid=ce45912e-5cd9-4a80-8e9a-3bfbd3d1b2f3"},"vehicle_type_id":"4","last_reported":1699823125,"current_range_meters":7200,"station_id":"ce4bh192rcd13ifvqdc0","pricing_plan_id":"free"},{"bike_id":"4218a8bf-a4b2-4517-85e9-1a90d1c826d7","system_id":"levelo_inurba_marseille","lat":43.292571,"lon":5.409107,"is_reserved":false,"is_disabled":false,"rental_uris":{"android":"levelo://app?vid=4218a8bf-a4b2-4517-85e9-1a90d1c826d7","ios":"levelo://app?vid=4218a8bf-a4b2-4517-85e9-1a90d1c826d7"},"vehicle_type_id":"4","last_reported":1699823125,"current_range_meters":1600,"station_id":"ce4bh192rcd13ifvqdc0","pricing_plan_id":"free"},{"bike_id":"4fe0fef6-4d53-4b61-95f6-ee752042efda","system_id":"levelo_inurba_marseille","lat":43.292571,"lon":5.409107,"is_reserved":false,"is_disabled":false,"rental_uris":{"android":"levelo://app?vid=4fe0fef6-4d53-4b61-95f6-ee752042efda","ios":"levelo://app?vid=4fe0fef6-4d53-4b61-95f6-ee752042efda"},"vehicle_type_id":"4","last_reported":1699823125,"current_range_meters":14400,"station_id":"ce4bh192rcd13ifvqdc0","pricing_plan_id":"free"},{"bike_id":"a54e815c-c909-4373-99d0-7ff4a11a8ae6","system_id":"levelo_inurba_marseille","lat":43.292569,"lon":5.409107,"is_reserved":false,"is_disabled":false,"rental_uris":{"android":"levelo://app?vid=a54e815c-c909-4373-99d0-7ff4a11a8ae6","ios":"levelo://app?vid=a54e815c-c909-4373-99d0-7ff4a11a8ae6"},"vehicle_type_id":"4","last_reported":1699823125,"current_range_meters":12400,"station_id":"ce4bh192rcd13ifvqdc0","pricing_plan_id":"free"},{"bike_id":"840fbf52-1160-4d44-b302-1422b6ae8669","system_id":"levelo_inurba_marseille","lat":43.325233,"lon":5.414318,"is_reserved":false,"is_disabled":false,"rental_uris":{"android":"levelo://app?vid=840fbf52-1160-4d44-b302-1422b6ae8669","ios":"levelo://app?vid=840fbf52-1160-4d44-b302-1422b6ae8669"},"vehicle_type_id":"4","last_reported":1699823125,"current_range_meters":23200,"station_id":"ce4bhq12rcd13ifvqhhg","pricing_plan_id":"free"},{"bike_id":"63baf3ba-558d-4d56-8d6d-906c9ff91a74","system_id":"levelo_inurba_marseille","lat":43.280784,"lon":5.396622,"is_reserved":false,"is_disabled":false,"rental_uris":{"android":"levelo://app?vid=63baf3ba-558d-4d56-8d6d-906c9ff91a74","ios":"levelo://app?vid=63baf3ba-558d-4d56-8d6d-906c9ff91a74"},"vehicle_type_id":"4","last_reported":1699823125,"current_range_meters":6000,"station_id":"ce4bho12rcd13ifvqh2g","pricing_plan_id":"free"},{"bike_id":"4f79706a-5b6e-4e9d-b983-de1f6869cb69","system_id":"levelo_inurba_marseille","lat":43.278399,"lon":5.392139,"is_reserved":false,"is_disabled":false,"rental_uris":{"android":"levelo://app?vid=4f79706a-5b6e-4e9d-b983-de1f6869cb69","ios":"levelo://app?vid=4f79706a-5b6e-4e9d-b983-de1f6869cb69"},"vehicle_type_id":"4","last_reported":1699823125,"current_range_meters":13200,"station_id":"ce4bhjp2rcd13ifvqga0","pricing_plan_id":"free"},{"bike_id":"b25748c2-9876-46cc-90ca-ab31f1ff6617","system_id":"levelo_inurba_marseille","lat":43.303837,"lon":5.418724,"is_reserved":false,"is_disabled":false,"rental_uris":{"android":"levelo://app?vid=b25748c2-9876-46cc-90ca-ab31f1ff6617","ios":"levelo://app?vid=b25748c2-9876-46cc-90ca-ab31f1ff6617"},"vehicle_type_id":"4","last_reported":1699823125,"current_range_meters":25200,"station_id":"ce4bhop2rcd13ifvqh7g","pricing_plan_id":"free"},{"bike_id":"0174ebb7-8d9d-4add-9c3f-78c4968b0b8a","system_id":"levelo_inurba_marseille","lat":43.303837,"lon":5.418724,"is_reserved":false,"is_disabled":false,"rental_uris":{"android":"levelo://app?vid=0174ebb7-8d9d-4add-9c3f-78c4968b0b8a","ios":"levelo://app?vid=0174ebb7-8d9d-4add-9c3f-78c4968b0b8a"},"vehicle_type_id":"4","last_reported":1699823125,"current_range_meters":14800,"station_id":"ce4bhop2rcd13ifvqh7g","pricing_plan_id":"free"},{"bike_id":"eef8964f-aeca-43b8-8dbf-42b22016cf33","system_id":"levelo_inurba_marseille","lat":43.278401,"lon":5.392152,"is_reserved":false,"is_disabled":false,"rental_uris":{"android":"levelo://app?vid=eef8964f-aeca-43b8-8dbf-42b22016cf33","ios":"levelo://app?vid=eef8964f-aeca-43b8-8dbf-42b22016cf33"},"vehicle_type_id":"4","last_reported":1699823125,"current_range_meters":7600,"station_id":"ce4bhjp2rcd13ifvqga0","pricing_plan_id":"free"},{"bike_id":"7ff88dac-efc1-4a52-893e-e2079cf6f621","system_id":"levelo_inurba_marseille","lat":43.278401,"lon":5.392152,"is_reserved":false,"is_disabled":false,"rental_uris":{"android":"levelo://app?vid=7ff88dac-efc1-4a52-893e-e2079cf6f621","ios":"levelo://app?vid=7ff88dac-efc1-4a52-893e-e2079cf6f621"},"vehicle_type_id":"4","last_reported":1699823125,"current_range_meters":28000,"station_id":"ce4bhjp2rcd13ifvqga0","pricing_plan_id":"free"},{"bike_id":"49695ef2-e6a6-4f51-991d-10b26dc52ea0","system_id":"levelo_inurba_marseille","lat":43.278399,"lon":5.392139,"is_reserved":false,"is_disabled":false,"rental_uris":{"android":"levelo://app?vid=49695ef2-e6a6-4f51-991d-10b26dc52ea0","ios":"levelo://app?vid=49695ef2-e6a6-4f51-991d-10b26dc52ea0"},"vehicle_type_id":"4","last_reported":1699823125,"current_range_meters":21200,"station_id":"ce4bhjp2rcd13ifvqga0","pricing_plan_id":"free"},{"bike_id":"334698c8-67ab-4670-bbe5-e0247db5967c","system_id":"levelo_inurba_marseille","lat":43.273613,"lon":5.362705,"is_reserved":false,"is_disabled":false,"rental_uris":{"android":"levelo://app?vid=334698c8-67ab-4670-bbe5-e0247db5967c","ios":"levelo://app?vid=334698c8-67ab-4670-bbe5-e0247db5967c"},"vehicle_type_id":"4","last_reported":1699823125,"current_range_meters":5600,"station_id":"ce4bhbh2rcd13ifvqeo0","pricing_plan_id":"free"},{"bike_id":"1a03c32d-3d2d-43cb-8070-acf14f0401aa","system_id":"levelo_inurba_marseille","lat":43.33612,"lon":5.410321,"is_reserved":false,"is_disabled":false,"rental_uris":{"android":"levelo://app?vid=1a03c32d-3d2d-43cb-8070-acf14f0401aa","ios":"levelo://app?vid=1a03c32d-3d2d-43cb-8070-acf14f0401aa"},"vehicle_type_id":"4","last_reported":1699823125,"current_range_meters":400,"station_id":"ce4bhqh2rcd13ifvqhmg","pricing_plan_id":"free"},{"bike_id":"991d2424-2ab5-4bbf-aee9-8bc83b0f6e8c","system_id":"levelo_inurba_marseille","lat":43.275625,"lon":5.384392,"is_reserved":false,"is_disabled":false,"rental_uris":{"android":"levelo://app?vid=991d2424-2ab5-4bbf-aee9-8bc83b0f6e8c","ios":"levelo://app?vid=991d2424-2ab5-4bbf-aee9-8bc83b0f6e8c"},"vehicle_type_id":"4","last_reported":1699823125,"current_range_meters":26800,"station_id":"ce4bhh92rcd13ifvqfi0","pricing_plan_id":"free"},{"bike_id":"8d81838e-dc2e-4e52-ac2a-e02a18be5542","system_id":"levelo_inurba_marseille","lat":43.276771,"lon":5.388799,"is_reserved":false,"is_disabled":false,"rental_uris":{"android":"levelo://app?vid=8d81838e-dc2e-4e52-ac2a-e02a18be5542","ios":"levelo://app?vid=8d81838e-dc2e-4e52-ac2a-e02a18be5542"},"vehicle_type_id":"4","last_reported":1699823125,"current_range_meters":31200,"station_id":"ce4bhi12rcd13ifvqfo0","pricing_plan_id":"free"},{"bike_id":"fd9bedd4-6f10-46d5-9ff2-7a887c5e8ebe","system_id":"levelo_inurba_marseille","lat":43.29826,"lon":5.41905,"is_reserved":false,"is_disabled":false,"rental_uris":{"android":"levelo://app?vid=fd9bedd4-6f10-46d5-9ff2-7a887c5e8ebe","ios":"levelo://app?vid=fd9bedd4-6f10-46d5-9ff2-7a887c5e8ebe"},"vehicle_type_id":"4","last_reported":1699823125,"current_range_meters":14000,"station_id":"","pricing_plan_id":"free"},{"bike_id":"ff98e144-160a-4c1e-892c-f941970edfb7","system_id":"levelo_inurba_marseille","lat":43.340804,"lon":5.410219,"is_reserved":false,"is_disabled":false,"rental_uris":{"android":"levelo://app?vid=ff98e144-160a-4c1e-892c-f941970edfb7","ios":"levelo://app?vid=ff98e144-160a-4c1e-892c-f941970edfb7"},"vehicle_type_id":"4","last_reported":1699823125,"current_range_meters":27200,"station_id":"ce4bhqh2rcd13ifvqhlg","pricing_plan_id":"free"},{"bike_id":"4feea2ed-2b34-4184-971a-248a05716fd1","system_id":"levelo_inurba_marseille","lat":43.340804,"lon":5.410219,"is_reserved":false,"is_disabled":false,"rental_uris":{"android":"levelo://app?vid=4feea2ed-2b34-4184-971a-248a05716fd1","ios":"levelo://app?vid=4feea2ed-2b34-4184-971a-248a05716fd1"},"vehicle_type_id":"4","last_reported":1699823125,"current_range_meters":0,"station_id":"ce4bhqh2rcd13ifvqhlg","pricing_plan_id":"free"},{"bike_id":"397247cf-db4a-4051-a069-2afc979f8f6b","system_id":"levelo_inurba_marseille","lat":43.274099,"lon":5.394019,"is_reserved":false,"is_disabled":false,"rental_uris":{"android":"levelo://app?vid=397247cf-db4a-4051-a069-2afc979f8f6b","ios":"levelo://app?vid=397247cf-db4a-4051-a069-2afc979f8f6b"},"vehicle_type_id":"4","last_reported":1699823125,"current_range_meters":5600,"station_id":"ce4bhdp2rcd13ifvqf20","pricing_plan_id":"free"},{"bike_id":"56fc6c2c-64c4-4cbc-b368-c965f0c371ee","system_id":"levelo_inurba_marseille","lat":43.295523,"lon":5.422926,"is_reserved":false,"is_disabled":false,"rental_uris":{"android":"levelo://app?vid=56fc6c2c-64c4-4cbc-b368-c965f0c371ee","ios":"levelo://app?vid=56fc6c2c-64c4-4cbc-b368-c965f0c371ee"},"vehicle_type_id":"4","last_reported":1699823125,"current_range_meters":31200,"station_id":"ce4bhph2rcd13ifvqhdg","pricing_plan_id":"free"},{"bike_id":"fc23ceec-b45a-4766-9c80-384d82439159","system_id":"levelo_inurba_marseille","lat":43.295511,"lon":5.422926,"is_reserved":false,"is_disabled":false,"rental_uris":{"android":"levelo://app?vid=fc23ceec-b45a-4766-9c80-384d82439159","ios":"levelo://app?vid=fc23ceec-b45a-4766-9c80-384d82439159"},"vehicle_type_id":"4","last_reported":1699823125,"current_range_meters":27600,"station_id":"ce4bhph2rcd13ifvqhdg","pricing_plan_id":"free"},{"bike_id":"6d9289d7-7903-4242-90a4-d291f4ed4153","system_id":"levelo_inurba_marseille","lat":43.27216,"lon":5.39256,"is_reserved":false,"is_disabled":false,"rental_uris":{"android":"levelo://app?vid=6d9289d7-7903-4242-90a4-d291f4ed4153","ios":"levelo://app?vid=6d9289d7-7903-4242-90a4-d291f4ed4153"},"vehicle_type_id":"4","last_reported":1699823125,"current_range_meters":10400,"station_id":"","pricing_plan_id":"free"},{"bike_id":"9c86b824-2168-4f46-b290-9c226cef33eb","system_id":"levelo_inurba_marseille","lat":43.27192,"lon":5.39228,"is_reserved":false,"is_disabled":false,"rental_uris":{"android":"levelo://app?vid=9c86b824-2168-4f46-b290-9c226cef33eb","ios":"levelo://app?vid=9c86b824-2168-4f46-b290-9c226cef33eb"},"vehicle_type_id":"4","last_reported":1699823125,"current_range_meters":27600,"station_id":"ce4bhhp2rcd13ifvqfm0","pricing_plan_id":"free"},{"bike_id":"fe75077d-42bf-43ae-8fa2-44109df3d40a","system_id":"levelo_inurba_marseille","lat":43.27203,"lon":5.39295,"is_reserved":false,"is_disabled":false,"rental_uris":{"android":"levelo://app?vid=fe75077d-42bf-43ae-8fa2-44109df3d40a","ios":"levelo://app?vid=fe75077d-42bf-43ae-8fa2-44109df3d40a"},"vehicle_type_id":"4","last_reported":1699823125,"current_range_meters":14000,"station_id":"","pricing_plan_id":"free"},{"bike_id":"f05c8540-8d0e-4ef9-b12b-37f30ddb77fe","system_id":"levelo_inurba_marseille","lat":43.278128,"lon":5.407195,"is_reserved":false,"is_disabled":false,"rental_uris":{"android":"levelo://app?vid=f05c8540-8d0e-4ef9-b12b-37f30ddb77fe","ios":"levelo://app?vid=f05c8540-8d0e-4ef9-b12b-37f30ddb77fe"},"vehicle_type_id":"4","last_reported":1699823125,"current_range_meters":17200,"station_id":"ce4bhnh2rcd13ifvqgtg","pricing_plan_id":"free"},{"bike_id":"efca339d-42b0-4c89-b867-f26b82dc455c","system_id":"levelo_inurba_marseille","lat":43.279469,"lon":5.410558,"is_reserved":false,"is_disabled":false,"rental_uris":{"android":"levelo://app?vid=efca339d-42b0-4c89-b867-f26b82dc455c","ios":"levelo://app?vid=efca339d-42b0-4c89-b867-f26b82dc455c"},"vehicle_type_id":"4","last_reported":1699823125,"current_range_meters":9600,"station_id":"","pricing_plan_id":"free"},{"bike_id":"713ff605-788c-4c64-a348-2b5dbc300042","system_id":"levelo_inurba_marseille","lat":43.279465,"lon":5.410561,"is_reserved":false,"is_disabled":false,"rental_uris":{"android":"levelo://app?vid=713ff605-788c-4c64-a348-2b5dbc300042","ios":"levelo://app?vid=713ff605-788c-4c64-a348-2b5dbc300042"},"vehicle_type_id":"4","last_reported":1699823125,"current_range_meters":13600,"station_id":"ce4bhnp2rcd13ifvqh0g","pricing_plan_id":"free"},{"bike_id":"7aa19b2a-36a8-4d1d-ae36-159a0d386dea","system_id":"levelo_inurba_marseille","lat":43.26945,"lon":5.38925,"is_reserved":false,"is_disabled":false,"rental_uris":{"android":"levelo://app?vid=7aa19b2a-36a8-4d1d-ae36-159a0d386dea","ios":"levelo://app?vid=7aa19b2a-36a8-4d1d-ae36-159a0d386dea"},"vehicle_type_id":"4","last_reported":1699823125,"current_range_meters":19600,"station_id":"ce4bhhh2rcd13ifvqfl0","pricing_plan_id":"free"},{"bike_id":"d0a9d780-9e13-4e1a-b1ed-d8bb96ac55e8","system_id":"levelo_inurba_marseille","lat":43.269319,"lon":5.389397,"is_reserved":false,"is_disabled":false,"rental_uris":{"android":"levelo://app?vid=d0a9d780-9e13-4e1a-b1ed-d8bb96ac55e8","ios":"levelo://app?vid=d0a9d780-9e13-4e1a-b1ed-d8bb96ac55e8"},"vehicle_type_id":"4","last_reported":1699823125,"current_range_meters":7600,"station_id":"ce4bhhh2rcd13ifvqfl0","pricing_plan_id":"free"},{"bike_id":"93eb5247-5b48-47bf-9718-b0b83b911145","system_id":"levelo_inurba_marseille","lat":43.26559,"lon":5.37283,"is_reserved":false,"is_disabled":false,"rental_uris":{"android":"levelo://app?vid=93eb5247-5b48-47bf-9718-b0b83b911145","ios":"levelo://app?vid=93eb5247-5b48-47bf-9718-b0b83b911145"},"vehicle_type_id":"4","last_reported":1699823125,"current_range_meters":5200,"station_id":"ce4bhg12rcd13ifvqf70","pricing_plan_id":"free"},{"bike_id":"e5b3c414-b2f0-4a8d-91d3-128d7b7f740b","system_id":"levelo_inurba_marseille","lat":43.27999,"lon":5.41667,"is_reserved":false,"is_disabled":false,"rental_uris":{"android":"levelo://app?vid=e5b3c414-b2f0-4a8d-91d3-128d7b7f740b","ios":"levelo://app?vid=e5b3c414-b2f0-4a8d-91d3-128d7b7f740b"},"vehicle_type_id":"4","last_reported":1699823125,"current_range_meters":18000,"station_id":"ce4bho12rcd13ifvqh1g","pricing_plan_id":"free"},{"bike_id":"60a8d005-4b07-464a-b003-604a3d858902","system_id":"levelo_inurba_marseille","lat":43.267966,"lon":5.393976,"is_reserved":false,"is_disabled":false,"rental_uris":{"android":"levelo://app?vid=60a8d005-4b07-464a-b003-604a3d858902","ios":"levelo://app?vid=60a8d005-4b07-464a-b003-604a3d858902"},"vehicle_type_id":"4","last_reported":1699823125,"current_range_meters":29600,"station_id":"ce4bhh12rcd13ifvqfg0","pricing_plan_id":"free"},{"bike_id":"575ca992-e936-4074-b7c6-852b3c666dc2","system_id":"levelo_inurba_marseille","lat":43.308051,"lon":5.43527,"is_reserved":false,"is_disabled":false,"rental_uris":{"android":"levelo://app?vid=575ca992-e936-4074-b7c6-852b3c666dc2","ios":"levelo://app?vid=575ca992-e936-4074-b7c6-852b3c666dc2"},"vehicle_type_id":"4","last_reported":1699823125,"current_range_meters":30000,"station_id":"ce4bhph2rcd13ifvqheg","pricing_plan_id":"free"},{"bike_id":"f39776f8-e338-4e5d-8296-2a44b065e822","system_id":"levelo_inurba_marseille","lat":43.30799,"lon":5.43527,"is_reserved":false,"is_disabled":false,"rental_uris":{"android":"levelo://app?vid=f39776f8-e338-4e5d-8296-2a44b065e822","ios":"levelo://app?vid=f39776f8-e338-4e5d-8296-2a44b065e822"},"vehicle_type_id":"4","last_reported":1699823125,"current_range_meters":30400,"station_id":"ce4bhph2rcd13ifvqheg","pricing_plan_id":"free"},{"bike_id":"44696f94-6acd-4f07-a5e7-d3aefe617c01","system_id":"levelo_inurba_marseille","lat":43.2657,"lon":5.3901,"is_reserved":false,"is_disabled":false,"rental_uris":{"android":"levelo://app?vid=44696f94-6acd-4f07-a5e7-d3aefe617c01","ios":"levelo://app?vid=44696f94-6acd-4f07-a5e7-d3aefe617c01"},"vehicle_type_id":"4","last_reported":1699823125,"current_range_meters":26400,"station_id":"ce4bhe12rcd13ifvqf30","pricing_plan_id":"free"},{"bike_id":"033771a6-1055-48d2-9826-6454c9f5b3f7","system_id":"levelo_inurba_marseille","lat":43.307951,"lon":5.435291,"is_reserved":false,"is_disabled":false,"rental_uris":{"android":"levelo://app?vid=033771a6-1055-48d2-9826-6454c9f5b3f7","ios":"levelo://app?vid=033771a6-1055-48d2-9826-6454c9f5b3f7"},"vehicle_type_id":"4","last_reported":1699823125,"current_range_meters":0,"station_id":"ce4bhph2rcd13ifvqheg","pricing_plan_id":"free"},{"bike_id":"6dd7cebf-3d20-478f-aaad-96d20c64f6df","system_id":"levelo_inurba_marseille","lat":43.2694,"lon":5.40247,"is_reserved":false,"is_disabled":false,"rental_uris":{"android":"levelo://app?vid=6dd7cebf-3d20-478f-aaad-96d20c64f6df","ios":"levelo://app?vid=6dd7cebf-3d20-478f-aaad-96d20c64f6df"},"vehicle_type_id":"4","last_reported":1699823125,"current_range_meters":6400,"station_id":"cjm6bp8fraef2m0cb0m0","pricing_plan_id":"free"},{"bike_id":"2aa6c4b1-a67d-43b7-9eb1-fe5b5bec91bf","system_id":"levelo_inurba_marseille","lat":43.32903,"lon":5.43282,"is_reserved":false,"is_disabled":false,"rental_uris":{"android":"levelo://app?vid=2aa6c4b1-a67d-43b7-9eb1-fe5b5bec91bf","ios":"levelo://app?vid=2aa6c4b1-a67d-43b7-9eb1-fe5b5bec91bf"},"vehicle_type_id":"4","last_reported":1699823125,"current_range_meters":8400,"station_id":"","pricing_plan_id":"free"},{"bike_id":"cfbf6d8d-381c-43fe-9ed8-d6c956f5fbdb","system_id":"levelo_inurba_marseille","lat":43.317104,"lon":5.436818,"is_reserved":false,"is_disabled":false,"rental_uris":{"android":"levelo://app?vid=cfbf6d8d-381c-43fe-9ed8-d6c956f5fbdb","ios":"levelo://app?vid=cfbf6d8d-381c-43fe-9ed8-d6c956f5fbdb"},"vehicle_type_id":"4","last_reported":1699823125,"current_range_meters":28400,"station_id":"ce4bhp92rcd13ifvqhcg","pricing_plan_id":"free"},{"bike_id":"b2d49cda-f49e-4bbf-bbac-372e27fe7e4f","system_id":"levelo_inurba_marseille","lat":43.271368,"lon":5.40928,"is_reserved":false,"is_disabled":false,"rental_uris":{"android":"levelo://app?vid=b2d49cda-f49e-4bbf-bbac-372e27fe7e4f","ios":"levelo://app?vid=b2d49cda-f49e-4bbf-bbac-372e27fe7e4f"},"vehicle_type_id":"4","last_reported":1699823125,"current_range_meters":25200,"station_id":"ce4bhl12rcd13ifvqgf0","pricing_plan_id":"free"},{"bike_id":"37f830c7-7ef2-48bf-a546-636135f99c0d","system_id":"levelo_inurba_marseille","lat":43.271388,"lon":5.409269,"is_reserved":false,"is_disabled":false,"rental_uris":{"android":"levelo://app?vid=37f830c7-7ef2-48bf-a546-636135f99c0d","ios":"levelo://app?vid=37f830c7-7ef2-48bf-a546-636135f99c0d"},"vehicle_type_id":"4","last_reported":1699823125,"current_range_meters":32000,"station_id":"ce4bhl12rcd13ifvqgf0","pricing_plan_id":"free"},{"bike_id":"982f2640-dc83-4b0c-ac35-458c9efcd9e1","system_id":"levelo_inurba_marseille","lat":43.271368,"lon":5.40928,"is_reserved":false,"is_disabled":false,"rental_uris":{"android":"levelo://app?vid=982f2640-dc83-4b0c-ac35-458c9efcd9e1","ios":"levelo://app?vid=982f2640-dc83-4b0c-ac35-458c9efcd9e1"},"vehicle_type_id":"4","last_reported":1699823125,"current_range_meters":18000,"station_id":"ce4bhl12rcd13ifvqgf0","pricing_plan_id":"free"},{"bike_id":"e3431aef-33d7-4a96-bc9f-00e1c07f5ea1","system_id":"levelo_inurba_marseille","lat":43.271388,"lon":5.409269,"is_reserved":false,"is_disabled":false,"rental_uris":{"android":"levelo://app?vid=e3431aef-33d7-4a96-bc9f-00e1c07f5ea1","ios":"levelo://app?vid=e3431aef-33d7-4a96-bc9f-00e1c07f5ea1"},"vehicle_type_id":"4","last_reported":1699823125,"current_range_meters":17200,"station_id":"ce4bhl12rcd13ifvqgf0","pricing_plan_id":"free"},{"bike_id":"3a17f1e6-fc5e-4ea6-8e27-5b38260ca458","system_id":"levelo_inurba_marseille","lat":43.267959,"lon":5.402687,"is_reserved":false,"is_disabled":false,"rental_uris":{"android":"levelo://app?vid=3a17f1e6-fc5e-4ea6-8e27-5b38260ca458","ios":"levelo://app?vid=3a17f1e6-fc5e-4ea6-8e27-5b38260ca458"},"vehicle_type_id":"4","last_reported":1699823125,"current_range_meters":30400,"station_id":"ce501612rcd8frsf0b60","pricing_plan_id":"free"},{"bike_id":"e4a2ea1e-0cba-46fc-8713-2d85f148df36","system_id":"levelo_inurba_marseille","lat":43.274208,"lon":5.414634,"is_reserved":false,"is_disabled":false,"rental_uris":{"android":"levelo://app?vid=e4a2ea1e-0cba-46fc-8713-2d85f148df36","ios":"levelo://app?vid=e4a2ea1e-0cba-46fc-8713-2d85f148df36"},"vehicle_type_id":"4","last_reported":1699823125,"current_range_meters":2000,"station_id":"","pricing_plan_id":"free"},{"bike_id":"a13c7f78-1111-4a67-b445-29e3bdbafa23","system_id":"levelo_inurba_marseille","lat":43.29898,"lon":5.4366,"is_reserved":false,"is_disabled":false,"rental_uris":{"android":"levelo://app?vid=a13c7f78-1111-4a67-b445-29e3bdbafa23","ios":"levelo://app?vid=a13c7f78-1111-4a67-b445-29e3bdbafa23"},"vehicle_type_id":"4","last_reported":1699823125,"current_range_meters":28800,"station_id":"ce4bhpp2rcd13ifvqhfg","pricing_plan_id":"free"},{"bike_id":"40d56399-8859-4a30-8413-a099043eaef7","system_id":"levelo_inurba_marseille","lat":43.298768,"lon":5.43643,"is_reserved":false,"is_disabled":false,"rental_uris":{"android":"levelo://app?vid=40d56399-8859-4a30-8413-a099043eaef7","ios":"levelo://app?vid=40d56399-8859-4a30-8413-a099043eaef7"},"vehicle_type_id":"4","last_reported":1699823125,"current_range_meters":28000,"station_id":"ce4bhpp2rcd13ifvqhfg","pricing_plan_id":"free"},{"bike_id":"4f6880f4-3164-4fc2-9cf7-3c1358040f10","system_id":"levelo_inurba_marseille","lat":43.290501,"lon":5.433305,"is_reserved":false,"is_disabled":false,"rental_uris":{"android":"levelo://app?vid=4f6880f4-3164-4fc2-9cf7-3c1358040f10","ios":"levelo://app?vid=4f6880f4-3164-4fc2-9cf7-3c1358040f10"},"vehicle_type_id":"4","last_reported":1699823125,"current_range_meters":14400,"station_id":"","pricing_plan_id":"free"},{"bike_id":"d17e2b19-1a3f-4f47-9a6d-406879e90be8","system_id":"levelo_inurba_marseille","lat":43.281548,"lon":5.42643,"is_reserved":false,"is_disabled":false,"rental_uris":{"android":"levelo://app?vid=d17e2b19-1a3f-4f47-9a6d-406879e90be8","ios":"levelo://app?vid=d17e2b19-1a3f-4f47-9a6d-406879e90be8"},"vehicle_type_id":"4","last_reported":1699823125,"current_range_meters":17600,"station_id":"ce4bhnh2rcd13ifvqgug","pricing_plan_id":"free"},{"bike_id":"28697511-5971-48fb-b83b-4d17441dafdf","system_id":"levelo_inurba_marseille","lat":43.26096,"lon":5.39762,"is_reserved":false,"is_disabled":false,"rental_uris":{"android":"levelo://app?vid=28697511-5971-48fb-b83b-4d17441dafdf","ios":"levelo://app?vid=28697511-5971-48fb-b83b-4d17441dafdf"},"vehicle_type_id":"4","last_reported":1699823125,"current_range_meters":10800,"station_id":"ce4bhi12rcd13ifvqfq0","pricing_plan_id":"free"},{"bike_id":"9620b760-d123-4073-a710-29a11f51fd29","system_id":"levelo_inurba_marseille","lat":43.26093,"lon":5.39759,"is_reserved":false,"is_disabled":false,"rental_uris":{"android":"levelo://app?vid=9620b760-d123-4073-a710-29a11f51fd29","ios":"levelo://app?vid=9620b760-d123-4073-a710-29a11f51fd29"},"vehicle_type_id":"4","last_reported":1699823125,"current_range_meters":16400,"station_id":"ce4bhi12rcd13ifvqfq0","pricing_plan_id":"free"},{"bike_id":"39b50ce2-616e-4d24-9a66-7f25ce523b5d","system_id":"levelo_inurba_marseille","lat":43.27493,"lon":5.42455,"is_reserved":false,"is_disabled":false,"rental_uris":{"android":"levelo://app?vid=39b50ce2-616e-4d24-9a66-7f25ce523b5d","ios":"levelo://app?vid=39b50ce2-616e-4d24-9a66-7f25ce523b5d"},"vehicle_type_id":"4","last_reported":1699823125,"current_range_meters":0,"station_id":"ce4bhn92rcd13ifvqgrg","pricing_plan_id":"free"},{"bike_id":"f2307a4c-7611-4db6-b58a-5736d1e13606","system_id":"levelo_inurba_marseille","lat":43.2583,"lon":5.39434,"is_reserved":false,"is_disabled":false,"rental_uris":{"android":"levelo://app?vid=f2307a4c-7611-4db6-b58a-5736d1e13606","ios":"levelo://app?vid=f2307a4c-7611-4db6-b58a-5736d1e13606"},"vehicle_type_id":"4","last_reported":1699823125,"current_range_meters":20000,"station_id":"ce4bhip2rcd13ifvqft0","pricing_plan_id":"free"},{"bike_id":"09fb4565-53dc-4aea-b5c5-1e9781581ac0","system_id":"levelo_inurba_marseille","lat":43.258224,"lon":5.394369,"is_reserved":false,"is_disabled":false,"rental_uris":{"android":"levelo://app?vid=09fb4565-53dc-4aea-b5c5-1e9781581ac0","ios":"levelo://app?vid=09fb4565-53dc-4aea-b5c5-1e9781581ac0"},"vehicle_type_id":"4","last_reported":1699823125,"current_range_meters":29600,"station_id":"ce4bhip2rcd13ifvqft0","pricing_plan_id":"free"},{"bike_id":"04c6f8eb-106b-4fcf-999c-48017586cb65","system_id":"levelo_inurba_marseille","lat":43.25579,"lon":5.38242,"is_reserved":false,"is_disabled":false,"rental_uris":{"android":"levelo://app?vid=04c6f8eb-106b-4fcf-999c-48017586cb65","ios":"levelo://app?vid=04c6f8eb-106b-4fcf-999c-48017586cb65"},"vehicle_type_id":"4","last_reported":1699823125,"current_range_meters":14800,"station_id":"ce4bhih2rcd13ifvqfs0","pricing_plan_id":"free"},{"bike_id":"69e90556-1136-4b9d-af9a-8e7cc2ceace7","system_id":"levelo_inurba_marseille","lat":43.258224,"lon":5.394369,"is_reserved":false,"is_disabled":false,"rental_uris":{"android":"levelo://app?vid=69e90556-1136-4b9d-af9a-8e7cc2ceace7","ios":"levelo://app?vid=69e90556-1136-4b9d-af9a-8e7cc2ceace7"},"vehicle_type_id":"4","last_reported":1699823125,"current_range_meters":12400,"station_id":"ce4bhip2rcd13ifvqft0","pricing_plan_id":"free"},{"bike_id":"d1be4948-3db8-46c6-a0e9-4eb9877553a6","system_id":"levelo_inurba_marseille","lat":43.25498,"lon":5.37655,"is_reserved":false,"is_disabled":false,"rental_uris":{"android":"levelo://app?vid=d1be4948-3db8-46c6-a0e9-4eb9877553a6","ios":"levelo://app?vid=d1be4948-3db8-46c6-a0e9-4eb9877553a6"},"vehicle_type_id":"4","last_reported":1699823125,"current_range_meters":18400,"station_id":"ce4bhh12rcd13ifvqff0","pricing_plan_id":"free"},{"bike_id":"4be1ebdc-db1b-4995-bcfc-92983416903e","system_id":"levelo_inurba_marseille","lat":43.254947,"lon":5.376454,"is_reserved":false,"is_disabled":false,"rental_uris":{"android":"levelo://app?vid=4be1ebdc-db1b-4995-bcfc-92983416903e","ios":"levelo://app?vid=4be1ebdc-db1b-4995-bcfc-92983416903e"},"vehicle_type_id":"4","last_reported":1699823125,"current_range_meters":20400,"station_id":"ce4bhh12rcd13ifvqff0","pricing_plan_id":"free"},{"bike_id":"39a00078-8fe7-4a8e-8de2-b0623f70b62a","system_id":"levelo_inurba_marseille","lat":43.254947,"lon":5.376454,"is_reserved":false,"is_disabled":false,"rental_uris":{"android":"levelo://app?vid=39a00078-8fe7-4a8e-8de2-b0623f70b62a","ios":"levelo://app?vid=39a00078-8fe7-4a8e-8de2-b0623f70b62a"},"vehicle_type_id":"4","last_reported":1699823125,"current_range_meters":22000,"station_id":"ce4bhh12rcd13ifvqff0","pricing_plan_id":"free"},{"bike_id":"cce421c9-cbad-426a-b834-a86a3411f32e","system_id":"levelo_inurba_marseille","lat":43.259013,"lon":5.409301,"is_reserved":false,"is_disabled":false,"rental_uris":{"android":"levelo://app?vid=cce421c9-cbad-426a-b834-a86a3411f32e","ios":"levelo://app?vid=cce421c9-cbad-426a-b834-a86a3411f32e"},"vehicle_type_id":"4","last_reported":1699823125,"current_range_meters":6800,"station_id":"ce4bhm92rcd13ifvqglg","pricing_plan_id":"free"},{"bike_id":"7db02a47-f10e-4ef9-b04e-f8faa3c33cca","system_id":"levelo_inurba_marseille","lat":43.25937,"lon":5.4091,"is_reserved":false,"is_disabled":false,"rental_uris":{"android":"levelo://app?vid=7db02a47-f10e-4ef9-b04e-f8faa3c33cca","ios":"levelo://app?vid=7db02a47-f10e-4ef9-b04e-f8faa3c33cca"},"vehicle_type_id":"4","last_reported":1699823125,"current_range_meters":21600,"station_id":"ce4bhm92rcd13ifvqglg","pricing_plan_id":"free"},{"bike_id":"61eb8050-b458-46cd-83ba-67a164399a1d","system_id":"levelo_inurba_marseille","lat":43.257079,"lon":5.411051,"is_reserved":false,"is_disabled":false,"rental_uris":{"android":"levelo://app?vid=61eb8050-b458-46cd-83ba-67a164399a1d","ios":"levelo://app?vid=61eb8050-b458-46cd-83ba-67a164399a1d"},"vehicle_type_id":"4","last_reported":1699823125,"current_range_meters":26400,"station_id":"ce4bhkp2rcd13ifvqgd0","pricing_plan_id":"free"},{"bike_id":"9d5c4843-a2b6-46a3-a089-1beb7e614d91","system_id":"levelo_inurba_marseille","lat":43.2479,"lon":5.374457,"is_reserved":false,"is_disabled":false,"rental_uris":{"android":"levelo://app?vid=9d5c4843-a2b6-46a3-a089-1beb7e614d91","ios":"levelo://app?vid=9d5c4843-a2b6-46a3-a089-1beb7e614d91"},"vehicle_type_id":"4","last_reported":1699823125,"current_range_meters":27600,"station_id":"ce4bhgh2rcd13ifvqfb0","pricing_plan_id":"free"},{"bike_id":"dae8844e-8f77-4bfc-be48-aa5e7466caae","system_id":"levelo_inurba_marseille","lat":43.24994,"lon":5.38933,"is_reserved":false,"is_disabled":false,"rental_uris":{"android":"levelo://app?vid=dae8844e-8f77-4bfc-be48-aa5e7466caae","ios":"levelo://app?vid=dae8844e-8f77-4bfc-be48-aa5e7466caae"},"vehicle_type_id":"4","last_reported":1699823125,"current_range_meters":0,"station_id":"ce4bhgp2rcd13ifvqfd0","pricing_plan_id":"free"},{"bike_id":"b661997c-3652-4ea6-a0b1-4085c4cf071c","system_id":"levelo_inurba_marseille","lat":43.2479,"lon":5.374457,"is_reserved":false,"is_disabled":false,"rental_uris":{"android":"levelo://app?vid=b661997c-3652-4ea6-a0b1-4085c4cf071c","ios":"levelo://app?vid=b661997c-3652-4ea6-a0b1-4085c4cf071c"},"vehicle_type_id":"4","last_reported":1699823125,"current_range_meters":6400,"station_id":"ce4bhgh2rcd13ifvqfb0","pricing_plan_id":"free"},{"bike_id":"0a61f338-5ad1-4b59-9775-45cdc502078f","system_id":"levelo_inurba_marseille","lat":43.2479,"lon":5.374457,"is_reserved":false,"is_disabled":false,"rental_uris":{"android":"levelo://app?vid=0a61f338-5ad1-4b59-9775-45cdc502078f","ios":"levelo://app?vid=0a61f338-5ad1-4b59-9775-45cdc502078f"},"vehicle_type_id":"4","last_reported":1699823125,"current_range_meters":25200,"station_id":"ce4bhgh2rcd13ifvqfb0","pricing_plan_id":"free"},{"bike_id":"c5d4f1f1-158a-4450-b652-42c20c0ea935","system_id":"levelo_inurba_marseille","lat":43.2479,"lon":5.374457,"is_reserved":false,"is_disabled":false,"rental_uris":{"android":"levelo://app?vid=c5d4f1f1-158a-4450-b652-42c20c0ea935","ios":"levelo://app?vid=c5d4f1f1-158a-4450-b652-42c20c0ea935"},"vehicle_type_id":"4","last_reported":1699823125,"current_range_meters":12000,"station_id":"ce4bhgh2rcd13ifvqfb0","pricing_plan_id":"free"},{"bike_id":"62fa1369-a457-41b6-8335-4717139987b4","system_id":"levelo_inurba_marseille","lat":43.25089,"lon":5.395157,"is_reserved":false,"is_disabled":false,"rental_uris":{"android":"levelo://app?vid=62fa1369-a457-41b6-8335-4717139987b4","ios":"levelo://app?vid=62fa1369-a457-41b6-8335-4717139987b4"},"vehicle_type_id":"4","last_reported":1699823125,"current_range_meters":19600,"station_id":"ce4bhm12rcd13ifvqgkg","pricing_plan_id":"free"},{"bike_id":"70e7b146-b543-45b0-b7d1-09c9ccb26bcb","system_id":"levelo_inurba_marseille","lat":43.250966,"lon":5.395186,"is_reserved":false,"is_disabled":false,"rental_uris":{"android":"levelo://app?vid=70e7b146-b543-45b0-b7d1-09c9ccb26bcb","ios":"levelo://app?vid=70e7b146-b543-45b0-b7d1-09c9ccb26bcb"},"vehicle_type_id":"4","last_reported":1699823125,"current_range_meters":31200,"station_id":"ce4bhm12rcd13ifvqgkg","pricing_plan_id":"free"},{"bike_id":"684b13d1-fe6f-4f2d-b1c8-13bd8d03bc75","system_id":"levelo_inurba_marseille","lat":43.246685,"lon":5.381703,"is_reserved":false,"is_disabled":false,"rental_uris":{"android":"levelo://app?vid=684b13d1-fe6f-4f2d-b1c8-13bd8d03bc75","ios":"levelo://app?vid=684b13d1-fe6f-4f2d-b1c8-13bd8d03bc75"},"vehicle_type_id":"4","last_reported":1699823125,"current_range_meters":30400,"station_id":"ce4bhih2rcd13ifvqfr0","pricing_plan_id":"free"},{"bike_id":"ad1691fd-b12b-454d-a3cf-1793d137b2a9","system_id":"levelo_inurba_marseille","lat":43.25102,"lon":5.403214,"is_reserved":false,"is_disabled":false,"rental_uris":{"android":"levelo://app?vid=ad1691fd-b12b-454d-a3cf-1793d137b2a9","ios":"levelo://app?vid=ad1691fd-b12b-454d-a3cf-1793d137b2a9"},"vehicle_type_id":"4","last_reported":1699823125,"current_range_meters":18800,"station_id":"ce4bhlh2rcd13ifvqgig","pricing_plan_id":"free"},{"bike_id":"c4a10ebc-05db-4cc6-9d02-56bf19318466","system_id":"levelo_inurba_marseille","lat":43.25102,"lon":5.403214,"is_reserved":false,"is_disabled":false,"rental_uris":{"android":"levelo://app?vid=c4a10ebc-05db-4cc6-9d02-56bf19318466","ios":"levelo://app?vid=c4a10ebc-05db-4cc6-9d02-56bf19318466"},"vehicle_type_id":"4","last_reported":1699823125,"current_range_meters":25600,"station_id":"ce4bhlh2rcd13ifvqgig","pricing_plan_id":"free"},{"bike_id":"496ba75f-e40d-4eff-9d9c-a5945a559922","system_id":"levelo_inurba_marseille","lat":43.251147,"lon":5.403223,"is_reserved":false,"is_disabled":false,"rental_uris":{"android":"levelo://app?vid=496ba75f-e40d-4eff-9d9c-a5945a559922","ios":"levelo://app?vid=496ba75f-e40d-4eff-9d9c-a5945a559922"},"vehicle_type_id":"4","last_reported":1699823125,"current_range_meters":0,"station_id":"ce4bhlh2rcd13ifvqgig","pricing_plan_id":"free"},{"bike_id":"0adef68c-f09f-4e0c-ae96-55897cb46be5","system_id":"levelo_inurba_marseille","lat":43.25102,"lon":5.403214,"is_reserved":false,"is_disabled":false,"rental_uris":{"android":"levelo://app?vid=0adef68c-f09f-4e0c-ae96-55897cb46be5","ios":"levelo://app?vid=0adef68c-f09f-4e0c-ae96-55897cb46be5"},"vehicle_type_id":"4","last_reported":1699823125,"current_range_meters":3600,"station_id":"ce4bhlh2rcd13ifvqgig","pricing_plan_id":"free"},{"bike_id":"86270756-7f27-449d-a206-89de41d75666","system_id":"levelo_inurba_marseille","lat":43.25102,"lon":5.403214,"is_reserved":false,"is_disabled":false,"rental_uris":{"android":"levelo://app?vid=86270756-7f27-449d-a206-89de41d75666","ios":"levelo://app?vid=86270756-7f27-449d-a206-89de41d75666"},"vehicle_type_id":"4","last_reported":1699823125,"current_range_meters":15600,"station_id":"ce4bhlh2rcd13ifvqgig","pricing_plan_id":"free"},{"bike_id":"dfb98506-f267-4b2b-997c-a6a7e03e86de","system_id":"levelo_inurba_marseille","lat":43.25102,"lon":5.403214,"is_reserved":false,"is_disabled":false,"rental_uris":{"android":"levelo://app?vid=dfb98506-f267-4b2b-997c-a6a7e03e86de","ios":"levelo://app?vid=dfb98506-f267-4b2b-997c-a6a7e03e86de"},