{"last_updated":1734516614,"ttl":60,"version":"2.2","data":{"bikes":[{"bike_id":"e6104320-5417-49d8-9b38-1c75866a7d01","system_id":"levelo_inurba_marseille","lat":43.29852,"lon":5.36285,"is_reserved":false,"is_disabled":false,"rental_uris":{"android":"levelo://app?vid=e6104320-5417-49d8-9b38-1c75866a7d01","ios":"levelo://app?vid=e6104320-5417-49d8-9b38-1c75866a7d01"},"vehicle_type_id":"4","last_reported":1734516614,"current_range_meters":38000,"station_id":"ce4bgpp2rcd13ifvqc3g","pricing_plan_id":"cebpf4jnsgd1na2vs0mg"},{"bike_id":"ca9f7c7e-8767-4033-89b4-3355a51d50cc","system_id":"levelo_inurba_marseille","lat":43.26938,"lon":5.38644,"is_reserved":false,"is_disabled":true,"rental_uris":{"android":"levelo://app?vid=ca9f7c7e-8767-4033-89b4-3355a51d50cc","ios":"levelo://app?vid=ca9f7c7e-8767-4033-89b4-3355a51d50cc"},"vehicle_type_id":"4","last_reported":1734516614,"current_range_meters":5600,"station_id":"ce4bhh92rcd13ifvqfh0","pricing_plan_id":"cebpf4jnsgd1na2vs0mg"},{"bike_id":"c691a868-9faf-4a6e-b174-52b8f08a124c","system_id":"levelo_inurba_marseille","lat":43.30558,"lon":5.36525,"is_reserved":false,"is_disabled":false,"rental_uris":{"android":"levelo://app?vid=c691a868-9faf-4a6e-b174-52b8f08a124c","ios":"levelo://app?vid=c691a868-9faf-4a6e-b174-52b8f08a124c"},"vehicle_type_id":"4","last_reported":1734516614,"current_range_meters":19600,"station_id":"ce4bgs12rcd13ifvqcag","pricing_plan_id":"cebpf4jnsgd1na2vs0mg"},{"bike_id":"855da9a6-8ded-42ad-a51c-1944d34be1b3","system_id":"levelo_inurba_marseille","lat":43.24548,"lon":5.39531,"is_reserved":false,"is_disabled":false,"rental_uris":{"android":"levelo://app?vid=855da9a6-8ded-42ad-a51c-1944d34be1b3","ios":"levelo://app?vid=855da9a6-8ded-42ad-a51c-1944d34be1b3"},"vehicle_type_id":"4","last_reported":1734516614,"current_range_meters":32000,"station_id":"ce4bhlp2rcd13ifvqgjg","pricing_plan_id":"cebpf4jnsgd1na2vs0mg"},{"bike_id":"5c951d98-4c84-4f3e-a9eb-76596d7f9651","system_id":"levelo_inurba_marseille","lat":43.30195,"lon":5.39479,"is_reserved":false,"is_disabled":false,"rental_uris":{"android":"levelo://app?vid=5c951d98-4c84-4f3e-a9eb-76596d7f9651","ios":"levelo://app?vid=5c951d98-4c84-4f3e-a9eb-76596d7f9651"},"vehicle_type_id":"4","last_reported":1734516614,"current_range_meters":38800,"station_id":"ce4bh0p2rcd13ifvqd70","pricing_plan_id":"cebpf4jnsgd1na2vs0mg"},{"bike_id":"dfbff602-0c65-449a-92dc-eca5c05a08ae","system_id":"levelo_inurba_marseille","lat":43.28479,"lon":5.38407,"is_reserved":false,"is_disabled":false,"rental_uris":{"android":"levelo://app?vid=dfbff602-0c65-449a-92dc-eca5c05a08ae","ios":"levelo://app?vid=dfbff602-0c65-449a-92dc-eca5c05a08ae"},"vehicle_type_id":"4","last_reported":1734516614,"current_range_meters":36000,"station_id":"ce4bh512rcd13ifvqe3g","pricing_plan_id":"cebpf4jnsgd1na2vs0mg"},{"bike_id":"92d0cc26-4c8a-4033-aa1d-4c61ad4ed1c5","system_id":"levelo_inurba_marseille","lat":43.29168,"lon":5.37158,"is_reserved":false,"is_disabled":false,"rental_uris":{"android":"levelo://app?vid=92d0cc26-4c8a-4033-aa1d-4c61ad4ed1c5","ios":"levelo://app?vid=92d0cc26-4c8a-4033-aa1d-4c61ad4ed1c5"},"vehicle_type_id":"4","last_reported":1734516614,"current_range_meters":22800,"station_id":"ce4bha92rcd13ifvqeh0","pricing_plan_id":"cebpf4jnsgd1na2vs0mg"},{"bike_id":"b1b1f756-c1a0-4e66-8530-9c85602c1813","system_id":"levelo_inurba_marseille","lat":43.32355,"lon":5.36772,"is_reserved":false,"is_disabled":false,"rental_uris":{"android":"levelo://app?vid=b1b1f756-c1a0-4e66-8530-9c85602c1813","ios":"levelo://app?vid=b1b1f756-c1a0-4e66-8530-9c85602c1813"},"vehicle_type_id":"4","last_reported":1734516614,"current_range_meters":18800,"station_id":"ce4bhsh2rcd13ifvqi2g","pricing_plan_id":"cebpf4jnsgd1na2vs0mg"},{"bike_id":"64ff5b0b-103b-402e-8007-73ab97fd567c","system_id":"levelo_inurba_marseille","lat":43.28422,"lon":5.34976,"is_reserved":false,"is_disabled":false,"rental_uris":{"android":"levelo://app?vid=64ff5b0b-103b-402e-8007-73ab97fd567c","ios":"levelo://app?vid=64ff5b0b-103b-402e-8007-73ab97fd567c"},"vehicle_type_id":"4","last_reported":1734516614,"current_range_meters":34000,"station_id":"ce4bhbh2rcd13ifvqepg","pricing_plan_id":"cebpf4jnsgd1na2vs0mg"},{"bike_id":"5c9d787a-ed08-4f6d-aae6-50e448cf550d","system_id":"levelo_inurba_marseille","lat":43.26021,"lon":5.37552,"is_reserved":false,"is_disabled":false,"rental_uris":{"android":"levelo://app?vid=5c9d787a-ed08-4f6d-aae6-50e448cf550d","ios":"levelo://app?vid=5c9d787a-ed08-4f6d-aae6-50e448cf550d"},"vehicle_type_id":"4","last_reported":1734516614,"current_range_meters":31200,"station_id":"ce4bhgh2rcd13ifvqfa0","pricing_plan_id":"cebpf4jnsgd1na2vs0mg"},{"bike_id":"ca408c2b-b0a0-458f-adab-3d4fac921649","system_id":"levelo_inurba_marseille","lat":43.29003,"lon":5.35618,"is_reserved":false,"is_disabled":false,"rental_uris":{"android":"levelo://app?vid=ca408c2b-b0a0-458f-adab-3d4fac921649","ios":"levelo://app?vid=ca408c2b-b0a0-458f-adab-3d4fac921649"},"vehicle_type_id":"4","last_reported":1734516614,"current_range_meters":34800,"station_id":"ce4bhb92rcd13ifvqen0","pricing_plan_id":"cebpf4jnsgd1na2vs0mg"},{"bike_id":"2cbfaab5-9f4a-4072-b700-a09d5c3af5e0","system_id":"levelo_inurba_marseille","lat":43.29525,"lon":5.37511,"is_reserved":false,"is_disabled":false,"rental_uris":{"android":"levelo://app?vid=2cbfaab5-9f4a-4072-b700-a09d5c3af5e0","ios":"levelo://app?vid=2cbfaab5-9f4a-4072-b700-a09d5c3af5e0"},"vehicle_type_id":"4","last_reported":1734516614,"current_range_meters":18800,"station_id":"ce4bgkp2rcd13ifvqbmg","pricing_plan_id":"cebpf4jnsgd1na2vs0mg"},{"bike_id":"519a8516-c8bc-45c7-9f41-f5b8ab91c641","system_id":"levelo_inurba_marseille","lat":43.27502,"lon":5.42455,"is_reserved":false,"is_disabled":false,"rental_uris":{"android":"levelo://app?vid=519a8516-c8bc-45c7-9f41-f5b8ab91c641","ios":"levelo://app?vid=519a8516-c8bc-45c7-9f41-f5b8ab91c641"},"vehicle_type_id":"4","last_reported":1734516614,"current_range_meters":35600,"station_id":"ce4bhn92rcd13ifvqgrg","pricing_plan_id":"cebpf4jnsgd1na2vs0mg"},{"bike_id":"7c120c46-8ebe-4d98-b289-9452884210f8","system_id":"levelo_inurba_marseille","lat":43.314,"lon":5.367,"is_reserved":false,"is_disabled":false,"rental_uris":{"android":"levelo://app?vid=7c120c46-8ebe-4d98-b289-9452884210f8","ios":"levelo://app?vid=7c120c46-8ebe-4d98-b289-9452884210f8"},"vehicle_type_id":"4","last_reported":1734516614,"current_range_meters":28800,"station_id":"ce4bgr92rcd13ifvqc6g","pricing_plan_id":"cebpf4jnsgd1na2vs0mg"},{"bike_id":"58be73d0-d5d6-49d5-a5d7-8c143188158e","system_id":"levelo_inurba_marseille","lat":43.29859,"lon":5.36276,"is_reserved":false,"is_disabled":false,"rental_uris":{"android":"levelo://app?vid=58be73d0-d5d6-49d5-a5d7-8c143188158e","ios":"levelo://app?vid=58be73d0-d5d6-49d5-a5d7-8c143188158e"},"vehicle_type_id":"4","last_reported":1734516614,"current_range_meters":34000,"station_id":"ce4bgpp2rcd13ifvqc3g","pricing_plan_id":"cebpf4jnsgd1na2vs0mg"},{"bike_id":"9c4670ff-16f8-431b-a765-a851341fad40","system_id":"levelo_inurba_marseille","lat":43.27311,"lon":5.39089,"is_reserved":false,"is_disabled":false,"rental_uris":{"android":"levelo://app?vid=9c4670ff-16f8-431b-a765-a851341fad40","ios":"levelo://app?vid=9c4670ff-16f8-431b-a765-a851341fad40"},"vehicle_type_id":"4","last_reported":1734516614,"current_range_meters":13600,"station_id":"ce4bhgp2rcd13ifvqfe0","pricing_plan_id":"cebpf4jnsgd1na2vs0mg"},{"bike_id":"a2104b26-4a01-4dc6-b355-fbab2d119e02","system_id":"levelo_inurba_marseille","lat":43.32471,"lon":5.36564,"is_reserved":false,"is_disabled":false,"rental_uris":{"android":"levelo://app?vid=a2104b26-4a01-4dc6-b355-fbab2d119e02","ios":"levelo://app?vid=a2104b26-4a01-4dc6-b355-fbab2d119e02"},"vehicle_type_id":"4","last_reported":1734516614,"current_range_meters":36000,"station_id":"ce4bhs12rcd13ifvqhvg","pricing_plan_id":"cebpf4jnsgd1na2vs0mg"},{"bike_id":"0b699b18-40a8-48a5-be1e-6c769dfe8468","system_id":"levelo_inurba_marseille","lat":43.30932,"lon":5.36861,"is_reserved":false,"is_disabled":false,"rental_uris":{"android":"levelo://app?vid=0b699b18-40a8-48a5-be1e-6c769dfe8468","ios":"levelo://app?vid=0b699b18-40a8-48a5-be1e-6c769dfe8468"},"vehicle_type_id":"4","last_reported":1734516614,"current_range_meters":28800,"station_id":"ce4bgn92rcd13ifvqbvg","pricing_plan_id":"cebpf4jnsgd1na2vs0mg"},{"bike_id":"bc3432f2-77a4-4d0c-9d48-af95742f3e61","system_id":"levelo_inurba_marseille","lat":43.25934,"lon":5.40905,"is_reserved":false,"is_disabled":true,"rental_uris":{"android":"levelo://app?vid=bc3432f2-77a4-4d0c-9d48-af95742f3e61","ios":"levelo://app?vid=bc3432f2-77a4-4d0c-9d48-af95742f3e61"},"vehicle_type_id":"4","last_reported":1734516614,"current_range_meters":11200,"station_id":"ce4bhm92rcd13ifvqglg","pricing_plan_id":"cebpf4jnsgd1na2vs0mg"},{"bike_id":"6f34c84a-5b9b-4b15-a658-a97da4b06271","system_id":"levelo_inurba_marseille","lat":43.33026,"lon":5.39032,"is_reserved":false,"is_disabled":false,"rental_uris":{"android":"levelo://app?vid=6f34c84a-5b9b-4b15-a658-a97da4b06271","ios":"levelo://app?vid=6f34c84a-5b9b-4b15-a658-a97da4b06271"},"vehicle_type_id":"4","last_reported":1734516614,"current_range_meters":38400,"station_id":"ce4bhr92rcd13ifvqhrg","pricing_plan_id":"cebpf4jnsgd1na2vs0mg"},{"bike_id":"c2157a75-6d75-40a8-a162-1563ef5da2cd","system_id":"levelo_inurba_marseille","lat":43.25578,"lon":5.38234,"is_reserved":false,"is_disabled":false,"rental_uris":{"android":"levelo://app?vid=c2157a75-6d75-40a8-a162-1563ef5da2cd","ios":"levelo://app?vid=c2157a75-6d75-40a8-a162-1563ef5da2cd"},"vehicle_type_id":"4","last_reported":1734516614,"current_range_meters":10000,"station_id":"ce4bhih2rcd13ifvqfs0","pricing_plan_id":"cebpf4jnsgd1na2vs0mg"},{"bike_id":"aacc7da2-1446-4d2a-aa32-e804470fc32d","system_id":"levelo_inurba_marseille","lat":43.30904,"lon":5.40048,"is_reserved":false,"is_disabled":true,"rental_uris":{"android":"levelo://app?vid=aacc7da2-1446-4d2a-aa32-e804470fc32d","ios":"levelo://app?vid=aacc7da2-1446-4d2a-aa32-e804470fc32d"},"vehicle_type_id":"4","last_reported":1734516614,"current_range_meters":0,"station_id":"","pricing_plan_id":"cebpf4jnsgd1na2vs0mg"},{"bike_id":"cd217c80-e1ff-4fc6-9357-e2a21594ddc8","system_id":"levelo_inurba_marseille","lat":43.26187,"lon":5.37453,"is_reserved":false,"is_disabled":false,"rental_uris":{"android":"levelo://app?vid=cd217c80-e1ff-4fc6-9357-e2a21594ddc8","ios":"levelo://app?vid=cd217c80-e1ff-4fc6-9357-e2a21594ddc8"},"vehicle_type_id":"4","last_reported":1734516614,"current_range_meters":34800,"station_id":"ce4bhgp2rcd13ifvqfc0","pricing_plan_id":"cebpf4jnsgd1na2vs0mg"},{"bike_id":"2cb080fb-ba10-4fd5-b777-9b99043e19e7","system_id":"levelo_inurba_marseille","lat":43.24073,"lon":5.37761,"is_reserved":false,"is_disabled":true,"rental_uris":{"android":"levelo://app?vid=2cb080fb-ba10-4fd5-b777-9b99043e19e7","ios":"levelo://app?vid=2cb080fb-ba10-4fd5-b777-9b99043e19e7"},"vehicle_type_id":"4","last_reported":1734516614,"current_range_meters":12000,"station_id":"ce4bhnp2rcd13ifvqgvg","pricing_plan_id":"cebpf4jnsgd1na2vs0mg"},{"bike_id":"d5b7d387-d6c7-4e50-92b4-38a4812c80ef","system_id":"levelo_inurba_marseille","lat":43.29033,"lon":5.39955,"is_reserved":false,"is_disabled":false,"rental_uris":{"android":"levelo://app?vid=d5b7d387-d6c7-4e50-92b4-38a4812c80ef","ios":"levelo://app?vid=d5b7d387-d6c7-4e50-92b4-38a4812c80ef"},"vehicle_type_id":"4","last_reported":1734516614,"current_range_meters":26000,"station_id":"ce4bh392rcd13ifvqdm0","pricing_plan_id":"cebpf4jnsgd1na2vs0mg"},{"bike_id":"124e6c05-4926-4207-84f5-da69a7334d60","system_id":"levelo_inurba_marseille","lat":43.29014,"lon":5.38143,"is_reserved":false,"is_disabled":true,"rental_uris":{"android":"levelo://app?vid=124e6c05-4926-4207-84f5-da69a7334d60","ios":"levelo://app?vid=124e6c05-4926-4207-84f5-da69a7334d60"},"vehicle_type_id":"4","last_reported":1734516614,"current_range_meters":34800,"station_id":"ce4bh4p2rcd13ifvqe1g","pricing_plan_id":"cebpf4jnsgd1na2vs0mg"},{"bike_id":"d830708c-e0a9-42d1-af2a-ac39b02fb74a","system_id":"levelo_inurba_marseille","lat":43.28483,"lon":5.38418,"is_reserved":false,"is_disabled":false,"rental_uris":{"android":"levelo://app?vid=d830708c-e0a9-42d1-af2a-ac39b02fb74a","ios":"levelo://app?vid=d830708c-e0a9-42d1-af2a-ac39b02fb74a"},"vehicle_type_id":"4","last_reported":1734516614,"current_range_meters":27600,"station_id":"ce4bh512rcd13ifvqe3g","pricing_plan_id":"cebpf4jnsgd1na2vs0mg"},{"bike_id":"dc0e6df7-295d-4e62-8939-9c7a9d49b036","system_id":"levelo_inurba_marseille","lat":43.29961,"lon":5.41326,"is_reserved":false,"is_disabled":true,"rental_uris":{"android":"levelo://app?vid=dc0e6df7-295d-4e62-8939-9c7a9d49b036","ios":"levelo://app?vid=dc0e6df7-295d-4e62-8939-9c7a9d49b036"},"vehicle_type_id":"4","last_reported":1734516614,"current_range_meters":26800,"station_id":"ce4bhp12rcd13ifvqh9g","pricing_plan_id":"cebpf4jnsgd1na2vs0mg"},{"bike_id":"12825fc7-c4d4-4652-92c7-b1bbcf86503b","system_id":"levelo_inurba_marseille","lat":43.30528,"lon":5.36525,"is_reserved":false,"is_disabled":false,"rental_uris":{"android":"levelo://app?vid=12825fc7-c4d4-4652-92c7-b1bbcf86503b","ios":"levelo://app?vid=12825fc7-c4d4-4652-92c7-b1bbcf86503b"},"vehicle_type_id":"4","last_reported":1734516614,"current_range_meters":38800,"station_id":"ce4bgs12rcd13ifvqcag","pricing_plan_id":"cebpf4jnsgd1na2vs0mg"},{"bike_id":"30a33bbe-73ac-42f6-974e-9be769a5fac6","system_id":"levelo_inurba_marseille","lat":43.24391,"lon":5.3706,"is_reserved":false,"is_disabled":false,"rental_uris":{"android":"levelo://app?vid=30a33bbe-73ac-42f6-974e-9be769a5fac6","ios":"levelo://app?vid=30a33bbe-73ac-42f6-974e-9be769a5fac6"},"vehicle_type_id":"4","last_reported":1734516614,"current_range_meters":38800,"station_id":"ce4bhhh2rcd13ifvqfk0","pricing_plan_id":"cebpf4jnsgd1na2vs0mg"},{"bike_id":"2491c714-f3f7-493b-9790-9992e16c8fb6","system_id":"levelo_inurba_marseille","lat":43.34137,"lon":5.40905,"is_reserved":false,"is_disabled":true,"rental_uris":{"android":"levelo://app?vid=2491c714-f3f7-493b-9790-9992e16c8fb6","ios":"levelo://app?vid=2491c714-f3f7-493b-9790-9992e16c8fb6"},"vehicle_type_id":"4","last_reported":1734516614,"current_range_meters":38800,"station_id":"ce4bhqh2rcd13ifvqhlg","pricing_plan_id":"cebpf4jnsgd1na2vs0mg"},{"bike_id":"29aec2ee-66d0-4e3e-9555-57c8247a32de","system_id":"levelo_inurba_marseille","lat":43.30464,"lon":5.37905,"is_reserved":false,"is_disabled":false,"rental_uris":{"android":"levelo://app?vid=29aec2ee-66d0-4e3e-9555-57c8247a32de","ios":"levelo://app?vid=29aec2ee-66d0-4e3e-9555-57c8247a32de"},"vehicle_type_id":"4","last_reported":1734516614,"current_range_meters":27200,"station_id":"ce4bgup2rcd13ifvqcn0","pricing_plan_id":"cebpf4jnsgd1na2vs0mg"},{"bike_id":"ea1ee0a0-f240-4d25-84d9-e6fb6fc7a18c","system_id":"levelo_inurba_marseille","lat":43.33768,"lon":5.42095,"is_reserved":false,"is_disabled":true,"rental_uris":{"android":"levelo://app?vid=ea1ee0a0-f240-4d25-84d9-e6fb6fc7a18c","ios":"levelo://app?vid=ea1ee0a0-f240-4d25-84d9-e6fb6fc7a18c"},"vehicle_type_id":"4","last_reported":1734516614,"current_range_meters":0,"station_id":"","pricing_plan_id":"cebpf4jnsgd1na2vs0mg"},{"bike_id":"2e880acb-8570-4d1d-a257-a6cd82cc58e5","system_id":"levelo_inurba_marseille","lat":43.29185,"lon":5.39324,"is_reserved":false,"is_disabled":false,"rental_uris":{"android":"levelo://app?vid=2e880acb-8570-4d1d-a257-a6cd82cc58e5","ios":"levelo://app?vid=2e880acb-8570-4d1d-a257-a6cd82cc58e5"},"vehicle_type_id":"4","last_reported":1734516614,"current_range_meters":12800,"station_id":"ce4bh192rcd13ifvqdd0","pricing_plan_id":"cebpf4jnsgd1na2vs0mg"},{"bike_id":"8347cb1c-b511-4e70-9d82-fb1d9eb6e0c0","system_id":"levelo_inurba_marseille","lat":43.29736,"lon":5.37689,"is_reserved":false,"is_disabled":false,"rental_uris":{"android":"levelo://app?vid=8347cb1c-b511-4e70-9d82-fb1d9eb6e0c0","ios":"levelo://app?vid=8347cb1c-b511-4e70-9d82-fb1d9eb6e0c0"},"vehicle_type_id":"4","last_reported":1734516614,"current_range_meters":4000,"station_id":"ce4bgkh2rcd13ifvqbl0","pricing_plan_id":"cebpf4jnsgd1na2vs0mg"},{"bike_id":"c8f79b9f-b6a3-42c1-83aa-cf20faccc3b4","system_id":"levelo_inurba_marseille","lat":43.26651,"lon":5.38293,"is_reserved":false,"is_disabled":false,"rental_uris":{"android":"levelo://app?vid=c8f79b9f-b6a3-42c1-83aa-cf20faccc3b4","ios":"levelo://app?vid=c8f79b9f-b6a3-42c1-83aa-cf20faccc3b4"},"vehicle_type_id":"4","last_reported":1734516614,"current_range_meters":38800,"station_id":"ce4bhg92rcd13ifvqf90","pricing_plan_id":"cebpf4jnsgd1na2vs0mg"},{"bike_id":"f500c588-6feb-4b09-aaa0-56bd71506c9c","system_id":"levelo_inurba_marseille","lat":43.30138,"lon":5.37411,"is_reserved":false,"is_disabled":false,"rental_uris":{"android":"levelo://app?vid=f500c588-6feb-4b09-aaa0-56bd71506c9c","ios":"levelo://app?vid=f500c588-6feb-4b09-aaa0-56bd71506c9c"},"vehicle_type_id":"4","last_reported":1734516614,"current_range_meters":39200,"station_id":"ce4bgs92rcd13ifvqcc0","pricing_plan_id":"cebpf4jnsgd1na2vs0mg"},{"bike_id":"2fb0526b-04ed-4fc2-9220-f3b5b71c82f3","system_id":"levelo_inurba_marseille","lat":43.2979,"lon":5.38072,"is_reserved":false,"is_disabled":true,"rental_uris":{"android":"levelo://app?vid=2fb0526b-04ed-4fc2-9220-f3b5b71c82f3","ios":"levelo://app?vid=2fb0526b-04ed-4fc2-9220-f3b5b71c82f3"},"vehicle_type_id":"4","last_reported":1734516614,"current_range_meters":39200,"station_id":"ce4bgip2rcd13ifvqbb0","pricing_plan_id":"cebpf4jnsgd1na2vs0mg"},{"bike_id":"c878b11d-02f2-4750-b382-85d9f50963ac","system_id":"levelo_inurba_marseille","lat":43.28151,"lon":5.42646,"is_reserved":false,"is_disabled":false,"rental_uris":{"android":"levelo://app?vid=c878b11d-02f2-4750-b382-85d9f50963ac","ios":"levelo://app?vid=c878b11d-02f2-4750-b382-85d9f50963ac"},"vehicle_type_id":"4","last_reported":1734516614,"current_range_meters":12400,"station_id":"ce4bhnh2rcd13ifvqgug","pricing_plan_id":"cebpf4jnsgd1na2vs0mg"},{"bike_id":"0ac0822a-ae0b-425e-9520-11c76c5f9f56","system_id":"levelo_inurba_marseille","lat":43.30002,"lon":5.38645,"is_reserved":false,"is_disabled":false,"rental_uris":{"android":"levelo://app?vid=0ac0822a-ae0b-425e-9520-11c76c5f9f56","ios":"levelo://app?vid=0ac0822a-ae0b-425e-9520-11c76c5f9f56"},"vehicle_type_id":"4","last_reported":1734516614,"current_range_meters":18800,"station_id":"","pricing_plan_id":"cebpf4jnsgd1na2vs0mg"},{"bike_id":"8ec8de21-32ea-49e6-97f4-c12176bf39ea","system_id":"levelo_inurba_marseille","lat":43.30133,"lon":5.39853,"is_reserved":false,"is_disabled":false,"rental_uris":{"android":"levelo://app?vid=8ec8de21-32ea-49e6-97f4-c12176bf39ea","ios":"levelo://app?vid=8ec8de21-32ea-49e6-97f4-c12176bf39ea"},"vehicle_type_id":"4","last_reported":1734516614,"current_range_meters":35600,"station_id":"ce4bh0h2rcd13ifvqd40","pricing_plan_id":"cebpf4jnsgd1na2vs0mg"},{"bike_id":"d5bb5233-5c13-4106-a5af-af43f6e0c448","system_id":"levelo_inurba_marseille","lat":43.31366,"lon":5.3849,"is_reserved":false,"is_disabled":false,"rental_uris":{"android":"levelo://app?vid=d5bb5233-5c13-4106-a5af-af43f6e0c448","ios":"levelo://app?vid=d5bb5233-5c13-4106-a5af-af43f6e0c448"},"vehicle_type_id":"4","last_reported":1734516614,"current_range_meters":36800,"station_id":"ce4bgt92rcd13ifvqcf0","pricing_plan_id":"cebpf4jnsgd1na2vs0mg"},{"bike_id":"38f20744-af43-4445-b9c5-a52798357518","system_id":"levelo_inurba_marseille","lat":43.25487,"lon":5.37646,"is_reserved":false,"is_disabled":true,"rental_uris":{"android":"levelo://app?vid=38f20744-af43-4445-b9c5-a52798357518","ios":"levelo://app?vid=38f20744-af43-4445-b9c5-a52798357518"},"vehicle_type_id":"4","last_reported":1734516614,"current_range_meters":35600,"station_id":"ce4bhh12rcd13ifvqff0","pricing_plan_id":"cebpf4jnsgd1na2vs0mg"},{"bike_id":"60e6a038-f84d-42c7-86c0-aa0835104675","system_id":"levelo_inurba_marseille","lat":43.28972,"lon":5.37837,"is_reserved":false,"is_disabled":false,"rental_uris":{"android":"levelo://app?vid=60e6a038-f84d-42c7-86c0-aa0835104675","ios":"levelo://app?vid=60e6a038-f84d-42c7-86c0-aa0835104675"},"vehicle_type_id":"4","last_reported":1734516614,"current_range_meters":10000,"station_id":"ce4bh9p2rcd13ifvqed0","pricing_plan_id":"cebpf4jnsgd1na2vs0mg"},{"bike_id":"18948cc8-8067-40b5-adeb-758aaf260f06","system_id":"levelo_inurba_marseille","lat":43.30183,"lon":5.3662,"is_reserved":false,"is_disabled":false,"rental_uris":{"android":"levelo://app?vid=18948cc8-8067-40b5-adeb-758aaf260f06","ios":"levelo://app?vid=18948cc8-8067-40b5-adeb-758aaf260f06"},"vehicle_type_id":"4","last_reported":1734516614,"current_range_meters":38400,"station_id":"ce4bgrh2rcd13ifvqc8g","pricing_plan_id":"cebpf4jnsgd1na2vs0mg"},{"bike_id":"3624c8ce-2825-43f7-98e6-4f668fdc1875","system_id":"levelo_inurba_marseille","lat":43.26208,"lon":5.37919,"is_reserved":false,"is_disabled":false,"rental_uris":{"android":"levelo://app?vid=3624c8ce-2825-43f7-98e6-4f668fdc1875","ios":"levelo://app?vid=3624c8ce-2825-43f7-98e6-4f668fdc1875"},"vehicle_type_id":"4","last_reported":1734516614,"current_range_meters":25600,"station_id":"ce4bhjp2rcd13ifvqg90","pricing_plan_id":"cebpf4jnsgd1na2vs0mg"},{"bike_id":"4cd8f22a-82ae-4985-b778-378a4fb404d0","system_id":"levelo_inurba_marseille","lat":43.29843,"lon":5.36286,"is_reserved":false,"is_disabled":false,"rental_uris":{"android":"levelo://app?vid=4cd8f22a-82ae-4985-b778-378a4fb404d0","ios":"levelo://app?vid=4cd8f22a-82ae-4985-b778-378a4fb404d0"},"vehicle_type_id":"4","last_reported":1734516614,"current_range_meters":10000,"station_id":"ce4bgpp2rcd13ifvqc3g","pricing_plan_id":"cebpf4jnsgd1na2vs0mg"},{"bike_id":"d846a8ff-464c-4527-a01b-eb29ca444cba","system_id":"levelo_inurba_marseille","lat":43.29733,"lon":5.37694,"is_reserved":false,"is_disabled":false,"rental_uris":{"android":"levelo://app?vid=d846a8ff-464c-4527-a01b-eb29ca444cba","ios":"levelo://app?vid=d846a8ff-464c-4527-a01b-eb29ca444cba"},"vehicle_type_id":"4","last_reported":1734516614,"current_range_meters":38000,"station_id":"ce4bgkh2rcd13ifvqbl0","pricing_plan_id":"cebpf4jnsgd1na2vs0mg"},{"bike_id":"0fd81fbc-0a51-4473-a5be-6e7863a5f8be","system_id":"levelo_inurba_marseille","lat":43.3254,"lon":5.41429,"is_reserved":false,"is_disabled":false,"rental_uris":{"android":"levelo://app?vid=0fd81fbc-0a51-4473-a5be-6e7863a5f8be","ios":"levelo://app?vid=0fd81fbc-0a51-4473-a5be-6e7863a5f8be"},"vehicle_type_id":"4","last_reported":1734516614,"current_range_meters":15200,"station_id":"ce4bhq12rcd13ifvqhhg","pricing_plan_id":"cebpf4jnsgd1na2vs0mg"},{"bike_id":"86c83bcb-399d-43cb-a4b5-54e53dfd94eb","system_id":"levelo_inurba_marseille","lat":43.30526,"lon":5.36713,"is_reserved":false,"is_disabled":false,"rental_uris":{"android":"levelo://app?vid=86c83bcb-399d-43cb-a4b5-54e53dfd94eb","ios":"levelo://app?vid=86c83bcb-399d-43cb-a4b5-54e53dfd94eb"},"vehicle_type_id":"4","last_reported":1734516614,"current_range_meters":38800,"station_id":"ce4bgrp2rcd13ifvqc9g","pricing_plan_id":"cebpf4jnsgd1na2vs0mg"},{"bike_id":"88951085-31ef-4c56-8915-fb1111927bb8","system_id":"levelo_inurba_marseille","lat":43.29616,"lon":5.37719,"is_reserved":false,"is_disabled":false,"rental_uris":{"android":"levelo://app?vid=88951085-31ef-4c56-8915-fb1111927bb8","ios":"levelo://app?vid=88951085-31ef-4c56-8915-fb1111927bb8"},"vehicle_type_id":"4","last_reported":1734516614,"current_range_meters":16800,"station_id":"ce4bgi92rcd13ifvqb90","pricing_plan_id":"cebpf4jnsgd1na2vs0mg"},{"bike_id":"ca51f900-76dc-4b0c-8bf1-47e691f349b0","system_id":"levelo_inurba_marseille","lat":43.29522,"lon":5.37513,"is_reserved":false,"is_disabled":false,"rental_uris":{"android":"levelo://app?vid=ca51f900-76dc-4b0c-8bf1-47e691f349b0","ios":"levelo://app?vid=ca51f900-76dc-4b0c-8bf1-47e691f349b0"},"vehicle_type_id":"4","last_reported":1734516614,"current_range_meters":36800,"station_id":"ce4bgkp2rcd13ifvqbmg","pricing_plan_id":"cebpf4jnsgd1na2vs0mg"},{"bike_id":"77b045ec-31af-4db4-b5a1-524f94c3c261","system_id":"levelo_inurba_marseille","lat":43.293,"lon":5.37437,"is_reserved":false,"is_disabled":false,"rental_uris":{"android":"levelo://app?vid=77b045ec-31af-4db4-b5a1-524f94c3c261","ios":"levelo://app?vid=77b045ec-31af-4db4-b5a1-524f94c3c261"},"vehicle_type_id":"4","last_reported":1734516614,"current_range_meters":33600,"station_id":"ce4bgi12rcd13ifvqb70","pricing_plan_id":"cebpf4jnsgd1na2vs0mg"},{"bike_id":"70b6a4fd-0593-42e9-8bf3-85d62fa7e289","system_id":"levelo_inurba_marseille","lat":43.30279,"lon":5.37704,"is_reserved":false,"is_disabled":false,"rental_uris":{"android":"levelo://app?vid=70b6a4fd-0593-42e9-8bf3-85d62fa7e289","ios":"levelo://app?vid=70b6a4fd-0593-42e9-8bf3-85d62fa7e289"},"vehicle_type_id":"4","last_reported":1734516614,"current_range_meters":24800,"station_id":"ce4bguh2rcd13ifvqcj0","pricing_plan_id":"cebpf4jnsgd1na2vs0mg"},{"bike_id":"86a2f59f-76d3-48d6-b9af-2d85a375ca86","system_id":"levelo_inurba_marseille","lat":43.28719,"lon":5.37939,"is_reserved":false,"is_disabled":false,"rental_uris":{"android":"levelo://app?vid=86a2f59f-76d3-48d6-b9af-2d85a375ca86","ios":"levelo://app?vid=86a2f59f-76d3-48d6-b9af-2d85a375ca86"},"vehicle_type_id":"4","last_reported":1734516614,"current_range_meters":29600,"station_id":"ce4bh9p2rcd13ifvqec0","pricing_plan_id":"cebpf4jnsgd1na2vs0mg"},{"bike_id":"17ac6964-4458-4245-838c-f8ac185a5ca7","system_id":"levelo_inurba_marseille","lat":43.27494,"lon":5.42465,"is_reserved":false,"is_disabled":false,"rental_uris":{"android":"levelo://app?vid=17ac6964-4458-4245-838c-f8ac185a5ca7","ios":"levelo://app?vid=17ac6964-4458-4245-838c-f8ac185a5ca7"},"vehicle_type_id":"4","last_reported":1734516614,"current_range_meters":30800,"station_id":"ce4bhn92rcd13ifvqgrg","pricing_plan_id":"cebpf4jnsgd1na2vs0mg"},{"bike_id":"2bf4c27f-73f1-47b0-882f-c1c6ceb171f4","system_id":"levelo_inurba_marseille","lat":43.24072,"lon":5.3776,"is_reserved":false,"is_disabled":false,"rental_uris":{"android":"levelo://app?vid=2bf4c27f-73f1-47b0-882f-c1c6ceb171f4","ios":"levelo://app?vid=2bf4c27f-73f1-47b0-882f-c1c6ceb171f4"},"vehicle_type_id":"4","last_reported":1734516614,"current_range_meters":39200,"station_id":"ce4bhnp2rcd13ifvqgvg","pricing_plan_id":"cebpf4jnsgd1na2vs0mg"},{"bike_id":"13b89d28-be59-4841-b3b3-1a97c3f8e494","system_id":"levelo_inurba_marseille","lat":43.23147,"lon":5.43725,"is_reserved":false,"is_disabled":false,"rental_uris":{"android":"levelo://app?vid=13b89d28-be59-4841-b3b3-1a97c3f8e494","ios":"levelo://app?vid=13b89d28-be59-4841-b3b3-1a97c3f8e494"},"vehicle_type_id":"4","last_reported":1734516614,"current_range_meters":33600,"station_id":"ce4bhmp2rcd13ifvqgog","pricing_plan_id":"cebpf4jnsgd1na2vs0mg"},{"bike_id":"72492ff3-d3e5-4b81-822b-1d3357339451","system_id":"levelo_inurba_marseille","lat":43.29278,"lon":5.40136,"is_reserved":false,"is_disabled":true,"rental_uris":{"android":"levelo://app?vid=72492ff3-d3e5-4b81-822b-1d3357339451","ios":"levelo://app?vid=72492ff3-d3e5-4b81-822b-1d3357339451"},"vehicle_type_id":"4","last_reported":1734516614,"current_range_meters":39200,"station_id":"ce4bh312rcd13ifvqdk0","pricing_plan_id":"cebpf4jnsgd1na2vs0mg"},{"bike_id":"8799fefd-5a38-4a10-ae77-5a5729e60f4a","system_id":"levelo_inurba_marseille","lat":43.244,"lon":5.3703,"is_reserved":false,"is_disabled":false,"rental_uris":{"android":"levelo://app?vid=8799fefd-5a38-4a10-ae77-5a5729e60f4a","ios":"levelo://app?vid=8799fefd-5a38-4a10-ae77-5a5729e60f4a"},"vehicle_type_id":"4","last_reported":1734516614,"current_range_meters":5600,"station_id":"ce4bhhh2rcd13ifvqfk0","pricing_plan_id":"cebpf4jnsgd1na2vs0mg"},{"bike_id":"4e903476-26ee-4c32-806f-26a87ba3a549","system_id":"levelo_inurba_marseille","lat":43.29424,"lon":5.38607,"is_reserved":false,"is_disabled":true,"rental_uris":{"android":"levelo://app?vid=4e903476-26ee-4c32-806f-26a87ba3a549","ios":"levelo://app?vid=4e903476-26ee-4c32-806f-26a87ba3a549"},"vehicle_type_id":"4","last_reported":1734516614,"current_range_meters":0,"station_id":"ce4bh2h2rcd13ifvqdh0","pricing_plan_id":"cebpf4jnsgd1na2vs0mg"},{"bike_id":"9abaed03-3f19-46cf-a451-ca29240e8d7f","system_id":"levelo_inurba_marseille","lat":43.28853,"lon":5.35861,"is_reserved":false,"is_disabled":false,"rental_uris":{"android":"levelo://app?vid=9abaed03-3f19-46cf-a451-ca29240e8d7f","ios":"levelo://app?vid=9abaed03-3f19-46cf-a451-ca29240e8d7f"},"vehicle_type_id":"4","last_reported":1734516614,"current_range_meters":36000,"station_id":"ce4bhb12rcd13ifvqem0","pricing_plan_id":"cebpf4jnsgd1na2vs0mg"},{"bike_id":"5bfd8ecf-70c3-492f-b947-a4e8cbf682c9","system_id":"levelo_inurba_marseille","lat":43.240847,"lon":5.3775,"is_reserved":false,"is_disabled":false,"rental_uris":{"android":"levelo://app?vid=5bfd8ecf-70c3-492f-b947-a4e8cbf682c9","ios":"levelo://app?vid=5bfd8ecf-70c3-492f-b947-a4e8cbf682c9"},"vehicle_type_id":"4","last_reported":1734516614,"current_range_meters":17200,"station_id":"ce4bhnp2rcd13ifvqgvg","pricing_plan_id":"cebpf4jnsgd1na2vs0mg"},{"bike_id":"4212e7b1-423a-4aa1-ae9e-8efc052f3ac6","system_id":"levelo_inurba_marseille","lat":43.30206,"lon":5.39472,"is_reserved":false,"is_disabled":false,"rental_uris":{"android":"levelo://app?vid=4212e7b1-423a-4aa1-ae9e-8efc052f3ac6","ios":"levelo://app?vid=4212e7b1-423a-4aa1-ae9e-8efc052f3ac6"},"vehicle_type_id":"4","last_reported":1734516614,"current_range_meters":31200,"station_id":"ce4bh0p2rcd13ifvqd70","pricing_plan_id":"cebpf4jnsgd1na2vs0mg"},{"bike_id":"4643778d-914e-40bd-a7fb-e7a0dacdb827","system_id":"levelo_inurba_marseille","lat":43.30211,"lon":5.3947,"is_reserved":false,"is_disabled":false,"rental_uris":{"android":"levelo://app?vid=4643778d-914e-40bd-a7fb-e7a0dacdb827","ios":"levelo://app?vid=4643778d-914e-40bd-a7fb-e7a0dacdb827"},"vehicle_type_id":"4","last_reported":1734516614,"current_range_meters":36000,"station_id":"ce4bh0p2rcd13ifvqd70","pricing_plan_id":"cebpf4jnsgd1na2vs0mg"},{"bike_id":"a47a812b-8479-4dbf-a984-c261870d3f1a","system_id":"levelo_inurba_marseille","lat":43.32484,"lon":5.36568,"is_reserved":false,"is_disabled":false,"rental_uris":{"android":"levelo://app?vid=a47a812b-8479-4dbf-a984-c261870d3f1a","ios":"levelo://app?vid=a47a812b-8479-4dbf-a984-c261870d3f1a"},"vehicle_type_id":"4","last_reported":1734516614,"current_range_meters":39200,"station_id":"ce4bhs12rcd13ifvqhvg","pricing_plan_id":"cebpf4jnsgd1na2vs0mg"},{"bike_id":"0dfe846c-42dd-4f00-932f-781023f17871","system_id":"levelo_inurba_marseille","lat":43.33613,"lon":5.41026,"is_reserved":false,"is_disabled":false,"rental_uris":{"android":"levelo://app?vid=0dfe846c-42dd-4f00-932f-781023f17871","ios":"levelo://app?vid=0dfe846c-42dd-4f00-932f-781023f17871"},"vehicle_type_id":"4","last_reported":1734516614,"current_range_meters":38800,"station_id":"ce4bhqh2rcd13ifvqhmg","pricing_plan_id":"cebpf4jnsgd1na2vs0mg"},{"bike_id":"6a353b15-de45-410c-912c-5f70003d6e30","system_id":"levelo_inurba_marseille","lat":43.26933,"lon":5.38925,"is_reserved":false,"is_disabled":false,"rental_uris":{"android":"levelo://app?vid=6a353b15-de45-410c-912c-5f70003d6e30","ios":"levelo://app?vid=6a353b15-de45-410c-912c-5f70003d6e30"},"vehicle_type_id":"4","last_reported":1734516614,"current_range_meters":35600,"station_id":"ce4bhhh2rcd13ifvqfl0","pricing_plan_id":"cebpf4jnsgd1na2vs0mg"},{"bike_id":"782bcbf2-b7de-4b04-bebc-aaa0329dd90c","system_id":"levelo_inurba_marseille","lat":43.23191,"lon":5.35559,"is_reserved":false,"is_disabled":false,"rental_uris":{"android":"levelo://app?vid=782bcbf2-b7de-4b04-bebc-aaa0329dd90c","ios":"levelo://app?vid=782bcbf2-b7de-4b04-bebc-aaa0329dd90c"},"vehicle_type_id":"4","last_reported":1734516614,"current_range_meters":39200,"station_id":"ce4bhu92rcd13ifvqi70","pricing_plan_id":"cebpf4jnsgd1na2vs0mg"},{"bike_id":"a925316d-9d31-43b0-a430-5cb1bef87372","system_id":"levelo_inurba_marseille","lat":43.27184,"lon":5.40991,"is_reserved":false,"is_disabled":false,"rental_uris":{"android":"levelo://app?vid=a925316d-9d31-43b0-a430-5cb1bef87372","ios":"levelo://app?vid=a925316d-9d31-43b0-a430-5cb1bef87372"},"vehicle_type_id":"4","last_reported":1734516614,"current_range_meters":19600,"station_id":"ce4bhl12rcd13ifvqgf0","pricing_plan_id":"cebpf4jnsgd1na2vs0mg"},{"bike_id":"289faeb9-a11a-47c1-978b-f5d918e76896","system_id":"levelo_inurba_marseille","lat":43.33746,"lon":5.37438,"is_reserved":false,"is_disabled":false,"rental_uris":{"android":"levelo://app?vid=289faeb9-a11a-47c1-978b-f5d918e76896","ios":"levelo://app?vid=289faeb9-a11a-47c1-978b-f5d918e76896"},"vehicle_type_id":"4","last_reported":1734516614,"current_range_meters":28800,"station_id":"","pricing_plan_id":"cebpf4jnsgd1na2vs0mg"},{"bike_id":"2d96766a-3106-48a8-a3ef-d83b799effad","system_id":"levelo_inurba_marseille","lat":43.29295,"lon":5.37452,"is_reserved":false,"is_disabled":false,"rental_uris":{"android":"levelo://app?vid=2d96766a-3106-48a8-a3ef-d83b799effad","ios":"levelo://app?vid=2d96766a-3106-48a8-a3ef-d83b799effad"},"vehicle_type_id":"4","last_reported":1734516614,"current_range_meters":10000,"station_id":"ce4bgi12rcd13ifvqb70","pricing_plan_id":"cebpf4jnsgd1na2vs0mg"},{"bike_id":"4590026f-4d8e-4294-8f2a-8d70931cbcb5","system_id":"levelo_inurba_marseille","lat":43.28484,"lon":5.384303,"is_reserved":false,"is_disabled":true,"rental_uris":{"android":"levelo://app?vid=4590026f-4d8e-4294-8f2a-8d70931cbcb5","ios":"levelo://app?vid=4590026f-4d8e-4294-8f2a-8d70931cbcb5"},"vehicle_type_id":"4","last_reported":1734516614,"current_range_meters":32800,"station_id":"ce4bh512rcd13ifvqe3g","pricing_plan_id":"cebpf4jnsgd1na2vs0mg"},{"bike_id":"96ff88dc-8cf7-4b0f-a345-fa00220da932","system_id":"levelo_inurba_marseille","lat":43.274,"lon":5.42385,"is_reserved":false,"is_disabled":true,"rental_uris":{"android":"levelo://app?vid=96ff88dc-8cf7-4b0f-a345-fa00220da932","ios":"levelo://app?vid=96ff88dc-8cf7-4b0f-a345-fa00220da932"},"vehicle_type_id":"4","last_reported":1734516614,"current_range_meters":0,"station_id":"","pricing_plan_id":"cebpf4jnsgd1na2vs0mg"},{"bike_id":"218576bb-3957-48c4-a450-8d10902cba3f","system_id":"levelo_inurba_marseille","lat":43.26202,"lon":5.37446,"is_reserved":false,"is_disabled":false,"rental_uris":{"android":"levelo://app?vid=218576bb-3957-48c4-a450-8d10902cba3f","ios":"levelo://app?vid=218576bb-3957-48c4-a450-8d10902cba3f"},"vehicle_type_id":"4","last_reported":1734516614,"current_range_meters":37600,"station_id":"ce4bhgp2rcd13ifvqfc0","pricing_plan_id":"cebpf4jnsgd1na2vs0mg"},{"bike_id":"11681f9b-56b3-4e96-8f51-99ed015b1f22","system_id":"levelo_inurba_marseille","lat":43.27499,"lon":5.42455,"is_reserved":false,"is_disabled":false,"rental_uris":{"android":"levelo://app?vid=11681f9b-56b3-4e96-8f51-99ed015b1f22","ios":"levelo://app?vid=11681f9b-56b3-4e96-8f51-99ed015b1f22"},"vehicle_type_id":"4","last_reported":1734516614,"current_range_meters":30000,"station_id":"ce4bhn92rcd13ifvqgrg","pricing_plan_id":"cebpf4jnsgd1na2vs0mg"},{"bike_id":"822408b5-93b6-4b7e-a2e4-a91cfb6d79ad","system_id":"levelo_inurba_marseille","lat":43.2418,"lon":5.39704,"is_reserved":false,"is_disabled":false,"rental_uris":{"android":"levelo://app?vid=822408b5-93b6-4b7e-a2e4-a91cfb6d79ad","ios":"levelo://app?vid=822408b5-93b6-4b7e-a2e4-a91cfb6d79ad"},"vehicle_type_id":"4","last_reported":1734516614,"current_range_meters":38800,"station_id":"ce4bhn12rcd13ifvqgpg","pricing_plan_id":"cebpf4jnsgd1na2vs0mg"},{"bike_id":"cd496150-2c56-4ff6-9436-d2e34f29e3b6","system_id":"levelo_inurba_marseille","lat":43.24801,"lon":5.37454,"is_reserved":false,"is_disabled":false,"rental_uris":{"android":"levelo://app?vid=cd496150-2c56-4ff6-9436-d2e34f29e3b6","ios":"levelo://app?vid=cd496150-2c56-4ff6-9436-d2e34f29e3b6"},"vehicle_type_id":"4","last_reported":1734516614,"current_range_meters":37600,"station_id":"ce4bhgh2rcd13ifvqfb0","pricing_plan_id":"cebpf4jnsgd1na2vs0mg"},{"bike_id":"47f7db02-ff86-46bf-b8dc-c30068ec1d78","system_id":"levelo_inurba_marseille","lat":43.30455,"lon":5.37907,"is_reserved":false,"is_disabled":false,"rental_uris":{"android":"levelo://app?vid=47f7db02-ff86-46bf-b8dc-c30068ec1d78","ios":"levelo://app?vid=47f7db02-ff86-46bf-b8dc-c30068ec1d78"},"vehicle_type_id":"4","last_reported":1734516614,"current_range_meters":27600,"station_id":"ce4bgup2rcd13ifvqcn0","pricing_plan_id":"cebpf4jnsgd1na2vs0mg"},{"bike_id":"9f6afe14-1344-4ffb-b8b3-711d0649a4c9","system_id":"levelo_inurba_marseille","lat":43.28725,"lon":5.37952,"is_reserved":false,"is_disabled":false,"rental_uris":{"android":"levelo://app?vid=9f6afe14-1344-4ffb-b8b3-711d0649a4c9","ios":"levelo://app?vid=9f6afe14-1344-4ffb-b8b3-711d0649a4c9"},"vehicle_type_id":"4","last_reported":1734516614,"current_range_meters":23200,"station_id":"ce4bh9p2rcd13ifvqec0","pricing_plan_id":"cebpf4jnsgd1na2vs0mg"},{"bike_id":"b2c4cd55-c390-48f6-8aae-acf72a749ede","system_id":"levelo_inurba_marseille","lat":43.27495,"lon":5.42447,"is_reserved":false,"is_disabled":false,"rental_uris":{"android":"levelo://app?vid=b2c4cd55-c390-48f6-8aae-acf72a749ede","ios":"levelo://app?vid=b2c4cd55-c390-48f6-8aae-acf72a749ede"},"vehicle_type_id":"4","last_reported":1734516614,"current_range_meters":23200,"station_id":"ce4bhn92rcd13ifvqgrg","pricing_plan_id":"cebpf4jnsgd1na2vs0mg"},{"bike_id":"c3f951ef-8417-4029-a95b-c2c28af98559","system_id":"levelo_inurba_marseille","lat":43.24079,"lon":5.37767,"is_reserved":false,"is_disabled":false,"rental_uris":{"android":"levelo://app?vid=c3f951ef-8417-4029-a95b-c2c28af98559","ios":"levelo://app?vid=c3f951ef-8417-4029-a95b-c2c28af98559"},"vehicle_type_id":"4","last_reported":1734516614,"current_range_meters":30800,"station_id":"ce4bhnp2rcd13ifvqgvg","pricing_plan_id":"cebpf4jnsgd1na2vs0mg"},{"bike_id":"d2e40faf-95e8-4903-8603-18cdc229ffe1","system_id":"levelo_inurba_marseille","lat":43.25823,"lon":5.3944,"is_reserved":false,"is_disabled":false,"rental_uris":{"android":"levelo://app?vid=d2e40faf-95e8-4903-8603-18cdc229ffe1","ios":"levelo://app?vid=d2e40faf-95e8-4903-8603-18cdc229ffe1"},"vehicle_type_id":"4","last_reported":1734516614,"current_range_meters":27600,"station_id":"ce4bhip2rcd13ifvqft0","pricing_plan_id":"cebpf4jnsgd1na2vs0mg"},{"bike_id":"4ba39679-2362-485d-b91e-22d29e6faf7b","system_id":"levelo_inurba_marseille","lat":43.30304,"lon":5.39219,"is_reserved":false,"is_disabled":false,"rental_uris":{"android":"levelo://app?vid=4ba39679-2362-485d-b91e-22d29e6faf7b","ios":"levelo://app?vid=4ba39679-2362-485d-b91e-22d29e6faf7b"},"vehicle_type_id":"4","last_reported":1734516614,"current_range_meters":14000,"station_id":"ce4bgkh2rcd13ifvqbk0","pricing_plan_id":"cebpf4jnsgd1na2vs0mg"},{"bike_id":"1f088edd-e254-4389-aab0-8bb3edc2dc9e","system_id":"levelo_inurba_marseille","lat":43.324626,"lon":5.365647,"is_reserved":false,"is_disabled":false,"rental_uris":{"android":"levelo://app?vid=1f088edd-e254-4389-aab0-8bb3edc2dc9e","ios":"levelo://app?vid=1f088edd-e254-4389-aab0-8bb3edc2dc9e"},"vehicle_type_id":"4","last_reported":1734516614,"current_range_meters":39200,"station_id":"ce4bhs12rcd13ifvqhvg","pricing_plan_id":"cebpf4jnsgd1na2vs0mg"},{"bike_id":"7eba5650-919d-4742-a1ec-5a9b429580ae","system_id":"levelo_inurba_marseille","lat":43.28413,"lon":5.34976,"is_reserved":false,"is_disabled":false,"rental_uris":{"android":"levelo://app?vid=7eba5650-919d-4742-a1ec-5a9b429580ae","ios":"levelo://app?vid=7eba5650-919d-4742-a1ec-5a9b429580ae"},"vehicle_type_id":"4","last_reported":1734516614,"current_range_meters":25600,"station_id":"ce4bhbh2rcd13ifvqepg","pricing_plan_id":"cebpf4jnsgd1na2vs0mg"},{"bike_id":"2243b907-1461-45a7-a2e2-bc79dd8a7a24","system_id":"levelo_inurba_marseille","lat":43.29607,"lon":5.3773,"is_reserved":false,"is_disabled":false,"rental_uris":{"android":"levelo://app?vid=2243b907-1461-45a7-a2e2-bc79dd8a7a24","ios":"levelo://app?vid=2243b907-1461-45a7-a2e2-bc79dd8a7a24"},"vehicle_type_id":"4","last_reported":1734516614,"current_range_meters":39200,"station_id":"ce4bgi92rcd13ifvqb90","pricing_plan_id":"cebpf4jnsgd1na2vs0mg"},{"bike_id":"c7b69568-7a78-440f-b70f-d8bf1dc5a75e","system_id":"levelo_inurba_marseille","lat":43.29835,"lon":5.3626,"is_reserved":false,"is_disabled":false,"rental_uris":{"android":"levelo://app?vid=c7b69568-7a78-440f-b70f-d8bf1dc5a75e","ios":"levelo://app?vid=c7b69568-7a78-440f-b70f-d8bf1dc5a75e"},"vehicle_type_id":"4","last_reported":1734516614,"current_range_meters":39200,"station_id":"ce4bgpp2rcd13ifvqc3g","pricing_plan_id":"cebpf4jnsgd1na2vs0mg"},{"bike_id":"1dd90459-77ff-45e9-abce-a911d8ec3873","system_id":"levelo_inurba_marseille","lat":43.30281,"lon":5.37697,"is_reserved":false,"is_disabled":false,"rental_uris":{"android":"levelo://app?vid=1dd90459-77ff-45e9-abce-a911d8ec3873","ios":"levelo://app?vid=1dd90459-77ff-45e9-abce-a911d8ec3873"},"vehicle_type_id":"4","last_reported":1734516614,"current_range_meters":12400,"station_id":"ce4bguh2rcd13ifvqcj0","pricing_plan_id":"cebpf4jnsgd1na2vs0mg"},{"bike_id":"e63ec124-f160-46c4-aad4-b0f59e1a5cf9","system_id":"levelo_inurba_marseille","lat":43.27991,"lon":5.41671,"is_reserved":false,"is_disabled":true,"rental_uris":{"android":"levelo://app?vid=e63ec124-f160-46c4-aad4-b0f59e1a5cf9","ios":"levelo://app?vid=e63ec124-f160-46c4-aad4-b0f59e1a5cf9"},"vehicle_type_id":"4","last_reported":1734516614,"current_range_meters":22000,"station_id":"ce4bho12rcd13ifvqh1g","pricing_plan_id":"cebpf4jnsgd1na2vs0mg"},{"bike_id":"01d6cc81-e0d8-404c-992c-e94703ed98a7","system_id":"levelo_inurba_marseille","lat":43.2669,"lon":5.38267,"is_reserved":false,"is_disabled":false,"rental_uris":{"android":"levelo://app?vid=01d6cc81-e0d8-404c-992c-e94703ed98a7","ios":"levelo://app?vid=01d6cc81-e0d8-404c-992c-e94703ed98a7"},"vehicle_type_id":"4","last_reported":1734516614,"current_range_meters":25200,"station_id":"ce4bhg92rcd13ifvqf90","pricing_plan_id":"cebpf4jnsgd1na2vs0mg"},{"bike_id":"2f08194f-26f7-4bdc-91c9-ea9dd7749959","system_id":"levelo_inurba_marseille","lat":43.26942,"lon":5.38634,"is_reserved":false,"is_disabled":false,"rental_uris":{"android":"levelo://app?vid=2f08194f-26f7-4bdc-91c9-ea9dd7749959","ios":"levelo://app?vid=2f08194f-26f7-4bdc-91c9-ea9dd7749959"},"vehicle_type_id":"4","last_reported":1734516614,"current_range_meters":38000,"station_id":"ce4bhh92rcd13ifvqfh0","pricing_plan_id":"cebpf4jnsgd1na2vs0mg"},{"bike_id":"b4d03eea-40f8-4e77-b91a-87d4a3289859","system_id":"levelo_inurba_marseille","lat":43.27074,"lon":5.42273,"is_reserved":false,"is_disabled":false,"rental_uris":{"android":"levelo://app?vid=b4d03eea-40f8-4e77-b91a-87d4a3289859","ios":"levelo://app?vid=b4d03eea-40f8-4e77-b91a-87d4a3289859"},"vehicle_type_id":"4","last_reported":1734516614,"current_range_meters":3600,"station_id":"ce4bhk92rcd13ifvqgb0","pricing_plan_id":"cebpf4jnsgd1na2vs0mg"},{"bike_id":"64218571-bdf2-4784-8582-b959edafce0a","system_id":"levelo_inurba_marseille","lat":43.29062,"lon":5.37166,"is_reserved":false,"is_disabled":false,"rental_uris":{"android":"levelo://app?vid=64218571-bdf2-4784-8582-b959edafce0a","ios":"levelo://app?vid=64218571-bdf2-4784-8582-b959edafce0a"},"vehicle_type_id":"4","last_reported":1734516614,"current_range_meters":38800,"station_id":"ce4bh5p2rcd13ifvqe4g","pricing_plan_id":"cebpf4jnsgd1na2vs0mg"},{"bike_id":"2c35d799-8445-41f0-9531-f1ab81d4f0aa","system_id":"levelo_inurba_marseille","lat":43.28428,"lon":5.37515,"is_reserved":false,"is_disabled":true,"rental_uris":{"android":"levelo://app?vid=2c35d799-8445-41f0-9531-f1ab81d4f0aa","ios":"levelo://app?vid=2c35d799-8445-41f0-9531-f1ab81d4f0aa"},"vehicle_type_id":"4","last_reported":1734516614,"current_range_meters":28400,"station_id":"ce4bh412rcd13ifvqds0","pricing_plan_id":"cebpf4jnsgd1na2vs0mg"},{"bike_id":"804d8511-150e-4fbb-afa6-7c2faaf7fd6a","system_id":"levelo_inurba_marseille","lat":43.30141,"lon":5.3877,"is_reserved":false,"is_disabled":false,"rental_uris":{"android":"levelo://app?vid=804d8511-150e-4fbb-afa6-7c2faaf7fd6a","ios":"levelo://app?vid=804d8511-150e-4fbb-afa6-7c2faaf7fd6a"},"vehicle_type_id":"4","last_reported":1734516614,"current_range_meters":14400,"station_id":"ce4bghh2rcd13ifvqb60","pricing_plan_id":"cebpf4jnsgd1na2vs0mg"},{"bike_id":"fc2c3daa-143d-41d7-8998-f7412d24e8e3","system_id":"levelo_inurba_marseille","lat":43.27978,"lon":5.41658,"is_reserved":false,"is_disabled":false,"rental_uris":{"android":"levelo://app?vid=fc2c3daa-143d-41d7-8998-f7412d24e8e3","ios":"levelo://app?vid=fc2c3daa-143d-41d7-8998-f7412d24e8e3"},"vehicle_type_id":"4","last_reported":1734516614,"current_range_meters":38800,"station_id":"ce4bho12rcd13ifvqh1g","pricing_plan_id":"cebpf4jnsgd1na2vs0mg"},{"bike_id":"7b377d1f-9911-40eb-a4aa-03ed7c53d23e","system_id":"levelo_inurba_marseille","lat":43.27941,"lon":5.41043,"is_reserved":false,"is_disabled":false,"rental_uris":{"android":"levelo://app?vid=7b377d1f-9911-40eb-a4aa-03ed7c53d23e","ios":"levelo://app?vid=7b377d1f-9911-40eb-a4aa-03ed7c53d23e"},"vehicle_type_id":"4","last_reported":1734516614,"current_range_meters":28400,"station_id":"ce4bhnp2rcd13ifvqh0g","pricing_plan_id":"cebpf4jnsgd1na2vs0mg"},{"bike_id":"821313ce-61d0-42cc-8a17-1461d838f0c8","system_id":"levelo_inurba_marseille","lat":43.29168,"lon":5.37162,"is_reserved":false,"is_disabled":false,"rental_uris":{"android":"levelo://app?vid=821313ce-61d0-42cc-8a17-1461d838f0c8","ios":"levelo://app?vid=821313ce-61d0-42cc-8a17-1461d838f0c8"},"vehicle_type_id":"4","last_reported":1734516614,"current_range_meters":4800,"station_id":"ce4bha92rcd13ifvqeh0","pricing_plan_id":"cebpf4jnsgd1na2vs0mg"},{"bike_id":"68907ca0-038a-4705-886b-af6c122ac485","system_id":"levelo_inurba_marseille","lat":43.23181,"lon":5.39976,"is_reserved":false,"is_disabled":false,"rental_uris":{"android":"levelo://app?vid=68907ca0-038a-4705-886b-af6c122ac485","ios":"levelo://app?vid=68907ca0-038a-4705-886b-af6c122ac485"},"vehicle_type_id":"4","last_reported":1734516614,"current_range_meters":39200,"station_id":"ce4bhn12rcd13ifvqgqg","pricing_plan_id":"cebpf4jnsgd1na2vs0mg"},{"bike_id":"1511eed4-ac45-42ea-8966-c48976b647fd","system_id":"levelo_inurba_marseille","lat":43.29965,"lon":5.37163,"is_reserved":false,"is_disabled":false,"rental_uris":{"android":"levelo://app?vid=1511eed4-ac45-42ea-8966-c48976b647fd","ios":"levelo://app?vid=1511eed4-ac45-42ea-8966-c48976b647fd"},"vehicle_type_id":"4","last_reported":1734516614,"current_range_meters":26000,"station_id":"ce4bgr92rcd13ifvqc7g","pricing_plan_id":"cebpf4jnsgd1na2vs0mg"},{"bike_id":"5be8cabd-d236-4566-a1ee-f54a70bf770a","system_id":"levelo_inurba_marseille","lat":43.23966,"lon":5.36627,"is_reserved":false,"is_disabled":false,"rental_uris":{"android":"levelo://app?vid=5be8cabd-d236-4566-a1ee-f54a70bf770a","ios":"levelo://app?vid=5be8cabd-d236-4566-a1ee-f54a70bf770a"},"vehicle_type_id":"4","last_reported":1734516614,"current_range_meters":35200,"station_id":"ce4bhi12rcd13ifvqfp0","pricing_plan_id":"cebpf4jnsgd1na2vs0mg"},{"bike_id":"0b6d5b13-36ca-4dc8-8c07-6df4b8e16ac0","system_id":"levelo_inurba_marseille","lat":43.27484,"lon":5.42456,"is_reserved":false,"is_disabled":false,"rental_uris":{"android":"levelo://app?vid=0b6d5b13-36ca-4dc8-8c07-6df4b8e16ac0","ios":"levelo://app?vid=0b6d5b13-36ca-4dc8-8c07-6df4b8e16ac0"},"vehicle_type_id":"4","last_reported":1734516614,"current_range_meters":34800,"station_id":"ce4bhn92rcd13ifvqgrg","pricing_plan_id":"cebpf4jnsgd1na2vs0mg"},{"bike_id":"e4ec409b-7d94-42fa-92bc-2a7ec9766a5d","system_id":"levelo_inurba_marseille","lat":43.3026,"lon":5.40085,"is_reserved":false,"is_disabled":false,"rental_uris":{"android":"levelo://app?vid=e4ec409b-7d94-42fa-92bc-2a7ec9766a5d","ios":"levelo://app?vid=e4ec409b-7d94-42fa-92bc-2a7ec9766a5d"},"vehicle_type_id":"4","last_reported":1734516614,"current_range_meters":10800,"station_id":"ce4bgvh2rcd13ifvqcs0","pricing_plan_id":"cebpf4jnsgd1na2vs0mg"},{"bike_id":"70a9681d-4790-4134-8b85-bbde0d7e50b6","system_id":"levelo_inurba_marseille","lat":43.31325,"lon":5.39697,"is_reserved":false,"is_disabled":false,"rental_uris":{"android":"levelo://app?vid=70a9681d-4790-4134-8b85-bbde0d7e50b6","ios":"levelo://app?vid=70a9681d-4790-4134-8b85-bbde0d7e50b6"},"vehicle_type_id":"4","last_reported":1734516614,"current_range_meters":35200,"station_id":"ce4bgvp2rcd13ifvqcu0","pricing_plan_id":"cebpf4jnsgd1na2vs0mg"},{"bike_id":"cb12b024-7cbd-48a5-82ef-161263e38e89","system_id":"levelo_inurba_marseille","lat":43.28853,"lon":5.35866,"is_reserved":false,"is_disabled":false,"rental_uris":{"android":"levelo://app?vid=cb12b024-7cbd-48a5-82ef-161263e38e89","ios":"levelo://app?vid=cb12b024-7cbd-48a5-82ef-161263e38e89"},"vehicle_type_id":"4","last_reported":1734516614,"current_range_meters":22000,"station_id":"ce4bhb12rcd13ifvqem0","pricing_plan_id":"cebpf4jnsgd1na2vs0mg"},{"bike_id":"46473202-c14a-48db-a1b0-c4be44be6edc","system_id":"levelo_inurba_marseille","lat":43.33594,"lon":5.41004,"is_reserved":false,"is_disabled":false,"rental_uris":{"android":"levelo://app?vid=46473202-c14a-48db-a1b0-c4be44be6edc","ios":"levelo://app?vid=46473202-c14a-48db-a1b0-c4be44be6edc"},"vehicle_type_id":"4","last_reported":1734516614,"current_range_meters":38800,"station_id":"ce4bhqh2rcd13ifvqhmg","pricing_plan_id":"cebpf4jnsgd1na2vs0mg"},{"bike_id":"61d6f95e-9317-4fb0-a3ec-55b27609f3ee","system_id":"levelo_inurba_marseille","lat":43.32048,"lon":5.41567,"is_reserved":false,"is_disabled":false,"rental_uris":{"android":"levelo://app?vid=61d6f95e-9317-4fb0-a3ec-55b27609f3ee","ios":"levelo://app?vid=61d6f95e-9317-4fb0-a3ec-55b27609f3ee"},"vehicle_type_id":"4","last_reported":1734516614,"current_range_meters":38800,"station_id":"ce4bhq92rcd13ifvqhkg","pricing_plan_id":"cebpf4jnsgd1na2vs0mg"},{"bike_id":"f3b2ef88-781e-4e8a-b4e5-436df408c9cf","system_id":"levelo_inurba_marseille","lat":43.292937,"lon":5.37449,"is_reserved":false,"is_disabled":false,"rental_uris":{"android":"levelo://app?vid=f3b2ef88-781e-4e8a-b4e5-436df408c9cf","ios":"levelo://app?vid=f3b2ef88-781e-4e8a-b4e5-436df408c9cf"},"vehicle_type_id":"4","last_reported":1734516614,"current_range_meters":32000,"station_id":"ce4bgi12rcd13ifvqb70","pricing_plan_id":"cebpf4jnsgd1na2vs0mg"},{"bike_id":"bb337245-7c41-4671-900b-a4d92ae562c6","system_id":"levelo_inurba_marseille","lat":43.29522,"lon":5.39028,"is_reserved":false,"is_disabled":true,"rental_uris":{"android":"levelo://app?vid=bb337245-7c41-4671-900b-a4d92ae562c6","ios":"levelo://app?vid=bb337245-7c41-4671-900b-a4d92ae562c6"},"vehicle_type_id":"4","last_reported":1734516614,"current_range_meters":1200,"station_id":"ce4bh3p2rcd13ifvqdp0","pricing_plan_id":"cebpf4jnsgd1na2vs0mg"},{"bike_id":"6f7acd99-77cb-462a-9f2d-c4e504bcc16a","system_id":"levelo_inurba_marseille","lat":43.23177,"lon":5.39989,"is_reserved":false,"is_disabled":false,"rental_uris":{"android":"levelo://app?vid=6f7acd99-77cb-462a-9f2d-c4e504bcc16a","ios":"levelo://app?vid=6f7acd99-77cb-462a-9f2d-c4e504bcc16a"},"vehicle_type_id":"4","last_reported":1734516614,"current_range_meters":22800,"station_id":"ce4bhn12rcd13ifvqgqg","pricing_plan_id":"cebpf4jnsgd1na2vs0mg"},{"bike_id":"9e0c413f-f740-4c2a-b957-e50a2db3e8ac","system_id":"levelo_inurba_marseille","lat":43.29858,"lon":5.36287,"is_reserved":false,"is_disabled":false,"rental_uris":{"android":"levelo://app?vid=9e0c413f-f740-4c2a-b957-e50a2db3e8ac","ios":"levelo://app?vid=9e0c413f-f740-4c2a-b957-e50a2db3e8ac"},"vehicle_type_id":"4","last_reported":1734516614,"current_range_meters":20400,"station_id":"ce4bgpp2rcd13ifvqc3g","pricing_plan_id":"cebpf4jnsgd1na2vs0mg"},{"bike_id":"859e7849-50b6-4290-a99c-71e1ce0df12c","system_id":"levelo_inurba_marseille","lat":43.30551,"lon":5.36528,"is_reserved":false,"is_disabled":false,"rental_uris":{"android":"levelo://app?vid=859e7849-50b6-4290-a99c-71e1ce0df12c","ios":"levelo://app?vid=859e7849-50b6-4290-a99c-71e1ce0df12c"},"vehicle_type_id":"4","last_reported":1734516614,"current_range_meters":26000,"station_id":"ce4bgs12rcd13ifvqcag","pricing_plan_id":"cebpf4jnsgd1na2vs0mg"},{"bike_id":"33c354b3-5ff8-44a2-9bca-4db9e857fb9d","system_id":"levelo_inurba_marseille","lat":43.23149,"lon":5.43711,"is_reserved":false,"is_disabled":false,"rental_uris":{"android":"levelo://app?vid=33c354b3-5ff8-44a2-9bca-4db9e857fb9d","ios":"levelo://app?vid=33c354b3-5ff8-44a2-9bca-4db9e857fb9d"},"vehicle_type_id":"4","last_reported":1734516614,"current_range_meters":28000,"station_id":"ce4bhmp2rcd13ifvqgog","pricing_plan_id":"cebpf4jnsgd1na2vs0mg"},{"bike_id":"18a16b41-143c-4259-9843-e541ec29a1e1","system_id":"levelo_inurba_marseille","lat":43.31352,"lon":5.38525,"is_reserved":false,"is_disabled":false,"rental_uris":{"android":"levelo://app?vid=18a16b41-143c-4259-9843-e541ec29a1e1","ios":"levelo://app?vid=18a16b41-143c-4259-9843-e541ec29a1e1"},"vehicle_type_id":"4","last_reported":1734516614,"current_range_meters":38400,"station_id":"ce4bgt92rcd13ifvqcf0","pricing_plan_id":"cebpf4jnsgd1na2vs0mg"},{"bike_id":"c677a8ec-54c9-4aaa-93a7-029e631ec691","system_id":"levelo_inurba_marseille","lat":43.27313,"lon":5.39086,"is_reserved":false,"is_disabled":false,"rental_uris":{"android":"levelo://app?vid=c677a8ec-54c9-4aaa-93a7-029e631ec691","ios":"levelo://app?vid=c677a8ec-54c9-4aaa-93a7-029e631ec691"},"vehicle_type_id":"4","last_reported":1734516614,"current_range_meters":30000,"station_id":"ce4bhgp2rcd13ifvqfe0","pricing_plan_id":"cebpf4jnsgd1na2vs0mg"},{"bike_id":"f52c1486-aab1-49cb-8102-2c33c57e7b57","system_id":"levelo_inurba_marseille","lat":43.33605,"lon":5.41019,"is_reserved":false,"is_disabled":false,"rental_uris":{"android":"levelo://app?vid=f52c1486-aab1-49cb-8102-2c33c57e7b57","ios":"levelo://app?vid=f52c1486-aab1-49cb-8102-2c33c57e7b57"},"vehicle_type_id":"4","last_reported":1734516614,"current_range_meters":23200,"station_id":"ce4bhqh2rcd13ifvqhmg","pricing_plan_id":"cebpf4jnsgd1na2vs0mg"},{"bike_id":"1cc30cb6-f18d-4862-b991-88715930d8c9","system_id":"levelo_inurba_marseille","lat":43.2407,"lon":5.37756,"is_reserved":false,"is_disabled":false,"rental_uris":{"android":"levelo://app?vid=1cc30cb6-f18d-4862-b991-88715930d8c9","ios":"levelo://app?vid=1cc30cb6-f18d-4862-b991-88715930d8c9"},"vehicle_type_id":"4","last_reported":1734516614,"current_range_meters":13600,"station_id":"ce4bhnp2rcd13ifvqgvg","pricing_plan_id":"cebpf4jnsgd1na2vs0mg"},{"bike_id":"eb7cd7b9-01c5-4120-bb55-5221a32a505c","system_id":"levelo_inurba_marseille","lat":43.29247,"lon":5.40172,"is_reserved":false,"is_disabled":false,"rental_uris":{"android":"levelo://app?vid=eb7cd7b9-01c5-4120-bb55-5221a32a505c","ios":"levelo://app?vid=eb7cd7b9-01c5-4120-bb55-5221a32a505c"},"vehicle_type_id":"4","last_reported":1734516614,"current_range_meters":30800,"station_id":"ce4bh312rcd13ifvqdk0","pricing_plan_id":"cebpf4jnsgd1na2vs0mg"},{"bike_id":"eba901e5-0847-4fc0-b2b6-9eb1834c3e7a","system_id":"levelo_inurba_marseille","lat":43.29545,"lon":5.4229,"is_reserved":false,"is_disabled":true,"rental_uris":{"android":"levelo://app?vid=eba901e5-0847-4fc0-b2b6-9eb1834c3e7a","ios":"levelo://app?vid=eba901e5-0847-4fc0-b2b6-9eb1834c3e7a"},"vehicle_type_id":"4","last_reported":1734516614,"current_range_meters":0,"station_id":"ce4bhph2rcd13ifvqhdg","pricing_plan_id":"cebpf4jnsgd1na2vs0mg"},{"bike_id":"345d80f6-1525-4241-80c9-c6920b13eab2","system_id":"levelo_inurba_marseille","lat":43.2953,"lon":5.38547,"is_reserved":false,"is_disabled":true,"rental_uris":{"android":"levelo://app?vid=345d80f6-1525-4241-80c9-c6920b13eab2","ios":"levelo://app?vid=345d80f6-1525-4241-80c9-c6920b13eab2"},"vehicle_type_id":"4","last_reported":1734516614,"current_range_meters":14800,"station_id":"ce4bgih2rcd13ifvqba0","pricing_plan_id":"cebpf4jnsgd1na2vs0mg"},{"bike_id":"a3679842-4ecc-42a3-92b3-fcde04fd7769","system_id":"levelo_inurba_marseille","lat":43.30544,"lon":5.367,"is_reserved":false,"is_disabled":false,"rental_uris":{"android":"levelo://app?vid=a3679842-4ecc-42a3-92b3-fcde04fd7769","ios":"levelo://app?vid=a3679842-4ecc-42a3-92b3-fcde04fd7769"},"vehicle_type_id":"4","last_reported":1734516614,"current_range_meters":20400,"station_id":"ce4bgrp2rcd13ifvqc9g","pricing_plan_id":"cebpf4jnsgd1na2vs0mg"},{"bike_id":"07cbdb6f-6b5a-42a8-8834-7a4a5909ca3f","system_id":"levelo_inurba_marseille","lat":43.31682,"lon":5.40465,"is_reserved":false,"is_disabled":false,"rental_uris":{"android":"levelo://app?vid=07cbdb6f-6b5a-42a8-8834-7a4a5909ca3f","ios":"levelo://app?vid=07cbdb6f-6b5a-42a8-8834-7a4a5909ca3f"},"vehicle_type_id":"4","last_reported":1734516614,"current_range_meters":38000,"station_id":"ce4bh012rcd13ifvqd00","pricing_plan_id":"cebpf4jnsgd1na2vs0mg"},{"bike_id":"cc131050-550f-416c-acf8-1a5597489c27","system_id":"levelo_inurba_marseille","lat":43.29003,"lon":5.35623,"is_reserved":false,"is_disabled":false,"rental_uris":{"android":"levelo://app?vid=cc131050-550f-416c-acf8-1a5597489c27","ios":"levelo://app?vid=cc131050-550f-416c-acf8-1a5597489c27"},"vehicle_type_id":"4","last_reported":1734516614,"current_range_meters":36400,"station_id":"ce4bhb92rcd13ifvqen0","pricing_plan_id":"cebpf4jnsgd1na2vs0mg"},{"bike_id":"22da1c4d-c79f-4a1a-8741-9e0e56544724","system_id":"levelo_inurba_marseille","lat":43.2837,"lon":5.38615,"is_reserved":false,"is_disabled":false,"rental_uris":{"android":"levelo://app?vid=22da1c4d-c79f-4a1a-8741-9e0e56544724","ios":"levelo://app?vid=22da1c4d-c79f-4a1a-8741-9e0e56544724"},"vehicle_type_id":"4","last_reported":1734516614,"current_range_meters":38800,"station_id":"ce4bh492rcd13ifvqdvg","pricing_plan_id":"cebpf4jnsgd1na2vs0mg"},{"bike_id":"ed3a8591-316e-49ab-a80e-c8c5d9c39c56","system_id":"levelo_inurba_marseille","lat":43.30096,"lon":5.39097,"is_reserved":false,"is_disabled":true,"rental_uris":{"android":"levelo://app?vid=ed3a8591-316e-49ab-a80e-c8c5d9c39c56","ios":"levelo://app?vid=ed3a8591-316e-49ab-a80e-c8c5d9c39c56"},"vehicle_type_id":"4","last_reported":1734516614,"current_range_meters":32400,"station_id":"ce4bh192rcd13ifvqdb0","pricing_plan_id":"cebpf4jnsgd1na2vs0mg"},{"bike_id":"22ccbd46-b6ab-4c74-a1a3-7b363bab2c43","system_id":"levelo_inurba_marseille","lat":43.24079,"lon":5.37757,"is_reserved":false,"is_disabled":false,"rental_uris":{"android":"levelo://app?vid=22ccbd46-b6ab-4c74-a1a3-7b363bab2c43","ios":"levelo://app?vid=22ccbd46-b6ab-4c74-a1a3-7b363bab2c43"},"vehicle_type_id":"4","last_reported":1734516614,"current_range_meters":28000,"station_id":"ce4bhnp2rcd13ifvqgvg","pricing_plan_id":"cebpf4jnsgd1na2vs0mg"},{"bike_id":"0e4c8c22-e9a1-4f9c-a446-7e92d9b81392","system_id":"levelo_inurba_marseille","lat":43.30424,"lon":5.38897,"is_reserved":false,"is_disabled":false,"rental_uris":{"android":"levelo://app?vid=0e4c8c22-e9a1-4f9c-a446-7e92d9b81392","ios":"levelo://app?vid=0e4c8c22-e9a1-4f9c-a446-7e92d9b81392"},"vehicle_type_id":"4","last_reported":1734516614,"current_range_meters":20000,"station_id":"ce4bgk12rcd13ifvqbi0","pricing_plan_id":"cebpf4jnsgd1na2vs0mg"},{"bike_id":"3f684ade-8ff8-412b-8c78-ba957e925730","system_id":"levelo_inurba_marseille","lat":43.30541,"lon":5.367017,"is_reserved":false,"is_disabled":false,"rental_uris":{"android":"levelo://app?vid=3f684ade-8ff8-412b-8c78-ba957e925730","ios":"levelo://app?vid=3f684ade-8ff8-412b-8c78-ba957e925730"},"vehicle_type_id":"4","last_reported":1734516614,"current_range_meters":28800,"station_id":"ce4bgrp2rcd13ifvqc9g","pricing_plan_id":"cebpf4jnsgd1na2vs0mg"},{"bike_id":"7f1fdc7d-fd5a-41f5-95df-d4b73f14110f","system_id":"levelo_inurba_marseille","lat":43.31887,"lon":5.4075,"is_reserved":false,"is_disabled":false,"rental_uris":{"android":"levelo://app?vid=7f1fdc7d-fd5a-41f5-95df-d4b73f14110f","ios":"levelo://app?vid=7f1fdc7d-fd5a-41f5-95df-d4b73f14110f"},"vehicle_type_id":"4","last_reported":1734516614,"current_range_meters":38800,"station_id":"ce4bhq12rcd13ifvqhig","pricing_plan_id":"cebpf4jnsgd1na2vs0mg"},{"bike_id":"e7c5e6ff-152b-436e-a706-c9bf9c610d46","system_id":"levelo_inurba_marseille","lat":43.26789,"lon":5.39406,"is_reserved":false,"is_disabled":false,"rental_uris":{"android":"levelo://app?vid=e7c5e6ff-152b-436e-a706-c9bf9c610d46","ios":"levelo://app?vid=e7c5e6ff-152b-436e-a706-c9bf9c610d46"},"vehicle_type_id":"4","last_reported":1734516614,"current_range_meters":9200,"station_id":"ce4bhh12rcd13ifvqfg0","pricing_plan_id":"cebpf4jnsgd1na2vs0mg"},{"bike_id":"ce715617-763a-4653-bb2e-4b51a9a9ff10","system_id":"levelo_inurba_marseille","lat":43.31377,"lon":5.36712,"is_reserved":false,"is_disabled":false,"rental_uris":{"android":"levelo://app?vid=ce715617-763a-4653-bb2e-4b51a9a9ff10","ios":"levelo://app?vid=ce715617-763a-4653-bb2e-4b51a9a9ff10"},"vehicle_type_id":"4","last_reported":1734516614,"current_range_meters":17600,"station_id":"ce4bgr92rcd13ifvqc6g","pricing_plan_id":"cebpf4jnsgd1na2vs0mg"},{"bike_id":"844613e5-26e9-4a4a-a51a-6e40a06ee128","system_id":"levelo_inurba_marseille","lat":43.27828,"lon":5.39202,"is_reserved":false,"is_disabled":false,"rental_uris":{"android":"levelo://app?vid=844613e5-26e9-4a4a-a51a-6e40a06ee128","ios":"levelo://app?vid=844613e5-26e9-4a4a-a51a-6e40a06ee128"},"vehicle_type_id":"4","last_reported":1734516614,"current_range_meters":38800,"station_id":"ce4bhjp2rcd13ifvqga0","pricing_plan_id":"cebpf4jnsgd1na2vs0mg"},{"bike_id":"d396f5d2-70d3-4b17-9cb9-b64bad9f67b0","system_id":"levelo_inurba_marseille","lat":43.29605,"lon":5.38108,"is_reserved":false,"is_disabled":true,"rental_uris":{"android":"levelo://app?vid=d396f5d2-70d3-4b17-9cb9-b64bad9f67b0","ios":"levelo://app?vid=d396f5d2-70d3-4b17-9cb9-b64bad9f67b0"},"vehicle_type_id":"4","last_reported":1734516614,"current_range_meters":11600,"station_id":"ce4bgl12rcd13ifvqbo0","pricing_plan_id":"cebpf4jnsgd1na2vs0mg"},{"bike_id":"1de05ea6-7ffc-4755-9d5c-2404e5a173c7","system_id":"levelo_inurba_marseille","lat":43.23066,"lon":5.35493,"is_reserved":false,"is_disabled":false,"rental_uris":{"android":"levelo://app?vid=1de05ea6-7ffc-4755-9d5c-2404e5a173c7","ios":"levelo://app?vid=1de05ea6-7ffc-4755-9d5c-2404e5a173c7"},"vehicle_type_id":"4","last_reported":1734516614,"current_range_meters":38000,"station_id":"cpo3342slgdg3j2ifvpg","pricing_plan_id":"cebpf4jnsgd1na2vs0mg"},{"bike_id":"70a23328-6629-4f07-b203-ef843751eafc","system_id":"levelo_inurba_marseille","lat":43.27177,"lon":5.41,"is_reserved":false,"is_disabled":true,"rental_uris":{"android":"levelo://app?vid=70a23328-6629-4f07-b203-ef843751eafc","ios":"levelo://app?vid=70a23328-6629-4f07-b203-ef843751eafc"},"vehicle_type_id":"4","last_reported":1734516614,"current_range_meters":25600,"station_id":"ce4bhl12rcd13ifvqgf0","pricing_plan_id":"cebpf4jnsgd1na2vs0mg"},{"bike_id":"ac6023de-2fdd-43c1-9fd3-181adcf15bb2","system_id":"levelo_inurba_marseille","lat":43.30309,"lon":5.369,"is_reserved":false,"is_disabled":false,"rental_uris":{"android":"levelo://app?vid=ac6023de-2fdd-43c1-9fd3-181adcf15bb2","ios":"levelo://app?vid=ac6023de-2fdd-43c1-9fd3-181adcf15bb2"},"vehicle_type_id":"4","last_reported":1734516614,"current_range_meters":16800,"station_id":"ce4bgqh2rcd13ifvqc5g","pricing_plan_id":"cebpf4jnsgd1na2vs0mg"},{"bike_id":"e16cd59a-d7f2-451d-99b5-d92d6b398a30","system_id":"levelo_inurba_marseille","lat":43.29929,"lon":5.36548,"is_reserved":false,"is_disabled":false,"rental_uris":{"android":"levelo://app?vid=e16cd59a-d7f2-451d-99b5-d92d6b398a30","ios":"levelo://app?vid=e16cd59a-d7f2-451d-99b5-d92d6b398a30"},"vehicle_type_id":"4","last_reported":1734516614,"current_range_meters":24800,"station_id":"ce4bgm92rcd13ifvqbr0","pricing_plan_id":"cebpf4jnsgd1na2vs0mg"},{"bike_id":"2d9f4e58-aed4-42e5-b03f-7c067dbd464d","system_id":"levelo_inurba_marseille","lat":43.27069,"lon":5.42281,"is_reserved":false,"is_disabled":false,"rental_uris":{"android":"levelo://app?vid=2d9f4e58-aed4-42e5-b03f-7c067dbd464d","ios":"levelo://app?vid=2d9f4e58-aed4-42e5-b03f-7c067dbd464d"},"vehicle_type_id":"4","last_reported":1734516614,"current_range_meters":39200,"station_id":"ce4bhk92rcd13ifvqgb0","pricing_plan_id":"cebpf4jnsgd1na2vs0mg"},{"bike_id":"d6533370-f608-4b25-b78b-1fe107cb5547","system_id":"levelo_inurba_marseille","lat":43.29844,"lon":5.36274,"is_reserved":false,"is_disabled":false,"rental_uris":{"android":"levelo://app?vid=d6533370-f608-4b25-b78b-1fe107cb5547","ios":"levelo://app?vid=d6533370-f608-4b25-b78b-1fe107cb5547"},"vehicle_type_id":"4","last_reported":1734516614,"current_range_meters":37600,"station_id":"ce4bgpp2rcd13ifvqc3g","pricing_plan_id":"cebpf4jnsgd1na2vs0mg"},{"bike_id":"4e24cd74-c1ed-48e3-ae04-94fae1db75bb","system_id":"levelo_inurba_marseille","lat":43.27066,"lon":5.42277,"is_reserved":false,"is_disabled":false,"rental_uris":{"android":"levelo://app?vid=4e24cd74-c1ed-48e3-ae04-94fae1db75bb","ios":"levelo://app?vid=4e24cd74-c1ed-48e3-ae04-94fae1db75bb"},"vehicle_type_id":"4","last_reported":1734516614,"current_range_meters":29600,"station_id":"ce4bhk92rcd13ifvqgb0","pricing_plan_id":"cebpf4jnsgd1na2vs0mg"},{"bike_id":"7e876e85-730f-4bb1-8e78-bc65c4d6fe75","system_id":"levelo_inurba_marseille","lat":43.29045,"lon":5.3591,"is_reserved":false,"is_disabled":false,"rental_uris":{"android":"levelo://app?vid=7e876e85-730f-4bb1-8e78-bc65c4d6fe75","ios":"levelo://app?vid=7e876e85-730f-4bb1-8e78-bc65c4d6fe75"},"vehicle_type_id":"4","last_reported":1734516614,"current_range_meters":27600,"station_id":"ce4bha92rcd13ifvqeg0","pricing_plan_id":"cebpf4jnsgd1na2vs0mg"},{"bike_id":"178eaacd-91f5-415e-8f8f-67e0bec2d46a","system_id":"levelo_inurba_marseille","lat":43.30201,"lon":5.3947,"is_reserved":false,"is_disabled":false,"rental_uris":{"android":"levelo://app?vid=178eaacd-91f5-415e-8f8f-67e0bec2d46a","ios":"levelo://app?vid=178eaacd-91f5-415e-8f8f-67e0bec2d46a"},"vehicle_type_id":"4","last_reported":1734516614,"current_range_meters":36000,"station_id":"ce4bh0p2rcd13ifvqd70","pricing_plan_id":"cebpf4jnsgd1na2vs0mg"},{"bike_id":"8ad349ad-6628-4514-ac49-e50f6e2a0d03","system_id":"levelo_inurba_marseille","lat":43.27066,"lon":5.42276,"is_reserved":false,"is_disabled":false,"rental_uris":{"android":"levelo://app?vid=8ad349ad-6628-4514-ac49-e50f6e2a0d03","ios":"levelo://app?vid=8ad349ad-6628-4514-ac49-e50f6e2a0d03"},"vehicle_type_id":"4","last_reported":1734516614,"current_range_meters":22400,"station_id":"ce4bhk92rcd13ifvqgb0","pricing_plan_id":"cebpf4jnsgd1na2vs0mg"},{"bike_id":"88f0cd8d-5474-4997-9253-b477d725869b","system_id":"levelo_inurba_marseille","lat":43.32543,"lon":5.41437,"is_reserved":false,"is_disabled":false,"rental_uris":{"android":"levelo://app?vid=88f0cd8d-5474-4997-9253-b477d725869b","ios":"levelo://app?vid=88f0cd8d-5474-4997-9253-b477d725869b"},"vehicle_type_id":"4","last_reported":1734516614,"current_range_meters":18000,"station_id":"ce4bhq12rcd13ifvqhhg","pricing_plan_id":"cebpf4jnsgd1na2vs0mg"},{"bike_id":"1a01a3d2-9e4b-4797-85a4-06be6c630cdf","system_id":"levelo_inurba_marseille","lat":43.27208,"lon":5.39182,"is_reserved":false,"is_disabled":false,"rental_uris":{"android":"levelo://app?vid=1a01a3d2-9e4b-4797-85a4-06be6c630cdf","ios":"levelo://app?vid=1a01a3d2-9e4b-4797-85a4-06be6c630cdf"},"vehicle_type_id":"4","last_reported":1734516614,"current_range_meters":35200,"station_id":"ce4bhhp2rcd13ifvqfm0","pricing_plan_id":"cebpf4jnsgd1na2vs0mg"},{"bike_id":"618b7f02-bac1-46a2-b54a-500d7975bf24","system_id":"levelo_inurba_marseille","lat":43.28476,"lon":5.3841,"is_reserved":false,"is_disabled":false,"rental_uris":{"android":"levelo://app?vid=618b7f02-bac1-46a2-b54a-500d7975bf24","ios":"levelo://app?vid=618b7f02-bac1-46a2-b54a-500d7975bf24"},"vehicle_type_id":"4","last_reported":1734516614,"current_range_meters":39200,"station_id":"ce4bh512rcd13ifvqe3g","pricing_plan_id":"cebpf4jnsgd1na2vs0mg"},{"bike_id":"6fdc6c93-3888-475f-aca7-5a17243ac6bb","system_id":"levelo_inurba_marseille","lat":43.29707,"lon":5.37705,"is_reserved":false,"is_disabled":false,"rental_uris":{"android":"levelo://app?vid=6fdc6c93-3888-475f-aca7-5a17243ac6bb","ios":"levelo://app?vid=6fdc6c93-3888-475f-aca7-5a17243ac6bb"},"vehicle_type_id":"4","last_reported":1734516614,"current_range_meters":25600,"station_id":"ce4bgkh2rcd13ifvqbl0","pricing_plan_id":"cebpf4jnsgd1na2vs0mg"},{"bike_id":"f77d5e57-1b36-45ab-a751-ab7425de7339","system_id":"levelo_inurba_marseille","lat":43.337444,"lon":5.374475,"is_reserved":false,"is_disabled":false,"rental_uris":{"android":"levelo://app?vid=f77d5e57-1b36-45ab-a751-ab7425de7339","ios":"levelo://app?vid=f77d5e57-1b36-45ab-a751-ab7425de7339"},"vehicle_type_id":"4","last_reported":1734516614,"current_range_meters":36800,"station_id":"","pricing_plan_id":"cebpf4jnsgd1na2vs0mg"},{"bike_id":"e9f58b9a-5278-42a9-8d8d-7f6ae899ae06","system_id":"levelo_inurba_marseille","lat":43.26669,"lon":5.38268,"is_reserved":false,"is_disabled":false,"rental_uris":{"android":"levelo://app?vid=e9f58b9a-5278-42a9-8d8d-7f6ae899ae06","ios":"levelo://app?vid=e9f58b9a-5278-42a9-8d8d-7f6ae899ae06"},"vehicle_type_id":"4","last_reported":1734516614,"current_range_meters":9600,"station_id":"ce4bhg92rcd13ifvqf90","pricing_plan_id":"cebpf4jnsgd1na2vs0mg"},{"bike_id":"691db8bf-e648-4787-8118-f5af61dcf184","system_id":"levelo_inurba_marseille","lat":43.29035,"lon":5.37567,"is_reserved":false,"is_disabled":false,"rental_uris":{"android":"levelo://app?vid=691db8bf-e648-4787-8118-f5af61dcf184","ios":"levelo://app?vid=691db8bf-e648-4787-8118-f5af61dcf184"},"vehicle_type_id":"4","last_reported":1734516614,"current_range_meters":38800,"station_id":"ce4bh692rcd13ifvqe90","pricing_plan_id":"cebpf4jnsgd1na2vs0mg"},{"bike_id":"84b9eb9e-7a76-4aa2-b82a-ed8561b9d36f","system_id":"levelo_inurba_marseille","lat":43.30459,"lon":5.37903,"is_reserved":false,"is_disabled":false,"rental_uris":{"android":"levelo://app?vid=84b9eb9e-7a76-4aa2-b82a-ed8561b9d36f","ios":"levelo://app?vid=84b9eb9e-7a76-4aa2-b82a-ed8561b9d36f"},"vehicle_type_id":"4","last_reported":1734516614,"current_range_meters":21600,"station_id":"ce4bgup2rcd13ifvqcn0","pricing_plan_id":"cebpf4jnsgd1na2vs0mg"},{"bike_id":"5107cb5e-a031-41bc-b3b5-50300a0227e8","system_id":"levelo_inurba_marseille","lat":43.29908,"lon":5.3816,"is_reserved":false,"is_disabled":false,"rental_uris":{"android":"levelo://app?vid=5107cb5e-a031-41bc-b3b5-50300a0227e8","ios":"levelo://app?vid=5107cb5e-a031-41bc-b3b5-50300a0227e8"},"vehicle_type_id":"4","last_reported":1734516614,"current_range_meters":28800,"station_id":"ce4bgj12rcd13ifvqbc0","pricing_plan_id":"cebpf4jnsgd1na2vs0mg"},{"bike_id":"d69ebe23-77f0-492c-b236-a063ebca627f","system_id":"levelo_inurba_marseille","lat":43.31355,"lon":5.36717,"is_reserved":false,"is_disabled":true,"rental_uris":{"android":"levelo://app?vid=d69ebe23-77f0-492c-b236-a063ebca627f","ios":"levelo://app?vid=d69ebe23-77f0-492c-b236-a063ebca627f"},"vehicle_type_id":"4","last_reported":1734516614,"current_range_meters":35600,"station_id":"ce4bgr92rcd13ifvqc6g","pricing_plan_id":"cebpf4jnsgd1na2vs0mg"},{"bike_id":"dcbe18de-de6c-4396-9759-e721190ad565","system_id":"levelo_inurba_marseille","lat":43.3122,"lon":5.36858,"is_reserved":false,"is_disabled":false,"rental_uris":{"android":"levelo://app?vid=dcbe18de-de6c-4396-9759-e721190ad565","ios":"levelo://app?vid=dcbe18de-de6c-4396-9759-e721190ad565"},"vehicle_type_id":"4","last_reported":1734516614,"current_range_meters":28400,"station_id":"ce4bgl92rcd13ifvqbq0","pricing_plan_id":"cebpf4jnsgd1na2vs0mg"},{"bike_id":"bba85a74-2c52-4269-a2b5-9bc2de67d67d","system_id":"levelo_inurba_marseille","lat":43.30545,"lon":5.36542,"is_reserved":false,"is_disabled":false,"rental_uris":{"android":"levelo://app?vid=bba85a74-2c52-4269-a2b5-9bc2de67d67d","ios":"levelo://app?vid=bba85a74-2c52-4269-a2b5-9bc2de67d67d"},"vehicle_type_id":"4","last_reported":1734516614,"current_range_meters":25600,"station_id":"ce4bgs12rcd13ifvqcag","pricing_plan_id":"cebpf4jnsgd1na2vs0mg"},{"bike_id":"e933c2cb-4356-4f96-927d-49b4565a6c15","system_id":"levelo_inurba_marseille","lat":43.29003,"lon":5.3562,"is_reserved":false,"is_disabled":false,"rental_uris":{"android":"levelo://app?vid=e933c2cb-4356-4f96-927d-49b4565a6c15","ios":"levelo://app?vid=e933c2cb-4356-4f96-927d-49b4565a6c15"},"vehicle_type_id":"4","last_reported":1734516614,"current_range_meters":38000,"station_id":"ce4bhb92rcd13ifvqen0","pricing_plan_id":"cebpf4jnsgd1na2vs0mg"},{"bike_id":"cab5cb01-b33a-421c-bfaf-c7630f90de8b","system_id":"levelo_inurba_marseille","lat":43.28898,"lon":5.40058,"is_reserved":false,"is_disabled":true,"rental_uris":{"android":"levelo://app?vid=cab5cb01-b33a-421c-bfaf-c7630f90de8b","ios":"levelo://app?vid=cab5cb01-b33a-421c-bfaf-c7630f90de8b"},"vehicle_type_id":"4","last_reported":1734516614,"current_range_meters":0,"station_id":"","pricing_plan_id":"cebpf4jnsgd1na2vs0mg"},{"bike_id":"78f5dcee-b6ca-4cfa-ae6f-ebcf64be1236","system_id":"levelo_inurba_marseille","lat":43.32341,"lon":5.40631,"is_reserved":false,"is_disabled":true,"rental_uris":{"android":"levelo://app?vid=78f5dcee-b6ca-4cfa-ae6f-ebcf64be1236","ios":"levelo://app?vid=78f5dcee-b6ca-4cfa-ae6f-ebcf64be1236"},"vehicle_type_id":"4","last_reported":1734516614,"current_range_meters":0,"station_id":"ce4bhq92rcd13ifvqhjg","pricing_plan_id":"cebpf4jnsgd1na2vs0mg"},{"bike_id":"bec12ac1-4471-44d8-806b-30b89ab87ac9","system_id":"levelo_inurba_marseille","lat":43.337444,"lon":5.374475,"is_reserved":false,"is_disabled":false,"rental_uris":{"android":"levelo://app?vid=bec12ac1-4471-44d8-806b-30b89ab87ac9","ios":"levelo://app?vid=bec12ac1-4471-44d8-806b-30b89ab87ac9"},"vehicle_type_id":"4","last_reported":1734516614,"current_range_meters":38000,"station_id":"","pricing_plan_id":"cebpf4jnsgd1na2vs0mg"},{"bike_id":"d1adb045-11f4-4330-9d2b-f77d89c262d4","system_id":"levelo_inurba_marseille","lat":43.29306,"lon":5.37182,"is_reserved":false,"is_disabled":true,"rental_uris":{"android":"levelo://app?vid=d1adb045-11f4-4330-9d2b-f77d89c262d4","ios":"levelo://app?vid=d1adb045-11f4-4330-9d2b-f77d89c262d4"},"vehicle_type_id":"4","last_reported":1734516614,"current_range_meters":31200,"station_id":"ce4bgh92rcd13ifvqb40","pricing_plan_id":"cebpf4jnsgd1na2vs0mg"},{"bike_id":"1652b1ee-ebe6-4f96-aa43-d4d7805bbb0a","system_id":"levelo_inurba_marseille","lat":43.28919,"lon":5.36387,"is_reserved":false,"is_disabled":false,"rental_uris":{"android":"levelo://app?vid=1652b1ee-ebe6-4f96-aa43-d4d7805bbb0a","ios":"levelo://app?vid=1652b1ee-ebe6-4f96-aa43-d4d7805bbb0a"},"vehicle_type_id":"4","last_reported":1734516614,"current_range_meters":28800,"station_id":"ce4bhc92rcd13ifvqetg","pricing_plan_id":"cebpf4jnsgd1na2vs0mg"},{"bike_id":"c000e995-4758-4652-ae25-dd1f2f74c47e","system_id":"levelo_inurba_marseille","lat":43.29713,"lon":5.37696,"is_reserved":false,"is_disabled":false,"rental_uris":{"android":"levelo://app?vid=c000e995-4758-4652-ae25-dd1f2f74c47e","ios":"levelo://app?vid=c000e995-4758-4652-ae25-dd1f2f74c47e"},"vehicle_type_id":"4","last_reported":1734516614,"current_range_meters":38800,"station_id":"ce4bgkh2rcd13ifvqbl0","pricing_plan_id":"cebpf4jnsgd1na2vs0mg"},{"bike_id":"a33b825e-c779-4129-842f-aeba22c7390a","system_id":"levelo_inurba_marseille","lat":43.31685,"lon":5.40462,"is_reserved":false,"is_disabled":false,"rental_uris":{"android":"levelo://app?vid=a33b825e-c779-4129-842f-aeba22c7390a","ios":"levelo://app?vid=a33b825e-c779-4129-842f-aeba22c7390a"},"vehicle_type_id":"4","last_reported":1734516614,"current_range_meters":37600,"station_id":"ce4bh012rcd13ifvqd00","pricing_plan_id":"cebpf4jnsgd1na2vs0mg"},{"bike_id":"b13b811d-e88d-46d2-8d0c-84e3cfc06dd9","system_id":"levelo_inurba_marseille","lat":43.29614,"lon":5.37727,"is_reserved":false,"is_disabled":false,"rental_uris":{"android":"levelo://app?vid=b13b811d-e88d-46d2-8d0c-84e3cfc06dd9","ios":"levelo://app?vid=b13b811d-e88d-46d2-8d0c-84e3cfc06dd9"},"vehicle_type_id":"4","last_reported":1734516614,"current_range_meters":38800,"station_id":"ce4bgi92rcd13ifvqb90","pricing_plan_id":"cebpf4jnsgd1na2vs0mg"},{"bike_id":"0bd5d813-d89e-42f3-8ce9-c06fb9ffedaa","system_id":"levelo_inurba_marseille","lat":43.28941,"lon":5.39642,"is_reserved":false,"is_disabled":true,"rental_uris":{"android":"levelo://app?vid=0bd5d813-d89e-42f3-8ce9-c06fb9ffedaa","ios":"levelo://app?vid=0bd5d813-d89e-42f3-8ce9-c06fb9ffedaa"},"vehicle_type_id":"4","last_reported":1734516614,"current_range_meters":34800,"station_id":"ce4bh3h2rcd13ifvqdn0","pricing_plan_id":"cebpf4jnsgd1na2vs0mg"},{"bike_id":"3736a2ec-3fec-4569-b975-7fc2f6b8f57d","system_id":"levelo_inurba_marseille","lat":43.31081,"lon":5.42427,"is_reserved":false,"is_disabled":true,"rental_uris":{"android":"levelo://app?vid=3736a2ec-3fec-4569-b975-7fc2f6b8f57d","ios":"levelo://app?vid=3736a2ec-3fec-4569-b975-7fc2f6b8f57d"},"vehicle_type_id":"4","last_reported":1734516614,"current_range_meters":38400,"station_id":"ce4bhp92rcd13ifvqhag","pricing_plan_id":"cebpf4jnsgd1na2vs0mg"},{"bike_id":"3f37807f-d28e-422d-981f-3b66e1fb21df","system_id":"levelo_inurba_marseille","lat":43.29833,"lon":5.36262,"is_reserved":false,"is_disabled":false,"rental_uris":{"android":"levelo://app?vid=3f37807f-d28e-422d-981f-3b66e1fb21df","ios":"levelo://app?vid=3f37807f-d28e-422d-981f-3b66e1fb21df"},"vehicle_type_id":"4","last_reported":1734516614,"current_range_meters":22400,"station_id":"ce4bgpp2rcd13ifvqc3g","pricing_plan_id":"cebpf4jnsgd1na2vs0mg"},{"bike_id":"3bd84091-83a4-4d43-864c-19b7610c7dc5","system_id":"levelo_inurba_marseille","lat":43.26933,"lon":5.38927,"is_reserved":false,"is_disabled":false,"rental_uris":{"android":"levelo://app?vid=3bd84091-83a4-4d43-864c-19b7610c7dc5","ios":"levelo://app?vid=3bd84091-83a4-4d43-864c-19b7610c7dc5"},"vehicle_type_id":"4","last_reported":1734516614,"current_range_meters":38000,"station_id":"ce4bhhh2rcd13ifvqfl0","pricing_plan_id":"cebpf4jnsgd1na2vs0mg"},{"bike_id":"786295a0-2550-42f5-bda9-79e18dbfd3c1","system_id":"levelo_inurba_marseille","lat":43.29007,"lon":5.35619,"is_reserved":false,"is_disabled":false,"rental_uris":{"android":"levelo://app?vid=786295a0-2550-42f5-bda9-79e18dbfd3c1","ios":"levelo://app?vid=786295a0-2550-42f5-bda9-79e18dbfd3c1"},"vehicle_type_id":"4","last_reported":1734516614,"current_range_meters":35600,"station_id":"ce4bhb92rcd13ifvqen0","pricing_plan_id":"cebpf4jnsgd1na2vs0mg"},{"bike_id":"9a9ca54f-8f83-4db0-b780-a7eb0fa7f88d","system_id":"levelo_inurba_marseille","lat":43.260279,"lon":5.3754,"is_reserved":false,"is_disabled":false,"rental_uris":{"android":"levelo://app?vid=9a9ca54f-8f83-4db0-b780-a7eb0fa7f88d","ios":"levelo://app?vid=9a9ca54f-8f83-4db0-b780-a7eb0fa7f88d"},"vehicle_type_id":"4","last_reported":1734516614,"current_range_meters":34000,"station_id":"ce4bhgh2rcd13ifvqfa0","pricing_plan_id":"cebpf4jnsgd1na2vs0mg"},{"bike_id":"e72fa642-30df-464a-831c-61ff9cf06808","system_id":"levelo_inurba_marseille","lat":43.23053,"lon":5.35504,"is_reserved":false,"is_disabled":false,"rental_uris":{"android":"levelo://app?vid=e72fa642-30df-464a-831c-61ff9cf06808","ios":"levelo://app?vid=e72fa642-30df-464a-831c-61ff9cf06808"},"vehicle_type_id":"4","last_reported":1734516614,"current_range_meters":38000,"station_id":"cpo3342slgdg3j2ifvpg","pricing_plan_id":"cebpf4jnsgd1na2vs0mg"},{"bike_id":"f312c5b7-ae4d-4ab9-9035-4f06c71eea17","system_id":"levelo_inurba_marseille","lat":43.29272,"lon":5.40107,"is_reserved":false,"is_disabled":false,"rental_uris":{"android":"levelo://app?vid=f312c5b7-ae4d-4ab9-9035-4f06c71eea17","ios":"levelo://app?vid=f312c5b7-ae4d-4ab9-9035-4f06c71eea17"},"vehicle_type_id":"4","last_reported":1734516614,"current_range_meters":28000,"station_id":"ce4bh312rcd13ifvqdk0","pricing_plan_id":"cebpf4jnsgd1na2vs0mg"},{"bike_id":"ba26706b-12bc-49c6-aa23-4c4139c8a2e9","system_id":"levelo_inurba_marseille","lat":43.3189,"lon":5.40739,"is_reserved":false,"is_disabled":false,"rental_uris":{"android":"levelo://app?vid=ba26706b-12bc-49c6-aa23-4c4139c8a2e9","ios":"levelo://app?vid=ba26706b-12bc-49c6-aa23-4c4139c8a2e9"},"vehicle_type_id":"4","last_reported":1734516614,"current_range_meters":38800,"station_id":"ce4bhq12rcd13ifvqhig","pricing_plan_id":"cebpf4jnsgd1na2vs0mg"},{"bike_id":"8e8942c3-1840-4fe0-bcc4-5a804bd7b904","system_id":"levelo_inurba_marseille","lat":43.337444,"lon":5.374475,"is_reserved":false,"is_disabled":false,"rental_uris":{"android":"levelo://app?vid=8e8942c3-1840-4fe0-bcc4-5a804bd7b904","ios":"levelo://app?vid=8e8942c3-1840-4fe0-bcc4-5a804bd7b904"},"vehicle_type_id":"4","last_reported":1734516614,"current_range_meters":38000,"station_id":"ce4bhb92rcd13ifvqen0","pricing_plan_id":"cebpf4jnsgd1na2vs0mg"},{"bike_id":"2f36cc20-6213-4bbe-8053-38d2139cdbcf","system_id":"levelo_inurba_marseille","lat":43.26786,"lon":5.39414,"is_reserved":false,"is_disabled":false,"rental_uris":{"android":"levelo://app?vid=2f36cc20-6213-4bbe-8053-38d2139cdbcf","ios":"levelo://app?vid=2f36cc20-6213-4bbe-8053-38d2139cdbcf"},"vehicle_type_id":"4","last_reported":1734516614,"current_range_meters":28400,"station_id":"ce4bhh12rcd13ifvqfg0","pricing_plan_id":"cebpf4jnsgd1na2vs0mg"},{"bike_id":"18d7700f-daa6-438c-bbde-ed6e209cf4d7","system_id":"levelo_inurba_marseille","lat":43.31696,"lon":5.40479,"is_reserved":false,"is_disabled":false,"rental_uris":{"android":"levelo://app?vid=18d7700f-daa6-438c-bbde-ed6e209cf4d7","ios":"levelo://app?vid=18d7700f-daa6-438c-bbde-ed6e209cf4d7"},"vehicle_type_id":"4","last_reported":1734516614,"current_range_meters":27200,"station_id":"ce4bh012rcd13ifvqd00","pricing_plan_id":"cebpf4jnsgd1na2vs0mg"},{"bike_id":"46e56a5c-ff64-485d-b3c6-124b0767d100","system_id":"levelo_inurba_marseille","lat":43.27901,"lon":5.38018,"is_reserved":false,"is_disabled":false,"rental_uris":{"android":"levelo://app?vid=46e56a5c-ff64-485d-b3c6-124b0767d100","ios":"levelo://app?vid=46e56a5c-ff64-485d-b3c6-124b0767d100"},"vehicle_type_id":"4","last_reported":1734516614,"current_range_meters":38400,"station_id":"ce4bhf92rcd13ifvqf50","pricing_plan_id":"cebpf4jnsgd1na2vs0mg"},{"bike_id":"a8c91e95-64ac-41d9-903b-be9cb1cc92c9","system_id":"levelo_inurba_marseille","lat":43.30559,"lon":5.3666,"is_reserved":false,"is_disabled":true,"rental_uris":{"android":"levelo://app?vid=a8c91e95-64ac-41d9-903b-be9cb1cc92c9","ios":"levelo://app?vid=a8c91e95-64ac-41d9-903b-be9cb1cc92c9"},"vehicle_type_id":"4","last_reported":1734516614,"current_range_meters":38800,"station_id":"ce4bgrp2rcd13ifvqc9g","pricing_plan_id":"cebpf4jnsgd1na2vs0mg"},{"bike_id":"402c292c-3575-4afc-aa07-b28507ddfdb3","system_id":"levelo_inurba_marseille","lat":43.30324,"lon":5.36886,"is_reserved":false,"is_disabled":false,"rental_uris":{"android":"levelo://app?vid=402c292c-3575-4afc-aa07-b28507ddfdb3","ios":"levelo://app?vid=402c292c-3575-4afc-aa07-b28507ddfdb3"},"vehicle_type_id":"4","last_reported":1734516614,"current_range_meters":38800,"station_id":"ce4bgqh2rcd13ifvqc5g","pricing_plan_id":"cebpf4jnsgd1na2vs0mg"},{"bike_id":"f65fc50c-1ed9-4e6e-9871-4862e95ec14b","system_id":"levelo_inurba_marseille","lat":43.25122,"lon":5.39351,"is_reserved":false,"is_disabled":false,"rental_uris":{"android":"levelo://app?vid=f65fc50c-1ed9-4e6e-9871-4862e95ec14b","ios":"levelo://app?vid=f65fc50c-1ed9-4e6e-9871-4862e95ec14b"},"vehicle_type_id":"4","last_reported":1734516614,"current_range_meters":30000,"station_id":"ce4bhm12rcd13ifvqgkg","pricing_plan_id":"cebpf4jnsgd1na2vs0mg"},{"bike_id":"ed7851d5-61d7-4d7c-b519-70ebeba913c4","system_id":"levelo_inurba_marseille","lat":43.27059,"lon":5.4229,"is_reserved":false,"is_disabled":false,"rental_uris":{"android":"levelo://app?vid=ed7851d5-61d7-4d7c-b519-70ebeba913c4","ios":"levelo://app?vid=ed7851d5-61d7-4d7c-b519-70ebeba913c4"},"vehicle_type_id":"4","last_reported":1734516614,"current_range_meters":31200,"station_id":"ce4bhk92rcd13ifvqgb0","pricing_plan_id":"cebpf4jnsgd1na2vs0mg"},{"bike_id":"32dba2d0-f9b5-4d54-a72f-656eb33510e4","system_id":"levelo_inurba_marseille","lat":43.31344,"lon":5.36718,"is_reserved":false,"is_disabled":false,"rental_uris":{"android":"levelo://app?vid=32dba2d0-f9b5-4d54-a72f-656eb33510e4","ios":"levelo://app?vid=32dba2d0-f9b5-4d54-a72f-656eb33510e4"},"vehicle_type_id":"4","last_reported":1734516614,"current_range_meters":35600,"station_id":"ce4bgr92rcd13ifvqc6g","pricing_plan_id":"cebpf4jnsgd1na2vs0mg"},{"bike_id":"528400c3-0495-4208-b74f-c1cae0922da2","system_id":"levelo_inurba_marseille","lat":43.24662,"lon":5.38155,"is_reserved":false,"is_disabled":true,"rental_uris":{"android":"levelo://app?vid=528400c3-0495-4208-b74f-c1cae0922da2","ios":"levelo://app?vid=528400c3-0495-4208-b74f-c1cae0922da2"},"vehicle_type_id":"4","last_reported":1734516614,"current_range_meters":400,"station_id":"ce4bhih2rcd13ifvqfr0","pricing_plan_id":"cebpf4jnsgd1na2vs0mg"},{"bike_id":"c8399855-72d4-4f25-aa5a-52a18924a7b8","system_id":"levelo_inurba_marseille","lat":43.24158,"lon":5.36389,"is_reserved":false,"is_disabled":false,"rental_uris":{"android":"levelo://app?vid=c8399855-72d4-4f25-aa5a-52a18924a7b8","ios":"levelo://app?vid=c8399855-72d4-4f25-aa5a-52a18924a7b8"},"vehicle_type_id":"4","last_reported":1734516614,"current_range_meters":7200,"station_id":"cpo36qri1sfpv3e86is0","pricing_plan_id":"cebpf4jnsgd1na2vs0mg"},{"bike_id":"f8b9f595-57de-4f40-884a-1ccbe4ed31e9","system_id":"levelo_inurba_marseille","lat":43.31691,"lon":5.40483,"is_reserved":false,"is_disabled":true,"rental_uris":{"android":"levelo://app?vid=f8b9f595-57de-4f40-884a-1ccbe4ed31e9","ios":"levelo://app?vid=f8b9f595-57de-4f40-884a-1ccbe4ed31e9"},"vehicle_type_id":"4","last_reported":1734516614,"current_range_meters":0,"station_id":"ce4bh012rcd13ifvqd00","pricing_plan_id":"cebpf4jnsgd1na2vs0mg"},{"bike_id":"4d980bec-aa56-4689-90a0-183e838a0cf9","system_id":"levelo_inurba_marseille","lat":43.27307,"lon":5.39093,"is_reserved":false,"is_disabled":false,"rental_uris":{"android":"levelo://app?vid=4d980bec-aa56-4689-90a0-183e838a0cf9","ios":"levelo://app?vid=4d980bec-aa56-4689-90a0-183e838a0cf9"},"vehicle_type_id":"4","last_reported":1734516614,"current_range_meters":18800,"station_id":"ce4bhgp2rcd13ifvqfe0","pricing_plan_id":"cebpf4jnsgd1na2vs0mg"},{"bike_id":"e65e8a25-6a8f-46c0-9517-f0d4c7df7481","system_id":"levelo_inurba_marseille","lat":43.29021,"lon":5.37177,"is_reserved":false,"is_disabled":true,"rental_uris":{"android":"levelo://app?vid=e65e8a25-6a8f-46c0-9517-f0d4c7df7481","ios":"levelo://app?vid=e65e8a25-6a8f-46c0-9517-f0d4c7df7481"},"vehicle_type_id":"4","last_reported":1734516614,"current_range_meters":28800,"station_id":"","pricing_plan_id":"cebpf4jnsgd1na2vs0mg"},{"bike_id":"6a8c0392-5811-45c9-8265-4b3d3e79a7b1","system_id":"levelo_inurba_marseille","lat":43.29305,"lon":5.37444,"is_reserved":false,"is_disabled":false,"rental_uris":{"android":"levelo://app?vid=6a8c0392-5811-45c9-8265-4b3d3e79a7b1","ios":"levelo://app?vid=6a8c0392-5811-45c9-8265-4b3d3e79a7b1"},"vehicle_type_id":"4","last_reported":1734516614,"current_range_meters":39200,"station_id":"ce4bgi12rcd13ifvqb70","pricing_plan_id":"cebpf4jnsgd1na2vs0mg"},{"bike_id":"a8bdc8af-22ae-44e8-95f9-b4acc5a33e90","system_id":"levelo_inurba_marseille","lat":43.27064,"lon":5.42271,"is_reserved":false,"is_disabled":false,"rental_uris":{"android":"levelo://app?vid=a8bdc8af-22ae-44e8-95f9-b4acc5a33e90","ios":"levelo://app?vid=a8bdc8af-22ae-44e8-95f9-b4acc5a33e90"},"vehicle_type_id":"4","last_reported":1734516614,"current_range_meters":34800,"station_id":"ce4bhk92rcd13ifvqgb0","pricing_plan_id":"cebpf4jnsgd1na2vs0mg"},{"bike_id":"c09638b7-3192-49b1-a7f3-9c0b3cb98f80","system_id":"levelo_inurba_marseille","lat":43.28001,"lon":5.41649,"is_reserved":false,"is_disabled":true,"rental_uris":{"android":"levelo://app?vid=c09638b7-3192-49b1-a7f3-9c0b3cb98f80","ios":"levelo://app?vid=c09638b7-3192-49b1-a7f3-9c0b3cb98f80"},"vehicle_type_id":"4","last_reported":1734516614,"current_range_meters":38400,"station_id":"ce4bho12rcd13ifvqh1g","pricing_plan_id":"cebpf4jnsgd1na2vs0mg"},{"bike_id":"0964a333-009c-43df-a369-e7b7f1f82c22","system_id":"levelo_inurba_marseille","lat":43.28939,"lon":5.36632,"is_reserved":false,"is_disabled":false,"rental_uris":{"android":"levelo://app?vid=0964a333-009c-43df-a369-e7b7f1f82c22","ios":"levelo://app?vid=0964a333-009c-43df-a369-e7b7f1f82c22"},"vehicle_type_id":"4","last_reported":1734516614,"current_range_meters":28000,"station_id":"","pricing_plan_id":"cebpf4jnsgd1na2vs0mg"},{"bike_id":"9b6c75e0-7553-48c9-bc71-14fe90a69072","system_id":"levelo_inurba_marseille","lat":43.28482,"lon":5.38412,"is_reserved":false,"is_disabled":false,"rental_uris":{"android":"levelo://app?vid=9b6c75e0-7553-48c9-bc71-14fe90a69072","ios":"levelo://app?vid=9b6c75e0-7553-48c9-bc71-14fe90a69072"},"vehicle_type_id":"4","last_reported":1734516614,"current_range_meters":35600,"station_id":"ce4bh512rcd13ifvqe3g","pricing_plan_id":"cebpf4jnsgd1na2vs0mg"},{"bike_id":"45c57373-e320-42d1-a25e-adffca0c3f8e","system_id":"levelo_inurba_marseille","lat":43.30126,"lon":5.37429,"is_reserved":false,"is_disabled":false,"rental_uris":{"android":"levelo://app?vid=45c57373-e320-42d1-a25e-adffca0c3f8e","ios":"levelo://app?vid=45c57373-e320-42d1-a25e-adffca0c3f8e"},"vehicle_type_id":"4","last_reported":1734516614,"current_range_meters":36000,"station_id":"ce4bgs92rcd13ifvqcc0","pricing_plan_id":"cebpf4jnsgd1na2vs0mg"},{"bike_id":"9d2aefec-f4a3-4a23-a13a-c09b46ffe2e4","system_id":"levelo_inurba_marseille","lat":43.32485,"lon":5.36561,"is_reserved":false,"is_disabled":false,"rental_uris":{"android":"levelo://app?vid=9d2aefec-f4a3-4a23-a13a-c09b46ffe2e4","ios":"levelo://app?vid=9d2aefec-f4a3-4a23-a13a-c09b46ffe2e4"},"vehicle_type_id":"4","last_reported":1734516614,"current_range_meters":39200,"station_id":"ce4bhs12rcd13ifvqhvg","pricing_plan_id":"cebpf4jnsgd1na2vs0mg"},{"bike_id":"91ee1933-7065-49af-8683-d92c503f6ac5","system_id":"levelo_inurba_marseille","lat":43.26684,"lon":5.38272,"is_reserved":false,"is_disabled":false,"rental_uris":{"android":"levelo://app?vid=91ee1933-7065-49af-8683-d92c503f6ac5","ios":"levelo://app?vid=91ee1933-7065-49af-8683-d92c503f6ac5"},"vehicle_type_id":"4","last_reported":1734516614,"current_range_meters":18000,"station_id":"ce4bhg92rcd13ifvqf90","pricing_plan_id":"cebpf4jnsgd1na2vs0mg"},{"bike_id":"3519c80f-6d84-40ed-9747-a7a3101ada16","system_id":"levelo_inurba_marseille","lat":43.26943,"lon":5.40253,"is_reserved":false,"is_disabled":false,"rental_uris":{"android":"levelo://app?vid=3519c80f-6d84-40ed-9747-a7a3101ada16","ios":"levelo://app?vid=3519c80f-6d84-40ed-9747-a7a3101ada16"},"vehicle_type_id":"4","last_reported":1734516614,"current_range_meters":38800,"station_id":"cjm6bp8fraef2m0cb0m0","pricing_plan_id":"cebpf4jnsgd1na2vs0mg"},{"bike_id":"bad8f74f-3cb3-4d9a-8174-a1b6b60e1361","system_id":"levelo_inurba_marseille","lat":43.30541,"lon":5.36561,"is_reserved":false,"is_disabled":false,"rental_uris":{"android":"levelo://app?vid=bad8f74f-3cb3-4d9a-8174-a1b6b60e1361","ios":"levelo://app?vid=bad8f74f-3cb3-4d9a-8174-a1b6b60e1361"},"vehicle_type_id":"4","last_reported":1734516614,"current_range_meters":32800,"station_id":"ce4bgs12rcd13ifvqcag","pricing_plan_id":"cebpf4jnsgd1na2vs0mg"},{"bike_id":"32f226fb-f4e2-4d81-a201-914e1005fad4","system_id":"levelo_inurba_marseille","lat":43.31717,"lon":5.40447,"is_reserved":false,"is_disabled":false,"rental_uris":{"android":"levelo://app?vid=32f226fb-f4e2-4d81-a201-914e1005fad4","ios":"levelo://app?vid=32f226fb-f4e2-4d81-a201-914e1005fad4"},"vehicle_type_id":"4","last_reported":1734516614,"current_range_meters":31200,"station_id":"ce4bh012rcd13ifvqd00","pricing_plan_id":"cebpf4jnsgd1na2vs0mg"},{"bike_id":"584c6656-dd2c-4304-a2fe-88364b51a5a2","system_id":"levelo_inurba_marseille","lat":43.25713,"lon":5.41113,"is_reserved":false,"is_disabled":false,"rental_uris":{"android":"levelo://app?vid=584c6656-dd2c-4304-a2fe-88364b51a5a2","ios":"levelo://app?vid=584c6656-dd2c-4304-a2fe-88364b51a5a2"},"vehicle_type_id":"4","last_reported":1734516614,"current_range_meters":38800,"station_id":"ce4bhkp2rcd13ifvqgd0","pricing_plan_id":"cebpf4jnsgd1na2vs0mg"},{"bike_id":"b2d380e8-08ed-495f-a052-5d7dfa068f5b","system_id":"levelo_inurba_marseille","lat":43.26949,"lon":5.3863,"is_reserved":false,"is_disabled":true,"rental_uris":{"android":"levelo://app?vid=b2d380e8-08ed-495f-a052-5d7dfa068f5b","ios":"levelo://app?vid=b2d380e8-08ed-495f-a052-5d7dfa068f5b"},"vehicle_type_id":"4","last_reported":1734516614,"current_range_meters":0,"station_id":"ce4bhh92rcd13ifvqfh0","pricing_plan_id":"cebpf4jnsgd1na2vs0mg"},{"bike_id":"0207f8a4-516c-46ff-9895-b226d519d4c1","system_id":"levelo_inurba_marseille","lat":43.23192,"lon":5.35543,"is_reserved":false,"is_disabled":false,"rental_uris":{"android":"levelo://app?vid=0207f8a4-516c-46ff-9895-b226d519d4c1","ios":"levelo://app?vid=0207f8a4-516c-46ff-9895-b226d519d4c1"},"vehicle_type_id":"4","last_reported":1734516614,"current_range_meters":36800,"station_id":"ce4bhu92rcd13ifvqi70","pricing_plan_id":"cebpf4jnsgd1na2vs0mg"},{"bike_id":"c334cbc3-3217-453c-bd71-18f64b06d9ad","system_id":"levelo_inurba_marseille","lat":43.28473,"lon":5.38411,"is_reserved":false,"is_disabled":false,"rental_uris":{"android":"levelo://app?vid=c334cbc3-3217-453c-bd71-18f64b06d9ad","ios":"levelo://app?vid=c334cbc3-3217-453c-bd71-18f64b06d9ad"},"vehicle_type_id":"4","last_reported":1734516614,"current_range_meters":25200,"station_id":"ce4bh512rcd13ifvqe3g","pricing_plan_id":"cebpf4jnsgd1na2vs0mg"},{"bike_id":"83cd1ca3-bb76-4dce-bd97-c65e2c2155f5","system_id":"levelo_inurba_marseille","lat":43.31889,"lon":5.40738,"is_reserved":false,"is_disabled":false,"rental_uris":{"android":"levelo://app?vid=83cd1ca3-bb76-4dce-bd97-c65e2c2155f5","ios":"levelo://app?vid=83cd1ca3-bb76-4dce-bd97-c65e2c2155f5"},"vehicle_type_id":"4","last_reported":1734516614,"current_range_meters":38000,"station_id":"ce4bhq12rcd13ifvqhig","pricing_plan_id":"cebpf4jnsgd1na2vs0mg"},{"bike_id":"82f7f145-591c-4ce0-8f76-660882a2845e","system_id":"levelo_inurba_marseille","lat":43.33611,"lon":5.41023,"is_reserved":false,"is_disabled":true,"rental_uris":{"android":"levelo://app?vid=82f7f145-591c-4ce0-8f76-660882a2845e","ios":"levelo://app?vid=82f7f145-591c-4ce0-8f76-660882a2845e"},"vehicle_type_id":"4","last_reported":1734516614,"current_range_meters":30000,"station_id":"ce4bhqh2rcd13ifvqhmg","pricing_plan_id":"cebpf4jnsgd1na2vs0mg"},{"bike_id":"fd44f607-a684-4165-afa8-704f90884ce5","system_id":"levelo_inurba_marseille","lat":43.30146,"lon":5.37425,"is_reserved":false,"is_disabled":false,"rental_uris":{"android":"levelo://app?vid=fd44f607-a684-4165-afa8-704f90884ce5","ios":"levelo://app?vid=fd44f607-a684-4165-afa8-704f90884ce5"},"vehicle_type_id":"4","last_reported":1734516614,"current_range_meters":12800,"station_id":"ce4bgs92rcd13ifvqcc0","pricing_plan_id":"cebpf4jnsgd1na2vs0mg"},{"bike_id":"9a232500-b51a-4eec-bb1f-1de3cd6824f5","system_id":"levelo_inurba_marseille","lat":43.30425,"lon":5.38901,"is_reserved":false,"is_disabled":true,"rental_uris":{"android":"levelo://app?vid=9a232500-b51a-4eec-bb1f-1de3cd6824f5","ios":"levelo://app?vid=9a232500-b51a-4eec-bb1f-1de3cd6824f5"},"vehicle_type_id":"4","last_reported":1734516614,"current_range_meters":34000,"station_id":"ce4bgk12rcd13ifvqbi0","pricing_plan_id":"cebpf4jnsgd1na2vs0mg"},{"bike_id":"5088f5ce-c932-459e-913f-54ad31eccec9","system_id":"levelo_inurba_marseille","lat":43.3021,"lon":5.39478,"is_reserved":false,"is_disabled":false,"rental_uris":{"android":"levelo://app?vid=5088f5ce-c932-459e-913f-54ad31eccec9","ios":"levelo://app?vid=5088f5ce-c932-459e-913f-54ad31eccec9"},"vehicle_type_id":"4","last_reported":1734516614,"current_range_meters":34000,"station_id":"ce4bh0p2rcd13ifvqd70","pricing_plan_id":"cebpf4jnsgd1na2vs0mg"},{"bike_id":"ac7c5f56-daad-496c-965f-9103737000e8","system_id":"levelo_inurba_marseille","lat":43.23966,"lon":5.36632,"is_reserved":false,"is_disabled":false,"rental_uris":{"android":"levelo://app?vid=ac7c5f56-daad-496c-965f-9103737000e8","ios":"levelo://app?vid=ac7c5f56-daad-496c-965f-9103737000e8"},"vehicle_type_id":"4","last_reported":1734516614,"current_range_meters":38800,"station_id":"ce4bhi12rcd13ifvqfp0","pricing_plan_id":"cebpf4jnsgd1na2vs0mg"},{"bike_id":"27241c87-6b7d-418b-842b-e74269dd5136","system_id":"levelo_inurba_marseille","lat":43.2998,"lon":5.38488,"is_reserved":false,"is_disabled":false,"rental_uris":{"android":"levelo://app?vid=27241c87-6b7d-418b-842b-e74269dd5136","ios":"levelo://app?vid=27241c87-6b7d-418b-842b-e74269dd5136"},"vehicle_type_id":"4","last_reported":1734516614,"current_range_meters":28400,"station_id":"ce4bgj92rcd13ifvqbd0","pricing_plan_id":"cebpf4jnsgd1na2vs0mg"},{"bike_id":"18f33ab4-c322-4783-b86f-05bae90255ff","system_id":"levelo_inurba_marseille","lat":43.29038,"lon":5.37571,"is_reserved":false,"is_disabled":false,"rental_uris":{"android":"levelo://app?vid=18f33ab4-c322-4783-b86f-05bae90255ff","ios":"levelo://app?vid=18f33ab4-c322-4783-b86f-05bae90255ff"},"vehicle_type_id":"4","last_reported":1734516614,"current_range_meters":23200,"station_id":"ce4bh692rcd13ifvqe90","pricing_plan_id":"cebpf4jnsgd1na2vs0mg"},{"bike_id":"f5d6a80f-4cdc-43d9-a251-ed5436737e28","system_id":"levelo_inurba_marseille","lat":43.31529,"lon":5.38026,"is_reserved":false,"is_disabled":false,"rental_uris":{"android":"levelo://app?vid=f5d6a80f-4cdc-43d9-a251-ed5436737e28","ios":"levelo://app?vid=f5d6a80f-4cdc-43d9-a251-ed5436737e28"},"vehicle_type_id":"4","last_reported":1734516614,"current_range_meters":38800,"station_id":"ce4bhsp2rcd13ifvqi50","pricing_plan_id":"cebpf4jnsgd1na2vs0mg"},{"bike_id":"e1561eb8-22de-459f-a629-d5e80c323aa1","system_id":"levelo_inurba_marseille","lat":43.31341,"lon":5.36722,"is_reserved":false,"is_disabled":false,"rental_uris":{"android":"levelo://app?vid=e1561eb8-22de-459f-a629-d5e80c323aa1","ios":"levelo://app?vid=e1561eb8-22de-459f-a629-d5e80c323aa1"},"vehicle_type_id":"4","last_reported":1734516614,"current_range_meters":39200,"station_id":"ce4bgr92rcd13ifvqc6g","pricing_plan_id":"cebpf4jnsgd1na2vs0mg"},{"bike_id":"69766096-860d-4950-9887-91a2f9e6ab30","system_id":"levelo_inurba_marseille","lat":43.24663,"lon":5.38169,"is_reserved":false,"is_disabled":false,"rental_uris":{"android":"levelo://app?vid=69766096-860d-4950-9887-91a2f9e6ab30","ios":"levelo://app?vid=69766096-860d-4950-9887-91a2f9e6ab30"},"vehicle_type_id":"4","last_reported":1734516614,"current_range_meters":18800,"station_id":"ce4bhih2rcd13ifvqfr0","pricing_plan_id":"cebpf4jnsgd1na2vs0mg"},{"bike_id":"00359d1e-2e7d-4d23-8223-4626e7eacd60","system_id":"levelo_inurba_marseille","lat":43.31185,"lon":5.3871,"is_reserved":false,"is_disabled":false,"rental_uris":{"android":"levelo://app?vid=00359d1e-2e7d-4d23-8223-4626e7eacd60","ios":"levelo://app?vid=00359d1e-2e7d-4d23-8223-4626e7eacd60"},"vehicle_type_id":"4","last_reported":1734516614,"current_range_meters":25600,"station_id":"ce4bgv12rcd13ifvqcp0","pricing_plan_id":"cebpf4jnsgd1na2vs0mg"},{"bike_id":"37a3f54f-74a9-4317-b02b-b0e18366fb10","system_id":"levelo_inurba_marseille","lat":43.28469,"lon":5.38444,"is_reserved":false,"is_disabled":true,"rental_uris":{"android":"levelo://app?vid=37a3f54f-74a9-4317-b02b-b0e18366fb10","ios":"levelo://app?vid=37a3f54f-74a9-4317-b02b-b0e18366fb10"},"vehicle_type_id":"4","last_reported":1734516614,"current_range_meters":0,"station_id":"ce4bh512rcd13ifvqe3g","pricing_plan_id":"cebpf4jnsgd1na2vs0mg"},{"bike_id":"ccbd5d7c-b799-4e13-8dc0-00f4e98d5a5a","system_id":"levelo_inurba_marseille","lat":43.30533,"lon":5.36541,"is_reserved":false,"is_disabled":false,"rental_uris":{"android":"levelo://app?vid=ccbd5d7c-b799-4e13-8dc0-00f4e98d5a5a","ios":"levelo://app?vid=ccbd5d7c-b799-4e13-8dc0-00f4e98d5a5a"},"vehicle_type_id":"4","last_reported":1734516614,"current_range_meters":28800,"station_id":"ce4bgs12rcd13ifvqcag","pricing_plan_id":"cebpf4jnsgd1na2vs0mg"},{"bike_id":"fc5e2ebb-63b6-494d-b595-a60a155e5f91","system_id":"levelo_inurba_marseille","lat":43.27493,"lon":5.42453,"is_reserved":false,"is_disabled":false,"rental_uris":{"android":"levelo://app?vid=fc5e2ebb-63b6-494d-b595-a60a155e5f91","ios":"levelo://app?vid=fc5e2ebb-63b6-494d-b595-a60a155e5f91"},"vehicle_type_id":"4","last_reported":1734516614,"current_range_meters":24400,"station_id":"ce4bhn92rcd13ifvqgrg","pricing_plan_id":"cebpf4jnsgd1na2vs0mg"},{"bike_id":"991a6937-87f3-4f52-a962-216ff783cb0b","system_id":"levelo_inurba_marseille","lat":43.255797,"lon":5.382223,"is_reserved":false,"is_disabled":false,"rental_uris":{"android":"levelo://app?vid=991a6937-87f3-4f52-a962-216ff783cb0b","ios":"levelo://app?vid=991a6937-87f3-4f52-a962-216ff783cb0b"},"vehicle_type_id":"4","last_reported":1734516614,"current_range_meters":38800,"station_id":"ce4bhih2rcd13ifvqfs0","pricing_plan_id":"cebpf4jnsgd1na2vs0mg"},