{"last_updated":1735027953,"ttl":60,"version":"2.2","data":{"bikes":[{"bike_id":"c69170e2-5b8c-41c8-861b-04b6d81a1590","system_id":"levelo_inurba_marseille","lat":43.269385,"lon":5.392467,"is_reserved":false,"is_disabled":false,"rental_uris":{"android":"levelo://app?vid=c69170e2-5b8c-41c8-861b-04b6d81a1590","ios":"levelo://app?vid=c69170e2-5b8c-41c8-861b-04b6d81a1590"},"vehicle_type_id":"4","last_reported":1735027954,"current_range_meters":35200,"station_id":"ce4bhlh2rcd13ifvqgig","pricing_plan_id":"cebpf4jnsgd1na2vs0mg"},{"bike_id":"37307679-2ed3-471e-8103-35ec6c5fc488","system_id":"levelo_inurba_marseille","lat":43.29979,"lon":5.38472,"is_reserved":false,"is_disabled":false,"rental_uris":{"android":"levelo://app?vid=37307679-2ed3-471e-8103-35ec6c5fc488","ios":"levelo://app?vid=37307679-2ed3-471e-8103-35ec6c5fc488"},"vehicle_type_id":"4","last_reported":1735027954,"current_range_meters":24800,"station_id":"ce4bgj92rcd13ifvqbd0","pricing_plan_id":"cebpf4jnsgd1na2vs0mg"},{"bike_id":"b0190d43-f866-40ac-9481-87078cf0e5c0","system_id":"levelo_inurba_marseille","lat":43.28262,"lon":5.35074,"is_reserved":false,"is_disabled":false,"rental_uris":{"android":"levelo://app?vid=b0190d43-f866-40ac-9481-87078cf0e5c0","ios":"levelo://app?vid=b0190d43-f866-40ac-9481-87078cf0e5c0"},"vehicle_type_id":"4","last_reported":1735027954,"current_range_meters":12000,"station_id":"ce4bhbp2rcd13ifvqerg","pricing_plan_id":"cebpf4jnsgd1na2vs0mg"},{"bike_id":"2e17686b-620c-4613-a59b-c8594a2951b6","system_id":"levelo_inurba_marseille","lat":43.266634,"lon":5.382622,"is_reserved":false,"is_disabled":false,"rental_uris":{"android":"levelo://app?vid=2e17686b-620c-4613-a59b-c8594a2951b6","ios":"levelo://app?vid=2e17686b-620c-4613-a59b-c8594a2951b6"},"vehicle_type_id":"4","last_reported":1735027954,"current_range_meters":27600,"station_id":"ce4bhg92rcd13ifvqf90","pricing_plan_id":"cebpf4jnsgd1na2vs0mg"},{"bike_id":"6c0e2fb5-015c-4176-b0bb-902f57d44214","system_id":"levelo_inurba_marseille","lat":43.28942,"lon":5.39629,"is_reserved":false,"is_disabled":true,"rental_uris":{"android":"levelo://app?vid=6c0e2fb5-015c-4176-b0bb-902f57d44214","ios":"levelo://app?vid=6c0e2fb5-015c-4176-b0bb-902f57d44214"},"vehicle_type_id":"4","last_reported":1735027954,"current_range_meters":20400,"station_id":"ce4bh3h2rcd13ifvqdn0","pricing_plan_id":"cebpf4jnsgd1na2vs0mg"},{"bike_id":"05ea7e4b-4117-45ef-9b68-18f1a46b929e","system_id":"levelo_inurba_marseille","lat":43.29055,"lon":5.37159,"is_reserved":false,"is_disabled":false,"rental_uris":{"android":"levelo://app?vid=05ea7e4b-4117-45ef-9b68-18f1a46b929e","ios":"levelo://app?vid=05ea7e4b-4117-45ef-9b68-18f1a46b929e"},"vehicle_type_id":"4","last_reported":1735027954,"current_range_meters":39200,"station_id":"ce4bh5p2rcd13ifvqe4g","pricing_plan_id":"cebpf4jnsgd1na2vs0mg"},{"bike_id":"b8093f20-57ed-439b-88af-37a0f595739f","system_id":"levelo_inurba_marseille","lat":43.30941,"lon":5.40138,"is_reserved":false,"is_disabled":false,"rental_uris":{"android":"levelo://app?vid=b8093f20-57ed-439b-88af-37a0f595739f","ios":"levelo://app?vid=b8093f20-57ed-439b-88af-37a0f595739f"},"vehicle_type_id":"4","last_reported":1735027954,"current_range_meters":36800,"station_id":"ce4bgvp2rcd13ifvqct0","pricing_plan_id":"cebpf4jnsgd1na2vs0mg"},{"bike_id":"309a87e9-9b5e-4e9a-8bc8-15574014cdc6","system_id":"levelo_inurba_marseille","lat":43.24391,"lon":5.37057,"is_reserved":false,"is_disabled":false,"rental_uris":{"android":"levelo://app?vid=309a87e9-9b5e-4e9a-8bc8-15574014cdc6","ios":"levelo://app?vid=309a87e9-9b5e-4e9a-8bc8-15574014cdc6"},"vehicle_type_id":"4","last_reported":1735027954,"current_range_meters":36000,"station_id":"ce4bhhh2rcd13ifvqfk0","pricing_plan_id":"cebpf4jnsgd1na2vs0mg"},{"bike_id":"4828b7ea-7ebf-447e-b661-9494163812c4","system_id":"levelo_inurba_marseille","lat":43.2594,"lon":5.409,"is_reserved":false,"is_disabled":false,"rental_uris":{"android":"levelo://app?vid=4828b7ea-7ebf-447e-b661-9494163812c4","ios":"levelo://app?vid=4828b7ea-7ebf-447e-b661-9494163812c4"},"vehicle_type_id":"4","last_reported":1735027954,"current_range_meters":27200,"station_id":"ce4bhm92rcd13ifvqglg","pricing_plan_id":"cebpf4jnsgd1na2vs0mg"},{"bike_id":"f7e5e57a-9e67-4a34-8c87-f182c2d1ab80","system_id":"levelo_inurba_marseille","lat":43.2707,"lon":5.42275,"is_reserved":false,"is_disabled":false,"rental_uris":{"android":"levelo://app?vid=f7e5e57a-9e67-4a34-8c87-f182c2d1ab80","ios":"levelo://app?vid=f7e5e57a-9e67-4a34-8c87-f182c2d1ab80"},"vehicle_type_id":"4","last_reported":1735027954,"current_range_meters":28400,"station_id":"ce4bhk92rcd13ifvqgb0","pricing_plan_id":"cebpf4jnsgd1na2vs0mg"},{"bike_id":"3a044041-3464-470e-b37f-dbc05ff5c634","system_id":"levelo_inurba_marseille","lat":43.31708,"lon":5.43701,"is_reserved":false,"is_disabled":false,"rental_uris":{"android":"levelo://app?vid=3a044041-3464-470e-b37f-dbc05ff5c634","ios":"levelo://app?vid=3a044041-3464-470e-b37f-dbc05ff5c634"},"vehicle_type_id":"4","last_reported":1735027954,"current_range_meters":39200,"station_id":"ce4bhp92rcd13ifvqhcg","pricing_plan_id":"cebpf4jnsgd1na2vs0mg"},{"bike_id":"96f67906-c94f-4a78-ae6e-fdff28a17019","system_id":"levelo_inurba_marseille","lat":43.33753,"lon":5.37429,"is_reserved":false,"is_disabled":false,"rental_uris":{"android":"levelo://app?vid=96f67906-c94f-4a78-ae6e-fdff28a17019","ios":"levelo://app?vid=96f67906-c94f-4a78-ae6e-fdff28a17019"},"vehicle_type_id":"4","last_reported":1735027954,"current_range_meters":17600,"station_id":"","pricing_plan_id":"cebpf4jnsgd1na2vs0mg"},{"bike_id":"795076f9-83a5-46e4-979a-bed3b01d1ac4","system_id":"levelo_inurba_marseille","lat":43.2885,"lon":5.35832,"is_reserved":false,"is_disabled":false,"rental_uris":{"android":"levelo://app?vid=795076f9-83a5-46e4-979a-bed3b01d1ac4","ios":"levelo://app?vid=795076f9-83a5-46e4-979a-bed3b01d1ac4"},"vehicle_type_id":"4","last_reported":1735027954,"current_range_meters":36800,"station_id":"ce4bhb12rcd13ifvqem0","pricing_plan_id":"cebpf4jnsgd1na2vs0mg"},{"bike_id":"ae613286-4993-4af4-b27e-2db52fa5b495","system_id":"levelo_inurba_marseille","lat":43.29629,"lon":5.40592,"is_reserved":false,"is_disabled":false,"rental_uris":{"android":"levelo://app?vid=ae613286-4993-4af4-b27e-2db52fa5b495","ios":"levelo://app?vid=ae613286-4993-4af4-b27e-2db52fa5b495"},"vehicle_type_id":"4","last_reported":1735027954,"current_range_meters":34800,"station_id":"ce4bh0h2rcd13ifvqd60","pricing_plan_id":"cebpf4jnsgd1na2vs0mg"},{"bike_id":"8ba84ccc-8626-48fe-9205-f75891433829","system_id":"levelo_inurba_marseille","lat":43.25501,"lon":5.37655,"is_reserved":false,"is_disabled":false,"rental_uris":{"android":"levelo://app?vid=8ba84ccc-8626-48fe-9205-f75891433829","ios":"levelo://app?vid=8ba84ccc-8626-48fe-9205-f75891433829"},"vehicle_type_id":"4","last_reported":1735027954,"current_range_meters":38800,"station_id":"ce4bhh12rcd13ifvqff0","pricing_plan_id":"cebpf4jnsgd1na2vs0mg"},{"bike_id":"46196b54-be60-4864-af50-c081fb63a583","system_id":"levelo_inurba_marseille","lat":43.29604,"lon":5.3771,"is_reserved":false,"is_disabled":true,"rental_uris":{"android":"levelo://app?vid=46196b54-be60-4864-af50-c081fb63a583","ios":"levelo://app?vid=46196b54-be60-4864-af50-c081fb63a583"},"vehicle_type_id":"4","last_reported":1735027954,"current_range_meters":15200,"station_id":"ce4bgi92rcd13ifvqb90","pricing_plan_id":"cebpf4jnsgd1na2vs0mg"},{"bike_id":"4145cc2d-92bc-4c78-b685-0b853f2fbe6a","system_id":"levelo_inurba_marseille","lat":43.2885,"lon":5.39314,"is_reserved":false,"is_disabled":false,"rental_uris":{"android":"levelo://app?vid=4145cc2d-92bc-4c78-b685-0b853f2fbe6a","ios":"levelo://app?vid=4145cc2d-92bc-4c78-b685-0b853f2fbe6a"},"vehicle_type_id":"4","last_reported":1735027954,"current_range_meters":25200,"station_id":"ce4bh2p2rcd13ifvqdi0","pricing_plan_id":"cebpf4jnsgd1na2vs0mg"},{"bike_id":"be3040e9-6906-407e-a792-9696f53ac95d","system_id":"levelo_inurba_marseille","lat":43.29193,"lon":5.39306,"is_reserved":false,"is_disabled":false,"rental_uris":{"android":"levelo://app?vid=be3040e9-6906-407e-a792-9696f53ac95d","ios":"levelo://app?vid=be3040e9-6906-407e-a792-9696f53ac95d"},"vehicle_type_id":"4","last_reported":1735027954,"current_range_meters":38800,"station_id":"ce4bh192rcd13ifvqdd0","pricing_plan_id":"cebpf4jnsgd1na2vs0mg"},{"bike_id":"15546ba2-38ac-400d-b271-ae9b7236f8a7","system_id":"levelo_inurba_marseille","lat":43.27071,"lon":5.42281,"is_reserved":false,"is_disabled":true,"rental_uris":{"android":"levelo://app?vid=15546ba2-38ac-400d-b271-ae9b7236f8a7","ios":"levelo://app?vid=15546ba2-38ac-400d-b271-ae9b7236f8a7"},"vehicle_type_id":"4","last_reported":1735027954,"current_range_meters":37600,"station_id":"ce4bhk92rcd13ifvqgb0","pricing_plan_id":"cebpf4jnsgd1na2vs0mg"},{"bike_id":"c66abb8e-8df5-4273-a071-f5581230d15b","system_id":"levelo_inurba_marseille","lat":43.30142,"lon":5.37422,"is_reserved":false,"is_disabled":false,"rental_uris":{"android":"levelo://app?vid=c66abb8e-8df5-4273-a071-f5581230d15b","ios":"levelo://app?vid=c66abb8e-8df5-4273-a071-f5581230d15b"},"vehicle_type_id":"4","last_reported":1735027954,"current_range_meters":36000,"station_id":"ce4bgs92rcd13ifvqcc0","pricing_plan_id":"cebpf4jnsgd1na2vs0mg"},{"bike_id":"e8ecdd49-b83f-4434-b6d3-a210fbcff797","system_id":"levelo_inurba_marseille","lat":43.337444,"lon":5.374475,"is_reserved":false,"is_disabled":true,"rental_uris":{"android":"levelo://app?vid=e8ecdd49-b83f-4434-b6d3-a210fbcff797","ios":"levelo://app?vid=e8ecdd49-b83f-4434-b6d3-a210fbcff797"},"vehicle_type_id":"4","last_reported":1735027954,"current_range_meters":0,"station_id":"","pricing_plan_id":"cebpf4jnsgd1na2vs0mg"},{"bike_id":"483c1a88-3d76-4ce2-b8a0-18ab3d6306de","system_id":"levelo_inurba_marseille","lat":43.29936,"lon":5.36537,"is_reserved":false,"is_disabled":false,"rental_uris":{"android":"levelo://app?vid=483c1a88-3d76-4ce2-b8a0-18ab3d6306de","ios":"levelo://app?vid=483c1a88-3d76-4ce2-b8a0-18ab3d6306de"},"vehicle_type_id":"4","last_reported":1735027954,"current_range_meters":38000,"station_id":"ce4bgm92rcd13ifvqbr0","pricing_plan_id":"cebpf4jnsgd1na2vs0mg"},{"bike_id":"677767c6-7ea3-4173-ae5e-27b0074a22e9","system_id":"levelo_inurba_marseille","lat":43.2873,"lon":5.36078,"is_reserved":false,"is_disabled":false,"rental_uris":{"android":"levelo://app?vid=677767c6-7ea3-4173-ae5e-27b0074a22e9","ios":"levelo://app?vid=677767c6-7ea3-4173-ae5e-27b0074a22e9"},"vehicle_type_id":"4","last_reported":1735027954,"current_range_meters":38800,"station_id":"cki0cbj6b192h4jlfktg","pricing_plan_id":"cebpf4jnsgd1na2vs0mg"},{"bike_id":"b5305089-62ba-43a5-a181-d0cf47187869","system_id":"levelo_inurba_marseille","lat":43.26489,"lon":5.39539,"is_reserved":false,"is_disabled":false,"rental_uris":{"android":"levelo://app?vid=b5305089-62ba-43a5-a181-d0cf47187869","ios":"levelo://app?vid=b5305089-62ba-43a5-a181-d0cf47187869"},"vehicle_type_id":"4","last_reported":1735027954,"current_range_meters":21600,"station_id":"ce4bhi12rcd13ifvqfq0","pricing_plan_id":"cebpf4jnsgd1na2vs0mg"},{"bike_id":"671b6366-55bc-4b51-a3a4-65fbc5c39302","system_id":"levelo_inurba_marseille","lat":43.32045,"lon":5.41564,"is_reserved":false,"is_disabled":false,"rental_uris":{"android":"levelo://app?vid=671b6366-55bc-4b51-a3a4-65fbc5c39302","ios":"levelo://app?vid=671b6366-55bc-4b51-a3a4-65fbc5c39302"},"vehicle_type_id":"4","last_reported":1735027954,"current_range_meters":32400,"station_id":"ce4bhq92rcd13ifvqhkg","pricing_plan_id":"cebpf4jnsgd1na2vs0mg"},{"bike_id":"05b6bcf3-c722-46e8-83f0-b7dafc54f38c","system_id":"levelo_inurba_marseille","lat":43.30887,"lon":5.3963,"is_reserved":false,"is_disabled":false,"rental_uris":{"android":"levelo://app?vid=05b6bcf3-c722-46e8-83f0-b7dafc54f38c","ios":"levelo://app?vid=05b6bcf3-c722-46e8-83f0-b7dafc54f38c"},"vehicle_type_id":"4","last_reported":1735027954,"current_range_meters":38800,"station_id":"ce4bh012rcd13ifvqcv0","pricing_plan_id":"cebpf4jnsgd1na2vs0mg"},{"bike_id":"39076371-5d4c-42aa-82bc-3aa69939e51e","system_id":"levelo_inurba_marseille","lat":43.25721,"lon":5.41113,"is_reserved":false,"is_disabled":false,"rental_uris":{"android":"levelo://app?vid=39076371-5d4c-42aa-82bc-3aa69939e51e","ios":"levelo://app?vid=39076371-5d4c-42aa-82bc-3aa69939e51e"},"vehicle_type_id":"4","last_reported":1735027954,"current_range_meters":38000,"station_id":"ce4bhkp2rcd13ifvqgd0","pricing_plan_id":"cebpf4jnsgd1na2vs0mg"},{"bike_id":"3130a1e9-02dc-483e-bca9-c7faabf763a1","system_id":"levelo_inurba_marseille","lat":43.254921,"lon":5.376485,"is_reserved":false,"is_disabled":false,"rental_uris":{"android":"levelo://app?vid=3130a1e9-02dc-483e-bca9-c7faabf763a1","ios":"levelo://app?vid=3130a1e9-02dc-483e-bca9-c7faabf763a1"},"vehicle_type_id":"4","last_reported":1735027954,"current_range_meters":38800,"station_id":"ce4bhh12rcd13ifvqff0","pricing_plan_id":"cebpf4jnsgd1na2vs0mg"},{"bike_id":"ea8c40cc-174b-443f-b73d-f844c946648a","system_id":"levelo_inurba_marseille","lat":43.24643,"lon":5.38885,"is_reserved":false,"is_disabled":false,"rental_uris":{"android":"levelo://app?vid=ea8c40cc-174b-443f-b73d-f844c946648a","ios":"levelo://app?vid=ea8c40cc-174b-443f-b73d-f844c946648a"},"vehicle_type_id":"4","last_reported":1735027954,"current_range_meters":28800,"station_id":"ce4bhg12rcd13ifvqf60","pricing_plan_id":"cebpf4jnsgd1na2vs0mg"},{"bike_id":"b76cea7e-5025-4e14-a8c7-eebf31292c4c","system_id":"levelo_inurba_marseille","lat":43.26066,"lon":5.3939,"is_reserved":false,"is_disabled":true,"rental_uris":{"android":"levelo://app?vid=b76cea7e-5025-4e14-a8c7-eebf31292c4c","ios":"levelo://app?vid=b76cea7e-5025-4e14-a8c7-eebf31292c4c"},"vehicle_type_id":"4","last_reported":1735027954,"current_range_meters":25600,"station_id":"ce4bhh92rcd13ifvqfj0","pricing_plan_id":"cebpf4jnsgd1na2vs0mg"},{"bike_id":"8ce5642a-611f-40d1-b467-c124c590cb07","system_id":"levelo_inurba_marseille","lat":43.28939,"lon":5.36398,"is_reserved":false,"is_disabled":true,"rental_uris":{"android":"levelo://app?vid=8ce5642a-611f-40d1-b467-c124c590cb07","ios":"levelo://app?vid=8ce5642a-611f-40d1-b467-c124c590cb07"},"vehicle_type_id":"4","last_reported":1735027954,"current_range_meters":4800,"station_id":"ce4bhc92rcd13ifvqetg","pricing_plan_id":"cebpf4jnsgd1na2vs0mg"},{"bike_id":"6678db6e-3623-4b0f-81a4-00352ba4592f","system_id":"levelo_inurba_marseille","lat":43.30464,"lon":5.37907,"is_reserved":false,"is_disabled":false,"rental_uris":{"android":"levelo://app?vid=6678db6e-3623-4b0f-81a4-00352ba4592f","ios":"levelo://app?vid=6678db6e-3623-4b0f-81a4-00352ba4592f"},"vehicle_type_id":"4","last_reported":1735027954,"current_range_meters":22000,"station_id":"ce4bgup2rcd13ifvqcn0","pricing_plan_id":"cebpf4jnsgd1na2vs0mg"},{"bike_id":"4640efba-219d-4755-95ea-1eeb325bea3d","system_id":"levelo_inurba_marseille","lat":43.290011,"lon":5.356031,"is_reserved":false,"is_disabled":false,"rental_uris":{"android":"levelo://app?vid=4640efba-219d-4755-95ea-1eeb325bea3d","ios":"levelo://app?vid=4640efba-219d-4755-95ea-1eeb325bea3d"},"vehicle_type_id":"4","last_reported":1735027954,"current_range_meters":35600,"station_id":"ce4bhb92rcd13ifvqen0","pricing_plan_id":"cebpf4jnsgd1na2vs0mg"},{"bike_id":"cce843fa-7397-4147-b074-e91bb5360a92","system_id":"levelo_inurba_marseille","lat":43.27212,"lon":5.39185,"is_reserved":false,"is_disabled":false,"rental_uris":{"android":"levelo://app?vid=cce843fa-7397-4147-b074-e91bb5360a92","ios":"levelo://app?vid=cce843fa-7397-4147-b074-e91bb5360a92"},"vehicle_type_id":"4","last_reported":1735027954,"current_range_meters":38800,"station_id":"ce4bhhp2rcd13ifvqfm0","pricing_plan_id":"cebpf4jnsgd1na2vs0mg"},{"bike_id":"0402176f-88f7-4e6c-acb6-234dc165177a","system_id":"levelo_inurba_marseille","lat":43.30206,"lon":5.39466,"is_reserved":false,"is_disabled":false,"rental_uris":{"android":"levelo://app?vid=0402176f-88f7-4e6c-acb6-234dc165177a","ios":"levelo://app?vid=0402176f-88f7-4e6c-acb6-234dc165177a"},"vehicle_type_id":"4","last_reported":1735027954,"current_range_meters":28800,"station_id":"ce4bh0p2rcd13ifvqd70","pricing_plan_id":"cebpf4jnsgd1na2vs0mg"},{"bike_id":"5d29fc56-dbb2-4006-96bc-27e181f8d4f5","system_id":"levelo_inurba_marseille","lat":43.29844,"lon":5.36279,"is_reserved":false,"is_disabled":false,"rental_uris":{"android":"levelo://app?vid=5d29fc56-dbb2-4006-96bc-27e181f8d4f5","ios":"levelo://app?vid=5d29fc56-dbb2-4006-96bc-27e181f8d4f5"},"vehicle_type_id":"4","last_reported":1735027954,"current_range_meters":36400,"station_id":"ce4bgpp2rcd13ifvqc3g","pricing_plan_id":"cebpf4jnsgd1na2vs0mg"},{"bike_id":"bf0280ad-bda7-4529-a99f-08b28cf99de6","system_id":"levelo_inurba_marseille","lat":43.2992,"lon":5.365,"is_reserved":false,"is_disabled":false,"rental_uris":{"android":"levelo://app?vid=bf0280ad-bda7-4529-a99f-08b28cf99de6","ios":"levelo://app?vid=bf0280ad-bda7-4529-a99f-08b28cf99de6"},"vehicle_type_id":"4","last_reported":1735027954,"current_range_meters":25200,"station_id":"ce4bgm92rcd13ifvqbr0","pricing_plan_id":"cebpf4jnsgd1na2vs0mg"},{"bike_id":"d6989d89-6423-4f53-879c-2c7845669fb0","system_id":"levelo_inurba_marseille","lat":43.30317,"lon":5.36883,"is_reserved":false,"is_disabled":false,"rental_uris":{"android":"levelo://app?vid=d6989d89-6423-4f53-879c-2c7845669fb0","ios":"levelo://app?vid=d6989d89-6423-4f53-879c-2c7845669fb0"},"vehicle_type_id":"4","last_reported":1735027954,"current_range_meters":24800,"station_id":"ce4bgqh2rcd13ifvqc5g","pricing_plan_id":"cebpf4jnsgd1na2vs0mg"},{"bike_id":"340bdf85-b70a-4fec-860b-4323592295f8","system_id":"levelo_inurba_marseille","lat":43.29561,"lon":5.375,"is_reserved":false,"is_disabled":false,"rental_uris":{"android":"levelo://app?vid=340bdf85-b70a-4fec-860b-4323592295f8","ios":"levelo://app?vid=340bdf85-b70a-4fec-860b-4323592295f8"},"vehicle_type_id":"4","last_reported":1735027954,"current_range_meters":18800,"station_id":"ce4bgh92rcd13ifvqb50","pricing_plan_id":"cebpf4jnsgd1na2vs0mg"},{"bike_id":"e1a1fefb-6ade-46e6-98d6-844f07ab9872","system_id":"levelo_inurba_marseille","lat":43.29268,"lon":5.36837,"is_reserved":false,"is_disabled":false,"rental_uris":{"android":"levelo://app?vid=e1a1fefb-6ade-46e6-98d6-844f07ab9872","ios":"levelo://app?vid=e1a1fefb-6ade-46e6-98d6-844f07ab9872"},"vehicle_type_id":"4","last_reported":1735027954,"current_range_meters":16400,"station_id":"ce4bhbp2rcd13ifvqesg","pricing_plan_id":"cebpf4jnsgd1na2vs0mg"},{"bike_id":"576daf5e-01a3-4579-8e40-035ad7ace8cb","system_id":"levelo_inurba_marseille","lat":43.25724,"lon":5.41108,"is_reserved":false,"is_disabled":false,"rental_uris":{"android":"levelo://app?vid=576daf5e-01a3-4579-8e40-035ad7ace8cb","ios":"levelo://app?vid=576daf5e-01a3-4579-8e40-035ad7ace8cb"},"vehicle_type_id":"4","last_reported":1735027954,"current_range_meters":30000,"station_id":"ce4bhkp2rcd13ifvqgd0","pricing_plan_id":"cebpf4jnsgd1na2vs0mg"},{"bike_id":"07ce0959-f9bb-4002-a63d-601e2430ec70","system_id":"levelo_inurba_marseille","lat":43.29915,"lon":5.37468,"is_reserved":false,"is_disabled":false,"rental_uris":{"android":"levelo://app?vid=07ce0959-f9bb-4002-a63d-601e2430ec70","ios":"levelo://app?vid=07ce0959-f9bb-4002-a63d-601e2430ec70"},"vehicle_type_id":"4","last_reported":1735027954,"current_range_meters":26800,"station_id":"ce4bgjh2rcd13ifvqbg0","pricing_plan_id":"cebpf4jnsgd1na2vs0mg"},{"bike_id":"ea38757f-08d8-44b7-a690-97d235ccd29e","system_id":"levelo_inurba_marseille","lat":43.27973,"lon":5.38754,"is_reserved":false,"is_disabled":false,"rental_uris":{"android":"levelo://app?vid=ea38757f-08d8-44b7-a690-97d235ccd29e","ios":"levelo://app?vid=ea38757f-08d8-44b7-a690-97d235ccd29e"},"vehicle_type_id":"4","last_reported":1735027954,"current_range_meters":33600,"station_id":"ce4bhg12rcd13ifvqf80","pricing_plan_id":"cebpf4jnsgd1na2vs0mg"},{"bike_id":"206510b2-7025-41c4-a3c0-a84163bc76f4","system_id":"levelo_inurba_marseille","lat":43.3053,"lon":5.38409,"is_reserved":false,"is_disabled":false,"rental_uris":{"android":"levelo://app?vid=206510b2-7025-41c4-a3c0-a84163bc76f4","ios":"levelo://app?vid=206510b2-7025-41c4-a3c0-a84163bc76f4"},"vehicle_type_id":"4","last_reported":1735027954,"current_range_meters":38800,"station_id":"ce4bgg92rcd13ifvqb30","pricing_plan_id":"cebpf4jnsgd1na2vs0mg"},{"bike_id":"41d0d9f5-bb31-41f6-8358-898df39bf21c","system_id":"levelo_inurba_marseille","lat":43.258695,"lon":5.399035,"is_reserved":false,"is_disabled":false,"rental_uris":{"android":"levelo://app?vid=41d0d9f5-bb31-41f6-8358-898df39bf21c","ios":"levelo://app?vid=41d0d9f5-bb31-41f6-8358-898df39bf21c"},"vehicle_type_id":"4","last_reported":1735027954,"current_range_meters":38000,"station_id":"ce4bhl92rcd13ifvqghg","pricing_plan_id":"cebpf4jnsgd1na2vs0mg"},{"bike_id":"7e211114-fd49-4399-8a81-09d040af8d46","system_id":"levelo_inurba_marseille","lat":43.247994,"lon":5.374546,"is_reserved":false,"is_disabled":false,"rental_uris":{"android":"levelo://app?vid=7e211114-fd49-4399-8a81-09d040af8d46","ios":"levelo://app?vid=7e211114-fd49-4399-8a81-09d040af8d46"},"vehicle_type_id":"4","last_reported":1735027954,"current_range_meters":39200,"station_id":"ce4bhgh2rcd13ifvqfb0","pricing_plan_id":"cebpf4jnsgd1na2vs0mg"},{"bike_id":"8fd4ed25-e7b3-49be-b1e0-521234d05b10","system_id":"levelo_inurba_marseille","lat":43.32483,"lon":5.36571,"is_reserved":false,"is_disabled":false,"rental_uris":{"android":"levelo://app?vid=8fd4ed25-e7b3-49be-b1e0-521234d05b10","ios":"levelo://app?vid=8fd4ed25-e7b3-49be-b1e0-521234d05b10"},"vehicle_type_id":"4","last_reported":1735027954,"current_range_meters":25200,"station_id":"ce4bhs12rcd13ifvqhvg","pricing_plan_id":"cebpf4jnsgd1na2vs0mg"},{"bike_id":"eaa93ee8-361b-4bd6-bc3c-a3486958f70d","system_id":"levelo_inurba_marseille","lat":43.29788,"lon":5.37095,"is_reserved":false,"is_disabled":false,"rental_uris":{"android":"levelo://app?vid=eaa93ee8-361b-4bd6-bc3c-a3486958f70d","ios":"levelo://app?vid=eaa93ee8-361b-4bd6-bc3c-a3486958f70d"},"vehicle_type_id":"4","last_reported":1735027954,"current_range_meters":38800,"station_id":"ce4bgop2rcd13ifvqc1g","pricing_plan_id":"cebpf4jnsgd1na2vs0mg"},{"bike_id":"57b804df-cc88-4ce0-8e43-6c06578a14db","system_id":"levelo_inurba_marseille","lat":43.30435,"lon":5.38895,"is_reserved":false,"is_disabled":false,"rental_uris":{"android":"levelo://app?vid=57b804df-cc88-4ce0-8e43-6c06578a14db","ios":"levelo://app?vid=57b804df-cc88-4ce0-8e43-6c06578a14db"},"vehicle_type_id":"4","last_reported":1735027954,"current_range_meters":38800,"station_id":"ce4bgk12rcd13ifvqbi0","pricing_plan_id":"cebpf4jnsgd1na2vs0mg"},{"bike_id":"e724f4e5-0922-4e36-91f4-8a4c9d514ff5","system_id":"levelo_inurba_marseille","lat":43.2985,"lon":5.36275,"is_reserved":false,"is_disabled":false,"rental_uris":{"android":"levelo://app?vid=e724f4e5-0922-4e36-91f4-8a4c9d514ff5","ios":"levelo://app?vid=e724f4e5-0922-4e36-91f4-8a4c9d514ff5"},"vehicle_type_id":"4","last_reported":1735027954,"current_range_meters":38000,"station_id":"ce4bgpp2rcd13ifvqc3g","pricing_plan_id":"cebpf4jnsgd1na2vs0mg"},{"bike_id":"b96880af-6b6d-40e1-ad0f-5c01870b0232","system_id":"levelo_inurba_marseille","lat":43.31446,"lon":5.4021,"is_reserved":false,"is_disabled":false,"rental_uris":{"android":"levelo://app?vid=b96880af-6b6d-40e1-ad0f-5c01870b0232","ios":"levelo://app?vid=b96880af-6b6d-40e1-ad0f-5c01870b0232"},"vehicle_type_id":"4","last_reported":1735027954,"current_range_meters":16000,"station_id":"","pricing_plan_id":"cebpf4jnsgd1na2vs0mg"},{"bike_id":"81503ac1-a3c4-4f04-a3f4-dcab4d599b35","system_id":"levelo_inurba_marseille","lat":43.30463,"lon":5.37893,"is_reserved":false,"is_disabled":false,"rental_uris":{"android":"levelo://app?vid=81503ac1-a3c4-4f04-a3f4-dcab4d599b35","ios":"levelo://app?vid=81503ac1-a3c4-4f04-a3f4-dcab4d599b35"},"vehicle_type_id":"4","last_reported":1735027954,"current_range_meters":39200,"station_id":"ce4bgup2rcd13ifvqcn0","pricing_plan_id":"cebpf4jnsgd1na2vs0mg"},{"bike_id":"d98f0b8a-1ef4-43b4-85a1-12b00b5f4de1","system_id":"levelo_inurba_marseille","lat":43.284176,"lon":5.349978,"is_reserved":false,"is_disabled":false,"rental_uris":{"android":"levelo://app?vid=d98f0b8a-1ef4-43b4-85a1-12b00b5f4de1","ios":"levelo://app?vid=d98f0b8a-1ef4-43b4-85a1-12b00b5f4de1"},"vehicle_type_id":"4","last_reported":1735027954,"current_range_meters":27200,"station_id":"ce4bhbh2rcd13ifvqepg","pricing_plan_id":"cebpf4jnsgd1na2vs0mg"},{"bike_id":"dd3dbacf-347a-4a33-90ce-76bd61257750","system_id":"levelo_inurba_marseille","lat":43.32061,"lon":5.41546,"is_reserved":false,"is_disabled":true,"rental_uris":{"android":"levelo://app?vid=dd3dbacf-347a-4a33-90ce-76bd61257750","ios":"levelo://app?vid=dd3dbacf-347a-4a33-90ce-76bd61257750"},"vehicle_type_id":"4","last_reported":1735027954,"current_range_meters":38800,"station_id":"ce4bhq92rcd13ifvqhkg","pricing_plan_id":"cebpf4jnsgd1na2vs0mg"},{"bike_id":"fa7b6f51-07ff-4e1f-ba75-2880fb9ee1b2","system_id":"levelo_inurba_marseille","lat":43.24164,"lon":5.36443,"is_reserved":false,"is_disabled":false,"rental_uris":{"android":"levelo://app?vid=fa7b6f51-07ff-4e1f-ba75-2880fb9ee1b2","ios":"levelo://app?vid=fa7b6f51-07ff-4e1f-ba75-2880fb9ee1b2"},"vehicle_type_id":"4","last_reported":1735027954,"current_range_meters":37600,"station_id":"cpo36qri1sfpv3e86is0","pricing_plan_id":"cebpf4jnsgd1na2vs0mg"},{"bike_id":"71bbaaf0-30fa-412b-9088-f880a672af88","system_id":"levelo_inurba_marseille","lat":43.26024,"lon":5.37555,"is_reserved":false,"is_disabled":false,"rental_uris":{"android":"levelo://app?vid=71bbaaf0-30fa-412b-9088-f880a672af88","ios":"levelo://app?vid=71bbaaf0-30fa-412b-9088-f880a672af88"},"vehicle_type_id":"4","last_reported":1735027954,"current_range_meters":28400,"station_id":"ce4bhgh2rcd13ifvqfa0","pricing_plan_id":"cebpf4jnsgd1na2vs0mg"},{"bike_id":"b2f86a97-af08-41b2-8296-7e91d5858232","system_id":"levelo_inurba_marseille","lat":43.29001,"lon":5.35585,"is_reserved":false,"is_disabled":false,"rental_uris":{"android":"levelo://app?vid=b2f86a97-af08-41b2-8296-7e91d5858232","ios":"levelo://app?vid=b2f86a97-af08-41b2-8296-7e91d5858232"},"vehicle_type_id":"4","last_reported":1735027954,"current_range_meters":38800,"station_id":"ce4bhb92rcd13ifvqen0","pricing_plan_id":"cebpf4jnsgd1na2vs0mg"},{"bike_id":"a77224ad-3924-4a82-96f0-bfffbd9386b2","system_id":"levelo_inurba_marseille","lat":43.30597,"lon":5.372135,"is_reserved":false,"is_disabled":false,"rental_uris":{"android":"levelo://app?vid=a77224ad-3924-4a82-96f0-bfffbd9386b2","ios":"levelo://app?vid=a77224ad-3924-4a82-96f0-bfffbd9386b2"},"vehicle_type_id":"4","last_reported":1735027954,"current_range_meters":38400,"station_id":"ce4bgqh2rcd13ifvqc4g","pricing_plan_id":"cebpf4jnsgd1na2vs0mg"},{"bike_id":"980185bd-062a-4071-8686-3ad854900388","system_id":"levelo_inurba_marseille","lat":43.231854,"lon":5.399925,"is_reserved":false,"is_disabled":false,"rental_uris":{"android":"levelo://app?vid=980185bd-062a-4071-8686-3ad854900388","ios":"levelo://app?vid=980185bd-062a-4071-8686-3ad854900388"},"vehicle_type_id":"4","last_reported":1735027954,"current_range_meters":35600,"station_id":"ce4bhn12rcd13ifvqgqg","pricing_plan_id":"cebpf4jnsgd1na2vs0mg"},{"bike_id":"66564dc6-57ac-4647-881f-dfefbac5d8f4","system_id":"levelo_inurba_marseille","lat":43.28732,"lon":5.36085,"is_reserved":false,"is_disabled":false,"rental_uris":{"android":"levelo://app?vid=66564dc6-57ac-4647-881f-dfefbac5d8f4","ios":"levelo://app?vid=66564dc6-57ac-4647-881f-dfefbac5d8f4"},"vehicle_type_id":"4","last_reported":1735027954,"current_range_meters":38800,"station_id":"cki0cbj6b192h4jlfktg","pricing_plan_id":"cebpf4jnsgd1na2vs0mg"},{"bike_id":"acdc711f-0743-46ed-bcd0-b221ef49b1e8","system_id":"levelo_inurba_marseille","lat":43.260331,"lon":5.375475,"is_reserved":false,"is_disabled":false,"rental_uris":{"android":"levelo://app?vid=acdc711f-0743-46ed-bcd0-b221ef49b1e8","ios":"levelo://app?vid=acdc711f-0743-46ed-bcd0-b221ef49b1e8"},"vehicle_type_id":"4","last_reported":1735027954,"current_range_meters":39200,"station_id":"ce4bhgh2rcd13ifvqfa0","pricing_plan_id":"cebpf4jnsgd1na2vs0mg"},{"bike_id":"7cf473d8-21ed-437d-8fd8-af7d1a257998","system_id":"levelo_inurba_marseille","lat":43.30128,"lon":5.39856,"is_reserved":false,"is_disabled":false,"rental_uris":{"android":"levelo://app?vid=7cf473d8-21ed-437d-8fd8-af7d1a257998","ios":"levelo://app?vid=7cf473d8-21ed-437d-8fd8-af7d1a257998"},"vehicle_type_id":"4","last_reported":1735027954,"current_range_meters":38800,"station_id":"ce4bh0h2rcd13ifvqd40","pricing_plan_id":"cebpf4jnsgd1na2vs0mg"},{"bike_id":"f68d00f0-3148-454c-ba66-1d06594aedb3","system_id":"levelo_inurba_marseille","lat":43.29902,"lon":5.38148,"is_reserved":false,"is_disabled":false,"rental_uris":{"android":"levelo://app?vid=f68d00f0-3148-454c-ba66-1d06594aedb3","ios":"levelo://app?vid=f68d00f0-3148-454c-ba66-1d06594aedb3"},"vehicle_type_id":"4","last_reported":1735027954,"current_range_meters":38800,"station_id":"ce4bgj12rcd13ifvqbc0","pricing_plan_id":"cebpf4jnsgd1na2vs0mg"},{"bike_id":"a87760bb-860a-41ff-af6f-797f55d9f68d","system_id":"levelo_inurba_marseille","lat":43.29793,"lon":5.3935,"is_reserved":false,"is_disabled":false,"rental_uris":{"android":"levelo://app?vid=a87760bb-860a-41ff-af6f-797f55d9f68d","ios":"levelo://app?vid=a87760bb-860a-41ff-af6f-797f55d9f68d"},"vehicle_type_id":"4","last_reported":1735027954,"current_range_meters":33200,"station_id":"chh1huq6cuj3fo74tm60","pricing_plan_id":"cebpf4jnsgd1na2vs0mg"},{"bike_id":"87ce7478-7bd4-452f-a986-b0c49c296f35","system_id":"levelo_inurba_marseille","lat":43.24645,"lon":5.38896,"is_reserved":false,"is_disabled":false,"rental_uris":{"android":"levelo://app?vid=87ce7478-7bd4-452f-a986-b0c49c296f35","ios":"levelo://app?vid=87ce7478-7bd4-452f-a986-b0c49c296f35"},"vehicle_type_id":"4","last_reported":1735027954,"current_range_meters":29600,"station_id":"ce4bhg12rcd13ifvqf60","pricing_plan_id":"cebpf4jnsgd1na2vs0mg"},{"bike_id":"67b4c125-d76f-41c8-932e-e61a7d3fb9f0","system_id":"levelo_inurba_marseille","lat":43.304294,"lon":5.388941,"is_reserved":false,"is_disabled":false,"rental_uris":{"android":"levelo://app?vid=67b4c125-d76f-41c8-932e-e61a7d3fb9f0","ios":"levelo://app?vid=67b4c125-d76f-41c8-932e-e61a7d3fb9f0"},"vehicle_type_id":"4","last_reported":1735027954,"current_range_meters":24000,"station_id":"ce4bgk12rcd13ifvqbi0","pricing_plan_id":"cebpf4jnsgd1na2vs0mg"},{"bike_id":"1bff88cc-7e80-4f66-93cd-eccfe100465b","system_id":"levelo_inurba_marseille","lat":43.30503,"lon":5.36509,"is_reserved":false,"is_disabled":false,"rental_uris":{"android":"levelo://app?vid=1bff88cc-7e80-4f66-93cd-eccfe100465b","ios":"levelo://app?vid=1bff88cc-7e80-4f66-93cd-eccfe100465b"},"vehicle_type_id":"4","last_reported":1735027954,"current_range_meters":33200,"station_id":"ce4bgs12rcd13ifvqcag","pricing_plan_id":"cebpf4jnsgd1na2vs0mg"},{"bike_id":"fa27ee24-baf1-4edf-912c-c35c66d5d9f9","system_id":"levelo_inurba_marseille","lat":43.30525,"lon":5.36525,"is_reserved":false,"is_disabled":false,"rental_uris":{"android":"levelo://app?vid=fa27ee24-baf1-4edf-912c-c35c66d5d9f9","ios":"levelo://app?vid=fa27ee24-baf1-4edf-912c-c35c66d5d9f9"},"vehicle_type_id":"4","last_reported":1735027954,"current_range_meters":38800,"station_id":"ce4bgs12rcd13ifvqcag","pricing_plan_id":"cebpf4jnsgd1na2vs0mg"},{"bike_id":"eb493c73-faad-4c01-b4aa-27ac99a1af59","system_id":"levelo_inurba_marseille","lat":43.29632,"lon":5.37158,"is_reserved":false,"is_disabled":false,"rental_uris":{"android":"levelo://app?vid=eb493c73-faad-4c01-b4aa-27ac99a1af59","ios":"levelo://app?vid=eb493c73-faad-4c01-b4aa-27ac99a1af59"},"vehicle_type_id":"4","last_reported":1735027954,"current_range_meters":38000,"station_id":"ce4bgnh2rcd13ifvqc0g","pricing_plan_id":"cebpf4jnsgd1na2vs0mg"},{"bike_id":"cdfd034a-3e02-40a2-9d10-a134561ec453","system_id":"levelo_inurba_marseille","lat":43.296223,"lon":5.371749,"is_reserved":false,"is_disabled":false,"rental_uris":{"android":"levelo://app?vid=cdfd034a-3e02-40a2-9d10-a134561ec453","ios":"levelo://app?vid=cdfd034a-3e02-40a2-9d10-a134561ec453"},"vehicle_type_id":"4","last_reported":1735027954,"current_range_meters":24000,"station_id":"ce4bgnh2rcd13ifvqc0g","pricing_plan_id":"cebpf4jnsgd1na2vs0mg"},{"bike_id":"f46c8341-822a-4b76-87f4-963605aeb277","system_id":"levelo_inurba_marseille","lat":43.29929,"lon":5.36526,"is_reserved":false,"is_disabled":true,"rental_uris":{"android":"levelo://app?vid=f46c8341-822a-4b76-87f4-963605aeb277","ios":"levelo://app?vid=f46c8341-822a-4b76-87f4-963605aeb277"},"vehicle_type_id":"4","last_reported":1735027954,"current_range_meters":37600,"station_id":"ce4bgm92rcd13ifvqbr0","pricing_plan_id":"cebpf4jnsgd1na2vs0mg"},{"bike_id":"875b2f8e-fb5f-468a-8ac6-218f77a44f01","system_id":"levelo_inurba_marseille","lat":43.31887,"lon":5.40733,"is_reserved":false,"is_disabled":false,"rental_uris":{"android":"levelo://app?vid=875b2f8e-fb5f-468a-8ac6-218f77a44f01","ios":"levelo://app?vid=875b2f8e-fb5f-468a-8ac6-218f77a44f01"},"vehicle_type_id":"4","last_reported":1735027954,"current_range_meters":38000,"station_id":"ce4bhq12rcd13ifvqhig","pricing_plan_id":"cebpf4jnsgd1na2vs0mg"},{"bike_id":"2633e9ba-ac8f-41eb-8615-a08e37b3083a","system_id":"levelo_inurba_marseille","lat":43.271915,"lon":5.409906,"is_reserved":false,"is_disabled":false,"rental_uris":{"android":"levelo://app?vid=2633e9ba-ac8f-41eb-8615-a08e37b3083a","ios":"levelo://app?vid=2633e9ba-ac8f-41eb-8615-a08e37b3083a"},"vehicle_type_id":"4","last_reported":1735027954,"current_range_meters":28800,"station_id":"ce4bhl12rcd13ifvqgf0","pricing_plan_id":"cebpf4jnsgd1na2vs0mg"},{"bike_id":"3c4e0256-f269-4ddf-b844-1164990fa822","system_id":"levelo_inurba_marseille","lat":43.2582,"lon":5.39406,"is_reserved":false,"is_disabled":false,"rental_uris":{"android":"levelo://app?vid=3c4e0256-f269-4ddf-b844-1164990fa822","ios":"levelo://app?vid=3c4e0256-f269-4ddf-b844-1164990fa822"},"vehicle_type_id":"4","last_reported":1735027954,"current_range_meters":38800,"station_id":"ce4bhip2rcd13ifvqft0","pricing_plan_id":"cebpf4jnsgd1na2vs0mg"},{"bike_id":"af1cd6cf-2562-434f-aa74-4bd775d99ddb","system_id":"levelo_inurba_marseille","lat":43.31065,"lon":5.38347,"is_reserved":false,"is_disabled":false,"rental_uris":{"android":"levelo://app?vid=af1cd6cf-2562-434f-aa74-4bd775d99ddb","ios":"levelo://app?vid=af1cd6cf-2562-434f-aa74-4bd775d99ddb"},"vehicle_type_id":"4","last_reported":1735027954,"current_range_meters":33200,"station_id":"ce4bgv92rcd13ifvqcr0","pricing_plan_id":"cebpf4jnsgd1na2vs0mg"},{"bike_id":"e73e6057-e6e9-407b-a17e-f4e119a96aba","system_id":"levelo_inurba_marseille","lat":43.3211,"lon":5.36773,"is_reserved":false,"is_disabled":false,"rental_uris":{"android":"levelo://app?vid=e73e6057-e6e9-407b-a17e-f4e119a96aba","ios":"levelo://app?vid=e73e6057-e6e9-407b-a17e-f4e119a96aba"},"vehicle_type_id":"4","last_reported":1735027954,"current_range_meters":37600,"station_id":"ce4bhrh2rcd13ifvqhug","pricing_plan_id":"cebpf4jnsgd1na2vs0mg"},{"bike_id":"8c23ca40-0769-4ca8-b1f0-68e8fb86c54b","system_id":"levelo_inurba_marseille","lat":43.25001,"lon":5.38926,"is_reserved":false,"is_disabled":false,"rental_uris":{"android":"levelo://app?vid=8c23ca40-0769-4ca8-b1f0-68e8fb86c54b","ios":"levelo://app?vid=8c23ca40-0769-4ca8-b1f0-68e8fb86c54b"},"vehicle_type_id":"4","last_reported":1735027954,"current_range_meters":36400,"station_id":"ce4bhgp2rcd13ifvqfd0","pricing_plan_id":"cebpf4jnsgd1na2vs0mg"},{"bike_id":"ff19ce84-10b6-4ffc-b9fc-1625914b166c","system_id":"levelo_inurba_marseille","lat":43.29706,"lon":5.36611,"is_reserved":false,"is_disabled":false,"rental_uris":{"android":"levelo://app?vid=ff19ce84-10b6-4ffc-b9fc-1625914b166c","ios":"levelo://app?vid=ff19ce84-10b6-4ffc-b9fc-1625914b166c"},"vehicle_type_id":"4","last_reported":1735027954,"current_range_meters":25600,"station_id":"ce4bgn12rcd13ifvqbt0","pricing_plan_id":"cebpf4jnsgd1na2vs0mg"},{"bike_id":"8e3312ea-d43b-4e57-9ce7-0eaa54c27222","system_id":"levelo_inurba_marseille","lat":43.3047,"lon":5.37908,"is_reserved":false,"is_disabled":false,"rental_uris":{"android":"levelo://app?vid=8e3312ea-d43b-4e57-9ce7-0eaa54c27222","ios":"levelo://app?vid=8e3312ea-d43b-4e57-9ce7-0eaa54c27222"},"vehicle_type_id":"4","last_reported":1735027954,"current_range_meters":9600,"station_id":"ce4bgup2rcd13ifvqcn0","pricing_plan_id":"cebpf4jnsgd1na2vs0mg"},{"bike_id":"9b6c26bf-24e1-432d-ac01-5d22d9d9f1b3","system_id":"levelo_inurba_marseille","lat":43.29979,"lon":5.37176,"is_reserved":false,"is_disabled":false,"rental_uris":{"android":"levelo://app?vid=9b6c26bf-24e1-432d-ac01-5d22d9d9f1b3","ios":"levelo://app?vid=9b6c26bf-24e1-432d-ac01-5d22d9d9f1b3"},"vehicle_type_id":"4","last_reported":1735027954,"current_range_meters":8800,"station_id":"ce4bgr92rcd13ifvqc7g","pricing_plan_id":"cebpf4jnsgd1na2vs0mg"},{"bike_id":"4bcb37c0-9249-499d-890c-0bbf93d29f8b","system_id":"levelo_inurba_marseille","lat":43.2319,"lon":5.35553,"is_reserved":false,"is_disabled":true,"rental_uris":{"android":"levelo://app?vid=4bcb37c0-9249-499d-890c-0bbf93d29f8b","ios":"levelo://app?vid=4bcb37c0-9249-499d-890c-0bbf93d29f8b"},"vehicle_type_id":"4","last_reported":1735027954,"current_range_meters":17200,"station_id":"ce4bhu92rcd13ifvqi70","pricing_plan_id":"cebpf4jnsgd1na2vs0mg"},{"bike_id":"94b596ff-97d4-43d8-82b1-3b1dc3efa14d","system_id":"levelo_inurba_marseille","lat":43.29566,"lon":5.37518,"is_reserved":false,"is_disabled":false,"rental_uris":{"android":"levelo://app?vid=94b596ff-97d4-43d8-82b1-3b1dc3efa14d","ios":"levelo://app?vid=94b596ff-97d4-43d8-82b1-3b1dc3efa14d"},"vehicle_type_id":"4","last_reported":1735027954,"current_range_meters":12000,"station_id":"ce4bgh92rcd13ifvqb50","pricing_plan_id":"cebpf4jnsgd1na2vs0mg"},{"bike_id":"398596d5-e50e-4d3b-b1cc-2768ddd830b0","system_id":"levelo_inurba_marseille","lat":43.30463,"lon":5.37898,"is_reserved":false,"is_disabled":false,"rental_uris":{"android":"levelo://app?vid=398596d5-e50e-4d3b-b1cc-2768ddd830b0","ios":"levelo://app?vid=398596d5-e50e-4d3b-b1cc-2768ddd830b0"},"vehicle_type_id":"4","last_reported":1735027954,"current_range_meters":25200,"station_id":"ce4bgup2rcd13ifvqcn0","pricing_plan_id":"cebpf4jnsgd1na2vs0mg"},{"bike_id":"4d70a3bf-a8e9-4395-92a9-3e1f7045a4b1","system_id":"levelo_inurba_marseille","lat":43.32034,"lon":5.41576,"is_reserved":false,"is_disabled":false,"rental_uris":{"android":"levelo://app?vid=4d70a3bf-a8e9-4395-92a9-3e1f7045a4b1","ios":"levelo://app?vid=4d70a3bf-a8e9-4395-92a9-3e1f7045a4b1"},"vehicle_type_id":"4","last_reported":1735027954,"current_range_meters":36000,"station_id":"ce4bhq92rcd13ifvqhkg","pricing_plan_id":"cebpf4jnsgd1na2vs0mg"},{"bike_id":"11eb5fb6-7917-45e5-9bf4-86173bd74b69","system_id":"levelo_inurba_marseille","lat":43.31353,"lon":5.38502,"is_reserved":false,"is_disabled":false,"rental_uris":{"android":"levelo://app?vid=11eb5fb6-7917-45e5-9bf4-86173bd74b69","ios":"levelo://app?vid=11eb5fb6-7917-45e5-9bf4-86173bd74b69"},"vehicle_type_id":"4","last_reported":1735027954,"current_range_meters":23200,"station_id":"ce4bgt92rcd13ifvqcf0","pricing_plan_id":"cebpf4jnsgd1na2vs0mg"},{"bike_id":"4c569ee4-45a5-4a73-a8ca-a9310a002da4","system_id":"levelo_inurba_marseille","lat":43.28364,"lon":5.38626,"is_reserved":false,"is_disabled":false,"rental_uris":{"android":"levelo://app?vid=4c569ee4-45a5-4a73-a8ca-a9310a002da4","ios":"levelo://app?vid=4c569ee4-45a5-4a73-a8ca-a9310a002da4"},"vehicle_type_id":"4","last_reported":1735027954,"current_range_meters":39200,"station_id":"ce4bh492rcd13ifvqdvg","pricing_plan_id":"cebpf4jnsgd1na2vs0mg"},{"bike_id":"fcb43cd2-aa2d-4084-9416-a240ac4d95bf","system_id":"levelo_inurba_marseille","lat":43.292819,"lon":5.401238,"is_reserved":false,"is_disabled":false,"rental_uris":{"android":"levelo://app?vid=fcb43cd2-aa2d-4084-9416-a240ac4d95bf","ios":"levelo://app?vid=fcb43cd2-aa2d-4084-9416-a240ac4d95bf"},"vehicle_type_id":"4","last_reported":1735027954,"current_range_meters":38800,"station_id":"ce4bh312rcd13ifvqdk0","pricing_plan_id":"cebpf4jnsgd1na2vs0mg"},{"bike_id":"3e0dffd7-74ff-4814-97ea-253d3881d122","system_id":"levelo_inurba_marseille","lat":43.29607,"lon":5.37707,"is_reserved":false,"is_disabled":false,"rental_uris":{"android":"levelo://app?vid=3e0dffd7-74ff-4814-97ea-253d3881d122","ios":"levelo://app?vid=3e0dffd7-74ff-4814-97ea-253d3881d122"},"vehicle_type_id":"4","last_reported":1735027954,"current_range_meters":36400,"station_id":"ce4bgi92rcd13ifvqb90","pricing_plan_id":"cebpf4jnsgd1na2vs0mg"},{"bike_id":"343bc065-3555-49ac-90b9-9f9335d87211","system_id":"levelo_inurba_marseille","lat":43.25823,"lon":5.39439,"is_reserved":false,"is_disabled":false,"rental_uris":{"android":"levelo://app?vid=343bc065-3555-49ac-90b9-9f9335d87211","ios":"levelo://app?vid=343bc065-3555-49ac-90b9-9f9335d87211"},"vehicle_type_id":"4","last_reported":1735027954,"current_range_meters":38800,"station_id":"ce4bhip2rcd13ifvqft0","pricing_plan_id":"cebpf4jnsgd1na2vs0mg"},{"bike_id":"64c87dc3-dd94-45ca-adb1-efb6545cec91","system_id":"levelo_inurba_marseille","lat":43.29197,"lon":5.39317,"is_reserved":false,"is_disabled":false,"rental_uris":{"android":"levelo://app?vid=64c87dc3-dd94-45ca-adb1-efb6545cec91","ios":"levelo://app?vid=64c87dc3-dd94-45ca-adb1-efb6545cec91"},"vehicle_type_id":"4","last_reported":1735027954,"current_range_meters":38800,"station_id":"ce4bh192rcd13ifvqdd0","pricing_plan_id":"cebpf4jnsgd1na2vs0mg"},{"bike_id":"ddbfce67-cbf8-4481-9917-3eaa981e7b2e","system_id":"levelo_inurba_marseille","lat":43.22936,"lon":5.35381,"is_reserved":false,"is_disabled":false,"rental_uris":{"android":"levelo://app?vid=ddbfce67-cbf8-4481-9917-3eaa981e7b2e","ios":"levelo://app?vid=ddbfce67-cbf8-4481-9917-3eaa981e7b2e"},"vehicle_type_id":"4","last_reported":1735027954,"current_range_meters":25200,"station_id":"cpo3532slgdg3j2ikp40","pricing_plan_id":"cebpf4jnsgd1na2vs0mg"},{"bike_id":"d40f1e6c-dd7d-4a6b-9613-7314f471a7fe","system_id":"levelo_inurba_marseille","lat":43.3015,"lon":5.38091,"is_reserved":false,"is_disabled":false,"rental_uris":{"android":"levelo://app?vid=d40f1e6c-dd7d-4a6b-9613-7314f471a7fe","ios":"levelo://app?vid=d40f1e6c-dd7d-4a6b-9613-7314f471a7fe"},"vehicle_type_id":"4","last_reported":1735027954,"current_range_meters":30000,"station_id":"ce4bgjp2rcd13ifvqbh0","pricing_plan_id":"cebpf4jnsgd1na2vs0mg"},{"bike_id":"dad6db58-f5bc-4da2-b0b4-3d5d1002166b","system_id":"levelo_inurba_marseille","lat":43.32109,"lon":5.36775,"is_reserved":false,"is_disabled":false,"rental_uris":{"android":"levelo://app?vid=dad6db58-f5bc-4da2-b0b4-3d5d1002166b","ios":"levelo://app?vid=dad6db58-f5bc-4da2-b0b4-3d5d1002166b"},"vehicle_type_id":"4","last_reported":1735027954,"current_range_meters":32400,"station_id":"ce4bhrh2rcd13ifvqhug","pricing_plan_id":"cebpf4jnsgd1na2vs0mg"},{"bike_id":"d215e6a3-2dbb-4240-82c4-dbdd5ce5595f","system_id":"levelo_inurba_marseille","lat":43.29905,"lon":5.38148,"is_reserved":false,"is_disabled":false,"rental_uris":{"android":"levelo://app?vid=d215e6a3-2dbb-4240-82c4-dbdd5ce5595f","ios":"levelo://app?vid=d215e6a3-2dbb-4240-82c4-dbdd5ce5595f"},"vehicle_type_id":"4","last_reported":1735027954,"current_range_meters":38800,"station_id":"ce4bgj12rcd13ifvqbc0","pricing_plan_id":"cebpf4jnsgd1na2vs0mg"},{"bike_id":"c4f35833-9684-4238-8726-93803ae23fbf","system_id":"levelo_inurba_marseille","lat":43.31716,"lon":5.37753,"is_reserved":false,"is_disabled":false,"rental_uris":{"android":"levelo://app?vid=c4f35833-9684-4238-8726-93803ae23fbf","ios":"levelo://app?vid=c4f35833-9684-4238-8726-93803ae23fbf"},"vehicle_type_id":"4","last_reported":1735027954,"current_range_meters":33200,"station_id":"ce4bgth2rcd13ifvqch0","pricing_plan_id":"cebpf4jnsgd1na2vs0mg"},{"bike_id":"5314bcb2-cabd-451d-bc91-3e310b816f83","system_id":"levelo_inurba_marseille","lat":43.29918,"lon":5.37459,"is_reserved":false,"is_disabled":false,"rental_uris":{"android":"levelo://app?vid=5314bcb2-cabd-451d-bc91-3e310b816f83","ios":"levelo://app?vid=5314bcb2-cabd-451d-bc91-3e310b816f83"},"vehicle_type_id":"4","last_reported":1735027954,"current_range_meters":23200,"station_id":"ce4bgjh2rcd13ifvqbg0","pricing_plan_id":"cebpf4jnsgd1na2vs0mg"},{"bike_id":"eca594cc-7507-4ca1-bb28-4c48aaa1a04a","system_id":"levelo_inurba_marseille","lat":43.31713,"lon":5.43707,"is_reserved":false,"is_disabled":false,"rental_uris":{"android":"levelo://app?vid=eca594cc-7507-4ca1-bb28-4c48aaa1a04a","ios":"levelo://app?vid=eca594cc-7507-4ca1-bb28-4c48aaa1a04a"},"vehicle_type_id":"4","last_reported":1735027954,"current_range_meters":39200,"station_id":"ce4bhp92rcd13ifvqhcg","pricing_plan_id":"cebpf4jnsgd1na2vs0mg"},{"bike_id":"a2b682e2-83ef-4b16-9d16-65839c162e95","system_id":"levelo_inurba_marseille","lat":43.30603,"lon":5.37221,"is_reserved":false,"is_disabled":false,"rental_uris":{"android":"levelo://app?vid=a2b682e2-83ef-4b16-9d16-65839c162e95","ios":"levelo://app?vid=a2b682e2-83ef-4b16-9d16-65839c162e95"},"vehicle_type_id":"4","last_reported":1735027954,"current_range_meters":37600,"station_id":"ce4bgqh2rcd13ifvqc4g","pricing_plan_id":"cebpf4jnsgd1na2vs0mg"},{"bike_id":"cf12c232-c3a3-4785-8fed-9cea9aa4f082","system_id":"levelo_inurba_marseille","lat":43.27689,"lon":5.389,"is_reserved":false,"is_disabled":false,"rental_uris":{"android":"levelo://app?vid=cf12c232-c3a3-4785-8fed-9cea9aa4f082","ios":"levelo://app?vid=cf12c232-c3a3-4785-8fed-9cea9aa4f082"},"vehicle_type_id":"4","last_reported":1735027954,"current_range_meters":12800,"station_id":"ce4bhi12rcd13ifvqfo0","pricing_plan_id":"cebpf4jnsgd1na2vs0mg"},{"bike_id":"7d51f556-7ada-4233-9b93-03f8f492aa76","system_id":"levelo_inurba_marseille","lat":43.245434,"lon":5.395218,"is_reserved":false,"is_disabled":true,"rental_uris":{"android":"levelo://app?vid=7d51f556-7ada-4233-9b93-03f8f492aa76","ios":"levelo://app?vid=7d51f556-7ada-4233-9b93-03f8f492aa76"},"vehicle_type_id":"4","last_reported":1735027954,"current_range_meters":8400,"station_id":"ce4bhlp2rcd13ifvqgjg","pricing_plan_id":"cebpf4jnsgd1na2vs0mg"},{"bike_id":"1866340a-45b4-4bd2-ac73-392a4ecb2e72","system_id":"levelo_inurba_marseille","lat":43.29845,"lon":5.36275,"is_reserved":false,"is_disabled":false,"rental_uris":{"android":"levelo://app?vid=1866340a-45b4-4bd2-ac73-392a4ecb2e72","ios":"levelo://app?vid=1866340a-45b4-4bd2-ac73-392a4ecb2e72"},"vehicle_type_id":"4","last_reported":1735027954,"current_range_meters":38800,"station_id":"ce4bgpp2rcd13ifvqc3g","pricing_plan_id":"cebpf4jnsgd1na2vs0mg"},{"bike_id":"50ed8d09-e307-4804-8048-b331687ea0e6","system_id":"levelo_inurba_marseille","lat":43.24671,"lon":5.38157,"is_reserved":false,"is_disabled":false,"rental_uris":{"android":"levelo://app?vid=50ed8d09-e307-4804-8048-b331687ea0e6","ios":"levelo://app?vid=50ed8d09-e307-4804-8048-b331687ea0e6"},"vehicle_type_id":"4","last_reported":1735027954,"current_range_meters":38400,"station_id":"ce4bhih2rcd13ifvqfr0","pricing_plan_id":"cebpf4jnsgd1na2vs0mg"},{"bike_id":"2f43ed30-86f5-4f8b-ac4a-a89fdc3d682d","system_id":"levelo_inurba_marseille","lat":43.31114,"lon":5.37767,"is_reserved":false,"is_disabled":false,"rental_uris":{"android":"levelo://app?vid=2f43ed30-86f5-4f8b-ac4a-a89fdc3d682d","ios":"levelo://app?vid=2f43ed30-86f5-4f8b-ac4a-a89fdc3d682d"},"vehicle_type_id":"4","last_reported":1735027954,"current_range_meters":38400,"station_id":"ce4bgt92rcd13ifvqcg0","pricing_plan_id":"cebpf4jnsgd1na2vs0mg"},{"bike_id":"213bc904-ac7f-4cc9-bb02-fc34c779e745","system_id":"levelo_inurba_marseille","lat":43.2795,"lon":5.4105,"is_reserved":false,"is_disabled":false,"rental_uris":{"android":"levelo://app?vid=213bc904-ac7f-4cc9-bb02-fc34c779e745","ios":"levelo://app?vid=213bc904-ac7f-4cc9-bb02-fc34c779e745"},"vehicle_type_id":"4","last_reported":1735027954,"current_range_meters":30400,"station_id":"ce4bhnp2rcd13ifvqh0g","pricing_plan_id":"cebpf4jnsgd1na2vs0mg"},{"bike_id":"c2b13e1f-27c5-4ff9-b780-21ce47c387ee","system_id":"levelo_inurba_marseille","lat":43.23183,"lon":5.39982,"is_reserved":false,"is_disabled":false,"rental_uris":{"android":"levelo://app?vid=c2b13e1f-27c5-4ff9-b780-21ce47c387ee","ios":"levelo://app?vid=c2b13e1f-27c5-4ff9-b780-21ce47c387ee"},"vehicle_type_id":"4","last_reported":1735027954,"current_range_meters":38800,"station_id":"ce4bhn12rcd13ifvqgqg","pricing_plan_id":"cebpf4jnsgd1na2vs0mg"},{"bike_id":"652f906c-5e25-4f51-a03b-6af6fb0d93fa","system_id":"levelo_inurba_marseille","lat":43.29579,"lon":5.36739,"is_reserved":false,"is_disabled":false,"rental_uris":{"android":"levelo://app?vid=652f906c-5e25-4f51-a03b-6af6fb0d93fa","ios":"levelo://app?vid=652f906c-5e25-4f51-a03b-6af6fb0d93fa"},"vehicle_type_id":"4","last_reported":1735027954,"current_range_meters":38800,"station_id":"ce4bgph2rcd13ifvqc2g","pricing_plan_id":"cebpf4jnsgd1na2vs0mg"},{"bike_id":"4ac7aebd-1d24-4b30-8594-815221961184","system_id":"levelo_inurba_marseille","lat":43.29743,"lon":5.37684,"is_reserved":false,"is_disabled":false,"rental_uris":{"android":"levelo://app?vid=4ac7aebd-1d24-4b30-8594-815221961184","ios":"levelo://app?vid=4ac7aebd-1d24-4b30-8594-815221961184"},"vehicle_type_id":"4","last_reported":1735027954,"current_range_meters":23200,"station_id":"ce4bgkh2rcd13ifvqbl0","pricing_plan_id":"cebpf4jnsgd1na2vs0mg"},{"bike_id":"13c39096-92de-47dd-a9ee-5b5cda0c5bbc","system_id":"levelo_inurba_marseille","lat":43.24636,"lon":5.3884,"is_reserved":false,"is_disabled":false,"rental_uris":{"android":"levelo://app?vid=13c39096-92de-47dd-a9ee-5b5cda0c5bbc","ios":"levelo://app?vid=13c39096-92de-47dd-a9ee-5b5cda0c5bbc"},"vehicle_type_id":"4","last_reported":1735027954,"current_range_meters":32000,"station_id":"ce4bhg12rcd13ifvqf60","pricing_plan_id":"cebpf4jnsgd1na2vs0mg"},{"bike_id":"c787057b-d2c3-47cb-afbf-5583f193229c","system_id":"levelo_inurba_marseille","lat":43.246517,"lon":5.389008,"is_reserved":false,"is_disabled":false,"rental_uris":{"android":"levelo://app?vid=c787057b-d2c3-47cb-afbf-5583f193229c","ios":"levelo://app?vid=c787057b-d2c3-47cb-afbf-5583f193229c"},"vehicle_type_id":"4","last_reported":1735027954,"current_range_meters":38400,"station_id":"ce4bhg12rcd13ifvqf60","pricing_plan_id":"cebpf4jnsgd1na2vs0mg"},{"bike_id":"d1408c54-5d72-4a56-aaa4-4833cdef7353","system_id":"levelo_inurba_marseille","lat":43.29198,"lon":5.35792,"is_reserved":false,"is_disabled":false,"rental_uris":{"android":"levelo://app?vid=d1408c54-5d72-4a56-aaa4-4833cdef7353","ios":"levelo://app?vid=d1408c54-5d72-4a56-aaa4-4833cdef7353"},"vehicle_type_id":"4","last_reported":1735027954,"current_range_meters":33600,"station_id":"ce4bhb12rcd13ifvqel0","pricing_plan_id":"cebpf4jnsgd1na2vs0mg"},{"bike_id":"5329f495-98d5-4ee4-b53e-b98bd156a829","system_id":"levelo_inurba_marseille","lat":43.30124,"lon":5.39845,"is_reserved":false,"is_disabled":false,"rental_uris":{"android":"levelo://app?vid=5329f495-98d5-4ee4-b53e-b98bd156a829","ios":"levelo://app?vid=5329f495-98d5-4ee4-b53e-b98bd156a829"},"vehicle_type_id":"4","last_reported":1735027954,"current_range_meters":36400,"station_id":"ce4bh0h2rcd13ifvqd40","pricing_plan_id":"cebpf4jnsgd1na2vs0mg"},{"bike_id":"eb416572-2019-4f11-9a74-eae48a595a96","system_id":"levelo_inurba_marseille","lat":43.33763,"lon":5.37416,"is_reserved":false,"is_disabled":false,"rental_uris":{"android":"levelo://app?vid=eb416572-2019-4f11-9a74-eae48a595a96","ios":"levelo://app?vid=eb416572-2019-4f11-9a74-eae48a595a96"},"vehicle_type_id":"4","last_reported":1735027954,"current_range_meters":38800,"station_id":"","pricing_plan_id":"cebpf4jnsgd1na2vs0mg"},{"bike_id":"9c7eeb5b-f97e-4fc2-ab19-aaf7531bd9e2","system_id":"levelo_inurba_marseille","lat":43.30171,"lon":5.38083,"is_reserved":false,"is_disabled":false,"rental_uris":{"android":"levelo://app?vid=9c7eeb5b-f97e-4fc2-ab19-aaf7531bd9e2","ios":"levelo://app?vid=9c7eeb5b-f97e-4fc2-ab19-aaf7531bd9e2"},"vehicle_type_id":"4","last_reported":1735027954,"current_range_meters":27200,"station_id":"ce4bgjp2rcd13ifvqbh0","pricing_plan_id":"cebpf4jnsgd1na2vs0mg"},{"bike_id":"b7d3cdb3-4a74-4f21-b9ae-f381e76027e7","system_id":"levelo_inurba_marseille","lat":43.30124,"lon":5.38767,"is_reserved":false,"is_disabled":false,"rental_uris":{"android":"levelo://app?vid=b7d3cdb3-4a74-4f21-b9ae-f381e76027e7","ios":"levelo://app?vid=b7d3cdb3-4a74-4f21-b9ae-f381e76027e7"},"vehicle_type_id":"4","last_reported":1735027954,"current_range_meters":38800,"station_id":"ce4bghh2rcd13ifvqb60","pricing_plan_id":"cebpf4jnsgd1na2vs0mg"},{"bike_id":"b1d51ecc-32a3-43e5-abe1-febc589a9bb3","system_id":"levelo_inurba_marseille","lat":43.29875,"lon":5.3891,"is_reserved":false,"is_disabled":false,"rental_uris":{"android":"levelo://app?vid=b1d51ecc-32a3-43e5-abe1-febc589a9bb3","ios":"levelo://app?vid=b1d51ecc-32a3-43e5-abe1-febc589a9bb3"},"vehicle_type_id":"4","last_reported":1735027954,"current_range_meters":37600,"station_id":"ce4bh392rcd13ifvqdl0","pricing_plan_id":"cebpf4jnsgd1na2vs0mg"},{"bike_id":"2a6c7ac7-4bf1-4a8e-82c2-9458f66f73dc","system_id":"levelo_inurba_marseille","lat":43.28434,"lon":5.39176,"is_reserved":false,"is_disabled":false,"rental_uris":{"android":"levelo://app?vid=2a6c7ac7-4bf1-4a8e-82c2-9458f66f73dc","ios":"levelo://app?vid=2a6c7ac7-4bf1-4a8e-82c2-9458f66f73dc"},"vehicle_type_id":"4","last_reported":1735027954,"current_range_meters":38800,"station_id":"ce4bhoh2rcd13ifvqh5g","pricing_plan_id":"cebpf4jnsgd1na2vs0mg"},{"bike_id":"8066f755-db4c-4d64-90dc-1bd394e94fa2","system_id":"levelo_inurba_marseille","lat":43.33044,"lon":5.38995,"is_reserved":false,"is_disabled":false,"rental_uris":{"android":"levelo://app?vid=8066f755-db4c-4d64-90dc-1bd394e94fa2","ios":"levelo://app?vid=8066f755-db4c-4d64-90dc-1bd394e94fa2"},"vehicle_type_id":"4","last_reported":1735027954,"current_range_meters":39200,"station_id":"ce4bhr92rcd13ifvqhrg","pricing_plan_id":"cebpf4jnsgd1na2vs0mg"},{"bike_id":"4e6d0ca2-6374-490a-b48e-6cba90785a4f","system_id":"levelo_inurba_marseille","lat":43.246478,"lon":5.388937,"is_reserved":false,"is_disabled":false,"rental_uris":{"android":"levelo://app?vid=4e6d0ca2-6374-490a-b48e-6cba90785a4f","ios":"levelo://app?vid=4e6d0ca2-6374-490a-b48e-6cba90785a4f"},"vehicle_type_id":"4","last_reported":1735027954,"current_range_meters":23200,"station_id":"ce4bhg12rcd13ifvqf60","pricing_plan_id":"cebpf4jnsgd1na2vs0mg"},{"bike_id":"7530b7fa-2470-4a96-8350-8ef88aa02d45","system_id":"levelo_inurba_marseille","lat":43.28615,"lon":5.35103,"is_reserved":false,"is_disabled":false,"rental_uris":{"android":"levelo://app?vid=7530b7fa-2470-4a96-8350-8ef88aa02d45","ios":"levelo://app?vid=7530b7fa-2470-4a96-8350-8ef88aa02d45"},"vehicle_type_id":"4","last_reported":1735027954,"current_range_meters":30000,"station_id":"ce4bhch2rcd13ifvqeug","pricing_plan_id":"cebpf4jnsgd1na2vs0mg"},{"bike_id":"f956d62c-1dc2-41dd-b80f-de98aa147ea9","system_id":"levelo_inurba_marseille","lat":43.27809,"lon":5.40706,"is_reserved":false,"is_disabled":false,"rental_uris":{"android":"levelo://app?vid=f956d62c-1dc2-41dd-b80f-de98aa147ea9","ios":"levelo://app?vid=f956d62c-1dc2-41dd-b80f-de98aa147ea9"},"vehicle_type_id":"4","last_reported":1735027954,"current_range_meters":27600,"station_id":"ce4bhnh2rcd13ifvqgtg","pricing_plan_id":"cebpf4jnsgd1na2vs0mg"},{"bike_id":"fef5aa23-4654-44d2-a5dd-fa0b45c9b21b","system_id":"levelo_inurba_marseille","lat":43.25718,"lon":5.41116,"is_reserved":false,"is_disabled":false,"rental_uris":{"android":"levelo://app?vid=fef5aa23-4654-44d2-a5dd-fa0b45c9b21b","ios":"levelo://app?vid=fef5aa23-4654-44d2-a5dd-fa0b45c9b21b"},"vehicle_type_id":"4","last_reported":1735027954,"current_range_meters":20800,"station_id":"ce4bhkp2rcd13ifvqgd0","pricing_plan_id":"cebpf4jnsgd1na2vs0mg"},{"bike_id":"89dde3a7-e099-423e-8e09-63b62753e8b9","system_id":"levelo_inurba_marseille","lat":43.25822,"lon":5.39429,"is_reserved":false,"is_disabled":false,"rental_uris":{"android":"levelo://app?vid=89dde3a7-e099-423e-8e09-63b62753e8b9","ios":"levelo://app?vid=89dde3a7-e099-423e-8e09-63b62753e8b9"},"vehicle_type_id":"4","last_reported":1735027954,"current_range_meters":29600,"station_id":"ce4bhip2rcd13ifvqft0","pricing_plan_id":"cebpf4jnsgd1na2vs0mg"},{"bike_id":"e6f255e7-c3a0-4128-a0b1-f18581ab0420","system_id":"levelo_inurba_marseille","lat":43.29905,"lon":5.38123,"is_reserved":false,"is_disabled":false,"rental_uris":{"android":"levelo://app?vid=e6f255e7-c3a0-4128-a0b1-f18581ab0420","ios":"levelo://app?vid=e6f255e7-c3a0-4128-a0b1-f18581ab0420"},"vehicle_type_id":"4","last_reported":1735027954,"current_range_meters":38000,"station_id":"ce4bgj12rcd13ifvqbc0","pricing_plan_id":"cebpf4jnsgd1na2vs0mg"},{"bike_id":"ba65d07a-204d-4be9-96e0-b91b2ca6d251","system_id":"levelo_inurba_marseille","lat":43.26938,"lon":5.40252,"is_reserved":false,"is_disabled":false,"rental_uris":{"android":"levelo://app?vid=ba65d07a-204d-4be9-96e0-b91b2ca6d251","ios":"levelo://app?vid=ba65d07a-204d-4be9-96e0-b91b2ca6d251"},"vehicle_type_id":"4","last_reported":1735027954,"current_range_meters":39200,"station_id":"cjm6bp8fraef2m0cb0m0","pricing_plan_id":"cebpf4jnsgd1na2vs0mg"},{"bike_id":"cb8bc352-014b-4525-9e65-2a0e8402a18f","system_id":"levelo_inurba_marseille","lat":43.29038,"lon":5.39947,"is_reserved":false,"is_disabled":false,"rental_uris":{"android":"levelo://app?vid=cb8bc352-014b-4525-9e65-2a0e8402a18f","ios":"levelo://app?vid=cb8bc352-014b-4525-9e65-2a0e8402a18f"},"vehicle_type_id":"4","last_reported":1735027954,"current_range_meters":38800,"station_id":"ce4bh392rcd13ifvqdm0","pricing_plan_id":"cebpf4jnsgd1na2vs0mg"},{"bike_id":"43472636-57cd-411f-b3bd-d2bda7647d04","system_id":"levelo_inurba_marseille","lat":43.26936,"lon":5.40258,"is_reserved":false,"is_disabled":false,"rental_uris":{"android":"levelo://app?vid=43472636-57cd-411f-b3bd-d2bda7647d04","ios":"levelo://app?vid=43472636-57cd-411f-b3bd-d2bda7647d04"},"vehicle_type_id":"4","last_reported":1735027954,"current_range_meters":39200,"station_id":"cjm6bp8fraef2m0cb0m0","pricing_plan_id":"cebpf4jnsgd1na2vs0mg"},{"bike_id":"56c5b33c-c228-41ca-80c4-e4e2a1f7cb88","system_id":"levelo_inurba_marseille","lat":43.304345,"lon":5.388868,"is_reserved":false,"is_disabled":false,"rental_uris":{"android":"levelo://app?vid=56c5b33c-c228-41ca-80c4-e4e2a1f7cb88","ios":"levelo://app?vid=56c5b33c-c228-41ca-80c4-e4e2a1f7cb88"},"vehicle_type_id":"4","last_reported":1735027954,"current_range_meters":32000,"station_id":"ce4bgk12rcd13ifvqbi0","pricing_plan_id":"cebpf4jnsgd1na2vs0mg"},{"bike_id":"2558d0c0-8ff8-46ff-94a3-4d50dbd59c1c","system_id":"levelo_inurba_marseille","lat":43.29978,"lon":5.371774,"is_reserved":false,"is_disabled":false,"rental_uris":{"android":"levelo://app?vid=2558d0c0-8ff8-46ff-94a3-4d50dbd59c1c","ios":"levelo://app?vid=2558d0c0-8ff8-46ff-94a3-4d50dbd59c1c"},"vehicle_type_id":"4","last_reported":1735027954,"current_range_meters":34000,"station_id":"ce4bgr92rcd13ifvqc7g","pricing_plan_id":"cebpf4jnsgd1na2vs0mg"},{"bike_id":"58975c95-cbcc-4de2-ac6a-2c5c03741a00","system_id":"levelo_inurba_marseille","lat":43.27066,"lon":5.42275,"is_reserved":false,"is_disabled":false,"rental_uris":{"android":"levelo://app?vid=58975c95-cbcc-4de2-ac6a-2c5c03741a00","ios":"levelo://app?vid=58975c95-cbcc-4de2-ac6a-2c5c03741a00"},"vehicle_type_id":"4","last_reported":1735027954,"current_range_meters":38000,"station_id":"ce4bhk92rcd13ifvqgb0","pricing_plan_id":"cebpf4jnsgd1na2vs0mg"},{"bike_id":"13cdce98-b8ea-4107-bd17-7a9b42f72a9b","system_id":"levelo_inurba_marseille","lat":43.33014,"lon":5.39073,"is_reserved":false,"is_disabled":false,"rental_uris":{"android":"levelo://app?vid=13cdce98-b8ea-4107-bd17-7a9b42f72a9b","ios":"levelo://app?vid=13cdce98-b8ea-4107-bd17-7a9b42f72a9b"},"vehicle_type_id":"4","last_reported":1735027954,"current_range_meters":27600,"station_id":"ce4bhr92rcd13ifvqhrg","pricing_plan_id":"cebpf4jnsgd1na2vs0mg"},{"bike_id":"e5b7f70e-d8e3-44d9-8582-413c5967227d","system_id":"levelo_inurba_marseille","lat":43.26488,"lon":5.3955,"is_reserved":false,"is_disabled":false,"rental_uris":{"android":"levelo://app?vid=e5b7f70e-d8e3-44d9-8582-413c5967227d","ios":"levelo://app?vid=e5b7f70e-d8e3-44d9-8582-413c5967227d"},"vehicle_type_id":"4","last_reported":1735027954,"current_range_meters":24000,"station_id":"ce4bhi12rcd13ifvqfq0","pricing_plan_id":"cebpf4jnsgd1na2vs0mg"},{"bike_id":"591e56d3-570f-4000-8104-235340497ab2","system_id":"levelo_inurba_marseille","lat":43.2803,"lon":5.36933,"is_reserved":false,"is_disabled":false,"rental_uris":{"android":"levelo://app?vid=591e56d3-570f-4000-8104-235340497ab2","ios":"levelo://app?vid=591e56d3-570f-4000-8104-235340497ab2"},"vehicle_type_id":"4","last_reported":1735027954,"current_range_meters":38800,"station_id":"ce4bha12rcd13ifvqef0","pricing_plan_id":"cebpf4jnsgd1na2vs0mg"},{"bike_id":"e99546a0-b289-48d7-96f5-5f2a5b9577f1","system_id":"levelo_inurba_marseille","lat":43.27365,"lon":5.36249,"is_reserved":false,"is_disabled":false,"rental_uris":{"android":"levelo://app?vid=e99546a0-b289-48d7-96f5-5f2a5b9577f1","ios":"levelo://app?vid=e99546a0-b289-48d7-96f5-5f2a5b9577f1"},"vehicle_type_id":"4","last_reported":1735027954,"current_range_meters":18800,"station_id":"ce4bhbh2rcd13ifvqeo0","pricing_plan_id":"cebpf4jnsgd1na2vs0mg"},{"bike_id":"9eccb0d6-48d8-4c3b-b85b-207069eb977d","system_id":"levelo_inurba_marseille","lat":43.25575,"lon":5.38227,"is_reserved":false,"is_disabled":false,"rental_uris":{"android":"levelo://app?vid=9eccb0d6-48d8-4c3b-b85b-207069eb977d","ios":"levelo://app?vid=9eccb0d6-48d8-4c3b-b85b-207069eb977d"},"vehicle_type_id":"4","last_reported":1735027954,"current_range_meters":33600,"station_id":"ce4bhih2rcd13ifvqfs0","pricing_plan_id":"cebpf4jnsgd1na2vs0mg"},{"bike_id":"5783f472-7468-4bde-a8a4-e8699731eecc","system_id":"levelo_inurba_marseille","lat":43.32065,"lon":5.41546,"is_reserved":false,"is_disabled":false,"rental_uris":{"android":"levelo://app?vid=5783f472-7468-4bde-a8a4-e8699731eecc","ios":"levelo://app?vid=5783f472-7468-4bde-a8a4-e8699731eecc"},"vehicle_type_id":"4","last_reported":1735027954,"current_range_meters":32800,"station_id":"ce4bhq92rcd13ifvqhkg","pricing_plan_id":"cebpf4jnsgd1na2vs0mg"},{"bike_id":"1bfb59b3-5d70-4c84-8077-a6771e996a2b","system_id":"levelo_inurba_marseille","lat":43.29942,"lon":5.36565,"is_reserved":false,"is_disabled":false,"rental_uris":{"android":"levelo://app?vid=1bfb59b3-5d70-4c84-8077-a6771e996a2b","ios":"levelo://app?vid=1bfb59b3-5d70-4c84-8077-a6771e996a2b"},"vehicle_type_id":"4","last_reported":1735027954,"current_range_meters":36800,"station_id":"ce4bgm92rcd13ifvqbr0","pricing_plan_id":"cebpf4jnsgd1na2vs0mg"},{"bike_id":"30a48f1b-7bcd-4f40-8168-cf8c460661fa","system_id":"levelo_inurba_marseille","lat":43.25715,"lon":5.41106,"is_reserved":false,"is_disabled":false,"rental_uris":{"android":"levelo://app?vid=30a48f1b-7bcd-4f40-8168-cf8c460661fa","ios":"levelo://app?vid=30a48f1b-7bcd-4f40-8168-cf8c460661fa"},"vehicle_type_id":"4","last_reported":1735027954,"current_range_meters":22000,"station_id":"ce4bhkp2rcd13ifvqgd0","pricing_plan_id":"cebpf4jnsgd1na2vs0mg"},{"bike_id":"aa5d5d16-a2f6-4c81-8cd4-c9ee96949ae4","system_id":"levelo_inurba_marseille","lat":43.23185,"lon":5.39976,"is_reserved":false,"is_disabled":false,"rental_uris":{"android":"levelo://app?vid=aa5d5d16-a2f6-4c81-8cd4-c9ee96949ae4","ios":"levelo://app?vid=aa5d5d16-a2f6-4c81-8cd4-c9ee96949ae4"},"vehicle_type_id":"4","last_reported":1735027954,"current_range_meters":38800,"station_id":"ce4bhn12rcd13ifvqgqg","pricing_plan_id":"cebpf4jnsgd1na2vs0mg"},{"bike_id":"68db534e-0067-497a-971b-c0ac21bdd722","system_id":"levelo_inurba_marseille","lat":43.26197,"lon":5.37914,"is_reserved":false,"is_disabled":false,"rental_uris":{"android":"levelo://app?vid=68db534e-0067-497a-971b-c0ac21bdd722","ios":"levelo://app?vid=68db534e-0067-497a-971b-c0ac21bdd722"},"vehicle_type_id":"4","last_reported":1735027954,"current_range_meters":35200,"station_id":"ce4bhjp2rcd13ifvqg90","pricing_plan_id":"cebpf4jnsgd1na2vs0mg"},{"bike_id":"1e73c81f-7d8d-42c9-8216-05e0c8d2e4e9","system_id":"levelo_inurba_marseille","lat":43.29618,"lon":5.37719,"is_reserved":false,"is_disabled":false,"rental_uris":{"android":"levelo://app?vid=1e73c81f-7d8d-42c9-8216-05e0c8d2e4e9","ios":"levelo://app?vid=1e73c81f-7d8d-42c9-8216-05e0c8d2e4e9"},"vehicle_type_id":"4","last_reported":1735027954,"current_range_meters":39200,"station_id":"ce4bgi92rcd13ifvqb90","pricing_plan_id":"cebpf4jnsgd1na2vs0mg"},{"bike_id":"180c51e8-707b-4d3a-bce6-60033fd0e9cc","system_id":"levelo_inurba_marseille","lat":43.29905,"lon":5.38149,"is_reserved":false,"is_disabled":false,"rental_uris":{"android":"levelo://app?vid=180c51e8-707b-4d3a-bce6-60033fd0e9cc","ios":"levelo://app?vid=180c51e8-707b-4d3a-bce6-60033fd0e9cc"},"vehicle_type_id":"4","last_reported":1735027954,"current_range_meters":38800,"station_id":"ce4bgj12rcd13ifvqbc0","pricing_plan_id":"cebpf4jnsgd1na2vs0mg"},{"bike_id":"f94ee3ef-df1d-4f7a-a675-d07a56ae02be","system_id":"levelo_inurba_marseille","lat":43.33701,"lon":5.39138,"is_reserved":false,"is_disabled":false,"rental_uris":{"android":"levelo://app?vid=f94ee3ef-df1d-4f7a-a675-d07a56ae02be","ios":"levelo://app?vid=f94ee3ef-df1d-4f7a-a675-d07a56ae02be"},"vehicle_type_id":"4","last_reported":1735027954,"current_range_meters":38000,"station_id":"ce4bhr92rcd13ifvqhsg","pricing_plan_id":"cebpf4jnsgd1na2vs0mg"},{"bike_id":"18bc712f-05f8-4bfe-a81a-9b0f3911a5b1","system_id":"levelo_inurba_marseille","lat":43.27559,"lon":5.38408,"is_reserved":false,"is_disabled":false,"rental_uris":{"android":"levelo://app?vid=18bc712f-05f8-4bfe-a81a-9b0f3911a5b1","ios":"levelo://app?vid=18bc712f-05f8-4bfe-a81a-9b0f3911a5b1"},"vehicle_type_id":"4","last_reported":1735027954,"current_range_meters":37600,"station_id":"ce4bhh92rcd13ifvqfi0","pricing_plan_id":"cebpf4jnsgd1na2vs0mg"},{"bike_id":"17848132-9d0b-498e-939f-005e27afd85a","system_id":"levelo_inurba_marseille","lat":43.290068,"lon":5.356093,"is_reserved":false,"is_disabled":false,"rental_uris":{"android":"levelo://app?vid=17848132-9d0b-498e-939f-005e27afd85a","ios":"levelo://app?vid=17848132-9d0b-498e-939f-005e27afd85a"},"vehicle_type_id":"4","last_reported":1735027954,"current_range_meters":30000,"station_id":"ce4bhb92rcd13ifvqen0","pricing_plan_id":"cebpf4jnsgd1na2vs0mg"},{"bike_id":"f47cc58d-9be1-465e-a2bb-aa65af959fc4","system_id":"levelo_inurba_marseille","lat":43.28565,"lon":5.35173,"is_reserved":false,"is_disabled":false,"rental_uris":{"android":"levelo://app?vid=f47cc58d-9be1-465e-a2bb-aa65af959fc4","ios":"levelo://app?vid=f47cc58d-9be1-465e-a2bb-aa65af959fc4"},"vehicle_type_id":"4","last_reported":1735027954,"current_range_meters":36800,"station_id":"","pricing_plan_id":"cebpf4jnsgd1na2vs0mg"},{"bike_id":"4c5312bc-52a9-41e2-a4d0-238589094bed","system_id":"levelo_inurba_marseille","lat":43.29626,"lon":5.37714,"is_reserved":false,"is_disabled":false,"rental_uris":{"android":"levelo://app?vid=4c5312bc-52a9-41e2-a4d0-238589094bed","ios":"levelo://app?vid=4c5312bc-52a9-41e2-a4d0-238589094bed"},"vehicle_type_id":"4","last_reported":1735027954,"current_range_meters":9200,"station_id":"ce4bgi92rcd13ifvqb90","pricing_plan_id":"cebpf4jnsgd1na2vs0mg"},{"bike_id":"8aa29a25-71b0-47b4-8794-3774a275bf08","system_id":"levelo_inurba_marseille","lat":43.2717,"lon":5.40988,"is_reserved":false,"is_disabled":false,"rental_uris":{"android":"levelo://app?vid=8aa29a25-71b0-47b4-8794-3774a275bf08","ios":"levelo://app?vid=8aa29a25-71b0-47b4-8794-3774a275bf08"},"vehicle_type_id":"4","last_reported":1735027954,"current_range_meters":16000,"station_id":"ce4bhl12rcd13ifvqgf0","pricing_plan_id":"cebpf4jnsgd1na2vs0mg"},{"bike_id":"50771762-6294-492b-bae5-db8bd88e73ed","system_id":"levelo_inurba_marseille","lat":43.27418,"lon":5.394,"is_reserved":false,"is_disabled":false,"rental_uris":{"android":"levelo://app?vid=50771762-6294-492b-bae5-db8bd88e73ed","ios":"levelo://app?vid=50771762-6294-492b-bae5-db8bd88e73ed"},"vehicle_type_id":"4","last_reported":1735027954,"current_range_meters":39200,"station_id":"ce4bhdp2rcd13ifvqf20","pricing_plan_id":"cebpf4jnsgd1na2vs0mg"},{"bike_id":"3c8b5ca7-a8a6-4b4b-8fee-7765b3f47c9c","system_id":"levelo_inurba_marseille","lat":43.301415,"lon":5.387781,"is_reserved":false,"is_disabled":true,"rental_uris":{"android":"levelo://app?vid=3c8b5ca7-a8a6-4b4b-8fee-7765b3f47c9c","ios":"levelo://app?vid=3c8b5ca7-a8a6-4b4b-8fee-7765b3f47c9c"},"vehicle_type_id":"4","last_reported":1735027954,"current_range_meters":0,"station_id":"ce4bhoh2rcd13ifvqh6g","pricing_plan_id":"cebpf4jnsgd1na2vs0mg"},{"bike_id":"b9248108-92a5-4b77-ba17-3289b105396b","system_id":"levelo_inurba_marseille","lat":43.31705,"lon":5.40471,"is_reserved":false,"is_disabled":true,"rental_uris":{"android":"levelo://app?vid=b9248108-92a5-4b77-ba17-3289b105396b","ios":"levelo://app?vid=b9248108-92a5-4b77-ba17-3289b105396b"},"vehicle_type_id":"4","last_reported":1735027954,"current_range_meters":4000,"station_id":"ce4bh012rcd13ifvqd00","pricing_plan_id":"cebpf4jnsgd1na2vs0mg"},{"bike_id":"0b1dbe83-06bc-4dd0-a526-062173db1059","system_id":"levelo_inurba_marseille","lat":43.29254,"lon":5.4091,"is_reserved":false,"is_disabled":false,"rental_uris":{"android":"levelo://app?vid=0b1dbe83-06bc-4dd0-a526-062173db1059","ios":"levelo://app?vid=0b1dbe83-06bc-4dd0-a526-062173db1059"},"vehicle_type_id":"4","last_reported":1735027954,"current_range_meters":24000,"station_id":"ce4bh192rcd13ifvqdc0","pricing_plan_id":"cebpf4jnsgd1na2vs0mg"},{"bike_id":"6fc06629-22a5-4a9c-9ff7-c08cb127b87d","system_id":"levelo_inurba_marseille","lat":43.30238,"lon":5.40063,"is_reserved":false,"is_disabled":true,"rental_uris":{"android":"levelo://app?vid=6fc06629-22a5-4a9c-9ff7-c08cb127b87d","ios":"levelo://app?vid=6fc06629-22a5-4a9c-9ff7-c08cb127b87d"},"vehicle_type_id":"4","last_reported":1735027954,"current_range_meters":35600,"station_id":"ce4bgvh2rcd13ifvqcs0","pricing_plan_id":"cebpf4jnsgd1na2vs0mg"},{"bike_id":"82719b16-0394-44a1-963a-3161d6b762b8","system_id":"levelo_inurba_marseille","lat":43.29627,"lon":5.3716,"is_reserved":false,"is_disabled":false,"rental_uris":{"android":"levelo://app?vid=82719b16-0394-44a1-963a-3161d6b762b8","ios":"levelo://app?vid=82719b16-0394-44a1-963a-3161d6b762b8"},"vehicle_type_id":"4","last_reported":1735027954,"current_range_meters":38400,"station_id":"ce4bgnh2rcd13ifvqc0g","pricing_plan_id":"cebpf4jnsgd1na2vs0mg"},{"bike_id":"3e3649be-3a5e-4e93-a90d-6c78054c506e","system_id":"levelo_inurba_marseille","lat":43.29166,"lon":5.39303,"is_reserved":false,"is_disabled":false,"rental_uris":{"android":"levelo://app?vid=3e3649be-3a5e-4e93-a90d-6c78054c506e","ios":"levelo://app?vid=3e3649be-3a5e-4e93-a90d-6c78054c506e"},"vehicle_type_id":"4","last_reported":1735027954,"current_range_meters":38800,"station_id":"ce4bh192rcd13ifvqdd0","pricing_plan_id":"cebpf4jnsgd1na2vs0mg"},{"bike_id":"fbf0ad52-c373-4f9a-a599-782a3acdac7a","system_id":"levelo_inurba_marseille","lat":43.27178,"lon":5.40981,"is_reserved":false,"is_disabled":false,"rental_uris":{"android":"levelo://app?vid=fbf0ad52-c373-4f9a-a599-782a3acdac7a","ios":"levelo://app?vid=fbf0ad52-c373-4f9a-a599-782a3acdac7a"},"vehicle_type_id":"4","last_reported":1735027954,"current_range_meters":30000,"station_id":"ce4bhl12rcd13ifvqgf0","pricing_plan_id":"cebpf4jnsgd1na2vs0mg"},{"bike_id":"c2c0a2cc-6349-45ae-b15e-dbd622209c75","system_id":"levelo_inurba_marseille","lat":43.32054,"lon":5.41554,"is_reserved":false,"is_disabled":false,"rental_uris":{"android":"levelo://app?vid=c2c0a2cc-6349-45ae-b15e-dbd622209c75","ios":"levelo://app?vid=c2c0a2cc-6349-45ae-b15e-dbd622209c75"},"vehicle_type_id":"4","last_reported":1735027954,"current_range_meters":37600,"station_id":"ce4bhq92rcd13ifvqhkg","pricing_plan_id":"cebpf4jnsgd1na2vs0mg"},{"bike_id":"4a35463d-6286-4212-a2c7-04e728adcd62","system_id":"levelo_inurba_marseille","lat":43.281017,"lon":5.378273,"is_reserved":false,"is_disabled":false,"rental_uris":{"android":"levelo://app?vid=4a35463d-6286-4212-a2c7-04e728adcd62","ios":"levelo://app?vid=4a35463d-6286-4212-a2c7-04e728adcd62"},"vehicle_type_id":"4","last_reported":1735027954,"current_range_meters":38800,"station_id":"ce4bha12rcd13ifvqee0","pricing_plan_id":"cebpf4jnsgd1na2vs0mg"},{"bike_id":"3b89f562-511c-4f78-86db-08cd99e862da","system_id":"levelo_inurba_marseille","lat":43.29697,"lon":5.3658,"is_reserved":false,"is_disabled":false,"rental_uris":{"android":"levelo://app?vid=3b89f562-511c-4f78-86db-08cd99e862da","ios":"levelo://app?vid=3b89f562-511c-4f78-86db-08cd99e862da"},"vehicle_type_id":"4","last_reported":1735027954,"current_range_meters":38800,"station_id":"ce4bgn12rcd13ifvqbt0","pricing_plan_id":"cebpf4jnsgd1na2vs0mg"},{"bike_id":"89057091-688a-498f-af84-2f421360afdd","system_id":"levelo_inurba_marseille","lat":43.30543,"lon":5.36589,"is_reserved":false,"is_disabled":false,"rental_uris":{"android":"levelo://app?vid=89057091-688a-498f-af84-2f421360afdd","ios":"levelo://app?vid=89057091-688a-498f-af84-2f421360afdd"},"vehicle_type_id":"4","last_reported":1735027954,"current_range_meters":30800,"station_id":"ce4bgs12rcd13ifvqcag","pricing_plan_id":"cebpf4jnsgd1na2vs0mg"},{"bike_id":"00152a69-d804-4dc4-9e51-1171b667e5fe","system_id":"levelo_inurba_marseille","lat":43.337444,"lon":5.374475,"is_reserved":false,"is_disabled":false,"rental_uris":{"android":"levelo://app?vid=00152a69-d804-4dc4-9e51-1171b667e5fe","ios":"levelo://app?vid=00152a69-d804-4dc4-9e51-1171b667e5fe"},"vehicle_type_id":"4","last_reported":1735027954,"current_range_meters":20000,"station_id":"","pricing_plan_id":"cebpf4jnsgd1na2vs0mg"},{"bike_id":"25c94e1b-df58-4bad-bbf3-f0564c6ea360","system_id":"levelo_inurba_marseille","lat":43.23195,"lon":5.39972,"is_reserved":false,"is_disabled":false,"rental_uris":{"android":"levelo://app?vid=25c94e1b-df58-4bad-bbf3-f0564c6ea360","ios":"levelo://app?vid=25c94e1b-df58-4bad-bbf3-f0564c6ea360"},"vehicle_type_id":"4","last_reported":1735027954,"current_range_meters":32400,"station_id":"ce4bhn12rcd13ifvqgqg","pricing_plan_id":"cebpf4jnsgd1na2vs0mg"},{"bike_id":"3b031569-a866-407f-a13e-aa369435b9ef","system_id":"levelo_inurba_marseille","lat":43.29888,"lon":5.3973,"is_reserved":false,"is_disabled":false,"rental_uris":{"android":"levelo://app?vid=3b031569-a866-407f-a13e-aa369435b9ef","ios":"levelo://app?vid=3b031569-a866-407f-a13e-aa369435b9ef"},"vehicle_type_id":"4","last_reported":1735027954,"current_range_meters":7200,"station_id":"ce4bh0h2rcd13ifvqd50","pricing_plan_id":"cebpf4jnsgd1na2vs0mg"},{"bike_id":"51ed29d5-0e33-4e07-ac9a-c65d939e2edd","system_id":"levelo_inurba_marseille","lat":43.29201,"lon":5.35808,"is_reserved":false,"is_disabled":false,"rental_uris":{"android":"levelo://app?vid=51ed29d5-0e33-4e07-ac9a-c65d939e2edd","ios":"levelo://app?vid=51ed29d5-0e33-4e07-ac9a-c65d939e2edd"},"vehicle_type_id":"4","last_reported":1735027954,"current_range_meters":35200,"station_id":"ce4bhb12rcd13ifvqel0","pricing_plan_id":"cebpf4jnsgd1na2vs0mg"},{"bike_id":"537ef1bf-3a78-45af-b334-3a2c52a599a8","system_id":"levelo_inurba_marseille","lat":43.3414,"lon":5.40901,"is_reserved":false,"is_disabled":false,"rental_uris":{"android":"levelo://app?vid=537ef1bf-3a78-45af-b334-3a2c52a599a8","ios":"levelo://app?vid=537ef1bf-3a78-45af-b334-3a2c52a599a8"},"vehicle_type_id":"4","last_reported":1735027954,"current_range_meters":32800,"station_id":"ce4bhqh2rcd13ifvqhlg","pricing_plan_id":"cebpf4jnsgd1na2vs0mg"},{"bike_id":"c59345d4-1e21-4d77-99bd-e0121b8e1fb8","system_id":"levelo_inurba_marseille","lat":43.24808,"lon":5.37455,"is_reserved":false,"is_disabled":false,"rental_uris":{"android":"levelo://app?vid=c59345d4-1e21-4d77-99bd-e0121b8e1fb8","ios":"levelo://app?vid=c59345d4-1e21-4d77-99bd-e0121b8e1fb8"},"vehicle_type_id":"4","last_reported":1735027954,"current_range_meters":36000,"station_id":"ce4bhgh2rcd13ifvqfb0","pricing_plan_id":"cebpf4jnsgd1na2vs0mg"},{"bike_id":"1bf78bb7-9821-48da-8fd7-8be3805daf93","system_id":"levelo_inurba_marseille","lat":43.29873,"lon":5.39719,"is_reserved":false,"is_disabled":false,"rental_uris":{"android":"levelo://app?vid=1bf78bb7-9821-48da-8fd7-8be3805daf93","ios":"levelo://app?vid=1bf78bb7-9821-48da-8fd7-8be3805daf93"},"vehicle_type_id":"4","last_reported":1735027954,"current_range_meters":9600,"station_id":"ce4bh0h2rcd13ifvqd50","pricing_plan_id":"cebpf4jnsgd1na2vs0mg"},{"bike_id":"4e4b799e-5ff3-46a5-bfce-859f9dca6dfe","system_id":"levelo_inurba_marseille","lat":43.27972,"lon":5.38753,"is_reserved":false,"is_disabled":false,"rental_uris":{"android":"levelo://app?vid=4e4b799e-5ff3-46a5-bfce-859f9dca6dfe","ios":"levelo://app?vid=4e4b799e-5ff3-46a5-bfce-859f9dca6dfe"},"vehicle_type_id":"4","last_reported":1735027954,"current_range_meters":38800,"station_id":"ce4bhg12rcd13ifvqf80","pricing_plan_id":"cebpf4jnsgd1na2vs0mg"},{"bike_id":"b07e0204-2c57-49d1-a1f7-320de8610e25","system_id":"levelo_inurba_marseille","lat":43.29402,"lon":5.37344,"is_reserved":false,"is_disabled":true,"rental_uris":{"android":"levelo://app?vid=b07e0204-2c57-49d1-a1f7-320de8610e25","ios":"levelo://app?vid=b07e0204-2c57-49d1-a1f7-320de8610e25"},"vehicle_type_id":"4","last_reported":1735027954,"current_range_meters":20400,"station_id":"","pricing_plan_id":"cebpf4jnsgd1na2vs0mg"},{"bike_id":"b8cc7cd3-7ec4-46c2-8a1a-a10433eda7e1","system_id":"levelo_inurba_marseille","lat":43.30907,"lon":5.36858,"is_reserved":false,"is_disabled":false,"rental_uris":{"android":"levelo://app?vid=b8cc7cd3-7ec4-46c2-8a1a-a10433eda7e1","ios":"levelo://app?vid=b8cc7cd3-7ec4-46c2-8a1a-a10433eda7e1"},"vehicle_type_id":"4","last_reported":1735027954,"current_range_meters":29600,"station_id":"ce4bgn92rcd13ifvqbvg","pricing_plan_id":"cebpf4jnsgd1na2vs0mg"},{"bike_id":"f97162d8-ac35-4106-9dab-07f272349842","system_id":"levelo_inurba_marseille","lat":43.25836,"lon":5.39423,"is_reserved":false,"is_disabled":false,"rental_uris":{"android":"levelo://app?vid=f97162d8-ac35-4106-9dab-07f272349842","ios":"levelo://app?vid=f97162d8-ac35-4106-9dab-07f272349842"},"vehicle_type_id":"4","last_reported":1735027954,"current_range_meters":38000,"station_id":"ce4bhip2rcd13ifvqft0","pricing_plan_id":"cebpf4jnsgd1na2vs0mg"},{"bike_id":"a22c6c33-be0d-40b1-b535-b083076c3b73","system_id":"levelo_inurba_marseille","lat":43.2973,"lon":5.37682,"is_reserved":false,"is_disabled":false,"rental_uris":{"android":"levelo://app?vid=a22c6c33-be0d-40b1-b535-b083076c3b73","ios":"levelo://app?vid=a22c6c33-be0d-40b1-b535-b083076c3b73"},"vehicle_type_id":"4","last_reported":1735027954,"current_range_meters":24000,"station_id":"ce4bgkh2rcd13ifvqbl0","pricing_plan_id":"cebpf4jnsgd1na2vs0mg"},{"bike_id":"7befd885-7fc8-4dc1-b970-da31c9e46ce6","system_id":"levelo_inurba_marseille","lat":43.26043,"lon":5.37554,"is_reserved":false,"is_disabled":false,"rental_uris":{"android":"levelo://app?vid=7befd885-7fc8-4dc1-b970-da31c9e46ce6","ios":"levelo://app?vid=7befd885-7fc8-4dc1-b970-da31c9e46ce6"},"vehicle_type_id":"4","last_reported":1735027954,"current_range_meters":28400,"station_id":"ce4bhgh2rcd13ifvqfa0","pricing_plan_id":"cebpf4jnsgd1na2vs0mg"},{"bike_id":"6793085b-5378-4b8b-8790-6cbe159c4cfd","system_id":"levelo_inurba_marseille","lat":43.29524,"lon":5.37483,"is_reserved":false,"is_disabled":false,"rental_uris":{"android":"levelo://app?vid=6793085b-5378-4b8b-8790-6cbe159c4cfd","ios":"levelo://app?vid=6793085b-5378-4b8b-8790-6cbe159c4cfd"},"vehicle_type_id":"4","last_reported":1735027954,"current_range_meters":28400,"station_id":"ce4bgkp2rcd13ifvqbmg","pricing_plan_id":"cebpf4jnsgd1na2vs0mg"},{"bike_id":"f3fe0314-8e40-4845-abe1-4c14c28f0999","system_id":"levelo_inurba_marseille","lat":43.29247,"lon":5.40903,"is_reserved":false,"is_disabled":false,"rental_uris":{"android":"levelo://app?vid=f3fe0314-8e40-4845-abe1-4c14c28f0999","ios":"levelo://app?vid=f3fe0314-8e40-4845-abe1-4c14c28f0999"},"vehicle_type_id":"4","last_reported":1735027954,"current_range_meters":38800,"station_id":"ce4bh192rcd13ifvqdc0","pricing_plan_id":"cebpf4jnsgd1na2vs0mg"},{"bike_id":"bd04cbb4-2402-4a18-87e1-831b8038bca8","system_id":"levelo_inurba_marseille","lat":43.3014,"lon":5.37426,"is_reserved":false,"is_disabled":false,"rental_uris":{"android":"levelo://app?vid=bd04cbb4-2402-4a18-87e1-831b8038bca8","ios":"levelo://app?vid=bd04cbb4-2402-4a18-87e1-831b8038bca8"},"vehicle_type_id":"4","last_reported":1735027954,"current_range_meters":30400,"station_id":"ce4bgs92rcd13ifvqcc0","pricing_plan_id":"cebpf4jnsgd1na2vs0mg"},{"bike_id":"a52b6a95-03b2-4a39-91a2-596fa5130c55","system_id":"levelo_inurba_marseille","lat":43.269395,"lon":5.389081,"is_reserved":false,"is_disabled":false,"rental_uris":{"android":"levelo://app?vid=a52b6a95-03b2-4a39-91a2-596fa5130c55","ios":"levelo://app?vid=a52b6a95-03b2-4a39-91a2-596fa5130c55"},"vehicle_type_id":"4","last_reported":1735027954,"current_range_meters":38800,"station_id":"ce4bhhh2rcd13ifvqfl0","pricing_plan_id":"cebpf4jnsgd1na2vs0mg"},{"bike_id":"47553130-a675-447c-a7a9-1a37879694db","system_id":"levelo_inurba_marseille","lat":43.30294,"lon":5.39203,"is_reserved":false,"is_disabled":false,"rental_uris":{"android":"levelo://app?vid=47553130-a675-447c-a7a9-1a37879694db","ios":"levelo://app?vid=47553130-a675-447c-a7a9-1a37879694db"},"vehicle_type_id":"4","last_reported":1735027954,"current_range_meters":39200,"station_id":"ce4bgkh2rcd13ifvqbk0","pricing_plan_id":"cebpf4jnsgd1na2vs0mg"},{"bike_id":"5eab5fd0-471d-45fb-8155-031855e25edc","system_id":"levelo_inurba_marseille","lat":43.29583,"lon":5.36739,"is_reserved":false,"is_disabled":false,"rental_uris":{"android":"levelo://app?vid=5eab5fd0-471d-45fb-8155-031855e25edc","ios":"levelo://app?vid=5eab5fd0-471d-45fb-8155-031855e25edc"},"vehicle_type_id":"4","last_reported":1735027954,"current_range_meters":37600,"station_id":"ce4bgph2rcd13ifvqc2g","pricing_plan_id":"cebpf4jnsgd1na2vs0mg"},{"bike_id":"0f9f1654-63fd-4b65-a8fb-a5beee04226f","system_id":"levelo_inurba_marseille","lat":43.29628,"lon":5.37156,"is_reserved":false,"is_disabled":false,"rental_uris":{"android":"levelo://app?vid=0f9f1654-63fd-4b65-a8fb-a5beee04226f","ios":"levelo://app?vid=0f9f1654-63fd-4b65-a8fb-a5beee04226f"},"vehicle_type_id":"4","last_reported":1735027954,"current_range_meters":38800,"station_id":"ce4bgnh2rcd13ifvqc0g","pricing_plan_id":"cebpf4jnsgd1na2vs0mg"},{"bike_id":"db4eb3f1-a618-4c48-a0e8-20afbaef5fd1","system_id":"levelo_inurba_marseille","lat":43.30902,"lon":5.36867,"is_reserved":false,"is_disabled":false,"rental_uris":{"android":"levelo://app?vid=db4eb3f1-a618-4c48-a0e8-20afbaef5fd1","ios":"levelo://app?vid=db4eb3f1-a618-4c48-a0e8-20afbaef5fd1"},"vehicle_type_id":"4","last_reported":1735027954,"current_range_meters":18000,"station_id":"ce4bgn92rcd13ifvqbvg","pricing_plan_id":"cebpf4jnsgd1na2vs0mg"},{"bike_id":"9e318394-f763-49f8-913e-df55ebc1e1e4","system_id":"levelo_inurba_marseille","lat":43.28418,"lon":5.34995,"is_reserved":false,"is_disabled":false,"rental_uris":{"android":"levelo://app?vid=9e318394-f763-49f8-913e-df55ebc1e1e4","ios":"levelo://app?vid=9e318394-f763-49f8-913e-df55ebc1e1e4"},"vehicle_type_id":"4","last_reported":1735027954,"current_range_meters":11600,"station_id":"ce4bhbh2rcd13ifvqepg","pricing_plan_id":"cebpf4jnsgd1na2vs0mg"},{"bike_id":"134f27d3-43ec-49d1-8f23-8a0ad1f5ee6c","system_id":"levelo_inurba_marseille","lat":43.32486,"lon":5.36558,"is_reserved":false,"is_disabled":false,"rental_uris":{"android":"levelo://app?vid=134f27d3-43ec-49d1-8f23-8a0ad1f5ee6c","ios":"levelo://app?vid=134f27d3-43ec-49d1-8f23-8a0ad1f5ee6c"},"vehicle_type_id":"4","last_reported":1735027954,"current_range_meters":26800,"station_id":"ce4bhs12rcd13ifvqhvg","pricing_plan_id":"cebpf4jnsgd1na2vs0mg"},{"bike_id":"1d07f094-84ee-4aec-a895-af7a16d50541","system_id":"levelo_inurba_marseille","lat":43.29593,"lon":5.38097,"is_reserved":false,"is_disabled":false,"rental_uris":{"android":"levelo://app?vid=1d07f094-84ee-4aec-a895-af7a16d50541","ios":"levelo://app?vid=1d07f094-84ee-4aec-a895-af7a16d50541"},"vehicle_type_id":"4","last_reported":1735027954,"current_range_meters":36800,"station_id":"ce4bgl12rcd13ifvqbo0","pricing_plan_id":"cebpf4jnsgd1na2vs0mg"},{"bike_id":"a8828d72-2518-4685-b76a-9db9d1585400","system_id":"levelo_inurba_marseille","lat":43.28942,"lon":5.39632,"is_reserved":false,"is_disabled":false,"rental_uris":{"android":"levelo://app?vid=a8828d72-2518-4685-b76a-9db9d1585400","ios":"levelo://app?vid=a8828d72-2518-4685-b76a-9db9d1585400"},"vehicle_type_id":"4","last_reported":1735027954,"current_range_meters":18800,"station_id":"ce4bh3h2rcd13ifvqdn0","pricing_plan_id":"cebpf4jnsgd1na2vs0mg"},{"bike_id":"c1f484e0-4333-42bf-b0be-9f403917a99a","system_id":"levelo_inurba_marseille","lat":43.30901,"lon":5.3684,"is_reserved":false,"is_disabled":false,"rental_uris":{"android":"levelo://app?vid=c1f484e0-4333-42bf-b0be-9f403917a99a","ios":"levelo://app?vid=c1f484e0-4333-42bf-b0be-9f403917a99a"},"vehicle_type_id":"4","last_reported":1735027954,"current_range_meters":29600,"station_id":"ce4bgn92rcd13ifvqbvg","pricing_plan_id":"cebpf4jnsgd1na2vs0mg"},{"bike_id":"4094ac40-fe97-4483-91f4-bc4b6a97b4f3","system_id":"levelo_inurba_marseille","lat":43.25821,"lon":5.39439,"is_reserved":false,"is_disabled":true,"rental_uris":{"android":"levelo://app?vid=4094ac40-fe97-4483-91f4-bc4b6a97b4f3","ios":"levelo://app?vid=4094ac40-fe97-4483-91f4-bc4b6a97b4f3"},"vehicle_type_id":"4","last_reported":1735027954,"current_range_meters":0,"station_id":"ce4bhip2rcd13ifvqft0","pricing_plan_id":"cebpf4jnsgd1na2vs0mg"},{"bike_id":"6bca16b1-3eb4-4299-91bc-9740eea99592","system_id":"levelo_inurba_marseille","lat":43.29841,"lon":5.36269,"is_reserved":false,"is_disabled":false,"rental_uris":{"android":"levelo://app?vid=6bca16b1-3eb4-4299-91bc-9740eea99592","ios":"levelo://app?vid=6bca16b1-3eb4-4299-91bc-9740eea99592"},"vehicle_type_id":"4","last_reported":1735027954,"current_range_meters":28800,"station_id":"ce4bgpp2rcd13ifvqc3g","pricing_plan_id":"cebpf4jnsgd1na2vs0mg"},{"bike_id":"b1bcb9a1-f2f3-4ef6-959d-ef7f2b654f17","system_id":"levelo_inurba_marseille","lat":43.30208,"lon":5.39465,"is_reserved":false,"is_disabled":false,"rental_uris":{"android":"levelo://app?vid=b1bcb9a1-f2f3-4ef6-959d-ef7f2b654f17","ios":"levelo://app?vid=b1bcb9a1-f2f3-4ef6-959d-ef7f2b654f17"},"vehicle_type_id":"4","last_reported":1735027954,"current_range_meters":11600,"station_id":"ce4bh0p2rcd13ifvqd70","pricing_plan_id":"cebpf4jnsgd1na2vs0mg"},{"bike_id":"c7ff7852-d6c3-4d39-a37b-399e8a898ab1","system_id":"levelo_inurba_marseille","lat":43.29003,"lon":5.3561,"is_reserved":false,"is_disabled":false,"rental_uris":{"android":"levelo://app?vid=c7ff7852-d6c3-4d39-a37b-399e8a898ab1","ios":"levelo://app?vid=c7ff7852-d6c3-4d39-a37b-399e8a898ab1"},"vehicle_type_id":"4","last_reported":1735027954,"current_range_meters":30000,"station_id":"ce4bhb92rcd13ifvqen0","pricing_plan_id":"cebpf4jnsgd1na2vs0mg"},{"bike_id":"e05bf4ea-d74d-49ed-a7dc-94fa3a3cc350","system_id":"levelo_inurba_marseille","lat":43.32361,"lon":5.36754,"is_reserved":false,"is_disabled":false,"rental_uris":{"android":"levelo://app?vid=e05bf4ea-d74d-49ed-a7dc-94fa3a3cc350","ios":"levelo://app?vid=e05bf4ea-d74d-49ed-a7dc-94fa3a3cc350"},"vehicle_type_id":"4","last_reported":1735027954,"current_range_meters":8800,"station_id":"ce4bhsh2rcd13ifvqi2g","pricing_plan_id":"cebpf4jnsgd1na2vs0mg"},{"bike_id":"4414e2df-05d5-471c-9ec4-34cd9dd81ab5","system_id":"levelo_inurba_marseille","lat":43.28941,"lon":5.39631,"is_reserved":false,"is_disabled":false,"rental_uris":{"android":"levelo://app?vid=4414e2df-05d5-471c-9ec4-34cd9dd81ab5","ios":"levelo://app?vid=4414e2df-05d5-471c-9ec4-34cd9dd81ab5"},"vehicle_type_id":"4","last_reported":1735027954,"current_range_meters":36800,"station_id":"ce4bh3h2rcd13ifvqdn0","pricing_plan_id":"cebpf4jnsgd1na2vs0mg"},{"bike_id":"8a48f262-0157-47f4-8e94-0fa657be2950","system_id":"levelo_inurba_marseille","lat":43.297107,"lon":5.38005,"is_reserved":false,"is_disabled":false,"rental_uris":{"android":"levelo://app?vid=8a48f262-0157-47f4-8e94-0fa657be2950","ios":"levelo://app?vid=8a48f262-0157-47f4-8e94-0fa657be2950"},"vehicle_type_id":"4","last_reported":1735027954,"current_range_meters":38000,"station_id":"ce4bgi92rcd13ifvqb90","pricing_plan_id":"cebpf4jnsgd1na2vs0mg"},{"bike_id":"32e4dc15-a42a-42fd-bef3-2f12f80961c8","system_id":"levelo_inurba_marseille","lat":43.29528,"lon":5.37488,"is_reserved":false,"is_disabled":false,"rental_uris":{"android":"levelo://app?vid=32e4dc15-a42a-42fd-bef3-2f12f80961c8","ios":"levelo://app?vid=32e4dc15-a42a-42fd-bef3-2f12f80961c8"},"vehicle_type_id":"4","last_reported":1735027954,"current_range_meters":38000,"station_id":"ce4bgkp2rcd13ifvqbmg","pricing_plan_id":"cebpf4jnsgd1na2vs0mg"},{"bike_id":"d591ed7e-f6b1-4c2a-99af-0fb96c801503","system_id":"levelo_inurba_marseille","lat":43.28473,"lon":5.38419,"is_reserved":false,"is_disabled":true,"rental_uris":{"android":"levelo://app?vid=d591ed7e-f6b1-4c2a-99af-0fb96c801503","ios":"levelo://app?vid=d591ed7e-f6b1-4c2a-99af-0fb96c801503"},"vehicle_type_id":"4","last_reported":1735027954,"current_range_meters":21600,"station_id":"ce4bh512rcd13ifvqe3g","pricing_plan_id":"cebpf4jnsgd1na2vs0mg"},{"bike_id":"32ebf098-e002-4aa6-88f7-5b365ee05e11","system_id":"levelo_inurba_marseille","lat":43.24085,"lon":5.37745,"is_reserved":false,"is_disabled":true,"rental_uris":{"android":"levelo://app?vid=32ebf098-e002-4aa6-88f7-5b365ee05e11","ios":"levelo://app?vid=32ebf098-e002-4aa6-88f7-5b365ee05e11"},"vehicle_type_id":"4","last_reported":1735027954,"current_range_meters":0,"station_id":"ce4bhnp2rcd13ifvqgvg","pricing_plan_id":"cebpf4jnsgd1na2vs0mg"},{"bike_id":"b4b5e933-6fa8-43f7-b666-98bcd5590261","system_id":"levelo_inurba_marseille","lat":43.317067,"lon":5.404643,"is_reserved":false,"is_disabled":false,"rental_uris":{"android":"levelo://app?vid=b4b5e933-6fa8-43f7-b666-98bcd5590261","ios":"levelo://app?vid=b4b5e933-6fa8-43f7-b666-98bcd5590261"},"vehicle_type_id":"4","last_reported":1735027954,"current_range_meters":36800,"station_id":"ce4bh012rcd13ifvqd00","pricing_plan_id":"cebpf4jnsgd1na2vs0mg"},{"bike_id":"842888b9-0281-4137-8179-95fdfc851120","system_id":"levelo_inurba_marseille","lat":43.26925,"lon":5.40243,"is_reserved":false,"is_disabled":false,"rental_uris":{"android":"levelo://app?vid=842888b9-0281-4137-8179-95fdfc851120","ios":"levelo://app?vid=842888b9-0281-4137-8179-95fdfc851120"},"vehicle_type_id":"4","last_reported":1735027954,"current_range_meters":36800,"station_id":"cjm6bp8fraef2m0cb0m0","pricing_plan_id":"cebpf4jnsgd1na2vs0mg"},{"bike_id":"5af0d384-9a68-4517-82f0-e39af1ff8381","system_id":"levelo_inurba_marseille","lat":43.29784,"lon":5.39335,"is_reserved":false,"is_disabled":false,"rental_uris":{"android":"levelo://app?vid=5af0d384-9a68-4517-82f0-e39af1ff8381","ios":"levelo://app?vid=5af0d384-9a68-4517-82f0-e39af1ff8381"},"vehicle_type_id":"4","last_reported":1735027954,"current_range_meters":36800,"station_id":"chh1huq6cuj3fo74tm60","pricing_plan_id":"cebpf4jnsgd1na2vs0mg"},{"bike_id":"00f4c10a-164f-4cd6-9e41-11f80b9dea09","system_id":"levelo_inurba_marseille","lat":43.291974,"lon":5.393172,"is_reserved":false,"is_disabled":false,"rental_uris":{"android":"levelo://app?vid=00f4c10a-164f-4cd6-9e41-11f80b9dea09","ios":"levelo://app?vid=00f4c10a-164f-4cd6-9e41-11f80b9dea09"},"vehicle_type_id":"4","last_reported":1735027954,"current_range_meters":31200,"station_id":"ce4bh192rcd13ifvqdd0","pricing_plan_id":"cebpf4jnsgd1na2vs0mg"},{"bike_id":"eb475429-7e9a-4e72-910e-4b90dc44f63f","system_id":"levelo_inurba_marseille","lat":43.3015,"lon":5.38058,"is_reserved":false,"is_disabled":false,"rental_uris":{"android":"levelo://app?vid=eb475429-7e9a-4e72-910e-4b90dc44f63f","ios":"levelo://app?vid=eb475429-7e9a-4e72-910e-4b90dc44f63f"},"vehicle_type_id":"4","last_reported":1735027954,"current_range_meters":35200,"station_id":"ce4bgjp2rcd13ifvqbh0","pricing_plan_id":"cebpf4jnsgd1na2vs0mg"},{"bike_id":"85b80f61-13a5-4a12-a381-352d1429d14e","system_id":"levelo_inurba_marseille","lat":43.30149,"lon":5.38088,"is_reserved":false,"is_disabled":false,"rental_uris":{"android":"levelo://app?vid=85b80f61-13a5-4a12-a381-352d1429d14e","ios":"levelo://app?vid=85b80f61-13a5-4a12-a381-352d1429d14e"},"vehicle_type_id":"4","last_reported":1735027954,"current_range_meters":30800,"station_id":"ce4bgjp2rcd13ifvqbh0","pricing_plan_id":"cebpf4jnsgd1na2vs0mg"},{"bike_id":"ba623d7f-de4d-43e6-9a39-be19938e75fb","system_id":"levelo_inurba_marseille","lat":43.29369,"lon":5.37856,"is_reserved":false,"is_disabled":true,"rental_uris":{"android":"levelo://app?vid=ba623d7f-de4d-43e6-9a39-be19938e75fb","ios":"levelo://app?vid=ba623d7f-de4d-43e6-9a39-be19938e75fb"},"vehicle_type_id":"4","last_reported":1735027954,"current_range_meters":28800,"station_id":"","pricing_plan_id":"cebpf4jnsgd1na2vs0mg"},{"bike_id":"af7a8365-0aa8-48c2-85e3-e0dcc429b742","system_id":"levelo_inurba_marseille","lat":43.245456,"lon":5.395263,"is_reserved":false,"is_disabled":false,"rental_uris":{"android":"levelo://app?vid=af7a8365-0aa8-48c2-85e3-e0dcc429b742","ios":"levelo://app?vid=af7a8365-0aa8-48c2-85e3-e0dcc429b742"},"vehicle_type_id":"4","last_reported":1735027954,"current_range_meters":34800,"station_id":"ce4bhlp2rcd13ifvqgjg","pricing_plan_id":"cebpf4jnsgd1na2vs0mg"},{"bike_id":"50f17fe2-477a-4189-8008-39c21f61550e","system_id":"levelo_inurba_marseille","lat":43.301438,"lon":5.387769,"is_reserved":false,"is_disabled":false,"rental_uris":{"android":"levelo://app?vid=50f17fe2-477a-4189-8008-39c21f61550e","ios":"levelo://app?vid=50f17fe2-477a-4189-8008-39c21f61550e"},"vehicle_type_id":"4","last_reported":1735027954,"current_range_meters":38000,"station_id":"ce4bghh2rcd13ifvqb60","pricing_plan_id":"cebpf4jnsgd1na2vs0mg"},{"bike_id":"36f06fa4-dbaf-4c6e-822c-51f0f8fb2bfa","system_id":"levelo_inurba_marseille","lat":43.30551,"lon":5.36691,"is_reserved":false,"is_disabled":false,"rental_uris":{"android":"levelo://app?vid=36f06fa4-dbaf-4c6e-822c-51f0f8fb2bfa","ios":"levelo://app?vid=36f06fa4-dbaf-4c6e-822c-51f0f8fb2bfa"},"vehicle_type_id":"4","last_reported":1735027954,"current_range_meters":36800,"station_id":"ce4bgrp2rcd13ifvqc9g","pricing_plan_id":"cebpf4jnsgd1na2vs0mg"},{"bike_id":"0f1e0fa6-5237-4f67-b177-ce610325d4bb","system_id":"levelo_inurba_marseille","lat":43.30207,"lon":5.39469,"is_reserved":false,"is_disabled":false,"rental_uris":{"android":"levelo://app?vid=0f1e0fa6-5237-4f67-b177-ce610325d4bb","ios":"levelo://app?vid=0f1e0fa6-5237-4f67-b177-ce610325d4bb"},"vehicle_type_id":"4","last_reported":1735027954,"current_range_meters":20000,"station_id":"ce4bh0p2rcd13ifvqd70","pricing_plan_id":"cebpf4jnsgd1na2vs0mg"},{"bike_id":"56e58d96-bec4-4e0d-b8b6-1d4267e03dc0","system_id":"levelo_inurba_marseille","lat":43.29251,"lon":5.40913,"is_reserved":false,"is_disabled":false,"rental_uris":{"android":"levelo://app?vid=56e58d96-bec4-4e0d-b8b6-1d4267e03dc0","ios":"levelo://app?vid=56e58d96-bec4-4e0d-b8b6-1d4267e03dc0"},"vehicle_type_id":"4","last_reported":1735027954,"current_range_meters":24400,"station_id":"ce4bh192rcd13ifvqdc0","pricing_plan_id":"cebpf4jnsgd1na2vs0mg"},{"bike_id":"feaff7ea-9012-4e28-a181-e7ef187f9c66","system_id":"levelo_inurba_marseille","lat":43.28472,"lon":5.38417,"is_reserved":false,"is_disabled":true,"rental_uris":{"android":"levelo://app?vid=feaff7ea-9012-4e28-a181-e7ef187f9c66","ios":"levelo://app?vid=feaff7ea-9012-4e28-a181-e7ef187f9c66"},"vehicle_type_id":"4","last_reported":1735027954,"current_range_meters":36800,"station_id":"ce4bh512rcd13ifvqe3g","pricing_plan_id":"cebpf4jnsgd1na2vs0mg"},{"bike_id":"f8448348-5574-4b47-abf3-6a6fdc140e6b","system_id":"levelo_inurba_marseille","lat":43.26027,"lon":5.37549,"is_reserved":false,"is_disabled":false,"rental_uris":{"android":"levelo://app?vid=f8448348-5574-4b47-abf3-6a6fdc140e6b","ios":"levelo://app?vid=f8448348-5574-4b47-abf3-6a6fdc140e6b"},"vehicle_type_id":"4","last_reported":1735027954,"current_range_meters":38800,"station_id":"ce4bhgh2rcd13ifvqfa0","pricing_plan_id":"cebpf4jnsgd1na2vs0mg"},{"bike_id":"864c8c07-623f-46e0-a84e-8c24a90096f0","system_id":"levelo_inurba_marseille","lat":43.30518,"lon":5.36543,"is_reserved":false,"is_disabled":false,"rental_uris":{"android":"levelo://app?vid=864c8c07-623f-46e0-a84e-8c24a90096f0","ios":"levelo://app?vid=864c8c07-623f-46e0-a84e-8c24a90096f0"},"vehicle_type_id":"4","last_reported":1735027954,"current_range_meters":26000,"station_id":"ce4bgs12rcd13ifvqcag","pricing_plan_id":"cebpf4jnsgd1na2vs0mg"},{"bike_id":"b39883aa-395d-4d08-9cc6-4d670bc95440","system_id":"levelo_inurba_marseille","lat":43.32361,"lon":5.3888,"is_reserved":false,"is_disabled":false,"rental_uris":{"android":"levelo://app?vid=b39883aa-395d-4d08-9cc6-4d670bc95440","ios":"levelo://app?vid=b39883aa-395d-4d08-9cc6-4d670bc95440"},"vehicle_type_id":"4","last_reported":1735027954,"current_range_meters":25600,"station_id":"ce4bhqp2rcd13ifvqhog","pricing_plan_id":"cebpf4jnsgd1na2vs0mg"},{"bike_id":"d34e2855-ab7a-45da-868c-3c8a5ee14d3c","system_id":"levelo_inurba_marseille","lat":43.27929,"lon":5.38748,"is_reserved":false,"is_disabled":false,"rental_uris":{"android":"levelo://app?vid=d34e2855-ab7a-45da-868c-3c8a5ee14d3c","ios":"levelo://app?vid=d34e2855-ab7a-45da-868c-3c8a5ee14d3c"},"vehicle_type_id":"4","last_reported":1735027954,"current_range_meters":37600,"station_id":"ce4bhg12rcd13ifvqf80","pricing_plan_id":"cebpf4jnsgd1na2vs0mg"},{"bike_id":"9333fb60-bc09-462a-931a-9a6010ca0e15","system_id":"levelo_inurba_marseille","lat":43.278958,"lon":5.380144,"is_reserved":false,"is_disabled":false,"rental_uris":{"android":"levelo://app?vid=9333fb60-bc09-462a-931a-9a6010ca0e15","ios":"levelo://app?vid=9333fb60-bc09-462a-931a-9a6010ca0e15"},"vehicle_type_id":"4","last_reported":1735027954,"current_range_meters":38000,"station_id":"ce4bhf92rcd13ifvqf50","pricing_plan_id":"cebpf4jnsgd1na2vs0mg"},{"bike_id":"bd5c44c7-47b4-49bb-b83d-2354ade11583","system_id":"levelo_inurba_marseille","lat":43.25116,"lon":5.40315,"is_reserved":false,"is_disabled":false,"rental_uris":{"android":"levelo://app?vid=bd5c44c7-47b4-49bb-b83d-2354ade11583","ios":"levelo://app?vid=bd5c44c7-47b4-49bb-b83d-2354ade11583"},"vehicle_type_id":"4","last_reported":1735027954,"current_range_meters":38800,"station_id":"ce4bhlh2rcd13ifvqgig","pricing_plan_id":"cebpf4jnsgd1na2vs0mg"},{"bike_id":"613071c9-7acc-47af-a4ae-56c048c26b56","system_id":"levelo_inurba_marseille","lat":43.30909,"lon":5.36857,"is_reserved":false,"is_disabled":false,"rental_uris":{"android":"levelo://app?vid=613071c9-7acc-47af-a4ae-56c048c26b56","ios":"levelo://app?vid=613071c9-7acc-47af-a4ae-56c048c26b56"},"vehicle_type_id":"4","last_reported":1735027954,"current_range_meters":10800,"station_id":"ce4bgn92rcd13ifvqbvg","pricing_plan_id":"cebpf4jnsgd1na2vs0mg"},{"bike_id":"3399abc2-d911-4fce-bece-6f8024b14fdc","system_id":"levelo_inurba_marseille","lat":43.27848,"lon":5.39208,"is_reserved":false,"is_disabled":true,"rental_uris":{"android":"levelo://app?vid=3399abc2-d911-4fce-bece-6f8024b14fdc","ios":"levelo://app?vid=3399abc2-d911-4fce-bece-6f8024b14fdc"},"vehicle_type_id":"4","last_reported":1735027954,"current_range_meters":800,"station_id":"ce4bhjp2rcd13ifvqga0","pricing_plan_id":"cebpf4jnsgd1na2vs0mg"},{"bike_id":"766845ea-dc5d-4857-8258-ce8e55fd055c","system_id":"levelo_inurba_marseille","lat":43.32052,"lon":5.41543,"is_reserved":false,"is_disabled":false,"rental_uris":{"android":"levelo://app?vid=766845ea-dc5d-4857-8258-ce8e55fd055c","ios":"levelo://app?vid=766845ea-dc5d-4857-8258-ce8e55fd055c"},"vehicle_type_id":"4","last_reported":1735027954,"current_range_meters":36800,"station_id":"ce4bhq92rcd13ifvqhkg","pricing_plan_id":"cebpf4jnsgd1na2vs0mg"},{"bike_id":"a2cf817f-e3e9-434c-adda-a4720935b9de","system_id":"levelo_inurba_marseille","lat":43.28933,"lon":5.39633,"is_reserved":false,"is_disabled":false,"rental_uris":{"android":"levelo://app?vid=a2cf817f-e3e9-434c-adda-a4720935b9de","ios":"levelo://app?vid=a2cf817f-e3e9-434c-adda-a4720935b9de"},"vehicle_type_id":"4","last_reported":1735027954,"current_range_meters":8800,"station_id":"ce4bh3h2rcd13ifvqdn0","pricing_plan_id":"cebpf4jnsgd1na2vs0mg"},{"bike_id":"52412d45-8da0-49c1-8d76-b20f4b30f21d","system_id":"levelo_inurba_marseille","lat":43.29696,"lon":5.36591,"is_reserved":false,"is_disabled":false,"rental_uris":{"android":"levelo://app?vid=52412d45-8da0-49c1-8d76-b20f4b30f21d","ios":"levelo://app?vid=52412d45-8da0-49c1-8d76-b20f4b30f21d"},"vehicle_type_id":"4","last_reported":1735027954,"current_range_meters":38000,"station_id":"ce4bgn12rcd13ifvqbt0","pricing_plan_id":"cebpf4jnsgd1na2vs0mg"},